time(ms)	gyro_x(deg/s)	gyro_y(deg/s)	gyro_z(deg/s)	orientation_roll(deg)	orientation_pitch(deg)	orientation_yaw(deg)	throttle	battery(V)	loop_time(uS)	pid_output_roll	pid_output_pitch	pid_output_yaw	pid_output_throttle	ultrasonic_alt	baro_alt	flight_mode	p_gain_altitude	i_gain_altitude	d_gain_altitude	compass_heading	latitude	longitude
3424858	-1141	494	-434	0.8006931	-1.405293	-61.78214	0	9.98	20010	31	-29	5	5	0.02	3.602963	8	10	0.05	2000	24.20554	40.92394	-91.39365
3424942	-642	814	-1264	0.389609	-2.381662	-61.36936	0	9.98	20032	31	-20	5	5	0.02	3.634823	8	10	0.05	2000	24.09401	40.92394	-91.39365
3425106	-176	391	357	-2.281554	-1.003328	-61.48018	0	9.64	20014	127	-20	5	5	0.02	3.717238	8	10	0.05	2000	21.12599	40.92394	-91.39364
3425211	-2622	946	-219	-4.122856	-1.66337	-62.42873	0	9.64	20032	128	-20	5	5	0.02	3.732121	8	10	0.05	2000	19.54546	40.92394	-91.39364
3425309	-103	214	-86	-4.449222	-2.337953	-62.42886	0	9.64	20031	101	-11	5	5	0.02	3.7599	8	10	0.05	2000	17.57307	40.92394	-91.39364
3425350	-405	-877	213	-3.151916	-1.633895	-62.50934	0	9.64	20027	154	-1	5	5	0.02	3.761778	8	10	0.05	2000	15.65251	40.92395	-91.39363
3425535	-3752	313	-748	-6.189188	-1.847229	-61.9533	0	9.64	20031	192	-1	5	5	0.02	3.747966	8	10	0.05	2000	12.90717	40.92395	-91.39362
3425558	-3752	313	-748	-6.189188	-1.847229	-61.9533	0	9.64	20031	192	-1	5	5	0.02	3.726352	8	10	0.05	2000	12.90717	40.92395	-91.39362
3425725	-3844	155	2155	-9.10762	-2.168827	-61.8422	0	9.64	20050	230	-1	5	5	0.02	3.660461	8	10	0.05	2000	7.782644	40.92395	-91.39362
3425824	-380	42	72	-11.99806	-2.262841	-62.05199	0	9.64	20009	186	-1	5	5	0.02	3.574408	8	10	0.05	2000	5.110581	40.92395	-91.39362
3425901	649	895	-871	-10.38356	-2.445717	-61.33488	0	9.64	20029	260	-1	5	5	0.02	3.515654	8	10	0.05	2000	3.230764	40.92395	-91.39362
3426010	-1518	40	-184	-13.11759	-4.330307	-60.95325	0	10.6	20026	216	-10	5	5	0.02	3.352278	8	10	0.05	2000	-3.470459	40.92395	-91.39362
3426135	-762	1304	-423	-13.88233	-4.034871	-60.50132	0	10.6	20009	226	-10	5	5	0.02	3.110068	8	10	0.05	2000	-9.299042	40.92395	-91.39361
3426237	-399	1515	88	-14.08083	-4.355491	-60.21848	0	10.6	20028	226	-10	5	5	0.02	2.904961	8	10	0.05	2000	-11.84799	40.92395	-91.39361
3426340	-4767	-781	156	-13.11907	-5.586349	-60.1182	0	10.6	20011	206	-10	5	5	0.02	2.729113	8	10	0.05	2000	-14.73547	40.92395	-91.3936
3426360	-4767	-781	156	-14.79854	-4.357434	-60.31167	0	10.6	20031	206	-10	5	5	0.02	2.729113	8	10	0.05	2000	-14.73547	40.92395	-91.3936
3426466	-2380	-675	698	-18.31071	1.571652	-62.17166	0	10.6	20023	227	0	5	5	0.02	2.557346	8	10	0.05	2000	-15.91751	40.92395	-91.3936
3426566	296	-730	-166	-17.47522	1.369767	-62.76772	0	10.6	20033	164	0	5	5	0.02	2.34356	8	10	0.05	2000	-18.28171	40.92395	-91.3936
3426666	4676	-435	642	-2.724941	0.8647923	-61.36761	0	10.6	20055	153	0	5	5	0.02	2.285831	8	10	0.05	2000	-20.0386	40.92395	-91.3936
3426868	1750	-968	-727	4.367744	1.386496	-61.60325	0	10.38	20028	99	0	5	5	0.02	2.090794	8	10	0.05	2000	-18.25781	40.92395	-91.3936
3426914	57	-1244	-197	4.833048	0.9722195	-61.5719	0	10.38	20066	99	0	5	5	0.02	2.074836	8	10	0.05	2000	-16.41013	40.92395	-91.3936
3426969	-2388	504	928	2.531096	1.53737	-61.70272	0	10.38	20031	-42	11	5	5	0.02	2.02953	8	10	0.05	2000	-14.17923	40.92395	-91.3936
3427110	3436	1898	-1502	3.269404	0.5857885	-60.5543	0	10.38	20030	-61	2	5	5	0.02	1.963776	8	10	0.05	2000	-12.32062	40.92395	-91.39362
3427170	3920	1494	435	5.296252	-0.1718664	-60.40603	0	10.38	20029	-125	12	5	5	0.02	1.933376	8	10	0.05	2000	-12.32062	40.92395	-91.39362
3427349	1759	-232	-406	12.37291	0.5044308	-60.92054	0	10.38	20006	-170	34	5	5	0.02	1.898222	8	10	0.05	2000	-6.073944	40.92395	-91.39362
3427439	89	-439	1220	11.67149	2.604206	-61.03722	0	10.38	20047	-170	34	5	5	0.02	1.903815	8	10	0.05	2000	-0.244873	40.92395	-91.39362
3427504	1523	-1106	504	9.785856	3.643717	-61.22906	0	10.38	20033	-213	34	5	5	0.02	1.925334	8	10	0.05	2000	4.154961	40.92395	-91.39362
3427593	3077	-49	-1029	10.9779	4.212673	-61.43548	0	10.38	20031	-213	34	5	5	0.02	1.955542	8	10	0.05	2000	6.313281	40.92395	-91.39362
3427658	2118	212	-1098	11.69454	3.717611	-61.34492	0	10.38	20010	-123	25	5	5	0.02	1.987623	8	10	0.05	2000	6.313281	40.92395	-91.39362
3427822	-4755	-1480	40	2.699725	0.7098451	-61.50703	0	10.04	20035	-101	27	5	5	0.02	2.079302	8	10	0.05	2000	14.55808	40.92395	-91.39362
3427860	-4755	-1480	40	2.699725	0.7098451	-61.50703	0	10.04	20035	-101	27	5	5	0.02	2.093385	8	10	0.05	2000	14.55808	40.92395	-91.39362
3427966	-3434	-832	1234	-7.325956	1.975623	-61.32436	0	10.04	20032	-122	37	5	5	0.02	2.175076	8	10	0.05	2000	13.89709	40.92395	-91.39363
3428139	2770	-527	912	-4.170824	-0.7138999	-61.31934	0	10.04	20019	-77	19	5	5	0.02	2.255826	8	10	0.05	2000	9.657423	40.92395	-91.39363
3428216	466	-339	116	-2.621377	0.1015777	-62.06842	0	10.04	20052	-41	19	5	5	0.02	2.290463	8	10	0.05	2000	12.21393	40.92395	-91.39363
3428265	230	-555	-483	-2.691005	0.07718811	-62.1523	0	10.04	20032	-41	19	5	5	0.02	2.33658	8	10	0.05	2000	12.21393	40.92395	-91.39363
3428387	1324	-277	-1745	-1.111152	0.5686334	-61.72746	0	10.04	20008	-14	10	5	5	0.02	2.380925	8	10	0.05	2000	12.29608	40.92395	-91.39363
3428498	-1	-735	-1048	0.45337	-1.251507	-61.09889	0	10.04	20056	-14	10	5	5	0.02	2.455719	8	10	0.05	2000	13.46611	40.92395	-91.39363
3428565	-689	539	1310	0.09066676	-1.418761	-61.36278	0	10.04	20033	3	1	5	5	0.02	2.468789	8	10	0.05	2000	13.82722	40.92395	-91.39363
3428669	-4066	-626	978	-5.355547	-2.437581	-61.70673	0	10.04	20055	14	1	5	5	0.02	2.556702	8	10	0.05	2000	14.75345	40.92395	-91.39363
3428780	-1439	781	666	-7.388892	-2.727708	-61.14036	0	10.83	20036	14	1	5	5	0.02	2.621694	8	10	0.05	2000	10.49512	40.92395	-91.39363
3428969	3615	2220	116	-10.40048	-4.484486	-61.39881	0	10.83	20028	35	-9	5	5	0.02	2.748147	8	10	0.05	2000	7.712576	40.92395	-91.39362
3429002	3495	1621	-124	-8.138122	-5.34448	-61.33733	0	10.83	20034	46	-19	5	5	0.02	2.748147	8	10	0.05	2000	6.175988	40.92395	-91.39362
3429123	-1010	-1495	491	-6.35035	-4.653718	-61.77395	0	10.83	20013	46	-19	5	5	0.02	2.840005	8	10	0.05	2000	3.730971	40.92395	-91.39362
3429229	687	-688	403	-5.637444	-1.896038	-61.99248	0	10.83	20057	57	-30	5	5	0.02	2.933518	8	10	0.05	2000	1.961375	40.92395	-91.39362
3429268	443	195	-559	-4.385142	-1.845715	-61.92237	0	10.83	20031	48	-30	5	5	0.02	2.933518	8	10	0.05	2000	0.8859971	40.92395	-91.39362
3429374	-1690	-478	-757	-4.577936	-1.557585	-62.03491	0	10.83	20012	58	-41	5	5	0.02	3.028325	8	10	0.05	2000	-0.2250671	40.92395	-91.39362
3429491	935	565	550	-6.389521	-1.079722	-62.01191	0	10.83	20061	40	-32	5	5	0.02	3.084415	8	10	0.05	2000	-1.132721	40.92395	-91.39362
3429607	-260	288	387	-4.971486	-1.782244	-61.83108	0	10.77	20058	40	-42	5	5	0.02	3.168517	8	10	0.05	2000	-1.777283	40.92395	-91.39362
3429635	-260	288	387	-4.833124	-1.98782	-61.90892	0	10.77	20058	31	-33	5	5	0.02	3.178679	8	10	0.05	2000	-1.777283	40.92395	-91.39362
3429770	457	121	-288	-4.863587	-2.404764	-61.86818	0	10.77	20005	0	0	5	5	0.02	3.225155	3	10	0.05	2000	-3.986633	40.92395	-91.39362
3429837	686	356	-392	-4.330752	-2.628566	-61.79066	0	10.77	20005	0	0	5	5	0.02	3.238791	3	10	0.05	2000	-3.379883	40.92395	-91.39362
3429954	785	197	223	-3.093012	-1.504097	-61.87197	0	10.77	20005	0	0	5	5	0.02	3.24735	3	10	0.05	2000	-2.584106	40.92395	-91.39362
3430049	418	173	27	-2.089907	-0.7359317	-61.98832	0	10.77	20005	0	0	5	5	0.02	3.24385	3	10	0.05	2000	-0.9474182	40.92395	-91.39362
3430144	579	1349	-240	-1.971211	-1.170662	-62.01098	0	10.77	20005	0	0	5	5	0.02	3.229994	3	10	0.05	2000	-0.09140015	40.92394	-91.39362
3430259	-415	-561	-496	-3.007026	-1.789056	-62.37951	0	10.77	20005	0	0	5	5	0.02	3.204914	3	10	0.05	2000	0.9632086	40.92394	-91.39362
3430375	2073	2718	-2158	-0.7362785	-1.860724	-61.69187	0	10.77	20005	0	0	5	5	0.02	3.151171	3	10	0.05	2000	-0.8842163	40.92394	-91.39362
3430450	314	569	-668	0.2083648	-3.175323	-60.7974	0	10.77	20005	0	0	5	5	0.02	3.112361	3	10	0.05	2000	-0.2967834	40.92394	-91.39362
3430554	-1290	1473	617	-0.6801787	-1.666447	-59.50682	0	10.83	20005	0	0	5	5	0.02	3.050528	3	10	0.05	2000	-2.686981	40.92394	-91.39362
3430713	823	-2831	-184	-1.03004	1.19126	-61.64784	0	10.83	20005	0	0	5	5	0.02	2.915531	3	10	0.05	2000	-0.9036255	40.92394	-91.39362
3430791	785	-1235	-834	-0.1347611	2.931009	-61.25363	0	10.83	20005	0	0	5	5	0.02	2.73857	3	10	0.05	2000	0.2769433	40.92394	-91.39362
3430947	-3345	-663	202	-4.008687	4.063053	-61.1099	0	10.83	20005	0	0	5	5	0.02	2.63361	3	10	0.05	2000	0.1568913	40.92394	-91.39362
3431003	627	710	-349	-5.37932	3.675459	-60.38907	0	10.83	20005	0	0	5	5	0.02	2.573705	3	10	0.05	2000	-1.335052	40.92394	-91.39362
3431101	-1367	1617	890	-5.272204	2.124048	-60.29076	0	10.83	20005	0	0	5	5	0.02	2.491592	3	10	0.05	2000	-1.304657	40.92394	-91.39362
3431154	1082	2572	-495	-5.476331	-0.1272435	-60.28246	0	10.83	20005	0	0	5	5	0.02	2.47139	3	10	0.05	2000	-2.873993	40.92394	-91.39362
3431258	-19	706	-832	-4.090985	-2.273039	-60.44648	0	10.83	20005	0	0	5	5	0.02	2.259118	3	10	0.05	2000	-3.180237	40.92394	-91.39362
3431395	-487	823	-930	-2.722803	-4.486128	-60.29244	0	10.83	20005	0	0	5	5	0.02	2.158846	3	10	0.05	2000	-4.285004	40.92394	-91.39362
3431526	1097	393	824	-2.71084	-1.573352	-61.01626	0	9.81	20005	0	0	5	5	0.02	1.944324	3	10	0.05	2000	-3.688019	40.92394	-91.39362
3431617	550	-4	874	-0.6594272	-0.3196656	-62.1925	0	9.81	20005	0	0	5	5	0.02	1.883718	3	10	0.05	2000	-2.069458	40.92393	86.103
3431653	-425	-1221	884	-0.7456703	0.08219817	-62.68931	0	9.81	20005	0	0	5	5	0.02	1.731628	3	10	0.05	2000	-2.069458	40.92393	86.103
3431752	1406	973	-936	-0.631855	-0.4417857	-61.56443	0	9.81	20005	0	0	5	5	0.02	1.679842	3	10	0.05	2000	-1.323395	40.92393	-91.39363
3431874	-316	1377	-94	-0.2491331	-1.459229	-59.98125	0	9.81	20005	0	0	5	5	0.02	1.553425	3	10	0.05	2000	-1.339172	40.92393	-91.39363
3431949	1128	-782	800	-0.445646	-2.380032	-59.83062	0	9.81	20005	0	0	5	5	0.02	1.500283	3	10	0.05	2000	-2.427856	40.92393	-91.39363
3432163	948	140	1209	0.1427173	0.6681895	-60.13064	0	9.81	20005	0	0	5	5	0.02	1.370695	3	10	0.05	2000	-2.911438	40.92394	-91.39363
3432325	-210	-1575	-663	0.3588506	1.115058	-61.11338	0	9.81	20005	0	0	5	5	0.02	1.268749	3	10	0.05	2000	1.204361	40.92394	-91.39363
3432372	-797	-1282	-83	-0.007962144	1.853798	-61.24505	0	10.32	20005	0	0	5	5	0.02	1.257381	3	10	0.05	2000	1.204361	40.92394	-91.39363
3432498	-753	547	-371	0.9614803	0.004970622	-61.26603	0	10.32	20005	0	0	5	5	0.02	1.215974	3	10	0.05	2000	2.913552	40.92394	-91.39363
3432576	-860	425	864	-0.5972961	-0.346545	-61.50949	0	10.32	20005	0	0	5	5	0.02	1.176089	3	10	0.05	2000	3.522993	40.92394	-91.39363
3432664	187	-84	-909	-0.7948996	-1.730158	-61.46902	0	10.32	20005	0	0	5	5	0.02	1.149632	3	10	0.05	2000	3.963216	40.92394	-91.39363
3432762	-2033	-2051	-1091	-2.746575	-0.7021763	-61.48347	0	10.32	20005	0	0	5	5	0.02	1.129914	3	10	0.05	2000	4.378318	40.92394	-91.39363
3432919	163	1335	-396	-3.103064	-0.8251113	-61.60476	0	10.32	20005	0	0	5	5	0.02	1.105097	3	10	0.05	2000	4.179494	40.92394	-91.39363
3432986	153	41	77	-3.180745	-3.334651	-61.55725	0	10.32	20005	0	0	5	5	0.02	1.081911	3	10	0.05	2000	3.765823	40.92394	-91.39363
3433118	-1602	782	-412	-5.19503	-2.678746	-61.71215	0	10.32	20005	0	0	5	5	0.02	1.06255	3	10	0.05	2000	1.921849	40.92394	-91.39363
3433170	85	885	277	-5.811062	-3.481574	-61.59796	0	10.32	20005	0	0	5	5	0.02	1.035681	3	10	0.05	2000	3.171392	40.92394	-91.39363
3433328	2142	613	-1285	-2.793874	-4.33815	-60.48643	0	10.89	20005	0	0	5	5	0.02	1.020714	3	10	0.05	2000	0.2204655	40.92394	-91.39363
3433418	2558	4269	2841	-2.672672	-8.485786	-59.69854	0	10.89	20005	0	0	5	5	0.02	1.006567	3	10	0.05	2000	1.751996	40.92394	-91.39363
3433504	-1979	-784	447	-4.092072	-10.40885	-60.78106	0	10.89	20005	0	0	5	5	0.02	0.9942976	3	10	0.05	2000	1.613625	40.92394	-91.39363
3433607	-444	79	-100	-3.953074	-4.737152	-60.35418	0	10.89	20005	0	0	5	5	0.02	0.9633466	3	10	0.05	2000	1.529985	40.92394	-91.39363
3433717	-84	-141	57	-3.757935	-4.874167	-60.24506	0	10.89	20005	0	0	5	5	0.02	0.9220884	1	10	0.05	2000	1.237543	40.92394	-91.39363
3433757	-57	-19	-57	-3.6768	-4.793491	-60.23797	0	10.89	20005	0	0	5	5	0.02	0.9030613	1	10	0.05	2000	0.8783948	40.92395	-91.39363
3433905	-39	-9	-72	-3.377736	-4.461045	-60.27067	0	10.89	20005	0	0	5	5	0.02	0.8337465	1	10	0.05	2000	0.5871378	40.92394	-91.39363
3434039	-2	-18	4	-3.168088	-4.254217	-60.29359	0	10.89	20005	0	0	5	5	0.02	0.7653932	1	10	0.05	2000	0.4632827	40.92394	-91.39363
3434087	-40	-6	-2	-3.07609	-4.154348	-60.30649	0	10.89	20005	0	0	5	5	0.02	0.7451937	1	10	0.05	2000	1.144503	40.92395	-91.39363
3434213	-2	14	-19	-2.973545	-4.024992	-60.32288	0	10.94	20005	0	0	5	5	0.02	0.6886643	1	10	0.05	2000	0.1681949	40.92395	-91.39363
3434278	-28	3	13	-2.863311	-3.910196	-60.34031	0	10.94	20005	0	0	5	5	0.02	0.666059	1	10	0.05	2000	-0.2817078	40.92395	-91.39363
3434397	-49	-10	-63	-2.775597	-3.810702	-60.35582	0	10.94	20005	0	0	5	5	0.02	0.6253701	1	10	0.05	2000	-0.3583374	40.92395	-91.39363
3434429	-59	-30	-33	-2.75778	-3.780624	-60.35809	0	10.94	20005	0	0	5	5	0.02	0.6192651	1	10	0.05	2000	0.4054773	40.92395	-91.39363
3434517	-37	-1	21	-2.650607	-3.684111	-60.38536	0	10.94	20005	0	0	5	5	0.02	0.5902545	1	10	0.05	2000	0.1185654	40.92395	-91.39363
3434623	-43	6	49	-2.605557	-3.64157	-60.39764	0	10.94	20005	0	0	5	5	0.02	0.5576762	1	10	0.05	2000	0.3403421	40.92395	-91.39363
3434715	-39	-5	2	-2.532295	-3.568048	-60.42007	0	10.94	20005	0	0	5	5	0.02	0.5341698	1	10	0.05	2000	0.2360866	40.92395	-91.39363
3434831	-32	12	7	-2.494425	-3.534705	-60.43407	0	10.94	20005	0	0	5	5	0.02	0.4950598	1	10	0.05	2000	-0.3938599	40.92395	-91.39363
3434949	-39	-15	-9	-2.413609	-3.468135	-60.46095	0	10.94	20005	0	0	5	5	0.02	0.460651	1	10	0.05	2000	-0.2428894	40.92395	-91.39363
3435071	-29	-7	-2	-2.376754	-3.436783	-60.47543	0	11	20005	0	0	5	5	0.02	0.4374111	1	10	0.05	2000	-0.7097778	40.92395	-91.39363
3435111	-30	9	17	-2.354469	-3.417614	-60.48729	0	11	20005	0	0	5	5	0.02	0.4263151	1	10	0.05	2000	-0.5288391	40.92395	-91.39363
3435233	-32	3	4	-2.333341	-3.389116	-60.50134	0	11	20005	0	0	5	5	0.02	0.3950639	1	10	0.05	2000	-0.347168	40.92395	-91.39363
3435316	-37	1	14	-2.314416	-3.372695	-60.51123	0	11	20005	0	0	5	5	0.02	0.3781667	1	10	0.05	2000	-0.789856	40.92395	-91.39363
3435418	-32	1	9	-2.281008	-3.346041	-60.53326	0	11	20005	0	0	5	5	0.02	0.3571395	1	10	0.05	2000	-0.6358643	40.92395	-91.39363
3435510	-28	-1	5	-2.268664	-3.328724	-60.54437	0	11	20005	0	0	5	5	0.02	0.3480111	1	10	0.05	2000	-0.6482239	40.92395	-91.39363
3435673	-31	1	11	-2.227591	-3.293027	-60.57777	0	11	20005	0	0	5	5	0.02	0.3382132	1	10	0.05	2000	-0.7107849	40.92395	-91.39363
3435711	-42	2	7	-2.226497	-3.289824	-60.58259	0	11	20005	0	0	5	5	0.02	0.3315506	1	10	0.05	2000	-0.7107849	40.92394	-91.39363
3435831	-25	2	10	-2.205909	-3.271494	-60.59669	0	11	20005	0	0	5	5	0.02	0.328349	1	10	0.05	2000	-0.7408142	40.92394	-91.39363
3435911	-29	6	7	-2.19232	-3.266801	-60.60963	0	11	20005	0	0	5	5	0.02	0.3213177	1	10	0.05	2000	-0.9662476	40.92394	-91.39362
3436014	-31	2	9	-2.182703	-3.262834	-60.62055	0	11.06	20005	0	0	5	5	0.02	0.3197817	1	10	0.05	2000	-0.9916992	40.92394	-91.39362
3436165	-23	1	12	-2.174974	-3.240997	-60.64027	0	11.06	20005	0	0	5	5	0.02	0.3228747	1	10	0.05	2000	-0.7936401	40.92394	-91.39362
3436219	-21	0	10	-2.167184	-3.241819	-60.64521	0	11.06	20005	0	0	5	5	0.02	0.323707	1	10	0.05	2000	-0.7936401	40.92394	-91.39362
3436331	-25	-1	12	-2.158729	-3.236438	-60.67036	0	11.06	20005	0	0	5	5	0.02	0.3178672	1	10	0.05	2000	-1.026215	40.92394	-91.39362
3436447	-34	0	7	-2.153379	-3.231119	-60.68427	0	11.06	20005	0	0	5	5	0.02	0.316483	1	10	0.05	2000	-1.046448	40.92394	-91.39362
3436517	-36	1	8	-2.144991	-3.226143	-60.69245	0	11.06	20005	0	0	5	5	0.02	0.3153935	1	10	0.05	2000	-1.26825	40.92394	-91.39362
3436685	-782	175	203	-2.3966	-4.008627	-60.63706	0	11.06	20005	0	0	5	5	0.02	0.3252988	1	10	0.05	2000	-0.7244568	40.92394	-91.39362
3436771	-1459	-3437	1201	-3.928751	-1.900416	-61.3534	0	11.06	20005	0	0	5	5	0.02	0.3436765	1	10	0.05	2000	-0.880127	40.92394	-91.39362
3436884	128	-1549	-691	-4.532845	1.69175	-62.24944	0	11.06	20005	0	0	5	5	0.02	0.3608803	1	10	0.05	2000	0.7833411	40.92394	-91.39362
3436963	-760	-2529	-2106	-4.620558	5.398477	-60.56885	0	11.06	20005	0	0	5	5	0.02	0.3806407	1	10	0.05	2000	0.6637709	40.92394	-91.39362
3437018	-941	-1462	-2526	-4.832809	6.830832	-59.2579	0	11.06	20005	0	0	5	5	0.02	0.3856956	1	10	0.05	2000	0.6637709	40.92394	-91.39362
3437151	-1609	-925	-2236	-4.623854	10.28194	-52.24173	0	11.06	20005	0	0	5	5	0.02	0.4179437	1	10	0.05	2000	-6.06839	40.92394	-91.39362
3437267	-1215	-2551	-1993	-5.467442	16.43611	-47.95998	0	11.06	20005	0	0	5	5	0.02	0.4626549	1	10	0.05	2000	-11.1554	40.92395	-91.39363
3437373	928	-2302	-2107	-3.564669	21.56437	-44.50463	0	11.06	20005	0	0	5	5	0.02	0.5179265	1	10	0.05	2000	-14.15567	40.92395	-91.39363
3437449	1718	-1648	-1169	-1.054994	23.32348	-42.7533	0	11.06	20005	0	0	5	5	0.02	0.5423189	1	10	0.05	2000	-16.57587	40.92395	-91.39363
3437508	3015	910	670	3.52237	22.2417	-42.2139	0	11.06	20005	0	0	5	5	0.02	0.595759	1	10	0.05	2000	-18.83167	40.92395	-91.39363
3437665	1440	1447	3002	5.38789	18.95459	-46.48418	0	11.06	20005	0	0	5	5	0.02	0.6803192	1	10	0.05	2000	-16.6413	40.92395	-91.39363
3437822	441	2844	2517	4.046556	9.880336	-54.24497	0	11.06	20005	0	0	5	5	0.02	0.7347674	1	10	0.05	2000	-4.895203	40.92395	-91.39363
3437977	-378	2251	954	0.5902935	5.525964	-58.87239	0	11.06	20005	0	0	5	5	0.02	0.7428037	1	10	0.05	2000	1.597396	40.92396	-91.39364
3438064	-1504	213	-351	-1.464824	2.36493	-59.17287	0	11.06	20005	0	0	5	5	0.02	0.7386168	1	10	0.05	2000	2.902801	40.92396	-91.39364
3438146	-1768	1259	-472	-3.516852	1.101744	-58.6856	0	11.06	20005	0	0	5	5	0.02	0.7245579	1	10	0.05	2000	3.196997	40.92396	-91.39364
3438246	-862	725	-110	-1.667705	-3.878121	-58.4814	0	11.06	20005	0	0	5	5	0.02	0.7119148	1	10	0.05	2000	1.169786	40.92396	-91.39364
3438316	1235	-1257	237	-1.464923	-3.061926	-58.45156	0	11.06	20005	0	0	5	5	0.02	0.7036164	1	10	0.05	2000	1.153618	40.92396	-91.39364
3438425	-1384	920	3070	-1.967128	-3.032834	-60.39676	0	11.06	20005	0	0	5	5	0.02	0.6767161	1	10	0.05	2000	2.208944	40.92396	-91.39364
3438535	-59	-182	-26	-0.8251927	-2.112331	-62.58479	0	11.06	20005	0	0	5	5	0.02	0.6578522	1	10	0.05	2000	2.96785	40.92396	-91.39364
3438623	-163	156	126	-0.855826	-1.910412	-62.64806	0	11.06	20005	0	0	5	5	0.02	0.6433266	1	10	0.05	2000	3.040586	40.92396	-91.39364
3438750	46	-63	1	-0.9545693	-1.857064	-62.67171	0	11.06	20005	0	0	5	5	0.02	0.6253627	1	10	0.05	2000	2.979558	40.92396	-91.39364
3438826	-1	-23	-25	-0.786962	-1.485636	-62.66951	0	11.06	20005	0	0	5	5	0.02	0.6120619	1	10	0.05	2000	2.997694	40.92396	-91.39364
3438987	-87	69	0	-0.818029	-1.375492	-62.69084	0	11.06	20005	0	0	5	5	0.02	0.5733985	1	10	0.05	2000	2.69406	40.92396	-91.39364
3439072	2	-31	3	-0.7429159	-1.176404	-62.70459	0	11.06	20005	0	0	5	5	0.02	0.5390234	1	10	0.05	2000	2.497796	40.92396	-91.39364
3439152	-34	40	3	-0.7132909	-1.082819	-62.71302	0	11.06	20005	0	0	5	5	0.02	0.5239457	1	10	0.05	2000	2.598063	40.92396	-91.39364
3439312	-38	18	2	-0.6628973	-0.931637	-62.72261	0	11.06	20005	0	0	5	5	0.02	0.5069731	1	10	0.05	2000	2.46565	40.92396	-91.39364
3439410	-15	-14	10	-0.6504011	-0.8530019	-62.73299	0	11.06	20005	0	0	5	5	0.02	0.4974961	1	10	0.05	2000	2.482571	40.92396	-91.39364
3439483	-24	-6	8	-0.6465733	-0.8122982	-62.73934	0	11.06	20005	0	0	5	5	0.02	0.4945506	1	10	0.05	2000	2.43222	40.92396	-91.39364
3439553	-37	11	8	-0.6193492	-0.7478141	-62.74666	0	11.06	20005	0	0	5	5	0.02	0.4937741	1	10	0.05	2000	2.411617	40.92396	-91.39364
3439717	-36	8	5	-0.5828544	-0.6499746	-62.7643	0	11.11	20005	0	0	5	5	0.02	0.4960994	1	10	0.05	2000	2.348921	40.92396	-91.39364
3439767	-21	-4	6	-0.5785019	-0.6118791	-62.7715	0	11.11	20005	0	0	5	5	0.02	0.4985294	1	10	0.05	2000	2.328294	40.92396	-91.39364
3439850	-25	-8	7	-0.5702581	-0.5772551	-62.77932	0	11.11	20005	0	0	5	5	0.02	0.5005384	1	10	0.05	2000	2.31655	40.92396	-91.39364
3439949	-21	7	3	-0.5555407	-0.5105551	-62.79512	0	11.11	20005	0	0	5	5	0.02	0.500907	1	10	0.05	2000	2.292455	40.92396	-91.39364
3440056	-22	1	6	-0.5414029	-0.4757141	-62.80404	0	11.11	20005	0	0	5	5	0.02	0.4981327	1	10	0.05	2000	2.256892	40.92396	-91.39364
3440160	-26	1	8	-0.5290878	-0.435591	-62.81881	0	11.11	20005	0	0	5	5	0.02	0.4929609	1	10	0.05	2000	2.250038	40.92396	-91.39364
3440206	-27	-5	7	-0.5233611	-0.4274717	-62.82283	0	11.11	20005	0	0	5	5	0.02	0.4908512	1	10	0.05	2000	2.236596	40.92396	-91.39364
3440312	-22	0	5	-0.5169118	-0.3984948	-62.83236	0	11.11	20005	0	0	5	5	0.02	0.4916111	1	10	0.05	2000	2.226848	40.92396	-91.39364
3440456	-25	-4	1	-0.4998441	-0.3543665	-62.84414	0	11.11	20005	0	0	5	5	0.02	0.4913981	1	10	0.05	2000	2.192632	40.92396	-91.39364
3440568	-27	-6	7	-0.4968882	-0.3393879	-62.85488	0	11.06	20005	0	0	5	5	0.02	0.4871082	1	10	0.05	2000	2.19251	40.92396	-91.39364
3440683	-28	0	2	-0.4877466	-0.3342737	-62.8705	0	11.06	20005	0	0	5	5	0.02	0.4925595	1	10	0.05	2000	2.168346	40.92396	-91.39364
3440773	-23	-1	11	-0.4827649	-0.3237133	-62.87703	0	11.06	20005	0	0	5	5	0.02	0.492272	1	10	0.05	2000	2.176186	40.92396	-91.39364
3440867	-30	6	-1	-0.4715293	-0.3154005	-62.88808	0	11.06	20005	0	0	5	5	0.02	0.4972047	1	10	0.05	2000	2.167438	40.92396	-91.39364
3440905	-19	3	3	-0.4669051	-0.312476	-62.89058	0	11.06	20005	0	0	5	5	0.02	0.5007161	1	10	0.05	2000	2.148041	40.92396	-91.39364
3441016	-20	-7	7	-0.465712	-0.2927397	-62.90438	0	11.06	20005	0	0	5	5	0.02	0.5095569	1	10	0.05	2000	1.935832	40.92396	-91.39364
3441089	-32	0	4	-0.4634633	-0.2839499	-62.91158	0	11.06	20005	0	0	5	5	0.02	0.5137667	1	10	0.05	2000	2.132191	40.92396	-91.39364
3441191	-25	-2	13	-0.4588465	-0.2692721	-62.92556	0	11.06	20005	0	0	5	5	0.02	0.5253421	1	10	0.05	2000	2.136377	40.92396	-91.39364
3441299	-27	1	5	-0.4617101	-0.2642626	-62.93526	0	11.06	20005	0	0	5	5	0.02	0.5499681	1	10	0.05	2000	2.140743	40.92396	-91.39364
3441439	-27	0	5	-0.4487757	-0.2570134	-62.95058	0	11.06	20005	0	0	5	5	0.02	0.5613078	1	10	0.05	2000	2.33899	40.92396	-91.39364
3441533	-21	-3	5	-0.4410137	-0.2474325	-62.95809	0	11.06	20005	0	0	5	5	0.02	0.5611054	1	10	0.05	2000	2.107541	40.92396	-91.39364
3441586	-31	-2	9	-0.4469033	-0.2476422	-62.96169	0	11.06	20005	0	0	5	5	0.02	0.5633496	1	10	0.05	2000	2.107289	40.92396	-91.39364
3441736	-25	3	6	-0.4423577	-0.246511	-62.97823	0	11.06	20005	0	0	5	5	0.02	0.5713478	1	10	0.05	2000	2.106168	40.92396	-91.39364
3441851	-33	10	6	-0.4332089	-0.2382843	-62.98891	0	11.06	20005	0	0	5	5	0.02	0.5772578	1	10	0.05	2000	2.100435	40.92396	-91.39364
3441892	-23	2	7	-0.4383905	-0.2386457	-62.99532	0	11.06	20005	0	0	5	5	0.02	0.5771139	1	10	0.05	2000	2.099211	40.92396	-91.39364
3441981	-26	-3	7	-0.4376835	-0.2367205	-63.00606	0	11.06	20005	0	0	5	5	0.02	0.5697728	1	10	0.05	2000	2.104372	40.92396	-91.39364
3442183	-27	3	8	-0.4467507	-0.2245279	-63.02364	0	11.06	20005	0	0	5	5	0.02	0.5573238	1	10	0.05	2000	2.109127	40.92396	-91.39364
3442211	-21	0	5	-0.4416188	-0.2266296	-63.027	0	11.06	20005	0	0	5	5	0.02	0.5464522	1	10	0.05	2000	2.109127	40.92396	-91.39364
3442282	-22	1	7	-0.4426925	-0.2284437	-63.02944	0	11.06	20005	0	0	5	5	0.02	0.5369659	1	10	0.05	2000	2.103587	40.92396	-91.39364
3442386	-30	1	4	-0.4334655	-0.2253022	-63.0389	0	11.06	20005	0	0	5	5	0.02	0.5227546	1	10	0.05	2000	2.096272	40.92396	-91.39364
3442509	-19	0	6	-0.4246441	-0.204542	-63.05288	0	11.06	20005	0	0	5	5	0.02	0.5117033	1	10	0.05	2000	2.07817	40.92396	-91.39364
3442599	-20	0	6	-0.4266715	-0.2039011	-63.06002	0	11.06	20005	0	0	5	5	0.02	0.5106382	1	10	0.05	2000	2.077945	40.92396	-91.39364
3442739	-19	-1	7	-0.4087911	-0.2051789	-63.07241	0	11.06	20005	0	0	5	5	0.02	0.5074492	1	10	0.05	2000	2.063346	40.92396	-91.39364
3442818	-22	3	4	-0.4039692	-0.2030114	-63.08175	0	11.06	20005	0	0	5	5	0.02	0.5058309	1	10	0.05	2000	2.04711	40.92396	-91.39364
3442913	-21	4	6	-0.4092248	-0.2160225	-63.09017	0	11.06	20005	0	0	5	5	0.02	0.5047632	1	10	0.05	2000	2.053584	40.92396	-91.39364
3442965	-23	-2	3	-0.3975032	-0.2109541	-63.09444	0	11.06	20005	0	0	5	5	0.02	0.5049751	1	10	0.05	2000	2.049232	40.92396	-91.39364
3443083	-30	7	4	-0.3951875	-0.2137407	-63.1064	0	11.06	20005	0	0	5	5	0.02	0.5092822	1	10	0.05	2000	2.253712	40.92396	-91.39364
3443205	-23	-1	5	-0.3836071	-0.2176926	-63.11379	0	11.06	20005	0	0	5	5	0.02	0.5072712	1	10	0.05	2000	2.041361	40.92396	-91.39364
3443266	-19	0	5	-0.3799589	-0.2159176	-63.11959	0	11.11	20005	0	0	5	5	0.02	0.5056748	1	10	0.05	2000	2.021513	40.92396	-91.39364
3443440	-21	-1	8	-0.377116	-0.2203636	-63.13338	0	11.11	20005	0	0	5	5	0.02	0.5040029	1	10	0.05	2000	2.009912	40.92396	-91.39364
3443567	-18	0	1	-0.3750373	-0.2122409	-63.14406	0	11.11	20005	0	0	5	5	0.02	0.5116118	1	10	0.05	2000	2.014115	40.92396	-91.39364
3443596	-16	-4	8	-0.3738651	-0.2122336	-63.14656	0	11.11	20005	0	0	5	5	0.02	0.5116233	1	10	0.05	2000	2.014115	40.92396	-91.39364
3443699	-16	-1	9	-0.3856288	-0.2159268	-63.15883	0	11.11	20005	0	0	5	5	0.02	0.5111365	1	10	0.05	2000	2.022093	40.92396	-91.39364
3443850	-24	-2	7	-0.3794447	-0.2202997	-63.16817	0	11.11	20005	0	0	5	5	0.02	0.5141432	1	10	0.05	2000	2.022861	40.92396	-91.39364
3443904	-16	-7	8	-0.3688733	-0.2024648	-63.1747	0	11.11	20005	0	0	5	5	0.02	0.5197009	1	10	0.05	2000	1.808765	40.92396	-91.39364
3443979	-19	2	5	-0.3754231	-0.2089033	-63.18123	0	11.11	20005	0	0	5	5	0.02	0.5268337	1	10	0.05	2000	2.000325	40.92396	-91.39364
3444067	-28	0	6	-0.3621892	-0.2029567	-63.18856	0	11.11	20005	0	0	5	5	0.02	0.5376779	1	10	0.05	2000	1.996843	40.92397	-91.39364
3444096	-17	-3	3	-0.3749608	-0.222302	-63.2015	0	11.11	20005	0	0	5	5	0.02	0.5452309	1	10	0.05	2000	2.00299	40.92397	-91.39364
3444196	-21	4	7	-0.3885037	-0.2233218	-63.20675	0	11.11	20005	0	0	5	5	0.02	0.5500675	1	10	0.05	2000	2.021181	40.92397	-91.39364
3444293	-18	1	3	-0.3936106	-0.2291235	-63.21535	0	11.11	20005	0	0	5	5	0.02	0.5547464	1	10	0.05	2000	2.034593	40.92397	-91.39364
3444378	-22	3	5	-0.3835563	-0.2173949	-63.22158	0	11.11	20005	0	0	5	5	0.02	0.5637919	1	10	0.05	2000	2.032326	40.92397	-91.39364
3444459	-16	1	7	-0.3860208	-0.2091619	-63.22676	0	11.11	20005	0	0	5	5	0.02	0.5689183	1	10	0.05	2000	2.008415	40.92397	-91.39364
3444565	-25	-6	8	-0.3749471	-0.2060594	-63.23476	0	11.11	20005	0	0	5	5	0.02	0.5786636	1	10	0.05	2000	2.010542	40.92397	-91.39364
3444669	-18	-1	9	-0.3749046	-0.2128871	-63.24453	0	11.11	20005	0	0	5	5	0.02	0.5808243	1	10	0.05	2000	2.021706	40.92397	-91.39364
3444767	-17	0	5	-0.3716175	-0.2120021	-63.2524	0	11.11	20005	0	0	5	5	0.02	0.5798841	1	10	0.05	2000	2.00654	40.92397	-91.39364
3444874	-12	1	7	-0.3748516	-0.212518	-63.25765	0	11.11	20005	0	0	5	5	0.02	0.5732783	1	10	0.05	2000	2.020125	40.92397	-91.39364
3444993	-21	-2	7	-0.3753918	-0.2155073	-63.26613	0	11.11	20005	0	0	5	5	0.02	0.5610366	1	10	0.05	2000	2.016139	40.92397	-91.39364
3445092	-25	-9	4	-0.3634524	-0.2152119	-63.27187	0	11.11	20005	0	0	5	5	0.02	0.5571128	1	10	0.05	2000	1.991036	40.92397	-91.39364
3445169	-24	1	6	-0.3655727	-0.1980836	-63.27895	0	11.11	20005	0	0	5	5	0.02	0.5524148	1	10	0.05	2000	1.989834	40.92397	-91.39364
3445320	-15	2	11	-0.3592437	-0.2086195	-63.28994	0	11.11	20005	0	0	5	5	0.02	0.5549745	1	10	0.05	2000	1.992694	40.92397	-91.39364
3445376	-22	0	4	-0.3598564	-0.2108397	-63.29543	0	11.11	20005	0	0	5	5	0.02	0.5577217	1	10	0.05	2000	2.198217	40.92397	-91.39364
3445477	-14	0	2	-0.3560328	-0.2105201	-63.30214	0	11.11	20005	0	0	5	5	0.02	0.5610655	1	10	0.05	2000	1.978033	40.92397	-91.39364
3445599	-25	3	4	-0.3444348	-0.2064383	-63.30806	0	11.11	20005	0	0	5	5	0.02	0.5632659	1	10	0.05	2000	1.984626	40.92397	-91.39364
3445722	-22	-1	5	-0.3464411	-0.2164835	-63.31807	0	11.11	20005	0	0	5	5	0.02	0.5662409	1	10	0.05	2000	1.970687	40.92397	-91.39364
3445788	-16	0	2	-0.3487816	-0.2172236	-63.32454	0	11.11	20005	0	0	5	5	0.02	0.5673892	1	10	0.05	2000	1.98609	40.92397	-91.39364
3445891	-15	-1	5	-0.3451009	-0.2218015	-63.33028	0	11.11	20005	0	0	5	5	0.02	0.5713957	1	10	0.05	2000	1.988414	40.92397	-91.39364
3446041	-17	1	2	-0.3342036	-0.2147824	-63.33858	0	11.06	20005	0	0	5	5	0.02	0.571205	1	10	0.05	2000	2.181217	40.92397	-91.39364
3446090	-22	0	3	-0.3301944	-0.2133344	-63.34224	0	11.06	20005	0	0	5	5	0.02	0.5704909	1	10	0.05	2000	1.950066	40.92397	-91.39364
3446221	-11	-1	2	-0.3217397	-0.2193205	-63.35408	0	11.06	20005	0	0	5	5	0.02	0.5647467	1	10	0.05	2000	1.935191	40.92397	-91.39364
3446312	-14	-2	1	-0.3170213	-0.2208429	-63.3586	0	11.06	20005	0	0	5	5	0.02	0.5618266	1	10	0.05	2000	1.928058	40.92397	-91.39364
3446397	-15	4	7	-0.3186719	-0.2242157	-63.36452	0	11.06	20005	0	0	5	5	0.02	0.5596656	1	10	0.05	2000	1.937125	40.92397	-91.39364
3446504	-16	-2	2	-0.3133075	-0.2251951	-63.37069	0	11.06	20005	0	0	5	5	0.02	0.564242	1	10	0.05	2000	1.93176	40.92397	-91.39364
3446599	-23	6	6	-0.313005	-0.2275441	-63.37996	0	11.06	20005	0	0	5	5	0.02	0.5725641	1	10	0.05	2000	1.921184	40.92397	-91.39364
3446750	-11	-6	6	-0.3251985	-0.2337081	-63.38698	0	11.06	20005	0	0	5	5	0.02	0.5858164	1	10	0.05	2000	2.152203	40.92397	-91.39364
3446839	-16	0	4	-0.3315665	-0.2353381	-63.3973	0	11.11	20005	0	0	5	5	0.02	0.5892106	1	10	0.05	2000	2.147808	40.92397	-91.39364
3446904	-19	3	2	-0.3253275	-0.2299788	-63.39894	0	11.11	20005	0	0	5	5	0.02	0.5926983	1	10	0.05	2000	2.147808	40.92397	-91.39364
3447006	-22	0	5	-0.3188525	-0.2263466	-63.40883	0	11.11	20005	0	0	5	5	0.02	0.5917429	1	10	0.05	2000	1.917778	40.92397	-91.39364
3447118	-18	0	3	-0.3197113	-0.2239001	-63.41573	0	11.11	20005	0	0	5	5	0.02	0.5866954	1	10	0.05	2000	1.930041	40.92397	-91.39364
3447260	-15	2	5	-0.3271611	-0.2248268	-63.42147	0	11.11	20005	0	0	5	5	0.02	0.5845879	1	10	0.05	2000	1.937629	40.92397	-91.39364
3447329	-16	6	8	-0.3290927	-0.2178665	-63.43111	0	11.11	20005	0	0	5	5	0.02	0.5830661	1	10	0.05	2000	1.947151	40.92397	-91.39364
3447414	-20	-2	8	-0.3153401	-0.2055436	-63.43996	0	11.11	20005	0	0	5	5	0.02	0.5802506	1	10	0.05	2000	1.930246	40.92397	-91.39364
3447578	-13	-1	-1	-0.3243314	-0.2132005	-63.45107	0	11.11	20005	0	0	5	5	0.02	0.5828896	1	10	0.05	2000	1.922246	40.92397	-91.39364
3447678	-10	-3	9	-0.3240148	-0.2229333	-63.4565	0	11.11	20005	0	0	5	5	0.02	0.5837835	1	10	0.05	2000	1.943983	40.92397	-91.39364
3447721	-11	-2	1	-0.3267907	-0.2390471	-63.46181	0	11.11	20005	0	0	5	5	0.02	0.587216	1	10	0.05	2000	1.951962	40.92397	-91.39364
3447866	-16	4	0	-0.3062912	-0.2434138	-63.4695	0	11.06	20005	0	0	5	5	0.02	0.6000382	1	10	0.05	2000	1.922697	40.92397	-91.39364
3448009	-15	0	5	-0.2977884	-0.2307217	-63.48067	0	11.06	20005	0	0	5	5	0.02	0.6193601	1	10	0.05	2000	1.919807	40.92397	-91.39364
3448058	-16	0	2	-0.2955478	-0.2328838	-63.48281	0	11.06	20005	0	0	5	5	0.02	0.6284623	1	10	0.05	2000	1.919807	40.92397	-91.39364
3448193	-7	2	4	-0.2931142	-0.2332786	-63.49434	0	11.06	20005	0	0	5	5	0.02	0.6375721	1	10	0.05	2000	1.895366	40.92397	-91.39364
3448293	-9	2	2	-0.2949911	-0.2477677	-63.5024	0	11.06	20005	0	0	5	5	0.02	0.6456944	1	10	0.05	2000	2.109473	40.92397	-91.39364
3448508	-13	6	5	-0.2880737	-0.237296	-63.52028	0	11.06	20005	0	0	5	5	0.02	0.6333846	1	10	0.05	2000	1.895753	40.92397	-91.39364
3448666	-17	-1	2	-0.3082983	-0.2520839	-63.5284	0	11.11	20005	0	0	5	5	0.02	0.6189491	1	10	0.05	2000	1.905166	40.92397	-91.39364
3448746	-19	0	2	-0.2983162	-0.2448576	-63.53493	0	11.11	20005	0	0	5	5	0.02	0.6123019	1	10	0.05	2000	1.908444	40.92397	-91.39364
3448857	-21	-4	5	-0.2954038	-0.2437125	-63.54042	0	11.11	20005	0	0	5	5	0.02	0.6134128	1	10	0.05	2000	2.11008	40.92397	-91.39364
3448958	-14	-2	4	-0.2855967	-0.2281684	-63.54738	0	11.11	20005	0	0	5	5	0.02	0.6138744	1	10	0.05	2000	1.882896	40.92397	-91.39364
3449038	-7	-1	-1	-0.2856196	-0.2258777	-63.54915	0	11.11	20005	0	0	5	5	0.02	0.6188902	1	10	0.05	2000	1.886593	40.92397	-91.39364
3449124	-12	1	1	-0.280939	-0.2293491	-63.55324	0	11.11	20005	0	0	5	5	0.02	0.6221625	1	10	0.05	2000	1.88913	40.92397	-91.39364
3449259	-11	4	0	-0.2793848	-0.2134422	-63.55983	0	11.11	20005	0	0	5	5	0.02	0.6220942	1	10	0.05	2000	1.879267	40.92397	-91.39364
3449284	-22	0	7	-0.2881598	-0.2150989	-63.56563	0	11.11	20005	0	0	5	5	0.02	0.6206649	1	10	0.05	2000	1.873186	40.92397	-91.39364
3449394	-14	2	4	-0.2802397	-0.214888	-63.5754	0	11.11	20005	0	0	5	5	0.02	0.6168392	1	10	0.05	2000	1.880288	40.92397	-91.39364
3449543	-15	0	3	-0.2776237	-0.2152338	-63.58437	0	11.11	20005	0	0	5	5	0.02	0.6119166	1	10	0.05	2000	1.869287	40.92397	-91.39364
3449601	-13	4	2	-0.2750256	-0.2139638	-63.58858	0	11.11	20005	0	0	5	5	0.02	0.6121272	1	10	0.05	2000	1.871692	40.92397	-91.39364
3449718	-10	6	3	-0.2753378	-0.2109773	-63.59908	0	11.11	20005	0	0	5	5	0.02	0.6113883	1	10	0.05	2000	1.86686	40.92397	-91.39364
3449776	-6	0	1	-0.2712384	-0.2118035	-63.60146	0	11.11	20005	0	0	5	5	0.02	0.6126394	1	10	0.05	2000	1.862311	40.92397	-91.39364
3449838	-13	0	6	-0.2741918	-0.2201071	-63.60604	0	11.11	20005	0	0	5	5	0.02	0.6073743	1	10	0.05	2000	1.868888	40.92397	-91.39364
3450014	-12	1	-2	-0.2708283	-0.2292787	-63.6158	0	11.11	20005	0	0	5	5	0.02	0.5962608	1	10	0.05	2000	1.871413	40.92397	-91.39364
3450137	-11	-1	2	-0.2584961	-0.2278732	-63.62532	0	11.11	20005	0	0	5	5	0.02	0.5822042	1	10	0.05	2000	1.857548	40.92397	-91.39364
3450191	-7	0	3	-0.2581733	-0.2278955	-63.6307	0	11.11	20005	0	0	5	5	0.02	0.5815644	1	10	0.05	2000	2.047573	40.92397	-91.39364
3450275	-16	0	1	-0.2667457	-0.2260782	-63.63625	0	11.11	20005	0	0	5	5	0.02	0.5792062	1	10	0.05	2000	2.060846	40.92397	-91.39364
3450381	-8	6	2	-0.2631091	-0.2262172	-63.64223	0	11.11	20005	0	0	5	5	0.02	0.5770801	1	10	0.05	2000	1.851381	40.92397	-91.39364
3450512	-8	0	0	-0.2472117	-0.231194	-63.65023	0	11.06	20005	0	0	5	5	0.02	0.577225	1	10	0.05	2000	1.831397	40.92397	-91.39364
3450543	-12	1	5	-0.2425327	-0.2279835	-63.65181	0	11.06	20005	0	0	5	5	0.02	0.5771593	1	10	0.05	2000	1.831397	40.92397	-91.39364
3450610	-12	2	8	-0.2417762	-0.2249961	-63.65664	0	11.06	20005	0	0	5	5	0.02	0.5800335	1	10	0.05	2000	1.820763	40.92397	-91.39364
3450776	-16	0	0	-0.2469563	-0.2358925	-63.66854	0	11.06	20005	0	0	5	5	0.02	0.5882999	1	10	0.05	2000	1.837813	40.92397	-91.39364
3450816	-19	1	5	-0.2508325	-0.2360284	-63.67086	0	11.06	20005	0	0	5	5	0.02	0.5913206	1	10	0.05	2000	1.837813	40.92397	-91.39364
3450919	-10	-3	0	-0.2521897	-0.2399987	-63.67324	0	11.06	20005	0	0	5	5	0.02	0.5996228	1	10	0.05	2000	1.833401	40.92397	-91.39364
3451052	-13	1	9	-0.257951	-0.231426	-63.68386	0	11.06	20005	0	0	5	5	0.02	0.5946773	1	10	0.05	2000	1.842338	40.92397	-91.39364
3451161	-12	1	5	-0.2557115	-0.2304045	-63.6935	0	11.06	20005	0	0	5	5	0.02	0.5844492	1	10	0.05	2000	1.845959	40.92397	-91.39364
3451212	-13	1	1	-0.2648416	-0.2388203	-63.69735	0	11.06	20005	0	0	5	5	0.02	0.5827807	1	10	0.05	2000	2.062941	40.92397	-91.39364
3451336	-19	0	4	-0.2588305	-0.228649	-63.70547	0	11.11	20005	0	0	5	5	0.02	0.5734604	1	10	0.05	2000	1.852399	40.92397	-91.39364
3451475	-11	5	3	-0.258443	-0.2213887	-63.71316	0	11.11	20005	0	0	5	5	0.02	0.5816029	1	10	0.05	2000	1.847748	40.92397	-91.39364
3451558	-10	-2	6	-0.2524113	-0.2238244	-63.72128	0	11.11	20005	0	0	5	5	0.02	0.5925466	1	10	0.05	2000	1.844926	40.92397	-91.39364
3451598	-10	-2	3	-0.2619873	-0.2208721	-63.72256	0	11.11	20005	0	0	5	5	0.02	0.6042538	1	10	0.05	2000	1.846251	40.92396	-91.39364
3451714	-9	2	5	-0.2561612	-0.2168486	-63.7275	0	11.11	20005	0	0	5	5	0.02	0.6175263	1	10	0.05	2000	1.844792	40.92396	-91.39364
3451813	-10	2	11	-0.258576	-0.2294393	-63.73629	0	11.11	20005	0	0	5	5	0.02	0.637744	1	10	0.05	2000	1.845641	40.92396	-91.39364
3451985	-10	0	0	-0.2605233	-0.234591	-63.74728	0	11.11	20005	0	0	5	5	0.02	0.64318	1	10	0.05	2000	1.854561	40.92396	-91.39364
3452043	-9	3	7	-0.2636711	-0.2360269	-63.75436	0	11.11	20005	0	0	5	5	0.02	0.6421092	1	10	0.05	2000	2.060688	40.92396	-91.39364
3452104	-15	1	0	-0.2620916	-0.2357059	-63.75594	0	11.11	20005	0	0	5	5	0.02	0.6380374	1	10	0.05	2000	1.856781	40.92396	-91.39364
3452268	-7	-3	11	-0.2588056	-0.2278728	-63.76723	0	11.11	20005	0	0	5	5	0.02	0.6284535	1	10	0.05	2000	1.854192	40.92396	-91.39364
3452353	-7	-2	3	-0.2659766	-0.2158036	-63.77517	0	11.11	20005	0	0	5	5	0.02	0.6277974	1	10	0.05	2000	1.854521	40.92396	-91.39364
3452468	-14	5	2	-0.2614594	-0.2176855	-63.78487	0	11.11	20005	0	0	5	5	0.02	0.624378	1	10	0.05	2000	1.85435	40.92396	-91.39364
3452530	-13	0	0	-0.2649162	-0.2172676	-63.78811	0	11.11	20005	0	0	5	5	0.02	0.6174318	1	10	0.05	2000	1.855544	40.92396	-91.39364
3452588	-8	-1	4	-0.2687656	-0.2255457	-63.79049	0	11.11	20005	0	0	5	5	0.02	0.6130229	1	10	0.05	2000	1.855663	40.92396	-91.39364
3452730	-7	0	0	-0.2604285	-0.226511	-63.79897	0	11.11	20005	0	0	5	5	0.02	0.6075417	1	10	0.05	2000	1.861074	40.92396	-91.39364
3452920	-10	-3	3	-0.2606864	-0.233507	-63.81124	0	11.11	20005	0	0	5	5	0.02	0.5925809	1	10	0.05	2000	1.849013	40.92396	-91.39364
3453042	-13	0	-1	-0.2578745	-0.2342731	-63.82186	0	11.11	20005	0	0	5	5	0.02	0.5834893	1	10	0.05	2000	2.062281	40.92396	-91.39364
3453125	-5	-3	5	-0.2486047	-0.2368995	-63.82778	0	11.06	20005	0	0	5	5	0.02	0.5789158	1	10	0.05	2000	1.844898	40.92396	-91.39364
3453235	-9	-4	-3	-0.2426819	-0.2313077	-63.83462	0	11.06	20005	0	0	5	5	0.02	0.5716329	1	10	0.05	2000	1.823978	40.92396	-91.39364
3453329	-16	-3	8	-0.2431869	-0.2302491	-63.83743	0	11.06	20005	0	0	5	5	0.02	0.5708528	1	10	0.05	2000	2.043322	40.92396	-91.39364
3453367	-5	0	9	-0.2314162	-0.2298602	-63.84554	0	11.06	20005	0	0	5	5	0.02	0.5706387	1	10	0.05	2000	1.809936	40.92396	-91.39364
3453470	-15	-2	7	-0.2310508	-0.2321446	-63.84927	0	11.06	20005	0	0	5	5	0.02	0.573101	1	10	0.05	2000	1.812207	40.92396	-91.39364
3453575	-13	1	4	-0.2299599	-0.2351018	-63.85793	0	11.06	20005	0	0	5	5	0.02	0.5720564	1	10	0.05	2000	2.016452	40.92396	-91.39364
3453812	-11	6	3	-0.2466995	-0.2448932	-63.8713	0	11.06	20005	0	0	5	5	0.02	0.5749061	1	10	0.05	2000	1.829904	40.92396	-91.39364
3453914	-11	-2	6	-0.2459002	-0.2419314	-63.8793	0	11.06	20005	0	0	5	5	0.02	0.5752733	1	10	0.05	2000	1.826451	40.92396	-91.39364
3454006	-19	0	2	-0.2455813	-0.2460242	-63.8829	0	11.06	20005	0	0	5	5	0.02	0.5792855	1	10	0.05	2000	1.822114	40.92396	-91.39364
3454150	-3	-2	2	-0.24518	-0.244174	-63.89785	0	11.11	20005	0	0	5	5	0.02	0.583106	1	10	0.05	2000	1.834839	40.92396	-91.39364
3454226	-8	2	9	-0.2449281	-0.2399518	-63.90274	0	11.11	20005	0	0	5	5	0.02	0.5856915	1	10	0.05	2000	1.83397	40.92396	-91.39364
3454356	-7	-3	1	-0.238007	-0.2487508	-63.91067	0	11.11	20005	0	0	5	5	0.02	0.5950419	1	10	0.05	2000	1.829546	40.92396	-91.39364
3454397	-13	2	4	-0.2394058	-0.248	-63.91482	0	11.11	20005	0	0	5	5	0.02	0.6013743	1	10	0.05	2000	1.815673	40.92396	-91.39364
3454465	-7	-4	-2	-0.242641	-0.2477738	-63.91812	0	11.11	20005	0	0	5	5	0.02	0.6144489	1	10	0.05	2000	1.819519	40.92396	-91.39364
3454558	-13	-4	0	-0.23595	-0.2401448	-63.92257	0	11.11	20005	0	0	5	5	0.02	0.6178192	1	10	0.05	2000	1.82253	40.92396	-91.39364
3454713	-9	-4	5	-0.230807	-0.2482156	-63.9327	0	11.11	20005	0	0	5	5	0.02	0.6108504	1	10	0.05	2000	2.037372	40.92396	-91.39364
3454795	-6	2	0	-0.2266912	-0.2482449	-63.93637	0	11.11	20005	0	0	5	5	0.02	0.6090571	1	10	0.05	2000	1.80737	40.92396	-91.39364
3454986	-15	0	0	-0.2180976	-0.2457931	-63.94381	0	11.06	20005	0	0	5	5	0.02	0.6003146	1	10	0.05	2000	1.784583	40.92396	-91.39364
3455036	-12	1	5	-0.2156221	-0.25154	-63.9476	0	11.06	20005	0	0	5	5	0.02	0.6004932	1	10	0.05	2000	1.784659	40.92396	-91.39364
3455185	-7	-3	1	-0.2200232	-0.244113	-63.95431	0	11.06	20005	0	0	5	5	0.02	0.6067513	1	10	0.05	2000	1.785333	40.92396	-91.39364
