time(ms)	gyro_x(deg/s)	gyro_y(deg/s)	gyro_z(deg/s)	orientation_roll(deg)	orientation_pitch(deg)	orientation_yaw(deg)	throttle	battery(V)	loop_time(uS)	pid_output_roll	pid_output_pitch	pid_output_yaw	pid_output_throttle	ultrasonic_alt	baro_alt	flight_mode	p_gain_altitude	i_gain_altitude	d_gain_altitude	compass_heading	latitude	longitude
3393881	-23	0	8	-0.5665496	-0.2568666	-61.05358	0	11.23	20032	0	0	5	5	0.02	0.623327	1	10	0.05	2000	1.274866	40.92395	-91.39362
3393954	-20	4	8	-0.5733064	-0.2598007	-61.05962	0	11.23	20032	0	0	5	5	0.02	0.6113763	1	10	0.05	2000	1.274866	40.92395	-91.39362
3394071	-19	0	7	-0.5737651	-0.2524033	-61.07158	0	11.23	20032	0	0	5	5	0.02	0.6006622	1	10	0.05	2000	1.070252	40.92395	-91.39362
3394132	-27	1	5	-0.5707189	-0.2574544	-61.07805	0	11.23	20032	0	0	5	5	0.02	0.5847392	1	10	0.05	2000	1.516485	40.92395	-91.39362
3394240	-18	-3	9	-0.5693586	-0.2623681	-61.0866	0	11.23	20032	0	0	5	5	0.02	0.5720157	1	10	0.05	2000	1.272941	40.92395	-91.39362
3394281	-27	3	6	-0.5646548	-0.2642058	-61.09233	0	11.23	20032	0	0	5	5	0.02	0.5637861	1	10	0.05	2000	1.051386	40.92395	-91.39362
3394381	-18	-7	4	-0.5668179	-0.2554086	-61.09813	0	11.23	20032	0	0	5	5	0.02	0.5475928	1	10	0.05	2000	1.275059	40.92395	-91.39362
3394494	-21	6	5	-0.5649785	-0.2566331	-61.11217	0	11.23	20032	0	0	5	5	0.02	0.534421	1	10	0.05	2000	1.275763	40.92395	-91.39362
3394595	-23	2	2	-0.5523733	-0.2524342	-61.12053	0	11.23	20032	0	0	5	5	0.02	0.5281211	1	10	0.05	2000	1.038256	40.92395	-91.39362
3394679	-24	-5	6	-0.5574444	-0.260832	-61.12621	0	11.23	20032	0	0	5	5	0.02	0.5265834	1	10	0.05	2000	1.257915	40.92395	-91.39362
3394794	-24	5	2	-0.5510769	-0.2599927	-61.13536	0	11.17	20032	0	0	5	5	0.02	0.5246394	1	10	0.05	2000	1.474907	40.92395	-91.39362
3394904	-23	-2	1	-0.546553	-0.2591683	-61.13958	0	11.17	20032	0	0	5	5	0.02	0.5217017	1	10	0.05	2000	1.247939	40.92395	-91.39362
3395001	-19	0	5	-0.54357	-0.2573761	-61.15044	0	11.17	20032	0	0	5	5	0.02	0.5153905	1	10	0.05	2000	1.239643	40.92395	-91.39362
3395140	-19	7	6	-0.5360246	-0.2468486	-61.16497	0	11.17	20032	0	0	5	5	0.02	0.5081156	1	10	0.05	2000	1.230303	40.92395	-91.39362
3395211	-24	2	1	-0.5403346	-0.2410568	-61.16979	0	11.17	20032	0	0	5	5	0.02	0.5036634	1	10	0.05	2000	1.454879	40.92395	-91.39362
3395319	-20	-3	2	-0.5379016	-0.2394615	-61.17461	0	11.17	20032	0	0	5	5	0.02	0.5025839	1	10	0.05	2000	1.228342	40.92395	-91.39362
3395423	-23	-2	1	-0.5445834	-0.2535573	-61.18413	0	11.17	20032	0	0	5	5	0.02	0.5037146	1	10	0.05	2000	1.239759	40.92395	-91.39362
3395512	-18	1	6	-0.5419482	-0.2535732	-61.19158	0	11.17	20032	0	0	5	5	0.02	0.5071778	1	10	0.05	2000	1.2383	40.92395	-91.39362
3395581	-20	2	7	-0.5425065	-0.2642579	-61.19652	0	11.17	20032	0	0	5	5	0.02	0.5093594	1	10	0.05	2000	1.240066	40.92395	-91.39362
3395692	-21	-1	5	-0.539596	-0.2724274	-61.20537	0	11.17	20032	0	0	5	5	0.02	0.509177	1	10	0.05	2000	1.010235	40.92395	-91.39362
3395822	-18	2	5	-0.5384356	-0.2785943	-61.21654	0	11.17	20032	0	0	5	5	0.02	0.5163518	1	10	0.05	2000	1.241469	40.92395	-91.39362
3395887	-21	6	2	-0.5366972	-0.2807839	-61.22142	0	11.17	20032	0	0	5	5	0.02	0.517192	1	10	0.05	2000	1.230397	40.92395	-91.39362
3395990	-21	3	2	-0.5470004	-0.2848503	-61.22472	0	11.17	20032	0	0	5	5	0.02	0.519363	1	10	0.05	2000	1.23309	40.92395	-91.39362
3396220	-14	-3	10	-0.5350644	-0.2694413	-61.24199	0	11.17	20032	0	0	5	5	0.02	0.5226455	1	10	0.05	2000	1.232808	40.92395	-91.39362
3396412	-22	1	2	-0.5359646	-0.2957483	-61.25518	0	11.17	20032	0	0	5	5	0.02	0.538278	1	10	0.05	2000	1.018224	40.92395	-91.39362
3396554	-21	0	7	-0.5329168	-0.3048424	-61.26726	0	11.17	20032	0	0	5	5	0.02	0.5429595	1	10	0.05	2000	1.220234	40.92395	-91.39362
3396622	-16	-2	0	-0.5314466	-0.3004606	-61.27135	0	11.17	20032	0	0	5	5	0.02	0.539988	1	10	0.05	2000	1.442335	40.92395	-91.39362
3396709	-22	4	-2	-0.5343561	-0.2978823	-61.27745	0	11.17	20032	0	0	5	5	0.02	0.5284426	1	10	0.05	2000	1.45544	40.92395	-91.39362
3396856	-22	3	1	-0.5382124	-0.3090945	-61.28472	0	11.17	20032	0	0	5	5	0.02	0.5072473	1	10	0.05	2000	1.23927	40.92395	-91.39362
3396917	-18	0	2	-0.5322341	-0.3114266	-61.28637	0	11.17	20032	0	0	5	5	0.02	0.5016726	1	10	0.05	2000	1.23927	40.92395	-91.39362
3397062	-16	4	8	-0.5323378	-0.3137043	-61.29778	0	11.17	20032	0	0	5	5	0.02	0.4966865	1	10	0.05	2000	1.233495	40.92395	-91.39362
3397116	-20	-3	6	-0.5277093	-0.296447	-61.30236	0	11.17	20032	0	0	5	5	0.02	0.4950437	1	10	0.05	2000	1.233495	40.92395	-91.39362
3397313	-24	-2	5	-0.5316587	-0.3132668	-61.31572	0	11.17	20032	0	0	5	5	0.02	0.5006142	1	10	0.05	2000	1.226513	40.92395	-91.39362
3397397	-15	-3	4	-0.5310787	-0.3163864	-61.32073	0	11.17	20032	0	0	5	5	0.02	0.5025131	1	10	0.05	2000	1.219102	40.92395	-91.39362
3397452	-18	2	1	-0.5345848	-0.3180091	-61.32677	0	11.17	20032	0	0	5	5	0.02	0.5035348	1	10	0.05	2000	1.227247	40.92395	-91.39362
3397563	-20	-3	3	-0.5391572	-0.3116291	-61.3344	0	11.17	20032	0	0	5	5	0.02	0.5091947	1	10	0.05	2000	1.22567	40.92395	-91.39362
3397656	-14	-3	3	-0.5316383	-0.3120393	-61.34221	0	11.17	20032	0	0	5	5	0.02	0.5147364	1	10	0.05	2000	1.222032	40.92395	-91.39362
3397741	-21	0	5	-0.5440961	-0.3171012	-61.34856	0	11.17	20032	0	0	5	5	0.02	0.514731	1	10	0.05	2000	1.235623	40.92395	-91.39362
3397800	-14	4	2	-0.5426654	-0.3171536	-61.35027	0	11.17	20032	0	0	5	5	0.02	0.5128327	1	10	0.05	2000	1.235623	40.92395	-91.39362
3397984	-21	-3	0	-0.5336161	-0.3072554	-61.3579	0	11.17	20032	0	0	5	5	0.02	0.5253357	1	10	0.05	2000	1.223799	40.92395	-91.39362
3398018	-21	0	5	-0.5309646	-0.3030253	-61.35942	0	11.17	20032	0	0	5	5	0.02	0.5256766	1	10	0.05	2000	1.227955	40.92395	-91.39362
3398094	-18	4	2	-0.5264061	-0.3026549	-61.36284	0	11.17	20032	0	0	5	5	0.02	0.5255252	1	10	0.05	2000	1.229484	40.92395	-91.39362
3398193	-13	0	2	-0.5036136	-0.2913856	-61.37163	0	11.17	20032	0	0	5	5	0.02	0.5263126	1	10	0.05	2000	0.9672782	40.92395	-91.39362
3398303	-15	0	5	-0.5058312	-0.286746	-61.38207	0	11.17	20032	0	0	5	5	0.02	0.5265902	1	10	0.05	2000	0.969458	40.92395	-91.39362
3398399	-22	2	5	-0.4971243	-0.283342	-61.38781	0	11.17	20032	0	0	5	5	0.02	0.5241228	1	10	0.05	2000	1.398024	40.92395	-91.39362
3398573	-14	-3	9	-0.4990687	-0.2817314	-61.39891	0	11.17	20032	0	0	5	5	0.02	0.5208682	1	10	0.05	2000	1.184967	40.92395	-91.39362
3398650	-17	0	9	-0.4942438	-0.2717417	-61.40288	0	11.17	20032	0	0	5	5	0.02	0.5267868	1	10	0.05	2000	1.17649	40.92395	-91.39362
3398811	-22	2	3	-0.4876711	-0.2564659	-61.41607	0	11.17	20032	0	0	5	5	0.02	0.5529784	1	10	0.05	2000	1.377539	40.92395	-91.39362
3398932	-11	-7	7	-0.4923601	-0.2743056	-61.42394	0	11.17	20032	0	0	5	5	0.02	0.5591495	1	10	0.05	2000	1.174718	40.92395	-91.39362
3399012	-15	1	3	-0.4897936	-0.275038	-61.43016	0	11.17	20032	0	0	5	5	0.02	0.5650971	1	10	0.05	2000	1.38486	40.92395	-91.39362
3399099	-26	0	4	-0.4912526	-0.2722484	-61.43981	0	11.17	20032	0	0	5	5	0.02	0.5757995	1	10	0.05	2000	1.155549	40.92395	-91.39362
3399204	-11	3	4	-0.5004321	-0.2717009	-61.44249	0	11.17	20032	0	0	5	5	0.02	0.5867051	1	10	0.05	2000	1.1749	40.92395	-91.39362
3399381	-19	-3	6	-0.4970073	-0.2585479	-61.45266	0	11.17	20032	0	0	5	5	0.02	0.5923982	1	10	0.05	2000	1.172939	40.92395	-91.39362
3399467	-16	2	7	-0.4791172	-0.2677108	-61.45943	0	11.17	20032	0	0	5	5	0.02	0.5870501	1	10	0.05	2000	1.365165	40.92395	-91.39362
3399539	-16	-4	5	-0.4782566	-0.265929	-61.46218	0	11.17	20032	0	0	5	5	0.02	0.5858745	1	10	0.05	2000	1.365165	40.92395	-91.39362
3399706	-17	0	4	-0.4777296	-0.2683464	-61.47359	0	11.17	20032	0	0	5	5	0.02	0.5658934	1	10	0.05	2000	0.9368226	40.92395	-91.39362
3399807	-14	5	0	-0.4687696	-0.2719849	-61.48092	0	11.17	20032	0	0	5	5	0.02	0.5531888	1	10	0.05	2000	1.366467	40.92395	-91.39362
3399974	-18	0	5	-0.4789847	-0.2900213	-61.49245	0	11.17	20032	0	0	5	5	0.02	0.5378924	1	10	0.05	2000	1.147339	40.92395	-91.39362
3400060	-14	0	3	-0.4826298	-0.2919823	-61.49697	0	11.17	20032	0	0	5	5	0.02	0.5357251	1	10	0.05	2000	1.147412	40.92395	-91.39362
3400180	-10	0	1	-0.4899679	-0.2880188	-61.50759	0	11.17	20032	0	0	5	5	0.02	0.5259476	1	10	0.05	2000	0.945193	40.92395	-91.39362
3400234	-16	0	5	-0.4864613	-0.2862665	-61.5104	0	11.17	20032	0	0	5	5	0.02	0.5226138	1	10	0.05	2000	0.945193	40.92395	-91.39362
3400396	-9	1	5	-0.4781048	-0.2831953	-61.52059	0	11.17	20032	0	0	5	5	0.02	0.5152118	1	10	0.05	2000	1.360914	40.92395	-91.39362
3400613	-12	-1	5	-0.4701448	-0.2914084	-61.53493	0	11.17	20032	0	0	5	5	0.02	0.5093355	1	10	0.05	2000	1.13842	40.92395	-91.39362
3400760	-7	9	6	-0.4605086	-0.2897616	-61.54342	0	11.17	20032	0	0	5	5	0.02	0.4942903	1	10	0.05	2000	1.12234	40.92395	-91.39362
3400860	-12	3	-1	-0.4617733	-0.2936245	-61.54995	0	11.17	20032	0	0	5	5	0.02	0.4865741	1	10	0.05	2000	1.346631	40.92395	-91.39362
3400885	-12	3	-1	-0.4617733	-0.2936245	-61.54995	0	11.17	20032	0	0	5	5	0.02	0.4850694	1	10	0.05	2000	1.346631	40.92395	-91.39362
3401070	-13	3	1	-0.4454308	-0.2914823	-61.55801	0	11.17	20032	0	0	5	5	0.02	0.4693389	1	10	0.05	2000	1.328363	40.92395	-91.39362
3401156	-12	7	4	-0.4330013	-0.2821055	-61.56411	0	11.17	20032	0	0	5	5	0.02	0.4611373	1	10	0.05	2000	1.085166	40.92395	-91.39362
3401200	-14	3	5	-0.4299603	-0.2828543	-61.56637	0	11.17	20032	0	0	5	5	0.02	0.459976	1	10	0.05	2000	1.085166	40.92395	-91.39362
3401298	-12	0	7	-0.4302669	-0.2817607	-61.57162	0	11.17	20032	0	0	5	5	0.02	0.4619868	1	10	0.05	2000	1.078268	40.92395	-91.39362
3401401	-14	-2	2	-0.4328261	-0.2791915	-61.57723	0	11.17	20032	0	0	5	5	0.02	0.4633105	1	10	0.05	2000	1.08565	40.92395	-91.39362
3401535	-12	-1	2	-0.4268604	-0.2836493	-61.58242	0	11.17	20032	0	0	5	5	0.02	0.4586148	1	10	0.05	2000	1.077077	40.92395	-91.39362
3401612	-15	1	1	-0.4223965	-0.2788853	-61.58736	0	11.17	20032	0	0	5	5	0.02	0.4539116	1	10	0.05	2000	1.068652	40.92395	-91.39362
3401760	-12	0	-2	-0.4133666	-0.276973	-61.59267	0	11.17	20032	0	0	5	5	0.02	0.4343357	1	10	0.05	2000	1.273653	40.92395	-91.39362
3401881	-10	-1	7	-0.4033787	-0.2730512	-61.6	0	11.17	20032	0	0	5	5	0.02	0.4221138	1	10	0.05	2000	1.037162	40.92395	-91.39362
3401965	-13	-4	2	-0.3967116	-0.2720525	-61.60342	0	11.17	20032	0	0	5	5	0.02	0.4245333	1	10	0.05	2000	1.249218	40.92395	-91.39362
3402132	-9	0	2	-0.3893534	-0.2671138	-61.61391	0	11.11	20032	0	0	5	5	0.02	0.432086	1	10	0.05	2000	1.016324	40.92395	-91.39362
3402235	-9	0	5	-0.3928602	-0.2760884	-61.61642	0	11.11	20032	0	0	5	5	0.02	0.4283877	1	10	0.05	2000	1.013239	40.92395	-91.39362
3402343	-10	-2	6	-0.3892782	-0.2870461	-61.62222	0	11.11	20032	0	0	5	5	0.02	0.4284972	1	10	0.05	2000	1.024931	40.92395	-91.39362
3402392	-14	-1	4	-0.3967207	-0.2790434	-61.62728	0	11.11	20032	0	0	5	5	0.02	0.428741	1	10	0.05	2000	1.023838	40.92395	-91.39362
3402556	-8	-4	0	-0.3941066	-0.2810473	-61.63204	0	11.11	20032	0	0	5	5	0.02	0.4361015	1	10	0.05	2000	1.025723	40.92395	-91.39362
3402598	-6	-1	2	-0.3955067	-0.276492	-61.6368	0	11.11	20032	0	0	5	5	0.02	0.4383743	1	10	0.05	2000	1.025723	40.92395	-91.39362
3402804	-5	-2	1	-0.3893065	-0.2805361	-61.64626	0	11.11	20032	0	0	5	5	0.02	0.4453319	1	10	0.05	2000	1.017481	40.92395	-91.39362
3402950	-10	1	0	-0.3851643	-0.2709477	-61.65298	0	11.11	20032	0	0	5	5	0.02	0.4501829	1	10	0.05	2000	0.99871	40.92395	-91.39362
3403017	-6	0	3	-0.3903349	-0.2692856	-61.65786	0	11.11	20032	0	0	5	5	0.02	0.4550546	1	10	0.05	2000	1.020438	40.92395	-91.39362
3403137	-10	0	0	-0.391094	-0.2794738	-61.66293	0	11.17	20032	0	0	5	5	0.02	0.4587657	1	10	0.05	2000	1.233763	40.92395	-91.39363
3403214	-7	-3	5	-0.3977347	-0.2763621	-61.66543	0	11.17	20032	0	0	5	5	0.02	0.4584489	1	10	0.05	2000	1.24341	40.92395	-91.39363
3403331	-8	0	1	-0.3946907	-0.276575	-61.67031	0	11.17	20032	0	0	5	5	0.02	0.4537594	1	10	0.05	2000	1.025545	40.92395	-91.39362
3403443	-4	3	5	-0.3885821	-0.2811179	-61.6741	0	11.17	20032	0	0	5	5	0.02	0.451912	1	10	0.05	2000	1.018671	40.92395	-91.39362
3403564	-13	-5	3	-0.3847931	-0.2824102	-61.67873	0	11.17	20032	0	0	5	5	0.02	0.4530312	1	10	0.05	2000	1.014907	40.92395	-91.39362
3403661	-6	2	2	-0.3825483	-0.2826288	-61.68453	0	11.17	20032	0	0	5	5	0.02	0.4503352	1	10	0.05	2000	1.003406	40.92395	-91.39363
3403818	-8	0	4	-0.3729354	-0.2833228	-61.69271	0	11.17	20032	0	0	5	5	0.02	0.4612947	1	10	0.05	2000	0.9938688	40.92395	-91.39363
3403916	-7	-2	3	-0.3756807	-0.2841828	-61.69454	0	11.17	20032	0	0	5	5	0.02	0.4633836	1	10	0.05	2000	0.9934392	40.92395	-91.39363
3404054	-2	-5	3	-0.375471	-0.2893161	-61.69949	0	11.23	20032	0	0	5	5	0.02	0.4636045	1	10	0.05	2000	0.9950716	40.92395	-91.39363
3404179	-14	-3	0	-0.3742538	-0.2879788	-61.70358	0	11.23	20032	0	0	5	5	0.02	0.4694018	1	10	0.05	2000	0.9926175	40.92395	-91.39363
3404238	-4	1	2	-0.3740147	-0.2857864	-61.70608	0	11.23	20032	0	0	5	5	0.02	0.4713494	1	10	0.05	2000	0.9917208	40.92395	-91.39363
3404323	-3	0	0	-0.3657035	-0.2928556	-61.70986	0	11.23	20032	0	0	5	5	0.02	0.4759254	1	10	0.05	2000	0.9783705	40.92395	-91.39363
3404380	-6	2	7	-0.3624413	-0.2918928	-61.71139	0	11.23	20032	0	0	5	5	0.02	0.486292	1	10	0.05	2000	0.9783705	40.92395	-91.39363
3404500	0	0	3	-0.3540684	-0.2912313	-61.71438	0	11.23	20032	0	0	5	5	0.02	0.4921065	1	10	0.05	2000	0.9748824	40.92395	-91.39363
3404569	-10	4	0	-0.346415	-0.2927054	-61.71828	0	11.23	20032	0	0	5	5	0.02	0.4974623	1	10	0.05	2000	1.175643	40.92395	-91.39363
3404670	-6	-3	1	-0.348343	-0.2917653	-61.72201	0	11.23	20032	0	0	5	5	0.02	0.5012465	1	10	0.05	2000	0.9569415	40.92395	-91.39363
3404785	-10	0	8	-0.3423064	-0.2979421	-61.72738	0	11.23	20032	0	0	5	5	0.02	0.5063369	1	10	0.05	2000	1.166628	40.92395	-91.39363
3404872	-7	7	3	-0.3432665	-0.2935674	-61.72933	0	11.23	20032	0	0	5	5	0.02	0.5036907	1	10	0.05	2000	0.9514906	40.92395	-91.39363
3404968	-5	-3	8	-0.3357998	-0.3016655	-61.73202	0	11.23	20032	0	0	5	5	0.02	0.5013837	1	10	0.05	2000	0.9339959	40.92395	-91.39363
3405064	-11	-2	5	-0.3322203	-0.3057711	-61.738	0	11.23	20032	0	0	5	5	0.02	0.4920806	1	10	0.05	2000	0.9419513	40.92395	-91.39363
3405221	-4	-4	2	-0.3279047	-0.3069643	-61.74593	0	11.23	20032	0	0	5	5	0.02	0.4845307	1	10	0.05	2000	0.9245216	40.92395	-91.39363
3405351	0	-1	1	-0.3275748	-0.3135681	-61.74966	0	11.23	20032	0	0	5	5	0.02	0.4814397	1	10	0.05	2000	0.9335677	40.92395	-91.39363
3405403	-2	-1	2	-0.3328174	-0.3084217	-61.75356	0	11.23	20032	0	0	5	5	0.02	0.4873999	1	10	0.05	2000	0.9294786	40.92395	-91.39363
3405472	-3	-2	4	-0.3325064	-0.3108646	-61.75533	0	11.23	20032	0	0	5	5	0.02	0.4896684	1	10	0.05	2000	0.9309189	40.92395	-91.39363
3405586	-1	3	4	-0.3265455	-0.3104091	-61.7593	0	11.23	20032	0	0	5	5	0.02	0.4989753	1	10	0.05	2000	1.139105	40.92395	-91.39363
3405682	-1	-5	4	-0.3259178	-0.3097936	-61.76028	0	11.23	20032	0	0	5	5	0.02	0.5120019	1	10	0.05	2000	0.922251	40.92395	-91.39363
3405749	-6	8	2	-0.3241508	-0.3076341	-61.76156	0	11.23	20032	0	0	5	5	0.02	0.5152652	1	10	0.05	2000	0.919347	40.92395	-91.39363
3405953	-8	-2	0	-0.3252056	-0.3112017	-61.77023	0	11.17	20032	0	0	5	5	0.02	0.5207951	1	10	0.05	2000	0.9188696	40.92395	-91.39363
3405986	-1	0	4	-0.3250969	-0.3099662	-61.77096	0	11.17	20032	0	0	5	5	0.02	0.5214843	1	10	0.05	2000	0.9188696	40.92395	-91.39363
3406081	-5	-7	2	-0.3262666	-0.3081803	-61.77731	0	11.17	20032	0	0	5	5	0.02	0.5269361	1	10	0.05	2000	0.9218813	40.92395	-91.39363
3406177	-3	-2	2	-0.324825	-0.2976214	-61.77908	0	11.17	20032	0	0	5	5	0.02	0.5376989	1	10	0.05	2000	0.9171045	40.92395	-91.39363
3406354	-3	5	2	-0.3349825	-0.3054259	-61.78603	0	11.17	20032	0	0	5	5	0.02	0.5424789	1	10	0.05	2000	0.716383	40.92395	-91.39363
3406402	-5	5	3	-0.3323629	-0.3039867	-61.78725	0	11.17	20032	0	0	5	5	0.02	0.5395473	1	10	0.05	2000	0.716383	40.92395	-91.39363
3406560	-2	-7	1	-0.3279967	-0.306595	-61.79379	0	11.17	20032	0	0	5	5	0.02	0.5246374	1	10	0.05	2000	1.148642	40.92395	-91.39363
3406648	1	-2	1	-0.3305784	-0.3133183	-61.80019	0	11.17	20032	0	0	5	5	0.02	0.5233864	1	10	0.05	2000	0.7072988	40.92395	-91.39363
3406750	-6	1	1	-0.3241176	-0.3179072	-61.80318	0	11.11	20032	0	0	5	5	0.02	0.5244115	1	10	0.05	2000	0.920358	40.92395	-91.39363
3406875	-1	-3	2	-0.318297	-0.3141523	-61.8091	0	11.11	20032	0	0	5	5	0.02	0.523194	1	10	0.05	2000	1.134393	40.92395	-91.39363
3406975	-11	3	4	-0.3170795	-0.3118832	-61.81179	0	11.11	20032	0	0	5	5	0.02	0.5199119	1	10	0.05	2000	1.134393	40.92395	-91.39363
3407105	-5	0	0	-0.3112939	-0.3038942	-61.81899	0	11.11	20032	0	0	5	5	0.02	0.5221669	1	10	0.05	2000	0.9037052	40.92395	-91.39363
3407155	-2	-4	4	-0.3126497	-0.3009062	-61.82046	0	11.11	20032	0	0	5	5	0.02	0.5252273	1	10	0.05	2000	0.9037052	40.92395	-91.39363
3407297	-3	2	10	-0.309928	-0.2990885	-61.82229	0	11.11	20032	0	0	5	5	0.02	0.5280807	1	10	0.05	2000	0.9036015	40.92395	-91.39363
3407358	-5	-3	2	-0.3056192	-0.2987347	-61.82577	0	11.11	20032	0	0	5	5	0.02	0.5327362	1	10	0.05	2000	0.8939406	40.92395	-91.39363
3407456	-6	1	5	-0.3080876	-0.2968437	-61.82919	0	11.11	20032	0	0	5	5	0.02	0.5315443	1	10	0.05	2000	1.114108	40.92395	-91.39363
3407582	-4	4	-3	-0.2967155	-0.2958081	-61.83456	0	11.11	20032	0	0	5	5	0.02	0.5381359	1	10	0.05	2000	0.8820298	40.92395	-91.39363
3407692	1	-5	0	-0.2908489	-0.2994137	-61.83791	0	11.11	20032	0	0	5	5	0.02	0.5402485	1	10	0.05	2000	0.8814216	40.92395	-91.39363
3407813	-2	1	7	-0.2859728	-0.2968416	-61.83944	0	11.11	20032	0	0	5	5	0.02	0.535137	1	10	0.05	2000	1.084009	40.92395	-91.39363
3407872	-4	-6	0	-0.2827248	-0.2932184	-61.8417	0	11.11	20032	0	0	5	5	0.02	0.5323178	1	10	0.05	2000	1.081668	40.92395	-91.39363
3408019	-5	2	2	-0.2842514	-0.2945281	-61.84255	0	11.11	20032	0	0	5	5	0.02	0.5302987	1	10	0.05	2000	0.8611801	40.92395	-91.39363
3408065	-3	4	-3	-0.2796034	-0.3019794	-61.84347	0	11.11	20032	0	0	5	5	0.02	0.5242179	1	10	0.05	2000	0.8518984	40.92395	-91.39363
3408187	2	0	5	-0.2799843	-0.3047042	-61.84621	0	11.11	20032	0	0	5	5	0.02	0.5127472	1	10	0.05	2000	1.295659	40.92395	-91.39363
3408287	-2	1	3	-0.2776691	-0.3033665	-61.84756	0	11.11	20032	0	0	5	5	0.02	0.5101757	1	10	0.05	2000	0.629027	40.92395	-91.39363
3408369	-6	-3	2	-0.274871	-0.3070239	-61.85073	0	11.11	20032	0	0	5	5	0.02	0.5083203	1	10	0.05	2000	0.8468139	40.92395	-91.39363
3408474	-1	-4	0	-0.2807416	-0.3048511	-61.85232	0	11.11	20032	0	0	5	5	0.02	0.5165419	1	10	0.05	2000	0.6351631	40.92395	-91.39363
3408562	-1	3	5	-0.28101	-0.3058689	-61.85464	0	11.23	20032	0	0	5	5	0.02	0.5209687	1	10	0.05	2000	0.8569962	40.92395	-91.39363
3408658	8	1	2	-0.2827847	-0.3119165	-61.85812	0	11.23	20032	0	0	5	5	0.02	0.5262357	1	10	0.05	2000	0.6491776	40.92395	-91.39363
3408773	1	2	-3	-0.2775695	-0.3145423	-61.86019	0	11.23	20032	0	0	5	5	0.02	0.5344405	1	10	0.05	2000	1.069663	40.92395	-91.39363
3408889	-1	-4	5	-0.2760061	-0.3090066	-61.86214	0	11.23	20032	0	0	5	5	0.02	0.542433	1	10	0.05	2000	0.8522862	40.92395	-91.39363
3408956	0	-2	2	-0.2774144	-0.3043267	-61.86373	0	11.23	20032	0	0	5	5	0.02	0.5468952	1	10	0.05	2000	1.072968	40.92395	-91.39363
3409107	-2	-4	0	-0.2758993	-0.2993549	-61.86697	0	11.23	20032	0	0	5	5	0.02	0.5522348	1	10	0.05	2000	1.06101	40.92395	-91.39363
3409169	0	-1	-6	-0.281627	-0.2955693	-61.87112	0	11.23	20032	0	0	5	5	0.02	0.5541616	1	10	0.05	2000	0.8516409	40.92395	-91.39363
3409262	-1	-3	0	-0.2795428	-0.2935461	-61.87661	0	11.23	20032	0	0	5	5	0.02	0.5571592	1	10	0.05	2000	0.8528953	40.92395	-91.39363
3409393	-2	-2	5	-0.2756584	-0.2911378	-61.88003	0	11.23	20032	0	0	5	5	0.02	0.5564915	1	10	0.05	2000	1.069652	40.92395	-91.39363
3409469	-1	2	1	-0.2711409	-0.2908888	-61.88296	0	11.17	20032	0	0	5	5	0.02	0.5588154	1	10	0.05	2000	0.8467285	40.92395	-91.39363
3409567	-3	3	3	-0.2732185	-0.2925668	-61.88797	0	11.17	20032	0	0	5	5	0.02	0.561092	1	10	0.05	2000	0.8491971	40.92395	-91.39363
3409693	1	6	-3	-0.2715931	-0.2919587	-61.89291	0	11.17	20032	0	0	5	5	0.02	0.5687495	1	10	0.05	2000	0.8389691	40.92395	-91.39363
3409768	0	-3	0	-0.2716361	-0.297982	-61.89431	0	11.17	20032	0	0	5	5	0.02	0.5702267	1	10	0.05	2000	1.063742	40.92395	-91.39363
3409871	-2	0	2	-0.2694009	-0.2992358	-61.89566	0	11.17	20032	0	0	5	5	0.02	0.5731333	1	10	0.05	2000	1.066262	40.92395	-91.39363
3409987	-7	1	-3	-0.2677469	-0.3007377	-61.89791	0	11.17	20032	0	0	5	5	0.02	0.5732508	1	10	0.05	2000	0.8453367	40.92395	-91.39363
3410098	-3	-1	5	-0.2712211	-0.299195	-61.90158	0	11.17	20032	0	0	5	5	0.02	0.5671932	3	10	0.05	2000	1.058629	40.92395	-91.39363
3410247	-2	-2	8	-0.2783785	-0.2901308	-61.90799	0	11.17	20032	0	0	5	5	0.02	0.5564644	3	10	0.05	2000	0.848901	40.92395	-91.39363
3410295	2	0	0	-0.2769527	-0.2895159	-61.90982	0	11.17	20032	0	0	5	5	0.02	0.5499526	3	10	0.05	2000	0.8566256	40.92395	-91.39363
3410374	-1	-5	0	-0.2779253	-0.289178	-61.91281	0	11.11	20032	0	0	5	5	0.02	0.54322	3	10	0.05	2000	0.8470467	40.92395	-91.39363
3410532	-4	2	4	-0.2723956	-0.2940755	-61.9169	0	11.11	20032	0	0	5	5	0.02	0.5171378	3	10	0.05	2000	0.8436924	40.92395	-91.39363
3410638	-4	-1	4	-0.2698669	-0.2930434	-61.91953	0	11.11	20032	0	0	5	5	0.02	0.5001758	3	10	0.05	2000	0.8372493	40.92395	-91.39363
3410714	2	-5	6	-0.2726241	-0.2928614	-61.92331	0	11.11	20032	0	0	5	5	0.02	0.4905098	3	10	0.05	2000	0.8463942	40.92395	-91.39363
3410797	-3	2	-4	-0.2675873	-0.2945884	-61.92838	0	11.11	20032	0	0	5	5	0.02	0.485323	3	10	0.05	2000	0.842275	40.92395	-91.39363
3410856	10	-2	11	-0.2715888	-0.2967869	-61.93069	0	11.11	20032	0	0	5	5	0.02	0.4814106	3	10	0.05	2000	0.8439624	40.92395	-91.39363
3410942	-2	1	2	-0.2679363	-0.2950379	-61.93234	0	11.11	20032	0	0	5	5	0.02	0.4795245	3	10	0.05	2000	0.8439624	40.92395	-91.39363
3411063	1	0	2	-0.2687441	-0.2956147	-61.93851	0	11.11	20032	0	0	5	5	0.02	0.4858992	3	10	0.05	2000	1.055601	40.92395	-91.39363
3411136	-3	0	1	-0.2717916	-0.2947144	-61.94193	0	11.11	20032	0	0	5	5	0.02	0.4898559	3	10	0.05	2000	1.066853	40.92395	-91.39363
3411253	-6	0	2	-0.2717166	-0.2946375	-61.94614	0	11.17	20032	0	0	5	5	0.02	0.501237	3	10	0.05	2000	0.8441765	40.92395	-91.39363
3411357	0	0	7	-0.2749912	-0.2916459	-61.95132	0	11.17	20032	0	0	5	5	0.02	0.5033026	3	10	0.05	2000	0.8499037	40.92395	-91.39363
3411427	-2	-6	0	-0.2732772	-0.2890116	-61.95547	0	11.17	20032	0	0	5	5	0.02	0.5052509	3	10	0.05	2000	0.843816	40.92395	-91.39363
3411540	-3	-9	3	-0.2843603	-0.292278	-61.95779	0	11.17	20032	0	0	5	5	0.02	0.5136148	3	10	0.05	2000	0.6331795	40.92395	-91.39363
3411623	0	-3	2	-0.2754809	-0.2881933	-61.96182	0	11.17	20032	0	0	5	5	0.02	0.5166264	3	10	0.05	2000	0.6331546	40.92395	-91.39363
3411758	-4	0	1	-0.2753937	-0.2918023	-61.96658	0	11.17	20032	0	0	5	5	0.02	0.5192662	3	10	0.05	2000	1.066728	40.92395	-91.39363
3411844	-1	3	5	-0.2740225	-0.287553	-61.96921	0	11.17	20032	0	0	5	5	0.02	0.5256193	3	10	0.05	2000	0.6235186	40.92395	-91.39363
3411993	0	2	0	-0.2707421	-0.2948423	-61.97342	0	11.17	20032	0	0	5	5	0.02	0.5202029	3	10	0.05	2000	0.8427269	40.92395	-91.39363
3412020	0	2	7	-0.2712814	-0.2958168	-61.97379	0	11.17	20032	0	0	5	5	0.02	0.5168266	3	10	0.05	2000	0.8376955	40.92395	-91.39363
3412099	0	-1	4	-0.2663631	-0.2928121	-61.97659	0	11.17	20032	0	0	5	5	0.02	0.5123279	3	10	0.05	2000	0.8383962	40.92395	-91.39363
3412222	2	0	5	-0.2661355	-0.2891028	-61.98221	0	11.17	20032	0	0	5	5	0.02	0.5032325	3	10	0.05	2000	0.6118405	40.92395	-91.39363
3412383	-4	-3	0	-0.2710705	-0.2957875	-61.98715	0	11.17	20032	0	0	5	5	0.02	0.5050809	3	10	0.05	2000	0.8373559	40.92395	-91.39363
3412410	-1	-3	3	-0.2731977	-0.2928709	-61.98837	0	11.17	20032	0	0	5	5	0.02	0.5058649	3	10	0.05	2000	0.8503289	40.92395	-91.39363
3412521	-1	-7	4	-0.2783077	-0.2952411	-61.99203	0	11.17	20032	0	0	5	5	0.02	0.5048647	3	10	0.05	2000	1.079495	40.92395	-91.39363
3412646	2	0	-3	-0.2695174	-0.2950825	-61.99863	0	11.17	20032	0	0	5	5	0.02	0.5012593	3	10	0.05	2000	0.8470639	40.92395	-91.39363
3412742	5	1	4	-0.2657159	-0.298478	-62.00284	0	11.17	20032	0	0	5	5	0.02	0.509854	3	10	0.05	2000	0.8446354	40.92395	-91.39363
3412865	6	4	-2	-0.2608436	-0.2948679	-62.0062	0	11.17	20032	0	0	5	5	0.02	0.5181118	3	10	0.05	2000	1.050507	40.92395	-91.39363
3412951	0	5	2	-0.256232	-0.2919264	-62.01187	0	11.17	20032	0	0	5	5	0.02	0.5198103	3	10	0.05	2000	1.040417	40.92395	-91.39363
3413058	7	-2	-2	-0.2602401	-0.2901143	-62.01682	0	11.17	20032	0	0	5	5	0.02	0.5182194	3	10	0.05	2000	0.6042985	40.92395	-91.39363
3413100	8	0	1	-0.2563671	-0.2937895	-62.01828	0	11.17	20032	0	0	5	5	0.02	0.5167046	3	10	0.05	2000	0.820105	40.92395	-91.39363
3413226	0	-6	2	-0.2620955	-0.2937365	-62.02359	0	11.17	20032	0	0	5	5	0.02	0.5177317	3	10	0.05	2000	1.046168	40.92395	-91.39363
3413328	-1	0	4	-0.2626653	-0.2977844	-62.02621	0	11.17	20032	0	0	5	5	0.02	0.5176437	3	10	0.05	2000	0.607522	40.92395	-91.39363
3413461	-1	0	0	-0.2607224	-0.305867	-62.03067	0	11.17	20032	0	0	5	5	0.02	0.5217514	3	10	0.05	2000	1.047592	40.92395	-91.39363
3413565	1	2	3	-0.2679655	-0.304246	-62.03818	0	11.17	20032	0	0	5	5	0.02	0.5274356	3	10	0.05	2000	1.055061	40.92395	-91.39363
3413669	5	-4	4	-0.2672321	-0.3010941	-62.04153	0	11.17	20032	0	0	5	5	0.02	0.5381854	3	10	0.05	2000	1.059361	40.92395	-91.39363
3413777	0	-1	0	-0.2690217	-0.2966303	-62.0463	0	11.17	20032	0	0	5	5	0.02	0.5456432	3	10	0.05	2000	1.276192	40.92395	-91.39363
3413829	1	0	6	-0.2717396	-0.3001573	-62.04971	0	11.17	20032	0	0	5	5	0.02	0.5466377	3	10	0.05	2000	0.8390188	40.92395	-91.39363
3413888	0	-2	1	-0.2674335	-0.3020644	-62.05392	0	11.17	20032	0	0	5	5	0.02	0.5472788	3	10	0.05	2000	0.8434182	40.92395	-91.39363
3413996	2	-2	3	-0.2712451	-0.3081098	-62.05783	0	11.17	20032	0	0	5	5	0.02	0.5466041	3	10	0.05	2000	0.6190856	40.92395	-91.39363
3414078	5	3	4	-0.2715249	-0.3096712	-62.06253	0	11.17	20032	0	0	5	5	0.02	0.5435085	3	10	0.05	2000	1.068488	40.92395	-91.39363
3414172	1	-6	3	-0.263751	-0.311976	-62.06546	0	11.17	20032	0	0	5	5	0.02	0.5368999	3	10	0.05	2000	0.8381763	40.92395	-91.39363
3414294	5	-2	3	-0.2564659	-0.3113616	-62.07144	0	11.17	20032	0	0	5	5	0.02	0.5275961	3	10	0.05	2000	1.036626	40.92395	-91.39363
3414387	0	2	2	-0.2629861	-0.3137901	-62.07376	0	11.17	20032	0	0	5	5	0.02	0.5208037	3	10	0.05	2000	1.036626	40.92395	-91.39363
3414533	9	5	1	-0.2633078	-0.3196941	-62.07816	0	11.17	20032	0	0	5	5	0.02	0.5048127	3	10	0.05	2000	1.056775	40.92395	-91.39363
3414615	0	6	0	-0.2550677	-0.3261633	-62.08298	0	11.17	20032	0	0	5	5	0.02	0.497794	3	10	0.05	2000	1.040439	40.92395	-91.39363
3414680	-1	0	0	-0.2531663	-0.3270704	-62.08493	0	11.17	20032	0	0	5	5	0.02	0.4936043	3	10	0.05	2000	0.8211964	40.92395	-91.39363
3414825	6	1	0	-0.2492714	-0.3295107	-62.08755	0	11.17	20032	0	0	5	5	0.02	0.4842339	3	10	0.05	2000	0.8170016	40.92395	-91.39363
3414903	3	3	2	-0.2535318	-0.3288887	-62.09152	0	11.17	20032	0	0	5	5	0.02	0.4847043	3	10	0.05	2000	0.813289	40.92395	-91.39363
3415028	4	0	5	-0.2503868	-0.3265167	-62.09488	0	11.17	20032	0	0	5	5	0.02	0.4898129	3	10	0.05	2000	0.592014	40.92395	-91.39363
3415140	4	-3	6	-0.2454735	-0.3242628	-62.09995	0	11.17	20032	0	0	5	5	0.02	0.496073	3	10	0.05	2000	1.025235	40.92395	-91.39363
3415236	-2	2	2	-0.242568	-0.3206335	-62.10361	0	11.17	20032	0	0	5	5	0.02	0.4988285	3	10	0.05	2000	0.8030543	40.92395	-91.39363
3415291	0	2	-1	-0.2412068	-0.317748	-62.10471	0	11.17	20032	0	0	5	5	0.02	0.5006146	3	10	0.05	2000	0.8008542	40.92395	-91.39363
3415437	2	4	-3	-0.2393957	-0.3078871	-62.11081	0	11.17	20032	0	0	5	5	0.02	0.5094635	3	10	0.05	2000	0.7927836	40.92395	-91.39363
3415517	0	-1	4	-0.2407053	-0.3081804	-62.11508	0	11.17	20032	0	0	5	5	0.02	0.5101984	3	10	0.05	2000	1.019541	40.92395	-91.39363
3415594	-8	-2	5	-0.2460717	-0.3052385	-62.11752	0	11.17	20032	0	0	5	5	0.02	0.510808	3	10	0.05	2000	0.7957653	40.92395	-91.39363
3415695	6	-3	3	-0.2408503	-0.3056228	-62.12503	0	11.17	20032	0	0	5	5	0.02	0.5057407	3	10	0.05	2000	0.8021067	40.92395	-91.39363
3415846	8	0	1	-0.2445527	-0.3086919	-62.12955	0	11.23	20032	0	0	5	5	0.02	0.4920981	3	10	0.05	2000	0.7928911	40.92395	-91.39363
3415890	0	-1	6	-0.2425713	-0.3044089	-62.13077	0	11.23	20032	0	0	5	5	0.02	0.4887674	3	10	0.05	2000	0.8014063	40.92395	-91.39363
3416060	7	0	3	-0.2421136	-0.3033027	-62.13858	0	11.23	20032	0	0	5	5	0.02	0.492545	3	10	0.05	2000	0.5766143	40.92395	-91.39363
3416108	8	-2	9	-0.2421381	-0.3039716	-62.14017	0	11.23	20032	0	0	5	5	0.02	0.4952421	3	10	0.05	2000	0.7979098	40.92395	-91.39363
3416229	0	1	3	-0.2445677	-0.3018972	-62.14627	0	11.23	20032	0	0	5	5	0.02	0.509884	3	10	0.05	2000	0.5811896	40.92395	-91.39363
3416300	1	1	0	-0.2490492	-0.3024069	-62.14713	0	11.23	20032	0	0	5	5	0.02	0.5185142	3	10	0.05	2000	0.5811896	40.92395	-91.39363
3416411	1	-8	2	-0.2411005	-0.3081035	-62.15543	0	11.23	20032	0	0	5	5	0.02	0.5215718	3	10	0.05	2000	0.8072063	40.92395	-91.39363
3416542	-8	-2	-1	-0.2403873	-0.30598	-62.15866	0	11.23	20032	0	0	5	5	0.02	0.5289829	3	10	0.05	2000	0.7949588	40.92395	-91.39363
3416633	-4	4	8	-0.2385777	-0.3067896	-62.16293	0	11.23	20032	0	0	5	5	0.02	0.5276149	3	10	0.05	2000	1.015483	40.92395	-91.39363
3416694	1	1	-1	-0.2398239	-0.3058795	-62.16611	0	11.17	20032	0	0	5	5	0.02	0.5231654	3	10	0.05	2000	1.01782	40.92395	-91.39363
3416792	2	3	5	-0.2374071	-0.3100381	-62.17203	0	11.17	20032	0	0	5	5	0.02	0.5134396	3	10	0.05	2000	1.01147	40.92395	-91.39363
3416909	4	1	3	-0.2343537	-0.3111256	-62.1749	0	11.17	20032	0	0	5	5	0.02	0.4980602	3	10	0.05	2000	1.016001	40.92395	-91.39363
3417072	1	-3	6	-0.2396028	-0.3058631	-62.18204	0	11.17	20032	0	0	5	5	0.02	0.4794964	3	10	0.05	2000	0.7996388	40.92395	-91.39363
3417123	-1	-5	-1	-0.2360359	-0.3025074	-62.18277	0	11.17	20032	0	0	5	5	0.02	0.4733176	3	10	0.05	2000	0.7996388	40.92395	-91.39363
3417233	3	0	0	-0.2346674	-0.3078899	-62.18521	0	11.17	20032	0	0	5	5	0.02	0.4557715	3	10	0.05	2000	1.002889	40.92395	-91.39363
3417319	0	0	7	-0.2361554	-0.3044496	-62.18692	0	11.17	20032	0	0	5	5	0.02	0.4477172	3	10	0.05	2000	0.7916722	40.92395	-91.39363
3417397	0	-2	4	-0.2335961	-0.2962352	-62.19339	0	11.17	20032	0	0	5	5	0.02	0.4252442	3	10	0.05	2000	0.7878689	40.92395	-91.39363
3417493	3	-3	3	-0.2329032	-0.2964801	-62.20004	0	11.17	20032	0	0	5	5	0.02	0.4091965	3	10	0.05	2000	0.564895	40.92395	-91.39363
3417594	1	-1	4	-0.234445	-0.3011375	-62.2056	0	11.23	20032	0	0	5	5	0.02	0.3882193	3	10	0.05	2000	0.7876484	40.92395	-91.39363
3417707	6	5	3	-0.2394579	-0.2984219	-62.21091	0	11.23	20032	0	0	5	5	0.02	0.3820525	3	10	0.05	2000	1.014631	40.92395	-91.39363
3417795	1	4	4	-0.2351789	-0.304197	-62.21573	0	11.23	20032	0	0	5	5	0.02	0.3763964	3	10	0.05	2000	0.786	40.92395	-91.39363
3417893	2	-1	0	-0.2325711	-0.3059261	-62.21885	0	11.23	20032	0	0	5	5	0.02	0.3661291	3	10	0.05	2000	0.5684819	40.92395	-91.39363
3418056	-2	1	0	-0.2229493	-0.3061651	-62.22623	0	11.23	20032	0	0	5	5	0.02	0.3506529	3	10	0.05	2000	0.7728987	40.92395	-91.39363
3418180	-8	2	6	-0.2282799	-0.3073877	-62.23313	0	11.23	20032	0	0	5	5	0.02	0.3398899	3	10	0.05	2000	0.9916306	40.92395	-91.39363
3418211	0	-3	0	-0.2289253	-0.3042736	-62.23441	0	11.23	20032	0	0	5	5	0.02	0.3388599	3	10	0.05	2000	0.7798157	40.92395	-91.39363
3418287	49	-48	-78	-0.2233703	-0.3022639	-62.24139	0	11.23	20032	0	0	5	5	0.02	0.3407379	3	10	0.05	2000	1.017682	40.92395	-91.39363
3418379	12	-8	-41	-0.2413629	-0.3205874	-62.24237	0	11.23	20032	0	0	5	5	0.02	0.3434463	3	10	0.05	2000	1.930236	40.92395	-91.39363
3418482	8	0	114	-0.2545418	-0.3467448	-62.24922	0	11.23	20032	0	0	5	5	0.02	0.3487687	3	10	0.05	2000	0.825707	40.92395	-91.39363
3418633	-124	97	143	-0.1514505	-0.2490701	-62.25367	0	11.23	20032	0	0	5	5	0.02	0.3523951	3	10	0.05	2000	1.384527	40.92395	-91.39363
3418695	18	-78	-56	-0.1317368	-0.2295916	-62.24702	0	11.23	20032	0	0	5	5	0.02	0.3543016	3	10	0.05	2000	1.145307	40.92395	-91.39363
3418784	-4	21	23	-0.1395646	-0.2398026	-62.2472	0	11.23	20032	0	0	5	5	0.02	0.3609854	3	10	0.05	2000	1.119619	40.92395	-91.39363
3418947	130	12	-87	-0.1194872	-0.235576	-62.24457	0	11.23	20032	0	0	5	5	0.02	0.3682312	3	10	0.05	2000	0.667859	40.92395	-91.39363
3419017	16	42	44	-0.1349016	-0.2291456	-62.24719	0	11.23	20032	0	0	5	5	0.02	0.3741233	3	10	0.05	2000	1.777805	40.92395	-91.39363
3419098	-34	-29	31	-0.1259217	-0.2276332	-62.25508	0	11.23	20032	0	0	5	5	0.02	0.3838821	3	10	0.05	2000	1.072108	40.92395	-91.39363
3419245	41	12	-93	-0.120113	-0.2234834	-62.25697	0	11.23	20032	0	0	5	5	0.02	0.3908249	3	10	0.05	2000	1.506516	40.92395	-91.39363
3419333	-12	-33	-28	-0.1161871	-0.203827	-62.2706	0	11.23	20032	0	0	5	5	0.02	0.3968043	3	10	0.05	2000	1.061839	40.92395	-91.39363
3419489	-132	19	-32	-0.1240034	-0.180109	-62.27562	0	11.23	20032	0	0	5	5	0.0318813	0.4067236	6	10	0.05	2000	1.306958	40.92395	-91.39363
3419575	-49	115	45	-0.1376616	-0.150301	-62.26481	0	11.23	20032	0	0	5	5	0.03546901	0.4121001	6	10	0.05	2000	1.047599	40.92395	-91.39363
3419636	-4	9	136	-0.1285928	-0.1345994	-62.26635	0	11.23	20032	0	0	5	5	0.03724316	0.4158115	6	10	0.05	2000	1.743669	40.92395	-91.39363
3419735	56	-39	-174	-0.1257305	-0.1391652	-62.24491	0	11.23	20032	0	0	5	5	0.04031631	0.4136536	6	10	0.05	2000	1.248984	40.92395	-91.39363
3419786	75	-20	-130	-0.1276256	-0.09851089	-62.24937	0	11.23	20032	0	0	5	5	0.04180403	0.4117817	6	10	0.05	2000	1.794629	40.92395	-91.39363
3419946	101	-95	309	-0.0346661	-0.07156125	-62.24915	0	11.23	20032	0	0	5	5	0.0446834	0.4058358	6	10	0.05	2000	1.489975	40.92395	-91.39363
3420030	40	-102	-40	-0.02705233	-0.03972516	-62.25368	0	11.23	20032	0	0	5	5	0.04616456	0.4062299	6	10	0.05	2000	0.9873639	40.92395	-91.39363
3420087	19	-74	454	-0.03135419	-0.1350461	-62.28329	0	11.23	20032	0	0	5	5	0.04679601	0.4073347	6	10	0.05	2000	1.64621	40.92395	-91.39363
3420219	175	-74	-391	-0.15853	-0.1855054	-62.21577	0	11.23	20032	0	0	5	5	0.04748096	0.4170133	6	10	0.05	2000	1.705634	40.92395	-91.39363
3420296	-84	131	-314	-0.1733408	-0.2046056	-62.23692	0	11.23	20032	0	0	5	5	0.04843059	0.4212029	6	10	0.05	2000	1.705634	40.92395	-91.39363
3420447	-4	-80	-30	-0.2301418	-0.238662	-62.24846	0	11.11	20032	0	0	5	5	0.05050984	0.4511063	6	10	0.05	2000	1.676822	40.92395	-91.39363
3420489	-181	-24	611	-0.1719194	-0.2494169	-62.18653	0	11.11	20032	0	0	5	5	0.04981495	0.4568875	6	10	0.05	2000	2.301106	40.92395	-91.39363
3420593	-299	-590	222	-0.1928546	-0.08478528	-62.33815	0	11.11	20032	0	0	5	5	0.05001006	0.4820855	6	10	0.05	2000	1.419953	40.92395	-91.39363
3420697	95	-172	-275	-0.431765	0.3281403	-62.0524	0	11.11	20032	0	0	5	5	0.04954277	0.4934533	6	10	0.05	2000	2.047917	40.92395	-91.39363
3420822	-200	-844	-294	-0.4672	1.230464	-61.51655	0	11.11	20032	0	0	5	5	0.04784811	0.5250818	6	10	0.05	2000	2.225476	40.92395	-91.39363
3420895	198	-1657	-398	-0.6772618	2.751005	-61.16195	0	11.11	20032	0	0	5	5	0.04768525	0.5553952	6	10	0.05	2000	1.985642	40.92395	-91.39363
3420999	188	41	812	-1.111673	5.55865	-62.11831	0	11.11	20032	0	0	5	5	0.0477084	0.5978114	6	10	0.05	2000	1.754367	40.92395	-91.39363
3421127	1316	1050	135	1.195737	3.104002	-62.06	0	11.11	20032	0	0	5	5	0.05244914	0.620374	6	10	0.05	2000	2.765984	40.92395	-91.39363
3421226	-38	462	-1107	0.02383126	-0.003379867	-61.62196	0	11.11	20032	0	0	5	5	0.06196963	0.6313902	6	10	0.05	2000	3.876728	40.92395	-91.39363
3421296	508	526	-726	0.2251145	-0.7280632	-61.65306	0	10.55	20032	0	0	5	5	0.08469941	0.6411359	6	10	0.05	2000	3.876728	40.92395	-91.39363
3421428	2312	2067	-220	1.636986	-3.031895	-60.94339	0	10.55	20032	0	0	5	5	0.1363337	0.6498901	6	10	0.05	2000	4.876137	40.92395	-91.39363
3421500	-602	241	603	2.224251	-4.30478	-60.9229	0	10.55	20032	0	0	5	5	0.1808139	0.6519294	6	10	0.05	2000	5.239413	40.92395	-91.39363
3421627	-1630	-1057	309	-2.788212	-1.318575	-62.69028	0	10.55	20031	100	45	5	5	0.1508881	0.6657457	8	10	0.05	2000	8.02364	40.92395	-91.39363
3421760	-4094	-1839	-611	-6.323578	0.1646356	-62.19742	0	10.55	20055	128	27	5	5	0.09899767	0.691066	8	10	0.05	2000	7.032047	40.92395	-91.39363
3421866	-353	960	-536	-9.119718	1.594313	-62.57711	0	10.55	20032	138	16	5	5	0.0721693	0.7320012	8	10	0.05	2000	3.520795	40.92395	-91.39363
3421906	-1817	-912	-1335	-9.271117	2.379733	-62.37995	0	10.55	20033	156	7	5	5	0.05845714	0.7582992	8	10	0.05	2000	3.520795	40.92395	-91.39363
3422010	-570	-388	-184	-9.710831	3.508325	-61.11359	0	10.55	20032	177	-3	5	5	0.04735028	0.77653	8	10	0.05	2000	2.659702	40.92395	-91.39362
3422186	-1899	686	-2	-12.18785	1.569787	-61.49977	0	10.55	20035	37	-14	5	5	0.02516388	0.8940476	8	10	0.05	2000	-3.811554	40.92395	-91.39362
3422261	1190	-1408	-121	-11.08972	1.436594	-61.71444	0	10.38	20033	35	-14	5	5	0.02038274	0.9483863	8	10	0.05	2000	-6.516235	40.92395	-91.39362
3422384	-1227	994	-947	-8.379331	1.502289	-61.11831	0	10.38	20051	44	-32	5	5	0.02	1.0493	8	10	0.05	2000	-11.11951	40.92395	-91.39362
3422497	2266	1614	-673	-5.269814	-0.6030231	-59.8623	0	10.38	20058	35	-23	5	5	0.02	1.246162	8	10	0.05	2000	-12.1731	40.92395	-91.39362
3422551	-342	-377	1089	-4.524631	-0.7152954	-61.22249	0	10.38	20032	24	-23	5	5	0.02	1.265711	8	10	0.05	2000	-12.2507	40.92395	-91.39362
3422637	491	-1610	-1008	-4.960537	-0.195281	-62.11081	0	10.38	20060	6	-14	5	5	0.02	1.471769	8	10	0.05	2000	-11.23035	40.92395	-91.39362
3422707	1278	-1215	-966	-3.756951	0.4372066	-62.09825	0	10.38	20009	-25	-14	5	5	0.02	1.506254	8	10	0.05	2000	-10.62051	40.92395	-91.39362
3422811	896	1022	53	-0.6667703	-0.657276	-61.26235	0	10.38	20037	-25	-14	5	5	0.02	1.686958	8	10	0.05	2000	-10.87778	40.92395	-91.39363
3422915	-226	-1218	-1071	-0.5917509	-1.273147	-60.92434	0	10.38	20009	-66	-5	5	5	0.02	1.912512	8	10	0.05	2000	-11.43735	40.92395	-91.39363
3423053	379	90	-144	0.01034588	1.451849	-61.25482	0	10.38	20030	-66	-5	5	5	0.02	1.980807	8	10	0.05	2000	-9.506226	40.92395	-91.39363
3423122	1206	212	287	0.2560046	0.05254606	-62.30399	0	9.7	20034	-98	-5	5	5	0.02	2.142214	8	10	0.05	2000	-6.730469	40.92395	-91.39364
3423250	3811	2109	-435	2.553339	-1.654996	-62.26891	0	9.7	20020	-89	-5	5	5	0.02	2.255742	8	10	0.05	2000	-5.031982	40.92395	-91.39364
3423331	888	-136	-167	5.414905	-2.885483	-61.24015	0	9.7	20034	-132	-15	5	5	0.02	2.397332	8	10	0.05	2000	-4.180298	40.92395	-91.39364
3423446	491	-1139	259	4.802091	-1.323232	-61.17638	0	9.7	20049	-105	-15	5	5	0.02	2.507075	8	10	0.05	2000	0.1813757	40.92395	-91.39364
3423534	638	-416	394	4.956785	-0.4382297	-61.4809	0	9.7	20042	-105	-15	5	5	0.02	2.706696	8	10	0.05	2000	0.8097697	40.92395	-91.39364
3423730	1369	-214	-546	5.830524	-0.7571217	-61.74094	0	9.7	20037	-153	-26	5	5	0.02	2.826796	8	10	0.05	2000	4.518701	40.92395	-91.39365
3423801	1366	1001	312	7.504941	-1.878724	-61.3232	0	9.7	20027	-126	-26	5	5	0.02	2.882456	8	10	0.05	2000	7.444117	40.92395	-91.39365
3423911	513	-826	599	8.548848	-3.371268	-60.88964	0	9.7	20035	-147	-26	5	5	0.02	2.977401	8	10	0.05	2000	8.212734	40.92395	-91.39365
3424009	-196	-1396	-158	7.948421	-2.209247	-60.81284	0	9.7	20057	-111	-17	5	5	0.02	3.056746	8	10	0.05	2000	9.650085	40.92395	-91.39365
3424030	204	-900	121	7.328666	-1.218066	-61.10242	0	9.7	20032	-122	-17	5	5	0.02	3.056746	8	10	0.05	2000	11.2615	40.92395	-91.39365
3424190	1513	284	-814	8.164585	-0.6227445	-62.15543	0	9.98	20024	-122	-17	5	5	0.02	3.21421	8	10	0.05	2000	15.02752	40.92395	-91.39365
3424317	609	-240	-294	8.909459	-0.9835137	-62.48414	0	9.98	20033	-59	-19	5	5	0.02	3.325217	8	10	0.05	2000	19.72084	40.92395	-91.39365
3424404	-577	752	270	7.133625	-0.8955374	-62.21829	0	9.98	20032	-59	-19	5	5	0.02	3.37072	8	10	0.05	2000	22.44412	40.92395	-91.39365
3424449	-101	851	-93	6.461529	-2.212281	-61.93948	0	9.98	24011	-59	-19	5	5	0.02	3.384782	8	10	0.05	2000	22.44412	40.92395	-91.39365
3424551	-138	-10	428	5.95935	-2.852387	-61.68557	0	9.98	20030	-41	-19	5	5	0.02	3.448214	8	10	0.05	2000	22.87769	40.92395	-91.39365
3424639	-712	154	-450	4.182374	-1.931981	-61.75724	0	9.98	20053	-9	-29	5	5	0.02	3.482654	8	10	0.05	2000	24.84753	40.92394	-91.39365
