time(ms)	gyro_x(deg/s)	gyro_y(deg/s)	gyro_z(deg/s)	orientation_roll(deg)	orientation_pitch(deg)	orientation_yaw(deg)	throttle	battery(V)	loop_time(uS)	pid_output_roll	pid_output_pitch	pid_output_yaw	pid_output_throttle	ultrasonic_alt	baro_alt	flight_mode	p_gain_altitude	i_gain_altitude	d_gain_altitude	compass_heading	latitude	longitude
3516762	0	0	5	0.07995243	0.153728	-70.5307	0	11	20057	0	0	5	5	0.02	1.12931	1	10	0.05	2000	1.641918	40.92394	-91.39363
3516869	-3	-4	3	0.08367203	0.1479458	-70.53473	0	11	20057	0	0	5	5	0.02	1.125265	1	10	0.05	2000	1.876599	40.92394	-91.39363
3516980	-6	2	2	0.08051733	0.1478683	-70.53821	0	11	20057	0	0	5	5	0.02	1.116955	1	10	0.05	2000	1.863941	40.92394	-91.39363
3517113	-1	1	6	0.07929263	0.146571	-70.54541	0	11.06	20057	0	0	5	5	0.02	1.100718	1	10	0.05	2000	1.875125	40.92394	-91.39363
3517174	-6	-3	2	0.08164088	0.150203	-70.54639	0	11.06	20057	0	0	5	5	0.02	1.097677	1	10	0.05	2000	1.652288	40.92394	-91.39363
3517255	-3	3	8	0.08001136	0.1496201	-70.54889	0	11.06	20057	0	0	5	5	0.02	1.088983	1	10	0.05	2000	1.643324	40.92394	-91.39363
3517389	0	0	5	0.08085534	0.1434796	-70.55304	0	11.06	20057	0	0	5	5	0.02	1.076433	1	10	0.05	2000	1.649033	40.92394	-91.39363
3517491	7	0	2	0.08457408	0.1507688	-70.55713	0	11.06	20057	0	0	5	5	0.02	1.07924	1	10	0.05	2000	1.645562	40.92394	-91.39363
3517620	-1	-1	5	0.08550199	0.1495861	-70.56403	0	11.06	20057	0	0	5	5	0.02	1.088287	1	10	0.05	2000	1.853954	40.92394	-91.39363
3517751	-1	-1	2	0.07949962	0.1512975	-70.56763	0	11.06	20057	0	0	5	5	0.02	1.090876	1	10	0.05	2000	1.873686	40.92394	-91.39363
3517798	5	4	1	0.07868908	0.1533182	-70.56915	0	11.06	20057	0	0	5	5	0.02	1.093804	1	10	0.05	2000	1.873686	40.92394	-91.39363
3517891	4	-1	4	0.09151761	0.1605006	-70.57782	0	11.06	20057	0	0	5	5	0.02	1.097619	1	10	0.05	2000	2.076283	40.92394	-91.39363
3518034	0	4	2	0.08739359	0.150915	-70.58276	0	11	20057	0	0	5	5	0.02	1.095906	1	10	0.05	2000	1.861012	40.92394	-91.39363
3518085	-3	1	3	0.08808181	0.1476216	-70.58789	0	11	20057	0	0	5	5	0.02	1.096528	1	10	0.05	2000	1.861012	40.92394	-91.39363
3518173	2	-3	1	0.09148085	0.149406	-70.59467	0	11	20057	0	0	5	5	0.02	1.097104	1	10	0.05	2000	1.632345	40.92394	-91.39363
3518282	4	2	7	0.09480406	0.1493986	-70.59857	0	11	20057	0	0	5	5	0.02	1.096966	1	10	0.05	2000	1.634301	40.92394	-91.39363
3518438	0	3	4	0.0990363	0.1527717	-70.60632	0	11	20057	0	0	5	5	0.02	1.084022	1	10	0.05	2000	1.844756	40.92394	-91.39363
3518513	9	-1	-1	0.1038687	0.1511505	-70.60895	0	11	20057	0	0	5	5	0.02	1.075647	1	10	0.05	2000	1.61603	40.92394	-91.39363
3518621	3	0	6	0.1105454	0.1537253	-70.61279	0	11	20057	0	0	5	5	0.02	1.067338	1	10	0.05	2000	1.837041	40.92394	-91.39363
3518683	-1	4	7	0.1071747	0.1481493	-70.61517	0	11	20057	0	0	5	5	0.02	1.051032	1	10	0.05	2000	1.61751	40.92394	-91.39363
3518782	2	0	6	0.1029117	0.1529231	-70.61816	0	11	20057	0	0	5	5	0.02	1.041759	1	10	0.05	2000	1.614511	40.92394	-91.39363
3518907	1	4	7	0.102303	0.1539311	-70.62494	0	11.06	20057	0	0	5	5	0.02	1.028228	1	10	0.05	2000	1.838032	40.92394	-91.39363
3519004	-1	-1	6	0.1044487	0.1518458	-70.62616	0	11.06	20057	0	0	5	5	0.02	1.009894	1	10	0.05	2000	1.838203	40.92394	-91.39363
3519090	3	-1	5	0.1092005	0.1524355	-70.62958	0	11.06	20057	0	0	5	5	0.02	1.005499	1	10	0.05	2000	1.839571	40.92394	-91.39363
3519198	5	3	3	0.1065484	0.1564474	-70.63354	0	11.06	20057	0	0	5	5	0.02	0.9981847	1	10	0.05	2000	1.828686	40.92394	-91.39363
3519371	-9	5	6	0.1087583	0.1603456	-70.63782	0	11.06	20057	0	0	5	5	0.02	0.994687	1	10	0.05	2000	1.602613	40.92394	-91.39363
3519447	1	0	8	0.1066427	0.1613967	-70.64191	0	11.06	20057	0	0	5	5	0.02	0.9944783	1	10	0.05	2000	1.608772	40.92394	-91.39363
3519498	3	0	0	0.1066133	0.1627271	-70.64478	0	11.06	20057	0	0	5	5	0.02	0.9961588	1	10	0.05	2000	1.607528	40.92394	-91.39363
3519617	-2	2	5	0.1114729	0.1581024	-70.65063	0	11.06	20057	0	0	5	5	0.02	1.000226	1	10	0.05	2000	1.601054	40.92394	-91.39363
3519700	2	0	1	0.1088363	0.1558421	-70.65405	0	11.06	20057	0	0	5	5	0.02	1.006287	1	10	0.05	2000	1.822651	40.92394	-91.39363
3519804	2	-1	5	0.116513	0.151838	-70.65948	0	11.06	20057	0	0	5	5	0.02	1.007215	1	10	0.05	2000	1.825796	40.92394	-91.39363
3519908	7	-5	8	0.1219416	0.1468932	-70.66455	0	11.06	20057	0	0	5	5	0.02	1.010396	1	10	0.05	2000	1.592415	40.92394	-91.39363
3520011	2	1	1	0.1269554	0.1501507	-70.66785	0	11.06	20057	0	0	5	5	0.02	1.016722	1	10	0.05	2000	1.583536	40.92394	-91.39363
3520146	5	0	5	0.1243601	0.1512278	-70.67395	0	11.06	20057	0	0	5	5	0.02	1.023502	1	10	0.05	2000	1.810438	40.92394	-91.39363
3520232	1	3	0	0.1274064	0.1552666	-70.67743	0	11.06	20057	0	0	5	5	0.02	1.024844	1	10	0.05	2000	1.798236	40.92394	-91.39363
3520357	-2	1	0	0.1257754	0.1533496	-70.67914	0	11.06	20057	0	0	5	5	0.02	1.030584	1	10	0.05	2000	1.800432	40.92394	-91.39363
3520412	4	1	-4	0.1221669	0.1490368	-70.68292	0	11.06	20057	0	0	5	5	0.02	1.030726	1	10	0.05	2000	1.810428	40.92394	-91.39363
3520605	-2	-1	10	0.1255574	0.1480164	-70.68896	0	11.06	20057	0	0	5	5	0.02	1.03415	1	10	0.05	2000	1.804227	40.92394	-91.39363
3520668	0	0	3	0.1255058	0.1418392	-70.69464	0	11.06	20057	0	0	5	5	0.02	1.030754	1	10	0.05	2000	1.811295	40.92394	-91.39363
3520769	1	5	2	0.1226113	0.1407828	-70.69879	0	11	20057	0	0	5	5	0.02	1.02746	1	10	0.05	2000	1.814524	40.92394	-91.39363
3520813	6	0	0	0.1222662	0.1359797	-70.7002	0	11	20057	0	0	5	5	0.02	1.026346	1	10	0.05	2000	1.798305	40.92394	-91.39363
3520914	2	5	5	0.1230011	0.1396522	-70.70721	0	11	20057	0	0	5	5	0.02	1.02911	1	10	0.05	2000	1.813671	40.92394	-91.39363
3521016	-1	3	1	0.1327192	0.1407858	-70.71106	0	11	20057	0	0	5	5	0.02	1.035367	1	10	0.05	2000	1.577053	40.92394	-91.39363
3521106	7	0	4	0.1307355	0.1405507	-70.71741	0	11	20057	0	0	5	5	0.02	1.036066	1	10	0.05	2000	1.797831	40.92394	-91.39363
3521289	2	1	5	0.1394045	0.1396422	-70.72412	0	11	20057	0	0	5	5	0.02	1.035435	1	10	0.05	2000	1.792903	40.92394	-91.39363
3521411	4	-1	-1	0.1461659	0.1416935	-70.72925	0	11	20057	0	0	5	5	0.02	1.03348	1	10	0.05	2000	1.782845	40.92394	-91.39363
3521460	5	0	4	0.1486239	0.1383277	-70.73096	0	11	20057	0	0	5	5	0.02	1.026156	1	10	0.05	2000	1.782845	40.92394	-91.39363
3521557	5	-3	5	0.1443135	0.1396354	-70.73529	0	11	20057	0	0	5	5	0.02	1.01974	1	10	0.05	2000	1.778711	40.92394	-91.39363
3521638	9	-10	6	0.1500707	0.1476806	-70.73938	0	11	20057	0	0	5	5	0.02	1.009613	1	10	0.05	2000	1.551423	40.92394	-91.39363
3521719	3	0	8	0.1503927	0.1494383	-70.74121	0	11	20057	0	0	5	5	0.02	1.001112	1	10	0.05	2000	1.546739	40.92394	-91.39363
3521872	0	3	-1	0.1461622	0.1470999	-70.74811	0	11	20057	0	0	5	5	0.02	0.9891872	1	10	0.05	2000	1.773261	40.92394	-91.39363
3521935	8	4	1	0.1414557	0.1470892	-70.75201	0	11	20057	0	0	5	5	0.02	0.9882361	1	10	0.05	2000	1.999796	40.92394	-91.39363
3522038	4	0	2	0.1451997	0.1472051	-70.75549	0	11	20057	0	0	5	5	0.02	0.9861	1	10	0.05	2000	1.780205	40.92394	-91.39363
3522147	13	-8	6	0.1485227	0.1446509	-70.75806	0	11	20057	0	0	5	5	0.02	0.9864334	3	10	0.05	2000	1.552846	40.92394	-91.39363
3522262	3	9	4	0.1473962	0.1480603	-70.76453	0	11	20057	0	0	5	5	0.02	0.9779432	3	10	0.05	2000	1.768845	40.92394	-91.39363
3522361	-3	-1	4	0.150126	0.1389088	-70.76843	0	11	20057	0	0	5	5	0.02	0.9682834	3	10	0.05	2000	1.781089	40.92394	-91.39363
3522449	4	1	11	0.1499917	0.136981	-70.7724	0	11	20057	0	0	5	5	0.02	0.9602678	3	10	0.05	2000	1.544122	40.92394	-91.39363
3522546	4	0	7	0.155084	0.1385728	-70.78046	0	11	20057	0	0	5	5	0.02	0.9496486	3	10	0.05	2000	1.543228	40.92394	-91.39363
3522643	-1	9	4	0.1594743	0.1376057	-70.78595	0	11.06	20057	0	0	5	5	0.02	0.9354581	3	10	0.05	2000	1.977793	40.92394	-91.39363
3522719	1	0	11	0.1582152	0.1394212	-70.79236	0	11.06	20057	0	0	5	5	0.02	0.9285562	3	10	0.05	2000	1.536361	40.92394	-91.39363
3522875	9	1	1	0.1495632	0.1338352	-70.79669	0	11.06	20057	0	0	5	5	0.02	0.9230336	3	10	0.05	2000	1.538962	40.92394	-91.39363
3522924	1	3	7	0.1473309	0.1376316	-70.79987	0	11.06	20057	0	0	5	5	0.02	0.9233747	3	10	0.05	2000	1.778427	40.92394	-91.39363
3523023	1	2	3	0.1433168	0.1363294	-70.80524	0	11.06	20057	0	0	5	5	0.02	0.9236688	3	10	0.05	2000	1.785947	40.92394	-91.39363
3523183	0	-1	2	0.1365353	0.1293312	-70.81055	0	11.06	20057	0	0	5	5	0.02	0.9369514	3	10	0.05	2000	1.561089	40.92394	-91.39363
3523278	6	2	5	0.1319109	0.1355322	-70.81763	0	11.06	20057	0	0	5	5	0.02	0.9411665	3	10	0.05	2000	1.567461	40.92394	-91.39363
3523321	9	0	4	0.1331275	0.1364359	-70.81995	0	11.06	20057	0	0	5	5	0.02	0.9428141	3	10	0.05	2000	2.014863	40.92394	-91.39363
3523473	1	5	24	0.1370388	0.1238656	-70.8258	0	11.06	20057	0	0	5	5	0.02	0.939573	3	10	0.05	2000	1.320908	40.92394	-91.39363
3523556	-42	53	46	0.117474	0.1132252	-70.83175	0	10.77	20057	0	0	5	5	0.02	0.9430583	3	10	0.05	2000	1.324454	40.92394	-91.39363
3523623	-47	116	-7	0.004680107	-0.07095204	-70.8408	0	10.77	20057	0	0	5	5	0.02	0.9453661	3	10	0.05	2000	1.39242	40.92394	-91.39363
3523763	74	-133	17	0.01827459	-0.0326842	-70.84531	0	10.77	20057	0	0	5	5	0.02	0.9612565	3	10	0.05	2000	0.6352349	40.92394	-91.39363
3523879	126	-74	31	0.1901088	0.2156534	-70.83767	0	10.77	20057	0	0	5	5	0.02	0.9674715	3	10	0.05	2000	1.558403	40.92394	-91.39363
3523930	61	-83	-15	0.1813103	0.1777545	-70.84743	0	10.77	20057	0	0	5	5	0.02	0.9710059	3	10	0.05	2000	0.5952717	40.92394	-91.39363
3524034	187	35	38	0.2147902	0.2064208	-70.84834	0	10.77	20057	0	0	5	5	0.02	0.978161	3	10	0.05	2000	0.9740725	40.92394	-91.39363
3524150	-115	-26	69	0.2184078	0.2221905	-70.84366	0	10.77	20057	0	0	5	5	0.02	0.9759529	3	10	0.05	2000	1.851016	40.92394	-91.39363
3524333	47	38	-26	0.2146208	0.2167798	-70.85757	0	10.77	20057	0	0	5	5	0.02	0.9703165	3	10	0.05	2000	2.165173	40.92394	-91.39363
3524401	-85	-47	3	0.179312	0.2372492	-70.85712	0	10.77	20057	0	0	5	5	0.02	0.9676233	3	10	0.05	2000	1.021666	40.92394	-91.39363
3524478	64	36	-118	0.1589448	0.2588236	-70.85844	0	10.83	20057	0	0	5	5	0.02	0.975784	3	10	0.05	2000	1.480895	40.92394	-91.39363
3524558	72	52	-14	0.1606068	0.2616156	-70.86506	0	10.83	20057	0	0	5	5	0.02	0.9842136	3	10	0.05	2000	1.316586	40.92394	-91.39363
3524658	-41	31	-55	0.1728249	0.2735855	-70.86992	0	10.83	20057	0	0	5	5	0.02	0.9940549	3	10	0.05	2000	0.6292743	40.92394	-91.39363
3524808	-136	-112	96	0.1867841	0.271817	-70.88741	0	10.83	20057	0	0	5	5	0.02	1.010329	3	10	0.05	2000	0.3515808	40.92394	-91.39363
3524905	98	-35	0	0.2091393	0.2823142	-70.88947	0	10.83	20057	0	0	5	5	0.02	1.01425	3	10	0.05	2000	1.269217	40.92394	-91.39363
3524999	-31	7	130	0.1911875	0.2522255	-70.89343	0	10.83	20057	0	0	5	5	0.02	1.020033	3	10	0.05	2000	1.217535	40.92394	-91.39363
3525037	19	-34	86	0.1999442	0.2635282	-70.89288	0	10.83	20057	0	0	5	5	0.02	1.023178	3	10	0.05	2000	1.217535	40.92394	-91.39363
3525255	-48	-7	54	0.1446575	0.2423521	-70.91264	0	10.83	20057	0	0	5	5	0.02	1.050876	3	10	0.05	2000	0.8071405	40.92394	-91.39363
3525355	-48	-49	53	0.1604532	0.2488794	-70.91254	0	10.94	20057	0	0	5	5	0.02	1.066161	3	10	0.05	2000	1.070507	40.92394	-91.39363
3525505	123	37	-47	0.153729	0.2287359	-70.91672	0	10.94	20057	0	0	5	5	0.02	1.086914	3	10	0.05	2000	1.728765	40.92394	-91.39363
3525556	-69	43	23	0.1065222	0.2621901	-70.92104	0	10.94	20057	0	0	5	5	0.02	1.090398	3	10	0.05	2000	1.353992	40.92394	-91.39363
3525666	-101	-56	-30	0.09627851	0.2608241	-70.92679	0	10.94	20057	0	0	5	5	0.02	1.108931	3	10	0.05	2000	2.020028	40.92394	-91.39363
3525791	-82	-127	35	0.08401966	0.2920843	-70.9304	0	10.94	20057	0	0	5	5	0.02	1.120322	3	10	0.05	2000	2.089586	40.92394	-91.39363
3525930	52	7	15	0.08018254	0.2832033	-70.92306	0	10.94	20057	0	0	5	5	0.02	1.134332	3	10	0.05	2000	1.586506	40.92394	-91.39363
3526065	-1	-26	-2	0.1039399	0.2763055	-70.91586	0	10.94	20057	0	0	5	5	0.02	1.125984	3	10	0.05	2000	1.383149	40.92394	-91.39363
3526130	-78	0	99	0.1132359	0.264901	-70.91973	0	10.94	20057	0	0	5	5	0.02460693	1.117813	6	10	0.05	2000	1.798456	40.92394	-91.39363
3526191	-94	-19	95	0.132667	0.2368819	-70.91776	0	10.94	20057	0	0	5	5	0.02796124	1.111232	6	10	0.05	2000	1.615651	40.92394	-91.39363
3526256	26	-30	-55	0.1263614	0.2463021	-70.91479	0	10.94	20057	0	0	5	5	0.03071596	1.101971	6	10	0.05	2000	1.305689	40.92394	-91.39363
3526403	-46	124	18	0.1720112	0.2993278	-70.92667	0	11.06	20057	0	0	5	5	0.03325098	1.086578	6	10	0.05	2000	1.256261	40.92394	-91.39363
3526457	139	-83	79	0.2222865	0.3133026	-70.9246	0	11.06	20057	0	0	5	5	0.03537923	1.076587	6	10	0.05	2000	1.256261	40.92394	-91.39363
3526566	2	14	309	0.2038609	0.3180696	-70.95207	0	11.06	20057	0	0	5	5	0.03781018	1.067286	6	10	0.05	2000	1.264666	40.92394	-91.39363
3526662	79	-74	210	0.1764076	0.3532295	-70.93134	0	11.06	20057	0	0	5	5	0.03906748	1.066178	6	10	0.05	2000	0.6268814	40.92394	-91.39363
3526817	107	3	-335	0.1363329	0.3435344	-70.90465	0	11.06	20057	0	0	5	5	0.0431268	1.08284	6	10	0.05	2000	1.781668	40.92394	-91.39363
3526863	160	-68	-364	0.1374512	0.3461286	-70.90986	0	11.06	20057	0	0	5	5	0.0431268	1.08284	6	10	0.05	2000	1.130969	40.92394	-91.39363
3526965	24	82	-115	0.1175511	0.3531335	-70.90632	0	11.06	20057	0	0	5	5	0.04637385	1.102838	6	10	0.05	2000	1.130969	40.92394	-91.39363
3527105	-14	-73	461	0.2227684	0.3201208	-70.96091	0	11.06	20057	0	0	5	5	0.04856334	1.127337	6	10	0.05	2000	1.663618	40.92394	-91.39363
3527153	23	27	63	0.2803295	0.3593734	-71.01073	0	11.06	20057	0	0	5	5	0.0476129	1.141564	6	10	0.05	2000	1.368219	40.92394	-91.39363
3527348	54	136	508	0.157474	0.1770452	-71.41653	0	11.17	20057	0	0	5	5	0.0463355	1.173753	6	10	0.05	2000	2.432377	40.92394	-91.39363
3527367	54	136	508	0.157474	0.1770452	-71.41653	0	11.17	20057	0	0	5	5	0.04604502	1.192572	6	10	0.05	2000	2.432377	40.92394	-91.39363
3527520	-24	198	-437	0.1191307	0.1031638	-71.43257	0	11.17	20057	0	0	5	5	0.04557266	1.228326	6	10	0.05	2000	2.423441	40.92394	-91.39363
3527596	82	-3	166	0.0858613	0.0658896	-71.28523	0	11.17	20057	0	0	5	5	0.04668936	1.239528	6	10	0.05	2000	2.423441	40.92394	-91.39363
3527667	-234	-1170	-262	0.01928683	0.7372465	-71.02021	0	11.17	20057	0	0	5	5	0.04706711	1.248004	6	10	0.05	2000	2.29811	40.92394	-91.39363
3527803	-620	-2025	-261	-0.4053966	3.066903	-70.96027	0	11.17	20057	0	0	5	5	0.04853373	1.258287	6	10	0.05	2000	3.013892	40.92394	-91.39363
3527909	1388	3088	240	-1.097182	2.875495	-69.55552	0	11.17	20057	0	0	5	5	0.05480124	1.265672	6	10	0.05	2000	0.7934009	40.92394	-91.39363
3528050	-371	534	1942	-0.3616522	0.2038785	-70.2234	0	11.17	20057	0	0	5	5	0.06928106	1.263992	6	10	0.05	2000	0.2213196	40.92394	-91.39363
3528082	-82	-193	1334	-0.5282134	0.1784025	-70.49469	0	11.17	20057	0	0	5	5	0.07452945	1.263609	6	10	0.05	2000	1.517525	40.92394	-91.39363
3528186	981	405	-575	0.6214274	-0.8201906	-70.71316	0	10.72	20057	0	0	5	5	0.1278835	1.264156	6	10	0.05	2000	1.64289	40.92394	-91.39363
3528276	-1177	788	-1090	0.4341283	-2.073343	-70.73909	0	10.72	20057	0	0	5	5	0.1784694	1.266331	6	10	0.05	2000	2.232218	40.92394	-91.39363
3528370	785	200	1189	-0.02154695	-1.623225	-71.17796	0	10.72	20028	-22	6	5	5	0.1868521	1.273821	8	10	0.05	2000	1.797854	40.92394	-91.39363
3528514	1794	574	-759	2.309247	-2.176852	-70.89963	0	10.72	20034	-23	6	5	5	0.1103343	1.308023	8	10	0.05	2000	4.684915	40.92394	-91.39362
3528565	876	-641	-172	3.654107	-2.538473	-70.44977	0	10.72	20026	-23	6	5	5	0.0993009	1.314696	8	10	0.05	2000	4.210512	40.92394	-91.39362
3528686	657	-441	112	1.347205	-1.430456	-70.92287	0	10.72	20032	-24	5	5	5	0.05863619	1.372622	8	10	0.05	2000	5.802956	40.92394	-91.39362
3528755	-428	-230	-152	1.646281	-0.8858601	-70.86694	0	10.72	20053	-24	5	5	5	0.05277257	1.39649	8	10	0.05	2000	5.457555	40.92394	-91.39362
3528912	-182	-2326	-801	0.06541446	1.231709	-70.19531	0	10.72	20022	-24	7	5	5	0.03462408	1.46461	8	10	0.05	2000	6.316571	40.92394	-91.39362
3528964	456	130	-95	0.2845435	1.707037	-69.78948	0	10.72	20032	-20	6	5	5	0.02524096	1.528062	8	10	0.05	2000	6.316571	40.92394	-91.39362
3529146	149	760	-194	1.943371	-0.8903237	-69.25963	0	9.98	20055	16	-7	5	5	0.02	1.647183	8	10	0.05	2000	6.314804	40.92394	-91.39362
3529198	-780	524	-396	1.484111	-1.602488	-69.39439	0	9.98	20008	16	-7	5	5	0.02	1.728482	8	10	0.05	2000	6.361153	40.92393	-91.39362
3529258	-320	-700	-1241	0.7027932	-2.068736	-69.45323	0	9.98	20053	16	-7	5	5	0.02	1.769469	8	10	0.05	2000	7.326047	40.92393	-91.39362
3529430	-605	630	614	0.4367674	-2.084378	-69.77153	0	9.98	20031	20	-6	5	5	0.02	2.029979	8	10	0.05	2000	6.584104	40.92393	-91.39362
3529484	-508	-591	1385	0.1459042	-2.131386	-70.04211	0	9.98	20011	19	-6	5	5	0.02	2.049976	8	10	0.05	2000	6.60944	40.92393	-91.39362
3529565	-347	741	-545	1.943854	-3.009261	-69.23072	0	9.98	20010	19	-6	5	5	0.02	2.091799	8	10	0.05	2000	5.258868	40.92393	-91.39362
3529669	-3068	-1575	-298	-0.01116468	-2.853664	-69.37684	0	9.98	20032	26	-8	5	5	0.02	2.292728	8	10	0.05	2000	6.650857	40.92393	-91.39362
3529783	587	-54	-476	-1.432557	-1.274948	-69.87674	0	9.98	20016	32	-8	5	5	0.02	2.345501	8	10	0.05	2000	6.67914	40.92393	-91.39362
3529880	-535	-294	-333	-0.424978	-1.616629	-69.50563	0	9.98	20012	31	-7	5	5	0.02	2.557404	8	10	0.05	2000	6.178342	40.92393	-91.39362
3530093	752	769	-1144	-2.323436	0.6122033	-69.41495	0	10.21	20012	44	-7	5	5	0.02	2.826709	8	10	0.05	2000	3.009731	40.92393	-91.39362
3530193	-1151	592	-486	-2.128613	-0.9247776	-69.19942	0	10.21	20038	44	-7	5	5	0.02	2.879422	8	10	0.05	2000	1.374318	40.92393	-91.39361
3530283	523	861	-77	-4.166224	-0.7064689	-70.15902	0	10.21	20055	42	-6	5	5	0.02	2.984335	8	10	0.05	2000	-0.6318665	40.92393	-91.39361
3530388	-348	-688	109	-2.162464	-1.500422	-70.18597	0	10.21	20009	46	-6	5	5	0.02	3.171944	8	10	0.05	2000	-1.913666	40.92393	-91.39361
3530546	319	-457	-252	-2.466831	-1.01914	-69.94196	0	10.21	20056	44	-6	5	5	0.02	3.267897	8	10	0.05	2000	-3.634796	40.92393	-91.39361
3530618	1166	1851	354	-0.7283339	-2.120484	-69.74387	0	10.21	20028	42	-6	5	5	0.02	3.317884	8	10	0.05	2000	-5.132965	40.92393	-91.39361
3530699	-1393	-510	1263	-3.273562	-1.036381	-70.11788	0	10.21	20033	52	-10	5	5	0.02	3.363375	8	10	0.05	2000	-3.862427	40.92393	-91.3936
3530789	-864	306	49	-4.064142	-1.341485	-70.6357	0	10.21	20031	50	-11	5	5	0.02	3.446274	8	10	0.05	2000	-4.568604	40.92393	-91.3936
3530903	77	-584	12	-3.315771	-1.27701	-70.83997	0	10.77	20032	55	-14	5	5	0.02	3.529224	8	10	0.05	2000	-5.516266	40.92393	-91.3936
3531024	-428	511	193	-5.614858	0.3561907	-70.78306	0	10.77	20035	55	-16	5	5	0.02	3.615184	8	10	0.05	2000	-6.39566	40.92393	-91.3936
3531131	1647	1764	-1564	-4.258792	-1.052142	-70.45223	0	10.77	20027	55	-16	5	5	0.02	3.664467	8	10	0.05	2000	-6.541626	40.92393	-91.3936
3531239	-1651	34	-252	-3.849862	-2.999606	-70.54052	0	10.77	24011	58	-21	5	5	0.02	3.707721	8	10	0.05	2000	-7.365692	40.92393	-91.3936
3531352	-296	-412	110	-5.002131	-0.9706824	-70.04804	0	10.77	20031	55	-19	5	5	0.02	3.748609	8	10	0.05	2000	-8.040009	40.92393	-91.3936
3531407	-874	-421	99	-5.197886	-0.9810679	-70.07555	0	10.77	20032	55	-22	5	5	0.02	3.759221	8	10	0.05	2000	-9.652008	40.92393	-91.3936
3531539	-36	797	190	-5.476869	-0.7604565	-70.22177	0	10.77	20011	54	-21	5	5	0.02	3.775072	8	10	0.05	2000	-11.32587	40.92393	-91.3936
3531613	-962	365	-143	-5.292008	-1.125808	-70.15594	0	10.77	20038	56	-26	5	5	0.02	3.77719	8	10	0.05	2000	-10.83972	40.92393	-91.3936
3531702	529	217	-21	-5.026464	-1.199865	-70.18748	0	10.77	20030	55	-25	5	5	0.02	3.775872	8	10	0.05	2000	-12.54965	40.92393	-91.3936
3531804	940	1233	-667	-4.24122	-2.063186	-70.14294	0	10.77	20008	55	-30	5	5	0.02	3.755508	8	10	0.05	2000	-13.80484	40.92393	-91.3936
3531918	-540	-100	245	-4.547164	-3.104083	-70.13572	0	10.26	20062	66	-34	5	5	0.02	3.71502	8	10	0.05	2000	-13.20798	40.92393	-91.3936
3531973	12	543	-906	-4.711648	-2.67219	-70.17418	0	10.26	20028	50	-33	5	5	0.02	3.684886	8	10	0.05	2000	-13.20798	40.92392	-91.3936
3532082	-830	-314	27	-4.436316	-4.103235	-70.54138	0	10.26	20028	50	-33	5	5	0.02	3.633241	8	10	0.05	2000	-14.80026	40.92392	-91.3936
3532199	2563	1872	-752	-2.982058	-3.719191	-70.06889	0	10.26	20031	50	-33	5	5	0.02	3.580415	8	10	0.05	2000	-14.94467	40.92392	-91.3936
3532351	-633	673	1330	-3.426332	-4.737697	-69.48486	0	10.26	24010	49	-31	5	5	0.02	3.474586	8	10	0.05	2000	-15.79248	40.92392	-91.3936
3532390	-76	1496	505	-3.241808	-4.714738	-69.6448	0	10.26	20012	49	-30	5	5	0.02	3.425269	8	10	0.05	2000	-16.23807	40.92392	-91.3936
3532467	-442	-1009	575	-2.750338	-5.349493	-69.96483	0	10.26	20034	28	-37	5	5	0.02	3.328338	8	10	0.05	2000	-16.24854	40.92392	-91.39361
3532549	-497	325	311	-3.023017	-2.625536	-70.68964	0	10.26	20031	28	-37	5	5	0.02	3.269441	8	10	0.05	2000	-17.68686	40.92392	-91.39361
3532659	-229	-743	89	-3.412575	-1.248729	-70.30708	0	10.89	20032	17	-38	5	5	0.02	3.216512	8	10	0.05	2000	-16.67917	40.92392	-91.39362
3532765	-513	172	662	-4.537931	1.651196	-69.17886	0	10.89	20032	17	-38	5	5	0.02	3.121832	8	10	0.05	2000	-17.87405	40.92392	-91.39362
3532961	592	225	-7	-1.53251	-2.204512	-69.91322	0	10.89	20009	5	-40	5	5	0.02	3.01969	8	10	0.05	2000	-19.1908	40.92392	-91.39362
3533087	451	1129	-724	-0.4704665	-2.111831	-70.43568	0	10.89	20034	-9	-43	5	5	0.02	2.925919	8	10	0.05	2000	-18.5737	40.92392	-91.39362
3533268	1119	837	-546	0.8435136	-2.25593	-72.46387	0	10.89	20029	-24	-38	5	5	0.02	2.808134	8	10	0.05	2000	-14.36584	40.92392	-91.39363
3533380	472	5	-640	1.807668	0.1438774	-71.74458	0	10.89	20032	-42	-38	5	5	0.02	2.762497	8	10	0.05	2000	-12.5159	40.92392	-91.39365
3533449	892	892	-1098	-0.6661879	0.4751672	-70.40355	0	10.89	20033	-38	-37	5	5	0.02	2.74805	8	10	0.05	2000	-10.82959	40.92392	-91.39365
3533546	1763	2004	-1077	-0.09615742	-0.7365765	-68.6737	0	10.89	20031	-57	-35	5	5	0.02	2.745801	8	10	0.05	2000	-10.14984	40.92392	-91.39365
3533632	335	1937	417	1.317102	-3.151879	-68.66339	0	10.72	20030	-58	-35	5	5	0.02	2.755417	8	10	0.05	2000	-9.118774	40.92392	-91.39365
3533732	4469	-1737	1994	3.377871	-0.9495413	-69.81825	0	10.72	20042	-75	-31	5	5	0.02	2.780738	8	10	0.05	2000	-7.679474	40.92392	-91.39365
3533831	4378	1400	-514	8.803112	-0.8968294	-70.83965	0	10.72	20031	-69	-32	5	5	0.02	2.794484	8	10	0.05	2000	-5.114014	40.92392	-91.39365
3533978	5511	1735	-71	12.70859	-2.822813	-70.57615	0	10.72	20041	-84	-27	5	5	0.02	2.827248	8	10	0.05	2000	-1.259613	40.92392	-91.39367
3534111	2475	-1768	-829	18.03314	-3.753279	-69.0574	0	10.72	20023	-103	-20	5	5	0.02	2.860478	8	10	0.05	2000	5.272485	40.92393	-91.39368
3534159	3796	116	-721	20.3502	-3.537545	-68.76766	0	10.72	20006	-98	-21	5	5	0.02	2.872783	8	10	0.05	2000	8.984428	40.92393	-91.39368
3534224	4066	10	34	21.67903	-3.639986	-69.02394	0	10.72	20033	-98	-21	5	5	0.02	2.891645	8	10	0.05	2000	12.00167	40.92393	-91.39368
3534359	-1693	-1087	455	24.08594	-1.574346	-70.14666	0	10.72	20038	-108	-14	5	5	0.02	2.930802	8	10	0.05	2000	19.65495	40.92393	-91.39368
3534405	-7636	1161	689	16.2669	-1.676334	-70.85763	0	10.72	20026	-108	-14	5	5	0.02	2.948097	8	10	0.05	2000	19.65495	40.92393	-91.39368
3534509	-3883	287	463	5.224149	-2.494257	-70.40359	0	10.38	20041	-125	-7	5	5	0.02	2.977721	8	10	0.05	2000	22.41403	40.92393	-91.39369
3534661	-4396	-917	340	-3.7246	-1.756668	-69.2849	0	10.38	20042	-126	-6	5	5	0.02	3.016624	8	10	0.05	2000	21.11025	40.92393	-91.3937
3534708	-2379	-351	561	-7.575117	-1.084319	-69.95558	0	10.38	20008	-120	-8	5	5	0.02	3.024049	8	10	0.05	2000	21.03838	40.92393	-91.3937
3534905	-1635	-1045	851	-4.919525	-1.757217	-71.91219	0	10.38	20073	-139	-4	5	5	0.02	3.104302	8	10	0.05	2000	19.30773	40.92393	-91.3937
3534950	-2424	-5	830	-5.752922	-1.427008	-71.97044	0	10.38	23988	-138	-4	5	5	0.02	3.138316	8	10	0.05	2000	19.30773	40.92393	-91.3937
3535005	-3354	-564	-737	-7.040251	-1.823783	-71.74487	0	10.38	20050	-111	-1	5	5	0.02	3.148919	8	10	0.05	2000	18.29668	40.92393	-91.39369
3535105	-1843	-506	-1356	-9.875336	-3.379553	-70.05887	0	10.38	20034	-106	-3	5	5	0.02	3.198409	8	10	0.05	2000	15.62722	40.92393	-91.39369
3535217	770	-1919	-357	-10.72094	-1.140759	-70.14532	0	10.38	20028	-98	3	5	5	0.02	3.236503	8	10	0.05	2000	11.41644	40.92394	-91.39369
3535323	1987	-394	-528	0.1360662	-3.296516	-69.45844	0	10.38	24024	-92	10	5	5	0.02	3.252402	8	10	0.05	2000	9.405244	40.92394	-91.39369
3535406	2221	-1757	-748	2.833429	-3.377115	-68.76177	0	10.72	20027	-92	10	5	5	0.02	3.254271	8	10	0.05	2000	10.03722	40.92394	-91.39368
3535527	565	-4810	1106	3.375613	4.04528	-69.70032	0	10.72	20056	-87	13	5	5	0.02	3.241622	8	10	0.05	2000	14.01865	40.92394	-91.39368
3535682	-4246	3435	262	-0.1305699	5.542988	-70.87341	0	10.72	20038	-88	12	5	5	0.02	3.211157	8	10	0.05	2000	17.13958	40.92394	-91.39368
3535734	-5574	1513	9	-6.077466	2.393299	-70.78626	0	10.72	20028	-86	17	5	5	0.02	3.206891	8	10	0.05	2000	18.06631	40.92395	-91.39368
3535950	-2192	3022	-506	-9.948506	-3.074276	-68.93895	0	10.72	20032	-78	22	5	5	0.02	3.14424	8	10	0.05	2000	8.719715	40.92395	-91.39368
3536053	2194	-899	930	-10.10548	-4.0419	-68.03396	0	10.72	20035	-80	20	5	5	0.02	3.104811	8	10	0.05	2000	2.859588	40.92395	-91.39368
3536124	3660	-2029	283	-5.006132	-2.533357	-68.36639	0	10.72	20009	-70	25	5	5	0.02	3.066509	8	10	0.05	2000	-1.770935	40.92395	-91.39368
3536218	272	-1880	1045	-2.327221	-1.085479	-69.36094	0	10.72	20005	-72	23	5	5	0.02	3.019516	8	10	0.05	2000	-1.504181	40.92395	-91.39368
3536356	516	149	801	2.456568	-1.128842	-69.9471	0	10.77	20031	-65	24	5	5	0.02	2.973211	8	10	0.05	2000	-1.949646	40.92395	-91.39367
3536422	725	1815	449	3.015246	-2.351788	-69.62359	0	10.77	20030	-65	24	5	5	0.02	2.946287	8	10	0.05	2000	-2.016571	40.92395	-91.39367
3536552	-2765	-1549	497	-0.8461232	-3.287963	-69.46812	0	10.77	20035	-61	20	5	5	0.02	2.905552	8	10	0.05	2000	-3.590088	40.92395	-91.39367
3536666	1289	-751	691	-0.1756962	-1.333206	-68.72139	0	10.77	20032	-53	20	5	5	0.02	2.841105	8	10	0.05	2000	-7.034698	40.92395	-91.39366
3536863	1588	678	-1094	2.61911	-3.653275	-69.1154	0	10.77	20056	-51	18	5	5	0.02	2.68583	8	10	0.05	2000	-10.42792	40.92395	-91.39366
3536981	1411	-736	897	3.964738	-4.224614	-68.3761	0	10.77	20012	-53	18	5	5	0.02	2.621166	8	10	0.05	2000	-8.969696	40.92395	-91.39366
3537007	1411	-736	897	3.964738	-4.224614	-68.3761	0	10.77	20012	-49	15	5	5	0.02	2.606902	8	10	0.05	2000	-8.969696	40.92395	-91.39366
3537126	1078	-1209	-242	6.311005	-0.1315441	-69.07569	0	10.77	20031	-51	16	5	5	0.02	2.518342	8	10	0.05	2000	-7.263031	40.92395	-91.39366
3537196	-1396	141	1204	5.5103	1.212441	-69.68575	0	9.87	20081	-48	11	5	5	0.02	2.474745	8	10	0.05	2000	-6.144531	40.92395	-91.39366
3537298	-1263	1528	-282	4.54872	0.9564092	-70.00356	0	9.87	23993	-50	11	5	5	0.02	2.387712	8	10	0.05	2000	-6.144531	40.92395	-91.39366
3537423	-2180	287	-2324	4.501153	-0.01618231	-69.80538	0	9.87	20014	-46	9	5	5	0.02	2.334621	8	10	0.05	2000	-2.921478	40.92395	-91.39365
3537486	655	-1180	-1048	4.644408	-0.4217848	-69.23569	0	9.87	20050	-47	9	5	5	0.02	2.29852	8	10	0.05	2000	-3.981628	40.92395	-91.39365
3537588	-2463	235	-762	2.259191	-1.824298	-69.0971	0	9.87	20034	-40	4	5	5	0.02	2.262465	8	10	0.05	2000	-2.448242	40.92395	-91.39365
3537736	-2526	3430	966	-0.9343642	-6.207655	-69.47094	0	9.87	20066	-39	0	5	5	0.02	2.22938	8	10	0.05	2000	-3.495239	40.92394	-91.39365
3537776	-2750	1203	755	-2.705362	-6.258522	-69.58241	0	9.87	20008	-40	1	5	5	0.02	2.23208	8	10	0.05	2000	-3.495239	40.92394	-91.39365
3537945	-2726	1137	303	-5.202693	-10.43414	-69.13607	0	9.87	20006	-41	2	5	5	0.02	2.263428	8	10	0.05	2000	-6.630463	40.92394	-91.39365
3537980	-3338	-954	296	-6.246074	-10.41567	-69.40926	0	9.87	20008	-41	2	5	5	0.02	2.272921	8	10	0.05	2000	-6.630463	40.92394	-91.39365
3538084	-1154	739	-71	-8.844485	-7.771302	-70.10509	0	9.87	20087	-31	-7	5	5	0.02	2.291175	8	10	0.05	2000	-10.44827	40.92394	-91.39365
3538182	1456	3664	-628	-5.785132	-10.0746	-69.80049	0	10.66	20029	-33	-5	5	5	0.02	2.325914	8	10	0.05	2000	-11.2847	40.92394	-91.39365
3538314	-119	1849	1101	-6.327514	-12.1518	-68.97324	0	10.66	20036	0	0	5	5	0.02	2.363155	3	10	0.05	2000	-14.38721	40.92393	-91.39365
3538452	577	1718	31	-5.320955	-14.73823	-69.71273	0	10.66	20036	0	0	5	5	0.02	2.462164	3	10	0.05	2000	-14.18961	40.92393	-91.39365
3538497	143	1332	1058	-4.698667	-14.87635	-70.46484	0	10.66	20036	0	0	5	5	0.02	2.47395	3	10	0.05	2000	-13.13818	40.92393	-91.39365
3538584	-303	-2278	756	-4.634171	-12.63002	-71.40638	0	10.66	20036	0	0	5	5	0.02	2.504845	3	10	0.05	2000	-12.06488	40.92393	-91.39365
3538677	347	-5828	329	-4.189093	-7.127638	-71.42121	0	10.66	20036	0	0	5	5	0.02	2.558077	3	10	0.05	2000	-11.95392	40.92393	-91.39365
3538781	983	-5364	200	-2.701521	2.145844	-70.94069	0	10.66	20036	0	0	5	5	0.02	2.577219	3	10	0.05	2000	-11.92914	40.92393	-91.39365
3538997	513	-3270	-1120	-0.8293017	10.04478	-68.53193	0	10.66	20036	0	0	5	5	0.02	2.613383	3	10	0.05	2000	-16.3804	40.92393	-91.39365
3539161	3431	3431	1145	5.391114	4.918323	-69.36053	0	9.92	20036	0	0	5	5	0.02	2.584719	3	10	0.05	2000	-19.20935	40.92393	-91.39365
3539225	1653	3136	1105	6.313833	1.518415	-70.62022	0	9.92	20036	0	0	5	5	0.02	2.551131	3	10	0.05	2000	-16.25778	40.92393	-91.39365
3539288	4843	4051	179	8.847807	-1.480286	-71.2609	0	9.92	20036	0	0	5	5	0.02	2.537053	3	10	0.05	2000	-11.60422	40.92393	-91.39365
3539385	-1250	801	-1501	13.28031	-5.362492	-71.54821	0	9.92	20036	0	0	5	5	0.02	2.347426	3	10	0.05	2000	-8.016327	40.92393	-91.39365
3539559	-1103	-1478	-589	1.689367	-1.838073	-71.14708	0	9.92	20036	0	0	5	5	0.02	2.240911	3	10	0.05	2000	-2.637451	40.92393	-91.39365
3539636	1584	1879	950	1.373071	-2.360006	-72.69791	0	9.92	20036	0	0	5	5	0.02	2.044851	3	10	0.05	2000	-1.73407	40.92393	-91.39365
3539716	1479	2580	1273	2.905659	-4.274089	-75.31412	0	9.92	20036	0	0	5	5	0.02	1.961774	3	10	0.05	2000	1.485669	40.92393	-91.39365
3539815	910	3245	1372	3.559017	-6.437236	-76.73212	0	9.92	20036	0	0	5	5	0.02	1.909599	3	10	0.05	2000	4.517215	40.92393	-91.39365
3539866	417	3466	1574	2.459415	-9.223758	-78.89548	0	9.92	20036	0	0	5	5	0.02	1.832358	3	10	0.05	2000	7.297763	40.92393	-91.39365
3539941	-665	-267	6892	-1.747834	2.906479	-82.58418	0	10.83	20036	0	0	5	5	0.02	1.784445	3	10	0.05	2000	8.393275	40.92393	-91.39365
3540066	34	997	-69	-4.338326	7.200457	-86.16586	0	10.83	20036	0	0	5	5	0.02	1.741683	3	10	0.05	2000	13.52656	40.92393	-91.39365
3540148	21	61	28	-3.568242	6.093188	-86.21293	0	10.83	20036	0	0	5	5	0.02	1.700698	3	10	0.05	2000	12.49995	40.92393	-91.39365
3540308	-65	4	-10	-2.910829	5.314553	-86.24062	0	10.83	20036	0	0	5	5	0.02	1.569536	3	10	0.05	2000	12.3888	40.92393	-91.39365
3540446	-51	29	34	-2.60814	4.949523	-86.25916	0	10.83	20036	0	0	5	5	0.02	1.514216	3	10	0.05	2000	12.10779	40.92393	-91.39365
3540563	-20	11	-5	-2.161962	4.452513	-86.28603	0	10.83	20036	0	0	5	5	0.02	1.432399	3	10	0.05	2000	10.6752	40.92393	-91.39365
3540696	-37	-5	7	-1.947533	4.20444	-86.30375	0	10.83	20036	0	0	5	5	0.02	1.387467	3	10	0.05	2000	10.94419	40.92393	-91.39365
3540752	-34	12	-7	-1.758079	3.988327	-86.31654	0	10.83	20036	0	0	5	5	0.02	1.357896	3	10	0.05	2000	11.24718	40.92393	-91.39365
3540848	-45	2	20	-1.648452	3.851765	-86.32832	0	10.89	20036	0	0	5	5	0.02	1.321364	3	10	0.05	2000	10.60068	40.92393	-91.39365
3541048	-40	6	30	-1.355159	3.540868	-86.36251	0	10.89	20036	0	0	5	5	0.02	1.26509	3	10	0.05	2000	9.673647	40.92393	-91.39365
3541115	-32	4	6	-1.276505	3.453117	-86.37234	0	10.89	20036	0	0	5	5	0.02	1.253363	3	10	0.05	2000	10.73123	40.92393	-91.39365
3541193	-29	-1	-6	-1.180145	3.345883	-86.38688	0	10.89	20036	0	0	5	5	0.02	1.234584	3	10	0.05	2000	9.233157	40.92393	-91.39365
3541244	-28	3	11	-1.154047	3.31738	-86.39262	0	10.89	20036	0	0	5	5	0.02	1.217894	3	10	0.05	2000	9.233157	40.92393	-91.39365
3541366	-36	0	14	-1.029735	3.19094	-86.41405	0	10.89	20036	0	0	5	5	0.02	1.195269	3	10	0.05	2000	10.31154	40.92393	-91.39365
3541524	-39	7	11	-0.933113	3.080121	-86.43572	0	10.89	20036	0	0	5	5	0.02	1.167103	1	10	0.05	2000	9.683063	40.92393	-91.39365
3541550	-35	-1	7	-0.9098771	3.052436	-86.44195	0	10.89	20036	0	0	5	5	0.02	1.164313	1	10	0.05	2000	9.623434	40.92393	-91.39365
3541698	-38	0	14	-0.813681	2.941124	-86.471	0	10.89	20036	0	0	5	5	0.02	1.146426	1	10	0.05	2000	9.668616	40.92393	-91.39365
3541795	-30	-1	8	-0.7851864	2.906044	-86.48449	0	10.89	20036	0	0	5	5	0.02	1.142083	1	10	0.05	2000	9.434688	40.92393	-91.39365
3541867	-36	2	11	-0.7537322	2.868707	-86.492	0	10.89	20036	0	0	5	5	0.02	1.141977	1	10	0.05	2000	9.214297	40.92393	-91.39365
3541953	-32	2	3	-0.7067988	2.824441	-86.50768	0	10.89	20036	0	0	5	5	0.02	1.137343	1	10	0.05	2000	9.579206	40.92393	-91.39365
3542093	-31	-2	8	-0.6551135	2.766352	-86.53191	0	10.89	20036	0	0	5	5	0.02	1.124467	1	10	0.05	2000	9.261136	40.92393	-91.39365
3542248	-31	1	7	-0.608515	2.723611	-86.5526	0	10.89	20036	0	0	5	5	0.02	1.111794	1	10	0.05	2000	9.417707	40.92393	-91.39365
3542297	-28	4	8	-0.5821837	2.707177	-86.56261	0	10.89	20036	0	0	5	5	0.02	1.111333	1	10	0.05	2000	9.193162	40.92393	-91.39365
3542384	-33	-2	3	-0.5632879	2.68281	-86.57635	0	10.89	20036	0	0	5	5	0.02	1.109546	1	10	0.05	2000	9.130886	40.92393	-91.39365
3542483	-27	0	5	-0.5473911	2.658439	-86.59063	0	10.89	20036	0	0	5	5	0.02	1.104385	1	10	0.05	2000	9.156466	40.92393	-91.39365
3542581	-32	-2	14	-0.5309463	2.634846	-86.60558	0	10.89	20036	0	0	5	5	0.02	1.09946	1	10	0.05	2000	9.319091	40.92393	-91.39365
3542637	-32	0	15	-0.5226516	2.62254	-86.61669	0	10.89	20036	0	0	5	5	0.02	1.093301	1	10	0.05	2000	9.082189	40.92393	-91.39365
3542761	-28	-3	7	-0.5045975	2.603654	-86.63183	0	10.89	20036	0	0	5	5	0.02	1.088084	1	10	0.05	2000	9.063257	40.92393	-91.39365
3542872	-31	-1	13	-0.4949939	2.590786	-86.65154	0	10.89	20036	0	0	5	5	0.02	1.085853	1	10	0.05	2000	8.857265	40.92393	-91.39365
3542965	-31	-1	11	-0.4911587	2.585052	-86.65984	0	10.89	20036	0	0	5	5	0.02	1.08655	1	10	0.05	2000	9.040294	40.92393	-91.39365
3543038	-29	3	14	-0.480638	2.57768	-86.66759	0	10.89	20036	0	0	5	5	0.02	1.08962	1	10	0.05	2000	9.001204	40.92393	-91.39365
3543146	-29	3	8	-0.4662499	2.568258	-86.68578	0	10.89	20036	0	0	5	5	0.02	1.094112	1	10	0.05	2000	8.938335	40.92393	-91.39365
3543243	-38	3	12	-0.4626153	2.556572	-86.70135	0	10.89	20036	0	0	5	5	0.02	1.095096	1	10	0.05	2000	9.001317	40.92393	-91.39365
3543388	-35	3	10	-0.4530655	2.549995	-86.72088	0	10.89	20036	0	0	5	5	0.02	1.106451	1	10	0.05	2000	9.027118	40.92393	-91.39365
3543493	-30	7	4	-0.4484777	2.54081	-86.73583	0	10.89	20036	0	0	5	5	0.02	1.110914	1	10	0.05	2000	9.210375	40.92393	-91.39365
3543571	-32	1	11	-0.4404571	2.543278	-86.74834	0	10.89	20036	0	0	5	5	0.02	1.113651	1	10	0.05	2000	8.718772	40.92393	-91.39365
3543640	-38	1	8	-0.4400635	2.542657	-86.75805	0	10.89	20036	0	0	5	5	0.02	1.114372	1	10	0.05	2000	8.744306	40.92393	-91.39365
3543773	-42	1	5	-0.4334817	2.527072	-86.781	0	10.89	20036	0	0	5	5	0.02	1.119139	1	10	0.05	2000	8.966413	40.92393	-91.39365
3543831	-29	2	8	-0.4281807	2.527633	-86.78533	0	10.89	20036	0	0	5	5	0.02	1.117359	1	10	0.05	2000	9.187457	40.92393	-91.39365
3543934	-39	0	10	-0.4240121	2.531094	-86.79888	0	10.89	20036	0	0	5	5	0.02	1.114365	1	10	0.05	2000	8.952093	40.92393	-91.39365
3544070	-27	0	9	-0.4137585	2.528352	-86.81561	0	10.89	20036	0	0	5	5	0.02	1.107642	1	10	0.05	2000	9.199481	40.92393	-91.39365
3544135	-31	-3	2	-0.4005727	2.520385	-86.82665	0	10.89	20036	0	0	5	5	0.02	1.10282	1	10	0.05	2000	8.654592	40.92393	-91.39365
3544276	-37	-1	12	-0.4017001	2.518008	-86.83929	0	10.89	20036	0	0	5	5	0.02	1.094494	1	10	0.05	2000	8.914116	40.92393	-91.39365
3544337	-27	-3	7	-0.4007894	2.520675	-86.84618	0	10.89	20036	0	0	5	5	0.02	1.094104	1	10	0.05	2000	8.911792	40.92393	-91.39365
3544456	-31	2	11	-0.3944946	2.518618	-86.85857	0	10.89	20036	0	0	5	5	0.02	1.087219	1	10	0.05	2000	8.870849	40.92393	-91.39365
3544524	-32	0	5	-0.3880167	2.517821	-86.8681	0	10.94	20036	0	0	5	5	0.02	1.087138	1	10	0.05	2000	9.160195	40.92393	-91.39365
3544627	-27	-2	5	-0.3840919	2.513763	-86.88152	0	10.94	20036	0	0	5	5	0.02	1.084247	1	10	0.05	2000	8.895435	40.92393	-91.39365
3544757	-30	5	14	-0.3814336	2.514818	-86.89959	0	10.94	20036	0	0	5	5	0.02	1.081008	1	10	0.05	2000	8.696269	40.92393	-91.39365
3544833	-32	-3	5	-0.3826503	2.509405	-86.91277	0	10.94	20036	0	0	5	5	0.02	1.075988	1	10	0.05	2000	9.113052	40.92393	-91.39365
3545032	-21	-1	10	-0.381028	2.509596	-86.92956	0	10.94	20036	0	0	5	5	0.02	1.062127	1	10	0.05	2000	8.656172	40.92393	-91.39365
3545113	-33	3	3	-0.3811227	2.500951	-86.94115	0	10.94	20036	0	0	5	5	0.02	1.056742	1	10	0.05	2000	9.111105	40.92393	-91.39365
3545222	-2	8	0	-0.3895541	2.501056	-86.94988	0	10.94	20036	0	0	5	5	0.02	1.045121	1	10	0.05	2000	9.116387	40.92393	-91.39365
3545340	-35	-7	8	-0.3813519	2.517158	-86.96136	0	10.89	20036	0	0	5	5	0.02	1.041369	1	10	0.05	2000	9.11703	40.92393	-91.39365
3545435	-23	2	9	-0.3810645	2.518027	-86.96795	0	10.89	20036	0	0	5	5	0.02	1.036356	1	10	0.05	2000	8.887218	40.92393	-91.39365
3545509	-25	0	4	-0.3775764	2.518276	-86.97448	0	10.89	20036	0	0	5	5	0.02	1.036631	1	10	0.05	2000	9.105783	40.92393	-91.39365
3545661	-27	2	9	-0.3711322	2.516583	-86.99511	0	10.89	20036	0	0	5	5	0.02	1.031555	1	10	0.05	2000	8.867022	40.92393	-91.39365
3545715	-26	0	7	-0.369354	2.515972	-87.00201	0	10.89	20036	0	0	5	5	0.02	1.028657	1	10	0.05	2000	8.641191	40.92393	-91.39365
3545806	1	114	-5	-0.3532023	2.439732	-87.04981	0	10.89	20036	0	0	5	5	0.02	1.026085	1	10	0.05	2000	9.064711	40.92393	-91.39365
3545897	-352	-182	96	-0.1856864	2.093888	-87.08713	0	10.89	20036	0	0	5	5	0.02	1.027799	1	10	0.05	2000	8.894164	40.92393	-91.39365
3546037	-144	-3889	-761	-3.12539	3.209386	-86.28642	0	10.89	20036	0	0	5	5	0.02	1.034857	1	10	0.05	2000	9.509089	40.92393	-91.39365
3546113	-660	-3182	-969	-2.119364	7.359978	-85.59013	0	10.89	20036	0	0	5	5	0.02	1.047285	1	10	0.05	2000	8.615375	40.92393	-91.39365
3546202	5305	1431	-152	4.465697	9.240343	-84.17458	0	10.89	20036	0	0	5	5	0.02	1.056333	1	10	0.05	2000	6.319379	40.92393	-91.39365
3546361	4580	3021	2587	17.30719	5.495048	-87.06219	0	10.94	20036	0	0	5	5	0.02	1.084159	1	10	0.05	2000	3.399142	40.92393	-91.39365
3546438	4973	2189	3512	24.86639	3.826065	-92.33476	0	10.94	20036	0	0	5	5	0.02	1.100769	1	10	0.05	2000	8.675344	40.92393	-91.39365
3546538	8432	-1757	2586	35.92996	6.826051	-97.4659	0	10.94	20036	0	0	5	5	0.02	1.141601	1	10	0.05	2000	10.85901	40.92393	-91.39365
3546625	9840	-3459	753	51.58154	13.88066	-100.2905	0	10.94	20036	0	0	5	5	0.02	1.167755	1	10	0.05	2000	16.95306	40.92393	-91.39365
3546689	9795	-1028	380	56.83463	14.43359	-100.5557	0	10.94	20036	0	0	5	5	0.02	1.198998	1	10	0.05	2000	16.95306	40.92393	-91.39365
3546887	8252	6730	297	86.552	-0.1301484	-101.0833	0	10.94	20036	0	0	5	5	0.02	1.280782	1	10	0.05	2000	32.02089	40.92393	-91.39365
3546949	4710	1751	1949	95.32434	-3.987621	-102.3242	0	10.94	20036	0	0	5	5	0.02	1.315467	1	10	0.05	2000	55.52734	40.92393	-91.39365
3547049	743	2046	624	95.19969	2.879367	-105.8959	0	10.94	20036	0	0	5	5	0.02	1.362909	1	10	0.05	2000	68.2313	40.92393	-91.39365
3547100	-771	2798	-1339	93.68166	2.128217	-105.6509	0	10.94	20036	0	0	5	5	0.02	1.393765	1	10	0.05	2000	68.2313	40.92393	-91.39365
3547264	-1051	2321	-3244	86.30243	-5.02669	-104.2228	0	10.94	20036	0	0	5	5	0.02	1.454249	1	10	0.05	2000	93.83368	40.92393	-91.39365
3547399	-2335	-2719	-377	76.30647	-14.37853	-91.72274	0	10.94	20036	0	0	5	5	0.02	1.48687	1	10	0.05	2000	79.52087	40.92393	-91.39365
3547449	-3256	-2359	692	74.92953	-12.75668	-91.90847	0	10.94	20036	0	0	5	5	0.02	1.513912	1	10	0.05	2000	79.52087	40.92393	-91.39365
3547591	-2924	-799	-645	69.98216	-7.950089	-92.74496	0	10.94	20036	0	0	5	5	0.02	1.541199	1	10	0.05	2000	64.69133	40.92393	-91.39366
