time(ms)	gyro_x(deg/s)	gyro_y(deg/s)	gyro_z(deg/s)	orientation_roll(deg)	orientation_pitch(deg)	orientation_yaw(deg)	throttle	battery(V)	loop_time(uS)	pid_output_roll	pid_output_pitch	pid_output_yaw	pid_output_throttle	ultrasonic_alt	baro_alt	flight_mode	p_gain_altitude	i_gain_altitude	d_gain_altitude	compass_heading	latitude	longitude
3239921	-1194	-1156	1145	4.716789	-3.350303	-28.71897	0	11.17	20065	-54	0	5	5	0.02	4.102901	8	10	0.05	2000	3.333616	40.92392	-91.39364
3239985	2015	-155	-360	4.976763	-3.381346	-28.37042	0	11.17	20053	-63	8	5	5	0.02	4.099586	8	10	0.05	2000	4.623608	40.92392	-91.39365
3240044	1500	207	222	5.434393	-3.479023	-28.2979	0	11.17	20027	-42	-5	5	5	0.02	4.092565	8	10	0.05	2000	4.623608	40.92392	-91.39365
3240125	-101	-254	10	5.444059	-3.856439	-28.19636	0	11.17	20066	-50	14	5	5	0.02	4.081288	8	10	0.05	2000	5.793139	40.92392	-91.39365
3240242	-1245	-1693	-461	3.752795	-3.024599	-28.5588	0	11.17	20033	-28	5	5	5	0.02	4.050347	8	10	0.05	2000	7.247925	40.92392	-91.39365
3240428	781	-386	-573	2.900136	-1.604692	-28.08627	0	11.17	20011	-30	9	5	5	0.02	4.005626	8	10	0.05	2000	9.672843	40.92392	-91.39365
3240480	-680	-951	-157	3.122271	-2.062025	-27.94644	0	11.17	20057	-21	27	5	5	0.02	3.984514	8	10	0.05	2000	8.789528	40.92392	-91.39365
3240593	-247	-2142	-192	1.193566	-0.2255719	-27.91688	0	11.17	20057	-21	27	5	5	0.02	3.947618	8	10	0.05	2000	9.723742	40.92392	-91.39365
3240634	348	490	557	1.193566	-0.2255719	-27.91688	0	10.72	20057	-14	20	5	5	0.02	3.938045	8	10	0.05	2000	9.723742	40.92392	-91.39365
3240751	1123	474	-1414	1.811533	-2.089504	-27.61609	0	10.72	20037	-5	38	5	5	0.02	3.884344	8	10	0.05	2000	9.945479	40.92393	-91.39364
3240862	-1654	-1320	414	0.5625083	-1.671345	-27.66228	0	10.72	20030	12	41	5	5	0.02	3.838192	8	10	0.05	2000	12.0073	40.92393	-91.39364
3240967	395	28	833	-1.046434	0.921067	-28.51781	0	10.72	20052	20	28	5	5	0.02	3.79097	8	10	0.05	2000	12.85356	40.92393	-91.39364
3241043	371	-533	-467	0.01365309	-0.02254392	-28.55133	0	10.72	20040	20	28	5	5	0.02	3.750027	8	10	0.05	2000	11.7097	40.92393	-91.39364
3241147	-187	923	-192	-0.7265966	-2.110287	-28.07022	0	10.72	20050	22	23	5	5	0.02	3.660711	8	10	0.05	2000	12.63293	40.92393	-91.39364
3241281	-607	-1194	148	1.442273	-3.921779	-26.92636	0	10.72	20037	39	31	5	5	0.02	3.60693	8	10	0.05	2000	10.61183	40.92393	-91.39364
3241354	-2469	-2155	350	0.6505678	-3.351669	-27.26653	0	10.72	20059	33	18	5	5	0.02	3.513929	8	10	0.05	2000	9.913541	40.92393	-91.39364
3241465	-926	-199	298	-1.906618	-1.208114	-28.00435	0	10.72	20028	51	18	5	5	0.02	3.461591	8	10	0.05	2000	11.9659	40.92393	-91.39363
3241577	-3411	-730	485	-1.394035	-1.214459	-28.49676	0	11.17	20032	37	4	5	5	0.02	3.381626	8	10	0.05	2000	4.636641	40.92393	-91.39363
3241756	-984	797	-1698	-1.450892	-2.090544	-27.64818	0	11.17	20006	57	-12	5	5	0.02	3.134577	8	10	0.05	2000	1.414829	40.92393	-91.39363
3241803	-359	4559	-949	-0.9301388	-4.396856	-26.64872	0	11.17	20032	84	-21	5	5	0.02	3.085233	8	10	0.05	2000	1.414829	40.92393	-91.39362
3241889	-1289	-1589	1959	-3.343796	-3.711202	-26.36183	0	11.17	20032	84	-21	5	5	0.02	3.044894	8	10	0.05	2000	-0.05700684	40.92393	-91.39362
3241967	-63	-465	719	-4.158219	-0.6178102	-27.11814	0	11.17	20027	70	-28	5	5	0.02	2.870184	8	10	0.05	2000	-1.435638	40.92393	-91.39362
3242067	-4016	-1686	197	-3.909789	-2.758246	-29.28443	0	11.17	20013	97	-46	5	5	0.02	2.789131	8	10	0.05	2000	-3.649048	40.92393	-91.39362
3242170	-1339	-1362	-479	-5.926419	-0.7302206	-29.73238	0	11.17	20047	101	-63	5	5	0.02	2.736695	8	10	0.05	2000	-2.85849	40.92393	-91.39362
3242289	-2508	-568	-824	-5.556401	-3.354092	-29.49435	0	11.17	20015	80	-57	5	5	0.02	2.618029	8	10	0.05	2000	-9.082977	40.92392	-91.39362
3242433	-1569	254	-968	-4.86223	-3.292396	-27.61072	0	11.17	20026	98	-84	5	5	0.02	2.551608	8	10	0.05	2000	-12.57562	40.92392	-91.39362
3242600	-305	1795	76	-5.078104	-3.749708	-28.60381	0	10.49	20046	95	-104	5	5	0.02	2.435029	8	10	0.05	2000	-15.8609	40.92392	-91.39362
3242707	-521	1076	649	-5.596375	-3.797463	-29.58999	0	10.49	20045	74	-90	5	5	0.02	2.327917	8	10	0.05	2000	-16.14099	40.92392	-91.39362
3242800	-358	56	-436	-5.009583	-3.642283	-29.7057	0	10.49	20034	74	-117	5	5	0.02	2.279732	8	10	0.05	2000	-17.90314	40.92391	-91.39362
3242917	1805	3567	-405	-4.762371	-5.844728	-29.1719	0	10.49	20015	51	-130	5	5	0.02	2.219979	8	10	0.05	2000	-18.26901	40.92391	-91.39362
3242996	1820	3039	-302	-3.143662	-7.547468	-28.3118	0	10.49	20028	51	-130	5	5	0.02	2.197897	8	10	0.05	2000	-17.76456	40.92391	-91.39362
3243117	-70	515	-577	-3.434484	-7.837447	-28.07593	0	10.49	20031	1	-136	5	5	0.02	2.174211	8	10	0.05	2000	-17.08237	40.92391	-91.39362
3243243	449	263	-703	-4.397562	-6.626948	-28.65053	0	10.49	20035	-13	-115	5	5	0.02	2.17642	8	10	0.05	2000	-15.3063	40.92391	-91.39362
3243376	1349	1407	127	-0.8406852	-7.744752	-28.02457	0	10.49	20021	-40	-133	5	5	0.02	2.225515	8	10	0.05	2000	-15.85574	40.92391	-91.39362
3243413	1552	914	98	0.01597233	-8.97723	-27.76533	0	10.32	20019	-40	-112	5	5	0.02	2.243298	8	10	0.05	2000	-15.85574	40.92391	-91.39362
3243538	-298	-1371	667	1.298119	-9.53081	-27.74941	0	10.32	20032	-60	-100	5	5	0.02	2.296198	8	10	0.05	2000	-14.81232	40.92391	-91.39363
3243587	663	-1420	-29	1.188884	-8.33855	-28.00344	0	10.32	20033	-60	-100	5	5	0.02	2.366608	8	10	0.05	2000	-13.68304	40.92391	-91.39363
3243776	1558	928	-777	4.098803	-7.080031	-28.43492	0	10.32	20033	-59	-79	5	5	0.02	2.592692	8	10	0.05	2000	-11.99399	40.92391	-91.39363
3243845	-655	-1021	1623	3.860623	-7.009483	-28.52136	0	10.32	20041	-94	-79	5	5	0.02	2.657025	8	10	0.05	2000	-10.68805	40.92391	-91.39364
3243914	-441	149	765	3.063885	-5.974285	-28.85225	0	10.32	20054	-95	-79	5	5	0.02	2.719112	8	10	0.05	2000	-10.61337	40.92391	-91.39364
3244012	1613	38	-778	3.343395	-6.30469	-29.06238	0	10.32	20032	-74	-65	5	5	0.02	2.885586	8	10	0.05	2000	-9.197296	40.92391	-91.39364
3244091	756	-1023	1083	3.795255	-5.441716	-29.21191	0	10.32	20032	-89	-40	5	5	0.02	2.945345	8	10	0.05	2000	-6.350586	40.92391	-91.39364
3244195	947	-64	1531	4.867438	-4.12344	-28.88958	0	10.32	20054	-124	-22	5	5	0.02	2.996445	8	10	0.05	2000	-4.715729	40.92391	-91.39364
3244351	1367	-48	200	6.98319	-4.740403	-28.42692	0	10.09	20031	-104	-22	5	5	0.02	3.145962	8	10	0.05	2000	-3.826202	40.92391	-91.39365
3244439	369	-1772	653	6.53966	-3.428087	-28.41485	0	10.09	20022	-131	4	5	5	0.02	3.201668	8	10	0.05	2000	-3.102936	40.92391	-91.39365
3244491	1328	-1895	-320	6.801579	-1.975175	-28.51983	0	10.09	20052	-103	5	5	5	0.02	3.239066	8	10	0.05	2000	-1.821442	40.92391	-91.39365
3244608	140	-1798	-1410	4.956552	-1.518747	-29.1716	0	10.09	20007	-121	32	5	5	0.02	3.340204	8	10	0.05	2000	1.132932	40.92392	-91.39365
3244706	2039	-123	346	5.240228	-1.29828	-29.38028	0	10.09	20068	-93	18	5	5	0.02	3.401245	8	10	0.05	2000	2.174158	40.92392	-91.39365
3244870	385	-2016	1189	5.592659	-0.6978932	-29.35276	0	10.09	20055	-83	31	5	5	0.02	3.502222	8	10	0.05	2000	6.404116	40.92392	-91.39365
3244942	495	-727	-1236	4.612093	-0.1933147	-29.48306	0	10.09	20036	-83	66	5	5	0.02	3.537589	8	10	0.05	2000	6.829145	40.92392	-91.39365
3245100	221	-1019	117	6.942566	0.9916506	-28.48766	0	10.09	20036	-62	46	5	5	0.02	3.586029	8	10	0.05	2000	7.921383	40.92392	-91.39365
3245170	195	-1853	-507	6.001904	1.621642	-28.45978	0	10.09	20009	-71	73	5	5	0.02	3.622512	8	10	0.05	2000	10.1219	40.92393	-91.39365
3245330	1977	-62	-123	5.344657	0.8331351	-29.0365	0	10.72	20032	-48	78	5	5	0.02	3.644886	8	10	0.05	2000	13.94428	40.92393	-91.39365
3245440	-240	1240	-234	5.273872	0.2377561	-28.45198	0	10.72	20027	-34	58	5	5	0.02	3.652649	8	10	0.05	2000	16.02385	40.92393	-91.39365
3245527	460	12	1795	5.317591	-0.7085406	-28.16967	0	10.72	20035	-34	57	5	5	0.02	3.653787	8	10	0.05	2000	19.28098	40.92393	-91.39365
3245665	-964	-1220	-288	4.532435	-0.8144293	-28.52365	0	10.72	24016	-34	57	5	5	0.02	3.6437	8	10	0.05	2000	20.85412	40.92393	-91.39365
3245751	-423	-2057	560	3.829206	0.5479136	-28.52051	0	10.72	20059	-10	64	5	5	0.02	3.634679	8	10	0.05	2000	22.89608	40.92393	-91.39365
3245835	-692	-2831	63	3.481398	2.91222	-28.61889	0	10.72	20053	26	72	5	5	0.02	3.614473	8	10	0.05	2000	23.83705	40.92393	-91.39365
3245889	-816	-1517	853	3.12344	3.783132	-28.79379	0	10.72	20056	27	72	5	5	0.02	3.613276	8	10	0.05	2000	23.83705	40.92393	-91.39365
3245992	99	1064	-747	1.815664	2.905653	-28.41224	0	10.72	20051	20	51	5	5	0.02	3.598747	8	10	0.05	2000	29.66392	40.92393	-91.39365
3246183	-2667	-1872	554	-0.5226186	2.619986	-26.69715	0	10.66	20031	65	39	5	5	0.02	3.556977	8	10	0.05	2000	26.73092	40.92393	-91.39364
3246268	-2753	559	-75	-3.360413	2.882052	-27.53721	0	10.66	20054	110	30	5	5	0.02	3.523641	8	10	0.05	2000	24.83933	40.92393	-91.39364
3246304	-2186	1094	404	-4.492476	2.017102	-27.60166	0	10.66	20033	96	16	5	5	0.02	3.513127	8	10	0.05	2000	26.1082	40.92393	-91.39364
3246448	-2824	567	-9	-6.067601	1.094412	-27.06531	0	10.66	20032	141	7	5	5	0.02	3.428981	8	10	0.05	2000	19.17803	40.92393	-91.39363
3246513	-1306	1405	762	-6.530523	-1.35937	-27.18936	0	10.66	20031	113	-7	5	5	0.02	3.255062	8	10	0.05	2000	17.81732	40.92393	-91.39363
3246621	-2881	1308	-94	-5.946701	-3.131982	-28.54062	0	10.66	20037	158	-25	5	5	0.02	3.081612	8	10	0.05	2000	6.162131	40.92393	-91.39362
3246728	-1279	1970	-441	-7.030385	-4.482698	-28.93953	0	10.66	20031	123	-32	5	5	0.02	2.875607	8	10	0.05	2000	-4.104309	40.92393	-91.39362
3246845	-1839	3297	520	-6.658867	-9.57813	-29.41901	0	10.66	20033	177	-50	5	5	0.02	2.663724	8	10	0.05	2000	-13.66696	40.92393	-91.39362
3246955	-1566	2728	-112	-6.594235	-13.8124	-30.2872	0	10.66	20041	232	-70	5	5	0.02	2.463924	8	10	0.05	2000	-19.10648	40.92393	-91.39362
3247118	-494	1282	-220	-8.596942	-17.37881	-28.99311	0	10.89	20030	197	-63	5	5	0.02	2.249066	8	10	0.05	2000	-23.51706	40.92393	-91.39362
3247233	-2231	-3891	1028	-11.68485	-13.0774	-30.0102	0	10.89	20030	225	-76	5	5	0.02	2.050823	8	10	0.05	2000	-24.78494	40.92393	-91.3936
3247287	-2028	-3547	1140	-12.24038	-10.09354	-30.40358	0	10.89	20030	225	-76	5	5	0.02	1.901263	8	10	0.05	2000	-24.78494	40.92393	-91.3936
3247423	-2028	1861	-138	-15.23239	-10.84424	-31.16647	0	10.89	20032	228	-116	5	5	0.02	1.674642	8	10	0.05	2000	-27.67828	40.92392	-91.3936
3247548	-3824	-2425	-1691	-16.80624	-7.304209	-28.57607	0	10.89	20038	186	-158	5	5	0.02	1.460361	8	10	0.05	2000	-30.26501	40.92391	-91.39359
3247603	-2447	-1553	-1803	-17.56597	-5.862801	-27.91156	0	10.89	20033	185	-158	5	5	0.02	1.423105	8	10	0.05	2000	-33.26352	40.92391	-91.39359
3247700	5656	3534	-12	-9.243428	-7.794757	-26.82757	0	10.89	20028	194	-202	5	5	0.02	1.339292	8	10	0.05	2000	-35.41248	40.92391	-91.39359
3247805	4954	-2184	1108	-3.261903	-7.202532	-27.39129	0	10.89	20030	145	-182	5	5	0.02	1.240429	8	10	0.05	2000	-30.77719	40.92391	-91.39359
3247935	6196	1260	902	4.335177	-5.300179	-27.35896	0	10.89	20044	145	-218	5	5	0.02	1.180061	8	10	0.05	2000	-29.9678	40.9239	-91.39359
3248058	572	783	976	7.34327	-6.219884	-28.0217	0	10.72	20009	110	-176	5	5	0.02	1.120817	8	10	0.05	2000	-26.62204	40.9239	-91.3936
3248117	-866	2379	-801	5.625949	-7.578304	-27.55458	0	10.72	20009	83	-203	5	5	0.02	1.114809	8	10	0.05	2000	-24.74442	40.9239	-91.3936
3248216	-1123	1090	-828	0.7907972	-8.949949	-27.3588	0	10.72	20013	62	-154	5	5	0.02	1.096089	8	10	0.05	2000	-20.97476	40.9239	-91.3936
3248350	1927	503	897	5.040867	-11.32002	-26.86894	0	10.72	20011	44	-172	5	5	0.02	1.103933	8	10	0.05	2000	-20.16751	40.9239	-91.3936
3248438	2061	-656	614	5.536629	-9.644257	-27.0552	0	10.72	20049	10	-146	5	5	0.02	1.164538	8	10	0.05	2000	-18.57819	40.9239	-91.3936
3248626	1401	-338	-612	0.9520667	-8.221228	-28.15376	0	10.72	20010	-35	-91	5	5	0.02	1.241277	8	10	0.05	2000	-16.22137	40.9239	-91.39361
3248711	899	1494	54	1.845834	-8.699396	-28.58119	0	10.72	20013	-14	-70	5	5	0.02	1.359746	8	10	0.05	2000	-15.8306	40.9239	-91.39361
3248751	-628	479	916	1.504898	-10.0657	-29.0195	0	10.72	20042	-14	-70	5	5	0.02	1.401941	8	10	0.05	2000	-15.8306	40.9239	-91.39361
3248894	-316	-2828	309	0.6465849	-8.592279	-28.67326	0	10.72	20034	-45	-20	5	5	0.02	1.598104	8	10	0.05	2000	-12.80414	40.9239	-91.39362
3248961	2579	-3893	842	0.6498835	-2.014814	-28.35703	0	11	20026	-80	15	5	5	0.02	1.676416	8	10	0.05	2000	-12.57303	40.92391	-91.39362
3249045	1305	-5717	414	4.677323	5.200223	-28.26194	0	11	20032	-81	16	5	5	0.02	1.738479	8	10	0.05	2000	-13.06506	40.92391	-91.39362
3249226	2076	-476	163	3.867194	9.630729	-28.50384	0	11	20061	-61	56	5	5	0.02	2.015211	8	10	0.05	2000	-11.8212	40.92391	-91.39362
3249388	851	1387	609	2.929187	5.610366	-28.60713	0	11	20026	-88	101	5	5	0.02	2.109396	8	10	0.05	2000	-9.642395	40.92392	-91.39362
3249477	162	-1702	-728	3.847751	4.054692	-28.56083	0	11	20033	-53	73	5	5	0.02	2.137681	8	10	0.05	2000	-7.867737	40.92392	-91.39362
3249571	1512	-94	721	3.231508	5.054172	-28.5156	0	11	20061	-80	109	5	5	0.02	2.226869	8	10	0.05	2000	-5.449738	40.92392	-91.39362
3249597	1356	292	372	3.532952	4.713392	-28.4496	0	11	20030	-52	81	5	5	0.02	2.255061	8	10	0.05	2000	-5.62796	40.92392	-91.39362
3249724	1203	899	1205	3.69276	3.914567	-28.02412	0	11	20031	-70	108	5	5	0.02	2.308456	8	10	0.05	2000	-1.341766	40.92393	-91.39362
3249808	-1026	-846	1448	3.510386	3.097145	-28.61689	0	11	20007	-42	66	5	5	0.02	2.345371	8	10	0.05	2000	2.697645	40.92393	-91.39362
3249915	149	72	-183	2.063397	3.143111	-28.89843	0	10.32	20038	-51	84	5	5	0.02	2.388578	8	10	0.05	2000	4.811065	40.92393	-91.39363
3250005	156	74	83	3.247239	3.025597	-28.8622	0	10.32	20052	-30	49	5	5	0.02	2.398971	8	10	0.05	2000	9.888528	40.92393	-91.39363
3250133	-746	1414	-1379	1.439696	0.6040357	-28.36972	0	10.32	20033	-39	49	5	5	0.02	2.419058	8	10	0.05	2000	13.05514	40.92393	-91.39363
3250211	-807	408	-948	0.4073479	-0.7933061	-28.42422	0	10.32	20039	-18	21	5	5	0.02	2.424785	8	10	0.05	2000	11.59544	40.92393	-91.39363
3250333	-1519	2596	690	-1.844679	-4.138519	-28.83066	0	10.32	20033	4	0	5	5	0.02	2.427977	8	10	0.05	2000	14.58909	40.92393	-91.39363
3250438	-1058	3727	370	-3.649391	-8.836793	-28.28388	0	10.32	20044	5	-17	5	5	0.02	2.431601	8	10	0.05	2000	9.077273	40.92393	-91.39363
3250493	-4040	-925	147	-7.172418	-9.86943	-28.22779	0	10.32	20022	5	-18	5	5	0.02	2.435275	8	10	0.05	2000	7.346215	40.92393	-91.39363
3250614	-2110	1533	-1195	-10.42881	-9.664336	-28.13318	0	10.32	20011	21	-50	5	5	0.02	2.457097	8	10	0.05	2000	4.457753	40.92392	-91.39362
3250690	-1107	1565	-1410	-11.33109	-11.44784	-28.3522	0	10.32	20032	28	-50	5	5	0.02	2.459266	8	10	0.05	2000	1.18301	40.92392	-91.39362
3250818	1582	753	-1157	-10.71918	-11.89019	-28.439	0	10.09	20002	46	-68	5	5	0.02	2.470932	8	10	0.05	2000	-5.879639	40.92392	-91.39362
3250879	1709	191	-894	-9.139326	-11.92892	-28.44697	0	10.09	20007	39	-68	5	5	0.02	2.475446	8	10	0.05	2000	-5.879639	40.92392	-91.39362
3251025	259	-1788	-207	-5.630213	-9.29141	-28.91843	0	10.09	24034	57	-103	5	5	0.02	2.486017	8	10	0.05	2000	-8.941803	40.92392	-91.39362
3251095	-1065	-1162	-712	-5.427016	-8.033104	-28.97691	0	10.09	20046	48	-72	5	5	0.02	2.487997	8	10	0.05	2000	-10.27216	40.92392	-91.39362
3251199	273	445	-1122	-5.498131	-8.132741	-28.67585	0	10.09	20030	66	-81	5	5	0.02	2.489465	8	10	0.05	2000	-11.52982	40.92392	-91.39362
3251328	-2259	-1202	-1216	-5.432791	-8.570072	-27.97118	0	10.09	20020	67	-84	5	5	0.02	2.499938	8	10	0.05	2000	-11.90518	40.92392	-91.39362
3251408	1098	722	844	-5.437026	-7.90835	-28.06956	0	10.09	20031	68	-85	5	5	0.02	2.505373	8	10	0.05	2000	-12.69385	40.92392	-91.39362
3251567	1	397	-40	-4.107893	-6.815666	-28.66365	0	10.09	20033	63	-71	5	5	0.02	2.519879	8	10	0.05	2000	-14.91376	40.92392	-91.39362
3251630	-985	27	-685	-4.124337	-7.11872	-28.26777	0	10.09	20040	56	-57	5	5	0.02	2.523788	8	10	0.05	2000	-14.27853	40.92392	-91.39362
3251793	369	570	393	-4.488701	-5.17344	-28.33516	0	10.38	20040	51	-59	5	5	0.02	2.548143	8	10	0.05	2000	-15.59052	40.92392	-91.39362
3251880	-1024	-764	1006	-5.653494	-4.095442	-28.87715	0	10.38	20054	59	-59	5	5	0.02	2.552123	8	10	0.05	2000	-15.98721	40.92392	-91.39362
3252076	558	1680	-1616	-3.396005	-7.214448	-27.54519	0	10.38	20083	74	-64	5	5	0.02	2.57137	8	10	0.05	2000	-18.93365	40.92391	-91.39362
3252140	-1232	-727	809	-3.614542	-7.669045	-27.40251	0	10.38	20036	55	-54	5	5	0.02	2.578109	8	10	0.05	2000	-17.6088	40.92391	-91.39362
3252160	-550	-159	124	-4.245102	-6.751534	-27.56253	0	10.38	20033	55	-54	5	5	0.02	2.585927	8	10	0.05	2000	-17.6088	40.92391	-91.39362
3252223	529	863	1133	-4.236903	-6.082376	-28.04951	0	10.38	20032	55	-54	5	5	0.02	2.59333	8	10	0.05	2000	-17.92694	40.92391	-91.39362
3252337	78	-430	441	-5.078266	-4.976826	-28.65164	0	10.38	20009	48	-47	5	5	0.02	2.601773	8	10	0.05	2000	-19.54248	40.92391	-91.39362
3252361	523	960	75	-5.398343	-4.973856	-28.63329	0	10.38	20056	48	-47	5	5	0.02	2.604663	8	10	0.05	2000	-19.54248	40.92391	-91.39362
3252462	-570	-926	-691	-5.031435	-4.604192	-27.99035	0	10.32	20035	41	-38	5	5	0.02	2.616035	8	10	0.05	2000	-18.12744	40.92391	-91.39362
3252612	-107	342	-290	-5.314892	-3.908539	-28.14252	0	10.32	20008	34	-31	5	5	0.02	2.627676	8	10	0.05	2000	-20.01392	40.92392	-91.39362
3252663	626	1515	380	-4.41594	-5.508211	-28.13838	0	10.32	20032	34	-31	5	5	0.02	2.641199	8	10	0.05	2000	-19.72241	40.92392	-91.39362
3252837	161	-1184	-576	-3.466648	-4.338596	-28.50719	0	10.32	20004	25	-22	5	5	0.02	2.666303	8	10	0.05	2000	-19.56577	40.92392	-91.39362
3252955	1106	556	340	-2.164705	-5.12423	-28.14728	0	10.32	20028	25	-22	5	5	0.02	2.688638	8	10	0.05	2000	-18.95941	40.92392	-91.39362
3253027	-467	-1211	-69	-1.987434	-4.849676	-28.24965	0	10.32	20059	25	-22	5	5	0.02	2.714061	8	10	0.05	2000	-18.95941	40.92392	-91.39362
3253122	-658	-559	1034	-4.30335	-2.481161	-29.50237	0	10.32	20054	25	-20	5	5	0.02	2.741796	8	10	0.05	2000	-18.58167	40.92392	-91.39362
3253161	-658	-559	1034	-4.30335	-2.481161	-29.50237	0	10.32	20054	25	-20	5	5	0.02	2.765359	8	10	0.05	2000	-18.58167	40.92392	-91.39362
3253278	1110	237	3680	-3.809162	-3.78879	-36.40013	0	10.32	20031	7	-11	5	5	0.02	2.797215	8	10	0.05	2000	-16.91907	40.92392	-91.39362
3253362	366	-1653	2313	-1.990398	-2.532068	-42.33052	0	10.32	20032	7	-11	5	5	0.02	2.821601	8	10	0.05	2000	-9.68811	40.92392	-91.39362
3253466	-237	-128	2472	-1.27963	-1.095011	-46.98124	0	10.09	20007	-4	0	5	5	0.02	2.861688	8	10	0.05	2000	-8.10849	40.92392	-91.39362
3253584	931	-782	126	-0.2400349	-2.230736	-49.51786	0	10.09	20008	-4	0	5	5	0.02	2.883897	8	10	0.05	2000	-3.983582	40.92392	-91.39362
3253742	-822	-923	-909	0.08246148	-1.278493	-46.47331	0	10.09	20017	-13	2	5	5	0.02	2.912945	8	10	0.05	2000	-3.957336	40.92392	-91.39362
3253765	-822	-923	-909	0.08246148	-1.278493	-46.47331	0	10.09	20017	-31	11	5	5	0.02	2.915633	8	10	0.05	2000	-3.957336	40.92392	-91.39362
3253866	373	-38	-1309	-0.002651711	-1.10967	-45.55135	0	10.09	20024	-31	11	5	5	0.02	2.924263	8	10	0.05	2000	-5.422791	40.92392	-91.39362
3254050	634	-2078	-1123	-0.5230258	-0.9588633	-47.13982	0	10.09	20044	-35	22	5	5	0.02	2.937002	8	10	0.05	2000	-2.951294	40.92393	-91.39362
3254119	1198	1164	605	0.6581001	-1.221748	-47.30535	0	10.09	20033	-21	8	5	5	0.02	2.939942	8	10	0.05	2000	-1.308075	40.92393	-91.39362
3254192	876	-139	157	2.063649	-2.316894	-47.09676	0	10.09	20060	-39	17	5	5	0.02	2.944776	8	10	0.05	2000	-1.59903	40.92393	-91.39363
3254308	-264	-635	451	1.779904	-1.331915	-47.0551	0	10.94	20037	-32	10	5	5	0.02	2.946759	8	10	0.05	2000	-0.4573364	40.92393	-91.39363
3254440	-1546	-1037	239	2.269725	-1.757298	-46.59114	0	10.94	20029	-36	3	5	5	0.02	2.923011	8	10	0.05	2000	0.7789075	40.92393	-91.39363
3254496	1224	-395	1039	1.301338	-0.3809061	-46.72305	0	10.94	20031	-45	3	5	5	0.02	2.914562	8	10	0.05	2000	2.780552	40.92393	-91.39363
3254589	862	-331	-1385	1.729523	0.004358082	-46.58254	0	10.94	20032	-45	3	5	5	0.02	2.9035	8	10	0.05	2000	2.167932	40.92393	-91.39363
3254659	-159	794	-964	1.780334	-1.501458	-46.67932	0	10.94	20019	-39	-2	5	5	0.02	2.895223	8	10	0.05	2000	6.452432	40.92393	-91.39363
3254762	-254	-1032	-339	1.838926	-1.554066	-47.16331	0	10.94	20049	-26	-9	5	5	0.02	2.882923	8	10	0.05	2000	7.688931	40.92393	-91.39363
3254840	1113	1422	-247	1.162329	-1.64889	-47.60093	0	10.94	20038	-35	-18	5	5	0.02	2.874658	8	10	0.05	2000	8.965467	40.92393	-91.39363
3254951	361	319	-216	2.447891	-3.079932	-47.40798	0	10.94	20049	-35	-18	5	5	0.02	2.857472	8	10	0.05	2000	11.42197	40.92393	-91.39363
3255070	-634	-1337	-347	2.567213	-1.833632	-46.95807	0	10.94	20054	-21	-18	5	5	0.02	2.843372	8	10	0.05	2000	10.51735	40.92393	-91.39363
3255128	-1159	-685	-970	1.824975	-1.789594	-47.04908	0	10.94	20062	-14	-18	5	5	0.02	2.830915	8	10	0.05	2000	12.22112	40.92393	-91.39363
3255302	584	267	-1140	0.08466242	-1.205599	-47.27798	0	10.15	20010	-5	-27	5	5	0.02	2.810614	8	10	0.05	2000	13.79663	40.92393	-91.39363
3255353	649	641	-247	0.7554559	-2.000685	-47.06621	0	10.15	20054	1	-34	5	5	0.02	2.807753	8	10	0.05	2000	13.53237	40.92393	-91.39363
3255518	889	1402	163	0.8026541	-3.279659	-46.50179	0	10.15	20055	9	-27	5	5	0.02	2.798414	8	10	0.05	2000	10.60185	40.92393	-91.39363
3255570	123	692	752	0.8717808	-3.717814	-46.35459	0	10.15	20029	35	-53	5	5	0.02	2.793933	8	10	0.05	2000	12.78056	40.92393	-91.39363
3255644	-514	1413	1183	0.1148755	-4.875976	-46.37745	0	10.15	20052	36	-54	5	5	0.02	2.790524	8	10	0.05	2000	13.66604	40.92392	-91.39363
3255727	507	2476	322	0.243722	-6.779752	-45.74262	0	10.15	20031	53	-71	5	5	0.02	2.783456	8	10	0.05	2000	13.13891	40.92392	-91.39363
3255871	-1109	-234	406	-2.38976	-7.080999	-46.90979	0	10.15	20026	47	-65	5	5	0.02	2.775694	8	10	0.05	2000	10.80323	40.92392	-91.39363
3255988	-4	378	917	-3.053717	-4.629925	-47.77534	0	10.15	20055	74	-83	5	5	0.02	2.771142	8	10	0.05	2000	10.87301	40.92392	-91.39362
3256109	-1026	132	-1280	-2.540008	-4.935753	-46.73484	0	10.49	20029	100	-100	5	5	0.02	2.773932	8	10	0.05	2000	8.297277	40.92392	-91.39362
3256163	-2477	516	592	-4.216499	-4.847413	-46.50077	0	10.49	20042	101	-101	5	5	0.02	2.77409	8	10	0.05	2000	7.816815	40.92392	-91.39362
3256254	45	560	-147	-4.515851	-7.150716	-46.15687	0	10.49	20035	80	-80	5	5	0.02	2.7816	8	10	0.05	2000	3.536923	40.92392	-91.39362
3256312	-1476	30	1839	-4.709795	-7.270491	-46.31837	0	10.49	20057	98	-89	5	5	0.02	2.786827	8	10	0.05	2000	2.003938	40.92391	-91.39362
3256452	-174	1248	176	-6.152807	-5.597118	-47.10311	0	10.49	20033	102	-93	5	5	0.02	2.791522	8	10	0.05	2000	1.978454	40.92391	-91.39362
3256514	-414	1173	675	-6.06716	-5.971927	-47.02019	0	10.49	20009	102	-93	5	5	0.02	2.791349	8	10	0.05	2000	0.3846743	40.92391	-91.39362
3256658	1150	2185	593	-5.804293	-6.648606	-46.27971	0	10.49	20039	99	-88	5	5	0.02	2.785707	8	10	0.05	2000	-3.002228	40.92391	-91.39362
3256711	-197	1355	249	-4.645683	-8.416286	-46.01029	0	10.49	20033	99	-88	5	5	0.02	2.779162	8	10	0.05	2000	-4.700653	40.92391	-91.39362
3256851	-1584	-1423	200	-5.700272	-7.228444	-46.97532	0	10.49	20030	78	-74	5	5	0.02	2.760098	8	10	0.05	2000	-5.260559	40.92391	-91.39362
3256919	-52	1162	40	-5.485231	-6.766093	-47.07977	0	10.49	20054	91	-85	5	5	0.02	2.75016	8	10	0.05	2000	-5.969849	40.92391	-91.39362
3257095	-1073	-2282	-1303	-7.95572	-5.555219	-46.05404	0	10.77	20031	95	-80	5	5	0.02	2.711818	8	10	0.05	2000	-9.674377	40.92391	-91.39362
3257152	-367	1100	-458	-6.662719	-5.294374	-45.82922	0	10.77	20030	95	-80	5	5	0.02	2.703665	8	10	0.05	2000	-11.18613	40.92391	-91.39362
3257258	-685	832	296	-6.335485	-7.807072	-46.19075	0	10.77	20033	95	-80	5	5	0.02	2.664765	8	10	0.05	2000	-13.66537	40.92391	-91.39362
3257356	-1393	209	495	-6.503951	-8.735195	-46.36337	0	10.77	20005	81	-73	5	5	0.02	2.636885	8	10	0.05	2000	-13.66537	40.92391	-91.39362
3257486	538	375	580	-5.922003	-5.752819	-46.05693	0	10.77	20030	63	-55	5	5	0.02	2.603912	8	10	0.05	2000	-14.17734	40.92391	-91.39362
3257533	-390	-262	-99	-5.385385	-6.163	-46.11239	0	10.77	20056	42	-41	5	5	0.02	2.587896	8	10	0.05	2000	-14.05878	40.92391	-91.39362
3257625	1933	272	-146	-4.321626	-5.543681	-45.85149	0	10.77	20026	15	-41	5	5	0.02	2.530046	8	10	0.05	2000	-14.63211	40.92391	-91.39362
3257753	-686	-859	-223	-0.9398451	-5.895783	-45.35209	0	10.77	20036	-25	-34	5	5	0.02	2.479735	8	10	0.05	2000	-15.08163	40.92391	-91.39362
3257845	-1347	-2026	1075	-2.165957	-5.042548	-46.2777	0	10.77	20031	-26	-34	5	5	0.02	2.441481	8	10	0.05	2000	-14.0726	40.92391	-91.39362
3258020	1167	-1322	-214	0.2665022	-3.870957	-46.93461	0	10.43	20034	-53	-25	5	5	0.02	2.344627	8	10	0.05	2000	-13.28238	40.92391	-91.39362
3258055	2398	249	136	1.237692	-3.597706	-46.71548	0	10.43	20009	-39	-39	5	5	0.02	2.332956	8	10	0.05	2000	-11.8598	40.92391	-91.39362
3258124	410	-22	-529	1.844643	-4.691407	-46.13929	0	10.43	20034	-66	-39	5	5	0.02	2.298304	8	10	0.05	2000	-10.06036	40.92391	-91.39362
3258283	-139	-595	1074	1.563301	-3.475194	-46.34443	0	10.43	20025	-45	-39	5	5	0.02	2.226402	8	10	0.05	2000	-8.723785	40.92391	-91.39363
3258320	1563	408	233	2.780774	-2.468644	-46.46161	0	10.43	20030	-60	-30	5	5	0.02	2.191422	8	10	0.05	2000	-7.228027	40.92391	-91.39363
3258341	1563	408	233	2.780774	-2.468644	-46.46161	0	10.43	20030	-60	-30	5	5	0.02	2.191422	8	10	0.05	2000	-7.228027	40.92391	-91.39363
3258473	168	1094	-369	1.665376	-5.21876	-45.77485	0	10.43	20059	-39	-36	5	5	0.02	2.170822	8	10	0.05	2000	-6.315155	40.92391	-91.39363
3258601	-385	-1558	525	1.700743	-4.657333	-45.60071	0	10.43	20038	-101	-10	5	5	0.02	2.169801	8	10	0.05	2000	-5.116882	40.92391	-91.39363
3258648	1089	-1939	1103	1.410463	-2.801413	-45.94888	0	10.43	20013	-81	-10	5	5	0.02	2.170405	8	10	0.05	2000	-3.481171	40.92392	-91.39364
3258766	402	1570	363	3.690847	-2.979348	-46.04917	0	10.49	20019	-81	-10	5	5	0.02	2.168687	8	10	0.05	2000	-1.250732	40.92392	-91.39364
3258851	725	-1263	-336	3.642062	-3.337657	-45.63818	0	10.49	20054	-117	8	5	5	0.02	2.16719	8	10	0.05	2000	-1.939789	40.92392	-91.39364
3258963	1702	-527	-104	5.625327	-1.185704	-45.1818	0	10.49	20030	-116	19	5	5	0.02	2.159747	8	10	0.05	2000	1.520921	40.92392	-91.39364
3259042	815	495	-559	6.188714	-1.558044	-45.68784	0	10.49	20046	-116	19	5	5	0.02	2.15824	8	10	0.05	2000	4.163768	40.92392	-91.39365
3259141	740	-1628	-464	6.113582	-0.2396476	-46.68929	0	10.49	20006	-134	37	5	5	0.02	2.150901	8	10	0.05	2000	5.584888	40.92392	-91.39365
3259288	-1087	-861	1174	6.265874	0.51245	-46.89471	0	10.49	20005	-85	16	5	5	0.02	2.124061	8	10	0.05	2000	9.231273	40.92392	-91.39365
3259402	2375	483	-521	7.463699	-1.372141	-46.20475	0	10.49	20032	-94	34	5	5	0.02	2.104468	8	10	0.05	2000	12.29663	40.92392	-91.39365
3259454	-1461	-1089	-255	6.177496	-1.162198	-46.16451	0	10.49	20015	-66	20	5	5	0.02	2.095315	8	10	0.05	2000	17.11766	40.92392	-91.39365
3259529	468	-721	865	5.985384	-1.539254	-46.42617	0	10.49	20033	-75	47	5	5	0.02	2.0773	8	10	0.05	2000	17.87005	40.92393	-91.39365
3259641	92	-535	1278	5.89575	-1.298789	-46.93218	0	10.49	20014	-54	33	5	5	0.02	2.059767	8	10	0.05	2000	19.71739	40.92393	-91.39365
3259724	-1108	-249	605	2.933614	0.2096828	-46.71883	0	10.72	20051	-27	33	5	5	0.02	2.048351	8	10	0.05	2000	22.12874	40.92393	-91.39365
3259829	-3090	1202	618	0.1718052	-0.7645805	-46.50584	0	10.72	20042	-13	19	5	5	0.02	2.038695	8	10	0.05	2000	22.82338	40.92393	-91.39365
3259963	-2917	458	1516	-5.904508	-1.997353	-47.45945	0	10.72	20012	21	14	5	5	0.02	2.045183	8	10	0.05	2000	22.877	40.92393	-91.39365
3260048	-3673	416	367	-9.404282	-3.350662	-47.82603	0	10.72	20054	57	14	5	5	0.02	2.066706	8	10	0.05	2000	17.31292	40.92393	-91.39364
3260133	-1927	3652	-435	-11.21881	-5.686877	-47.24443	0	10.72	20054	64	-6	5	5	0.02	2.078019	8	10	0.05	2000	15.43607	40.92393	-91.39364
3260232	-2148	65	140	-14.00905	-7.182665	-45.95086	0	10.72	20054	100	11	5	5	0.02	2.093556	8	10	0.05	2000	5.850996	40.92393	-91.39363
3260329	-954	9	-615	-14.15878	-7.110624	-46.07711	0	10.72	20038	79	11	5	5	0.02	2.107441	8	10	0.05	2000	2.44369	40.92393	-91.39363
3260435	-1695	-1230	-360	-13.7666	-6.004512	-46.88353	0	10.72	20036	115	29	5	5	0.02	2.105847	8	10	0.05	2000	0.8875743	40.92393	-91.39363
3260531	1575	-450	-892	-11.78713	-4.477393	-47.1345	0	10.72	20039	94	22	5	5	0.02	2.094122	8	10	0.05	2000	-2.896088	40.92393	-91.39363
3260633	123	335	-640	-10.34266	-4.156495	-47.06018	0	10.26	20043	130	22	5	5	0.02	2.061904	8	10	0.05	2000	-3.316895	40.92393	-91.39362
3260767	-921	-1703	226	-9.570339	-1.698876	-46.03325	0	10.26	20029	122	26	5	5	0.02	2.016792	8	10	0.05	2000	-6.88031	40.92393	-91.39362
3260850	-1221	-1332	-238	-10.14414	-0.7085248	-46.51327	0	10.26	20054	120	31	5	5	0.02	1.985447	8	10	0.05	2000	-7.926636	40.92393	-91.39362
3261014	13	415	1059	-9.527246	0.3255667	-47.11252	0	10.26	20011	101	26	5	5	0.02	1.893413	8	10	0.05	2000	-10.79712	40.92393	-91.39362
3261071	1102	301	202	-8.74771	0.008995057	-46.79268	0	10.26	20031	73	12	5	5	0.02	1.869211	3	10	0.05	2000	-13.55197	40.92393	-91.39362
3261152	2727	-1277	-757	-6.424943	0.6382321	-46.39756	0	10.26	20031	0	0	5	5	0.02	1.829669	3	10	0.05	2000	-14.08466	40.92393	-91.39362
3261259	224	-959	484	-4.210996	2.753825	-46.78443	0	10.26	20031	0	0	5	5	0.02	1.744163	3	10	0.05	2000	-13.49423	40.92393	-91.39362
3261377	727	-217	268	-4.986197	2.621398	-47.47898	0	10.26	20031	0	0	5	5	0.02	1.681349	3	10	0.05	2000	-11.82239	40.92393	-91.39362
3261442	1678	-674	-795	-1.694645	2.365863	-47.29633	0	10.26	20031	0	0	5	5	0.02	1.617947	3	10	0.05	2000	-12.85596	40.92393	-91.39362
3261547	-988	4114	689	-2.240924	-1.3157	-47.20979	0	10.94	20031	0	0	5	5	0.02	1.566212	3	10	0.05	2000	-11.41895	40.92393	-91.39362
3261658	-195	-166	-2458	-2.310092	-5.322645	-44.58271	0	10.94	20031	0	0	5	5	0.02	1.468172	3	10	0.05	2000	-10.5965	40.92393	-91.39362
3261802	513	-57	-1637	-2.591588	-6.368192	-42.85563	0	10.94	20031	0	0	5	5	0.02	1.381857	3	10	0.05	2000	-10.59589	40.92393	-91.39362
3261841	-1169	-1655	305	-2.896188	-5.405247	-43.10827	0	10.94	20031	0	0	5	5	0.02	1.345912	3	10	0.05	2000	-10.86774	40.92393	-91.39362
3261987	575	384	521	-3.579097	-6.611618	-45.96049	0	10.94	20031	0	0	5	5	0.02	1.222528	3	10	0.05	2000	-10.65134	40.92393	-91.39362
3262078	-433	-1178	-45	-1.578278	-6.799385	-46.53891	0	10.94	20031	0	0	5	5	0.02	1.170308	3	10	0.05	2000	-7.978668	40.92393	-91.39362
3262147	660	244	-792	-1.32965	-6.534477	-46.46674	0	10.94	20031	0	0	5	5	0.02	1.117113	3	10	0.05	2000	-8.677948	40.92393	-91.39362
3262262	1182	-1204	280	3.226284	-4.467805	-46.90804	0	10.94	20031	0	0	5	5	0.02	1.010981	3	10	0.05	2000	-7.539886	40.92393	-91.39363
3262389	-3656	-1540	2350	-0.4872127	1.132749	-47.97393	0	10.94	20031	0	0	5	5	0.02	0.9579673	3	10	0.05	2000	-3.790375	40.92393	-91.39363
3262456	975	3897	-1791	-4.974329	1.322032	-49.21395	0	11.06	20031	0	0	5	5	0.02	0.8713828	3	10	0.05	2000	-0.3766479	40.92393	-91.39363
3262555	7223	2806	2530	-4.304783	-6.419076	-49.30806	0	11.06	20031	0	0	5	5	0.02	0.7965363	3	10	0.05	2000	3.107355	40.92393	-91.39363
3262738	-156	-185	-26	-0.09593114	-3.892834	-51.05543	0	11.06	20031	0	0	5	5	0.02	0.6751017	3	10	0.05	2000	2.839663	40.92393	-91.39363
3262790	-62	-18	-29	-0.08629189	-3.320059	-51.06789	0	11.06	20031	0	0	5	5	0.02	0.6287696	3	10	0.05	2000	3.100529	40.92393	-91.39363
3262883	-108	-37	-38	-0.02412257	-2.683218	-51.0981	0	11.06	20031	0	0	5	5	0.02	0.5563011	3	10	0.05	2000	2.14109	40.92393	-91.39363
3262967	-99	-10	43	0.03154489	-2.305958	-51.11895	0	11.06	20031	0	0	5	5	0.02	0.5176427	3	10	0.05	2000	2.065635	40.92393	-91.39363
3263038	-88	2	52	0.1056437	-1.788	-51.13741	0	11.06	20031	0	0	5	5	0.02	0.4839627	3	10	0.05	2000	2.330506	40.92393	-91.39363
3263149	-58	-16	-6	0.1677118	-1.357099	-51.15942	0	11.06	20031	0	0	5	5	0.02	0.4294223	3	10	0.05	2000	2.252861	40.92393	-91.39363
3263301	-64	21	55	0.2442472	-0.738417	-51.19966	0	11.06	20031	0	0	5	5	0.02	0.3782715	3	10	0.05	2000	2.711953	40.92393	-91.39363
3263382	-72	-2	14	0.2785303	-0.538709	-51.21586	0	11.17	20031	0	0	5	5	0.02	0.3273522	3	10	0.05	2000	2.722329	40.92393	-91.39363
3263457	-68	-3	-34	0.3170625	-0.3390957	-51.22594	0	11.17	20031	0	0	5	5	0.02	0.316731	1	10	0.05	2000	1.37329	40.92393	-91.39363
3263634	-80	-10	0	0.3717682	0.07614797	-51.2608	0	11.17	20031	0	0	5	5	0.02	0.2849339	1	10	0.05	2000	1.76425	40.92393	-91.39363
3263685	-86	3	58	0.390315	0.2080839	-51.27779	0	11.17	20031	0	0	5	5	0.02	0.2793161	1	10	0.05	2000	1.73759	40.92393	-91.39363
3263787	-76	-9	0	0.4204528	0.4043853	-51.29809	0	11.17	20031	0	0	5	5	0.02	0.2548967	1	10	0.05	2000	1.443377	40.92393	-91.39363
3263897	-80	-11	29	0.4327087	0.5688416	-51.32016	0	11.17	20031	0	0	5	5	0.02	0.2384195	1	10	0.05	2000	1.15202	40.92393	-91.39363
3263939	-66	9	13	0.4460241	0.6591935	-51.3333	0	11.17	20031	0	0	5	5	0.02	0.23166	1	10	0.05	2000	1.836881	40.92393	-91.39363
3264042	-71	1	2	0.4609556	0.7438271	-51.34748	0	11.17	20031	0	0	5	5	0.02	0.2197233	1	10	0.05	2000	1.097339	40.92393	-91.39363
3264165	-64	1	14	0.4844548	0.9262481	-51.38127	0	11.17	20031	0	0	5	5	0.02	0.2095203	1	10	0.05	2000	1.074281	40.92393	-91.39363
3264294	-74	0	9	0.5053235	1.022043	-51.40155	0	11.11	20031	0	0	5	5	0.02	0.209685	1	10	0.05	2000	1.274958	40.92393	-91.39363
3264391	-69	0	10	0.5206566	1.108611	-51.42108	0	11.11	20031	0	0	5	5	0.02	0.2106184	1	10	0.05	2000	0.7743747	40.92393	-91.39363
3264490	-62	0	15	0.5377837	1.188211	-51.44263	0	11.11	20031	0	0	5	5	0.02	0.2087628	1	10	0.05	2000	0.7537983	40.92393	-91.39363
3264558	-75	0	13	0.5493078	1.236786	-51.45722	0	11.11	20031	0	0	5	5	0.02	0.2090968	1	10	0.05	2000	0.963536	40.92393	-91.39363
3264645	-74	-2	19	0.552336	1.292917	-51.47919	0	11.11	20031	0	0	5	5	0.02	0.2113487	1	10	0.05	2000	0.7169807	40.92393	-91.39363
3264773	-72	-2	16	0.5604628	1.354494	-51.50642	0	11.11	20031	0	0	5	5	0.02	0.2132937	1	10	0.05	2000	0.7113832	40.92393	-91.39363
3264891	-64	1	10	0.5702368	1.39096	-51.52534	0	11.11	20031	0	0	5	5	0.02	0.2109756	1	10	0.05	2000	0.6899611	40.92393	-91.39363
3264947	-65	-3	17	0.5790084	1.419216	-51.53889	0	11.11	20031	0	0	5	5	0.02	0.2075498	1	10	0.05	2000	0.6772112	40.92393	-91.39363
3265056	-70	6	14	0.5799102	1.455442	-51.55794	0	11.11	20031	0	0	5	5	0.02	0.2036886	1	10	0.05	2000	1.11481	40.92393	-91.39363
3265233	-73	-1	7	0.5868564	1.502474	-51.58968	0	11.17	20031	0	0	5	5	0.02	0.1906099	1	10	0.05	2000	0.8876775	40.92393	-91.39363
3265320	-70	0	11	0.5974393	1.518106	-51.60164	0	11.17	20031	0	0	5	5	0.02	0.1911016	1	10	0.05	2000	1.097096	40.92393	-91.39363
3265376	-71	2	9	0.5994192	1.543012	-51.62209	0	11.17	20031	0	0	5	5	0.02	0.1882177	1	10	0.05	2000	0.8614736	40.92393	-91.39363
3265457	-72	-1	7	0.6048782	1.570298	-51.64059	0	11.17	20031	0	0	5	5	0.02	0.1844678	1	10	0.05	2000	0.635824	40.92393	-91.39363
3265582	-67	-5	14	0.6143255	1.58746	-51.66043	0	11.17	20031	0	0	5	5	0.02	0.1783789	1	10	0.05	2000	0.8456488	40.92393	-91.39363
3265695	-60	-3	11	0.6199805	1.597723	-51.67868	0	11.17	20031	0	0	5	5	0.02	0.1724977	1	10	0.05	2000	0.6143066	40.92393	-91.39363
3265818	-68	2	8	0.620145	1.610407	-51.70457	0	11.17	20031	0	0	5	5	0.02	0.1696097	1	10	0.05	2000	0.8233622	40.92393	-91.39363
3265970	-68	-2	13	0.6259685	1.636253	-51.73643	0	11.17	20031	0	0	5	5	0.02	0.1763314	1	10	0.05	2000	0.5978844	40.92393	-91.39363
3266097	-71	0	12	0.6302111	1.644874	-51.75517	0	11.17	20031	0	0	5	5	0.02	0.1779775	1	10	0.05	2000	0.5896944	40.92393	-91.39363
3266215	-67	1	7	0.6354196	1.659454	-51.77708	0	11.11	20031	0	0	5	5	0.02	0.1717399	1	10	0.05	2000	1.028707	40.92393	-91.39363
3266260	-66	5	7	0.6380836	1.667526	-51.78697	0	11.11	20031	0	0	5	5	0.02	0.1718385	1	10	0.05	2000	0.5752655	40.92393	-91.39363
3266395	-71	1	14	0.6406459	1.674963	-51.80558	0	11.11	20031	0	0	5	5	0.02	0.1722542	1	10	0.05	2000	0.8005823	40.92393	-91.39363
3266450	-62	1	9	0.6447347	1.684972	-51.82341	0	11.11	20031	0	0	5	5	0.02	0.1723013	1	10	0.05	2000	0.7932952	40.92393	-91.39363
3266553	-69	1	14	0.6453328	1.693023	-51.84111	0	11.11	20031	0	0	5	5	0.02	0.1856996	1	10	0.05	2000	0.7881064	40.92393	-91.39363
3266656	-61	1	7	0.6498563	1.694219	-51.85997	0	11.11	20031	0	0	5	5	0.02	0.1857017	1	10	0.05	2000	0.7921627	40.92393	-91.39363
3266808	-69	-12	3	0.6491338	1.696938	-51.88353	0	11.11	20031	0	0	5	5	0.02	0.1772937	1	10	0.05	2000	0.7864927	40.92393	-91.39363
3266873	-68	0	4	0.651647	1.706311	-51.89813	0	11.11	20031	0	0	5	5	0.02	0.1780562	1	10	0.05	2000	0.7788472	40.92393	-91.39363
3266969	-67	0	9	0.6492838	1.712416	-51.90802	0	11.11	20031	0	0	5	5	0.02	0.1835893	1	10	0.05	2000	0.7837602	40.92393	-91.39363
3267046	-68	2	8	0.6515839	1.71323	-51.91949	0	11.17	20031	0	0	5	5	0.02	0.1884861	1	10	0.05	2000	0.7870627	40.92393	-91.39363
3267148	-65	0	7	0.6546205	1.712022	-51.93725	0	11.17	20031	0	0	5	5	0.02	0.1935653	1	10	0.05	2000	0.7813306	40.92393	-91.39363
3267323	-68	2	10	0.6538094	1.715943	-51.97902	0	11.17	20031	0	0	5	5	0.02	0.2039615	1	10	0.05	2000	0.5392151	40.92393	-91.39363
3267394	-74	-1	12	0.6513599	1.717786	-51.98933	0	11.17	20031	0	0	5	5	0.02	0.21572	1	10	0.05	2000	0.7751852	40.92393	-91.39363
3267461	-64	4	8	0.6510798	1.718234	-52.00099	0	11.17	20031	0	0	5	5	0.02	0.223331	1	10	0.05	2000	0.7831773	40.92393	-91.39363
3267544	-67	-2	8	0.6512858	1.721977	-52.00972	0	11.17	20031	0	0	5	5	0.02	0.2323409	1	10	0.05	2000	0.5570669	40.92393	-91.39363
3267604	-66	2	10	0.6490236	1.718182	-52.02559	0	11.17	20031	0	0	5	5	0.02	0.2349498	1	10	0.05	2000	0.5586088	40.92393	-91.39363
3267732	178	218	169	0.7247788	1.588624	-52.06104	0	11.17	20031	0	0	5	5	0.02	0.2358095	1	10	0.05	2000	0.7688259	40.92393	-91.39363
3267815	-132	-48	121	0.7965778	1.524129	-52.07271	0	11.17	20031	0	0	5	5	0.02	0.2374563	1	10	0.05	2000	1.00723	40.92393	-91.39363
3267906	-1551	332	-517	-0.33015	1.159477	-51.99696	0	11.23	20031	0	0	5	5	0.02	0.2430667	1	10	0.05	2000	0.6508493	40.92393	-91.39363
3268008	756	-2488	-2099	-3.526503	4.595191	-48.11829	0	11.23	20031	0	0	5	5	0.02	0.2504149	1	10	0.05	2000	0.5647017	40.92393	-91.39363
3268097	-908	-994	-1693	-4.179957	6.956623	-46.06528	0	11.23	20031	0	0	5	5	0.02	0.2588096	1	10	0.05	2000	0.6023518	40.92393	-91.39363
3268202	-2505	2573	-366	-8.619827	6.568424	-43.71326	0	11.23	20031	0	0	5	5	0.02	0.2883203	1	10	0.05	2000	1.247167	40.92393	-91.39363
3268312	-4413	2555	-1399	-11.97755	4.45986	-42.88123	0	11.23	20031	0	0	5	5	0.02	0.3155331	1	10	0.05	2000	-0.3178711	40.92393	-91.39363
3268403	-2830	1406	-2443	-16.05833	2.75313	-39.40398	0	11.23	20031	0	0	5	5	0.02	0.3352275	1	10	0.05	2000	-4.997711	40.92393	-91.39362
3268538	562	-524	-951	-12.99606	5.521471	-34.89001	0	11.23	20031	0	0	5	5	0.02	0.3945832	1	10	0.05	2000	-14.68115	40.92393	-91.39362
3268708	3125	141	345	-7.3655	11.25197	-33.93086	0	11.23	20031	0	0	5	5	0.02	0.4704512	1	10	0.05	2000	-18.82111	40.92393	-91.39362
3268873	1082	873	4750	-0.9170969	6.577571	-42.80601	0	11.17	20031	0	0	5	5	0.02	0.5394894	1	10	0.05	2000	-13.79163	40.92393	-91.39362
3268938	105	-1024	4784	-0.6874566	4.339305	-48.28863	0	11.17	20031	0	0	5	5	0.02	0.5623368	1	10	0.05	2000	-9.437347	40.92393	-91.39363
3269006	1515	-1820	1436	0.02877397	5.214618	-53.64339	0	11.17	20031	0	0	5	5	0.02	0.5823553	1	10	0.05	2000	-4.463928	40.92393	-91.39363
3269088	2028	-1110	337	2.07673	4.700531	-54.52402	0	11.17	20031	0	0	5	5	0.02	0.6149588	1	10	0.05	2000	-4.463928	40.92393	-91.39363
3269181	1055	422	469	3.237782	3.402868	-54.96539	0	11.17	20031	0	0	5	5	0.02	0.6246718	1	10	0.05	2000	-3.003998	40.92393	-91.39363
3269283	403	2344	-966	3.189313	-0.5660813	-54.36178	0	11.17	20031	0	0	5	5	0.02	0.6422075	1	10	0.05	2000	-0.833313	40.92393	-91.39363
3269433	-968	139	522	1.95631	-4.022986	-52.85901	0	11.17	20031	0	0	5	5	0.02	0.6334725	1	10	0.05	2000	-0.7810364	40.92393	-91.39363
3269523	138	-598	-1345	0.2248967	-3.354871	-53.35661	0	11.17	20031	0	0	5	5	0.02	0.6186485	1	10	0.05	2000	0.3867419	40.92393	-91.39363
3269586	-161	228	203	0.05856683	-3.037489	-53.13511	0	11.17	20031	0	0	5	5	0.02	0.6074151	1	10	0.05	2000	0.3867419	40.92393	-91.39363
3269724	124	-61	44	-0.3646543	-2.639494	-52.45053	0	11.23	20031	0	0	5	5	0.02	0.5849018	1	10	0.05	2000	-0.1482239	40.92393	-91.39363
3269869	329	-581	-64	-0.2274293	-2.135383	-52.51723	0	11.23	20031	0	0	5	5	0.02	0.5644217	1	10	0.05	2000	-0.4284668	40.92393	-91.39363
3269914	190	-383	14	0.1174371	-1.439357	-52.49778	0	11.23	20031	0	0	5	5	0.02	0.555534	1	10	0.05	2000	0.07979599	40.92393	-91.39363
3269992	-305	285	86	0.2361353	-1.268333	-52.50616	0	11.23	20031	0	0	5	5	0.02	0.5437926	1	10	0.05	2000	0.4236247	40.92393	-91.39363
3270108	76	-195	34	-0.03634089	-1.169374	-52.53869	0	11.23	20031	0	0	5	5	0.02	0.5182196	1	10	0.05	2000	0.06603041	40.92393	-91.39363
3270196	-91	99	6	-0.01945611	-0.8949852	-52.55019	0	11.23	20031	0	0	5	5	0.02	0.5013165	1	10	0.05	2000	0.5444416	40.92393	-91.39363
