time(ms)	gyro_x(deg/s)	gyro_y(deg/s)	gyro_z(deg/s)	orientation_roll(deg)	orientation_pitch(deg)	orientation_yaw(deg)	throttle	battery(V)	loop_time(uS)	pid_output_roll	pid_output_pitch	pid_output_yaw	pid_output_throttle	ultrasonic_alt	baro_alt	flight_mode	p_gain_altitude	i_gain_altitude	d_gain_altitude	compass_heading	latitude	longitude
2993733	-548	2169	447	-3.689009	-4.640697	1.496427	0	11.57	20061	0	0	5	5	0.02	1.271054	3	10	0.05	2000	-1.199677	40.92395	-91.3936
2993809	-2486	252	-151	-5.438841	-5.458153	1.470819	0	11.57	20061	0	0	5	5	0.02	1.271962	3	10	0.05	2000	-2.704956	40.92395	-91.3936
2993914	3551	1550	-974	-5.283432	-5.608087	1.982688	0	11.57	20061	0	0	5	5	0.02	1.269444	3	10	0.05	2000	-5.550201	40.92395	-91.39359
2994061	-1428	-2396	-102	-1.715608	-4.678741	1.672821	0	11.57	20061	0	0	5	5	0.02	1.251237	3	10	0.05	2000	-7.776367	40.92395	-91.39359
2994148	1040	1004	-1304	-2.667917	-1.814552	1.159063	0	11.57	20061	0	0	5	5	0.02	1.242283	3	10	0.05	2000	-10.52988	40.92395	-91.39359
2994223	52	1933	121	-2.127921	-1.437712	1.512395	0	11.57	20061	0	0	5	5	0.02	1.214923	3	10	0.05	2000	-9.334686	40.92395	-91.39359
2994358	1251	1312	-57	-2.005505	-0.1677267	1.877739	0	11.57	20061	0	0	5	5	0.02	1.159297	3	10	0.05	2000	-9.943909	40.92394	-91.39359
2994452	272	5384	-1220	-0.9902375	-8.632744	2.357826	0	10.15	20061	0	0	5	5	0.02	1.136327	3	10	0.05	2000	-10.02121	40.92394	-91.39359
2994552	-1734	1164	1418	-1.348759	-11.47962	1.932767	0	10.15	20061	0	0	5	5	0.02	1.050256	3	10	0.05	2000	-9.383362	40.92394	-91.39359
2994680	2597	-861	-21	-0.3177278	-11.90047	2.265066	0	10.15	20061	0	0	5	5	0.02	0.9871956	3	10	0.05	2000	-9.164948	40.92393	-91.39359
2994774	-216	-4039	-2676	-0.2383988	-6.413109	4.038488	0	10.15	20061	0	0	5	5	0.02	0.8885038	3	10	0.05	2000	-9.39267	40.92393	-91.39359
2994855	-1263	-4430	-673	-0.703327	-0.815613	5.03408	0	10.15	20061	0	0	5	5	0.02	0.8391786	3	10	0.05	2000	-10.9234	40.92393	-91.39359
2994966	348	300	606	-2.265747	1.952775	1.446974	0	10.15	20061	0	0	5	5	0.02	0.7813472	3	10	0.05	2000	-10.48062	40.92393	-91.39359
2995040	1639	1828	1782	-1.064775	0.5596886	-0.1761525	0	10.15	20061	0	0	5	5	0.02	0.7415725	3	10	0.05	2000	-8.646362	40.92393	-91.39359
2995174	289	-904	-1143	-0.2067205	-1.575907	-0.07659113	0	10.15	20061	0	0	5	5	0.02	0.683648	3	10	0.05	2000	-10.06201	40.92393	-91.39359
2995276	-464	3320	-1475	-1.148684	-4.05097	1.534635	0	10.15	20061	0	0	5	5	0.02	0.637485	3	10	0.05	2000	-9.620209	40.92393	-91.39359
2995348	2318	3406	613	-0.5730504	-7.710755	1.910411	0	11.68	20061	0	0	5	5	0.02	0.61655	3	10	0.05	2000	-9.564606	40.92393	-91.39359
2995464	-1860	-2623	-18	-1.851403	-5.037905	2.300304	0	11.68	20061	0	0	5	5	0.02	0.5942285	3	10	0.05	2000	-6.886658	40.92393	-91.3936
2995566	217	-2319	324	-2.988848	-2.211506	2.562082	0	11.68	20061	0	0	5	5	0.02	0.5878802	3	10	0.05	2000	-6.660309	40.92393	-91.3936
2995718	1111	-122	-624	-3.04464	-0.4129853	2.098716	0	11.68	20061	0	0	5	5	0.02	0.5849548	3	10	0.05	2000	-6.193359	40.92393	-91.3936
2995794	895	625	-249	-2.525275	0.05219014	2.3301	0	11.68	20061	0	0	5	5	0.02	0.5853153	3	10	0.05	2000	-6.384583	40.92392	-91.3936
2995855	1419	372	445	-1.396244	0.05530819	2.610371	0	11.68	20061	0	0	5	5	0.02	0.5864753	3	10	0.05	2000	-5.810852	40.92392	-91.3936
2995955	-714	-1285	1776	-0.780574	0.9324425	1.242432	0	11.68	20061	0	0	5	5	0.02	0.5905088	3	10	0.05	2000	-6.554962	40.92392	-91.39361
2996069	24	-1023	-47	-1.330323	3.374929	0.8647127	0	11.68	20061	0	0	5	5	0.02	0.6018381	3	10	0.05	2000	-5.122528	40.92392	-91.39361
2996162	335	2094	522	-1.274701	1.703159	0.7934666	0	11.68	20061	0	0	5	5	0.02	0.6057473	3	10	0.05	2000	-5.690735	40.92393	-91.39361
2996261	1101	630	-923	-0.7850267	-3.142168	1.358462	0	11.46	20061	0	0	5	5	0.02	0.6136353	3	10	0.05	2000	-4.999023	40.92393	-91.39361
2996381	736	373	-447	-0.3614464	-1.639247	1.785514	0	11.46	20061	0	0	5	5	0.02	0.6143137	3	10	0.05	2000	-4.821899	40.92393	-91.39362
2996467	1279	771	176	-0.7463956	-3.418941	2.062958	0	11.46	20061	0	0	5	5	0.02	0.6158448	3	10	0.05	2000	-3.978485	40.92393	-91.39362
2996570	576	-1489	-1447	0.2648329	-4.596807	2.672934	0	11.46	20061	0	0	5	5	0.02	0.6176077	3	10	0.05	2000	-3.594788	40.92393	-91.39362
2996675	-740	-2289	-269	-0.01717937	-2.845748	3.22366	0	11.46	20061	0	0	5	5	0.02	0.6249322	3	10	0.05	2000	-3.167938	40.92393	-91.39362
2996776	192	-342	1051	-2.694579	0.275022	1.719525	0	11.46	20061	0	0	5	5	0.02	0.6379173	3	10	0.05	2000	-1.313873	40.92393	-91.39362
2996899	1234	478	113	-0.7104646	-1.183627	1.725085	0	11.46	20061	0	0	5	5	0.02	0.6674763	3	10	0.05	2000	-2.207092	40.92393	-91.39362
2996978	-596	-826	707	-0.8533413	-0.708788	1.900278	0	11.46	20061	0	0	5	5	0.02	0.6804726	3	10	0.05	2000	-1.322906	40.92393	-91.39362
2997093	1009	925	-487	-1.757545	-0.5233163	1.970565	0	11.46	20061	0	0	5	5	0.02	0.70646	3	10	0.05	2000	-0.06802368	40.92393	-91.39362
2997259	-1062	-1034	-18	-0.005686543	-2.939613	1.790672	0	11.23	20061	0	0	5	5	0.02	0.7350314	3	10	0.05	2000	-0.4613647	40.92393	-91.39362
2997289	-492	-1448	-504	-0.3841319	-2.225862	1.559396	0	11.23	20061	0	0	5	5	0.02	0.7365832	3	10	0.05	2000	-0.2271423	40.92393	-91.39362
2997388	176	212	-418	-0.6294441	-1.419392	1.230567	0	11.23	20061	0	0	5	5	0.02	0.7393809	3	10	0.05	2000	0.6511422	40.92393	-91.39362
2997503	914	172	-1717	-0.6727285	-2.01435	1.597043	0	11.23	20061	0	0	5	5	0.02	0.7364055	3	10	0.05	2000	2.806286	40.92393	-91.39362
2997599	276	588	-104	-2.338531	-2.232369	2.709983	0	11.23	20061	0	0	5	5	0.02	0.734512	3	10	0.05	2000	4.349316	40.92393	-91.39362
2997696	1561	53	1440	-1.036938	-2.63823	3.220496	0	11.23	20061	0	0	5	5	0.02	0.7433496	3	10	0.05	2000	4.791998	40.92393	-91.39363
2997800	-808	-2102	353	-2.421374	-0.6101732	2.07193	0	11.23	20061	0	0	5	5	0.02	0.7525648	3	10	0.05	2000	7.208392	40.92393	-91.39363
2997903	693	911	311	-2.691719	-0.7704464	1.622508	0	11.23	20061	0	0	5	5	0.02	0.7729699	3	10	0.05	2000	7.770888	40.92393	-91.39363
2998000	-594	123	273	-0.9300337	-3.251053	1.676329	0	11.23	20061	0	0	5	5	0.02	0.7894097	3	10	0.05	2000	5.854915	40.92393	-91.39363
2998104	-510	102	670	-1.490045	-3.736505	1.733996	0	11.23	20061	0	0	5	5	0.02	0.7955949	3	10	0.05	2000	6.825553	40.92393	-91.39363
2998208	-374	928	719	-1.326378	-6.091038	1.453817	0	11.8	20061	0	0	5	5	0.02	0.7974961	3	10	0.05	2000	6.660555	40.92393	-91.39363
2998312	-64	817	932	-2.545877	-5.945893	1.2321	0	11.8	20061	0	0	5	5	0.02	0.8022799	3	10	0.05	2000	6.266834	40.92393	-91.39363
2998416	-630	1533	1512	-2.000027	-8.561657	1.481749	0	11.8	20061	0	0	5	5	0.02	0.8173505	3	10	0.05	2000	5.738637	40.92393	-91.39363
2998520	-963	-10	1542	-3.490788	-8.007526	1.243758	0	11.8	20061	0	0	5	5	0.02	0.8270625	3	10	0.05	2000	4.53067	40.92393	-91.39363
2998623	1330	703	-1425	-2.780438	-8.483329	1.715767	0	11.8	20061	0	0	5	5	0.02	0.8387658	3	10	0.05	2000	3.964229	40.92393	-91.39363
2998727	-1838	268	851	-3.275857	-10.63233	1.94386	0	11.8	20061	0	0	5	5	0.02	0.8404908	3	10	0.05	2000	5.165711	40.92393	-91.39363
2998831	42	-2048	-543	-2.029919	-6.814863	1.621942	0	11.8	20061	0	0	5	5	0.02	0.8401237	3	10	0.05	2000	3.784216	40.92393	-91.39364
2998935	1103	-585	879	-1.634855	-5.434298	1.196103	0	11.8	20061	0	0	5	5	0.02	0.838598	3	10	0.05	2000	4.600294	40.92393	-91.39364
2999039	751	825	170	-1.504049	-4.708342	1.5011	0	11.8	20061	0	0	5	5	0.02	0.8364245	3	10	0.05	2000	5.120672	40.92393	-91.39364
2999142	1046	337	885	-0.7748724	-4.702918	2.067497	0	11.17	20061	0	0	5	5	0.02	0.823685	3	10	0.05	2000	6.093387	40.92393	-91.39364
2999246	-1455	-2226	-714	-1.27321	-2.799323	1.826988	0	11.17	20061	0	0	5	5	0.02	0.8116205	3	10	0.05	2000	5.628489	40.92393	-91.39364
2999350	-417	-81	-456	-0.3709529	-4.200973	2.231467	0	11.17	20061	0	0	5	5	0.02	0.8047216	3	10	0.05	2000	6.137053	40.92393	-91.39363
2999453	1599	-73	-41	-0.9711242	-3.533413	2.419951	0	11.17	20061	0	0	5	5	0.02	0.7928419	3	10	0.05	2000	7.176023	40.92393	-91.39363
2999559	1718	1318	336	0.6582506	-3.09927	2.229474	0	11.17	20061	0	0	5	5	0.02	0.7858468	3	10	0.05	2000	7.317492	40.92393	-91.39363
2999661	-438	2209	-398	-1.98992	-7.11337	2.588062	0	11.17	20061	0	0	5	5	0.02	0.7827163	3	10	0.05	2000	7.730341	40.92393	-91.39363
2999760	-485	991	794	-1.905571	-8.761886	3.05421	0	11.17	20061	0	0	5	5	0.02	0.7762243	3	10	0.05	2000	5.87781	40.92393	-91.39363
2999859	-1967	-834	161	-4.910191	-8.088639	1.790184	0	11.17	20061	0	0	5	5	0.02	0.7677077	3	10	0.05	2000	5.360208	40.92393	-91.39363
2999976	-64	2057	-760	-5.934383	-8.661025	1.52483	0	11.17	20061	0	0	5	5	0.02	0.7579721	3	10	0.05	2000	3.213747	40.92393	-91.39363
3000060	-563	172	164	-6.203817	-10.15212	2.526699	0	10.89	20061	0	0	5	5	0.02	0.7628415	3	10	0.05	2000	2.275419	40.92393	-91.39363
3000173	-783	1277	1094	-7.329723	-11.14834	3.213076	0	10.89	20061	0	0	5	5	0.02	0.7690998	3	10	0.05	2000	0.2953086	40.92393	-91.39363
3000307	807	-3468	-418	-5.364614	-8.390237	2.408062	0	10.89	20061	0	0	5	5	0.02	0.7821899	3	10	0.05	2000	-1.012909	40.92393	-91.39363
3000398	1362	830	958	-3.561591	-5.734476	2.001519	0	10.89	20061	0	0	5	5	0.02	0.7865883	3	10	0.05	2000	-1.351532	40.92393	-91.39363
3000469	833	-114	-502	-3.152076	-5.736434	2.032249	0	10.89	20061	0	0	5	5	0.02	0.7919411	3	10	0.05	2000	-0.04116821	40.92393	-91.39362
3000625	-235	227	348	-3.63939	-3.583112	2.146992	0	10.89	20061	0	0	5	5	0.02	0.8042909	3	10	0.05	2000	-1.36908	40.92394	-91.39362
3000707	-1283	-1290	-1443	-4.706735	-3.733257	2.792866	0	10.89	20061	0	0	5	5	0.02	0.8081326	3	10	0.05	2000	-3.717224	40.92394	-91.39362
3000796	-380	-1965	-939	-4.513315	-3.018066	3.420883	0	10.89	20061	0	0	5	5	0.02	0.800776	3	10	0.05	2000	-3.717224	40.92394	-91.39362
3000884	586	1032	1801	-3.468259	-2.560818	3.319337	0	10.89	20061	0	0	5	5	0.02	0.7922301	3	10	0.05	2000	-4.828491	40.92394	-91.39362
3001017	656	-316	226	-1.550211	-4.390862	2.199997	0	11.4	20061	0	0	5	5	0.02	0.7834256	3	10	0.05	2000	-3.58139	40.92394	-91.39362
3001082	135	-1606	-180	-1.164281	-4.662866	2.241917	0	11.4	20061	0	0	5	5	0.02	0.7792695	3	10	0.05	2000	-3.58139	40.92394	-91.39362
3001179	-599	-579	663	-1.396496	-2.926522	2.728749	0	11.4	20061	0	0	5	5	0.02	0.7815957	3	10	0.05	2000	-2.432709	40.92394	-91.39362
3001232	738	-49	-552	-1.829224	-2.115662	2.919083	0	11.4	20061	0	0	5	5	0.02	0.7871936	3	10	0.05	2000	-3.586914	40.92394	-91.39362
3001302	221	-536	1160	-1.101847	-4.291757	2.902224	0	11.4	20061	0	0	5	5	0.02	0.8034397	3	10	0.05	2000	-4.393921	40.92395	-91.39362
3001368	-512	-171	189	-2.339267	-2.933226	2.50726	0	11.4	20061	0	0	5	5	0.02	0.8090401	3	10	0.05	2000	-0.6224976	40.92395	-91.39362
3001436	-191	1703	-257	-3.248448	-3.984048	2.614597	0	11.4	20061	0	0	5	5	0.02	0.8178952	3	10	0.05	2000	0.1260557	40.92395	-91.39362
3001504	-275	2874	1550	-2.547851	-9.955381	3.055983	0	11.4	20061	0	0	5	5	0.02	0.8282986	3	10	0.05	2000	-1.395935	40.92395	-91.39362
3001572	-208	-659	-840	-3.629101	-10.79515	2.692444	0	11.4	20061	0	0	5	5	0.02	0.8318917	3	10	0.05	2000	-1.731812	40.92395	-91.39362
3001674	-631	1567	-635	-2.652034	-11.92615	2.638807	0	11.4	20061	0	0	5	5	0.02	0.8307205	3	10	0.05	2000	-2.326996	40.92395	-91.39362
3001778	-1246	539	128	-3.5	-12.51929	3.01927	0	10.94	20061	0	0	5	5	0.02	0.829767	3	10	0.05	2000	-2.554688	40.92395	-91.39362
3001881	-150	91	-1152	-4.249316	-13.50971	2.987151	0	10.94	20061	0	0	5	5	0.02	0.82871	3	10	0.05	2000	-3.289978	40.92395	-91.39362
3001985	1644	-1971	-714	-3.136049	-11.55592	3.027137	0	10.94	20061	0	0	5	5	0.02	0.8360057	3	10	0.05	2000	-4.086792	40.92395	-91.39362
3002089	778	-1176	376	-0.9350108	-8.406094	3.390939	0	10.94	20061	0	0	5	5	0.02	0.8416957	3	10	0.05	2000	-3.333557	40.92395	-91.39362
3002192	-288	-2130	-901	-1.831893	-6.620895	3.394464	0	10.94	20061	0	0	5	5	0.02	0.8427181	3	10	0.05	2000	-2.919922	40.92395	-91.39362
3002295	-778	-299	301	-0.9642537	-7.306699	2.731305	0	10.94	20061	0	0	5	5	0.02	0.8364622	3	10	0.05	2000	-1.269836	40.92395	-91.39362
3002398	-187	-2959	886	-1.873967	-4.688566	2.259801	0	10.94	20061	0	0	5	5	0.02	0.8308612	3	10	0.05	2000	-0.7245483	40.92395	-91.39362
3002501	459	1093	989	-1.466822	-1.757605	2.553358	0	10.94	20061	0	0	5	5	0.02	0.8258258	3	10	0.05	2000	-0.8062134	40.92396	-91.39362
3002604	-1047	-1648	-553	-1.793491	-2.388557	2.831091	0	10.43	20061	0	0	5	5	0.02	0.8148766	3	10	0.05	2000	0.161194	40.92396	-91.39362
3002709	952	33	641	-1.642311	-1.873495	3.202414	0	10.43	20061	0	0	5	5	0.02	0.8063166	3	10	0.05	2000	0.8960272	40.92396	-91.39362
3002811	-600	-894	584	-1.089578	-3.347359	2.721078	0	10.43	20061	0	0	5	5	0.02	0.7979141	3	10	0.05	2000	2.123965	40.92396	-91.39362
3002914	-955	-2278	-900	-2.548511	-1.521568	2.151143	0	10.43	20061	0	0	5	5	0.02	0.7927287	3	10	0.05	2000	1.355082	40.92396	-91.39362
3003019	-630	-3329	330	-2.469057	0.1872042	1.988052	0	10.43	20061	0	0	5	5	0.02	0.7813174	3	10	0.05	2000	2.98306	40.92396	-91.39362
3003121	-673	-4810	613	-3.412877	6.4787	2.287742	0	10.43	20061	0	0	5	5	0.02	0.7684934	3	10	0.05	2000	3.528454	40.92397	-91.39362
3003225	53	-2494	-447	-4.135174	9.582489	2.404517	0	10.43	20061	0	0	5	5	0.02	0.7568233	3	10	0.05	2000	3.89821	40.92397	-91.39362
3003350	-536	-483	-288	-4.581982	12.27887	2.874802	0	10.43	20061	0	0	5	5	0.02	0.7252989	3	10	0.05	2000	4.010178	40.92397	-91.39362
3003453	-2490	2664	-1372	-8.322295	4.288119	2.804305	0	10.43	20061	0	0	5	5	0.02	0.7124299	3	10	0.05	2000	2.911342	40.92397	-91.39362
3003534	-3104	2854	-301	-10.80675	1.614745	3.164332	0	10.43	20061	0	0	5	5	0.02	0.6996657	3	10	0.05	2000	2.538788	40.92397	-91.39362
3003634	-360	1317	-953	-13.17246	-0.5859143	3.158648	0	11.11	20061	0	0	5	5	0.02	0.6663943	3	10	0.05	2000	-0.7095947	40.92397	-91.39362
3003741	2829	1416	590	-9.089819	-2.310525	5.058784	0	11.11	20061	0	0	5	5	0.02	0.6265079	3	10	0.05	2000	-9.377106	40.92397	-91.39362
3003841	1865	411	-655	-7.734704	-4.635981	4.17667	0	11.11	20061	0	0	5	5	0.02	0.6150377	3	10	0.05	2000	-9.472656	40.92397	-91.39362
3003965	1350	101	-1051	-4.449314	-2.316141	2.961497	0	11.11	20061	0	0	5	5	0.02	0.5913323	3	10	0.05	2000	-8.026093	40.92397	-91.39362
3004048	803	25	172	-3.334873	-2.428143	3.417451	0	11.11	20061	0	0	5	5	0.02	0.5861555	3	10	0.05	2000	-7.596405	40.92397	-91.39362
3004162	-269	3050	233	-3.624467	-7.638313	3.9201	0	11.11	20061	0	0	5	5	0.02	0.5902942	3	10	0.05	2000	-5.413269	40.92397	-91.39362
3004246	-787	1666	1509	-4.131127	-9.410901	2.84787	0	11.11	20061	0	0	5	5	0.02	0.5956987	3	10	0.05	2000	-4.836243	40.92397	-91.39362
3004348	-537	869	-337	-4.758448	-9.77002	1.9806	0	11.11	20061	0	0	5	5	0.02	0.6062987	3	10	0.05	2000	-3.013977	40.92396	-91.39362
3004469	-242	2737	346	-6.071998	-11.60356	1.712519	0	11.11	20061	0	0	5	5	0.02	0.6048847	3	10	0.05	2000	-2.293549	40.92396	-91.39362
3004566	113	-293	-569	-5.852245	-12.15326	1.893102	0	11.46	20061	0	0	5	5	0.02	0.5994111	3	10	0.05	2000	-2.932739	40.92396	-91.39362
3004653	463	-2569	570	-4.765077	-7.869885	1.793159	0	11.46	20061	0	0	5	5	0.02	0.5838165	3	10	0.05	2000	-2.355072	40.92396	-91.39362
3004756	2308	557	-798	-3.300031	-5.872022	2.217504	0	11.46	20061	0	0	5	5	0.02	0.576905	3	10	0.05	2000	-2.184753	40.92396	-91.39362
3004856	160	-493	-480	-2.713966	-7.389526	3.439237	0	11.46	20061	0	0	5	5	0.02	0.5720609	3	10	0.05	2000	-2.141479	40.92396	-91.39362
3004975	-1355	-1916	1562	-3.596289	-3.220777	3.458921	0	11.46	20061	0	0	5	5	0.02	0.5680438	3	10	0.05	2000	-2.183441	40.92396	-91.39362
3005061	-679	137	-216	-5.971048	-1.95777	2.826096	0	11.46	20061	0	0	5	5	0.02	0.568854	3	10	0.05	2000	-1.550934	40.92396	-91.39362
3005155	-2698	-1774	-1560	-7.59365	-0.6343133	2.911699	0	11.46	20061	0	0	5	5	0.02	0.5701839	3	10	0.05	2000	-1.775879	40.92396	-91.39362
3005281	-1499	-2612	-180	-8.865054	2.153539	3.593176	0	11.46	20061	0	0	5	5	0.02	0.5676594	3	10	0.05	2000	-4.476624	40.92396	-91.39362
3005364	1498	2108	1279	-4.670785	3.935623	3.594877	0	11.46	20061	0	0	5	5	0.02	0.563836	3	10	0.05	2000	-7.336639	40.92396	-91.39362
3005461	1701	1564	-185	-3.870727	1.3022	3.261986	0	11.46	20061	0	0	5	5	0.02	0.5616227	3	10	0.05	2000	-5.486633	40.92396	-91.39362
3005585	2043	479	-972	-0.6461561	-1.112203	3.192133	0	11.46	20061	0	0	5	5	0.02	0.5368519	3	10	0.05	2000	-4.422363	40.92396	-91.39362
3005723	-1193	-318	212	1.944005	-2.139156	3.35598	0	11.46	20061	0	0	5	5	0.02	0.5210803	3	10	0.05	2000	-3.963074	40.92395	-91.39363
3005830	441	-1217	-858	0.7456285	-0.6057988	2.69041	0	11.46	20061	0	0	5	5	0.02	0.4952886	3	10	0.05	2000	-1.501282	40.92395	-91.39363
3005893	-265	-934	1035	0.6578906	-0.1082472	2.502244	0	11.46	20061	0	0	5	5	0.02	0.4823218	3	10	0.05	2000	-1.501282	40.92395	-91.39363
3005986	-1177	-635	-357	-2.230183	2.125572	1.954329	0	11.46	20061	0	0	5	5	0.02	0.4673517	3	10	0.05	2000	1.256175	40.92395	-91.39363
3006127	113	-163	-1732	-1.808618	-0.05768999	2.671095	0	11.46	20061	0	0	5	5	0.02	0.4419963	3	10	0.05	2000	-0.1464844	40.92395	-91.39363
3006202	1172	2330	-597	-1.610239	-1.317662	3.011193	0	11.46	20061	0	0	5	5	0.02	0.4314811	3	10	0.05	2000	-0.9318848	40.92395	-91.39364
3006342	-495	-620	108	1.163242	-7.887403	2.346554	0	11.8	20061	0	0	5	5	0.02	0.419718	3	10	0.05	2000	-0.2101135	40.92395	-91.39364
3006423	-568	-2762	-177	-0.09214558	-5.085218	2.37462	0	11.8	20061	0	0	5	5	0.02	0.4134875	3	10	0.05	2000	1.307087	40.92395	-91.39364
3006485	-840	-4891	712	-1.19437	-3.12959E-05	2.440014	0	11.8	20061	0	0	5	5	0.02	0.4105101	3	10	0.05	2000	0.7263459	40.92395	-91.39364
3006575	-595	-5607	428	-2.865762	5.805362	2.523634	0	11.8	20061	0	0	5	5	0.02	0.3901698	3	10	0.05	2000	1.791655	40.92395	-91.39364
3006729	-197	-295	-7	-3.89648	-1.500027	-0.6173618	0	11.8	20061	0	0	5	5	0.02	0.3251355	3	10	0.05	2000	2.26728	40.92395	-91.39364
3006785	150	213	-80	-3.824088	-1.393162	-0.6168648	0	11.8	20061	0	0	5	5	0.02	0.2979285	3	10	0.05	2000	2.26728	40.92395	-91.39364
3006897	-18	17	122	-3.447573	-1.097881	-0.6440673	0	11.8	20061	0	0	5	5	0.02	0.2591338	1	10	0.05	2000	1.324887	40.92395	-91.39364
3007033	-26	24	45	-3.22957	-0.8706325	-0.6561111	0	11.8	20061	0	0	5	5	0.02	0.2128514	1	10	0.05	2000	1.721718	40.92395	-91.39364
3007182	-16	4	-21	-2.915694	-0.5880033	-0.6701794	0	11.8	20061	0	0	5	5	0.02	0.135741	1	10	0.05	2000	0.4697524	40.92395	-91.39364
3007339	-39	-7	16	-2.680788	-0.3373167	-0.6918206	0	11.8	20061	0	0	5	5	0.02	0.09562034	1	10	0.05	2000	-0.0397644	40.92395	-91.39364
3007396	-34	-18	-37	-2.602848	-0.259269	-0.6964679	0	11.8	20061	0	0	5	5	0.02	0.08085587	1	10	0.05	2000	0.1033372	40.92395	-91.39364
3007511	-30	6	15	-2.496943	-0.1613469	-0.7061282	0	11.8	20061	0	0	5	5	0.02	0.05503952	1	10	0.05	2000	0.2235248	40.92395	-91.39364
3007585	-31	-1	22	-2.425862	-0.09852028	-0.7141395	0	11.8	20061	0	0	5	5	0.02	0.04181451	1	10	0.05	2000	0.2235248	40.92395	-91.39364
3007703	-44	0	7	-2.299201	0.02409115	-0.7250851	0	11.8	20061	0	0	5	5	0.02	0.01972621	1	10	0.05	2000	-0.6653748	40.92395	-91.39364
3007790	-11	10	-46	-2.248815	0.06594275	-0.7311383	0	11.8	20061	0	0	5	5	0.02	0.002050051	1	10	0.05	2000	-1.006226	40.92395	-91.39364
3007932	-16	-4	14	-2.114573	0.1798453	-0.748987	0	11.8	20061	0	0	5	5	0.02	-0.01219302	1	10	0.05	2000	-1.24408	40.92395	-91.39364
3007981	-29	-1	21	-2.099614	0.1942324	-0.7515533	0	11.8	20061	0	0	5	5	0.02	-0.01305006	1	10	0.05	2000	-1.24408	40.92395	-91.39364
3008080	-20	-7	15	-2.048899	0.2627148	-0.7627419	0	11.8	20061	0	0	5	5	0.02	-0.008903065	1	10	0.05	2000	-0.6695557	40.92395	-91.39364
3008184	-15	1	-5	-2.006079	0.3069906	-0.7686726	0	11.85	20061	0	0	5	5	0.02	-0.001125413	1	10	0.05	2000	-0.7286072	40.92395	-91.39364
3008308	-19	2	5	-1.948732	0.3765824	-0.785303	0	11.85	20061	0	0	5	5	0.02	0.00528336	1	10	0.05	2000	-0.797821	40.92395	-91.39364
3008387	-21	-5	4	-1.927579	0.3991415	-0.7891548	0	11.85	20061	0	0	5	5	0.02	0.007287864	1	10	0.05	2000	-1.257599	40.92395	-91.39364
3008508	42	135	-31	-1.90907	0.3599802	-0.8015663	0	11.85	20061	0	0	5	5	0.02	0.01121808	1	10	0.05	2000	-1.061157	40.92395	-91.39364
3008600	30	833	489	-1.223859	-0.9366093	-0.8645349	0	11.85	20061	0	0	5	5	0.02	0.02120377	1	10	0.05	2000	-0.8203125	40.92395	-91.39364
3008730	1278	-255	-1652	-3.036738	0.7614101	-0.0350368	0	11.85	20061	0	0	5	5	0.02	0.03961644	1	10	0.05	2000	-0.3284302	40.92395	-91.39364
3008838	839	-964	-1571	1.889629	1.072334	3.247115	0	11.85	20061	0	0	5	5	0.02	0.04696773	1	10	0.05	2000	-1.189026	40.92395	-91.39363
3008984	-508	-1544	313	1.735813	6.203053	4.479906	0	11.85	20061	0	0	5	5	0.02	0.057489	1	10	0.05	2000	-1.030304	40.92395	-91.39363
3009018	-1333	-1949	459	1.178881	7.523155	4.264096	0	11.85	20061	0	0	5	5	0.02	0.06200583	1	10	0.05	2000	-0.1205444	40.92395	-91.39363
3009092	-2759	-1252	-461	-1.569871	11.15354	4.030171	0	11.85	20061	0	0	5	5	0.02	0.0796349	1	10	0.05	2000	-0.1681519	40.92395	-91.39363
3009217	-2141	-619	-1438	-4.189417	12.64986	5.351945	0	11.91	20061	0	0	5	5	0.02	0.126789	1	10	0.05	2000	-2.984497	40.92395	-91.39363
3009298	-1636	-1710	-1229	-5.423489	14.44376	7.747834	0	11.91	20061	0	0	5	5	0.02	0.1457731	1	10	0.05	2000	-5.830383	40.92395	-91.39363
3009399	1041	2717	-769	-3.509971	14.55841	9.717202	0	11.91	20061	0	0	5	5	0.02	0.1807414	1	10	0.05	2000	-12.10205	40.92395	-91.39363
3009497	1957	1760	1047	-0.8873839	9.938528	9.562567	0	11.91	20061	0	0	5	5	0.02	0.2095844	1	10	0.05	2000	-12.96463	40.92395	-91.39363
3009672	540	2631	2224	0.4937162	2.456736	3.374614	0	11.91	20061	0	0	5	5	0.02	0.2571493	1	10	0.05	2000	-8.612885	40.92395	-91.39362
3009778	-448	152	-98	-0.5728658	-0.09119733	0.8916326	0	11.91	20061	0	0	5	5	0.02	0.2653883	1	10	0.05	2000	-4.276947	40.92395	-91.39362
3009808	709	804	53	-0.3620023	-0.7455174	0.9266061	0	11.91	20061	0	0	5	5	0.02	0.2714453	1	10	0.05	2000	-5.032654	40.92395	-91.39362
3009905	170	-121	1290	0.4477143	-1.858934	0.1620516	0	11.91	20061	0	0	5	5	0.02	0.2732707	1	10	0.05	2000	-4.242737	40.92395	-91.39362
3009987	-744	426	2286	-1.006101	-2.285945	-3.572376	0	11.91	20061	0	0	5	5	0.02	0.270718	1	10	0.05	2000	-2.31781	40.92395	-91.39362
3010089	440	-80	-87	0.1651536	-2.915223	-4.527002	0	11.91	20061	0	0	5	5	0.02	0.2654238	1	10	0.05	2000	-0.7790222	40.92395	-91.39362
3010221	565	-295	113	0.7446726	-1.688969	-4.502159	0	11.91	20061	0	0	5	5	0.02	0.2596371	1	10	0.05	2000	-0.3716431	40.92395	-91.39362
3010305	-365	338	73	0.8421565	-1.312973	-5.263752	0	11.91	20061	0	0	5	5	0.02	0.2560855	1	10	0.05	2000	0.2360653	40.92395	-91.39362
3010374	317	-244	104	0.4453655	-1.407882	-5.330752	0	11.91	20061	0	0	5	5	0.02	0.2531385	1	10	0.05	2000	0.2298447	40.92395	-91.39362
3010504	52	-70	1	0.4485025	-1.109709	-5.319993	0	11.91	20061	0	0	5	5	0.02	0.2476781	1	10	0.05	2000	0.448032	40.92395	-91.39362
3010630	-57	25	13	0.4111387	-0.9371814	-5.329774	0	11.91	20061	0	0	5	5	0.02	0.2417557	1	10	0.05	2000	0.5093482	40.92395	-91.39362
3010740	-17	0	4	0.3226581	-0.7770956	-5.340657	0	11.91	20061	0	0	5	5	0.02	0.2282344	1	10	0.05	2000	0.5973993	40.92395	-91.39362
3010800	3	0	8	0.2930281	-0.6965862	-5.344692	0	11.91	20061	0	0	5	5	0.02	0.2243043	1	10	0.05	2000	0.4273224	40.92395	-91.39362
3010885	-6	3	0	0.2636752	-0.6344397	-5.347994	0	11.91	20061	0	0	5	5	0.02	0.2091844	1	10	0.05	2000	0.6831036	40.92395	-91.39362
3010998	-5	8	10	0.2352449	-0.5488619	-5.357715	0	11.85	20061	0	0	5	5	0.02	0.174318	1	10	0.05	2000	0.9369071	40.92395	-91.39362
3011101	-9	0	2	0.2063361	-0.4643307	-5.365419	0	11.85	20061	0	0	5	5	0.02	0.1588387	1	10	0.05	2000	1.002728	40.92395	-91.39362
3011255	-11	0	3	0.1574127	-0.3511574	-5.373062	0	11.85	20061	0	0	5	5	0.02	0.122596	1	10	0.05	2000	0.8466075	40.92395	-91.39362
3011304	-13	-3	9	0.1510137	-0.338342	-5.375935	0	11.85	20061	0	0	5	5	0.02	0.1110695	1	10	0.05	2000	1.082469	40.92395	-91.39362
3011418	-7	1	0	0.1332706	-0.2603893	-5.385168	0	11.85	20061	0	0	5	5	0.02	0.09563074	1	10	0.05	2000	0.6542633	40.92395	-91.39362
3011557	-19	3	2	0.1176743	-0.1971091	-5.3944	0	11.85	20061	0	0	5	5	0.02	0.07552394	1	10	0.05	2000	0.9115798	40.92395	-91.39362
3011606	-15	1	7	0.1120651	-0.1817246	-5.39599	0	11.85	20061	0	0	5	5	0.02	0.05406901	1	10	0.05	2000	0.6958952	40.92395	-91.39362
3011746	-13	-2	4	0.08980678	-0.1382209	-5.404182	0	11.85	20061	0	0	5	5	0.02	0.03802231	1	10	0.05	2000	0.9364508	40.92395	-91.39362
3011798	-15	-1	2	0.08113121	-0.120697	-5.407301	0	11.85	20061	0	0	5	5	0.02	0.03115456	1	10	0.05	2000	0.9569945	40.92395	-91.39362
3012002	-3	-4	5	0.05372246	-0.06977134	-5.417264	0	11.85	20061	0	0	5	5	0.02	0.02432852	1	10	0.05	2000	0.9921554	40.92395	-91.39362
3012034	-10	-4	5	0.05372246	-0.06977134	-5.417264	0	11.85	20061	0	0	5	5	0.02	0.02281836	1	10	0.05	2000	0.9921554	40.92395	-91.39362
3012207	-12	-4	3	0.04477574	-0.02796353	-5.426312	0	11.85	20061	0	0	5	5	0.02	0.02100397	1	10	0.05	2000	1.005983	40.92395	-91.39362
3012279	-14	-3	7	0.04693952	-0.01959864	-5.429675	0	11.85	20061	0	0	5	5	0.02	0.01703068	1	10	0.05	2000	1.225235	40.92395	-91.39362
3012331	-8	4	1	0.04266075	-0.01157245	-5.432304	0	11.85	20061	0	0	5	5	0.02	0.01273791	1	10	0.05	2000	1.014868	40.92395	-91.39362
3012437	-9	7	6	0.03911796	-0.001977318	-5.436646	0	11.85	20061	0	0	5	5	0.02	0.01200721	1	10	0.05	2000	0.7969318	40.92395	-91.39362
3012503	-11	1	6	0.03950943	0.008315697	-5.438725	0	11.85	20061	0	0	5	5	0.02	0.01541259	1	10	0.05	2000	1.022872	40.92395	-91.39362
3012611	-15	0	2	0.04698024	0.02057486	-5.442209	0	11.85	20061	0	0	5	5	0.02	0.02490692	1	10	0.05	2000	1.011974	40.92395	-91.39362
3012733	-8	2	4	0.05000214	0.04758606	-5.448628	0	11.85	20061	0	0	5	5	0.02	0.04520667	1	10	0.05	2000	0.7799436	40.92395	-91.39362
3012825	-3	0	3	0.03964779	0.05627652	-5.449179	0	11.91	20061	0	0	5	5	0.02	0.05458479	1	10	0.05	2000	1.44674	40.92395	-91.39362
3012934	-7	-2	3	0.05115714	0.06051034	-5.454864	0	11.91	20061	0	0	5	5	0.02	0.07545463	1	10	0.05	2000	1.219149	40.92395	-91.39362
3012988	-8	0	0	0.05329351	0.06013169	-5.455658	0	11.91	20061	0	0	5	5	0.02	0.08583383	1	10	0.05	2000	1.219149	40.92395	-91.39362
3013115	-8	-2	0	0.05151043	0.06022529	-5.460183	0	11.91	20061	0	0	5	5	0.02	0.09891621	1	10	0.05	2000	1.003699	40.92395	-91.39362
3013162	-13	-6	4	0.0456957	0.06375217	-5.4622	0	11.91	20061	0	0	5	5	0.02	0.100043	1	10	0.05	2000	1.004466	40.92395	-91.39362
3013265	-10	-2	3	0.04564225	0.07256313	-5.464218	0	11.91	20061	0	0	5	5	0.02	0.1013348	1	10	0.05	2000	1.014433	40.92395	-91.39362
3013369	-1	8	2	0.05093792	0.07827128	-5.466234	0	11.91	20061	0	0	5	5	0.02	0.1019221	1	10	0.05	2000	1.221732	40.92395	-91.39362
3013580	-7	0	5	0.053422	0.07334952	-5.473511	0	11.91	20061	0	0	5	5	0.02	0.1032039	1	10	0.05	2000	0.7765192	40.92395	-91.39362
3013709	-6	1	3	0.05523929	0.07585582	-5.479929	0	11.85	20061	0	0	5	5	0.02	0.1008458	1	10	0.05	2000	0.9945298	40.92395	-91.39362
3013776	-4	2	1	0.05620789	0.07926189	-5.480722	0	11.85	20061	0	0	5	5	0.02	0.09738626	1	10	0.05	2000	0.9878712	40.92395	-91.39362
3013878	-4	0	-2	0.05670763	0.08164479	-5.483901	0	11.85	20061	0	0	5	5	0.02	0.0944373	1	10	0.05	2000	0.99418	40.92395	-91.39362
3013982	-2	-2	-3	0.0629715	0.07631126	-5.484941	0	11.85	20061	0	0	5	5	0.02	0.09315827	1	10	0.05	2000	0.9796907	40.92395	-91.39362
3014108	-5	1	0	0.06938634	0.08169368	-5.488914	0	11.85	20061	0	0	5	5	0.02	0.0891697	1	10	0.05	2000	0.9784556	40.92395	-91.39362
3014190	-14	0	3	0.07134487	0.08297832	-5.490626	0	11.85	20061	0	0	5	5	0.02	0.08670175	1	10	0.05	2000	0.9705592	40.92395	-91.39362
3014323	-8	-5	-4	0.07481094	0.07968032	-5.495578	0	11.85	20061	0	0	5	5	0.02	0.07445112	1	10	0.05	2000	0.7479232	40.92395	-91.39362
3014443	-8	2	3	0.08566821	0.08365789	-5.497107	0	11.85	20061	0	0	5	5	0.02	0.06516454	1	10	0.05	2000	1.164977	40.92395	-91.39362
3014516	-7	-1	3	0.08989292	0.08973718	-5.500715	0	11.85	20061	0	0	5	5	0.02	0.0627802	1	10	0.05	2000	0.7321809	40.92395	-91.39362
3014588	-7	2	3	0.08450726	0.08433101	-5.503589	0	11.91	20061	0	0	5	5	0.02	0.06449628	1	10	0.05	2000	0.9471839	40.92395	-91.39362
3014678	-4	1	7	0.08569445	0.0865749	-5.505973	0	11.91	20061	0	0	5	5	0.02	0.07069974	1	10	0.05	2000	0.9530212	40.92395	-91.39362
3014799	-10	-1	-1	0.08724747	0.08389226	-5.512208	0	11.91	20061	0	0	5	5	0.02	0.07537182	1	10	0.05	2000	0.9477264	40.92395	-91.39362
3014892	-6	-1	1	0.09008675	0.08287106	-5.516549	0	11.91	20061	0	0	5	5	0.02	0.07685088	1	10	0.05	2000	0.9406742	40.92395	-91.39362
3015006	-3	-2	-2	0.08669364	0.08422573	-5.517651	0	11.91	20061	0	0	5	5	0.02	0.08713533	1	10	0.05	2000	0.7311225	40.92395	-91.39363
3015127	-11	-5	-1	0.0864431	0.08002773	-5.521625	0	11.91	20061	0	0	5	5	0.02	0.09571406	1	10	0.05	2000	1.157272	40.92395	-91.39363
3015280	-7	0	0	0.08413535	0.0808063	-5.528716	0	11.91	20061	0	0	5	5	0.02	0.1032097	1	10	0.05	2000	0.7439522	40.92395	-91.39363
3015378	-4	0	3	0.08418845	0.08346154	-5.529144	0	11.91	20061	0	0	5	5	0.02	0.105419	1	10	0.05	2000	0.9524794	40.92395	-91.39362
3015496	-4	-2	-2	0.09329403	0.080903	-5.532936	0	11.91	20061	0	0	5	5	0.02	0.1113403	1	10	0.05	2000	0.9337127	40.92395	-91.39362
3015582	-5	1	3	0.09982842	0.07961856	-5.53697	0	11.97	20061	0	0	5	5	0.02	0.1081343	1	10	0.05	2000	1.138288	40.92395	-91.39362
3015703	-3	-4	1	0.1069567	0.08185263	-5.538375	0	11.97	20061	0	0	5	5	0.02	0.1054042	1	10	0.05	2000	0.7058107	40.92395	-91.39362
3015803	-13	3	3	0.1156948	0.07755323	-5.53868	0	11.97	20061	0	0	5	5	0.02	0.1059396	1	10	0.05	2000	0.906118	40.92396	-91.39363
3015908	1	-4	5	0.1196032	0.0746814	-5.54027	0	11.97	20061	0	0	5	5	0.02	0.1019845	1	10	0.05	2000	0.9046333	40.92396	-91.39363
3016007	-3	1	0	0.1200946	0.07117297	-5.541187	0	11.97	20061	0	0	5	5	0.02	0.09947211	1	10	0.05	2000	1.115455	40.92396	-91.39363
3016142	-5	-1	0	0.1259751	0.07102839	-5.544121	0	11.97	20061	0	0	5	5	0.02	0.1009637	1	10	0.05	2000	0.8875394	40.92396	-91.39363
3016198	3	6	2	0.1276692	0.07008473	-5.545466	0	11.97	20061	0	0	5	5	0.02	0.1051264	1	10	0.05	2000	0.8875394	40.92396	-91.39363
3016283	-2	5	4	0.1333666	0.07121979	-5.546934	0	11.97	20061	0	0	5	5	0.02	0.1099908	1	10	0.05	2000	0.6664535	40.92396	-91.39362
3016375	-5	-3	2	0.1274476	0.07545805	-5.548647	0	11.97	20061	0	0	5	5	0.02	0.1164408	1	10	0.05	2000	0.6664535	40.92396	-91.39362
3016489	-1	-7	-2	0.1327248	0.0789225	-5.550359	0	11.97	20061	0	0	5	5	0.02	0.1281663	1	10	0.05	2000	0.8787225	40.92395	-91.39362
3016575	-7	-3	4	0.1263489	0.08008029	-5.55152	0	11.97	20061	0	0	5	5	0.02	0.1339121	1	10	0.05	2000	0.8827966	40.92395	-91.39362
3016710	-1	-2	1	0.1240252	0.07933576	-5.551642	0	11.97	20061	0	0	5	5	0.02	0.1560196	1	10	0.05	2000	0.8867613	40.92395	-91.39362
3016811	0	0	1	0.1309196	0.08521175	-5.552681	0	11.97	20061	0	0	5	5	0.02	0.1725353	1	10	0.05	2000	0.8910198	40.92395	-91.39362
3016905	-7	-3	0	0.1247492	0.07688021	-5.556595	0	11.97	20061	0	0	5	5	0.02	0.1919096	1	10	0.05	2000	0.884383	40.92395	-91.39362
3017029	-6	-2	-2	0.1299988	0.07656512	-5.560019	0	11.97	20061	0	0	5	5	0.02	0.2054195	1	10	0.05	2000	0.8882053	40.92395	-91.39362
3017103	-8	0	3	0.1289418	0.07862183	-5.562036	0	11.97	20061	0	0	5	5	0.02	0.2193116	1	10	0.05	2000	0.8805056	40.92395	-91.39362
3017155	1	-3	1	0.1295989	0.07828852	-5.563869	0	11.97	20061	0	0	5	5	0.02	0.2272016	1	10	0.05	2000	0.8805056	40.92395	-91.39362
3017257	-5	0	-5	0.1273527	0.07907153	-5.564358	0	11.97	20061	0	0	5	5	0.02	0.2381757	1	10	0.05	2000	0.8853242	40.92395	-91.39362
3017358	4	-2	-2	0.1344836	0.0841557	-5.567475	0	11.97	20061	0	0	5	5	0.02	0.2563654	1	10	0.05	2000	1.092961	40.92395	-91.39362
3017503	1	-2	0	0.1371386	0.08580109	-5.568271	0	11.97	20061	0	0	5	5	0.02	0.2618593	1	10	0.05	2000	1.084495	40.92395	-91.39362
3017561	2	-2	0	0.1339725	0.08271637	-5.56986	0	11.97	20061	0	0	5	5	0.02	0.2622511	1	10	0.05	2000	0.8749961	40.92396	-91.39362
3017720	-4	2	0	0.141504	0.08716497	-5.571573	0	11.97	20061	0	0	5	5	0.02	0.2644491	1	10	0.05	2000	0.8656117	40.92396	-91.39362
3017789	-4	1	0	0.1390847	0.08744299	-5.572551	0	11.97	20061	0	0	5	5	0.02	0.2649476	1	10	0.05	2000	0.8766056	40.92396	-91.39362
3017937	-8	3	-2	0.1426357	0.08917125	-5.574446	0	11.97	20061	0	0	5	5	0.02	0.2745496	1	10	0.05	2000	0.8662781	40.92396	-91.39362
3017980	2	-6	-4	0.1480175	0.09014308	-5.576343	0	11.97	20061	0	0	5	5	0.02	0.2764037	1	10	0.05	2000	0.8581555	40.92396	-91.39362
3018050	3	3	-1	0.1444644	0.09187859	-5.576526	0	11.97	20061	0	0	5	5	0.02	0.2830311	1	10	0.05	2000	0.8581555	40.92396	-91.39362
3018166	-1	-2	1	0.1539863	0.08751924	-5.580807	0	11.97	20061	0	0	5	5	0.02	0.2831115	1	10	0.05	2000	0.8521825	40.92396	-91.39362
3018313	-5	-1	6	0.1479411	0.09210289	-5.584291	0	11.97	20061	0	0	5	5	0.02	0.2706439	1	10	0.05	2000	0.8527787	40.92396	-91.39362
3018381	-11	-4	1	0.1409949	0.09196396	-5.585575	0	11.97	20061	0	0	5	5	0.02	0.2694378	1	10	0.05	2000	0.6510314	40.92396	-91.39362
3018505	10	-1	5	0.1464119	0.09318019	-5.587838	0	11.97	20061	0	0	5	5	0.02	0.2779037	1	10	0.05	2000	1.077503	40.92396	-91.39362
3018514	-5	1	0	0.1499054	0.08999414	-5.588082	0	11.97	20061	0	0	5	5	0.02	0.2779037	1	10	0.05	2000	0.8587501	40.92396	-91.39362
3018670	0	0	5	0.1585475	0.08763741	-5.590711	0	11.97	20061	0	0	5	5	0.02	0.2868025	1	10	0.05	2000	0.8429596	40.92396	-91.39362
3018720	-6	0	0	0.1548237	0.08431508	-5.593279	0	11.97	20061	0	0	5	5	0.02	0.2896227	1	10	0.05	2000	1.062647	40.92396	-91.39362
3018843	-4	2	-2	0.1459779	0.08317862	-5.594624	0	11.97	20061	0	0	5	5	0.02	0.2911488	1	10	0.05	2000	1.07349	40.92396	-91.39362
3018923	-2	-1	5	0.1485398	0.08876195	-5.594747	0	11.97	20061	0	0	5	5	0.02	0.2919389	1	10	0.05	2000	0.8580696	40.92396	-91.39362
3019083	-4	-2	0	0.149507	0.09060357	-5.597068	0	11.97	20061	0	0	5	5	0.02	0.2870324	1	10	0.05	2000	0.8491066	40.92396	-91.39362
3019125	1	1	1	0.1460079	0.09070086	-5.598413	0	11.91	20061	0	0	5	5	0.02	0.2838289	1	10	0.05	2000	0.8590353	40.92396	-91.39362
3019289	1	7	-3	0.1431128	0.09380691	-5.600248	0	11.91	20061	0	0	5	5	0.02	0.2746804	1	10	0.05	2000	0.6513555	40.92396	-91.39362
3019329	-5	3	2	0.1420787	0.09513225	-5.600064	0	11.91	20061	0	0	5	5	0.02	0.2743001	1	10	0.05	2000	0.6513555	40.92396	-91.39362
3019431	-4	0	4	0.1426088	0.101495	-5.602326	0	11.91	20061	0	0	5	5	0.02	0.2747527	1	10	0.05	2000	0.8665552	40.92396	-91.39362
3019537	-1	1	5	0.1455738	0.09962202	-5.603673	0	11.91	20061	0	0	5	5	0.02	0.274435	1	10	0.05	2000	1.074093	40.92396	-91.39362
3019678	-7	0	-2	0.1468263	0.09965509	-5.603368	0	11.91	20061	0	0	5	5	0.02	0.2664144	1	10	0.05	2000	0.857112	40.92396	-91.39362
3019798	3	0	0	0.1439625	0.09722966	-5.604958	0	11.91	20061	0	0	5	5	0.02	0.2558427	1	10	0.05	2000	0.8612142	40.92396	-91.39362
3019840	-3	-4	3	0.1414044	0.1005252	-5.605753	0	11.91	20061	0	0	5	5	0.02	0.2537219	1	10	0.05	2000	0.8640421	40.92396	-91.39362
3019963	-5	0	1	0.1426536	0.09721661	-5.607893	0	11.91	20061	0	0	5	5	0.02	0.2426763	1	10	0.05	2000	1.079555	40.92396	-91.39362
3020034	-5	0	3	0.1407933	0.09436497	-5.608077	0	12.02	20061	0	0	5	5	0.02	0.2404655	1	10	0.05	2000	0.8641902	40.92396	-91.39362
3020135	0	2	2	0.1446322	0.08886768	-5.608809	0	12.02	20061	0	0	5	5	0.02	0.2408338	1	10	0.05	2000	0.8623449	40.92396	-91.39362
3020281	2	4	-1	0.1430195	0.0869857	-5.610949	0	12.02	20061	0	0	5	5	0.02	0.251929	1	10	0.05	2000	0.6490573	40.92396	-91.39362
3020363	-9	0	0	0.138598	0.08746303	-5.612965	0	12.02	20061	0	0	5	5	0.02	0.2716163	1	10	0.05	2000	0.6528939	40.92396	-91.39362
3020437	-3	4	5	0.1370033	0.07886701	-5.615227	0	12.02	20061	0	0	5	5	0.02	0.2788661	1	10	0.05	2000	0.655473	40.92396	-91.39362
3020572	-3	1	1	0.1511355	0.08601946	-5.618956	0	12.02	20061	0	0	5	5	0.02	0.296381	1	10	0.05	2000	0.8528938	40.92396	-91.39362
3020683	3	0	0	0.1598402	0.08284786	-5.621096	0	12.02	20061	0	0	5	5	0.02	0.3023807	1	10	0.05	2000	0.8511227	40.92396	-91.39362
3020729	-1	6	5	0.1597276	0.08059682	-5.621341	0	12.02	20061	0	0	5	5	0.02	0.300484	1	10	0.05	2000	1.047812	40.92396	-91.39362
3020883	-2	4	1	0.1618327	0.07923637	-5.624458	0	12.02	20061	0	0	5	5	0.02	0.3002553	1	10	0.05	2000	0.8362547	40.92396	-91.39362
3020944	-8	-1	-1	0.1617019	0.08207941	-5.624886	0	11.97	20061	0	0	5	5	0.02	0.3003206	1	10	0.05	2000	0.6200478	40.92396	-91.39362
3021067	-3	-2	0	0.1596881	0.08625396	-5.626599	0	11.97	20061	0	0	5	5	0.02	0.3005551	1	10	0.05	2000	0.6217991	40.92396	-91.39362
3021165	-3	1	-2	0.157737	0.08690152	-5.627455	0	11.97	20061	0	0	5	5	0.02	0.291563	1	10	0.05	2000	0.8378285	40.92396	-91.39362
3021293	-2	7	1	0.1545857	0.0836538	-5.629288	0	11.97	20061	0	0	5	5	0.02	0.2938951	1	10	0.05	2000	0.6280215	40.92396	-91.39362
3021387	0	-1	-2	0.1559506	0.08926053	-5.629228	0	11.97	20061	0	0	5	5	0.02	0.2980342	1	10	0.05	2000	0.8462095	40.92396	-91.39362
3021437	0	-3	1	0.1612239	0.08936156	-5.630206	0	11.97	20061	0	0	5	5	0.02	0.2986705	1	10	0.05	2000	0.6322268	40.92396	-91.39362
3021527	-1	0	6	0.1640717	0.08279426	-5.630328	0	11.97	20061	0	0	5	5	0.02	0.3010447	1	10	0.05	2000	0.8388395	40.92396	-91.39362
3021711	7	-5	8	0.1676539	0.08599473	-5.637236	0	11.97	20061	0	0	5	5	0.02	0.2879955	1	10	0.05	2000	1.042161	40.92396	-91.39362
3021779	-3	4	5	0.1654573	0.08836777	-5.63913	0	11.97	20061	0	0	5	5	0.02	0.2772802	1	10	0.05	2000	0.6149039	40.92396	-91.39362
3021892	-3	6	3	0.1618463	0.09090685	-5.641025	0	11.97	20061	0	0	5	5	0.02	0.2607009	1	10	0.05	2000	0.8284048	40.92396	-91.39362
3021937	-2	0	-2	0.1617841	0.09322318	-5.641452	0	11.97	20061	0	0	5	5	0.02	0.2526679	1	10	0.05	2000	0.8284048	40.92396	-91.39362
3022189	-3	-1	0	0.1722728	0.0925618	-5.644325	0	11.97	20061	0	0	5	5	0.02	0.217559	1	10	0.05	2000	0.8223561	40.92396	-91.39362
3022268	-6	1	0	0.1783735	0.09930158	-5.647994	0	11.97	20061	0	0	5	5	0.02	0.2000513	1	10	0.05	2000	0.8176751	40.92396	-91.39362
3022343	-3	5	0	0.1756689	0.1008018	-5.649461	0	11.97	20061	0	0	5	5	0.02	0.1922053	1	10	0.05	2000	0.8149174	40.92396	-91.39362
3022440	1	0	1	0.1723649	0.09398759	-5.65264	0	11.97	20061	0	0	5	5	0.02	0.1860747	1	10	0.05	2000	0.819309	40.92396	-91.39362
3022565	5	1	3	0.1745192	0.09197742	-5.653985	0	11.97	20061	0	0	5	5	0.02	0.1759451	1	10	0.05	2000	0.8183542	40.92395	-91.39362
3022726	-9	-1	-2	0.1765406	0.08569575	-5.656857	0	11.97	20061	0	0	5	5	0.02	0.1759992	1	10	0.05	2000	0.5999031	40.92396	-91.39362
3022791	3	-1	-4	0.1776574	0.08794528	-5.657836	0	11.91	20061	0	0	5	5	0.02	0.180653	1	10	0.05	2000	1.031068	40.92396	-91.39362
3022942	0	2	-5	0.1795002	0.08950371	-5.661443	0	11.91	20061	0	0	5	5	0.02	0.1849046	1	10	0.05	2000	0.8082821	40.92396	-91.39362
3023118	3	0	1	0.1801581	0.08639282	-5.660892	0	11.91	20061	0	0	5	5	0.02	0.194636	1	10	0.05	2000	0.8091679	40.92396	-91.39362
3023181	7	3	2	0.1868403	0.08456913	-5.660952	0	11.91	20061	0	0	5	5	0.02	0.2020915	1	10	0.05	2000	0.8091679	40.92396	-91.39362
3023258	2	0	-7	0.1835298	0.08519871	-5.660768	0	11.91	20061	0	0	5	5	0.02	0.2039708	1	10	0.05	2000	0.7991186	40.92396	-91.39362
3023316	0	-2	-1	0.181593	0.08860997	-5.661501	0	11.91	20061	0	0	5	5	0.02	0.20661	1	10	0.05	2000	0.5899818	40.92396	-91.39362
3023417	0	2	0	0.1844969	0.08298108	-5.662052	0	11.91	20061	0	0	5	5	0.02	0.2071196	1	10	0.05	2000	0.8067747	40.92396	-91.39362
3023523	3	0	2	0.191185	0.08903731	-5.666575	0	11.91	20061	0	0	5	5	0.02	0.2086928	1	10	0.05	2000	0.5807212	40.92396	-91.39362
3023657	0	0	1	0.1971057	0.09085117	-5.665231	0	11.91	20061	0	0	5	5	0.02	0.2104774	1	10	0.05	2000	1.004878	40.92396	-91.39362
3023776	1	0	5	0.205474	0.08443251	-5.666944	0	11.97	20061	0	0	5	5	0.02	0.2152453	1	10	0.05	2000	0.7704608	40.92396	-91.39362
3023889	3	-6	-6	0.2083205	0.07936881	-5.667432	0	11.97	20061	0	0	5	5	0.02	0.2143521	1	10	0.05	2000	0.9822243	40.92396	-91.39362
3023942	0	-1	5	0.2172601	0.07429834	-5.670184	0	11.97	20061	0	0	5	5	0.02	0.2120028	1	10	0.05	2000	0.7545956	40.92396	-91.39362
3024009	4	7	-1	0.2265827	0.07210526	-5.670061	0	11.97	20061	0	0	5	5	0.02	0.2090058	1	10	0.05	2000	0.5322729	40.92396	-91.39362
3024088	1	0	0	0.2280789	0.06963133	-5.670367	0	11.97	20061	0	0	5	5	0.02	0.1908154	1	10	0.05	2000	0.738667	40.92396	-91.39362
