time(ms)	gyro_x(deg/s)	gyro_y(deg/s)	gyro_z(deg/s)	orientation_roll(deg)	orientation_pitch(deg)	orientation_yaw(deg)	throttle	battery(V)	loop_time(uS)	pid_output_roll	pid_output_pitch	pid_output_yaw	pid_output_throttle	ultrasonic_alt	baro_alt	flight_mode	p_gain_altitude	i_gain_altitude	d_gain_altitude	compass_heading	latitude	longitude
3363261	-2283	-1399	1081	2.386937	1.35962	-54.09962	0	9.92	20032	0	0	5	5	0.02	2.615475	3	10	0.05	2000	6.007494	40.92395	-91.39365
3363384	-336	1286	83	0.5598176	-1.521451	-55.73315	0	9.92	20032	0	0	5	5	0.02	2.538861	3	10	0.05	2000	5.444873	40.92395	-91.39365
3363526	-708	282	-1231	-0.01843643	-3.901783	-55.60394	0	9.92	20032	0	0	5	5	0.02	2.444512	3	10	0.05	2000	6.381584	40.92395	-91.39365
3363577	-1008	-772	-775	0.2374604	-2.557369	-54.02486	0	9.92	20032	0	0	5	5	0.02	2.397965	3	10	0.05	2000	2.753107	40.92395	-91.39365
3363703	694	1607	-515	-0.2130399	-2.731629	-53.02375	0	9.92	20032	0	0	5	5	0.02	2.333915	3	10	0.05	2000	-0.5682373	40.92395	-91.39365
3363768	-165	79	-207	0.4412032	-3.178983	-52.91855	0	10.21	20032	0	0	5	5	0.02	2.287252	3	10	0.05	2000	-0.07870483	40.92395	-91.39365
3363892	-1023	-210	-635	-0.2734204	-2.951915	-52.87791	0	10.21	20032	0	0	5	5	0.02	2.187224	3	10	0.05	2000	-1.160156	40.92395	-91.39365
3363980	369	1785	1437	0.09445079	-3.205225	-53.20359	0	10.21	20032	0	0	5	5	0.02	2.129002	3	10	0.05	2000	-1.160156	40.92395	-91.39365
3364163	316	-153	-972	-0.09617456	-4.574573	-53.29679	0	10.21	20032	0	0	5	5	0.02	1.972498	3	10	0.05	2000	-0.4468994	40.92395	-91.39365
3364245	-626	-193	-599	0.1768509	-4.978986	-52.42875	0	10.21	20032	0	0	5	5	0.02	1.915941	3	10	0.05	2000	-1.002228	40.92395	-91.39365
3364284	1251	1079	-963	0.4948457	-4.92124	-52.04456	0	10.21	20032	0	0	5	5	0.02	1.897681	3	10	0.05	2000	-2.547363	40.92395	-91.39365
3364396	-695	-762	-334	1.125339	-4.694048	-51.78925	0	10.21	20032	0	0	5	5	0.02	1.797173	3	10	0.05	2000	-0.1747437	40.92395	-91.39365
3364489	-807	-2425	1006	0.4363867	-3.121519	-52.02761	0	10.21	20032	0	0	5	5	0.02	1.732535	3	10	0.05	2000	-2.238037	40.92395	-91.39365
3364646	-1745	-5077	936	-2.345378	6.252644	-52.99709	0	10.21	20032	0	0	5	5	0.02	1.648563	3	10	0.05	2000	-1.155273	40.92395	-91.39365
3364696	-1325	-2860	-187	-3.786444	9.490719	-53.46893	0	10.21	20032	0	0	5	5	0.02	1.623398	3	10	0.05	2000	-1.259583	40.92395	-91.39365
3364841	-1674	1300	1072	-7.078107	7.605742	-53.30185	0	10.83	20032	0	0	5	5	0.02	1.538967	3	10	0.05	2000	-2.844879	40.92395	-91.39365
3364911	1105	814	-1366	-6.856567	6.01935	-53.05171	0	10.83	20032	0	0	5	5	0.02	1.529464	3	10	0.05	2000	-5.531555	40.92395	-91.39365
3365025	708	3480	116	-3.874893	0.3535551	-53.21433	0	10.83	20032	0	0	5	5	0.02	1.496358	3	10	0.05	2000	-6.387726	40.92395	-91.39365
3365122	-1314	-620	-252	-2.416497	-1.845919	-53.30066	0	10.83	20032	0	0	5	5	0.02	1.44157	3	10	0.05	2000	-9.11026	40.92395	-91.39364
3365201	4510	-524	149	-0.0191271	-0.3167175	-52.93176	0	10.83	20032	0	0	5	5	0.02	1.410437	3	10	0.05	2000	-10.74738	40.92395	-91.39364
3365344	-104	1492	-713	9.648288	0.2358461	-52.18661	0	10.83	20032	0	0	5	5	0.02	1.355817	3	10	0.05	2000	-7.491638	40.92395	-91.39365
3365434	-1183	556	542	6.238595	-1.584668	-52.42787	0	10.83	20032	0	0	5	5	0.02	1.289314	3	10	0.05	2000	-4.21933	40.92395	-91.39365
3365537	-813	-566	299	3.779915	-1.951042	-52.67086	0	10.83	20032	0	0	5	5	0.02	1.239401	3	10	0.05	2000	-1.966766	40.92395	-91.39365
3365604	-646	-1931	1158	2.648984	-0.5006121	-52.96334	0	10.83	20032	0	0	5	5	0.02	1.196739	3	10	0.05	2000	-1.219666	40.92395	-91.39365
3365711	1329	-2894	705	3.076437	4.662995	-53.63119	0	10.94	20032	0	0	5	5	0.02	1.132604	3	10	0.05	2000	0.9251015	40.92395	-91.39365
3365840	-104	156	-68	0.3603176	-3.001651	-52.86974	0	10.94	20032	0	0	5	5	0.02	1.020038	3	10	0.05	2000	-1.295349	40.92395	-91.39365
3365901	-47	45	-7	0.3556726	-2.823787	-52.89377	0	10.94	20032	0	0	5	5	0.02	0.9612107	1	10	0.05	2000	-1.196838	40.92395	-91.39365
3366059	-44	-4	14	0.423503	-2.218045	-52.92146	0	10.94	20032	0	0	5	5	0.02	0.8728188	1	10	0.05	2000	-0.6240845	40.92395	-91.39365
3366157	-23	10	95	0.4572076	-2.012179	-52.93314	0	10.94	20032	0	0	5	5	0.02	0.7821643	1	10	0.05	2000	-1.668732	40.92395	-91.39365
3366255	-5	9	-60	0.4819271	-1.664149	-52.95572	0	10.94	20032	0	0	5	5	0.02	0.7388423	1	10	0.05	2000	-1.670593	40.92395	-91.39365
3366310	-28	4	-40	0.4920922	-1.581248	-52.95755	0	10.94	20032	0	0	5	5	0.02	0.6887366	1	10	0.05	2000	-1.233307	40.92395	-91.39365
3366396	-53	1	31	0.5137269	-1.375716	-52.9833	0	10.94	20032	0	0	5	5	0.02	0.654668	1	10	0.05	2000	-1.710327	40.92395	-91.39365
3366526	-24	1	-4	0.5297537	-1.163564	-52.99962	0	10.94	20032	0	0	5	5	0.02	0.6081635	1	10	0.05	2000	-1.248444	40.92395	-91.39365
3366678	-35	16	17	0.5584114	-0.8465654	-53.04044	0	11.11	20032	0	0	5	5	0.02	0.5805488	1	10	0.05	2000	-2.24939	40.92395	-91.39365
3366801	-41	-23	27	0.5687692	-0.7224022	-53.05806	0	11.11	20032	0	0	5	5	0.02	0.5475676	1	10	0.05	2000	-1.779083	40.92395	-91.39365
3366873	-21	6	30	0.5801273	-0.6063501	-53.07395	0	11.11	20032	0	0	5	5	0.02	0.5311433	1	10	0.05	2000	-1.775665	40.92395	-91.39365
3366947	-16	-20	33	0.5861992	-0.5411831	-53.08508	0	11.11	20032	0	0	5	5	0.02	0.4909561	1	10	0.05	2000	-2.026398	40.92395	-91.39365
3367075	-36	-3	21	0.5980117	-0.4587687	-53.10166	0	11.11	20032	0	0	5	5	0.02	0.4658984	1	10	0.05	2000	-1.836609	40.92395	-91.39365
3367121	-19	-7	-5	0.6105233	-0.4040995	-53.11333	0	11.11	20032	0	0	5	5	0.02	0.4524215	1	10	0.05	2000	-1.836609	40.92395	-91.39365
3367184	-23	-2	28	0.6184717	-0.3510594	-53.12458	0	11.11	20032	0	0	5	5	0.02	0.4439248	1	10	0.05	2000	-1.832214	40.92395	-91.39365
3367303	-20	-17	-16	0.6311989	-0.2862006	-53.1409	0	11.11	20032	0	0	5	5	0.02	0.4368097	1	10	0.05	2000	-2.11618	40.92395	-91.39365
3367434	-18	-6	5	0.6409112	-0.1959608	-53.16412	0	11.11	20032	0	0	5	5	0.02	0.4342666	1	10	0.05	2000	-2.11087	40.92395	-91.39365
3367490	-26	0	11	0.645398	-0.1781706	-53.16925	0	11.06	20032	0	0	5	5	0.02	0.4283417	1	10	0.05	2000	-1.912445	40.92395	-91.39365
3367634	-25	4	5	0.658475	-0.1215859	-53.19043	0	11.06	20032	0	0	5	5	0.02	0.4230043	1	10	0.05	2000	-2.12027	40.92395	-91.39365
3367747	-27	0	9	0.6609545	-0.08047609	-53.20978	0	11.06	20032	0	0	5	5	0.02	0.4230398	1	10	0.05	2000	-2.563141	40.92395	-91.39365
3367795	-28	-3	9	0.6645789	-0.06835467	-53.21454	0	11.06	20032	0	0	5	5	0.02	0.4237782	1	10	0.05	2000	-2.345612	40.92395	-91.39365
3367894	-32	2	8	0.6685967	-0.04248624	-53.22981	0	11.06	20032	0	0	5	5	0.02	0.4261869	1	10	0.05	2000	-2.341919	40.92395	-91.39365
3368003	-23	1	6	0.6658452	-0.008671062	-53.25007	0	11.06	20032	0	0	5	5	0.02	0.4317241	1	10	0.05	2000	-2.349976	40.92395	-91.39365
3368139	-19	1	10	0.6746585	0.0131109	-53.26521	0	11.06	20032	0	0	5	5	0.02	0.4275348	1	10	0.05	2000	-2.582947	40.92395	-91.39365
3368230	-27	3	7	0.6758213	0.03812652	-53.28841	0	11.06	20032	0	0	5	5	0.02	0.4172464	1	10	0.05	2000	-2.361053	40.92395	-91.39365
3368330	-19	-1	6	0.6748204	0.05403753	-53.29854	0	11.06	20032	0	0	5	5	0.02	0.4059918	1	10	0.05	2000	-2.344574	40.92395	-91.39365
3368420	-19	6	5	0.6783433	0.06952468	-53.31918	0	11.17	20032	0	0	5	5	0.02	0.3961357	1	10	0.05	2000	-2.366486	40.92395	-91.39365
3368537	-28	1	8	0.681342	0.0735773	-53.32937	0	11.17	20032	0	0	5	5	0.02	0.3827115	1	10	0.05	2000	-2.354248	40.92395	-91.39365
3368592	-24	5	6	0.6929848	0.08981725	-53.34085	0	11.17	20032	0	0	5	5	0.02	0.3763053	1	10	0.05	2000	-2.355713	40.92395	-91.39365
3368707	-26	4	12	0.7000903	0.09104065	-53.36001	0	11.17	20032	0	0	5	5	0.02	0.3768391	1	10	0.05	2000	-2.615936	40.92395	-91.39365
3368885	-22	0	5	0.6978491	0.09152732	-53.38278	0	11.17	20032	0	0	5	5	0.02	0.3802643	1	10	0.05	2000	-2.372467	40.92395	-91.39365
3368957	-22	-1	8	0.6932523	0.08815596	-53.39652	0	11.17	20032	0	0	5	5	0.02	0.3805321	1	10	0.05	2000	-2.156708	40.92395	-91.39365
3369038	-24	-4	9	0.6942208	0.09333872	-53.40531	0	11.17	20032	0	0	5	5	0.02	0.3799073	1	10	0.05	2000	-2.388031	40.92395	-91.39365
3369170	-24	0	6	0.7065874	0.1219459	-53.42862	0	11.17	20032	0	0	5	5	0.02	0.3806905	1	10	0.05	2000	-2.621521	40.92395	-91.39365
3369204	-20	-2	8	0.708246	0.1238142	-53.43351	0	11.17	20032	0	0	5	5	0.02	0.3817818	1	10	0.05	2000	-2.391357	40.92395	-91.39365
3369296	-61	18	19	0.7061844	0.1233662	-53.44059	0	11.11	20032	0	0	5	5	0.02	0.3847707	1	10	0.05	2000	-2.393585	40.92395	-91.39365
3369382	-22	1	11	0.7072977	0.1338792	-53.45123	0	11.11	20032	0	0	5	5	0.02	0.387691	1	10	0.05	2000	-2.603088	40.92395	-91.39365
3369501	-28	5	4	0.711485	0.132034	-53.46447	0	11.11	20032	0	0	5	5	0.02	0.3883233	1	10	0.05	2000	-2.62851	40.92395	-91.39365
3369653	-28	4	1	0.7101363	0.1298448	-53.48425	0	11.11	20032	0	0	5	5	0.02	0.3808178	1	10	0.05	2000	-2.384277	40.92395	-91.39365
3369738	-110	166	4	0.7027262	0.133476	-53.50209	0	11.11	20032	0	0	5	5	0.02	0.3767656	1	10	0.05	2000	-2.168457	40.92395	-91.39365
3369776	-110	166	4	0.7027262	0.133476	-53.50209	0	11.11	20032	0	0	5	5	0.02	0.3770518	1	10	0.05	2000	-2.168457	40.92395	-91.39365
3369899	-4282	-2174	968	-1.1071	0.07808483	-54.20085	0	11.11	20032	0	0	5	5	0.02	0.3792456	1	10	0.05	2000	-2.196289	40.92395	-91.39365
3370038	494	-2929	-217	-7.042074	6.563924	-54.83918	0	11.11	20032	0	0	5	5	0.02	0.3869851	1	10	0.05	2000	-1.255066	40.92395	-91.39365
3370143	820	65	-1185	-4.878923	9.492804	-52.19779	0	11.11	20032	0	0	5	5	0.02	0.4052837	1	10	0.05	2000	-0.4004517	40.92395	-91.39365
3370228	-100	1060	-913	-4.425102	9.623214	-51.00702	0	11.11	20032	0	0	5	5	0.02	0.4159055	1	10	0.05	2000	-1.222168	40.92395	-91.39365
3370338	-832	280	-344	-5.856318	7.77107	-48.34266	0	11.11	20032	0	0	5	5	0.02	0.4255465	1	10	0.05	2000	-1.681946	40.92395	-91.39365
3370363	-832	280	-344	-5.856318	7.77107	-48.34266	0	11.11	20032	0	0	5	5	0.02	0.4387337	1	10	0.05	2000	-1.681946	40.92395	-91.39365
3370472	-3297	1179	534	-9.298669	4.697027	-49.21674	0	11.11	20032	0	0	5	5	0.02	0.468714	1	10	0.05	2000	-2.955902	40.92395	-91.39365
3370636	972	830	808	-11.22297	9.829164	-50.63082	0	11.11	20032	0	0	5	5	0.02	0.5253136	1	10	0.05	2000	-3.944519	40.92395	-91.39365
3370741	1403	551	1125	-9.549968	7.966197	-52.42183	0	11.11	20032	0	0	5	5	0.02	0.5616624	1	10	0.05	2000	-1.114136	40.92395	-91.39365
3370772	1469	602	898	-8.457983	7.025904	-53.4399	0	11.11	20032	0	0	5	5	0.02	0.5616624	1	10	0.05	2000	-1.08609	40.92395	-91.39365
3370960	1052	-1023	350	-3.968119	3.324496	-54.70776	0	11.11	20032	0	0	5	5	0.02	0.6348956	1	10	0.05	2000	-0.9525146	40.92395	-91.39365
3370992	577	-931	649	-3.425308	3.652997	-54.99085	0	11.11	20032	0	0	5	5	0.02	0.6459497	1	10	0.05	2000	-0.9525146	40.92395	-91.39365
3371070	-55	-365	1888	-3.117114	3.482345	-57.1962	0	11.11	20032	0	0	5	5	0.02	0.6557867	1	10	0.05	2000	-0.09353638	40.92395	-91.39365
3371174	187	596	1916	-3.061114	2.570196	-59.34701	0	11.17	20032	0	0	5	5	0.02	0.6612099	1	10	0.05	2000	1.250057	40.92395	-91.39365
3371330	1297	2701	-1272	-1.574536	0.08357505	-59.73808	0	11.17	20032	0	0	5	5	0.02	0.6565282	1	10	0.05	2000	2.963889	40.92395	-91.39365
3371415	-109	105	189	0.007645241	-1.090626	-58.81677	0	11.17	20032	0	0	5	5	0.02	0.6510409	1	10	0.05	2000	0.8885713	40.92395	-91.39365
3371478	177	-163	-18	-0.04538672	-0.9612337	-58.79196	0	11.17	20032	0	0	5	5	0.02	0.6440748	1	10	0.05	2000	0.8885713	40.92395	-91.39365
3371582	101	-182	-124	-0.1613222	-0.868929	-58.76708	0	11.17	20032	0	0	5	5	0.02	0.6386774	1	10	0.05	2000	0.657124	40.92395	-91.39365
3371685	163	-210	-2	-0.2728853	-0.853799	-58.80052	0	11.17	20032	0	0	5	5	0.02	0.6281599	1	10	0.05	2000	0.739472	40.92395	-91.39365
3371890	-84	73	36	-0.3079725	-0.6740197	-58.81899	0	11.17	20032	0	0	5	5	0.02	0.6038442	1	10	0.05	2000	1.118163	40.92395	-91.39365
3371944	-114	132	14	-0.3563801	-0.6952655	-58.82199	0	11.17	20032	0	0	5	5	0.02	0.5911858	1	10	0.05	2000	1.182383	40.92395	-91.39365
3371993	0	-53	-6	-0.3943266	-0.6726238	-58.83318	0	11.17	20032	0	0	5	5	0.02	0.583996	1	10	0.05	2000	0.8263472	40.92395	-91.39365
3372141	-34	25	8	-0.4251542	-0.5882571	-58.85749	0	11.17	20032	0	0	5	5	0.02	0.5630019	1	10	0.05	2000	1.521159	40.92395	-91.39365
3372219	1	-11	8	-0.4418045	-0.5679356	-58.86659	0	11.17	20032	0	0	5	5	0.02	0.5539377	1	10	0.05	2000	0.8813949	40.92395	-91.39365
3372287	-31	5	4	-0.4638037	-0.5446492	-58.87269	0	11.17	20032	0	0	5	5	0.02	0.5455402	1	10	0.05	2000	0.8978503	40.92395	-91.39365
3372384	-23	2	6	-0.4840024	-0.5070254	-58.88221	0	11.17	20032	0	0	5	5	0.02	0.5305941	1	10	0.05	2000	1.136676	40.92395	-91.39365
3372495	-29	1	8	-0.4981659	-0.4779997	-58.89369	0	11.17	20032	0	0	5	5	0.02	0.5230173	1	10	0.05	2000	1.179027	40.92395	-91.39365
3372604	-18	0	1	-0.5179107	-0.4538587	-58.90522	0	11.17	20032	0	0	5	5	0.02	0.5091634	1	10	0.05	2000	0.9807543	40.92395	-91.39365
3372684	-25	-4	3	-0.5273954	-0.4368243	-58.91359	0	11.17	20032	0	0	5	5	0.02	0.5047352	1	10	0.05	2000	1.430006	40.92395	-91.39365
3372814	-27	9	11	-0.551752	-0.3912635	-58.93269	0	11.17	20032	0	0	5	5	0.02	0.4925495	1	10	0.05	2000	1.025727	40.92395	-91.39365
3372890	-25	6	0	-0.5609257	-0.3862772	-58.94288	0	11.17	20032	0	0	5	5	0.02	0.4850298	1	10	0.05	2000	1.25549	40.92395	-91.39365
3372970	-24	0	2	-0.5637782	-0.3723406	-58.95124	0	11.17	20032	0	0	5	5	0.02	0.4800473	1	10	0.05	2000	1.056123	40.92395	-91.39365
3373115	-23	0	0	-0.567605	-0.3540167	-58.96785	0	11.17	20032	0	0	5	5	0.02	0.4797056	1	10	0.05	2000	1.287914	40.92395	-91.39365
3373168	-25	3	10	-0.57381	-0.3543276	-58.97694	0	11.17	20032	0	0	5	5	0.02	0.4820598	1	10	0.05	2000	1.291196	40.92395	-91.39365
3373371	-26	0	5	-0.579366	-0.3456308	-59.00063	0	11.17	20032	0	0	5	5	0.02	0.4777046	1	10	0.05	2000	1.300048	40.92395	-91.39365
3373418	-19	-2	6	-0.5845898	-0.3420764	-59.00826	0	11.17	20032	0	0	5	5	0.02	0.4793679	1	10	0.05	2000	1.07534	40.92395	-91.39365
3373520	-31	1	7	-0.5942399	-0.3286966	-59.02034	0	11.17	20032	0	0	5	5	0.02	0.4860146	1	10	0.05	2000	1.312388	40.92395	-91.39365
3373604	-28	-2	4	-0.5935906	-0.325996	-59.02754	0	11.17	20032	0	0	5	5	0.02	0.487886	1	10	0.05	2000	1.321458	40.92395	-91.39365
3373722	-22	3	7	-0.6005292	-0.3230888	-59.04164	0	11.17	20032	0	0	5	5	0.02	0.4884437	1	10	0.05	2000	1.33688	40.92395	-91.39365
3373806	-21	-1	1	-0.5976919	-0.3085686	-59.05013	0	11.17	20032	0	0	5	5	0.02	0.4897039	1	10	0.05	2000	1.326304	40.92395	-91.39365
3373916	-28	4	8	-0.5952073	-0.2943446	-59.06484	0	11.17	20032	0	0	5	5	0.02	0.489186	1	10	0.05	2000	1.097728	40.92395	-91.39365
3373968	-22	1	9	-0.5981711	-0.2946608	-59.06911	0	11.17	20032	0	0	5	5	0.02	0.4896748	1	10	0.05	2000	1.097728	40.92395	-91.39365
3374104	-25	-4	4	-0.5981221	-0.2967368	-59.09066	0	11.17	20032	0	0	5	5	0.02	0.4946034	1	10	0.05	2000	1.554866	40.92395	-91.39365
3374173	-22	-1	4	-0.6069597	-0.3013434	-59.09804	0	11.17	20032	0	0	5	5	0.02	0.5058403	1	10	0.05	2000	1.541007	40.92395	-91.39365
3374298	-27	3	1	-0.6107997	-0.2989376	-59.10958	0	11.17	20032	0	0	5	5	0.02	0.5132418	1	10	0.05	2000	1.341599	40.92395	-91.39365
3374374	-26	8	11	-0.6069114	-0.2957981	-59.12033	0	11.17	20032	0	0	5	5	0.02	0.5201903	1	10	0.05	2000	1.334422	40.92395	-91.39365
3374510	-26	4	0	-0.6125603	-0.2937444	-59.13394	0	11.17	20032	0	0	5	5	0.02	0.5312976	1	10	0.05	2000	1.347362	40.92395	-91.39365
3374597	-19	2	9	-0.6142948	-0.3016623	-59.14627	0	11.17	20032	0	0	5	5	0.02	0.5397725	1	10	0.05	2000	1.341547	40.92395	-91.39365
3374736	-20	1	5	-0.6184604	-0.297325	-59.1625	0	11.17	20032	0	0	5	5	0.02	0.5466999	1	10	0.05	2000	1.130506	40.92395	-91.39365
3374853	-25	4	10	-0.6211742	-0.2926922	-59.17606	0	11.06	20032	0	0	5	5	0.02	0.5594706	1	10	0.05	2000	1.572523	40.92395	-91.39365
3374965	-25	-2	7	-0.6200304	-0.2978913	-59.19162	0	11.06	20032	0	0	5	5	0.02	0.5745767	1	10	0.05	2000	1.357418	40.92395	-91.39365
3375022	-24	12	0	-0.6231635	-0.2984879	-59.19528	0	11.06	20032	0	0	5	5	0.02	0.5791931	1	10	0.05	2000	1.355708	40.92395	-91.39365
3375135	-22	-4	5	-0.6300914	-0.3002377	-59.21182	0	11.06	20032	0	0	5	5	0.02	0.5883223	1	10	0.05	2000	1.58997	40.92395	-91.39365
3375187	-19	-5	9	-0.6270731	-0.3053435	-59.22049	0	11.06	20032	0	0	5	5	0.02	0.5873448	1	10	0.05	2000	1.365955	40.92395	-91.39365
3375289	-28	0	8	-0.6199212	-0.3023567	-59.22678	0	11.06	20032	0	0	5	5	0.02	0.5830336	1	10	0.05	2000	1.365955	40.92395	-91.39365
3375397	-30	3	5	-0.6151329	-0.3008504	-59.2457	0	11.06	20032	0	0	5	5	0.02	0.5883836	1	10	0.05	2000	1.563096	40.92395	-91.39365
3375551	-23	1	7	-0.6196477	-0.2934772	-59.25559	0	11.06	20032	0	0	5	5	0.02	0.5897875	1	10	0.05	2000	1.571593	40.92395	-91.39365
3375594	-25	0	12	-0.622164	-0.2877053	-59.2695	0	11.06	20032	0	0	5	5	0.02	0.5881723	1	10	0.05	2000	1.358605	40.92395	-91.39364
3375701	-21	0	7	-0.6216804	-0.28699	-59.27677	0	11.11	20032	0	0	5	5	0.02	0.583173	1	10	0.05	2000	1.581086	40.92395	-91.39364
3375778	-29	2	5	-0.6153233	-0.2895762	-59.28421	0	11.11	20032	0	0	5	5	0.02	0.5802052	1	10	0.05	2000	1.5744	40.92395	-91.39364
3375885	-26	-2	3	-0.6192746	-0.2882038	-59.30051	0	11.11	20032	0	0	5	5	0.02	0.5689908	1	10	0.05	2000	1.569637	40.92395	-91.39364
3375994	-19	7	10	-0.6163508	-0.2838104	-59.3082	0	11.11	20032	0	0	5	5	0.02	0.5628191	1	10	0.05	2000	1.35633	40.92395	-91.39364
3376095	-27	-3	7	-0.6080323	-0.2834786	-59.32358	0	11.11	20032	0	0	5	5	0.02	0.5587698	1	10	0.05	2000	1.555059	40.92395	-91.39364
3376185	-26	-1	6	-0.6048465	-0.2779927	-59.33078	0	11.11	20032	0	0	5	5	0.02	0.5477594	1	10	0.05	2000	1.556363	40.92395	-91.39364
3376299	-33	-6	8	-0.6160587	-0.2752753	-59.34433	0	11.11	20032	0	0	5	5	0.02	0.5359036	1	10	0.05	2000	1.569749	40.92395	-91.39364
3376385	-29	4	5	-0.6254845	-0.2722362	-59.35038	0	11.11	20032	0	0	5	5	0.02	0.530771	1	10	0.05	2000	1.142332	40.92395	-91.39364
3376480	-27	4	4	-0.6289977	-0.2794926	-59.3621	0	11.11	20032	0	0	5	5	0.02	0.5280659	1	10	0.05	2000	1.372843	40.92395	-91.39364
3376582	-22	-2	7	-0.631003	-0.2700671	-59.37742	0	11.17	20032	0	0	5	5	0.02	0.5259303	1	10	0.05	2000	1.151008	40.92395	-91.39364
3376699	-24	8	0	-0.6258261	-0.2594185	-59.38731	0	11.17	20032	0	0	5	5	0.02	0.5217291	1	10	0.05	2000	1.372598	40.92395	-91.39364
3376792	-27	-6	2	-0.6266062	-0.2619198	-59.39329	0	11.17	20032	0	0	5	5	0.02	0.5154105	1	10	0.05	2000	1.586602	40.92395	-91.39364
3376896	-22	0	9	-0.6330532	-0.263056	-59.40769	0	11.17	20032	0	0	5	5	0.02	0.4970675	1	10	0.05	2000	1.370462	40.92395	-91.39364
3376982	-23	0	8	-0.6261079	-0.260498	-59.41587	0	11.17	20032	0	0	5	5	0.02	0.4881044	1	10	0.05	2000	1.377471	40.92395	-91.39364
3377111	-26	-4	4	-0.6337208	-0.261869	-59.43229	0	11.17	20032	0	0	5	5	0.02	0.4733507	1	10	0.05	2000	1.149514	40.92395	-91.39364
3377194	-23	0	9	-0.6271647	-0.2602665	-59.44248	0	11.17	20032	0	0	5	5	0.02	0.4639682	1	10	0.05	2000	1.153781	40.92395	-91.39364
3377338	-30	-1	12	-0.6205524	-0.2637774	-59.45438	0	11.17	20032	0	0	5	5	0.02	0.4571964	1	10	0.05	2000	1.361232	40.92395	-91.39364
3377440	-20	2	7	-0.6209669	-0.2731358	-59.47068	0	11.17	20032	0	0	5	5	0.02	0.4449848	1	10	0.05	2000	1.361616	40.92395	-91.39364
3377553	-30	0	3	-0.6170961	-0.2709314	-59.48197	0	11.17	20032	0	0	5	5	0.02	0.4382652	1	10	0.05	2000	1.348716	40.92395	-91.39364
3377587	-30	0	3	-0.6142752	-0.2752067	-59.4846	0	11.17	20032	0	0	5	5	0.02	0.4369833	1	10	0.05	2000	1.13868	40.92395	-91.39364
3377711	-21	-1	4	-0.6135305	-0.2785201	-59.50346	0	11.17	20032	0	0	5	5	0.02	0.4394466	1	10	0.05	2000	1.345985	40.92395	-91.39364
3377778	-21	-1	7	-0.6115814	-0.2774874	-59.50669	0	11.17	20032	0	0	5	5	0.02	0.440232	1	10	0.05	2000	1.345985	40.92395	-91.39364
3377902	-22	1	7	-0.6184586	-0.2764773	-59.525	0	11.17	20032	0	0	5	5	0.02	0.4444999	1	10	0.05	2000	1.349019	40.92395	-91.39364
3377983	-26	-1	5	-0.6195091	-0.2747691	-59.53147	0	11.17	20032	0	0	5	5	0.02	0.4528609	1	10	0.05	2000	1.357032	40.92395	-91.39364
3378139	-24	0	6	-0.6107521	-0.2719928	-59.54581	0	11.17	20032	0	0	5	5	0.02	0.4721215	1	10	0.05	2000	1.335366	40.92395	-91.39364
3378261	-24	1	9	-0.6131839	-0.2690678	-59.55607	0	11.17	20032	0	0	5	5	0.02	0.483387	1	10	0.05	2000	1.559548	40.92395	-91.39364
3378349	-31	0	5	-0.6172801	-0.2826725	-59.56345	0	11.17	20032	0	0	5	5	0.02	0.4842626	1	10	0.05	2000	1.576265	40.92395	-91.39364
3378384	-27	-6	9	-0.6155384	-0.2798607	-59.57236	0	11.17	20032	0	0	5	5	0.02	0.4841883	1	10	0.05	2000	1.576265	40.92395	-91.39364
3378521	-26	0	6	-0.6084639	-0.2829086	-59.58635	0	11.17	20032	0	0	5	5	0.02	0.4838078	1	10	0.05	2000	1.572744	40.92395	-91.39364
3378626	-18	-8	6	-0.6113047	-0.2864951	-59.59373	0	11.17	20032	0	0	5	5	0.02	0.4826562	1	10	0.05	2000	1.345873	40.92395	-91.39364
3378682	-27	0	4	-0.620756	-0.2855624	-59.60563	0	11.17	20032	0	0	5	5	0.02	0.4825255	1	10	0.05	2000	1.128965	40.92395	-91.39364
3378799	-25	-1	4	-0.6203871	-0.2861234	-59.61741	0	11.17	20032	0	0	5	5	0.02	0.4934813	1	10	0.05	2000	1.363606	40.92395	-91.39364
3378953	-26	2	11	-0.6102105	-0.2740258	-59.63792	0	11.17	20032	0	0	5	5	0.02	0.5028614	1	10	0.05	2000	1.558914	40.92395	-91.39364
3379105	-29	0	4	-0.6096234	-0.2713541	-59.65709	0	11.17	20032	0	0	5	5	0.02	0.5078539	1	10	0.05	2000	1.56109	40.92395	-91.39363
3379247	-22	0	8	-0.6039642	-0.2697451	-59.66917	0	11.17	20032	0	0	5	5	0.02	0.5054775	1	10	0.05	2000	1.339921	40.92395	-91.39363
3379287	-24	8	8	-0.6060525	-0.2747828	-59.67082	0	11.17	20032	0	0	5	5	0.02	0.5047435	1	10	0.05	2000	1.339921	40.92395	-91.39363
3379390	-23	-4	8	-0.6047398	-0.269457	-59.68046	0	11.23	20032	0	0	5	5	0.02	0.5031145	1	10	0.05	2000	1.325831	40.92395	-91.39363
3379521	-27	1	6	-0.6113121	-0.2770573	-59.69352	0	11.23	20032	0	0	5	5	0.02	0.4782553	1	10	0.05	2000	1.12286	40.92395	-91.39363
3379612	-26	-2	2	-0.6112258	-0.274182	-59.70317	0	11.23	20032	0	0	5	5	0.02	0.4696504	1	10	0.05	2000	1.116583	40.92395	-91.39363
3379732	-26	2	0	-0.6086248	-0.279924	-59.71678	0	11.23	20032	0	0	5	5	0.02	0.4616899	1	10	0.05	2000	1.339702	40.92395	-91.39363
3379796	-18	-5	6	-0.6059411	-0.2766048	-59.71952	0	11.23	20032	0	0	5	5	0.02	0.456467	1	10	0.05	2000	1.339702	40.92395	-91.39363
3379931	-24	3	4	-0.617866	-0.2870307	-59.73387	0	11.23	20032	0	0	5	5	0.02	0.4498696	1	10	0.05	2000	1.352262	40.92395	-91.39363
3379999	-23	-3	9	-0.617671	-0.2883303	-59.74479	0	11.23	20032	0	0	5	5	0.02	0.4486679	1	10	0.05	2000	1.351354	40.92395	-91.39363
3380162	-26	8	7	-0.6196219	-0.2857127	-59.75987	0	11.23	20032	0	0	5	5	0.02	0.4408832	1	10	0.05	2000	1.136781	40.92395	-91.39363
3380266	-30	-1	7	-0.6180668	-0.2850214	-59.77165	0	11.17	20032	0	0	5	5	0.02	0.4353255	1	10	0.05	2000	1.13319	40.92395	-91.39363
3380374	-26	4	0	-0.6228537	-0.2800737	-59.78074	0	11.17	20032	0	0	5	5	0.02	0.4352481	1	10	0.05	2000	1.36452	40.92395	-91.39363
3380399	-26	4	0	-0.6228537	-0.2800737	-59.78074	0	11.17	20032	0	0	5	5	0.02	0.4363867	1	10	0.05	2000	1.36452	40.92395	-91.39363
3380527	-23	1	8	-0.6216378	-0.2742166	-59.79881	0	11.17	20032	0	0	5	5	0.02	0.4398656	1	10	0.05	2000	1.359918	40.92395	-91.39363
3380602	-20	3	4	-0.618708	-0.2711851	-59.8051	0	11.17	20032	0	0	5	5	0.02	0.4396612	1	10	0.05	2000	1.365971	40.92395	-91.39363
3380798	-30	1	7	-0.6171706	-0.2621438	-59.81877	0	11.17	20032	0	0	5	5	0.02	0.4500217	1	10	0.05	2000	1.354817	40.92395	-91.39363
3380831	-20	-2	10	-0.6103383	-0.2613663	-59.82524	0	11.17	20032	0	0	5	5	0.02	0.4557566	1	10	0.05	2000	1.342233	40.92395	-91.39363
3380934	-22	1	4	-0.6095692	-0.2517143	-59.83202	0	11.17	20032	0	0	5	5	0.02	0.4641646	1	10	0.05	2000	1.342233	40.92395	-91.39363
3381124	-27	2	9	-0.6175292	-0.2699155	-59.8532	0	11.17	20032	0	0	5	5	0.02	0.4761775	1	10	0.05	2000	1.133435	40.92395	-91.39363
3381228	-28	-4	3	-0.6211954	-0.2672718	-59.86412	0	11.17	20032	0	0	5	5	0.02	0.4781698	1	10	0.05	2000	1.351204	40.92395	-91.39363
3381349	-25	-1	4	-0.6226451	-0.2684647	-59.87682	0	11.17	20032	0	0	5	5	0.02	0.4837848	1	10	0.05	2000	1.366758	40.92395	-91.39363
3381449	-23	0	4	-0.6185889	-0.2586109	-59.8856	0	11.17	20032	0	0	5	5	0.02	0.4901213	1	10	0.05	2000	1.563248	40.92395	-91.39363
3381545	-29	0	10	-0.6129442	-0.2596758	-59.89281	0	11.17	20032	0	0	5	5	0.02	0.4870181	1	10	0.05	2000	1.354912	40.92395	-91.39363
3381644	-27	4	2	-0.6181688	-0.2554565	-59.91087	0	11.17	20032	0	0	5	5	0.02	0.4849727	1	10	0.05	2000	1.133556	40.92395	-91.39363
3381726	-24	4	0	-0.6221495	-0.2534337	-59.91551	0	11.17	20032	0	0	5	5	0.02	0.4869307	1	10	0.05	2000	1.353761	40.92395	-91.39363
3381892	-27	5	8	-0.612723	-0.2548372	-59.93401	0	11.17	20032	0	0	5	5	0.02	0.5031119	1	10	0.05	2000	1.569885	40.92395	-91.39363
3381990	-27	-1	3	-0.6206214	-0.2463693	-59.94157	0	11.17	20032	0	0	5	5	0.02	0.5105211	1	10	0.05	2000	1.35235	40.92395	-91.39363
3382147	-20	-3	2	-0.6228851	-0.2478312	-59.955	0	11.17	20032	0	0	5	5	0.02	0.5269634	1	10	0.05	2000	1.347356	40.92395	-91.39363
3382276	-30	1	9	-0.6263822	-0.245362	-59.96483	0	11.17	20032	0	0	5	5	0.02	0.5393475	1	10	0.05	2000	1.354461	40.92395	-91.39363
3382318	-23	-1	7	-0.6225207	-0.2461648	-59.96965	0	11.17	20032	0	0	5	5	0.02	0.5410062	1	10	0.05	2000	1.583029	40.92395	-91.39363
3382484	-26	-3	-1	-0.6266861	-0.2433319	-59.99242	0	11.17	20032	0	0	5	5	0.02	0.5399084	1	10	0.05	2000	1.361049	40.92395	-91.39363
3382605	-25	-3	5	-0.6318845	-0.2400408	-60.00652	0	11.17	20032	0	0	5	5	0.02	0.5351647	1	10	0.05	2000	1.368735	40.92395	-91.39363
3382651	-29	4	7	-0.6315864	-0.2389069	-60.00963	0	11.17	20032	0	0	5	5	0.02	0.5335734	1	10	0.05	2000	1.368735	40.92395	-91.39363
3382770	-21	2	9	-0.6274587	-0.2475644	-60.01988	0	11.17	20032	0	0	5	5	0.02	0.5294967	1	10	0.05	2000	1.360371	40.92395	-91.39363
3382816	-24	0	3	-0.619899	-0.2591625	-60.03001	0	11.17	20032	0	0	5	5	0.02	0.5307873	1	10	0.05	2000	1.364805	40.92395	-91.39363
3382935	-29	-2	9	-0.6248628	-0.2659942	-60.03972	0	11.17	20032	0	0	5	5	0.02	0.5332668	1	10	0.05	2000	1.355191	40.92395	-91.39363
3383072	-24	-1	3	-0.621478	-0.2666762	-60.04881	0	11.17	20032	0	0	5	5	0.02	0.5370321	1	10	0.05	2000	1.361881	40.92395	-91.39363
3383137	-28	2	4	-0.6199985	-0.2631828	-60.05815	0	11.17	20032	0	0	5	5	0.02	0.5453014	1	10	0.05	2000	1.575561	40.92395	-91.39363
3383226	-31	0	3	-0.6225757	-0.2645532	-60.06456	0	11.17	20032	0	0	5	5	0.02	0.5473371	1	10	0.05	2000	1.360594	40.92395	-91.39363
3383408	-19	1	2	-0.6198984	-0.25892	-60.08055	0	11.17	20032	0	0	5	5	0.02	0.5358442	1	10	0.05	2000	1.144075	40.92395	-91.39363
3383493	-28	-3	4	-0.6132447	-0.2730551	-60.09099	0	11.17	20032	0	0	5	5	0.02	0.5386212	1	10	0.05	2000	1.354544	40.92395	-91.39363
3383589	-23	0	6	-0.6038749	-0.2630123	-60.10216	0	11.17	20032	0	0	5	5	0.02	0.5485958	1	10	0.05	2000	1.340414	40.92395	-91.39363
3383690	-29	6	5	-0.5985745	-0.278563	-60.11345	0	11.17	20032	0	0	5	5	0.02	0.5666867	1	10	0.05	2000	1.109151	40.92395	-91.39363
3383731	-24	-1	5	-0.6052954	-0.2797708	-60.11601	0	11.17	20032	0	0	5	5	0.02	0.566781	1	10	0.05	2000	1.109151	40.92395	-91.39363
3383783	-24	5	6	-0.5979776	-0.279163	-60.11949	0	11.17	20032	0	0	5	5	0.02	0.5672532	1	10	0.05	2000	1.108331	40.92395	-91.39363
3383978	-22	5	1	-0.5894649	-0.2850265	-60.13921	0	11.17	20032	0	0	5	5	0.02	0.5669427	1	10	0.05	2000	1.313305	40.92395	-91.39363
3384083	-24	4	14	-0.5864221	-0.280971	-60.14806	0	11.17	20032	0	0	5	5	0.02	0.5706264	1	10	0.05	2000	1.312377	40.92395	-91.39363
3384123	-21	0	2	-0.5874386	-0.2791638	-60.15471	0	11.17	20032	0	0	5	5	0.02	0.5774333	1	10	0.05	2000	1.533135	40.92395	-91.39363
3384213	-23	-4	-2	-0.5790597	-0.2790362	-60.16228	0	11.17	20032	0	0	5	5	0.02	0.5789714	1	10	0.05	2000	1.077384	40.92395	-91.39363
3384276	-24	2	0	-0.5904657	-0.2839114	-60.16655	0	11.17	20032	0	0	5	5	0.02	0.5769567	1	10	0.05	2000	1.302405	40.92395	-91.39363
3384434	-28	-3	6	-0.5896023	-0.2781578	-60.18187	0	11.17	20032	0	0	5	5	0.02	0.5819515	1	10	0.05	2000	1.526714	40.92395	-91.39363
3384489	-31	0	8	-0.5878692	-0.2730001	-60.18565	0	11.17	20032	0	0	5	5	0.02	0.5885838	1	10	0.05	2000	1.526714	40.92395	-91.39363
3384573	-29	1	8	-0.5995166	-0.2797292	-60.19536	0	11.17	20032	0	0	5	5	0.02	0.5967531	1	10	0.05	2000	1.324602	40.92395	-91.39363
3384675	-26	0	3	-0.602035	-0.2768385	-60.20372	0	11.17	20032	0	0	5	5	0.02	0.6059588	1	10	0.05	2000	1.332433	40.92395	-91.39363
3384777	-18	3	10	-0.6002188	-0.2816347	-60.21227	0	11.17	20032	0	0	5	5	0.02	0.6071248	1	10	0.05	2000	1.541975	40.92395	-91.39363
3384927	-23	8	5	-0.5990803	-0.2775989	-60.23003	0	11.17	20032	0	0	5	5	0.02	0.6046201	1	10	0.05	2000	1.551396	40.92395	-91.39363
3384985	-24	0	1	-0.6012467	-0.2789725	-60.23167	0	11.17	20032	0	0	5	5	0.02	0.6023476	1	10	0.05	2000	1.551396	40.92395	-91.39363
3385112	-28	0	12	-0.5997315	-0.277417	-60.24205	0	11.17	20032	0	0	5	5	0.02	0.5962498	1	10	0.05	2000	1.11374	40.92395	-91.39363
3385213	-27	3	4	-0.5983062	-0.272743	-60.25145	0	11.17	20032	0	0	5	5	0.02	0.5920054	1	10	0.05	2000	1.328559	40.92395	-91.39363
3385323	-33	-2	1	-0.5995548	-0.2719158	-60.26311	0	11.17	20032	0	0	5	5	0.02	0.5756519	1	10	0.05	2000	1.336691	40.92395	-91.39363
3385370	-18	3	7	-0.599851	-0.268683	-60.26982	0	11.17	20032	0	0	5	5	0.02	0.5698407	1	10	0.05	2000	1.545765	40.92395	-91.39363
3385497	-23	1	8	-0.5998994	-0.2663622	-60.27745	0	11.17	20032	0	0	5	5	0.02	0.5573159	1	10	0.05	2000	1.319385	40.92395	-91.39363
3385578	-26	1	5	-0.5945005	-0.2660057	-60.2877	0	11.17	20032	0	0	5	5	0.02	0.5447608	1	10	0.05	2000	1.324278	40.92395	-91.39363
3385729	-24	3	5	-0.6022927	-0.2687824	-60.30229	0	11.17	20032	0	0	5	5	0.02	0.5328743	1	10	0.05	2000	1.100429	40.92395	-91.39363
3385779	-24	1	-1	-0.5995219	-0.2666601	-60.30443	0	11.17	20032	0	0	5	5	0.02	0.5324323	1	10	0.05	2000	1.10645	40.92395	-91.39363
3385854	-27	0	7	-0.5922506	-0.2662683	-60.3145	0	11.17	20032	0	0	5	5	0.02	0.5239514	1	10	0.05	2000	1.319564	40.92395	-91.39363
3385954	-17	-3	4	-0.5884389	-0.2664403	-60.32402	0	11.17	20032	0	0	5	5	0.02	0.519514	1	10	0.05	2000	1.086774	40.92395	-91.39363
3386054	-23	0	8	-0.5912052	-0.2669599	-60.33195	0	11.17	20032	0	0	5	5	0.02	0.5138773	1	10	0.05	2000	1.321698	40.92395	-91.39363
3386164	-27	6	2	-0.6027204	-0.2700397	-60.3455	0	11.17	20032	0	0	5	5	0.02	0.507394	1	10	0.05	2000	1.324912	40.92395	-91.39363
3386255	-25	-2	6	-0.6003072	-0.2649464	-60.35179	0	11.17	20032	0	0	5	5	0.02	0.5086147	1	10	0.05	2000	1.328431	40.92395	-91.39363
3386355	-21	0	6	-0.6003648	-0.257201	-60.36345	0	11.17	20032	0	0	5	5	0.02	0.5188612	1	10	0.05	2000	1.109517	40.92395	-91.39363
3386496	-22	-3	5	-0.5924294	-0.251009	-60.37059	0	11.17	20032	0	0	5	5	0.02	0.5333924	1	10	0.05	2000	1.542556	40.92395	-91.39363
3386598	-21	1	3	-0.5914308	-0.2569856	-60.38634	0	11.17	20032	0	0	5	5	0.02	0.5409766	1	10	0.05	2000	1.313498	40.92395	-91.39363
3386682	-28	1	9	-0.5946825	-0.263582	-60.39256	0	11.23	20032	0	0	5	5	0.02	0.5552912	1	10	0.05	2000	1.541215	40.92395	-91.39363
3386752	-27	-6	5	-0.6007984	-0.2704839	-60.39824	0	11.23	20032	0	0	5	5	0.02	0.5629606	1	10	0.05	2000	1.32777	40.92395	-91.39363
3386888	-11	0	4	-0.5981248	-0.2631701	-60.41527	0	11.23	20032	0	0	5	5	0.02	0.571774	1	10	0.05	2000	1.331291	40.92395	-91.39363
3386956	-27	0	14	-0.5903107	-0.2659848	-60.42204	0	11.23	20032	0	0	5	5	0.02	0.5786154	1	10	0.05	2000	1.322146	40.92395	-91.39363
3387083	-27	1	2	-0.5996158	-0.2737025	-60.43327	0	11.23	20032	0	0	5	5	0.02	0.5789255	1	10	0.05	2000	1.315653	40.92395	-91.39363
3387184	-20	0	1	-0.5983822	-0.2727788	-60.4395	0	11.23	20032	0	0	5	5	0.02	0.575713	1	10	0.05	2000	1.547096	40.92395	-91.39363
3387256	-21	-2	5	-0.5996795	-0.2764019	-60.44487	0	11.23	20032	0	0	5	5	0.02	0.5739062	1	10	0.05	2000	1.330577	40.92395	-91.39363
3387385	-24	2	3	-0.6073749	-0.2829463	-60.4572	0	11.23	20032	0	0	5	5	0.02	0.5767778	1	10	0.05	2000	1.336995	40.92395	-91.39363
3387449	-20	-5	5	-0.6067652	-0.2846786	-60.46349	0	11.23	20032	0	0	5	5	0.02	0.5782175	1	10	0.05	2000	1.555085	40.92395	-91.39363
3387598	-24	4	8	-0.6062937	-0.2810913	-60.47581	0	11.17	20032	0	0	5	5	0.02	0.5838943	1	10	0.05	2000	1.554901	40.92395	-91.39363
3387704	-25	1	3	-0.6012233	-0.2831135	-60.48412	0	11.17	20032	0	0	5	5	0.02	0.5837009	1	10	0.05	2000	1.543248	40.92395	-91.39363
3387824	-22	0	5	-0.6073569	-0.2846597	-60.50023	0	11.17	20032	0	0	5	5	0.02	0.5838575	1	10	0.05	2000	1.558111	40.92395	-91.39363
3387854	-26	1	8	-0.6053512	-0.2894668	-60.50487	0	11.17	20032	0	0	5	5	0.02	0.5877997	1	10	0.05	2000	1.558111	40.92395	-91.39363
3387942	-23	4	6	-0.599976	-0.2856854	-60.50945	0	11.17	20032	0	0	5	5	0.02	0.5963607	1	10	0.05	2000	1.336144	40.92395	-91.39363
3388096	-24	4	5	-0.6023298	-0.2916849	-60.52379	0	11.17	20032	0	0	5	5	0.02	0.6199717	1	10	0.05	2000	1.114896	40.92395	-91.39363
3388286	-23	-1	8	-0.6054534	-0.2911345	-60.54002	0	11.17	20032	0	0	5	5	0.02	0.6268849	1	10	0.05	2000	1.32784	40.92395	-91.39363
3388414	-27	2	5	-0.6086119	-0.280604	-60.55028	0	11.17	20032	0	0	5	5	0.02	0.6214176	1	10	0.05	2000	1.338149	40.92395	-91.39363
3388449	-27	1	9	-0.6153278	-0.2793141	-60.55363	0	11.11	20032	0	0	5	5	0.02	0.6219876	1	10	0.05	2000	1.555277	40.92395	-91.39363
3388528	-24	1	4	-0.6118952	-0.2819159	-60.56187	0	11.11	20032	0	0	5	5	0.02	0.618163	1	10	0.05	2000	1.129386	40.92395	-91.39363
3388630	-26	6	11	-0.6090637	-0.2839615	-60.56786	0	11.11	20032	0	0	5	5	0.02	0.6162323	1	10	0.05	2000	1.345055	40.92395	-91.39363
3388798	-27	4	10	-0.6039577	-0.2803438	-60.58427	0	11.11	20032	0	0	5	5	0.02	0.6107803	1	10	0.05	2000	1.331346	40.92395	-91.39363
3388942	-25	0	10	-0.6032156	-0.2851327	-60.59624	0	11.11	20032	0	0	5	5	0.02	0.6152725	1	10	0.05	2000	1.331416	40.92395	-91.39363
3389036	-23	-3	10	-0.5937662	-0.2804482	-60.6082	0	11.11	20032	0	0	5	5	0.02	0.6286595	1	10	0.05	2000	1.322232	40.92395	-91.39363
3389208	-32	9	9	-0.6009688	-0.2805706	-60.62144	0	11.11	20032	0	0	5	5	0.02	0.6467729	1	10	0.05	2000	1.103456	40.92395	-91.39363
3389294	-21	0	10	-0.6025271	-0.2872068	-60.63145	0	11.11	20032	0	0	5	5	0.02	0.6551367	1	10	0.05	2000	1.551762	40.92395	-91.39363
3389349	-25	4	6	-0.5965373	-0.2868344	-60.63835	0	11.11	20032	0	0	5	5	0.02	0.6538201	1	10	0.05	2000	1.326929	40.92395	-91.39363
3389461	-22	-1	5	-0.5901379	-0.2780493	-60.64659	0	11.23	20032	0	0	5	5	0.02	0.6504119	1	10	0.05	2000	1.306755	40.92395	-91.39363
3389594	-21	1	3	-0.5924118	-0.2887744	-60.65849	0	11.23	20032	0	0	5	5	0.02	0.6405293	1	10	0.05	2000	1.094588	40.92395	-91.39363
3389662	-22	-3	3	-0.592801	-0.2983879	-60.66606	0	11.23	20032	0	0	5	5	0.02	0.6409157	1	10	0.05	2000	1.308459	40.92395	-91.39363
3389737	-22	1	6	-0.5877317	-0.2901123	-60.67143	0	11.23	20032	0	0	5	5	0.02	0.6402901	1	10	0.05	2000	1.318493	40.92395	-91.39363
3389876	-29	-4	0	-0.5838051	-0.2756338	-60.68901	0	11.23	20032	0	0	5	5	0.02	0.6394264	1	10	0.05	2000	1.523638	40.92395	-91.39363
3389930	-23	-10	7	-0.5845965	-0.280771	-60.69273	0	11.23	20032	0	0	5	5	0.02	0.6402127	1	10	0.05	2000	1.075359	40.92395	-91.39363
3390113	-25	3	6	-0.5630465	-0.2818611	-60.7141	0	11.23	20032	0	0	5	5	0.02	0.6363188	1	10	0.05	2000	1.274792	40.92395	-91.39363
3390146	-23	-1	6	-0.5611445	-0.2833539	-60.71696	0	11.23	20032	0	0	5	5	0.02	0.6326233	1	10	0.05	2000	1.274792	40.92395	-91.39363
3390249	-25	0	7	-0.5600594	-0.2847936	-60.72545	0	11.23	20032	0	0	5	5	0.02	0.6200058	1	10	0.05	2000	1.267251	40.92395	-91.39363
3390340	-19	0	5	-0.5652525	-0.2851304	-60.73827	0	11.17	20032	0	0	5	5	0.02	0.610857	1	10	0.05	2000	1.48961	40.92395	-91.39363
3390418	-23	-1	9	-0.5656516	-0.2899854	-60.74681	0	11.17	20032	0	0	5	5	0.02	0.6004893	1	10	0.05	2000	1.272457	40.92395	-91.39363
3390524	-25	7	7	-0.570103	-0.2768633	-60.7567	0	11.17	20032	0	0	5	5	0.02	0.5888077	1	10	0.05	2000	1.28325	40.92395	-91.39363
3390625	-20	-2	4	-0.5707833	-0.2748221	-60.76494	0	11.17	20032	0	0	5	5	0.02	0.5727116	1	10	0.05	2000	1.512428	40.92395	-91.39363
3390722	-29	2	3	-0.5590813	-0.2793421	-60.77409	0	11.17	20032	0	0	5	5	0.02	0.5675676	1	10	0.05	2000	1.488154	40.92395	-91.39363
3390829	-28	2	10	-0.5561326	-0.2651827	-60.7871	0	11.17	20032	0	0	5	5	0.02	0.5576147	1	10	0.05	2000	1.262958	40.92395	-91.39363
3391002	-22	3	5	-0.5518473	-0.2739156	-60.80169	0	11.17	20032	0	0	5	5	0.02	0.553907	1	10	0.05	2000	1.473273	40.92395	-91.39363
3391068	-22	1	4	-0.5560443	-0.2827274	-60.81273	0	11.17	20032	0	0	5	5	0.02	0.5524285	1	10	0.05	2000	1.254281	40.92395	-91.39363
3391176	-16	-3	7	-0.5571188	-0.2723585	-60.82042	0	11.17	20032	0	0	5	5	0.02	0.5434252	1	10	0.05	2000	1.03891	40.92395	-91.39363
3391275	-35	4	3	-0.5450454	-0.2731126	-60.83135	0	11.17	20032	0	0	5	5	0.02	0.529818	1	10	0.05	2000	1.248254	40.92395	-91.39363
3391300	-35	4	3	-0.5450454	-0.2731126	-60.83135	0	11.17	20032	0	0	5	5	0.02	0.5260599	1	10	0.05	2000	1.248254	40.92395	-91.39363
3391395	-23	-5	9	-0.5497826	-0.2734154	-60.83971	0	11.17	20032	0	0	5	5	0.02	0.5173886	1	10	0.05	2000	1.245473	40.92395	-91.39363
3391584	-30	0	6	-0.5439051	-0.2648893	-60.85826	0	11.17	20032	0	0	5	5	0.02	0.4882319	1	10	0.05	2000	1.233971	40.92395	-91.39363
3391605	-30	0	6	-0.5439051	-0.2648893	-60.85826	0	11.17	20032	0	0	5	5	0.02	0.4845702	1	10	0.05	2000	1.233971	40.92395	-91.39363
3391705	-20	1	6	-0.5463241	-0.2732904	-60.86754	0	11.17	20032	0	0	5	5	0.02	0.4746478	1	10	0.05	2000	1.255202	40.92395	-91.39363
3391843	-23	2	7	-0.5486081	-0.2756564	-60.87688	0	11.17	20032	0	0	5	5	0.02	0.4749343	1	10	0.05	2000	1.247944	40.92395	-91.39363
3391912	-19	3	7	-0.5513176	-0.2754555	-60.88225	0	11.17	20032	0	0	5	5	0.02	0.4761982	1	10	0.05	2000	1.247949	40.92395	-91.39363
3392077	-22	1	3	-0.5438332	-0.2838247	-60.89891	0	11.17	20032	0	0	5	5	0.02	0.4762973	1	10	0.05	2000	1.227515	40.92395	-91.39363
3392102	-23	0	0	-0.5472213	-0.2896862	-60.90111	0	11.17	20032	0	0	5	5	0.02	0.4742969	1	10	0.05	2000	1.238496	40.92395	-91.39363
3392209	-22	-2	13	-0.5484594	-0.2900154	-60.90728	0	11.17	20032	0	0	5	5	0.02	0.4734368	1	10	0.05	2000	1.242498	40.92395	-91.39363
3392305	-21	-4	0	-0.551645	-0.2865231	-60.91765	0	11.17	20032	0	0	5	5	0.02	0.4840528	1	10	0.05	2000	1.477866	40.92395	-91.39363
3392416	-22	1	5	-0.5596761	-0.2891501	-60.92632	0	11.17	20032	0	0	5	5	0.02	0.5057764	1	10	0.05	2000	1.478015	40.92395	-91.39363
3392490	-18	-1	6	-0.5604239	-0.2904672	-60.93676	0	11.17	20032	0	0	5	5	0.02	0.5150676	1	10	0.05	2000	1.499195	40.92395	-91.39363
3392593	-22	-3	7	-0.5506598	-0.2858315	-60.94628	0	11.17	20032	0	0	5	5	0.02	0.5418919	1	10	0.05	2000	1.260162	40.92395	-91.39363
3392734	-21	0	6	-0.5539879	-0.2852767	-60.95299	0	11.17	20032	0	0	5	5	0.02	0.5706477	1	10	0.05	2000	1.257782	40.92395	-91.39362
3392869	-28	-3	6	-0.5486113	-0.2867559	-60.9616	0	11.17	20032	0	0	5	5	0.02	0.5908759	1	10	0.05	2000	1.243905	40.92395	-91.39362
3392917	-22	1	4	-0.5458596	-0.2786393	-60.96709	0	11.17	20032	0	0	5	5	0.02	0.5971191	1	10	0.05	2000	1.248189	40.92395	-91.39362
3393016	-19	1	4	-0.5439351	-0.2789098	-60.97063	0	11.17	20032	0	0	5	5	0.02	0.6152129	1	10	0.05	2000	1.247422	40.92395	-91.39362
3393121	-21	2	9	-0.5467225	-0.2717515	-60.98284	0	11.17	20032	0	0	5	5	0.02	0.6275027	1	10	0.05	2000	1.247839	40.92395	-91.39362
3393182	-23	0	8	-0.5505985	-0.2605894	-60.98943	0	11.17	20032	0	0	5	5	0.02	0.6296088	1	10	0.05	2000	1.036998	40.92395	-91.39362
3393314	-17	4	8	-0.5456163	-0.258655	-61.00164	0	11.17	20032	0	0	5	5	0.02	0.6334419	1	10	0.05	2000	1.247273	40.92395	-91.39362
3393392	-22	0	3	-0.5438769	-0.2622524	-61.00701	0	11.17	20032	0	0	5	5	0.02	0.6394768	1	10	0.05	2000	1.254129	40.92395	-91.39362
3393540	-20	4	11	-0.5438417	-0.2626291	-61.0194	0	11.17	20032	0	0	5	5	0.02	0.6542336	1	10	0.05	2000	1.242901	40.92395	-91.39362
3393603	-25	3	0	-0.5515816	-0.2575385	-61.0288	0	11.17	20032	0	0	5	5	0.02	0.6581818	1	10	0.05	2000	1.038787	40.92395	-91.39362
