time(ms)	gyro_x(deg/s)	gyro_y(deg/s)	gyro_z(deg/s)	orientation_roll(deg)	orientation_pitch(deg)	orientation_yaw(deg)	throttle	battery(V)	loop_time(uS)	pid_output_roll	pid_output_pitch	pid_output_yaw	pid_output_throttle	ultrasonic_alt	baro_alt	flight_mode	p_gain_altitude	i_gain_altitude	d_gain_altitude	compass_heading	latitude	longitude
3086676	-18	1	3	-0.2048068	0.1004014	-10.89254	0	11.74	20030	0	0	5	5	0.02	0.248659	1	10	0.05	2000	2.113858	40.92394	-91.39362
3086742	-19	5	0	-0.2076692	0.09346596	-10.89517	0	11.74	20030	0	0	5	5	0.02	0.2457716	1	10	0.05	2000	2.113858	40.92394	-91.39362
3086874	-19	2	4	-0.201549	0.09439307	-10.90036	0	11.74	20030	0	0	5	5	0.02	0.2419703	1	10	0.05	2000	2.337306	40.92394	-91.39362
3086983	-23	0	-1	-0.1856318	0.1017753	-10.90592	0	11.74	20030	0	0	5	5	0.02	0.2423006	1	10	0.05	2000	2.089398	40.92394	-91.39362
3087075	-24	5	3	-0.1900574	0.09838533	-10.90861	0	11.74	20030	0	0	5	5	0.02	0.2403036	1	10	0.05	2000	2.081532	40.92394	-91.39362
3087160	-15	0	5	-0.1888019	0.09341837	-10.91032	0	11.74	20030	0	0	5	5	0.02	0.2362716	1	10	0.05	2000	2.312911	40.92394	-91.39362
3087260	-24	2	3	-0.1913751	0.09267546	-10.91368	0	11.74	20030	0	0	5	5	0.02	0.2264549	1	10	0.05	2000	2.088653	40.92394	-91.39362
3087365	-16	4	6	-0.1967773	0.09434301	-10.91674	0	11.74	20030	0	0	5	5	0.02	0.2243447	1	10	0.05	2000	2.105172	40.92394	-91.39362
3087494	-21	3	2	-0.1955686	0.09861314	-10.92529	0	11.68	20030	0	0	5	5	0.02	0.2173036	1	10	0.05	2000	1.867248	40.92394	-91.39362
3087602	-15	-4	1	-0.1884832	0.09640426	-10.92908	0	11.68	20030	0	0	5	5	0.02	0.2123	1	10	0.05	2000	2.086508	40.92394	-91.39362
3087688	-14	4	-2	-0.187158	0.106946	-10.93073	0	11.68	20030	0	0	5	5	0.02	0.210225	1	10	0.05	2000	2.081432	40.92394	-91.39362
3087804	-22	1	5	-0.176827	0.09647619	-10.93605	0	11.68	20030	0	0	5	5	0.02	0.2098826	1	10	0.05	2000	2.507577	40.92394	-91.39362
3087899	-18	0	4	-0.1784583	0.09685098	-10.93892	0	11.68	20030	0	0	5	5	0.02	0.2107161	1	10	0.05	2000	2.293504	40.92394	-91.39362
3087966	-25	5	6	-0.1727165	0.1030961	-10.94241	0	11.68	20030	0	0	5	5	0.02	0.2142217	1	10	0.05	2000	2.063292	40.92394	-91.39362
3088066	-21	0	-3	-0.1640227	0.1021431	-10.94302	0	11.68	20030	0	0	5	5	0.02	0.2198844	1	10	0.05	2000	2.055722	40.92394	-91.39362
3088212	-21	2	5	-0.1711242	0.1067979	-10.95035	0	11.68	20030	0	0	5	5	0.02	0.2224033	1	10	0.05	2000	2.05917	40.92394	-91.39362
3088288	-6	9	9	-0.1659406	0.1092138	-10.95432	0	11.68	20030	0	0	5	5	0.02	0.2212554	1	10	0.05	2000	2.06527	40.92394	-91.39362
3088376	-24	1	0	-0.173281	0.1056884	-10.95971	0	11.68	20030	0	0	5	5	0.02	0.2208931	1	10	0.05	2000	2.280058	40.92394	-91.39362
3088520	-16	-1	2	-0.165805	0.09196831	-10.96618	0	11.68	20030	0	0	5	5	0.02	0.228454	1	10	0.05	2000	2.056256	40.92394	-91.39362
3088581	-11	0	-1	-0.1634996	0.08075004	-10.96851	0	11.68	20030	0	0	5	5	0.02	0.2325662	1	10	0.05	2000	2.274181	40.92394	-91.39362
3088699	-26	7	2	-0.1617161	0.08043756	-10.97536	0	11.68	20030	0	0	5	5	0.02	0.241044	1	10	0.05	2000	2.275039	40.92394	-91.39362
3088789	-13	2	6	-0.1583255	0.08061919	-10.97945	0	11.68	20030	0	0	5	5	0.02	0.2375066	1	10	0.05	2000	2.04687	40.92394	-91.39362
3088919	-19	2	4	-0.1563561	0.08886242	-10.98465	0	11.68	20030	0	0	5	5	0.02	0.2175728	1	10	0.05	2000	2.03485	40.92394	-91.39362
3089017	-12	-3	3	-0.14537	0.09492909	-10.9888	0	11.68	20030	0	0	5	5	0.02	0.2091205	1	10	0.05	2000	2.243333	40.92394	-91.39362
3089105	-24	0	3	-0.1472578	0.09121998	-10.99222	0	11.68	20030	0	0	5	5	0.02	0.1993371	1	10	0.05	2000	2.243333	40.92394	-91.39362
3089192	-23	5	4	-0.1500423	0.08113178	-10.99558	0	11.68	20030	0	0	5	5	0.02	0.1891039	1	10	0.05	2000	2.020491	40.92394	-91.39362
3089310	-13	5	7	-0.1486369	0.07174598	-10.99876	0	11.68	20030	0	0	5	5	0.02	0.1860965	1	10	0.05	2000	1.809357	40.92394	-91.39362
3089463	-16	-5	2	-0.1499229	0.06212758	-11.00285	0	11.68	20030	0	0	5	5	0.02	0.17753	1	10	0.05	2000	2.026575	40.92394	-91.39362
3089504	-14	0	0	-0.1501667	0.05662324	-11.0045	0	11.68	20030	0	0	5	5	0.02	0.1748785	1	10	0.05	2000	1.806332	40.92394	-91.39362
3089614	-17	-5	6	-0.1471258	0.06160939	-11.00872	0	11.68	20030	0	0	5	5	0.02	0.1743205	1	10	0.05	2000	2.015507	40.92394	-91.39362
3089707	-19	2	2	-0.140366	0.06111854	-11.01526	0	11.68	20030	0	0	5	5	0.02	0.1753701	1	10	0.05	2000	2.23741	40.92394	-91.39362
3089816	-18	0	6	-0.1401315	0.0681947	-11.01972	0	11.68	20030	0	0	5	5	0.02	0.1766665	1	10	0.05	2000	1.999008	40.92394	-91.39362
3089958	-15	0	5	-0.1227178	0.07784693	-11.02644	0	11.68	20030	0	0	5	5	0.02	0.1870197	1	10	0.05	2000	1.996774	40.92394	-91.39362
3090016	-12	-4	5	-0.1195903	0.07097527	-11.0284	0	11.68	20030	0	0	5	5	0.02	0.1871215	1	10	0.05	2000	2.207132	40.92394	-91.39362
3090128	-16	-1	9	-0.1245127	0.06918538	-11.03176	0	11.68	20030	0	0	5	5	0.02	0.1866837	1	10	0.05	2000	2.432024	40.92394	-91.39362
3090247	-12	-1	2	-0.1250919	0.06071632	-11.03818	0	11.68	20030	0	0	5	5	0.02	0.1833392	1	10	0.05	2000	1.991414	40.92394	-91.39362
3090402	-11	-2	3	-0.1315583	0.05598413	-11.04521	0	11.74	20030	0	0	5	5	0.02	0.1806454	1	10	0.05	2000	2.004735	40.92394	-91.39362
3090430	-9	1	4	-0.12142	0.05457337	-11.04594	0	11.74	20030	0	0	5	5	0.02	0.1806454	1	10	0.05	2000	2.004735	40.92394	-91.39362
3090537	-11	2	1	-0.1283915	0.05194864	-11.04942	0	11.74	20030	0	0	5	5	0.02	0.172231	1	10	0.05	2000	2.203051	40.92394	-91.39362
3090659	-13	2	4	-0.1388808	0.05100997	-11.05602	0	11.74	20030	0	0	5	5	0.02	0.1688566	1	10	0.05	2000	2.008954	40.92394	-91.39362
3090749	-15	-2	-4	-0.1475069	0.05391613	-11.05767	0	11.74	20030	0	0	5	5	0.02	0.1778285	1	10	0.05	2000	2.020403	40.92394	-91.39362
3090889	-9	-1	5	-0.1397003	0.07025166	-11.06506	0	11.74	20030	0	0	5	5	0.02	0.1885967	1	10	0.05	2000	2.236064	40.92394	-91.39362
3091014	-16	-1	3	-0.1496976	0.06937928	-11.06928	0	11.74	20030	0	0	5	5	0.02	0.195984	1	10	0.05	2000	2.233001	40.92394	-91.39362
3091097	-7	2	0	-0.1471429	0.06316704	-11.07295	0	11.74	20030	0	0	5	5	0.02	0.1970392	1	10	0.05	2000	2.033933	40.92394	-91.39362
3091215	-12	-4	5	-0.1451443	0.06776835	-11.07777	0	11.68	20030	0	0	5	5	0.02	0.2018623	1	10	0.05	2000	2.242849	40.92394	-91.39362
3091327	-16	1	3	-0.1468435	0.07587092	-11.08248	0	11.68	20030	0	0	5	5	0.02	0.2028368	1	10	0.05	2000	2.020681	40.92394	-91.39362
3091371	-21	3	2	-0.1466978	0.07470171	-11.084	0	11.68	20030	0	0	5	5	0.02	0.2018547	1	10	0.05	2000	2.013126	40.92394	-91.39362
3091439	-12	5	1	-0.139147	0.0765017	-11.08547	0	11.68	20030	0	0	5	5	0.02	0.2005336	1	10	0.05	2000	2.013126	40.92394	-91.39362
3091548	-10	7	0	-0.1297259	0.07748861	-11.08877	0	11.68	20030	0	0	5	5	0.02	0.2063269	1	10	0.05	2000	1.999846	40.92394	-91.39362
3091645	-6	-7	-6	-0.1148585	0.07750595	-11.09005	0	11.68	20030	0	0	5	5	0.02	0.2198543	1	10	0.05	2000	1.980568	40.92394	-91.39362
3091749	-15	-4	0	-0.1011084	0.07991976	-11.09537	0	11.68	20030	0	0	5	5	0.02	0.2278171	1	10	0.05	2000	2.185345	40.92394	-91.39362
3091876	-19	7	2	-0.08440836	0.09076386	-11.09788	0	11.68	20030	0	0	5	5	0.02	0.2300618	1	10	0.05	2000	1.926171	40.92394	-91.39362
3091977	-12	-5	3	-0.08214559	0.0968648	-11.10338	0	11.68	20030	0	0	5	5	0.02	0.2302192	1	10	0.05	2000	1.924803	40.92394	-91.39362
3092076	-10	2	11	-0.08952849	0.09036155	-11.10583	0	11.68	20030	0	0	5	5	0.02	0.2301604	1	10	0.05	2000	1.930946	40.92394	-91.39362
3092175	-13	-3	5	-0.08336692	0.0865103	-11.10919	0	11.68	20030	0	0	5	5	0.02	0.2320684	3	10	0.05	2000	1.9233	40.92394	-91.39362
3092366	-13	-2	4	-0.07887451	0.08197131	-11.11194	0	11.68	20030	0	0	5	5	0.02	0.2418974	3	10	0.05	2000	2.137281	40.92394	-91.39362
3092411	-14	-1	2	-0.08130391	0.08093865	-11.1145	0	11.68	20030	0	0	5	5	0.02	0.2449453	3	10	0.05	2000	1.919294	40.92394	-91.39362
3092519	-14	2	3	-0.08029098	0.08088826	-11.11756	0	11.68	20030	0	0	5	5	0.02	0.2553304	3	10	0.05	2000	2.140563	40.92394	-91.39362
3092661	-16	-2	-4	-0.07736618	0.08501649	-11.11792	0	11.68	20030	0	0	5	5	0.02	0.2557343	3	10	0.05	2000	2.14235	40.92394	-91.39362
3092736	-5	-4	1	-0.07099472	0.0852667	-11.12122	0	11.68	20030	0	0	5	5	0.02	0.2482041	3	10	0.05	2000	1.684641	40.92394	-91.39362
3092798	-4	-2	1	-0.05616498	0.0924781	-11.12299	0	11.68	20030	0	0	5	5	0.02	0.2469101	3	10	0.05	2000	1.88734	40.92394	-91.39362
3092876	-6	3	-2	-0.04673154	0.08995073	-11.12305	0	11.68	20030	0	0	5	5	0.02	0.2369877	3	10	0.05	2000	1.88734	40.92394	-91.39362
3092968	-19	2	-1	-0.04488782	0.08424384	-11.12483	0	11.68	20030	0	0	5	5	0.02	0.2319931	3	10	0.05	2000	1.870653	40.92394	-91.39362
3093092	-13	0	2	-0.05167311	0.08793125	-11.12684	0	11.68	20030	0	0	5	5	0.02	0.2237038	3	10	0.05	2000	1.884012	40.92394	-91.39362
3093180	-4	-4	-2	-0.05393752	0.07756163	-11.12947	0	11.68	20030	0	0	5	5	0.02	0.2172338	3	10	0.05	2000	1.877956	40.92394	-91.39362
3093292	-5	1	0	-0.05240242	0.08341181	-11.13326	0	11.68	20030	0	0	5	5	0.02	0.2125029	3	10	0.05	2000	1.863517	40.92394	-91.39362
3093376	-8	0	2	-0.0499588	0.08739915	-11.13399	0	11.68	20030	0	0	5	5	0.02	0.2137606	3	10	0.05	2000	1.875094	40.92394	-91.39362
3093504	-15	4	0	-0.05127796	0.0901776	-11.13802	0	11.68	20030	0	0	5	5	0.02	0.2233657	3	10	0.05	2000	2.090743	40.92394	-91.39362
3093569	-11	2	1	-0.05273384	0.08581815	-11.13851	0	11.68	20030	0	0	5	5	0.02	0.2289454	3	10	0.05	2000	1.653106	40.92394	-91.39362
3093718	-7	0	14	-0.06493255	0.07114985	-11.14395	0	11.68	20030	0	0	5	5	0.02	0.2363867	3	10	0.05	2000	1.897275	40.92394	-91.39362
3093789	-14	3	1	-0.06195812	0.07130728	-11.14456	0	11.68	20030	0	0	5	5	0.02	0.2410197	3	10	0.05	2000	2.122086	40.92394	-91.39362
3093908	-7	0	9	-0.05255516	0.07567787	-11.14933	0	11.68	20030	0	0	5	5	0.02	0.2508458	3	10	0.05	2000	1.871797	40.92394	-91.39362
3094057	-7	-1	0	-0.04809162	0.07271387	-11.15336	0	11.68	20030	0	0	5	5	0.02	0.2526504	3	10	0.05	2000	1.870667	40.92394	-91.39362
3094139	-6	-1	0	-0.04614595	0.07027002	-11.15513	0	11.68	20030	0	0	5	5	0.02	0.2527179	3	10	0.05	2000	1.871292	40.92394	-91.39362
3094199	-6	-1	0	-0.04614595	0.07027002	-11.15513	0	11.68	20030	0	0	5	5	0.02	0.2523411	3	10	0.05	2000	1.871292	40.92394	-91.39362
3094344	-6	-3	0	-0.04251876	0.06532102	-11.15868	0	11.68	20030	0	0	5	5	0.02	0.2498083	3	10	0.05	2000	1.862819	40.92394	-91.39362
3094449	-12	-8	8	-0.04947987	0.07004067	-11.16467	0	11.68	20030	0	0	5	5	0.02	0.2520302	3	10	0.05	2000	1.864963	40.92394	-91.39362
3094601	-1	-5	7	-0.03491258	0.06696354	-11.17115	0	11.68	20030	0	0	5	5	0.02	0.2415816	3	10	0.05	2000	1.630876	40.92394	-91.39362
3094682	-11	-3	0	-0.03296106	0.06880581	-11.17311	0	11.68	20030	0	0	5	5	0.02	0.2365478	3	10	0.05	2000	2.082944	40.92394	-91.39362
3094731	-12	-1	0	-0.03041434	0.06953155	-11.17433	0	11.68	20030	0	0	5	5	0.02	0.242603	3	10	0.05	2000	1.62134	40.92394	-91.39362
3094795	-14	2	2	-0.03440988	0.06124307	-11.17806	0	11.68	20030	0	0	5	5	0.02	0.245073	3	10	0.05	2000	1.85071	40.92394	-91.39362
3094941	-7	0	0	-0.03250702	0.06302667	-11.17897	0	11.74	20030	0	0	5	5	0.02	0.2578032	3	10	0.05	2000	1.845804	40.92394	-91.39362
3095039	-6	-20	28	-0.0298324	0.07085516	-11.18233	0	11.74	20030	0	0	5	5	0.02	0.2724343	3	10	0.05	2000	2.09211	40.92394	-91.39362
3095162	-54	64	-82	-0.01021388	-0.01107454	-11.20432	0	11.74	20030	0	0	5	5	0.02	0.2857671	3	10	0.05	2000	1.571828	40.92394	-91.39362
3095279	-6	47	-59	0.0303449	0.03368153	-11.21142	0	11.74	20030	0	0	5	5	0.02	0.2971337	3	10	0.05	2000	1.303839	40.92394	-91.39362
3095351	11	0	0	0.03808594	0.06065738	-11.20255	0	11.74	20030	0	0	5	5	0.02	0.299636	3	10	0.05	2000	1.069713	40.92394	-91.39362
3095446	35	-57	62	0.05600481	0.08583349	-11.20224	0	11.74	20030	0	0	5	5	0.02	0.3026231	3	10	0.05	2000	1.484521	40.92394	-91.39362
3095513	-13	16	109	0.03310223	0.09843623	-11.20799	0	11.74	20030	0	0	5	5	0.02	0.3058497	3	10	0.05	2000	1.727583	40.92394	-91.39362
3095644	-33	-32	-13	0.07993819	0.1224132	-11.21043	0	11.74	20030	0	0	5	5	0.02	0.3020791	3	10	0.05	2000	0.7647785	40.92394	-91.39362
3095797	-77	70	0	0.06027114	0.1277855	-11.19681	0	11.74	20030	0	0	5	5	0.02	0.2961514	3	10	0.05	2000	1.492141	40.92394	-91.39362
3095841	-71	-65	123	0.04739374	0.1493356	-11.20237	0	11.68	20030	0	0	5	5	0.02	0.2916896	3	10	0.05	2000	0.5650969	40.92394	-91.39362
3096005	-81	7	26	0.06570522	0.160652	-11.19821	0	11.68	20030	0	0	5	5	0.02	0.2798733	3	10	0.05	2000	1.210876	40.92394	-91.39362
3096022	-81	7	26	0.06570522	0.160652	-11.19821	0	11.68	20030	0	0	5	5	0.02	0.2734834	3	10	0.05	2000	1.210876	40.92394	-91.39362
3096126	-33	14	34	0.06552386	0.1549943	-11.20047	0	11.68	20030	0	0	5	5	0.02	0.2686328	3	10	0.05	2000	1.445934	40.92394	-91.39362
3096253	-45	-48	44	0.05360416	0.1678053	-11.20274	0	11.68	20030	0	0	5	5	0.02	0.2669233	3	10	0.05	2000	1.683227	40.92394	-91.39362
3096384	100	34	-3	0.06406458	0.1665711	-11.2116	0	11.68	20030	0	0	5	5	0.02	0.2669004	3	10	0.05	2000	1.076508	40.92394	-91.39362
3096456	25	69	-20	0.09539875	0.1632659	-11.22084	0	11.68	20030	0	0	5	5	0.02	0.2687724	3	10	0.05	2000	0.749303	40.92394	-91.39362
3096528	-27	-21	43	0.0778117	0.1529136	-11.22426	0	11.68	20030	0	0	5	5	0.02	0.2653893	3	10	0.05	2000	0.749303	40.92394	-91.39362
3096644	49	30	2	0.06428716	0.135706	-11.21936	0	11.68	20030	0	0	5	5	0.02	0.2641337	3	10	0.05	2000	1.724049	40.92394	-91.39362
3096770	-98	-68	-47	0.05568657	0.1536449	-11.21943	0	11.68	20030	0	0	5	5	0.02	0.2568642	3	10	0.05	2000	0.7691751	40.92394	-91.39362
3096841	-77	-19	80	0.03074661	0.1611482	-11.23165	0	11.68	20030	0	0	5	5	0.02	0.2548835	3	10	0.05	2000	1.923049	40.92394	-91.39362
3096984	-52	25	-29	0.02700149	0.1752355	-11.22878	0	11.68	20030	0	0	5	5	0.02	0.2328348	3	10	0.05	2000	1.523456	40.92394	-91.39362
3097113	80	-58	27	0.05007191	0.1749395	-11.24089	0	11.68	20030	0	0	5	5	0.02	0.2296032	3	10	0.05	2000	1.273343	40.92394	-91.39362
3097132	80	-58	27	0.05007191	0.1749395	-11.24089	0	11.68	20030	0	0	5	5	0.02	0.2293659	3	10	0.05	2000	1.273343	40.92394	-91.39362
3097292	-28	45	3	0.0642495	0.1731748	-11.24774	0	11.68	20030	0	0	5	5	0.02	0.226738	3	10	0.05	2000	1.92	40.92394	-91.39362
3097390	-9	-34	64	0.05441403	0.1592149	-11.26222	0	11.68	20030	0	0	5	5	0.02	0.2283101	3	10	0.05	2000	1.035733	40.92394	-91.39362
3097432	-96	-31	-48	0.05571169	0.1607718	-11.25929	0	11.68	20030	0	0	5	5	0.02	0.2324159	3	10	0.05	2000	1.035733	40.92394	-91.39362
3097592	-119	-65	-71	0.04168295	0.1404102	-11.26901	0	11.68	20030	0	0	5	5	0.02	0.2405862	3	10	0.05	2000	1.001554	40.92394	-91.39362
3097645	-95	-60	56	0.05159812	0.1255408	-11.27756	0	11.68	20030	0	0	5	5	0.02	0.2365658	3	10	0.05	2000	1.001554	40.92394	-91.39362
3097741	-56	-49	11	0.04510961	0.1432086	-11.28655	0	11.68	20030	0	0	5	5	0.02	0.2317822	3	10	0.05	2000	1.489823	40.92394	-91.39362
3097832	1	24	44	0.04622723	0.165148	-11.29053	0	11.68	20030	0	0	5	5	0.02	0.2131109	3	10	0.05	2000	1.240033	40.92394	-91.39362
3097942	27	56	-54	0.08424523	0.1748964	-11.29603	0	11.68	20030	0	0	5	5	0.02	0.2057336	3	10	0.05	2000	1.457717	40.92394	-91.39362
3098045	6	-2	-5	0.114557	0.1597075	-11.31107	0	11.68	20030	0	0	5	5	0.02	0.2030151	3	10	0.05	2000	1.642128	40.92394	-91.39362
3098148	1	40	-21	0.126547	0.186736	-11.30789	0	11.68	20030	0	0	5	5	0.02	0.2005456	3	10	0.05	2000	1.145213	40.92394	-91.39362
3098275	75	-41	29	0.1429079	0.1781971	-11.31683	0	11.68	20030	0	0	5	5	0.02	0.1997572	3	10	0.05	2000	0.9324967	40.92394	-91.39362
3098360	-25	-160	90	0.1055223	0.1821115	-11.31739	0	11.68	20030	0	0	5	5	0.02	0.2025215	3	10	0.05	2000	1.424597	40.92394	-91.39362
3098451	107	-192	156	0.1095281	0.2099452	-11.31365	0	11.68	20030	0	0	5	5	0.02	0.2106133	3	10	0.05	2000	1.192303	40.92394	-91.39362
3098570	24	-112	440	0.06840873	0.2040477	-11.32795	0	11.68	20030	0	0	5	5	0.02	0.2302326	3	10	0.05	2000	1.720411	40.92394	-91.39362
3098684	260	-196	284	0.1780769	0.2305816	-11.32334	0	11.57	20030	0	0	5	5	0.02	0.2494351	3	10	0.05	2000	1.204969	40.92394	-91.39362
3098769	159	58	172	0.1378734	0.2307731	-11.31545	0	11.57	20030	0	0	5	5	0.02	0.2636972	3	10	0.05	2000	1.532489	40.92394	-91.39362
3098845	155	-8	203	0.1762928	0.2431693	-11.31191	0	11.57	20030	0	0	5	5	0.02	0.2683572	3	10	0.05	2000	1.151259	40.92394	-91.39362
3098964	4	184	-408	0.0604614	0.1430516	-11.28586	0	11.57	20030	0	0	5	5	0.02	0.2652124	3	10	0.05	2000	1.570644	40.92394	-91.39362
3099062	-203	-28	-206	0.01382313	0.1542122	-11.28166	0	11.57	20030	0	0	5	5	0.02	0.2530704	3	10	0.05	2000	1.30208	40.92394	-91.39362
3099136	104	102	19	0.05668195	0.1085794	-11.30563	0	11.57	20030	0	0	5	5	0.02	0.2496021	3	10	0.05	2000	1.310939	40.92394	-91.39362
3099280	45	14	370	0.0471615	0.09310299	-11.3368	0	11.57	20030	0	0	5	5	0.02	0.2502641	3	10	0.05	2000	1.500196	40.92394	-91.39362
3099385	-310	-41	-97	0.1073042	0.1008405	-11.31576	0	11.57	20030	0	0	5	5	0.02	0.2502477	3	10	0.05	2000	2.263725	40.92394	-91.39362
3099517	-22	-52	-21	0.1040106	0.112765	-11.31308	0	11.57	20030	0	0	5	5	0.02	0.2556216	3	10	0.05	2000	1.925305	40.92394	-91.39362
3099540	25	-69	4	0.05876284	0.1161611	-11.30433	0	11.63	20030	0	0	5	5	0.02	0.2556216	3	10	0.05	2000	1.925305	40.92394	-91.39362
3099740	45	-11	-294	-0.002456239	0.1631689	-11.27607	0	11.63	20030	0	0	5	5	0.02680555	0.278939	6	10	0.05	2000	1.880505	40.92394	-91.39362
3099806	32	-53	-330	-0.0153838	0.1974598	-11.26221	0	11.63	20030	0	0	5	5	0.02998223	0.2892991	6	10	0.05	2000	1.566572	40.92394	-91.39362
3099887	23	77	216	-0.1691208	0.1540683	-11.30219	0	11.63	20030	0	0	5	5	0.03375057	0.3050659	6	10	0.05	2000	1.587663	40.92394	-91.39362
3099978	196	-47	303	-0.1531212	0.1476297	-11.28242	0	11.63	20030	0	0	5	5	0.03556062	0.3194709	6	10	0.05	2000	1.750221	40.92394	-91.39362
3100045	67	-74	325	-0.1322976	0.165153	-11.25082	0	11.63	20030	0	0	5	5	0.03617174	0.3324129	6	10	0.05	2000	2.567155	40.92394	-91.39362
3100191	-230	-138	-217	-0.132602	0.1978727	-11.22851	0	11.63	20030	0	0	5	5	0.038651	0.3655823	6	10	0.05	2000	2.111024	40.92394	-91.39362
3100247	2	108	221	-0.0604547	0.3563443	-11.27885	0	11.63	20030	0	0	5	5	0.03841084	0.3877847	6	10	0.05	2000	1.857744	40.92394	-91.39362
3100361	52	-187	-122	0.2085409	0.5664146	-11.016	0	11.63	20030	0	0	5	5	0.03813338	0.4160024	6	10	0.05	2000	1.905472	40.92394	-91.39362
3100448	-86	-53	-62	0.3454395	0.4091786	-10.97956	0	11.11	20030	0	0	5	5	0.0397656	0.4513994	6	10	0.05	2000	1.22356	40.92394	-91.39362
3100560	-194	-62	-220	0.197469	0.3139032	-10.75794	0	11.11	20030	0	0	5	5	0.04041954	0.456169	6	10	0.05	2000	0.8007444	40.92394	-91.39362
3100729	-328	721	-305	-0.8232886	3.476936	-10.13885	0	11.11	20030	0	0	5	5	0.047458	0.4919634	6	10	0.05	2000	2.622669	40.92394	-91.39362
3100775	1000	2089	713	-0.1162792	0.9012797	-10.26954	0	11.11	20030	0	0	5	5	0.05211983	0.5001255	6	10	0.05	2000	2.923464	40.92394	-91.39362
3100926	-259	173	-1395	-1.019624	-0.8761191	-9.781975	0	11.11	20030	0	0	5	5	0.06923381	0.5063207	6	10	0.05	2000	3.534223	40.92394	-91.39362
3100961	-106	929	-645	-1.001689	-1.530316	-9.809542	0	11.11	20030	0	0	5	5	0.08086673	0.5100643	6	10	0.05	2000	3.534223	40.92394	-91.39362
3101075	-499	-2881	-829	-1.426182	-1.697957	-9.63291	0	11.11	20030	0	0	5	5	0.1293193	0.5234522	6	10	0.05	2000	3.867996	40.92394	-91.39362
3101178	1149	1962	54	-1.300975	-2.327109	-9.212806	0	11.11	39196174	0	0	5	5	0.217068	0.5541239	8	10	0.05	2000	3.860043	40.92394	-91.39362
3101267	6065	-5201	1123	3.836256	-0.9166494	-10.38813	0	11.11	20009	0	0	5	5	0.1582426	0.5767624	8	10	0.05	2000	3.408823	40.92394	-91.39362
3101343	-1407	549	760	4.686993	2.718747	-12.17433	0	11.46	20080	0	0	5	5	0.1281765	0.5977832	8	10	0.05	2000	6.231964	40.92394	-91.39362
3101442	-914	740	-786	1.697955	-0.3040415	-12.07367	0	11.46	20034	5	0	5	5	0.09344064	0.6335082	8	10	0.05	2000	9.559549	40.92394	-91.39362
3101532	-1121	1308	51	0.2623303	-0.4438287	-11.58696	0	11.46	20034	6	0	5	5	0.06811823	0.6839669	8	10	0.05	2000	9.60801	40.92394	-91.39362
3101640	3069	991	-733	0.8992793	-2.457326	-10.29065	0	11.46	20052	12	0	5	5	0.05517577	0.7192855	8	10	0.05	2000	8.167429	40.92394	-91.39362
3101783	-4310	387	-560	-0.630662	-4.296695	-9.794394	0	11.46	20030	12	0	5	5	0.03258074	0.8110285	8	10	0.05	2000	8.772548	40.92394	-91.39362
3101948	979	903	-343	-2.784298	-3.120273	-10.58015	0	11.46	20050	18	-2	5	5	0.02	0.9683204	8	10	0.05	2000	6.547501	40.92394	-91.39362
3102122	-184	-741	-429	-4.720389	0.2922546	-8.665808	0	11.46	20053	24	-9	5	5	0.02	1.196064	8	10	0.05	2000	5.845905	40.92394	-91.39362
3102267	310	254	-238	-2.868336	-2.11625	-10.50954	0	10.38	20055	33	-9	5	5	0.02	1.410712	8	10	0.05	2000	5.129246	40.92394	-91.39362
3102396	-1422	-559	-434	-1.269449	-2.040411	-11.3144	0	10.38	20008	39	-9	5	5	0.02	1.500202	8	10	0.05	2000	3.868251	40.92394	-91.39362
3102439	-493	-661	-594	-1.974929	-1.820446	-11.06851	0	10.38	20038	39	-9	5	5	0.02	1.656316	8	10	0.05	2000	3.706135	40.92394	-91.39362
3102549	-604	-643	-692	-2.191269	-1.795968	-10.96249	0	10.38	20039	48	-6	5	5	0.02	1.84977	8	10	0.05	2000	2.730097	40.92394	-91.39362
3102652	-16	111	-911	-2.252833	-2.027527	-10.72329	0	10.38	20036	48	-6	5	5	0.02	2.045851	8	10	0.05	2000	3.321117	40.92394	-91.39362
3102843	-931	-2339	-1166	-4.555377	0.1810169	-10.79	0	10.38	20035	57	-6	5	5	0.02	2.288866	8	10	0.05	2000	2.43864	40.92394	-91.39361
3102941	-885	1262	903	-2.363201	-2.449492	-9.959518	0	10.38	20072	66	-6	5	5	0.02	2.36105	8	10	0.05	2000	2.407193	40.92394	-91.39361
3103043	-1019	-486	-261	-2.760991	-3.184688	-10.13642	0	10.38	20047	66	-6	5	5	0.02	2.52749	8	10	0.05	2000	2.595504	40.92394	-91.39361
3103157	-1539	525	486	-5.210761	-2.241203	-10.83522	0	10.38	20032	75	-9	5	5	0.02	2.627774	8	10	0.05	2000	1.500805	40.92394	-91.3936
3103295	-72	-358	-885	-4.6147	-2.93237	-10.77313	0	11.29	20027	81	-9	5	5	0.02	2.823634	8	10	0.05	2000	-1.206696	40.92394	-91.3936
3103365	-1331	-1136	-294	-4.959372	-2.918267	-10.55293	0	11.29	20030	81	-9	5	5	0.02	2.901701	8	10	0.05	2000	-0.7459106	40.92394	-91.3936
3103484	-476	-715	-753	-4.984057	-2.705081	-9.786852	0	11.29	20009	89	-9	5	5	0.02	2.984345	8	10	0.05	2000	-3.601929	40.92394	-91.3936
3103545	-1009	-753	-79	-5.093448	-2.695954	-9.783529	0	11.29	20008	90	-9	5	5	0.02	3.047402	8	10	0.05	2000	-4.328644	40.92394	-91.3936
3103685	-1480	-713	918	-5.81913	-1.486061	-11.04161	0	11.29	20035	99	-12	5	5	0.02	3.264996	8	10	0.05	2000	-6.254547	40.92394	-91.39359
3103748	-1926	-1009	-141	-6.529644	-1.627577	-11.27128	0	11.29	20035	99	-12	5	5	0.02	3.279262	8	10	0.05	2000	-6.763641	40.92394	-91.39359
3103840	-19	108	-634	-7.328656	-1.914852	-10.63781	0	11.29	20067	122	-17	5	5	0.02	3.372246	8	10	0.05	2000	-10.18204	40.92393	-91.39359
3104012	-1935	-1062	981	-7.577287	-2.495291	-10.1097	0	11.29	20008	105	-20	5	5	0.02	3.474679	8	10	0.05	2000	-13.75354	40.92393	-91.39359
3104064	-1658	-448	670	-8.326533	-1.941296	-10.44733	0	11.29	20060	105	-21	5	5	0.02	3.538157	8	10	0.05	2000	-15.05035	40.92393	-91.39359
3104179	1541	1408	-763	-6.696374	-3.671296	-10.38341	0	10.77	20063	105	-26	5	5	0.02	3.580842	8	10	0.05	2000	-17.02365	40.92393	-91.39359
3104377	1057	900	437	-7.956828	-2.726508	-10.58525	0	10.77	20006	99	-30	5	5	0.02	3.686341	8	10	0.05	2000	-21.35248	40.92393	-91.39359
3104498	-1021	-485	767	-6.784498	-3.397388	-10.65497	0	10.77	20031	99	-30	5	5	0.02	3.705847	8	10	0.05	2000	-21.57095	40.92393	-91.39359
3104687	-699	924	-191	-9.255519	-1.946441	-10.99763	0	10.77	20015	93	-36	5	5	0.02	3.726064	8	10	0.05	2000	-23.68634	40.92393	-91.3936
3104758	142	758	58	-9.098807	-2.893388	-10.85434	0	10.77	20010	84	-42	5	5	0.02	3.730126	8	10	0.05	2000	-23.08191	40.92393	-91.3936
3104878	409	283	-175	-6.731514	-2.722595	-10.35648	0	10.77	20031	84	-42	5	5	0.02	3.737426	8	10	0.05	2000	-24.5972	40.92393	-91.3936
3104954	2686	1094	238	-5.620052	-3.065559	-10.52901	0	10.77	20030	72	-51	5	5	0.02	3.739921	8	10	0.05	2000	-24.76068	40.92393	-91.39361
3105047	3619	417	138	0.008739062	-4.344651	-10.53744	0	10.32	20051	72	-51	5	5	0.02	3.739255	8	10	0.05	2000	-24.10828	40.92393	-91.39361
3105155	1404	770	-255	2.218616	-4.124662	-11.03433	0	10.32	20031	72	-51	5	5	0.02	3.732912	8	10	0.05	2000	-18.9136	40.92393	-91.39361
3105255	2283	-210	-276	3.580251	-4.360689	-10.9619	0	10.32	20032	72	-51	5	5	0.02	3.717944	8	10	0.05	2000	-16.67923	40.92392	-91.39362
3105439	238	1504	-1041	5.353852	-4.498076	-10.27116	0	10.32	20030	42	-63	5	5	0.02	3.645137	8	10	0.05	2000	-9.709534	40.92392	-91.39362
3105516	-1103	679	-53	1.438759	-4.988964	-10.55588	0	10.32	20036	21	-72	5	5	0.02	3.618491	8	10	0.05	2000	-5.054321	40.92392	-91.39362
3105605	236	-143	-758	0.5749233	-4.994141	-10.57095	0	10.32	20012	3	-78	5	5	0.02	3.523006	8	10	0.05	2000	-2.990845	40.92392	-91.39362
3105683	938	1763	1162	0.9601759	-5.502183	-10.24098	0	10.32	20026	3	-78	5	5	0.02	3.468386	8	10	0.05	2000	-3.999023	40.92392	-91.39362
3105735	359	2167	751	0.8150719	-7.600049	-9.821357	0	10.32	20030	3	-78	5	5	0.02	3.414304	8	10	0.05	2000	-1.303375	40.92392	-91.39362
3105829	65	-642	1319	-1.283662	-6.127006	-9.951189	0	10.32	20055	-12	-84	5	5	0.02	3.342632	8	10	0.05	2000	-0.5724182	40.92391	-91.39363
3105999	-2301	1037	1989	0.2526114	-7.149626	-9.969508	0	10.72	20055	-26	-87	5	5	0.02	3.228312	8	10	0.05	2000	1.552534	40.92391	-91.39364
3106175	306	-1560	-1026	-1.465193	-6.307399	-11.79341	0	10.72	20029	-39	-93	5	5	0.02	3.081394	8	10	0.05	2000	4.340303	40.92391	-91.39364
3106323	1558	1474	-405	-2.869463	-2.441387	-11.35387	0	10.72	20033	-50	-96	5	5	0.02	2.96392	8	10	0.05	2000	6.570389	40.92391	-91.39364
3106359	1777	1783	-468	-1.616074	-3.56846	-11.20097	0	10.72	20032	-51	-96	5	5	0.02	2.932302	8	10	0.05	2000	6.541451	40.92391	-91.39365
3106430	1677	1201	-675	-0.3739259	-4.687395	-10.92335	0	10.72	20032	-51	-96	5	5	0.02	2.898523	8	10	0.05	2000	7.816133	40.92391	-91.39365
3106593	1697	815	419	0.1170375	-4.841493	-12.9336	0	10.72	20039	-60	-96	5	5	0.02	2.765467	8	10	0.05	2000	9.769507	40.92391	-91.39365
3106653	1723	458	-344	0.7120188	-4.365652	-13.07629	0	10.72	20036	-60	-96	5	5	0.02	2.748327	8	10	0.05	2000	10.1567	40.92391	-91.39365
3106762	1833	1840	-884	3.625114	-7.173155	-11.66621	0	10.72	20012	-69	-96	5	5	0.02	2.660451	8	10	0.05	2000	10.58834	40.92391	-91.39365
3106871	390	-305	369	4.693811	-7.06643	-10.8918	0	10.55	20027	-69	-96	5	5	0.02	2.58018	8	10	0.05	2000	10.57893	40.92391	-91.39365
3106974	3	-84	0	3.097219	-6.119998	-10.10981	0	10.55	20059	-78	-93	5	5	0.02	2.497239	8	10	0.05	2000	10.68282	40.92391	-91.39365
3107083	577	-1057	1047	5.586733	-4.573057	-9.985756	0	10.55	20032	-75	-81	5	5	0.02	2.47839	8	10	0.05	2000	10.65796	40.92391	-91.39365
3107182	417	1357	956	4.282272	-4.027301	-11.68444	0	10.55	20034	-75	-81	5	5	0.02	2.442036	8	10	0.05	2000	12.34084	40.92391	-91.39365
3107243	138	135	208	4.719404	-4.695451	-11.83124	0	10.55	20057	-72	-69	5	5	0.02	2.438744	8	10	0.05	2000	12.84127	40.92391	-91.39365
3107418	-2635	-881	-1068	1.870612	-5.194418	-10.05447	0	10.55	20016	-72	-69	5	5	0.02	2.465335	8	10	0.05	2000	12.92925	40.92392	-91.39365
3107487	-3203	-2097	-826	0.245832	-4.517986	-9.829453	0	10.55	20031	-69	-57	5	5	0.02	2.479556	8	10	0.05	2000	11.56417	40.92392	-91.39365
3107623	-820	-3986	1330	-4.068453	2.611855	-9.612679	0	10.55	20011	-60	-42	5	5	0.02	2.526584	8	10	0.05	2000	12.00685	40.92392	-91.39365
3107681	-3540	-5123	130	-6.58498	7.862611	-10.18644	0	10.55	20010	-60	-42	5	5	0.02	2.536742	8	10	0.05	2000	12.25348	40.92393	-91.39365
3107761	-2651	-5524	967	-9.606976	11.77421	-10.69356	0	10.49	20051	-60	-42	5	5	0.02	2.582141	8	10	0.05	2000	12.9627	40.92393	-91.39365
3107902	-1884	-2661	209	-10.42218	16.04437	-10.98622	0	10.49	20014	-36	-21	5	5	0.02	2.6693	8	10	0.05	2000	14.10174	40.92393	-91.39364
3108056	-1092	-599	-1244	-15.07649	16.34185	-10.05196	0	10.49	20039	-21	0	5	5	0.02	2.790275	8	10	0.05	2000	13.02244	40.92394	-91.39363
3108204	1275	616	941	-7.669825	5.374511	-9.818106	0	10.49	20056	-6	15	5	5	0.02	2.902876	8	10	0.05	2000	6.069658	40.92395	-91.39363
3108287	1896	-809	-799	-4.97647	4.354725	-9.953787	0	10.49	20030	-6	15	5	5	0.02	2.942408	8	10	0.05	2000	3.691703	40.92395	-91.39363
3108367	286	1918	1210	-2.774142	0.9006811	-10.81841	0	10.49	20033	9	30	5	5	0.02	2.980724	8	10	0.05	2000	3.651207	40.92395	-91.39362
3108446	-141	285	1257	-2.705381	-0.9630007	-11.04442	0	10.49	20045	9	30	5	5	0.02	2.994872	8	10	0.05	2000	3.053865	40.92395	-91.39362
3108554	-345	853	799	-2.518249	-2.663017	-11.09402	0	10.49	20014	20	38	5	5	0.02	2.9969	8	10	0.05	2000	2.11312	40.92395	-91.39362
3108687	-1417	355	538	-5.344816	-3.863064	-10.31051	0	11.34	20033	29	47	5	5	0.02	2.987845	8	10	0.05	2000	0.3039658	40.92395	-91.39362
3108763	-2720	-2031	-1217	-7.570076	-3.306169	-10.00135	0	11.34	20031	30	48	5	5	0.02	2.982091	8	10	0.05	2000	-0.7644043	40.92396	-91.39362
3108933	199	-505	33	-7.251128	-1.0838	-10.39048	0	11.34	20034	42	57	5	5	0.02	2.968059	8	10	0.05	2000	-8.965149	40.92396	-91.39362
3109015	-310	-1367	-697	-6.078	-0.9489501	-10.58753	0	11.34	20029	42	57	5	5	0.02	2.960208	8	10	0.05	2000	-8.773041	40.92396	-91.39362
3109054	-355	-1458	-454	-5.005277	-0.3498134	-10.63548	0	11.34	20038	42	57	5	5	0.02	2.94897	8	10	0.05	2000	-11.67142	40.92396	-91.39362
3109131	329	-350	-157	-5.118493	-0.3626424	-10.57875	0	11.34	20054	48	60	5	5	0.02	2.936658	8	10	0.05	2000	-10.04367	40.92396	-91.39362
3109239	1199	85	-268	-3.682257	-0.1891569	-9.937842	0	11.34	20036	48	60	5	5	0.02	2.917212	8	10	0.05	2000	-15.48743	40.92396	-91.39362
3109375	-1246	-363	86	-5.144442	2.135638	-8.616985	0	11.34	20032	51	63	5	5	0.02	2.875395	8	10	0.05	2000	-14.36081	40.92396	-91.39362
3109437	-1409	-1385	1078	-6.529345	2.284549	-9.100931	0	11.34	20053	56	63	5	5	0.02	2.867453	8	10	0.05	2000	-15.63452	40.92396	-91.39362
3109622	466	2207	-8	-5.385862	-3.303863	-10.4059	0	10.04	20035	57	63	5	5	0.02	2.848168	8	10	0.05	2000	-16.81915	40.92396	-91.39361
3109676	675	365	260	-5.082106	-3.836959	-9.711211	0	10.04	20014	57	63	5	5	0.02	2.848619	8	10	0.05	2000	-17.1937	40.92396	-91.39361
3109759	1428	4105	712	-3.595573	-5.818139	-8.614214	0	10.04	23999	68	75	5	5	0.02	2.856083	8	10	0.05	2000	-16.09622	40.92396	-91.39361
3109830	-445	787	1822	-4.359204	-7.694475	-9.285442	0	10.04	20030	68	68	5	5	0.02	2.863928	8	10	0.05	2000	-11.41412	40.92396	-91.39361
3109931	195	-2647	-306	-5.400363	-1.529795	-10.24549	0	10.04	20058	57	57	5	5	0.02	2.878158	8	10	0.05	2000	-9.694397	40.92396	-91.39361
3110077	-290	-1668	1361	-7.310426	3.322973	-10.88908	0	10.04	20013	57	51	5	5	0.02	2.930266	8	10	0.05	2000	-7.981445	40.92396	-91.39361
3110125	1185	1779	325	-6.655912	3.294316	-10.95905	0	10.04	20052	57	51	5	5	0.02	2.94898	8	10	0.05	2000	-7.906219	40.92396	-91.39361
3110292	1273	2497	-1064	-5.176143	-5.00016	-10.21944	0	10.04	20032	57	42	5	5	0.02	3.047631	8	10	0.05	2000	-14.83633	40.92395	-91.39361
3110395	-933	821	178	-6.104597	-6.106793	-9.685501	0	10.04	20026	54	30	5	5	0.02	3.089772	8	10	0.05	2000	-14.94928	40.92395	-91.39362
3110517	-622	853	1438	-7.010015	-8.229746	-10.74463	0	10.94	20026	54	30	5	5	0.02	3.151377	8	10	0.05	2000	-15.70908	40.92395	-91.39362
3110582	118	-894	416	-6.963657	-7.388516	-10.98794	0	10.94	20032	48	21	5	5	0.02	3.183429	8	10	0.05	2000	-15.70908	40.92395	-91.39362
3110732	-24	-1467	-340	-5.561316	-0.1926559	-10.94697	0	10.94	20014	42	12	5	5	0.02	3.258367	8	10	0.05	2000	-15.54626	40.92395	-91.39362
3110883	309	159	-336	-4.90886	-0.823948	-10.93052	0	10.94	20052	36	0	5	5	0.02	3.315433	8	10	0.05	2000	-17.50543	40.92394	-91.39362
3110974	-204	-804	-297	-5.246267	0.6434694	-10.9933	0	10.94	20039	36	0	5	5	0.02	3.339272	8	10	0.05	2000	-13.86823	40.92394	-91.39362
3111119	965	3529	693	-5.924017	-1.749476	-10.86543	0	10.94	20031	27	-18	5	5	0.02	3.380237	8	10	0.05	2000	-14.89404	40.92393	-91.39362
3111227	1890	4642	138	-3.957696	-7.653045	-10.09626	0	10.94	20051	27	-18	5	5	0.02	3.399507	8	10	0.05	2000	-12.00223	40.92393	-91.39362
3111335	1100	2377	401	-1.130005	-11.06943	-9.82449	0	10.94	20034	27	-18	5	5	0.02	3.410899	8	10	0.05	2000	-12.26566	40.92393	-91.39362
3111510	1029	1963	293	2.288379	-13.51621	-10.09042	0	10.94	20004	3	-51	5	5	0.02	3.41776	8	10	0.05	2000	-7.93158	40.92393	-91.39362
3111541	-761	-68	-191	1.354789	-12.71572	-10.26991	0	10.94	20046	3	-51	5	5	0.02	3.417586	8	10	0.05	2000	-6.359955	40.92393	-91.39362
3111617	-472	-1228	195	0.04784368	-10.50802	-10.40867	0	10.94	20032	-11	-62	5	5	0.02	3.413262	8	10	0.05	2000	-4.949066	40.92392	-91.39363
3111740	942	473	406	0.6400144	-7.874092	-10.39441	0	10.94	20060	-12	-63	5	5	0.02	3.396361	8	10	0.05	2000	-3.670746	40.92392	-91.39363
3111890	395	232	-231	0.617555	-6.01416	-10.56384	0	10.94	20014	-24	-75	5	5	0.02	3.335839	8	10	0.05	2000	-3.439178	40.92392	-91.39364
3111925	682	72	-395	0.5689562	-5.640209	-10.62559	0	10.94	20029	-24	-75	5	5	0.02	3.311625	8	10	0.05	2000	-3.439178	40.92392	-91.39364
3112028	935	150	-211	1.3296	-4.973879	-10.48825	0	10.94	20008	-42	-87	5	5	0.02	3.262324	8	10	0.05	2000	-1.621521	40.92391	-91.39365
3112194	1645	1203	946	2.104568	-5.748516	-9.971327	0	10.94	20028	-51	-90	5	5	0.02	3.166715	8	10	0.05	2000	-1.100769	40.92391	-91.39365
3112232	2060	2246	944	3.258631	-6.84906	-10.04806	0	10.94	20032	-51	-90	5	5	0.02	3.130254	8	10	0.05	2000	-0.7068176	40.92391	-91.39365
3112415	668	-558	71	2.527426	-5.376425	-11.64095	0	10.49	20035	-63	-93	5	5	0.02	3.00974	8	10	0.05	2000	1.534205	40.92391	-91.39365
3112479	926	1056	-13	2.062785	-6.154172	-11.32278	0	10.49	20007	-63	-93	5	5	0.02	2.947067	8	10	0.05	2000	2.873286	40.92391	-91.39365
3112570	2040	131	491	2.727718	-5.442202	-10.69462	0	10.49	20007	-72	-96	5	5	0.02	2.746273	8	10	0.05	2000	3.547518	40.92391	-91.39365
3112681	1023	231	-266	2.946041	-3.216383	-8.368328	0	10.49	20050	-72	-96	5	5	0.02	2.693711	8	10	0.05	2000	2.797539	40.92391	-91.39365
3112730	651	1302	18	3.732543	-4.539027	-7.036907	0	10.49	20024	-72	-96	5	5	0.02	2.668193	8	10	0.05	2000	2.892787	40.92391	-91.39365
3112818	836	175	1381	4.359163	-6.378423	-7.574472	0	10.49	20021	-81	-93	5	5	0.02	2.591436	8	10	0.05	2000	2.99734	40.92391	-91.39365
3112921	355	-1093	864	3.809729	-5.489651	-9.166674	0	10.49	20028	-84	-93	5	5	0.02	2.549317	8	10	0.05	2000	5.192364	40.92391	-91.39365
3113125	-17	276	-246	6.291222	-6.299123	-11.36817	0	10.49	20037	-84	-90	5	5	0.02	2.437947	8	10	0.05	2000	9.41742	40.92391	-91.39365
3113163	218	507	638	6.059944	-6.148659	-11.32792	0	10.49	20062	-84	-90	5	5	0.02	2.425089	8	10	0.05	2000	10.4782	40.92391	-91.39365
3113227	-538	128	409	5.496562	-6.472118	-11.14686	0	10.49	20034	-84	-90	5	5	0.02	2.367037	8	10	0.05	2000	11.07731	40.92391	-91.39365
3113346	-403	-681	-209	5.379907	-6.54453	-10.69067	0	10.49	20050	-81	-87	5	5	0.02	2.334492	8	10	0.05	2000	11.76133	40.92391	-91.39365
3113494	639	1462	1597	5.082402	-6.174005	-11.05266	0	10.49	20005	-72	-78	5	5	0.02	2.289857	8	10	0.05	2000	12.12994	40.92392	-91.39365
3113517	639	1462	1597	5.082402	-6.174005	-11.05266	0	10.49	20005	-72	-78	5	5	0.02	2.279809	8	10	0.05	2000	12.12994	40.92392	-91.39365
3113656	1435	758	-147	5.256341	-8.739101	-10.26348	0	10.49	20031	-63	-66	5	5	0.02	2.264455	8	10	0.05	2000	14.80063	40.92392	-91.39365
3113741	545	740	819	5.829298	-8.72756	-9.66223	0	10.49	20031	-63	-66	5	5	0.02	2.261436	8	10	0.05	2000	13.59278	40.92392	-91.39365
3113826	-1467	-527	1664	5.768324	-8.749825	-10.03967	0	10.49	20033	-48	-51	5	5	0.02	2.26301	8	10	0.05	2000	13.29639	40.92392	-91.39365
3113948	-1625	-4614	-7	1.452679	-2.827464	-10.42141	0	10.49	20008	-48	-51	5	5	0.02	2.260437	8	10	0.05	2000	14.09401	40.92393	-91.39365
3114016	-3812	-6581	-500	0.3523292	-0.6291447	-10.16175	0	10.49	20028	-30	-39	5	5	0.02	2.267337	8	10	0.05	2000	14.09401	40.92393	-91.39364
3114117	-5797	-6324	1327	-9.939083	9.481881	-9.572601	0	11.34	20026	-30	-39	5	5	0.02	2.280747	8	10	0.05	2000	14.48987	40.92393	-91.39364
3114274	-2411	-10	513	-17.72384	14.81929	-11.37292	0	11.34	20031	-9	-21	5	5	0.02	2.34324	8	10	0.05	2000	12.84051	40.92393	-91.39363
3114426	-67	-986	-887	-17.88413	12.71632	-11.44557	0	11.34	20037	12	-9	5	5	0.02	2.452884	8	10	0.05	2000	6.350986	40.92394	-91.39362
3114474	2346	2124	-248	-14.71099	10.83189	-11.04832	0	11.34	20038	12	-9	5	5	0.02	2.46325	8	10	0.05	2000	3.321884	40.92394	-91.39362
3114566	3388	2294	311	-8.701087	5.038885	-10.32419	0	11.34	20032	36	6	5	5	0.02	2.501579	8	10	0.05	2000	-2.274323	40.92394	-91.39362
3114616	113	-6	-979	-6.062246	3.475595	-10.34909	0	11.34	20065	36	6	5	5	0.02	2.502862	8	10	0.05	2000	-4.46701	40.92394	-91.39362
3114719	871	494	-227	-6.761818	2.457692	-10.62444	0	11.34	20054	36	6	5	5	0.02	2.486265	8	10	0.05	2000	-8.712433	40.92394	-91.39362
3114817	-261	2373	-731	-3.263734	0.07648136	-9.539478	0	11.34	20036	60	15	5	5	0.02	2.457997	8	10	0.05	2000	-12.99881	40.92395	-91.39361
3114947	60	-494	903	-6.298412	-1.786937	-8.700143	0	11.34	20037	72	24	5	5	0.02	2.370225	8	10	0.05	2000	-20.18686	40.92395	-91.39361
3115068	-970	62	1073	-5.937296	-0.9231777	-9.033598	0	10.15	20054	72	24	5	5	0.02	2.248839	8	10	0.05	2000	-23.94537	40.92395	-91.39361
3115195	-675	-72	271	-6.731209	-0.9631335	-10.28159	0	10.15	20024	87	27	5	5	0.02	2.065687	8	10	0.05	2000	-26.13791	40.92395	-91.3936
3115366	-1592	-734	669	-7.032146	-0.4647023	-10.99789	0	10.15	20055	93	30	5	5	0.02	1.813028	8	10	0.05	2000	-37.59821	40.92395	-91.3936
3115451	-1073	399	-685	-8.147269	-0.2701943	-11.38943	0	10.15	20040	96	33	5	5	0.02	1.727657	8	10	0.05	2000	-33.1452	40.92395	-91.3936
3115526	-88	1193	-1074	-7.624907	-0.6931269	-11.05802	0	10.15	20033	96	33	5	5	0.02	1.560948	8	10	0.05	2000	-34.96951	40.92395	-91.39359
3115669	3678	1771	-826	-5.855434	-0.790071	-10.01714	0	10.15	20029	99	30	5	5	0.02	1.466349	8	10	0.05	2000	-36.17993	40.92395	-91.39359
3115758	3980	-2016	1097	-1.281188	-0.04532212	-10.60095	0	10.15	20030	99	30	5	5	0.02	1.409272	8	10	0.05	2000	-38.58319	40.92395	-91.39359
3115819	2755	1132	1052	2.855479	0.6473982	-11.65038	0	10.15	20055	99	30	5	5	0.02	1.369099	8	10	0.05	2000	-35.28506	40.92395	-91.39359
3115943	5631	484	-533	12.3209	-1.004291	-12.93375	0	10.38	20008	93	27	5	5	0.02	1.157826	8	10	0.05	2000	-33.94226	40.92395	-91.3936
3116084	-4478	-316	-1673	7.878348	0.7324156	-11.5724	0	10.38	20038	84	24	5	5	0.02	1.084419	8	10	0.05	2000	-19.39673	40.92395	-91.3936
3116147	-1247	-1329	-31	4.555877	1.642683	-11.07992	0	10.38	20055	84	24	5	5	0.02	1.065635	8	10	0.05	2000	-19.39673	40.92395	-91.3936
3116224	-1913	-527	274	1.842507	4.744135	-10.17685	0	10.38	20034	72	18	5	5	0.02	1.042679	8	10	0.05	2000	-17.75348	40.92395	-91.39361
3116378	-1341	-208	-92	-1.404033	2.645768	-10.04222	0	10.38	20036	60	12	5	5	0.02	1.036776	8	10	0.05	2000	-18.20441	40.92395	-91.39361
3116446	3	2004	-267	-2.232365	0.1728083	-10.18228	0	10.38	20056	60	12	5	5	0.02	1.047635	8	10	0.05	2000	-19.0506	40.92395	-91.39361
3116542	-213	1394	-432	-1.332096	-2.506533	-10.1497	0	10.38	20033	48	6	5	5	0.02	1.103988	8	10	0.05	2000	-18.3653	40.92394	-91.39362
3116645	1557	551	886	-2.419282	-1.82458	-9.275013	0	10.38	20028	48	6	5	5	0.02	1.164106	8	10	0.05	2000	-18.87247	40.92394	-91.39362
3116721	143	322	242	-1.626567	-1.831596	-8.97691	0	10.38	20031	48	6	5	5	0.02	1.191389	8	10	0.05	2000	-19.14771	40.92394	-91.39362
3116863	111	-766	-1143	-3.58211	-0.469243	-10.58978	0	11.17	20059	36	-2	5	5	0.02	1.289316	8	10	0.05	2000	-18.37579	40.92394	-91.39362
3116934	251	-728	-645	-2.98983	-0.6710766	-10.41564	0	11.17	20044	21	-9	5	5	0.02	1.345832	8	10	0.05	2000	-19.06363	40.92394	-91.39362
3117141	340	-608	-1799	-3.994209	0.5803835	-9.631838	0	11.17	20049	3	-18	5	5	0.02	1.607627	8	10	0.05	2000	-19.04126	40.92393	-91.39362
3117230	4138	2663	101	-0.03784301	-2.837905	-9.306437	0	11.17	20048	3	-18	5	5	0.02	1.686315	8	10	0.05	2000	-21.17783	40.92393	-91.39362
3117389	1986	2325	1394	6.883185	-7.159168	-10.14404	0	11.17	20009	-12	-27	5	5	0.02	1.879976	8	10	0.05	2000	-13.98541	40.92393	-91.39363
3117535	2495	1594	-977	7.995492	-9.184614	-11.27034	0	11.17	20024	-24	-39	5	5	0.02	2.005003	8	10	0.05	2000	-7.922852	40.92393	-91.39364
3117606	678	1759	892	8.832075	-10.57194	-11.48707	0	11.17	20030	-24	-39	5	5	0.02	2.069064	8	10	0.05	2000	-2.387268	40.92393	-91.39364
3117702	-1015	-1314	-679	5.626928	-9.844652	-10.68165	0	11.17	20033	-39	-51	5	5	0.02	2.152031	8	10	0.05	2000	2.081913	40.92393	-91.39364
3117774	540	-1367	482	4.710335	-7.168135	-10.40927	0	10.38	20055	-39	-51	5	5	0.02	2.213857	8	10	0.05	2000	4.213243	40.92393	-91.39364
3117851	-131	971	432	3.493253	-5.299715	-10.80284	0	10.38	20026	-51	-63	5	5	0.02	2.311359	8	10	0.05	2000	6.262007	40.92392	-91.39365
