time(ms)	gyro_x(deg/s)	gyro_y(deg/s)	gyro_z(deg/s)	orientation_roll(deg)	orientation_pitch(deg)	orientation_yaw(deg)	throttle	battery(V)	loop_time(uS)	pid_output_roll	pid_output_pitch	pid_output_yaw	pid_output_throttle	ultrasonic_alt	baro_alt	flight_mode	p_gain_altitude	i_gain_altitude	d_gain_altitude	compass_heading	latitude	longitude
3270405	-107	32	32	-0.01415928	-0.5449413	-52.58326	0	11.23	20031	0	0	5	5	0.02	0.446909	1	10	0.05	2000	0.4982803	40.92393	-91.39363
3270510	-74	12	0	-0.05200008	-0.4252564	-52.59964	0	11.23	20031	0	0	5	5	0.02	0.4288757	1	10	0.05	2000	0.5423012	40.92393	-91.39363
3270643	-54	0	3	-0.08013819	-0.2946153	-52.61148	0	11.23	20031	0	0	5	5	0.02	0.3963033	1	10	0.05	2000	0.5598532	40.92393	-91.39363
3270748	-62	6	12	-0.1063007	-0.2158061	-52.62895	0	11.23	20031	0	0	5	5	0.02	0.3863536	1	10	0.05	2000	0.3810404	40.92393	-91.39363
3270840	-64	7	8	-0.116436	-0.166102	-52.63774	0	11.23	20031	0	0	5	5	0.02	0.3767543	1	10	0.05	2000	0.8527681	40.92393	-91.39363
3270957	-64	0	11	-0.132012	-0.07988594	-52.65745	0	11.23	20031	0	0	5	5	0.02	0.369612	1	10	0.05	2000	0.6502539	40.92393	-91.39363
3271028	-55	4	7	-0.1408229	-0.04027218	-52.66435	0	11.23	20031	0	0	5	5	0.02	0.3671957	1	10	0.05	2000	0.6502539	40.92393	-91.39363
3271136	-56	-4	5	-0.1543395	0.01424375	-52.67967	0	11.23	20031	0	0	5	5	0.02	0.3636103	1	10	0.05	2000	0.6793742	40.92393	-91.39363
3271256	-54	-8	11	-0.1616745	0.06018162	-52.69291	0	11.23	20031	0	0	5	5	0.02	0.3618324	1	10	0.05	2000	0.685221	40.92393	-91.39363
3271354	-50	1	7	-0.1670465	0.1097178	-52.71409	0	11.23	20031	0	0	5	5	0.02	0.3609132	1	10	0.05	2000	0.9203834	40.92393	-91.39363
3271466	-54	3	6	-0.164327	0.1417392	-52.72606	0	11.23	20031	0	0	5	5	0.02	0.3587824	1	10	0.05	2000	0.9175528	40.92393	-91.39363
3271559	-61	-3	7	-0.173411	0.1731819	-52.73948	0	11.23	20031	0	0	5	5	0.02	0.3586423	1	10	0.05	2000	0.4801334	40.92393	-91.39363
3271647	-53	3	12	-0.1694328	0.1894697	-52.74846	0	11.17	20031	0	0	5	5	0.02	0.358945	1	10	0.05	2000	0.7030045	40.92393	-91.39363
3271796	-60	-4	10	-0.1682315	0.2174363	-52.76891	0	11.17	20031	0	0	5	5	0.02	0.3628951	1	10	0.05	2000	0.4819001	40.92393	-91.39363
3271899	-55	1	12	-0.175399	0.2426866	-52.7882	0	11.17	20031	0	0	5	5	0.02	0.3681312	1	10	0.05	2000	0.4897263	40.92393	-91.39363
3271954	-54	4	8	-0.1758142	0.2479151	-52.79229	0	11.17	20031	0	0	5	5	0.02	0.3691145	1	10	0.05	2000	0.4897263	40.92393	-91.39363
3272083	-60	-1	9	-0.1747507	0.2635215	-52.80986	0	11.17	20031	0	0	5	5	0.02	0.3741947	1	10	0.05	2000	0.7121904	40.92393	-91.39363
3272159	-60	3	4	-0.1771841	0.2733562	-52.82421	0	11.17	20031	0	0	5	5	0.02	0.3768717	1	10	0.05	2000	0.4934458	40.92393	-91.39363
3272263	-54	0	8	-0.1785244	0.2814873	-52.83074	0	11.17	20031	0	0	5	5	0.02	0.3805776	1	10	0.05	2000	0.4967303	40.92393	-91.39363
3272379	-63	0	7	-0.187779	0.3006311	-52.84813	0	11.17	20031	0	0	5	5	0.02	0.3793718	1	10	0.05	2000	0.5012547	40.92394	-91.39363
3272470	-52	2	10	-0.1839005	0.3098548	-52.86174	0	11.17	20031	0	0	5	5	0.02	0.378715	1	10	0.05	2000	0.724255	40.92394	-91.39363
3272621	-44	0	4	-0.1861499	0.3176814	-52.87529	0	11.29	20031	0	0	5	5	0.02	0.3898369	1	10	0.05	2000	0.5053412	40.92394	-91.39363
3272700	-54	5	9	-0.1798345	0.3211805	-52.88756	0	11.29	20031	0	0	5	5	0.02	0.3935993	1	10	0.05	2000	0.7286538	40.92394	-91.39363
3272828	-51	2	9	-0.1801251	0.3245387	-52.90252	0	11.29	20031	0	0	5	5	0.02	0.391469	1	10	0.05	2000	0.7146132	40.92394	-91.39363
3272937	-59	0	0	-0.1790665	0.3389374	-52.91942	0	11.29	20031	0	0	5	5	0.02	0.3858903	1	10	0.05	2000	0.4937278	40.92394	-91.39363
3273014	-53	0	3	-0.1860826	0.3411116	-52.92791	0	11.29	20031	0	0	5	5	0.02	0.3792972	1	10	0.05	2000	0.7153119	40.92394	-91.39363
3273068	-52	-2	8	-0.1859671	0.3388079	-52.93743	0	11.29	20031	0	0	5	5	0.02	0.3785765	1	10	0.05	2000	0.7259686	40.92394	-91.39363
3273175	-59	2	8	-0.180589	0.3521373	-52.95122	0	11.29	20031	0	0	5	5	0.02	0.3784726	1	10	0.05	2000	0.7166087	40.92394	-91.39363
3273299	-54	-1	6	-0.1772023	0.3561985	-52.96697	0	11.29	20031	0	0	5	5	0.02	0.3757834	1	10	0.05	2000	0.7140953	40.92394	-91.39363
3273402	-57	2	10	-0.1781634	0.3570997	-52.97588	0	11.29	20031	0	0	5	5	0.02	0.3697745	1	10	0.05	2000	0.7176612	40.92394	-91.39363
3273487	-57	6	3	-0.1734837	0.3613089	-52.98552	0	11.23	20031	0	0	5	5	0.02	0.3693651	1	10	0.05	2000	0.9267322	40.92394	-91.39363
3273576	-46	0	6	-0.1786796	0.3651352	-52.99694	0	11.23	20031	0	0	5	5	0.02	0.3712798	1	10	0.05	2000	0.4876694	40.92394	-91.39363
3273682	-49	6	12	-0.180397	0.3694222	-53.01311	0	11.23	20031	0	0	5	5	0.02	0.3723057	1	10	0.05	2000	0.7120753	40.92394	-91.39363
3273786	-51	4	9	-0.1753675	0.3743556	-53.02331	0	11.23	20031	0	0	5	5	0.02	0.3681825	1	10	0.05	2000	0.4960506	40.92394	-91.39363
3273933	-53	9	5	-0.1675869	0.3795492	-53.04321	0	11.23	20031	0	0	5	5	0.02	0.3573098	1	10	0.05	2000	0.6990308	40.92394	-91.39363
3273992	-49	-3	10	-0.1700782	0.3804808	-53.04803	0	11.23	20031	0	0	5	5	0.02	0.3505534	1	10	0.05	2000	0.6990308	40.92394	-91.39363
3274089	-58	2	5	-0.1703864	0.381707	-53.06231	0	11.23	20031	0	0	5	5	0.02	0.3495885	1	10	0.05	2000	0.4783534	40.92394	-91.39363
3274215	-63	0	12	-0.1721341	0.3812328	-53.0714	0	11.23	20031	0	0	5	5	0.02	0.3540106	1	10	0.05	2000	0.4849472	40.92394	-91.39363
3274372	-50	-4	2	-0.1662487	0.3790913	-53.10077	0	11.29	20031	0	0	5	5	0.02	0.360689	1	10	0.05	2000	0.7009739	40.92394	-91.39363
3274436	-51	-3	7	-0.1643126	0.3835852	-53.10583	0	11.29	20031	0	0	5	5	0.02	0.3659726	1	10	0.05	2000	0.7009739	40.92394	-91.39363
3274566	-51	4	9	-0.1631601	0.3758651	-53.12158	0	11.29	20031	0	0	5	5	0.02	0.3701006	1	10	0.05	2000	0.4734223	40.92394	-91.39363
3274693	-50	1	10	-0.1622633	0.3791242	-53.13641	0	11.29	20031	0	0	5	5	0.02	0.3743531	1	10	0.05	2000	0.679611	40.92394	-91.39363
3274743	-52	-5	7	-0.1592203	0.3826636	-53.14416	0	11.29	20031	0	0	5	5	0.02	0.3753143	1	10	0.05	2000	0.4659715	40.92394	-91.39363
3274825	-48	0	8	-0.1568713	0.379719	-53.15191	0	11.29	20031	0	0	5	5	0.02	0.3758762	1	10	0.05	2000	0.6847118	40.92394	-91.39363
3274915	-53	0	5	-0.148954	0.3767421	-53.16406	0	11.29	20031	0	0	5	5	0.02	0.3755524	1	10	0.05	2000	0.6784849	40.92394	-91.39363
3274996	-50	2	3	-0.1508341	0.3766447	-53.17724	0	11.29	20031	0	0	5	5	0.02	0.3711126	1	10	0.05	2000	0.6756722	40.92394	-91.39363
3275109	-56	0	8	-0.1462753	0.3787866	-53.18689	0	11.29	20031	0	0	5	5	0.02	0.3590282	1	10	0.05	2000	0.4474374	40.92394	-91.39363
3275214	-55	-1	8	-0.1434937	0.3782881	-53.20227	0	11.29	20031	0	0	5	5	0.02	0.3473168	1	10	0.05	2000	0.6617875	40.92394	-91.39363
3275304	-49	1	3	-0.139225	0.3834996	-53.2124	0	11.29	20031	0	0	5	5	0.02	0.3381185	1	10	0.05	2000	0.6665882	40.92394	-91.39363
3275405	-55	2	8	-0.1360408	0.3884473	-53.22381	0	11.29	20031	0	0	5	5	0.02	0.3351967	1	10	0.05	2000	0.6505751	40.92394	-91.39363
3275553	-53	1	0	-0.1408335	0.3817441	-53.23944	0	11.29	20031	0	0	5	5	0.02	0.3313808	1	10	0.05	2000	0.4272684	40.92394	-91.39363
3275671	-44	5	13	-0.1375373	0.3781532	-53.25439	0	11.29	20031	0	0	5	5	0.02	0.3298638	1	10	0.05	2000	0.6529657	40.92394	-91.39363
3275756	-54	0	11	-0.1283708	0.3764325	-53.26263	0	11.29	20031	0	0	5	5	0.02	0.3283255	1	10	0.05	2000	0.2058103	40.92394	-91.39363
3275803	-57	0	4	-0.1323641	0.3738728	-53.2727	0	11.29	20031	0	0	5	5	0.02	0.3219557	1	10	0.05	2000	0.4148056	40.92394	-91.39363
3275939	-51	1	9	-0.1306227	0.3706251	-53.28888	0	11.29	20031	0	0	5	5	0.02	0.3128234	1	10	0.05	2000	0.4218268	40.92394	-91.39363
3276009	-52	0	8	-0.1347839	0.3753932	-53.29602	0	11.29	20031	0	0	5	5	0.02	0.3084313	1	10	0.05	2000	0.6476367	40.92394	-91.39363
3276094	-48	-2	6	-0.123576	0.3774369	-53.30706	0	11.29	20031	0	0	5	5	0.02	0.2971568	1	10	0.05	2000	0.4194024	40.92394	-91.39363
3276198	-55	3	4	-0.1228766	0.3752601	-53.32049	0	11.23	20031	0	0	5	5	0.02	0.2963415	1	10	0.05	2000	0.6301758	40.92394	-91.39363
3276328	-50	3	10	-0.1232843	0.369045	-53.33648	0	11.23	20031	0	0	5	5	0.02	0.2963727	1	10	0.05	2000	0.4103063	40.92394	-91.39363
3276424	-55	0	4	-0.1214507	0.3700188	-53.34997	0	11.23	20031	0	0	5	5	0.02	0.3004094	1	10	0.05	2000	0.6256329	40.92394	-91.39363
3276523	-47	0	5	-0.1130545	0.371613	-53.35748	0	11.23	20031	0	0	5	5	0.02	0.3037764	1	10	0.05	2000	0.6266811	40.92394	-91.39363
3276628	-48	0	9	-0.1147467	0.3670876	-53.37194	0	11.23	20031	0	0	5	5	0.02	0.3066333	1	10	0.05	2000	0.6171508	40.92394	-91.39363
3276745	-48	4	7	-0.1110568	0.3655282	-53.38177	0	11.23	20031	0	0	5	5	0.02	0.3120832	1	10	0.05	2000	0.6139054	40.92394	-91.39363
3276818	-43	1	7	-0.1144076	0.3655338	-53.38964	0	11.23	20031	0	0	5	5	0.02	0.3157941	1	10	0.05	2000	0.6116916	40.92394	-91.39363
3276910	-51	6	6	-0.1143214	0.3661465	-53.40234	0	11.23	20031	0	0	5	5	0.02	0.3234226	1	10	0.05	2000	0.6189698	40.92394	-91.39363
3277002	-55	0	5	-0.1187397	0.3658618	-53.41333	0	11.23	20031	0	0	5	5	0.02	0.3251501	1	10	0.05	2000	0.6222113	40.92394	-91.39364
3277197	-49	2	4	-0.1061187	0.3562055	-53.43359	0	11.29	20031	0	0	5	5	0.02	0.342759	1	10	0.05	2000	0.831763	40.92394	-91.39364
3277226	-41	-2	5	-0.100599	0.3566474	-53.43695	0	11.29	20031	0	0	5	5	0.02	0.3464304	1	10	0.05	2000	0.5980243	40.92394	-91.39364
3277304	-46	-5	8	-0.09612942	0.3524393	-53.44641	0	11.29	20031	0	0	5	5	0.02	0.3537006	1	10	0.05	2000	0.5935643	40.92394	-91.39364
3277430	-46	-1	7	-0.09190279	0.3547194	-53.45624	0	11.29	20031	0	0	5	5	0.02	0.3747585	1	10	0.05	2000	0.3627498	40.92394	-91.39364
3277556	-50	-1	6	-0.09671049	0.3561553	-53.46924	0	11.29	20031	0	0	5	5	0.02	0.3887957	1	10	0.05	2000	0.5952573	40.92394	-91.39364
3277600	-46	2	8	-0.08933253	0.3540387	-53.47565	0	11.29	20031	0	0	5	5	0.02	0.3902176	1	10	0.05	2000	0.3676261	40.92394	-91.39364
3277736	-45	2	12	-0.09282659	0.3526965	-53.48877	0	11.29	20031	0	0	5	5	0.02	0.390132	1	10	0.05	2000	0.1421828	40.92394	-91.39364
3277866	-47	10	5	-0.08675031	0.3541717	-53.50287	0	11.29	20031	0	0	5	5	0.02	0.3863923	1	10	0.05	2000	0.7978091	40.92394	-91.39364
3277980	-36	0	5	-0.08480347	0.356049	-53.51172	0	11.29	20031	0	0	5	5	0.02	0.3874003	1	10	0.05	2000	0.5761472	40.92394	-91.39364
3278075	-41	0	8	-0.07827468	0.3596899	-53.52625	0	11.29	20031	0	0	5	5	0.02	0.3895921	1	10	0.05	2000	0.5604227	40.92394	-91.39364
3278141	-45	3	3	-0.076403	0.3610362	-53.534	0	11.29	20031	0	0	5	5	0.02	0.3926267	1	10	0.05	2000	0.3351798	40.92394	-91.39364
3278261	-47	7	7	-0.07518615	0.363374	-53.54291	0	11.29	20031	0	0	5	5	0.02	0.3913282	1	10	0.05	2000	0.5598391	40.92394	-91.39364
3278386	-42	2	2	-0.06911526	0.3623758	-53.55725	0	11.29	20031	0	0	5	5	0.02	0.3904954	1	10	0.05	2000	0.5568253	40.92394	-91.39364
3278498	-43	-3	8	-0.05988519	0.3617284	-53.56781	0	11.29	20031	0	0	5	5	0.02	0.3904777	1	10	0.05	2000	0.5365415	40.92394	-91.39364
3278543	-48	-2	5	-0.05647989	0.3592331	-53.57062	0	11.29	20031	0	0	5	5	0.02	0.3861859	1	10	0.05	2000	0.5365415	40.92394	-91.39364
3278606	-41	3	9	-0.05574021	0.3596952	-53.57843	0	11.29	20031	0	0	5	5	0.02	0.3839981	1	10	0.05	2000	0.5295281	40.92394	-91.39364
3278710	-44	2	6	-0.05674475	0.3618471	-53.58759	0	11.29	20031	0	0	5	5	0.02	0.3809202	1	10	0.05	2000	0.5304689	40.92394	-91.39364
3278812	-46	-1	6	-0.04607095	0.3632137	-53.59448	0	11.29	20031	0	0	5	5	0.02	0.3813908	1	10	0.05	2000	0.5222825	40.92394	-91.39364
3278915	-40	0	4	-0.0448435	0.3640942	-53.60559	0	11.29	20031	0	0	5	5	0.02	0.382246	1	10	0.05	2000	0.2909849	40.92394	-91.39364
3279012	-48	2	6	-0.04047332	0.3608956	-53.61249	0	11.29	20031	0	0	5	5	0.02	0.3843752	1	10	0.05	2000	0.5027392	40.92394	-91.39364
3279134	-45	4	6	-0.04100491	0.3635025	-53.62592	0	11.29	20031	0	0	5	5	0.02	0.3910892	1	10	0.05	2000	0.2851944	40.92394	-91.39364
3279214	-48	3	5	-0.03985924	0.3667309	-53.63867	0	11.29	20031	0	0	5	5	0.02	0.3903017	1	10	0.05	2000	0.7243897	40.92394	-91.39364
3279348	-44	0	6	-0.03799592	0.3662892	-53.65363	0	11.29	20031	0	0	5	5	0.02	0.3935769	1	10	0.05	2000	0.2698297	40.92394	-91.39364
3279426	-42	2	9	-0.03428707	0.3646665	-53.65906	0	11.29	20031	0	0	5	5	0.02	0.3937213	1	10	0.05	2000	0.724027	40.92394	-91.39364
3279557	-45	0	4	-0.03342182	0.3560917	-53.66699	0	11.29	20031	0	0	5	5	0.02	0.3932883	1	10	0.05	2000	0.4977671	40.92394	-91.39364
3279609	-35	1	5	-0.03155155	0.3539024	-53.67481	0	11.29	20031	0	0	5	5	0.02	0.392647	1	10	0.05	2000	0.4943058	40.92394	-91.39364
3279706	-42	4	2	-0.02915316	0.3582338	-53.68385	0	11.29	20031	0	0	5	5	0.02	0.3846185	1	10	0.05	2000	0.27074	40.92394	-91.39364
3279829	-47	-1	4	-0.0225583	0.3544909	-53.69691	0	11.29	20031	0	0	5	5	0.02	0.3743408	1	10	0.05	2000	0.2578835	40.92394	-91.39364
3279921	-38	-4	4	-0.01661139	0.3525853	-53.70191	0	11.23	20031	0	0	5	5	0.02	0.3707077	1	10	0.05	2000	0.4761528	40.92394	-91.39364
3280037	-41	-4	10	-0.009484266	0.3529558	-53.71741	0	11.23	20031	0	0	5	5	0.02	0.3588796	1	10	0.05	2000	0.4568851	40.92394	-91.39364
3280145	-43	0	10	-0.007535595	0.3569027	-53.72303	0	11.23	20031	0	0	5	5	0.02	0.3459331	1	10	0.05	2000	0.6778569	40.92394	-91.39364
3280232	-38	2	2	0.0003852144	0.3511869	-53.73262	0	11.23	20031	0	0	5	5	0.02	0.33977	1	10	0.05	2000	0.2232203	40.92394	-91.39364
3280340	-37	3	4	0.0078009	0.3530395	-53.74134	0	11.23	20031	0	0	5	5	0.02	0.3299688	1	10	0.05	2000	0.2132301	40.92394	-91.39364
3280403	-37	2	5	0.00951444	0.3481938	-53.74794	0	11.23	20031	0	0	5	5	0.02	0.3282069	1	10	0.05	2000	0.428989	40.92394	-91.39364
3280498	-38	-1	7	0.009691152	0.3523606	-53.75441	0	11.23	20031	0	0	5	5	0.02	0.3298413	1	10	0.05	2000	0.2095627	40.92394	-91.39364
3280619	-32	1	6	0.01564404	0.3548681	-53.76899	0	11.23	20031	0	0	5	5	0.02	0.3275115	1	10	0.05	2000	0.4202579	40.92394	-91.39364
3280795	-37	4	5	0.02138098	0.353378	-53.78254	0	11.34	20031	0	0	5	5	0.02	0.3363381	1	10	0.05	2000	0.1887178	40.92394	-91.39364
3280858	-44	2	7	0.02151529	0.351042	-53.78675	0	11.34	20031	0	0	5	5	0.02	0.3377442	1	10	0.05	2000	0.6274862	40.92394	-91.39364
3280966	-37	1	2	0.02379619	0.3526872	-53.7942	0	11.34	20031	0	0	5	5	0.02	0.3390751	1	10	0.05	2000	0.4143365	40.92394	-91.39364
3281022	-34	-6	1	0.02742715	0.3573189	-53.79896	0	11.34	20031	0	0	5	5	0.02	0.3413489	1	10	0.05	2000	0.4064318	40.92394	-91.39364
3281122	-44	5	2	0.03866676	0.3594584	-53.80513	0	11.34	20031	0	0	5	5	0.02	0.3411077	1	10	0.05	2000	-0.0491333	40.92394	-91.39364
3281199	-46	-3	5	0.04011482	0.3537016	-53.80952	0	11.34	20031	0	0	5	5	0.02	0.3373234	1	10	0.05	2000	0.3847205	40.92394	-91.39364
3281303	-35	2	3	0.04534461	0.3570971	-53.82215	0	11.34	20031	0	0	5	5	0.02	0.3268597	1	10	0.05	2000	0.1551048	40.92394	-91.39364
3281423	-40	-3	9	0.05102607	0.3604071	-53.83168	0	11.34	20031	0	0	5	5	0.02	0.3195529	1	10	0.05	2000	0.1493456	40.92394	-91.39364
3281494	-32	0	4	0.05099457	0.3610861	-53.83589	0	11.34	20031	0	0	5	5	0.02	0.3210236	1	10	0.05	2000	0.3656217	40.92394	-91.39364
3281598	-39	-2	4	0.05519261	0.3626382	-53.84993	0	11.34	20031	0	0	5	5	0.02	0.3227016	1	10	0.05	2000	0.1384041	40.92394	-91.39364
3281739	-34	2	2	0.06814343	0.3534328	-53.86146	0	11.29	20031	0	0	5	5	0.02	0.3290496	1	10	0.05	2000	0.1211719	40.92394	-91.39364
3281791	-32	7	7	0.06742997	0.3503402	-53.86427	0	11.29	20031	0	0	5	5	0.02	0.3296908	1	10	0.05	2000	0.1211719	40.92394	-91.39364
3281954	-32	2	5	0.0649474	0.3513673	-53.87458	0	11.29	20031	0	0	5	5	0.02	0.3321864	1	10	0.05	2000	0.3427708	40.92394	-91.39364
3282056	-28	3	6	0.0672276	0.3423909	-53.88722	0	11.29	20031	0	0	5	5	0.02	0.3257234	1	10	0.05	2000	0.3452019	40.92394	-91.39364
3282144	-31	-1	4	0.06513139	0.3452999	-53.89363	0	11.29	20031	0	0	5	5	0.02	0.3186699	1	10	0.05	2000	0.3412423	40.92394	-91.39364
3282194	-37	1	2	0.06590511	0.34456	-53.89973	0	11.29	20031	0	0	5	5	0.02	0.3186699	1	10	0.05	2000	0.343164	40.92394	-91.39364
3282313	-34	-2	6	0.07371772	0.345735	-53.91182	0	11.29	20031	0	0	5	5	0.02	0.3098888	1	10	0.05	2000	0.1190009	40.92394	-91.39364
3282415	-41	0	0	0.07678623	0.3390895	-53.91896	0	11.29	20031	0	0	5	5	0.02	0.3060682	1	10	0.05	2000	0.3292392	40.92394	-91.39364
3282551	-38	-1	2	0.08453834	0.3340516	-53.93111	0	11.29	20031	0	0	5	5	0.02	0.302278	1	10	0.05	2000	0.100856	40.92394	-91.39364
3282641	-37	2	3	0.08459254	0.3341188	-53.93642	0	11.29	20031	0	0	5	5	0.02	0.3014455	1	10	0.05	2000	0.3154764	40.92394	-91.39364
3282701	-35	-2	2	0.08583996	0.3385894	-53.9416	0	11.29	20031	0	0	5	5	0.02	0.2994245	1	10	0.05	2000	0.0920801	40.92394	-91.39364
3282789	-38	0	0	0.09409319	0.3437694	-53.94637	0	11.29	20031	0	0	5	5	0.02	0.2976719	1	10	0.05	2000	0.3089641	40.92394	-91.39364
3282943	-32	0	4	0.08409397	0.3436563	-53.95674	0	11.29	20031	0	0	5	5	0.02	0.2900664	1	10	0.05	2000	0.3152863	40.92394	-91.39364
3282993	-31	2	0	0.08090676	0.3460002	-53.96156	0	11.29	20031	0	0	5	5	0.02	0.286596	1	10	0.05	2000	0.3152863	40.92394	-91.39364
3283110	-36	0	8	0.08786006	0.3468428	-53.97224	0	11.29	20031	0	0	5	5	0.02	0.2718485	1	10	0.05	2000	0.3099145	40.92394	-91.39364
3283218	-36	2	6	0.08830927	0.3404823	-53.98604	0	11.29	20031	0	0	5	5	0.02	0.2602798	1	10	0.05	2000	0.09301221	40.92394	-91.39364
3283287	-36	2	1	0.08260655	0.3447328	-53.98983	0	11.29	20031	0	0	5	5	0.02	0.2565178	1	10	0.05	2000	0.3102947	40.92394	-91.39364
3283401	-33	-1	8	0.08373728	0.3421923	-53.99501	0	11.29	20031	0	0	5	5	0.02	0.2468273	1	10	0.05	2000	0.3184138	40.92394	-91.39364
3283537	-32	-5	5	0.07986955	0.3458866	-54.00997	0	11.23	20031	0	0	5	5	0.02	0.2479175	1	10	0.05	2000	0.3228015	40.92394	-91.39364
3283602	-31	7	1	0.08568122	0.343256	-54.01424	0	11.23	20031	0	0	5	5	0.02	0.2416496	1	10	0.05	2000	0.3228015	40.92394	-91.39364
3283687	-35	0	6	0.08589043	0.3396479	-54.01937	0	11.23	20031	0	0	5	5	0.02	0.2369211	1	10	0.05	2000	0.0863151	40.92394	-91.39364
3283834	-34	0	6	0.09258809	0.3394007	-54.0262	0	11.23	20031	0	0	5	5	0.02	0.230176	1	10	0.05	2000	0.08958715	40.92394	-91.39364
3283947	-41	7	4	0.08988376	0.3396643	-54.03719	0	11.23	20031	0	0	5	5	0.02	0.2238179	1	10	0.05	2000	0.3124153	40.92394	-91.39364
3284051	-30	-3	1	0.08836937	0.3448528	-54.04457	0	11.23	20031	0	0	5	5	0.02	0.2167848	1	10	0.05	2000	0.08630107	40.92394	-91.39364
3284165	-35	0	6	0.09772352	0.3406384	-54.05556	0	11.23	20031	0	0	5	5	0.02	0.2097847	1	10	0.05	2000	0.07328358	40.92394	-91.39364
3284248	-28	4	7	0.101722	0.3412282	-54.06044	0	11.23	20031	0	0	5	5	0.02	0.2177501	1	10	0.05	2000	0.07328358	40.92395	-91.39364
3284326	-33	-4	10	0.09791335	0.3453119	-54.06813	0	11.23	20031	0	0	5	5	0.02	0.2171136	1	10	0.05	2000	0.2892258	40.92395	-91.39364
3284470	-36	-4	3	0.1029155	0.3399335	-54.07973	0	11.29	20031	0	0	5	5	0.02	0.2157431	1	10	0.05	2000	0.2939423	40.92395	-91.39364
3284499	-38	-4	5	0.100842	0.3371401	-54.08315	0	11.29	20031	0	0	5	5	0.02	0.2153091	1	10	0.05	2000	0.2939423	40.92395	-91.39364
3284575	-32	0	5	0.1010685	0.3400684	-54.0851	0	11.29	20031	0	0	5	5	0.02	0.2174607	1	10	0.05	2000	0.2895276	40.92395	-91.39364
3284726	-30	3	4	0.1017075	0.3366073	-54.1014	0	11.29	20031	0	0	5	5	0.02	0.2198377	1	10	0.05	2000	0.06790411	40.92395	-91.39364
3284775	-35	-6	5	0.1010529	0.33724	-54.10408	0	11.29	20031	0	0	5	5	0.02	0.2218793	1	10	0.05	2000	0.06790411	40.92395	-91.39364
3284913	-34	3	5	0.1160027	0.3342153	-54.11953	0	11.29	20031	0	0	5	5	0.02	0.2240623	1	10	0.05	2000	0.282308	40.92395	-91.39364
3284963	-30	3	9	0.1250596	0.3396156	-54.12636	0	11.29	20031	0	0	5	5	0.02	0.2198501	1	10	0.05	2000	0.2683577	40.92395	-91.39364
3285065	-38	0	5	0.1254525	0.3412994	-54.13558	0	11.29	20031	0	0	5	5	0.02	0.2163869	1	10	0.05	2000	0.03084384	40.92395	-91.39364
3285195	-33	5	6	0.1162023	0.3468389	-54.14644	0	11.29	20031	0	0	5	5	0.02	0.2130579	1	10	0.05	2000	0.2674935	40.92395	-91.39364
3285262	-32	1	4	0.1116882	0.3391127	-54.14949	0	11.29	20031	0	0	5	5	0.02	0.2148786	1	10	0.05	2000	0.05284233	40.92395	-91.39364
3285386	-29	3	4	0.1158927	0.3358473	-54.15779	0	11.29	20031	0	0	5	5	0.02	0.2168488	1	10	0.05	2000	0.2641892	40.92395	-91.39364
3285512	-28	3	3	0.1195472	0.3370468	-54.16768	0	11.29	20031	0	0	5	5	0.02	0.2296293	1	10	0.05	2000	0.2610748	40.92395	-91.39364
3285618	-27	0	9	0.1282018	0.3344001	-54.17928	0	11.29	20031	0	0	5	5	0.02	0.2360712	1	10	0.05	2000	0.2518271	40.92395	-91.39364
3285674	-27	1	4	0.1296821	0.3348609	-54.18142	0	11.29	20031	0	0	5	5	0.02	0.2484851	1	10	0.05	2000	0.2518271	40.92395	-91.39364
3285824	-31	-7	1	0.1419628	0.3330345	-54.19118	0	11.29	20031	0	0	5	5	0.02	0.2569084	1	10	0.05	2000	0.2325845	40.92395	-91.39364
3285876	-31	0	7	0.1466521	0.3312899	-54.19924	0	11.29	20031	0	0	5	5	0.02	0.2679105	1	10	0.05	2000	0.2222301	40.92395	-91.39364
3285968	-34	2	7	0.144159	0.3306333	-54.20461	0	11.29	20031	0	0	5	5	0.02	0.274523	1	10	0.05	2000	0.2260264	40.92395	-91.39364
3286096	-32	0	5	0.1515721	0.3316566	-54.21492	0	11.29	20031	0	0	5	5	0.02	0.2830133	1	10	0.05	2000	0.2271515	40.92395	-91.39364
3286289	-26	0	3	0.1581116	0.3375828	-54.22799	0	11.23	20031	0	0	5	5	0.02	0.2984035	1	10	0.05	2000	0.2132873	40.92395	-91.39363
3286386	-28	0	0	0.1620335	0.3406333	-54.2314	0	11.23	20031	0	0	5	5	0.02	0.3056406	1	10	0.05	2000	-0.01904297	40.92395	-91.39363
3286502	-30	0	4	0.1618124	0.3384696	-54.24025	0	11.23	20031	0	0	5	5	0.02	0.3122479	1	10	0.05	2000	0.1930715	40.92395	-91.39363
3286577	-32	-4	7	0.1637586	0.3383707	-54.24526	0	11.23	20031	0	0	5	5	0.02	0.3169289	1	10	0.05	2000	-0.02365112	40.92395	-91.39363
3286680	-24	6	8	0.1693801	0.3428351	-54.25197	0	11.23	20031	0	0	5	5	0.02	0.3250056	1	10	0.05	2000	-0.02923584	40.92395	-91.39363
3286881	-25	2	8	0.1710385	0.3486357	-54.26577	0	11.23	20031	0	0	5	5	0.02	0.3371997	1	10	0.05	2000	0.18932	40.92395	-91.39363
3286910	-25	2	8	0.1710385	0.3486357	-54.26577	0	11.23	20031	0	0	5	5	0.02	0.3403929	1	10	0.05	2000	0.18932	40.92395	-91.39363
3286983	-27	-2	0	0.1754949	0.3493878	-54.27163	0	11.23	20031	0	0	5	5	0.02	0.3436942	1	10	0.05	2000	-0.04064941	40.92395	-91.39363
3287086	-33	5	5	0.1757842	0.348476	-54.27614	0	11.23	20031	0	0	5	5	0.02	0.3452126	1	10	0.05	2000	-0.043396	40.92395	-91.39363
3287189	-30	4	0	0.1724752	0.342243	-54.28664	0	11.23	20031	0	0	5	5	0.02	0.3446824	1	10	0.05	2000	-0.03530884	40.92395	-91.39363
3287334	-20	0	6	0.1699234	0.3398416	-54.29103	0	11.23	20031	0	0	5	5	0.02	0.3446644	1	10	0.05	2000	-0.03457642	40.92395	-91.39363
3287403	-25	-1	0	0.1798347	0.3357969	-54.2969	0	11.23	20031	0	0	5	5	0.02	0.3442108	1	10	0.05	2000	0.1777361	40.92395	-91.39363
3287509	-28	5	7	0.1809996	0.3344697	-54.30062	0	11.23	20031	0	0	5	5	0.02	0.3363023	1	10	0.05	2000	-0.05722046	40.92395	-91.39363
3287586	-30	-1	1	0.1793274	0.3372992	-54.30379	0	11.23	20031	0	0	5	5	0.02	0.3340742	1	10	0.05	2000	-0.05374146	40.92395	-91.39363
3287718	-28	-2	3	0.1736953	0.3426329	-54.31222	0	11.23	20031	0	0	5	5	0.02	0.3292462	1	10	0.05	2000	0.1821469	40.92395	-91.39363
3287791	-28	0	9	0.1775459	0.3389146	-54.31661	0	11.23	20031	0	0	5	5	0.02	0.3273362	1	10	0.05	2000	0.173333	40.92395	-91.39363
3287920	-23	-2	5	0.1928312	0.3409327	-54.32278	0	11.23	20031	0	0	5	5	0.02	0.3279451	1	10	0.05	2000	-0.05886841	40.92395	-91.39363
3287992	-32	0	5	0.1921707	0.3375358	-54.32925	0	11.23	20031	0	0	5	5	0.02	0.3284748	1	10	0.05	2000	0.1535828	40.92395	-91.39363
3288095	-26	4	2	0.1948526	0.3348248	-54.33523	0	11.29	20031	0	0	5	5	0.02	0.3275784	1	10	0.05	2000	-0.07357788	40.92395	-91.39363
3288209	-27	1	7	0.1980589	0.3348435	-54.34145	0	11.29	20031	0	0	5	5	0.02	0.3185712	1	10	0.05	2000	-0.07470703	40.92395	-91.39363
3288312	-25	1	3	0.2004088	0.3273472	-54.34878	0	11.29	20031	0	0	5	5	0.02	0.3140562	1	10	0.05	2000	0.3654321	40.92395	-91.39363
3288476	-25	-5	7	0.2147143	0.3336505	-54.35836	0	11.29	20031	0	0	5	5	0.02	0.3160269	1	10	0.05	2000	-0.1016541	40.92395	-91.39363
3288533	-27	1	7	0.2099368	0.3322223	-54.35964	0	11.29	20031	0	0	5	5	0.02	0.313116	1	10	0.05	2000	-0.1016541	40.92395	-91.39363
3288644	-27	4	3	0.2224521	0.337357	-54.3666	0	11.29	20031	0	0	5	5	0.02	0.3145424	1	10	0.05	2000	0.1259247	40.92395	-91.39363
3288738	-26	-6	3	0.2266776	0.3352183	-54.37533	0	11.29	20031	0	0	5	5	0.02	0.3086701	1	10	0.05	2000	0.09373134	40.92395	-91.39363
3288788	-22	0	3	0.2248067	0.3351195	-54.37753	0	11.29	20031	0	0	5	5	0.02	0.3054775	1	10	0.05	2000	0.1008582	40.92395	-91.39363
3288881	-23	-4	2	0.2235827	0.3398187	-54.38277	0	11.29	20031	0	0	5	5	0.02	0.3046706	1	10	0.05	2000	0.1005645	40.92395	-91.39363
3289046	-27	3	-1	0.2240961	0.3262957	-54.39394	0	11.17	20031	0	0	5	5	0.02	0.3133514	1	10	0.05	2000	0.1021696	40.92395	-91.39363
3289124	-29	0	5	0.2221568	0.3294931	-54.4009	0	11.17	20031	0	0	5	5	0.02	0.3241526	1	10	0.05	2000	-0.336792	40.92395	-91.39363
3289201	-21	2	4	0.2182846	0.3228343	-54.40432	0	11.17	20031	0	0	5	5	0.02	0.3407085	1	10	0.05	2000	0.1110849	40.92395	-91.39363
3289299	-26	2	1	0.2261144	0.3266104	-54.4125	0	11.17	20031	0	0	5	5	0.02	0.3496659	1	10	0.05	2000	0.1117268	40.92395	-91.39363
3289403	-26	0	2	0.2292284	0.3185284	-54.41921	0	11.17	20031	0	0	5	5	0.02	0.3597732	1	10	0.05	2000	-0.1205139	40.92395	-91.39363
3289460	-27	-1	7	0.2304544	0.3124385	-54.42312	0	11.17	20031	0	0	5	5	0.02	0.3645791	1	10	0.05	2000	0.09982671	40.92395	-91.39363
3289579	-20	2	1	0.2260841	0.3105724	-54.42995	0	11.17	20031	0	0	5	5	0.02	0.3722474	1	10	0.05	2000	0.09766151	40.92395	-91.39363
3289661	-19	-4	9	0.2330813	0.3058323	-54.44003	0	11.17	20031	0	0	5	5	0.02	0.3750778	1	10	0.05	2000	-0.1223145	40.92395	-91.39363
3289833	-27	3	1	0.2277523	0.3095909	-54.44772	0	11.17	20031	0	0	5	5	0.02	0.3653127	1	10	0.05	2000	0.09863251	40.92395	-91.39363
3289901	-13	-3	0	0.2327366	0.3068042	-54.45364	0	11.23	20031	0	0	5	5	0.02	0.3632079	1	10	0.05	2000	-0.1202698	40.92395	-91.39363
3289961	-17	0	5	0.2358329	0.307906	-54.45718	0	11.23	20031	0	0	5	5	0.02	0.3560835	1	10	0.05	2000	0.08785411	40.92395	-91.39363
3290117	-25	2	4	0.2289955	0.3081435	-54.46603	0	11.23	20031	0	0	5	5	0.02	0.3487873	1	10	0.05	2000	-0.1260681	40.92395	-91.39363
3290256	-19	1	4	0.2537585	0.3091381	-54.47463	0	11.23	20031	0	0	5	5	0.02	0.3509772	1	10	0.05	2000	0.07024316	40.92395	-91.39363
3290301	-22	0	8	0.2539049	0.3071316	-54.47622	0	11.23	20031	0	0	5	5	0.02	0.349387	1	10	0.05	2000	-0.1629639	40.92395	-91.39363
3290353	-20	0	5	0.2489069	0.3092159	-54.4833	0	11.23	20031	0	0	5	5	0.02	0.3446865	1	10	0.05	2000	-0.1552124	40.92395	-91.39363
3290443	-19	4	7	0.2572148	0.3081045	-54.48965	0	11.23	20031	0	0	5	5	0.02	0.3413267	1	10	0.05	2000	-0.1549377	40.92395	-91.39363
3290621	-22	0	7	0.2550567	0.2999165	-54.49868	0	11.23	20031	0	0	5	5	0.02	0.3384033	1	10	0.05	2000	0.06033972	40.92395	-91.39363
3290646	-22	0	10	0.2582269	0.2991899	-54.50521	0	11.23	20031	0	0	5	5	0.02	0.3401789	1	10	0.05	2000	0.04640244	40.92395	-91.39363
3290709	-18	3	6	0.2532794	0.3005553	-54.5093	0	11.23	20031	0	0	5	5	0.02	0.344234	1	10	0.05	2000	-0.1672058	40.92395	-91.39363
3290812	-24	7	6	0.2569977	0.3014696	-54.51601	0	11.29	20031	0	0	5	5	0.02	0.3554454	1	10	0.05	2000	-0.1702576	40.92395	-91.39363
3290980	-22	4	2	0.2598629	0.3078807	-54.52828	0	11.29	20031	0	0	5	5	0.02	0.3721884	1	10	0.05	2000	0.04972331	40.92395	-91.39363
3291020	-26	-1	4	0.2581843	0.3129118	-54.53085	0	11.29	20031	0	0	5	5	0.02	0.373902	1	10	0.05	2000	0.04972331	40.92395	-91.39363
3291155	-20	8	4	0.265533	0.3186293	-54.5364	0	11.29	20031	0	0	5	5	0.02	0.3748982	1	10	0.05	2000	0.05308644	40.92395	-91.39363
3291269	-23	1	5	0.2640513	0.3131026	-54.54287	0	11.29	20031	0	0	5	5	0.02	0.3612139	1	10	0.05	2000	-0.1767578	40.92395	-91.39363
3291345	-20	1	5	0.2613586	0.3151707	-54.54848	0	11.29	20031	0	0	5	5	0.02	0.3538237	1	10	0.05	2000	0.04653574	40.92395	-91.39363
3291506	-18	0	0	0.2641261	0.3067766	-54.55477	0	11.29	20031	0	0	5	5	0.02	0.340446	1	10	0.05	2000	-0.1813965	40.92395	-91.39363
3291549	-21	0	3	0.2691588	0.3127102	-54.55581	0	11.29	20031	0	0	5	5	0.02	0.3382629	1	10	0.05	2000	0.03640388	40.92395	-91.39363
3291611	-14	-2	0	0.2718901	0.3119417	-54.55837	0	11.29	20031	0	0	5	5	0.02	0.3256266	1	10	0.05	2000	0.033152	40.92395	-91.39363
3291728	-21	4	0	0.2823505	0.3067743	-54.56429	0	11.29	20031	0	0	5	5	0.02	0.3163091	1	10	0.05	2000	0.02633103	40.92395	-91.39363
3291779	-21	1	7	0.2842308	0.2965922	-54.56722	0	11.29	20031	0	0	5	5	0.02	0.3132733	1	10	0.05	2000	-0.4292603	40.92395	-91.39363
3291890	-24	2	0	0.2836607	0.3095015	-54.57082	0	11.29	20031	0	0	5	5	0.02	0.3126862	1	10	0.05	2000	-0.2103577	40.92395	-91.39363
3291980	-20	4	7	0.2929315	0.3086687	-54.57442	0	11.29	20031	0	0	5	5	0.02	0.3157351	1	10	0.05	2000	-0.21521	40.92395	-91.39363
3292114	-19	1	6	0.2994653	0.3174312	-54.58102	0	11.29	20031	0	0	5	5	0.02	0.3226928	1	10	0.05	2000	-0.2247314	40.92395	-91.39363
3292175	-14	0	2	0.2865189	0.3089018	-54.58566	0	11.29	20031	0	0	5	5	0.02	0.318988	1	10	0.05	2000	-0.008239746	40.92395	-91.39363
3292272	-22	1	1	0.2988709	0.3196897	-54.59145	0	11.29	20031	0	0	5	5	0.02	0.3155361	1	10	0.05	2000	-3.051758E-05	40.92395	-91.39363
3292372	-11	-4	5	0.2976947	0.321247	-54.59676	0	11.29	20031	0	0	5	5	0.02	0.3126152	1	10	0.05	2000	-0.2359924	40.92395	-91.39363
3292472	-17	4	1	0.2883999	0.322867	-54.60055	0	11.29	20031	0	0	5	5	0.02	0.3135533	1	10	0.05	2000	-0.2241211	40.92395	-91.39363
3292611	-18	-3	14	0.2752329	0.3175485	-54.60952	0	11.29	20031	0	0	5	5	0.02	0.3181928	1	10	0.05	2000	0.02670131	40.92395	-91.39363
3292711	-17	1	2	0.2797042	0.3216306	-54.61275	0	11.29	20031	0	0	5	5	0.02	0.3176427	1	10	0.05	2000	0.01619418	40.92395	-91.39363
3292773	-18	1	2	0.292796	0.3238529	-54.61605	0	11.29	20031	0	0	5	5	0.02	0.3160444	1	10	0.05	2000	-0.2171631	40.92395	-91.39363
3292915	-15	0	1	0.3019942	0.3083273	-54.62557	0	11.29	20031	0	0	5	5	0.02	0.3175361	1	10	0.05	2000	-0.2452393	40.92395	-91.39363
3292977	-23	2	4	0.3066788	0.3091742	-54.62856	0	11.29	20031	0	0	5	5	0.02	0.3207736	1	10	0.05	2000	-0.2452393	40.92395	-91.39363
3293177	-10	3	0	0.3106725	0.3000416	-54.63772	0	11.29	20031	0	0	5	5	0.02	0.3319326	1	10	0.05	2000	-0.2470093	40.92395	-91.39363
3293222	-10	0	5	0.316076	0.3068042	-54.64175	0	11.29	20031	0	0	5	5	0.02	0.3325025	1	10	0.05	2000	-0.256073	40.92395	-91.39363
3293276	-14	0	-1	0.3212953	0.3085212	-54.64462	0	11.29	20031	0	0	5	5	0.02	0.3317638	1	10	0.05	2000	-0.2641602	40.92395	-91.39363
3293509	-18	-7	7	0.3049657	0.2856178	-54.65243	0	11.34	20031	0	0	5	5	0.02	0.3103461	1	10	0.05	2000	-0.2406006	40.92395	-91.39363
3293625	-12	-5	3	0.3127394	0.2977277	-54.65615	0	11.34	20031	0	0	5	5	0.02	0.3010868	1	10	0.05	2000	-0.2456665	40.92395	-91.39363
3293728	-23	-3	0	0.3169765	0.3023182	-54.66232	0	11.34	20031	0	0	5	5	0.02	0.2895316	1	10	0.05	2000	-0.2528381	40.92395	-91.39363
3293769	-18	1	0	0.3192258	0.3048698	-54.6647	0	11.34	20031	0	0	5	5	0.02	0.2850351	1	10	0.05	2000	-0.03988647	40.92395	-91.39363
3293933	-11	0	0	0.3302288	0.3060712	-54.67184	0	11.34	20031	0	0	5	5	0.02	0.2766161	1	10	0.05	2000	-0.04821777	40.92395	-91.39363
3293986	-11	4	1	0.3364999	0.3049974	-54.6733	0	11.34	20031	0	0	5	5	0.02	0.2789525	1	10	0.05	2000	-0.5076904	40.92395	-91.39363
3294120	-17	2	0	0.3304527	0.2962816	-54.68044	0	11.34	20031	0	0	5	5	0.02	0.2850851	1	10	0.05	2000	-0.2778625	40.92395	-91.39363
3294180	-13	2	4	0.334156	0.2972905	-54.68472	0	11.34	20031	0	0	5	5	0.02	0.2848133	1	10	0.05	2000	-0.05834961	40.92395	-91.39363
3294274	-13	-4	4	0.339151	0.3030712	-54.68844	0	11.34	20031	0	0	5	5	0.02	0.2823927	1	10	0.05	2000	-0.06756592	40.92395	-91.39363
3294400	-11	0	0	0.3416354	0.3012271	-54.69161	0	11.34	20031	0	0	5	5	0.02	0.2813556	1	10	0.05	2000	-0.2973328	40.92395	-91.39363
3294514	-21	2	0	0.333015	0.3055253	-54.69503	0	11.29	20031	0	0	5	5	0.02	0.2806535	1	10	0.05	2000	-0.2872925	40.92395	-91.39363
3294614	-16	4	5	0.3462434	0.3168583	-54.69936	0	11.29	20031	0	0	5	5	0.02	0.2783503	1	10	0.05	2000	-0.06552124	40.92395	-91.39363
3294684	-9	-1	0	0.3532875	0.3135886	-54.70248	0	11.29	20031	0	0	5	5	0.02	0.2762384	1	10	0.05	2000	-0.3050232	40.92395	-91.39363
3294833	-12	5	5	0.3612503	0.3173468	-54.70821	0	11.29	20031	0	0	5	5	0.02	0.2604347	1	10	0.05	2000	-0.1052246	40.92395	-91.39363
3294947	-11	4	7	0.3603795	0.3114412	-54.71346	0	11.29	20031	0	0	5	5	0.02	0.2565244	1	10	0.05	2000	-0.1075745	40.92395	-91.39363
3295063	-14	0	3	0.3615238	0.3068317	-54.72066	0	11.29	20031	0	0	5	5	0.02	0.2626923	1	10	0.05	2000	-0.3245239	40.92395	-91.39363
3295108	-14	-4	-3	0.3636121	0.3077766	-54.7214	0	11.29	20031	0	0	5	5	0.02	0.2672641	1	10	0.05	2000	-0.3245239	40.92395	-91.39363
3295188	-6	5	1	0.3725342	0.3028449	-54.72469	0	11.29	20031	0	0	5	5	0.02	0.2731403	1	10	0.05	2000	-0.1184692	40.92395	-91.39363
3295289	-4	4	2	0.3835136	0.2956781	-54.7261	0	11.29	20031	0	0	5	5	0.02	0.280969	1	10	0.05	2000	-0.132782	40.92395	-91.39363
3295371	-15	-1	3	0.3890245	0.2901293	-54.72909	0	11.29	20031	0	0	5	5	0.02	0.2864262	1	10	0.05	2000	-0.3711853	40.92395	-91.39363
3295475	-13	0	1	0.3927478	0.2960353	-54.73183	0	11.29	20031	0	0	5	5	0.02	0.286974	1	10	0.05	2000	-0.1521912	40.92395	-91.39363
3295579	-14	-1	2	0.3988781	0.306376	-54.73483	0	11.29	20031	0	0	5	5	0.02	0.2835225	1	10	0.05	2000	-0.1589661	40.92395	-91.39363
3295711	-7	0	4	0.3973975	0.3110785	-54.74062	0	11.29	20031	0	0	5	5	0.02	0.2800475	1	10	0.05	2000	-0.375946	40.92395	-91.39363
3295832	-3	4	-2	0.3870609	0.2992671	-54.74117	0	11.29	20031	0	0	5	5	0.02	0.2763801	1	10	0.05	2000	-0.3663025	40.92395	-91.39363
3295940	-10	3	1	0.3911054	0.2888572	-54.74502	0	11.29	20031	0	0	5	5	0.02	0.2731198	1	10	0.05	2000	-0.3707886	40.92395	-91.39363
3295973	-16	-7	6	0.3908041	0.2885981	-54.74538	0	11.29	20031	0	0	5	5	0.02	0.2731198	1	10	0.05	2000	-0.3707886	40.92395	-91.39363
3296081	-13	1	2	0.3935033	0.2876761	-54.7474	0	11.29	20031	0	0	5	5	0.02	0.2820004	1	10	0.05	2000	-0.1525879	40.92395	-91.39363
3296200	-16	2	-5	0.3990349	0.2958527	-54.74978	0	11.29	20031	0	0	5	5	0.02	0.2932482	1	10	0.05	2000	-0.1564331	40.92395	-91.39363
3296312	-19	-4	4	0.3977969	0.2986498	-54.75344	0	11.29	20031	0	0	5	5	0.02	0.3006415	1	10	0.05	2000	-0.165741	40.92395	-91.39363
3296393	-14	-1	1	0.3926197	0.3042778	-54.75515	0	11.29	20031	0	0	5	5	0.02	0.3076081	1	10	0.05	2000	-0.375061	40.92395	-91.39363
3296483	-1	3	5	0.3960867	0.3096703	-54.75912	0	11.29	20031	0	0	5	5	0.02	0.3080915	1	10	0.05	2000	-0.1556091	40.92395	-91.39363
3296550	-7	-4	7	0.3987067	0.3095848	-54.75998	0	11.29	20031	0	0	5	5	0.02	0.3059615	1	10	0.05	2000	-0.1556091	40.92395	-91.39363
3296664	-6	-4	3	0.3958746	0.3174061	-54.76461	0	11.29	20031	0	0	5	5	0.02	0.3006966	1	10	0.05	2000	-0.3797302	40.92395	-91.39363
3296749	-9	2	6	0.3957159	0.3081491	-54.76883	0	11.29	20031	0	0	5	5	0.02	0.2962727	1	10	0.05	2000	-0.3846741	40.92395	-91.39363
3296894	-5	-5	0	0.3983913	0.3080188	-54.77243	0	11.29	20031	0	0	5	5	0.02	0.2933151	1	10	0.05	2000	-0.3841248	40.92395	-91.39363
3296929	-6	3	4	0.3980744	0.3097633	-54.77249	0	11.29	20031	0	0	5	5	0.02	0.2889606	1	10	0.05	2000	-0.3841248	40.92395	-91.39363
3297094	-14	-3	-1	0.3994354	0.3144775	-54.77639	0	11.29	20031	0	0	5	5	0.02	0.286492	1	10	0.05	2000	-0.3926086	40.92395	-91.39363
3297180	-11	1	1	0.4007507	0.310599	-54.78012	0	11.29	20031	0	0	5	5	0.02	0.289344	1	10	0.05	2000	-0.3880615	40.92395	-91.39363
3297231	-2	0	3	0.4026719	0.310562	-54.78164	0	11.29	20031	0	0	5	5	0.02	0.290577	1	10	0.05	2000	-0.3880615	40.92395	-91.39363
3297323	-2	0	1	0.4032934	0.3063115	-54.7825	0	11.29	20031	0	0	5	5	0.02	0.2889746	1	10	0.05	2000	-0.388031	40.92395	-91.39363
3297469	-9	0	6	0.4108584	0.3027004	-54.7886	0	11.29	20031	0	0	5	5	0.02	0.2873845	1	10	0.05	2000	-0.1819458	40.92395	-91.39363
3297551	-4	0	-4	0.4143176	0.3005263	-54.78921	0	11.29	20031	0	0	5	5	0.02	0.2871042	1	10	0.05	2000	-0.4082031	40.92395	-91.39363
3297628	-11	2	0	0.4168999	0.2980366	-54.79141	0	11.29	20031	0	0	5	5	0.02	0.282421	1	10	0.05	2000	-0.1875305	40.92395	-91.39363
3297743	-4	2	-4	0.4252505	0.2926083	-54.79379	0	11.29	20031	0	0	5	5	0.02	0.2745807	1	10	0.05	2000	-0.2007446	40.92395	-91.39363
3297814	-4	0	0	0.4330512	0.2931712	-54.79611	0	11.29	20031	0	0	5	5	0.02	0.2665558	1	10	0.05	2000	-0.4353027	40.92395	-91.39364
3297912	-12	0	0	0.4370565	0.2950582	-54.80032	0	11.29	20031	0	0	5	5	0.02	0.2558034	1	10	0.05	2000	-0.2154846	40.92395	-91.39364
3298074	-7	2	-3	0.435537	0.3063579	-54.8049	0	11.29	20031	0	0	5	5	0.02	0.2597115	1	10	0.05	2000	-0.4354858	40.92395	-91.39364
3298115	-11	0	-1	0.4365375	0.3040561	-54.80941	0	11.29	20031	0	0	5	5	0.02	0.2636587	1	10	0.05	2000	-0.4445496	40.92395	-91.39364
3298242	-2	0	2	0.4387661	0.3000606	-54.81179	0	11.29	20031	0	0	5	5	0.02	0.276603	1	10	0.05	2000	-0.2214661	40.92395	-91.39364
3298316	-5	-4	5	0.4404799	0.3038644	-54.8143	0	11.29	20031	0	0	5	5	0.02	0.2835213	1	10	0.05	2000	-0.2259521	40.92395	-91.39364
3298419	-7	-1	0	0.4383351	0.3094872	-54.81649	0	11.29	20031	0	0	5	5	0.02	0.300159	1	10	0.05	2000	-0.4389954	40.92395	-91.39364
3298535	-9	0	2	0.4348101	0.3105812	-54.82125	0	11.29	20031	0	0	5	5	0.02	0.3117737	1	10	0.05	2000	-0.4379883	40.92395	-91.39364
3298609	-7	-2	2	0.4395897	0.3170223	-54.82406	0	11.29	20031	0	0	5	5	0.02	0.3194062	1	10	0.05	2000	-0.2167053	40.92395	-91.39364
3298720	-12	2	1	0.433162	0.3176179	-54.82876	0	11.29	20031	0	0	5	5	0.02	0.3277751	1	10	0.05	2000	-0.2141113	40.92395	-91.39364
3298867	-11	-3	-2	0.4356245	0.3146077	-54.83218	0	11.29	20031	0	0	5	5	0.02	0.3375966	1	10	0.05	2000	-0.4355774	40.92395	-91.39364
3298913	-17	0	-1	0.4354001	0.3068471	-54.83505	0	11.29	20031	0	0	5	5	0.02	0.3383153	1	10	0.05	2000	-0.4384766	40.92395	-91.39364
3299099	-9	-4	6	0.4393239	0.3016919	-54.83902	0	11.29	20031	0	0	5	5	0.02	0.3467638	1	10	0.05	2000	-0.2200317	40.92395	-91.39364
3299161	-4	4	4	0.4432601	0.3040296	-54.84304	0	11.29	20031	0	0	5	5	0.02	0.3468612	1	10	0.05	2000	-0.223938	40.92395	-91.39364
3299248	-11	-3	5	0.4470822	0.3036439	-54.84549	0	11.29	20031	0	0	5	5	0.02	0.3440612	1	10	0.05	2000	-0.2308655	40.92395	-91.39364
3299314	-8	1	-1	0.4416586	0.3013736	-54.84817	0	11.29	20031	0	0	5	5	0.02	0.3436455	1	10	0.05	2000	-0.2341309	40.92395	-91.39364
3299493	-7	-6	1	0.4524922	0.2988893	-54.85794	0	11.29	20031	0	0	5	5	0.02	0.3507766	1	10	0.05	2000	-0.4613342	40.92395	-91.39364
3299552	-9	0	5	0.4530662	0.2969818	-54.86038	0	11.29	20031	0	0	5	5	0.02	0.352753	1	10	0.05	2000	-0.2428894	40.92395	-91.39364
3299620	-8	0	1	0.4621158	0.2949253	-54.86203	0	11.29	20031	0	0	5	5	0.02	0.3534867	1	10	0.05	2000	-0.4711914	40.92395	-91.39364
3299721	-7	3	1	0.4661677	0.2958764	-54.86472	0	11.29	20031	0	0	5	5	0.02	0.3462415	1	10	0.05	2000	-0.4765015	40.92395	-91.39364
3299821	-4	1	-2	0.4579962	0.2927111	-54.87027	0	11.29	20031	0	0	5	5	0.02	0.3400758	1	10	0.05	2000	-0.0333252	40.92395	-91.39364
3300033	2	-4	0	0.4595768	0.2896739	-54.87863	0	11.23	20031	0	0	5	5	0.02	0.3137725	1	10	0.05	2000	-0.2498474	40.92395	-91.39364
3300160	-1	-6	-1	0.4711915	0.2827778	-54.88419	0	11.23	20031	0	0	5	5	0.02	0.3126267	1	10	0.05	2000	-0.4904175	40.92395	-91.39364
3300214	-8	-2	2	0.4704093	0.2834821	-54.88486	0	11.23	20031	0	0	5	5	0.02	0.3151652	1	10	0.05	2000	-0.2712402	40.92395	-91.39364
3300317	-10	2	6	0.4701162	0.282505	-54.88785	0	11.23	20031	0	0	5	5	0.02	0.3179633	1	10	0.05	2000	-0.2696533	40.92395	-91.39364
3300451	-8	5	4	0.4671633	0.2863524	-54.89206	0	11.23	20031	0	0	5	5	0.02	0.3178403	1	10	0.05	2000	-0.4884338	40.92395	-91.39364
3300531	0	4	4	0.4686773	0.2861853	-54.89737	0	11.23	20031	0	0	5	5	0.02	0.315881	1	10	0.05	2000	-0.4847412	40.92395	-91.39364
