time(ms)	gyro_x(deg/s)	gyro_y(deg/s)	gyro_z(deg/s)	orientation_roll(deg)	orientation_pitch(deg)	orientation_yaw(deg)	throttle	battery(V)	loop_time(uS)	pid_output_roll	pid_output_pitch	pid_output_yaw	pid_output_throttle	ultrasonic_alt	baro_alt	flight_mode	p_gain_altitude	i_gain_altitude	d_gain_altitude	compass_heading	latitude	longitude
3118109	-3462	2	-53	-0.1178362	-6.087404	-10.97504	0	10.38	20034	-60	-75	5	5	0.02	2.472301	8	10	0.05	2000	10.00196	40.92392	-91.39365
3118210	-1292	1977	-301	-4.019864	-5.928413	-10.62843	0	10.38	20004	-66	-84	5	5	0.02	2.51108	8	10	0.05	2000	10.31476	40.92391	-91.39365
3118353	-265	3683	1127	-3.964274	-10.37674	-10.52046	0	10.38	20008	-69	-93	5	5	0.02	2.54618	8	10	0.05	2000	7.429698	40.92391	-91.39365
3118392	-281	1944	-605	-4.116524	-12.28514	-10.42225	0	10.38	20042	-69	-93	5	5	0.02	2.559462	8	10	0.05	2000	6.219874	40.92391	-91.39365
3118497	1135	-2511	-700	-4.155614	-9.530009	-10.56092	0	10.38	20055	-69	-93	5	5	0.02	2.57285	8	10	0.05	2000	4.713872	40.92391	-91.39365
3118632	1231	944	-1190	-0.6950507	-6.293529	-10.95793	0	10.38	20034	-72	-99	5	5	0.02	2.584925	8	10	0.05	2000	6.932673	40.92391	-91.39365
3118730	1628	1774	505	0.8293864	-8.919244	-10.91752	0	10.43	20014	-72	-99	5	5	0.02	2.587813	8	10	0.05	2000	6.42492	40.92391	-91.39365
3118800	-1374	-3953	-1542	0.7991613	-7.687221	-10.37694	0	10.43	20032	-75	-105	5	5	0.02	2.587705	8	10	0.05	2000	6.62107	40.92391	-91.39365
3118987	-2279	-2220	-182	-2.410035	1.099993	-9.837641	0	10.43	20025	-72	-99	5	5	0.02	2.583124	8	10	0.05	2000	7.681691	40.92391	-91.39365
3119024	-1251	-3079	-438	-4.281246	3.184625	-10.13393	0	10.43	20029	-72	-99	5	5	0.02	2.580815	8	10	0.05	2000	6.740297	40.92391	-91.39365
3119099	-1646	-3329	-502	-5.384535	5.811882	-10.51349	0	10.43	20031	-72	-102	5	5	0.02	2.573807	8	10	0.05	2000	6.739968	40.92391	-91.39365
3119254	-2953	527	-524	-8.718787	8.239442	-10.99228	0	10.43	20053	-72	-102	5	5	0.02	2.56504	8	10	0.05	2000	6.455786	40.92391	-91.39365
3119310	332	4578	-252	-11.12002	3.845343	-10.51131	0	10.43	20034	-72	-99	5	5	0.02	2.564684	8	10	0.05	2000	3.419665	40.92391	-91.39365
3119430	-1385	3426	-1276	-9.107704	-4.001966	-9.893574	0	10.43	20025	-72	-99	5	5	0.02	2.554002	8	10	0.05	2000	-0.2062988	40.92391	-91.39365
3119540	1467	1935	485	-8.976818	-8.864833	-10.2886	0	10.43	20044	-72	-99	5	5	0.02	2.544131	8	10	0.05	2000	-4.959351	40.92391	-91.39365
3119632	4086	-861	641	-4.658575	-8.268156	-10.5478	0	10.49	20053	-66	-99	5	5	0.02	2.535343	8	10	0.05	2000	-6.775269	40.92391	-91.39365
3119746	1067	1412	-508	-1.457593	-7.71094	-10.90202	0	10.49	20044	-66	-99	5	5	0.02	2.516743	8	10	0.05	2000	-6.684631	40.92391	-91.39365
3119898	400	665	299	1.923026	-8.591413	-10.43175	0	10.49	20032	-75	-118	5	5	0.02	2.480313	8	10	0.05	2000	-6.301361	40.92391	-91.39365
3119963	1275	767	-368	2.363989	-8.883309	-10.47305	0	10.49	20007	-63	-99	5	5	0.02	2.452395	8	10	0.05	2000	-6.301361	40.92391	-91.39365
3120046	-373	539	612	3.136267	-9.467432	-10.81171	0	10.49	20031	-63	-96	5	5	0.02	2.424299	8	10	0.05	2000	-5.306061	40.92391	-91.39365
3120170	1484	892	753	3.257808	-8.724007	-10.61319	0	10.49	20038	-63	-96	5	5	0.02	2.352782	8	10	0.05	2000	-4.043365	40.92391	-91.39365
3120285	-513	-145	648	3.060507	-8.661069	-10.39732	0	10.49	20013	-57	-90	5	5	0.02	2.312266	8	10	0.05	2000	-2.092926	40.92391	-91.39365
3120409	-4684	-2623	750	-0.1851582	-5.916995	-10.55113	0	10.49	20023	-54	-81	5	5	0.02	2.222515	8	10	0.05	2000	-2.948639	40.92391	-91.39365
3120444	-4476	-1848	440	-2.375089	-4.839688	-10.64057	0	10.49	20007	-54	-81	5	5	0.02	2.210812	8	10	0.05	2000	-2.948639	40.92391	-91.39365
3120519	-2490	-3244	-12	-5.11616	-2.330349	-10.40123	0	10.55	20042	-54	-81	5	5	0.02	2.198389	8	10	0.05	2000	-3.131531	40.92391	-91.39365
3120647	508	1772	500	-7.454144	4.613232	-10.9811	0	10.55	20040	-48	-75	5	5	0.02	2.115245	8	10	0.05	2000	-4.562653	40.92392	-91.39365
3120748	1273	1516	-135	-3.368631	-1.473697	-10.72561	0	10.55	20027	-42	-69	5	5	0.02	2.090428	8	10	0.05	2000	-5.872559	40.92392	-91.39365
3120840	1001	785	214	-2.310254	-2.946674	-10.43585	0	10.55	20029	-42	-69	5	5	0.02	2.048531	8	10	0.05	2000	-7.144043	40.92392	-91.39365
3120975	955	412	-61	-0.2618228	-4.655326	-10.0087	0	10.55	20031	-36	-60	5	5	0.02	2.018513	8	10	0.05	2000	-6.616974	40.92392	-91.39364
3121051	443	-441	571	0.2317639	-4.107851	-9.977032	0	10.55	20030	-36	-60	5	5	0.02	1.978976	8	10	0.05	2000	-6.616974	40.92392	-91.39364
3121170	2405	1380	-479	2.416591	-4.975787	-10.8487	0	10.55	20038	-36	-60	5	5	0.02	1.957227	8	10	0.05	2000	-5.247894	40.92392	-91.39364
3121211	1305	978	1069	3.1141	-5.599133	-10.94038	0	10.55	20030	-36	-60	5	5	0.02	1.923344	8	10	0.05	2000	-4.416473	40.92392	-91.39364
3121316	386	1054	-1418	1.762185	-6.182714	-10.3114	0	10.55	20007	-24	-45	5	5	0.02	1.906222	8	10	0.05	2000	-3.534302	40.92393	-91.39364
3121470	-2070	-62	1717	-1.487218	-6.623657	-9.905126	0	10.89	20029	-24	-45	5	5	0.02	1.872191	8	10	0.05	2000	-3.705719	40.92393	-91.39364
3121589	677	-573	-234	-3.619157	-5.9971	-10.68148	0	10.89	20035	-18	-36	5	5	0.02	1.858486	8	10	0.05	2000	-3.56543	40.92393	-91.39363
3121653	1294	340	-129	-2.187614	-5.634362	-10.81409	0	10.89	20029	-18	-36	5	5	0.02	1.851349	8	10	0.05	2000	-5.925018	40.92393	-91.39363
3121713	1294	340	-129	-2.187614	-5.634362	-10.81409	0	10.89	20029	-12	-27	5	5	0.02	1.847353	8	10	0.05	2000	-5.925018	40.92393	-91.39363
3121850	-252	-1615	-1540	-0.711403	-5.132227	-10.33481	0	10.89	20056	-12	-27	5	5	0.02	1.845517	8	10	0.05	2000	-4.755219	40.92393	-91.39363
3121916	1169	289	-835	0.1065493	-4.949601	-9.716394	0	10.89	20027	-9	-18	5	5	0.02	1.855163	8	10	0.05	2000	-5.930389	40.92393	-91.39363
3122044	507	-957	626	-0.1973824	-3.56849	-10.26874	0	10.89	20031	-3	-9	5	5	0.02	1.866424	8	10	0.05	2000	-5.699158	40.92394	-91.39363
3122138	1175	598	1055	0.4442189	-3.214885	-10.78801	0	10.89	20029	-3	-9	5	5	0.02	1.883584	8	10	0.05	2000	-4.588989	40.92394	-91.39363
3122317	-576	-823	444	0.6095185	-4.01186	-10.57794	0	10.89	20051	2	0	5	5	0.02	1.930895	8	10	0.05	2000	-2.512482	40.92394	-91.39362
3122370	332	291	82	0.5172996	-3.489078	-10.10216	0	9.81	20014	2	0	5	5	0.02	1.946791	8	10	0.05	2000	-3.357697	40.92394	-91.39362
3122472	-4556	-1960	202	-4.935496	-2.507827	-9.662766	0	9.81	20050	9	12	5	5	0.02	2.003937	8	10	0.05	2000	-4.788208	40.92395	-91.39362
3122529	-4625	-1962	1370	-6.950021	-2.103416	-9.715468	0	9.81	20032	9	12	5	5	0.02	2.015599	8	10	0.05	2000	-4.788208	40.92395	-91.39362
3122685	-963	-1392	-1162	-14.78142	2.136538	-10.58805	0	9.81	20005	15	21	5	5	0.02	2.089619	8	10	0.05	2000	-11.29333	40.92395	-91.39362
3122830	2460	-487	-1987	-9.940228	-0.249663	-9.894247	0	9.81	20031	24	30	5	5	0.02	2.172588	8	10	0.05	2000	-16.31161	40.92395	-91.39362
3122927	208	960	806	-7.401174	-1.047312	-10.07657	0	9.81	20032	27	35	5	5	0.02	2.198447	8	10	0.05	2000	-17.27606	40.92395	-91.39362
3123032	1602	70	817	-5.814936	-1.4159	-9.896922	0	9.81	20008	27	36	5	5	0.02	2.227031	8	10	0.05	2000	-19.42529	40.92395	-91.39362
3123154	1340	185	-175	-3.661274	-0.3888894	-9.434095	0	9.81	20003	27	42	5	5	0.02	2.238708	8	10	0.05	2000	-23.6972	40.92395	-91.39362
3123285	-810	-1665	-183	-2.983595	-1.19753	-9.280199	0	9.81	20029	27	42	5	5	0.02	2.245087	8	10	0.05	2000	-25.27362	40.92395	-91.39362
3123339	-201	-2370	-35	-3.8283	1.055765	-9.812586	0	10.32	20006	27	42	5	5	0.02	2.248154	8	10	0.05	2000	-26.25729	40.92395	-91.39362
3123497	112	-56	-551	-3.181161	1.572617	-10.38947	0	10.32	20037	28	50	5	5	0.02	2.244212	8	10	0.05	2000	-27.83585	40.92395	-91.39362
3123565	1462	934	-96	-2.854069	1.077027	-10.16441	0	10.32	20030	21	42	5	5	0.02	2.239534	8	10	0.05	2000	-27.83585	40.92395	-91.39362
3123648	-329	562	520	-2.571581	0.6912413	-9.681334	0	10.32	20029	21	42	5	5	0.02	2.234973	8	10	0.05	2000	-29.00513	40.92395	-91.39362
3123741	231	-1123	-272	-3.474925	1.499578	-9.609577	0	10.32	20028	15	39	5	5	0.02	2.227069	8	10	0.05	2000	-26.77313	40.92395	-91.39362
3123832	179	-1021	510	-2.316947	1.409797	-10.16477	0	10.32	20039	15	39	5	5	0.02	2.225975	8	10	0.05	2000	-30.40466	40.92395	-91.39362
3123957	-70	3577	-504	-1.664502	-2.665599	-10.56576	0	10.32	20053	6	36	5	5	0.02	2.234843	8	10	0.05	2000	-28.1622	40.92395	-91.39362
3124036	493	3198	1158	-1.626617	-6.446058	-10.41518	0	10.32	20047	6	36	5	5	0.02	2.246315	8	10	0.05	2000	-25.10098	40.92395	-91.39362
3124170	-418	1307	441	-2.056185	-7.857028	-9.681891	0	10.32	20032	-2	30	5	5	0.02	2.262174	8	10	0.05	2000	-17.02692	40.92395	-91.39363
3124258	1245	2061	236	-1.666224	-8.797833	-9.939122	0	11.11	20034	-14	21	5	5	0.02	2.265805	8	10	0.05	2000	-18.14883	40.92395	-91.39363
3124342	-56	1888	179	-0.4218661	-10.8964	-9.950974	0	11.11	20009	-15	21	5	5	0.02	2.264803	8	10	0.05	2000	-15.87527	40.92395	-91.39363
3124479	1127	13	-691	-0.6715946	-9.718363	-9.330987	0	11.11	20061	-24	12	5	5	0.02	2.252443	8	10	0.05	2000	-11.56448	40.92395	-91.39364
3124641	2531	1942	409	3.205846	-10.35247	-10.11384	0	11.11	20026	-33	6	5	5	0.02	2.240567	8	10	0.05	2000	-12.4769	40.92394	-91.39364
3124716	1192	2556	-1013	6.070172	-12.30934	-10.16844	0	11.11	20021	-33	6	5	5	0.02	2.230963	8	10	0.05	2000	-9.756195	40.92394	-91.39364
3124800	56	-433	67	2.606109	-12.94897	-10.02048	0	11.11	20054	-33	6	5	5	0.02	2.217833	8	10	0.05	2000	-5.528351	40.92394	-91.39365
3124886	-668	-3461	194	2.710295	-7.618589	-10.15335	0	11.11	20014	-45	0	5	5	0.02	2.193033	8	10	0.05	2000	-4.858887	40.92394	-91.39365
3124975	807	-829	1244	1.929932	-4.10475	-10.40596	0	11.11	20029	-54	-5	5	5	0.02	2.181413	8	10	0.05	2000	-4.939148	40.92394	-91.39365
3125060	2474	1277	-453	3.436501	-3.691115	-10.38886	0	11.11	20008	-54	-6	5	5	0.02	2.1615	8	10	0.05	2000	-4.062073	40.92394	-91.39365
3125138	-844	-333	-651	3.162538	-3.887356	-9.974453	0	11.06	20026	-54	-6	5	5	0.02	2.149543	8	10	0.05	2000	-2.427399	40.92394	-91.39365
3125233	-688	-1007	752	2.227233	-2.646461	-10.14801	0	11.06	20031	-60	-12	5	5	0.02	2.140854	8	10	0.05	2000	-1.474243	40.92394	-91.39365
3125361	-1630	-1014	223	0.4831749	-1.929545	-10.476	0	11.06	20020	0	0	5	5	0.02	2.120131	3	10	0.05	2000	0.4658353	40.92393	-91.39365
3125494	-1339	-1203	630	-3.029905	-0.8781524	-10.73016	0	11.06	20020	0	0	5	5	0.02	2.110474	3	10	0.05	2000	0.8925132	40.92393	-91.39365
3125568	932	-425	390	-2.789823	0.3762394	-11.04306	0	11.06	20020	0	0	5	5	0.02	2.102479	3	10	0.05	2000	2.784193	40.92393	-91.39365
3125725	-1112	2377	18	-0.3114857	-2.249652	-10.85826	0	11.06	20020	0	0	5	5	0.02	2.084347	3	10	0.05	2000	1.48368	40.92393	-91.39365
3125759	-388	4311	839	-1.079957	-3.847652	-10.87668	0	11.06	20020	0	0	5	5	0.02	2.081724	3	10	0.05	2000	2.631674	40.92393	-91.39365
3125841	422	3374	4	-1.044568	-8.0353	-10.67799	0	11.06	20020	0	0	5	5	0.02	2.070992	3	10	0.05	2000	1.534364	40.92393	-91.39365
3125989	1364	2377	-110	-1.5303	-10.19163	-11.40551	0	11.06	20020	0	0	5	5	0.02	2.030938	3	10	0.05	2000	1.710521	40.92393	-91.39365
3126035	2146	5398	27	-0.3677261	-11.715	-11.34133	0	10.89	20020	0	0	5	5	0.02	2.012502	3	10	0.05	2000	0.9853417	40.92393	-91.39365
3126138	-2511	1382	319	-0.03143078	-15.02775	-11.94149	0	10.89	20020	0	0	5	5	0.02	1.953002	3	10	0.05	2000	1.828029	40.92393	-91.39365
3126330	634	-2708	636	0.9463951	-5.686378	-10.77938	0	10.89	20020	0	0	5	5	0.02	1.864192	3	10	0.05	2000	1.247112	40.92393	-91.39365
3126423	-2858	-107	75	-0.8239248	-4.06174	-9.89469	0	10.89	20020	0	0	5	5	0.02	1.78301	3	10	0.05	2000	0.6113432	40.92393	-91.39365
3126474	-4552	-3553	730	-5.230632	-1.295795	-9.966276	0	10.89	20020	0	0	5	5	0.02	1.769426	3	10	0.05	2000	1.368135	40.92393	-91.39365
3126562	-1109	-3899	929	-9.533186	6.076209	-10.67922	0	10.89	20020	0	0	5	5	0.02	1.731627	3	10	0.05	2000	0.04017106	40.92393	-91.39365
3126717	221	314	-207	-9.678305	5.875723	-11.12949	0	10.89	20020	0	0	5	5	0.02	1.662554	3	10	0.05	2000	-1.484528	40.92393	-91.39365
3126775	2353	2321	-114	-6.286182	2.563195	-10.60642	0	10.89	20020	0	0	5	5	0.02	1.644681	3	10	0.05	2000	-3.956665	40.92393	-91.39365
3126891	383	257	-550	-5.595882	0.4097246	-9.96617	0	10.89	20020	0	0	5	5	0.02	1.603849	3	10	0.05	2000	-3.445313	40.92393	-91.39365
3126976	2540	2601	1084	-1.677408	-0.358209	-10.25102	0	10.89	20020	0	0	5	5	0.02	1.536098	3	10	0.05	2000	-6.404449	40.92393	-91.39365
3127039	6506	4670	1230	2.630908	-3.74648	-10.20992	0	10.89	20020	0	0	5	5	0.02	1.487592	3	10	0.05	2000	-5.297607	40.92393	-91.39365
3127142	-282	-2284	102	6.697673	-4.95738	-10.14591	0	10.89	20020	0	0	5	5	0.02	1.392131	3	10	0.05	2000	-4.05896	40.92393	-91.39365
3127257	-1502	-1288	1264	2.791479	-1.800405	-11.30916	0	10.89	20020	0	0	5	5	0.02	1.333615	3	10	0.05	2000	-1.583893	40.92393	-91.39365
3127350	1834	316	-1027	3.175059	-1.063745	-11.23265	0	10.89	20020	0	0	5	5	0.02	1.228744	3	10	0.05	2000	-1.708588	40.92393	-91.39365
3127449	-4244	651	-1354	-0.2390149	-2.538189	-11.00168	0	10.89	20020	0	0	5	5	0.02	1.194605	3	10	0.05	2000	-0.4957886	40.92393	-91.39365
3127552	576	-1443	604	-3.189172	-2.00462	-10.79184	0	10.89	20020	0	0	5	5	0.02	1.11637	3	10	0.05	2000	0.3003585	40.92393	-91.39365
3127694	-2821	-213	-1002	-4.540349	-0.1354701	-11.47515	0	10.89	20020	0	0	5	5	0.02	1.027655	3	10	0.05	2000	-1.091248	40.92393	-91.39365
3127831	1369	592	-141	-7.21154	-1.148546	-10.66852	0	10.89	20020	0	0	5	5	0.02	0.955647	3	10	0.05	2000	-3.487671	40.92393	-91.39365
3127937	-1163	-1034	-1479	-4.218764	-2.191503	-9.860658	0	10.89	20020	0	0	5	5	0.02	0.8721541	3	10	0.05	2000	-5.648315	40.92393	-91.39365
3127953	4186	1634	-1084	-2.850013	-2.647822	-9.035	0	10.89	20020	0	0	5	5	0.02	0.8721541	3	10	0.05	2000	-5.648315	40.92393	-91.39365
3128107	245	-2284	238	-4.834373	-2.355582	-7.939591	0	10.89	20020	0	0	5	5	0.02	0.8094705	3	10	0.05	2000	-6.096619	40.92393	-91.39365
3128183	2747	-2758	-709	-2.399283	0.2019553	-7.934196	0	10.89	20020	0	0	5	5	0.02	0.7920411	3	10	0.05	2000	-6.795715	40.92393	-91.39365
3128257	267	1630	623	0.5854556	0.9627998	-8.196468	0	10.89	20020	0	0	5	5	0.02	0.7702752	3	10	0.05	2000	-8.014832	40.92393	-91.39365
3128365	-180	2759	225	1.208546	-2.260478	-8.504435	0	10.89	20020	0	0	5	5	0.02	0.7322025	3	10	0.05	2000	-6.222748	40.92393	-91.39365
3128554	-714	4205	130	-3.43266	-11.31094	-8.913307	0	10.89	20020	0	0	5	5	0.02	0.6774744	3	10	0.05	2000	-2.977295	40.92393	-91.39365
3128622	-788	-5609	2835	-4.196807	2.231996	-13.10077	0	10.89	20020	0	0	5	5	0.02	0.6147388	3	10	0.05	2000	-2.977295	40.92393	-91.39365
3128691	-278	-2597	403	-3.261366	12.96132	-12.05382	0	10.89	20020	0	0	5	5	0.02	0.6023192	3	10	0.05	2000	0.6455513	40.92393	-91.39365
3128808	783	-210	-923	-2.132625	3.133575	-12.00168	0	11.29	20020	0	0	5	5	0.02	0.5226134	3	10	0.05	2000	-0.7397461	40.92393	-91.39365
3128863	-1128	-1550	-12	-1.592545	1.866685	-11.7709	0	11.29	20020	0	0	5	5	0.02	0.4815942	3	10	0.05	2000	-1.784851	40.92393	-91.39365
3129045	-80	-28	-13	-1.910916	1.745474	-12.12542	0	11.29	20020	0	0	5	5	0.02	0.3909485	3	10	0.05	2000	-2.714233	40.92393	-91.39365
3129142	-69	-24	-26	-1.866485	1.542014	-12.14211	0	11.29	20020	0	0	5	5	0.02	0.3403498	3	10	0.05	2000	-2.269653	40.92393	-91.39365
3129176	-69	-24	-26	-1.830282	1.427843	-12.15067	0	11.29	20020	0	0	5	5	0.02	0.3189582	3	10	0.05	2000	-2.269653	40.92393	-91.39365
3129271	-77	32	5	-1.743643	1.081802	-12.18038	0	11.29	20020	0	0	5	5	0.02	0.2808007	3	10	0.05	2000	-2.718658	40.92393	-91.39365
3129390	-78	-8	65	-1.657359	0.7747508	-12.20471	0	11.29	20020	0	0	5	5	0.02	0.2435752	3	10	0.05	2000	-2.924408	40.92393	-91.39365
3129530	-72	-2	13	-1.59377	0.5271472	-12.23466	0	11.29	20020	0	0	5	5	0.02	0.189233	3	10	0.05	2000	-2.892242	40.92393	-91.39365
3129641	-95	-22	13	-1.525448	0.3559773	-12.25594	0	11.29	20020	0	0	5	5	0.02	0.1643894	3	10	0.05	2000	-2.706299	40.92393	-91.39365
3129757	-75	-14	24	-1.495731	0.2173747	-12.27697	0	11.34	20020	0	0	5	5	0.02	0.1322553	3	10	0.05	2000	-2.815704	40.92393	-91.39365
3129811	-71	5	16	-1.465535	0.1246038	-12.29238	0	11.34	20020	0	0	5	5	0.02	0.1166216	3	10	0.05	2000	-2.916351	40.92393	-91.39365
3129891	-66	8	27	-1.437141	0.04043826	-12.30845	0	11.34	20020	0	0	5	5	0.02	0.1042813	3	10	0.05	2000	-2.916351	40.92393	-91.39365
3129966	-66	-7	17	-1.408217	-0.06497621	-12.32796	0	11.34	20020	0	0	5	5	0.02	0.09619585	3	10	0.05	2000	-2.941284	40.92393	-91.39365
3130088	-38	-128	116	-1.38066	-0.1470656	-12.34734	0	11.34	20020	0	0	5	5	0.02	0.09574853	3	10	0.05	2000	-3.86264	40.92393	-91.39365
3130196	14	119	-128	-1.3599	-0.2179694	-12.36893	0	11.34	20020	0	0	5	5	0.02	0.1048971	3	10	0.05	2000	-3.9104	40.92393	-91.39365
3130278	-282	353	339	-1.227574	-0.5948331	-12.38961	0	11.34	20020	0	0	5	5	0.02	0.1124411	3	10	0.05	2000	-3.967712	40.92393	-91.39365
3130473	149	-4	-1814	-5.742954	2.736228	-10.34046	0	11.34	20020	0	0	5	5	0.02	0.1357894	3	10	0.05	2000	-3.879669	40.92393	-91.39365
3130530	144	-1075	-1919	-5.07117	4.491658	-6.730286	0	11.34	20020	0	0	5	5	0.02	0.1535568	3	10	0.05	2000	-5.007233	40.92393	-91.39365
3130589	-1974	-696	-659	-6.70322	6.617406	-5.450165	0	11.34	20020	0	0	5	5	0.02	0.1693024	3	10	0.05	2000	-4.765472	40.92393	-91.39365
3130637	-4152	-105	-15	-13.11778	7.830752	-5.100678	0	11.4	20020	0	0	5	5	0.02	0.1868334	3	10	0.05	2000	-4.097687	40.92393	-91.39365
3130698	-4034	234	-1003	-20.54221	9.566593	-4.278383	0	11.4	20020	0	0	5	5	0.02	0.203526	3	10	0.05	2000	-4.148468	40.92393	-91.39365
3130812	-473	228	-1753	-22.56808	12.39337	-1.897162	0	11.4	20020	0	0	5	5	0.02	0.2377743	3	10	0.05	2000	-7.126556	40.92393	-91.39365
3130940	3342	-1217	-1653	-16.03466	17.06256	2.583185	0	11.4	20020	0	0	5	5	0.02	0.2850926	3	10	0.05	2000	-14.08035	40.92393	-91.39365
3130997	3006	-2125	-917	-13.68559	18.55547	3.259513	0	11.4	20020	0	0	5	5	0.02	0.3096092	3	10	0.05	2000	-16.10413	40.92393	-91.39365
3131085	2991	285	1193	-11.55463	20.92114	3.817446	0	11.4	20020	0	0	5	5	0.02	0.3407186	3	10	0.05	2000	-16.10413	40.92393	-91.39365
3131185	2372	806	1852	-7.50622	18.73017	1.536703	0	11.4	20020	0	0	5	5	0.02	0.3954032	3	10	0.05	2000	-14.55774	40.92393	-91.39365
3131230	1548	1376	2583	-4.14656	10.21765	-3.427054	0	11.4	20020	0	0	5	5	0.02	0.4419744	3	10	0.05	2000	-11.97894	40.92393	-91.39365
3131349	1279	495	3090	-0.1946537	4.233202	-10.21893	0	11.4	20020	0	0	5	5	0.02	0.4799017	3	10	0.05	2000	-10.32404	40.92394	-91.39365
3131394	89	291	2550	-0.002983165	3.052726	-11.76552	0	11.34	20020	0	0	5	5	0.02	0.492674	3	10	0.05	2000	-7.644104	40.92394	-91.39365
3131511	74	1253	1637	-0.9145163	-1.812429	-16.24334	0	11.34	20020	0	0	5	5	0.02	0.4930567	3	10	0.05	2000	-3.908844	40.92394	-91.39365
3131592	-1030	322	1327	-1.308291	-3.607653	-17.9356	0	11.34	20020	0	0	5	5	0.02	0.4831011	3	10	0.05	2000	-3.908844	40.92394	-91.39365
3131691	-1347	321	1123	-3.010579	-3.229739	-19.57045	0	11.34	20020	0	0	5	5	0.02	0.466765	3	10	0.05	2000	-1.378937	40.92394	-91.39365
3131794	-87	-254	93	0.2513487	-3.351	-19.40252	0	11.34	20020	0	0	5	5	0.02	0.446404	3	10	0.05	2000	-1.828064	40.92394	-91.39365
3131893	-31	-57	-16	-0.1964601	-2.88396	-19.39574	0	11.34	20020	0	0	5	5	0.02	0.4232952	3	10	0.05	2000	-1.832916	40.92394	-91.39365
3131996	-24	-51	15	-0.2227251	-2.351412	-19.40314	0	11.34	20020	0	0	5	5	0.02	0.4104064	3	10	0.05	2000	-1.5112	40.92394	-91.39365
3132097	-128	86	16	-0.3501078	-2.226831	-19.42655	0	11.34	20020	0	0	5	5	0.02	0.3971027	3	10	0.05	2000	-1.325684	40.92394	-91.39365
3132194	-42	-12	10	-0.5553272	-1.971059	-19.45009	0	11.34	20020	0	0	5	5	0.02	0.3702846	3	10	0.05	2000	-0.9984131	40.92394	-91.39365
3132332	-18	-58	0	-0.7357606	-1.762235	-19.47283	0	11.4	20020	0	0	5	5	0.02	0.3492462	3	10	0.05	2000	-0.8257141	40.92394	-91.39365
3132402	-110	53	20	-0.7762787	-1.623823	-19.48402	0	11.4	20020	0	0	5	5	0.02	0.3338074	3	10	0.05	2000	-0.6835938	40.92394	-91.39365
3132517	-68	-3	11	-0.8721169	-1.486273	-19.50401	0	11.4	20020	0	0	5	5	0.02	0.3167796	3	10	0.05	2000	-0.4920654	40.92394	-91.39365
3132657	-66	1	10	-0.9716844	-1.311678	-19.52633	0	11.4	20020	0	0	5	5	0.02	0.3023421	3	10	0.05	2000	-0.3360901	40.92394	-91.39365
3132761	-66	8	9	-1.056762	-1.171232	-19.54694	0	11.4	20020	0	0	5	5	0.02	0.2924687	3	10	0.05	2000	-0.19104	40.92394	-91.39365
3132792	-64	0	9	-1.074381	-1.141148	-19.55281	0	11.4	20020	0	0	5	5	0.02	0.2897183	1	10	0.05	2000	-0.19104	40.92394	-91.39365
3132897	-65	-1	8	-1.119125	-1.05704	-19.56999	0	11.4	20020	0	0	5	5	0.02	0.2871864	1	10	0.05	2000	-0.1442261	40.92394	-91.39364
3133018	-60	1	11	-1.167559	-0.9560817	-19.58949	0	11.4	20020	0	0	5	5	0.02	0.2824439	1	10	0.05	2000	-0.05526733	40.92394	-91.39364
3133081	-71	2	8	-1.192531	-0.9139166	-19.60025	0	11.4	20020	0	0	5	5	0.02	0.2800641	1	10	0.05	2000	-0.01452637	40.92394	-91.39364
3133227	-66	5	11	-1.242775	-0.8461978	-19.62129	0	11.46	20020	0	0	5	5	0.02	0.2696802	1	10	0.05	2000	0.06413675	40.92394	-91.39364
3133288	-62	4	10	-1.262615	-0.812371	-19.63131	0	11.46	20020	0	0	5	5	0.02	0.2524989	1	10	0.05	2000	0.09679268	40.92394	-91.39364
3133395	-63	2	9	-1.294784	-0.7555455	-19.65277	0	11.46	20020	0	0	5	5	0.02	0.2458869	1	10	0.05	2000	0.1588414	40.92394	-91.39364
3133514	-65	1	10	-1.31208	-0.716563	-19.66763	0	11.46	20020	0	0	5	5	0.02	0.241964	1	10	0.05	2000	0.1707423	40.92394	-91.39364
3133629	-60	6	10	-1.334942	-0.674049	-19.68683	0	11.46	20020	0	0	5	5	0.02	0.2337443	1	10	0.05	2000	0.2137335	40.92394	-91.39364
3133683	-68	4	11	-1.3405	-0.6623096	-19.69227	0	11.46	20020	0	0	5	5	0.02	0.2269926	1	10	0.05	2000	0.2324382	40.92394	-91.39364
3133807	-67	4	-3	-1.356283	-0.6286045	-19.71281	0	11.46	20020	0	0	5	5	0.02	0.2128996	1	10	0.05	2000	0.2539822	40.92394	-91.39364
3133882	-61	-5	8	-1.361981	-0.6025494	-19.72803	0	11.46	20020	0	0	5	5	0.02	0.2007373	1	10	0.05	2000	0.2584704	40.92394	-91.39364
3134041	-59	1	4	-1.377752	-0.566142	-19.74936	0	11.46	20020	0	0	5	5	0.02	0.1800314	1	10	0.05	2000	0.2827612	40.92394	-91.39364
3134108	-62	3	12	-1.377764	-0.5539541	-19.76061	0	11.46	20020	0	0	5	5	0.02	0.1582677	1	10	0.05	2000	0.2879138	40.92394	-91.39364
3134169	-65	6	11	-1.380546	-0.5509009	-19.77162	0	11.46	20020	0	0	5	5	0.02	0.151687	1	10	0.05	2000	0.2868519	40.92394	-91.39364
3134329	-60	4	16	-1.372276	-0.5320229	-19.79826	0	11.46	20020	0	0	5	5	0.02	0.1332091	1	10	0.05	2000	0.2934034	40.92394	-91.39364
3134403	-64	4	7	-1.36982	-0.53188	-19.80816	0	11.46	20020	0	0	5	5	0.02	0.1303713	1	10	0.05	2000	0.2831699	40.92394	-91.39364
3134485	-63	1	9	-1.374228	-0.5263998	-19.82241	0	11.46	20020	0	0	5	5	0.02	0.1259357	1	10	0.05	2000	0.2826069	40.92394	-91.39364
3134567	-63	1	12	-1.374225	-0.5164396	-19.83959	0	11.46	20020	0	0	5	5	0.02	0.1229183	1	10	0.05	2000	0.2841017	40.92394	-91.39364
3134647	-58	9	6	-1.375629	-0.5159933	-19.84411	0	11.46	20020	0	0	5	5	0.02	0.1169903	1	10	0.05	2000	0.2841017	40.92394	-91.39364
3134743	-63	4	9	-1.3771	-0.5097322	-19.86275	0	11.46	20020	0	0	5	5	0.02	0.1177944	1	10	0.05	2000	0.2856775	40.92394	-91.39364
3134858	-55	1	12	-1.377922	-0.5069059	-19.87834	0	11.46	20020	0	0	5	5	0.02	0.1188263	1	10	0.05	2000	0.2981298	40.92394	-91.39364
3134981	-60	-2	9	-1.379322	-0.5003738	-19.8927	0	11.46	20020	0	0	5	5	0.02	0.1244959	1	10	0.05	2000	0.2979026	40.92394	-91.39364
3135103	-58	5	5	-1.375755	-0.4970011	-19.91495	0	11.46	20020	0	0	5	5	0.02	0.1250421	1	10	0.05	2000	0.2835901	40.92394	-91.39364
3135161	-57	-2	7	-1.371181	-0.4957926	-19.92442	0	11.46	20020	0	0	5	5	0.02	0.1310752	1	10	0.05	2000	0.2761133	40.92394	-91.39364
3135217	-65	-3	8	-1.373649	-0.4950499	-19.93334	0	11.46	20020	0	0	5	5	0.02	0.1335171	1	10	0.05	2000	0.2736731	40.92394	-91.39364
3135417	-61	7	8	-1.382587	-0.4911355	-19.96213	0	11.46	20020	0	0	5	5	0.02	0.152604	1	10	0.05	2000	0.2982463	40.92394	-91.39364
3135473	-59	0	7	-1.381445	-0.4884864	-19.96671	0	11.46	20020	0	0	5	5	0.02	0.1642324	1	10	0.05	2000	0.2982463	40.92394	-91.39364
3135532	-61	3	10	-1.383822	-0.4907974	-19.9749	0	11.46	20020	0	0	5	5	0.02	0.1743768	1	10	0.05	2000	0.2909435	40.92394	-91.39364
3135688	-66	0	8	-1.374649	-0.4862283	-19.99948	0	11.46	20020	0	0	5	5	0.02	0.195682	1	10	0.05	2000	0.2876073	40.92394	-91.39364
3135743	-51	0	7	-1.373013	-0.4859122	-20.00419	0	11.46	20020	0	0	5	5	0.02	0.1995462	1	10	0.05	2000	0.2876073	40.92394	-91.39364
3135827	-63	0	12	-1.385059	-0.4823425	-20.02351	0	11.46	20020	0	0	5	5	0.02	0.2008752	1	10	0.05	2000	0.297543	40.92394	-91.39364
3135912	-59	0	12	-1.381555	-0.4819044	-20.03163	0	11.46	20020	0	0	5	5	0.02	0.1972824	1	10	0.05	2000	0.08115698	40.92394	-91.39364
3136022	-64	5	10	-1.378288	-0.482422	-20.04673	0	11.46	20020	0	0	5	5	0.02	0.1938432	1	10	0.05	2000	0.2913065	40.92394	-91.39364
3136127	-61	4	3	-1.378901	-0.4828126	-20.06544	0	11.46	20020	0	0	5	5	0.02	0.1842834	1	10	0.05	2000	0.2986366	40.92394	-91.39364
3136213	-53	2	10	-1.378365	-0.4815177	-20.07638	0	11.46	20020	0	0	5	5	0.02	0.1757923	1	10	0.05	2000	0.28918	40.92394	-91.39364
3136299	-61	-3	11	-1.368243	-0.4734444	-20.09241	0	11.46	20020	0	0	5	5	0.02	0.165154	1	10	0.05	2000	0.2742556	40.92394	-91.39364
3136455	-51	9	7	-1.366982	-0.4768633	-20.11411	0	11.46	20020	0	0	5	5	0.02	0.1554989	1	10	0.05	2000	0.2731498	40.92394	-91.39364
3136568	-58	1	6	-1.371438	-0.4752294	-20.13134	0	11.46	20020	0	0	5	5	0.02	0.160219	1	10	0.05	2000	0.276935	40.92394	-91.39364
3136646	-57	0	9	-1.367774	-0.4794453	-20.13922	0	11.46	20020	0	0	5	5	0.02	0.1657907	1	10	0.05	2000	0.05617488	40.92394	-91.39364
3136741	-55	-4	9	-1.365357	-0.4726233	-20.14869	0	11.46	20020	0	0	5	5	0.02	0.1727886	1	10	0.05	2000	0.05657577	40.92394	-91.39364
3136782	-62	-2	3	-1.367714	-0.475429	-20.15987	0	11.51	20020	0	0	5	5	0.02	0.1729612	1	10	0.05	2000	0.2691757	40.92394	-91.39364
3136904	-52	2	5	-1.360063	-0.4736257	-20.17375	0	11.51	20020	0	0	5	5	0.02	0.172836	1	10	0.05	2000	0.2615741	40.92394	-91.39364
3136982	-62	2	2	-1.358005	-0.4729787	-20.18255	0	11.51	20020	0	0	5	5	0.02	0.1676956	1	10	0.05	2000	0.04822478	40.92394	-91.39364
3137085	-56	3	5	-1.358949	-0.4728695	-20.19476	0	11.51	20020	0	0	5	5	0.02	0.1563381	1	10	0.05	2000	0.2643587	40.92394	-91.39364
3137219	-63	0	4	-1.347572	-0.4740516	-20.21021	0	11.51	20020	0	0	5	5	0.02	0.1317394	1	10	0.05	2000	0.248909	40.92394	-91.39364
3137341	-53	1	10	-1.343068	-0.4804075	-20.22708	0	11.51	20020	0	0	5	5	0.02	0.1194495	1	10	0.05	2000	0.465708	40.92394	-91.39364
3137431	-46	2	4	-1.347055	-0.4788052	-20.23966	0	11.51	20020	0	0	5	5	0.02	0.1155904	1	10	0.05	2000	0.2416867	40.92394	-91.39364
3137470	-46	2	4	-1.347055	-0.4788052	-20.23966	0	11.51	20020	0	0	5	5	0.02	0.112162	1	10	0.05	2000	0.2416867	40.92394	-91.39364
3137629	-57	-1	13	-1.340194	-0.4759874	-20.26282	0	11.51	20020	0	0	5	5	0.02	0.09790462	1	10	0.05	2000	0.239065	40.92395	-91.39364
3137686	-46	7	14	-1.33444	-0.4714793	-20.27223	0	11.46	20020	0	0	5	5	0.02	0.09672087	1	10	0.05	2000	0.2303626	40.92395	-91.39364
3137772	-62	1	6	-1.326437	-0.4645186	-20.28347	0	11.46	20020	0	0	5	5	0.02	0.09334559	1	10	0.05	2000	0.2179918	40.92395	-91.39364
3137872	-48	2	9	-1.324002	-0.4632143	-20.29514	0	11.46	20020	0	0	5	5	0.02	0.08500001	1	10	0.05	2000	0.2248261	40.92395	-91.39364
3137999	-58	-1	8	-1.318686	-0.4579479	-20.30613	0	11.46	20020	0	0	5	5	0.02	0.07517975	1	10	0.05	2000	0.2094432	40.92395	-91.39364
3138102	-53	-2	6	-1.314448	-0.4593755	-20.32177	0	11.46	20020	0	0	5	5	0.02	0.06914277	1	10	0.05	2000	-0.01361084	40.92395	-91.39364
3138185	-52	0	3	-1.311092	-0.4525747	-20.33374	0	11.46	20020	0	0	5	5	0.02	0.06655642	1	10	0.05	2000	0.2006663	40.92395	-91.39364
3138246	-54	3	11	-1.310597	-0.4556156	-20.33777	0	11.46	20020	0	0	5	5	0.02	0.06581949	1	10	0.05	2000	0.2006663	40.92395	-91.39364
3138348	-60	3	12	-1.313825	-0.4571175	-20.35354	0	11.46	20020	0	0	5	5	0.02	0.0622691	1	10	0.05	2000	0.1986873	40.92395	-91.39364
3138443	-53	9	8	-1.314422	-0.4621927	-20.36466	0	11.46	20020	0	0	5	5	0.02	0.06612743	1	10	0.05	2000	0.1956759	40.92395	-91.39364
3138556	-50	6	8	-1.306805	-0.4621675	-20.3753	0	11.51	20020	0	0	5	5	0.02	0.06956527	1	10	0.05	2000	0.1897459	40.92395	-91.39364
3138691	-58	5	3	-1.310357	-0.4654609	-20.3913	0	11.51	20020	0	0	5	5	0.02	0.07852492	1	10	0.05	2000	0.1884252	40.92395	-91.39364
3138786	-56	4	6	-1.302529	-0.4669373	-20.40474	0	11.51	20020	0	0	5	5	0.02	0.08340455	1	10	0.05	2000	0.1744479	40.92395	-91.39364
3138898	-54	2	10	-1.292647	-0.467372	-20.41488	0	11.51	20020	0	0	5	5	0.02	0.101421	1	10	0.05	2000	0.1657621	40.92395	-91.39364
3138928	-51	0	9	-1.293957	-0.4654333	-20.42051	0	11.51	20020	0	0	5	5	0.02	0.1031911	1	10	0.05	2000	0.1657621	40.92395	-91.39364
3139012	-52	0	5	-1.283041	-0.4671622	-20.42943	0	11.51	20020	0	0	5	5	0.02	0.1072772	1	10	0.05	2000	0.1677794	40.92395	-91.39364
3139151	-63	4	8	-1.288604	-0.4634274	-20.45064	0	11.51	20020	0	0	5	5	0.02	0.1363509	1	10	0.05	2000	0.1579526	40.92395	-91.39364
3139253	-62	3	6	-1.288854	-0.4613186	-20.46634	0	11.51	20020	0	0	5	5	0.02	0.1504329	1	10	0.05	2000	-0.06390381	40.92395	-91.39364
3139365	-51	1	7	-1.289504	-0.4619669	-20.47727	0	11.51	20020	0	0	5	5	0.02	0.1715306	1	10	0.05	2000	0.157106	40.92395	-91.39364
3139412	-62	0	6	-1.28957	-0.461007	-20.48148	0	11.51	20020	0	0	5	5	0.02	0.1780009	1	10	0.05	2000	-0.06344604	40.92395	-91.39364
3139602	-51	0	8	-1.281911	-0.460349	-20.50702	0	11.57	20020	0	0	5	5	0.02	0.1887936	1	10	0.05	2000	0.1532814	40.92395	-91.39363
3139658	-49	1	10	-1.284711	-0.459049	-20.51155	0	11.57	20020	0	0	5	5	0.02	0.1924641	1	10	0.05	2000	0.1454808	40.92395	-91.39363
3139782	-54	0	11	-1.279257	-0.4586168	-20.52975	0	11.57	20020	0	0	5	5	0.02	0.1936504	1	10	0.05	2000	0.1471011	40.92395	-91.39363
3139812	-60	6	8	-1.277883	-0.4599794	-20.53966	0	11.57	20020	0	0	5	5	0.02	0.1925913	1	10	0.05	2000	0.1447577	40.92395	-91.39363
3139987	-55	0	8	-1.278641	-0.4609557	-20.55524	0	11.57	20020	0	0	5	5	0.02	0.1886468	1	10	0.05	2000	0.1495943	40.92395	-91.39363
3140038	-54	-1	11	-1.277042	-0.4614542	-20.56013	0	11.57	20020	0	0	5	5	0.02	0.1881693	1	10	0.05	2000	0.1401235	40.92395	-91.39363
3140149	-56	-1	6	-1.26994	-0.4676214	-20.58121	0	11.57	20020	0	0	5	5	0.02	0.1904421	1	10	0.05	2000	0.1279248	40.92395	-91.39363
3140235	-55	3	8	-1.264704	-0.4728584	-20.5894	0	11.57	20020	0	0	5	5	0.02	0.1881639	1	10	0.05	2000	0.1195873	40.92395	-91.39363
3140339	-55	0	8	-1.271673	-0.4680398	-20.60094	0	11.51	20020	0	0	5	5	0.02	0.1842621	1	10	0.05	2000	0.1277157	40.92395	-91.39363
3140410	-52	4	4	-1.274873	-0.4667668	-20.61255	0	11.51	20020	0	0	5	5	0.02	0.1839989	1	10	0.05	2000	0.1363409	40.92395	-91.39363
3140552	-52	0	7	-1.271106	-0.4687195	-20.62489	0	11.51	20020	0	0	5	5	0.02	0.1860167	1	10	0.05	2000	0.1310187	40.92395	-91.39363
3140618	-58	3	6	-1.267322	-0.4741247	-20.63497	0	11.51	20020	0	0	5	5	0.02	0.1886875	1	10	0.05	2000	0.1271935	40.92395	-91.39363
3140679	-48	1	7	-1.271466	-0.4749187	-20.6434	0	11.51	20020	0	0	5	5	0.02	0.1896983	1	10	0.05	2000	0.128952	40.92395	-91.39363
3140738	-56	0	10	-1.273223	-0.4750206	-20.65116	0	11.51	20020	0	0	5	5	0.02	0.1880966	1	10	0.05	2000	0.1301762	40.92395	-91.39363
3140857	-50	-2	7	-1.273886	-0.4729666	-20.66191	0	11.51	20020	0	0	5	5	0.02	0.1866067	1	10	0.05	2000	0.1274098	40.92395	-91.39363
3140934	-45	9	8	-1.274107	-0.4776186	-20.67016	0	11.51	20020	0	0	5	5	0.02	0.1875146	1	10	0.05	2000	-0.08129883	40.92395	-91.39363
3141034	-42	1	2	-1.27631	-0.4802699	-20.68464	0	11.51	20020	0	0	5	5	0.02	0.1984208	1	10	0.05	2000	0.1385486	40.92395	-91.39363
3141167	-52	-1	9	-1.271445	-0.4810793	-20.6995	0	11.51	20020	0	0	5	5	0.02	0.2120776	1	10	0.05	2000	0.1312438	40.92395	-91.39363
3141234	-57	6	6	-1.264669	-0.4880346	-20.70738	0	11.51	20020	0	0	5	5	0.02	0.2221675	1	10	0.05	2000	0.1204894	40.92395	-91.39363
3141336	-52	6	10	-1.258838	-0.4870063	-20.721	0	11.51	20020	0	0	5	5	0.02	0.2348851	1	10	0.05	2000	-0.1083374	40.92395	-91.39363
3141475	-53	5	9	-1.261321	-0.488717	-20.73371	0	11.51	20020	0	0	5	5	0.02	0.2387726	1	10	0.05	2000	0.1229351	40.92395	-91.39363
3141542	-53	0	9	-1.257334	-0.4877502	-20.74636	0	11.51	20020	0	0	5	5	0.02	0.2406957	1	10	0.05	2000	0.1181471	40.92395	-91.39363
3141708	-51	1	8	-1.25422	-0.4882544	-20.76291	0	11.51	20020	0	0	5	5	0.02	0.2451895	1	10	0.05	2000	0.1057171	40.92395	-91.39363
3141821	-48	7	7	-1.25245	-0.4871531	-20.77311	0	11.51	20020	0	0	5	5	0.02	0.2451759	1	10	0.05	2000	0.1060765	40.92395	-91.39363
3141857	-50	4	10	-1.248477	-0.4824753	-20.78093	0	11.51	20020	0	0	5	5	0.02	0.2377701	1	10	0.05	2000	0.1002061	40.92395	-91.39363
3141947	-48	1	6	-1.247	-0.4828078	-20.79314	0	11.51	20020	0	0	5	5	0.02	0.2343059	1	10	0.05	2000	0.09678946	40.92395	-91.39363
3142036	-54	3	7	-1.240936	-0.4777524	-20.80671	0	11.51	20020	0	0	5	5	0.02	0.2325495	1	10	0.05	2000	0.08712447	40.92395	-91.39363
3142109	-46	3	8	-1.246589	-0.4804502	-20.81545	0	11.46	20020	0	0	5	5	0.02	0.234047	1	10	0.05	2000	0.09804741	40.92395	-91.39363
3142211	-50	3	4	-1.244205	-0.4749282	-20.8265	0	11.46	20020	0	0	5	5	0.02	0.2404724	1	10	0.05	2000	0.08908117	40.92395	-91.39363
3142361	-48	2	9	-1.242411	-0.47892	-20.84802	0	11.46	20020	0	0	5	5	0.02	0.2589442	1	10	0.05	2000	0.08450322	40.92395	-91.39363
3142456	-45	-2	7	-1.238658	-0.4722961	-20.85578	0	11.46	20020	0	0	5	5	0.02	0.2661442	1	10	0.05	2000	0.08605466	40.92395	-91.39363
3142575	-45	1	8	-1.237627	-0.4809212	-20.87092	0	11.46	20020	0	0	5	5	0.02	0.2688413	1	10	0.05	2000	0.08413713	40.92395	-91.39363
3142607	-41	2	9	-1.236717	-0.4802865	-20.87465	0	11.46	20020	0	0	5	5	0.02	0.2691472	1	10	0.05	2000	0.08400507	40.92395	-91.39363
3142697	-50	-6	8	-1.235865	-0.477121	-20.89206	0	11.46	20020	0	0	5	5	0.02	0.2645971	1	10	0.05	2000	0.07525684	40.92395	-91.39363
3142800	-48	2	2	-1.235284	-0.4735251	-20.9005	0	11.46	20020	0	0	5	5	0.02	0.2543828	1	10	0.05	2000	0.08651543	40.92395	-91.39363
3142966	-49	-3	6	-1.238146	-0.4718618	-20.91968	0	11.51	20020	0	0	5	5	0.02	0.2554893	1	10	0.05	2000	0.08185796	40.92395	-91.39363
3143015	-46	0	1	-1.235348	-0.4717939	-20.92426	0	11.51	20020	0	0	5	5	0.02	0.2570307	1	10	0.05	2000	0.07745825	40.92395	-91.39363
3143145	-42	-4	0	-1.233189	-0.4696725	-20.93349	0	11.51	20020	0	0	5	5	0.02	0.2586161	1	10	0.05	2000	0.07716663	40.92395	-91.39363
3143210	-48	0	9	-1.231505	-0.4689007	-20.93941	0	11.51	20020	0	0	5	5	0.02	0.2574086	1	10	0.05	2000	0.07716663	40.92395	-91.39363
3143302	-45	-2	8	-1.228369	-0.4703712	-20.95058	0	11.51	20020	0	0	5	5	0.02	0.259798	1	10	0.05	2000	0.06804553	40.92395	-91.39363
3143407	-52	3	7	-1.219705	-0.4716465	-20.96054	0	11.51	20020	0	0	5	5	0.02	0.2565846	1	10	0.05	2000	0.05521817	40.92395	-91.39363
3143534	-52	-1	11	-1.214793	-0.4679562	-20.97667	0	11.51	20020	0	0	5	5	0.02	0.2587376	1	10	0.05	2000	0.04761103	40.92395	-91.39363
3143697	-46	-2	8	-1.209025	-0.4695725	-20.99659	0	11.51	20020	0	0	5	5	0.02	0.2652643	1	10	0.05	2000	0.04362732	40.92395	-91.39363
3143728	-47	7	8	-1.209361	-0.4721956	-21.00038	0	11.51	20020	0	0	5	5	0.02	0.2660046	1	10	0.05	2000	0.03740868	40.92395	-91.39363
3143790	-42	5	2	-1.207909	-0.4755767	-21.00312	0	11.51	20020	0	0	5	5	0.02	0.2709711	1	10	0.05	2000	0.03740868	40.92395	-91.39363
3143908	-56	2	3	-1.194533	-0.4844509	-21.0143	0	11.51	20020	0	0	5	5	0.02	0.2690218	1	10	0.05	2000	0.02374155	40.92395	-91.39363
3144038	-50	4	8	-1.191316	-0.4854756	-21.02932	0	11.51	20020	0	0	5	5	0.02	0.2644547	1	10	0.05	2000	0.009954673	40.92395	-91.39363
3144068	-44	3	4	-1.18872	-0.4947686	-21.03653	0	11.51	20020	0	0	5	5	0.02	0.2629315	1	10	0.05	2000	0.007042822	40.92395	-91.39363
3144126	-44	0	7	-1.177116	-0.49274	-21.04734	0	11.51	20020	0	0	5	5	0.02	0.2560657	1	10	0.05	2000	0.0003280801	40.92395	-91.39363
3144193	-39	1	7	-1.178288	-0.4872946	-21.05815	0	11.51	20020	0	0	5	5	0.02	0.2436446	1	10	0.05	2000	-0.007720947	40.92395	-91.39363
3144233	-43	-1	8	-1.17192	-0.4900528	-21.06994	0	11.51	20020	0	0	5	5	0.02	0.2333622	1	10	0.05	2000	-0.01452637	40.92395	-91.39363
3144288	-44	0	3	-1.173079	-0.4917538	-21.07997	0	11.51	20020	0	0	5	5	0.02	0.2201484	1	10	0.05	2000	-0.01968384	40.92395	-91.39363
3144323	-46	3	7	-1.168373	-0.4934651	-21.09212	0	11.51	20020	0	0	5	5	0.02	0.2061631	1	10	0.05	2000	-0.0151062	40.92395	-91.39363
3144344	-45	2	9	-1.16696	-0.4913481	-21.10018	0	11.46	20020	0	0	5	5	0.02	0.1986184	1	10	0.05	2000	-0.02175903	40.92395	-91.39363
3144428	-39	4	5	-1.159077	-0.4928842	-21.10836	0	11.46	20020	0	0	5	5	0.02	0.2015693	1	10	0.05	2000	0.1919698	40.92395	-91.39363
3144532	-34	4	13	-1.157861	-0.4906751	-21.11849	0	11.46	20020	0	0	5	5	0.02	0.2021134	1	10	0.05	2000	-0.03448486	40.92395	-91.39363
3144722	-47	3	-2	-1.153478	-0.4894625	-21.1326	0	11.46	20020	0	0	5	5	0.02	0.1942073	1	10	0.05	2000	-0.03927612	40.92395	-91.39363
3144798	-44	4	0	-1.148996	-0.4845186	-21.14499	0	11.46	20020	0	0	5	5	0.02	0.1966164	1	10	0.05	2000	-0.04754639	40.92395	-91.39363
3144831	-46	-4	-3	-1.149426	-0.4860623	-21.14804	0	11.46	20020	0	0	5	5	0.02	0.1958344	1	10	0.05	2000	0.1668655	40.92395	-91.39363
3144893	-40	0	9	-1.149696	-0.4908983	-21.15776	0	11.46	20020	0	0	5	5	0.02	0.1986639	1	10	0.05	2000	-0.05270386	40.92395	-91.39363
3144952	-42	2	9	-1.147095	-0.4863167	-21.169	0	11.46	20020	0	0	5	5	0.02	0.2013302	1	10	0.05	2000	-0.05187988	40.92395	-91.39363
3145018	-44	1	0	-1.147079	-0.4802286	-21.17877	0	11.46	20020	0	0	5	5	0.02	0.1979783	1	10	0.05	2000	-0.0506897	40.92395	-91.39363
3145123	-46	0	7	-1.146783	-0.4752633	-21.19184	0	11.51	20020	0	0	5	5	0.02	0.186319	1	10	0.05	2000	-0.04940796	40.92395	-91.39363
3145229	-39	2	6	-1.147678	-0.4762177	-21.20094	0	11.51	20020	0	0	5	5	0.02	0.1772634	1	10	0.05	2000	-0.05361938	40.92395	-91.39363
3145303	-47	1	0	-1.143415	-0.4816988	-21.20582	0	11.51	20020	0	0	5	5	0.02	0.1631025	1	10	0.05	2000	-0.05392456	40.92395	-91.39363
3145413	-39	2	10	-1.142175	-0.4793211	-21.21119	0	11.51	20020	0	0	5	5	0.02	0.1553416	1	10	0.05	2000	-0.05691528	40.92395	-91.39363
3145552	-41	0	7	-1.1443	-0.486034	-21.22781	0	11.51	20020	0	0	5	5	0.02	0.150047	1	10	0.05	2000	-0.05935669	40.92395	-91.39363
3145612	-34	2	9	-1.141784	-0.4959203	-21.23977	0	11.51	20020	0	0	5	5	0.02	0.1466051	1	10	0.05	2000	-0.06237793	40.92395	-91.39363
3145714	-45	4	9	-1.139283	-0.4946426	-21.24869	0	11.51	20020	0	0	5	5	0.02	0.1434199	1	10	0.05	2000	-0.06231689	40.92395	-91.39363
3145764	-45	0	8	-1.139692	-0.4911108	-21.25242	0	11.51	20020	0	0	5	5	0.02	0.1414911	1	10	0.05	2000	-0.06231689	40.92395	-91.39363
3145906	-44	0	2	-1.131302	-0.4924205	-21.2683	0	11.51	20020	0	0	5	5	0.02	0.1377465	1	10	0.05	2000	-0.0736084	40.92395	-91.39363
3145969	-38	-3	6	-1.130822	-0.491698	-21.27526	0	11.51	20020	0	0	5	5	0.02	0.1362254	1	10	0.05	2000	-0.07574463	40.92395	-91.39363
3146116	-41	-3	4	-1.1328	-0.4928296	-21.29004	0	11.51	20020	0	0	5	5	0.02	0.1293587	1	10	0.05	2000	-0.0770874	40.92395	-91.39363
3146150	-44	3	6	-1.132582	-0.4938054	-21.29273	0	11.51	20020	0	0	5	5	0.02	0.1268136	1	10	0.05	2000	-0.0770874	40.92395	-91.39363
3146199	-29	3	4	-1.129251	-0.4964771	-21.30005	0	11.51	20020	0	0	5	5	0.02	0.1257892	1	10	0.05	2000	-0.07180786	40.92395	-91.39363
3146284	-38	-1	10	-1.119807	-0.4937043	-21.3105	0	11.51	20020	0	0	5	5	0.02	0.1190305	1	10	0.05	2000	-0.09576416	40.92395	-91.39363
3146416	-37	0	0	-1.116902	-0.4916641	-21.31795	0	11.51	20020	0	0	5	5	0.02	0.1119029	1	10	0.05	2000	-0.09655762	40.92395	-91.39363
3146484	-38	0	5	-1.106833	-0.4898137	-21.32399	0	11.51	20020	0	0	5	5	0.02	0.1111769	1	10	0.05	2000	-0.1059875	40.92395	-91.39363
3146637	-36	-2	2	-1.103482	-0.4908197	-21.3337	0	11.51	20020	0	0	5	5	0.02	0.112348	1	10	0.05	2000	-0.1099243	40.92395	-91.39364
3146756	-31	4	6	-1.091018	-0.4816779	-21.34207	0	11.51	20020	0	0	5	5	0.02	0.1206356	1	10	0.05	2000	-0.1239014	40.92395	-91.39364
3146780	-36	0	-4	-1.087336	-0.4864999	-21.34445	0	11.51	20020	0	0	5	5	0.02	0.1224621	1	10	0.05	2000	-0.1425781	40.92395	-91.39363
3146903	-34	5	3	-1.089428	-0.4914681	-21.3544	0	11.51	20020	0	0	5	5	0.02	0.1342015	1	10	0.05	2000	-0.354248	40.92395	-91.39363
3147002	-42	4	2	-1.091024	-0.4893673	-21.35965	0	11.51	20020	0	0	5	5	0.02	0.1488548	1	10	0.05	2000	-0.1468201	40.92395	-91.39363
3147122	-34	0	3	-1.087174	-0.4965479	-21.36868	0	11.51	20020	0	0	5	5	0.02	0.1621497	1	10	0.05	2000	-0.1371765	40.92395	-91.39363
