time(ms)	gyro_x(deg/s)	gyro_y(deg/s)	gyro_z(deg/s)	orientation_roll(deg)	orientation_pitch(deg)	orientation_yaw(deg)	throttle	battery(V)	loop_time(uS)	pid_output_roll	pid_output_pitch	pid_output_yaw	pid_output_throttle	ultrasonic_alt	baro_alt	flight_mode	p_gain_altitude	i_gain_altitude	d_gain_altitude	compass_heading	latitude	longitude
3177961	-413	-289	980	-2.209031	-0.989791	-22.4525	0	11.34	20050	28	10	5	5	0.02	3.187551	8	10	0.05	2000	-0.3792114	40.92395	-91.39362
3178072	-1467	-695	597	-3.250448	0.1514399	-22.79029	0	11.34	20023	30	12	5	5	0.02	3.40416	8	10	0.05	2000	-2.858154	40.92395	-91.39362
3178201	1567	-549	-1026	-3.515253	0.4086348	-22.50694	0	11.34	20035	34	12	5	5	0.02	3.47876	8	10	0.05	2000	-3.294281	40.92395	-91.39362
3178296	-1648	-192	856	-0.7750584	-0.3728048	-21.62893	0	11.34	20024	32	12	5	5	0.02	3.678235	8	10	0.05	2000	-3.384705	40.92395	-91.39362
3178430	-282	-660	-756	-3.28897	0.6474217	-21.99526	0	11.34	20054	32	16	5	5	0.02	3.780634	8	10	0.05	2000	-4.435913	40.92395	-91.39362
3178518	-54	-219	244	-1.674516	-0.1527238	-22.13015	0	11.34	20031	30	14	5	5	0.02	3.840411	8	10	0.05	2000	-5.659668	40.92395	-91.39362
3178618	-847	-1743	-401	-3.293986	1.610355	-21.86201	0	11.34	20033	26	14	5	5	0.02	3.899288	8	10	0.05	2000	-4.554199	40.92395	-91.39362
3178693	1137	1321	199	-2.586164	0.4422956	-21.51602	0	11.34	20031	26	14	5	5	0.02	3.957746	8	10	0.05	2000	-3.636566	40.92395	-91.39362
3178816	-984	-650	-38	-2.791307	-0.8857338	-21.826	0	11.4	20033	28	4	5	5	0.02	4.078319	8	10	0.05	2000	-3.6698	40.92395	-91.39362
3178951	-586	-1308	744	-4.160952	1.495736	-22.15749	0	11.4	20024	26	4	5	5	0.02	4.182304	8	10	0.05	2000	-3.380402	40.92395	-91.39362
3179017	-2	343	371	-3.852092	1.267542	-22.096	0	11.4	20011	22	4	5	5	0.02	4.226998	8	10	0.05	2000	-4.591064	40.92395	-91.39362
3179101	-29	562	127	-3.548671	0.2232883	-22.11036	0	11.4	20032	22	2	5	5	0.02	4.27508	8	10	0.05	2000	-4.591064	40.92395	-91.39362
3179186	-38	91	207	-3.955639	0.2131679	-22.04031	0	11.4	20053	22	-6	5	5	0.02	4.295504	8	10	0.05	2000	-5.748016	40.92394	-91.39362
3179352	373	184	222	-3.209319	-0.8330077	-21.80373	0	11.4	20032	20	-13	5	5	0.02	4.341838	8	10	0.05	2000	-6.682098	40.92394	-91.39362
3179396	299	-47	-291	-2.44873	-0.9356285	-21.81874	0	11.4	20030	20	-14	5	5	0.02	4.345009	8	10	0.05	2000	-6.224152	40.92394	-91.39362
3179517	292	282	-226	-3.635139	-0.9645444	-21.90905	0	11.4	20009	14	-21	5	5	0.02	4.347766	8	10	0.05	2000	-5.469696	40.92394	-91.39362
3179629	121	942	902	-2.584401	-1.871258	-22.07609	0	11.4	20014	16	-22	5	5	0.02	4.329993	8	10	0.05	2000	-5.951721	40.92394	-91.39362
3179694	-261	465	-97	-2.845714	-2.692755	-22.07093	0	10.55	20037	12	-33	5	5	0.02	4.286877	8	10	0.05	2000	-5.951721	40.92393	-91.39362
3179814	-17	874	181	-2.24948	-2.825893	-21.65612	0	10.55	20030	12	-30	5	5	0.02	4.251971	8	10	0.05	2000	-7.242157	40.92393	-91.39362
3179993	1244	1228	-138	-1.12187	-3.911733	-22.13497	0	10.55	20033	5	-38	5	5	0.02	4.12068	8	10	0.05	2000	-4.24292	40.92393	-91.39363
3180038	730	1287	-591	-0.1667158	-4.826785	-21.96399	0	10.55	20030	5	-38	5	5	0.02	4.060233	8	10	0.05	2000	-5.849091	40.92393	-91.39363
3180150	-198	362	-261	0.01635648	-5.061161	-21.94977	0	10.55	20068	2	-54	5	5	0.02	3.973104	8	10	0.05	2000	-3.608154	40.92393	-91.39363
3180207	-480	960	-302	-0.1274832	-5.313967	-21.96728	0	10.55	20053	4	-48	5	5	0.02	3.822922	8	10	0.05	2000	-3.608154	40.92393	-91.39363
3180398	1019	551	580	-0.2358878	-8.113658	-22.02506	0	10.55	20061	-2	-54	5	5	0.02	3.694462	8	10	0.05	2000	-1.426483	40.92393	-91.39363
3180469	699	-18	-498	0.6150993	-5.96093	-21.07172	0	10.55	20012	-2	-54	5	5	0.02	3.527186	8	10	0.05	2000	-2.240906	40.92393	-91.39363
3180569	-90	-2143	848	1.000122	-4.375187	-20.64755	0	10.55	20055	1	-48	5	5	0.02	3.454816	8	10	0.05	2000	-1.389526	40.92393	-91.39363
3180655	-297	191	-1283	-1.934652	-3.05998	-21.13204	0	10.04	20009	-14	-76	5	5	0.02	3.39635	8	10	0.05	2000	-1.124908	40.92392	-91.39364
3180691	1488	2230	540	-0.9846305	-4.226766	-20.79369	0	10.04	20060	-14	-76	5	5	0.02	3.358276	8	10	0.05	2000	-1.394257	40.92392	-91.39364
3180821	-1025	-1827	-1287	-2.064106	-3.376221	-19.89769	0	10.04	20008	-20	-76	5	5	0.02	3.219887	8	10	0.05	2000	-0.7864075	40.92392	-91.39364
3180944	1780	1409	-85	-2.31529	-3.200901	-20.12738	0	10.04	20032	-16	-70	5	5	0.02	3.141041	8	10	0.05	2000	-2.671967	40.92392	-91.39364
3181020	834	1627	1221	-0.5205356	-4.224072	-20.60499	0	10.04	20032	-24	-78	5	5	0.02	3.061779	8	10	0.05	2000	-1.600342	40.92391	-91.39364
3181141	1662	1915	-972	1.119515	-5.46234	-20.03091	0	10.04	20025	-24	-78	5	5	0.02	2.990002	8	10	0.05	2000	-0.4320679	40.92391	-91.39364
3181207	-41	2572	824	0.6165125	-5.969619	-20.04395	0	10.04	20007	-32	-82	5	5	0.02	2.938923	8	10	0.05	2000	-1.387085	40.92391	-91.39365
3181315	-358	-2321	152	1.142265	-4.338309	-19.75256	0	10.04	20054	-24	-68	5	5	0.02	2.845989	8	10	0.05	2000	-0.6539917	40.92391	-91.39365
3181398	-36	-765	680	0.6265475	-3.910335	-20.38268	0	10.04	20032	-28	-72	5	5	0.02	2.831637	8	10	0.05	2000	0.6055772	40.92391	-91.39365
3181560	122	-424	-888	1.158492	-3.920572	-21.40924	0	11	20028	-32	-72	5	5	0.02	2.727386	8	10	0.05	2000	2.006443	40.92391	-91.39365
3181594	407	-448	-693	1.521656	-4.18635	-21.17109	0	11	20033	-32	-72	5	5	0.02	2.712821	8	10	0.05	2000	2.006443	40.92391	-91.39365
3181739	205	-1736	-1021	1.230365	-6.576842	-20.45073	0	11	20031	-32	-72	5	5	0.02	2.684901	8	10	0.05	2000	1.197524	40.92391	-91.39365
3181802	796	865	49	0.8845147	-5.484798	-20.02797	0	11	20038	-32	-72	5	5	0.02	2.671115	8	10	0.05	2000	2.166589	40.92391	-91.39365
3181954	-804	-1131	674	1.554618	-4.837194	-19.09439	0	11	20009	-28	-66	5	5	0.02	2.651212	8	10	0.05	2000	1.305196	40.92391	-91.39365
3182048	1208	2389	581	1.594251	-5.3845	-20.1962	0	11	20042	-26	-64	5	5	0.02	2.655468	8	10	0.05	2000	3.324393	40.92391	-91.39365
3182102	1182	549	526	2.134807	-5.926589	-20.57594	0	11	20032	-22	-60	5	5	0.02	2.671428	8	10	0.05	2000	3.324393	40.92391	-91.39365
3182227	-202	-257	-809	3.764448	-5.152716	-21.80788	0	11	20032	-18	-58	5	5	0.02	2.706117	8	10	0.05	2000	4.948066	40.92391	-91.39365
3182318	47	238	-260	3.600252	-5.422709	-21.62299	0	11	20049	-10	-54	5	5	0.02	2.726629	8	10	0.05	2000	5.898103	40.92391	-91.39365
3182441	27	-25	-531	2.383376	-4.77459	-21.39354	0	11	20029	-4	-44	5	5	0.02	2.832043	8	10	0.05	2000	5.248984	40.92391	-91.39365
3182503	1486	816	-402	2.56074	-5.224551	-20.98719	0	10.83	20022	-4	-46	5	5	0.02	2.86972	8	10	0.05	2000	5.801235	40.92391	-91.39365
3182653	-359	20	1131	1.251881	-4.218532	-22.12284	0	10.83	20031	8	-42	5	5	0.02	3.014205	8	10	0.05	2000	6.144896	40.92392	-91.39364
3182795	-1336	-570	353	0.2938905	-4.421278	-22.74518	0	10.83	20032	17	-40	5	5	0.02	3.152565	8	10	0.05	2000	6.010198	40.92392	-91.39364
3182841	1117	-3	-1851	1.023595	-4.943343	-21.90259	0	10.83	20009	18	-40	5	5	0.02	3.190803	8	10	0.05	2000	6.629303	40.92392	-91.39364
3182933	-811	61	-60	1.404307	-5.502747	-21.49254	0	10.83	20030	14	-42	5	5	0.02	3.24786	8	10	0.05	2000	6.133855	40.92392	-91.39364
3182998	-1528	-1904	516	-0.3730526	-4.201976	-21.39803	0	10.83	20030	29	-34	5	5	0.02	3.285812	8	10	0.05	2000	5.743675	40.92392	-91.39363
3183101	420	935	781	-0.9711695	-3.397543	-22.05403	0	10.83	20031	28	-38	5	5	0.02	3.404586	8	10	0.05	2000	4.360969	40.92392	-91.39363
3183260	-1495	-1603	128	-2.743922	-3.043371	-22.97896	0	10.83	20029	40	-30	5	5	0.02	3.504566	8	10	0.05	2000	5.15178	40.92392	-91.39363
3183364	-52	-994	-2123	-2.288582	-1.606833	-22.8393	0	10.83	20009	49	-24	5	5	0.02	3.608165	8	10	0.05	2000	3.608487	40.92392	-91.39363
3183407	620	551	-1351	-1.901181	-2.097879	-22.64312	0	11.29	20035	50	-24	5	5	0.02	3.644888	8	10	0.05	2000	3.608487	40.92392	-91.39362
3183533	-1302	-25	-221	-1.622899	-3.753851	-21.65892	0	11.29	20031	44	-26	5	5	0.02	3.707923	8	10	0.05	2000	2.01638	40.92393	-91.39362
3183637	946	-300	391	-2.846424	-1.937387	-21.90371	0	11.29	20009	52	-22	5	5	0.02	3.768312	8	10	0.05	2000	0.7595477	40.92393	-91.39362
3183741	-1516	223	1265	-1.758223	-3.086644	-21.82129	0	11.29	20061	63	-14	5	5	0.02	3.797688	8	10	0.05	2000	-0.7988281	40.92393	-91.39362
3183860	-142	-1479	-666	-3.830237	-1.976052	-21.59064	0	11.29	20031	58	-18	5	5	0.02	3.84129	8	10	0.05	2000	-1.586456	40.92393	-91.39362
3183978	-674	594	-922	-2.147484	-1.981272	-21.29025	0	11.29	20052	70	-14	5	5	0.02	3.85766	8	10	0.05	2000	-4.266449	40.92393	-91.39362
3184099	1539	1068	-218	-2.517062	-2.906726	-20.65089	0	11.29	20007	73	-10	5	5	0.02	3.858693	8	10	0.05	2000	-6.041046	40.92393	-91.39362
3184189	-2544	96	1232	-2.679804	-3.447607	-20.52832	0	11.29	20034	74	-10	5	5	0.02	3.853761	8	10	0.05	2000	-6.184265	40.92393	-91.39362
3184257	710	-2777	-1046	-3.433041	-1.446162	-20.79073	0	11.29	20029	66	-14	5	5	0.02	3.843939	8	10	0.05	2000	-8.402466	40.92393	-91.39361
3184329	-682	-780	-354	-2.923374	-0.5699391	-20.81178	0	10.15	20060	78	-6	5	5	0.02	3.82845	8	10	0.05	2000	-10.50986	40.92393	-91.39361
3184405	-2169	1156	-561	-3.470449	-0.8324126	-20.71381	0	10.15	20036	72	-10	5	5	0.02	3.818675	8	10	0.05	2000	-10.50986	40.92393	-91.39361
3184519	553	450	58	-5.212233	-3.540381	-19.94332	0	10.15	20030	76	-2	5	5	0.02	3.801994	8	10	0.05	2000	-13.15784	40.92393	-91.39361
3184597	-87	-1288	1324	-4.132666	-2.401918	-20.02938	0	10.15	20032	70	-3	5	5	0.02	3.787271	8	10	0.05	2000	-16.28397	40.92393	-91.39361
3184735	-535	3113	-88	-6.04306	-2.534109	-20.85934	0	10.15	20055	72	-3	5	5	0.02	3.717214	8	10	0.05	2000	-16.25671	40.92393	-91.39361
3184828	-652	462	598	-4.958731	-4.504877	-19.99403	0	10.15	20037	72	-3	5	5	0.02	3.659347	8	10	0.05	2000	-20.29025	40.92393	-91.39361
3184936	-285	193	205	-6.308079	-6.085394	-20.10724	0	10.15	20017	66	-8	5	5	0.02	3.464576	8	10	0.05	2000	-21.53564	40.92393	-91.39361
3184993	565	-1093	177	-6.030222	-4.41378	-20.49053	0	10.15	20039	66	-8	5	5	0.02	3.293481	8	10	0.05	2000	-22.89264	40.92393	-91.39361
3185111	18	3301	157	-4.913205	-6.609375	-21.53981	0	10.15	20064	64	-12	5	5	0.02	3.085552	8	10	0.05	2000	-24.45093	40.92393	-91.39361
3185211	2657	856	808	-2.450664	-6.394802	-20.945	0	10.43	20012	52	-16	5	5	0.02	2.92226	8	10	0.05	2000	-22.48941	40.92393	-91.39361
3185331	-1256	-791	88	-0.4984419	-5.641408	-19.5148	0	10.43	20029	48	-18	5	5	0.02	2.596813	8	10	0.05	2000	-20.87915	40.92393	-91.39361
3185415	-701	-1563	2051	-2.363147	-3.24083	-20.43736	0	10.43	20028	40	-22	5	5	0.02	2.530046	8	10	0.05	2000	-19.32947	40.92393	-91.39362
3185529	2452	-357	386	0.9329939	-2.293915	-20.78507	0	10.43	20057	40	-22	5	5	0.02	2.344706	8	10	0.05	2000	-22.14868	40.92393	-91.39362
3185620	-3558	542	-80	0.2325449	-3.485759	-21.29172	0	10.43	20057	24	-22	5	5	0.02	2.277143	8	10	0.05	2000	-16.17227	40.92393	-91.39362
3185717	1763	737	-298	-1.911513	-2.57206	-19.41089	0	10.43	20025	24	-22	5	5	0.02	2.217288	8	10	0.05	2000	-15.62524	40.92393	-91.39362
3185868	3204	-184	550	1.35029	-1.576051	-19.7861	0	10.43	20031	14	-24	5	5	0.02	2.134132	8	10	0.05	2000	-13.84473	40.92393	-91.39362
3185957	996	1404	1571	4.838285	-4.28761	-21.47292	0	10.43	20034	-1	-28	5	5	0.02	2.086645	8	10	0.05	2000	-11.51431	40.92393	-91.39362
3186098	2318	1522	-209	8.468654	-3.705216	-22.04496	0	10.43	20010	-17	-30	5	5	0.02	2.045899	8	10	0.05	2000	-5.604065	40.92393	-91.39362
3186167	1910	1042	348	9.863066	-4.329891	-21.34595	0	10.6	20015	-10	-30	5	5	0.02	2.027348	8	10	0.05	2000	-4.415192	40.92393	-91.39362
3186328	-514	-262	-162	6.475885	-1.852151	-21.12114	0	10.6	20031	-26	-34	5	5	0.02	2.030806	8	10	0.05	2000	0.01135913	40.92393	-91.39362
3186408	275	206	319	2.765731	-0.9542827	-21.87341	0	10.6	20031	-18	-32	5	5	0.02	2.032873	8	10	0.05	2000	1.777653	40.92393	-91.39363
3186578	335	-156	156	2.893867	-4.053438	-20.53657	0	10.6	20039	-22	-34	5	5	0.02	2.06299	8	10	0.05	2000	4.571521	40.92393	-91.39363
3186633	-477	280	237	2.423836	-3.989405	-20.57514	0	10.6	24006	-40	-40	5	5	0.02	2.090043	8	10	0.05	2000	4.571521	40.92393	-91.39364
3186731	734	679	-166	1.460566	-4.592951	-20.90473	0	10.6	20028	-34	-34	5	5	0.02	2.104824	8	10	0.05	2000	5.023603	40.92393	-91.39364
3186843	-41	-27	500	0.9291178	-4.17451	-21.83011	0	10.6	20053	-28	-36	5	5	0.02	2.165765	8	10	0.05	2000	7.725872	40.92393	-91.39364
3186916	1602	-507	124	1.094538	-3.362478	-21.85709	0	10.6	20034	-28	-36	5	5	0.02	2.197523	8	10	0.05	2000	7.270778	40.92393	-91.39364
3186998	-411	517	-740	0.970232	-4.043377	-21.68892	0	10.6	20031	-16	-34	5	5	0.02	2.22748	8	10	0.05	2000	8.327828	40.92393	-91.39364
3187101	-3037	976	238	-2.613674	-5.454773	-20.87543	0	10.66	20031	-16	-34	5	5	0.02	2.302981	8	10	0.05	2000	8.236953	40.92393	-91.39364
3187211	-2597	-1742	823	-7.044771	-3.706424	-21.00343	0	10.66	20032	-10	-32	5	5	0.02	2.347345	8	10	0.05	2000	6.721711	40.92393	-91.39364
3187306	399	2076	-56	-8.530483	-3.188133	-21.99164	0	10.66	20052	-4	-32	5	5	0.02	2.383431	8	10	0.05	2000	6.037238	40.92393	-91.39364
3187445	77	-555	-1224	-8.213734	-5.489508	-21.22665	0	10.66	20033	-4	-36	5	5	0.02	2.475336	8	10	0.05	2000	2.548862	40.92393	-91.39364
3187543	1938	166	-253	-4.355929	-5.515577	-20.41624	0	10.66	20062	1	-34	5	5	0.02	2.56302	8	10	0.05	2000	-1.147003	40.92393	-91.39364
3187612	-1043	-956	-718	-4.402071	-4.554505	-20.84595	0	10.66	20037	1	-34	5	5	0.02	2.578434	8	10	0.05	2000	-0.4637756	40.92393	-91.39364
3187701	124	-525	910	-4.379421	-4.350973	-21.42121	0	10.66	20030	0	-34	5	5	0.02	2.6378	8	10	0.05	2000	0.355396	40.92393	-91.39364
3187803	1294	282	-1400	-2.088468	-5.737791	-21.03677	0	10.66	20031	0	-30	5	5	0.02	2.683336	8	10	0.05	2000	-1.978455	40.92393	-91.39364
3187906	-1012	-996	576	-1.009644	-5.498532	-20.60579	0	10.66	20037	0	-30	5	5	0.02	2.772782	8	10	0.05	2000	-0.7276917	40.92393	-91.39364
3188056	910	-1069	4	-2.602097	-1.201738	-21.5126	0	10.43	20054	4	-28	5	5	0.02	2.883583	8	10	0.05	2000	-1.774963	40.92393	-91.39364
3188113	1113	2579	432	-1.699239	-2.550666	-21.6741	0	10.43	20004	4	-24	5	5	0.02	2.929137	8	10	0.05	2000	-1.301849	40.92393	-91.39364
3188294	1003	-415	342	-0.6985211	-3.165007	-21.78522	0	10.43	20035	2	-24	5	5	0.02	3.004378	8	10	0.05	2000	-0.6008606	40.92393	-91.39364
3188344	1930	345	750	0.01004158	-2.87378	-21.90782	0	10.43	20007	2	-20	5	5	0.02	3.08549	8	10	0.05	2000	-0.6008606	40.92393	-91.39364
3188497	-776	-864	-897	-0.9298524	-1.52787	-22.31022	0	10.43	20017	5	-18	5	5	0.02	3.147435	8	10	0.05	2000	0.8521378	40.92393	-91.39364
3188631	-216	231	446	0.1779989	-2.160798	-22.4793	0	10.43	20034	4	-18	5	5	0.02	3.217499	8	10	0.05	2000	0.4413542	40.92393	-91.39363
3188721	-1162	-593	110	-0.4172069	-2.010684	-22.54183	0	10.43	20032	4	-14	5	5	0.02	3.272828	8	10	0.05	2000	-0.04159546	40.92393	-91.39363
3188823	-2349	-268	1153	-2.534862	-1.451191	-22.56563	0	10.43	20033	4	-16	5	5	0.02	3.30804	8	10	0.05	2000	0.2856326	40.92393	-91.39363
3188935	-1596	-365	-661	-6.49663	-0.9341042	-21.77831	0	10.6	20030	8	-12	5	5	0.02	3.342869	8	10	0.05	2000	-0.948761	40.92393	-91.39363
3188980	-1119	878	-267	-7.952205	-2.112205	-21.25552	0	10.6	20050	12	-14	5	5	0.02	3.366224	8	10	0.05	2000	-5.0867	40.92393	-91.39363
3189075	-261	-724	874	-7.725032	-2.064737	-21.46816	0	10.6	20052	10	-16	5	5	0.02	3.370109	8	10	0.05	2000	-6.952698	40.92393	-91.39363
3189162	1340	653	-501	-6.800667	-2.341415	-21.45829	0	10.6	20036	10	-16	5	5	0.02	3.36369	8	10	0.05	2000	-7.7117	40.92393	-91.39363
3189266	-372	-1431	-28	-5.161156	-2.558254	-21.21316	0	10.6	20036	0	0	5	5	0.02	3.330519	3	10	0.05	2000	-8.391022	40.92393	-91.39363
3189335	-163	-799	140	-5.568692	-1.150252	-21.75247	0	10.6	20036	0	0	5	5	0.02	3.28771	3	10	0.05	2000	-9.0336	40.92393	-91.39363
3189423	1612	80	220	-3.767384	-1.094104	-22.45084	0	10.6	20036	0	0	5	5	0.02	3.251667	3	10	0.05	2000	-9.720062	40.92393	-91.39363
3189537	229	1459	-1800	-1.324988	-3.355404	-21.56508	0	10.6	20036	0	0	5	5	0.02	3.150717	3	10	0.05	2000	-9.462982	40.92393	-91.39363
3189623	3670	198	43	0.2155203	-4.150877	-20.97431	0	10.6	20036	0	0	5	5	0.02	3.102711	3	10	0.05	2000	-11.41379	40.92393	-91.39363
3189756	18	39	654	5.710898	-3.107004	-20.53012	0	10.83	20036	0	0	5	5	0.02	3.032768	3	10	0.05	2000	-6.580261	40.92393	-91.39363
3189819	-1001	-499	883	5.223777	-3.044968	-20.99174	0	10.83	20036	0	0	5	5	0.02	2.953912	3	10	0.05	2000	-6.580261	40.92393	-91.39363
3189930	-1066	-2060	-6	1.40087	0.3289945	-23.33443	0	10.83	20036	0	0	5	5	0.02	2.854974	3	10	0.05	2000	-3.138702	40.92393	-91.39364
3190020	-25	653	-1578	1.385585	0.8407074	-23.09491	0	10.83	20036	0	0	5	5	0.02	2.682377	3	10	0.05	2000	-1.50351	40.92393	-91.39364
3190123	-105	3669	-94	0.7314353	-2.266277	-21.86995	0	10.83	20036	0	0	5	5	0.02	2.604004	3	10	0.05	2000	-1.368164	40.92393	-91.39364
3190245	-180	604	528	-0.2850875	-3.256836	-21.33644	0	10.83	20036	0	0	5	5	0.02	2.400121	3	10	0.05	2000	-1.305939	40.92393	-91.39364
3190319	-1419	-80	-47	-0.5047573	-2.53613	-21.71441	0	10.83	20036	0	0	5	5	0.02	2.227203	3	10	0.05	2000	-1.305939	40.92393	-91.39364
3190414	2358	5609	81	3.968028	-5.391212	-22.84571	0	10.83	20036	0	0	5	5	0.02	2.195027	3	10	0.05	2000	0.4016553	40.92393	-91.39364
3190522	1257	5035	944	4.391017	-9.242057	-22.64419	0	10.83	20036	0	0	5	5	0.02	1.975366	3	10	0.05	2000	0.7992071	40.92393	-91.39364
3190616	-599	-2421	1430	1.967967	-6.171638	-21.8242	0	10.89	20036	0	0	5	5	0.02	1.772797	3	10	0.05	2000	0.9902314	40.92393	-91.39364
3190717	34	-852	875	0.6295463	-2.881774	-22.3315	0	10.89	20036	0	0	5	5	0.02	1.708234	3	10	0.05	2000	1.234729	40.92393	-91.39364
3190810	-1031	-498	-1350	1.167291	-2.839232	-21.00819	0	10.89	20036	0	0	5	5	0.02	1.590751	3	10	0.05	2000	0.1341492	40.92393	-91.39364
3190900	-1645	-2885	1252	0.1958442	0.5155001	-20.0992	0	10.89	20036	0	0	5	5	0.02	1.533896	3	10	0.05	2000	-0.1511841	40.92393	-91.39364
3191000	-1532	-2953	-830	-2.811903	4.2991	-19.4095	0	10.89	20036	0	0	5	5	0.02	1.472934	3	10	0.05	2000	0.5882179	40.92393	-91.39364
3191103	1337	-48	-109	-1.476607	5.328246	-19.50827	0	10.89	20036	0	0	5	5	0.02	1.349733	3	10	0.05	2000	-0.400116	40.92393	-91.39364
3191280	933	-815	330	0.6624767	3.062068	-20.65043	0	10.89	20036	0	0	5	5	0.02	1.259811	3	10	0.05	2000	-0.5482788	40.92393	-91.39364
3191305	933	-815	330	0.6624767	3.062068	-20.65043	0	10.89	20036	0	0	5	5	0.02	1.219239	3	10	0.05	2000	-0.5482788	40.92393	-91.39364
3191442	-303	-1589	641	-0.7415369	3.228351	-22.43826	0	10.89	20036	0	0	5	5	0.02	1.165192	3	10	0.05	2000	0.8950606	40.92393	-91.39364
3191503	653	-1137	972	-1.07828	3.841537	-23.03916	0	10.89	20036	0	0	5	5	0.02	1.130619	3	10	0.05	2000	1.812672	40.92393	-91.39364
3191607	1489	306	491	-1.029894	3.758658	-24.97777	0	11.23	20036	0	0	5	5	0.02	1.07047	3	10	0.05	2000	4.079072	40.92393	-91.39364
3191723	-20315	17615	56	0.02055223	1.104233	-25.9372	0	11.23	20036	0	0	5	5	0.02	0.9981934	3	10	0.05	2000	5.960994	40.92393	-91.39364
3191870	50	-1054	203	-2.73906	-3.729816	-28.61642	0	11.23	20036	0	0	5	5	0.02	0.8815481	3	10	0.05	2000	5.675518	40.92393	-91.39364
3191954	-138	35	27	-2.834736	-3.147354	-28.57485	0	11.23	20036	0	0	5	5	0.02	0.8337762	3	10	0.05	2000	5.196512	40.92393	-91.39364
3191993	-66	45	27	-2.819234	-3.017494	-28.58756	0	11.23	20036	0	0	5	5	0.02	0.8182033	3	10	0.05	2000	5.196512	40.92393	-91.39364
3192130	-23	-44	134	-2.702507	-2.542088	-28.6218	0	11.23	20036	0	0	5	5	0.02	0.6912044	3	10	0.05	2000	4.414865	40.92393	-91.39363
3192211	-21	0	77	-2.653094	-2.218328	-28.63984	0	11.23	20036	0	0	5	5	0.02	0.6632085	3	10	0.05	2000	4.258847	40.92393	-91.39363
3192292	-83	-27	30	-2.595044	-1.939057	-28.65353	0	11.23	20036	0	0	5	5	0.02	0.6223447	1	10	0.05	2000	3.999198	40.92393	-91.39363
3192376	-37	-16	83	-2.56858	-1.763639	-28.66553	0	11.23	20036	0	0	5	5	0.02	0.5527227	1	10	0.05	2000	4.669428	40.92393	-91.39363
3192460	-48	25	-2	-2.501029	-1.524152	-28.68308	0	11.29	20036	0	0	5	5	0.02	0.5260189	1	10	0.05	2000	4.895337	40.92393	-91.39363
3192589	-21	9	-21	-2.458457	-1.198041	-28.71432	0	11.29	20036	0	0	5	5	0.02	0.4703861	1	10	0.05	2000	4.045075	40.92393	-91.39364
3192674	-65	2	12	-2.423455	-1.104705	-28.73168	0	11.29	20036	0	0	5	5	0.02	0.4526599	1	10	0.05	2000	3.710998	40.92393	-91.39364
3192777	-47	7	39	-2.399614	-0.9599268	-28.74953	0	11.29	20036	0	0	5	5	0.02	0.4306945	1	10	0.05	2000	3.87601	40.92393	-91.39364
3192896	-66	5	4	-2.360449	-0.8074759	-28.7754	0	11.29	20036	0	0	5	5	0.02	0.4140231	1	10	0.05	2000	3.812899	40.92393	-91.39364
3192973	-34	30	10	-2.328279	-0.7065818	-28.79521	0	11.29	20036	0	0	5	5	0.02	0.4072089	1	10	0.05	2000	4.194035	40.92393	-91.39364
3193024	-42	4	16	-2.313012	-0.6480181	-28.80554	0	11.29	20036	0	0	5	5	0.02	0.3994521	1	10	0.05	2000	3.315926	40.92393	-91.39364
3193136	-34	5	-11	-2.292616	-0.5402466	-28.82516	0	11.29	20036	0	0	5	5	0.02	0.3870232	1	10	0.05	2000	3.434717	40.92393	-91.39364
3193265	-52	3	17	-2.277394	-0.4721719	-28.8435	0	11.34	20036	0	0	5	5	0.02	0.3755378	1	10	0.05	2000	3.395798	40.92393	-91.39364
3193355	-47	1	20	-2.271054	-0.4259127	-28.85322	0	11.34	20036	0	0	5	5	0.02	0.3651567	1	10	0.05	2000	3.395798	40.92393	-91.39364
3193423	-42	6	9	-2.264389	-0.3739229	-28.87022	0	11.34	20036	0	0	5	5	0.02	0.3581801	1	10	0.05	2000	3.178809	40.92393	-91.39364
3193495	-45	8	9	-2.258343	-0.3416059	-28.88208	0	11.34	20036	0	0	5	5	0.02	0.3402219	1	10	0.05	2000	3.159405	40.92393	-91.39364
3193645	-42	-5	18	-2.234539	-0.2704338	-28.91106	0	11.34	20036	0	0	5	5	0.02	0.3121175	1	10	0.05	2000	3.131834	40.92393	-91.39364
3193719	-45	-2	5	-2.231637	-0.2467374	-28.92213	0	11.34	20036	0	0	5	5	0.02	0.3012127	1	10	0.05	2000	3.114705	40.92393	-91.39364
3193877	-39	2	11	-2.208539	-0.1898819	-28.94866	0	11.34	20036	0	0	5	5	0.02	0.2874982	1	10	0.05	2000	3.299949	40.92393	-91.39364
3193927	-41	3	7	-2.203439	-0.1765487	-28.95918	0	11.34	20036	0	0	5	5	0.02	0.2812415	1	10	0.05	2000	3.299949	40.92393	-91.39364
3193978	-40	-6	9	-2.201461	-0.164798	-28.96395	0	11.34	20036	0	0	5	5	0.02	0.2743482	1	10	0.05	2000	3.278071	40.92393	-91.39364
3194122	-45	0	12	-2.19357	-0.132662	-28.9876	0	11.34	20036	0	0	5	5	0.02	0.2544425	1	10	0.05	2000	2.827751	40.92393	-91.39364
3194182	-38	2	7	-2.193141	-0.126183	-28.99335	0	11.29	20036	0	0	5	5	0.02	0.2476551	1	10	0.05	2000	3.252243	40.92393	-91.39364
3194325	-42	0	14	-2.187047	-0.1045116	-29.02074	0	11.29	20036	0	0	5	5	0.02	0.2381297	1	10	0.05	2000	3.250731	40.92393	-91.39364
3194463	-64	-13	-12	-2.182087	-0.05910406	-29.03724	0	11.29	20036	0	0	5	5	0.02	0.2401074	1	10	0.05	2000	3.241541	40.92393	-91.39364
3194555	-41	-13	12	-2.197011	-0.05600753	-29.04844	0	11.29	20036	0	0	5	5	0.02	0.2463352	1	10	0.05	2000	3.018279	40.92393	-91.39364
3194648	-44	0	4	-2.19067	-0.04902341	-29.0636	0	11.29	20036	0	0	5	5	0.02	0.2553795	1	10	0.05	2000	3.043179	40.92393	-91.39364
3194674	-47	4	7	-2.188774	-0.04594325	-29.06971	0	11.29	20036	0	0	5	5	0.02	0.2584094	1	10	0.05	2000	3.043179	40.92393	-91.39364
3194849	-41	4	6	-2.197011	-0.02528995	-29.09899	0	11.29	20036	0	0	5	5	0.02	0.2760544	1	10	0.05	2000	3.056379	40.92393	-91.39364
3194933	-40	-2	12	-2.191251	-0.01723964	-29.10895	0	11.29	20036	0	0	5	5	0.02	0.2866332	1	10	0.05	2000	3.0337	40.92393	-91.39364
3195064	0	73	5	-2.181134	-0.0863087	-29.11709	0	11.29	20036	0	0	5	5	0.02	0.2945896	1	10	0.05	2000	3.025017	40.92393	-91.39364
3195108	-502	-28	352	-2.243892	-0.2535756	-29.11635	0	11.34	20036	0	0	5	5	0.02	0.297117	1	10	0.05	2000	3.214284	40.92393	-91.39364
3195290	-1190	-4953	-826	-6.660525	9.328135	-28.75167	0	11.34	20036	0	0	5	5	0.02	0.3232275	1	10	0.05	2000	3.892236	40.92393	-91.39364
3195373	2382	933	-1905	-2.562364	11.53584	-25.63204	0	11.34	20036	0	0	5	5	0.02	0.3365222	1	10	0.05	2000	4.031963	40.92393	-91.39364
3195476	-699	259	-2006	-2.391548	11.37195	-23.40792	0	11.34	20036	0	0	5	5	0.02	0.3596121	1	10	0.05	2000	5.151797	40.92393	-91.39364
3195625	-3624	302	138	-9.072411	11.60194	-20.69236	0	11.34	20036	0	0	5	5	0.02	0.3795849	1	10	0.05	2000	4.124472	40.92393	-91.39364
3195690	-3431	-73	368	-10.76746	11.65626	-20.84073	0	11.34	20036	0	0	5	5	0.02	0.390296	1	10	0.05	2000	3.06681	40.92393	-91.39364
3195798	126	1003	559	-14.0515	7.058485	-22.06591	0	11.34	20036	0	0	5	5	0.02	0.4174848	1	10	0.05	2000	0.1531041	40.92393	-91.39364
3195871	-1638	342	-473	-13.96752	6.580003	-22.23538	0	11.34	20036	0	0	5	5	0.02	0.4272088	1	10	0.05	2000	0.1531041	40.92393	-91.39364
3195994	246	172	-1266	-14.17494	6.569407	-20.59817	0	11.4	20036	0	0	5	5	0.02	0.4521503	1	10	0.05	2000	-2.117554	40.92393	-91.39364
3196105	1680	98	-518	-9.509017	6.159373	-18.72836	0	11.4	20036	0	0	5	5	0.02	0.4819033	1	10	0.05	2000	-4.416412	40.92393	-91.39363
3196171	2664	88	80	-8.175868	5.810181	-18.62845	0	11.4	20036	0	0	5	5	0.02	0.4922118	1	10	0.05	2000	-4.773041	40.92393	-91.39363
3196309	-718	-1863	2217	-3.445814	4.003497	-22.65902	0	11.4	20036	0	0	5	5	0.02	0.5249389	1	10	0.05	2000	-3.095215	40.92393	-91.39364
3196369	-496	-573	2310	-3.757462	4.021818	-23.92064	0	11.4	20036	0	0	5	5	0.02	0.5352497	1	10	0.05	2000	-1.733032	40.92393	-91.39364
3196462	80	2087	946	-1.892879	-0.1206478	-28.41285	0	11.4	20036	0	0	5	5	0.02	0.5460777	1	10	0.05	2000	-0.3951111	40.92393	-91.39364
3196669	1120	-724	595	-0.1298659	-2.357204	-27.19135	0	11.4	20036	0	0	5	5	0.02	0.5437506	1	10	0.05	2000	0.08194418	40.92393	-91.39364
3196722	-351	-246	-18	0.2339526	-1.858299	-27.12873	0	11.4	20036	0	0	5	5	0.02	0.5395453	1	10	0.05	2000	-0.2739868	40.92393	-91.39364
3196783	219	-422	-12	-0.03531962	-1.847462	-27.09083	0	11.4	20036	0	0	5	5	0.02	0.5354962	1	10	0.05	2000	-0.6678772	40.92393	-91.39364
3196857	5	126	-31	0.4335471	-1.098427	-26.99906	0	11.4	20036	0	0	5	5	0.02	0.5300912	1	10	0.05	2000	-0.5149536	40.92393	-91.39364
3197053	-122	68	-4	-0.3587562	-1.542649	-27.07286	0	11.34	20036	0	0	5	5	0.02	0.5210463	1	10	0.05	2000	-0.5062561	40.92393	-91.39364
3197100	-23	-47	29	-0.3763862	-1.389924	-27.08203	0	11.34	20036	0	0	5	5	0.02	0.5200946	1	10	0.05	2000	-0.1278381	40.92393	-91.39364
3197208	-90	23	-10	-0.5006124	-1.337042	-27.09921	0	11.34	20036	0	0	5	5	0.02	0.5163112	1	10	0.05	2000	0.01393893	40.92393	-91.39364
3197248	-36	-26	21	-0.5447326	-1.252449	-27.1049	0	11.34	20036	0	0	5	5	0.02	0.5163764	1	10	0.05	2000	0.01393893	40.92393	-91.39364
3197406	-48	0	12	-0.6804892	-1.140328	-27.13259	0	11.34	20036	0	0	5	5	0.02	0.5072032	1	10	0.05	2000	0.06128211	40.92393	-91.39364
3197531	-42	-6	12	-0.7368034	-1.068662	-27.14891	0	11.34	20036	0	0	5	5	0.02	0.5051016	1	10	0.05	2000	0.6509815	40.92393	-91.39364
3197606	-42	5	9	-0.77454	-1.012562	-27.16443	0	11.34	20036	0	0	5	5	0.02	0.5033926	1	10	0.05	2000	0.4783888	40.92393	-91.39364
3197716	-36	0	8	-0.8230226	-0.939926	-27.18375	0	11.34	20036	0	0	5	5	0.02	0.5033381	1	10	0.05	2000	0.5495121	40.92393	-91.39364
3197791	-40	2	6	-0.8516418	-0.9132683	-27.19267	0	11.4	20036	0	0	5	5	0.02	0.5042753	1	10	0.05	2000	0.3690963	40.92393	-91.39364
3197890	-47	1	8	-0.89658	-0.8640277	-27.21107	0	11.4	20036	0	0	5	5	0.02	0.4996699	1	10	0.05	2000	0.437731	40.92393	-91.39364
3197970	-41	0	13	-0.9198756	-0.847602	-27.22024	0	11.4	20036	0	0	5	5	0.02	0.4924041	1	10	0.05	2000	0.4729603	40.92393	-91.39364
3198055	-46	7	5	-0.9412863	-0.8217965	-27.22995	0	11.4	20036	0	0	5	5	0.02	0.4828499	1	10	0.05	2000	0.7239438	40.92393	-91.39364
3198097	-50	3	9	-0.9510941	-0.8148356	-27.23594	0	11.4	20036	0	0	5	5	0.02	0.4734631	1	10	0.05	2000	0.5209289	40.92393	-91.39364
3198263	-49	0	8	-0.9851637	-0.7819987	-27.25739	0	11.4	20036	0	0	5	5	0.02	0.4464418	1	10	0.05	2000	0.7810988	40.92393	-91.39364
3198361	-45	1	11	-1.005151	-0.7581109	-27.2712	0	11.4	20036	0	0	5	5	0.02	0.4202577	1	10	0.05	2000	0.5922783	40.92393	-91.39364
3198398	-48	0	8	-1.011524	-0.7551984	-27.27579	0	11.4	20036	0	0	5	5	0.02	0.4106729	1	10	0.05	2000	0.6119909	40.92393	-91.39364
3198501	-40	0	8	-1.028253	-0.7322283	-27.29369	0	11.4	20036	0	0	5	5	0.02	0.3923627	1	10	0.05	2000	0.6415269	40.92393	-91.39364
3198632	-41	5	14	-1.035089	-0.7172694	-27.30738	0	11.4	20036	0	0	5	5	0.02	0.3757555	1	10	0.05	2000	0.8617754	40.92393	-91.39364
3198709	-38	0	11	-1.04715	-0.701659	-27.32088	0	11.34	20036	0	0	5	5	0.02	0.3649646	1	10	0.05	2000	0.6670523	40.92393	-91.39364
3198828	-40	-2	10	-1.05374	-0.688758	-27.33579	0	11.34	20036	0	0	5	5	0.02	0.3546691	1	10	0.05	2000	0.6769217	40.92393	-91.39364
3198904	-38	0	10	-1.054108	-0.6827549	-27.34509	0	11.34	20036	0	0	5	5	0.02	0.3579311	1	10	0.05	2000	1.110016	40.92393	-91.39364
3199037	-42	2	13	-1.065478	-0.6704708	-27.36366	0	11.34	20036	0	0	5	5	0.02	0.3652765	1	10	0.05	2000	0.9121782	40.92393	-91.39364
3199149	-46	1	5	-1.068317	-0.6569871	-27.37767	0	11.34	20036	0	0	5	5	0.02	0.3732816	1	10	0.05	2000	1.135131	40.92393	-91.39364
3199211	-35	-5	10	-1.073171	-0.6492526	-27.38996	0	11.34	20036	0	0	5	5	0.02	0.3826973	1	10	0.05	2000	1.139016	40.92393	-91.39364
3199365	-41	1	-1	-1.082629	-0.6405056	-27.40799	0	11.34	20036	0	0	5	5	0.02	0.4026628	1	10	0.05	2000	0.9385168	40.92393	-91.39364
3199453	-43	1	7	-1.085169	-0.6329253	-27.42229	0	11.34	20036	0	0	5	5	0.02	0.4113273	1	10	0.05	2000	0.9410916	40.92393	-91.39364
3199548	-41	1	8	-1.091831	-0.6287987	-27.43164	0	11.34	20036	0	0	5	5	0.02	0.4247955	1	10	0.05	2000	1.167085	40.92393	-91.39364
3199628	-44	0	4	-1.092978	-0.6290903	-27.43903	0	11.4	20036	0	0	5	5	0.02	0.4293948	1	10	0.05	2000	0.9548211	40.92393	-91.39364
3199746	-51	7	8	-1.09375	-0.6214278	-27.46172	0	11.4	20036	0	0	5	5	0.02	0.4293493	1	10	0.05	2000	0.9494565	40.92393	-91.39364
3199810	-50	0	11	-1.093103	-0.619656	-27.46666	0	11.4	20036	0	0	5	5	0.02	0.4287678	1	10	0.05	2000	0.7403396	40.92393	-91.39364
3199911	-41	3	10	-1.090485	-0.6235735	-27.47981	0	11.4	20036	0	0	5	5	0.02	0.4215523	1	10	0.05	2000	0.9469376	40.92393	-91.39364
3200031	-43	-4	8	-1.100464	-0.6129019	-27.50242	0	11.4	20036	0	0	5	5	0.02	0.4100516	1	10	0.05	2000	0.9675599	40.92393	-91.39364
3200105	-43	5	3	-1.103111	-0.6116672	-27.5119	0	11.4	20036	0	0	5	5	0.02	0.4042149	1	10	0.05	2000	0.9675599	40.92393	-91.39364
3200207	-43	0	6	-1.105376	-0.6136982	-27.52228	0	11.4	20036	0	0	5	5	0.02	0.3941725	1	10	0.05	2000	0.966711	40.92393	-91.39364
3200329	-46	3	12	-1.115655	-0.6098582	-27.54091	0	11.4	20036	0	0	5	5	0.02	0.3889959	1	10	0.05	2000	0.7686423	40.92393	-91.39364
3200397	-47	4	13	-1.115103	-0.6107474	-27.54593	0	11.4	20036	0	0	5	5	0.02	0.3863195	1	10	0.05	2000	0.7686423	40.92393	-91.39364
3200505	-39	-1	7	-1.114839	-0.6114638	-27.56378	0	11.34	20036	0	0	5	5	0.02	0.3815843	1	10	0.05	2000	0.9830089	40.92393	-91.39364
3200635	-39	2	10	-1.105462	-0.6075531	-27.58193	0	11.34	20036	0	0	5	5	0.02	0.3762765	1	10	0.05	2000	0.9708985	40.92393	-91.39364
3200744	-36	6	2	-1.105188	-0.6065016	-27.5963	0	11.34	20036	0	0	5	5	0.02	0.3686885	1	10	0.05	2000	0.7567685	40.92393	-91.39364
3200801	-40	0	4	-1.107269	-0.6058627	-27.60565	0	11.34	20036	0	0	5	5	0.02	0.3727888	1	10	0.05	2000	0.7494845	40.92393	-91.39364
3200926	-37	1	1	-1.105842	-0.6033592	-27.62264	0	11.34	20036	0	0	5	5	0.02	0.3970503	1	10	0.05	2000	0.7525165	40.92393	-91.39364
3201004	-40	6	6	-1.101458	-0.6041464	-27.63083	0	11.34	20036	0	0	5	5	0.02	0.4127592	1	10	0.05	2000	0.7571943	40.92393	-91.39364
3201151	-44	-2	6	-1.107471	-0.602761	-27.645	0	11.34	20036	0	0	5	5	0.02	0.4395041	1	10	0.05	2000	0.9648082	40.92393	-91.39364
3201222	-44	-1	10	-1.108928	-0.6032975	-27.65857	0	11.34	20036	0	0	5	5	0.02	0.4461511	1	10	0.05	2000	0.7606942	40.92393	-91.39364
3201316	-46	-4	5	-1.102284	-0.6085519	-27.67171	0	11.34	20036	0	0	5	5	0.02	0.4526921	1	10	0.05	2000	0.7442886	40.92393	-91.39364
3201469	-39	0	6	-1.095427	-0.6056155	-27.69042	0	11.34	20036	0	0	5	5	0.02	0.4653501	1	10	0.05	2000	0.7414536	40.92393	-91.39364
3201510	-47	2	5	-1.098793	-0.6043662	-27.69439	0	11.34	20036	0	0	5	5	0.02	0.4648444	1	10	0.05	2000	0.7414536	40.92393	-91.39364
3201614	-47	1	4	-1.10441	-0.6030872	-27.7044	0	11.34	20036	0	0	5	5	0.02	0.4613241	1	10	0.05	2000	0.7537999	40.92393	-91.39364
3201731	-45	1	6	-1.101041	-0.6033065	-27.72175	0	11.34	20036	0	0	5	5	0.02	0.4609018	1	10	0.05	2000	0.9624022	40.92393	-91.39364
3201854	-39	-5	10	-1.108095	-0.6060842	-27.73397	0	11.34	20036	0	0	5	5	0.02	0.4597806	1	10	0.05	2000	1.185877	40.92393	-91.39364
3201935	-42	-2	10	-1.105151	-0.6035254	-27.75003	0	11.34	20036	0	0	5	5	0.02	0.4558384	1	10	0.05	2000	0.9778176	40.92393	-91.39364
3202023	-42	4	2	-1.101446	-0.5984038	-27.75969	0	11.34	20036	0	0	5	5	0.02	0.452516	1	10	0.05	2000	0.9649767	40.92393	-91.39364
3202134	-39	0	9	-1.107155	-0.5983977	-27.77124	0	11.34	20036	0	0	5	5	0.02	0.4538662	1	10	0.05	2000	0.7564726	40.92393	-91.39364
3202211	-43	4	11	-1.104501	-0.5993666	-27.78377	0	11.34	20036	0	0	5	5	0.02	0.4558156	1	10	0.05	2000	0.9734354	40.92393	-91.39364
3202325	-42	-1	9	-1.107173	-0.6033311	-27.79703	0	11.4	20036	0	0	5	5	0.02	0.4571163	1	10	0.05	2000	0.9753503	40.92393	-91.39364
3202448	-43	-2	8	-1.096031	-0.6105534	-27.81487	0	11.4	20036	0	0	5	5	0.02	0.4535441	1	10	0.05	2000	0.9609948	40.92393	-91.39364
3202532	-47	0	7	-1.104725	-0.603279	-27.82862	0	11.4	20036	0	0	5	5	0.02	0.4443893	1	10	0.05	2000	0.9645345	40.92393	-91.39364
3202607	-40	0	6	-1.104096	-0.596383	-27.84348	0	11.4	20036	0	0	5	5	0.02	0.4408094	1	10	0.05	2000	0.7512812	40.92393	-91.39364
3202663	-43	-6	8	-1.105675	-0.5962574	-27.84806	0	11.4	20036	0	0	5	5	0.02	0.4389335	1	10	0.05	2000	0.7512812	40.92393	-91.39364
3202765	-35	1	10	-1.099245	-0.5968407	-27.86242	0	11.4	20036	0	0	5	5	0.02	0.4190977	1	10	0.05	2000	0.9639912	40.92393	-91.39364
3202909	-46	-11	4	-1.101971	-0.6027101	-27.88307	0	11.4	20036	0	0	5	5	0.02	0.4086829	1	10	0.05	2000	0.9592302	40.92393	-91.39364
3203019	-35	1	8	-1.10254	-0.6023897	-27.89224	0	11.4	20036	0	0	5	5	0.02	0.4076596	1	10	0.05	2000	1.176729	40.92393	-91.39364
3203118	-34	-6	14	-1.095241	-0.5998281	-27.90599	0	11.4	20036	0	0	5	5	0.02	0.4113393	1	10	0.05	2000	0.7391557	40.92393	-91.39364
3203222	-35	-1	5	-1.089161	-0.5958571	-27.92285	0	11.4	20036	0	0	5	5	0.02	0.4149236	1	10	0.05	2000	0.7348888	40.92393	-91.39364
3203365	-45	-1	5	-1.086879	-0.6010768	-27.93684	0	11.4	20036	0	0	5	5	0.02	0.4216613	1	10	0.05	2000	1.153385	40.92393	-91.39364
3203419	-37	10	3	-1.088219	-0.6020674	-27.93995	0	11.4	20036	0	0	5	5	0.02	0.4261563	1	10	0.05	2000	1.153385	40.92393	-91.39364
3203478	-35	1	13	-1.079676	-0.6018373	-27.95101	0	11.4	20036	0	0	5	5	0.02	0.4295405	1	10	0.05	2000	0.9291278	40.92393	-91.39364
3203561	-41	-2	3	-1.081599	-0.6013945	-27.9578	0	11.4	20036	0	0	5	5	0.02	0.4349788	1	10	0.05	2000	0.7150124	40.92393	-91.39364
3203685	-38	-3	13	-1.074229	-0.6041835	-27.97399	0	11.4	20036	0	0	5	5	0.02	0.436395	1	10	0.05	2000	0.9227332	40.92393	-91.39364
3203767	-38	1	3	-1.074317	-0.6052563	-27.97937	0	11.4	20036	0	0	5	5	0.02	0.434795	1	10	0.05	2000	0.9200163	40.92393	-91.39364
3203922	-41	4	6	-1.070519	-0.6084978	-27.99501	0	11.4	20036	0	0	5	5	0.02	0.4293319	1	10	0.05	2000	0.92232	40.92393	-91.39364
3203985	-36	2	4	-1.068947	-0.6092381	-28.00637	0	11.4	20036	0	0	5	5	0.02	0.4206826	1	10	0.05	2000	0.9209706	40.92393	-91.39364
3204113	-35	1	6	-1.067673	-0.6162969	-28.01394	0	11.4	20036	0	0	5	5	0.02	0.4191188	1	10	0.05	2000	0.9165784	40.92393	-91.39364
3204227	-46	2	7	-1.058558	-0.6103527	-28.03172	0	11.4	20036	0	0	5	5	0.02	0.4197471	1	10	0.05	2000	0.8964363	40.92393	-91.39364
3204269	-38	0	4	-1.059144	-0.6132492	-28.03752	0	11.4	20036	0	0	5	5	0.02	0.4209681	1	10	0.05	2000	0.9090566	40.92393	-91.39364
3204406	-35	-4	1	-1.060328	-0.6144851	-28.05028	0	11.4	20036	0	0	5	5	0.02	0.4271161	1	10	0.05	2000	0.9063038	40.92393	-91.39364
3204458	-42	-1	6	-1.061763	-0.614202	-28.05218	0	11.4	20036	0	0	5	5	0.02	0.4300781	1	10	0.05	2000	0.9063038	40.92393	-91.39364
3204574	-38	-4	5	-1.058553	-0.6160949	-28.06311	0	11.4	20036	0	0	5	5	0.02	0.4333754	1	10	0.05	2000	0.9035764	40.92393	-91.39364
3204699	-39	-2	6	-1.056918	-0.6045583	-28.07924	0	11.4	20036	0	0	5	5	0.02	0.4316002	1	10	0.05	2000	1.117332	40.92393	-91.39364
3204761	-40	-3	6	-1.055616	-0.6035014	-28.0815	0	11.4	20036	0	0	5	5	0.02	0.4243588	1	10	0.05	2000	0.8990221	40.92393	-91.39364
3204907	-32	-6	9	-1.054501	-0.5968441	-28.10263	0	11.4	20036	0	0	5	5	0.02	0.4183343	1	10	0.05	2000	0.6779688	40.92393	-91.39364
3205084	-43	1	1	-1.051387	-0.6007202	-28.11931	0	11.4	20036	0	0	5	5	0.02	0.400843	1	10	0.05	2000	0.6822079	40.92393	-91.39364
3205169	-35	3	8	-1.048895	-0.5979024	-28.12945	0	11.4	20036	0	0	5	5	0.02	0.397311	1	10	0.05	2000	1.103152	40.92393	-91.39364
3205273	-37	0	7	-1.044417	-0.6014915	-28.1358	0	11.4	20036	0	0	5	5	0.02	0.3925066	1	10	0.05	2000	1.101273	40.92393	-91.39364
3205426	-44	4	6	-1.044513	-0.5997329	-28.14948	0	11.4	20036	0	0	5	5	0.02	0.3993622	1	10	0.05	2000	0.6594197	40.92393	-91.39364
3205528	-33	-3	8	-1.048166	-0.5990689	-28.15865	0	11.4	20036	0	0	5	5	0.02	0.3989659	1	10	0.05	2000	1.099506	40.92393	-91.39364
3205553	-39	-3	6	-1.042478	-0.5977675	-28.16439	0	11.4	20036	0	0	5	5	0.02	0.3990496	1	10	0.05	2000	0.6617636	40.92393	-91.39364
3205677	-32	0	5	-1.043497	-0.594882	-28.1741	0	11.4	20036	0	0	5	5	0.02	0.4021996	1	10	0.05	2000	0.6638253	40.92393	-91.39364
3205757	-31	-2	4	-1.043274	-0.5957102	-28.18461	0	11.4	20036	0	0	5	5	0.02	0.4057005	1	10	0.05	2000	0.8765475	40.92393	-91.39364
3205967	-37	3	10	-1.029056	-0.5966959	-28.2025	0	11.4	20036	0	0	5	5	0.02	0.4034514	1	10	0.05	2000	0.6354107	40.92393	-91.39364
3206064	-36	6	4	-1.026635	-0.6000167	-28.21019	0	11.4	20036	0	0	5	5	0.02	0.4065756	1	10	0.05	2000	1.071888	40.92393	-91.39364
3206216	-37	0	9	-1.02303	-0.595518	-28.22492	0	11.4	20036	0	0	5	5	0.02	0.4132397	1	10	0.05	2000	0.8480604	40.92393	-91.39364
3206344	-35	6	11	-1.024174	-0.5965793	-28.23793	0	11.4	20036	0	0	5	5	0.02	0.4211434	1	10	0.05	2000	0.6362985	40.92393	-91.39364
3206420	-38	3	4	-1.020368	-0.6018744	-28.24599	0	11.4	20036	0	0	5	5	0.02	0.4283322	1	10	0.05	2000	0.8444538	40.92393	-91.39364
3206522	-37	-2	7	-1.021594	-0.6088321	-28.25515	0	11.4	20036	0	0	5	5	0.02	0.433141	1	10	0.05	2000	0.6278496	40.92393	-91.39364
3206552	-36	3	7	-1.023644	-0.6095293	-28.25863	0	11.4	20036	0	0	5	5	0.02	0.4333346	1	10	0.05	2000	1.063724	40.92393	-91.39364
3206677	-32	-7	4	-1.024714	-0.6104186	-28.26803	0	11.4	20036	0	0	5	5	0.02	0.4386779	1	10	0.05	2000	0.8598962	40.92393	-91.39364
3206774	-36	3	5	-1.016313	-0.6117394	-28.27584	0	11.4	20036	0	0	5	5	0.02	0.4392411	1	10	0.05	2000	0.8492851	40.92393	-91.39364
3206864	-38	1	10	-1.016322	-0.6154513	-28.28592	0	11.34	20036	0	0	5	5	0.02	0.4341686	1	10	0.05	2000	0.6248417	40.92393	-91.39364
3206945	-37	2	9	-1.006909	-0.6146547	-28.29228	0	11.34	20036	0	0	5	5	0.02	0.4307339	1	10	0.05	2000	0.6248417	40.92393	-91.39364
3207058	-39	0	3	-1.008466	-0.6105698	-28.30474	0	11.34	20036	0	0	5	5	0.02	0.4215712	1	10	0.05	2000	0.6061988	40.92393	-91.39364
3207144	-32	-1	5	-1.004325	-0.6088957	-28.3092	0	11.34	20036	0	0	5	5	0.02	0.4163975	1	10	0.05	2000	0.609378	40.92393	-91.39364
3207281	-34	-3	5	-0.9986091	-0.6049267	-28.32062	0	11.34	20036	0	0	5	5	0.02	0.4105527	1	10	0.05	2000	0.6065569	40.92393	-91.39364
3207349	-33	0	6	-0.9974772	-0.6079161	-28.32837	0	11.34	20036	0	0	5	5	0.02	0.4060352	1	10	0.05	2000	0.8143096	40.92393	-91.39364
3207451	-31	1	6	-0.9934507	-0.6071586	-28.33276	0	11.34	20036	0	0	5	5	0.02	0.3985231	1	10	0.05	2000	0.8054478	40.92393	-91.39364
3207553	-37	0	6	-0.9954539	-0.6076531	-28.34149	0	11.34	20036	0	0	5	5	0.02	0.3923357	1	10	0.05	2000	0.8102887	40.92393	-91.39364
3207657	-30	1	5	-0.994216	-0.6054606	-28.35273	0	11.34	20036	0	0	5	5	0.02	0.3922375	1	10	0.05	2000	0.5937196	40.92393	-91.39364
3207761	-33	0	2	-0.9901828	-0.6102849	-28.35713	0	11.34	20036	0	0	5	5	0.02	0.3913685	1	10	0.05	2000	1.014027	40.92393	-91.39364
3207912	-29	4	3	-0.9929641	-0.6176251	-28.37117	0	11.4	20036	0	0	5	5	0.02	0.3992177	1	10	0.05	2000	0.8076871	40.92393	-91.39364
3207997	-35	2	8	-0.9848554	-0.6165929	-28.37868	0	11.4	20036	0	0	5	5	0.02	0.4044588	1	10	0.05	2000	0.8026108	40.92393	-91.39364
3208067	-31	2	9	-0.9786054	-0.6136717	-28.38417	0	11.4	20036	0	0	5	5	0.02	0.4064122	1	10	0.05	2000	0.7875875	40.92393	-91.39364
