time(ms)	gyro_x(deg/s)	gyro_y(deg/s)	gyro_z(deg/s)	orientation_roll(deg)	orientation_pitch(deg)	orientation_yaw(deg)	throttle	battery(V)	loop_time(uS)	pid_output_roll	pid_output_pitch	pid_output_yaw	pid_output_throttle	ultrasonic_alt	baro_alt	flight_mode	p_gain_altitude	i_gain_altitude	d_gain_altitude	compass_heading	latitude	longitude
3486540	5047	1028	587	0.6288992	-6.15461	-64.37257	0	10.15	20057	0	0	5	5	0.02	1.723738	3	10	0.05	2000	-11.5061	40.92393	-91.39361
3486569	5047	1028	587	0.6288992	-6.15461	-64.37257	0	10.15	20057	0	0	5	5	0.02	1.710758	3	10	0.05	2000	-11.5061	40.92393	-91.39361
3486668	5445	-1686	-668	8.38327	-3.345316	-64.27602	0	10.15	20057	0	0	5	5	0.02	1.666357	3	10	0.05	2000	-8.980194	40.92393	-91.39361
3486808	80	527	-158	11.80015	-3.967604	-63.76166	0	10.15	20057	0	0	5	5	0.02	1.5373	3	10	0.05	2000	-7.489624	40.92393	-91.39361
3486904	-1984	-1543	-1267	8.39719	-3.859942	-62.9521	0	10.66	20057	0	0	5	5	0.02	1.481306	3	10	0.05	2000	0.5773139	40.92393	-91.39362
3487018	-1499	-1015	85	5.100732	-1.506435	-61.47988	0	10.66	20057	0	0	5	5	0.02	1.410352	3	10	0.05	2000	2.269901	40.92393	-91.39362
3487074	218	-795	-84	4.627376	-1.220143	-61.11848	0	10.66	20057	0	0	5	5	0.02	1.339455	3	10	0.05	2000	2.269901	40.92393	-91.39362
3487187	55	-1118	24	3.440443	1.198022	-60.63986	0	10.66	20057	0	0	5	5	0.02	1.297443	3	10	0.05	2000	2.959545	40.92393	-91.39362
3487351	-866	182	213	-0.854031	2.597288	-61.78437	0	10.66	20057	0	0	5	5	0.02	1.227778	3	10	0.05	2000	7.922946	40.92393	-91.39362
3487422	-980	245	502	-1.856853	2.683636	-62.00091	0	10.66	20057	0	0	5	5	0.02	1.190522	3	10	0.05	2000	7.922946	40.92393	-91.39362
3487486	128	3437	-702	-1.227327	-3.655411	-61.83188	0	10.66	20057	0	0	5	5	0.02	1.177657	3	10	0.05	2000	-5.182495	40.92393	-91.39362
3487599	181	-291	-316	-2.030643	-1.237116	-62.61298	0	10.66	20057	0	0	5	5	0.02	1.108169	3	10	0.05	2000	-2.728851	40.92393	-91.39362
3487711	-92	101	-59	-2.027984	-0.842096	-62.45364	0	10.66	20057	0	0	5	5	0.02	1.063336	3	10	0.05	2000	-2.830139	40.92393	-91.39362
3487856	-5	3	36	-2.049523	-0.6974843	-62.46904	0	10.89	20057	0	0	5	5	0.02	0.9925214	1	10	0.05	2000	-2.11792	40.92393	-91.39362
3487965	-31	12	101	-2.083647	-0.5597457	-62.49637	0	10.89	20057	0	0	5	5	0.02	0.9338669	1	10	0.05	2000	-2.395905	40.92393	-91.39362
3487991	-43	-30	-45	-2.092225	-0.5146995	-62.49637	0	10.89	20057	0	0	5	5	0.02	0.9070679	1	10	0.05	2000	-2.395905	40.92393	-91.39362
3488097	-35	-17	23	-2.086332	-0.415565	-62.51123	0	10.89	20057	0	0	5	5	0.02	0.8545894	1	10	0.05	2000	-1.960205	40.92393	-91.39362
3488270	-29	-28	19	-2.116639	-0.320596	-62.53214	0	10.89	20057	0	0	5	5	0.02	0.7788419	1	10	0.05	2000	-1.899384	40.92393	-91.39362
3488336	-35	-10	43	-2.130744	-0.251314	-62.55134	0	10.89	20057	0	0	5	5	0.02	0.7623773	1	10	0.05	2000	-2.324371	40.92393	-91.39362
3488409	-38	0	7	-2.141446	-0.2128288	-62.56046	0	10.89	20057	0	0	5	5	0.02	0.7330351	1	10	0.05	2000	-2.089905	40.92393	-91.39362
3488570	-46	3	11	-2.15664	-0.1348929	-62.58111	0	10.89	20057	0	0	5	5	0.02	0.7183241	1	10	0.05	2000	-2.786743	40.92393	-91.39362
3488667	-38	-16	21	-2.156932	-0.08355695	-62.60093	0	10.89	20057	0	0	5	5	0.02	0.7124202	1	10	0.05	2000	-2.328217	40.92393	-91.39362
3488736	-24	-1	-15	-2.166026	-0.05144517	-62.61236	0	10.89	20057	0	0	5	5	0.02	0.7093678	1	10	0.05	2000	-2.52005	40.92393	-91.39362
3488820	-28	-4	-1	-2.169405	-0.02870597	-62.62312	0	10.89	20057	0	0	5	5	0.02	0.7071425	1	10	0.05	2000	-2.692017	40.92393	-91.39362
3488981	-26	6	0	-2.171432	0.02784537	-62.65019	0	10.89	20057	0	0	5	5	0.02	0.7021356	1	10	0.05	2000	-1.837036	40.92393	-91.39362
3489061	-27	1	13	-2.16944	0.04421883	-62.65831	0	10.89	20057	0	0	5	5	0.02	0.6938823	1	10	0.05	2000	-1.882324	40.92393	-91.39362
3489116	-30	6	13	-2.171843	0.05649959	-62.66405	0	10.89	20057	0	0	5	5	0.02	0.6782216	1	10	0.05	2000	-1.882324	40.92393	-91.39362
3489350	-28	4	6	-2.165873	0.1111814	-62.6964	0	10.89	20057	0	0	5	5	0.02	0.6311553	1	10	0.05	2000	-1.883789	40.92393	-91.39362
3489502	-23	-2	13	-2.171465	0.1403684	-62.72119	0	10.89	20057	0	0	5	5	0.02	0.6198501	1	10	0.05	2000	-1.865997	40.92393	-91.39362
3489558	-29	3	7	-2.171009	0.1474424	-62.73187	0	10.89	20057	0	0	5	5	0.02	0.6193771	1	10	0.05	2000	-1.650299	40.92393	-91.39362
3489708	-23	7	4	-2.164727	0.1586079	-62.7514	0	10.94	20057	0	0	5	5	0.02	0.6207994	1	10	0.05	2000	-1.87323	40.92393	-91.39362
3489737	-23	7	4	-2.164727	0.1586079	-62.7514	0	10.94	20057	0	0	5	5	0.02	0.6217634	1	10	0.05	2000	-1.87323	40.92393	-91.39362
3489879	-29	3	7	-2.168714	0.166875	-62.77264	0	10.94	20057	0	0	5	5	0.02	0.6228332	1	10	0.05	2000	-1.885101	40.92393	-91.39362
3489968	-22	-5	5	-2.165915	0.1749303	-62.78765	0	10.94	20057	0	0	5	5	0.02	0.6189527	1	10	0.05	2000	-1.873383	40.92393	-91.39362
3490062	-23	0	10	-2.161299	0.1821188	-62.80127	0	10.94	20057	0	0	5	5	0.02	0.6159209	1	10	0.05	2000	-1.874939	40.92393	-91.39362
3490139	-30	-6	5	-2.162359	0.1861643	-62.81372	0	10.94	20057	0	0	5	5	0.02	0.6131004	1	10	0.05	2000	-1.869293	40.92393	-91.39362
3490235	-25	0	9	-2.161436	0.1816407	-62.82178	0	10.94	20057	0	0	5	5	0.02	0.6102372	1	10	0.05	2000	-1.880127	40.92393	-91.39362
3490364	-23	-3	4	-2.158515	0.1886087	-62.84021	0	10.94	20057	0	0	5	5	0.02	0.6074301	1	10	0.05	2000	-1.878784	40.92393	-91.39362
3490473	-29	5	12	-2.154669	0.1986138	-62.85181	0	10.94	20057	0	0	5	5	0.02	0.611066	1	10	0.05	2000	-1.88913	40.92393	-91.39362
3490540	-24	-5	7	-2.154141	0.2022175	-62.86078	0	10.94	20057	0	0	5	5	0.02	0.6123011	1	10	0.05	2000	-1.890991	40.92393	-91.39362
3490705	-25	-1	8	-2.159771	0.2134633	-62.88452	0	10.94	20057	0	0	5	5	0.02	0.6151192	1	10	0.05	2000	-1.892883	40.92393	-91.39362
3490748	-26	2	9	-2.153876	0.2170755	-62.88898	0	10.94	20057	0	0	5	5	0.02	0.6148003	1	10	0.05	2000	-1.653961	40.92393	-91.39362
3490868	-33	1	5	-2.164601	0.2375575	-62.89447	0	10.94	20057	0	0	5	5	0.02	0.614801	1	10	0.05	2000	-1.879303	40.92393	-91.39362
3490984	-26	8	12	-2.158517	0.2312138	-62.90907	0	10.94	20057	0	0	5	5	0.02	0.6159354	1	10	0.05	2000	-1.874969	40.92393	-91.39362
3491057	-22	2	7	-2.154084	0.2316399	-62.91877	0	10.94	20057	0	0	5	5	0.02	0.6152477	1	10	0.05	2000	-1.890839	40.92393	-91.39362
3491275	-33	3	4	-2.150106	0.2318764	-62.9474	0	10.94	20057	0	0	5	5	0.02	0.6053727	1	10	0.05	2000	-1.883423	40.92393	-91.39362
3491362	-20	0	3	-2.152068	0.2354948	-62.95814	0	10.94	20057	0	0	5	5	0.02	0.6021268	1	10	0.05	2000	-1.892334	40.92393	-91.39362
3491495	-470	133	283	-2.250785	-0.1781464	-62.96735	0	11	20057	0	0	5	5	0.02	0.6035168	1	10	0.05	2000	-1.793396	40.92393	-91.39362
3491622	612	-4296	-625	-4.387841	4.263603	-62.98847	0	11	20057	0	0	5	5	0.02	0.6194876	1	10	0.05	2000	-1.536163	40.92393	-91.39362
3491728	225	-27	672	-2.095018	8.825324	-63.75919	0	11	20057	0	0	5	5	0.02	0.6292276	1	10	0.05	2000	-0.08450317	40.92393	-91.39362
3491749	225	-27	672	-2.095018	8.825324	-63.75919	0	11	20057	0	0	5	5	0.02	0.6361818	1	10	0.05	2000	-0.08450317	40.92393	-91.39362
3491883	-1922	2055	-640	-4.331136	7.752225	-63.45418	0	11	20057	0	0	5	5	0.02	0.6640949	1	10	0.05	2000	1.731952	40.92393	-91.39362
3492010	-2453	1604	-294	-8.181396	4.845064	-62.44718	0	11	20057	0	0	5	5	0.02	0.6892631	1	10	0.05	2000	0.06071475	40.92393	-91.39362
3492082	-3385	1090	-762	-11.1333	4.21481	-61.85828	0	11	20057	0	0	5	5	0.02	0.7005036	1	10	0.05	2000	-1.05777	40.92393	-91.39362
3492157	-3175	297	-1438	-13.97475	4.268689	-60.66622	0	11	20057	0	0	5	5	0.02	0.7266017	1	10	0.05	2000	-2.276398	40.92393	-91.39362
3492273	-1770	34	-2707	-16.94178	5.36485	-57.16765	0	11	20057	0	0	5	5	0.02	0.7728068	1	10	0.05	2000	-5.347748	40.92393	-91.39362
3492358	-1093	0	-2746	-16.95665	8.198288	-52.72881	0	11	20057	0	0	5	5	0.02	0.8066903	1	10	0.05	2000	-12.72882	40.92393	-91.39362
3492465	3641	-2154	-988	-13.74643	10.87062	-49.3279	0	11	20057	0	0	5	5	0.02	0.8768689	1	10	0.05	2000	-15.47571	40.92393	-91.39362
3492613	1248	816	1681	-7.918383	11.4469	-51.03525	0	11	20057	0	0	5	5	0.02	0.9536455	1	10	0.05	2000	-14.97479	40.92393	-91.39362
3492667	2272	-149	2386	-7.211936	10.71861	-53.35441	0	11	20057	0	0	5	5	0.02	0.995504	1	10	0.05	2000	-11.49509	40.92393	-91.39362
3492774	391	-196	1467	-6.708203	10.4579	-56.66581	0	11	20057	0	0	5	5	0.02	1.043151	1	10	0.05	2000	-5.328644	40.92393	-91.39362
3492906	595	1971	826	-4.630076	4.154353	-59.16057	0	11	20057	0	0	5	5	0.02	1.103484	1	10	0.05	2000	-3.932587	40.92393	-91.39362
3492977	-510	1774	1276	-4.728337	0.9415081	-60.32156	0	11	20057	0	0	5	5	0.02	1.117365	1	10	0.05	2000	-3.241608	40.92393	-91.39362
3493094	307	-777	1215	-3.959936	-2.49609	-63.20168	0	11	20057	0	0	5	5	0.02	1.132791	1	10	0.05	2000	-2.317719	40.92393	-91.39362
3493180	998	329	728	-1.335231	-4.282685	-65.87624	0	11	20057	0	0	5	5	0.02	1.134121	1	10	0.05	2000	0.3550367	40.92393	-91.39362
3493282	-38	-923	949	-1.397207	-4.283	-66.32011	0	11	20057	0	0	5	5	0.02	1.125135	1	10	0.05	2000	0.3550367	40.92393	-91.39362
3493426	-798	-101	-429	-4.156272	-5.493101	-68.57737	0	11	20057	0	0	5	5	0.02	1.112091	1	10	0.05	2000	3.984779	40.92393	-91.39362
3493561	112	59	127	-0.9274769	-4.301231	-68.68334	0	11	20057	0	0	5	5	0.02	1.089751	1	10	0.05	2000	3.329219	40.92393	-91.39362
3493629	-21	440	51	-1.027364	-3.507918	-68.71183	0	11	20057	0	0	5	5	0.02	1.080706	1	10	0.05	2000	3.781953	40.92393	-91.39362
3493738	41	-27	-18	-0.8701175	-3.0128	-68.70536	0	11	20057	0	0	5	5	0.02	1.04621	1	10	0.05	2000	3.476101	40.92393	-91.39362
3493782	-121	64	48	-0.8064733	-2.852196	-68.7151	0	11	20057	0	0	5	5	0.02	1.035926	1	10	0.05	2000	3.505552	40.92393	-91.39362
3493932	14	-45	8	-0.8454766	-2.442043	-68.73939	0	11	20057	0	0	5	5	0.02	0.9894807	1	10	0.05	2000	3.303368	40.92393	-91.39362
3493988	42	-105	0	-0.7532204	-2.161253	-68.74464	0	11	20057	0	0	5	5	0.02	0.9645343	1	10	0.05	2000	3.186818	40.92393	-91.39362
3494108	-79	64	21	-0.6434726	-1.736635	-68.76014	0	11	20057	0	0	5	5	0.02	0.944766	1	10	0.05	2000	3.071844	40.92393	-91.39362
3494185	-15	-13	-1	-0.6456373	-1.613556	-68.77314	0	11	20057	0	0	5	5	0.02	0.9190383	1	10	0.05	2000	2.875154	40.92393	-91.39362
3494298	42	-66	-12	-0.5331246	-1.310997	-68.77363	0	11	20057	0	0	5	5	0.02	0.8898138	1	10	0.05	2000	3.051365	40.92393	-91.39362
3494387	-39	19	7	-0.516167	-1.174634	-68.78522	0	11	20057	0	0	5	5	0.02	0.8693687	1	10	0.05	2000	2.387735	40.92393	-91.39362
3494488	13	-60	2	-0.4828623	-1.050089	-68.79047	0	11	20057	0	0	5	5	0.02	0.8327598	1	10	0.05	2000	2.823851	40.92393	-91.39362
3494613	1	-21	9	-0.4235224	-0.8051985	-68.80683	0	11	20057	0	0	5	5	0.02	0.8079414	1	10	0.05	2000	2.730676	40.92393	-91.39362
3494714	-23	1	14	-0.3848212	-0.6853513	-68.81452	0	11	20057	0	0	5	5	0.02	0.7839877	1	10	0.05	2000	2.668684	40.92393	-91.39362
3494782	-18	8	10	-0.3873582	-0.6286383	-68.8241	0	11	20057	0	0	5	5	0.02	0.7773836	1	10	0.05	2000	2.644277	40.92394	-91.39362
3494921	-35	9	6	-0.3435833	-0.4796987	-68.83881	0	11	20057	0	0	5	5	0.02	0.763843	1	10	0.05	2000	2.549494	40.92394	-91.39362
3494988	-12	-11	11	-0.3194097	-0.3940911	-68.84949	0	11	20057	0	0	5	5	0.02	0.7610202	1	10	0.05	2000	2.305205	40.92394	-91.39362
3495164	-24	0	8	-0.2916966	-0.2690676	-68.86988	0	11	20057	0	0	5	5	0.02	0.7453748	1	10	0.05	2000	2.242336	40.92394	-91.39362
3495206	-29	-5	11	-0.2785219	-0.2330194	-68.87867	0	11.06	20057	0	0	5	5	0.02	0.7450055	1	10	0.05	2000	2.209978	40.92394	-91.39362
3495309	-14	-5	4	-0.2648376	-0.1969165	-68.88441	0	11.06	20057	0	0	5	5	0.02	0.7505851	1	10	0.05	2000	2.193115	40.92394	-91.39362
3495397	-18	0	2	-0.2458114	-0.1526209	-68.89448	0	11.06	20057	0	0	5	5	0.02	0.7552439	1	10	0.05	2000	2.179997	40.92394	-91.39362
3495516	-24	2	3	-0.2377123	-0.1017878	-68.90296	0	11.06	20057	0	0	5	5	0.02	0.750524	1	10	0.05	2000	2.370554	40.92394	-91.39362
3495602	-24	-7	10	-0.2300086	-0.07350789	-68.91328	0	11.06	20057	0	0	5	5	0.02	0.7476885	1	10	0.05	2000	2.145151	40.92394	-91.39362
3495714	-16	0	4	-0.2227919	-0.02602785	-68.9231	0	11.06	20057	0	0	5	5	0.02	0.7344874	1	10	0.05	2000	2.341577	40.92394	-91.39362
3495806	-24	1	0	-0.2053608	0.001052281	-68.94032	0	11.06	20057	0	0	5	5	0.02	0.7332121	1	10	0.05	2000	2.315524	40.92394	-91.39362
3495927	-28	0	11	-0.2106552	0.0254248	-68.95222	0	11.06	20057	0	0	5	5	0.02	0.7358501	1	10	0.05	2000	2.310781	40.92394	-91.39362
3496034	-31	0	4	-0.2143381	0.03830599	-68.95765	0	11.06	20057	0	0	5	5	0.02	0.7433426	1	10	0.05	2000	2.322875	40.92394	-91.39362
3496114	-27	3	4	-0.2081126	0.05773292	-68.97187	0	10.94	20057	0	0	5	5	0.02	0.7495897	1	10	0.05	2000	2.30635	40.92394	-91.39362
3496252	-26	2	8	-0.1982273	0.07317485	-68.98054	0	10.94	20057	0	0	5	5	0.02	0.7609491	1	10	0.05	2000	2.295072	40.92394	-91.39362
3496338	-15	-4	8	-0.1969492	0.08513491	-68.99036	0	10.94	20057	0	0	5	5	0.02	0.7702652	1	10	0.05	2000	2.299182	40.92394	-91.39362
3496436	-21	4	5	-0.1995358	0.08867083	-68.99921	0	10.94	20057	0	0	5	5	0.02	0.7721336	1	10	0.05	2000	2.282741	40.92394	-91.39362
3496533	-23	-2	11	-0.1989542	0.0992948	-69.00623	0	10.94	20057	0	0	5	5	0.02	0.7708623	1	10	0.05	2000	2.287036	40.92394	-91.39362
3496623	-18	0	6	-0.1913561	0.1102376	-69.01887	0	10.94	20057	0	0	5	5	0.02	0.7753445	1	10	0.05	2000	2.286001	40.92394	-91.39362
3496746	-15	4	5	-0.1905859	0.1206537	-69.02808	0	10.94	20057	0	0	5	5	0.02	0.7782564	1	10	0.05	2000	2.271575	40.92394	-91.39362
3496854	-21	-2	4	-0.1870571	0.1297459	-69.03876	0	10.94	20057	0	0	5	5	0.02	0.7826163	1	10	0.05	2000	2.060569	40.92394	-91.39362
3496884	-21	0	4	-0.1823393	0.1261943	-69.04218	0	10.94	20057	0	0	5	5	0.02	0.783341	1	10	0.05	2000	2.060569	40.92394	-91.39362
3497038	-18	3	4	-0.1844131	0.1271666	-69.0575	0	11.06	20057	0	0	5	5	0.02	0.8020508	1	10	0.05	2000	2.050482	40.92394	-91.39362
3497076	-18	3	4	-0.1844131	0.1271666	-69.0575	0	11.06	20057	0	0	5	5	0.02	0.8104788	1	10	0.05	2000	2.050482	40.92394	-91.39362
3497221	-26	3	2	-0.1806972	0.1226727	-69.07185	0	11.06	20057	0	0	5	5	0.02	0.8419482	1	10	0.05	2000	2.271428	40.92394	-91.39362
3497306	-16	4	5	-0.1697735	0.1251931	-69.07777	0	11.06	20057	0	0	5	5	0.02	0.8537469	1	10	0.05	2000	2.271428	40.92394	-91.39362
3497434	-23	6	7	-0.1724965	0.1318155	-69.08375	0	11.06	20057	0	0	5	5	0.02	0.8775539	1	10	0.05	2000	2.254172	40.92394	-91.39362
3497511	-17	2	9	-0.1775877	0.1466069	-69.10395	0	11.06	20057	0	0	5	5	0.02	0.8996282	1	10	0.05	2000	2.466126	40.92394	-91.39362
3497601	-20	1	6	-0.1786749	0.1439558	-69.11408	0	11.06	20057	0	0	5	5	0.02	0.9113927	1	10	0.05	2000	2.040055	40.92394	-91.39362
3497683	-18	-3	3	-0.1875244	0.1413747	-69.12159	0	11.06	20057	0	0	5	5	0.02	0.9171722	1	10	0.05	2000	2.275377	40.92394	-91.39362
3497723	-19	2	1	-0.1880422	0.1429966	-69.12476	0	11.06	20057	0	0	5	5	0.02	0.9186558	1	10	0.05	2000	2.2715	40.92394	-91.39362
3497850	-18	1	8	-0.1861933	0.1497989	-69.13673	0	11.06	20057	0	0	5	5	0.02	0.9202967	1	10	0.05	2000	2.061535	40.92394	-91.39362
3497958	-19	2	11	-0.1788911	0.1549584	-69.14863	0	11.06	20057	0	0	5	5	0.02	0.914661	1	10	0.05	2000	2.256145	40.92394	-91.39362
3498079	-11	-4	7	-0.1722749	0.1692774	-69.16395	0	11.06	20057	0	0	5	5	0.02	0.9060491	1	10	0.05	2000	2.029073	40.92394	-91.39362
3498168	-17	-3	6	-0.1677898	0.1721563	-69.17097	0	11.06	20057	0	0	5	5	0.02	0.900427	1	10	0.05	2000	2.013474	40.92394	-91.39362
3498327	-20	-2	10	-0.1660951	0.1760961	-69.18324	0	11.06	20057	0	0	5	5	0.02	0.9151404	1	10	0.05	2000	2.01628	40.92394	-91.39362
3498390	-24	2	7	-0.1635976	0.1773981	-69.19135	0	11.06	20057	0	0	5	5	0.02	0.9370158	1	10	0.05	2000	2.227913	40.92394	-91.39362
3498519	-26	-1	6	-0.1645609	0.1713599	-69.20484	0	11.06	20057	0	0	5	5	0.02	0.9467654	1	10	0.05	2000	2.230575	40.92394	-91.39362
3498629	-24	0	8	-0.1755524	0.1700078	-69.21571	0	11.06	20057	0	0	5	5	0.02	0.9479664	1	10	0.05	2000	2.01549	40.92394	-91.39362
3498821	-17	2	9	-0.1673429	0.1646526	-69.23048	0	11.06	20057	0	0	5	5	0.02	0.9510451	1	10	0.05	2000	2.02651	40.92394	-91.39362
3498851	-19	-2	10	-0.1752581	0.1602492	-69.23414	0	11.06	20057	0	0	5	5	0.02	0.9503723	1	10	0.05	2000	2.253338	40.92394	-91.39362
3498920	-21	1	5	-0.1796788	0.1527029	-69.23981	0	11.06	20057	0	0	5	5	0.02	0.9493862	1	10	0.05	2000	2.035828	40.92394	-91.39362
3499038	-14	6	6	-0.1677083	0.1651865	-69.25098	0	11.06	20057	0	0	5	5	0.02	0.9475911	1	10	0.05	2000	2.247939	40.92394	-91.39362
3499130	-22	2	7	-0.1599914	0.1717923	-69.26148	0	11.06	20057	0	0	5	5	0.02	0.9464347	1	10	0.05	2000	2.02324	40.92394	-91.39362
3499250	-17	4	8	-0.1485389	0.1764473	-69.27198	0	11.06	20057	0	0	5	5	0.02	0.9471824	1	10	0.05	2000	2.220438	40.92394	-91.39362
3499317	-14	1	5	-0.1455587	0.1782522	-69.27735	0	11.06	20057	0	0	5	5	0.02	0.9456844	1	10	0.05	2000	1.986433	40.92394	-91.39362
3499415	-14	2	7	-0.1556292	0.1778739	-69.29121	0	11.06	20057	0	0	5	5	0.02	0.9440122	1	10	0.05	2000	1.999484	40.92394	-91.39362
3499522	-19	-1	5	-0.1630311	0.1873522	-69.29737	0	11.06	20057	0	0	5	5	0.02	0.9386151	1	10	0.05	2000	2.210723	40.92394	-91.39362
3499663	-13	-3	7	-0.1555647	0.1940312	-69.3097	0	11.06	20057	0	0	5	5	0.02	0.9359786	1	10	0.05	2000	2.003625	40.92394	-91.39362
3499742	-20	2	11	-0.1589565	0.1963841	-69.32044	0	11.06	20057	0	0	5	5	0.02	0.9339638	1	10	0.05	2000	2.219332	40.92394	-91.39362
3499816	-19	0	6	-0.1561145	0.1843519	-69.32471	0	11.06	20057	0	0	5	5	0.02	0.9317298	1	10	0.05	2000	2.219332	40.92394	-91.39362
3499956	-19	3	5	-0.1577621	0.1777843	-69.34003	0	11.06	20057	0	0	5	5	0.02	0.9252796	1	10	0.05	2000	2.242123	40.92394	-91.39362
3500023	-24	-4	6	-0.1608475	0.1702964	-69.34577	0	11.06	20057	0	0	5	5	0.02	0.9201179	1	10	0.05	2000	2.228884	40.92394	-91.39362
3500165	-20	3	2	-0.173677	0.1649512	-69.35786	0	11.06	20057	0	0	5	5	0.02	0.908455	1	10	0.05	2000	2.249352	40.92394	-91.39362
3500224	-11	-2	8	-0.1740011	0.1650371	-69.35993	0	11.06	20057	0	0	5	5	0.02	0.9057718	1	10	0.05	2000	2.249352	40.92394	-91.39362
3500379	-24	0	7	-0.1678967	0.1752488	-69.37391	0	11.06	20057	0	0	5	5	0.02	0.9094447	1	10	0.05	2000	2.028552	40.92394	-91.39362
3500446	-23	3	6	-0.1680519	0.1813565	-69.37745	0	11.06	20057	0	0	5	5	0.02	0.9091892	1	10	0.05	2000	2.018361	40.92394	-91.39362
3500573	-22	3	9	-0.1692506	0.1855918	-69.38648	0	11.06	20057	0	0	5	5	0.02	0.9087022	1	10	0.05	2000	2.260622	40.92394	-91.39362
3500631	-19	0	3	-0.1741918	0.1928152	-69.3946	0	11.06	20057	0	0	5	5	0.02	0.9045612	1	10	0.05	2000	2.019902	40.92394	-91.39362
3500752	-13	3	3	-0.1787809	0.1938049	-69.40156	0	11.06	20057	0	0	5	5	0.02	0.9013161	1	10	0.05	2000	1.809821	40.92394	-91.39362
3500835	-15	-1	-1	-0.1671664	0.1955239	-69.40858	0	11.06	20057	0	0	5	5	0.02	0.9019251	1	10	0.05	2000	2.229655	40.92394	-91.39362
3500990	-13	0	7	-0.1505283	0.192953	-69.42457	0	11.06	20057	0	0	5	5	0.02	0.9026291	1	10	0.05	2000	2.005975	40.92394	-91.39362
3501089	-17	0	5	-0.1428457	0.199041	-69.43421	0	11.06	20057	0	0	5	5	0.02	0.9045738	1	10	0.05	2000	1.988058	40.92394	-91.39362
3501154	-20	0	4	-0.1572603	0.1956652	-69.44086	0	11.06	20057	0	0	5	5	0.02	0.9071101	1	10	0.05	2000	2.007032	40.92394	-91.39362
3501248	-14	-6	5	-0.1387784	0.1990893	-69.44672	0	11.06	20057	0	0	5	5	0.02	0.9221127	1	10	0.05	2000	2.203792	40.92394	-91.39362
3501335	-19	5	4	-0.1465084	0.1884863	-69.45197	0	11.06	20057	0	0	5	5	0.02	0.9322831	1	10	0.05	2000	2.208826	40.92394	-91.39362
3501469	-22	2	4	-0.1365946	0.1916208	-69.46632	0	11.06	20057	0	0	5	5	0.02	0.948231	1	10	0.05	2000	1.967437	40.92394	-91.39362
3501554	-22	-3	7	-0.1404421	0.1953756	-69.47547	0	11	20057	0	0	5	5	0.02	0.9601025	1	10	0.05	2000	2.205279	40.92394	-91.39362
3501633	-14	3	6	-0.1418285	0.1980187	-69.48078	0	11	20057	0	0	5	5	0.02	0.9646393	1	10	0.05	2000	2.205279	40.92394	-91.39362
3501736	-17	0	9	-0.1247869	0.1978282	-69.49055	0	11	20057	0	0	5	5	0.02	0.9663864	1	10	0.05	2000	2.182055	40.92394	-91.39362
3501910	-26	-2	7	-0.1277474	0.1912016	-69.50459	0	11	20057	0	0	5	5	0.02	0.9658517	1	10	0.05	2000	1.968592	40.92394	-91.39362
3501965	-21	1	3	-0.1349914	0.1895862	-69.51154	0	11	20057	0	0	5	5	0.02	0.9661503	1	10	0.05	2000	2.181557	40.92394	-91.39362
3502052	-9	1	3	-0.1300505	0.1880531	-69.52192	0	11	20057	0	0	5	5	0.02	0.9674876	1	10	0.05	2000	2.186842	40.92394	-91.39362
3502174	-11	-1	5	-0.1243583	0.1813742	-69.53907	0	11	20057	0	0	5	5	0.02	0.9578294	1	10	0.05	2000	1.959607	40.92394	-91.39362
3502264	-19	0	-1	-0.1179667	0.1816923	-69.54322	0	11	20057	0	0	5	5	0.02	0.9449208	1	10	0.05	2000	1.941466	40.92394	-91.39362
3502293	-17	0	2	-0.121918	0.1822698	-69.54639	0	11	20057	0	0	5	5	0.02	0.9420261	1	10	0.05	2000	1.941466	40.92394	-91.39362
3502396	-20	-3	0	-0.1117617	0.1820999	-69.55561	0	11.06	20057	0	0	5	5	0.02	0.9281297	1	10	0.05	2000	2.162767	40.92394	-91.39362
3502541	-17	-2	6	-0.1228944	0.1721479	-69.56983	0	11.06	20057	0	0	5	5	0.02	0.919454	1	10	0.05	2000	2.15866	40.92394	-91.39362
3502637	-11	4	8	-0.1204036	0.1625538	-69.576	0	11.06	20057	0	0	5	5	0.02	0.9103746	1	10	0.05	2000	2.168514	40.92394	-91.39362
3502699	-16	2	0	-0.1353442	0.1616164	-69.58479	0	11.06	20057	0	0	5	5	0.02	0.9079099	1	10	0.05	2000	2.194808	40.92394	-91.39362
3502820	-14	-3	7	-0.1361291	0.1659606	-69.59254	0	11.06	20057	0	0	5	5	0.02	0.9013892	1	10	0.05	2000	2.189263	40.92394	-91.39362
3502949	-16	4	4	-0.1384964	0.1641239	-69.60151	0	11.06	20057	0	0	5	5	0.02	0.9014586	1	10	0.05	2000	2.438171	40.92394	-91.39362
3503018	-18	-2	8	-0.1432316	0.1524642	-69.60487	0	11.06	20057	0	0	5	5	0.02	0.9026239	1	10	0.05	2000	2.214938	40.92394	-91.39362
3503146	-18	-1	3	-0.1272633	0.144307	-69.61536	0	11.06	20057	0	0	5	5	0.02	0.9042195	1	10	0.05	2000	2.180873	40.92394	-91.39362
3503251	-12	-1	5	-0.1165306	0.1503796	-69.62397	0	11.06	20057	0	0	5	5	0.02	0.9087428	1	10	0.05	2000	2.180538	40.92394	-91.39362
3503321	-13	0	4	-0.1212291	0.1538811	-69.63001	0	11.06	20057	0	0	5	5	0.02	0.9148362	1	10	0.05	2000	1.954906	40.92394	-91.39362
3503398	-19	1	4	-0.119952	0.1600782	-69.63538	0	11.06	20057	0	0	5	5	0.02	0.9203013	1	10	0.05	2000	2.166322	40.92394	-91.39362
3503494	-14	0	6	-0.1138681	0.1554898	-69.64484	0	11.06	20057	0	0	5	5	0.02	0.9292635	1	10	0.05	2000	2.389128	40.92394	-91.39362
3503581	-16	2	8	-0.1115389	0.1545808	-69.65034	0	11.06	20057	0	0	5	5	0.02	0.9377366	1	10	0.05	2000	2.160791	40.92394	-91.39362
3503760	-17	-1	6	-0.1118798	0.1560166	-69.66248	0	11.06	20057	0	0	5	5	0.02	0.9493361	1	10	0.05	2000	1.941722	40.92394	-91.39362
3503851	-15	-3	2	-0.1067228	0.1448508	-69.67011	0	11.06	20057	0	0	5	5	0.02	0.9507742	1	10	0.05	2000	2.164058	40.92394	-91.39362
3503927	-4	-1	6	-0.1032185	0.1502187	-69.67652	0	11.06	20057	0	0	5	5	0.02	0.9567204	1	10	0.05	2000	2.142884	40.92394	-91.39362
3504076	-10	-2	0	-0.1028913	0.151434	-69.68952	0	11.06	20057	0	0	5	5	0.02	0.9583785	1	10	0.05	2000	2.368874	40.92394	-91.39362
3504163	-14	-3	3	-0.1042254	0.1511199	-69.69569	0	11.06	20057	0	0	5	5	0.02	0.9588904	1	10	0.05	2000	2.147374	40.92394	-91.39362
3504309	-11	-3	6	-0.1039561	0.1647746	-69.70399	0	11.06	20057	0	0	5	5	0.02	0.9675622	1	10	0.05	2000	1.926137	40.92394	-91.39362
3504434	-11	0	2	-0.08682283	0.1738418	-69.71455	0	11.06	20057	0	0	5	5	0.02	0.9639502	1	10	0.05	2000	2.130702	40.92394	-91.39362
3504468	-16	-3	2	-0.08682375	0.1669598	-69.71595	0	11.06	20057	0	0	5	5	0.02	0.9589556	1	10	0.05	2000	2.130702	40.92394	-91.39362
3504543	-12	1	4	-0.09352474	0.1669037	-69.72218	0	11.06	20057	0	0	5	5	0.02	0.9512343	1	10	0.05	2000	2.135864	40.92394	-91.39362
3504771	-8	0	3	-0.08635127	0.1673479	-69.73908	0	11.06	20057	0	0	5	5	0.02	0.9428023	1	10	0.05	2000	1.902615	40.92395	-91.39362
3504861	-15	-3	6	-0.08084209	0.164219	-69.74543	0	11.06	20057	0	0	5	5	0.02	0.9356627	1	10	0.05	2000	2.115329	40.92395	-91.39362
3504947	-15	-5	6	-0.07238177	0.1676702	-69.75245	0	11.06	20057	0	0	5	5	0.02	0.9268581	1	10	0.05	2000	2.112374	40.92395	-91.39362
3505052	-16	2	0	-0.07746425	0.161412	-69.75886	0	11.06	20057	0	0	5	5	0.02	0.9150106	1	10	0.05	2000	2.103443	40.92395	-91.39362
3505149	-15	-2	2	-0.07579286	0.166028	-69.76966	0	11.06	20057	0	0	5	5	0.02	0.9105122	1	10	0.05	2000	2.10882	40.92395	-91.39362
3505249	-15	3	3	-0.06982341	0.1685455	-69.77375	0	11.06	20057	0	0	5	5	0.02	0.902871	1	10	0.05	2000	1.865619	40.92395	-91.39362
3505374	-15	4	9	-0.07911924	0.1738421	-69.78095	0	11.06	20057	0	0	5	5	0.02	0.9071651	1	10	0.05	2000	2.089688	40.92395	-91.39362
3505455	-17	1	6	-0.07778297	0.1607696	-69.79145	0	11.06	20057	0	0	5	5	0.02	0.913311	1	10	0.05	2000	1.883291	40.92395	-91.39362
3505562	-17	0	2	-0.07833373	0.1592044	-69.79615	0	11.06	20057	0	0	5	5	0.02	0.9241834	1	10	0.05	2000	2.11516	40.92395	-91.39362
3505655	-10	1	7	-0.07469671	0.1426767	-69.80775	0	11.06	20057	0	0	5	5	0.02	0.9307867	1	10	0.05	2000	2.104907	40.92395	-91.39362
3505830	-18	0	8	-0.0699248	0.1447036	-69.82227	0	11.06	20057	0	0	5	5	0.02	0.9510691	1	10	0.05	2000	1.883035	40.92395	-91.39362
3505887	-12	2	4	-0.06891446	0.1440505	-69.82465	0	11.06	20057	0	0	5	5	0.02	0.9598756	1	10	0.05	2000	2.102759	40.92395	-91.39362
3505954	-8	3	6	-0.0770792	0.1544303	-69.83356	0	11.06	20057	0	0	5	5	0.02	0.967497	1	10	0.05	2000	1.664694	40.92395	-91.39362
3506039	-13	-4	-1	-0.08294743	0.1498916	-69.83784	0	11.06	20057	0	0	5	5	0.02	0.9693511	1	10	0.05	2000	2.117604	40.92395	-91.39362
3506223	-23	0	2	-0.07601465	0.1503799	-69.85493	0	11.06	20057	0	0	5	5	0.02	0.9737398	1	10	0.05	2000	2.102549	40.92395	-91.39362
3506295	-8	0	10	-0.07719453	0.1489985	-69.86024	0	11.06	20057	0	0	5	5	0.02	0.9742838	1	10	0.05	2000	1.894531	40.92395	-91.39362
3506416	-10	2	8	-0.06902265	0.1481614	-69.87226	0	11.06	20057	0	0	5	5	0.02	0.9719598	1	10	0.05	2000	2.103782	40.92395	-91.39362
3506500	-13	-3	0	-0.06647341	0.1612195	-69.87946	0	11.06	20057	0	0	5	5	0.02	0.9694858	1	10	0.05	2000	2.094277	40.92395	-91.39362
3506572	-10	5	1	-0.06598438	0.1607239	-69.88477	0	11.06	20057	0	0	5	5	0.02	0.9627504	1	10	0.05	2000	2.082212	40.92395	-91.39362
3506648	-18	8	9	-0.07383841	0.1658068	-69.89399	0	11.06	20057	0	0	5	5	0.02	0.9518251	1	10	0.05	2000	1.869391	40.92395	-91.39362
3506790	-12	1	3	-0.07065226	0.1736614	-69.90601	0	11.06	20057	0	0	5	5	0.02	0.9363002	1	10	0.05	2000	2.104225	40.92394	-91.39362
3506873	-17	3	0	-0.07420715	0.1754014	-69.91004	0	11.06	20057	0	0	5	5	0.02	0.9272444	1	10	0.05	2000	2.1027	40.92394	-91.39362
3506924	-10	-4	9	-0.07108385	0.1784083	-69.91541	0	11.06	20057	0	0	5	5	0.02	0.9249818	1	10	0.05	2000	2.0958	40.92394	-91.39362
3507040	-8	-6	6	-0.06359979	0.179118	-69.93006	0	11.06	20057	0	0	5	5	0.02	0.9231603	1	10	0.05	2000	2.092003	40.92394	-91.39363
3507073	-9	-2	6	-0.06408969	0.1759766	-69.93336	0	11.06	20057	0	0	5	5	0.02	0.9277929	1	10	0.05	2000	2.092003	40.92394	-91.39363
3507180	-10	0	4	-0.0610365	0.1811484	-69.94129	0	11.06	20057	0	0	5	5	0.02	0.9372854	1	10	0.05	2000	2.301362	40.92394	-91.39363
3507234	-10	0	7	-0.0560094	0.1829168	-69.94379	0	11.06	20057	0	0	5	5	0.02	0.9393031	1	10	0.05	2000	2.301362	40.92394	-91.39363
3507376	-13	-2	1	-0.05921875	0.1805443	-69.95539	0	11.06	20057	0	0	5	5	0.02	0.9451827	1	10	0.05	2000	2.075228	40.92394	-91.39363
3507438	-14	0	6	-0.0559483	0.1746645	-69.96552	0	11.06	20057	0	0	5	5	0.02	0.9453262	1	10	0.05	2000	2.087082	40.92394	-91.39363
3507544	-7	-3	3	-0.05536468	0.1761909	-69.97315	0	11.06	20057	0	0	5	5	0.02	0.9503196	1	10	0.05	2000	2.079975	40.92394	-91.39363
3507614	-13	-2	6	-0.05871009	0.1672187	-69.97968	0	11.06	20057	0	0	5	5	0.02	0.9501254	1	10	0.05	2000	2.084004	40.92394	-91.39363
3507707	-18	-3	3	-0.05122532	0.1670298	-69.99201	0	10.94	20057	0	0	5	5	0.02	0.948878	1	10	0.05	2000	2.06182	40.92394	-91.39363
3507853	-13	0	8	-0.05477447	0.1671336	-69.99738	0	10.94	20057	0	0	5	5	0.02	0.9509258	1	10	0.05	2000	1.845191	40.92394	-91.39363
3507901	-18	4	3	-0.05378575	0.1820708	-70.00562	0	10.94	20057	0	0	5	5	0.02	0.9523329	1	10	0.05	2000	2.075284	40.92394	-91.39363
3508014	-8	1	10	-0.05259491	0.1835472	-70.01331	0	10.94	20057	0	0	5	5	0.02	0.958646	1	10	0.05	2000	2.069858	40.92394	-91.39363
3508094	-16	-3	4	-0.0565836	0.1827693	-70.01948	0	10.94	20057	0	0	5	5	0.02	0.9606669	1	10	0.05	2000	1.852638	40.92394	-91.39363
3508245	-17	-4	4	-0.04975477	0.1845456	-70.0268	0	10.94	20057	0	0	5	5	0.02	0.970239	1	10	0.05	2000	1.842131	40.92394	-91.39363
3508366	-5	-6	4	-0.03811707	0.1827646	-70.03486	0	10.94	20057	0	0	5	5	0.02	0.9839024	1	10	0.05	2000	2.043679	40.92394	-91.39363
3508399	-15	-1	3	-0.03502959	0.1857937	-70.03742	0	10.94	20057	0	0	5	5	0.02	0.9897202	1	10	0.05	2000	2.044299	40.92394	-91.39363
3508527	-12	2	0	-0.03579868	0.1830617	-70.04487	0	10.94	20057	0	0	5	5	0.02	1.018222	1	10	0.05	2000	2.04819	40.92394	-91.39363
3508663	-7	0	6	-0.03544039	0.1852543	-70.0547	0	11.06	20057	0	0	5	5	0.02	1.048191	1	10	0.05	2000	1.827906	40.92394	-91.39363
3508785	-11	0	-3	-0.03916701	0.172905	-70.05866	0	11.06	20057	0	0	5	5	0.02	1.078506	1	10	0.05	2000	2.050084	40.92394	-91.39363
3508858	-13	2	7	-0.03437539	0.1714146	-70.06464	0	11.06	20057	0	0	5	5	0.02	1.090289	1	10	0.05	2000	1.810894	40.92394	-91.39363
3508969	-12	-3	1	-0.03608817	0.1612549	-70.07264	0	11.06	20057	0	0	5	5	0.02	1.095312	1	10	0.05	2000	1.811064	40.92394	-91.39363
3508994	-4	-4	3	-0.03227133	0.1578789	-70.07417	0	11.06	20057	0	0	5	5	0.02	1.096309	1	10	0.05	2000	1.811064	40.92394	-91.39363
3509198	-7	2	5	-0.02901779	0.1540463	-70.09083	0	11.06	20057	0	0	5	5	0.02	1.097313	1	10	0.05	2000	2.041228	40.92394	-91.39363
3509268	-13	2	4	-0.03047331	0.1505473	-70.09492	0	11.06	20057	0	0	5	5	0.02	1.094321	1	10	0.05	2000	2.029658	40.92394	-91.39363
3509337	-15	3	6	-0.03295281	0.1487855	-70.10133	0	11.06	20057	0	0	5	5	0.02	1.087983	1	10	0.05	2000	2.0557	40.92394	-91.39363
3509447	-10	-3	1	-0.03531141	0.1579552	-70.10676	0	11.06	20057	0	0	5	5	0.02	1.088368	1	10	0.05	2000	2.038844	40.92394	-91.39363
3509556	-15	0	3	-0.03186476	0.1608504	-70.11488	0	11.11	20057	0	0	5	5	0.02	1.103652	1	10	0.05	2000	2.051826	40.92394	-91.39363
3509586	-16	-1	2	-0.03290053	0.1596774	-70.11738	0	11.11	20057	0	0	5	5	0.02	1.106763	1	10	0.05	2000	2.051826	40.92394	-91.39363
3509666	-8	5	5	-0.03321297	0.1626405	-70.12281	0	11.11	20057	0	0	5	5	0.02	1.113994	1	10	0.05	2000	1.820981	40.92394	-91.39363
3509822	-20	1	5	-0.04241731	0.1622783	-70.13105	0	11.11	20057	0	0	5	5	0.02	1.118107	1	10	0.05	2000	1.606112	40.92394	-91.39363
3509909	-11	-7	2	-0.04334845	0.1644797	-70.13355	0	11.11	20057	0	0	5	5	0.02	1.121313	1	10	0.05	2000	2.061615	40.92394	-91.39363
3509972	-10	-6	0	-0.04218614	0.1685245	-70.13532	0	11.11	20057	0	0	5	5	0.02	1.122148	1	10	0.05	2000	2.058799	40.92394	-91.39363
3510078	-11	-4	6	-0.03883026	0.1692254	-70.14039	0	11.11	20057	0	0	5	5	0.02	1.12183	1	10	0.05	2000	2.277829	40.92394	-91.39363
3510180	-8	-4	6	-0.04283198	0.1645287	-70.15321	0	11.11	20057	0	0	5	5	0.02	1.111721	1	10	0.05	2000	1.841759	40.92394	-91.39363
3510234	-8	-3	3	-0.03284786	0.1645109	-70.16022	0	11.11	20057	0	0	5	5	0.02	1.110569	1	10	0.05	2000	2.274306	40.92394	-91.39363
3510260	-11	-3	6	-0.03851195	0.1626727	-70.16303	0	11.11	20057	0	0	5	5	0.02	1.115372	1	10	0.05	2000	2.03974	40.92394	-91.39363
3510362	-6	4	4	-0.03669329	0.1643354	-70.17103	0	11.06	20057	0	0	5	5	0.02	1.113051	1	10	0.05	2000	2.05435	40.92394	-91.39363
3510519	-9	-1	6	-0.03455279	0.1581491	-70.1822	0	11.06	20057	0	0	5	5	0.02	1.10833	1	10	0.05	2000	1.821965	40.92394	-91.39363
3510573	-4	6	3	-0.03929966	0.1569495	-70.18348	0	11.06	20057	0	0	5	5	0.02	1.108235	1	10	0.05	2000	1.821965	40.92394	-91.39363
3510670	-9	2	4	-0.03780754	0.1515165	-70.1894	0	11.06	20057	0	0	5	5	0.02	1.11161	1	10	0.05	2000	1.824502	40.92394	-91.39363
3510771	-13	0	1	-0.02854538	0.1446438	-70.19477	0	11.06	20057	0	0	5	5	0.02	1.117999	1	10	0.05	2000	1.825176	40.92394	-91.39363
3511003	-12	-1	0	-0.0249742	0.1513476	-70.2082	0	11.06	20057	0	0	5	5	0.02	1.110105	1	10	0.05	2000	1.813013	40.92394	-91.39363
3511236	-8	9	9	-0.02134622	0.1480062	-70.21918	0	11.06	20057	0	0	5	5	0.02	1.099777	1	10	0.05	2000	2.02203	40.92394	-91.39363
3511406	-5	6	6	-0.02451299	0.141336	-70.22578	0	11.11	20057	0	0	5	5	0.02	1.096065	1	10	0.05	2000	2.039142	40.92394	-91.39363
3511628	-9	0	5	-0.02479739	0.1516661	-70.23719	0	11.11	20057	0	0	5	5	0.02	1.082233	1	10	0.05	2000	1.805606	40.92394	-91.39363
3511747	-8	5	5	-0.02034759	0.1501899	-70.24439	0	11.11	20057	0	0	5	5	0.02	1.078294	1	10	0.05	2000	2.025555	40.92394	-91.39363
3511806	-5	0	6	-0.02023128	0.1489665	-70.25208	0	11.11	20057	0	0	5	5	0.02	1.078201	1	10	0.05	2000	1.800135	40.92394	-91.39363
3511912	-10	2	5	-0.0233372	0.1557114	-70.25648	0	11.11	20057	0	0	5	5	0.02	1.074173	1	10	0.05	2000	2.032978	40.92394	-91.39363
3512065	-8	-1	1	-0.01822951	0.1683963	-70.26649	0	11.11	20057	0	0	5	5	0.02	1.064472	1	10	0.05	2000	2.018766	40.92394	-91.39363
3512191	0	-3	1	-0.01320723	0.1666421	-70.27326	0	11.06	20057	0	0	5	5	0.02	1.055082	1	10	0.05	2000	1.790604	40.92394	-91.39363
3512244	-10	-8	4	-0.01410026	0.1686154	-70.27552	0	11.06	20057	0	0	5	5	0.02	1.050098	1	10	0.05	2000	1.790604	40.92394	-91.39363
3512324	-2	3	2	-0.01419582	0.1686979	-70.28022	0	11.06	20057	0	0	5	5	0.02	1.04563	1	10	0.05	2000	2.235584	40.92394	-91.39363
3512368	-2	0	3	-0.005337571	0.1629542	-70.28742	0	11.06	20057	0	0	5	5	0.02	1.03658	1	10	0.05	2000	2.008745	40.92395	-91.39363
3512389	-6	0	3	0.003487887	0.1588386	-70.2942	0	11.06	20057	0	0	5	5	0.02	1.029197	1	10	0.05	2000	1.996562	40.92394	-91.39362
3512412	-3	-3	5	0.002932663	0.1686881	-70.30189	0	11.06	20057	0	0	5	5	0.02	1.027471	1	10	0.05	2000	2.203001	40.92394	-91.39362
3512504	-10	3	3	0.01228071	0.1636062	-70.31129	0	11.06	20057	0	0	5	5	0.02	1.034636	1	10	0.05	2000	1.761591	40.92394	-91.39363
3512559	-8	1	1	0.01514091	0.1646335	-70.31196	0	11.06	20057	0	0	5	5	0.02	1.041503	1	10	0.05	2000	1.969891	40.92394	-91.39363
3512700	-5	0	2	0.0183049	0.1763708	-70.32026	0	11.06	20057	0	0	5	5	0.02	1.048896	1	10	0.05	2000	1.737909	40.92395	-91.39363
3512726	-9	1	3	0.02015603	0.1824234	-70.32417	0	11.06	20057	0	0	5	5	0.02	1.053096	1	10	0.05	2000	1.74476	40.92395	-91.39363
3512828	-6	-2	5	0.01510117	0.1797888	-70.33253	0	11	20057	0	0	5	5	0.02	1.058463	1	10	0.05	2000	1.974481	40.92395	-91.39363
3512847	-1	4	5	0.01127372	0.1734039	-70.33833	0	11	20057	0	0	5	5	0.02	1.058375	1	10	0.05	2000	1.749719	40.92395	-91.39363
3512889	-7	-4	8	0.01403931	0.1744191	-70.34284	0	11	20057	0	0	5	5	0.02	1.05907	1	10	0.05	2000	1.978308	40.92395	-91.39363
3512997	-6	1	-2	0.0196363	0.173875	-70.3487	0	11	20057	0	0	5	5	0.02	1.06506	1	10	0.05	2000	1.747272	40.92395	-91.39363
3513096	-3	-2	3	0.02912322	0.1710788	-70.35835	0	11	20057	0	0	5	5	0.02	1.068823	1	10	0.05	2000	1.505035	40.92395	-91.39363
3513184	-5	-5	1	0.02982311	0.1709155	-70.36359	0	11	20057	0	0	5	5	0.02	1.071894	1	10	0.05	2000	1.724475	40.92395	-91.39363
3513234	-1	-3	7	0.02873578	0.171035	-70.36897	0	11	20057	0	0	5	5	0.02	1.074546	1	10	0.05	2000	1.940403	40.92395	-91.39363
3513354	-9	0	0	0.02833911	0.168391	-70.37397	0	11	20057	0	0	5	5	0.02	1.085492	1	10	0.05	2000	1.731471	40.92394	-91.39363
3513468	-1	-2	1	0.02318025	0.1675518	-70.37727	0	11	20057	0	0	5	5	0.02	1.09741	1	10	0.05	2000	1.958549	40.92394	-91.39363
3513489	-2	-3	4	0.02678294	0.1708172	-70.38465	0	11	20057	0	0	5	5	0.02	1.106927	1	10	0.05	2000	1.956816	40.92395	-91.39363
3513508	3	-2	0	0.03049465	0.1666579	-70.38691	0	11	20057	0	0	5	5	0.02	1.10846	1	10	0.05	2000	1.948598	40.92395	-91.39363
3513609	-10	3	1	0.03034208	0.1650263	-70.39002	0	11	20057	0	0	5	5	0.02	1.116752	1	10	0.05	2000	1.951454	40.92395	-91.39363
3513801	-7	-1	1	0.03385093	0.1653681	-70.40095	0	11	20057	0	0	5	5	0.02	1.119333	1	10	0.05	2000	1.945602	40.92395	-91.39363
3513854	-6	-10	3	0.03898942	0.1646108	-70.40626	0	11	20057	0	0	5	5	0.02	1.114686	1	10	0.05	2000	1.945602	40.92395	-91.39363
3513975	-9	6	2	0.04193161	0.1683938	-70.41322	0	11	20057	0	0	5	5	0.02	1.111131	1	10	0.05	2000	1.934156	40.92394	-91.39363
3514019	-4	3	4	0.03801459	0.1720715	-70.41438	0	11	20057	0	0	5	5	0.02	1.106942	1	10	0.05	2000	1.9424	40.92394	-91.39363
3514095	-6	1	0	0.03822217	0.1750661	-70.41767	0	11	20057	0	0	5	5	0.02	1.104004	1	10	0.05	2000	1.717456	40.92394	-91.39363
3514255	-3	-1	2	0.04071255	0.1522643	-70.4242	0	11	20057	0	0	5	5	0.02	1.089227	1	10	0.05	2000	1.929584	40.92394	-91.39363
3514378	4	0	0	0.04159769	0.1610591	-70.43116	0	11.06	20057	0	0	5	5	0.02	1.078526	1	10	0.05	2000	1.493242	40.92394	-91.39363
3514461	1	3	4	0.04347057	0.1623201	-70.43513	0	11.06	20057	0	0	5	5	0.02	1.067884	1	10	0.05	2000	1.493242	40.92394	-91.39363
3514524	-7	0	6	0.04811004	0.1631141	-70.43684	0	11.06	20057	0	0	5	5	0.02	1.067883	1	10	0.05	2000	2.145443	40.92394	-91.39363
3514578	0	2	0	0.04746972	0.1618093	-70.43848	0	11.06	20057	0	0	5	5	0.02	1.067416	1	10	0.05	2000	1.703984	40.92394	-91.39363
3514754	-3	0	3	0.05033186	0.1592349	-70.44793	0	11.06	20057	0	0	5	5	0.02	1.069713	1	10	0.05	2000	1.90707	40.92394	-91.39363
3514822	-2	3	0	0.04856024	0.1608269	-70.45025	0	11.06	20057	0	0	5	5	0.02	1.074099	1	10	0.05	2000	1.915359	40.92394	-91.39363
3514877	-2	3	0	0.04856024	0.1608269	-70.45025	0	11.06	20057	0	0	5	5	0.02	1.077695	1	10	0.05	2000	1.915359	40.92394	-91.39363
3514989	-6	0	2	0.04012591	0.1607278	-70.45483	0	11.06	20057	0	0	5	5	0.02	1.074708	1	10	0.05	2000	1.715832	40.92394	-91.39363
3515153	-3	2	3	0.04397395	0.1551574	-70.4613	0	11.06	20057	0	0	5	5	0.02	1.070518	1	10	0.05	2000	1.702688	40.92394	-91.39363
3515273	2	-1	4	0.0516372	0.1554312	-70.46588	0	11.06	20057	0	0	5	5	0.02	1.070946	1	10	0.05	2000	1.699909	40.92394	-91.39363
3515361	-3	1	1	0.04946072	0.1533717	-70.47028	0	11.06	20057	0	0	5	5	0.02	1.072794	1	10	0.05	2000	1.916681	40.92394	-91.39363
3515440	1	-4	3	0.05766267	0.1478854	-70.47351	0	11.06	20057	0	0	5	5	0.02	1.074763	1	10	0.05	2000	1.683011	40.92394	-91.39363
3515489	2	0	6	0.05907147	0.1526971	-70.47791	0	11.06	20057	0	0	5	5	0.02	1.076635	1	10	0.05	2000	1.902325	40.92394	-91.39363
3515635	-3	0	4	0.0704683	0.1558276	-70.48468	0	11.06	20057	0	0	5	5	0.02	1.080134	1	10	0.05	2000	1.890034	40.92394	-91.39363
3515749	-3	-5	4	0.07297508	0.1510021	-70.48785	0	11.06	20057	0	0	5	5	0.02	1.08698	1	10	0.05	2000	1.882136	40.92394	-91.39363
3515901	-4	3	3	0.07130143	0.153827	-70.4953	0	11.06	20057	0	0	5	5	0.02	1.095428	1	10	0.05	2000	1.659573	40.92394	-91.39363
3515963	0	-3	2	0.07424632	0.1542898	-70.49823	0	11.06	20057	0	0	5	5	0.02	1.097987	1	10	0.05	2000	1.659404	40.92394	-91.39363
3516026	-3	4	1	0.0742592	0.1540326	-70.49902	0	11.06	20057	0	0	5	5	0.02	1.096664	1	10	0.05	2000	1.659404	40.92394	-91.39363
3516185	2	0	-5	0.08336374	0.1575226	-70.50659	0	11	20057	0	0	5	5	0.02	1.099665	1	10	0.05	2000	1.654022	40.92394	-91.39363
3516323	-5	-2	3	0.08423776	0.1532759	-70.51263	0	11	20057	0	0	5	5	0.02	1.107643	1	10	0.05	2000	1.864082	40.92394	-91.39363
3516366	-10	0	2	0.08301955	0.156836	-70.51349	0	11	20057	0	0	5	5	0.02	1.114126	1	10	0.05	2000	1.864082	40.92394	-91.39363
3516443	-3	-3	1	0.08522532	0.15732	-70.51544	0	11	20057	0	0	5	5	0.02	1.119211	1	10	0.05	2000	1.6419	40.92394	-91.39363
