time(ms)	gyro_x(deg/s)	gyro_y(deg/s)	gyro_z(deg/s)	orientation_roll(deg)	orientation_pitch(deg)	orientation_yaw(deg)	throttle	battery(V)	loop_time(uS)	pid_output_roll	pid_output_pitch	pid_output_yaw	pid_output_throttle	ultrasonic_alt	baro_alt	flight_mode	p_gain_altitude	i_gain_altitude	d_gain_altitude	compass_heading	latitude	longitude
2933117	294	-598	-636	-0.1420874	-3.548055	1.956604	0	11.51	20055	8	-14	5	5	0.02	1.975477	8	10	0.03	2000	-10.44717	40.92387	-91.39359
2933248	-780	-1362	-28	-0.7803661	-4.733614	1.933959	0	11.51	20038	8	-14	5	5	0.02	1.919694	8	10	0.03	2000	-10.06479	40.92387	-91.39359
2933338	602	145	2037	-1.92746	-2.039733	1.074042	0	11.51	20044	7	-14	5	5	0.02	1.901389	8	10	0.03	2000	-9.969879	40.92387	-91.39359
2933473	1208	1241	-1062	-2.286726	-3.949021	0.9905874	0	11.51	20009	7	-14	5	5	0.02	1.867759	8	10	0.03	2000	-9.385468	40.92387	-91.39359
2933537	-442	-2292	-1609	-1.667453	-4.033952	1.854662	0	11.51	20010	7	-14	5	5	0.02	1.855572	8	10	0.03	2000	-9.385468	40.92387	-91.39359
2933657	13	1262	1306	-0.2512921	-4.567273	2.944007	0	11.4	20053	7	-14	5	5	0.02	1.848521	8	10	0.03	2000	-8.865601	40.92387	-91.39359
2933752	302	593	-630	-1.129078	-5.101298	2.323569	0	11.4	20056	6	-14	5	5	0.02	1.838929	8	10	0.03	2000	-9.02832	40.92388	-91.3936
2933831	1149	-543	177	-0.5319173	-5.413974	1.867239	0	11.4	20032	6	-14	5	5	0.02	1.837498	8	10	0.03	2000	-7.364899	40.92388	-91.3936
2933930	-821	-1664	1327	-2.355849	-1.377943	1.117797	0	11.4	20059	5	-14	5	5	0.02	1.843915	8	10	0.03	2000	-6.586334	40.92388	-91.3936
2934064	1394	2003	615	-1.590044	-2.374514	1.622423	0	11.4	20030	5	-14	5	5	0.02	1.861131	8	10	0.03	2000	-7.813629	40.92388	-91.3936
2934134	-6	-377	-1257	-1.16548	-3.658125	1.958993	0	11.4	20030	5	-14	5	5	0.02	1.875204	8	10	0.03	2000	-6.527802	40.92388	-91.3936
2934240	-321	-1	1390	-3.146468	-1.746529	1.370692	0	11.4	24006	5	-14	5	5	0.02	1.905982	8	10	0.03	2000	-5.306183	40.92388	-91.3936
2934348	1348	2245	862	-2.352679	-3.404649	1.092476	0	11.4	24045	5	-17	5	5	0.02	1.943051	8	10	0.03	2000	-6.426422	40.92388	-91.39361
2934438	-404	1040	384	-1.479082	-4.671408	1.10199	0	11.4	20019	4	-14	5	5	0.02	1.965421	8	10	0.03	2000	-3.420807	40.92388	-91.39361
2934591	-916	577	-2631	-3.850911	-7.372241	1.598484	0	12.02	20031	4	-14	5	5	0.02	2.02272	8	10	0.03	2000	-3.550415	40.92388	-91.39361
2934645	-1067	341	-1565	-4.644345	-8.942512	1.999516	0	12.02	20050	4	-14	5	5	0.02	2.031628	8	10	0.03	2000	-4.952179	40.92388	-91.39362
2934768	-1122	711	-450	-4.88378	-11.70674	2.351892	0	12.02	20054	3	-14	5	5	0.02	2.076988	8	10	0.03	2000	-5.905243	40.92388	-91.39362
2934908	556	2307	1090	-5.222437	-12.51623	1.055023	0	12.02	20020	2	-14	5	5	0.02	2.114387	8	10	0.03	2000	-4.199219	40.92388	-91.39362
2934955	2559	3294	-809	-2.69616	-14.60727	0.613044	0	12.02	20027	2	-14	5	5	0.02	2.130737	8	10	0.03	2000	-4.403137	40.92388	-91.39362
2935075	573	-64	-654	-2.626108	-16.36048	1.420966	0	12.02	23990	2	-14	5	5	0.02	2.149915	8	10	0.03	2000	-4.187927	40.92388	-91.39362
2935154	-143	-3182	500	-0.7344573	-12.54017	2.312109	0	12.02	20028	2	-14	5	5	0.02	2.161972	8	10	0.03	2000	-3.959869	40.92388	-91.39362
2935254	-1358	-1349	1960	-1.583829	-9.088194	1.435088	0	12.02	20031	1	-13	5	5	0.02	2.175198	8	10	0.03	2000	-3.365784	40.92388	-91.39362
2935382	1936	-632	-356	-1.395227	-6.270091	0.4721294	0	12.02	20035	0	-13	5	5	0.02	2.181386	8	10	0.03	2000	-2.610565	40.92388	-91.39362
2935445	615	-1756	-1009	-0.6996024	-6.112372	0.8266742	0	11.68	20042	0	-13	5	5	0.02	2.187537	8	10	0.03	2000	-2.610565	40.92388	-91.39362
2935608	-78	-1669	-802	-0.6801544	-4.607684	1.965166	0	11.68	20052	0	-13	5	5	0.02	2.193377	8	10	0.03	2000	-0.8841553	40.92389	-91.39362
2935715	-1279	-285	838	-1.153492	-4.944981	2.022332	0	11.68	20012	0	-13	5	5	0.02	2.194874	8	10	0.03	2000	-2.155121	40.92389	-91.39362
2935872	629	-376	60	-0.6124982	-3.723668	1.306521	0	11.68	20003	0	-12	5	5	0.02	2.182232	8	10	0.03	2000	1.851342	40.92389	-91.39363
2935997	-469	-1524	-603	-1.180074	-3.139532	1.760142	0	11.68	20038	-1	-12	5	5	0.02	2.178277	8	10	0.03	2000	1.51378	40.92389	-91.39363
2936108	-3	1773	900	-2.26389	-3.487916	2.027566	0	11.68	20032	-1	-12	5	5	0.02	2.181581	8	10	0.03	2000	3.539255	40.92389	-91.39363
2936245	1105	556	556	-1.15016	-4.820178	1.355442	0	11.68	20054	-1	-12	5	5	0.02	2.180287	8	10	0.03	2000	3.67264	40.92389	-91.39364
2936314	49	-280	-449	-0.8726307	-4.706031	0.9845356	0	11.68	20019	-1	-12	5	5	0.02	2.171793	8	10	0.03	2000	1.686419	40.92389	-91.39364
2936444	-1095	-660	1384	-0.931953	-5.087565	1.419827	0	11.57	20069	-1	-11	5	5	0.02	2.159096	8	10	0.03	2000	4.570469	40.92389	-91.39364
2936500	-182	-26	-453	-1.151696	-5.252253	1.712304	0	11.57	20011	-1	-11	5	5	0.02	2.146895	8	10	0.03	2000	4.570469	40.92389	-91.39364
2936590	45	209	136	-0.6833827	-8.360873	1.994337	0	11.57	20055	-1	-11	5	5	0.02	2.123166	8	10	0.03	2000	3.102411	40.92389	-91.39364
2936647	45	209	136	-0.6833827	-8.360873	1.994337	0	11.57	20055	-1	-11	5	5	0.02	2.102493	8	10	0.03	2000	3.102411	40.92389	-91.39364
2936759	510	877	290	0.4444204	-8.663624	2.478944	0	11.57	20040	-2	-11	5	5	0.02	2.073692	8	10	0.03	2000	5.194658	40.92389	-91.39364
2936848	-813	1142	-802	-1.448274	-12.08889	1.68756	0	11.57	20059	-2	-11	5	5	0.02	2.041266	8	10	0.03	2000	6.816231	40.92389	-91.39365
2936951	1047	1535	555	-1.349421	-13.45591	1.819014	0	11.57	20008	-2	-11	5	5	0.02	2.006419	8	10	0.03	2000	5.266904	40.92389	-91.39365
2937058	1254	2113	-1228	-0.9382659	-14.11015	2.076352	0	11.57	20054	-2	-11	5	5	0.02	1.984584	8	10	0.03	2000	5.634644	40.92389	-91.39365
2937219	-1356	-761	-73	-1.675621	-12.98495	1.332715	0	11.57	20031	-2	-11	5	5	0.02	1.964888	8	10	0.03	2000	6.077893	40.92389	-91.39365
2937263	606	2767	-562	-0.6791574	-14.26046	1.269306	0	11.68	20041	-2	-11	5	5	0.02	1.964454	8	10	0.03	2000	6.587089	40.92389	-91.39365
2937419	-729	269	-58	-0.03590669	-18.20047	1.598347	0	11.68	20055	-2	-11	5	5	0.02	1.969497	8	10	0.03	2000	6.550514	40.92389	-91.39365
2937458	-1698	-986	-707	-0.4709947	-18.38993	1.690175	0	11.68	20012	-2	-11	5	5	0.02	1.973923	8	10	0.03	2000	6.550514	40.92389	-91.39365
2937562	-696	-4585	-162	-1.181902	-13.58639	1.941951	0	11.68	20027	-2	-11	5	5	0.02	1.983464	8	10	0.03	2000	5.836707	40.92389	-91.39365
2937744	-203	-688	-77	-3.366711	-7.698136	1.667779	0	11.68	20031	-2	-10	5	5	0.02	2.023757	8	10	0.03	2000	7.622261	40.92389	-91.39365
2937795	-189	-1622	-1027	-2.959073	-7.372507	1.528121	0	11.68	20030	-2	-10	5	5	0.02	2.046515	8	10	0.03	2000	7.894123	40.9239	-91.39364
2937963	-2386	123	-1726	-2.271186	-6.767941	2.146958	0	11.68	20019	-1	-10	5	5	0.02	2.089637	8	10	0.03	2000	7.536328	40.9239	-91.39364
2938078	69	357	95	-6.221663	-8.507317	1.126032	0	11.68	20031	-1	-10	5	5	0.02	2.119991	8	10	0.03	2000	5.660233	40.9239	-91.39364
2938196	-854	-539	-484	-6.794736	-8.163411	0.9388592	0	11.46	20032	-1	-9	5	5	0.02	2.136836	8	10	0.03	2000	4.592111	40.9239	-91.39364
2938253	2297	664	913	-5.204263	-8.074744	1.078861	0	11.46	20024	-1	-9	5	5	0.02	2.160557	8	10	0.03	2000	4.734314	40.9239	-91.39364
2938374	-239	5	1086	-2.883822	-8.471863	1.310709	0	11.46	20009	-1	-9	5	5	0.02	2.174342	8	10	0.03	2000	3.834012	40.9239	-91.39363
2938525	1283	1669	-1931	-1.157746	-9.48105	1.960823	0	11.46	20011	0	-8	5	5	0.02	2.188018	8	10	0.03	2000	1.808716	40.92391	-91.39363
2938565	1710	2856	508	-0.2528065	-10.95738	2.030372	0	11.46	20023	0	-8	5	5	0.02	2.194355	8	10	0.03	2000	1.808716	40.92391	-91.39363
2938668	-1529	-1913	-617	-2.077861	-12.44702	1.688927	0	11.46	20030	0	-8	5	5	0.02	2.20088	8	10	0.03	2000	3.530318	40.92391	-91.39363
2938767	555	-410	1540	-1.25384	-10.8785	1.769438	0	11.46	20061	0	0	5	5	0.02	2.212326	3	10	0.03	2000	1.951114	40.92391	-91.39363
2938903	-726	-47	135	-2.039858	-9.917683	1.37906	0	11.46	20061	0	0	5	5	0.02	2.211211	3	10	0.03	2000	1.324275	40.92391	-91.39362
2939004	-1045	-793	-120	-2.480992	-8.750134	0.7485967	0	11.46	20061	0	0	5	5	0.02	2.21315	3	10	0.03	2000	1.707811	40.92391	-91.39362
2939084	-1467	-932	558	-4.367435	-7.278454	0.6761165	0	11.46	20061	0	0	5	5	0.02	2.212564	3	10	0.03	2000	1.933832	40.92391	-91.39362
2939236	-744	-2885	-568	-7.142574	-6.207382	1.848216	0	11.46	20061	0	0	5	5	0.02	2.214352	3	10	0.03	2000	0.4604037	40.92391	-91.39362
2939376	1224	295	159	-6.101544	-1.254222	0.8114325	0	11.46	20061	0	0	5	5	0.02	2.212354	3	10	0.03	2000	-0.643219	40.92392	-91.39362
2939476	1236	52	1156	-2.776748	-2.0827	0.7756534	0	11.46	20061	0	0	5	5	0.02	2.194636	3	10	0.03	2000	-2.15918	40.92392	-91.39362
2939584	374	-541	523	-2.105828	-1.865436	1.220394	0	11.46	20061	0	0	5	5	0.02	2.169329	3	10	0.03	2000	-2.540955	40.92393	-91.39362
2939696	1039	1128	377	-2.160473	-1.610579	2.038516	0	11.46	20061	0	0	5	5	0.02	2.121212	3	10	0.03	2000	-3.778961	40.92393	-91.39362
2939783	-729	-192	-356	-2.115577	-2.720148	1.848585	0	11.46	20061	0	0	5	5	0.02	2.092397	3	10	0.03	2000	-1.884491	40.92393	-91.39362
2939921	445	183	-116	-1.152112	-3.062431	1.410323	0	11.46	20061	0	0	5	5	0.02	2.046983	3	10	0.03	2000	-1.60965	40.92393	-91.39362
2940006	1212	872	100	-0.1905054	-3.729945	1.480835	0	11.46	20061	0	0	5	5	0.02	2.010641	3	10	0.03	2000	-2.47406	40.92393	-91.39362
2940112	-168	-918	2	-0.6308693	-2.92467	1.490137	0	11.8	20061	0	0	5	5	0.02	1.96499	3	10	0.03	2000	0.02657725	40.92393	-91.39362
2940282	-1569	-1397	-569	-1.184388	-2.853552	1.686931	0	11.8	20061	0	0	5	5	0.02	1.925279	3	10	0.03	2000	1.537696	40.92393	-91.39362
2940314	257	-171	236	-1.131252	-2.521854	1.937558	0	11.8	20061	0	0	5	5	0.02	1.911749	3	10	0.03	2000	1.591676	40.92393	-91.39362
2940398	522	795	1739	0.1174615	-3.192848	2.02772	0	11.8	20061	0	0	5	5	0.02	1.883978	3	10	0.03	2000	1.395637	40.92393	-91.39361
2940499	-177	-758	1379	-0.5787482	-3.111841	1.80369	0	11.8	20061	0	0	5	5	0.02	1.846987	3	10	0.03	2000	1.413079	40.92393	-91.39361
2940603	1094	177	-87	-0.2247681	-3.203758	1.091876	0	11.8	20061	0	0	5	5	0.02	1.822677	3	10	0.03	2000	1.876722	40.92393	-91.39361
2940713	-708	-1608	-184	0.05820707	-3.221296	1.284464	0	11.8	20061	0	0	5	5	0.02	1.788249	3	10	0.03	2000	2.201378	40.92393	-91.39361
2940806	481	-219	-530	-0.4808774	-3.05865	1.910276	0	11.8	20061	0	0	5	5	0.02	1.773913	3	10	0.03	2000	3.162638	40.92393	-91.39361
2940910	-182	241	3	1.057327	-4.431186	2.437019	0	11.8	20061	0	0	5	5	0.02	1.751004	3	10	0.03	2000	4.957674	40.92394	-91.3936
2941034	-1106	-982	1403	-0.4836193	-2.433989	1.663108	0	11.4	20061	0	0	5	5	0.02	1.744235	3	10	0.03	2000	5.654351	40.92394	-91.3936
2941131	39	-1372	-46	-1.054465	-0.8883477	0.9636719	0	11.4	20061	0	0	5	5	0.02	1.738917	3	10	0.03	2000	5.008239	40.92394	-91.3936
2941269	-379	181	-510	-1.15421	-0.744903	1.255891	0	11.4	20061	0	0	5	5	0.02	1.726891	3	10	0.03	2000	6.446927	40.92394	-91.3936
2941325	-299	390	-1293	-0.9891371	-1.937755	2.326465	0	11.4	20061	0	0	5	5	0.02	1.726549	3	10	0.03	2000	6.237175	40.92394	-91.3936
2941424	-4	903	781	-0.8397504	-3.229866	2.392048	0	11.4	20061	0	0	5	5	0.02	1.739176	3	10	0.03	2000	6.573858	40.92394	-91.3936
2941596	-1042	-583	-1121	-0.6857014	-2.059249	0.8302642	0	11.4	20061	0	0	5	5	0.02	1.767965	3	10	0.03	2000	11.48045	40.92393	-91.39359
2941726	-117	666	-24	0.03037299	-1.565761	2.004347	0	11.4	20061	0	0	5	5	0.02	1.830094	3	10	0.03	2000	9.922519	40.92393	-91.39359
2941775	-2367	1825	508	-1.302063	-3.279854	1.264428	0	11.4	20061	0	0	5	5	0.02	1.850749	3	10	0.03	2000	9.922519	40.92393	-91.39359
2941829	-2605	412	110	-2.255864	-4.13356	0.8633647	0	11.4	20061	0	0	5	5	0.02	1.871759	3	10	0.03	2000	8.89002	40.92393	-91.39359
2941963	-2463	989	-395	-7.765507	-6.058619	0.5833186	0	11.85	20061	0	0	5	5	0.02	1.937468	3	10	0.03	2000	2.701241	40.92393	-91.39359
2942049	-1534	1322	230	-9.197742	-6.680521	1.223697	0	11.85	20061	0	0	5	5	0.02	1.97085	3	10	0.03	2000	-0.8396606	40.92393	-91.39359
2942156	-2671	1428	763	-10.85037	-8.058621	1.556737	0	11.85	20061	0	0	5	5	0.02	2.017297	3	10	0.03	2000	-6.08963	40.92393	-91.39359
2942275	-504	1872	90	-11.98923	-9.027838	1.111524	0	11.85	20061	0	0	5	5	0.02	2.064274	3	10	0.03	2000	-8.503174	40.92393	-91.39358
2942361	1273	3395	-639	-9.980103	-13.6488	0.7019596	0	11.85	20061	0	0	5	5	0.02	2.09265	3	10	0.03	2000	-12.98813	40.92393	-91.39358
2942465	556	2314	176	-7.672654	-15.82932	0.7788936	0	11.85	20061	0	0	5	5	0.02	2.125809	3	10	0.03	2000	-13.91107	40.92393	-91.39358
2942576	1946	1122	-235	-6.296316	-17.02184	1.485269	0	11.85	20061	0	0	5	5	0.02	2.137262	3	10	0.03	2000	-16.33981	40.92392	-91.39358
2942684	-1573	-2675	-340	-2.615892	-12.06744	2.253881	0	11.85	20061	0	0	5	5	0.02	2.138382	3	10	0.03	2000	-16.20651	40.92392	-91.39358
2942765	1199	-1210	1686	-3.256818	-8.331654	2.04003	0	11.85	20061	0	0	5	5	0.02	2.134181	3	10	0.03	2000	-16.04697	40.92392	-91.39358
2942870	701	-889	233	-0.3907733	-4.179144	0.6822934	0	11.8	20061	0	0	5	5	0.02	2.120055	3	10	0.03	2000	-15.16797	40.92392	-91.39358
2942944	-2110	-1954	-419	-1.390174	-2.728909	-0.05537507	0	11.8	20061	0	0	5	5	0.02	2.092182	3	10	0.03	2000	-14.00375	40.92392	-91.39358
2943078	776	36	-8	-0.3468544	-2.286319	0.3976596	0	11.8	20061	0	0	5	5	0.02	2.064138	3	10	0.03	2000	-12.96295	40.92392	-91.39358
2943232	644	789	467	-1.075459	-1.644299	1.200726	0	11.8	20061	0	0	5	5	0.02	2.004601	3	10	0.03	2000	-13.35431	40.92392	-91.39358
2943269	-4	-347	193	-0.8249131	-2.151256	0.9741575	0	11.8	20061	0	0	5	5	0.02	1.995955	3	10	0.03	2000	-12.53146	40.92392	-91.39358
2943331	-200	206	1432	-1.055564	-2.231225	0.7681412	0	11.8	20061	0	0	5	5	0.02	1.967491	3	10	0.03	2000	-12.53146	40.92392	-91.39358
2943490	701	-621	-880	0.6206326	-3.296148	1.532382	0	11.8	20061	0	0	5	5	0.02	1.908597	3	10	0.03	2000	-12.30817	40.92392	-91.39358
2943549	-88	-1064	-706	0.2366266	-2.29862	1.833198	0	11.8	20061	0	0	5	5	0.02	1.89679	3	10	0.03	2000	-12.86697	40.92392	-91.39358
2943646	-255	-1110	127	-0.3440139	-1.150801	1.610536	0	11.8	20061	0	0	5	5	0.02	1.854813	3	10	0.03	2000	-11.63553	40.92392	-91.39358
2943761	-849	-342	1019	-2.133703	-0.1546655	0.8822993	0	11.8	20061	0	0	5	5	0.02	1.840335	3	10	0.03	2000	-12.05389	40.92392	-91.39358
2943873	1261	1211	175	-0.8990002	-1.760565	0.6827137	0	11.17	20061	0	0	5	5	0.02	1.809847	3	10	0.03	2000	-12.23035	40.92392	-91.39358
2944027	-305	-544	-1959	-0.7792915	-2.626746	1.140968	0	11.17	20061	0	0	5	5	0.02	1.792307	3	10	0.03	2000	-10.8334	40.92392	-91.39359
2944115	-359	-419	1450	0.07174218	-3.066223	1.879544	0	11.17	20061	0	0	5	5	0.02	1.780426	3	10	0.03	2000	-11.27078	40.92392	-91.39359
2944199	1215	555	-772	-0.5426966	-3.063807	2.410188	0	11.17	20061	0	0	5	5	0.02	1.773778	3	10	0.03	2000	-10.24161	40.92392	-91.39359
2944295	1321	286	1067	0.8306569	-3.183546	2.076737	0	11.17	20061	0	0	5	5	0.02	1.776094	3	10	0.03	2000	-9.859924	40.92392	-91.39359
2944331	344	-190	1124	0.9859754	-2.264244	1.912179	0	11.17	20061	0	0	5	5	0.02	1.782103	3	10	0.03	2000	-9.224304	40.92392	-91.39359
2944464	531	11	444	-0.381004	-0.7873388	0.5882793	0	11.17	20061	0	0	5	5	0.02	1.798252	3	10	0.03	2000	-6.017517	40.92392	-91.39359
2944555	-31	162	604	-1.201057	-1.144848	0.3135151	0	11.17	20061	0	0	5	5	0.02	1.825771	3	10	0.03	2000	-6.704102	40.92392	-91.39359
2944654	-820	-1303	-717	-0.9692165	-0.8218893	1.065265	0	11.17	20061	0	0	5	5	0.02	1.856668	3	10	0.03	2000	-5.55954	40.92392	-91.39359
2944761	-934	-1202	-829	-1.99308	0.3860087	1.229152	0	11.57	20061	0	0	5	5	0.02	1.888431	3	10	0.03	2000	-4.683075	40.92392	-91.39359
2944840	759	1084	518	-2.283957	0.09350587	1.230164	0	11.57	20061	0	0	5	5	0.02	1.938382	3	10	0.03	2000	-6.094086	40.92392	-91.3936
2944984	1027	674	599	-0.6778752	-2.845912	2.975255	0	11.57	20061	0	0	5	5	0.02	1.978427	3	10	0.03	2000	-5.313019	40.92392	-91.3936
2945050	-484	-1155	737	-0.8159501	-2.729678	2.791341	0	11.57	20061	0	0	5	5	0.02	2.02355	3	10	0.03	2000	-6.827332	40.92392	-91.3936
2945149	48	-705	-209	-1.757094	-1.828668	1.397513	0	11.57	20061	0	0	5	5	0.02	2.056696	3	10	0.03	2000	-3.973389	40.92392	-91.3936
2945250	1405	920	32	-0.7763854	-2.175508	0.7796797	0	11.57	20061	0	0	5	5	0.02	2.119486	3	10	0.03	2000	-3.737244	40.92392	-91.3936
2945433	243	-535	-496	-0.9402105	-1.870178	1.575056	0	11.57	20061	0	0	5	5	0.02	2.202743	3	10	0.03	2000	-2.141663	40.92392	-91.3936
2945489	382	266	23	-0.5138363	-1.934261	1.568131	0	11.57	20061	0	0	5	5	0.02	2.21512	3	10	0.03	2000	-1.966766	40.92392	-91.3936
2945598	-261	-550	-437	-1.180514	-0.4325569	0.8689665	0	11.8	20061	0	0	5	5	0.02	2.292957	3	10	0.03	2000	-1.236145	40.92392	-91.39361
2945638	462	-743	-1029	-1.406481	-0.4024469	0.8836064	0	11.8	20061	0	0	5	5	0.02	2.305658	3	10	0.03	2000	-0.1436768	40.92392	-91.39361
2945763	-94	1025	794	-0.5458767	-3.020148	1.18877	0	11.8	20061	0	0	5	5	0.02	2.406054	3	10	0.03	2000	-1.728302	40.92392	-91.39361
2945839	117	-255	-1275	-0.220869	-4.984198	2.005664	0	11.8	20061	0	0	5	5	0.02	2.454949	3	10	0.03	2000	-0.3641357	40.92392	-91.39361
2945981	-1745	-1911	-666	-1.590708	-2.963425	1.21646	0	11.8	20061	0	0	5	5	0.02	2.555491	3	10	0.03	2000	0.7035521	40.92392	-91.39361
2946057	1240	-179	-574	-2.005151	-1.375903	1.087092	0	11.8	20061	0	0	5	5	0.02	2.607376	3	10	0.03	2000	2.621252	40.92392	-91.39361
2946142	-2778	1131	823	-3.468367	-2.866562	1.454171	0	11.8	20061	0	0	5	5	0.02	2.702928	3	10	0.03	2000	2.402443	40.92392	-91.39361
2946242	-157	1567	-666	-6.265449	-4.974303	1.447397	0	11.8	20061	0	0	5	5	0.02	2.735745	3	10	0.03	2000	3.689925	40.92392	-91.39361
2946368	-2148	1236	8	-7.929791	-8.142958	0.6170403	0	11.8	20061	0	0	5	5	0.02	2.797002	3	10	0.03	2000	-0.04882813	40.92391	-91.39362
2946513	-2107	2135	622	-10.95332	-9.343868	0.3012265	0	11.8	20061	0	0	5	5	0.02	2.916153	3	10	0.03	2000	-2.339752	40.92391	-91.39362
2946636	-1254	615	-1306	-13.33405	-9.520987	0.7856756	0	11.46	20061	0	0	5	5	0.02	2.968917	3	10	0.03	2000	-6.344788	40.92391	-91.39362
2946693	-1920	1610	-913	-14.16388	-10.45902	0.9360598	0	11.46	20061	0	0	5	5	0.02	2.998477	3	10	0.03	2000	-6.742126	40.92391	-91.39362
2946794	-1583	1881	1394	-15.74534	-11.47637	0.9141018	0	11.46	20061	0	0	5	5	0.02	3.029372	3	10	0.03	2000	-8.588715	40.92391	-91.39362
2946949	-1879	1122	-1282	-17.477	-12.81933	0.6620367	0	11.46	20061	0	0	5	5	0.02	3.07204	3	10	0.03	2000	-13.65329	40.92391	-91.39362
2947126	-471	28	-1082	-16.48489	-13.10181	1.652677	0	11.46	20061	0	0	5	5	0.02	3.101996	3	10	0.03	2000	-20.06018	40.92391	-91.39362
2947184	2095	1319	-970	-14.34493	-13.67061	2.008851	0	11.46	20061	0	0	5	5	0.02	3.103998	3	10	0.03	2000	-21.9043	40.92391	-91.39362
2947251	1164	-2458	440	-12.5647	-13.49276	2.183969	0	11.46	20061	0	0	5	5	0.02	3.105731	3	10	0.03	2000	-21.9043	40.92391	-91.39362
2947379	1282	-2058	539	-8.336479	-7.096054	1.031715	0	11.46	20061	0	0	5	5	0.02	3.099018	3	10	0.03	2000	-19.7276	40.92391	-91.39362
2947442	4165	-3698	508	-5.436606	-3.782319	0.4461265	0	11.46	20061	0	0	5	5	0.02	3.097735	3	10	0.03	2000	-19.7276	40.92391	-91.39362
2947558	1475	-120	-443	3.056432	1.606991	0.6298035	0	11.46	20061	0	0	5	5	0.02	3.101303	3	10	0.03	2000	-16.83774	40.92391	-91.39362
2947686	1722	-170	-1151	4.503614	-0.4733197	1.615023	0	11.46	20061	0	0	5	5	0.02	3.10655	3	10	0.03	2000	-16.2876	40.92391	-91.39362
2947753	1515	-589	389	6.018945	-0.5133446	1.752357	0	11.46	20061	0	0	5	5	0.02	3.107462	3	10	0.03	2000	-14.44812	40.92391	-91.39363
2947866	3419	235	688	7.882436	-1.485119	1.286415	0	11.46	20061	0	0	5	5	0.02	3.100241	3	10	0.03	2000	-9.321808	40.92391	-91.39363
2947955	2589	-1349	924	10.50212	-0.4291677	0.9273134	0	11.46	20061	0	0	5	5	0.02	3.090755	3	10	0.03	2000	-7.284088	40.92391	-91.39364
2948050	-2006	1776	533	9.720521	-2.6078	0.7527987	0	11.46	20061	0	0	5	5	0.02	3.054314	3	10	0.03	2000	-4.448029	40.92391	-91.39364
2948176	-331	-1667	-1395	3.066869	-1.932084	1.150441	0	11.46	20061	0	0	5	5	0.02	3.02228	3	10	0.03	2000	-1.695679	40.92391	-91.39365
2948308	42	1080	1115	1.696128	-1.534433	1.043456	0	11.46	20061	0	0	5	5	0.02	2.921149	3	10	0.03	2000	0.399684	40.92391	-91.39365
2948375	164	-582	-1420	1.059442	-3.365254	1.431475	0	11.8	20061	0	0	5	5	0.02	2.908055	3	10	0.03	2000	3.197393	40.92391	-91.39365
2948436	-18	-557	-1506	1.240563	-3.274625	1.622865	0	11.8	20061	0	0	5	5	0.02	2.849567	3	10	0.03	2000	2.486318	40.92391	-91.39365
2948585	-346	-640	1020	-1.013199	-1.87791	1.364861	0	11.8	20061	0	0	5	5	0.02	2.768268	3	10	0.03	2000	5.233362	40.92392	-91.39365
2948673	-575	-225	-332	-1.676667	-3.935719	1.748457	0	11.8	20061	0	0	5	5	0.02	2.693333	3	10	0.03	2000	5.694684	40.92392	-91.39365
2948741	162	-287	-369	-1.526859	-4.554921	1.732951	0	11.8	20061	0	0	5	5	0.02	2.65942	3	10	0.03	2000	6.358408	40.92392	-91.39365
2948878	183	-473	1697	0.3619968	-5.505587	1.663682	0	11.8	20061	0	0	5	5	0.02	2.595421	3	10	0.03	2000	7.772963	40.92392	-91.39365
2948974	-804	-3382	-806	-0.7943517	-2.497091	1.023825	0	11.8	20061	0	0	5	5	0.02	2.495097	3	10	0.03	2000	9.329935	40.92392	-91.39365
2949089	-1821	-139	-683	-0.8110625	-3.577434	1.312223	0	11.8	20061	0	0	5	5	0.02	2.369784	3	10	0.03	2000	12.45107	40.92392	-91.39365
2949100	-2949	-351	984	-2.245219	-3.21501	1.372696	0	11.8	20061	0	0	5	5	0.02	2.369784	3	10	0.03	2000	12.45107	40.92392	-91.39365
2949200	-2546	-16	31	-4.959472	-3.071611	1.600241	0	11.8	20061	0	0	5	5	0.02	2.27681	3	10	0.03	2000	10.65008	40.92392	-91.39365
2949371	-490	653	732	-3.84095	-7.1928	1.337053	0	11.63	20061	0	0	5	5	0.02	2.052759	3	10	0.03	2000	6.656508	40.92392	-91.39365
2949485	1502	861	-146	-1.614694	-6.154901	1.443834	0	11.63	20061	0	0	5	5	0.02	1.969206	3	10	0.03	2000	7.311678	40.92392	-91.39365
2949520	1153	389	-568	-0.8778539	-6.554132	1.562006	0	11.63	20061	0	0	5	5	0.02	1.95016	3	10	0.03	2000	7.311678	40.92392	-91.39365
2949600	-1159	-529	1303	-0.8707158	-5.766663	1.283986	0	11.63	20061	0	0	5	5	0.02	1.748348	3	10	0.03	2000	6.646911	40.92392	-91.39365
2949767	-2038	3266	-601	-3.882727	-7.540178	0.2005884	0	11.63	20061	0	0	5	5	0.02	1.635239	3	10	0.03	2000	6.072774	40.92392	-91.39365
2949830	-1534	3954	792	-5.850151	-10.39173	0.6891958	0	11.63	20061	0	0	5	5	0.02	1.579018	3	10	0.03	2000	2.87137	40.92392	-91.39365
2949900	-3056	1883	680	-7.737713	-12.06099	1.006627	0	11.63	20061	0	0	5	5	0.02	1.52247	3	10	0.03	2000	2.87137	40.92392	-91.39365
2950006	-2007	2207	180	-10.60982	-12.51567	0.4831318	0	11.63	20061	0	0	5	5	0.02	1.46717	3	10	0.03	2000	-0.579834	40.92392	-91.39365
2950166	-7375	-9914	-1524	-8.589618	-0.9887109	-2.076148	0	11.85	20061	0	0	5	5	0.02	1.337526	3	10	0.03	2000	-1.428009	40.92392	-91.39365
2950266	5263	-2875	-7418	-7.598358	14.57822	5.05804	0	11.85	20061	0	0	5	5	0.02	1.269896	3	10	0.03	2000	-13.49969	40.92392	-91.39365
2950321	4663	-732	-5962	-3.660629	16.35678	8.788811	0	11.85	20061	0	0	5	5	0.02	1.21787	3	10	0.03	2000	-13.49969	40.92392	-91.39365
2950432	-426	11827	1287	-1.33688	9.237909	9.530687	0	11.85	20061	0	0	5	5	0.02	1.147058	3	10	0.03	2000	-18.78641	40.92392	-91.39365
2950567	530	-1066	58	-2.567747	-2.958785	8.900158	0	11.85	20061	0	0	5	5	0.02	1.03853	3	10	0.03	2000	-13.32156	40.92392	-91.39365
2950686	-82	-62	0	-2.719443	-2.456262	8.853202	0	11.85	20061	0	0	5	5	0.02	0.9608594	3	10	0.03	2000	-12.30487	40.92392	-91.39365
2950719	-59	-15	54	-2.789311	-2.360953	8.843909	0	11.85	20061	0	0	5	5	0.02	0.9027128	3	10	0.03	2000	-12.30487	40.92392	-91.39365
2950805	-148	18	0	-2.923534	-2.239014	8.829173	0	11.85	20061	0	0	5	5	0.02	0.8313764	3	10	0.03	2000	-12.87778	40.92392	-91.39365
2950966	-78	45	10	-3.252263	-1.939059	8.7791	0	11.85	20061	0	0	5	5	0.02	0.7295749	1	10	0.03	2000	-11.29135	40.92392	-91.39365
2951023	-69	11	25	-3.354273	-1.836196	8.761798	0	11.85	20061	0	0	5	5	0.02	0.7052682	1	10	0.03	2000	-11.11942	40.92392	-91.39365
2951151	-71	-8	34	-3.485455	-1.714918	8.729391	0	11.97	20061	0	0	5	5	0.02	0.6372104	1	10	0.03	2000	-11.40936	40.92392	-91.39365
2951208	-97	-30	50	-3.602281	-1.617562	8.698085	0	11.97	20061	0	0	5	5	0.02	0.6176019	1	10	0.03	2000	-10.44839	40.92392	-91.39365
2951321	-67	4	27	-3.67227	-1.533146	8.683657	0	11.97	20061	0	0	5	5	0.02	0.5879744	1	10	0.03	2000	-10.62366	40.92392	-91.39365
2951459	-78	14	-27	-3.818358	-1.3757	8.641843	0	11.97	20061	0	0	5	5	0.02	0.543943	1	10	0.03	2000	-10.51669	40.92392	-91.39365
2951542	-92	-3	37	-3.865092	-1.325867	8.621667	0	11.97	20061	0	0	5	5	0.02	0.538034	1	10	0.03	2000	-10.42813	40.92392	-91.39365
2951627	-75	0	41	-3.909155	-1.284934	8.604977	0	11.97	20061	0	0	5	5	0.02	0.5243067	1	10	0.03	2000	-9.8591	40.92392	-91.39365
2951715	-81	10	23	-3.998698	-1.197682	8.570495	0	11.97	20061	0	0	5	5	0.02	0.5074454	1	10	0.03	2000	-9.661255	40.92392	-91.39365
2951843	-84	3	2	-4.049554	-1.145335	8.54537	0	11.97	20061	0	0	5	5	0.02	0.4908316	1	10	0.03	2000	-9.878021	40.92392	-91.39365
2951960	-77	2	4	-4.103692	-1.085859	8.509851	0	11.97	20061	0	0	5	5	0.02	0.4825906	1	10	0.03	2000	-9.606995	40.92392	-91.39365
2952060	-75	-97	28	-4.194975	-1.269063	8.47054	0	11.97	20061	0	0	5	5	0.02	0.4857135	1	10	0.03	2000	-9.514801	40.92392	-91.39365
2952121	-95	85	6	-4.144066	-1.112956	8.450607	0	11.97	20061	0	0	5	5	0.02	0.4877781	1	10	0.03	2000	-9.460999	40.92392	-91.39365
2952284	-440	1434	192	-4.91835	-2.395934	8.525446	0	11.97	20061	0	0	5	5	0.02	0.4893302	1	10	0.03	2000	-9.351929	40.92392	-91.39365
2952362	-151	83	-1488	-5.492342	-3.044503	9.095569	0	11.97	20061	0	0	5	5	0.02	0.492365	1	10	0.03	2000	-7.90329	40.92392	-91.39365
2952477	-248	322	-2824	-7.000597	-3.589547	13.5459	0	11.97	20061	0	0	5	5	0.02	0.4961466	1	10	0.03	2000	-8.590332	40.92392	-91.39365
2952513	1276	-968	-2588	-6.475952	-1.980703	16.53854	0	11.97	20061	0	0	5	5	0.02	0.4977599	1	10	0.03	2000	-9.578552	40.92392	-91.39365
2952612	-945	-1568	-1674	-6.526442	1.288465	20.09851	0	11.97	20061	0	0	5	5	0.02	0.5159121	1	10	0.03	2000	-10.17258	40.92392	-91.39365
2952745	-2533	-3430	-1266	-9.399499	6.524182	22.26091	0	11.97	20061	0	0	5	5	0.02	0.5482574	1	10	0.03	2000	-12.81537	40.92392	-91.39365
2952817	-2474	-2906	-1386	-10.77772	10.45515	23.7181	0	11.97	20061	0	0	5	5	0.02	0.561533	1	10	0.03	2000	-15.69592	40.92392	-91.39365
2952947	-678	-3536	-1515	-11.74317	16.93376	27.59082	0	12.08	20061	0	0	5	5	0.02	0.6129844	1	10	0.03	2000	-21.48575	40.92392	-91.39365
2953034	-205	-2338	-1695	-10.64834	20.37483	29.50547	0	12.08	20061	0	0	5	5	0.02	0.6671026	1	10	0.03	2000	-25.73923	40.92392	-91.39365
2953116	1322	567	-1393	-10.03754	20.77391	31.22866	0	12.08	20061	0	0	5	5	0.02	0.6941552	1	10	0.03	2000	-29.83295	40.92392	-91.39365
2953281	-214	2757	-2601	-5.710417	17.57491	36.4576	0	12.08	20061	0	0	5	5	0.02	0.7964616	1	10	0.03	2000	-30.87863	40.92392	-91.39365
2953330	726	1978	-1471	-3.921019	15.56211	40.04825	0	12.08	20061	0	0	5	5	0.02	0.8257029	1	10	0.03	2000	-33.21277	40.92392	-91.39365
2953440	83	570	-1908	-2.606138	14.95725	41.81212	0	12.08	20061	0	0	5	5	0.02	0.8927355	1	10	0.03	2000	-32.86591	40.92392	-91.39365
2953571	-1247	3095	184	-0.1721397	12.57094	45.33603	0	12.08	20061	0	0	5	5	0.02	0.958746	1	10	0.03	2000	-34.41577	40.92393	-91.39365
2953686	-642	-5070	87	-2.446826	14.53612	42.48037	0	12.08	20061	0	0	5	5	0.02	1.003997	1	10	0.03	2000	-32.02121	40.92393	-91.39365
2953711	-642	-5070	87	-2.446826	14.53612	42.48037	0	12.08	20061	0	0	5	5	0.02	1.021145	1	10	0.03	2000	-32.02121	40.92393	-91.39365
2953813	2632	341	552	0.171662	17.1328	42.55863	0	12.08	20061	0	0	5	5	0.02	1.045076	1	10	0.03	2000	-35.14349	40.92393	-91.39365
2953919	752	-2074	927	2.699783	18.68408	41.20805	0	12.08	20061	0	0	5	5	0.02	1.08747	1	10	0.03	2000	-36.02176	40.92393	-91.39365
2954021	-223	-1095	1143	2.555177	19.19778	40.00079	0	12.08	20061	0	0	5	5	0.02	1.116052	1	10	0.03	2000	-37.05783	40.92393	-91.39365
2954118	-1307	172	855	0.6987427	20.71308	37.94912	0	12.08	20061	0	0	5	5	0.02	1.13247	1	10	0.03	2000	-37.00443	40.92393	-91.39364
2954218	1845	339	628	0.6087713	18.97006	36.79744	0	12.08	20061	0	0	5	5	0.02	1.160059	1	10	0.03	2000	-34.36072	40.92393	-91.39364
2954367	252	-618	2919	1.318756	19.48472	32.13611	0	12.08	20061	0	0	5	5	0.02	1.16347	1	10	0.03	2000	-29.29474	40.92393	-91.39364
2954506	899	1667	3645	-0.8513789	19.41657	22.43158	0	12.08	20061	0	0	5	5	0.02	1.159417	1	10	0.03	2000	-18.19714	40.92393	-91.39364
2954643	622	3138	4555	-1.335464	9.624271	11.39896	0	12.08	20061	0	0	5	5	0.02	1.151871	1	10	0.03	2000	-10.87634	40.92394	-91.39364
2954745	352	578	3885	-0.73722	5.349319	6.783651	0	12.02	20061	0	0	5	5	0.02	1.121382	1	10	0.03	2000	-6.784698	40.92394	-91.39364
2954858	-454	3061	1072	-1.397115	-3.123953	0.6488644	0	12.02	20061	0	0	5	5	0.02	1.085839	1	10	0.03	2000	-0.6242676	40.92395	-91.39364
2954890	-423	2720	678	-1.839554	-4.889867	0.1978849	0	12.02	20061	0	0	5	5	0.02	1.066777	1	10	0.03	2000	-0.6242676	40.92395	-91.39364
2954986	-1291	958	-48	-2.912114	-7.141821	-0.1325072	0	12.02	20061	0	0	5	5	0.02	1.034937	1	10	0.03	2000	1.334515	40.92395	-91.39364
2955084	-722	-110	-408	-3.813839	-9.892248	-0.4306489	0	12.02	20061	0	0	5	5	0.02	0.9777883	1	10	0.03	2000	2.582688	40.92395	-91.39364
2955183	357	-178	1771	-3.772232	-9.934078	-1.443588	0	12.02	20061	0	0	5	5	0.02	0.9323255	1	10	0.03	2000	2.842755	40.92395	-91.39364
2955281	-127	405	1832	-3.241589	-9.864552	-4.775556	0	12.02	20061	0	0	5	5	0.02	0.8594495	1	10	0.03	2000	4.804985	40.92395	-91.39364
2955444	-1	-230	-135	-2.822639	-7.235073	-4.650245	0	12.02	20061	0	0	5	5	0.02	0.7960263	1	10	0.03	2000	5.016171	40.92395	-91.39364
2955484	123	-134	31	-2.812782	-6.776089	-4.646335	0	12.02	20061	0	0	5	5	0.02	0.785163	1	10	0.03	2000	4.578153	40.92395	-91.39364
2955632	-539	846	105	-1.698519	-5.282796	-4.930398	0	12.14	20061	0	0	5	5	0.02	0.72926	1	10	0.03	2000	2.512164	40.92395	-91.39364
2955687	-93	-174	131	-1.973037	-5.4037	-4.941164	0	12.14	20061	0	0	5	5	0.02	0.6963614	1	10	0.03	2000	2.512164	40.92395	-91.39364
2955789	129	-149	-36	-1.280071	-3.819097	-4.9199	0	12.14	20061	0	0	5	5	0.02	0.6478094	1	10	0.03	2000	2.487655	40.92395	-91.39364
2955892	-188	235	36	-1.325583	-3.553289	-4.956523	0	12.14	20061	0	0	5	5	0.02	0.6060861	1	10	0.03	2000	2.297897	40.92395	-91.39364
2956029	-33	-45	6	-1.464721	-3.141345	-5.007025	0	12.14	20061	0	0	5	5	0.02	0.5392514	1	10	0.03	2000	2.417201	40.92395	-91.39364
2956159	94	-229	-6	-1.239977	-2.4163	-5.020844	0	12.14	20061	0	0	5	5	0.02	0.4928526	1	10	0.03	2000	2.527489	40.92395	-91.39364
2956277	-132	45	19	-1.232417	-2.166177	-5.04854	0	12.14	20061	0	0	5	5	0.02	0.4664127	1	10	0.03	2000	2.445738	40.92395	-91.39364
2956357	16	-110	-9	-1.197288	-1.888016	-5.062724	0	12.14	20061	0	0	5	5	0.02	0.4469216	1	10	0.03	2000	2.251511	40.92395	-91.39364
2956422	-119	40	18	-1.160369	-1.707296	-5.077948	0	12.14	20061	0	0	5	5	0.02	0.4355805	1	10	0.03	2000	2.375186	40.92395	-91.39364
2956508	-92	32	9	-1.155161	-1.451019	-5.103564	0	12.19	20061	0	0	5	5	0.02	0.4197381	1	10	0.03	2000	2.082261	40.92395	-91.39364
2956556	-53	-13	21	-1.156975	-1.405796	-5.1098	0	12.19	20061	0	0	5	5	0.02	0.4104905	1	10	0.03	2000	2.070984	40.92395	-91.39364
2956656	-62	-18	12	-1.137169	-1.245409	-5.131259	0	12.19	20061	0	0	5	5	0.02	0.4012488	1	10	0.03	2000	2.248253	40.92395	-91.39364
2956758	-84	11	20	-1.118851	-1.064234	-5.15828	0	12.19	20061	0	0	5	5	0.02	0.3896154	1	10	0.03	2000	1.98251	40.92395	-91.39364
2956866	-72	0	4	-1.121285	-0.9869796	-5.170998	0	12.19	20061	0	0	5	5	0.02	0.3822697	1	10	0.03	2000	1.993524	40.92395	-91.39364
2957005	-76	3	16	-1.109103	-0.818356	-5.204502	0	12.19	20061	0	0	5	5	0.02	0.3818545	1	10	0.03	2000	1.976285	40.92395	-91.39364
2957103	-74	4	20	-1.102464	-0.758286	-5.218503	0	12.19	20061	0	0	5	5	0.02	0.3798565	1	10	0.03	2000	2.174357	40.92395	-91.39364
2957209	-78	4	7	-1.095592	-0.6589245	-5.243203	0	12.19	20061	0	0	5	5	0.02	0.3761886	1	10	0.03	2000	1.931053	40.92395	-91.39364
2957257	-70	6	11	-1.098321	-0.6180699	-5.256532	0	12.19	20061	0	0	5	5	0.02	0.3758992	1	10	0.03	2000	2.164048	40.92395	-91.39364
2957341	-78	8	14	-1.09372	-0.5727158	-5.269676	0	12.19	20061	0	0	5	5	0.02	0.3787522	1	10	0.03	2000	1.924535	40.92395	-91.39364
2957420	-75	1	17	-1.087017	-0.5276046	-5.291076	0	12.08	20061	0	0	5	5	0.02	0.3825325	1	10	0.03	2000	2.128992	40.92395	-91.39364
2957528	-66	0	12	-1.082948	-0.4747708	-5.311555	0	12.08	20061	0	0	5	5	0.02	0.384149	1	10	0.03	2000	1.899062	40.92395	-91.39364
2957645	-74	0	11	-1.075792	-0.4215476	-5.336441	0	12.08	20061	0	0	5	5	0.02	0.387029	1	10	0.03	2000	1.884007	40.92395	-91.39364
2957744	-76	-2	10	-1.063843	-0.3860055	-5.356739	0	12.08	20061	0	0	5	5	0.02	0.3854707	1	10	0.03	2000	1.878046	40.92395	-91.39364
2957836	-71	6	14	-1.058488	-0.3571762	-5.371657	0	12.08	20061	0	0	5	5	0.02	0.3836859	1	10	0.03	2000	1.865313	40.92395	-91.39364
2957922	-80	2	4	-1.05972	-0.3237425	-5.392994	0	12.08	20061	0	0	5	5	0.02	0.3778926	1	10	0.03	2000	2.075921	40.92395	-91.39364
2958060	-65	0	9	-1.05393	-0.2913858	-5.415922	0	12.08	20061	0	0	5	5	0.02	0.3706864	1	10	0.03	2000	1.851305	40.92395	-91.39364
2958152	-71	-4	17	-1.047263	-0.2713094	-5.434878	0	12.08	20061	0	0	5	5	0.02	0.3677797	1	10	0.03	2000	1.621622	40.92395	-91.39364
2958206	-72	2	14	-1.046404	-0.2624321	-5.447596	0	12.08	20061	0	0	5	5	0.02	0.3671533	1	10	0.03	2000	2.056496	40.92395	-91.39364
2958310	-66	6	15	-1.042043	-0.2469809	-5.464838	0	12.08	20061	0	0	5	5	0.02	0.3690381	1	10	0.03	2000	2.048523	40.92395	-91.39364
2958458	-62	4	12	-1.031412	-0.2218209	-5.490821	0	12.08	20061	0	0	5	5	0.02	0.3742537	6	10	0.03	2000	2.031561	40.92395	-91.39364
2958536	-70	-1	9	-1.033102	-0.213688	-5.510995	0	12.08	20061	0	0	5	5	0.02486761	0.3777278	6	10	0.03	2000	2.041545	40.92395	-91.39364
2958613	-71	6	15	-1.028249	-0.2045896	-5.522735	0	12.08	20061	0	0	5	5	0.03045694	0.3820149	6	10	0.03	2000	1.808462	40.92395	-91.39364
2958725	-75	0	9	-1.039121	-0.1954369	-5.543951	0	12.08	20061	0	0	5	5	0.03437	0.3854625	6	10	0.03	2000	1.821357	40.92395	-91.39364
2958860	-77	2	8	-1.036465	-0.1806801	-5.567307	0	12.08	20061	0	0	5	5	0.03802738	0.3848545	6	10	0.03	2000	1.802194	40.92395	-91.39364
2958935	-71	4	10	-1.0188	-0.1611414	-5.584486	0	12.08	20061	0	0	5	5	0.03468932	0.3839698	1	10	0.03	2000	1.791725	40.92395	-91.39364
2958987	-67	0	8	-1.017323	-0.1552819	-5.598301	0	12.08	20061	0	0	5	5	0.02809835	0.3828866	1	10	0.03	2000	1.791571	40.92395	-91.39364
2959130	-62	-1	15	-1.015507	-0.1522131	-5.614747	0	12.08	20061	0	0	5	5	0.02	0.3925229	1	10	0.03	2000	1.78033	40.92395	-91.39364
2959242	-72	0	6	-1.032628	-0.1548763	-5.641282	0	12.14	20061	0	0	5	5	0.02	0.3998803	1	10	0.03	2000	2.020202	40.92395	-91.39364
2959287	-69	-3	9	-1.035829	-0.1542108	-5.64764	0	12.14	20061	0	0	5	5	0.02	0.404438	1	10	0.03	2000	2.020202	40.92395	-91.39364
2959485	-71	6	10	-1.028244	-0.1481951	-5.682917	0	12.14	20061	0	0	5	5	0.02	0.4128392	1	10	0.03	2000	1.797068	40.92395	-91.39364
2959521	-62	-1	9	-1.023558	-0.1468742	-5.688602	0	12.14	20061	0	0	5	5	0.02	0.4145126	1	10	0.03	2000	1.793839	40.92395	-91.39364
2959573	-70	2	12	-1.022824	-0.1461167	-5.694655	0	12.14	20061	0	0	5	5	0.02	0.4165171	1	10	0.03	2000	1.793839	40.92395	-91.39364
2959769	-74	3	12	-1.002698	-0.1439983	-5.729144	0	12.14	20061	0	0	5	5	0.02	0.415907	1	10	0.03	2000	1.76484	40.92395	-91.39364
2959863	-74	2	6	-1.003839	-0.1426797	-5.742472	0	12.14	20061	0	0	5	5	0.02	0.4143831	1	10	0.03	2000	1.751153	40.92395	-91.39364
2959966	-69	0	10	-0.9908891	-0.1356792	-5.76662	0	12.14	20061	0	0	5	5	0.02	0.4210338	1	10	0.03	2000	1.981628	40.92395	-91.39364
2960050	-67	3	10	-0.9778522	-0.1390712	-5.779032	0	12.14	20061	0	0	5	5	0.02	0.426674	1	10	0.03	2000	1.956617	40.92395	-91.39364
2960134	-81	6	11	-0.9735652	-0.1329701	-5.791258	0	12.14	20061	0	0	5	5	0.02	0.4338175	1	10	0.03	2000	1.722207	40.92395	-91.39364
2960178	-74	-6	7	-0.9639636	-0.1306672	-5.810029	0	12.14	20061	0	0	5	5	0.02	0.4328956	1	10	0.03	2000	1.702025	40.92395	-91.39364
2960324	-68	5	12	-0.9528269	-0.1238394	-5.826782	0	12.14	20061	0	0	5	5	0.02	0.4260606	1	10	0.03	2000	1.914826	40.92395	-91.39364
2960410	-65	3	11	-0.9371359	-0.1198611	-5.844634	0	12.14	20061	0	0	5	5	0.02	0.4197501	1	10	0.03	2000	1.896518	40.92395	-91.39364
2960508	-60	0	9	-0.9307263	-0.1321738	-5.860651	0	12.14	20061	0	0	5	5	0.02	0.4096145	1	10	0.03	2000	1.654703	40.92395	-91.39364
2960592	-63	3	11	-0.9294356	-0.128937	-5.875447	0	12.14	20061	0	0	5	5	0.02	0.40383	1	10	0.03	2000	1.640962	40.92395	-91.39364
2960677	-66	7	15	-0.9263102	-0.1386106	-5.881683	0	12.14	20061	0	0	5	5	0.02	0.3954525	1	10	0.03	2000	2.090274	40.92395	-91.39364
2960857	-63	4	9	-0.9283871	-0.1419247	-5.915676	0	12.14	20061	0	0	5	5	0.02	0.3839238	1	10	0.03	2000	1.642227	40.92395	-91.39364
2960905	-69	3	12	-0.9268063	-0.1415879	-5.925214	0	12.14	20061	0	0	5	5	0.02	0.3799467	1	10	0.03	2000	1.416607	40.92395	-91.39364
2960972	-65	5	13	-0.9097838	-0.1344085	-5.942701	0	12.08	20061	0	0	5	5	0.02	0.3748461	1	10	0.03	2000	1.851259	40.92395	-91.39364
2961069	-74	0	10	-0.9004686	-0.1328141	-5.953522	0	12.08	20061	0	0	5	5	0.02	0.3731292	1	10	0.03	2000	1.829668	40.92395	-91.39364
2961169	-68	8	8	-0.8909495	-0.1381532	-5.968744	0	12.08	20061	0	0	5	5	0.02	0.3734768	1	10	0.03	2000	1.827813	40.92395	-91.39364
2961278	-60	3	10	-0.8999754	-0.1371779	-5.99326	0	12.08	20061	0	0	5	5	0.02	0.3685142	1	10	0.03	2000	1.586331	40.92395	-91.39364
2961419	-68	-2	14	-0.9041361	-0.1301086	-6.014597	0	12.08	20061	0	0	5	5	0.02	0.366713	1	10	0.03	2000	1.595701	40.92395	-91.39364
2961514	-70	0	8	-0.9005058	-0.1353092	-6.029821	0	12.08	20061	0	0	5	5	0.02	0.3655559	1	10	0.03	2000	1.59483	40.92395	-91.39364
2961569	-64	4	8	-0.9038668	-0.1339332	-6.034835	0	12.08	20061	0	0	5	5	0.02	0.3629836	1	10	0.03	2000	1.59483	40.92395	-91.39364
2961709	-68	9	7	-0.8874841	-0.126934	-6.059169	0	12.08	20061	0	0	5	5	0.02	0.3623996	1	10	0.03	2000	2.040731	40.92395	-91.39364
2961805	-62	3	9	-0.8921263	-0.1252469	-6.074333	0	12.08	20061	0	0	5	5	0.02	0.3614041	1	10	0.03	2000	2.03609	40.92395	-91.39364
2961869	-67	0	5	-0.8876471	-0.1177722	-6.07959	0	12.08	20061	0	0	5	5	0.02	0.3601549	1	10	0.03	2000	2.03609	40.92395	-91.39364
2961983	-69	0	7	-0.8844362	-0.1088638	-6.102701	0	12.14	20061	0	0	5	5	0.02	0.3530162	1	10	0.03	2000	1.794638	40.92395	-91.39364
2962046	-67	2	13	-0.8855246	-0.1190709	-6.113461	0	12.14	20061	0	0	5	5	0.02	0.3525307	1	10	0.03	2000	1.799216	40.92395	-91.39364
2962165	-61	0	10	-0.889686	-0.1211358	-6.135043	0	12.14	20061	0	0	5	5	0.02	0.3573988	1	10	0.03	2000	1.813618	40.92395	-91.39364
2962266	-66	-2	10	-0.8918557	-0.1256786	-6.146231	0	12.14	20061	0	0	5	5	0.02	0.3625391	1	10	0.03	2000	1.813618	40.92395	-91.39364
2962376	-67	0	13	-0.8904148	-0.1298325	-6.162616	0	12.14	20061	0	0	5	5	0.02	0.3689272	1	10	0.03	2000	1.59081	40.92395	-91.39364
2962441	-69	7	11	-0.8930385	-0.1301568	-6.177352	0	12.14	20061	0	0	5	5	0.02	0.3727157	1	10	0.03	2000	1.586332	40.92395	-91.39364
2962582	-63	4	10	-0.8906158	-0.134478	-6.197772	0	12.14	20061	0	0	5	5	0.02	0.3792588	1	10	0.03	2000	1.591684	40.92395	-91.39364
2962648	-67	-1	10	-0.8958893	-0.1380688	-6.213729	0	12.14	20061	0	0	5	5	0.02	0.3798169	1	10	0.03	2000	1.814805	40.92395	-91.39364
2962749	-69	0	10	-0.8968028	-0.1343081	-6.225773	0	12.14	20061	0	0	5	5	0.02	0.3842832	1	10	0.03	2000	1.598799	40.92395	-91.39363
2962873	-73	4	14	-0.8988829	-0.1305622	-6.243074	0	12.19	20061	0	0	5	5	0.02	0.3832698	1	10	0.03	2000	1.600016	40.92395	-91.39363
2962947	-63	0	11	-0.8952566	-0.1415143	-6.265329	0	12.19	20061	0	0	5	5	0.02	0.3852854	1	10	0.03	2000	1.821651	40.92395	-91.39363
2963088	-60	1	8	-0.8905308	-0.1368475	-6.280433	0	12.19	20061	0	0	5	5	0.02	0.3897203	1	10	0.03	2000	1.595579	40.92395	-91.39364
2963184	-54	6	12	-0.8781316	-0.1398515	-6.302749	0	12.19	20061	0	0	5	5	0.02	0.3979361	1	10	0.03	2000	1.565668	40.92395	-91.39364
2963292	-63	1	9	-0.866002	-0.1393624	-6.314121	0	12.19	20061	0	0	5	5	0.02	0.4177269	1	10	0.03	2000	1.559154	40.92395	-91.39364
2963400	-55	0	12	-0.8663386	-0.1424216	-6.335764	0	12.19	20061	0	0	5	5	0.02	0.4354625	1	10	0.03	2000	1.782476	40.92395	-91.39364
2963460	-63	0	10	-0.8633738	-0.149561	-6.346586	0	12.19	20061	0	0	5	5	0.02	0.4516582	1	10	0.03	2000	1.766505	40.92395	-91.39364
