time(ms)	gyro_x(deg/s)	gyro_y(deg/s)	gyro_z(deg/s)	orientation_roll(deg)	orientation_pitch(deg)	orientation_yaw(deg)	throttle	battery(V)	loop_time(uS)	pid_output_roll	pid_output_pitch	pid_output_yaw	pid_output_throttle	ultrasonic_alt	baro_alt	flight_mode	p_gain_altitude	i_gain_altitude	d_gain_altitude	compass_heading	latitude	longitude
3300795	4	1	-1	0.4682153	0.2907194	-54.90762	0	11.23	20031	0	0	5	5	0.02	0.3244538	1	10	0.05	2000	-0.2632446	40.92395	-91.39364
3300854	-8	2	-3	0.4660164	0.2939436	-54.91031	0	11.23	20031	0	0	5	5	0.02	0.3257753	1	10	0.05	2000	-0.4854126	40.92395	-91.39364
3301004	-1	-1	-3	0.4675095	0.2993867	-54.91306	0	11.23	20031	0	0	5	5	0.02	0.3382165	1	10	0.05	2000	-0.4783936	40.92395	-91.39364
3301082	-7	6	1	0.4621356	0.3003521	-54.91849	0	11.23	20031	0	0	5	5	0.02	0.3407912	1	10	0.05	2000	-0.2634888	40.92395	-91.39364
3301141	-1	2	7	0.4618392	0.2979756	-54.91977	0	11.23	20031	0	0	5	5	0.02	0.3448556	1	10	0.05	2000	-0.2634888	40.92395	-91.39364
3301249	-10	2	2	0.4633394	0.3013515	-54.92337	0	11.23	20031	0	0	5	5	0.02	0.3505391	1	10	0.05	2000	-0.6993103	40.92395	-91.39364
3301380	1	0	2	0.4667941	0.3069924	-54.92892	0	11.23	20031	0	0	5	5	0.02	0.3546913	1	10	0.05	2000	-0.4858093	40.92395	-91.39364
3301475	-4	1	2	0.4684878	0.3031821	-54.93216	0	11.23	20031	0	0	5	5	0.02	0.3566553	1	10	0.05	2000	-0.04858398	40.92395	-91.39364
3301550	-3	5	4	0.4699898	0.3008799	-54.93924	0	11.23	20031	0	0	5	5	0.02	0.3581203	1	10	0.05	2000	-0.4925537	40.92395	-91.39364
3301695	2	0	3	0.4739795	0.2945257	-54.94339	0	11.23	20031	0	0	5	5	0.02	0.3665321	1	10	0.05	2000	-0.4970398	40.92395	-91.39364
3301829	-12	-2	3	0.4721268	0.2952425	-54.95297	0	11.23	20031	0	0	5	5	0.02	0.3775696	1	10	0.05	2000	-0.2726135	40.92395	-91.39364
3301872	-5	1	0	0.4748212	0.2932658	-54.95419	0	11.23	20031	0	0	5	5	0.02	0.3802385	1	10	0.05	2000	-0.4936523	40.92395	-91.39364
3301948	1	1	1	0.4765234	0.2959272	-54.95798	0	11.23	20031	0	0	5	5	0.02	0.3899219	1	10	0.05	2000	-0.7210388	40.92395	-91.39364
3302048	-16	-1	0	0.4732865	0.2966582	-54.96353	0	11.23	20031	0	0	5	5	0.02	0.4062914	1	10	0.05	2000	-0.4930115	40.92395	-91.39364
3302207	-9	0	0	0.4613739	0.2991588	-54.97147	0	11.23	20031	0	0	5	5	0.02	0.431166	1	10	0.05	2000	-0.2562866	40.92395	-91.39364
3302277	-9	1	2	0.4602048	0.3018602	-54.97281	0	11.23	20031	0	0	5	5	0.02	0.4443649	1	10	0.05	2000	-0.2562866	40.92395	-91.39364
3302346	2	0	0	0.4564193	0.3006654	-54.97568	0	11.23	20031	0	0	5	5	0.02	0.4506159	1	10	0.05	2000	-0.6972351	40.92395	-91.39364
3302498	-7	-2	0	0.4626304	0.2982094	-54.98404	0	11.23	20031	0	0	5	5	0.02	0.471423	1	10	0.05	2000	-0.2597961	40.92395	-91.39364
3302550	-12	0	6	0.4641804	0.2976148	-54.98575	0	11.23	20031	0	0	5	5	0.02	0.4872662	1	10	0.05	2000	-0.2597961	40.92395	-91.39364
3302654	-10	0	2	0.4692221	0.2890509	-54.99094	0	11.29	20031	0	0	5	5	0.02	0.5076513	1	10	0.05	2000	-0.265686	40.92395	-91.39364
3302800	-8	-2	1	0.4744044	0.2884937	-54.99869	0	11.29	20031	0	0	5	5	0.02	0.5155187	1	10	0.05	2000	-0.2674866	40.92395	-91.39364
3302876	-6	-3	2	0.4731537	0.2923347	-55.00015	0	11.29	20031	0	0	5	5	0.02	0.5152947	1	10	0.05	2000	-0.4889526	40.92395	-91.39364
3302979	-6	0	4	0.4728816	0.2905068	-55.00418	0	11.29	20031	0	0	5	5	0.02	0.523447	1	10	0.05	2000	-0.4930725	40.92395	-91.39364
3303082	-12	2	7	0.4677763	0.2923039	-55.00876	0	11.29	20031	0	0	5	5	0.02	0.5310913	1	10	0.05	2000	-0.2639465	40.92395	-91.39364
3303146	-4	5	1	0.4627924	0.3002695	-55.01334	0	11.29	20031	0	0	5	5	0.02	0.5370272	1	10	0.05	2000	-0.7017517	40.92395	-91.39364
3303285	-10	0	2	0.4571916	0.2967904	-55.01682	0	11.29	20031	0	0	5	5	0.02	0.5453166	1	10	0.05	2000	-0.6923523	40.92395	-91.39364
3303352	-4	-2	0	0.4576322	0.2941333	-55.02322	0	11.29	20031	0	0	5	5	0.02	0.5506071	1	10	0.05	2000	-0.4738159	40.92395	-91.39364
3303455	-1	0	2	0.4615369	0.2929585	-55.02805	0	11.29	20031	0	0	5	5	0.02	0.5544777	1	10	0.05	2000	-0.4812317	40.92395	-91.39364
3303572	-2	0	3	0.467122	0.2905967	-55.03091	0	11.29	20031	0	0	5	5	0.02	0.5472074	1	10	0.05	2000	-0.2620544	40.92395	-91.39364
3303671	-4	-3	4	0.464213	0.296023	-55.0369	0	11.29	20031	0	0	5	5	0.02	0.5386331	1	10	0.05	2000	-0.256958	40.92395	-91.39364
3303759	-7	2	5	0.4642913	0.2988961	-55.04007	0	11.29	20031	0	0	5	5	0.02	0.5317653	1	10	0.05	2000	-0.2622986	40.92395	-91.39364
3303900	-7	0	2	0.4587699	0.3091481	-55.04276	0	11.29	20031	0	0	5	5	0.02	0.5296938	1	10	0.05	2000	-0.256134	40.92395	-91.39364
3303954	-5	0	3	0.4548162	0.306168	-55.04709	0	11.29	20031	0	0	5	5	0.02	0.5293312	1	10	0.05	2000	-0.4706726	40.92395	-91.39364
3304085	-5	1	0	0.4603463	0.3006704	-55.05392	0	11.29	20031	0	0	5	5	0.02	0.5269523	1	10	0.05	2000	-0.4772949	40.92395	-91.39364
3304164	-1	0	2	0.4557529	0.3036387	-55.05759	0	11.29	20031	0	0	5	5	0.02	0.5212035	1	10	0.05	2000	-0.4772949	40.92395	-91.39364
3304352	1	0	1	0.460937	0.2968923	-55.0665	0	11.29	20031	0	0	5	5	0.02	0.5148395	1	10	0.05	2000	-0.2601929	40.92395	-91.39364
3304390	-5	5	1	0.4616895	0.299254	-55.0679	0	11.29	20031	0	0	5	5	0.02	0.5172095	1	10	0.05	2000	-0.4745178	40.92395	-91.39364
3304500	-7	0	2	0.4668014	0.3011126	-55.07339	0	11.29	20031	0	0	5	5	0.02	0.520276	1	10	0.05	2000	-0.4822693	40.92395	-91.39364
3304555	-3	0	6	0.4700256	0.3028329	-55.07864	0	11.29	20031	0	0	5	5	0.02	0.519473	1	10	0.05	2000	-0.7186279	40.92395	-91.39364
3304740	-10	-2	4	0.4682454	0.3136413	-55.08322	0	11.29	20031	0	0	5	5	0.02	0.5183279	1	10	0.05	2000	-0.4903259	40.92395	-91.39364
3304783	-6	2	0	0.4680848	0.3081638	-55.08652	0	11.29	20031	0	0	5	5	0.02	0.5200043	1	10	0.05	2000	-0.4903259	40.92395	-91.39364
3304918	-7	1	0	0.4740348	0.3048208	-55.08981	0	11.29	20031	0	0	5	5	0.02	0.5273958	1	10	0.05	2000	-0.4859619	40.92395	-91.39364
3304993	-3	1	3	0.4737669	0.3045844	-55.09286	0	11.29	20031	0	0	5	5	0.02	0.5299869	1	10	0.05	2000	-0.7198181	40.92395	-91.39364
3305041	-6	0	4	0.4728624	0.3077699	-55.09634	0	11.29	20031	0	0	5	5	0.02	0.5306247	1	10	0.05	2000	-0.2727051	40.92395	-91.39364
3305146	0	-4	-1	0.4689131	0.3065289	-55.09836	0	11.29	20031	0	0	5	5	0.02	0.5324039	1	10	0.05	2000	-0.4863892	40.92395	-91.39364
3305257	-7	1	7	0.4630838	0.3019361	-55.10257	0	11.29	20031	0	0	5	5	0.02	0.5339507	1	10	0.05	2000	-0.4874573	40.92395	-91.39364
3305348	-8	-3	3	0.4693252	0.2968588	-55.11075	0	11.23	20031	0	0	5	5	0.02	0.5368682	1	10	0.05	2000	-0.2658081	40.92395	-91.39364
3305497	-3	1	4	0.4748583	0.2951618	-55.11514	0	11.23	20031	0	0	5	5	0.02	0.5349098	1	10	0.05	2000	-0.05218506	40.92395	-91.39364
3305589	-1	5	1	0.4726757	0.2918802	-55.12131	0	11.23	20031	0	0	5	5	0.02	0.5268919	1	10	0.05	2000	-0.4930725	40.92395	-91.39364
3305715	-5	1	5	0.4662158	0.2820993	-55.12662	0	11.23	20031	0	0	5	5	0.02	0.5183157	1	10	0.05	2000	-0.2691956	40.92395	-91.39364
3305783	-10	-1	0	0.4732293	0.2863735	-55.12753	0	11.23	20031	0	0	5	5	0.02	0.5120999	1	10	0.05	2000	-0.4875183	40.92395	-91.39364
3305902	-2	0	0	0.4742336	0.2808178	-55.13199	0	11.23	20031	0	0	5	5	0.02	0.5122007	1	10	0.05	2000	-0.2781067	40.92395	-91.39364
3305969	-4	7	2	0.4729505	0.2819229	-55.1348	0	11.23	20031	0	0	5	5	0.02	0.51186	1	10	0.05	2000	-0.2781067	40.92395	-91.39364
3306164	-1	6	-1	0.475765	0.2838765	-55.14304	0	11.23	20031	0	0	5	5	0.02	0.5102485	1	10	0.05	2000	-0.5000305	40.92395	-91.39364
3306226	-7	2	3	0.4772055	0.2917972	-55.14731	0	11.23	20031	0	0	5	5	0.02	0.5079433	1	10	0.05	2000	-0.5039978	40.92395	-91.39364
3306331	-7	-2	0	0.4706238	0.2881624	-55.15085	0	11.23	20031	0	0	5	5	0.02	0.5047271	1	10	0.05	2000	-0.2738037	40.92395	-91.39364
3306411	-6	1	6	0.4697112	0.293087	-55.15463	0	11.23	20031	0	0	5	5	0.02	0.4997252	1	10	0.05	2000	-0.4910278	40.92395	-91.39364
3306472	-8	5	0	0.4695981	0.2965343	-55.15695	0	11.23	20031	0	0	5	5	0.02	0.4925427	1	10	0.05	2000	-0.4896851	40.92395	-91.39364
3306598	-3	2	1	0.4719819	0.2957148	-55.16019	0	11.23	20031	0	0	5	5	0.02	0.4683569	1	10	0.05	2000	-0.4912109	40.92395	-91.39364
3306682	-1	-4	1	0.4761598	0.2920665	-55.16226	0	11.23	20031	0	0	5	5	0.02	0.458772	1	10	0.05	2000	-0.4912109	40.92395	-91.39364
3306912	-1	-2	0	0.4864897	0.2886871	-55.17465	0	11.23	20031	0	0	5	5	0.02	0.4421161	1	10	0.05	2000	-0.510437	40.92395	-91.39364
3307047	0	4	-1	0.4890093	0.2870324	-55.17795	0	11.23	20031	0	0	5	5	0.02	0.4358028	1	10	0.05	2000	-0.2973633	40.92395	-91.39364
3307173	-1	1	3	0.4915011	0.2890353	-55.18021	0	11.23	20031	0	0	5	5	0.02	0.4330801	1	10	0.05	2000	-0.3045654	40.92395	-91.39364
3307259	-5	0	0	0.4910099	0.2841646	-55.18259	0	11.29	20031	0	0	5	5	0.02	0.4349924	1	10	0.05	2000	-0.3062134	40.92395	-91.39364
3307316	2	4	2	0.4976316	0.2841019	-55.18283	0	11.29	20031	0	0	5	5	0.02	0.4352634	1	10	0.05	2000	-0.5335388	40.92395	-91.39364
3307411	-3	0	7	0.5001085	0.2843662	-55.19016	0	11.29	20031	0	0	5	5	0.02	0.4378377	1	10	0.05	2000	-0.5344543	40.92395	-91.39364
3307551	0	2	9	0.4984588	0.2761901	-55.19559	0	11.29	20031	0	0	5	5	0.02	0.4468718	1	10	0.05	2000	-0.3059082	40.92395	-91.39364
3307661	-1	-6	-3	0.4915056	0.2761955	-55.20169	0	11.29	20031	0	0	5	5	0.02	0.4573984	1	10	0.05	2000	-0.3037109	40.92395	-91.39364
3307719	-4	4	-2	0.4952354	0.2817968	-55.20303	0	11.29	20031	0	0	5	5	0.02	0.4664329	1	10	0.05	2000	-0.5241699	40.92395	-91.39364
3307788	-9	5	8	0.4987192	0.2803614	-55.20554	0	11.29	20031	0	0	5	5	0.02	0.4698571	1	10	0.05	2000	-0.5326538	40.92395	-91.39364
3307871	0	6	-1	0.4958285	0.2768279	-55.20944	0	11.29	20031	0	0	5	5	0.02	0.4800632	1	10	0.05	2000	-0.7548523	40.92395	-91.39364
3308008	-4	2	1	0.5038868	0.2812688	-55.21567	0	11.29	20031	0	0	5	5	0.02	0.4970092	1	10	0.05	2000	-0.5361023	40.92395	-91.39364
3308135	0	3	5	0.505653	0.273531	-55.21823	0	11.29	20031	0	0	5	5	0.02	0.5122812	1	10	0.05	2000	-0.5447388	40.92395	-91.39364
3308250	-3	0	1	0.5080968	0.2728134	-55.2258	0	11.29	20031	0	0	5	5	0.02	0.52672	1	10	0.05	2000	-0.3239746	40.92395	-91.39364
3308282	-4	4	0	0.5089066	0.275112	-55.2269	0	11.29	20031	0	0	5	5	0.02	0.5295736	1	10	0.05	2000	-0.3239746	40.92395	-91.39364
3308412	-2	1	3	0.5037011	0.278387	-55.2316	0	11.29	20031	0	0	5	5	0.02	0.545305	1	10	0.05	2000	-0.3152161	40.92395	-91.39364
3308503	-5	0	6	0.497505	0.2795784	-55.23538	0	11.29	20031	0	0	5	5	0.02	0.5585298	1	10	0.05	2000	-0.5439148	40.92395	-91.39364
3308590	-5	-3	2	0.4953953	0.2828142	-55.24142	0	11.29	20031	0	0	5	5	0.02	0.5621514	1	10	0.05	2000	-0.3112488	40.92395	-91.39364
3308678	-2	3	0	0.5001472	0.2858328	-55.24759	0	11.29	20031	0	0	5	5	0.02	0.5643303	1	10	0.05	2000	-0.5357056	40.92395	-91.39364
3308827	-1	-4	6	0.4964576	0.2857839	-55.25266	0	11.29	20031	0	0	5	5	0.02	0.5650899	1	10	0.05	2000	-0.533905	40.92395	-91.39364
3309004	-8	4	3	0.4834645	0.287412	-55.26285	0	11.29	20031	0	0	5	5	0.02	0.5395095	1	10	0.05	2000	-0.5210266	40.92395	-91.39364
3309111	-3	4	5	0.4808891	0.2853844	-55.2681	0	11.23	20031	0	0	5	5	0.02	0.5247698	1	10	0.05	2000	-0.2866211	40.92395	-91.39364
3309175	-6	6	1	0.4801439	0.2875562	-55.27542	0	11.23	20031	0	0	5	5	0.02	0.5204309	1	10	0.05	2000	-0.5040894	40.92395	-91.39364
3309285	0	-2	1	0.4753173	0.2861697	-55.28036	0	11.23	20031	0	0	5	5	0.02	0.5114385	1	10	0.05	2000	-0.4993286	40.92395	-91.39364
3309397	-2	0	2	0.4702328	0.2872235	-55.28598	0	11.23	20031	0	0	5	5	0.02	0.5097423	1	10	0.05	2000	-0.493927	40.92395	-91.39364
3309481	-7	1	2	0.4697351	0.2876142	-55.29044	0	11.23	20031	0	0	5	5	0.02	0.5051133	1	10	0.05	2000	-0.2693787	40.92395	-91.39364
3309614	-3	6	0	0.4732248	0.2912519	-55.29617	0	11.23	20031	0	0	5	5	0.02	0.4931881	1	10	0.05	2000	-0.494812	40.92395	-91.39364
3309675	-7	6	0	0.4761278	0.2909181	-55.2991	0	11.23	20031	0	0	5	5	0.02	0.4915763	1	10	0.05	2000	-0.4918518	40.92395	-91.39364
3309793	2	-1	4	0.4810792	0.2853005	-55.30344	0	11.23	20031	0	0	5	5	0.02	0.489535	1	10	0.05	2000	-0.2805176	40.92395	-91.39364
3309913	-1	0	3	0.4871399	0.2888163	-55.30771	0	11.23	20031	0	0	5	5	0.02	0.4901058	1	10	0.05	2000	-0.7304077	40.92395	-91.39364
3309976	-6	7	6	0.4835348	0.286162	-55.31296	0	11.29	20031	0	0	5	5	0.02	0.4906852	1	10	0.05	2000	-0.5192566	40.92395	-91.39364
3310091	2	0	-3	0.4721786	0.2920132	-55.31644	0	11.29	20031	0	0	5	5	0.02	0.4901608	1	10	0.05	2000	-0.499115	40.92395	-91.39364
3310207	-7	0	-2	0.4750168	0.2907993	-55.3215	0	11.29	20031	0	0	5	5	0.02	0.4872975	1	10	0.05	2000	-0.4956055	40.92395	-91.39364
3310285	-6	-2	2	0.4746221	0.282593	-55.32364	0	11.29	20031	0	0	5	5	0.02	0.4844254	1	10	0.05	2000	-0.05245972	40.92395	-91.39364
3310417	-2	0	0	0.4732718	0.2877731	-55.3298	0	11.29	20031	0	0	5	5	0.02	0.4761007	1	10	0.05	2000	-0.493866	40.92395	-91.39364
3310499	-10	-2	8	0.4778236	0.2842045	-55.33383	0	11.29	20031	0	0	5	5	0.02	0.4736374	1	10	0.05	2000	-0.4952393	40.92395	-91.39364
3310639	-5	-2	3	0.4725867	0.289456	-55.34152	0	11.29	20031	0	0	5	5	0.02	0.4789132	1	10	0.05	2000	-0.4924927	40.92395	-91.39364
3310750	-2	0	0	0.4787473	0.2873016	-55.34708	0	11.29	20031	0	0	5	5	0.02	0.4818014	1	10	0.05	2000	-0.7218323	40.92395	-91.39364
3310808	-4	4	5	0.4727646	0.2886238	-55.34946	0	11.29	20031	0	0	5	5	0.02	0.4833484	1	10	0.05	2000	-0.5011597	40.92395	-91.39364
3310870	-7	-2	6	0.4767863	0.2863494	-55.35184	0	11.29	20031	0	0	5	5	0.02	0.4871739	1	10	0.05	2000	-0.4971008	40.92395	-91.39364
3310977	-2	-2	0	0.4790304	0.2855063	-55.35672	0	11.29	20031	0	0	5	5	0.02	0.4937376	1	10	0.05	2000	-0.282959	40.92395	-91.39364
3311123	-2	2	9	0.473424	0.2775837	-55.35922	0	11.29	20031	0	0	5	5	0.02	0.496086	1	10	0.05	2000	-0.2681885	40.92395	-91.39364
3311237	0	1	9	0.4673735	0.2756098	-55.36588	0	11.29	20031	0	0	5	5	0.02	0.4921528	1	10	0.05	2000	-0.4875793	40.92394	-91.39364
3311377	-4	-5	1	0.4670915	0.2845567	-55.36948	0	11.29	20031	0	0	5	5	0.02	0.4926046	1	10	0.05	2000	-0.4890747	40.92394	-91.39364
3311430	-2	0	1	0.4628584	0.2800288	-55.37308	0	11.29	20031	0	0	5	5	0.02	0.4922521	1	10	0.05	2000	-0.703186	40.92394	-91.39364
3311514	0	-2	0	0.4694562	0.280233	-55.37851	0	11.29	20031	0	0	5	5	0.02	0.4994358	1	10	0.05	2000	-0.2598877	40.92394	-91.39364
3311573	-8	-4	4	0.4656437	0.2817293	-55.38083	0	11.29	20031	0	0	5	5	0.02	0.5080312	1	10	0.05	2000	-0.4883423	40.92394	-91.39364
3311781	-7	4	-1	0.4701197	0.2810896	-55.38974	0	11.29	20031	0	0	5	5	0.02	0.523077	1	10	0.05	2000	-0.48349	40.92394	-91.39364
3311829	-4	2	6	0.47075	0.2820331	-55.39041	0	11.29	20031	0	0	5	5	0.02	0.5253252	1	10	0.05	2000	-0.48349	40.92394	-91.39364
3311884	-8	0	3	0.4743055	0.283581	-55.39304	0	11.29	20031	0	0	5	5	0.02	0.5278239	1	10	0.05	2000	-0.4942932	40.92394	-91.39364
3311988	-3	3	0	0.4788297	0.2874634	-55.3959	0	11.29	20031	0	0	5	5	0.02	0.5385045	1	10	0.05	2000	-0.5027161	40.92394	-91.39364
3312125	-6	0	4	0.4787345	0.2911335	-55.40152	0	11.29	20031	0	0	5	5	0.02	0.5483295	1	10	0.05	2000	-0.2781982	40.92394	-91.39364
3312184	-7	0	2	0.4792182	0.2914706	-55.40421	0	11.29	20031	0	0	5	5	0.02	0.5520858	1	10	0.05	2000	-0.5056763	40.92394	-91.39364
3312313	-6	1	4	0.4766704	0.2895689	-55.40738	0	11.29	20031	0	0	5	5	0.02	0.5550935	1	10	0.05	2000	-0.2802734	40.92394	-91.39364
3312390	1	-4	0	0.4757048	0.2894242	-55.4086	0	11.29	20031	0	0	5	5	0.02	0.5532159	1	10	0.05	2000	-0.5003662	40.92394	-91.39364
3312495	-3	1	1	0.4796125	0.2870498	-55.41324	0	11.29	20031	0	0	5	5	0.02	0.5461847	1	10	0.05	2000	-0.5016785	40.92394	-91.39364
3312601	0	0	-2	0.4740607	0.2887693	-55.41672	0	11.29	20031	0	0	5	5	0.02	0.539221	1	10	0.05	2000	-0.5023499	40.92394	-91.39364
3312697	-3	2	2	0.4726429	0.2919192	-55.41995	0	11.29	20031	0	0	5	5	0.02	0.5258113	1	10	0.05	2000	-0.7171021	40.92394	-91.39364
3312876	-4	-4	-1	0.4813386	0.2940422	-55.42709	0	11.29	20031	0	0	5	5	0.02	0.5356377	1	10	0.05	2000	-0.2835693	40.92394	-91.39364
3312935	-2	7	-1	0.4802058	0.2856512	-55.42874	0	11.29	20031	0	0	5	5	0.02	0.5403692	1	10	0.05	2000	-0.2835693	40.92394	-91.39364
3312986	-6	-1	3	0.4793218	0.2875713	-55.43173	0	11.29	20031	0	0	5	5	0.02	0.5413089	1	10	0.05	2000	-0.5056458	40.92394	-91.39364
3313140	-5	-2	0	0.4803951	0.2850748	-55.43729	0	11.29	20031	0	0	5	5	0.02	0.5554125	1	10	0.05	2000	-0.501709	40.92394	-91.39364
3313174	-5	-2	0	0.4803951	0.2850748	-55.43729	0	11.29	20031	0	0	5	5	0.02	0.5589501	1	10	0.05	2000	-0.501709	40.92394	-91.39364
3313290	-11	2	3	0.4795743	0.2831279	-55.44473	0	11.29	20031	0	0	5	5	0.02	0.5619921	1	10	0.05	2000	-0.2846069	40.92394	-91.39364
3313444	-10	2	1	0.4820479	0.2803494	-55.45187	0	11.29	20031	0	0	5	5	0.02	0.5739607	1	10	0.05	2000	-0.06158447	40.92394	-91.39364
3313494	-2	-6	4	0.4814884	0.2790717	-55.45334	0	11.29	20031	0	0	5	5	0.02	0.5766057	1	10	0.05	2000	-0.5056763	40.92394	-91.39364
3313600	-2	2	3	0.4839369	0.2851072	-55.45956	0	11.34	20031	0	0	5	5	0.02	0.5758483	1	10	0.05	2000	-0.2850342	40.92394	-91.39364
3313698	0	-4	5	0.4789704	0.2835085	-55.46329	0	11.34	20031	0	0	5	5	0.02	0.5728734	1	10	0.05	2000	-0.2887878	40.92394	-91.39364
3313846	-5	-1	3	0.4765755	0.2887223	-55.47391	0	11.34	20031	0	0	5	5	0.02	0.5711676	1	10	0.05	2000	-0.4979553	40.92394	-91.39364
3313944	1	2	3	0.4799407	0.2825461	-55.47745	0	11.34	20031	0	0	5	5	0.02	0.5681699	1	10	0.05	2000	-0.506073	40.92394	-91.39364
3313980	-9	2	3	0.482821	0.2805201	-55.47964	0	11.34	20031	0	0	5	5	0.02	0.565899	1	10	0.05	2000	-0.2867737	40.92394	-91.39364
3314151	-5	0	2	0.4833506	0.2733117	-55.48965	0	11.34	20031	0	0	5	5	0.02	0.5408539	1	10	0.05	2000	-0.2780762	40.92394	-91.39364
3314262	-4	2	5	0.4819309	0.2767561	-55.49545	0	11.34	20031	0	0	5	5	0.02	0.5295473	1	10	0.05	2000	-0.5046692	40.92394	-91.39364
3314321	-6	1	5	0.4804329	0.2779444	-55.4968	0	11.34	20031	0	0	5	5	0.02	0.5159098	1	10	0.05	2000	-0.5046692	40.92394	-91.39364
3314417	-3	1	5	0.4790095	0.2765356	-55.50198	0	11.34	20031	0	0	5	5	0.02	0.5028156	1	10	0.05	2000	-0.05645752	40.92394	-91.39364
3314473	-2	6	0	0.482697	0.276573	-55.50784	0	11.34	20031	0	0	5	5	0.02	0.5016013	1	10	0.05	2000	-0.7351379	40.92394	-91.39364
3314623	0	3	4	0.484986	0.2772643	-55.51505	0	11.29	20031	0	0	5	5	0.02	0.4910016	1	10	0.05	2000	-0.7368469	40.92394	-91.39364
3314752	-5	-1	1	0.4875165	0.2756472	-55.51926	0	11.29	20031	0	0	5	5	0.02	0.4825347	1	10	0.05	2000	-0.2949829	40.92394	-91.39364
3314812	-11	1	4	0.4944681	0.2760466	-55.52585	0	11.29	20031	0	0	5	5	0.02	0.4795223	1	10	0.05	2000	-0.745636	40.92394	-91.39364
3314953	-8	1	2	0.4851543	0.273316	-55.53043	0	11.29	20031	0	0	5	5	0.02	0.4800357	1	10	0.05	2000	-0.29599	40.92394	-91.39364
3315003	-11	0	7	0.4811153	0.2717281	-55.53476	0	11.29	20031	0	0	5	5	0.02	0.4820752	1	10	0.05	2000	-0.5169067	40.92394	-91.39364
3315102	-9	2	0	0.4829883	0.2730052	-55.53922	0	11.29	20031	0	0	5	5	0.02	0.4840058	1	10	0.05	2000	-0.5106201	40.92394	-91.39364
3315184	-8	0	4	0.4850312	0.2789085	-55.54251	0	11.29	20031	0	0	5	5	0.02	0.4823032	1	10	0.05	2000	-0.5141296	40.92394	-91.39364
3315330	-7	6	8	0.4796869	0.2820098	-55.54642	0	11.29	20031	0	0	5	5	0.02	0.4843372	1	10	0.05	2000	-0.2861633	40.92394	-91.39364
3315383	-5	2	6	0.4781401	0.2795596	-55.55185	0	11.29	20031	0	0	5	5	0.02	0.4892561	1	10	0.05	2000	-0.2784729	40.92394	-91.39364
3315499	-6	0	2	0.4737649	0.2785728	-55.55637	0	11.29	20031	0	0	5	5	0.02	0.4907563	1	10	0.05	2000	-0.2804565	40.92394	-91.39364
3315582	-5	0	-3	0.4647964	0.2797217	-55.56064	0	11.29	20031	0	0	5	5	0.02	0.4916136	1	10	0.05	2000	-0.7071228	40.92394	-91.39364
3315681	-1	-1	4	0.4647432	0.2782547	-55.56345	0	11.29	20031	0	0	5	5	0.02	0.4902507	1	10	0.05	2000	-0.4825439	40.92394	-91.39364
3315803	-5	-5	1	0.4675218	0.2883118	-55.56967	0	11.29	20031	0	0	5	5	0.02	0.4885643	1	10	0.05	2000	-0.4818115	40.92394	-91.39364
3315887	-10	-5	4	0.4736416	0.29011	-55.57309	0	11.29	20031	0	0	5	5	0.02	0.4818404	1	10	0.05	2000	-0.7103882	40.92394	-91.39364
3316057	-4	1	0	0.487216	0.2876686	-55.57614	0	11.29	20031	0	0	5	5	0.02	0.4811696	1	10	0.05	2000	-0.5088501	40.92394	-91.39364
3316120	-1	3	-3	0.4886413	0.2840294	-55.5787	0	11.29	20031	0	0	5	5	0.02	0.4824645	1	10	0.05	2000	-0.2973633	40.92394	-91.39364
3316186	0	0	-2	0.4890308	0.2843561	-55.57846	0	11.29	20031	0	0	5	5	0.02	0.4856573	1	10	0.05	2000	-0.2960815	40.92394	-91.39364
3316348	-10	1	5	0.4925601	0.2852001	-55.58328	0	11.29	20031	0	0	5	5	0.02	0.4899128	1	10	0.05	2000	-0.5272217	40.92394	-91.39364
3316478	-6	1	0	0.4909206	0.2879909	-55.58871	0	11.23	20031	0	0	5	5	0.02	0.4908609	1	10	0.05	2000	-0.7482605	40.92394	-91.39364
3316529	-3	2	7	0.4906763	0.2863707	-55.59079	0	11.23	20031	0	0	5	5	0.02	0.4914544	1	10	0.05	2000	-0.3026123	40.92394	-91.39364
3316612	-7	0	8	0.4958731	0.2860242	-55.59366	0	11.23	20031	0	0	5	5	0.02	0.4947527	1	10	0.05	2000	-0.5261841	40.92394	-91.39364
3316707	0	-4	-1	0.4962113	0.2839839	-55.60184	0	11.23	20031	0	0	5	5	0.02	0.4969224	1	10	0.05	2000	-0.5223999	40.92394	-91.39364
3316831	-5	2	0	0.499569	0.2869406	-55.60507	0	11.23	20031	0	0	5	5	0.02	0.5005007	1	10	0.05	2000	-0.52771	40.92394	-91.39364
3316885	-2	5	6	0.4963652	0.2854707	-55.60751	0	11.23	20031	0	0	5	5	0.02	0.4993279	1	10	0.05	2000	-0.5316162	40.92394	-91.39364
3316972	-1	-4	6	0.4949763	0.2871858	-55.61423	0	11.23	20031	0	0	5	5	0.02	0.4942925	1	10	0.05	2000	-0.3043518	40.92394	-91.39364
3317068	2	0	3	0.497324	0.2907403	-55.61862	0	11.23	20031	0	0	5	5	0.02	0.4824851	1	10	0.05	2000	-0.5296936	40.92394	-91.39364
3317275	0	-3	8	0.4997845	0.2879786	-55.62448	0	11.23	20031	0	0	5	5	0.02	0.4657412	1	10	0.05	2000	-0.5263367	40.92394	-91.39364
3317329	-2	7	5	0.4987465	0.2873213	-55.62589	0	11.23	20031	0	0	5	5	0.02	0.4621215	1	10	0.05	2000	-0.5263367	40.92394	-91.39364
3317398	0	2	0	0.5039572	0.2912292	-55.62961	0	11.23	20031	0	0	5	5	0.02	0.4634379	1	10	0.05	2000	-0.5375977	40.92394	-91.39364
3317487	-3	-5	7	0.5064935	0.2862136	-55.63181	0	11.23	20031	0	0	5	5	0.02	0.4673314	1	10	0.05	2000	-0.5448914	40.92394	-91.39364
3317561	-3	2	0	0.5072332	0.2846365	-55.63351	0	11.23	20031	0	0	5	5	0.02	0.4731746	1	10	0.05	2000	-0.3213196	40.92394	-91.39364
3317699	-4	-4	7	0.5095984	0.2910234	-55.63712	0	11.23	20031	0	0	5	5	0.02	0.4753846	1	10	0.05	2000	-0.1047058	40.92394	-91.39364
3317804	-3	1	3	0.513374	0.2862982	-55.63907	0	11.23	20031	0	0	5	5	0.02	0.4757821	1	10	0.05	2000	-0.5505371	40.92394	-91.39364
3317891	-6	-3	3	0.5094829	0.2845671	-55.64182	0	11.23	20031	0	0	5	5	0.02	0.4777542	1	10	0.05	2000	-0.5515137	40.92394	-91.39364
3317976	-3	1	4	0.5103579	0.2754068	-55.6459	0	11.23	20031	0	0	5	5	0.02	0.479151	1	10	0.05	2000	-0.3353271	40.92394	-91.39364
3318123	1	-3	-5	0.5142229	0.2812213	-55.64883	0	11.23	20031	0	0	5	5	0.02	0.482225	1	10	0.05	2000	-0.5595093	40.92394	-91.39364
3318261	-2	-2	2	0.5110735	0.2807568	-55.65256	0	11.29	20031	0	0	5	5	0.02	0.4926504	1	10	0.05	2000	-0.3274231	40.92394	-91.39364
3318366	-1	-6	0	0.5160539	0.2846134	-55.65561	0	11.29	20031	0	0	5	5	0.02	0.4938529	1	10	0.05	2000	-0.5524597	40.92394	-91.39364
3318512	0	-3	-1	0.5095626	0.2931376	-55.65756	0	11.29	20031	0	0	5	5	0.02	0.4998537	1	10	0.05	2000	-0.5521851	40.92394	-91.39364
3318553	0	0	-2	0.5102016	0.2944736	-55.65842	0	11.29	20031	0	0	5	5	0.02	0.5009265	1	10	0.05	2000	-0.5521851	40.92394	-91.39364
3318689	-8	-1	2	0.5141186	0.2943201	-55.66	0	11.29	20031	0	0	5	5	0.02	0.5036229	1	10	0.05	2000	-0.5579529	40.92394	-91.39364
3318818	2	0	-1	0.5123379	0.289745	-55.66049	0	11.29	20031	0	0	5	5	0.02	0.5057175	1	10	0.05	2000	-0.3356323	40.92394	-91.39364
3318870	-7	0	5	0.5104472	0.2911103	-55.66129	0	11.29	20031	0	0	5	5	0.02	0.5025729	1	10	0.05	2000	-0.330719	40.92394	-91.39364
3318979	3	2	0	0.5076209	0.2940291	-55.66525	0	11.29	20031	0	0	5	5	0.02	0.4960823	1	10	0.05	2000	-0.5486755	40.92394	-91.39364
3319099	0	1	3	0.5037138	0.2940737	-55.67044	0	11.23	20031	0	0	5	5	0.02	0.4905975	1	10	0.05	2000	-0.5473022	40.92394	-91.39364
3319173	-1	-1	2	0.5031901	0.2888455	-55.67307	0	11.23	20031	0	0	5	5	0.02	0.4894184	1	10	0.05	2000	-0.540741	40.92394	-91.39364
3319280	-3	-5	2	0.5142401	0.2959091	-55.67661	0	11.23	20031	0	0	5	5	0.02	0.4909598	1	10	0.05	2000	-0.329834	40.92394	-91.39364
3319421	6	2	0	0.509252	0.290642	-55.68027	0	11.23	20031	0	0	5	5	0.02	0.5009257	1	10	0.05	2000	-0.7727661	40.92394	-91.39364
3319551	2	-5	4	0.5156586	0.2938496	-55.68399	0	11.23	20031	0	0	5	5	0.02	0.5193966	1	10	0.05	2000	-0.7866516	40.92394	-91.39364
3319607	-1	0	0	0.5231599	0.3002491	-55.68497	0	11.23	20031	0	0	5	5	0.02	0.5231295	1	10	0.05	2000	-0.3460388	40.92394	-91.39364
3319677	-6	1	5	0.5214455	0.3049174	-55.68777	0	11.23	20031	0	0	5	5	0.02	0.5286667	1	10	0.05	2000	-0.5692444	40.92394	-91.39364
3319802	1	-4	-1	0.522051	0.3040008	-55.69211	0	11.23	20031	0	0	5	5	0.02	0.5392982	1	10	0.05	2000	-0.3439941	40.92394	-91.39364
3319907	-1	-3	-3	0.5209952	0.3010868	-55.69516	0	11.23	20031	0	0	5	5	0.02	0.5427213	1	10	0.05	2000	-0.7908936	40.92394	-91.39364
3320054	-2	4	2	0.5207398	0.2971205	-55.69882	0	11.29	20031	0	0	5	5	0.02	0.5500582	1	10	0.05	2000	-0.7883606	40.92394	-91.39365
3320099	0	-1	1	0.5192536	0.2972459	-55.69962	0	11.29	20031	0	0	5	5	0.02	0.5515373	1	10	0.05	2000	-0.7883606	40.92394	-91.39365
3320261	-7	5	0	0.5192087	0.2919667	-55.7037	0	11.29	20031	0	0	5	5	0.02	0.556657	1	10	0.05	2000	-0.5625	40.92394	-91.39365
3320308	-5	-5	2	0.5189229	0.2929357	-55.70401	0	11.29	20031	0	0	5	5	0.02	0.5585445	1	10	0.05	2000	-0.5625	40.92394	-91.39365
3320412	-1	-1	2	0.519747	0.2916534	-55.70761	0	11.29	20031	0	0	5	5	0.02	0.561437	1	10	0.05	2000	-0.3451538	40.92394	-91.39365
3320506	2	0	3	0.5193216	0.2907702	-55.70731	0	11.29	20031	0	0	5	5	0.02	0.5646151	1	10	0.05	2000	-0.5646973	40.92394	-91.39365
3320591	-1	-2	-2	0.5197404	0.2889691	-55.70956	0	11.29	20031	0	0	5	5	0.02	0.5633004	1	10	0.05	2000	-0.5662537	40.92394	-91.39365
3320816	0	3	1	0.5283313	0.2872012	-55.7142	0	11.29	20031	0	0	5	5	0.02	0.5493417	1	10	0.05	2000	-0.3571777	40.92394	-91.39365
3320975	1	1	-1	0.5275223	0.2890095	-55.71725	0	11.29	20031	0	0	5	5	0.02	0.5303471	1	10	0.05	2000	-0.5783386	40.92394	-91.39365
3321112	2	3	2	0.5368564	0.2938583	-55.72067	0	11.29	20031	0	0	5	5	0.02	0.5174965	1	10	0.05	2000	-0.5884399	40.92394	-91.39365
3321273	-5	-2	5	0.5379731	0.2979629	-55.72629	0	11.29	20031	0	0	5	5	0.02	0.5095416	1	10	0.05	2000	-0.3736267	40.92394	-91.39365
3321364	0	0	-3	0.5347321	0.3026348	-55.72769	0	11.29	20031	0	0	5	5	0.02	0.5102425	1	10	0.05	2000	-0.3682251	40.92394	-91.39365
3321464	2	-1	2	0.5351831	0.2973215	-55.73013	0	11.29	20031	0	0	5	5	0.02	0.5114299	1	10	0.05	2000	-0.812439	40.92394	-91.39365
3321551	2	0	-2	0.5339032	0.2990819	-55.72971	0	11.29	20031	0	0	5	5	0.02	0.5160893	1	10	0.05	2000	-0.3652649	40.92394	-91.39365
3321594	-3	-3	2	0.5363109	0.3024857	-55.72995	0	11.29	20031	0	0	5	5	0.02	0.5201344	1	10	0.05	2000	-0.5890808	40.92394	-91.39365
3321697	-8	3	3	0.5413753	0.3008974	-55.73044	0	11.29	20031	0	0	5	5	0.02	0.5296123	1	10	0.05	2000	-0.3701782	40.92394	-91.39365
3321796	-1	-2	0	0.5498408	0.3014621	-55.73135	0	11.29	20031	0	0	5	5	0.02	0.5312903	1	10	0.05	2000	-0.6088562	40.92394	-91.39365
3321929	-6	1	5	0.5496613	0.3056322	-55.7338	0	11.23	20031	0	0	5	5	0.02	0.5299632	1	10	0.05	2000	-0.6161804	40.92394	-91.39365
3322054	0	-1	5	0.5494983	0.3029884	-55.73605	0	11.23	20031	0	0	5	5	0.02	0.539259	1	10	0.05	2000	-0.3844299	40.92394	-91.39365
3322177	4	0	0	0.5554066	0.296582	-55.73904	0	11.23	20031	0	0	5	5	0.02	0.5402194	1	10	0.05	2000	-0.8405457	40.92394	-91.39365
3322238	-3	1	1	0.5557008	0.2962193	-55.74051	0	11.23	20031	0	0	5	5	0.02	0.5436059	1	10	0.05	2000	-0.6228027	40.92394	-91.39365
3322333	7	-7	2	0.5598011	0.2957335	-55.74142	0	11.23	20031	0	0	5	5	0.02	0.5457258	1	10	0.05	2000	-0.6228027	40.92394	-91.39365
3322472	2	-4	-2	0.5628099	0.3027591	-55.74551	0	11.23	20031	0	0	5	5	0.02	0.5478105	1	10	0.05	2000	-0.4093628	40.92394	-91.39365
3322601	6	-1	-3	0.5628381	0.2963672	-55.74698	0	11.23	20031	0	0	5	5	0.02	0.5445907	1	10	0.05	2000	-0.4063416	40.92394	-91.39365
3322676	3	-1	0	0.5577112	0.2947009	-55.74826	0	11.23	20031	0	0	5	5	0.02	0.5365501	1	10	0.05	2000	-0.3970947	40.92394	-91.39365
3322767	2	1	5	0.5546094	0.2868198	-55.7518	0	11.29	20031	0	0	5	5	0.02	0.5307654	1	10	0.05	2000	-0.4002075	40.92394	-91.39365
3322909	0	3	-4	0.5551604	0.2822447	-55.75467	0	11.29	20031	0	0	5	5	0.02	0.513944	1	10	0.05	2000	-0.6181946	40.92394	-91.39365
3323018	-1	-2	5	0.5516012	0.2802229	-55.75638	0	11.29	20031	0	0	5	5	0.02	0.5123142	1	10	0.05	2000	-0.6137085	40.92394	-91.39365
3323129	-1	0	2	0.5558009	0.2732495	-55.75613	0	11.29	20031	0	0	5	5	0.02	0.5132701	1	10	0.05	2000	-0.8414001	40.92394	-91.39365
3323206	-3	0	2	0.554763	0.2725915	-55.75772	0	11.29	20031	0	0	5	5	0.02	0.5215116	1	10	0.05	2000	-0.6197815	40.92394	-91.39365
3323261	1	2	1	0.5562997	0.2733569	-55.75827	0	11.29	20031	0	0	5	5	0.02	0.5260391	1	10	0.05	2000	-0.3985596	40.92394	-91.39365
3323386	2	-1	6	0.5591896	0.2794319	-55.75919	0	11.29	20031	0	0	5	5	0.02	0.5350419	1	10	0.05	2000	-0.6218262	40.92394	-91.39365
3323464	2	-4	4	0.5552619	0.2761545	-55.76236	0	11.29	20031	0	0	5	5	0.02	0.5385073	1	10	0.05	2000	-0.6205444	40.92394	-91.39365
3323559	-1	-4	0	0.559268	0.2730734	-55.76328	0	11.29	20031	0	0	5	5	0.02	0.5379634	1	10	0.05	2000	-0.3954468	40.92394	-91.39365
3323661	3	5	2	0.5652457	0.2697351	-55.76456	0	11.29	20031	0	0	5	5	0.02	0.5344835	1	10	0.05	2000	-0.4036255	40.92394	-91.39365
3323826	1	2	6	0.5718073	0.2749723	-55.76981	0	11.29	20031	0	0	5	5	0.02	0.5243722	1	10	0.05	2000	-0.6416321	40.92394	-91.39365
3323926	1	2	5	0.5736027	0.2696822	-55.772	0	11.29	20031	0	0	5	5	0.02	0.5134327	1	10	0.05	2000	-0.6485291	40.92394	-91.39365
3323967	1	-1	0	0.5695424	0.2686083	-55.77249	0	11.29	20031	0	0	5	5	0.02	0.5094077	1	10	0.05	2000	-0.6485291	40.92394	-91.39365
3324172	2	1	-1	0.5744778	0.2712907	-55.77414	0	11.29	20031	0	0	5	5	0.02	0.4749468	1	10	0.05	2000	-0.63974	40.92394	-91.39365
3324207	6	0	3	0.5702507	0.2734038	-55.77432	0	11.29	20031	0	0	5	5	0.02	0.473864	1	10	0.05	2000	-0.63974	40.92394	-91.39365
3324325	5	-7	3	0.5710233	0.2739462	-55.77493	0	11.29	20031	0	0	5	5	0.02	0.472062	1	10	0.05	2000	-0.6415405	40.92394	-91.39365
3324423	0	-2	5	0.572109	0.2754329	-55.77725	0	11.29	20031	0	0	5	5	0.02	0.4703238	1	10	0.05	2000	-0.4199524	40.92394	-91.39365
3324597	-1	4	-2	0.5745923	0.2678572	-55.78189	0	11.29	20031	0	0	5	5	0.02	0.4668259	1	10	0.05	2000	-0.4247131	40.92394	-91.39364
3324806	15	3	-5	0.5813895	0.2661899	-55.78305	0	11.29	20031	0	0	5	5	0.02	0.4439856	1	10	0.05	2000	-0.4356689	40.92394	-91.39364
3324913	5	-4	-1	0.5838867	0.2658334	-55.78659	0	11.29	20031	0	0	5	5	0.02	0.4333668	1	10	0.05	2000	-0.4344482	40.92394	-91.39364
3324990	3	0	8	0.5840224	0.2690222	-55.78702	0	11.29	20031	0	0	5	5	0.02	0.4266629	1	10	0.05	2000	-0.4448547	40.92394	-91.39364
3325171	1	-3	1	0.5853232	0.2724096	-55.79031	0	11.29	20031	0	0	5	5	0.02	0.4181849	1	10	0.05	2000	-0.8875732	40.92394	-91.39364
3325275	5	4	6	0.5926524	0.2696754	-55.79227	0	11.29	20031	0	0	5	5	0.02	0.4178776	1	10	0.05	2000	-0.8965149	40.92394	-91.39364
3325294	5	4	6	0.5926524	0.2696754	-55.79227	0	11.29	20031	0	0	5	5	0.02	0.4172561	1	10	0.05	2000	-0.8965149	40.92394	-91.39364
3325396	8	-2	-1	0.5913348	0.2644054	-55.79294	0	11.29	20031	0	0	5	5	0.02	0.4115652	1	10	0.05	2000	-0.4502563	40.92394	-91.39364
3325518	0	-2	0	0.5882822	0.2645516	-55.79556	0	11.29	20031	0	0	5	5	0.02	0.4060301	1	10	0.05	2000	-0.6684875	40.92394	-91.39364
3325628	0	6	2	0.5836738	0.2683758	-55.79965	0	11.23	20031	0	0	5	5	0.02	0.4062949	1	10	0.05	2000	-0.4436951	40.92394	-91.39364
3325694	5	0	0	0.5853897	0.2687297	-55.80026	0	11.23	20031	0	0	5	5	0.02	0.4106011	1	10	0.05	2000	-0.4436951	40.92394	-91.39364
3325869	2	0	4	0.5900167	0.2702264	-55.80344	0	11.23	20031	0	0	5	5	0.02	0.4238397	1	10	0.05	2000	-0.6728516	40.92394	-91.39364
3325932	6	3	-6	0.589635	0.2703837	-55.80405	0	11.23	20031	0	0	5	5	0.02	0.4209525	1	10	0.05	2000	-0.4492493	40.92394	-91.39364
3326027	11	-2	0	0.5934649	0.2705188	-55.80612	0	11.23	20031	0	0	5	5	0.02	0.4141886	1	10	0.05	2000	-0.4549866	40.92394	-91.39364
3326111	6	2	0	0.5948908	0.2675965	-55.80679	0	11.23	20031	0	0	5	5	0.02	0.4066785	1	10	0.05	2000	-0.4549866	40.92394	-91.39364
3326247	-1	1	5	0.5964674	0.259373	-55.80917	0	11.23	20031	0	0	5	5	0.02	0.3971958	1	10	0.05	2000	-0.6778564	40.92394	-91.39364
3326407	4	1	0	0.5903715	0.2590979	-55.80966	0	11.23	20031	0	0	5	5	0.02	0.3854764	1	10	0.05	2000	-0.4521179	40.92394	-91.39364
3326521	5	2	4	0.5879354	0.2564833	-55.81204	0	11.23	20031	0	0	5	5	0.02	0.3781378	1	10	0.05	2000	-0.4505615	40.92394	-91.39364
3326608	0	3	2	0.5841895	0.259274	-55.81332	0	11.23	20031	0	0	5	5	0.02	0.3679964	1	10	0.05	2000	-0.4443054	40.92394	-91.39364
3326707	0	-1	1	0.5808783	0.2586341	-55.8143	0	11.23	20031	0	0	5	5	0.02	0.3653409	1	10	0.05	2000	-0.6597595	40.92394	-91.39364
3326834	3	4	2	0.5859751	0.2545145	-55.81546	0	11.23	20031	0	0	5	5	0.02	0.3704402	1	10	0.05	2000	-0.2205811	40.92394	-91.39364
3326912	3	-5	0	0.5839992	0.2560328	-55.81546	0	11.23	20031	0	0	5	5	0.02	0.372227	1	10	0.05	2000	-0.4419556	40.92394	-91.39364
3327046	5	-2	1	0.5903118	0.2562882	-55.82022	0	11.23	20031	0	0	5	5	0.02	0.3754292	1	10	0.05	2000	-0.6708679	40.92394	-91.39364
3327191	7	6	0	0.598353	0.2546277	-55.82394	0	11.23	20031	0	0	5	5	0.02	0.3881516	1	10	0.05	2000	-0.675415	40.92395	-91.39364
3327371	4	6	2	0.5950359	0.2554937	-55.82602	0	11.23	20031	0	0	5	5	0.02	0.4154832	1	10	0.05	2000	-0.4550476	40.92395	-91.39364
3327489	-2	2	6	0.5923005	0.256477	-55.82919	0	11.29	20031	0	0	5	5	0.02	0.4240905	1	10	0.05	2000	-0.9044189	40.92395	-91.39364
3327629	3	-4	1	0.5903381	0.2656244	-55.83255	0	11.29	20031	0	0	5	5	0.02	0.4286054	1	10	0.05	2000	-0.8945923	40.92395	-91.39364
3327675	2	1	6	0.5857028	0.267882	-55.83517	0	11.29	20031	0	0	5	5	0.02	0.4290302	1	10	0.05	2000	-0.4456177	40.92395	-91.39364
3327734	6	4	-1	0.5863044	0.2676063	-55.83713	0	11.29	20031	0	0	5	5	0.02	0.4284522	1	10	0.05	2000	-0.6693115	40.92395	-91.39364
3327828	4	4	-1	0.5818785	0.2627391	-55.8392	0	11.29	20031	0	0	5	5	0.02	0.4269747	1	10	0.05	2000	-0.4407043	40.92395	-91.39364
3327930	5	0	2	0.5821022	0.2642452	-55.84232	0	11.29	20031	0	0	5	5	0.02	0.4265466	1	10	0.05	2000	-0.6566467	40.92395	-91.39364
3328040	3	3	2	0.5833923	0.2627137	-55.84293	0	11.29	20031	0	0	5	5	0.02	0.4181799	1	10	0.05	2000	-0.6566467	40.92395	-91.39364
3328196	1	1	0	0.5885202	0.2631522	-55.84708	0	11.29	20031	0	0	5	5	0.02	0.4164051	1	10	0.05	2000	-0.6663208	40.92395	-91.39364
3328262	7	2	-1	0.58922	0.2583727	-55.84738	0	11.29	20031	0	0	5	5	0.02	0.4152135	1	10	0.05	2000	-0.6704712	40.92395	-91.39364
3328349	0	-1	2	0.5868292	0.2565554	-55.84836	0	11.23	20031	0	0	5	5	0.02	0.4156062	1	10	0.05	2000	-0.8925476	40.92395	-91.39364
3328469	1	-4	2	0.5839761	0.2596062	-55.84982	0	11.23	20031	0	0	5	5	0.02	0.4194312	1	10	0.05	2000	-0.6634827	40.92395	-91.39364
3328633	6	0	0	0.5903984	0.2554215	-55.85056	0	11.23	20031	0	0	5	5	0.02	0.4320934	1	10	0.05	2000	-0.4449768	40.92395	-91.39364
3328681	2	2	7	0.5878031	0.2555376	-55.85385	0	11.23	20031	0	0	5	5	0.02	0.4360421	1	10	0.05	2000	-0.6733704	40.92395	-91.39364
3328730	7	5	0	0.5922031	0.2536847	-55.85477	0	11.23	20031	0	0	5	5	0.02	0.4372926	1	10	0.05	2000	-0.6733704	40.92395	-91.39364
3328906	1	1	0	0.6008388	0.2573752	-55.85837	0	11.23	20031	0	0	5	5	0.02	0.441382	1	10	0.05	2000	-0.688324	40.92395	-91.39364
3329018	3	4	2	0.5961567	0.2578097	-55.86197	0	11.23	20031	0	0	5	5	0.02	0.4432512	1	10	0.05	2000	-0.901062	40.92395	-91.39364
3329094	6	2	1	0.5935934	0.2631614	-55.86313	0	11.23	20031	0	0	5	5	0.02	0.4436282	1	10	0.05	2000	-0.6816711	40.92395	-91.39364
3329167	7	4	0	0.5978992	0.2681997	-55.86423	0	11.23	20031	0	0	5	5	0.02	0.4523029	1	10	0.05	2000	-0.6809692	40.92395	-91.39364
3329237	6	1	0	0.5957314	0.2737154	-55.866	0	11.29	20031	0	0	5	5	0.02	0.4591353	1	10	0.05	2000	-0.4576416	40.92395	-91.39364
3329335	9	-2	1	0.6033233	0.2740338	-55.86813	0	11.29	20031	0	0	5	5	0.02	0.4733016	1	10	0.05	2000	-0.4568787	40.92395	-91.39364
3329435	1	1	2	0.6074523	0.2765585	-55.86978	0	11.29	20031	0	0	5	5	0.02	0.4816807	1	10	0.05	2000	-0.6917725	40.92395	-91.39364
3329606	1	0	0	0.6033528	0.2779164	-55.87131	0	11.29	20031	0	0	5	5	0.02	0.4885065	1	10	0.05	2000	-0.4660339	40.92395	-91.39364
3329676	1	0	2	0.6042732	0.2703823	-55.87216	0	11.29	20031	0	0	5	5	0.02	0.4881295	1	10	0.05	2000	-0.4678955	40.92395	-91.39364
3329729	4	0	0	0.5993525	0.2707637	-55.87302	0	11.29	20031	0	0	5	5	0.02	0.4809887	1	10	0.05	2000	-0.4678955	40.92395	-91.39364
3329832	2	1	1	0.6111439	0.2610575	-55.8735	0	11.29	20031	0	0	5	5	0.02	0.4765204	1	10	0.05	2000	-0.4804993	40.92395	-91.39364
3329989	10	4	8	0.610354	0.2610014	-55.87576	0	11.29	20031	0	0	5	5	0.02	0.4620855	1	10	0.05	2000	-0.480957	40.92395	-91.39364
3330083	10	2	-1	0.6084951	0.2574125	-55.87643	0	11.29	20031	0	0	5	5	0.02	0.4550776	1	10	0.05	2000	-0.7039795	40.92395	-91.39364
3330172	8	3	-1	0.6143588	0.2649831	-55.87717	0	11.29	20031	0	0	5	5	0.02	0.4503531	1	10	0.05	2000	-0.4804382	40.92395	-91.39364
3330223	8	-1	2	0.6115409	0.2631883	-55.8782	0	11.29	20031	0	0	5	5	0.02	0.4455078	1	10	0.05	2000	-0.4804382	40.92395	-91.39364
3330409	11	0	-1	0.6131977	0.2585457	-55.88394	0	11.29	20031	0	0	5	5	0.02	0.4426263	1	10	0.05	2000	-0.7107544	40.92395	-91.39364
3330446	6	1	2	0.6130784	0.259399	-55.88492	0	11.29	20031	0	0	5	5	0.02	0.4384102	1	10	0.05	2000	-0.4864502	40.92395	-91.39364
3330581	12	-2	-2	0.6163987	0.2618567	-55.88675	0	11.29	20031	0	0	5	5	0.02	0.4328806	1	10	0.05	2000	-0.7085876	40.92395	-91.39364
3330656	10	-3	0	0.6191968	0.258171	-55.88681	0	11.29	20031	0	0	5	5	0.02	0.4299895	1	10	0.05	2000	-0.7142944	40.92395	-91.39364
3330817	8	-5	-1	0.6196084	0.2609575	-55.88644	0	11.29	20031	0	0	5	5	0.02	0.4145249	1	10	0.05	2000	-0.710022	40.92395	-91.39364
3330927	4	-1	-7	0.6288239	0.2641186	-55.88644	0	11.29	20031	0	0	5	5	0.02	0.4053321	1	10	0.05	2000	-0.7252197	40.92395	-91.39364
3330999	4	1	0	0.6293471	0.262984	-55.88608	0	11.29	20031	0	0	5	5	0.02	0.4051355	1	10	0.05	2000	-0.9548035	40.92395	-91.39364
3331090	7	-2	-1	0.6307073	0.265005	-55.88669	0	11.29	20031	0	0	5	5	0.02	0.4057592	1	10	0.05	2000	-0.7368469	40.92395	-91.39364
3331258	9	-2	0	0.628144	0.2685432	-55.88828	0	11.29	20031	0	0	5	5	0.02	0.405998	1	10	0.05	2000	-0.5061951	40.92395	-91.39364
3331395	3	2	2	0.6274262	0.2712663	-55.89017	0	11.29	20031	0	0	5	5	0.02	0.4054282	1	10	0.05	2000	-0.7325134	40.92395	-91.39364
3331501	2	1	-4	0.6332633	0.272241	-55.89066	0	11.29	20031	0	0	5	5	0.02	0.4029351	1	10	0.05	2000	-0.7321777	40.92395	-91.39364
3331538	5	-3	5	0.6365716	0.2678692	-55.89041	0	11.29	20031	0	0	5	5	0.02	0.4016248	1	10	0.05	2000	-0.515625	40.92395	-91.39364
3331673	14	0	0	0.641454	0.2714125	-55.89285	0	11.29	20031	0	0	5	5	0.02	0.3840166	1	10	0.05	2000	-0.5272827	40.92395	-91.39364
3331878	6	-1	4	0.6452499	0.2691741	-55.89481	0	11.29	20031	0	0	5	5	0.02	0.3664831	1	10	0.05	2000	-0.5293884	40.92395	-91.39364
3331992	16	2	1	0.6490229	0.265233	-55.89597	0	11.29	20031	0	0	5	5	0.02	0.3596755	1	10	0.05	2000	-0.7604065	40.92395	-91.39364
