time(ms)	gyro_x(deg/s)	gyro_y(deg/s)	gyro_z(deg/s)	orientation_roll(deg)	orientation_pitch(deg)	orientation_yaw(deg)	throttle	battery(V)	loop_time(uS)	pid_output_roll	pid_output_pitch	pid_output_yaw	pid_output_throttle	ultrasonic_alt	baro_alt	flight_mode	p_gain_altitude	i_gain_altitude	d_gain_altitude	compass_heading	latitude	longitude
2903232	13	1	-4	0.2886985	-0.03809969	0.2899254	0	12.53	0	0	0	5	5	0.02	0.05367323	1	10	0.03	2000	0.8755962	40.92395	-91.39363
2903334	19	-4	-2	0.2926869	-0.02854899	0.2942661	0	12.53	0	0	0	5	5	0.02	0.05842668	1	10	0.03	2000	0.6617066	40.92395	-91.39363
2903452	24	-2	-2	0.2872241	-0.03066044	0.2953668	0	12.53	0	0	0	5	5	0.02	0.06434739	1	10	0.03	2000	0.6591523	40.92395	-91.39363
2903545	24	-1	2	0.2894016	-0.03364598	0.295856	0	12.53	0	0	0	5	5	0.02	0.06989764	1	10	0.03	2000	0.6630778	40.92395	-91.39363
2903635	20	0	-3	0.2857036	-0.03483778	0.2981178	0	12.53	0	0	0	5	5	0.02	0.07370527	1	10	0.03	2000	1.10383	40.92395	-91.39363
2903775	22	-5	-1	0.2807327	-0.03529233	0.2988514	0	12.53	0	0	0	5	5	0.02	0.080507	1	10	0.03	2000	0.8835939	40.92395	-91.39363
2903859	18	-8	-4	0.2885636	-0.03480348	0.300013	0	12.48	0	0	0	5	5	0.02	0.08219122	1	10	0.03	2000	0.8785713	40.92395	-91.39363
2903945	13	-7	0	0.2834942	-0.03417229	0.3014192	0	12.48	0	0	0	5	5	0.02	0.08067109	1	10	0.03	2000	0.6612424	40.92395	-91.39363
2904106	20	-6	0	0.2847105	-0.0278019	0.3047819	0	12.48	0	0	0	5	5	0.02	0.07202999	1	10	0.03	2000	0.4469174	40.92395	-91.39363
2904182	19	-3	0	0.2892469	-0.03263375	0.3055155	0	12.48	0	0	0	5	5	0.02	0.06137525	1	10	0.03	2000	0.8775467	40.92395	-91.39363
2904254	18	5	7	0.2884036	-0.03471886	0.3060043	0	12.48	0	0	0	5	5	0.02	0.05474127	1	10	0.03	2000	0.6581841	40.92395	-91.39363
2904358	24	2	0	0.2844916	-0.03522271	0.3072272	0	12.48	0	0	0	5	5	0.02	0.05338587	1	10	0.03	2000	0.6596939	40.92395	-91.39363
2904490	22	-1	-2	0.2759059	-0.04059112	0.3085114	0	12.48	0	0	0	5	5	0.02	0.05413572	1	10	0.03	2000	0.8947058	40.92395	-91.39363
2904578	16	-3	2	0.2750608	-0.0422591	0.309123	0	12.48	0	0	0	5	5	0.02	0.04959776	1	10	0.03	2000	0.8952649	40.92395	-91.39363
2904720	18	-3	-2	0.2765973	-0.03753067	0.3113239	0	12.48	0	0	0	5	5	0.02	0.0457244	1	10	0.03	2000	0.6780891	40.92395	-91.39363
2904846	21	4	4	0.2799078	-0.03895476	0.3121798	0	12.53	0	0	0	5	5	0.02	0.04487276	1	10	0.03	2000	0.901238	40.92395	-91.39363
2904877	19	3	-2	0.2819549	-0.03971333	0.3151144	0	12.53	0	0	0	5	5	0.02	0.0418521	1	10	0.03	2000	0.6687474	40.92395	-91.39363
2904951	22	-3	0	0.2807204	-0.04177802	0.3151756	0	12.53	0	0	0	5	5	0.02	0.04090399	1	10	0.03	2000	0.8867838	40.92395	-91.39363
2905131	19	0	0	0.2866256	-0.04235786	0.3209836	0	12.53	0	0	0	5	5	0.02	0.04920892	1	10	0.03	2000	0.8790522	40.92395	-91.39363
2905158	21	-4	1	0.2866544	-0.04282366	0.3214116	0	12.53	0	0	0	5	5	0.02	0.04920892	1	10	0.03	2000	0.8790522	40.92395	-91.39363
2905276	19	0	-2	0.2855543	-0.04570923	0.3228178	0	12.53	0	0	0	5	5	0.02	0.0678645	1	10	0.03	2000	0.8781775	40.92395	-91.39363
2905354	23	0	-2	0.2848551	-0.04395401	0.3232456	0	12.53	0	0	0	5	5	0.02	0.07651551	1	10	0.03	2000	0.6669038	40.92395	-91.39363
2905469	17	0	-6	0.2931397	-0.03998094	0.3255075	0	12.53	0	0	0	5	5	0.02	0.07619398	1	10	0.03	2000	0.8837081	40.92395	-91.39363
2905624	19	-9	1	0.2929445	-0.04092017	0.329237	0	12.53	0	0	0	5	5	0.02	0.09446052	1	10	0.03	2000	0.6537206	40.92395	-91.39363
2905704	25	0	0	0.2888078	-0.04661465	0.3309488	0	12.53	0	0	0	5	5	0.02	0.1069778	1	10	0.03	2000	0.6600463	40.92395	-91.39363
2905786	19	1	-3	0.2940697	-0.0434926	0.3332721	0	12.53	0	0	0	5	5	0.02	0.1199203	1	10	0.03	2000	0.6571009	40.92395	-91.39363
2905867	19	-2	0	0.2935466	-0.04705797	0.3350452	0	12.53	0	0	0	5	5	0.02	0.141316	1	10	0.03	2000	0.6496147	40.92395	-91.39363
2905952	27	-2	1	0.2900738	-0.05036575	0.3359623	0	12.53	0	0	0	5	5	0.02	0.1481865	1	10	0.03	2000	0.867281	40.92395	-91.39363
2906053	22	2	0	0.2923979	-0.04650964	0.3387134	0	12.53	0	0	0	5	5	0.02	0.1554569	1	10	0.03	2000	0.657141	40.92395	-91.39363
2906156	28	-5	0	0.2992861	-0.04092353	0.3400584	0	12.53	0	0	0	5	5	0.02	0.1542814	1	10	0.03	2000	0.8705643	40.92395	-91.39363
2906259	23	2	0	0.2970363	-0.04036897	0.3424427	0	12.53	0	0	0	5	5	0.02	0.1519648	1	10	0.03	2000	0.8616403	40.92395	-91.39363
2906362	23	-3	3	0.3013681	-0.03741632	0.342993	0	12.53	0	0	0	5	5	0.02	0.147403	1	10	0.03	2000	0.866928	40.92395	-91.39363
2906506	19	-6	2	0.3020515	-0.03968791	0.3444604	0	12.53	0	0	0	5	5	0.02	0.1466555	1	10	0.03	2000	0.8613971	40.92395	-91.39363
2906557	27	1	-1	0.3023265	-0.04166811	0.3465393	0	12.53	0	0	0	5	5	0.02	0.1468692	1	10	0.03	2000	0.8599462	40.92395	-91.39363
2906658	25	4	-1	0.3048647	-0.04510659	0.3469673	0	12.48	0	0	0	5	5	0.02	0.1439623	1	10	0.03	2000	0.6385763	40.92395	-91.39363
2906757	16	-7	-3	0.3093231	-0.04035639	0.3496579	0	12.48	0	0	0	5	5	0.02	0.1426493	1	10	0.03	2000	0.6384771	40.92395	-91.39363
2906859	18	-3	0	0.3118936	-0.03744539	0.351431	0	12.48	0	0	0	5	5	0.02	0.1455767	1	10	0.03	2000	0.4072469	40.92395	-91.39363
2906961	20	-1	5	0.3084791	-0.04028592	0.3522259	0	12.48	0	0	0	5	5	0.02	0.1516036	1	10	0.03	2000	0.8452463	40.92395	-91.39363
2907115	23	1	-3	0.3167166	-0.04452013	0.3552828	0	12.48	0	0	0	5	5	0.02	0.1606385	1	10	0.03	2000	0.8353744	40.92395	-91.39363
2907179	19	-4	1	0.3081365	-0.04858878	0.3568112	0	12.48	0	0	0	5	5	0.02	0.1606159	1	10	0.03	2000	0.8396153	40.92395	-91.39363
2907304	23	2	1	0.3039408	-0.04340947	0.3583395	0	12.48	0	0	0	5	5	0.02	0.1633349	1	10	0.03	2000	0.8571997	40.92395	-91.39363
2907454	28	-4	-1	0.3176914	-0.04540366	0.3593177	0	12.48	0	0	0	5	5	0.02	0.1744493	1	10	0.03	2000	0.6190492	40.92395	-91.39363
2907517	17	-2	-1	0.3157289	-0.04338343	0.361213	0	12.48	0	0	0	5	5	0.02	0.1725159	1	10	0.03	2000	0.6167928	40.92395	-91.39363
2907587	20	0	-3	0.3067253	-0.04300173	0.3627416	0	12.48	0	0	0	5	5	0.02	0.1693745	1	10	0.03	2000	1.063806	40.92395	-91.39363
2907670	25	1	0	0.3072627	-0.04493559	0.3639643	0	12.48	0	0	0	5	5	0.02	0.1658341	1	10	0.03	2000	1.070534	40.92395	-91.39363
2907860	25	0	1	0.3139832	-0.04767168	0.3645153	0	12.48	0	0	0	5	5	0.02	0.1648954	1	10	0.03	2000	0.6222942	40.92395	-91.39363
2907934	22	-5	2	0.3233664	-0.04974422	0.3664716	0	12.48	0	0	0	5	5	0.02	0.1681884	1	10	0.03	2000	0.6080215	40.92395	-91.39363
2908059	21	-2	-2	0.3241554	-0.05166451	0.3658602	0	12.48	0	0	0	5	5	0.02	0.1942287	1	10	0.03	2000	0.6015857	40.92395	-91.39363
2908119	32	0	5	0.3248262	-0.05416154	0.3667774	0	12.48	0	0	0	5	5	0.02	0.2092758	1	10	0.03	2000	0.8247598	40.92395	-91.39363
2908178	28	-5	0	0.3237511	-0.05323355	0.3679389	0	12.48	0	0	0	5	5	0.02	0.2182352	1	10	0.03	2000	0.8279511	40.92395	-91.39363
2908314	19	0	2	0.323954	-0.05168394	0.3681833	0	12.48	0	0	0	5	5	0.02	0.2283207	1	10	0.03	2000	0.6042936	40.92395	-91.39363
2908400	26	-1	-7	0.3276599	-0.05722133	0.369467	0	12.48	0	0	0	5	5	0.02	0.2388592	1	10	0.03	2000	0.386041	40.92395	-91.39363
2908514	21	5	0	0.3242058	-0.06437881	0.3719128	0	12.48	0	0	0	5	5	0.02	0.2405577	1	10	0.03	2000	0.8259741	40.92395	-91.39363
2908639	31	0	-5	0.3273725	-0.06219057	0.3759481	0	12.48	0	0	0	5	5	0.02	0.2466789	1	10	0.03	2000	0.6020371	40.92395	-91.39363
2908679	27	2	-4	0.324802	-0.05838891	0.3774154	0	12.48	0	0	0	5	5	0.02	0.2458369	1	10	0.03	2000	0.6020371	40.92395	-91.39363
2908771	21	-3	2	0.3198575	-0.05672552	0.3791882	0	12.48	0	0	0	5	5	0.02	0.242852	1	10	0.03	2000	0.6066321	40.92395	-91.39363
2908874	9	-1	-1	0.321502	-0.05516866	0.380411	0	12.48	0	0	0	5	5	0.02	0.2347901	1	10	0.03	2000	0.6119588	40.92395	-91.39363
2908984	22	5	1	0.3096164	-0.05399423	0.382612	0	12.48	0	0	0	5	5	0.02	0.2336219	1	10	0.03	2000	0.8446661	40.92395	-91.39363
2909078	23	-2	3	0.31282	-0.05273695	0.384018	0	12.48	0	0	0	5	5	0.02	0.2283121	1	10	0.03	2000	0.6277543	40.92395	-91.39363
2909226	31	1	-2	0.3234358	-0.04842145	0.3845688	0	12.48	0	0	0	5	5	0.02	0.217475	1	10	0.03	2000	0.3946084	40.92395	-91.39363
2909314	27	-3	0	0.3183617	-0.05055661	0.3838963	0	12.48	0	0	0	5	5	0.02	0.2114295	1	10	0.03	2000	0.8339916	40.92395	-91.39363
2909376	18	-6	0	0.3137591	-0.04665455	0.384202	0	12.48	0	0	0	5	5	0.02	0.2106442	1	10	0.03	2000	0.8339916	40.92395	-91.39363
2909546	18	0	1	0.3164528	-0.0477122	0.386097	0	12.53	0	0	0	5	5	0.02	0.2237087	1	10	0.03	2000	0.6179453	40.92395	-91.39363
2909649	24	0	0	0.3223357	-0.05503677	0.3877478	0	12.53	0	0	0	5	5	0.02	0.232736	1	10	0.03	2000	0.837184	40.92395	-91.39363
2909714	28	-1	1	0.3210584	-0.05788416	0.3890927	0	12.53	0	0	0	5	5	0.02	0.2342072	1	10	0.03	2000	0.8277475	40.92395	-91.39363
2909780	26	3	-3	0.3268765	-0.05968747	0.3911712	0	12.53	0	0	0	5	5	0.02	0.2379077	1	10	0.03	2000	0.8195247	40.92395	-91.39363
2909950	21	10	-1	0.328994	-0.05729589	0.3933721	0	12.53	0	0	0	5	5	0.02	0.2612251	1	10	0.03	2000	0.815659	40.92395	-91.39363
2910069	21	0	0	0.348791	-0.05045368	0.3975296	0	12.53	0	0	0	5	5	0.02	0.2745498	1	10	0.03	2000	0.7957467	40.92395	-91.39363
2910100	24	-3	0	0.3474878	-0.04938525	0.3982633	0	12.53	0	0	0	5	5	0.02	0.2768049	1	10	0.03	2000	0.7924645	40.92395	-91.39363
2910176	26	5	0	0.3435105	-0.05329012	0.4006478	0	12.53	0	0	0	5	5	0.02	0.2827585	1	10	0.03	2000	0.5794003	40.92395	-91.39363
2910286	25	-6	-5	0.3474065	-0.05698595	0.4008926	0	12.53	0	0	0	5	5	0.02	0.2966307	1	10	0.03	2000	0.5695416	40.92395	-91.39363
2910381	8	0	-1	0.3448759	-0.06538468	0.402238	0	12.59	0	0	0	5	5	0.02	0.3077661	1	10	0.03	2000	0.5723504	40.92395	-91.39363
2910488	25	1	-7	0.3443011	-0.06244504	0.4044391	0	12.59	0	0	0	5	5	0.02	0.3362466	1	10	0.03	2000	0.7902222	40.92395	-91.39363
2910585	25	4	-3	0.3446759	-0.06221976	0.4064566	0	12.59	0	0	0	5	5	0.02	0.3562622	1	10	0.03	2000	0.5789628	40.92395	-91.39363
2910686	14	3	0	0.3418291	-0.06342728	0.4082296	0	12.59	0	0	0	5	5	0.02	0.3733032	1	10	0.03	2000	0.799477	40.92395	-91.39363
2910789	23	-3	-2	0.3427415	-0.06660019	0.4109197	0	12.59	0	0	0	5	5	0.02	0.407125	1	10	0.03	2000	0.798514	40.92395	-91.39363
2910885	15	1	-3	0.3433964	-0.06669372	0.4117143	0	12.59	0	0	0	5	5	0.02	0.4164056	1	10	0.03	2000	0.5786312	40.92395	-91.39363
2910986	15	1	1	0.3436633	-0.06189853	0.4131815	0	12.59	0	0	0	5	5	0.02	0.4236705	1	10	0.03	2000	0.5820413	40.92395	-91.39363
2911124	27	6	3	0.346095	-0.06058181	0.4147712	0	12.59	0	0	0	5	5	0.02	0.4297774	1	10	0.03	2000	0.7873185	40.92395	-91.39363
2911235	28	-1	0	0.348721	-0.06385133	0.4159328	0	12.48	0	0	0	5	5	0.02	0.4438912	1	10	0.03	2000	0.7873279	40.92395	-91.39363
2911346	26	-2	3	0.3475947	-0.05851398	0.4172778	0	12.48	0	0	0	5	5	0.02	0.4481155	1	10	0.03	2000	0.5713437	40.92395	-91.39363
2911384	27	4	3	0.3516595	-0.06047028	0.4164836	0	12.48	0	0	0	5	5	0.02	0.4503914	1	10	0.03	2000	0.5713437	40.92395	-91.39363
2911539	23	-1	0	0.3581921	-0.06225411	0.4180122	0	12.48	0	0	0	5	5	0.02	0.456563	1	10	0.03	2000	0.7820145	40.92395	-91.39363
2911656	26	6	-1	0.3557984	-0.06911647	0.4221087	0	12.48	0	0	0	5	5	0.02	0.4664958	1	10	0.03	2000	0.7791142	40.92395	-91.39363
2911712	26	0	-8	0.3560703	-0.06634727	0.4227811	0	12.48	0	0	0	5	5	0.02	0.4696468	1	10	0.03	2000	0.776405	40.92395	-91.39363
2911794	28	0	-3	0.3578229	-0.06242925	0.4245541	0	12.48	0	0	0	5	5	0.02	0.4691161	1	10	0.03	2000	0.7760065	40.92395	-91.39363
2911890	30	-6	3	0.3489397	-0.06553623	0.4263269	0	12.48	0	0	0	5	5	0.02	0.4615465	1	10	0.03	2000	0.5691442	40.92395	-91.39363
2911973	34	2	0	0.3464507	-0.06612082	0.4277942	0	12.48	0	0	0	5	5	0.02	0.4567448	1	10	0.03	2000	0.5736799	40.92395	-91.39363
2912079	24	0	-4	0.352139	-0.06531519	0.4292003	0	12.48	0	0	0	5	5	0.02	0.4415216	1	10	0.03	2000	0.5635957	40.92395	-91.39363
2912273	23	-1	-2	0.3609738	-0.05333112	0.4348864	0	12.48	0	0	0	5	5	0.02	0.4118644	1	10	0.03	2000	0.7709384	40.92395	-91.39363
2912351	29	0	-1	0.3633102	-0.05087251	0.4362928	0	12.48	0	0	0	5	5	0.02	0.400607	1	10	0.03	2000	0.7705369	40.92395	-91.39363
2912397	28	0	-10	0.3672156	-0.05376072	0.4389835	0	12.48	0	0	0	5	5	0.02	0.3974924	1	10	0.03	2000	0.3291889	40.92395	-91.39363
2912456	39	-9	-2	0.3687827	-0.05771118	0.4420403	0	12.48	0	0	0	5	5	0.02	0.3814633	1	10	0.03	2000	0.7590314	40.92395	-91.39363
2912622	32	0	-4	0.3730223	-0.04931193	0.4481542	0	12.48	0	0	0	5	5	0.02	0.364064	1	10	0.03	2000	0.5343713	40.92395	-91.39363
2912667	28	-7	-5	0.3740821	-0.04790732	0.4489489	0	12.48	0	0	0	5	5	0.02	0.3616168	1	10	0.03	2000	0.7521037	40.92395	-91.39363
2912774	16	-2	0	0.3706968	-0.05165546	0.4497442	0	12.48	0	0	0	5	5	0.02	0.3492971	1	10	0.03	2000	0.5363816	40.92395	-91.39363
2912871	26	0	-3	0.3728729	-0.05513837	0.4515173	0	12.48	0	0	0	5	5	0.02	0.3411697	1	10	0.03	2000	0.5344815	40.92395	-91.39363
2913008	26	6	6	0.3821513	-0.06411675	0.4573255	0	12.48	0	0	0	5	5	0.02	0.334327	1	10	0.03	2000	0.525659	40.92395	-91.39363
2913065	23	0	1	0.3833343	-0.06216986	0.4579368	0	12.48	0	0	0	5	5	0.02	0.330679	1	10	0.03	2000	0.525659	40.92395	-91.39363
2913187	31	-2	-1	0.3838856	-0.05368863	0.4599552	0	12.48	0	0	0	5	5	0.02	0.3233834	1	10	0.03	2000	0.7385423	40.92395	-91.39363
2913271	34	0	0	0.3918151	-0.05263642	0.4603221	0	12.48	0	0	0	5	5	0.02	0.3195825	1	10	0.03	2000	0.7286168	40.92395	-91.39363
2913391	21	-2	-3	0.3927514	-0.05674085	0.4653358	0	12.48	0	0	0	5	5	0.02	0.3213487	1	10	0.03	2000	0.5096216	40.92395	-91.39363
2913476	25	9	0	0.3956716	-0.05948388	0.4668032	0	12.48	0	0	0	5	5	0.02	0.3243537	1	10	0.03	2000	0.5075774	40.92395	-91.39363
2913563	24	1	-7	0.3939462	-0.06046178	0.4685152	0	12.48	0	0	0	5	5	0.02	0.3255688	1	10	0.03	2000	0.7219191	40.92395	-91.39363
2913688	30	-6	2	0.3956158	-0.05752268	0.4704107	0	12.48	0	0	0	5	5	0.02	0.3383551	1	10	0.03	2000	0.7166761	40.92395	-91.39363
2913808	32	0	-1	0.3933769	-0.0547176	0.4740788	0	12.48	0	0	0	5	5	0.02	0.3487743	1	10	0.03	2000	0.9398143	40.92395	-91.39363
2913898	23	0	0	0.3897741	-0.05312278	0.4760349	0	12.48	0	0	0	5	5	0.02	0.3523787	1	10	0.03	2000	0.7239909	40.92395	-91.39363
2913991	29	-5	-2	0.3863847	-0.0566484	0.4770743	0	12.48	0	0	0	5	5	0.02	0.3572115	1	10	0.03	2000	0.7239909	40.92395	-91.39363
2914074	28	-2	0	0.3881686	-0.04889743	0.4812931	0	12.53	0	0	0	5	5	0.02	0.3599383	1	10	0.03	2000	0.7246323	40.92395	-91.39363
2914174	27	-3	-5	0.3968215	-0.04504047	0.4848997	0	12.53	0	0	0	5	5	0.02	0.3633107	1	10	0.03	2000	0.5060745	40.92395	-91.39363
2914270	22	-3	-1	0.3941092	-0.04155207	0.4871621	0	12.53	0	0	0	5	5	0.02	0.3624276	1	10	0.03	2000	0.5103757	40.92395	-91.39363
2914387	22	-5	-1	0.3895439	-0.04425786	0.4883237	0	12.53	0	0	0	5	5	0.02	0.3616034	3	10	0.03	2000	0.5061455	40.92395	-91.39363
2914413	22	-5	-1	0.3895439	-0.04425786	0.4883237	0	12.53	0	0	0	5	5	0.02	0.3603441	3	10	0.03	2000	0.5061455	40.92395	-91.39363
2914456	24	1	2	0.3872862	-0.04178409	0.4930314	0	12.53	0	0	0	5	5	0.02	0.3603441	3	10	0.03	2000	0.5020679	40.92395	-91.39363
2914507	27	-3	2	0.387998	-0.04684731	0.495783	0	12.53	0	0	0	5	5	0.02	0.3691234	3	10	0.03	2000	0.513476	40.92395	-91.39363
2914577	36	0	-2	0.3864702	-0.0479317	0.4968834	0	12.53	0	0	0	5	5	0.02	0.3704638	3	10	0.03	2000	0.5136818	40.92395	-91.39363
2914686	31	1	4	0.3864998	-0.05565282	0.4992684	0	12.48	0	0	0	5	5	0.02	0.3688577	3	10	0.03	2000	0.7310328	40.92395	-91.39363
2914762	34	-4	-8	0.3880371	-0.05524076	0.5031813	0	12.48	0	0	0	5	5	0.02	0.3630935	3	10	0.03	2000	0.515077	40.92395	-91.39363
2914872	37	1	-4	0.4041425	-0.05233066	0.5093561	0	12.48	0	0	0	5	5	0.02	0.3609807	3	10	0.03	2000	0.7095964	40.92395	-91.39363
2914886	34	-1	-2	0.4072066	-0.05106201	0.5107012	0	12.48	0	0	0	5	5	0.02	0.3609807	3	10	0.03	2000	0.7095964	40.92395	-91.39363
2914951	30	-1	-4	0.4068815	-0.04987295	0.5107013	0	12.48	0	0	0	5	5	0.02	0.3588727	3	10	0.03	2000	0.7054949	40.92395	-91.39363
2915020	32	-1	-5	0.4008305	-0.0475665	0.5171818	0	12.48	0	0	0	5	5	0.02	0.3573099	3	10	0.03	2000	0.7016444	40.92395	-91.39363
2915050	36	-2	-4	0.3943964	-0.04733519	0.5204222	0	12.48	0	0	0	5	5	0.02	0.3557068	3	10	0.03	2000	0.500111	40.92395	-91.39363
2915150	29	-5	-4	0.3923085	-0.05246919	0.5206056	0	12.48	0	0	0	5	5	0.02	0.3588116	3	10	0.03	2000	0.7182783	40.92395	-91.39363
2915230	36	-4	-3	0.3947165	-0.05342857	0.5222563	0	12.48	0	0	0	5	5	0.02	0.3597616	3	10	0.03	2000	0.5052823	40.92395	-91.39363
2915362	39	0	2	0.3967058	-0.05350693	0.5267807	0	12.48	0	0	0	5	5	0.02	0.3574215	3	10	0.03	2000	0.4994348	40.92395	-91.39363
2915396	27	1	-5	0.4066708	-0.04971608	0.5312439	0	12.48	0	0	0	5	5	0.02	0.3545337	3	10	0.03	2000	0.706305	40.92395	-91.39363
2915472	37	2	-1	0.4064226	-0.04796688	0.5325277	0	12.48	0	0	0	5	5	0.02	0.3502894	3	10	0.03	2000	0.4834306	40.92395	-91.39363
2915591	29	-1	-5	0.4007283	-0.04975303	0.5354621	0	12.48	0	0	0	5	5	0.02	0.348316	3	10	0.03	2000	0.9292456	40.92395	-91.39363
2915708	32	1	-3	0.4089724	-0.0505421	0.5402917	0	12.48	0	0	0	5	5	0.02	0.337074	3	10	0.03	2000	0.4808186	40.92395	-91.39363
2915821	36	0	-3	0.4096363	-0.05247061	0.5444493	0	12.48	0	0	0	5	5	0.02	0.3290713	3	10	0.03	2000	0.4804552	40.92395	-91.39363
2915907	39	-6	-21	0.4140639	-0.05675094	0.555759	0	12.48	0	0	0	5	5	0.02	0.3252863	3	10	0.03	2000	0.4757882	40.92395	-91.39363
2915960	30	12	2	0.4159953	-0.05966905	0.5507428	0	12.48	0	0	0	5	5	0.02	0.3192588	3	10	0.03	2000	0.6933876	40.92395	-91.39363
2916045	-16	52	6	0.4073132	-0.06904797	0.5449331	0	12.48	0	0	0	5	5	0.02	0.3134578	3	10	0.03	2000	0.6933876	40.92395	-91.39363
2916161	0	-86	-121	0.3207714	-0.1943798	0.5671279	0	12.48	0	0	0	5	5	0.02	0.2945943	3	10	0.03	2000	0.0919297	40.92395	-91.39363
2916245	19	51	29	0.3440711	-0.1728065	0.5732995	0	12.42	0	0	0	5	5	0.02	0.2862467	3	10	0.03	2000	0.5806296	40.92395	-91.39363
2916376	-39	40	-92	0.4541606	-0.02479493	0.567371	0	12.42	0	0	0	5	5	0.02	0.2826934	3	10	0.03	2000	0.8378767	40.92395	-91.39363
2916501	94	-144	76	0.4590467	-0.04250599	0.575002	0	12.42	0	0	0	5	5	0.02	0.2750582	3	10	0.03	2000	1.122674	40.92395	-91.39363
2916541	94	-144	76	0.4590467	-0.04250599	0.575002	0	12.42	0	0	0	5	5	0.02	0.275654	3	10	0.03	2000	1.122674	40.92395	-91.39363
2916636	94	-144	76	0.4590467	-0.04250599	0.575002	0	12.42	0	0	0	5	5	0.02	0.275654	3	10	0.03	2000	1.122674	40.92395	-91.39363
2916727	94	-144	76	0.4590467	-0.04250599	0.575002	0	12.42	0	0	0	5	5	0.02	0.275654	3	10	0.03	2000	1.122674	40.92395	-91.39363
2916865	163	-109	23	0.5367228	-0.006237863	0.6209183	0	12.42	0	0	0	5	5	0.02	0.3057587	3	10	0.03	2000	0.8311502	40.92395	-91.39363
2916932	0	81	-92	0.5130792	-0.006515578	0.627097	0	12.42	0	0	0	5	5	0.02	0.3173079	3	10	0.03	2000	0.8078786	40.92395	-91.39363
2917024	56	59	238	0.4851908	0.02895645	0.6063622	0	12.42	0	0	0	5	5	0.02	0.3248769	3	10	0.03	2000	0.8084238	40.92395	-91.39363
2917200	4	7	97	0.416059	0.006140443	0.5793445	0	12.53	0	0	0	5	5	0.02	0.3388576	3	10	0.03	2000	0.6852859	40.92395	-91.39363
2917274	-2	42	60	0.4083506	-0.0002279641	0.577329	0	12.53	0	0	0	5	5	0.02	0.3395814	3	10	0.03	2000	0.236153	40.92395	-91.39363
2917398	75	-15	-162	0.4011654	0.01389992	0.5901595	0	12.53	0	0	0	5	5	0.02	0.3428628	3	10	0.03	2000	0.2551276	40.92395	-91.39363
2917516	12	-6	44	0.378381	0.02636234	0.5844667	0	12.53	0	0	0	5	5	0.02	0.3551591	3	10	0.03	2000	0.9336918	40.92395	-91.39363
2917586	39	-86	-45	0.3651156	0.031347	0.5953504	0	12.53	0	0	0	5	5	0.02	0.3598447	3	10	0.03	2000	0.7273448	40.92395	-91.39363
2917694	185	-5	136	0.3842967	0.083965	0.6119657	0	12.53	0	0	0	5	5	0.02	0.3618709	3	10	0.03	2000	0.8155581	40.92395	-91.39363
2917749	-157	171	-36	0.3696447	0.07113579	0.6239476	0	12.53	0	0	0	5	5	0.02	0.3662682	3	10	0.03	2000	0.9946375	40.92395	-91.39363
2917896	-5	-259	392	0.4391971	0.1266675	0.6194766	0	12.53	0	0	0	5	5	0.02	0.377223	3	10	0.03	2000	0.7453682	40.92395	-91.39363
2917959	-5	-259	392	0.4391971	0.1266675	0.6194766	0	12.53	0	0	0	5	5	0.02	0.3832906	3	10	0.03	2000	0.7453682	40.92395	-91.39363
2918034	-120	295	-474	0.3970338	0.07954457	0.6480951	0	12.48	0	0	0	5	5	0.02	0.3909965	3	10	0.03	2000	0.9644475	40.92395	-91.39363
2918136	-166	98	-163	0.3611563	0.09394251	0.6271935	0	12.48	0	0	0	5	5	0.02	0.3995745	3	10	0.03	2000	1.337347	40.92395	-91.39363
2918226	-148	125	-135	0.3724134	0.09588106	0.6585374	0	12.48	0	0	0	5	5	0.02	0.4079199	3	10	0.03	2000	1.228392	40.92395	-91.39363
2918328	125	-26	-193	0.3904804	0.1203456	0.6672294	0	12.48	0	0	0	5	5	0.02	0.413568	3	10	0.03	2000	1.239113	40.92395	-91.39363
2918431	-27	-128	101	0.3415528	0.05819851	0.6198215	0	12.48	0	0	0	5	5	0.02	0.4134207	3	10	0.03	2000	1.249904	40.92395	-91.39363
2918572	166	32	-528	0.2880427	0.02468996	0.6148603	0	12.48	0	0	0	5	5	0.02	0.4054641	3	10	0.03	2000	1.424557	40.92395	-91.39363
2918672	-33	-27	392	0.214921	-0.08071373	0.5693217	0	12.48	0	0	0	5	5	0.02	0.40461	3	10	0.03	2000	1.913639	40.92395	-91.39363
2918797	3	-48	426	0.3033754	-0.09971308	0.6060682	0	12.48	0	0	0	5	5	0.02	0.4040047	3	10	0.03	2000	1.000801	40.92395	-91.39363
2918857	107	-84	-244	0.3382615	-0.07529838	0.6317385	0	12.48	0	0	0	5	5	0.02	0.4117463	3	10	0.03	2000	1.000801	40.92395	-91.39363
2918936	780	-406	-230	0.3629906	0.04373873	0.6248834	0	12.42	0	0	0	5	5	0.02636652	0.415453	6	10	0.03	2000	1.130149	40.92395	-91.39363
2919038	-140	1105	-424	0.3496371	-0.07084791	1.062044	0	12.42	0	0	0	5	5	0.0305937	0.4183737	6	10	0.03	2000	0.7525887	40.92395	-91.39363
2919172	-197	240	-22	0.4090234	-0.6616085	1.044634	0	12.42	0	0	0	5	5	0.03181926	0.4255387	6	10	0.03	2000	0.2029811	40.92395	-91.39363
2919305	-336	87	2	0.2848025	-0.5232741	0.930436	0	12.42	0	0	0	5	5	0.03747387	0.4453068	6	10	0.03	2000	1.163234	40.92395	-91.39363
2919385	228	145	-137	0.2181332	-0.5661579	1.000371	0	12.42	0	0	0	5	5	0.03765287	0.4479745	6	10	0.03	2000	0.619745	40.92395	-91.39363
2919444	228	145	-137	0.2181332	-0.5661579	1.000371	0	12.42	0	0	0	5	5	0.03765287	0.4479745	6	10	0.03	2000	0.619745	40.92395	-91.39363
2919536	228	145	-137	0.2181332	-0.5661579	1.000371	0	12.42	0	0	0	5	5	0.03765287	0.4479745	6	10	0.03	2000	0.619745	40.92395	-91.39363
2919627	-102	-85	57	0.008356226	-0.4079269	1.468477	0	12.42	0	0	0	5	5	0.03765287	0.4479745	6	10	0.03	2000	0.2492115	40.92395	-91.39363
2919792	-38	-783	92	0.01832695	0.1831896	1.678979	0	12.42	0	0	0	5	5	0.03696742	0.4472109	6	10	0.03	2000	0.5589645	40.92395	-91.39363
2919952	-431	-1305	214	-0.3820882	2.733534	1.932992	0	12.25	0	0	0	5	5	0.03932739	0.4645847	6	10	0.03	2000	0.2306701	40.92395	-91.39363
2920051	-1063	199	595	-1.276453	3.694818	1.194852	0	12.25	0	0	0	5	5	0.04155789	0.4768518	6	10	0.03	2000	0.8872427	40.92395	-91.39363
2920198	403	4524	-705	-1.973169	-3.556024	0.3970983	0	12.25	0	0	0	5	5	0.04720449	0.5045079	6	10	0.03	2000	1.964067	40.92395	-91.39363
2920235	261	3850	-1195	-1.644679	-6.507854	0.4463539	0	12.25	0	0	0	5	5	0.04924114	0.5212523	6	10	0.03	2000	1.964067	40.92395	-91.39363
2920374	-357	-701	-2704	-2.165038	-9.448473	2.715208	0	12.25	0	0	0	5	5	0.05955247	0.5615771	6	10	0.03	2000	0.01807609	40.92395	-91.39363
2920498	24	-1877	244	-1.690728	-6.849963	3.907873	0	12.25	0	0	0	5	5	0.09190264	0.6113976	6	10	0.03	2000	-0.5187378	40.92395	-91.39363
2920596	-1179	-3710	-1011	-2.7094	-2.884373	2.859486	0	12.25	0	0	0	5	5	0.129767	0.6520853	6	10	0.03	2000	0.9094269	40.92395	-91.39363
2920671	1252	536	247	-2.352864	-1.59614	2.140647	0	12.25	0	0	0	5	5	0.15829	0.6715707	6	10	0.03	2000	0.5101528	40.92395	-91.39363
2920749	1123	407	1487	-1.127218	-2.268655	1.560334	0	12.25	151752416	3	-3	5	5	0.2009446	0.6900242	8	10	0.03	2000	-0.1739197	40.92395	-91.39363
2920853	2746	-873	-296	-3.100914	5.234649	0.7252578	0	9.64	20009	0	0	5	5	0.1318398	0.7224138	8	10	0.03	2000	1.966728	40.92395	-91.39363
2920996	-88	3427	-821	-0.8524137	-1.276251	1.550484	0	9.64	20032	0	0	5	5	0.09611119	0.7637318	8	10	0.03	2000	3.475416	40.92395	-91.39363
2921073	8	-1343	9	-0.9356507	-1.560783	1.969299	0	9.64	20048	0	0	5	5	0.06305856	0.8105513	8	10	0.03	2000	2.35102	40.92395	-91.39363
2921214	-143	1985	682	-0.9268332	-3.744137	2.012923	0	9.64	20030	0	0	5	5	0.04137272	0.8860084	8	10	0.03	2000	2.717542	40.92395	-91.39362
2921259	-361	-242	293	-1.992619	-3.948315	1.598458	0	9.64	23993	0	0	5	5	0.03723545	0.9005451	8	10	0.03	2000	4.289549	40.92395	-91.39362
2921359	-2000	-3551	-1454	-2.330408	-1.760409	1.887508	0	9.64	20003	0	0	5	5	0.02714464	0.9789316	8	10	0.03	2000	3.489872	40.92395	-91.39362
2921506	1403	2072	1019	-2.572421	-1.704545	2.779111	0	9.64	20031	0	0	5	5	0.02	1.093884	8	10	0.03	2000	2.285805	40.92395	-91.39362
2921580	718	-1026	1252	-1.472527	-2.135279	1.803547	0	9.64	20008	0	0	5	5	0.02	1.144791	8	10	0.03	2000	2.693267	40.92395	-91.39362
2921737	-678	-1439	1199	-0.02331029	-3.803302	0.5304515	0	11.8	20040	0	0	5	5	0.02	1.231283	8	10	0.03	2000	4.368873	40.92395	-91.39362
2921797	-140	-771	-1483	-0.5692301	-2.974136	1.357274	0	11.8	20010	0	0	5	5	0.02	1.286026	8	10	0.03	2000	6.58391	40.92395	-91.39362
2921866	605	62	-514	-0.9267735	-3.076635	1.794024	0	11.8	20022	1	0	5	5	0.02	1.348424	8	10	0.03	2000	6.408773	40.92395	-91.39362
2921978	-314	368	-218	-0.7544608	-2.269528	3.635265	0	11.8	20029	1	0	5	5	0.02	1.532339	8	10	0.03	2000	6.463377	40.92395	-91.39362
2922177	908	-273	604	-1.817264	-0.3196932	0.2054294	0	11.8	20032	1	0	5	5	0.02	1.695606	8	10	0.03	2000	8.086607	40.92395	-91.39362
2922233	1955	1774	-1670	0.7264007	-3.180726	0.8540494	0	11.8	20032	1	0	5	5	0.02	1.854937	8	10	0.03	2000	10.04054	40.92395	-91.39362
2922334	-1164	-1602	-333	0.7713678	-3.289939	2.031726	0	11.8	20032	1	0	5	5	0.02	1.920051	8	10	0.03	2000	9.614704	40.92395	-91.39362
2922427	-1517	-2913	-649	-0.883842	-1.750692	2.237879	0	11.8	20028	1	0	5	5	0.02	2.108707	8	10	0.03	2000	9.945763	40.92395	-91.39362
2922473	-701	-1898	81	-1.347325	-0.908653	2.151256	0	11.8	20033	1	0	5	5	0.02	2.122062	8	10	0.03	2000	9.945763	40.92395	-91.39362
2922641	1079	1010	464	-1.307771	-3.628448	0.50111	0	12.19	20047	2	0	5	5	0.02	2.36795	8	10	0.03	2000	10.59091	40.92395	-91.39362
2922746	61	-1968	-320	-0.628244	-2.57334	0.5552292	0	12.19	20033	2	0	5	5	0.02	2.426797	8	10	0.03	2000	8.315087	40.92395	-91.39362
2922790	-417	-818	287	-0.6401406	-1.015738	0.598477	0	12.19	20052	2	0	5	5	0.02	2.443795	8	10	0.03	2000	9.660267	40.92395	-91.39362
2922880	1558	1059	-193	0.6110178	-2.185337	1.154319	0	12.19	20009	2	0	5	5	0.02	2.540832	8	10	0.03	2000	10.70793	40.92395	-91.39362
2922990	-1874	-1998	705	-0.1416661	-1.2338	1.463821	0	12.19	20016	3	0	5	5	0.02	2.625971	8	10	0.03	2000	9.043023	40.92395	-91.39362
2923093	832	1140	478	-0.03534519	-1.625601	1.470188	0	12.19	20007	3	0	5	5	0.02	2.72774	8	10	0.03	2000	11.15116	40.92395	-91.39362
2923244	-218	-1185	1358	-0.4050162	-1.884342	1.201928	0	12.19	20030	3	0	5	5	0.02	2.832529	8	10	0.03	2000	11.39028	40.92395	-91.39362
2923341	771	-228	-563	-1.289262	-2.445636	0.796297	0	12.19	20010	3	0	5	5	0.02	2.926009	8	10	0.03	2000	10.49708	40.92395	-91.39362
2923431	-263	-691	924	-0.410523	-1.694656	0.917549	0	12.19	20052	4	0	5	5	0.02	2.964838	8	10	0.03	2000	11.16276	40.92394	-91.39361
2923507	-597	755	94	-1.05382	-0.7422479	1.192188	0	12.19	20032	4	0	5	5	0.02	2.99544	8	10	0.03	2000	10.34271	40.92394	-91.39361
2923619	636	2579	-347	-0.2382803	-6.440821	1.585071	0	11.91	20031	4	-1	5	5	0.02	3.030755	8	10	0.03	2000	6.253724	40.92394	-91.39361
2923699	-1737	454	605	-0.2920726	-6.636906	1.591588	0	11.91	20059	4	-1	5	5	0.02	3.044024	8	10	0.03	2000	6.441512	40.92394	-91.39361
2923799	881	1575	-969	-2.015373	-6.511232	1.196207	0	11.91	20058	5	-1	5	5	0.02	3.057459	8	10	0.03	2000	5.677935	40.92394	-91.39361
2923938	-1022	-1303	-247	-1.133371	-4.121173	1.145298	0	11.91	20029	5	-2	5	5	0.02	3.069497	8	10	0.03	2000	2.104451	40.92393	-91.3936
2924039	134	-946	544	-0.7861056	-2.825906	1.03026	0	11.91	20053	5	-2	5	5	0.02	3.075155	8	10	0.03	2000	2.554067	40.92393	-91.3936
2924184	-531	1079	202	-0.02654999	-1.396765	0.630756	0	11.91	24005	6	-3	5	5	0.02	3.059226	8	10	0.03	2000	2.303572	40.92393	-91.3936
2924255	66	762	136	-0.2057099	-2.340299	0.6879041	0	11.91	20029	5	-3	5	5	0.02	3.032652	8	10	0.03	2000	1.6831	40.92393	-91.3936
2924314	62	65	870	0.001809145	-2.282254	0.6699417	0	11.91	20027	6	-3	5	5	0.02	3.025272	8	10	0.03	2000	1.6831	40.92393	-91.3936
2924382	-1527	1617	17	-0.6434377	-3.80282	0.7268749	0	11.91	20032	6	-3	5	5	0.02	2.976157	8	10	0.03	2000	1.13483	40.92393	-91.3936
2924496	-873	3018	415	-3.038277	-5.704351	1.177248	0	11.51	20060	6	-4	5	5	0.02	2.91614	8	10	0.03	2000	-0.2919617	40.92393	-91.39359
2924645	1027	796	-912	-2.049648	-6.920752	2.065009	0	11.51	20033	7	-4	5	5	0.02	2.792509	8	10	0.03	2000	-4.033844	40.92393	-91.39359
2924686	-674	-1480	-1450	-0.8978717	-6.328302	2.342995	0	11.51	20002	7	-4	5	5	0.02	2.758298	8	10	0.03	2000	-4.17627	40.92393	-91.39359
2924795	2094	699	-656	0.6056174	-6.224586	3.361741	0	11.51	20031	7	-4	5	5	0.02	2.697986	8	10	0.03	2000	-5.904785	40.92392	-91.39359
2924891	-727	-3557	-704	1.006335	-3.424507	4.114153	0	11.51	20050	7	-5	5	5	0.02	2.634177	8	10	0.03	2000	-6.02301	40.92392	-91.39359
2925002	-1908	-2617	1388	-0.7873992	-0.3333311	1.936006	0	11.51	20034	7	-5	5	5	0.02	2.574848	8	10	0.03	2000	-4.98407	40.92392	-91.39359
2925094	957	1479	674	-1.242615	0.09441067	0.5619631	0	11.51	20071	7	-5	5	5	0.02	2.500774	8	10	0.03	2000	-3.872467	40.92392	-91.39359
2925203	-988	-1974	-1722	-1.051322	1.748221	0.5764872	0	11.51	20041	7	-6	5	5	0.02	2.429128	8	10	0.03	2000	-5.033356	40.92392	-91.39359
2925285	554	1353	-737	-0.06804692	0.8107608	1.415621	0	11.51	20023	7	-6	5	5	0.02	2.380611	8	10	0.03	2000	-6.108307	40.92392	-91.39359
2925389	-610	1973	686	-1.174197	-1.407035	1.519942	0	11.17	20056	7	-6	5	5	0.02	2.287178	8	10	0.03	2000	-7.508148	40.92392	-91.39359
2925473	-271	-198	-83	-1.346381	-1.225209	1.795832	0	11.17	20072	9	-7	5	5	0.02	2.245792	8	10	0.03	2000	-7.508148	40.92392	-91.39359
2925651	867	409	-66	0.1336179	-0.3393736	2.291464	0	11.17	20032	7	-6	5	5	0.02	2.13357	8	10	0.03	2000	-9.649445	40.92392	-91.39359
2925718	-627	2385	-604	0.5848329	-1.896817	2.475655	0	11.17	20057	7	-6	5	5	0.02	2.080055	8	10	0.03	2000	-9.760071	40.92391	-91.39359
2925842	655	-2601	754	-0.6006652	-0.007021552	1.054235	0	11.17	20035	8	-7	5	5	0.02	1.947332	8	10	0.03	2000	-8.967102	40.92391	-91.39359
2925981	-1311	1595	-454	2.21272	-0.001827997	0.7777955	0	11.17	20030	8	-8	5	5	0.02	1.829426	8	10	0.03	2000	-7.75708	40.92391	-91.39359
2926132	-2292	110	-970	4.764755	-3.529528	2.371972	0	11.17	20056	7	-8	5	5	0.02	1.730264	8	10	0.03	2000	-7.79892	40.9239	-91.39359
2926239	-2103	-262	153	0.133799	-2.524791	1.314213	0	11.17	20032	7	-8	5	5	0.02	1.636169	8	10	0.03	2000	-5.884277	40.9239	-91.39359
2926262	668	2160	1631	-0.1316721	-2.805958	0.6854258	0	11	20034	7	-9	5	5	0.02	1.636169	8	10	0.03	2000	-5.884277	40.9239	-91.39359
2926381	736	261	748	-3.136357	-4.848134	-1.055702	0	11	20031	7	-9	5	5	0.02	1.566194	8	10	0.03	2000	-3.384979	40.9239	-91.39359
2926505	1052	-2327	-1310	0.2092867	-2.373991	-0.3088776	0	11	20031	6	-9	5	5	0.02	1.555104	8	10	0.03	2000	-3.670227	40.9239	-91.39359
2926573	528	-1163	-29	1.314365	0.9967262	0.4913018	0	11	20033	6	-9	5	5	0.02	1.55298	8	10	0.03	2000	-4.007782	40.9239	-91.39359
2926671	1453	-2585	-1733	3.177205	0.6569568	1.748209	0	11	20010	6	-10	5	5	0.02	1.564994	8	10	0.03	2000	-4.962463	40.9239	-91.39359
2926785	-1811	547	590	4.152207	2.728893	1.641767	0	11	20028	6	-10	5	5	0.02	1.610751	8	10	0.03	2000	-2.300842	40.9239	-91.39359
2926863	73	-1014	681	1.281472	1.71985	1.304038	0	11	20058	6	-10	5	5	0.02	1.647504	8	10	0.03	2000	-1.706543	40.9239	-91.3936
2926969	-749	-608	-1235	0.3668233	0.6351495	1.342059	0	11	20055	6	-10	5	5	0.02	1.739375	8	10	0.03	2000	-0.1750488	40.9239	-91.3936
2927111	-665	-2138	450	-0.6047717	1.849811	1.778889	0	11	20031	5	-9	5	5	0.02	1.859164	8	10	0.03	2000	0.1397151	40.9239	-91.3936
2927238	948	92	367	-0.3870779	-1.792757	1.777695	0	11.74	20026	5	-9	5	5	0.02	2.072652	8	10	0.03	2000	1.040192	40.9239	-91.39361
2927339	-570	-665	696	-0.5783049	-1.1558	1.183923	0	11.74	20029	5	-9	5	5	0.02	2.143336	8	10	0.03	2000	1.040192	40.9239	-91.39361
2927354	288	-1189	-1081	-1.385918	-0.4073047	0.6833584	0	11.74	20009	4	-9	5	5	0.02	2.143336	8	10	0.03	2000	2.400257	40.9239	-91.39361
2927490	310	633	308	-1.560258	-2.883638	-0.2430318	0	11.74	20028	4	-9	5	5	0.02	2.373472	8	10	0.03	2000	3.959398	40.9239	-91.39361
2927553	208	-791	-395	-1.480629	-2.551689	-0.153422	0	11.74	20026	4	-9	5	5	0.02	2.423321	8	10	0.03	2000	3.612763	40.9239	-91.39361
2927647	9	-321	520	-1.388937	-0.376033	0.8632041	0	11.74	20032	4	-9	5	5	0.02	2.489705	8	10	0.03	2000	3.963748	40.9239	-91.39361
2927758	1679	483	-1809	-1.597618	-0.6846185	1.784802	0	11.74	20056	4	-9	5	5	0.02	2.558822	8	10	0.03	2000	3.955884	40.9239	-91.39361
2927867	-1182	-791	496	-1.021417	-2.262883	1.455579	0	11.74	20035	4	-9	5	5	0.02	2.640373	8	10	0.03	2000	5.251713	40.9239	-91.39362
2927987	1250	776	275	-1.545945	-1.932061	0.9891683	0	11.74	20032	3	-9	5	5	0.02	2.717287	8	10	0.03	2000	6.144617	40.9239	-91.39362
2928064	-1205	-1172	-235	-0.5124826	-2.621917	1.07242	0	11.51	23989	3	-9	5	5	0.02	2.7666	8	10	0.03	2000	7.162412	40.9239	-91.39362
2928164	373	-479	575	-1.003188	-1.417728	1.330487	0	11.51	20033	3	-9	5	5	0.02	2.829182	8	10	0.03	2000	7.949149	40.9239	-91.39362
2928312	-1167	-5	135	-1.373613	-5.175396	1.228889	0	11.51	20034	3	-9	5	5	0.02	2.87478	8	10	0.03	2000	7.407128	40.9239	-91.39362
2928366	-994	-1838	-133	-2.093551	-4.847291	1.211227	0	11.51	20055	3	-9	5	5	0.02	2.911858	8	10	0.03	2000	7.962699	40.9239	-91.39362
2928449	51	-428	-1099	-2.41538	-3.78476	1.294348	0	11.51	20030	3	-10	5	5	0.02	2.935565	8	10	0.03	2000	7.193806	40.9239	-91.39362
2928584	-15	-229	-1463	-2.133193	-5.252358	1.823758	0	11.51	20015	3	-10	5	5	0.02	2.963153	8	10	0.03	2000	7.81244	40.9239	-91.39362
2928708	-1717	796	133	-1.864105	-7.170672	2.101787	0	11.51	20030	3	-10	5	5	0.02	2.960817	8	10	0.03	2000	6.922965	40.9239	-91.39362
2928797	-321	-129	-161	-3.884264	-6.271645	1.429636	0	11.51	20033	3	-10	5	5	0.02	2.958242	8	10	0.03	2000	7.122197	40.9239	-91.39362
2928848	1590	3724	373	-2.971124	-7.953231	0.8659888	0	11.51	20034	3	-10	5	5	0.02	2.948204	8	10	0.03	2000	5.936635	40.9239	-91.39362
2928970	2313	2814	-12	-0.4306744	-12.82919	1.48167	0	11.51	20036	3	-10	5	5	0.02	2.936574	8	10	0.03	2000	6.455834	40.9239	-91.39362
2929105	-379	-290	235	-4.046143	-12.7129	1.665377	0	11.8	20027	3	-10	5	5	0.02	2.912643	8	10	0.03	2000	5.069767	40.9239	-91.39362
2929270	585	-334	60	-1.011283	-7.203503	1.585116	0	11.8	20036	3	-11	5	5	0.02	2.882853	8	10	0.03	2000	4.70961	40.92389	-91.39362
2929390	185	637	-677	-0.9312506	-7.602451	2.540357	0	11.8	20032	3	-11	5	5	0.02	2.86679	8	10	0.03	2000	5.264663	40.92389	-91.39362
2929484	-948	-4187	-861	-2.057257	-4.42385	2.408269	0	11.8	20033	3	-11	5	5	0.02	2.856208	8	10	0.03	2000	4.973909	40.92389	-91.39362
2929535	-557	-3185	337	-2.44546	-2.701158	2.186319	0	11.8	20045	3	-11	5	5	0.02	2.840236	8	10	0.03	2000	4.895014	40.92389	-91.39362
2929659	1166	2123	1420	-1.783123	-1.471599	1.360421	0	11.8	20006	3	-11	5	5	0.02	2.821819	8	10	0.03	2000	5.349266	40.92389	-91.39362
2929765	-267	-957	-186	-1.057771	-2.160054	1.052122	0	11.8	20006	4	-11	5	5	0.02	2.800271	8	10	0.03	2000	4.691116	40.92389	-91.39361
2929836	-293	-1365	-1311	-1.474559	-1.22745	1.640941	0	11.8	20028	4	-11	5	5	0.02	2.792353	8	10	0.03	2000	5.146197	40.92389	-91.39361
2929985	-1068	-1862	-458	-0.6645456	-2.047338	2.13555	0	12.02	20027	4	-11	5	5	0.02	2.771577	8	10	0.03	2000	6.902087	40.92389	-91.39361
2930047	-892	-1281	264	-0.8692504	-1.801645	1.862205	0	12.02	20008	4	-11	5	5	0.02	2.764129	8	10	0.03	2000	4.997303	40.92389	-91.39361
2930143	630	405	-697	-1.144765	-2.605656	1.551033	0	12.02	20011	4	-11	5	5	0.02	2.752945	8	10	0.03	2000	7.150268	40.92389	-91.39361
2930254	-48	577	692	1.201736	-5.077518	1.903123	0	12.02	20037	4	-11	5	5	0.02	2.729826	8	10	0.03	2000	7.193122	40.92389	-91.39361
2930369	-779	-1098	-96	0.1176709	-2.926379	1.37788	0	12.02	20035	5	-11	5	5	0.02	2.705206	8	10	0.03	2000	7.665097	40.92389	-91.39361
2930512	623	491	25	0.02886727	-2.614555	1.711047	0	12.02	20033	5	-11	5	5	0.02	2.689419	8	10	0.03	2000	8.506681	40.92389	-91.3936
2930572	-461	-265	460	0.3444998	-2.940234	1.696077	0	12.02	20040	5	-11	5	5	0.02	2.682995	8	10	0.03	2000	8.506681	40.92389	-91.3936
2930631	202	-29	-399	-1.726318	-2.646048	1.168987	0	12.02	20031	5	-11	5	5	0.02	2.674439	8	10	0.03	2000	10.29883	40.92389	-91.3936
2930734	334	-151	-1054	-0.2959774	-3.789393	1.128717	0	12.02	20031	5	-11	5	5	0.02	2.657486	8	10	0.03	2000	7.705391	40.92389	-91.3936
2930864	121	263	-599	-1.236385	-2.213378	0.86888	0	11.85	20019	6	-11	5	5	0.02	2.646446	8	10	0.03	2000	8.169667	40.92389	-91.3936
2930936	-166	-346	-739	-1.213304	-3.26452	0.866129	0	11.85	20014	6	-11	5	5	0.02	2.642668	8	10	0.03	2000	9.39454	40.92389	-91.3936
2931035	2278	1382	-225	-0.1847896	-4.277984	1.356855	0	11.85	20010	6	-12	5	5	0.02	2.633084	8	10	0.03	2000	8.568064	40.92389	-91.39359
2931184	-1495	-3340	441	-0.4741567	-4.017601	2.556092	0	11.85	20088	8	-14	5	5	0.02	2.623345	8	10	0.03	2000	10.00931	40.92389	-91.39359
2931239	-1375	-1845	1027	-2.037786	-0.09716108	1.531796	0	11.85	20028	7	-12	5	5	0.02	2.622349	8	10	0.03	2000	8.613269	40.92389	-91.39359
2931343	-1259	1844	83	-4.03291	-0.8015463	0.9689913	0	11.85	20032	7	-12	5	5	0.02	2.618704	8	10	0.03	2000	8.927104	40.92389	-91.39359
2931459	-2279	7	569	-6.714977	-3.57688	1.339399	0	11.85	20031	8	-12	5	5	0.02	2.615004	8	10	0.03	2000	3.715233	40.92389	-91.39359
2931534	-2409	-363	-828	-8.841296	-4.136799	0.9644501	0	11.85	20054	8	-12	5	5	0.02	2.619994	8	10	0.03	2000	2.634713	40.92389	-91.39359
2931657	-1491	-1688	-1500	-10.26001	-2.349483	1.0555	0	11.85	20030	8	-12	5	5	0.02	2.622341	8	10	0.03	2000	-1.046021	40.92389	-91.39359
2931839	-1732	1038	1385	-8.994766	-5.055554	1.504174	0	11.51	20058	8	-12	5	5	0.02	2.599603	8	10	0.03	2000	-9.056763	40.92389	-91.39359
2931904	589	2308	192	-9.211734	-6.861205	1.671814	0	11.51	20029	9	-13	5	5	0.02	2.580046	8	10	0.03	2000	-13.83246	40.92389	-91.39359
2931962	1589	4145	501	-6.878693	-9.763707	1.74136	0	11.51	20023	9	-13	5	5	0.02	2.571902	8	10	0.03	2000	-13.20749	40.92388	-91.39358
2932025	547	3000	-8	-4.014435	-14.91869	1.584199	0	11.51	20013	9	-13	5	5	0.02	2.544595	8	10	0.03	2000	-13.20749	40.92388	-91.39358
2932141	1531	1824	-433	-3.053691	-16.50903	1.127011	0	11.51	20009	9	-14	5	5	0.02	2.478921	8	10	0.03	2000	-14.38864	40.92388	-91.39358
2932252	1225	780	882	-0.7237629	-16.387	0.7899302	0	11.51	20034	9	-14	5	5	0.02	2.407445	8	10	0.03	2000	-15.13037	40.92388	-91.39358
2932366	-1053	-239	-1007	0.8703697	-15.19759	1.147646	0	11.51	20038	9	-14	5	5	0.02	2.365578	8	10	0.03	2000	-14.44781	40.92387	-91.39358
2932420	-1095	-2069	-1114	-0.2661899	-12.05278	1.368078	0	11.51	20029	9	-15	5	5	0.02	2.335481	8	10	0.03	2000	-12.76224	40.92387	-91.39358
2932515	305	-2408	1412	-1.521694	-7.953781	1.087667	0	11.51	20031	9	-15	5	5	0.02	2.246259	8	10	0.03	2000	-10.72421	40.92387	-91.39358
2932642	-393	-1351	-85	-2.344633	-3.229153	0.7665059	0	11.51	20020	9	-15	5	5	0.02	2.187992	8	10	0.03	2000	-9.577576	40.92387	-91.39358
2932721	-68	-428	-204	-1.423312	-2.626365	1.692918	0	11.51	20051	9	-15	5	5	0.02	2.146752	8	10	0.03	2000	-10.98453	40.92387	-91.39358
2932811	-70	-121	736	-1.493234	-1.769756	1.52726	0	11.51	20028	9	-15	5	5	0.02	2.078376	8	10	0.03	2000	-11.22327	40.92387	-91.39359
2932916	456	1233	365	-2.4458	-2.136392	1.369054	0	11.51	20006	9	-15	5	5	0.02	2.048471	8	10	0.03	2000	-12.01959	40.92387	-91.39359
