time(ms)	gyro_x(deg/s)	gyro_y(deg/s)	gyro_z(deg/s)	orientation_roll(deg)	orientation_pitch(deg)	orientation_yaw(deg)	throttle	battery(V)	loop_time(uS)	pid_output_roll	pid_output_pitch	pid_output_yaw	pid_output_throttle	ultrasonic_alt	baro_alt	flight_mode	p_gain_altitude	i_gain_altitude	d_gain_altitude	compass_heading	latitude	longitude
3455374	-8	1	4	-0.2268067	-0.2402264	-63.96511	0	11.06	20005	0	0	5	5	0.02	0.6031575	1	10	0.05	2000	1.799106	40.92396	-91.39364
3455462	-5	0	0	-0.2246877	-0.2374705	-63.96915	0	11.06	20005	0	0	5	5	0.02	0.6036271	1	10	0.05	2000	1.798022	40.92396	-91.39364
3455547	-5	0	3	-0.2308734	-0.2371526	-63.97348	0	11.06	20005	0	0	5	5	0.02	0.6100709	1	10	0.05	2000	1.803963	40.92396	-91.39364
3455651	-7	-7	4	-0.2294295	-0.2397391	-63.98019	0	11.06	20005	0	0	5	5	0.02	0.6168672	1	10	0.05	2000	1.805925	40.92396	-91.39364
3455839	-11	8	9	-0.2296003	-0.2464911	-63.98758	0	11.06	20005	0	0	5	5	0.02	0.6324289	1	10	0.05	2000	1.799747	40.92396	-91.39364
3455886	-4	1	3	-0.2346945	-0.2412918	-63.98904	0	11.11	20005	0	0	5	5	0.02	0.6329445	1	10	0.05	2000	1.599216	40.92396	-91.39364
3455956	-8	2	2	-0.2273107	-0.2448275	-63.99277	0	11.11	20005	0	0	5	5	0.02	0.6356276	1	10	0.05	2000	1.814277	40.92396	-91.39364
3456129	-15	0	1	-0.2205303	-0.2445086	-63.99777	0	11.11	20005	0	0	5	5	0.02	0.638455	1	10	0.05	2000	1.791071	40.92396	-91.39364
3456198	-4	0	6	-0.2157431	-0.2434651	-63.99979	0	11.11	20005	0	0	5	5	0.02	0.6399637	1	10	0.05	2000	1.797002	40.92396	-91.39364
3456268	-4	2	5	-0.2037817	-0.2406957	-64.00381	0	11.11	20005	0	0	5	5	0.02	0.64289	1	10	0.05	2000	1.775286	40.92396	-91.39364
3456461	-6	-4	7	-0.195328	-0.2437619	-64.01163	0	11.11	20005	0	0	5	5	0.02	0.6670917	1	10	0.05	2000	1.762319	40.92396	-91.39364
3456513	-5	1	5	-0.1963299	-0.2464893	-64.01797	0	11.11	20005	0	0	5	5	0.02	0.6685829	1	10	0.05	2000	1.758503	40.92396	-91.39364
3456571	-11	4	3	-0.1925122	-0.242449	-64.01889	0	11.11	20005	0	0	5	5	0.02	0.6712414	1	10	0.05	2000	1.758503	40.92396	-91.39364
3456672	-10	3	4	-0.1934019	-0.2382725	-64.02615	0	11.11	20005	0	0	5	5	0.02	0.6718533	1	10	0.05	2000	1.758257	40.92396	-91.39364
3456772	-5	-4	3	-0.1965401	-0.2351623	-64.03006	0	11.11	20005	0	0	5	5	0.02	0.669742	1	10	0.05	2000	1.761752	40.92396	-91.39364
3456896	-5	2	-1	-0.1837073	-0.2291758	-64.03696	0	11.06	20005	0	0	5	5	0.02	0.6771348	1	10	0.05	2000	1.746352	40.92396	-91.39364
3456975	-10	0	7	-0.1817965	-0.2237896	-64.03897	0	11.06	20005	0	0	5	5	0.02	0.6816406	1	10	0.05	2000	1.739675	40.92396	-91.39364
3457100	-5	1	1	-0.1772583	-0.2287674	-64.05197	0	11.06	20005	0	0	5	5	0.02	0.683939	1	10	0.05	2000	1.749759	40.92396	-91.39364
3457226	-5	3	2	-0.183089	-0.2282236	-64.05655	0	11.06	20005	0	0	5	5	0.02	0.6792073	1	10	0.05	2000	1.73788	40.92396	-91.39364
3457402	-2	7	1	-0.186832	-0.2317956	-64.06747	0	11.06	20005	0	0	5	5	0.02	0.6758898	1	10	0.05	2000	1.742899	40.92396	-91.39364
3457523	-13	0	0	-0.1794873	-0.2280657	-64.07486	0	11.06	20005	0	0	5	5	0.02	0.6743958	1	10	0.05	2000	1.741784	40.92396	-91.39364
3457571	-7	0	-2	-0.1821322	-0.2310254	-64.07596	0	11.06	20005	0	0	5	5	0.02	0.6751058	1	10	0.05	2000	1.737783	40.92396	-91.39364
3457675	-5	-1	3	-0.1821704	-0.2326499	-64.07736	0	11.06	20005	0	0	5	5	0.02	0.6741726	1	10	0.05	2000	1.737783	40.92396	-91.39364
3457790	-11	1	5	-0.1827191	-0.2292824	-64.08578	0	11.11	20005	0	0	5	5	0.02	0.6713337	1	10	0.05	2000	1.739227	40.92396	-91.39364
3457962	-5	0	6	-0.1854937	-0.2346598	-64.0946	0	11.11	20005	0	0	5	5	0.02	0.6694273	1	10	0.05	2000	1.750538	40.92396	-91.39364
3457998	-14	0	5	-0.1816217	-0.2331274	-64.09772	0	11.11	20005	0	0	5	5	0.02	0.6653024	1	10	0.05	2000	1.750538	40.92396	-91.39364
3458079	-8	0	9	-0.1839365	-0.2313399	-64.10419	0	11.11	20005	0	0	5	5	0.02	0.6538254	1	10	0.05	2000	1.942638	40.92396	-91.39364
3458187	-7	-5	7	-0.1788055	-0.2353638	-64.11005	0	11.11	20005	0	0	5	5	0.02	0.63607	1	10	0.05	2000	1.736016	40.92396	-91.39364
3458394	-11	4	5	-0.167369	-0.2336517	-64.12158	0	11.11	20005	0	0	5	5	0.02	0.6175166	1	10	0.05	2000	1.927028	40.92396	-91.39364
3458511	-7	-1	1	-0.1695448	-0.2329915	-64.12909	0	11.11	20005	0	0	5	5	0.02	0.5964042	1	10	0.05	2000	1.719352	40.92396	-91.39364
3458609	-1	-3	-1	-0.1771436	-0.2327995	-64.13519	0	11.11	20005	0	0	5	5	0.02	0.5849372	1	10	0.05	2000	1.733719	40.92396	-91.39364
3458744	-8	-1	1	-0.1773065	-0.2372446	-64.14111	0	11.06	20005	0	0	5	5	0.02	0.5680106	1	10	0.05	2000	1.736012	40.92396	-91.39364
3458856	-6	0	-2	-0.1733397	-0.239316	-64.14771	0	11.06	20005	0	0	5	5	0.02	0.5598209	1	10	0.05	2000	1.727469	40.92396	-91.39364
3458942	0	0	7	-0.1627587	-0.241356	-64.15491	0	11.06	20005	0	0	5	5	0.02	0.5556096	1	10	0.05	2000	1.723049	40.92396	-91.39364
3458980	-5	-3	0	-0.1617704	-0.2386199	-64.15692	0	11.06	20005	0	0	5	5	0.02	0.5541295	1	10	0.05	2000	1.714614	40.92396	-91.39364
3459167	-10	1	11	-0.1558422	-0.2372336	-64.16913	0	11.06	20005	0	0	5	5	0.02	0.5441586	1	10	0.05	2000	1.710532	40.92396	-91.39364
3459261	-8	1	2	-0.1577566	-0.2367388	-64.17255	0	11.06	20005	0	0	5	5	0.02	0.5293382	1	10	0.05	2000	1.705811	40.92396	-91.39364
3459333	-11	-5	2	-0.1602308	-0.2378221	-64.17554	0	11.06	20005	0	0	5	5	0.02	0.5214064	1	10	0.05	2000	1.695994	40.92396	-91.39364
3459431	-2	0	4	-0.1552055	-0.2364722	-64.18164	0	11.06	20005	0	0	5	5	0.02	0.5162172	1	10	0.05	2000	1.707834	40.92396	-91.39364
3459490	-8	-1	2	-0.1591045	-0.2412555	-64.18329	0	11.06	20005	0	0	5	5	0.02	0.5137984	1	10	0.05	2000	1.709469	40.92396	-91.39364
3459603	-9	1	7	-0.1594316	-0.2439578	-64.19086	0	11.06	20005	0	0	5	5	0.02	0.5096751	1	10	0.05	2000	1.713857	40.92396	-91.39364
3459697	-6	1	3	-0.1644525	-0.2477917	-64.19946	0	11.06	20005	0	0	5	5	0.02	0.5105352	1	10	0.05	2000	1.708385	40.92396	-91.39364
3459812	-9	5	-4	-0.1611023	-0.2495617	-64.2019	0	11.06	20005	0	0	5	5	0.02	0.5218595	1	10	0.05	2000	1.728591	40.92396	-91.39364
3459893	-2	2	7	-0.1592121	-0.2452215	-64.20642	0	11.06	20005	0	0	5	5	0.02	0.5261401	1	10	0.05	2000	1.704579	40.92396	-91.39364
3459995	-2	-2	1	-0.1559733	-0.2501394	-64.21143	0	11.06	20005	0	0	5	5	0.02	0.5374309	1	10	0.05	2000	1.700197	40.92396	-91.39364
3460189	-7	0	0	-0.1534816	-0.2549455	-64.21783	0	11.06	20005	0	0	5	5	0.02	0.5448651	1	10	0.05	2000	1.707089	40.92396	-91.39364
3460250	0	1	3	-0.1532346	-0.253416	-64.22491	0	11.06	20005	0	0	5	5	0.02	0.5451773	1	10	0.05	2000	1.914801	40.92396	-91.39364
3460318	-11	0	4	-0.1544857	-0.2472227	-64.22687	0	11.06	20005	0	0	5	5	0.02	0.5437312	1	10	0.05	2000	1.703355	40.92396	-91.39364
3460435	-2	4	3	-0.152053	-0.2540855	-64.23291	0	11.06	20005	0	0	5	5	0.02	0.5363598	1	10	0.05	2000	1.692455	40.92396	-91.39364
3460543	-12	1	2	-0.14632	-0.2444039	-64.23932	0	11.11	20005	0	0	5	5	0.02	0.5312577	1	10	0.05	2000	1.906676	40.92396	-91.39364
3460664	-6	1	5	-0.1500712	-0.2424944	-64.24219	0	11.11	20005	0	0	5	5	0.02	0.5302476	1	10	0.05	2000	1.695475	40.92396	-91.39364
3460811	-2	0	-1	-0.15256	-0.2418956	-64.25433	0	11.11	20005	0	0	5	5	0.02	0.5405118	1	10	0.05	2000	1.696427	40.92396	-91.39364
3460883	-7	-3	5	-0.154275	-0.2329244	-64.25836	0	11.11	20005	0	0	5	5	0.02	0.5499706	1	10	0.05	2000	1.696027	40.92396	-91.39364
3460958	0	-3	3	-0.1471972	-0.2375761	-64.26434	0	11.11	20005	0	0	5	5	0.02	0.5537148	1	10	0.05	2000	1.894195	40.92395	-91.39364
3461036	-4	-1	0	-0.1508884	-0.2389018	-64.26801	0	11.11	20005	0	0	5	5	0.02	0.559794	1	10	0.05	2000	1.697932	40.92395	-91.39364
3461154	-3	2	0	-0.1434695	-0.2414332	-64.27631	0	11.11	20005	0	0	5	5	0.02	0.5587006	1	10	0.05	2000	1.694028	40.92395	-91.39364
3461236	-6	0	3	-0.1389875	-0.2435494	-64.27985	0	11.11	20005	0	0	5	5	0.02	0.5593112	1	10	0.05	2000	1.679748	40.92395	-91.39364
3461286	-3	0	5	-0.142476	-0.2407902	-64.28217	0	11.11	20005	0	0	5	5	0.02	0.5590277	1	10	0.05	2000	1.679748	40.92395	-91.39364
3461454	-3	0	0	-0.1392637	-0.2411283	-64.28894	0	11.11	20005	0	0	5	5	0.02	0.5592361	1	10	0.05	2000	1.675096	40.92395	-91.39364
3461508	-2	5	1	-0.1389147	-0.2406279	-64.28967	0	11.11	20005	0	0	5	5	0.02	0.5613168	1	10	0.05	2000	1.676475	40.92395	-91.39364
3461608	-2	-6	6	-0.1451131	-0.2403172	-64.29407	0	11.11	20005	0	0	5	5	0.02	0.5637383	1	10	0.05	2000	1.906338	40.92395	-91.39364
3461703	0	1	5	-0.1455664	-0.2454254	-64.30048	0	11.11	20005	0	0	5	5	0.02	0.562971	1	10	0.05	2000	1.899161	40.92395	-91.39364
3461841	-4	0	0	-0.1438684	-0.245374	-64.30438	0	11.11	20005	0	0	5	5	0.02	0.5599248	1	10	0.05	2000	1.895644	40.92395	-91.39364
3461909	-1	-3	0	-0.1366725	-0.2402178	-64.30853	0	11.11	20005	0	0	5	5	0.02	0.5560061	1	10	0.05	2000	1.677925	40.92395	-91.39364
3462035	-3	-6	3	-0.1355149	-0.2361379	-64.31232	0	11.11	20005	0	0	5	5	0.02	0.5572052	1	10	0.05	2000	1.678321	40.92395	-91.39364
3462097	-5	-6	2	-0.1346539	-0.2333654	-64.31348	0	11.11	20005	0	0	5	5	0.02	0.5577241	1	10	0.05	2000	1.670086	40.92395	-91.39364
3462201	5	8	-1	-0.1292557	-0.2364796	-64.32007	0	11.11	20005	0	0	5	5	0.02	0.5540107	1	10	0.05	2000	1.670409	40.92395	-91.39364
3462342	0	0	5	-0.1220663	-0.2417877	-64.32587	0	11.06	20005	0	0	5	5	0.02	0.5522567	1	10	0.05	2000	1.660609	40.92395	-91.39364
3462439	4	1	2	-0.1206101	-0.2392563	-64.32819	0	11.06	20005	0	0	5	5	0.02	0.5556629	1	10	0.05	2000	1.649862	40.92395	-91.39364
3462572	3	-5	4	-0.1142704	-0.2392598	-64.33258	0	11.06	20005	0	0	5	5	0.02	0.555349	1	10	0.05	2000	1.641824	40.92395	-91.39364
3462642	-2	1	4	-0.1132376	-0.2418288	-64.33423	0	11.06	20005	0	0	5	5	0.02	0.5450525	1	10	0.05	2000	1.647583	40.92395	-91.39364
3462707	6	-4	-3	-0.1125088	-0.2440426	-64.33557	0	11.06	20005	0	0	5	5	0.02	0.5418481	1	10	0.05	2000	1.857108	40.92395	-91.39364
3462840	1	0	4	-0.114164	-0.2356533	-64.33978	0	11.06	20005	0	0	5	5	0.02	0.523025	1	10	0.05	2000	1.641338	40.92395	-91.39364
3462913	-2	-1	-1	-0.1122494	-0.2339411	-64.34326	0	11.06	20005	0	0	5	5	0.02	0.5151088	1	10	0.05	2000	1.63607	40.92395	-91.39364
3463068	-4	2	0	-0.105413	-0.2387887	-64.34875	0	11.06	20005	0	0	5	5	0.02	0.5108033	1	10	0.05	2000	1.633545	40.92395	-91.39364
3463140	7	0	2	-0.09644376	-0.2399264	-64.35059	0	11.06	20005	0	0	5	5	0.02	0.5133873	1	10	0.05	2000	1.619866	40.92395	-91.39364
3463258	0	-4	-1	-0.09200713	-0.2389056	-64.35565	0	11.11	20005	0	0	5	5	0.02	0.5178955	1	10	0.05	2000	1.826954	40.92395	-91.39364
3463342	6	1	2	-0.09502409	-0.2395825	-64.36285	0	11.11	20005	0	0	5	5	0.02	0.5245009	1	10	0.05	2000	1.612205	40.92395	-91.39364
3463414	-1	1	7	-0.09395824	-0.2391128	-64.36487	0	11.11	20005	0	0	5	5	0.02	0.5331634	1	10	0.05	2000	1.606378	40.92395	-91.39364
3463565	0	0	4	-0.09532606	-0.237419	-64.37219	0	11.11	20005	0	0	5	5	0.02	0.5409263	1	10	0.05	2000	1.617164	40.92395	-91.39364
3463669	-2	2	5	-0.09538328	-0.2352204	-64.37494	0	11.11	20005	0	0	5	5	0.02	0.5409474	1	10	0.05	2000	1.618345	40.92395	-91.39364
3463723	2	0	0	-0.09530013	-0.2325118	-64.37573	0	11.11	20005	0	0	5	5	0.02	0.5403817	1	10	0.05	2000	1.618345	40.92395	-91.39364
3463888	6	4	4	-0.08609471	-0.2344498	-64.38123	0	11.11	20005	0	0	5	5	0.02	0.5457512	1	10	0.05	2000	1.605143	40.92395	-91.39364
3464001	1	2	1	-0.08099225	-0.2351353	-64.38513	0	11.11	20005	0	0	5	5	0.02	0.5440848	1	10	0.05	2000	1.593125	40.92395	-91.39364
3464073	7	0	-3	-0.07654397	-0.2362572	-64.38684	0	11.11	20005	0	0	5	5	0.02	0.537428	1	10	0.05	2000	1.595763	40.92395	-91.39364
3464174	2	-4	7	-0.0739729	-0.2397822	-64.39056	0	11.06	20005	0	0	5	5	0.02	0.5355333	1	10	0.05	2000	1.588193	40.92395	-91.39364
3464317	7	0	8	-0.06556035	-0.2409016	-64.39972	0	11.06	20005	0	0	5	5	0.02	0.5358254	1	10	0.05	2000	1.579952	40.92395	-91.39364
3464376	-2	-9	7	-0.06044657	-0.2402772	-64.40289	0	11.06	20005	0	0	5	5	0.02	0.5346514	1	10	0.05	2000	1.564556	40.92395	-91.39364
3464483	11	3	4	-0.06858387	-0.2453813	-64.40607	0	11.06	20005	0	0	5	5	0.02	0.5303537	1	10	0.05	2000	1.778299	40.92395	-91.39364
3464590	-2	3	0	-0.06160612	-0.2496669	-64.41101	0	11.06	20005	0	0	5	5	0.02	0.5243246	1	10	0.05	2000	1.56868	40.92395	-91.39364
3464690	-2	2	3	-0.05987577	-0.2531348	-64.41437	0	11.06	20005	0	0	5	5	0.02	0.5206206	1	10	0.05	2000	1.562405	40.92395	-91.39364
3464780	11	0	1	-0.06396073	-0.2550736	-64.4187	0	11.06	20005	0	0	5	5	0.02	0.5138465	1	10	0.05	2000	1.57416	40.92395	-91.39364
3464887	5	-3	0	-0.06169298	-0.2568657	-64.4234	0	11.06	20005	0	0	5	5	0.02	0.5103647	1	10	0.05	2000	1.569239	40.92395	-91.39364
3464990	4	0	7	-0.06333526	-0.2591251	-64.42773	0	11.06	20005	0	0	5	5	0.02	0.5041092	1	10	0.05	2000	1.573154	40.92395	-91.39364
3465086	4	1	0	-0.06548971	-0.2582148	-64.43066	0	11.11	20005	0	0	5	5	0.02	0.5061554	1	10	0.05	2000	1.782827	40.92395	-91.39364
3465231	0	0	-1	-0.05573086	-0.262851	-64.43604	0	11.11	20005	0	0	5	5	0.02	0.5179173	1	10	0.05	2000	1.562275	40.92395	-91.39364
3465310	6	1	3	-0.05262933	-0.2637408	-64.43829	0	11.11	20005	0	0	5	5	0.02	0.526042	1	10	0.05	2000	1.555113	40.92395	-91.39364
3465490	11	1	4	-0.05106986	-0.263098	-64.44116	0	11.11	20005	0	0	5	5	0.02	0.5417178	1	10	0.05	2000	1.565204	40.92395	-91.39364
3465585	12	0	3	-0.04635252	-0.2587921	-64.44507	0	11.11	20005	0	0	5	5	0.02	0.5501833	1	10	0.05	2000	1.76107	40.92395	-91.39364
3465711	8	0	0	-0.04250062	-0.2574994	-64.44739	0	11.11	20005	0	0	5	5	0.02	0.5767657	1	10	0.05	2000	1.755997	40.92395	-91.39364
3465775	7	-1	0	-0.03736416	-0.2611467	-64.44971	0	11.11	20005	0	0	5	5	0.02	0.5829188	1	10	0.05	2000	1.537978	40.92395	-91.39364
3465943	4	0	0	-0.02908638	-0.2656232	-64.45398	0	11.11	20005	0	0	5	5	0.02	0.6029371	1	10	0.05	2000	1.732251	40.92395	-91.39363
3465998	9	0	0	-0.01789387	-0.2661296	-64.45581	0	11.11	20005	0	0	5	5	0.02	0.6054994	1	10	0.05	2000	1.510173	40.92395	-91.39363
3466081	10	0	1	-0.01667272	-0.2634919	-64.46039	0	11.11	20005	0	0	5	5	0.02	0.6079797	1	10	0.05	2000	1.507924	40.92395	-91.39363
3466185	0	0	-1	-0.0200604	-0.2658743	-64.46161	0	11.11	20005	0	0	5	5	0.02	0.6144267	1	10	0.05	2000	1.503228	40.92395	-91.39363
3466328	6	-2	-2	-0.01915654	-0.27011	-64.46863	0	11.11	20005	0	0	5	5	0.02	0.6272079	1	10	0.05	2000	1.516807	40.92395	-91.39363
3466429	9	-1	10	-0.01900175	-0.2705143	-64.47394	0	11.11	20005	0	0	5	5	0.02	0.631978	1	10	0.05	2000	1.511552	40.92395	-91.39363
3466490	6	10	0	-0.01894192	-0.2765367	-64.47504	0	11.11	20005	0	0	5	5	0.02	0.6338702	1	10	0.05	2000	1.508919	40.92395	-91.39363
3466578	11	2	4	-0.009770013	-0.275785	-64.47491	0	11.11	20005	0	0	5	5	0.02	0.6393461	1	10	0.05	2000	1.492714	40.92395	-91.39363
3466756	9	0	-1	-0.006294265	-0.2825263	-64.47852	0	11.11	20005	0	0	5	5	0.02	0.6482537	1	10	0.05	2000	1.48379	40.92395	-91.39363
3466836	13	0	6	-0.005200439	-0.2798582	-64.48138	0	11.11	20005	0	0	5	5	0.02	0.6567465	1	10	0.05	2000	1.488901	40.92395	-91.39363
3466879	10	2	4	-0.001496244	-0.2769723	-64.48267	0	11.17	20005	0	0	5	5	0.02	0.6645878	1	10	0.05	2000	1.488901	40.92395	-91.39363
3466980	6	1	1	-0.0002454616	-0.2753461	-64.4834	0	11.17	20005	0	0	5	5	0.02	0.6712794	1	10	0.05	2000	1.696223	40.92395	-91.39363
3467120	2	2	0	0.002514685	-0.2745892	-64.49011	0	11.17	20005	0	0	5	5	0.02	0.6727896	1	10	0.05	2000	1.475162	40.92395	-91.39363
3467174	14	1	1	0.003318832	-0.2716314	-64.492	0	11.17	20005	0	0	5	5	0.02	0.6664319	1	10	0.05	2000	1.479589	40.92395	-91.39363
3467280	14	-7	7	0.01237915	-0.2702777	-64.49603	0	11.17	20005	0	0	5	5	0.02	0.6603944	1	10	0.05	2000	1.463803	40.92395	-91.39363
3467379	4	2	1	0.01528988	-0.265224	-64.49738	0	11.17	20005	0	0	5	5	0.02	0.6582526	1	10	0.05	2000	1.463803	40.92395	-91.39363
3467571	7	-7	-1	0.02050508	-0.2747011	-64.50824	0	11.17	20005	0	0	5	5	0.02	0.6505976	1	10	0.05	2000	1.456799	40.92395	-91.39363
3467605	15	-5	-10	0.02330591	-0.2753041	-64.50781	0	11.17	20005	0	0	5	5	0.02	0.6499915	1	10	0.05	2000	1.663646	40.92395	-91.39363
3467683	7	-2	3	0.02310209	-0.2762339	-64.5116	0	11.17	20005	0	0	5	5	0.02	0.6454794	1	10	0.05	2000	1.446471	40.92395	-91.39363
3467787	15	0	-1	0.02574776	-0.2724649	-64.51422	0	11.17	20005	0	0	5	5	0.02	0.6388795	1	10	0.05	2000	1.648072	40.92395	-91.39363
3467889	7	-2	4	0.02556121	-0.2699879	-64.51654	0	11.17	20005	0	0	5	5	0.02	0.6257212	1	10	0.05	2000	1.444085	40.92395	-91.39363
3468032	14	2	5	0.02966991	-0.2736674	-64.52075	0	11.17	20005	0	0	5	5	0.02	0.6126928	1	10	0.05	2000	1.44613	40.92395	-91.39363
3468144	9	0	3	0.03765989	-0.2724918	-64.52692	0	11.17	20005	0	0	5	5	0.02	0.6029914	1	10	0.05	2000	1.431534	40.92395	-91.39363
3468231	13	1	-8	0.03633066	-0.2668828	-64.52948	0	11.17	20005	0	0	5	5	0.02	0.5896014	1	10	0.05	2000	1.643522	40.92395	-91.39363
3468305	10	4	2	0.0388275	-0.2629734	-64.53107	0	11.17	20005	0	0	5	5	0.02	0.5843991	1	10	0.05	2000	1.43217	40.92395	-91.39363
3468389	14	2	2	0.03498554	-0.2636245	-64.53302	0	11.17	20005	0	0	5	5	0.02	0.5798096	1	10	0.05	2000	1.431502	40.92395	-91.39363
3468501	8	3	0	0.03053942	-0.2689261	-64.53619	0	11.17	20005	0	0	5	5	0.02	0.5699692	1	10	0.05	2000	1.440618	40.92395	-91.39363
3468597	12	0	3	0.03185219	-0.2665835	-64.53918	0	11.17	20005	0	0	5	5	0.02	0.5736042	1	10	0.05	2000	1.440618	40.92395	-91.39363
3468747	6	-3	0	0.03089253	-0.2611448	-64.54089	0	11.11	20005	0	0	5	5	0.02	0.584587	1	10	0.05	2000	1.433433	40.92395	-91.39363
3468800	4	-3	0	0.0286897	-0.2593597	-64.54205	0	11.11	20005	0	0	5	5	0.02	0.5932381	1	10	0.05	2000	1.433433	40.92395	-91.39363
3468904	13	0	0	0.03033555	-0.2639216	-64.54565	0	11.11	20005	0	0	5	5	0.02	0.600391	1	10	0.05	2000	1.433344	40.92395	-91.39363
3469032	11	-1	4	0.03376827	-0.2641081	-64.54974	0	11.11	20005	0	0	5	5	0.02	0.6095278	1	10	0.05	2000	1.434873	40.92395	-91.39363
3469144	16	-2	0	0.03351655	-0.2646773	-64.55273	0	11.11	20005	0	0	5	5	0.02	0.6109409	1	10	0.05	2000	1.439774	40.92395	-91.39363
3469245	17	-1	5	0.04071847	-0.2669214	-64.55634	0	11.11	20005	0	0	5	5	0.02	0.6236532	1	10	0.05	2000	1.42304	40.92395	-91.39363
3469303	19	-7	-1	0.03883448	-0.2704683	-64.55682	0	11.11	20005	0	0	5	5	0.02	0.6286481	1	10	0.05	2000	1.42304	40.92395	-91.39363
3469469	11	1	0	0.03553253	-0.2685942	-64.56122	0	11.11	20005	0	0	5	5	0.02	0.637902	1	10	0.05	2000	1.421649	40.92395	-91.39363
3469570	11	5	0	0.03893486	-0.2777237	-64.56311	0	11.11	20005	0	0	5	5	0.02	0.6410315	1	10	0.05	2000	1.428931	40.92395	-91.39363
3469663	8	0	-2	0.04268834	-0.2851242	-64.56427	0	11.11	20005	0	0	5	5	0.02	0.6407487	1	10	0.05	2000	1.422615	40.92395	-91.39363
3469718	15	1	3	0.04369995	-0.2855127	-64.56415	0	11.11	20005	0	0	5	5	0.02	0.6377122	1	10	0.05	2000	1.420232	40.92395	-91.39363
3469803	14	3	0	0.04675291	-0.2855543	-64.56714	0	11.11	20005	0	0	5	5	0.02	0.6348053	1	10	0.05	2000	1.418635	40.92395	-91.39363
3469893	14	-5	-3	0.05118646	-0.283323	-64.5708	0	11.11	20005	0	0	5	5	0.02	0.6278899	1	10	0.05	2000	1.408042	40.92395	-91.39363
3469999	10	-6	4	0.05803091	-0.2842763	-64.57269	0	11.11	20005	0	0	5	5	0.02	0.6161122	1	10	0.05	2000	1.617036	40.92395	-91.39363
3470094	13	0	-1	0.05971284	-0.2859258	-64.57507	0	11.11	20005	0	0	5	5	0.02	0.605191	1	10	0.05	2000	1.400215	40.92395	-91.39363
3470197	18	3	1	0.05262923	-0.2823472	-64.57635	0	11.11	20005	0	0	5	5	0.02	0.5958644	1	10	0.05	2000	1.3977	40.92395	-91.39363
3470341	9	0	-1	0.05793286	-0.2878221	-64.57788	0	11.11	20005	0	0	5	5	0.02	0.5825188	1	10	0.05	2000	1.610009	40.92395	-91.39363
3470394	10	-2	3	0.05500263	-0.2816626	-64.58057	0	11.11	20005	0	0	5	5	0.02	0.5746127	1	10	0.05	2000	1.611814	40.92395	-91.39363
3470494	13	0	-3	0.05391597	-0.2744277	-64.58374	0	11.11	20005	0	0	5	5	0.02	0.5662245	1	10	0.05	2000	1.611814	40.92395	-91.39363
3470594	14	0	0	0.05775237	-0.2785741	-64.58746	0	11.11	20005	0	0	5	5	0.02	0.560194	1	10	0.05	2000	1.611268	40.92395	-91.39363
3470727	16	-3	7	0.05707555	-0.2788418	-64.59381	0	11.11	20005	0	0	5	5	0.02	0.5603675	1	10	0.05	2000	1.400588	40.92395	-91.39363
3470797	6	-4	4	0.05854474	-0.2803518	-64.59766	0	11.11	20005	0	0	5	5	0.02	0.5603996	1	10	0.05	2000	1.403757	40.92395	-91.39363
3470926	11	-1	-1	0.06920028	-0.2758683	-64.60089	0	11.11	20005	0	0	5	5	0.02	0.5580808	3	10	0.05	2000	1.389602	40.92395	-91.39363
3471013	7	-4	0	0.06964981	-0.2793313	-64.60132	0	11.11	20005	0	0	5	5	0.02	0.5546299	3	10	0.05	2000	1.592933	40.92395	-91.39363
3471095	13	-6	0	0.06942321	-0.27565	-64.6048	0	11.11	20005	0	0	5	5	0.02	0.5542816	3	10	0.05	2000	1.386984	40.92395	-91.39363
3471282	20	1	0	0.07277466	-0.2804209	-64.60803	0	11.11	20005	0	0	5	5	0.02	0.5468608	3	10	0.05	2000	1.596506	40.92395	-91.39363
3471330	17	-4	7	0.06761316	-0.2795373	-64.61011	0	11.11	20005	0	0	5	5	0.02	0.5452501	3	10	0.05	2000	1.38518	40.92395	-91.39363
3471394	10	0	0	0.06435116	-0.2811703	-64.61151	0	11.11	20005	0	0	5	5	0.02	0.548101	3	10	0.05	2000	1.384623	40.92395	-91.39363
3471564	11	2	6	0.07357139	-0.286679	-64.61908	0	11.11	20005	0	0	5	5	0.02	0.5462313	3	10	0.05	2000	1.600238	40.92395	-91.39363
3471650	22	1	-2	0.07114047	-0.2872941	-64.62103	0	11.11	20005	0	0	5	5	0.02	0.5421393	3	10	0.05	2000	1.373007	40.92395	-91.39363
3471705	15	2	2	0.07168587	-0.285496	-64.62152	0	11.11	20005	0	0	5	5	0.02	0.5351256	3	10	0.05	2000	1.373007	40.92395	-91.39363
3471845	13	-3	0	0.07440072	-0.2767817	-64.62341	0	11.11	20005	0	0	5	5	0.02	0.5286704	3	10	0.05	2000	1.591762	40.92395	-91.39363
3471930	12	-3	2	0.07603885	-0.2752832	-64.62402	0	11.11	20005	0	0	5	5	0.02	0.5221136	3	10	0.05	2000	1.374541	40.92395	-91.39363
3472008	22	2	0	0.07631092	-0.2749675	-64.62482	0	11.11	20005	0	0	5	5	0.02	0.5235924	3	10	0.05	2000	1.583852	40.92395	-91.39363
3472153	17	2	-5	0.07912339	-0.2813762	-64.62708	0	11.11	20005	0	0	5	5	0.02	0.534211	3	10	0.05	2000	1.372773	40.92395	-91.39363
3472292	14	3	0	0.08200043	-0.2819548	-64.6275	0	11.11	20005	0	0	5	5	0.02	0.5464562	3	10	0.05	2000	1.357552	40.92395	-91.39363
3472357	19	0	1	0.08070457	-0.2827352	-64.62799	0	11.11	20005	0	0	5	5	0.02	0.5564603	3	10	0.05	2000	1.361765	40.92395	-91.39363
3472471	13	-1	2	0.08742321	-0.2784437	-64.63129	0	11.06	20005	0	0	5	5	0.02	0.5660985	3	10	0.05	2000	1.356552	40.92395	-91.39362
3472559	15	1	-1	0.09689964	-0.27717	-64.63489	0	11.06	20005	0	0	5	5	0.02	0.5764443	3	10	0.05	2000	1.340873	40.92395	-91.39362
3472608	19	3	0	0.1043963	-0.2760313	-64.63562	0	11.06	20005	0	0	5	5	0.02	0.5948421	3	10	0.05	2000	1.3398	40.92395	-91.39362
3472680	14	6	0	0.1028222	-0.2750379	-64.64014	0	11.06	20005	0	0	5	5	0.02	0.6141864	3	10	0.05	2000	1.543382	40.92395	-91.39362
3472744	17	1	1	0.1014637	-0.277296	-64.63971	0	11.06	20005	0	0	5	5	0.02	0.6211537	3	10	0.05	2000	1.333843	40.92395	-91.39362
3472857	8	-2	1	0.1079433	-0.2745294	-64.64093	0	11.06	20005	0	0	5	5	0.02	0.6288727	3	10	0.05	2000	1.33584	40.92395	-91.39362
3472927	37	-15	-23	0.1065673	-0.2724785	-64.64833	0	11.06	20005	0	0	5	5	0.02	0.63648	3	10	0.05	2000	1.320014	40.92395	-91.39362
3472993	23	-23	-5	0.1161594	-0.2686253	-64.64178	0	11.06	20005	0	0	5	5	0.02	0.6406927	3	10	0.05	2000	1.33102	40.92395	-91.39362
3473097	36	-11	-178	0.1259723	-0.2520556	-64.61047	0	11.06	20005	0	0	5	5	0.02	0.6478437	3	10	0.05	2000	1.855004	40.92395	-91.39362
3473196	4	63	96	0.08810937	-0.2607349	-64.65898	0	10.77	20005	0	0	5	5	0.02	0.6647598	3	10	0.05	2000	1.852635	40.92395	-91.39362
3473347	48	-32	60	0.257288	-0.1148999	-64.64072	0	10.77	20005	0	0	5	5	0.02	0.6751602	3	10	0.05	2000	1.39764	40.92395	-91.39362
3473393	14	42	0	0.2463764	-0.1319843	-64.65229	0	10.77	20005	0	0	5	5	0.02	0.6858449	3	10	0.05	2000	1.39764	40.92395	-91.39362
3473540	42	-47	21	0.2964406	-0.09998642	-64.63343	0	10.77	20005	0	0	5	5	0.02	0.6994724	3	10	0.05	2000	1.149264	40.92395	-91.39362
3473593	133	48	-113	0.3137547	-0.1008478	-64.63435	0	10.77	20005	0	0	5	5	0.02	0.6961293	3	10	0.05	2000	1.149264	40.92395	-91.39362
3473696	-69	38	-96	0.3147782	-0.1001334	-64.63538	0	10.77	20005	0	0	5	5	0.02	0.6981725	3	10	0.05	2000	1.912191	40.92395	-91.39362
3473834	-18	-64	83	0.3410697	-0.06479368	-64.6459	0	10.77	20005	0	0	5	5	0.02	0.708675	3	10	0.05	2000	1.047168	40.92395	-91.39362
3473969	154	17	-126	0.3463842	-0.08820532	-64.65338	0	10.77	20005	0	0	5	5	0.02	0.7252383	3	10	0.05	2000	1.646282	40.92395	-91.39362
3474015	-70	38	52	0.3278285	-0.08270353	-64.66074	0	10.77	20005	0	0	5	5	0.02	0.7262119	3	10	0.05	2000	1.003315	40.92395	-91.39362
3474098	119	-104	125	0.3405957	-0.07886016	-64.66252	0	11.11	20005	0	0	5	5	0.02	0.7292628	3	10	0.05	2000	1.439503	40.92395	-91.39362
3474175	-71	-41	21	0.3042346	-0.0752269	-64.65598	0	11.11	20005	0	0	5	5	0.02	0.7298213	3	10	0.05	2000	1.436377	40.92395	-91.39362
3474299	9	142	-172	0.3184637	-0.07262585	-64.6582	0	11.11	20005	0	0	5	5	0.02	0.7182907	3	10	0.05	2000	1.496617	40.92395	-91.39362
3474368	22	122	202	0.3171143	-0.02598269	-64.66351	0	11.11	20005	0	0	5	5	0.02	0.7083402	3	10	0.05	2000	0.7863184	40.92395	-91.39362
3474535	143	-129	234	0.3902607	-0.009272056	-64.66381	0	11.11	20005	0	0	5	5	0.02	0.6880835	3	10	0.05	2000	0.8201581	40.92395	-91.39362
3474701	39	-24	-324	0.4067514	0.04165635	-64.65507	0	11.11	20005	0	0	5	5	0.02	0.6719488	3	10	0.05	2000	0.9069912	40.92395	-91.39362
3474794	8	-83	536	0.3265306	0.04252295	-64.66975	0	11.11	20005	0	0	5	5	0.02	0.6657036	3	10	0.05	2000	1.870571	40.92395	-91.39362
3474868	-243	85	-203	0.3470667	0.02270488	-64.67001	0	11.11	20005	0	0	5	5	0.02	0.670229	3	10	0.05	2000	1.492766	40.92395	-91.39362
3475096	189	34	-182	0.3379531	-0.0102524	-64.72079	0	10.43	20005	0	0	5	5	0.03110511	0.6950724	6	10	0.05	2000	1.452628	40.92395	-91.39362
3475165	-33	100	-94	0.3082518	-0.00662597	-64.75748	0	10.43	20005	0	0	5	5	0.03519016	0.7048528	6	10	0.05	2000	1.478689	40.92395	-91.39362
3475339	23	180	-267	0.3291205	-0.1048702	-64.82303	0	10.43	20005	0	0	5	5	0.04083471	0.7162821	6	10	0.05	2000	2.159926	40.92395	-91.39362
3475384	1	35	80	0.2655515	-0.1767678	-64.81874	0	10.43	20005	0	0	5	5	0.04288591	0.7223892	6	10	0.05	2000	1.884089	40.92395	-91.39362
3475541	140	-131	-38	0.3727337	-0.1176593	-64.7993	0	10.43	20005	0	0	5	5	0.04585611	0.7306982	6	10	0.05	2000	1.414126	40.92395	-91.39362
3475582	160	-105	-426	0.3559764	-0.04286837	-64.84317	0	10.43	20005	0	0	5	5	0.04730996	0.7351208	6	10	0.05	2000	0.9746105	40.92395	-91.39362
3475677	184	-298	-4	0.3065862	0.001093264	-65.09348	0	10.43	20005	0	0	5	5	0.04675876	0.7400718	6	10	0.05	2000	2.114949	40.92395	-91.39362
3475824	166	27	-91	0.4426089	0.1291212	-64.90504	0	10.43	20005	0	0	5	5	0.04751574	0.7463	6	10	0.05	2000	0.9281349	40.92395	-91.39362
3475931	-226	-669	-419	0.1704275	0.7629451	-63.96883	0	10.77	20005	0	0	5	5	0.04925523	0.7576224	6	10	0.05	2000	1.402805	40.92395	-91.39362
3476003	-26	-1092	-210	0.1653799	1.162822	-63.68366	0	10.77	20005	0	0	5	5	0.04889019	0.7630883	6	10	0.05	2000	1.402805	40.92395	-91.39362
3476093	-379	-1237	882	-1.509168	4.476767	-63.57132	0	10.77	20005	0	0	5	5	0.04918104	0.7694261	6	10	0.05	2000	1.822438	40.92395	-91.39362
3476212	1164	1164	44	-1.136263	4.770548	-64.43949	0	10.77	20005	0	0	5	5	0.05240703	0.7980409	6	10	0.05	2000	2.253088	40.92395	-91.39362
3476358	-999	492	-554	0.3506785	0.1909711	-64.69229	0	10.77	20005	0	0	5	5	0.05717485	0.8188435	6	10	0.05	2000	2.683462	40.92395	-91.39362
3476480	691	1669	-940	-0.1985118	-1.42472	-63.55217	0	10.77	20005	0	0	5	5	0.08608894	0.8321159	6	10	0.05	2000	4.045599	40.92395	-91.39362
3476525	432	761	-108	-0.142449	-2.953448	-63.32354	0	10.77	20005	0	0	5	5	0.1062924	0.8379869	6	10	0.05	2000	2.510729	40.92395	-91.39362
3476618	-339	-828	234	-1.857653	-1.309258	-63.21248	0	10.77	20005	0	0	5	5	0.1419475	0.8502185	6	10	0.05	2000	2.854845	40.92395	-91.39362
3476675	-359	-1438	163	-2.123027	-0.7821205	-63.29283	0	10.77	20005	0	0	5	5	0.1996937	0.8665441	6	10	0.05	2000	2.48379	40.92395	-91.39362
3476778	3198	-1743	764	0.6796458	-1.419106	-63.53853	0	10.77	20030	-3	-9	5	5	0.1960484	0.8859993	8	10	0.05	2000	3.88659	40.92395	-91.39362
3476902	1317	1419	-1084	-0.8387054	0.7287177	-65.12768	0	10.04	20021	-19	1	5	5	0.1286274	0.924608	8	10	0.05	2000	3.345299	40.92394	-91.39362
3476962	2317	3972	-608	0.3351512	-0.5767232	-64.83502	0	10.04	20054	-22	5	5	5	0.09376936	0.9567553	8	10	0.05	2000	4.75419	40.92394	-91.39362
3477069	1476	1569	-964	-0.1958346	-4.572296	-64.32483	0	10.04	20026	-17	0	5	5	0.07595318	0.9870052	8	10	0.05	2000	5.650058	40.92394	-91.39362
3477174	-1336	-1947	-628	-0.5526505	-0.9245312	-62.11501	0	10.04	20056	-17	3	5	5	0.05536987	1.046111	8	10	0.05	2000	4.230544	40.92394	-91.39362
3477287	797	-780	220	-0.9443747	0.7594007	-62.38883	0	10.04	20007	-12	-1	5	5	0.03632817	1.121179	8	10	0.05	2000	3.87597	40.92394	-91.39362
3477486	12	289	302	-0.9180226	2.685587	-64.15395	0	10.04	20008	12	-13	5	5	0.02	1.403014	8	10	0.05	2000	5.835288	40.92394	-91.39362
3477579	-1010	47	-959	-2.449732	1.820364	-64.04887	0	10.04	20039	22	-17	5	5	0.02	1.445426	8	10	0.05	2000	6.88727	40.92394	-91.39362
3477697	197	684	-866	-1.509453	-1.277883	-63.16251	0	10.04	20036	34	-19	5	5	0.02	1.63073	8	10	0.05	2000	5.028192	40.92394	-91.39362
3477823	-844	-956	870	-2.780547	-0.633467	-63.60378	0	10.83	20032	45	-19	5	5	0.02	1.864717	8	10	0.05	2000	4.054552	40.92394	-91.39362
3477881	-1466	-1285	567	-4.641133	1.203381	-64.18026	0	10.83	20033	45	-19	5	5	0.02	1.895732	8	10	0.05	2000	5.00527	40.92394	-91.39362
3478017	383	1364	-1153	-2.232406	-1.134115	-63.84949	0	10.83	20012	57	-15	5	5	0.02	2.147345	8	10	0.05	2000	3.474034	40.92394	-91.39361
3478098	-121	506	537	-1.668144	-2.775839	-63.62354	0	10.83	20057	50	-12	5	5	0.02	2.208397	8	10	0.05	2000	3.710208	40.92394	-91.39361
3478218	-703	-541	930	-1.721897	-3.784604	-63.91473	0	10.83	20045	55	-8	5	5	0.02	2.407289	8	10	0.05	2000	1.992982	40.92394	-91.39361
3478238	-594	-562	491	-1.721897	-3.784604	-63.91473	0	10.83	20045	55	-8	5	5	0.02	2.440168	8	10	0.05	2000	1.992982	40.92394	-91.39361
3478335	-291	737	1227	-2.198791	-3.316264	-64.0873	0	10.83	20048	65	-8	5	5	0.02	2.496311	8	10	0.05	2000	1.698816	40.92394	-91.3936
3478441	-2191	-1869	932	-3.997888	-2.727925	-64.24091	0	10.83	20056	58	-8	5	5	0.02	2.715455	8	10	0.05	2000	0.6514205	40.92394	-91.3936
3478557	1937	1315	-613	-4.300093	-2.431109	-63.79082	0	10.83	20020	69	-8	5	5	0.02	2.766371	8	10	0.05	2000	-0.2700195	40.92394	-91.3936
3478641	-551	496	-876	-2.460895	-4.40123	-63.26957	0	9.98	20032	58	-8	5	5	0.02	2.864436	8	10	0.05	2000	-3.846222	40.92394	-91.3936
3478778	-1380	-2814	232	-5.133859	-0.7656254	-63.46077	0	9.98	20009	53	-8	5	5	0.02	3.065079	8	10	0.05	2000	-3.83725	40.92394	-91.3936
3478866	1495	906	1206	-4.830582	-0.5689756	-63.94416	0	9.98	20032	53	-8	5	5	0.02	3.09864	8	10	0.05	2000	-2.667847	40.92394	-91.3936
3479002	-1723	113	1709	-5.315845	-0.3282941	-64.61063	0	9.98	20035	61	-13	5	5	0.02	3.210946	8	10	0.05	2000	-4.7742	40.92394	-91.3936
3479084	118	-408	333	-5.853942	-0.5751203	-64.86743	0	9.98	20030	67	-13	5	5	0.02	3.266847	8	10	0.05	2000	-4.660919	40.92394	-91.39359
3479249	1195	524	-1140	-4.375083	0.2409332	-64.41171	0	9.98	20036	60	-18	5	5	0.02	3.404722	8	10	0.05	2000	-7.956146	40.92394	-91.39359
3479365	-290	-833	-1252	-5.069524	-1.381563	-63.6581	0	9.98	20027	56	-18	5	5	0.02	3.496734	8	10	0.05	2000	-9.334503	40.92394	-91.39359
3479487	-229	723	218	-5.081444	-1.276494	-64.03695	0	9.98	20007	61	-24	5	5	0.02	3.554667	8	10	0.05	2000	-9.848633	40.92393	-91.39359
3479582	389	-860	-89	-5.166596	-2.161676	-64.71337	0	10.89	20033	51	-25	5	5	0.02	3.628733	8	10	0.05	2000	-12.68631	40.92393	-91.39359
3479663	477	-609	-590	-4.207867	-1.245516	-64.60853	0	10.89	20065	51	-25	5	5	0.02	3.670507	8	10	0.05	2000	-13.46869	40.92393	-91.39359
3479836	-759	39	-488	-4.45601	-1.617298	-64.24213	0	10.89	24016	42	-31	5	5	0.02	3.76579	8	10	0.05	2000	-13.46301	40.92393	-91.39359
3479867	145	1498	244	-4.582397	-1.86799	-64.23322	0	10.89	20037	42	-31	5	5	0.02	3.774171	8	10	0.05	2000	-13.46301	40.92393	-91.39359
3479948	603	1149	60	-2.9167	-4.035917	-64.07365	0	10.89	20030	37	-32	5	5	0.02	3.791314	8	10	0.05	2000	-13.75668	40.92393	-91.3936
3480051	-571	-310	-271	-3.952294	-3.477754	-64.23232	0	10.89	20033	33	-29	5	5	0.02	3.80825	8	10	0.05	2000	-12.30838	40.92393	-91.3936
3480252	-857	120	435	-2.756701	-4.546932	-63.85436	0	10.89	20033	23	-36	5	5	0.02	3.804715	8	10	0.05	2000	-13.88559	40.92393	-91.3936
3480317	-568	-537	-30	-3.874353	-3.474058	-63.88288	0	10.89	20062	13	-41	5	5	0.02	3.78635	8	10	0.05	2000	-13.31277	40.92393	-91.3936
3480350	-433	-318	-75	-4.051729	-3.123184	-63.94291	0	10.89	20009	13	-41	5	5	0.02	3.779241	8	10	0.05	2000	-13.31277	40.92393	-91.3936
3480430	1922	2449	-445	-3.889814	-4.141798	-63.8734	0	10.89	24009	15	-49	5	5	0.02	3.74911	8	10	0.05	2000	-13.1138	40.92393	-91.3936
3480552	-577	-558	-86	-2.055897	-5.741373	-63.36745	0	10.09	20038	0	-43	5	5	0.02	3.706394	8	10	0.05	2000	-12.88849	40.92393	-91.39361
3480747	916	2015	399	-1.62079	-4.075605	-64.18568	0	10.09	20025	-16	-44	5	5	0.02	3.569359	8	10	0.05	2000	-10.88501	40.92393	-91.39361
3480839	115	-551	-16	-1.070655	-5.467236	-64.25047	0	10.09	20063	-9	-37	5	5	0.02	3.492084	8	10	0.05	2000	-10.17905	40.92393	-91.39361
3480937	1011	-561	375	-1.539836	-3.421142	-63.95352	0	10.09	20051	-25	-42	5	5	0.02	3.433562	8	10	0.05	2000	-8.799561	40.92393	-91.39362
3481071	-993	-188	-787	0.7244109	-6.291117	-63.14745	0	10.09	20055	-38	-39	5	5	0.02	3.2951	8	10	0.05	2000	-6.548737	40.92393	-91.39362
3481180	570	-803	-752	-0.5386477	-4.367201	-62.82274	0	10.09	20010	-28	-35	5	5	0.02	3.114911	8	10	0.05	2000	-5.803406	40.92393	-91.39362
3481243	1213	1466	196	0.1340787	-5.101439	-62.92936	0	10.09	20009	-49	-46	5	5	0.02	3.043155	8	10	0.05	2000	-5.530579	40.92393	-91.39362
3481362	7	-349	819	0.4621511	-5.029051	-63.26771	0	10.09	20030	-35	-42	5	5	0.02	2.976453	8	10	0.05	2000	-4.226563	40.92393	-91.39362
3481427	-180	-1158	476	-0.679586	-3.40475	-63.41294	0	10.32	20033	-50	-42	5	5	0.02	2.959945	8	10	0.05	2000	-3.18335	40.92393	-91.39362
3481582	2309	2463	604	2.423567	-3.880412	-62.84553	0	10.32	20056	-60	-39	5	5	0.02	2.831574	8	10	0.05	2000	-2.266571	40.92393	-91.39362
3481689	999	697	762	1.8696	-1.124722	-62.40725	0	10.32	20034	-61	-39	5	5	0.02	2.78514	8	10	0.05	2000	-0.5940857	40.92393	-91.39362
3481731	-475	-2050	-514	1.596827	-1.294421	-62.22622	0	10.32	20027	-47	-39	5	5	0.02	2.739419	8	10	0.05	2000	0.674726	40.92393	-91.39362
3481887	1407	1692	-1001	1.158249	-0.7559431	-61.77224	0	10.32	20031	-47	-39	5	5	0.02	2.657001	8	10	0.05	2000	1.335134	40.92393	-91.39362
3482068	250	-1344	1259	2.363756	-3.650142	-62.85409	0	10.32	20028	-53	-32	5	5	0.02	2.573251	8	10	0.05	2000	3.697102	40.92393	-91.39363
3482159	1297	-191	-259	2.443681	-2.339665	-63.0619	0	10.32	20011	-53	-32	5	5	0.02	2.555008	8	10	0.05	2000	5.648952	40.92393	-91.39363
3482245	35	-668	-1561	3.647276	-3.265216	-62.59019	0	10.32	20031	-44	-27	5	5	0.02	2.532075	8	10	0.05	2000	6.580461	40.92393	-91.39363
3482346	310	-678	776	2.455177	-3.167247	-62.4771	0	9.87	20035	-55	-27	5	5	0.02	2.513752	8	10	0.05	2000	7.223698	40.92393	-91.39363
3482484	1836	1117	1451	5.457118	-4.734288	-62.81908	0	9.87	20032	-55	-27	5	5	0.02	2.493737	8	10	0.05	2000	9.520125	40.92393	-91.39363
3482659	-619	-125	-272	2.662438	-4.423676	-63.96793	0	9.87	20051	-39	-21	5	5	0.02	2.493057	8	10	0.05	2000	12.95308	40.92393	-91.39364
3482761	805	-98	845	1.800821	-2.924203	-63.95166	0	9.87	20029	-34	-16	5	5	0.02	2.502448	8	10	0.05	2000	14.78375	40.92393	-91.39363
3482914	734	-1112	1361	1.300734	-1.378263	-63.83888	0	9.87	20011	-20	-9	5	5	0.02	2.530061	8	10	0.05	2000	15.54264	40.92393	-91.39363
3482993	170	-1271	-134	1.082412	-0.5140126	-63.97355	0	9.87	20057	-13	-9	5	5	0.02	2.554921	8	10	0.05	2000	16.23339	40.92393	-91.39363
3483076	200	941	1223	1.524126	-1.215282	-63.76788	0	9.87	20060	2	-4	5	5	0.02	2.596673	8	10	0.05	2000	16.11693	40.92393	-91.39363
3483157	-898	-394	551	-0.3632763	-2.39033	-63.45405	0	9.87	20053	2	-4	5	5	0.02	2.663551	8	10	0.05	2000	16.79944	40.92393	-91.39363
3483325	-989	-927	185	0.2910702	-3.141178	-63.02955	0	10.55	20030	21	2	5	5	0.02	2.740194	8	10	0.05	2000	17.53201	40.92393	-91.39362
3483439	344	-397	-397	-0.1912016	-2.4407	-63.54084	0	10.55	20011	17	-1	5	5	0.02	2.847473	8	10	0.05	2000	19.14672	40.92393	-91.39362
3483471	-381	-702	-1021	-0.2900431	-2.282692	-63.86692	0	10.55	20055	17	-1	5	5	0.02	2.887305	8	10	0.05	2000	19.14672	40.92393	-91.39362
3483647	-1439	-2510	49	-1.815414	-1.609318	-65.2001	0	10.55	20033	62	2	5	5	0.02	3.010748	8	10	0.05	2000	19.58863	40.92393	-91.39362
3483733	-3266	164	-1024	-5.857507	-1.052833	-64.52757	0	10.55	20031	52	-1	5	5	0.02	3.119519	8	10	0.05	2000	17.66528	40.92393	-91.39362
3483815	-4017	-502	177	-8.834132	-0.9771593	-64.00078	0	10.55	20027	78	3	5	5	0.02	3.204396	8	10	0.05	2000	18.01998	40.92393	-91.39362
3483877	-2717	-393	-835	-11.1983	-1.067111	-63.83443	0	10.55	20052	78	3	5	5	0.02	3.223892	8	10	0.05	2000	14.06169	40.92393	-91.39362
3483946	-2060	723	746	-13.1248	-2.557775	-64.49806	0	10.55	20062	104	2	5	5	0.02	3.28084	8	10	0.05	2000	7.996666	40.92393	-91.39362
3484045	-2899	-381	-262	-14.64783	-2.896252	-64.72923	0	10.55	20009	104	2	5	5	0.02	3.393608	8	10	0.05	2000	3.589773	40.92394	-91.39361
3484197	-1086	-1182	870	-10.64241	-2.67267	-63.95061	0	10.38	20027	135	7	5	5	0.02	3.505683	8	10	0.05	2000	-3.955261	40.92394	-91.3936
3484247	-1544	-900	1013	-11.33445	-1.469815	-64.04965	0	10.38	20038	100	0	5	5	0.02	3.516937	8	10	0.05	2000	-6.668274	40.92394	-91.3936
3484374	-557	1075	-846	-8.148456	-3.175093	-63.88172	0	10.38	20026	131	0	5	5	0.02	3.550789	8	10	0.05	2000	-15.50745	40.92394	-91.39359
3484477	2408	-80	-909	-6.96944	-3.391614	-63.08125	0	10.38	20052	114	-3	5	5	0.02	3.554745	8	10	0.05	2000	-16.68945	40.92394	-91.39359
3484589	147	-194	599	-0.9684508	-4.910298	-63.11472	0	10.38	20047	130	-8	5	5	0.02	3.536507	8	10	0.05	2000	-20.46515	40.92394	-91.39359
3484772	204	3433	-1347	0.8116644	-8.801735	-63.6977	0	10.38	20053	120	-11	5	5	0.02	3.469086	8	10	0.05	2000	-22.76697	40.92394	-91.39359
3484877	-835	178	-486	0.1143117	-13.98664	-63.5281	0	10.38	20007	105	-20	5	5	0.02	3.380958	8	10	0.05	2000	-17.4111	40.92394	-91.39359
3484943	-1932	-1784	-331	-0.710291	-13.3277	-63.42021	0	10.38	20014	105	-20	5	5	0.02	3.364003	8	10	0.05	2000	-17.4111	40.92393	-91.39359
3485064	-1242	-2132	930	-3.257721	-8.967592	-63.54348	0	10.49	20030	94	-25	5	5	0.02	3.251651	8	10	0.05	2000	-18.47269	40.92393	-91.39359
3485166	-1338	368	119	-3.574673	-7.694826	-63.85386	0	10.49	20028	84	-22	5	5	0.02	3.167326	8	10	0.05	2000	-18.72894	40.92393	-91.39359
3485240	-1809	-2036	352	-4.794549	-6.376093	-64.05805	0	10.49	20034	94	-32	5	5	0.02	2.998643	8	10	0.05	2000	-17.85684	40.92393	-91.39359
3485354	-1213	517	-659	-5.87679	-6.209576	-64.94984	0	10.49	20033	83	-32	5	5	0.02	2.878896	8	10	0.05	2000	-18.634	40.92393	-91.39358
3485402	-830	6	-321	-6.827154	-5.62963	-64.66371	0	10.49	20008	83	-37	5	5	0.02	2.858112	8	10	0.05	2000	-18.68198	40.92393	-91.39358
3485499	1537	-108	-238	-6.447399	-3.870906	-64.12287	0	10.49	20051	83	-37	5	5	0.02	2.749022	8	10	0.05	2000	-18.99283	40.92393	-91.39358
3485646	335	-1138	494	-7.11133	-2.712553	-64.56261	0	10.49	20057	0	0	5	5	0.02	2.537838	3	10	0.05	2000	-20.41205	40.92393	-91.39358
3485735	2454	-1755	952	-3.349949	0.07351688	-64.73458	0	10.49	20057	0	0	5	5	0.02	2.480233	3	10	0.05	2000	-22.82556	40.92393	-91.39358
3485799	1630	-1237	689	-2.297755	0.7312984	-65.05585	0	10.49	20057	0	0	5	5	0.02	2.416878	3	10	0.05	2000	-22.82556	40.92393	-91.39359
3485951	621	1035	311	3.319381	-0.1515256	-65.65022	0	10.15	20057	0	0	5	5	0.02	2.276241	3	10	0.05	2000	-19.91376	40.92393	-91.39359
3485997	-270	1602	-1115	2.788585	-1.700712	-64.98116	0	10.15	20057	0	0	5	5	0.02	2.255284	3	10	0.05	2000	-18.32916	40.92393	-91.39359
3486119	330	153	-1261	0.1713008	-3.14081	-63.14229	0	10.15	20057	0	0	5	5	0.02	2.046047	3	10	0.05	2000	-16.95724	40.92393	-91.39359
3486207	-1326	2142	-495	-0.7019278	-3.658981	-62.52837	0	10.15	20057	0	0	5	5	0.02	1.973298	3	10	0.05	2000	-17.77615	40.92393	-91.39359
3486363	995	1625	121	-3.354482	-7.277029	-62.35085	0	10.15	20057	0	0	5	5	0.02	1.850966	3	10	0.05	2000	-16.47803	40.92393	-91.3936
