time(ms)	gyro_x(deg/s)	gyro_y(deg/s)	gyro_z(deg/s)	orientation_roll(deg)	orientation_pitch(deg)	orientation_yaw(deg)	throttle	battery(V)	loop_time(uS)	pid_output_roll	pid_output_pitch	pid_output_yaw	pid_output_throttle	ultrasonic_alt	baro_alt	flight_mode	p_gain_altitude	i_gain_altitude	d_gain_altitude	compass_heading	latitude	longitude
281104	1617	261	-1147	-7.656085	-19.06123	-40.39058	0	9.98	4004	0	0	5	5	0.4126288	1.391501	3	10	0.03	2000	-0.5777283	40.9239	-91.39362
281204	388	-473	-194	-6.486608	-18.70061	-40.18594	0	9.98	4004	0	0	5	5	0.4126288	1.377256	3	10	0.03	2000	-0.7315369	40.9239	-91.39362
281356	-274	-1563	-540	-5.58498	-11.62191	-41.15477	0	10.43	4002	0	0	5	5	0.4126288	1.36987	3	10	0.03	2000	0.6854176	40.9239	-91.39362
281433	458	-1495	1078	-4.896655	-10.28265	-41.85229	0	10.43	4004	0	0	5	5	0.4126288	1.369788	3	10	0.03	2000	1.300442	40.9239	-91.39362
281566	196	-743	236	-2.716203	-6.743077	-42.28064	0	10.43	4003	0	0	5	5	0.4126288	1.380151	3	10	0.03	2000	2.888339	40.9239	-91.39362
281730	273	-1743	-1516	-1.006978	-5.253266	-41.19165	0	10.43	4003	0	0	5	5	0.4126288	1.401439	3	10	0.03	2000	3.373849	40.9239	-91.39362
281846	315	407	886	-2.993709	-5.347062	-41.93449	0	10.43	4003	0	0	5	5	0.4126288	1.436831	3	10	0.03	2000	6.280273	40.9239	-91.39362
281928	646	-716	1889	-1.939325	-4.556814	-41.88468	0	10.43	4004	0	0	5	5	0.4126288	1.458821	3	10	0.03	2000	6.356664	40.9239	-91.39362
282018	-2588	240	34	-3.357974	-4.229288	-41.91802	0	10.43	4003	0	0	5	5	0.4126288	1.464965	3	10	0.03	2000	6.955379	40.9239	-91.39362
282156	-43	954	-398	-9.153674	-5.762469	-41.01461	0	10.43	4002	0	0	5	5	0.4126288	1.465112	3	10	0.03	2000	6.168828	40.9239	-91.39362
282227	-625	-282	-394	-8.779943	-6.325788	-41.18924	0	10.43	4003	0	0	5	5	0.4126288	1.45815	3	10	0.03	2000	3.762824	40.9239	-91.39362
282397	3132	-2083	-1906	-4.967769	-4.996479	-40.9795	0	10.89	4004	0	0	5	5	0.4126288	1.439134	3	10	0.03	2000	2.719135	40.9239	-91.39362
282447	1704	655	234	-3.582364	-4.628455	-40.98618	0	10.89	4004	0	0	5	5	0.4126288	1.429278	3	10	0.03	2000	2.719135	40.9239	-91.39362
282536	757	1361	-2000	-2.755397	-6.596598	-40.4557	0	10.89	4003	0	0	5	5	0.4126288	1.422265	3	10	0.03	2000	2.678875	40.9239	-91.39362
282641	996	-3366	-473	-1.354608	-4.333124	-40.33741	0	10.89	4004	0	0	5	5	0.4126288	1.407032	3	10	0.03	2000	3.063146	40.9239	-91.39362
282744	-1259	1029	727	-2.321564	-2.121043	-41.94032	0	10.89	4003	0	0	5	5	0.4126288	1.389114	3	10	0.03	2000	4.545379	40.9239	-91.39362
282946	-3019	1998	-930	-7.635218	-9.203505	-42.30357	0	10.89	4002	0	0	5	5	0.4126288	1.293868	3	10	0.03	2000	4.745428	40.92391	-91.39362
283017	-1855	815	-399	-10.32702	-9.978476	-41.48563	0	10.89	4004	0	0	5	5	0.4126288	1.239545	3	10	0.03	2000	0.3678898	40.92391	-91.39362
283099	-421	981	929	-11.75914	-10.12391	-41.23854	0	10.89	4003	0	0	5	5	0.4126288	1.196265	3	10	0.03	2000	0.9696402	40.92391	-91.39362
283146	-451	1545	1443	-11.73714	-10.77558	-41.20105	0	10.89	4002	0	0	5	5	0.4126288	1.182098	3	10	0.03	2000	0.9696402	40.92391	-91.39362
283323	-949	-851	381	-6.494435	-9.289824	-41.35239	0	11.29	4003	0	0	5	5	0.4126288	1.077866	3	10	0.03	2000	-3.870789	40.92391	-91.39362
283425	2434	-2997	-332	-4.363456	-5.338501	-42.21204	0	11.29	4003	0	0	5	5	0.4126288	1.048275	3	10	0.03	2000	-4.759857	40.92391	-91.39362
283584	1140	3031	720	1.153296	-10.40671	-44.73	0	11.29	4003	0	0	5	5	0.4126288	0.9270191	3	10	0.03	2000	-1.797089	40.92391	-91.39362
283730	-149	-25	16	1.592384	-8.770029	-44.52127	0	11.29	4002	0	0	5	5	0.4126288	0.8206943	3	10	0.03	2000	-0.252594	40.92391	-91.39362
283792	47	230	-54	1.82446	-8.529284	-44.55264	0	11.29	4003	0	0	5	5	0.4126288	0.7662342	3	10	0.03	2000	0.42322	40.92391	-91.39362
283935	-152	-19	103	1.59289	-7.529707	-44.56314	0	11.29	4003	0	0	5	5	0.4126288	0.6623874	3	10	0.03	2000	0.8543906	40.92391	-91.39362
283967	-152	-19	103	1.59289	-7.529707	-44.56314	0	11.29	4003	0	0	5	5	0.4126288	0.6420413	3	10	0.03	2000	0.8543906	40.92391	-91.39362
284084	-121	-73	-91	1.405143	-6.243978	-44.58747	0	11.29	4004	0	0	5	5	0.4126288	0.5211378	3	10	0.03	2000	0.5327683	40.92391	-91.39362
284256	-80	28	-9	1.247769	-5.028161	-44.63147	0	11.29	4003	0	0	5	5	0.4126288	0.4248711	3	10	0.03	2000	1.395703	40.92391	-91.39362
284301	-48	20	82	1.21373	-4.834696	-44.62964	0	11.29	4003	0	0	5	5	0.4126288	0.3847639	3	10	0.03	2000	1.795362	40.92391	-91.39362
284414	-62	0	21	1.144221	-4.340944	-44.64595	0	11.29	4004	0	0	5	5	0.4126288	0.3164777	3	10	0.03	2000	1.519183	40.92391	-91.39362
284481	-46	-20	13	1.082806	-3.914403	-44.66319	0	11.29	4002	0	0	5	5	0.4126288	0.2849765	3	10	0.03	2000	2.170813	40.92391	-91.39362
284595	-62	-2	19	1.026819	-3.541136	-44.67586	0	11.29	4003	0	0	5	5	0.4126288	0.238223	1	10	0.03	2000	1.474216	40.92391	-91.39362
284652	-70	0	23	1.00829	-3.42112	-44.68197	0	11.29	4003	0	0	5	5	0.4126288	0.230345	1	10	0.03	2000	1.474216	40.92391	-91.39362
284805	-60	-2	-8	0.9514204	-2.925519	-44.7168	0	11.29	4004	0	0	5	5	0.4126288	0.1691033	1	10	0.03	2000	1.600057	40.92391	-91.39362
284858	-55	6	26	0.920148	-2.750842	-44.73044	0	11.29	4004	0	0	5	5	0.4126288	0.1628741	1	10	0.03	2000	1.380183	40.92391	-91.39362
284974	-58	2	7	0.8991095	-2.457456	-44.75721	0	11.29	4003	0	0	5	5	0.4126288	0.1468623	1	10	0.03	2000	1.922179	40.92391	-91.39362
285106	-61	2	3	0.8734277	-2.273402	-44.77406	0	11.4	4002	0	0	5	5	0.4126288	0.1313095	1	10	0.03	2000	1.213306	40.92391	-91.39362
285236	-67	0	6	0.8405898	-2.054616	-44.79825	0	11.4	4004	0	0	5	5	0.4126288	0.1197988	1	10	0.03	2000	1.502097	40.92391	-91.39362
285322	-62	-6	16	0.8231399	-1.909981	-44.81553	0	11.4	4004	0	0	5	5	0.4126288	0.1146536	1	10	0.03	2000	1.76612	40.92391	-91.39362
285387	-64	-4	11	0.8185018	-1.864496	-44.82102	0	11.4	4004	0	0	5	5	0.4126288	0.1058216	1	10	0.03	2000	1.775856	40.92391	-91.39362
285463	-608	254	-82	0.8108621	-1.445881	-44.77796	0	11.4	4004	0	0	5	5	0.4126288	0.09582814	1	10	0.03	2000	1.734518	40.92391	-91.39362
285597	-37	686	-237	0.4046454	-1.962373	-44.6682	0	11.4	4002	0	0	5	5	0.4126288	0.09549879	1	10	0.03	2000	1.505243	40.92391	-91.39362
285729	-1140	-2799	-123	-2.786564	-2.917092	-44.96726	0	11.4	4003	0	0	5	5	0.4126288	0.1035651	1	10	0.03	2000	2.49333	40.92391	-91.39362
285823	621	-1616	-553	-2.010334	2.317076	-45.07836	0	11.4	4003	0	0	5	5	0.4126288	0.1095055	1	10	0.03	2000	2.298397	40.92391	-91.39362
285885	1792	-133	-551	-1.301683	3.021209	-44.55824	0	11.4	4003	0	0	5	5	0.4126288	0.1190372	1	10	0.03	2000	2.386367	40.92391	-91.39362
286023	-549	-1533	757	1.660289	4.364015	-45.09242	0	11.46	4004	0	0	5	5	0.4126288	0.1467199	1	10	0.03	2000	3.509851	40.92391	-91.39362
286120	-1906	-2163	808	-1.136792	8.922297	-46.80917	0	11.46	4002	0	0	5	5	0.4126288	0.1646426	1	10	0.03	2000	6.627765	40.92391	-91.39362
286160	-2478	-2098	-366	-3.634754	11.56047	-47.10898	0	11.46	4004	0	0	5	5	0.4126288	0.1719782	1	10	0.03	2000	7.017766	40.92391	-91.39362
286294	-3248	-2267	-1951	-7.547661	15.6392	-44.86119	0	11.46	4004	0	0	5	5	0.4126288	0.2299291	1	10	0.03	2000	6.734663	40.92391	-91.39362
286360	-3939	-1912	-2531	-11.23351	17.97898	-41.22027	0	11.46	4002	0	0	5	5	0.4126288	0.2382453	1	10	0.03	2000	3.498997	40.92391	-91.39362
286484	-1061	2264	-3278	-14.14608	19.41408	-34.77916	0	11.46	4003	0	0	5	5	0.4126288	0.3079395	1	10	0.03	2000	-5.364532	40.92391	-91.39362
286632	1732	845	-3744	-8.994643	19.43598	-29.13746	0	11.46	4003	0	0	5	5	0.4126288	0.3881918	1	10	0.03	2000	-16.25748	40.92392	-91.39362
286729	1075	813	-3398	-3.61218	20.9042	-20.23228	0	11.46	4003	0	0	5	5	0.4126288	0.4448539	1	10	0.03	2000	-23.14505	40.92392	-91.39362
286804	-127	1639	-2575	-1.675516	20.55404	-17.01337	0	11.46	4003	0	0	5	5	0.4126288	0.492524	1	10	0.03	2000	-25.71024	40.92392	-91.39362
286940	-1147	2053	162	0.007759732	17.83408	-12.24334	0	11.4	4004	0	0	5	5	0.4126288	0.5599068	1	10	0.03	2000	-28.86188	40.92392	-91.39362
287017	271	-6	733	-0.4397217	15.86174	-12.84906	0	11.4	4004	0	0	5	5	0.4126288	0.5882727	1	10	0.03	2000	-29.50452	40.92392	-91.39362
287073	881	-2125	1180	0.1609021	16.37315	-13.38555	0	11.4	4002	0	0	5	5	0.4126288	0.6045601	1	10	0.03	2000	-29.50452	40.92392	-91.39362
287212	2638	-74	1682	5.645563	16.74123	-17.07896	0	11.4	4004	0	0	5	5	0.4126288	0.657617	1	10	0.03	2000	-29.08548	40.92392	-91.39362
287306	2678	-1058	452	9.470197	19.26511	-19.25549	0	11.4	4002	0	0	5	5	0.4126288	0.701333	1	10	0.03	2000	-27.11197	40.92392	-91.39362
287381	970	638	449	11.25219	18.59132	-19.7368	0	11.4	4004	0	0	5	5	0.4126288	0.7391239	1	10	0.03	2000	-26.46625	40.92392	-91.39362
287447	1850	1102	381	12.13985	16.95278	-20.09578	0	11.4	4003	0	0	5	5	0.4126288	0.7494184	1	10	0.03	2000	-26.35077	40.92393	-91.39362
287510	595	1431	1420	13.09505	14.88266	-20.97296	0	11.4	4003	0	0	5	5	0.4126288	0.7536308	1	10	0.03	2000	-24.56885	40.92393	-91.39362
287604	48	2670	3330	11.45628	10.57131	-25.14989	0	11.4	4003	0	0	5	5	0.4126288	0.7636401	1	10	0.03	2000	-20.70084	40.92393	-91.39362
287712	-1212	1654	4355	8.680462	7.806404	-31.65298	0	11.4	4002	0	0	5	5	0.4126288	0.7773346	1	10	0.03	2000	-16.15082	40.92393	-91.39362
287913	430	1083	3981	6.037174	2.253127	-44.40167	0	11.34	4004	0	0	5	5	0.4126288	0.7999979	1	10	0.03	2000	-0.4285278	40.92393	-91.39363
287985	-1542	1811	1551	4.305765	-0.06112166	-47.66153	0	11.34	4004	0	0	5	5	0.4126288	0.8012674	1	10	0.03	2000	4.585897	40.92393	-91.39363
288079	-941	2401	-1971	1.559596	-4.580255	-46.80259	0	11.34	4003	0	0	5	5	0.4126288	0.7929909	1	10	0.03	2000	7.747925	40.92393	-91.39363
288167	-2152	1510	-890	-2.454299	-8.015595	-42.02067	0	11.34	4002	0	0	5	5	0.4126288	0.7705262	1	10	0.03	2000	6.921956	40.92393	-91.39363
288254	-1549	-222	419	-4.973223	-8.076125	-41.82722	0	11.34	4003	0	0	5	5	0.4126288	0.7353897	1	10	0.03	2000	5.712567	40.92393	-91.39363
288371	-546	-1234	-836	-5.472694	-7.371917	-42.00161	0	11.34	4004	0	0	5	5	0.4126288	0.6942938	1	10	0.03	2000	4.360553	40.92393	-91.39363
288403	4382	934	-1865	-4.126467	-7.475366	-38.67993	0	11.34	4002	0	0	5	5	0.4126288	0.6672651	1	10	0.03	2000	2.014336	40.92393	-91.39363
288522	-49	460	-202	-2.881889	-3.502378	-37.96856	0	11.34	4002	0	0	5	5	0.4126288	0.6326019	1	10	0.03	2000	1.465844	40.92393	-91.39363
288578	36	-62	-68	-2.81172	-3.730477	-37.92301	0	11.34	4004	0	0	5	5	0.4126288	0.6065419	1	10	0.03	2000	1.465844	40.92393	-91.39363
288666	-51	-13	13	-2.463503	-3.041537	-37.94601	0	11.46	4002	0	0	5	5	0.4126288	0.5856033	1	10	0.03	2000	0.9128495	40.92393	-91.39363
288768	-64	23	9	-2.319648	-2.786493	-37.95724	0	11.46	4003	0	0	5	5	0.4126288	0.5520548	1	10	0.03	2000	0.3889592	40.92393	-91.39363
288899	-61	7	12	-2.078032	-2.35701	-37.98379	0	11.46	4002	0	0	5	5	0.4126288	0.5063969	1	10	0.03	2000	-0.09414673	40.92393	-91.39363
288959	-59	3	8	-1.931193	-2.076234	-38.00247	0	11.46	4004	0	0	5	5	0.4126288	0.4947308	1	10	0.03	2000	-0.03219604	40.92393	-91.39363
289062	-59	2	8	-1.835635	-1.911267	-38.01419	0	11.46	4004	0	0	5	5	0.4126288	0.434269	1	10	0.03	2000	-0.2042847	40.92393	-91.39363
289199	-60	3	11	-1.709758	-1.688547	-38.03244	0	11.46	4003	0	0	5	5	0.4126288	0.3928367	1	10	0.03	2000	-0.5014648	40.92393	-91.39363
289343	-53	7	12	-1.511544	-1.331337	-38.07102	0	11.46	4004	0	0	5	5	0.4126288	0.3249847	1	10	0.03	2000	-0.8535461	40.92393	-91.39363
289377	-58	-1	15	-1.482644	-1.277938	-38.07767	0	11.46	4004	0	0	5	5	0.4126288	0.3189816	1	10	0.03	2000	-0.8535461	40.92393	-91.39363
289484	-58	9	11	-1.377189	-1.099409	-38.10057	0	11.46	4009	0	0	5	5	0.4126288	0.2919925	1	10	0.03	2000	-1.273712	40.92393	-91.39363
289560	-56	2	12	-1.332551	-1.021689	-38.11277	0	11.46	4003	0	0	5	5	0.4126288	0.2722763	1	10	0.03	2000	-1.594452	40.92393	-91.39363
289667	-60	-3	15	-1.288469	-0.9436606	-38.124	0	11.46	4003	0	0	5	5	0.4126288	0.2647409	1	10	0.03	2000	-1.192413	40.92393	-91.39363
289768	-62	4	15	-1.22791	-0.844277	-38.14275	0	11.46	4008	0	0	5	5	0.4126288	0.2651172	1	10	0.03	2000	-1.493866	40.92393	-91.39363
289872	-57	1	12	-1.166423	-0.7313525	-38.16442	0	11.46	4003	0	0	5	5	0.4126288	0.2600474	1	10	0.03	2000	-1.378693	40.92393	-91.39363
290088	-58	2	12	-1.088308	-0.5985773	-38.19762	0	11.46	4003	0	0	5	5	0.4126288	0.2484439	1	10	0.03	2000	-1.50708	40.92394	-91.39363
290203	-60	-3	11	-1.060381	-0.5412311	-38.21301	0	11.46	4004	0	0	5	5	0.4126288	0.2348092	1	10	0.03	2000	-1.541687	40.92394	-91.39363
290323	-50	3	11	-1.024749	-0.4820904	-38.23443	0	11.46	4002	0	0	5	5	0.4126288	0.2297962	1	10	0.03	2000	-1.366669	40.92394	-91.39363
290433	-49	-1	10	-1.004587	-0.4563692	-38.24603	0	11.46	4003	0	0	5	5	0.4126288	0.2295163	1	10	0.03	2000	-1.868439	40.92394	-91.39363
290627	-60	0	9	-0.9689867	-0.389495	-38.28125	0	11.4	4003	0	0	5	5	0.4126288	0.2358989	1	10	0.03	2000	-2.163757	40.92394	-91.39363
290747	-57	0	13	-0.943731	-0.3486477	-38.30256	0	11.4	4004	0	0	5	5	0.4126288	0.2468217	1	10	0.03	2000	-1.965881	40.92394	-91.39363
290864	-51	4	7	-0.9260558	-0.3204841	-38.31867	0	11.4	4002	0	0	5	5	0.4126288	0.2525688	1	10	0.03	2000	-1.9841	40.92394	-91.39363
290907	-51	4	7	-0.9230505	-0.3089798	-38.32367	0	11.4	4002	0	0	5	5	0.4126288	0.2531241	1	10	0.03	2000	-1.775238	40.92394	-91.39363
291023	-56	4	11	-0.9096532	-0.2752208	-38.35078	0	11.4	4004	0	0	5	5	0.4126288	0.2504393	1	10	0.03	2000	-1.773376	40.92394	-91.39363
291149	-61	0	6	-0.9013779	-0.2571	-38.36353	0	11.4	4003	0	0	5	5	0.4126288	0.2473981	1	10	0.03	2000	-2.041565	40.92394	-91.39363
291251	-50	3	11	-0.8962931	-0.2421114	-38.38398	0	11.4	4002	0	0	5	5	0.4126288	0.2454029	1	10	0.03	2000	-1.816833	40.92393	-91.39363
291308	-59	-3	11	-0.8933312	-0.2381482	-38.38972	0	11.4	4002	0	0	5	5	0.04197291	0.2449237	6	10	0.03	2000	-1.816833	40.92393	-91.39363
291458	-63	8	13	-0.8855562	-0.2249256	-38.41163	0	11.4	4002	0	0	5	5	0.04404012	0.2502102	6	10	0.03	2000	-2.064514	40.92393	-91.39363
291546	-66	3	5	-0.8838481	-0.212617	-38.42683	0	11.4	4004	0	0	5	5	0.04223713	0.258072	6	10	0.03	2000	-1.831299	40.92393	-91.39363
291607	-63	8	3	-0.8835209	-0.2021874	-38.43495	0	11.4	4004	0	0	5	5	0.0432707	0.2669642	6	10	0.03	2000	-1.837311	40.92393	-91.39363
291704	-58	3	6	-0.8795332	-0.1996477	-38.44673	0	11.4	4003	0	0	5	5	0.04443375	0.273793	6	10	0.03	2000	-1.843414	40.92393	-91.39363
291812	-57	0	4	-0.8741024	-0.194524	-38.4698	0	11.4	4002	0	0	5	5	0.04613889	0.2848477	6	10	0.03	2000	-1.8461	40.92393	-91.39363
291905	-57	-1	8	-0.8621697	-0.1891677	-38.4836	0	11.4	4003	0	0	5	5	0.04525807	0.2841983	6	10	0.03	2000	-1.630341	40.92393	-91.39363
292008	-54	5	10	-0.8623276	-0.1789084	-38.50484	0	11.4	4002	0	0	5	5	0.04477485	0.2830679	6	10	0.03	2000	-1.870331	40.92393	-91.39363
292097	-62	0	11	-0.8540269	-0.1765746	-38.51723	0	11.4	4004	0	0	5	5	0.04495582	0.2824627	6	10	0.03	2000	-1.863495	40.92393	-91.39363
292284	-54	-2	7	-0.8524501	-0.1727262	-38.54433	0	11.4	4003	0	0	5	5	0.04333797	0.260684	1	10	0.03	2000	-1.883392	40.92393	-91.39363
292360	-55	3	6	-0.856672	-0.1688261	-38.55257	0	11.46	4002	0	0	5	5	0.04298932	0.2531238	1	10	0.03	2000	-1.879944	40.92393	-91.39363
292457	-62	0	11	-0.8559443	-0.1717452	-38.57326	0	11.46	4003	0	0	5	5	0.04258653	0.230336	1	10	0.03	2000	-1.648071	40.92393	-91.39363
292559	-54	3	12	-0.8559365	-0.1645145	-38.58968	0	11.46	4004	0	0	5	5	0.04229289	0.2084194	1	10	0.03	2000	-1.878296	40.92393	-91.39363
292668	-55	0	10	-0.8543749	-0.1587713	-38.6097	0	11.46	4002	0	0	5	5	0.04202125	0.186548	1	10	0.03	2000	-2.114777	40.92393	-91.39363
292791	-58	2	10	-0.8480598	-0.160968	-38.62459	0	11.46	4003	0	0	5	5	0.0418808	0.1601594	1	10	0.03	2000	-2.349091	40.92393	-91.39363
292865	-60	0	8	-0.8510813	-0.1549358	-38.64064	0	11.46	4004	0	0	5	5	0.04180902	0.1477446	1	10	0.03	2000	-1.890198	40.92393	-91.39363
292967	-60	2	12	-0.8510746	-0.1528811	-38.65743	0	11.46	4003	0	0	5	5	0.04170378	0.13696	1	10	0.03	2000	-2.133148	40.92393	-91.39363
293056	-57	0	11	-0.849484	-0.1563497	-38.66689	0	11.46	4003	0	0	5	5	0.04164936	0.132057	1	10	0.03	2000	-1.881683	40.92393	-91.39363
293103	-56	0	8	-0.8460882	-0.1527258	-38.67147	0	11.46	4003	0	0	5	5	0.04163473	0.1301096	1	10	0.03	2000	-1.879944	40.92393	-91.39363
293194	-58	0	14	-0.8447057	-0.1533102	-38.69191	0	11.46	4004	0	0	5	5	0.04159903	0.1228905	3	10	0.03	2000	-2.109131	40.92393	-91.39363
293314	-61	-2	7	-0.8425406	-0.1553795	-38.71627	0	11.46	4002	0	0	5	5	0.02577999	0.1258295	6	10	0.03	2000	-1.896454	40.92393	-91.39363
293402	-52	-1	11	-0.8384529	-0.1584129	-38.72665	0	11.46	4004	0	0	5	5	0.03245771	0.1302862	6	10	0.03	2000	-2.146515	40.92393	-91.39363
293522	-55	1	9	-0.8435754	-0.1614084	-38.74331	0	11.46	4002	0	0	5	5	0.03548472	0.1382636	6	10	0.03	2000	-2.131226	40.92393	-91.39363
293650	-51	5	8	-0.8316519	-0.1618849	-38.76492	0	11.46	4004	0	0	5	5	0.03680697	0.1368481	6	10	0.03	2000	-1.90799	40.92393	-91.39363
293780	-59	3	12	-0.8280007	-0.156751	-38.78427	0	11.46	4003	0	0	5	5	0.03914491	0.1365931	6	10	0.03	2000	-2.153473	40.92393	-91.39363
293897	-65	9	13	-0.8288223	-0.1664803	-38.80307	0	11.46	4003	0	0	5	5	0.0408397	0.141875	6	10	0.03	2000	-1.925995	40.92393	-91.39363
293935	-65	9	13	-0.8288223	-0.1664803	-38.80307	0	11.46	4003	0	0	5	5	0.04090603	0.1441067	6	10	0.03	2000	-1.925995	40.92393	-91.39363
294029	-57	4	12	-0.8285064	-0.1638237	-38.8273	0	11.46	4004	0	0	5	5	0.04035841	0.1614173	6	10	0.03	2000	-2.13797	40.92393	-91.39363
294100	-62	-1	6	-0.828312	-0.1605399	-38.83915	0	11.46	4003	0	0	5	5	0.04035841	0.1614173	6	10	0.03	2000	-1.681152	40.92393	-91.39363
294262	-54	1	10	-0.8202283	-0.1604728	-38.86515	0	11.46	4003	0	0	5	5	0.04189768	0.1837349	6	10	0.03	2000	-1.938477	40.92393	-91.39363
294345	-54	2	5	-0.8202202	-0.1538058	-38.87235	0	11.46	4004	0	0	5	5	0.0412042	0.1888166	6	10	0.03	2000	-1.938354	40.92393	-91.39363
294403	-51	0	9	-0.8129241	-0.1586473	-38.88688	0	11.46	4003	0	0	5	5	0.04187494	0.1893437	6	10	0.03	2000	-1.929688	40.92393	-91.39363
294508	-44	5	8	-0.8043616	-0.1596565	-38.89988	0	11.46	4003	0	0	5	5	0.03502253	0.1886775	5	10	0.03	2000	-1.944885	40.92393	-91.39363
294586	-44	5	8	-0.8043616	-0.1596565	-38.89988	0	11.46	4003	0	0	5	5	0.03288899	0.1849279	5	10	0.03	2000	-1.944885	40.92393	-91.39363
294714	-51	-3	12	-0.7968611	-0.1631961	-38.92551	0	11.46	4004	0	0	5	5	0.03735026	0.1843065	5	10	0.03	2000	-1.977539	40.92393	-91.39363
294837	-57	0	9	-0.7864162	-0.1650252	-38.94395	0	11.46	4003	0	0	5	5	0.03877838	0.1845933	5	10	0.03	2000	-1.9823	40.92393	-91.39363
294880	-48	1	5	-0.7862666	-0.1664225	-38.95207	0	11.46	4003	0	0	5	5	0.04008496	0.1918066	5	10	0.03	2000	-2.207397	40.92393	-91.39363
295014	-45	0	4	-0.772296	-0.1643552	-38.9694	0	11.4	4004	0	0	5	5	0.04328565	0.1987976	5	10	0.03	2000	-2.000427	40.92393	-91.39363
295096	-47	0	13	-0.7661853	-0.161668	-38.97783	0	11.4	4004	0	0	5	5	0.04444586	0.2031776	5	10	0.03	2000	-2.021149	40.92393	-91.39363
295180	-47	4	9	-0.7627386	-0.1625765	-38.98747	0	11.4	4003	0	0	5	5	0.04578626	0.2067731	5	10	0.03	2000	-2.020966	40.92393	-91.39363
295271	-55	-3	8	-0.7633522	-0.1582092	-38.99791	0	11.4	4002	0	0	5	5	0.0463724	0.2147451	5	10	0.03	2000	-2.011902	40.92393	-91.39363
295367	-57	6	7	-0.7598147	-0.1641012	-39.01299	0	11.4	4002	0	0	5	5	0.0465551	0.2223365	1	10	0.03	2000	-2.025665	40.92393	-91.39363
295470	-42	0	9	-0.749122	-0.1680115	-39.03087	0	11.4	4004	0	0	5	5	0.04682297	0.2281742	1	10	0.03	2000	-2.285034	40.92393	-91.39363
295578	-55	0	11	-0.7449093	-0.165519	-39.03936	0	11.4	4004	0	0	5	5	0.04696146	0.2263291	1	10	0.03	2000	-2.288635	40.92393	-91.39363
295698	-51	1	11	-0.7520114	-0.1644972	-39.05779	0	11.4	4003	0	0	5	5	0.04708957	0.22633	1	10	0.03	2000	-2.040314	40.92393	-91.39363
295781	-54	3	10	-0.7447499	-0.167959	-39.07152	0	11.4	4003	0	0	5	5	0.02	0.2274866	6	10	0.03	2000	-2.264954	40.92393	-91.39363
295905	-53	0	11	-0.7434503	-0.1731401	-39.09118	0	11.4	4004	0	0	5	5	0.02824409	0.2424123	6	10	0.03	2000	-2.275146	40.92393	-91.39363
296087	-51	-2	8	-0.7371199	-0.1754746	-39.11089	0	11.46	4002	0	0	5	5	0.03807561	0.2525547	6	10	0.03	2000	-2.071655	40.92393	-91.39363
296186	-51	0	10	-0.74787	-0.1796293	-39.13012	0	11.46	4004	0	0	5	5	0.04209615	0.2526301	6	10	0.03	2000	-2.052429	40.92393	-91.39363
296273	-54	-3	7	-0.7451435	-0.1799334	-39.14177	0	11.46	4004	0	0	5	5	0.04348236	0.2519359	6	10	0.03	2000	-2.278412	40.92393	-91.39363
296397	-48	-1	7	-0.7374035	-0.1764291	-39.16527	0	11.46	4004	0	0	5	5	0.0411013	0.2447621	6	10	0.03	2000	-2.289124	40.92393	-91.39363
296515	-56	0	14	-0.7353027	-0.1743582	-39.17461	0	11.46	4002	0	0	5	5	0.04362694	0.2340496	6	10	0.03	2000	-2.068359	40.92393	-91.39363
296591	-55	0	8	-0.7430504	-0.1702926	-39.18847	0	11.46	4004	0	0	5	5	0.04426763	0.2265775	6	10	0.03	2000	-2.067261	40.92393	-91.39363
296697	-51	5	6	-0.7426782	-0.1670096	-39.20172	0	11.46	4003	0	0	5	5	0.04463693	0.2213032	6	10	0.03	2000	-2.292175	40.92393	-91.39363
296812	-60	4	-2	-0.7445454	-0.1687754	-39.22262	0	11.46	4004	0	0	5	5	0.04586999	0.2136721	6	10	0.03	2000	-2.063812	40.92393	-91.39363
296872	-48	21	15	-0.7421817	-0.1643871	-39.2291	0	11.46	4003	0	0	5	5	0.04710332	0.2156526	6	10	0.03	2000	-2.293884	40.92393	-91.39363
297054	-38	10	3	-0.7449274	-0.1713434	-39.25196	0	11.46	4002	0	0	5	5	0.04621579	0.2180668	6	10	0.03	2000	-2.51767	40.92393	-91.39363
297153	-77	10	-46	-0.7395871	-0.1788145	-39.26211	0	11.46	4003	0	0	5	5	0.04574911	0.2228108	6	10	0.03	2000	-2.064667	40.92393	-91.39363
297252	-41	39	-14	-0.7394758	-0.1805277	-39.27397	0	11.46	4003	0	0	5	5	0.04415624	0.244163	6	10	0.03	2000	-1.623596	40.92393	-91.39363
297373	-66	-47	-20	-0.7324755	-0.1834722	-39.28075	0	11.46	4004	0	0	5	5	0.04343721	0.2514576	6	10	0.03	2000	-2.480713	40.92393	-91.39363
297419	-34	20	2	-0.7258566	-0.1860537	-39.29573	0	11.46	4004	0	0	5	5	0.04306971	0.2586391	6	10	0.03	2000	-2.484802	40.92393	-91.39363
297527	-58	-4	21	-0.7227562	-0.1827262	-39.31231	0	11.46	4003	0	0	5	5	0.04257996	0.2602367	6	10	0.03	2000	-2.520813	40.92393	-91.39363
297572	-59	3	3	-0.7211509	-0.1827212	-39.32417	0	11.46	4003	0	0	5	5	0.04322687	0.2602746	6	10	0.03	2000	-2.499359	40.92393	-91.39363
297696	-32	-15	3	-0.7149487	-0.1790779	-39.33633	0	11.46	4003	0	0	5	5	0.04435503	0.2711681	6	10	0.03	2000	-2.515472	40.92393	-91.39363
297830	-52	1	24	-0.7069877	-0.1856001	-39.35496	0	11.46	4003	0	0	5	5	0.04608724	0.285522	6	10	0.03	2000	-2.974426	40.92393	-91.39363
297901	-32	1	20	-0.7075554	-0.1832379	-39.3651	0	11.46	4003	0	0	5	5	0.04671514	0.2913603	6	10	0.03	2000	-2.539368	40.92393	-91.39363
298026	-59	-5	7	-0.6966794	-0.1813613	-39.37787	0	11.46	4003	0	0	5	5	0.04744057	0.2853199	6	10	0.03	2000	-2.534821	40.92393	-91.39363
298155	-45	18	18	-0.6857914	-0.1909006	-39.39872	0	11.46	4004	0	0	5	5	0.04811167	0.275335	3	10	0.03	2000	-2.342529	40.92393	-91.39363
298226	-52	12	21	-0.6808953	-0.1942663	-39.40557	0	11.46	4003	0	0	5	5	0.04437956	0.2777191	3	10	0.03	2000	-2.564056	40.92393	-91.39363
298334	-52	-3	2	-0.6813492	-0.1910079	-39.42292	0	11.46	4003	0	0	5	5	0.03890792	0.285903	3	10	0.03	2000	-2.591614	40.92393	-91.39363
298360	-45	-2	2	-0.6798649	-0.1943715	-39.42604	0	11.46	4003	0	0	5	5	0.03786402	0.2893373	3	10	0.03	2000	-2.591614	40.92393	-91.39363
298509	-35	-4	7	-0.6584706	-0.198525	-39.44576	0	11.46	4002	0	0	5	5	0.03463307	0.2919162	3	10	0.03	2000	-2.605377	40.92393	-91.39363
298602	-39	-1	-59	-0.6614717	-0.195692	-39.45352	0	11.46	4004	0	0	5	5	0.03251325	0.2795767	3	10	0.03	2000	-2.617584	40.92393	-91.39363
298657	-84	15	-51	-0.6603069	-0.1974408	-39.45579	0	11.46	4003	0	0	5	5	0.03251325	0.2795767	3	10	0.03	2000	-2.617584	40.92393	-91.39363
298796	-11	21	-14	-0.653257	-0.1946255	-39.47646	0	11.46	4004	0	0	5	5	0.03061828	0.2763847	3	10	0.03	2000	-2.594666	40.92393	-91.39363
298933	-3	-106	111	-0.635181	-0.182958	-39.49694	0	11.46	4002	0	0	5	5	0.03003582	0.2737281	3	10	0.03	2000	-2.070465	40.92393	-91.39363
299013	-108	-51	199	-0.6401799	-0.2005724	-39.51425	0	11.46	4004	0	0	5	5	0.02949699	0.2705684	3	10	0.03	2000	-2.476929	40.92393	-91.39363
299121	-57	-6	44	-0.6293109	-0.228895	-39.53057	0	11.46	4003	0	0	5	5	0.02921841	0.2664551	3	10	0.03	2000	-2.46637	40.92393	-91.39363
299191	-34	197	50	-0.6583664	-0.1854559	-39.54586	0	11.46	4006	0	0	5	5	0.02907602	0.262271	3	10	0.03	2000	-2.092804	40.92393	-91.39363
299355	-259	103	-149	-0.6475453	-0.2019227	-39.55744	0	11.46	4002	0	0	5	5	0.02882744	0.2660301	3	10	0.03	2000	-2.271576	40.92393	-91.39363
299462	-45	-32	105	-0.5567332	-0.1709548	-39.5851	0	11.46	4002	0	0	5	5	0.0287303	0.2752354	3	10	0.03	2000	-2.088043	40.92393	-91.39363
299527	11	-82	-23	-0.5551529	-0.1834174	-39.5873	0	11.46	4003	0	0	5	5	0.02865949	0.2828905	3	10	0.03	2000	-2.56189	40.92393	-91.39363
299639	53	-185	381	-0.4570368	-0.1756342	-39.60241	0	11.4	4002	0	0	5	5	0.02860787	0.2843015	3	10	0.03	2000	-2.719788	40.92393	-91.39363
299729	-99	38	208	-0.4753025	-0.166301	-39.61275	0	11.4	4004	0	0	5	5	0.02858148	0.2847608	3	10	0.03	2000	-2.514923	40.92393	-91.39363
299846	-321	61	106	-0.4835397	-0.2208881	-39.63298	0	11.4	4003	0	0	5	5	0.02856011	0.2854318	3	10	0.03	2000	-2.964722	40.92393	-91.39363
299956	-151	47	-60	-0.3942631	-0.2329641	-39.6425	0	11.4	4003	0	0	5	5	0.0285228	0.2915718	3	10	0.03	2000	-2.438995	40.92393	-91.39363
300103	-281	-151	0	-0.4155946	-0.2273153	-39.64971	0	11.4	4003	0	0	5	5	0.02850077	0.3124653	3	10	0.03	2000	-3.059601	40.92393	-91.39363
300190	-243	-1	-86	-0.4032039	-0.2086998	-39.67062	0	11.4	4004	0	0	5	5	0.02849473	0.3280298	3	10	0.03	2000	-2.895477	40.92393	-91.39363
300279	311	-6	-30	-0.4208517	-0.1775961	-39.6886	0	11.4	4002	0	0	5	5	0.02848588	0.3520676	3	10	0.03	2000	-3.113464	40.92393	-91.39363
300362	-344	175	-60	-0.3978301	-0.2053089	-39.68928	0	11.4	4003	0	0	5	5	0.02848268	0.3578233	3	10	0.03	2000	-2.810089	40.92393	-91.39363
300455	86	-164	157	-0.4334849	-0.1980546	-39.71267	0	11	4003	0	0	5	5	0.02847897	0.3631479	3	10	0.03	2000	-2.596069	40.92393	-91.39363
300516	223	-60	47	-0.4104175	-0.2003864	-39.70044	0	11	4002	0	0	5	5	0.02847708	0.3637414	3	10	0.03	2000	-2.516541	40.92393	-91.39363
300620	-246	-52	-45	-0.4374924	-0.1950963	-39.71668	0	11	4004	0	0	5	5	0.02847554	0.3591623	3	10	0.03	2000	-2.075256	40.92393	-91.39363
300759	175	19	31	-0.5107632	-0.1741613	-39.74352	0	11	4004	0	0	5	5	0.02408557	0.3488569	6	10	0.03	2000	-2.423645	40.92393	-91.39363
300852	-278	62	24	-0.5407596	-0.1864111	-39.74614	0	11	4003	0	0	5	5	0.02722338	0.3474138	6	10	0.03	2000	-2.388855	40.92393	-91.39363
300963	202	-21	17	-0.5302157	-0.198199	-39.76515	0	11	4004	0	0	5	5	0.03191617	0.3546374	6	10	0.03	2000	-2.895691	40.92393	-91.39363
301059	-146	-15	-11	-0.6459993	-0.1365326	-39.78581	0	11	4002	0	0	5	5	0.03275461	0.3538474	6	10	0.03	2000	-1.809753	40.92393	-91.39363
301126	-156	3	349	-0.711876	-0.1453354	-39.79747	0	11	4003	0	0	5	5	0.03576318	0.3496728	6	10	0.03	2000	-2.351349	40.92393	-91.39363
301161	-193	-33	124	-0.6788161	-0.1884702	-39.79785	0	11	4003	0	0	5	5	0.03681945	0.3522086	6	10	0.03	2000	-2.351349	40.92393	-91.39363
301239	-215	43	-164	-0.6155396	-0.3026253	-39.8072	0	11	4003	0	0	5	5	0.03766989	0.3589285	6	10	0.03	2000	-2.070831	40.92393	-91.39363
301424	83	-15	-364	-0.6895685	-0.3104934	-39.87095	0	11.23	4003	0	0	5	5	0.03910455	0.393823	6	10	0.03	2000	-2.216125	40.92393	-91.39363
301542	-7	131	-10	-0.7232529	-0.3994858	-39.88128	0	11.23	4003	0	0	5	5	0.04178844	0.417015	6	10	0.03	2000	-2.181946	40.92393	-91.39363
301637	264	284	-598	-0.6804962	-0.424573	-40.06443	0	11.23	4003	0	0	5	5	0.03920562	0.4374704	6	10	0.03	2000	-2.390869	40.92393	-91.39363
301753	-254	-116	691	-0.7754149	-0.7436051	-40.19858	0	11.23	4004	0	0	5	5	0.0365114	0.4486274	6	10	0.03	2000	-1.509705	40.92393	-91.39363
301853	-210	220	380	-0.9765711	-1.214423	-40.06603	0	11.23	4003	0	0	5	5	0.0398717	0.4576255	6	10	0.03	2000	-1.008423	40.92393	-91.39363
301886	277	-588	-424	-1.00638	-1.360015	-40.03212	0	11.23	4003	0	0	5	5	0.04075513	0.4641957	6	10	0.03	2000	-1.008423	40.92393	-91.39363
301977	-5	-639	-995	-1.054637	-1.32295	-39.81705	0	11.23	4002	0	0	5	5	0.04337458	0.4808733	6	10	0.03	2000	-0.8893127	40.92393	-91.39363
302075	940	-688	-1012	-0.9802372	-0.7064494	-39.04554	0	11.23	4004	0	0	5	5	0.04337352	0.5052924	6	10	0.03	2000	-1.369995	40.92393	-91.39363
302222	1473	-1807	-1267	2.099376	0.7594695	-38.23753	0	11.17	4003	0	0	5	5	0.04725766	0.5262268	6	10	0.03	2000	-0.9793396	40.92393	-91.39363
302261	645	-18	-129	3.008495	1.68852	-37.92397	0	11.17	4003	0	0	5	5	0.0488774	0.5329767	6	10	0.03	2000	0.8022827	40.92393	-91.39363
302312	774	1832	401	3.422112	0.2009026	-37.92177	0	11.17	4004	0	0	5	5	0.05471013	0.5418918	6	10	0.03	2000	0.8022827	40.92393	-91.39363
302402	188	1938	841	3.736166	-2.390733	-38.1072	0	11.17	4004	0	0	5	5	0.06242633	0.5474676	6	10	0.03	2000	1.864185	40.92393	-91.39363
302504	-1301	3003	329	0.843903	-7.46842	-38.52243	0	11.17	4003	0	0	5	5	0.07195318	0.5497321	6	10	0.03	2000	5.464448	40.92393	-91.39362
302667	-428	1728	-68	-0.6891698	-13.34851	-38.94879	0	11.17	4004	0	0	5	5	0.0826555	0.5507674	6	10	0.03	2000	5.215344	40.92393	-91.39362
302747	-459	598	569	-1.565169	-14.70632	-39.38025	0	11.17	4002	0	0	5	5	0.08949978	0.5467762	6	10	0.03	2000	5.257713	40.92393	-91.39362
302863	1043	-2985	493	-0.2736048	-9.780445	-38.5656	0	11.17	4004	0	0	5	5	0.1376876	0.5397995	6	10	0.03	2000	6.195583	40.92393	-91.39362
302965	1710	2223	-201	-0.4880258	-9.313401	-38.35869	0	11.17	4003	0	0	5	5	0.1658213	0.5332266	6	10	0.03	2000	6.965413	40.92393	-91.39362
303009	506	-2803	50	1.571647	-8.745987	-38.05301	0	10.6	4002	-161	300	5	5	0.2199765	0.5286886	6	10	0.03	2000	4.267248	40.92393	-91.39362
303022	683	-519	-518	1.084485	-4.357441	-37.44382	0	10.6	4004	-160	300	5	5	0.2199765	0.5286886	8	10	0.03	2000	5.005801	40.92393	-91.39362
303175	-3878	-3775	-300	0.2182331	1.933991	-37.68206	0	10.6	4005	-117	300	5	5	0.2967627	0.5277047	8	10	0.03	2000	6.380028	40.92393	-91.39362
303212	-470	-3156	814	-0.7144201	3.810477	-37.8546	0	10.6	4003	-117	300	5	5	0.3078348	0.5284525	8	10	0.03	2000	8.850993	40.92393	-91.39362
303379	1841	-1056	-781	-0.2928418	8.497087	-37.86746	0	10.6	4004	-117	300	5	5	0.3545263	0.5471586	8	10	0.03	2000	13.14577	40.92393	-91.39362
303431	-3939	-786	182	-1.419426	8.388071	-37.97924	0	10.6	4003	-77	300	5	5	0.3598221	0.5523533	8	10	0.03	2000	14.62477	40.92393	-91.39362
303512	473	-1103	183	-3.145097	9.828695	-38.70926	0	10.6	4004	-77	300	5	5	0.3688779	0.5731135	8	10	0.03	2000	14.0073	40.92393	-91.39362
303726	-4085	4411	1400	-0.6868474	6.334921	-39.04291	0	10.6	4003	84	0	5	5	0.3890188	0.6820186	8	10	0.03	2000	12.35251	40.92393	-91.39361
303828	-1615	4928	-1310	-4.502515	-6.6027	-38.91396	0	10.6	4003	87	0	5	5	0.3925272	0.7303947	8	10	0.03	2000	4.901121	40.92393	-91.3936
303948	-2115	4270	-917	-8.329198	-12.92691	-38.47476	0	10.66	4003	104	0	5	5	0.3976708	0.8124779	8	10	0.03	2000	3.634365	40.92393	-91.3936
304061	-1692	1734	-751	-10.72855	-18.12337	-37.92866	0	10.66	4003	87	-21	5	5	0.4003302	0.8847951	8	10	0.03	2000	-2.479309	40.92393	-91.3936
304134	-1217	682	-1434	-11.18667	-18.77058	-37.87339	0	10.66	4002	87	-41	5	5	0.4022689	0.94042	8	10	0.03	2000	-2.479309	40.92393	-91.3936
304254	-2214	-515	2458	-13.09912	-21.21367	-37.87851	0	10.66	4004	130	-41	5	5	0.4040623	1.022515	8	10	0.03	2000	-6.066284	40.92393	-91.39359
304409	733	-3518	-956	-10.97931	-14.68836	-38.2008	0	10.66	4004	107	-25	5	5	0.405239	1.130751	8	10	0.03	2000	-8.534729	40.92392	-91.39359
304494	1101	-674	-1885	-10.39703	-12.73333	-38.33578	0	10.66	4004	92	-42	5	5	0.4058474	1.213799	8	10	0.03	2000	-9.115112	40.92392	-91.39359
304610	-1185	-2550	-247	-9.780024	-10.47016	-37.92052	0	10.66	4004	92	-42	5	5	0.4064102	1.424417	8	10	0.03	2000	-9.416473	40.92392	-91.39359
304662	-1437	-1045	2223	-10.44589	-7.919553	-38.46123	0	10.66	4004	92	-42	5	5	0.4065176	1.464882	8	10	0.03	2000	-9.841095	40.92392	-91.39359
304739	1085	83	-687	-9.384168	-8.944553	-38.98132	0	10.66	4003	110	-26	5	5	0.4066142	1.486044	8	10	0.03	2000	-9.841095	40.92392	-91.39359
304835	-182	810	838	-7.873238	-11.04044	-39.27187	0	11.23	4003	92	-22	5	5	0.4069704	1.711942	8	10	0.03	2000	-11.39218	40.92392	-91.39359
304980	558	-4039	275	-7.939629	-7.660963	-39.18144	0	11.23	4004	94	-1	5	5	0.407147	1.824903	8	10	0.03	2000	-11.60129	40.92393	-91.39358
305086	-121	-2071	-727	-8.693578	0.1865813	-38.09761	0	11.23	4002	54	18	5	5	0.4072629	1.927665	8	10	0.03	2000	-12.35541	40.92393	-91.39358
305200	179	-2174	641	-7.88899	3.080745	-38.30899	0	11.23	4004	54	18	5	5	0.4073229	2.10507	8	10	0.03	2000	-12.67722	40.92393	-91.39358
305256	-599	1090	-376	-8.228141	1.471758	-39.23832	0	11.23	4002	54	18	5	5	0.407339	2.120955	8	10	0.03	2000	-14.59341	40.92393	-91.39358
305336	617	301	89	-7.826149	-0.8368109	-39.50061	0	11.23	4004	54	18	5	5	0.4073783	2.212422	8	10	0.03	2000	-14.59341	40.92393	-91.39358
305401	180	-128	556	-8.161757	-1.926341	-39.7709	0	11.23	4003	54	18	5	5	0.4073984	2.252387	8	10	0.03	2000	-14.06998	40.92393	-91.39358
305560	-7	-754	-269	-6.209382	-0.5402492	-37.85913	0	11.23	4002	14	-1	5	5	0.4074335	2.38097	8	10	0.03	2000	-15.38849	40.92393	-91.39358
305676	-3	1095	739	-5.89067	-1.362802	-38.25367	0	11.23	4003	5	7	5	5	0.4074472	2.463973	8	10	0.03	2000	-14.97299	40.92393	-91.39358
305766	1032	-1665	122	-5.544859	-1.348481	-38.66563	0	11.23	4002	14	20	5	5	0.4074571	2.524624	8	10	0.03	2000	-13.05096	40.92393	-91.39358
305868	1937	-2058	348	-3.194662	0.1997775	-38.9812	0	11.23	4004	14	41	5	5	0.4074664	2.598272	8	10	0.03	2000	-14.00159	40.92393	-91.39358
305931	371	-1030	64	-2.10176	2.027871	-38.922	0	11.23	4004	14	41	5	5	0.4074681	2.608854	8	10	0.03	2000	-12.46704	40.92393	-91.39358
306035	242	-26	-735	-2.615043	1.371051	-38.0536	0	11.23	4002	14	41	5	5	0.4074724	2.644054	8	10	0.03	2000	-11.88239	40.92393	-91.39358
306147	968	-1105	-279	-1.701849	0.5475786	-38.2402	0	11.23	4003	14	41	5	5	0.4074764	2.676391	8	10	0.03	2000	-10.29065	40.92393	-91.39358
306247	-101	380	1174	-2.126849	0.4131923	-38.99366	0	11.23	4003	14	41	5	5	0.4074785	2.678218	8	10	0.03	2000	-8.34552	40.92393	-91.39358
306295	429	161	-882	-2.185363	-1.064121	-39.36363	0	11.23	4003	14	41	5	5	0.407479	2.674111	8	10	0.03	2000	-5.865356	40.92393	-91.39358
306399	251	-416	-325	-1.987745	-1.710638	-39.33859	0	11.23	4004	-28	21	5	5	0.4074807	2.652915	8	10	0.03	2000	-5.865356	40.92393	-91.39359
306524	-962	3736	-482	0.3532766	-8.513517	-38.13871	0	11.23	4004	-28	1	5	5	0.4074813	2.631163	8	10	0.03	2000	0.04594686	40.92393	-91.39359
306673	787	997	-375	-0.9696561	-14.07632	-37.35111	0	10.32	4003	-28	1	5	5	0.4074826	2.549164	8	10	0.03	2000	2.628092	40.92393	-91.39359
306704	698	236	566	-0.5123574	-14.30397	-37.58243	0	10.32	4003	-28	1	5	5	0.4074827	2.523484	8	10	0.03	2000	4.127895	40.92393	-91.39359
306878	1817	94	-87	-2.546032	-6.882238	-39.13427	0	10.32	4004	-33	-23	5	5	0.4074832	2.417844	8	10	0.03	2000	11.12673	40.92393	-91.39359
306936	2112	842	-615	-1.431762	-5.880486	-38.67388	0	10.32	4003	-28	-20	5	5	0.4074834	2.365425	8	10	0.03	2000	10.07664	40.92393	-91.39359
307062	-2168	-202	806	-0.3624682	-7.160886	-37.41323	0	10.32	4003	12	-20	5	5	0.4074836	2.291481	8	10	0.03	2000	18.52592	40.92393	-91.39359
307196	-127	-224	973	-2.874431	-4.662867	-37.53792	0	10.32	4004	12	-41	5	5	0.4074837	2.150723	8	10	0.03	2000	18.00289	40.92393	-91.39359
307353	-1094	456	-241	-4.520937	-3.970504	-36.38202	0	10.32	4004	12	-41	5	5	0.4074839	2.058857	8	10	0.03	2000	19.52422	40.92393	-91.39359
307448	-954	820	-563	-4.421585	-6.514677	-37.51569	0	10.32	4003	12	-21	5	5	0.4074839	2.019642	8	10	0.03	2000	18.84155	40.92393	-91.39359
307524	1013	678	-958	-4.084365	-7.633101	-37.72769	0	9.98	4002	12	-63	5	5	0.4074839	1.991019	8	10	0.03	2000	17.9494	40.92392	-91.39359
307613	-1764	752	1044	-5.231452	-9.08667	-37.90081	0	9.98	4002	12	-63	5	5	0.4074839	1.954356	8	10	0.03	2000	19.38437	40.92392	-91.39359
307747	568	1734	170	-6.305537	-8.085113	-37.73927	0	9.98	4003	54	-63	5	5	0.4074839	1.939308	8	10	0.03	2000	13.95643	40.92392	-91.39358
307799	367	856	-1305	-6.477645	-8.362439	-37.16711	0	9.98	4002	54	-43	5	5	0.4074839	1.935915	8	10	0.03	2000	13.58172	40.92392	-91.39358
307985	-2007	1284	1746	-9.296995	-7.020538	-37.54285	0	9.98	4003	54	-64	5	5	0.4074839	1.94807	8	10	0.03	2000	10.67452	40.92392	-91.39358
308041	-1074	1167	-837	-9.497866	-7.595303	-37.65818	0	9.98	4002	54	-64	5	5	0.4074839	1.955444	8	10	0.03	2000	6.306301	40.92391	-91.39357
308142	-347	2065	844	-10.21997	-11.39785	-39.30027	0	9.98	4004	96	-46	5	5	0.4074839	1.967909	8	10	0.03	2000	4.460779	40.92391	-91.39357
308260	616	-1808	503	-8.953424	-8.089912	-39.8688	0	9.98	4003	115	-55	5	5	0.4074839	1.995903	8	10	0.03	2000	1.560609	40.92391	-91.39357
308326	1281	-152	-1259	-7.086246	-6.314503	-39.28928	0	9.98	4003	56	-46	5	5	0.4074839	2.008649	8	10	0.03	2000	0.6486254	40.92391	-91.39357
308506	146	521	-345	-5.462895	-6.502033	-38.15053	0	10.09	4004	56	-47	5	5	0.4074839	2.077686	8	10	0.03	2000	-1.205566	40.92391	-91.39357
308686	-860	-247	2058	-5.282464	-7.994607	-38.59474	0	10.09	4004	17	-48	5	5	0.4074839	2.169029	8	10	0.03	2000	-1.237122	40.9239	-91.39357
308771	-296	1062	1306	-4.652241	-6.504739	-39.25665	0	10.09	4003	58	-48	5	5	0.4074839	2.227985	8	10	0.03	2000	-1.202393	40.9239	-91.39356
308867	-309	135	-334	-5.064147	-7.032325	-39.84476	0	10.09	4003	70	-57	5	5	0.4074839	2.320233	8	10	0.03	2000	-2.202332	40.9239	-91.39356
308904	97	-1252	-1008	-4.999195	-6.552846	-39.59986	0	10.09	4003	59	-48	5	5	0.4074839	2.354044	8	10	0.03	2000	-3.557312	40.9239	-91.39356
309012	-678	1398	-539	-4.186841	-4.893937	-38.74228	0	10.09	4002	59	-48	5	5	0.4074839	2.4547	8	10	0.03	2000	-5.242035	40.9239	-91.39356
309132	176	-1566	-1287	-5.226804	-5.585221	-38.10914	0	10.09	4004	59	-28	5	5	0.4074839	2.521287	8	10	0.03	2000	-6.046814	40.9239	-91.39356
309238	-1448	160	662	-3.826265	-7.40925	-37.85405	0	10.09	4003	59	-29	5	5	0.4074839	2.606744	8	10	0.03	2000	-4.897583	40.9239	-91.39356
309338	-1376	-1803	705	-5.828256	-7.014159	-38.45316	0	10.55	4003	59	-29	5	5	0.4074839	2.698668	8	10	0.03	2000	-4.105194	40.9239	-91.39356
309456	-192	-83	-977	-5.370893	-2.482242	-39.0532	0	10.55	4003	19	-29	5	5	0.4074839	2.768261	8	10	0.03	2000	-3.761261	40.9239	-91.39355
309546	-937	1269	-44	-6.152263	-3.784375	-39.3847	0	10.55	4002	61	-50	5	5	0.4074839	2.863704	8	10	0.03	2000	-2.722443	40.9239	-91.39355
309635	1494	-1266	-995	-5.661561	-4.31422	-38.95574	0	10.55	4003	61	-50	5	5	0.4074839	2.903134	8	10	0.03	2000	-4.610901	40.9239	-91.39355
309769	161	-872	-1948	-5.013586	-5.777803	-38.83558	0	10.55	4004	61	-30	5	5	0.4074839	2.967231	8	10	0.03	2000	-7.653625	40.9239	-91.39355
309803	922	-823	-776	-4.621161	-5.983922	-38.7727	0	10.55	4004	61	-30	5	5	0.4074839	2.989753	8	10	0.03	2000	-7.320404	40.9239	-91.39355
309922	-1911	-90	311	-4.28418	-7.451495	-39.34965	0	10.55	4003	61	-30	5	5	0.4074839	3.028909	8	10	0.03	2000	-6.147003	40.9239	-91.39355
310027	769	-1653	-595	-4.668386	-6.509414	-38.90859	0	10.55	4003	61	-30	5	5	0.4074839	3.082099	8	10	0.03	2000	-6.643768	40.9239	-91.39355
310047	56	-1089	-257	-4.306348	-5.448407	-38.72798	0	10.55	4003	61	-30	5	5	0.4074839	3.090488	8	10	0.03	2000	-6.643768	40.9239	-91.39355
310159	98	-742	458	-4.969693	-4.095544	-38.35085	0	10.55	4003	21	-10	5	5	0.4074839	3.126422	8	10	0.03	2000	-5.244934	40.9239	-91.39355
310240	355	-1185	595	-5.297493	-2.083577	-38.79622	0	11.29	4003	21	-10	5	5	0.4074839	3.146331	8	10	0.03	2000	-3.420013	40.9239	-91.39355
310353	549	-630	284	-4.309661	-0.8239509	-38.9658	0	11.29	4002	21	-10	5	5	0.4074839	3.153941	8	10	0.03	2000	-4.871429	40.92389	-91.39355
310484	-1118	1265	285	-3.918423	-3.53679	-39.58862	0	11.29	4003	21	-32	5	5	0.4074839	3.157716	8	10	0.03	2000	-0.884552	40.92389	-91.39355
310559	633	1655	449	-4.573266	-4.800477	-39.73568	0	11.29	4004	-20	-32	5	5	0.4074839	3.150524	8	10	0.03	2000	-2.106567	40.92389	-91.39356
310628	889	1367	659	-3.099464	-5.453656	-39.66957	0	11.29	4002	-20	-32	5	5	0.4074839	3.141152	8	10	0.03	2000	-1.506866	40.92389	-91.39356
310785	988	1135	-2641	-2.730048	-8.18249	-38.14251	0	11.29	4002	-20	-53	5	5	0.4074839	3.07268	8	10	0.03	2000	-0.316864	40.92389	-91.39356
310851	1289	4380	-838	-2.141681	-10.92058	-37.65881	0	11.29	4002	-20	-53	5	5	0.4074839	3.033737	8	10	0.03	2000	2.528955	40.92389	-91.39356
310943	131	375	1949	-0.5292181	-12.27129	-38.03162	0	11.29	4004	-20	-53	5	5	0.4074839	2.985148	8	10	0.03	2000	1.533719	40.92389	-91.39356
311135	-65	1417	-1660	-0.4178672	-15.5548	-38.82311	0	10.72	4003	-20	-54	5	5	0.4074839	2.823942	8	10	0.03	2000	6.250234	40.92389	-91.39356
311289	1284	603	-1083	-0.8109947	-15.47009	-38.39834	0	10.72	4004	19	-54	5	5	0.4074839	2.59984	8	10	0.03	2000	5.655	40.92389	-91.39356
311390	2149	-1050	-931	-2.179302	-14.48039	-39.34399	0	10.72	4004	19	-34	5	5	0.4074839	2.507728	8	10	0.03	2000	3.226608	40.92389	-91.39356
311493	-944	-2302	-977	-2.62575	-9.959648	-39.44487	0	10.72	4003	19	-55	5	5	0.4074839	2.439023	8	10	0.03	2000	4.176572	40.92388	-91.39356
311572	627	70	789	-1.765236	-8.806104	-39.54846	0	10.72	4003	19	-55	5	5	0.4074839	2.382441	8	10	0.03	2000	4.612678	40.92388	-91.39356
311642	-2677	762	280	-4.506006	-9.361028	-39.45274	0	10.72	4004	61	-55	5	5	0.4074839	2.285617	8	10	0.03	2000	4.677239	40.92388	-91.39355
