time(ms)	gyro_x(deg/s)	gyro_y(deg/s)	gyro_z(deg/s)	orientation_roll(deg)	orientation_pitch(deg)	orientation_yaw(deg)	throttle	battery(V)	loop_time(uS)	pid_output_roll	pid_output_pitch	pid_output_yaw	pid_output_throttle	ultrasonic_alt	baro_alt	flight_mode	p_gain_altitude	i_gain_altitude	d_gain_altitude	compass_heading	latitude	longitude
589654	18	0	-2	0.2172101	-0.031054	-0.04120813	0	11.06	4003	0	0	5	5	0.04253198	-0.05969145	1	10	0.03	2000	-2.094849	40.92392	-91.39363
589755	18	-1	0	0.2139264	-0.03616764	-0.04029117	0	11.06	4002	0	0	5	5	0.04253198	-0.05775926	1	10	0.03	2000	-2.320251	40.92392	-91.39362
589794	11	0	-1	0.2125261	-0.0372176	-0.0399855	0	11.06	4003	0	0	5	5	0.04253198	-0.05682151	1	10	0.03	2000	-2.32254	40.92392	-91.39362
589857	10	1	1	0.2112134	-0.03350325	-0.03955757	0	11.06	4004	0	0	5	5	0.04253198	-0.05230566	1	10	0.03	2000	-2.32254	40.92392	-91.39362
590063	16	3	3	0.2087796	-0.0289368	-0.0357057	0	11.06	4002	0	0	5	5	0.04253198	-0.02636478	1	10	0.03	2000	-2.073181	40.92392	-91.39362
590186	15	3	1	0.2098572	-0.03425773	-0.03185305	0	11.06	4002	0	0	5	5	0.04253198	-0.02069902	1	10	0.03	2000	-2.067841	40.92392	-91.39362
590327	16	-2	2	0.21463	-0.03082679	-0.0294686	0	11.06	4003	0	0	5	5	0.04253198	-0.02364109	1	10	0.03	2000	-2.079956	40.92392	-91.39362
590377	8	-6	2	0.2138277	-0.03339864	-0.029224	0	11.06	4002	0	0	5	5	0.04253198	-0.02552503	1	10	0.03	2000	-2.079956	40.92392	-91.39362
590472	20	0	0	0.2201166	-0.03114003	-0.02818478	0	11.06	4003	0	0	5	5	0.04253198	-0.02615195	1	10	0.03	2000	-2.080078	40.92392	-91.39362
590672	23	-3	0	0.2258639	-0.03184848	-0.02482237	0	10.94	4003	0	0	5	5	0.04253198	-0.02766087	1	10	0.03	2000	-2.33847	40.92392	-91.39362
590746	14	-1	1	0.2234197	-0.02982755	-0.02439399	0	10.94	4002	0	0	5	5	0.04253198	-0.02670107	1	10	0.03	2000	-2.103882	40.92392	-91.39362
590854	12	-1	-4	0.2257592	-0.03784521	-0.02323229	0	10.94	4004	0	0	5	5	0.04253198	-0.02090266	1	10	0.03	2000	-2.102356	40.92392	-91.39362
590952	11	5	0	0.2242834	-0.03780389	-0.02017557	0	10.94	4003	0	0	5	5	0.04253198	-0.02353552	1	10	0.03	2000	-2.091675	40.92392	-91.39362
591014	18	1	-1	0.2273245	-0.04208034	-0.01870831	0	10.94	4004	0	0	5	5	0.04253198	-0.024891	1	10	0.03	2000	-2.103241	40.92392	-91.39362
591195	10	-6	-5	0.227502	-0.03857407	-0.0146121	0	10.94	4003	0	0	5	5	0.04253198	-0.03302605	1	10	0.03	2000	-2.343689	40.92392	-91.39362
591359	15	-5	1	0.2128911	-0.04186877	-0.01216645	0	10.94	4003	0	0	5	5	0.04253198	-0.03811852	1	10	0.03	2000	-2.320313	40.92392	-91.39362
591480	17	0	-4	0.199752	-0.03737473	-0.01124953	0	10.94	4002	0	0	5	5	0.04253198	-0.0321646	1	10	0.03	2000	-2.292542	40.92392	-91.39362
591550	18	-1	2	0.201695	-0.03807848	-0.01137183	0	11	4003	0	0	5	5	0.04253198	-0.03138424	1	10	0.03	2000	-2.05072	40.92392	-91.39362
591622	12	-1	-3	0.2061395	-0.03545382	-0.009171009	0	11	4003	0	0	5	5	0.04253198	-0.0291835	1	10	0.03	2000	-2.069	40.92392	-91.39362
591681	20	-2	-4	0.206977	-0.03318271	-0.008743208	0	11	4002	0	0	5	5	0.04253198	-0.02996786	1	10	0.03	2000	-2.069	40.92392	-91.39362
591810	12	0	0	0.2129833	-0.02124519	-0.005930917	0	11	4004	0	0	5	5	0.04253198	-0.02775236	1	10	0.03	2000	-2.074768	40.92392	-91.39362
591966	17	-3	-1	0.2070486	-0.02596482	-0.004585925	0	11	4003	0	0	5	5	0.04253198	-0.03132092	1	10	0.03	2000	-2.058685	40.92392	-91.39362
592068	16	-1	-5	0.209925	-0.02211184	-0.001712062	0	11	4004	0	0	5	5	0.04253198	-0.03546011	1	10	0.03	2000	-2.075531	40.92392	-91.39362
592159	18	0	2	0.2207691	-0.01889782	0.0009170071	0	11	4004	0	0	5	5	0.04253198	-0.03995189	1	10	0.03	2000	-2.326385	40.92392	-91.39362
592221	17	-2	1	0.2186172	-0.02047476	0.001589633	0	11	4002	0	0	5	5	0.04253198	-0.04223438	1	10	0.03	2000	-2.326385	40.92392	-91.39362
592289	20	-1	-2	0.2203418	-0.02159765	0.003668458	0	11	4002	0	0	5	5	0.04253198	-0.04403586	1	10	0.03	2000	-2.331543	40.92392	-91.39362
592393	13	-8	0	0.2134313	-0.02709791	0.0040969	0	11	4002	0	0	5	5	0.04253198	-0.05018397	1	10	0.03	2000	-2.074371	40.92392	-91.39362
592524	20	-2	-1	0.2155982	-0.03165954	0.008193175	0	11.06	4002	0	0	5	5	0.04253198	-0.05457236	1	10	0.03	2000	-2.326111	40.92392	-91.39362
592615	20	-1	-1	0.2200574	-0.03448473	0.01057741	0	11.06	4004	0	0	5	5	0.04253198	-0.06041471	1	10	0.03	2000	-2.081482	40.92392	-91.39362
592737	19	1	-6	0.2233513	-0.04392143	0.01155551	0	11.06	4004	0	0	5	5	0.04253198	-0.06162114	1	10	0.03	2000	-2.327637	40.92392	-91.39362
592801	17	2	-2	0.2205025	-0.03903279	0.01320612	0	11.06	4002	0	0	5	5	0.04253198	-0.06367977	1	10	0.03	2000	-2.327057	40.92392	-91.39362
593044	12	1	-4	0.2140105	-0.03653884	0.01522301	0	11.06	4003	0	0	5	5	0.04253198	-0.0781251	1	10	0.03	2000	-2.072418	40.92392	-91.39362
593162	20	0	3	0.2172571	-0.0400123	0.01681226	0	11.06	4004	0	0	5	5	0.04253198	-0.08270773	1	10	0.03	2000	-2.059418	40.92392	-91.39362
593230	17	1	-7	0.2191953	-0.04260112	0.01827953	0	11.06	4002	0	0	5	5	0.04253198	-0.08390541	1	10	0.03	2000	-2.336884	40.92392	-91.39362
593354	14	-13	-4	0.2223424	-0.03815111	0.0194413	0	11.06	4003	0	0	5	5	0.04253198	-0.08253724	1	10	0.03	2000	-2.335907	40.92392	-91.39362
593478	24	-2	-1	0.2309597	-0.03925873	0.02359864	0	11.06	4004	0	0	5	5	0.04253198	-0.08111805	1	10	0.03	2000	-2.344177	40.92392	-91.39362
593520	21	-1	0	0.2369202	-0.04153562	0.02451559	0	11.06	4003	0	0	5	5	0.04253198	-0.08384195	1	10	0.03	2000	-2.344177	40.92392	-91.39362
593615	15	0	-3	0.2375125	-0.04811827	0.02610527	0	11.06	4004	0	0	5	5	0.04253198	-0.08530348	1	10	0.03	2000	-2.367035	40.92392	-91.39362
593783	17	0	-5	0.2413209	-0.04077123	0.0274502	0	11.06	4004	0	0	5	5	0.04253198	-0.08441025	1	10	0.03	2000	-2.355865	40.92392	-91.39362
593934	19	-3	-2	0.2463455	-0.03322634	0.02647196	0	11.06	4003	0	0	5	5	0.04253198	-0.0787965	1	10	0.03	2000	-2.115662	40.92392	-91.39362
594066	14	-5	1	0.2477583	-0.0386381	0.02647231	0	11.06	4004	0	0	5	5	0.04253198	-0.07353333	1	10	0.03	2000	-2.378754	40.92392	-91.39362
594135	14	-4	0	0.2506498	-0.041209	0.02977423	0	11.06	4002	0	0	5	5	0.04253198	-0.07203919	1	10	0.03	2000	-2.131042	40.92392	-91.39362
594257	18	0	4	0.2477994	-0.0442025	0.02916287	0	11.06	4002	0	0	5	5	0.04253198	-0.06891866	1	10	0.03	2000	-2.13623	40.92392	-91.39362
594330	19	-3	-2	0.2431157	-0.04534367	0.03020198	0	10.94	4003	0	0	5	5	0.04253198	-0.06494615	1	10	0.03	2000	-2.122894	40.92392	-91.39362
594454	21	-2	4	0.2387045	-0.03735751	0.03350306	0	10.94	4004	0	0	5	5	0.04253198	-0.05807849	1	10	0.03	2000	-2.111206	40.92392	-91.39362
594545	13	-3	-3	0.2362221	-0.03667468	0.03637644	0	10.94	4002	0	0	5	5	0.04253198	-0.05658306	1	10	0.03	2000	-2.36676	40.92392	-91.39362
594645	17	4	0	0.2396354	-0.03468997	0.03790502	0	10.94	4004	0	0	5	5	0.04253198	-0.05874597	1	10	0.03	2000	-1.881073	40.92392	-91.39362
594781	21	2	4	0.2394412	-0.03562049	0.03747702	0	10.94	4003	0	0	5	5	0.04253198	-0.06587815	1	10	0.03	2000	-2.36731	40.92392	-91.39362
594858	14	-4	-2	0.2417374	-0.0291661	0.03949473	0	10.94	4004	0	0	5	5	0.04253198	-0.07051975	1	10	0.03	2000	-2.131073	40.92392	-91.39362
594914	18	4	-6	0.2418904	-0.02866191	0.04126768	0	10.94	4004	0	0	5	5	0.04253198	-0.07868908	1	10	0.03	2000	-2.131073	40.92392	-91.39362
595057	20	-4	0	0.2480652	-0.02682911	0.04560849	0	10.94	4004	0	0	5	5	0.04253198	-0.09490173	1	10	0.03	2000	-2.381409	40.92392	-91.39362
595119	11	1	0	0.2484108	-0.02536424	0.04573092	0	10.94	4003	0	0	5	5	0.04253198	-0.1023166	1	10	0.03	2000	-2.383453	40.92392	-91.39362
595233	23	1	3	0.2426494	-0.02309311	0.04652587	0	11	4003	0	0	5	5	0.04253198	-0.1085001	1	10	0.03	2000	-2.374084	40.92392	-91.39362
595355	11	5	3	0.242674	-0.02094782	0.04664808	0	11	4004	0	0	5	5	0.04253198	-0.1134022	1	10	0.03	2000	-2.131592	40.92392	-91.39362
595439	9	0	2	0.2394082	-0.02545781	0.0460979	0	11	4002	0	0	5	5	0.04253198	-0.1151266	1	10	0.03	2000	-2.368073	40.92392	-91.39362
595518	22	1	-2	0.2403478	-0.02249208	0.04524134	0	11	4002	0	0	5	5	0.04253198	-0.1192324	1	10	0.03	2000	-2.112823	40.92392	-91.39362
595708	16	2	-1	0.2392207	-0.02290128	0.04689164	0	11	4004	0	0	5	5	0.04253198	-0.1241346	1	10	0.03	2000	-2.120728	40.92392	-91.39362
595763	16	2	-1	0.2392207	-0.02290128	0.04689164	0	11	4004	0	0	5	5	0.04253198	-0.1230271	1	10	0.03	2000	-2.120728	40.92392	-91.39362
595862	19	-6	-3	0.2383673	-0.0284878	0.04719722	0	11	4002	0	0	5	5	0.04253198	-0.1178445	1	10	0.03	2000	-2.358246	40.92392	-91.39362
595994	10	8	2	0.2284159	-0.03720043	0.04805322	0	11	4003	0	0	5	5	0.04253198	-0.1163996	1	10	0.03	2000	-2.345032	40.92392	-91.39362
596107	15	0	0	0.2163864	-0.04014597	0.0497038	0	11	4003	0	0	5	5	0.04253198	-0.1152428	1	10	0.03	2000	-2.088501	40.92392	-91.39362
596190	16	-3	-2	0.2200633	-0.03803772	0.05013182	0	11	4004	0	0	5	5	0.04253198	-0.1138889	1	10	0.03	2000	-2.32843	40.92392	-91.39362
596232	21	-2	-5	0.2210737	-0.03751133	0.05098763	0	11	4002	0	0	5	5	0.04253198	-0.1109523	1	10	0.03	2000	-2.32843	40.92392	-91.39362
596377	16	1	4	0.2224919	-0.03732592	0.0503764	0	11	4004	0	0	5	5	0.04253198	-0.1068301	1	10	0.03	2000	-2.077057	40.92392	-91.39362
596454	7	0	0	0.2291203	-0.03507389	0.05111013	0	11	4004	0	0	5	5	0.04253198	-0.1058815	1	10	0.03	2000	-2.339386	40.92392	-91.39362
596537	16	0	-1	0.2268775	-0.03591837	0.05166038	0	11	4004	0	0	5	5	0.04253198	-0.1091755	1	10	0.03	2000	-2.09259	40.92392	-91.39362
596711	19	-3	1	0.2223251	-0.03931831	0.05331102	0	11	4003	0	0	5	5	0.04253198	-0.118552	1	10	0.03	2000	-2.104401	40.92392	-91.39362
596802	19	-2	-2	0.2178182	-0.03255733	0.05557343	0	11	4002	0	0	5	5	0.04253198	-0.1203824	1	10	0.03	2000	-2.08078	40.92392	-91.39362
596849	14	-2	-2	0.2202983	-0.03530503	0.05392293	0	11	4003	0	0	5	5	0.04253198	-0.1207941	1	10	0.03	2000	-2.336639	40.92392	-91.39362
596944	10	-2	0	0.2223953	-0.03433977	0.05459546	0	11	4002	0	0	5	5	0.04253198	-0.1301871	1	10	0.03	2000	-2.09317	40.92392	-91.39362
597092	13	4	6	0.2267616	-0.03930315	0.05123289	0	11	4002	0	0	5	5	0.04253198	-0.1401663	1	10	0.03	2000	-2.104614	40.92392	-91.39362
597165	17	-2	1	0.226451	-0.0339944	0.05208887	0	11	4003	0	0	5	5	0.04253198	-0.1464054	1	10	0.03	2000	-2.34613	40.92392	-91.39362
597321	15	0	5	0.2297192	-0.03081118	0.05288385	0	11	4003	0	0	5	5	0.04253198	-0.1453004	1	10	0.03	2000	-2.336731	40.92392	-91.39362
597404	16	-4	0	0.2347591	-0.03216425	0.05367875	0	11	4003	0	0	5	5	0.04253198	-0.1384967	1	10	0.03	2000	-2.112396	40.92392	-91.39362
597500	12	0	-6	0.2328236	-0.03565027	0.05777493	0	11	4002	0	0	5	5	0.04253198	-0.1284588	1	10	0.03	2000	-2.350433	40.92392	-91.39362
597542	23	-10	0	0.2314496	-0.03619479	0.0582031	0	11	4003	0	0	5	5	0.04253198	-0.1285003	1	10	0.03	2000	-2.112244	40.92392	-91.39362
597686	10	-3	0	0.2333682	-0.02396775	0.05967036	0	11	4004	0	0	5	5	0.04253198	-0.1323308	1	10	0.03	2000	-2.113037	40.92392	-91.39362
597812	15	0	-4	0.2322689	-0.02532247	0.06064854	0	11	4002	0	0	5	5	0.04253198	-0.1309028	1	10	0.03	2000	-2.344147	40.92392	-91.39362
597868	24	0	-5	0.2367697	-0.02714525	0.06113771	0	11	4004	0	0	5	5	0.04253198	-0.1300576	1	10	0.03	2000	-2.353729	40.92392	-91.39362
597948	16	-1	0	0.2365049	-0.02923756	0.06321619	0	11	4004	0	0	5	5	0.04253198	-0.1266932	1	10	0.03	2000	-2.356903	40.92393	-91.39362
598050	14	-1	2	0.2311102	-0.03080008	0.06443895	0	11	4004	0	0	5	5	0.04253198	-0.125637	1	10	0.03	2000	-2.110138	40.92393	-91.39362
598140	19	-2	-2	0.2334197	-0.02945591	0.06443884	0	11	4004	0	0	5	5	0.04253198	-0.1251893	1	10	0.03	2000	-2.104034	40.92393	-91.39362
598361	23	-4	2	0.2392529	-0.02859405	0.06884038	0	11	4004	0	0	5	5	0.04253198	-0.128217	1	10	0.03	2000	-2.355499	40.92393	-91.39362
598443	22	0	0	0.2351781	-0.03249193	0.07012442	0	11	4002	0	0	5	5	0.04253198	-0.1321476	1	10	0.03	2000	-2.115021	40.92393	-91.39362
598556	22	0	-4	0.2428417	-0.03383712	0.07250901	0	11	4003	0	0	5	5	0.04253198	-0.1345147	1	10	0.03	2000	-2.355469	40.92393	-91.39362
598697	21	-3	5	0.2415722	-0.02860594	0.07183643	0	11	4004	0	0	5	5	0.04253198	-0.1261432	1	10	0.03	2000	-2.357666	40.92393	-91.39362
598814	17	-3	5	0.2431612	-0.03279002	0.0732426	0	11	4004	0	0	5	5	0.04253198	-0.1211901	1	10	0.03	2000	-2.360992	40.92393	-91.39362
598910	17	-3	-4	0.2507103	-0.0316662	0.07617739	0	11	4003	0	0	5	5	0.04253198	-0.1150786	1	10	0.03	2000	-2.137268	40.92393	-91.39362
598968	18	-3	0	0.2539138	-0.03710608	0.07807269	0	11	4004	0	0	5	5	0.04253198	-0.1039127	1	10	0.03	2000	-2.376556	40.92393	-91.39362
599073	21	-8	0	0.262357	-0.03306368	0.07862275	0	11	4003	0	0	5	5	0.04253198	-0.09345613	1	10	0.03	2000	-1.910492	40.92393	-91.39362
599191	23	-1	0	0.2560378	-0.03615663	0.0820464	0	11	4003	0	0	5	5	0.04253198	-0.0856429	1	10	0.03	2000	-2.147461	40.92393	-91.39362
599266	11	-2	1	0.2545882	-0.03424644	0.0838804	0	11	4003	0	0	5	5	0.04253198	-0.0851329	1	10	0.03	2000	-2.397675	40.92393	-91.39362
599434	27	0	-1	0.2570969	-0.03957035	0.08822151	0	11	4004	0	0	5	5	0.04253198	-0.08049362	1	10	0.03	2000	-2.14798	40.92393	-91.39362
599475	12	-2	3	0.2606367	-0.0381484	0.08858819	0	11	4004	0	0	5	5	0.04253198	-0.08077478	1	10	0.03	2000	-2.163849	40.92393	-91.39362
599552	23	-5	-5	0.2574396	-0.03755714	0.09078902	0	11	4004	0	0	5	5	0.04253198	-0.08529416	1	10	0.03	2000	-2.389008	40.92393	-91.39362
599688	25	-6	-1	0.2691256	-0.03613199	0.09360162	0	11	4004	0	0	5	5	0.04253198	-0.08953067	1	10	0.03	2000	-2.406494	40.92393	-91.39362
599758	19	-4	-3	0.2656925	-0.03594618	0.09347965	0	11	4004	0	0	5	5	0.04253198	-0.09103511	1	10	0.03	2000	-2.168945	40.92393	-91.39362
599859	21	-1	-6	0.2683062	-0.03787813	0.09464104	0	11	4003	0	0	5	5	0.04253198	-0.1029913	1	10	0.03	2000	-2.162811	40.92393	-91.39362
599959	21	-4	1	0.2687378	-0.03829958	0.09751488	0	11	4004	0	0	5	5	0.04253198	-0.1193561	1	10	0.03	2000	-2.415833	40.92393	-91.39362
600108	21	-3	0	0.2660105	-0.03253281	0.1013667	0	11	4004	0	0	5	5	0.04253198	-0.1222743	1	10	0.03	2000	-2.409424	40.92393	-91.39362
600205	18	-5	0	0.2673664	-0.0411205	0.1010611	0	11	4002	0	0	5	5	0.04253198	-0.1198594	1	10	0.03	2000	-2.416626	40.92393	-91.39362
600271	20	-5	-2	0.264238	-0.03568068	0.1030785	0	11	4002	0	0	5	5	0.04253198	-0.124013	1	10	0.03	2000	-2.39856	40.92393	-91.39362
600366	29	0	1	0.2709807	-0.0393879	0.1061356	0	11	4002	0	0	5	5	0.04253198	-0.129374	1	10	0.03	2000	-2.411438	40.92393	-91.39362
600468	21	-6	-3	0.2762332	-0.04112406	0.1072366	0	11	4003	0	0	5	5	0.04253198	-0.1470837	1	10	0.03	2000	-2.411438	40.92393	-91.39362
600577	17	-9	0	0.283816	-0.04126984	0.1096213	0	11	4004	0	0	5	5	0.04253198	-0.1582648	1	10	0.03	2000	-2.203979	40.92393	-91.39362
600758	29	0	-3	0.2932459	-0.04806532	0.1131058	0	11	4002	0	0	5	5	0.04253198	-0.1685111	1	10	0.03	2000	-2.217987	40.92392	-91.39362
600802	24	-2	-2	0.2928956	-0.04818315	0.1138396	0	11	4004	0	0	5	5	0.04253198	-0.1728364	1	10	0.03	2000	-2.217987	40.92392	-91.39362
600866	21	-1	1	0.2968322	-0.04743173	0.1137783	0	11	4002	0	0	5	5	0.04253198	-0.1731115	1	10	0.03	2000	-2.214355	40.92392	-91.39362
600987	17	-2	0	0.2996034	-0.04755751	0.1160404	0	11	4004	0	0	5	5	0.04253198	-0.1703575	1	10	0.03	2000	-2.471344	40.92392	-91.39362
601088	16	4	0	0.2972028	-0.04913035	0.1174468	0	11	4004	0	0	5	5	0.04253198	-0.1643272	1	10	0.03	2000	-2.463928	40.92393	-91.39362
601159	21	1	-1	0.3032299	-0.0499646	0.119281	0	11	4004	0	0	5	5	0.04253198	-0.1626803	1	10	0.03	2000	-2.473969	40.92393	-91.39362
601259	20	3	0	0.3080681	-0.04435997	0.1208096	0	11	4004	0	0	5	5	0.04253198	-0.1542255	1	10	0.03	2000	-2.486816	40.92393	-91.39362
601370	15	-3	-2	0.3050996	-0.0390275	0.1206263	0	11	4002	0	0	5	5	0.04253198	-0.1483266	1	10	0.03	2000	-2.231781	40.92393	-91.39362
601475	21	-8	0	0.2984237	-0.04304074	0.1222158	0	11	4003	0	0	5	5	0.04253198	-0.1336264	1	10	0.03	2000	-2.459259	40.92393	-91.39362
601639	19	-4	0	0.2971962	-0.04087725	0.1248445	0	11	4004	0	0	5	5	0.04253198	-0.1288022	1	10	0.03	2000	-1.972198	40.92393	-91.39362
601694	27	1	0	0.2961928	-0.03795877	0.1257005	0	11	4004	0	0	5	5	0.04253198	-0.1274092	1	10	0.03	2000	-2.468536	40.92393	-91.39362
601766	18	3	-3	0.29635	-0.03682007	0.1263731	0	11	4004	0	0	5	5	0.04253198	-0.121923	1	10	0.03	2000	-1.972229	40.92393	-91.39362
601870	24	-1	0	0.3014236	-0.03639912	0.1269236	0	11	4004	0	0	5	5	0.04253198	-0.1190865	1	10	0.03	2000	-2.211487	40.92393	-91.39362
601973	22	3	0	0.3054619	-0.03358942	0.1293079	0	11	4004	0	0	5	5	0.04253198	-0.1155204	1	10	0.03	2000	-2.232269	40.92392	-91.39362
602076	18	-1	0	0.3068397	-0.03451128	0.1303474	0	11	4003	0	0	5	5	0.04253198	-0.1159885	1	10	0.03	2000	-2.241547	40.92392	-91.39362
602178	30	1	0	0.3109151	-0.03908465	0.1319371	0	11	4002	0	0	5	5	0.04253198	-0.1129279	1	10	0.03	2000	-2.233032	40.92392	-91.39362
602368	27	5	2	0.328684	-0.05127542	0.1306531	0	11	4009	0	0	5	5	0.04253198	-0.1103835	1	10	0.03	2000	-2.008606	40.92393	-91.39362
602436	20	-4	1	0.3246346	-0.04763478	0.1310199	0	11	4002	0	0	5	5	0.04253198	-0.1096132	1	10	0.03	2000	-2.520386	40.92393	-91.39362
602635	19	3	-1	0.3255418	-0.04762713	0.1355441	0	11	4004	0	0	5	5	0.04253198	-0.127108	1	10	0.03	2000	-2.500122	40.92393	-91.39362
602796	22	6	-1	0.3203132	-0.05566775	0.1379294	0	11	4004	0	0	5	5	0.04253198	-0.1414496	1	10	0.03	2000	-2.255096	40.92393	-91.39362
602949	25	-5	-3	0.3216657	-0.0528039	0.1400082	0	11	4003	0	0	5	5	0.04253198	-0.1389753	1	10	0.03	2000	-2.268433	40.92393	-91.39362
602993	18	-2	-3	0.3230032	-0.05106337	0.1408029	0	11	4004	0	0	5	5	0.04253198	-0.1379123	1	10	0.03	2000	-2.504211	40.92393	-91.39362
603164	23	-4	-1	0.3286593	-0.05527366	0.1441659	0	11	4004	0	0	5	5	0.04253198	-0.1374709	1	10	0.03	2000	-2.274902	40.92393	-91.39362
603209	27	-4	-5	0.3266871	-0.05227849	0.1447772	0	11	4003	0	0	5	5	0.04253198	-0.1376623	1	10	0.03	2000	-2.268585	40.92393	-91.39362
603279	24	-7	0	0.3322865	-0.05117476	0.1453274	0	11	4003	0	0	5	5	0.04253198	-0.1380694	1	10	0.03	2000	-2.262512	40.92393	-91.39362
603407	19	3	0	0.3443233	-0.0486332	0.147345	0	11	4003	0	0	5	5	0.04253198	-0.1462615	1	10	0.03	2000	-2.291779	40.92393	-91.39362
603501	18	-8	-4	0.3414482	-0.04820837	0.1491793	0	11	4002	0	0	5	5	0.04253198	-0.1573991	1	10	0.03	2000	-2.301605	40.92393	-91.39362
603556	27	0	-5	0.3404653	-0.05004654	0.1513804	0	11	4004	0	0	5	5	0.04253198	-0.1599617	1	10	0.03	2000	-2.526733	40.92393	-91.39362
603826	18	-2	0	0.3355353	-0.06007827	0.1563325	0	11	4003	0	0	5	5	0.04253198	-0.1664078	1	10	0.03	2000	-2.282227	40.92393	-91.39362
603878	24	-2	2	0.337678	-0.05734272	0.1571274	0	11	4004	0	0	5	5	0.04253198	-0.159268	1	10	0.03	2000	-2.282227	40.92393	-91.39362
604086	19	0	1	0.3336384	-0.0576646	0.1636694	0	11	4003	0	0	5	5	0.04253198	-0.1411786	1	10	0.03	2000	-2.521179	40.92393	-91.39362
604247	24	-4	-2	0.3381246	-0.06243264	0.1686222	0	11	4004	0	0	5	5	0.04253198	-0.1422053	1	10	0.03	2000	-2.296967	40.92393	-91.39362
604342	24	-3	-2	0.3358198	-0.06171176	0.1700895	0	11	4003	0	0	5	5	0.04253198	-0.1474831	1	10	0.03	2000	-2.285858	40.92393	-91.39362
604417	22	1	-1	0.3308475	-0.0670606	0.1716179	0	11	4004	0	0	5	5	0.04253198	-0.1449926	1	10	0.03	2000	-2.271149	40.92393	-91.39362
604540	22	3	4	0.3344589	-0.05893909	0.1730848	0	11	4004	0	0	5	5	0.04253198	-0.1383528	1	10	0.03	2000	-2.519714	40.92393	-91.39362
604656	31	-4	1	0.3369653	-0.05909165	0.1754691	0	11	4004	0	0	5	5	0.04253198	-0.1342729	1	10	0.03	2000	-2.291382	40.92393	-91.39362
604757	26	0	2	0.3358159	-0.0598961	0.1774256	0	11	4003	0	0	5	5	0.04253198	-0.1350955	1	10	0.03	2000	-2.52478	40.92393	-91.39362
604863	30	1	2	0.3425066	-0.06059725	0.1801159	0	11	4003	0	0	5	5	0.04253198	-0.1407038	1	10	0.03	2000	-2.532257	40.92393	-91.39362
604945	19	0	-1	0.341754	-0.0580166	0.181094	0	11	4003	0	0	5	5	0.04253198	-0.1521913	1	10	0.03	2000	-2.293427	40.92393	-91.39362
605061	27	-1	-2	0.3434149	-0.05662422	0.1828061	0	11	4004	0	0	5	5	0.04253198	-0.1621966	1	10	0.03	2000	-2.535736	40.92393	-91.39362
605282	27	-1	0	0.3400792	-0.05683595	0.1858015	0	11	4004	0	0	5	5	0.04253198	-0.1713112	1	10	0.03	2000	-2.28717	40.92393	-91.39362
605464	33	5	0	0.3505688	-0.05086559	0.1904482	0	11	4002	0	0	5	5	0.04253198	-0.1763853	1	10	0.03	2000	-2.302185	40.92393	-91.39362
605609	25	-1	-4	0.3539124	-0.05542192	0.1938107	0	11	4007	0	0	5	5	0.04253198	-0.1700687	1	10	0.03	2000	-2.569855	40.92393	-91.39362
605736	22	-2	-5	0.3594832	-0.05154037	0.1996808	0	11	4003	0	0	5	5	0.04253198	-0.1648792	1	10	0.03	2000	-2.561859	40.92393	-91.39362
605771	22	-2	-5	0.3594832	-0.05154037	0.1996808	0	11	4003	0	0	5	5	0.04253198	-0.1620289	1	10	0.03	2000	-2.561859	40.92393	-91.39362
605880	24	-9	-3	0.3631413	-0.05112628	0.2045109	0	11	4004	0	0	5	5	0.04253198	-0.1554422	1	10	0.03	2000	-2.326782	40.92393	-91.39362
605928	29	1	-3	0.3649141	-0.04587634	0.2070787	0	11	4003	0	0	5	5	0.04253198	-0.150738	1	10	0.03	2000	-2.581787	40.92393	-91.39362
606052	31	-4	0	0.3679743	-0.05211387	0.2128868	0	11	4002	0	0	5	5	0.04253198	-0.1448203	1	10	0.03	2000	-2.324493	40.92393	-91.39362
606162	26	5	0	0.3698204	-0.05465311	0.2152714	0	11	4002	0	0	5	5	0.04253198	-0.1433428	1	10	0.03	2000	-2.566223	40.92393	-91.39362
606244	23	-4	0	0.3711763	-0.05621461	0.2174121	0	11	4003	0	0	5	5	0.04253198	-0.1469519	1	10	0.03	2000	-2.582733	40.92393	-91.39362
606411	24	0	2	0.376635	-0.05106005	0.2208356	0	11	4003	0	0	5	5	0.04253198	-0.1481738	1	10	0.03	2000	-2.335876	40.92393	-91.39362
606459	22	-7	-1	0.3744326	-0.05607343	0.2234036	0	11	4002	0	0	5	5	0.04253198	-0.1471538	1	10	0.03	2000	-2.593597	40.92393	-91.39362
606567	33	2	-1	0.3778659	-0.059146	0.2262771	0	11	4004	0	0	5	5	0.04253198	-0.1482791	1	10	0.03	2000	-2.59375	40.92393	-91.39362
606706	21	-1	-1	0.3729903	-0.04910039	0.2296396	0	11	4003	0	0	5	5	0.04253198	-0.1419649	1	10	0.03	2000	-2.349091	40.92393	-91.39362
606770	35	-2	1	0.3760574	-0.05385722	0.2296398	0	11	4003	0	0	5	5	0.04253198	-0.1380281	1	10	0.03	2000	-2.598389	40.92393	-91.39362
606860	29	-1	-5	0.3742157	-0.05385419	0.2312292	0	11	4002	0	0	5	5	0.04253198	-0.1282727	1	10	0.03	2000	-2.35611	40.92393	-91.39362
606970	30	-2	0	0.3760442	-0.06267179	0.2341024	0	11	4004	0	0	5	5	0.04253198	-0.1281239	1	10	0.03	2000	-2.353363	40.92393	-91.39362
607028	25	-1	0	0.3779673	-0.06364521	0.2337966	0	11	4002	0	0	5	5	0.04253198	-0.1288176	1	10	0.03	2000	-2.590576	40.92393	-91.39362
607128	26	0	-1	0.3702319	-0.06181338	0.2363029	0	11	4003	0	0	5	5	0.04253198	-0.1338026	1	10	0.03	2000	-2.341125	40.92393	-91.39362
607280	30	-2	-3	0.3681412	-0.05885111	0.240338	0	11	4003	0	0	5	5	0.04253198	-0.1454854	1	10	0.03	2000	-2.334991	40.92393	-91.39362
607434	23	2	-2	0.3722874	-0.0578071	0.2442508	0	11	4002	0	0	5	5	0.04253198	-0.1568297	1	10	0.03	2000	-2.589691	40.92393	-91.39362
607650	34	2	0	0.3733807	-0.05301442	0.2514655	0	11	4003	0	0	5	5	0.04253198	-0.1661171	1	10	0.03	2000	-2.341431	40.92393	-91.39362
607758	31	-2	-1	0.3745037	-0.05745208	0.2538503	0	11	4002	0	0	5	5	0.04253198	-0.1735522	1	10	0.03	2000	-2.11203	40.92393	-91.39362
607927	29	3	0	0.3712276	-0.06052071	0.2602089	0	11	4004	0	0	5	5	0.04253198	-0.185964	1	10	0.03	2000	-2.5961	40.92393	-91.39362
607974	41	-7	-4	0.3727861	-0.05944097	0.2607592	0	11	4004	0	0	5	5	0.04253198	-0.1864666	1	10	0.03	2000	-2.5961	40.92393	-91.39362
608037	29	1	1	0.3805049	-0.05781536	0.261126	0	11	4004	0	0	5	5	0.04253198	-0.1886794	1	10	0.03	2000	-2.343994	40.92393	-91.39362
608274	27	-3	-1	0.3791319	-0.0552338	0.2671787	0	10.94	4003	0	0	5	5	0.04253198	-0.1905792	1	10	0.03	2000	-2.605072	40.92393	-91.39362
608389	28	-1	2	0.3883553	-0.04991579	0.2704799	0	10.94	4004	0	0	5	5	0.04253198	-0.1791796	1	10	0.03	2000	-2.61322	40.92393	-91.39362
608483	35	-3	-4	0.3928117	-0.04634987	0.2719473	0	10.94	4002	0	0	5	5	0.04253198	-0.1731817	1	10	0.03	2000	-2.374786	40.92393	-91.39362
608547	29	-6	-2	0.3937343	-0.04437234	0.2744542	0	10.94	4004	0	0	5	5	0.04253198	-0.1646721	1	10	0.03	2000	-2.630066	40.92393	-91.39362
608644	34	0	2	0.4000391	-0.04191318	0.2771442	0	10.94	4003	0	0	5	5	0.04253198	-0.1615555	1	10	0.03	2000	-2.392639	40.92393	-91.39362
608825	35	1	1	0.3996893	-0.0418898	0.2803846	0	10.94	4002	0	0	5	5	0.04253198	-0.1631506	1	10	0.03	2000	-2.143555	40.92393	-91.39362
608871	27	-1	-2	0.4045398	-0.04069895	0.2827688	0	10.94	4003	0	0	5	5	0.04253198	-0.1632521	1	10	0.03	2000	-2.395203	40.92393	-91.39362
608940	30	-7	-5	0.4040589	-0.04248768	0.2850919	0	10.94	4003	0	0	5	5	0.04253198	-0.1652611	1	10	0.03	2000	-2.396698	40.92393	-91.39362
609038	28	-6	0	0.4024272	-0.04435777	0.2882709	0	11.06	4003	0	0	5	5	0.04253198	-0.1626273	1	10	0.03	2000	-2.393585	40.92393	-91.39362
609194	32	0	-6	0.4058561	-0.04933368	0.2907163	0	11.06	4003	0	0	5	5	0.04253198	-0.1582793	1	10	0.03	2000	-2.390778	40.92393	-91.39362
609312	34	-3	-6	0.4024905	-0.04914649	0.2946907	0	11.06	4004	0	0	5	5	0.04253198	-0.1586295	1	10	0.03	2000	-2.39035	40.92393	-91.39362
609342	23	-8	-3	0.4007964	-0.04638916	0.2959136	0	11.06	4003	0	0	5	5	0.04253198	-0.1587974	1	10	0.03	2000	-2.39035	40.92393	-91.39362
609431	36	1	-5	0.3956211	-0.04833015	0.2971974	0	11.06	4004	0	0	5	5	0.04253198	-0.1612957	1	10	0.03	2000	-2.154022	40.92393	-91.39362
609548	28	-3	-2	0.3893846	-0.05351393	0.3037389	0	11.06	4003	0	0	5	5	0.04253198	-0.1642542	1	10	0.03	2000	-2.626709	40.92393	-91.39362
609630	23	1	-3	0.3942475	-0.05370694	0.3054511	0	11.06	4004	0	0	5	5	0.04253198	-0.1676607	1	10	0.03	2000	-2.624359	40.92394	-91.39362
609774	30	-1	0	0.3945304	-0.04936355	0.3107089	0	11.06	4003	0	0	5	5	0.04253198	-0.1723357	1	10	0.03	2000	-2.621521	40.92394	-91.39362
609867	30	2	-3	0.3991308	-0.05660258	0.3122986	0	11.06	4002	0	0	5	5	0.04253198	-0.1742945	1	10	0.03	2000	-2.396729	40.92394	-91.39362
609944	35	1	-4	0.399984	-0.05524977	0.3135215	0	11.06	4003	0	0	5	5	0.04253198	-0.1727985	1	10	0.03	2000	-2.643707	40.92394	-91.39362
610029	35	1	-4	0.4076813	-0.05941638	0.3162119	0	11.06	4002	0	0	5	5	0.04253198	-0.1699068	1	10	0.03	2000	-2.405029	40.92394	-91.39362
610162	33	0	-3	0.415075	-0.06351396	0.3211035	0	11.06	4004	0	0	5	5	0.04253198	-0.1688869	1	10	0.03	2000	-2.414429	40.92394	-91.39362
610264	31	6	0	0.4148597	-0.05874987	0.3242829	0	11.06	4004	0	0	5	5	0.04253198	-0.1730022	1	10	0.03	2000	-2.407898	40.92394	-91.39362
610362	33	-4	-3	0.4168479	-0.06061941	0.3272788	0	11.06	4002	0	0	5	5	0.04253198	-0.1772755	1	10	0.03	2000	-2.179108	40.92394	-91.39362
610449	35	-2	-4	0.4187374	-0.06110752	0.3294188	0	11.06	4003	0	0	5	5	0.04253198	-0.1756584	1	10	0.03	2000	-2.419678	40.92394	-91.39362
610597	30	1	-1	0.4240443	-0.05935569	0.3341263	0	11.06	4003	0	0	5	5	0.04253198	-0.1792574	1	10	0.03	2000	-2.422974	40.92394	-91.39362
610647	25	-3	-1	0.4234757	-0.05295636	0.3372447	0	11.06	4004	0	0	5	5	0.04253198	-0.1798436	1	10	0.03	2000	-2.686737	40.92394	-91.39362
610746	38	-2	-3	0.4225967	-0.0476708	0.3401792	0	11.06	4003	0	0	5	5	0.04253198	-0.178616	1	10	0.03	2000	-2.66153	40.92394	-91.39362
610847	33	2	2	0.4219738	-0.05429408	0.3460479	0	10.94	4004	0	0	5	5	0.04253198	-0.1738654	1	10	0.03	2000	-2.669006	40.92394	-91.39362
610950	28	4	0	0.4120003	-0.05221473	0.3473933	0	10.94	4003	0	0	5	5	0.04253198	-0.1678551	1	10	0.03	2000	-2.662781	40.92394	-91.39362
611092	27	-2	0	0.408161	-0.04932585	0.3532626	0	10.94	4004	0	0	5	5	0.04253198	-0.1620481	1	10	0.03	2000	-2.42865	40.92394	-91.39362
611158	30	-5	-3	0.4128335	-0.04674552	0.3543629	0	10.94	4003	0	0	5	5	0.04253198	-0.1567734	1	10	0.03	2000	-2.658478	40.92394	-91.39362
611244	35	-10	0	0.4147385	-0.04742427	0.3607209	0	10.94	4004	0	0	5	5	0.04253198	-0.1557232	1	10	0.03	2000	-2.41803	40.92394	-91.39362
611318	34	-2	-1	0.4199757	-0.0472767	0.3637166	0	10.94	4003	0	0	5	5	0.04253198	-0.1548277	1	10	0.03	2000	-2.675629	40.92394	-91.39362
611420	33	2	1	0.4214669	-0.0448199	0.3660405	0	10.94	4004	0	0	5	5	0.04253198	-0.1536408	1	10	0.03	2000	-2.677399	40.92394	-91.39362
611550	34	-7	0	0.4206423	-0.04840769	0.3686692	0	10.94	4002	0	0	5	5	0.04253198	-0.1512036	1	10	0.03	2000	-2.682068	40.92394	-91.39362
611629	33	1	-3	0.4249582	-0.0505914	0.3720938	0	10.94	4004	0	0	5	5	0.04253198	-0.1503771	1	10	0.03	2000	-2.439423	40.92394	-91.39362
611716	33	-6	-4	0.4286414	-0.05309484	0.3761296	0	10.94	4003	0	0	5	5	0.04253198	-0.1539058	1	10	0.03	2000	-2.688446	40.92394	-91.39362
611856	30	-4	-4	0.4241807	-0.05435929	0.381571	0	10.94	4004	0	0	5	5	0.04253198	-0.1622596	1	10	0.03	2000	-2.674286	40.92394	-91.39362
611920	31	-4	-4	0.4208368	-0.05520323	0.3837106	0	10.94	4003	0	0	5	5	0.04253198	-0.1636978	1	10	0.03	2000	-2.682587	40.92394	-91.39362
612073	34	0	3	0.4241916	-0.05693036	0.3877456	0	10.94	4004	0	0	5	5	0.04253198	-0.1596553	1	10	0.03	2000	-2.188202	40.92394	-91.39362
612262	31	0	-3	0.4393679	-0.0574243	0.3945936	0	10.94	4003	0	0	5	5	0.04253198	-0.1637645	1	10	0.03	2000	-2.457245	40.92394	-91.39362
612340	39	1	1	0.4410775	-0.05521396	0.3994237	0	10.94	4004	0	0	5	5	0.04253198	-0.1662358	1	10	0.03	2000	-2.699188	40.92394	-91.39362
612452	26	2	-5	0.436905	-0.0632423	0.4026637	0	10.94	4003	0	0	5	5	0.04253198	-0.1681546	1	10	0.03	2000	-2.47525	40.92394	-91.39362
612615	30	-4	2	0.4345135	-0.06335612	0.4068822	0	11	4003	0	0	5	5	0.04253198	-0.1776654	1	10	0.03	2000	-2.701782	40.92394	-91.39362
612671	24	0	-5	0.4303649	-0.06786857	0.4094502	0	11	4003	0	0	5	5	0.04253198	-0.1782148	1	10	0.03	2000	-2.455414	40.92394	-91.39362
612732	33	-1	-6	0.4316704	-0.06326527	0.4111009	0	11	4004	0	0	5	5	0.04253198	-0.1823407	1	10	0.03	2000	-2.455414	40.92394	-91.39362
612867	27	-4	1	0.4409244	-0.06887466	0.4174592	0	11	4002	0	0	5	5	0.04253198	-0.1940612	1	10	0.03	2000	-2.216095	40.92394	-91.39362
612905	36	2	0	0.4433072	-0.06575392	0.4187432	0	11	4003	0	0	5	5	0.04253198	-0.1971284	1	10	0.03	2000	-2.216095	40.92394	-91.39362
613017	37	0	-1	0.4466814	-0.06503069	0.4200266	0	11	4004	0	0	5	5	0.04253198	-0.1993226	1	10	0.03	2000	-2.460602	40.92394	-91.39362
613139	33	-7	-3	0.4390941	-0.06353193	0.4251011	0	11	4003	0	0	5	5	0.04253198	-0.1958718	1	10	0.03	2000	-2.444275	40.92394	-91.39362
613242	29	0	-1	0.4407973	-0.06301475	0.4260793	0	11	4003	0	0	5	5	0.04253198	-0.1877868	1	10	0.03	2000	-2.692291	40.92394	-91.39362
613313	35	1	-2	0.4455936	-0.06200077	0.4294419	0	11	4002	0	0	5	5	0.04253198	-0.1788707	1	10	0.03	2000	-2.701813	40.92394	-91.39362
613437	31	1	-3	0.4451419	-0.06106802	0.4358002	0	11	4002	0	0	5	5	0.04253198	-0.1688773	1	10	0.03	2000	-2.709076	40.92394	-91.39362
613580	32	-4	0	0.4494057	-0.0574812	0.4381236	0	11	4003	0	0	5	5	0.04253198	-0.1508035	1	10	0.03	2000	-2.459839	40.92394	-91.39362
613700	27	-7	-2	0.4469101	-0.05968319	0.4426475	0	11	4003	0	0	5	5	0.04253198	-0.1373879	1	10	0.03	2000	-2.724731	40.92394	-91.39362
613804	28	0	0	0.4479928	-0.05502574	0.4457044	0	11	4004	0	0	5	5	0.04253198	-0.1328356	1	10	0.03	2000	-2.484039	40.92394	-91.39362
613942	37	1	-4	0.452533	-0.04496889	0.448639	0	11	4004	0	0	5	5	0.04253198	-0.1299951	1	10	0.03	2000	-2.477448	40.92394	-91.39362
613989	38	4	-3	0.4562947	-0.04989025	0.4497395	0	11	4004	0	0	5	5	0.04253198	-0.1311147	1	10	0.03	2000	-2.483368	40.92394	-91.39362
614056	33	-3	2	0.4550605	-0.04792909	0.4520627	0	11	4002	0	0	5	5	0.04253198	-0.1347496	1	10	0.03	2000	-2.480743	40.92394	-91.39362
614209	38	-5	0	0.4640886	-0.04270393	0.4538125	0	11	4002	0	0	5	5	0.04253198	-0.1431628	1	10	0.03	2000	-2.754974	40.92394	-91.39362
614361	30	-3	1	0.466976	-0.04686911	0.4547291	0	11	4003	0	0	5	5	0.04253198	-0.1599724	1	10	0.03	2000	-2.515137	40.92394	-91.39362
614411	30	-3	1	0.466976	-0.04686911	0.4547291	0	11.06	4003	0	0	5	5	0.04253198	-0.1599724	1	10	0.03	2000	-2.515137	40.92394	-91.39362
614557	31	6	-1	0.475994	-0.05235812	0.4616987	0	11.06	4003	0	0	5	5	0.04253198	-0.1637987	1	10	0.03	2000	-2.762482	40.92394	-91.39362
614599	36	-7	-5	0.4764491	-0.05315965	0.4623101	0	11.06	4003	0	0	5	5	0.04253198	-0.1641684	1	10	0.03	2000	-2.75058	40.92394	-91.39362
614750	29	-5	-2	0.475152	-0.05370059	0.4639608	0	11.06	4004	0	0	5	5	0.04253198	-0.1581401	1	10	0.03	2000	-2.530975	40.92394	-91.39362
614820	31	0	6	0.4734342	-0.05028627	0.4648167	0	11.06	4002	0	0	5	5	0.04253198	-0.1558754	1	10	0.03	2000	-2.759064	40.92394	-91.39362
614878	34	1	2	0.4675089	-0.0471798	0.4663451	0	11.06	4003	0	0	5	5	0.04253198	-0.1593008	1	10	0.03	2000	-2.748444	40.92394	-91.39362
614977	28	-4	-2	0.4649477	-0.04785911	0.4711756	0	11.06	4004	0	0	5	5	0.04253198	-0.1610533	1	10	0.03	2000	-2.513275	40.92394	-91.39362
615033	31	-2	-3	0.461751	-0.04321835	0.4723373	0	11.06	4003	0	0	5	5	0.04253198	-0.1657753	1	10	0.03	2000	-2.513275	40.92394	-91.39362
615149	43	-4	-1	0.4620342	-0.0502014	0.4772286	0	11.06	4002	0	0	5	5	0.04253198	-0.1693378	1	10	0.03	2000	-2.494049	40.92394	-91.39362
615332	30	-2	-6	0.4700712	-0.05723011	0.4819359	0	10.94	4003	0	0	5	5	0.04253198	-0.1744473	1	10	0.03	2000	-2.481262	40.92394	-91.39362
615415	33	-5	0	0.4618261	-0.05783519	0.4865828	0	10.94	4002	0	0	5	5	0.04253198	-0.1724681	1	10	0.03	2000	-2.757019	40.92394	-91.39362
615516	39	0	3	0.4569217	-0.05801608	0.4892729	0	10.94	4003	0	0	5	5	0.04253198	-0.1633812	1	10	0.03	2000	-2.485687	40.92394	-91.39362
615620	31	-1	-4	0.4578978	-0.05160213	0.4950204	0	10.94	4003	0	0	5	5	0.04253198	-0.1518475	1	10	0.03	2000	-2.496002	40.92394	-91.39362
615832	32	-4	-4	0.4625515	-0.05524521	0.5025409	0	10.94	4003	0	0	5	5	0.04253198	-0.1367805	1	10	0.03	2000	-2.506897	40.92394	-91.39362
615997	28	-3	-3	0.464098	-0.0572635	0.5109779	0	10.94	4002	0	0	5	5	0.04253198	-0.1337276	1	10	0.03	2000	-2.743439	40.92394	-91.39362
616048	40	-6	0	0.4653754	-0.06140848	0.5125675	0	10.94	4004	0	0	5	5	0.04253198	-0.1298716	1	10	0.03	2000	-2.743439	40.92394	-91.39362
616096	31	-4	-7	0.4664724	-0.0594214	0.514096	0	10.94	4003	0	0	5	5	0.04253198	-0.128162	1	10	0.03	2000	-2.515167	40.92394	-91.39362
616246	39	1	-5	0.4718778	-0.05707739	0.5186822	0	11.06	4003	0	0	5	5	0.04253198	-0.128546	1	10	0.03	2000	-2.520508	40.92394	-91.39362
616302	39	-2	-1	0.47596	-0.058337	0.5196602	0	11.06	4002	0	0	5	5	0.04253198	-0.1272658	1	10	0.03	2000	-2.520508	40.92394	-91.39362
616516	33	0	-5	0.4702601	-0.06258602	0.5273039	0	11.06	4007	0	0	5	5	0.04253198	-0.1270626	1	10	0.03	2000	-2.520416	40.92394	-91.39362
616681	38	-1	0	0.4678905	-0.06512495	0.5326843	0	11.06	4003	0	0	5	5	0.04253198	-0.1336677	1	10	0.03	2000	-2.519409	40.92394	-91.39362
616810	32	3	0	0.4749711	-0.06558639	0.5352523	0	11.06	4004	0	0	5	5	0.04253198	-0.145326	1	10	0.03	2000	-2.513367	40.92394	-91.39362
616845	40	3	-1	0.4782399	-0.06408292	0.5360471	0	11.06	4003	0	0	5	5	0.04253198	-0.14906	1	10	0.03	2000	-2.27887	40.92394	-91.39362
616902	37	-3	1	0.4750808	-0.06587973	0.5371476	0	11.06	4004	0	0	5	5	0.04253198	-0.1549935	1	10	0.03	2000	-2.519043	40.92394	-91.39362
617055	39	0	-3	0.4734441	-0.06241506	0.541978	0	11	4004	0	0	5	5	0.04253198	-0.1814335	1	10	0.03	2000	-2.506439	40.92394	-91.39362
617122	28	-4	-3	0.46712	-0.06120589	0.5417947	0	11	4004	0	0	5	5	0.04253198	-0.1885862	1	10	0.03	2000	-2.763794	40.92394	-91.39362
617266	40	-4	-2	0.4678636	-0.05988608	0.5436289	0	11	4002	0	0	5	5	0.04253198	-0.1926123	1	10	0.03	2000	-2.731598	40.92394	-91.39362
617323	33	0	-4	0.469936	-0.05970006	0.5465023	0	11	4002	0	0	5	5	0.04253198	-0.194234	1	10	0.03	2000	-2.755829	40.92394	-91.39362
617413	39	2	-1	0.4703537	-0.06484342	0.5496817	0	11	4004	0	0	5	5	0.04253198	-0.1918686	1	10	0.03	2000	-2.506683	40.92394	-91.39362
617515	27	-1	-7	0.4722636	-0.06318189	0.5520662	0	11	4004	0	0	5	5	0.04253198	-0.1981689	1	10	0.03	2000	-2.52301	40.92394	-91.39362
617631	33	-5	-5	0.4757665	-0.05736807	0.5543281	0	11	4003	0	0	5	5	0.04253198	-0.2041228	1	10	0.03	2000	-2.76828	40.92394	-91.39362
617770	34	0	-2	0.4692295	-0.05770866	0.5590969	0	11	4004	0	0	5	5	0.04253198	-0.2236936	1	10	0.03	2000	-2.514374	40.92394	-91.39362
617803	35	-2	-2	0.4728857	-0.05769669	0.5606253	0	11	4002	0	0	5	5	0.04253198	-0.2249414	1	10	0.03	2000	-2.50647	40.92394	-91.39362
617916	33	-1	-3	0.4749515	-0.0630875	0.5628263	0	11	4003	0	0	5	5	0.04253198	-0.2301674	1	10	0.03	2000	-2.528992	40.92394	-91.39362
618113	40	0	0	0.4800233	-0.0705957	0.5677179	0	10.94	4003	0	0	5	5	0.04253198	-0.2419554	1	10	0.03	2000	-2.525574	40.92394	-91.39362
618180	43	-4	-6	0.4780526	-0.06926523	0.5696748	0	10.94	4002	0	0	5	5	0.04253198	-0.249091	1	10	0.03	2000	-2.762024	40.92394	-91.39362
618261	33	-1	-2	0.4868888	-0.06703884	0.5722427	0	10.94	4002	0	0	5	5	0.04253198	-0.2552071	1	10	0.03	2000	-2.529449	40.92394	-91.39362
618299	31	-4	-7	0.4869507	-0.06603403	0.5740159	0	10.94	4003	0	0	5	5	0.04253198	-0.2567048	1	10	0.03	2000	-2.782471	40.92394	-91.39362
618410	38	-5	-4	0.4897497	-0.06994849	0.5782961	0	10.94	4003	0	0	5	5	0.04253198	-0.2586077	1	10	0.03	2000	-2.787109	40.92394	-91.39362
618563	36	1	-4	0.4897537	-0.06531265	0.5833101	0	10.94	4003	0	0	5	5	0.04253198	-0.2539155	1	10	0.03	2000	-2.54718	40.92394	-91.39362
618645	32	0	-10	0.4909573	-0.06898635	0.5871618	0	10.94	4002	0	0	5	5	0.04253198	-0.2497538	1	10	0.03	2000	-2.788696	40.92394	-91.39362
618714	40	0	0	0.4910363	-0.07567136	0.5891183	0	10.94	4003	0	0	5	5	0.04253198	-0.2503209	1	10	0.03	2000	-2.802094	40.92394	-91.39362
618829	34	-2	-2	0.4919465	-0.07422466	0.5910753	0	10.94	4003	0	0	5	5	0.04253198	-0.2514684	1	10	0.03	2000	-2.559265	40.92394	-91.39362
618956	39	-1	-3	0.4856151	-0.07241091	0.5954162	0	11	4003	0	0	5	5	0.04253198	-0.248408	1	10	0.03	2000	-2.537018	40.92394	-91.39362
619007	39	1	-3	0.4859818	-0.0736114	0.5957221	0	11	4003	0	0	5	5	0.04253198	-0.2496742	1	10	0.03	2000	-2.537018	40.92394	-91.39362
619127	41	0	-4	0.4766935	-0.07512168	0.59829	0	11	4003	0	0	5	5	0.04253198	-0.2584975	1	10	0.03	2000	-2.774445	40.92394	-91.39362
619208	40	-3	0	0.4836385	-0.07570158	0.6016521	0	11	4002	0	0	5	5	0.04253198	-0.2624185	1	10	0.03	2000	-2.529602	40.92394	-91.39362
619363	44	0	-5	0.4912281	-0.07711878	0.605626	0	11	4004	0	0	5	5	0.04253198	-0.2670759	1	10	0.03	2000	-2.77478	40.92394	-91.39362
619441	36	-2	-5	0.4923087	-0.07832927	0.6068487	0	11	4004	0	0	5	5	0.04253198	-0.2742155	1	10	0.03	2000	-2.791595	40.92394	-91.39362
619548	31	-4	-3	0.4970653	-0.07669047	0.6125957	0	11	4003	0	0	5	5	0.04253198	-0.2726929	1	10	0.03	2000	-2.800903	40.92394	-91.39362
619635	35	-2	0	0.5070307	-0.07631099	0.6173034	0	11	4002	0	0	5	5	0.04253198	-0.2717479	1	10	0.03	2000	-2.794708	40.92394	-91.39362
619722	35	3	0	0.503353	-0.07541984	0.6201159	0	11	4003	0	0	5	5	0.04253198	-0.2731311	1	10	0.03	2000	-2.817108	40.92394	-91.39362
619798	31	2	-3	0.5043467	-0.07469589	0.6207885	0	11.06	4004	0	0	5	5	0.04253198	-0.2708359	1	10	0.03	2000	-2.570221	40.92394	-91.39362
619920	39	-6	1	0.5104392	-0.073227	0.6242732	0	11.06	4002	0	0	5	5	0.04253198	-0.2654167	1	10	0.03	2000	-2.815979	40.92394	-91.39362
619984	35	-1	-2	0.5106057	-0.07628102	0.6271468	0	11.06	4004	0	0	5	5	0.04253198	-0.2618513	1	10	0.03	2000	-2.822998	40.92394	-91.39362
620184	43	-2	-7	0.514451	-0.06836522	0.6301427	0	11.06	4004	0	0	5	5	0.04253198	-0.2631477	1	10	0.03	2000	-2.822418	40.92394	-91.39362
620219	37	0	0	0.513993	-0.07087213	0.6309986	0	11.06	4003	0	0	5	5	0.04253198	-0.263869	1	10	0.03	2000	-2.822418	40.92394	-91.39362
620303	32	0	-6	0.5197485	-0.07235429	0.6319768	0	11.06	4003	0	0	5	5	0.04253198	-0.2620465	1	10	0.03	2000	-2.601532	40.92394	-91.39362
620398	37	-3	3	0.5215787	-0.06977639	0.635278	0	11.06	4002	0	0	5	5	0.04253198	-0.2618171	1	10	0.03	2000	-2.83725	40.92394	-91.39362
620489	34	-2	2	0.5169417	-0.06778162	0.6367454	0	11.06	4004	0	0	5	5	0.04253198	-0.2621945	1	10	0.03	2000	-2.597839	40.92394	-91.39362
620657	43	0	-6	0.5148105	-0.07587379	0.6432876	0	11.06	4004	0	0	5	5	0.04253198	-0.264688	1	10	0.03	2000	-2.829224	40.92394	-91.39362
620736	40	-8	-1	0.518792	-0.07281745	0.6464666	0	11	4003	0	0	5	5	0.04253198	-0.2639045	1	10	0.03	2000	-2.847198	40.92394	-91.39362
620787	42	-5	1	0.521737	-0.06806909	0.6472613	0	11	4004	0	0	5	5	0.04253198	-0.2633488	1	10	0.03	2000	-2.829681	40.92394	-91.39362
620929	37	0	-6	0.5226924	-0.07284096	0.6505017	0	11	4003	0	0	5	5	0.04253198	-0.2646638	1	10	0.03	2000	-2.603516	40.92394	-91.39362
621009	39	-6	2	0.5179821	-0.07486273	0.6528865	0	11	4003	0	0	5	5	0.04253198	-0.2640104	1	10	0.03	2000	-2.838867	40.92394	-91.39362
621188	36	-1	6	0.5185509	-0.07612325	0.6567384	0	11	4003	0	0	5	5	0.04253198	-0.2436448	1	10	0.03	2000	-2.834869	40.92394	-91.39362
621284	41	2	-5	0.5200696	-0.07343158	0.661079	0	11	4003	0	0	5	5	0.04253198	-0.2390163	1	10	0.03	2000	-2.608063	40.92394	-91.39362
621377	41	-3	-6	0.5246494	-0.07562786	0.6633414	0	11	4003	0	0	5	5	0.04253198	-0.236488	1	10	0.03	2000	-2.844849	40.92394	-91.39362
621554	36	-4	-1	0.5262858	-0.08043976	0.6678662	0	11	4003	0	0	5	5	0.04253198	-0.2322512	1	10	0.03	2000	-2.618805	40.92393	-91.39362
