time(ms)	gyro_x(deg/s)	gyro_y(deg/s)	gyro_z(deg/s)	orientation_roll(deg)	orientation_pitch(deg)	orientation_yaw(deg)	throttle	battery(V)	loop_time(uS)	pid_output_roll	pid_output_pitch	pid_output_yaw	pid_output_throttle	ultrasonic_alt	baro_alt	flight_mode	p_gain_altitude	i_gain_altitude	d_gain_altitude	compass_heading	latitude	longitude
621734	39	-1	0	0.5281259	-0.07880873	0.6736134	0	11.06	4004	0	0	5	5	0.04253198	-0.1882241	1	10	0.03	2000	-2.862	40.92393	-91.39362
621881	37	-3	-4	0.5303951	-0.08230283	0.6790551	0	11.06	4003	0	0	5	5	0.04253198	-0.1652273	1	10	0.03	2000	-2.854797	40.92394	-91.39362
621964	34	-2	-3	0.533493	-0.08347037	0.6815619	0	11.06	4003	0	0	5	5	0.04253198	-0.1391253	1	10	0.03	2000	-2.63092	40.92394	-91.39362
622096	44	0	-5	0.538515	-0.07755895	0.6836408	0	11.06	4004	0	0	5	5	0.04253198	-0.1212323	1	10	0.03	2000	-2.618805	40.92393	-91.39362
622154	41	2	0	0.5330673	-0.07998624	0.6863922	0	11.06	4003	0	0	5	5	0.04253198	-0.1145715	1	10	0.03	2000	-2.870514	40.92393	-91.39362
622211	39	-2	-3	0.5338703	-0.08157032	0.6868814	0	11.06	4002	0	0	5	5	0.04253198	-0.1058182	1	10	0.03	2000	-2.863495	40.92393	-91.39362
622395	44	-2	0	0.5365205	-0.08302694	0.6937903	0	11.06	4003	0	0	5	5	0.04253198	-0.07192452	1	10	0.03	2000	-2.86203	40.92393	-91.39362
622441	35	0	-2	0.5341935	-0.08294307	0.694524	0	11.06	4003	0	0	5	5	0.04253198	-0.07021149	1	10	0.03	2000	-2.86203	40.92393	-91.39362
622523	37	-6	-2	0.5342168	-0.08419952	0.6983761	0	11.06	4002	0	0	5	5	0.04253198	-0.06461876	1	10	0.03	2000	-2.861511	40.92393	-91.39362
622603	42	0	-4	0.5238042	-0.08095601	0.7009439	0	10.94	4004	0	0	5	5	0.04253198	-0.0663643	1	10	0.03	2000	-2.858521	40.92393	-91.39362
622762	38	-5	2	0.5271102	-0.07794758	0.7024722	0	10.94	4004	0	0	5	5	0.04253198	-0.07590796	1	10	0.03	2000	-2.60907	40.92393	-91.39362
622813	39	-6	-1	0.5255017	-0.07611108	0.7038781	0	10.94	4003	0	0	5	5	0.04253198	-0.07585964	1	10	0.03	2000	-2.60907	40.92393	-91.39362
622968	41	1	-4	0.5327865	-0.07934715	0.7074241	0	10.94	4002	0	0	5	5	0.04253198	-0.07790203	1	10	0.03	2000	-2.62793	40.92393	-91.39362
623018	43	0	-3	0.5352423	-0.08025065	0.7078521	0	10.94	4004	0	0	5	5	0.04253198	-0.07723487	1	10	0.03	2000	-2.62793	40.92393	-91.39362
623150	33	-6	-7	0.5362467	-0.08095371	0.7113982	0	10.94	4002	0	0	5	5	0.04253198	-0.0764135	1	10	0.03	2000	-2.883636	40.92393	-91.39362
623226	42	0	0	0.5457507	-0.07860306	0.7156169	0	10.94	4003	0	0	5	5	0.04253198	-0.07663214	1	10	0.03	2000	-2.637115	40.92393	-91.39362
623365	42	-4	0	0.5414706	-0.07801992	0.7181846	0	10.94	4004	0	0	5	5	0.04253198	-0.07791688	1	10	0.03	2000	-2.886383	40.92393	-91.39362
623426	42	-5	-4	0.5364887	-0.07516207	0.7217305	0	10.94	4003	0	0	5	5	0.04253198	-0.07693291	1	10	0.03	2000	-2.889801	40.92393	-91.39362
623581	37	0	-2	0.5347373	-0.07543826	0.7249709	0	10.94	4004	0	0	5	5	0.04253198	-0.07477803	1	10	0.03	2000	-2.622589	40.92393	-91.39362
623649	41	-1	-6	0.5377582	-0.07693154	0.7271717	0	10.94	4002	0	0	5	5	0.04253198	-0.07656377	1	10	0.03	2000	-2.875122	40.92393	-91.39362
623746	41	2	-1	0.529838	-0.0772156	0.7311454	0	10.94	4003	0	0	5	5	0.04253198	-0.08560851	1	10	0.03	2000	-2.623596	40.92393	-91.39361
623839	41	-10	0	0.5314977	-0.07681422	0.733591	0	10.94	4003	0	0	5	5	0.04253198	-0.092302	1	10	0.03	2000	-2.604401	40.92393	-91.39361
623936	37	-7	-1	0.5313412	-0.07379203	0.7376263	0	10.94	4003	0	0	5	5	0.04253198	-0.09874767	1	10	0.03	2000	-2.617523	40.92393	-91.39361
624075	39	-2	1	0.5350254	-0.07248302	0.7393993	0	10.94	4002	0	0	5	5	0.04253198	-0.1037025	1	10	0.03	2000	-2.365295	40.92393	-91.39361
624164	36	-5	0	0.5279665	-0.07300972	0.7425782	0	10.94	4004	0	0	5	5	0.04253198	-0.1086521	1	10	0.03	2000	-2.867371	40.92393	-91.39361
624248	37	0	-1	0.5292273	-0.0739343	0.7439847	0	10.94	4004	0	0	5	5	0.04253198	-0.1097425	1	10	0.03	2000	-2.852356	40.92393	-91.39361
624340	43	1	-4	0.530673	-0.07315698	0.7455133	0	10.94	4003	0	0	5	5	0.04253198	-0.1148117	1	10	0.03	2000	-2.854889	40.92393	-91.39361
624436	40	-4	-1	0.5368115	-0.0715237	0.7502823	0	11	4004	0	0	5	5	0.04253198	-0.1172972	1	10	0.03	2000	-2.865295	40.92393	-91.39361
624572	39	-4	-3	0.539462	-0.07087442	0.7540736	0	11	4004	0	0	5	5	0.04253198	-0.1217127	1	10	0.03	2000	-2.872009	40.92393	-91.39361
624653	47	0	0	0.5412773	-0.07052337	0.7573757	0	11	4002	0	0	5	5	0.04253198	-0.1223591	1	10	0.03	2000	-2.62561	40.92393	-91.39361
624743	42	-1	-6	0.5374286	-0.06513081	0.7587818	0	11	4004	0	0	5	5	0.04253198	-0.1200944	1	10	0.03	2000	-2.873016	40.92393	-91.39361
624845	41	-4	-5	0.5474486	-0.06292369	0.7620222	0	11	4003	0	0	5	5	0.04253198	-0.1145383	1	10	0.03	2000	-2.88089	40.92393	-91.39361
624991	37	-7	-5	0.5434915	-0.05853591	0.7677692	0	11	4002	0	0	5	5	0.04253198	-0.1044326	1	10	0.03	2000	-2.874481	40.92393	-91.39361
625066	42	-7	-6	0.5418025	-0.06004128	0.7687474	0	11	4002	0	0	5	5	0.04253198	-0.1023172	1	10	0.03	2000	-2.886017	40.92393	-91.39361
625176	35	-1	0	0.5432	-0.06310529	0.7723547	0	11	4004	0	0	5	5	0.04253198	-0.101004	1	10	0.03	2000	-2.883545	40.92393	-91.39361
625274	41	-2	-1	0.5464283	-0.06328393	0.7737609	0	11	4003	0	0	5	5	0.04253198	-0.1047945	1	10	0.03	2000	-2.899261	40.92393	-91.39361
625394	40	-1	0	0.5437551	-0.0666401	0.7782244	0	11	4003	0	0	5	5	0.04253198	-0.1095316	1	10	0.03	2000	-2.398621	40.92393	-91.39361
625465	35	0	-4	0.5459899	-0.06463223	0.7808535	0	11	4004	0	0	5	5	0.04253198	-0.1143198	1	10	0.03	2000	-2.644714	40.92393	-91.39361
625569	39	2	-4	0.5511625	-0.07142225	0.7826264	0	11	4003	0	0	5	5	0.04253198	-0.1226057	1	10	0.03	2000	-2.898346	40.92393	-91.39361
625726	40	-7	0	0.5501009	-0.06068204	0.7867842	0	11	4003	0	0	5	5	0.04253198	-0.1253126	1	10	0.03	2000	-2.647888	40.92393	-91.39361
625860	39	-1	2	0.557448	-0.06747717	0.7906359	0	11	4002	0	0	5	5	0.04253198	-0.121238	1	10	0.03	2000	-2.913635	40.92393	-91.39361
625926	44	-3	-2	0.5623016	-0.07333183	0.7924089	0	11	4004	0	0	5	5	0.04253198	-0.1144292	1	10	0.03	2000	-2.913635	40.92393	-91.39361
625983	37	-3	-1	0.5621739	-0.07286274	0.793265	0	11	4010	0	0	5	5	0.04253198	-0.1107911	1	10	0.03	2000	-2.911346	40.92393	-91.39361
626064	40	-1	6	0.56653	-0.0678539	0.7934485	0	11	4003	0	0	5	5	0.04253198	-0.1093989	1	10	0.03	2000	-2.89267	40.92393	-91.39361
626229	46	2	-1	0.5675368	-0.0795598	0.8020078	0	11	4003	0	0	5	5	0.04253198	-0.09964945	1	10	0.03	2000	-2.914673	40.92393	-91.39361
626283	47	-5	-2	0.5716327	-0.07299791	0.804392	0	11	4003	0	0	5	5	0.04253198	-0.09572723	1	10	0.03	2000	-2.925842	40.92393	-91.39361
626420	46	-2	-2	0.5779669	-0.07408206	0.8090999	0	11	4003	0	0	5	5	0.04253198	-0.08329046	1	10	0.03	2000	-2.691559	40.92393	-91.39361
626472	37	-6	0	0.5794513	-0.07129107	0.8102615	0	11	4004	0	0	5	5	0.04253198	-0.07842837	1	10	0.03	2000	-2.691559	40.92393	-91.39361
626576	48	-5	-6	0.5833238	-0.06694294	0.8154587	0	11	4003	0	0	5	5	0.04253198	-0.07484385	1	10	0.03	2000	-2.699799	40.92393	-91.39361
626788	42	-3	-2	0.5942933	-0.07243878	0.8248132	0	11	4003	0	0	5	5	0.04253198	-0.06498855	1	10	0.03	2000	-2.958923	40.92393	-91.39361
626935	48	0	-2	0.5931627	-0.07251373	0.8306215	0	11	4004	0	0	5	5	0.04253198	-0.05811825	1	10	0.03	2000	-2.966034	40.92393	-91.39361
626993	43	2	-11	0.5889381	-0.07336349	0.837408	0	11	4003	0	0	5	5	0.04253198	-0.05638324	1	10	0.03	2000	-2.959198	40.92393	-91.39361
627113	43	-10	-7	0.5929931	-0.07748207	0.845173	0	11	4002	0	0	5	5	0.04253198	-0.05390572	1	10	0.03	2000	-2.968903	40.92393	-91.39361
627269	43	0	0	0.5895271	-0.07927001	0.8519598	0	11	4003	0	0	5	5	0.04253198	-0.04219165	3	10	0.03	2000	-2.720886	40.92393	-91.39361
627326	43	-3	-1	0.5938342	-0.0770889	0.8557504	0	11	4003	0	0	5	5	0.04253198	-0.03568616	3	10	0.03	2000	-2.725525	40.92393	-91.39361
627391	39	1	1	0.5951192	-0.07506125	0.8586242	0	11	4004	0	0	5	5	0.04253198	-0.02718178	3	10	0.03	2000	-2.718201	40.92393	-91.39361
627524	37	1	0	0.5927541	-0.08161781	0.8655329	0	11	4004	0	0	5	5	0.04253198	-0.005436128	3	10	0.03	2000	-2.718262	40.92393	-91.39361
627681	41	-6	0	0.5965275	-0.07997826	0.8709744	0	11	4004	0	0	5	5	0.04253198	0.02079773	3	10	0.03	2000	-2.737427	40.92393	-91.39361
627755	40	-2	-3	0.5949469	-0.08417502	0.8743978	0	11	4004	0	0	5	5	0.04253198	0.03353158	3	10	0.03	2000	-2.981995	40.92393	-91.39361
627819	47	0	-7	0.602239	-0.0864577	0.8767214	0	11	4004	0	0	5	5	0.04253198	0.03262274	3	10	0.03	2000	-2.981995	40.92393	-91.39361
627880	43	0	-5	0.6004875	-0.0851659	0.8776386	0	11	4004	0	0	5	5	0.04253198	0.03144887	3	10	0.03	2000	-2.736603	40.92393	-91.39361
628004	49	-11	1	0.5991364	-0.08402529	0.8825907	0	11	4003	0	0	5	5	0.04253198	0.02572253	3	10	0.03	2000	-2.744629	40.92393	-91.39361
628085	34	-5	-3	0.5964258	-0.08724422	0.8865647	0	11	4002	0	0	5	5	0.04253198	0.02047251	3	10	0.03	2000	-2.987732	40.92393	-91.39361
628207	45	-3	-7	0.5986128	-0.08779876	0.8923121	0	11	4002	0	0	5	5	0.04253198	0.009154982	3	10	0.03	2000	-2.964966	40.92393	-91.39361
628316	44	0	-7	0.596598	-0.08820738	0.8970197	0	11	4002	0	0	5	5	0.04253198	0.007566454	3	10	0.03	2000	-2.738373	40.92393	-91.39361
628414	50	-6	0	0.6052071	-0.08403139	0.8997098	0	11	4002	0	0	5	5	0.04253198	0.01003492	3	10	0.03	2000	-2.74118	40.92393	-91.39361
628506	40	-5	2	0.6034768	-0.08003423	0.9033787	0	11	4004	0	0	5	5	0.04253198	0.01208076	3	10	0.03	2000	-2.984985	40.92393	-91.39361
628615	51	-18	8	0.6021824	-0.07287166	0.9101655	0	11	4002	0	0	5	5	0.04253198	0.0130266	3	10	0.03	2000	-2.743408	40.92393	-91.39361
628750	66	4	110	0.6085255	-0.0694779	0.9094906	0	11	4003	0	0	5	5	0.04253198	0.009623805	3	10	0.03	2000	-2.481598	40.92393	-91.39361
628866	16	9	0	0.5976232	-0.08194111	0.9280154	0	11	4003	0	0	5	5	0.04253198	0.009474195	3	10	0.03	2000	-1.567719	40.92393	-91.39361
628906	51	-7	38	0.598616	-0.07190326	0.927342	0	11	4003	0	0	5	5	0.04253198	0.008372378	3	10	0.03	2000	-2.814758	40.92393	-91.39361
629058	96	-78	-68	0.5801411	-0.01824844	0.9477567	0	10.89	4003	0	0	5	5	0.04253198	0.007297641	3	10	0.03	2000	-2.249054	40.92393	-91.39361
629175	44	44	24	0.5864504	-0.03348264	0.9439662	0	10.89	4004	0	0	5	5	0.04253198	0.004543205	3	10	0.03	2000	-3.00528	40.92393	-91.39361
629218	72	-33	48	0.5854351	-0.05287824	0.946407	0	10.89	4003	0	0	5	5	0.04253198	-0.0005705051	3	10	0.03	2000	-2.291901	40.92393	-91.39361
629361	-7	-21	24	0.580402	-0.04265849	0.9628522	0	10.89	4004	0	0	5	5	0.04253198	-0.006004807	3	10	0.03	2000	-2.230408	40.92393	-91.39361
629530	-17	64	39	0.5737539	-0.04650972	0.9579648	0	10.89	4004	0	0	5	5	0.04253198	-0.01551397	3	10	0.03	2000	-2.996277	40.92393	-91.39361
629641	72	67	36	0.6307403	-0.03130968	0.9601048	0	10.89	4003	0	0	5	5	0.04253198	-0.01722566	3	10	0.03	2000	-2.042572	40.92393	-91.39361
629732	46	-24	-6	0.6266965	-0.03238619	0.9596157	0	10.89	4003	0	0	5	5	0.04253198	-0.01404635	3	10	0.03	2000	-2.587738	40.92393	-91.39361
629830	50	-19	-45	0.6186931	-0.04061291	0.965673	0	10.89	4002	0	0	5	5	0.04253198	-0.006619758	3	10	0.03	2000	-3.035614	40.92393	-91.39361
629911	49	17	-8	0.6216108	-0.04445031	0.9707465	0	10.89	4003	0	0	5	5	0.04253198	-0.004802983	3	10	0.03	2000	-3.03891	40.92393	-91.39361
630038	90	-29	-34	0.6190206	-0.04201202	0.9708682	0	10.94	4004	0	0	5	5	0.04253198	-0.009277534	3	10	0.03	2000	-2.045959	40.92393	-91.39361
630116	64	-11	35	0.5979086	-0.04564962	0.9687867	0	10.94	4002	0	0	5	5	0.04253198	-0.01095582	3	10	0.03	2000	-2.759247	40.92393	-91.39361
630224	139	113	-139	0.6302452	-0.04299217	0.9781464	0	10.94	4004	0	0	5	5	0.04253198	-0.01041137	3	10	0.03	2000	-2.848694	40.92393	-91.39361
630319	32	-142	170	0.6369655	-0.04491766	0.9711774	0	10.94	4003	0	0	5	5	0.04253198	-0.008697289	3	10	0.03	2000	-2.335358	40.92393	-91.39361
630437	93	-102	193	0.6287897	-0.04721721	0.9715533	0	10.94	4003	0	0	5	5	0.04253198	0.002628779	3	10	0.03	2000	-2.335541	40.92393	-91.39361
630539	68	-62	102	0.6221851	-0.0237583	0.9818642	0	10.94	4002	0	0	5	5	0.04253198	0.01388362	3	10	0.03	2000	-2.842255	40.92393	-91.39361
630623	152	-24	197	0.6289827	-0.05795729	0.9773768	0	10.94	4004	0	0	5	5	0.04253198	0.02399475	3	10	0.03	2000	-2.294891	40.92393	-91.39361
630726	168	-93	70	0.640763	-0.07304402	0.9797477	0	10.94	4009	0	0	5	5	0.04253198	0.03029605	3	10	0.03	2000	-2.593903	40.92393	-91.39361
630846	-61	163	-136	0.6674865	-0.03655085	0.9813378	0	10.94	4004	0	0	5	5	0.04253198	0.02909443	3	10	0.03	2000	-2.172791	40.92393	-91.39361
630931	65	78	34	0.6494886	-0.006912233	0.9812865	0	10.6	4004	0	0	5	5	0.04253198	0.02587279	3	10	0.03	2000	-3.125519	40.92393	-91.39361
631028	-36	124	-170	0.6253147	0.001074473	0.9829436	0	10.6	4003	0	0	5	5	0.04253198	0.02350354	3	10	0.03	2000	-3.125519	40.92393	-91.39361
631197	-31	-21	-63	0.6185307	0.06656189	0.9735244	0	10.6	4003	0	0	5	5	0.04253198	0.02403115	3	10	0.03	2000	-2.41864	40.92393	-91.39361
631311	-29	80	-189	0.5496776	0.02558632	0.9810854	0	10.6	4003	0	0	5	5	0.04253198	0.0218924	3	10	0.03	2000	-2.196716	40.92393	-91.39361
631347	-90	-81	168	0.5316668	0.03870163	0.9756432	0	10.6	4004	0	0	5	5	0.04253198	0.01780486	3	10	0.03	2000	-2.450226	40.92393	-91.39361
631425	-77	28	7	0.5176103	0.03202846	0.9721572	0	10.6	4003	0	0	5	5	0.04253198	0.01587163	3	10	0.03	2000	-2.360901	40.92393	-91.39361
631568	-108	-5	34	0.5161237	0.03736349	0.9552675	0	10.6	4002	0	0	5	5	0.04253198	0.01652717	3	10	0.03	2000	-1.896179	40.92393	-91.39361
631631	-52	-52	164	0.5312826	0.03511018	0.9559417	0	10.6	4004	0	0	5	5	0.04253198	0.01237565	3	10	0.03	2000	-1.896179	40.92393	-91.39361
631730	166	-39	85	0.5481125	0.02808029	0.9665769	0	10.6	4003	0	0	5	5	0.04253198	0.005457981	3	10	0.03	2000	-2.622986	40.92393	-91.39361
631852	-39	6	23	0.427472	0.02098356	0.971127	0	10.72	4003	0	0	5	5	0.04253198	-0.0006681385	3	10	0.03	2000	-2.578796	40.92393	-91.39361
631969	-16	1	31	0.4189212	-0.004127607	0.9692855	0	10.72	4003	0	0	5	5	0.04253198	-0.008628384	3	10	0.03	2000	-2.019989	40.92393	-91.39361
632034	-187	81	-254	0.3634905	-0.04663697	0.9899909	0	10.72	4003	0	0	5	5	0.04253198	-0.008863099	3	10	0.03	2000	-2.221954	40.92393	-91.39361
632173	209	29	203	0.4689321	-0.08051509	0.9844186	0	10.72	4004	0	0	5	5	0.04253198	-0.01318657	3	10	0.03	2000	-2.683716	40.92393	-91.39361
632240	-58	39	-86	0.4244668	-0.06687334	1.004223	0	10.72	4003	0	0	5	5	0.04253198	-0.01583355	3	10	0.03	2000	-2.69632	40.92393	-91.39361
632406	47	-38	119	0.4536993	-0.05313171	0.9914569	0	10.72	4003	0	0	5	5	0.04253198	-0.02672917	3	10	0.03	2000	-1.963837	40.92393	-91.39361
632479	-9	-24	9	0.4741084	-0.07220878	1.001552	0	10.72	4003	0	0	5	5	0.04253198	-0.03061222	3	10	0.03	2000	-1.789337	40.92393	-91.39361
632570	-38	42	-187	0.4745269	-0.06974294	1.008427	0	10.72	4003	0	0	5	5	0.04253198	-0.03786291	3	10	0.03	2000	-1.772827	40.92393	-91.39361
632624	101	-112	194	0.4580282	-0.05326869	0.995101	0	10.72	4002	0	0	5	5	0.02	-0.03955643	6	10	0.03	2000	-2.822021	40.92393	-91.39361
632792	61	108	288	0.4310613	-0.1117501	1.069808	0	10.66	4004	0	0	5	5	0.02990774	-0.04686454	6	10	0.03	2000	-2.021088	40.92393	-91.39361
632828	61	108	288	0.4310613	-0.1117501	1.069808	0	10.66	4004	0	0	5	5	0.03099867	-0.04604047	6	10	0.03	2000	-2.021088	40.92393	-91.39361
632953	13	35	-250	0.442349	-0.05249953	1.140102	0	10.66	4004	0	0	5	5	0.03398529	-0.04291185	6	10	0.03	2000	-2.779724	40.92393	-91.39361
633038	-2	-211	248	0.4067751	-0.04283514	1.109423	0	10.66	4002	0	0	5	5	0.03623627	-0.03630205	6	10	0.03	2000	-2.248566	40.92393	-91.39361
633154	66	251	-291	0.4282275	-0.0999667	1.139425	0	10.66	4002	0	0	5	5	0.03152866	-0.02514822	6	10	0.03	2000	-2.747162	40.92393	-91.39361
633295	27	26	-320	0.4974203	-0.07036122	1.157645	0	10.66	4004	0	0	5	5	0.03489442	-0.01138165	6	10	0.03	2000	-2.076477	40.92393	-91.39361
633336	113	-26	-33	0.5196479	-0.05416599	1.155319	0	10.66	4004	0	0	5	5	0.03634556	-0.007610962	6	10	0.03	2000	-1.882721	40.92393	-91.39361
633458	77	-34	-515	0.4378928	-0.199145	1.17746	0	10.66	4003	0	0	5	5	0.03808206	0.009420374	6	10	0.03	2000	-1.818756	40.92393	-91.39361
633615	159	-85	220	0.3489542	-0.124379	1.090815	0	10.66	4004	0	0	5	5	0.03990435	0.006668315	6	10	0.03	2000	-2.994293	40.92393	-91.39361
633693	-28	61	-180	0.3738182	-0.1272667	1.03413	0	10.66	4003	0	0	5	5	0.0404036	0.008319164	6	10	0.03	2000	-1.693176	40.92393	-91.39361
633740	-96	-129	1	0.3302433	-0.2450597	0.9882217	0	10.89	4003	0	0	5	5	0.04061645	0.008399723	6	10	0.03	2000	-1.692566	40.92393	-91.39361
633914	10	35	80	0.2408085	-0.2124845	1.147114	0	10.89	4004	0	0	5	5	0.04132559	0.0304478	6	10	0.03	2000	-1.865143	40.92393	-91.39361
634019	-140	-119	196	0.09117581	-0.2752014	1.356457	0	10.89	4004	0	0	5	5	0.03664336	0.03726571	6	10	0.03	2000	-0.723938	40.92393	-91.39361
634044	-140	-119	196	0.09117581	-0.2752014	1.356457	0	10.89	4004	0	0	5	5	0.03719793	0.03872636	6	10	0.03	2000	-0.723938	40.92393	-91.39361
634277	109	-270	-622	-0.0004090265	0.2050145	2.690904	0	10.89	4003	0	0	5	5	0.03980178	0.03781629	6	10	0.03	2000	-2.389679	40.92393	-91.39361
634428	-48	-1670	-1173	0.1357636	2.918488	5.014613	0	10.89	4003	0	0	5	5	0.04282557	0.0536337	6	10	0.03	2000	-3.925446	40.92393	-91.39361
634463	-113	-2088	-1045	0.2197584	3.732968	5.583406	0	10.89	4003	0	0	5	5	0.04403101	0.06545787	6	10	0.03	2000	-4.954498	40.92393	-91.39361
634542	-1312	2252	2562	-2.458571	2.833065	5.230156	0	10.89	4004	0	0	5	5	0.04609232	0.07796217	6	10	0.03	2000	-6.064301	40.92393	-91.39361
634678	910	7154	2513	-3.002713	-7.087316	1.71547	0	10.43	4003	0	0	5	5	0.0487879	0.1095217	6	10	0.03	2000	-6.427612	40.92393	-91.39361
634776	663	2040	-1203	-0.0526663	-13.98145	0.8507794	0	10.43	4003	0	0	5	5	0.05331388	0.1250576	6	10	0.03	2000	-4.238525	40.92393	-91.39361
634909	-706	-2000	-1078	-0.783525	-15.21143	2.168098	0	10.43	4003	0	0	5	5	0.06133436	0.1416116	6	10	0.03	2000	-4.380463	40.92393	-91.39361
635080	995	-984	-131	-0.1415755	-9.042741	3.699766	0	10.43	4002	0	0	5	5	0.08979104	0.1688123	6	10	0.03	2000	-6.269867	40.92393	-91.39361
635194	-140	-2563	-334	-0.7040057	-7.251469	2.61088	0	10.43	4004	0	0	5	5	0.1155717	0.1846648	6	10	0.03	2000	-4.137878	40.92393	-91.39361
635250	-138	-2315	107	-0.5325028	-6.12321	1.925891	0	10.43	4003	0	0	5	5	0.123737	0.1878803	6	10	0.03	2000	-2.805573	40.92393	-91.39361
635367	-1138	-2189	-312	-2.081075	-4.382681	3.343676	0	10.43	4004	0	0	5	5	0.1819014	0.2066743	6	10	0.03	2000	-0.8729858	40.92393	-91.39361
635444	-1685	-2797	440	-2.719939	-2.943131	3.195654	0	10.43	4002	0	300	5	5	0.2410805	0.230282	8	10	0.03	2000	-3.075439	40.92636	-91.39361
635547	1461	-5792	-483	-2.518109	6.452414	3.496211	0	10.09	4003	0	300	5	5	0.3088564	0.2530472	8	10	0.03	2000	-3.376404	40.92636	-91.39361
635645	432	2679	1337	-1.365386	7.126311	2.417908	0	10.09	4004	0	0	5	5	0.358265	0.2940979	8	10	0.03	2000	-2.391083	40.92393	-91.39361
635799	387	2923	1081	-0.3145862	0.5707203	0.8722713	0	10.09	4003	0	0	5	5	0.4039731	0.3373244	8	10	0.03	2000	-1.65332	40.92393	-91.39361
635873	-1617	385	-403	-0.6948657	0.503173	0.652615	0	10.09	4003	0	0	5	5	0.4205417	0.3643956	8	10	0.03	2000	-0.5243835	40.92393	-91.39361
636059	3173	3742	-818	2.282677	-0.7038992	5.002777	0	10.09	4002	0	0	5	5	0.453638	0.4881736	8	10	0.03	2000	-2.919159	40.92393	-91.39361
636182	-829	3557	1708	0.4932593	-5.21294	3.510466	0	10.09	4004	0	-300	5	5	0.4665473	0.5770628	8	10	0.03	2000	-0.4570313	40.92393	-91.39361
636297	-936	2778	208	0.08894066	-9.699315	2.005957	0	10.09	4003	0	0	5	5	0.4732217	0.6773832	8	10	0.03	2000	-0.4117432	40.92393	-91.39361
636350	-1400	-2976	36	-1.471383	-6.165492	1.048388	0	10.09	4002	0	0	5	5	0.476633	0.742668	8	10	0.03	2000	1.536973	40.92393	-91.39361
636451	1153	-727	-602	-0.1674625	-2.294337	1.521363	0	9.7	4002	0	0	5	5	0.4805741	0.8272182	8	10	0.03	2000	-0.1116943	40.92393	-91.39361
636564	-1377	-263	396	-0.2716805	-1.711953	2.116877	0	9.7	4004	0	0	5	5	0.4834472	0.9961584	8	10	0.03	2000	-0.6480408	40.92393	-91.39361
636681	-422	-790	-717	-3.313124	-1.460101	2.234248	0	9.7	4003	0	0	5	5	0.4861051	1.211611	8	10	0.03	2000	0.2268802	40.92393	-91.39361
636753	1138	190	-325	-2.506447	-2.275031	2.128368	0	9.7	4002	0	0	5	5	0.4870686	1.24767	8	10	0.03	2000	0.1632707	40.92393	-91.39361
636855	-399	-1433	644	-1.210583	-0.8363054	1.837343	0	9.7	4003	0	0	5	5	0.487849	1.413881	8	10	0.03	2000	1.351362	40.92393	-91.39361
636972	219	-268	-982	-1.612791	0.0744026	1.911676	0	9.7	4004	0	0	5	5	0.4892114	1.559714	8	10	0.03	2000	1.089388	40.92393	-91.39361
637054	312	77	-266	-0.956795	-2.92407	2.134374	0	9.7	4004	0	-32	5	5	0.4897438	1.738576	8	10	0.03	2000	3.052115	40.92393	-91.39361
637201	679	2055	-833	-0.6165648	-4.473693	2.520519	0	9.7	4002	0	-32	5	5	0.4901319	1.798774	8	10	0.03	2000	1.45796	40.92393	-91.39361
637288	-144	-514	-332	-0.2196674	-6.125882	2.607482	0	9.7	4003	0	-32	5	5	0.4904149	1.893118	8	10	0.03	2000	1.45796	40.92393	-91.39361
637358	-925	-3114	-1344	-0.898241	-5.320535	2.730624	0	10.55	4004	0	-32	5	5	0.4905595	1.935241	8	10	0.03	2000	2.089803	40.92393	-91.39361
637485	-758	287	1281	-1.136391	-4.070538	2.517817	0	10.55	4003	0	-64	5	5	0.490812	2.173546	8	10	0.03	2000	3.174357	40.92393	-91.39361
637615	619	-1495	300	-1.151742	-5.593966	2.192887	0	10.55	4004	0	-64	5	5	0.4909106	2.243951	8	10	0.03	2000	2.670755	40.92393	-91.39361
637697	-167	2001	200	-0.3926198	-6.35501	1.936619	0	10.55	4002	0	-36	5	5	0.4909825	2.313652	8	10	0.03	2000	4.821373	40.92393	-91.39361
637754	437	2011	-206	-0.4897738	-7.320698	1.808469	0	10.55	4003	0	-36	5	5	0.4910192	2.365473	8	10	0.03	2000	4.821373	40.92393	-91.3936
637843	108	917	-726	0.07411054	-9.270758	1.984733	0	10.55	4004	64	-36	5	5	0.491049	2.416193	8	10	0.03	2000	3.61176	40.92393	-91.3936
638018	140	1643	358	-3.83197	-6.703955	2.043708	0	10.55	4003	64	-68	5	5	0.4911085	2.562009	8	10	0.03	2000	8.24075	40.92392	-91.3936
638072	-119	1172	-184	-3.877554	-7.079245	2.175089	0	10.55	4004	64	-40	5	5	0.4911214	2.613528	8	10	0.03	2000	7.819252	40.92392	-91.3936
638184	-1586	-1060	-103	-5.598442	-5.944639	2.752914	0	10.55	4004	64	-72	5	5	0.4911361	2.680364	8	10	0.03	2000	6.122036	40.92392	-91.3936
638332	1044	337	-1606	-6.320728	-6.456928	2.587499	0	10.04	4003	63	-72	5	5	0.4911498	2.78439	8	10	0.03	2000	4.189211	40.92392	-91.3936
638410	-777	-592	-738	-5.995778	-5.822016	2.566678	0	10.04	4003	8	-72	5	5	0.4911588	2.879475	8	10	0.03	2000	0.6954935	40.92392	-91.3936
638450	388	-135	639	-5.743323	-6.18707	2.561594	0	10.04	4004	8	-72	5	5	0.4911606	2.894521	8	10	0.03	2000	1.690693	40.92391	-91.3936
638516	1662	4104	413	-4.177481	-8.560877	2.264457	0	10.04	4004	8	-136	5	5	0.4911635	2.939563	8	10	0.03	2000	1.690693	40.92391	-91.3936
638619	-471	-1846	272	-3.052348	-10.36495	1.801169	0	10.04	4004	8	-108	5	5	0.4911659	2.96603	8	10	0.03	2000	0.3360929	40.92391	-91.3936
638721	-94	-221	-400	-2.402669	-6.900835	2.156275	0	10.04	4003	8	-108	5	5	0.4911694	3.015901	8	10	0.03	2000	-0.5492859	40.92391	-91.3936
638839	67	14	-466	-2.234244	-6.915168	1.989523	0	10.04	4003	8	-80	5	5	0.4911712	3.039233	8	10	0.03	2000	0.7225153	40.92391	-91.3936
639018	-159	1321	-133	-1.863262	-9.883014	2.125195	0	10.04	4004	8	-112	5	5	0.4911731	3.060988	8	10	0.03	2000	-0.201355	40.9239	-91.3936
639071	83	809	676	-1.855386	-11.64364	2.147292	0	10.04	4004	9	-172	5	5	0.4911734	3.062365	8	10	0.03	2000	-0.5814514	40.9239	-91.3936
639201	225	345	-1211	-0.5198943	-13.16401	2.04981	0	10.77	4002	8	-88	5	5	0.4911745	3.064254	8	10	0.03	2000	0.6839892	40.9239	-91.3936
639248	-292	-424	276	-0.5431011	-11.8203	1.698182	0	10.77	4003	8	-88	5	5	0.4911748	3.05947	8	10	0.03	2000	0.1999315	40.9239	-91.3936
639325	-325	-1695	-384	-1.226127	-9.689719	1.451801	0	10.77	4004	8	-88	5	5	0.491175	3.048887	8	10	0.03	2000	1.287556	40.9239	-91.3936
639454	-2664	-280	-907	-3.303495	-9.44291	1.639441	0	10.77	4004	72	-124	5	5	0.4911753	3.017208	8	10	0.03	2000	2.89343	40.9239	-91.39359
639618	782	-567	-1181	-4.421876	-10.23801	3.22329	0	10.77	4003	72	-124	5	5	0.4911756	2.967589	8	10	0.03	2000	2.639669	40.9239	-91.39359
639699	-3038	-1075	-115	-5.88613	-10.48044	2.890033	0	10.77	4002	72	-96	5	5	0.4911757	2.939259	8	-4.952084E+37	1.597472E-29	-7.1446E+36	1.765254	40.9239	-91.39359
639737	-392	1650	211	-6.480638	-9.703545	2.572659	0	10.77	4004	71	-127	5	5	0.4911757	2.917096	8	-4.952084E+37	1.597472E-29	-7.1446E+36	1.765254	40.92389	-91.39359
639793	3651	5603	1288	-3.316945	-12.84334	2.38498	0	10.77	4003	72	-128	5	5	0.4911758	2.910416	8	-4.952084E+37	1.597472E-29	-7.1446E+36	1.65197	40.92389	-91.39359
639892	3048	6682	378	-1.577493	-17.96269	2.365399	0	10.77	4002	72	-128	5	5	0.4911758	2.891296	8	-4.952084E+37	1.597472E-29	-7.1446E+36	1.10884	40.92389	-91.39359
639997	-3324	-3416	64	-1.47223	-13.85422	2.985427	0	10.77	4003	16	-72	5	5	0.4911758	2.863848	8	-4.952084E+37	1.597472E-29	-7.1446E+36	0.3334482	40.92389	-91.39359
640102	-510	-2482	582	-4.085143	-5.834648	1.670443	0	9.75	4004	16	-104	5	5	0.4911758	2.85105	8	-4.952084E+37	1.597472E-29	-7.1446E+36	1.37705	40.92389	-91.39359
640208	-1130	-2509	172	-5.290745	-2.763687	0.200654	0	9.75	4004	16	-104	5	5	0.4911758	2.827944	8	-4.952084E+37	1.597472E-29	-7.1446E+36	3.221827	40.92389	-91.39359
640347	-1140	2074	348	-6.312979	-2.685155	0.6158732	0	9.75	4004	80	-104	5	5	0.4911758	2.824958	8	-4.952084E+37	1.597472E-29	-7.1446E+36	3.815121	40.92389	-91.39359
640453	709	16	-1004	-8.36568	-4.491978	2.565427	0	9.75	4004	79	-43	5	5	0.4911758	2.824912	8	-4.952084E+37	1.597472E-29	-7.1446E+36	2.487	40.92389	-91.39359
640616	-1614	-1946	391	-7.473608	-5.685505	2.340483	0	9.75	4002	80	-44	5	5	0.4911758	2.832648	8	-4.952084E+37	1.597472E-29	-7.1446E+36	0.6345854	40.92389	-91.39359
640765	400	1721	524	-7.562171	-4.452017	1.714679	0	9.75	4002	80	-16	5	5	0.4911758	2.849251	8	-4.952084E+37	1.597472E-29	-7.1446E+36	1.665996	40.92389	-91.39359
640850	-448	-2884	-1162	-7.543618	-4.095672	2.347755	0	9.75	4002	80	16	5	5	0.4911758	2.868818	8	-4.952084E+37	1.597472E-29	-7.1446E+36	-0.775116	40.9239	-91.39359
640916	848	-1596	-397	-7.079355	-2.135203	2.906901	0	9.75	4003	24	16	5	5	0.4911758	2.886422	8	-4.952084E+37	1.597472E-29	-7.1446E+36	-1.144867	40.9239	-91.39359
641005	543	320	669	-6.222475	-2.13262	2.448492	0	10.94	4003	24	16	5	5	0.4911758	2.909169	8	-4.952084E+37	1.597472E-29	-7.1446E+36	-1.705109	40.9239	-91.39359
641078	241	-1072	-283	-4.858247	-2.245604	2.447991	0	10.94	4004	24	20	5	5	0.4911758	2.923047	8	-4.952084E+37	1.597472E-29	-7.1446E+36	-2.026611	40.9239	-91.39359
641181	29	-1944	227	-4.82046	-0.3760675	2.401978	0	10.94	4002	23	51	5	5	0.4911758	2.963747	8	-4.952084E+37	1.597472E-29	-7.1446E+36	-2.217468	40.9239	-91.39359
641319	1899	-1274	-1130	-3.785953	0.5398868	2.771188	0	10.94	4003	24	52	5	5	0.4911758	3.005367	8	-4.952084E+37	1.597472E-29	-7.1446E+36	-1.722809	40.9239	-91.39359
641386	59	-1333	58	-2.730297	0.1867608	2.629441	0	10.94	4003	24	84	5	5	0.4911758	3.02791	8	-4.952084E+37	1.597472E-29	-7.1446E+36	-1.774628	40.92391	-91.39359
641513	171	-1318	-668	-3.586628	-0.1046205	2.375861	0	10.94	4003	24	56	5	5	0.4911758	3.071663	8	-4.952084E+37	1.597472E-29	-7.1446E+36	-0.9254761	40.92391	-91.39359
641609	704	-884	-1166	-2.371685	-0.4987329	2.552286	0	10.94	4004	24	88	5	5	0.4911758	3.095161	8	-4.952084E+37	1.597472E-29	-7.1446E+36	0.02265175	40.92391	-91.39359
641753	-1530	-3947	1357	-2.67398	0.9027783	2.184574	0	10.94	4003	23	91	5	5	0.4911758	3.139123	8	-4.952084E+37	1.597472E-29	-7.1446E+36	-1.586761	40.92392	-91.39359
641802	-730	-3191	1117	-3.623909	3.298363	1.685212	0	10.94	4004	24	92	5	5	0.4911758	3.149046	8	-4.952084E+37	1.597472E-29	-7.1446E+36	-1.14209	40.92392	-91.39359
641945	361	1886	464	-2.838298	3.406834	1.611235	0	10.49	4002	24	96	5	5	0.4911758	3.187586	8	-4.952084E+37	1.597472E-29	-7.1446E+36	-0.04360962	40.92392	-91.39359
642060	1349	-397	-85	-2.199022	1.181622	2.310184	0	10.49	4004	24	68	5	5	0.4911758	3.202104	8	-4.952084E+37	1.597472E-29	-7.1446E+36	0.6583149	40.92392	-91.39359
642106	-885	-2991	-161	-1.863212	2.265908	2.604133	0	10.49	4002	24	68	5	5	0.4911758	3.203006	8	-4.952084E+37	1.597472E-29	-7.1446E+36	-2.001984	40.92392	-91.39359
642282	390	1550	1254	-2.30281	1.062379	2.119955	0	10.49	4002	24	40	5	5	0.4911758	3.184829	8	-4.952084E+37	1.597472E-29	-7.1446E+36	0.8848951	40.92392	-91.39359
642337	-1194	218	74	-2.786871	-1.080979	1.515382	0	10.49	4003	23	39	5	5	0.4911758	3.180165	8	-4.952084E+37	1.597472E-29	-7.1446E+36	2.303181	40.92392	-91.39359
642421	535	-1578	-85	-3.476731	0.08146991	1.394727	0	10.49	4004	24	12	5	5	0.4911758	3.160231	8	-4.952084E+37	1.597472E-29	-7.1446E+36	0.7915469	40.92392	-91.39359
642569	32	853	166	-3.280946	-1.50487	1.606091	0	10.49	4003	24	12	5	5	0.4911758	3.076422	8	-4.952084E+37	1.597472E-29	-7.1446E+36	16.8061	40.92392	-91.39359
642619	1181	1488	-1338	-3.209826	-3.046925	2.036781	0	10.49	4003	24	-16	5	5	0.4911758	3.051961	8	-4.952084E+37	1.597472E-29	-7.1446E+36	13.99392	40.92392	-91.39359
642800	-1712	-2632	1046	-3.046767	-7.265491	3.637096	0	10.49	4004	24	-16	5	5	0.4911758	2.957399	8	-4.952084E+37	1.597472E-29	-7.1446E+36	29.52278	40.92392	-91.39359
642847	-1728	-2983	327	-4.58136	-4.274899	3.023637	0	10.49	4003	-40	-48	5	5	0.4911758	2.944981	8	-4.952084E+37	1.597472E-29	-7.1446E+36	30.11526	40.92392	-91.39359
642975	2865	1654	-92	-2.759051	-4.334383	2.258235	0	10.49	4003	-40	-48	5	5	0.4911758	2.84981	8	-4.952084E+37	1.597472E-29	-7.1446E+36	25.84834	40.92392	-91.39359
643113	-1094	-119	-755	-0.9385664	-5.598423	2.766974	0	10.49	4003	-40	-80	5	5	0.4911758	2.792534	8	-4.952084E+37	1.597472E-29	-7.1446E+36	21.2351	40.92391	-91.39359
643252	1154	975	-2123	1.11738	-6.906071	7.621704	0	10.49	4003	-40	-112	5	5	0.4911758	2.699536	8	-4.952084E+37	1.597472E-29	-7.1446E+36	15.88742	40.92391	-91.39359
643368	59	842	168	1.833441	-8.832943	7.605875	0	10.49	4003	-40	-112	5	5	0.4911758	2.628442	8	-4.952084E+37	1.597472E-29	-7.1446E+36	11.19427	40.92391	-91.39359
643476	663	-208	3722	2.114688	-7.504561	3.773479	0	10.49	4002	-40	-176	5	5	0.4911758	2.571388	8	-4.952084E+37	1.597472E-29	-7.1446E+36	15.3236	40.9239	-91.39359
643516	164	1415	1914	2.204979	-6.904741	2.529375	0	10.49	4004	15	-148	5	5	0.4911758	2.544512	8	-4.952084E+37	1.597472E-29	-7.1446E+36	15.3236	40.9239	-91.39359
643636	-40	5871	-2628	1.754119	-10.6729	2.777416	0	10.49	4003	16	-180	5	5	0.4911758	2.473168	8	-4.952084E+37	1.597472E-29	-7.1446E+36	18.03087	40.9239	-91.39359
643737	-1728	-1696	726	1.800175	-14.03562	3.796655	0	9.81	4003	16	-152	5	5	0.4911758	2.413421	8	-4.952084E+37	1.597472E-29	-7.1446E+36	16.82076	40.9239	-91.39359
643838	-35	1569	251	-3.805279	-9.876029	4.442204	0	9.81	4003	16	-188	5	5	0.4911758	2.318819	8	-4.952084E+37	1.597472E-29	-7.1446E+36	11.59145	40.92389	-91.39359
643909	1372	1381	595	-2.588757	-10.44685	3.940088	0	9.81	4004	16	-188	5	5	0.4911758	2.27723	8	-4.952084E+37	1.597472E-29	-7.1446E+36	10.34846	40.92389	-91.39359
644012	1458	2234	597	-0.2762847	-12.89102	2.345478	0	9.81	4003	15	-220	5	5	0.4911758	2.244362	8	-4.952084E+37	1.597472E-29	-7.1446E+36	9.407695	40.92389	-91.39359
644113	552	2271	-184	-2.379153	-12.25342	2.79965	0	9.81	4004	16	-164	5	5	0.4911758	2.211772	8	-4.952084E+37	1.597472E-29	-7.1446E+36	9.746204	40.92388	-91.39359
644230	340	1731	-876	-4.036949	-11.55132	3.214334	0	9.81	4003	80	-168	5	5	0.4911758	2.209765	8	-4.952084E+37	1.597472E-29	-7.1446E+36	7.095558	40.92388	-91.39359
644334	-2349	793	1152	-5.449938	-6.784197	4.995408	0	9.81	4003	80	-168	5	5	0.4911758	2.223657	8	-4.952084E+37	1.597472E-29	-7.1446E+36	5.034134	40.92387	-91.39359
644398	-1251	2112	1340	-6.225064	-6.938969	4.487457	0	9.81	4003	80	-177	5	5	0.4911758	2.254176	8	-4.952084E+37	1.597472E-29	-7.1446E+36	5.034134	40.92387	-91.39359
644495	865	4687	2117	-4.88242	-11.34286	2.456513	0	9.81	4003	80	-208	5	5	0.4911758	2.289163	8	-4.952084E+37	1.597472E-29	-7.1446E+36	4.096961	40.92387	-91.39359
644641	-656	-640	629	-6.170828	-13.34328	1.31929	0	10.15	4003	80	-180	5	5	0.4911758	2.353279	8	-4.952084E+37	1.597472E-29	-7.1446E+36	4.183232	40.92387	-91.39359
644762	253	14	-779	-7.104703	-13.45814	2.710127	0	10.15	4002	80	-212	5	5	0.4911758	2.392083	8	-4.952084E+37	1.597472E-29	-7.1446E+36	2.836875	40.92387	-91.39359
644813	1073	-603	-1167	-6.50264	-13.19307	3.263589	0	10.15	4003	24	-184	5	5	0.4911758	2.464878	8	-4.952084E+37	1.597472E-29	-7.1446E+36	2.836875	40.92387	-91.39358
644938	-2078	-628	-544	-6.101534	-12.68578	3.383104	0	10.15	4003	88	-184	5	5	0.4911758	2.540435	8	-4.952084E+37	1.597472E-29	-7.1446E+36	1.558148	40.92387	-91.39358
645122	257	-133	-812	-6.989364	-11.93512	1.400765	0	10.15	4003	88	-128	5	5	0.4911758	2.664253	8	-4.952084E+37	1.597472E-29	-7.1446E+36	0.5333591	40.92387	-91.39358
645236	-1425	-1280	-125	-6.449232	-9.871618	2.451995	0	10.15	4003	105	-119	5	5	0.4911758	2.771732	8	-4.952084E+37	1.597472E-29	-7.1446E+36	0.8365497	40.92387	-91.39358
645293	-2010	-1453	-766	-7.261876	-8.61714	2.562103	0	10.15	4003	88	-100	5	5	0.4911758	2.82145	8	-4.952084E+37	1.597472E-29	-7.1446E+36	0.8365497	40.92387	-91.39358
645446	-377	-705	-164	-8.222629	-6.453293	2.22268	0	10.15	4004	152	-72	5	5	0.4911758	2.908293	8	-4.952084E+37	1.597472E-29	-7.1446E+36	0.1779765	40.92387	-91.39357
645567	172	1630	315	-8.970384	-7.421785	1.732419	0	9.87	4004	96	-72	5	5	0.4911758	3.001081	8	-4.952084E+37	1.597472E-29	-7.1446E+36	-0.784668	40.92387	-91.39357
645594	943	1510	626	-8.293546	-7.829834	1.736587	0	9.87	4003	96	-72	5	5	0.4911758	3.016461	8	-4.952084E+37	1.597472E-29	-7.1446E+36	-0.784668	40.92387	-91.39357
645691	1090	-924	-1530	-6.364958	-9.484605	2.88762	0	9.87	4003	96	-40	5	5	0.4911758	3.100179	8	-4.952084E+37	1.597472E-29	-7.1446E+36	-1.995697	40.92387	-91.39357
645861	-1902	-2261	-640	-9.604787	-7.192654	2.002007	0	9.87	4003	96	-8	5	5	0.4911758	3.178145	8	-4.952084E+37	1.597472E-29	-7.1446E+36	-2.323425	40.92387	-91.39357
646056	-1135	-2817	-137	-7.751949	-3.49524	1.901246	0	9.87	4003	40	-8	5	5	0.4911758	3.267343	8	-4.952084E+37	1.597472E-29	-7.1446E+36	-3.341431	40.92387	-91.39357
646164	1669	564	-293	-6.463042	-2.938894	1.611744	0	9.87	4003	39	23	5	5	0.4911758	3.30377	8	-4.952084E+37	1.597472E-29	-7.1446E+36	-3.433167	40.92387	-91.39357
646310	314	-2078	-437	-5.855364	-3.989613	1.387528	0	9.87	4004	40	-3	5	5	0.4911758	3.342929	8	-4.952084E+37	1.597472E-29	-7.1446E+36	-3.81958	40.92388	-91.39357
646416	1046	-1886	-1803	-4.952887	-1.891569	2.138748	0	9.87	4004	40	0	5	5	0.4911758	3.388881	8	-4.952084E+37	1.597472E-29	-7.1446E+36	-3.939148	40.92388	-91.39357
646495	-194	536	495	-4.813961	-2.414664	2.56183	0	10.09	4003	-23	63	5	5	0.4911758	3.412947	8	-4.952084E+37	1.597472E-29	-7.1446E+36	-4.692871	40.92389	-91.39358
646600	1932	-1302	671	-3.624417	-1.996731	2.119923	0	10.09	4003	-24	64	5	5	0.4911758	3.460681	8	-4.952084E+37	1.597472E-29	-7.1446E+36	-3.880951	40.92389	-91.39358
646765	1627	-916	219	-0.4309037	1.000096	1.412468	0	10.09	4003	-24	96	5	5	0.4911758	3.493912	8	-4.952084E+37	1.597472E-29	-7.1446E+36	-2.851685	40.92389	-91.39358
646819	1662	-21	-915	0.3688162	1.201712	1.923926	0	10.09	4002	-24	68	5	5	0.4911758	3.493912	8	-4.952084E+37	1.597472E-29	-7.1446E+36	-1.437927	40.92389	-91.39358
646905	805	-784	-1019	0.8238204	-0.1709677	2.452068	0	10.09	4002	-24	100	5	5	0.4911758	3.546681	8	-4.952084E+37	1.597472E-29	-7.1446E+36	-0.5414734	40.9239	-91.39358
647024	-587	-1306	-269	-0.3618494	0.3473666	2.417056	0	10.09	4007	-24	72	5	5	0.4911758	3.577607	8	-4.952084E+37	1.597472E-29	-7.1446E+36	1.171445	40.9239	-91.39358
647133	1523	-1496	776	-1.145658	1.780887	1.602219	0	10.09	4004	-32	80	5	5	0.4911758	3.533432	8	-4.952084E+37	1.597472E-29	-7.1446E+36	4.027102	40.9239	-91.39359
647215	2498	4501	565	1.920156	-2.158787	1.157654	0	10.09	4003	-32	80	5	5	0.4911758	3.318338	8	-4.952084E+37	1.597472E-29	-7.1446E+36	8.308681	40.9239	-91.39359
647361	-856	9	-786	0.7705058	-7.006382	1.661351	0	10.09	4004	-32	52	5	5	0.4911758	3.148643	8	-4.952084E+37	1.597472E-29	-7.1446E+36	9.280799	40.9239	-91.39359
647401	-233	-578	-249	-0.387652	-6.656513	2.280207	0	9.02	4003	-31	52	5	5	0.4911758	2.994262	8	-4.952084E+37	1.597472E-29	-7.1446E+36	9.948989	40.92391	-91.39359
647544	330	-1108	-187	-1.741496	-4.717838	2.538344	0	9.02	4003	-32	88	5	5	0.4911758	2.651734	8	-4.952084E+37	1.597472E-29	-7.1446E+36	12.54461	40.92391	-91.39359
647592	-1756	-3945	-900	-2.067839	-3.714131	2.399577	0	9.02	4004	-32	88	5	5	0.4911758	2.480985	8	-4.952084E+37	1.597472E-29	-7.1446E+36	12.54461	40.92391	-91.39359
647853	-4	-3799	-914	-3.497564	-4.588335	2.261302	0	9.02	4002	24	96	5	5	0.4911758	2.081401	8	-4.952084E+37	1.597472E-29	-7.1446E+36	14.54811	40.92392	-91.39359
647978	-2596	-2639	-57	-10.34914	3.357991	2.12527	0	9.02	4004	23	95	5	5	0.4911758	1.884355	8	-4.952084E+37	1.597472E-29	-7.1446E+36	21.41079	40.92392	-91.39359
648117	-367	2668	84	-7.061497	-1.497834	2.976228	0	9.02	4004	24	40	5	5	0.4911758	1.767482	8	-4.952084E+37	1.597472E-29	-7.1446E+36	12.65326	40.92392	-91.39359
648238	2462	848	580	-4.375402	-2.160714	3.17378	0	9.02	4003	-40	104	5	5	0.4911758	1.6471	8	-4.952084E+37	1.597472E-29	-7.1446E+36	7.460764	40.92393	-91.39359
648316	1135	2020	-56	-2.745742	-3.32188	3.495619	0	9.41	4002	-40	104	5	5	0.4911758	1.596459	8	-4.952084E+37	1.597472E-29	-7.1446E+36	10.07641	40.92393	-91.39359
648419	685	663	-581	-1.565352	-5.231039	3.519591	0	9.41	4003	-40	104	5	5	0.4911758	1.535992	8	-4.952084E+37	1.597472E-29	-7.1446E+36	9.991167	40.92393	-91.39359
648520	109	3151	1050	0.3961735	-8.283089	3.384006	0	9.41	4004	-40	48	5	5	0.4911758	1.475194	8	-4.952084E+37	1.597472E-29	-7.1446E+36	7.882799	40.92393	-91.39359
648656	280	1346	573	0.383476	-10.69901	4.027405	0	9.41	4003	-40	48	5	5	0.4911758	1.428419	8	-4.952084E+37	1.597472E-29	-7.1446E+36	11.22634	40.92393	-91.39359
648711	-1364	1833	374	-0.2673923	-11.66395	3.841133	0	9.41	4004	-40	48	5	5	0.4911758	1.399034	8	-4.952084E+37	1.597472E-29	-7.1446E+36	11.22634	40.92393	-91.39359
648831	-407	2382	110	-1.549773	-12.61899	3.539713	0	9.41	4004	16	-8	5	5	0.4911758	1.373589	8	-4.952084E+37	1.597472E-29	-7.1446E+36	11.31371	40.92393	-91.39359
648942	-1632	-1795	918	-3.167793	-12.3438	3.106374	0	9.41	4004	16	-8	5	5	0.4911758	1.363568	8	-4.952084E+37	1.597472E-29	-7.1446E+36	8.907971	40.92393	-91.39359
649077	772	552	-298	-3.338102	-5.190112	3.148686	0	9.41	4003	16	-8	5	5	0.4911758	1.375273	8	-4.952084E+37	1.597472E-29	-7.1446E+36	9.733562	40.92393	-91.39359
649150	-37	-224	636	-2.655524	-5.674914	2.796729	0	9.41	4004	16	-8	5	5	0.4911758	1.388361	8	-4.952084E+37	1.597472E-29	-7.1446E+36	9.733562	40.92393	-91.39359
649335	878	-287	-1467	-2.090997	-4.292492	2.07322	0	10.43	4004	16	-40	5	5	0.4911758	1.44812	8	-4.952084E+37	1.597472E-29	-7.1446E+36	9.43784	40.92392	-91.39359
649400	1637	1796	-1149	-0.6526009	-6.278273	3.096429	0	10.43	4002	16	-40	5	5	0.4911758	1.478792	8	-4.952084E+37	1.597472E-29	-7.1446E+36	9.545615	40.92392	-91.39359
649497	435	906	116	-0.4234467	-7.63114	3.671395	0	10.43	4003	16	-40	5	5	0.4911758	1.52943	8	-4.952084E+37	1.597472E-29	-7.1446E+36	11.41438	40.92392	-91.39359
649545	-1135	-1482	-615	-0.7739585	-7.560334	3.847757	0	10.43	4004	16	-40	5	5	0.4911758	1.543941	8	-4.952084E+37	1.597472E-29	-7.1446E+36	11.79613	40.92392	-91.39359
649734	634	774	1500	-3.230845	-3.293244	1.957461	0	10.43	4004	16	-40	5	5	0.4911758	1.735048	8	-4.952084E+37	1.597472E-29	-7.1446E+36	15.05112	40.92392	-91.39359
649786	13	-731	-126	-3.468322	-4.757014	1.541912	0	10.43	4003	16	-40	5	5	0.4911758	1.752519	8	-4.952084E+37	1.597472E-29	-7.1446E+36	17.59767	40.92392	-91.39359
649910	869	384	-1287	-2.885773	-4.199885	1.604002	0	10.43	4004	16	-12	5	5	0.4911758	1.816789	8	-4.952084E+37	1.597472E-29	-7.1446E+36	17.51354	40.92392	-91.39359
650021	1052	1564	-1807	-2.524621	-7.207764	2.179449	0	10.43	4004	16	-12	5	5	0.4911758	1.910328	8	-4.952084E+37	1.597472E-29	-7.1446E+36	17.33886	40.92392	-91.39359
650091	790	1484	96	-1.74357	-11.3654	2.303972	0	10.43	4002	16	-12	5	5	0.4911758	1.952247	8	-4.952084E+37	1.597472E-29	-7.1446E+36	17.83949	40.92392	-91.39359
650199	-884	-2842	612	-2.316942	-5.370949	2.622861	0	10.43	4003	16	-44	5	5	0.4911758	2.026198	8	-4.952084E+37	1.597472E-29	-7.1446E+36	18.95253	40.92392	-91.39359
650229	-884	-2842	612	-2.316942	-5.370949	2.622861	0	10.43	4003	16	-44	5	5	0.4911758	2.055238	8	-4.952084E+37	1.597472E-29	-7.1446E+36	18.95253	40.92392	-91.39359
650318	74	517	220	-3.92444	-3.919477	1.93268	0	10.43	4003	16	-44	5	5	0.4911758	2.097548	8	-4.952084E+37	1.597472E-29	-7.1446E+36	20.7516	40.92392	-91.39359
650446	-2156	244	322	-3.712039	-7.509258	1.783087	0	10.43	4004	16	-44	5	5	0.4911758	2.160016	8	-4.952084E+37	1.597472E-29	-7.1446E+36	20.29804	40.92392	-91.39359
650619	-3609	696	-343	-6.684556	-11.7171	2.138091	0	10.43	4004	80	-44	5	5	0.4911758	2.198624	8	-4.952084E+37	1.597472E-29	-7.1446E+36	20.42254	40.92392	-91.39359
650672	-2224	-344	885	-10.87461	-10.13959	2.042675	0	10.43	4002	80	-44	5	5	0.4911758	2.208368	8	-4.952084E+37	1.597472E-29	-7.1446E+36	12.91591	40.92392	-91.39359
650775	-684	-2142	-529	-11.6688	-7.450192	1.834355	0	10.43	4003	80	-16	5	5	0.4911758	2.230698	8	-4.952084E+37	1.597472E-29	-7.1446E+36	10.48933	40.92392	-91.39359
650862	51	-1138	464	-11.38162	-4.726729	2.097513	0	10.43	4004	80	-16	5	5	0.4911758	2.239627	8	-4.952084E+37	1.597472E-29	-7.1446E+36	8.55973	40.92392	-91.39359
650935	415	-523	1188	-10.11522	-3.684655	2.320652	0	10.43	4003	80	-48	5	5	0.4911758	2.238293	8	-4.952084E+37	1.597472E-29	-7.1446E+36	8.510435	40.92392	-91.39359
651087	-525	690	-815	-9.097743	-3.43355	2.40376	0	9.53	4002	79	-47	5	5	0.4911758	2.229519	8	-4.952084E+37	1.597472E-29	-7.1446E+36	5.718485	40.92392	-91.39359
651145	403	-660	-703	-8.576793	-5.5194	2.249715	0	9.53	4003	80	-48	5	5	0.4911758	2.224638	8	-4.952084E+37	1.597472E-29	-7.1446E+36	1.836092	40.92392	-91.39359
651302	828	-304	-725	-5.530083	-4.129315	2.627537	0	9.53	4003	24	-80	5	5	0.4911758	2.201363	8	-4.952084E+37	1.597472E-29	-7.1446E+36	1.346212	40.92391	-91.39359
651330	21	888	463	-5.265501	-4.679083	2.686798	0	9.53	4003	24	-80	5	5	0.4911758	2.192757	8	-4.952084E+37	1.597472E-29	-7.1446E+36	-0.3425903	40.92391	-91.39359
651504	609	-44	927	-4.107147	-7.709477	2.615068	0	9.53	4003	24	-80	5	5	0.4911758	2.156173	8	-4.952084E+37	1.597472E-29	-7.1446E+36	-0.8479614	40.92391	-91.39359
651576	1200	595	-162	-3.55197	-7.235189	2.610379	0	9.53	4003	24	-52	5	5	0.4911758	2.133295	8	-4.952084E+37	1.597472E-29	-7.1446E+36	-0.1643066	40.92391	-91.39359
651684	-238	1253	451	-2.370962	-7.869587	2.159053	0	9.53	4004	24	-84	5	5	0.4911758	2.094184	8	-4.952084E+37	1.597472E-29	-7.1446E+36	-1.295258	40.92391	-91.39359
651758	679	3006	-943	-0.4704559	-12.49391	3.090114	0	9.53	4003	23	-115	5	5	0.4911758	2.072972	8	-4.952084E+37	1.597472E-29	-7.1446E+36	2.252711	40.9239	-91.39359
651909	-1387	-2925	-1109	-2.024983	-12.83804	4.398818	0	9.53	4004	24	-88	5	5	0.4911758	1.996226	8	-4.952084E+37	1.597472E-29	-7.1446E+36	0.007177266	40.9239	-91.39359
652039	397	963	2463	-4.350082	-5.456688	3.192081	0	9.47	4004	24	-88	5	5	0.4911758	1.944638	8	-4.952084E+37	1.597472E-29	-7.1446E+36	0.6114973	40.9239	-91.39359
652086	441	796	1916	-4.447088	-5.757608	2.633857	0	9.47	4004	24	-88	5	5	0.4911758	1.921639	8	-4.952084E+37	1.597472E-29	-7.1446E+36	3.286901	40.9239	-91.39359
652208	1133	1309	1126	-3.816013	-7.449799	1.381191	0	9.47	4003	24	-92	5	5	0.4911758	1.851606	8	-4.952084E+37	1.597472E-29	-7.1446E+36	3.96115	40.9239	-91.39359
652283	603	-673	109	-2.851025	-6.591759	1.710377	0	9.47	4002	24	-92	5	5	0.4911758	1.828228	8	-4.952084E+37	1.597472E-29	-7.1446E+36	5.081198	40.9239	-91.39359
652459	-280	-908	-247	-4.568844	-5.094029	2.734217	0	9.47	4004	24	-96	5	5	0.4911758	1.745809	8	-4.952084E+37	1.597472E-29	-7.1446E+36	5.582738	40.9239	-91.39359
652508	602	1372	210	-4.25906	-4.929793	2.660234	0	9.47	4002	24	-96	5	5	0.4911758	1.707414	8	-4.952084E+37	1.597472E-29	-7.1446E+36	5.582738	40.9239	-91.39359
652622	-434	725	1038	-3.643025	-7.304056	1.728925	0	9.47	4003	24	-96	5	5	0.4911758	1.629476	8	-4.952084E+37	1.597472E-29	-7.1446E+36	5.679788	40.9239	-91.39359
652703	964	-428	244	-3.209831	-5.415541	1.900446	0	9.47	4004	23	-95	5	5	0.4911758	1.592692	8	-4.952084E+37	1.597472E-29	-7.1446E+36	5.525666	40.9239	-91.39359
652848	18	882	684	-2.436307	-5.973643	1.982817	0	9.47	4003	24	-100	5	5	0.4911758	1.524608	8	-4.952084E+37	1.597472E-29	-7.1446E+36	5.465156	40.92389	-91.39359
652945	467	2010	-195	-3.052245	-7.344312	2.202726	0	9.47	4003	28	-119	5	5	0.4911758	1.508119	8	-4.952084E+37	1.597472E-29	-7.1446E+36	5.496582	40.92389	-91.39359
653065	1296	1460	-695	-2.911256	-9.39982	2.998931	0	9.47	4003	23	-72	5	5	0.4911758	1.456571	8	-4.952084E+37	1.597472E-29	-7.1446E+36	5.181822	40.92389	-91.39359
