time(ms)	gyro_x(deg/s)	gyro_y(deg/s)	gyro_z(deg/s)	orientation_roll(deg)	orientation_pitch(deg)	orientation_yaw(deg)	throttle	battery(V)	loop_time(uS)	pid_output_roll	pid_output_pitch	pid_output_yaw	pid_output_throttle	ultrasonic_alt	baro_alt	flight_mode	p_gain_altitude	i_gain_altitude	d_gain_altitude	compass_heading	latitude	longitude
123867	780	-1111	302	-6.411858	-6.642047	1.481541	0	11.4	4004	0	0	5	5	0.3220769	0.827122	3	10	0.03	2000	-10.36539	40.92393	-91.39362
123982	2479	-2314	24	-0.1265253	-3.549785	1.610414	0	11.4	4003	0	0	5	5	0.3220769	0.8108711	3	10	0.03	2000	-10.52759	40.92393	-91.39362
124080	2301	-2714	729	1.019498	0.3623186	1.353016	0	11.4	4003	0	0	5	5	0.3220769	0.7742851	3	10	0.03	2000	-9.961639	40.92393	-91.39362
124175	-91	972	858	2.242042	0.5735328	1.079832	0	11.4	4003	0	0	5	5	0.3220769	0.758195	3	10	0.03	2000	-8.242676	40.92393	-91.39362
124311	361	26	130	-0.8643184	1.362982	0.715495	0	11.4	4003	0	0	5	5	0.3220769	0.748122	3	10	0.03	2000	-3.499298	40.92393	-91.39362
124427	-523	4656	198	0.8120857	-4.457221	2.238999	0	11.46	4004	0	0	5	5	0.3220769	0.714913	3	10	0.03	2000	-3.53714	40.92393	-91.39362
124501	-1346	2296	-76	-0.5126454	-8.45901	3.375289	0	11.46	4002	0	0	5	5	0.3220769	0.6965435	3	10	0.03	2000	-4.386841	40.92393	-91.39363
124616	-434	1746	551	-2.408994	-10.4927	3.93154	0	11.46	4003	0	0	5	5	0.3220769	0.6751314	3	10	0.03	2000	-4.42807	40.92393	-91.39363
124693	139	-1153	587	-2.635375	-9.636221	3.628244	0	11.46	4002	0	0	5	5	0.3220769	0.6430753	3	10	0.03	2000	-3.146942	40.92393	-91.39363
124894	-2393	-563	-1139	-8.764153	-6.792685	2.480326	0	11.46	4003	0	0	5	5	0.3220769	0.6071505	3	10	0.03	2000	-1.27243	40.92393	-91.39363
124928	-889	248	-241	-9.373163	-6.865546	2.473511	0	11.46	4004	0	0	5	5	0.3220769	0.595489	3	10	0.03	2000	-3.545349	40.92393	-91.39363
124997	-2628	-520	1681	-10.21664	-6.82559	1.432042	0	11.46	4004	0	0	5	5	0.3220769	0.5764779	3	10	0.03	2000	-4.288971	40.92393	-91.39363
125108	1543	-2423	901	-8.592161	-6.829019	-2.612457	0	11.46	4004	0	0	5	5	0.3220769	0.5348398	3	10	0.03	2000	-4.313232	40.92393	-91.39363
125245	1746	660	-557	-4.114445	-4.383182	-6.383409	0	11.46	4002	0	0	5	5	0.3220769	0.5158212	3	10	0.03	2000	-2.016693	40.92393	-91.39363
125301	804	-4428	867	-1.797724	-2.004426	-5.784818	0	11.23	4003	0	0	5	5	0.3220769	0.5080479	3	10	0.03	2000	-2.804993	40.92393	-91.39363
125509	516	-2999	-19	-3.192387	11.88988	-4.677553	0	11.23	4002	0	0	5	5	0.3220769	0.4752946	3	10	0.03	2000	-1.377533	40.92393	-91.39363
125592	159	558	660	-3.230191	9.757451	-6.006855	0	11.23	4004	0	0	5	5	0.3220769	0.458928	3	10	0.03	2000	1.428078	40.92393	-91.39363
125639	454	3243	2234	-3.133343	8.055632	-6.44554	0	11.23	4003	0	0	5	5	0.3220769	0.4469258	3	10	0.03	2000	3.141097	40.92393	-91.39363
125725	859	6618	-860	-2.227377	1.386826	-6.715339	0	11.23	4003	0	0	5	5	0.3220769	0.4340379	3	10	0.03	2000	3.230449	40.92393	-91.39363
125859	849	2698	-1139	-1.965164	-9.988964	-5.387463	0	11.23	4002	0	0	5	5	0.3220769	0.4115373	3	10	0.03	2000	6.191827	40.92393	-91.39363
125915	1646	2599	-813	-1.398445	-11.15254	-4.460226	0	11.23	4004	0	0	5	5	0.3220769	0.4018527	3	10	0.03	2000	2.592527	40.92393	-91.39363
126078	1648	1084	1491	11.02824	-0.3225559	-7.805673	0	11.23	4003	0	0	5	5	0.3220769	0.3450058	3	10	0.03	2000	6.282572	40.92393	-91.39363
126105	1648	1084	1491	11.02824	-0.3225559	-7.805673	0	11.23	4003	0	0	5	5	0.3220769	0.3354751	3	10	0.03	2000	6.282572	40.92393	-91.39363
126241	-281	-1453	-242	9.87656	-9.353491	-6.576326	0	11.57	4003	0	0	5	5	0.3220769	0.2846971	3	10	0.03	2000	4.579513	40.92393	-91.39363
126353	-1876	-2937	537	8.198956	-5.532345	-6.955204	0	11.57	4002	0	0	5	5	0.3220769	0.2413122	3	10	0.03	2000	2.147944	40.92393	-91.39363
126444	-180	-788	167	8.578562	-2.646138	-7.206983	0	11.57	4002	0	0	5	5	0.3220769	0.2056201	3	10	0.03	2000	1.979843	40.92393	-91.39363
126546	-312	397	-12	8.660355	-1.978046	-7.273749	0	11.57	4003	0	0	5	5	0.3220769	0.1678379	3	10	0.03	2000	1.328887	40.92393	-91.39363
126658	-590	950	-116	8.374297	-2.394254	-7.195127	0	11.57	4003	0	0	5	5	0.3220769	0.1288795	3	10	0.03	2000	0.3025828	40.92393	-91.39363
126771	-391	335	7	8.247335	-2.543921	-7.19367	0	11.57	4003	0	0	5	5	0.3220769	0.09970374	1	10	0.03	2000	1.963006	40.92393	-91.39363
126814	-34	-44	23	8.223925	-2.561084	-7.200522	0	11.57	4002	0	0	5	5	0.3220769	0.09483285	1	10	0.03	2000	1.963006	40.92393	-91.39363
126972	-50	41	-23	8.505984	-2.101971	-7.234393	0	11.57	4002	0	0	5	5	0.3220769	0.0614299	1	10	0.03	2000	0.7178007	40.92393	-91.39363
127092	-78	-4	-60	8.621697	-1.927024	-7.255243	0	11.57	4002	0	0	5	5	0.3220769	0.03192227	1	10	0.03	2000	0.1250945	40.92393	-91.39363
127149	-55	0	21	8.650456	-1.87417	-7.265636	0	11.57	4004	0	0	5	5	0.3220769	0.01955876	1	10	0.03	2000	0.1250945	40.92393	-91.39363
127240	-66	6	-7	8.75841	-1.682221	-7.293514	0	11.63	4003	0	0	5	5	0.3220769	0.01407885	1	10	0.03	2000	0.1353428	40.92393	-91.39363
127351	-86	-19	46	8.815702	-1.608553	-7.307455	0	11.63	4002	0	0	5	5	0.3220769	-0.006913828	1	10	0.03	2000	-0.2330627	40.92393	-91.39363
127507	-65	-2	16	8.900203	-1.469619	-7.338147	0	11.63	4004	0	0	5	5	0.3220769	-0.02505873	1	10	0.03	2000	-0.3365173	40.92393	-91.39363
127534	-66	10	22	8.950295	-1.406088	-7.352942	0	11.63	4002	0	0	5	5	0.3220769	-0.0350275	1	10	0.03	2000	-0.4819641	40.92393	-91.39363
127688	-86	0	16	9.023896	-1.295593	-7.379294	0	11.63	4004	0	0	5	5	0.3220769	-0.05456019	1	10	0.03	2000	0.3973509	40.92393	-91.39363
127741	-68	5	8	9.05307	-1.242163	-7.392804	0	11.63	4003	0	0	5	5	0.3220769	-0.05732904	1	10	0.03	2000	-0.6443176	40.92393	-91.39363
127845	-70	0	21	9.105996	-1.160905	-7.412247	0	11.63	4003	0	0	5	5	0.3220769	-0.06900537	1	10	0.03	2000	-1.491547	40.92393	-91.39363
127934	-68	-4	17	9.128008	-1.121268	-7.430711	0	11.63	4003	0	0	5	5	0.3220769	-0.07259431	1	10	0.03	2000	-0.8956909	40.92393	-91.39363
128031	-71	4	17	9.147854	-1.092042	-7.444039	0	11.63	4004	0	0	5	5	0.3220769	-0.07920469	1	10	0.03	2000	-0.8956909	40.92393	-91.39363
128278	-74	3	14	9.218175	-0.9614305	-7.505176	0	11.68	4003	0	0	5	5	0.3220769	-0.1028745	1	10	0.03	2000	-1.399139	40.92393	-91.39363
128344	-65	2	18	9.226817	-0.9486786	-7.512084	0	11.68	4002	0	0	5	5	0.3220769	-0.1073048	1	10	0.03	2000	-1.399139	40.92393	-91.39363
128454	-78	2	9	9.248572	-0.9198167	-7.530059	0	11.68	4004	0	0	5	5	0.3220769	-0.1122981	1	10	0.03	2000	-0.9398499	40.92393	-91.39363
128597	-73	7	13	9.273554	-0.8890375	-7.559955	0	11.68	4004	0	0	5	5	0.3220769	-0.11644	1	10	0.03	2000	-1.212982	40.92393	-91.39363
128689	-73	-5	12	9.285645	-0.8742289	-7.571756	0	11.68	4004	0	0	5	5	0.3220769	-0.1166538	1	10	0.03	2000	-1.193298	40.92393	-91.39363
128780	-82	-1	12	9.302761	-0.8546795	-7.591931	0	11.68	4002	0	0	5	5	0.3220769	-0.1171951	1	10	0.03	2000	-1.181396	40.92393	-91.39363
128853	-71	0	13	9.311316	-0.8442921	-7.60367	0	11.68	4004	0	0	5	5	0.3220769	-0.1200498	1	10	0.03	2000	-1.511536	40.92393	-91.39363
129038	-71	0	4	9.333128	-0.8226296	-7.638092	0	11.74	4002	0	0	5	5	0.3220769	-0.1248945	1	10	0.03	2000	-1.276855	40.92393	-91.39363
129098	-71	8	17	9.341328	-0.8178675	-7.643349	0	11.74	4002	0	0	5	5	0.3220769	-0.1272829	1	10	0.03	2000	-1.090881	40.92393	-91.39363
129179	-78	-1	12	9.342402	-0.8113673	-7.656495	0	11.74	4004	0	0	5	5	0.3220769	-0.1278809	1	10	0.03	2000	-1.10611	40.92393	-91.39363
129296	-72	8	6	9.358365	-0.7929969	-7.686577	0	11.74	4002	0	0	5	5	0.3220769	-0.1240723	1	10	0.03	2000	-1.325684	40.92393	-91.39363
129357	-82	2	7	9.362166	-0.7939925	-7.692875	0	11.74	4003	0	0	5	5	0.3220769	-0.1223445	1	10	0.03	2000	-1.325684	40.92393	-91.39363
129464	-68	6	14	9.368048	-0.7861807	-7.711892	0	11.74	4006	0	0	5	5	0.3220769	-0.1162799	1	10	0.03	2000	-1.378601	40.92393	-91.39363
129561	-63	6	12	9.378531	-0.7816047	-7.735797	0	11.74	4004	0	0	5	5	0.3220769	-0.1155736	1	10	0.03	2000	-1.59967	40.92393	-91.39363
129668	-74	-33	12	9.383496	-0.7836287	-7.754078	0	11.74	4003	0	0	5	5	0.3220769	-0.1058255	1	10	0.03	2000	-1.358246	40.92393	-91.39363
129809	-78	16	1	9.39188	-0.7614174	-7.779943	0	11.74	4003	0	0	5	5	0.3220769	-0.09213591	1	10	0.03	2000	-1.210327	40.92393	-91.39363
129873	-70	8	6	9.396593	-0.7533373	-7.797123	0	11.74	4003	0	0	5	5	0.3220769	-0.09105726	1	10	0.03	2000	-1.22168	40.92393	-91.39363
129933	-71	-1	6	9.396826	-0.7535976	-7.802198	0	11.74	4004	0	0	5	5	0.3220769	-0.09434263	1	10	0.03	2000	-1.433746	40.92393	-91.39363
130027	-65	-4	11	9.40178	-0.7396671	-7.82751	0	11.68	4003	0	0	5	5	0.3220769	-0.1000219	1	10	0.03	2000	-1.434479	40.92393	-91.39363
130171	-65	1	10	9.415092	-0.7260983	-7.852639	0	11.68	4003	0	0	5	5	0.3220769	-0.09698229	1	10	0.03	2000	-1.258301	40.92393	-91.39363
130271	60	262	-149	9.497665	-1.015287	-7.813437	0	11.68	4004	0	0	5	5	0.3220769	-0.07702147	1	10	0.03	2000	-1.313202	40.92393	-91.39363
130313	232	535	285	9.659277	-1.09395	-7.925467	0	11.68	4004	0	0	5	5	0.3220769	-0.07392443	1	10	0.03	2000	-1.313202	40.92393	-91.39363
130471	-4623	-2939	1247	7.45858	-0.8785912	-8.000374	0	11.68	4003	0	0	5	5	0.3220769	-0.05168975	1	10	0.03	2000	-0.9228821	40.92393	-91.39363
130517	-4703	133	957	5.524039	-0.3412802	-8.551996	0	11.68	4004	0	0	5	5	0.3220769	-0.03752572	1	10	0.03	2000	0.2093919	40.92393	-91.39363
130658	376	-380	-1990	-1.915129	0.8833029	-7.292356	0	11.68	4004	0	0	5	5	0.3220769	-0.001946716	1	10	0.03	2000	-3.778595	40.92393	-91.39363
130774	2066	-6	2766	2.213163	1.946824	-7.545957	0	11.68	4004	0	0	5	5	0.3220769	0.03391026	1	10	0.03	2000	-3.462402	40.92393	-91.39363
130919	-1138	-577	1495	-2.334883	0.1923273	-12.78321	0	11.74	4004	0	0	5	5	0.3220769	0.0828527	1	10	0.03	2000	4.737563	40.92393	-91.39363
131010	-147	38	-116	-2.037331	0.3065676	-12.63916	0	11.74	4004	0	0	5	5	0.3220769	0.1214381	1	10	0.03	2000	4.329605	40.92393	-91.39363
131113	131	7	-1647	-2.173471	-0.1185098	-11.68027	0	11.74	4003	0	0	5	5	0.3220769	0.1400923	1	10	0.03	2000	4.468696	40.92393	-91.39363
131216	354	-1	-1012	-1.669007	-0.06237507	-9.144079	0	11.74	4002	0	0	5	5	0.3220769	0.1628334	1	10	0.03	2000	2.902062	40.92393	-91.39363
131384	224	-15	-207	-1.475002	0.1821579	-9.081831	0	11.74	4004	0	0	5	5	0.3220769	0.1868499	1	10	0.03	2000	1.645387	40.92393	-91.39363
131422	-15	81	50	-1.427506	0.1914462	-9.082314	0	11.74	4004	0	0	5	5	0.3220769	0.1894764	1	10	0.03	2000	1.384921	40.92393	-91.39363
131581	-71	8	3	-1.314582	0.1685218	-9.082008	0	11.74	4003	0	0	5	5	0.3220769	0.2123629	1	10	0.03	2000	1.01761	40.92392	-91.39363
131741	-68	0	9	-1.290054	0.1759953	-9.109518	0	11.74	4003	0	0	5	5	0.3220769	0.2169005	1	10	0.03	2000	0.9892803	40.92392	-91.39363
131934	-61	-1	6	-1.25317	0.1844517	-9.143932	0	11.68	4002	0	0	5	5	0.3220769	0.1944971	1	10	0.03	2000	0.9264847	40.92392	-91.39363
132048	-67	-3	7	-1.237934	0.189874	-9.160805	0	11.68	4004	0	0	5	5	0.3220769	0.169354	1	10	0.03	2000	0.8838993	40.92393	-91.39363
132150	-64	9	12	-1.235977	0.1981869	-9.177431	0	11.68	4003	0	0	5	5	0.3220769	0.1518934	1	10	0.03	2000	0.8787496	40.92393	-91.39363
132224	-69	6	8	-1.230073	0.2012439	-9.193326	0	11.68	4004	0	0	5	5	0.3220769	0.1284205	1	10	0.03	2000	0.6326544	40.92392	-91.39363
132304	-64	4	11	-1.228487	0.2050563	-9.203169	0	11.68	4004	0	0	5	5	0.3220769	0.113164	1	10	0.03	2000	0.8716069	40.92392	-91.39363
132415	-70	8	6	-1.221797	0.2009684	-9.217231	0	11.68	4002	0	0	5	5	0.3220769	0.0991445	1	10	0.03	2000	0.8662462	40.92392	-91.39362
132509	-65	3	14	-1.211706	0.2013609	-9.240768	0	11.68	4004	0	0	5	5	0.3220769	0.07877869	1	10	0.03	2000	0.5959408	40.92392	-91.39362
132683	-69	4	6	-1.211407	0.196858	-9.26871	0	11.74	4003	0	0	5	5	0.3220769	0.04800973	1	10	0.03	2000	0.8381079	40.92393	-91.39362
132800	-71	5	17	-1.202539	0.2023998	-9.287049	0	11.74	4004	0	0	5	5	0.3220769	0.02910936	1	10	0.03	2000	0.8233731	40.92393	-91.39362
132851	-71	4	13	-1.200376	0.2009162	-9.297502	0	11.74	4003	0	0	5	5	0.3220769	0.01827139	1	10	0.03	2000	0.8271116	40.92393	-91.39362
132950	-68	3	14	-1.200685	0.207505	-9.311868	0	11.74	4002	0	0	5	5	0.3220769	0.01270116	1	10	0.03	2000	0.5774244	40.92393	-91.39362
133091	-63	0	10	-1.191553	0.2156112	-9.335528	0	11.74	4002	0	0	5	5	0.3220769	0.007974165	1	10	0.03	2000	0.8027112	40.92393	-91.39362
133135	-71	2	13	-1.188928	0.2158191	-9.346472	0	11.74	4004	0	0	5	5	0.3220769	0.007847372	1	10	0.03	2000	0.7971382	40.92393	-91.39362
133212	-66	3	14	-1.188202	0.2167994	-9.359066	0	11.74	4003	0	0	5	5	0.3220769	0.004371205	1	10	0.03	2000	0.7949939	40.92393	-91.39362
133318	-71	3	7	-1.187717	0.2165168	-9.379302	0	11.74	4004	0	0	5	5	0.3220769	-0.001405994	1	10	0.03	2000	0.7969036	40.92393	-91.39362
133410	-63	-2	10	-1.185911	0.2123161	-9.389756	0	11.74	4004	0	0	5	5	0.3220769	-0.006936158	1	10	0.03	2000	0.7922321	40.92393	-91.39362
133535	-63	6	10	-1.179166	0.2090145	-9.412867	0	11.74	4003	0	0	5	5	0.3220769	-0.006445051	1	10	0.03	2000	0.541109	40.92393	-91.39362
133613	-67	6	8	-1.176839	0.2097861	-9.423626	0	11.74	4003	0	0	5	5	0.3220769	-0.01082132	1	10	0.03	2000	0.541109	40.92393	-91.39362
133741	-67	1	9	-1.167831	0.2037899	-9.440866	0	11.74	4003	0	0	5	5	0.3220769	-0.007546817	1	10	0.03	2000	0.7697831	40.92393	-91.39362
133879	-63	-7	5	-1.161044	0.2087658	-9.465806	0	11.74	4004	0	0	5	5	0.3220769	-0.001002099	1	10	0.03	2000	0.751767	40.92393	-91.39362
133944	-69	13	6	-1.157146	0.2114732	-9.475651	0	11.74	4003	0	0	5	5	0.0322077	0.00649358	6	10	0.03	2000	0.5080811	40.92393	-91.39362
134006	-63	2	3	-1.157162	0.2096625	-9.481151	0	11.74	4004	0	0	5	5	0.03553789	0.01239965	6	10	0.03	2000	0.2810254	40.92393	-91.39362
134147	-66	1	9	-1.156258	0.2102187	-9.505788	0	11.74	4003	0	0	5	5	0.04030231	0.01646075	6	10	0.03	2000	0.750371	40.92393	-91.39362
134212	-66	1	5	-1.153887	0.2099885	-9.516424	0	11.74	4003	0	0	5	5	0.04255982	0.01309885	6	10	0.03	2000	0.5007156	40.92393	-91.39362
134305	-65	1	5	-1.150633	0.2036686	-9.531221	0	11.74	4004	0	0	5	5	0.04405942	0.0095881	6	10	0.03	2000	0.5071797	40.92393	-91.39362
134377	-60	4	4	-1.142041	0.2064365	-9.544553	0	11.74	4003	0	0	5	5	0.04507261	0.003066519	5	10	0.03	2000	0.9604087	40.92393	-91.39362
134602	-61	6	9	-1.133202	0.2030797	-9.574388	0	11.74	4004	0	0	5	5	0.05060625	-0.009791633	5	10	0.03	2000	0.706876	40.92393	-91.39362
134680	-68	4	8	-1.129837	0.2039571	-9.589552	0	11.74	4003	0	0	5	5	0.05278692	-0.01303367	5	10	0.03	2000	0.6973612	40.92393	-91.39362
134782	-62	0	12	-1.132158	0.2060113	-9.606121	0	11.74	4003	0	0	5	5	0.05166658	-0.02254883	5	10	0.03	2000	0.4643527	40.92393	-91.39362
134879	-58	4	4	-1.130385	0.2073434	-9.62703	0	11.74	4002	0	0	5	5	0.05129958	-0.02359453	5	10	0.03	2000	0.4777911	40.92393	-91.39362
134985	-57	3	11	-1.132495	0.2069358	-9.636507	0	11.74	4003	0	0	5	5	0.05037962	-0.02391179	5	10	0.03	2000	0.468186	40.92393	-91.39362
135092	-65	3	12	-1.126098	0.2057501	-9.652953	0	11.74	4002	0	0	5	5	0.04770069	-0.02701608	5	10	0.03	2000	0.7012037	40.92393	-91.39362
135184	-63	7	6	-1.121902	0.2065723	-9.673374	0	11.74	4003	0	0	5	5	0.04713106	-0.02656921	5	10	0.03	2000	0.4535324	40.92393	-91.39362
135282	-65	4	5	-1.115244	0.2059904	-9.686887	0	11.74	4003	0	0	5	5	0.04932023	-0.02810471	5	10	0.03	2000	0.6762635	40.92393	-91.39362
135383	-58	-2	10	-1.108041	0.2056898	-9.696608	0	11.74	4004	0	0	5	5	0.05002004	-0.02759579	5	10	0.03	2000	0.6744971	40.92393	-91.39362
135490	-62	8	9	-1.105374	0.2064858	-9.711464	0	11.8	4004	0	0	5	5	0.04994126	-0.02422141	5	10	0.03	2000	0.6661228	40.92393	-91.39362
135592	-70	2	7	-1.102335	0.2068537	-9.729625	0	11.8	4002	0	0	5	5	0.05088647	-0.01976614	5	10	0.03	2000	0.6521715	40.92393	-91.39362
135686	-62	1	12	-1.105823	0.2088862	-9.739835	0	11.8	4004	0	0	5	5	0.0529912	-0.01031572	5	10	0.03	2000	0.6584775	40.92393	-91.39362
135809	-62	-2	12	-1.095394	0.2098673	-9.756834	0	11.8	4003	0	0	5	5	0.05487313	0.008028546	5	10	0.03	2000	0.6521709	40.92393	-91.39362
135910	-66	5	13	-1.092319	0.2114201	-9.770651	0	11.8	4003	0	0	5	5	0.05432501	0.01168278	5	10	0.03	2000	0.6378818	40.92393	-91.39362
136012	-65	5	5	-1.093604	0.2153273	-9.782818	0	11.8	4003	0	0	5	5	0.05240779	0.02419969	5	10	0.03	2000	0.4003397	40.92393	-91.39362
136111	-67	6	12	-1.096343	0.2153923	-9.797244	0	11.8	4003	0	0	5	5	0.0520303	0.02644364	5	10	0.03	2000	0.6383828	40.92393	-91.39362
136225	-64	3	4	-1.099418	0.2124048	-9.815156	0	11.8	4002	0	0	5	5	0.05130536	0.03009084	5	10	0.03	2000	0.4130586	40.92393	-91.39362
136328	-58	-1	6	-1.096629	0.2130518	-9.824142	0	11.74	4004	0	0	5	5	0.042513	0.03089109	5	10	0.03	2000	0.4193156	40.92393	-91.39362
136421	-67	1	8	-1.094888	0.2082815	-9.843095	0	11.74	4003	0	0	5	5	0.04119074	0.02509922	5	10	0.03	2000	0.6360217	40.92393	-91.39362
136531	-61	6	9	-1.089238	0.2121596	-9.857769	0	11.74	4004	0	0	5	5	0.04355322	0.02134175	5	10	0.03	2000	0.3979144	40.92393	-91.39362
136648	-62	2	11	-1.088123	0.2166798	-9.874825	0	11.74	4003	0	0	5	5	0.04522848	0.01699135	5	10	0.03	2000	0.6236928	40.92393	-91.39362
136759	-58	3	8	-1.085601	0.2231951	-9.889745	0	11.74	4003	0	0	5	5	0.04668834	0.0215934	5	10	0.03	2000	0.6314732	40.92393	-91.39362
136853	-63	3	10	-1.087883	0.219633	-9.900503	0	11.74	4004	0	0	5	5	0.0472432	0.0258863	5	10	0.03	2000	0.3883854	40.92393	-91.39362
136973	-57	1	14	-1.088397	0.219954	-9.92025	0	11.74	4003	0	0	5	5	0.04966846	0.02628324	5	10	0.03	2000	0.3904477	40.92393	-91.39362
137084	-62	-2	3	-1.085031	0.226263	-9.930275	0	11.74	4004	0	0	5	5	0.05052737	0.01888904	5	10	0.03	2000	0.3893486	40.92393	-91.39362
137164	-58	7	5	-1.08848	0.2237278	-9.94825	0	11.74	4003	0	0	5	5	0.05049854	0.01078783	3	10	0.03	2000	0.3983546	40.92393	-91.39362
137272	-58	-1	4	-1.08483	0.2231996	-9.958458	0	11.8	4004	0	0	5	5	0.05047753	0.002341392	1	10	0.03	2000	0.6154235	40.92393	-91.39362
137365	-57	4	7	-1.071439	0.220848	-9.973557	0	11.8	4003	0	0	5	5	0.05046679	0.001111271	1	10	0.03	2000	0.6088521	40.92393	-91.39362
137482	-58	4	5	-1.071936	0.22049	-9.987497	0	11.8	4004	0	0	5	5	0.05045104	0.00199288	1	10	0.03	2000	0.3606635	40.92393	-91.39362
137577	-61	5	12	-1.067062	0.2200096	-9.995751	0	11.8	4003	0	0	5	5	0.0504429	0.007215765	1	10	0.03	2000	0.6041638	40.92393	-91.39362
137687	-59	0	5	-1.06102	0.2126426	-10.01287	0	11.8	4004	0	0	5	5	0.05043874	0.01268163	1	10	0.03	2000	0.5825578	40.92393	-91.39362
137782	-57	6	10	-1.059455	0.2143372	-10.02265	0	11.8	4002	0	0	5	5	0.05043264	0.02400308	1	10	0.03	2000	0.5863326	40.92393	-91.39362
137898	-56	4	10	-1.051599	0.2136612	-10.03568	0	11.8	4002	0	0	5	5	0.05042949	0.0353903	1	10	0.03	2000	0.5770671	40.92393	-91.39362
138003	-58	7	10	-1.048209	0.2031794	-10.04992	0	11.8	4003	0	0	5	5	0.05042657	0.0463389	1	10	0.03	2000	0.7942531	40.92393	-91.39362
138092	-57	2	4	-1.050005	0.2029816	-10.06759	0	11.8	4003	0	0	5	5	0.05042551	0.05219477	1	10	0.03	2000	0.3291626	40.92393	-91.39362
138201	-56	4	7	-1.045926	0.2027868	-10.07749	0	11.8	4003	0	0	5	5	0.05042429	0.0668754	1	10	0.03	2000	0.5641571	40.92393	-91.39362
138296	-56	6	9	-1.041082	0.2011267	-10.09663	0	11.8	4002	0	0	5	5	0.0504234	0.08492991	1	10	0.03	2000	0.3115076	40.92393	-91.39362
138406	-57	5	5	-1.046887	0.2011631	-10.11015	0	11.8	4003	0	0	5	5	0.05042258	0.0945783	1	10	0.03	2000	0.5611354	40.92393	-91.39362
138518	-55	1	6	-1.03863	0.1988022	-10.12317	0	11.8	4003	0	0	5	5	0.05042215	0.09927965	1	10	0.03	2000	0.5540964	40.92393	-91.39362
138628	-57	5	10	-1.03828	0.1981698	-10.1354	0	11.8	4004	0	0	5	5	0.05042204	0.09995769	1	10	0.03	2000	0.3091944	40.92393	-91.39362
138742	-58	6	9	-1.034636	0.1986647	-10.15209	0	11.8	4003	0	0	5	5	0.05042161	0.1009767	1	10	0.03	2000	0.305342	40.92393	-91.39362
138831	-56	-1	8	-1.026677	0.1928575	-10.16046	0	11.8	4002	0	0	5	5	0.05042145	0.1019722	1	10	0.03	2000	0.5402324	40.92393	-91.39362
138931	-57	0	6	-1.03157	0.1924867	-10.17453	0	11.8	4003	0	0	5	5	0.05042132	0.100259	1	10	0.03	2000	0.5340506	40.92393	-91.39362
139019	-55	5	5	-1.032152	0.1986955	-10.18529	0	11.8	4003	0	0	5	5	0.05042123	0.09676296	1	10	0.03	2000	0.3044384	40.92393	-91.39362
139129	-59	4	8	-1.023728	0.2022033	-10.19916	0	11.8	4004	0	0	5	5	0.05042117	0.09010169	1	10	0.03	2000	0.5174218	40.92393	-91.39362
139255	-62	-1	8	-1.023762	0.2037654	-10.21592	0	11.8	4003	0	0	5	5	0.05042111	0.08010726	1	10	0.03	2000	0.7567818	40.92392	-91.39362
139360	-55	4	11	-1.024664	0.2050868	-10.2309	0	11.8	4004	0	0	5	5	0.05042109	0.07926576	1	10	0.03	2000	0.5250122	40.92392	-91.39362
139434	-56	3	9	-1.024727	0.204558	-10.24594	0	11.8	4003	0	0	5	5	0.05042107	0.07891299	1	10	0.03	2000	0.2886118	40.92392	-91.39362
139529	-52	6	4	-1.021785	0.2077341	-10.25382	0	11.8	4003	0	0	5	5	0.05042105	0.07528953	1	10	0.03	2000	0.5297569	40.92392	-91.39362
139640	-53	0	8	-1.023567	0.2010466	-10.26917	0	11.8	4004	0	0	5	5	0.05042103	0.08097272	1	10	0.03	2000	0.5209695	40.92392	-91.39362
139738	-53	0	5	-1.019686	0.1953312	-10.28073	0	11.8	4004	0	0	5	5	0.05042103	0.08112579	1	10	0.03	2000	0.5188302	40.92392	-91.39362
139833	-55	3	6	-1.015152	0.1961077	-10.29076	0	11.8	4004	0	0	5	5	0.05042101	0.08580916	1	10	0.03	2000	0.2748239	40.92392	-91.39362
139939	-53	4	9	-1.008672	0.1978449	-10.30696	0	11.8	4004	0	0	5	5	0.05042101	0.09055386	1	10	0.03	2000	0.5038928	40.92392	-91.39362
140057	-48	3	8	-1.004625	0.2043569	-10.31564	0	11.8	4003	0	0	5	5	0.05042101	0.09487905	1	10	0.03	2000	0.2630466	40.92392	-91.39362
140144	-55	-2	7	-0.998453	0.2020013	-10.32878	0	11.85	4002	0	0	5	5	0.05042101	0.1062331	1	10	0.03	2000	0.4852363	40.92392	-91.39362
140254	-54	8	6	-0.9921643	0.2028345	-10.3437	0	11.85	4004	0	0	5	5	0.05042101	0.1150445	1	10	0.03	2000	0.23531	40.92392	-91.39362
140348	-53	3	8	-0.9917001	0.2008707	-10.3519	0	11.85	4004	0	0	5	5	0.05042101	0.1181266	1	10	0.03	2000	0.475995	40.92392	-91.39362
140459	-56	4	8	-0.9934184	0.2055678	-10.36816	0	11.85	4005	0	0	5	5	0.05042101	0.1190891	1	10	0.03	2000	0.4716832	40.92392	-91.39362
140567	-58	0	8	-0.9905095	0.2064039	-10.378	0	11.85	4004	0	0	5	5	0.05042101	0.1134653	1	10	0.03	2000	0.4654936	40.92392	-91.39362
140658	-50	3	3	-0.9942263	0.2087855	-10.38338	0	11.85	4002	0	0	5	5	0.05042101	0.1115299	1	10	0.03	2000	0.4714913	40.92392	-91.39362
140772	-51	1	3	-0.98759	0.2041631	-10.39665	0	11.85	4004	0	0	5	5	0.05042101	0.1053972	1	10	0.03	2000	0.4652063	40.92392	-91.39362
140867	-52	3	7	-0.9834903	0.2041388	-10.4071	0	11.85	4004	0	0	5	5	0.05042101	0.101679	1	10	0.03	2000	0.2169981	40.92392	-91.39362
140982	-57	-2	6	-0.9809059	0.2098019	-10.41951	0	11.85	4003	0	0	5	5	0.05042101	0.09783916	1	10	0.03	2000	0.4507793	40.92392	-91.39362
141094	-53	4	6	-0.983233	0.2081202	-10.42954	0	11.8	4002	0	0	5	5	0.05042101	0.08833878	1	10	0.03	2000	0.4488684	40.92392	-91.39362
141188	-55	2	10	-0.9843442	0.2079418	-10.44397	0	11.8	4003	0	0	5	5	0.05042101	0.08032826	1	10	0.03	2000	0.4611614	40.92392	-91.39362
141298	-56	1	11	-0.9806197	0.208907	-10.4518	0	11.8	4004	0	0	5	5	0.05042101	0.06470507	1	10	0.03	2000	-0.02706909	40.92392	-91.39362
141414	-58	4	4	-0.9676387	0.2091887	-10.46568	0	11.8	4002	0	0	5	5	0.05042101	0.05177172	1	10	0.03	2000	0.1975539	40.92392	-91.39362
141522	-52	0	13	-0.9613959	0.2066321	-10.47796	0	11.8	4004	0	0	5	5	0.05042101	0.04769854	1	10	0.03	2000	0.1944726	40.92392	-91.39362
141616	-48	4	11	-0.9571203	0.2024699	-10.4886	0	11.8	4002	0	0	5	5	0.05042101	0.04763999	1	10	0.03	2000	0.4179536	40.92392	-91.39362
141728	-48	1	5	-0.955313	0.2030993	-10.5034	0	11.8	4004	0	0	5	5	0.05042101	0.05182334	1	10	0.03	2000	0.1744387	40.92392	-91.39362
141822	-55	7	7	-0.9592144	0.200922	-10.51489	0	11.8	4003	0	0	5	5	0.05042101	0.0674985	1	10	0.03	2000	0.4111917	40.92392	-91.39362
141937	-49	3	3	-0.9659516	0.2020427	-10.52596	0	11.8	4002	0	0	5	5	0.05042101	0.07869166	1	10	0.03	2000	0.4217599	40.92392	-91.39362
142035	-44	-1	10	-0.9584538	0.2019425	-10.53617	0	11.8	4002	0	0	5	5	0.05042101	0.09257603	1	10	0.03	2000	0.1880058	40.92392	-91.39362
142155	-56	3	11	-0.9526327	0.2058914	-10.55152	0	11.8	4004	0	0	5	5	0.05042101	0.09861162	1	10	0.03	2000	0.1664	40.92392	-91.39362
142239	-50	5	4	-0.9517539	0.1965216	-10.5621	0	11.8	4004	0	0	5	5	0.05042101	0.1033257	1	10	0.03	2000	0.4036618	40.92392	-91.39362
142330	-53	4	6	-0.9444127	0.1964925	-10.56992	0	11.8	4003	0	0	5	5	0.05042101	0.1056205	1	10	0.03	2000	0.6309537	40.92392	-91.39362
142513	-43	7	7	-0.9385912	0.1925282	-10.59248	0	11.8	4002	0	0	5	5	0.05042101	0.1018622	1	10	0.03	2000	0.6178168	40.92392	-91.39362
142568	-45	6	10	-0.9385819	0.1887597	-10.59615	0	11.8	4002	0	0	5	5	0.05042101	0.1007279	1	10	0.03	2000	0.1423827	40.92392	-91.39362
142640	-47	6	8	-0.9352849	0.1922308	-10.60471	0	11.8	4003	0	0	5	5	0.05042101	0.0998197	1	10	0.03	2000	0.1383617	40.92392	-91.39362
142809	-50	5	5	-0.9322336	0.1925055	-10.62165	0	11.8	4007	0	0	5	5	0.05042101	0.09989458	1	10	0.03	2000	0.1365905	40.92392	-91.39362
142909	-48	1	7	-0.9294418	0.1915461	-10.63101	0	11.8	4004	0	0	5	5	0.05042101	0.09794556	1	10	0.03	2000	0.3674242	40.92392	-91.39362
143074	-52	8	10	-0.9243149	0.1927503	-10.65393	0	11.8	4004	0	0	5	5	0.05042101	0.0945277	1	10	0.03	2000	0.1193616	40.92392	-91.39362
143196	-43	-1	7	-0.9275491	0.1848541	-10.66775	0	11.8	4004	0	0	5	5	0.05042101	0.09632497	1	10	0.03	2000	0.113659	40.92392	-91.39362
143307	-49	1	4	-0.9290351	0.182833	-10.68322	0	11.8	4002	0	0	5	5	0.05042101	0.09625885	1	10	0.03	2000	0.3680635	40.92392	-91.39362
143432	-47	0	10	-0.9263083	0.1902339	-10.69746	0	11.8	4003	0	0	5	5	0.05042101	0.1004304	1	10	0.03	2000	0.1299934	40.92392	-91.39362
143543	-51	2	8	-0.9275288	0.1877134	-10.71544	0	11.8	4002	0	0	5	5	0.05042101	0.1077395	1	10	0.03	2000	0.1212397	40.92392	-91.39362
143697	-52	4	6	-0.9247729	0.1921763	-10.73366	0	11.8	4004	0	0	5	5	0.05042101	0.1244145	1	10	0.03	2000	0.1140169	40.92392	-91.39362
143769	-52	4	7	-0.9257586	0.1912996	-10.73984	0	11.8	4002	0	0	5	5	0.05042101	0.127481	1	10	0.03	2000	0.3575867	40.92392	-91.39362
143878	-47	-1	10	-0.9190052	0.1932629	-10.74785	0	11.8	4004	0	0	5	5	0.05042101	0.129618	1	10	0.03	2000	0.3534926	40.92392	-91.39362
143923	-46	-7	8	-0.9242053	0.198422	-10.75904	0	11.8	4002	0	0	5	5	0.05042101	0.129662	1	10	0.03	2000	0.3438535	40.92392	-91.39362
144095	-50	2	4	-0.9216446	0.1969138	-10.77126	0	11.8	4003	0	0	5	5	0.05042101	0.1280751	1	10	0.03	2000	0.3530995	40.92392	-91.39362
144160	-47	5	3	-0.9229949	0.1898956	-10.7827	0	11.8	4004	0	0	5	5	0.05042101	0.1249426	1	10	0.03	2000	0.3574691	40.92392	-91.39362
144247	-48	6	2	-0.9193143	0.1955207	-10.78893	0	11.8	4003	0	0	5	5	0.05042101	0.1208758	1	10	0.03	2000	0.1120179	40.92392	-91.39362
144384	-47	-1	8	-0.9233719	0.2002168	-10.80624	0	11.8	4002	0	0	5	5	0.05042101	0.1241202	1	10	0.03	2000	0.1148436	40.92392	-91.39362
144438	-57	0	7	-0.9260489	0.2017578	-10.811	0	11.8	4004	0	0	5	5	0.05042101	0.1262078	1	10	0.03	2000	0.1148436	40.92392	-91.39362
144522	-52	-4	2	-0.9231289	0.2051927	-10.81968	0	11.8	4002	0	0	5	5	0.05042101	0.1281228	1	10	0.03	2000	0.1214423	40.92392	-91.39362
144594	-46	2	8	-0.9269831	0.2102121	-10.82666	0	11.8	4004	0	0	5	5	0.05042101	0.1320281	1	10	0.03	2000	0.3591256	40.92392	-91.39362
144740	-54	0	7	-0.9322273	0.209866	-10.84042	0	11.8	4003	0	0	5	5	0.05042101	0.1289677	1	10	0.03	2000	0.1299572	40.92392	-91.39362
144865	-49	0	9	-0.9325972	0.2119687	-10.85863	0	11.8	4003	0	0	5	5	0.05042101	0.1256289	1	10	0.03	2000	0.1265775	40.92392	-91.39362
144920	-50	0	9	-0.9311659	0.2102236	-10.86255	0	11.8	4003	0	0	5	5	0.05042101	0.1246369	1	10	0.03	2000	0.1327835	40.92392	-91.39362
145028	-49	1	13	-0.9217298	0.2068975	-10.87814	0	11.8	4003	0	0	5	5	0.05042101	0.1171624	1	10	0.03	2000	0.1248391	40.92392	-91.39362
145121	-47	2	7	-0.9226757	0.2090814	-10.88951	0	11.8	4003	0	0	5	5	0.05042101	0.1151246	1	10	0.03	2000	0.3455161	40.92392	-91.39362
145217	-55	1	5	-0.9245893	0.2096678	-10.89618	0	11.8	4004	0	0	5	5	0.05042101	0.1141533	1	10	0.03	2000	0.3524996	40.92392	-91.39362
145327	-44	0	8	-0.9293941	0.204916	-10.91336	0	11.8	4002	0	0	5	5	0.05042101	0.1163687	1	10	0.03	2000	0.121615	40.92392	-91.39362
145437	-49	3	8	-0.9229661	0.1962935	-10.9287	0	11.8	4003	0	0	5	5	0.05042101	0.1237881	1	10	0.03	2000	0.1168415	40.92392	-91.39362
145465	-47	0	6	-0.9203501	0.1965555	-10.93096	0	11.8	4003	0	0	5	5	0.05042101	0.1237881	1	10	0.03	2000	0.1168415	40.92392	-91.39362
145581	-47	3	7	-0.9166687	0.1988571	-10.94056	0	11.74	4003	0	0	5	5	0.05042101	0.1331659	1	10	0.03	2000	0.1153014	40.92392	-91.39362
145662	-45	2	5	-0.9122786	0.1989268	-10.94563	0	11.74	4002	0	0	5	5	0.05042101	0.1434676	1	10	0.03	2000	0.1054701	40.92392	-91.39362
145771	-42	4	4	-0.9187821	0.1915352	-10.95823	0	11.74	4002	0	0	5	5	0.05042101	0.1449066	1	10	0.03	2000	0.1069371	40.92392	-91.39362
145857	-50	2	3	-0.9131939	0.188907	-10.96691	0	11.74	4003	0	0	5	5	0.05042101	0.1538747	1	10	0.03	2000	0.1119197	40.92392	-91.39362
145955	-53	5	8	-0.9062626	0.1802748	-10.98146	0	11.74	4004	0	0	5	5	0.05042101	0.1573013	1	10	0.03	2000	0.3364106	40.92392	-91.39362
146163	-39	1	6	-0.8957227	0.1758067	-11.00079	0	11.74	4003	0	0	5	5	0.05042101	0.1628678	1	10	0.03	2000	0.07276572	40.92392	-91.39362
146207	-47	12	10	-0.8942543	0.167606	-11.00684	0	11.74	4003	0	0	5	5	0.05042101	0.1632747	1	10	0.03	2000	0.07276572	40.92392	-91.39362
146295	-45	7	12	-0.8937299	0.1706057	-11.02035	0	11.74	4003	0	0	5	5	0.05042101	0.1644315	1	10	0.03	2000	0.54711	40.92392	-91.39362
146368	-40	0	4	-0.8935487	0.1706231	-11.02426	0	11.74	4003	0	0	5	5	0.05042101	0.1692799	1	10	0.03	2000	0.54711	40.92392	-91.39362
146484	-48	1	10	-0.8930129	0.1691867	-11.04126	0	11.85	4002	0	0	5	5	0.05042101	0.1739831	1	10	0.03	2000	0.06421863	40.92392	-91.39362
146613	-41	0	4	-0.8893678	0.1786882	-11.05355	0	11.85	4002	0	0	5	5	0.05042101	0.1775737	1	10	0.03	2000	0.2952113	40.92392	-91.39362
146714	-44	3	6	-0.8889403	0.1794868	-11.06773	0	11.85	4004	0	0	5	5	0.05042101	0.1829606	1	10	0.03	2000	0.06268474	40.92392	-91.39362
146759	-49	3	4	-0.8907591	0.1807095	-11.07207	0	11.85	4003	0	0	5	5	0.05042101	0.1894481	1	10	0.03	2000	0.297464	40.92392	-91.39362
146854	-49	2	7	-0.888607	0.182708	-11.08033	0	11.85	4003	0	0	5	5	0.05042101	0.1952226	1	10	0.03	2000	0.297464	40.92392	-91.39362
147056	-45	0	4	-0.8699339	0.1830733	-11.10056	0	11.85	4004	0	0	5	5	0.05042101	0.2014513	1	10	0.03	2000	0.0308132	40.92392	-91.39362
147129	-46	-1	8	-0.8705856	0.1872777	-11.10637	0	11.85	4003	0	0	5	5	0.05042101	0.1992207	1	10	0.03	2000	0.0404257	40.92392	-91.39362
147218	-44	2	5	-0.8722039	0.1860968	-11.11322	0	11.85	4004	0	0	5	5	0.05042101	0.1943071	1	10	0.03	2000	0.03276805	40.92392	-91.39362
147258	-41	-1	3	-0.8591961	0.1845932	-11.12154	0	11.85	4003	0	0	5	5	0.05042101	0.1935639	1	10	0.03	2000	0.2544019	40.92392	-91.39362
147417	-47	9	0	-0.8572482	0.1863528	-11.13218	0	11.8	4002	0	0	5	5	0.05042101	0.1946581	1	10	0.03	2000	-0.2359619	40.92392	-91.39362
147541	-44	-4	2	-0.8530366	0.183813	-11.14428	0	11.8	4003	0	0	5	5	0.05042101	0.1916582	1	10	0.03	2000	0.005535056	40.92392	-91.39362
147654	-37	0	4	-0.8509753	0.1813068	-11.15339	0	11.8	4002	0	0	5	5	0.05042101	0.1941763	1	10	0.03	2000	0.2341547	40.92392	-91.39362
147752	-41	0	10	-0.8469031	0.1799598	-11.16011	0	11.8	4004	0	0	5	5	0.05042101	0.2016722	1	10	0.03	2000	-0.009033203	40.92392	-91.39362
147846	-44	4	1	-0.8492488	0.1849695	-11.16788	0	11.8	4003	0	0	5	5	0.05042101	0.2045053	1	10	0.03	2000	-0.006500244	40.92392	-91.39362
147992	-41	2	3	-0.8498735	0.1850254	-11.18114	0	11.8	4004	0	0	5	5	0.05042101	0.2089584	1	10	0.03	2000	-0.002990723	40.92392	-91.39362
148091	-42	3	5	-0.8453351	0.1777147	-11.18982	0	11.8	4003	0	0	5	5	0.05042101	0.2073884	1	10	0.03	2000	0.2366785	40.92392	-91.39362
148154	-36	0	7	-0.8417845	0.1792278	-11.19374	0	11.8	4004	0	0	5	5	0.05042101	0.2076018	1	10	0.03	2000	0.2247049	40.92392	-91.39362
148297	-40	5	6	-0.8302999	0.1716003	-11.21049	0	11.8	4002	0	0	5	5	0.05042101	0.2002968	1	10	0.03	2000	0.1943584	40.92392	-91.39362
148369	-37	0	8	-0.8238168	0.1731053	-11.21874	0	11.85	4002	0	0	5	5	0.05042101	0.1952284	1	10	0.03	2000	0.1934989	40.92392	-91.39362
148482	-40	1	8	-0.815365	0.1707991	-11.22956	0	11.85	4003	0	0	5	5	0.05042101	0.1810422	1	10	0.03	2000	0.1800963	40.92392	-91.39362
148630	-32	5	2	-0.7995608	0.167345	-11.24399	0	11.85	4003	0	0	5	5	0.05042101	0.1649724	1	10	0.03	2000	0.1453212	40.92392	-91.39362
148683	-34	1	9	-0.7941985	0.1696671	-11.24802	0	11.85	4003	0	0	5	5	0.05042101	0.1451493	1	10	0.03	2000	0.1453212	40.92392	-91.39362
148785	-36	0	5	-0.7912602	0.1658693	-11.25915	0	11.85	4004	0	0	5	5	0.05042101	0.1407408	1	10	0.03	2000	-0.3426514	40.92392	-91.39362
148936	-32	3	7	-0.7868116	0.1581891	-11.27077	0	11.85	4004	0	0	5	5	0.05042101	0.1551886	1	10	0.03	2000	0.3753615	40.92392	-91.39362
149046	-38	3	2	-0.7818187	0.1567619	-11.28	0	11.85	4004	0	0	5	5	0.05042101	0.1637488	1	10	0.03	2000	-0.118042	40.92392	-91.39362
149173	-33	2	5	-0.7676755	0.1541338	-11.29614	0	11.85	4003	0	0	5	5	0.05042101	0.1733083	1	10	0.03	2000	-0.1331482	40.92392	-91.39362
149202	-31	6	0	-0.7687138	0.1546697	-11.29895	0	11.85	4003	0	0	5	5	0.05042101	0.1758404	1	10	0.03	2000	0.0966799	40.92392	-91.39362
149275	-36	4	7	-0.7680779	0.1533316	-11.30299	0	11.8	4003	0	0	5	5	0.05042101	0.1769195	1	10	0.03	2000	0.0966799	40.92392	-91.39362
149440	-32	0	3	-0.757687	0.1578401	-11.32139	0	11.8	4003	0	0	5	5	0.05042101	0.1764859	1	10	0.03	2000	-0.1565857	40.92392	-91.39362
149534	-36	2	3	-0.7533325	0.1527702	-11.32867	0	11.8	4004	0	0	5	5	0.05042101	0.1761678	1	10	0.03	2000	-0.1702271	40.92392	-91.39362
149570	-29	1	7	-0.7496434	0.1544215	-11.33117	0	11.8	4003	0	0	5	5	0.05042101	0.1709794	1	10	0.03	2000	-0.4047241	40.92392	-91.39362
149736	-32	5	5	-0.7481773	0.149597	-11.34328	0	11.8	4002	0	0	5	5	0.05042101	0.1521395	1	10	0.03	2000	0.05841504	40.92392	-91.39362
149801	-32	2	9	-0.7428822	0.1415273	-11.34762	0	11.8	4003	0	0	5	5	0.05042101	0.1509205	1	10	0.03	2000	-0.1782532	40.92392	-91.39362
149928	-38	0	1	-0.7449726	0.1479632	-11.35501	0	11.8	4003	0	0	5	5	0.05042101	0.1354438	1	10	0.03	2000	-0.1802673	40.92392	-91.39362
150050	-30	6	2	-0.7390478	0.1506663	-11.36608	0	11.8	4003	0	0	5	5	0.05042101	0.1226934	1	10	0.03	2000	0.04649816	40.92392	-91.39362
150240	-39	7	8	-0.7318375	0.1513246	-11.37769	0	11.8	4002	0	0	5	5	0.05042101	0.1040252	1	10	0.03	2000	0.03822716	40.92392	-91.39362
150392	-36	7	9	-0.7289795	0.146543	-11.39609	0	11.8	4003	0	0	5	5	0.05042101	0.1006384	1	10	0.03	2000	0.02888969	40.92392	-91.39362
150485	-29	-3	2	-0.7279526	0.1532095	-11.40025	0	11.8	4003	0	0	5	5	0.05042101	0.09409073	1	10	0.03	2000	-0.2122803	40.92392	-91.39362
150600	-34	4	3	-0.7382809	0.1556858	-11.40746	0	11.8	4003	0	0	5	5	0.05042101	0.09280363	1	10	0.03	2000	0.03537242	40.92392	-91.39362
150732	-33	0	2	-0.7336243	0.1632457	-11.41884	0	11.8	4004	0	0	5	5	0.05042101	0.08872418	1	10	0.03	2000	0.04038754	40.92392	-91.39362
150811	-27	7	5	-0.7334424	0.1591085	-11.42501	0	11.8	4004	0	0	5	5	0.05042101	0.08635295	1	10	0.03	2000	-0.4358521	40.92392	-91.39362
150918	-29	3	10	-0.7343378	0.1554036	-11.43944	0	11.8	4002	0	0	5	5	0.05042101	0.08391797	1	10	0.03	2000	-0.1982727	40.92392	-91.39362
150956	-29	3	10	-0.7343378	0.1554036	-11.43944	0	11.8	4002	0	0	5	5	0.05042101	0.08936109	1	10	0.03	2000	-0.1982727	40.92392	-91.39362
151057	-36	3	6	-0.7356538	0.1516138	-11.44769	0	11.8	4010	0	0	5	5	0.05042101	0.09499107	1	10	0.03	2000	0.04346558	40.92392	-91.39362
151165	-31	1	7	-0.7321053	0.1552297	-11.45546	0	11.8	4003	0	0	5	5	0.05042101	0.1118781	1	10	0.03	2000	0.03597793	40.92392	-91.39362
151252	-37	4	4	-0.7368227	0.153832	-11.45943	0	11.8	4002	0	0	5	5	0.05042101	0.1168587	1	10	0.03	2000	0.03561099	40.92392	-91.39362
151404	-31	-2	7	-0.7252274	0.153569	-11.4741	0	11.8	4003	0	0	5	5	0.05042101	0.1301991	1	10	0.03	2000	-0.2070007	40.92392	-91.39362
151504	-36	-1	12	-0.7195921	0.1601424	-11.48621	0	11.8	4002	0	0	5	5	0.05042101	0.1366319	1	10	0.03	2000	-0.2147522	40.92392	-91.39362
151682	-28	-1	3	-0.7167268	0.1552489	-11.49862	0	11.8	4004	0	0	5	5	0.05042101	0.1394837	1	10	0.03	2000	0.005277064	40.92392	-91.39362
151774	-34	2	10	-0.7141181	0.1533197	-11.50699	0	11.8	4004	0	0	5	5	0.05042101	0.1360707	1	10	0.03	2000	-0.231781	40.92392	-91.39362
151889	-30	0	9	-0.7044222	0.1522497	-11.51915	0	11.8	4002	0	0	5	5	0.05042101	0.1270123	1	10	0.03	2000	0.2289501	40.92392	-91.39362
152080	-30	2	5	-0.7099987	0.1558054	-11.53156	0	11.74	4003	0	0	5	5	0.05042101	0.1155273	1	10	0.03	2000	-0.2368164	40.92392	-91.39362
152215	-31	1	5	-0.711557	0.1532102	-11.54746	0	11.74	4004	0	0	5	5	0.05042101	0.1108671	1	10	0.03	2000	-0.2365723	40.92392	-91.39362
152262	-31	1	5	-0.711557	0.1532102	-11.54746	0	11.74	4004	0	0	5	5	0.05042101	0.1083173	1	10	0.03	2000	-0.2365723	40.92392	-91.39362
152437	-32	0	2	-0.7142299	0.1600509	-11.568	0	11.74	4003	0	0	5	5	0.05042101	0.1140731	1	10	0.03	2000	-0.23349	40.92392	-91.39362
152512	-29	1	6	-0.7123132	0.1611582	-11.57356	0	11.74	4003	0	0	5	5	0.05042101	0.1159179	1	10	0.03	2000	-0.4695129	40.92392	-91.39362
152579	-34	0	3	-0.7122497	0.1630488	-11.58023	0	11.74	4003	0	0	5	5	0.05042101	0.1181507	1	10	0.03	2000	-0.2387695	40.92392	-91.39362
152751	-34	0	1	-0.7061263	0.1576705	-11.58848	0	11.74	4004	0	0	5	5	0.05042101	0.1264426	1	10	0.03	2000	-0.006195068	40.92392	-91.39362
152794	-30	3	4	-0.7037702	0.1594546	-11.59159	0	11.74	4003	0	0	5	5	0.05042101	0.1346588	1	10	0.03	2000	-0.006195068	40.92392	-91.39362
152915	-28	0	12	-0.7023241	0.1575318	-11.60223	0	11.8	4004	0	0	5	5	0.05042101	0.1363703	1	10	0.03	2000	-0.2579956	40.92392	-91.39362
153047	-29	-3	7	-0.6918508	0.1512207	-11.61764	0	11.8	4003	0	0	5	5	0.05042101	0.1371784	1	10	0.03	2000	-0.2562561	40.92392	-91.39362
153100	-30	7	2	-0.6911606	0.1489605	-11.62045	0	11.8	4002	0	0	5	5	0.05042101	0.1402532	1	10	0.03	2000	-0.02587891	40.92392	-91.39362
153173	-27	0	7	-0.6874633	0.1473569	-11.62522	0	11.8	4003	0	0	5	5	0.05042101	0.144907	1	10	0.03	2000	-0.2709351	40.92392	-91.39362
153309	-35	-2	8	-0.6881972	0.14394	-11.63818	0	11.8	4003	0	0	5	5	0.05042101	0.1544515	1	10	0.03	2000	-0.2844543	40.92392	-91.39362
153347	-29	-1	4	-0.6893529	0.141766	-11.64142	0	11.8	4004	0	0	5	5	0.05042101	0.1558898	1	10	0.03	2000	-0.2723999	40.92392	-91.39362
153462	-28	0	3	-0.6846858	0.1383818	-11.64869	0	11.8	4003	0	0	5	5	0.05042101	0.1608282	1	10	0.03	2000	-0.2769775	40.92392	-91.39362
153557	-32	0	6	-0.6845822	0.1396386	-11.65548	0	11.8	4004	0	0	5	5	0.05042101	0.1659006	1	10	0.03	2000	-0.04064941	40.92392	-91.39362
153728	-27	5	3	-0.6830429	0.1487191	-11.67021	0	11.8	4003	0	0	5	5	0.05042101	0.1672672	1	10	0.03	2000	-0.2913208	40.92392	-91.39362
153777	-41	-5	8	-0.687511	0.1525125	-11.67529	0	11.8	4004	0	0	5	5	0.05042101	0.1669608	1	10	0.03	2000	-0.2857666	40.92392	-91.39362
153899	-33	6	7	-0.6862001	0.1564874	-11.68342	0	11.8	4003	0	0	5	5	0.05042101	0.1660829	1	10	0.03	2000	-0.04672241	40.92392	-91.39362
153989	-30	3	5	-0.6777104	0.1572455	-11.69044	0	11.8	4002	0	0	5	5	0.05042101	0.1611277	1	10	0.03	2000	-0.2885742	40.92392	-91.39362
154198	-36	-5	6	-0.6746082	0.1511436	-11.71019	0	11.8	4003	0	0	5	5	0.05042101	0.14445	1	10	0.03	2000	-0.05841064	40.92392	-91.39362
154316	-32	6	6	-0.6765499	0.145996	-11.71404	0	11.8	4003	0	0	5	5	0.05042101	0.1426966	1	10	0.03	2000	-0.3017883	40.92392	-91.39362
154380	-31	-3	2	-0.6731942	0.145971	-11.71905	0	11.8	4003	0	0	5	5	0.05042101	0.1433266	1	10	0.03	2000	-0.05844116	40.92392	-91.39362
154504	-29	1	4	-0.6657279	0.1534381	-11.73372	0	11.8	4004	0	0	5	5	0.05042101	0.1484769	1	10	0.03	2000	-0.3146973	40.92392	-91.39362
154576	-21	2	2	-0.6659099	0.1584231	-11.7402	0	11.8	4003	0	0	5	5	0.05042101	0.149432	1	10	0.03	2000	-0.07598877	40.92392	-91.39362
154692	-19	3	7	-0.6598772	0.1541211	-11.75114	0	11.8	4004	0	0	5	5	0.05042101	0.1457161	1	10	0.03	2000	-0.3203125	40.92392	-91.39362
154781	-27	0	3	-0.6544177	0.1533084	-11.75756	0	11.8	4003	0	0	5	5	0.05042101	0.1367977	1	10	0.03	2000	-0.0909729	40.92392	-91.39362
154896	-29	-1	3	-0.6550251	0.1534443	-11.76685	0	11.8	4004	0	0	5	5	0.05042101	0.1303876	1	10	0.03	2000	-0.3284302	40.92392	-91.39362
155005	-25	3	5	-0.6498398	0.1483869	-11.77663	0	11.8	4003	0	0	5	5	0.05042101	0.1241905	1	10	0.03	2000	-0.08825684	40.92392	-91.39362
155094	-20	0	5	-0.6456153	0.1532117	-11.78452	0	11.8	4002	0	0	5	5	0.05042101	0.1184641	1	10	0.03	2000	-0.1055908	40.92392	-91.39362
155281	-27	-2	9	-0.6394259	0.1477453	-11.79974	0	11.8	4003	0	0	5	5	0.05042101	0.1051716	1	10	0.03	2000	-0.1158447	40.92392	-91.39362
155360	-28	6	4	-0.6393361	0.1498126	-11.80647	0	11.8	4002	0	0	5	5	0.05042101	0.1014377	1	10	0.03	2000	-0.3531494	40.92392	-91.39362
