time(ms)	gyro_x(deg/s)	gyro_y(deg/s)	gyro_z(deg/s)	orientation_roll(deg)	orientation_pitch(deg)	orientation_yaw(deg)	throttle	battery(V)	loop_time(uS)	pid_output_roll	pid_output_pitch	pid_output_yaw	pid_output_throttle	ultrasonic_alt	baro_alt	flight_mode	p_gain_altitude	i_gain_altitude	d_gain_altitude	compass_heading	latitude	longitude
218565	-19	0	6	-0.2947205	0.2124432	-39.0463	0	11.63	4003	0	0	5	5	0.04036781	-0.009627769	5	10	0.03	2000	0.007222446	40.92393	-91.39362
218681	-21	-1	8	-0.2942333	0.2182072	-39.05545	0	11.63	4003	0	0	5	5	0.0406223	-0.005292819	5	10	0.03	2000	-0.47052	40.92393	-91.39362
218757	-14	3	6	-0.299114	0.2209495	-39.05698	0	11.63	4002	0	0	5	5	0.03896488	-0.00885325	5	10	0.03	2000	-0.4698181	40.92393	-91.39362
218905	-9	0	-1	-0.2947816	0.2185891	-39.06656	0	11.63	4003	0	0	5	5	0.0391232	-0.009834242	5	10	0.03	2000	-0.473053	40.92393	-91.39362
218943	-21	0	1	-0.2927791	0.2181991	-39.0665	0	11.63	4004	0	0	5	5	0.03946408	-0.009799533	5	10	0.03	2000	-0.473053	40.92393	-91.39362
219055	-19	2	2	-0.2893921	0.2168127	-39.07053	0	11.63	4002	0	0	5	5	0.03996964	-0.008612511	5	10	0.03	2000	-0.4778137	40.92393	-91.39362
219172	-12	-2	0	-0.292083	0.2183725	-39.07633	0	11.63	4004	0	0	5	5	0.04067934	-0.005942606	5	10	0.03	2000	-0.4741821	40.92393	-91.39362
219258	-23	-1	4	-0.3004601	0.2187274	-39.07895	0	11.63	4002	0	0	5	5	0.04070549	-0.001652549	5	10	0.03	2000	-0.463623	40.92393	-91.39362
219447	-17	0	4	-0.3046476	0.222131	-39.08976	0	11.63	4003	0	0	5	5	0.04156132	0.00294702	5	10	0.03	2000	-0.45578	40.92393	-91.39362
219549	-14	-1	7	-0.2968759	0.2179508	-39.09324	0	11.63	4002	0	0	5	5	0.04182437	0.008507519	5	10	0.03	2000	-0.2219543	40.92393	-91.39362
219599	-16	7	5	-0.2983909	0.2154989	-39.09409	0	11.63	4002	0	0	5	5	0.04189514	0.009454634	5	10	0.03	2000	-0.4697876	40.92393	-91.39362
219687	-16	7	7	-0.2968396	0.2127376	-39.0994	0	11.63	4003	0	0	5	5	0.04206773	0.01459566	5	10	0.03	2000	-0.4687805	40.92393	-91.39362
219825	-15	0	5	-0.2996216	0.2133586	-39.10532	0	11.63	4003	0	0	5	5	0.04222739	0.02577292	5	10	0.03	2000	-0.4634399	40.92393	-91.39362
219904	-25	0	3	-0.2943473	0.2187101	-39.1102	0	11.63	4002	0	0	5	5	0.03846491	0.03299297	5	10	0.03	2000	-0.4714661	40.92393	-91.39362
220041	-18	-1	4	-0.2957057	0.2164261	-39.11405	0	11.63	4003	0	0	5	5	0.03436241	0.0442984	5	10	0.03	2000	-0.4710999	40.92393	-91.39362
220143	-17	0	2	-0.3000509	0.2190081	-39.12345	0	11.63	4002	0	0	5	5	0.03700043	0.05992827	5	10	0.03	2000	-0.4655457	40.92393	-91.39362
220260	-13	-4	1	-0.3001286	0.2203074	-39.12668	0	11.68	4003	0	0	5	5	0.03836057	0.07110772	3	10	0.03	2000	-0.4656067	40.92393	-91.39362
220385	-17	8	3	-0.3011726	0.2179747	-39.1312	0	11.68	4003	0	0	5	5	0.03979512	0.07634787	1	10	0.03	2000	-0.4674072	40.92393	-91.39362
220430	-13	2	0	-0.3057348	0.2180104	-39.13297	0	11.68	4003	0	0	5	5	0.04006881	0.07588968	1	10	0.03	2000	-0.458374	40.92393	-91.39362
220513	-18	0	2	-0.3126046	0.2210414	-39.1359	0	11.68	4002	0	0	5	5	0.04053682	0.07477213	1	10	0.03	2000	-0.4483032	40.92393	-91.39362
220650	-25	0	1	-0.3051923	0.2236586	-39.14267	0	11.68	4004	0	0	5	5	0.04135387	0.07558832	1	10	0.03	2000	-0.4602051	40.92393	-91.39362
220738	-16	0	4	-0.307177	0.2277652	-39.14444	0	11.68	4003	0	0	5	5	0.04157772	0.07271069	3	10	0.03	2000	-0.4538879	40.92393	-91.39362
220814	-13	0	1	-0.3074991	0.2294104	-39.14688	0	11.68	4003	0	0	5	5	0.04175903	0.07256009	3	10	0.03	2000	-0.4489136	40.92393	-91.39362
220949	-14	0	2	-0.3119832	0.2291571	-39.1511	0	11.68	4004	0	0	5	5	0.02564141	0.07342736	6	10	0.03	2000	-0.4411621	40.92393	-91.39362
221035	-19	0	3	-0.3077815	0.2279277	-39.15445	0	11.68	4004	0	0	5	5	0.02885062	0.07340689	6	10	0.03	2000	-0.4501648	40.92393	-91.39362
221127	-20	2	0	-0.30194	0.225001	-39.15793	0	11.74	4002	0	0	5	5	0.03112423	0.07685939	6	10	0.03	2000	-0.2151794	40.92393	-91.39362
221216	-17	-4	1	-0.3033303	0.2202276	-39.16019	0	11.74	4002	0	0	5	5	0.03066914	0.08515789	6	10	0.03	2000	-0.2235413	40.92393	-91.39362
221389	-19	-2	0	-0.316298	0.2243805	-39.16666	0	11.74	4004	0	0	5	5	0.03405432	0.08374898	6	10	0.03	2000	-0.6806335	40.92393	-91.39362
221485	-21	-3	2	-0.3146992	0.2262661	-39.16843	0	11.74	4003	0	0	5	5	0.03472081	0.08947548	6	10	0.03	2000	-0.4362183	40.92393	-91.39362
221612	-10	0	2	-0.3111061	0.2239054	-39.17136	0	11.74	4004	0	0	5	5	0.03455018	0.1006999	6	10	0.03	2000	-0.4425964	40.92393	-91.39362
221650	-15	4	7	-0.3122378	0.2228752	-39.17551	0	11.74	4004	0	0	5	5	0.03534836	0.1029792	5	10	0.03	2000	-0.4457703	40.92393	-91.39362
221821	-16	-1	4	-0.3111507	0.2259242	-39.17966	0	11.74	4003	0	0	5	5	0.03773515	0.1090151	5	10	0.03	2000	-0.2060547	40.92393	-91.39362
221891	-21	2	2	-0.3084155	0.230019	-39.18491	0	11.74	4003	0	0	5	5	0.03969951	0.115858	5	10	0.03	2000	-0.4533081	40.92393	-91.39362
221977	-20	0	0	-0.3047044	0.2257399	-39.18845	0	11.74	4002	0	0	5	5	0.04023768	0.121362	5	10	0.03	2000	-0.4578857	40.92393	-91.39362
222026	-14	3	-1	-0.3048602	0.2236863	-39.18991	0	11.74	4003	0	0	5	5	0.04060843	0.1297009	5	10	0.03	2000	-0.4590149	40.92393	-91.39362
222153	-15	-1	7	-0.3007622	0.2293956	-39.19651	0	11.68	4002	0	0	5	5	0.0405965	0.141442	5	10	0.03	2000	-0.4625549	40.92393	-91.39362
222236	-17	-1	2	-0.3013962	0.2324126	-39.19968	0	11.68	4003	0	0	5	5	0.04080989	0.146527	5	10	0.03	2000	-0.4627075	40.92393	-91.39362
222338	-18	4	0	-0.3054467	0.2280685	-39.20768	0	11.68	4003	0	0	5	5	0.0411371	0.151783	5	10	0.03	2000	-0.2183228	40.92393	-91.39362
222479	-18	-1	3	-0.2978193	0.2211502	-39.2128	0	11.68	4002	0	0	5	5	0.04133186	0.1493514	5	10	0.03	2000	-0.4654846	40.92393	-91.39362
222531	-20	3	2	-0.300667	0.21976	-39.21402	0	11.68	4003	0	0	5	5	0.04123404	0.1473604	5	10	0.03	2000	-0.4663086	40.92393	-91.39362
222659	-23	-2	6	-0.3016553	0.2214797	-39.21915	0	11.68	4002	0	0	5	5	0.041292	0.1465989	5	10	0.03	2000	-0.4641418	40.92393	-91.39362
222796	-18	-4	-4	-0.3007214	0.2203295	-39.22269	0	11.68	4003	0	0	5	5	0.0414763	0.1276865	5	10	0.03	2000	-0.4601746	40.92393	-91.39362
222880	-15	8	8	-0.2904503	0.2133445	-39.22672	0	11.68	4004	0	0	5	5	0.0367514	0.1212132	5	10	0.03	2000	-0.4810791	40.92393	-91.39362
222932	-15	6	2	-0.2890245	0.213219	-39.23044	0	11.68	4002	0	0	5	5	0.03623186	0.1117254	5	10	0.03	2000	-0.4846802	40.92393	-91.39362
223066	-17	4	1	-0.2843867	0.2054238	-39.23252	0	11.68	4004	0	0	5	5	0.03881183	0.0924129	5	10	0.03	2000	-0.4902954	40.92393	-91.39362
223128	-16	-4	-2	-0.2807072	0.2086219	-39.23508	0	11.68	4004	0	0	5	5	0.03916933	0.08465899	5	10	0.03	2000	-0.5013733	40.92393	-91.39362
223231	-17	-2	5	-0.280856	0.2066601	-39.23862	0	11.68	4003	0	0	5	5	0.03980824	0.07601847	5	10	0.03	2000	-0.506958	40.92393	-91.39362
223342	-14	0	1	-0.2790207	0.2000536	-39.2424	0	11.68	4003	0	0	5	5	0.04045342	0.06360722	5	10	0.03	2000	-0.5005188	40.92393	-91.39362
223445	-13	3	6	-0.2849931	0.1987198	-39.25028	0	11.68	4002	0	0	5	5	0.04036605	0.05615852	5	10	0.03	2000	-0.2496338	40.92393	-91.39362
223565	-21	2	2	-0.2878376	0.1993295	-39.25663	0	11.68	4003	0	0	5	5	0.04065976	0.05623028	5	10	0.03	2000	-0.2420959	40.92393	-91.39362
223681	-18	2	1	-0.2819888	0.1932194	-39.26065	0	11.68	4003	0	0	5	5	0.04077579	0.05043518	5	10	0.03	2000	-0.4896545	40.92393	-91.39362
223756	-12	2	1	-0.2882363	0.1935555	-39.26236	0	11.68	4003	0	0	5	5	0.04110947	0.04576294	5	10	0.03	2000	-0.2497864	40.92393	-91.39362
223857	-11	1	12	-0.2846007	0.2001143	-39.26908	0	11.68	4004	0	0	5	5	0.04103021	0.04661046	5	10	0.03	2000	-0.4918823	40.92393	-91.39362
223948	-17	1	1	-0.2852522	0.191079	-39.27182	0	11.68	4004	0	0	5	5	0.04143719	0.04239861	5	10	0.03	2000	-0.4909668	40.92393	-91.39362
224084	-18	-2	1	-0.2848973	0.1913722	-39.27634	0	11.68	4002	0	0	5	5	0.04142268	0.03539982	5	10	0.03	2000	-0.4924011	40.92393	-91.39362
224197	-13	1	9	-0.2789536	0.1916077	-39.28159	0	11.68	4003	0	0	5	5	0.04123076	0.03417735	5	10	0.03	2000	-0.5002441	40.92393	-91.39362
224249	-22	4	2	-0.2743388	0.1948954	-39.28464	0	11.68	4003	0	0	5	5	0.04115508	0.03552133	5	10	0.03	2000	-0.5021973	40.92393	-91.39362
224351	-12	0	4	-0.2730982	0.1941225	-39.2905	0	11.68	4004	0	0	5	5	0.04117631	0.03937863	5	10	0.03	2000	-0.2669678	40.92393	-91.39362
224472	-14	1	-1	-0.2755084	0.200532	-39.29441	0	11.68	4004	0	0	5	5	0.04164253	0.03735803	5	10	0.03	2000	-0.2670593	40.92393	-91.39362
224568	-10	0	1	-0.2712366	0.197267	-39.2988	0	11.68	4003	0	0	5	5	0.04142051	0.0411527	5	10	0.03	2000	-0.5123901	40.92393	-91.39362
224690	-10	2	8	-0.2643389	0.198696	-39.30411	0	11.68	4002	0	0	5	5	0.04174065	0.06141049	5	10	0.03	2000	-0.5248413	40.92393	-91.39362
224759	-12	4	5	-0.2637298	0.1967373	-39.30808	0	11.68	4004	0	0	5	5	0.04181979	0.06338292	3	10	0.03	2000	-0.5233765	40.92393	-91.39362
224863	-15	6	3	-0.260691	0.1932058	-39.31516	0	11.63	4003	0	0	5	5	0.04194676	0.07038791	1	10	0.03	2000	-0.2907715	40.92393	-91.39362
225032	-12	-7	1	-0.2638927	0.1882667	-39.31931	0	11.63	4003	0	0	5	5	0.04203007	0.06957836	1	10	0.03	2000	-0.530426	40.92393	-91.39362
225078	-23	9	5	-0.2623684	0.189425	-39.32035	0	11.63	4003	0	0	5	5	0.04206026	0.06828859	1	10	0.03	2000	-0.5273743	40.92393	-91.39362
225165	-11	-1	3	-0.2638221	0.1933046	-39.32645	0	11.63	4002	0	0	5	5	0.04209515	0.05668964	1	10	0.03	2000	-0.5280151	40.92393	-91.39362
225278	-11	2	5	-0.2570241	0.1982324	-39.32969	0	11.63	4003	0	0	5	5	0.04212058	0.05345201	1	10	0.03	2000	-0.5267334	40.92393	-91.39362
225363	-21	2	8	-0.2510329	0.1944461	-39.33463	0	11.63	4002	0	0	5	5	0.04213358	0.05246669	6	10	0.03	2000	-0.5436401	40.92393	-91.39362
225489	-8	-1	7	-0.2483358	0.1910857	-39.33933	0	11.63	4004	0	0	5	5	0.02421591	0.05519529	6	10	0.03	2000	-0.5526123	40.92393	-91.39362
225601	-17	3	-1	-0.2501966	0.1886854	-39.34378	0	11.63	4004	0	0	5	5	0.02914527	0.05494202	6	10	0.03	2000	-0.5535889	40.92393	-91.39362
225718	-6	4	2	-0.2449067	0.1879157	-39.34665	0	11.63	4004	0	0	5	5	0.0342865	0.05296574	6	10	0.03	2000	-0.5539856	40.92393	-91.39362
225759	-6	4	2	-0.2449067	0.1879157	-39.34665	0	11.63	4004	0	0	5	5	0.03511105	0.05149493	6	10	0.03	2000	-0.5539856	40.92393	-91.39362
225863	-16	0	-1	-0.2457315	0.190239	-39.35202	0	11.68	4004	0	0	5	5	0.03586933	0.04380301	6	10	0.03	2000	-0.5579224	40.92393	-91.39362
226000	-8	0	3	-0.2460964	0.1910563	-39.35404	0	11.68	4004	0	0	5	5	0.03796438	0.03050079	6	10	0.03	2000	-0.5578613	40.92393	-91.39362
226160	-15	-2	2	-0.2401635	0.1969669	-39.36148	0	11.68	4003	0	0	5	5	0.03762867	0.03280017	6	10	0.03	2000	-0.562561	40.92393	-91.39362
226178	-15	-2	2	-0.2401635	0.1969669	-39.36148	0	11.68	4003	0	0	5	5	0.0380161	0.03358668	6	10	0.03	2000	-0.562561	40.92393	-91.39362
226379	-5	-4	4	-0.2415933	0.2003884	-39.37131	0	11.68	4002	0	0	5	5	0.03979789	0.02699078	1	10	0.03	2000	-0.5597229	40.92393	-91.39362
226413	-12	2	2	-0.2369824	0.1996927	-39.37333	0	11.68	4003	0	0	5	5	0.0400713	0.02555017	1	10	0.03	2000	-0.3197021	40.92393	-91.39362
226579	-11	-1	1	-0.2233756	0.2015229	-39.37864	0	11.68	4004	0	0	5	5	0.04107898	0.008319967	1	10	0.03	2000	-0.5880432	40.92393	-91.39362
226650	-16	0	3	-0.2221431	0.19232	-39.38382	0	11.68	4002	0	0	5	5	0.04135506	0.005236259	1	10	0.03	2000	-0.5933838	40.92393	-91.39362
226695	-12	0	2	-0.2229863	0.1930839	-39.38633	0	11.68	4003	0	0	5	5	0.04157868	0.007982654	1	10	0.03	2000	-0.3534851	40.92393	-91.39362
226808	-18	4	4	-0.2271295	0.1954743	-39.38944	0	11.68	4004	0	0	5	5	0.04190653	0.008167135	1	10	0.03	2000	-0.5877075	40.92393	-91.39362
226950	-4	0	0	-0.2288249	0.1928859	-39.39365	0	11.68	4003	0	0	5	5	0.04207603	0.008301462	1	10	0.03	2000	-0.3421021	40.92393	-91.39362
227037	-7	0	-1	-0.2252405	0.1898628	-39.39481	0	11.68	4003	0	0	5	5	0.04223284	0.008371757	1	10	0.03	2000	-0.5834351	40.92393	-91.39362
227136	-14	0	3	-0.2272787	0.1899503	-39.39792	0	11.68	4004	0	0	5	5	0.04231391	0.01028598	1	10	0.03	2000	-0.5858765	40.92393	-91.39362
227202	-5	0	2	-0.2272	0.1902515	-39.4014	0	11.68	4002	0	0	5	5	0.04235535	0.0119179	1	10	0.03	2000	-0.5858765	40.92393	-91.39362
227338	-13	0	2	-0.2199965	0.195488	-39.40537	0	11.68	4002	0	0	5	5	0.04242769	0.01341935	1	10	0.03	2000	-0.3557434	40.92393	-91.39362
227427	-10	3	0	-0.2155224	0.1953503	-39.40873	0	11.68	4004	0	0	5	5	0.04244751	0.01458741	1	10	0.03	2000	-0.6090088	40.92393	-91.39362
227496	-7	-2	0	-0.2174046	0.1964232	-39.4108	0	11.68	4003	0	0	5	5	0.04246356	0.01684403	1	10	0.03	2000	-0.6007996	40.92393	-91.39362
227592	-12	-3	2	-0.2139725	0.19416	-39.4141	0	11.74	4002	0	0	5	5	0.0424871	0.02736341	1	10	0.03	2000	-0.6122742	40.92393	-91.39362
227662	-12	0	5	-0.2126576	0.1934144	-39.41617	0	11.74	4003	0	0	5	5	0.04249563	0.03578562	1	10	0.03	2000	-0.6113892	40.92393	-91.39362
227748	-19	-2	6	-0.2141723	0.1941023	-39.42051	0	11.74	4004	0	0	5	5	0.04250548	0.04657858	1	10	0.03	2000	-0.3748169	40.92393	-91.39362
227859	-2	0	0	-0.2075715	0.1929584	-39.42228	0	11.74	4002	0	0	5	5	0.04251267	0.05079611	1	10	0.03	2000	-0.6090088	40.92393	-91.39362
227904	-15	0	8	-0.2065021	0.1953557	-39.42698	0	11.74	4003	0	0	5	5	0.0425146	0.05295172	1	10	0.03	2000	-0.6222229	40.92393	-91.39362
228026	-14	-2	3	-0.2083501	0.1963912	-39.4299	0	11.74	4004	0	0	5	5	0.04252058	0.05028635	1	10	0.03	2000	-0.6327515	40.92393	-91.39362
228235	-8	4	1	-0.2121932	0.1969356	-39.43656	0	11.74	4004	0	0	5	5	0.04252654	0.06358527	1	10	0.03	2000	-0.3696289	40.92393	-91.39362
228358	-9	2	10	-0.2149196	0.1973034	-39.44339	0	11.74	4002	0	0	5	5	0.04252802	0.07242664	1	10	0.03	2000	-0.6061707	40.92393	-91.39362
228438	-9	0	1	-0.2191902	0.201593	-39.44822	0	11.63	4002	0	0	5	5	0.04252878	0.0835637	1	10	0.03	2000	-0.6012878	40.92393	-91.39362
228549	-22	3	-1	-0.2231176	0.1978837	-39.45023	0	11.63	4003	0	0	5	5	0.04252988	0.09981565	1	10	0.03	2000	-0.3615112	40.92393	-91.39362
228610	-14	1	2	-0.2249077	0.1988598	-39.45188	0	11.63	4003	0	0	5	5	0.04253029	0.1078667	1	10	0.03	2000	-0.3615112	40.92393	-91.39362
228739	-13	0	1	-0.2353597	0.201885	-39.46164	0	11.63	4004	0	0	5	5	0.04253088	0.1198	1	10	0.03	2000	-0.5723877	40.92393	-91.39362
228881	-11	1	2	-0.2322298	0.2026481	-39.46482	0	11.63	4003	0	0	5	5	0.04253126	0.134907	1	10	0.03	2000	-0.5785828	40.92393	-91.39362
228928	-12	2	6	-0.2295084	0.2054332	-39.46781	0	11.63	4003	0	0	5	5	0.04253133	0.1381308	1	10	0.03	2000	-0.5829468	40.92393	-91.39362
229023	-12	-1	0	-0.2290971	0.2130819	-39.47452	0	11.63	4003	0	0	5	5	0.04253156	0.1630322	1	10	0.03	2000	-0.5836792	40.92393	-91.39362
229170	-7	0	2	-0.2296401	0.2181861	-39.47953	0	11.63	4004	0	0	5	5	0.04253171	0.173987	1	10	0.03	2000	-0.5755615	40.92393	-91.39362
229300	-14	2	10	-0.2366494	0.2148457	-39.48362	0	11.63	4003	0	0	5	5	0.04253181	0.1878037	1	10	0.03	2000	-0.5714722	40.92393	-91.39362
229326	-8	-7	4	-0.2444647	0.2149668	-39.49387	0	11.74	4003	0	0	5	5	0.0425319	0.2113931	1	10	0.03	2000	-0.5612793	40.92393	-91.39362
229410	-12	0	1	-0.2430964	0.2130366	-39.49949	0	11.74	4004	0	0	5	5	0.04253192	0.222018	1	10	0.03	2000	-0.3204041	40.92393	-91.39362
229461	-16	3	6	-0.240982	0.2121945	-39.50229	0	11.74	4004	0	0	5	5	0.04253193	0.2307662	1	10	0.03	2000	-0.3204041	40.92393	-91.39362
229594	-11	6	3	-0.2394301	0.214747	-39.5134	0	11.74	4004	0	0	5	5	0.04253196	0.2365179	1	10	0.03	2000	-0.5689697	40.92393	-91.39362
229694	-9	0	0	-0.2367163	0.215299	-39.5156	0	11.74	4003	0	0	5	5	0.04253197	0.2350963	1	10	0.03	2000	-0.5706482	40.92393	-91.39362
229861	-19	2	0	-0.2376651	0.2131112	-39.52256	0	11.74	4004	0	0	5	5	0.04253198	0.211667	1	10	0.03	2000	-0.5721741	40.92393	-91.39362
230023	-14	-3	0	-0.2243278	0.2040397	-39.53104	0	11.74	4002	0	0	5	5	0.04253198	0.191475	1	10	0.03	2000	-0.5924377	40.92393	-91.39362
230076	-18	-3	9	-0.2222524	0.1979486	-39.53598	0	11.68	4004	0	0	5	5	0.04253198	0.1839749	1	10	0.03	2000	-0.5905457	40.92393	-91.39362
230190	-3	0	1	-0.2182861	0.1989265	-39.53897	0	11.68	4004	0	0	5	5	0.04253198	0.1724747	1	10	0.03	2000	-0.5937805	40.92393	-91.39362
230363	-15	4	4	-0.2186823	0.1987715	-39.54752	0	11.68	4004	0	0	5	5	0.04253198	0.1562992	1	10	0.03	2000	-0.3645325	40.92393	-91.39362
230442	-12	-3	5	-0.219528	0.2043667	-39.54959	0	11.68	4003	0	0	5	5	0.04253198	0.1550972	1	10	0.03	2000	-0.6033936	40.92393	-91.39362
230556	-4	5	4	-0.2199288	0.207279	-39.55417	0	11.68	4002	0	0	5	5	0.04253198	0.1614845	1	10	0.03	2000	-0.6036072	40.92393	-91.39362
230648	-12	4	5	-0.2180768	0.2062813	-39.55753	0	11.68	4004	0	0	5	5	0.04253198	0.1726765	1	10	0.03	2000	-0.5985107	40.92393	-91.39362
230755	-5	-1	3	-0.2199973	0.2031984	-39.5626	0	11.68	4004	0	0	5	5	0.04253198	0.1740648	1	10	0.03	2000	-0.6053772	40.92393	-91.39362
230905	-12	6	-1	-0.2260416	0.1972158	-39.56632	0	11.68	4003	0	0	5	5	0.04253198	0.1650281	1	10	0.03	2000	-0.5958557	40.92393	-91.39362
230959	-13	-2	0	-0.2270389	0.2001812	-39.56711	0	11.68	4002	0	0	5	5	0.04253198	0.1638272	1	10	0.03	2000	-0.5958557	40.92393	-91.39362
231107	-16	6	5	-0.2313516	0.20564	-39.56943	0	11.68	4004	0	0	5	5	0.04253198	0.1626917	1	10	0.03	2000	-0.3356323	40.92393	-91.39362
231162	-11	-2	3	-0.2302355	0.2036361	-39.56986	0	11.68	4002	0	0	5	5	0.04253198	0.1668911	1	10	0.03	2000	-0.3356323	40.92393	-91.39362
231339	-13	-2	1	-0.2350259	0.2140728	-39.57804	0	11.68	4004	0	0	5	5	0.04253198	0.1745049	1	10	0.03	2000	-0.3269043	40.92393	-91.39362
231381	-8	-3	2	-0.2338175	0.2130418	-39.57938	0	11.68	4003	0	0	5	5	0.04253198	0.1757787	1	10	0.03	2000	-0.3269043	40.92393	-91.39362
231469	-19	1	7	-0.2331742	0.2167582	-39.58561	0	11.68	4003	0	0	5	5	0.04253198	0.1757727	1	10	0.03	2000	-0.5839539	40.92393	-91.39362
231557	-14	4	5	-0.2331973	0.214768	-39.59153	0	11.68	4003	0	0	5	5	0.04253198	0.1729548	1	10	0.03	2000	-0.5756836	40.92393	-91.39362
231775	-16	-2	-1	-0.2328148	0.2102734	-39.59952	0	11.68	4004	0	0	5	5	0.04253198	0.1710067	1	10	0.03	2000	-0.3382874	40.92393	-91.39362
231886	-6	-2	4	-0.2289141	0.2080076	-39.60727	0	11.68	4002	0	0	5	5	0.04253198	0.173982	1	10	0.03	2000	-0.5753784	40.92393	-91.39362
231966	-7	-2	1	-0.2315487	0.2102972	-39.61118	0	11.68	4004	0	0	5	5	0.04253198	0.1769852	1	10	0.03	2000	-0.3415833	40.92393	-91.39362
232079	-18	1	0	-0.2276672	0.2089122	-39.61509	0	11.68	4004	0	0	5	5	0.04253198	0.1740466	1	10	0.03	2000	-0.3417053	40.92393	-91.39362
232206	-6	4	0	-0.2262779	0.2067124	-39.61948	0	11.68	4004	0	0	5	5	0.04253198	0.1717715	1	10	0.03	2000	-0.5910339	40.92393	-91.39362
232312	-11	-1	3	-0.223594	0.2049341	-39.62241	0	11.68	4003	0	0	5	5	0.04253198	0.1730311	1	10	0.03	2000	-0.5943298	40.92393	-91.39362
232393	-13	7	2	-0.2239117	0.1977553	-39.62906	0	11.68	4004	0	0	5	5	0.04253198	0.1836003	1	10	0.03	2000	-0.5949707	40.92393	-91.39362
232471	-12	0	6	-0.2195194	0.1994931	-39.63126	0	11.68	4004	0	0	5	5	0.04253198	0.189715	1	10	0.03	2000	-0.5999451	40.92393	-91.39362
232624	-5	0	0	-0.2242592	0.2078298	-39.63681	0	11.68	4003	0	0	5	5	0.04253198	0.1877337	1	10	0.03	2000	-0.3553772	40.92393	-91.39362
232728	-10	1	3	-0.2229109	0.2029328	-39.64353	0	11.68	4004	0	0	5	5	0.04253198	0.1883274	1	10	0.03	2000	-0.5907898	40.92393	-91.39362
232838	-3	3	0	-0.2157069	0.2054212	-39.64603	0	11.68	4004	0	0	5	5	0.04253198	0.1853141	1	10	0.03	2000	-0.6048889	40.92393	-91.39362
232900	-16	-9	-3	-0.2190491	0.2073639	-39.64634	0	11.68	4003	0	0	5	5	0.04253198	0.1867085	1	10	0.03	2000	-0.6089783	40.92393	-91.39362
233001	-7	3	4	-0.2114455	0.2084727	-39.64743	0	11.68	4003	0	0	5	5	0.04253198	0.1938526	1	10	0.03	2000	-0.6026306	40.92393	-91.39362
233104	-2	3	4	-0.2087856	0.2079307	-39.65445	0	11.68	4003	0	0	5	5	0.04253198	0.2042044	1	10	0.03	2000	-0.6149292	40.92393	-91.39362
233229	-13	2	3	-0.2056118	0.2060015	-39.65598	0	11.68	4003	0	0	5	5	0.04253198	0.2104198	1	10	0.03	2000	-0.3820801	40.92393	-91.39362
233395	-9	0	-3	-0.2042042	0.2043716	-39.6594	0	11.68	4003	0	0	5	5	0.04253198	0.2182281	1	10	0.03	2000	-0.6188049	40.92393	-91.39362
233464	-5	0	1	-0.1926242	0.1992335	-39.66349	0	11.68	4003	0	0	5	5	0.04253198	0.2188606	1	10	0.03	2000	-0.631897	40.92393	-91.39362
233588	-8	-3	0	-0.1865813	0.1969393	-39.66672	0	11.68	4002	0	0	5	5	0.04253198	0.2225802	1	10	0.03	2000	-0.664093	40.92393	-91.39362
233636	-7	-9	0	-0.1863477	0.2006197	-39.66831	0	11.68	4002	0	0	5	5	0.04253198	0.2258678	1	10	0.03	2000	-0.6542358	40.92393	-91.39362
233696	-6	0	4	-0.1779821	0.1948804	-39.67148	0	11.68	4003	0	0	5	5	0.04253198	0.2308941	1	10	0.03	2000	-0.6621094	40.92393	-91.39362
233856	-1	3	3	-0.1689489	0.1920862	-39.67362	0	11.68	4003	0	0	5	5	0.04253198	0.2473378	1	10	0.03	2000	-0.6781616	40.92393	-91.39362
233956	-13	1	-6	-0.1720912	0.1995018	-39.67459	0	11.68	4004	0	0	5	5	0.04253198	0.2501056	1	10	0.03	2000	-0.4482727	40.92393	-91.39362
233998	-11	0	1	-0.1741278	0.1992353	-39.67643	0	11.68	4003	0	0	5	5	0.04253198	0.2526349	1	10	0.03	2000	-0.4358521	40.92393	-91.39362
234098	-7	-3	0	-0.1744508	0.1986969	-39.67783	0	11.68	4004	0	0	5	5	0.04253198	0.2567885	1	10	0.03	2000	-0.4354248	40.92393	-91.39362
234215	-12	0	0	-0.173092	0.1939436	-39.67984	0	11.68	4003	0	0	5	5	0.04253198	0.2699805	1	10	0.03	2000	-0.677063	40.92393	-91.39362
234372	-4	-5	2	-0.1761615	0.1978716	-39.68119	0	11.68	4004	0	0	5	5	0.04253198	0.2865278	1	10	0.03	2000	-0.6738281	40.92393	-91.39362
234490	-12	-2	3	-0.1829181	0.1952	-39.68369	0	11.68	4003	0	0	5	5	0.04253198	0.2987028	1	10	0.03	2000	-0.6701355	40.92393	-91.39362
234522	-8	0	5	-0.1820387	0.1942182	-39.68363	0	11.68	4003	0	0	5	5	0.04253198	0.3015287	1	10	0.03	2000	-0.6701355	40.92393	-91.39362
234599	0	0	3	-0.1765683	0.1918809	-39.68637	0	11.68	4003	0	0	5	5	0.04253198	0.3074833	1	10	0.03	2000	-0.664093	40.92393	-91.39362
234811	-9	2	0	-0.1666414	0.1943695	-39.68906	0	11.68	4003	0	0	5	5	0.04253198	0.3190657	1	10	0.03	2000	-0.6824646	40.92393	-91.39362
234877	-7	-2	0	-0.1664912	0.1944579	-39.6915	0	11.68	4002	0	0	5	5	0.04253198	0.3173472	1	10	0.03	2000	-0.6879272	40.92393	-91.39362
234927	-3	0	3	-0.1613939	0.1973614	-39.69376	0	11.68	4004	0	0	5	5	0.04253198	0.3119162	1	10	0.03	2000	-0.6950073	40.92393	-91.39362
235012	-9	-4	1	-0.1594544	0.1976708	-39.69522	0	11.68	4004	0	0	5	5	0.04253198	0.3050445	1	10	0.03	2000	-0.7056274	40.92393	-91.39362
235099	-8	5	0	-0.1622258	0.1969649	-39.69834	0	11.68	4003	0	0	5	5	0.04253198	0.3023891	1	10	0.03	2000	-0.6916199	40.92393	-91.39362
235203	4	0	0	-0.1606499	0.2017622	-39.70127	0	11.68	4002	0	0	5	5	0.04253198	0.3010574	1	10	0.03	2000	-0.460022	40.92393	-91.39362
235305	-5	-1	0	-0.1635932	0.1971703	-39.70383	0	11.68	4003	0	0	5	5	0.04253198	0.3019401	1	10	0.03	2000	-0.7013245	40.92393	-91.39362
235397	-2	0	-1	-0.159049	0.1958721	-39.70493	0	11.68	4004	0	0	5	5	0.04253198	0.3011973	1	10	0.03	2000	-0.6974792	40.92393	-91.39362
235496	0	-1	-3	-0.1497606	0.1930012	-39.7089	0	11.68	4002	0	0	5	5	0.04253198	0.2933577	1	10	0.03	2000	-0.7141113	40.92393	-91.39362
235615	-4	1	4	-0.1579302	0.1933553	-39.71134	0	11.68	4003	0	0	5	5	0.04253198	0.284161	1	10	0.03	2000	-0.4619141	40.92393	-91.39362
235764	-2	0	-1	-0.1439692	0.1940485	-39.71256	0	11.68	4002	0	0	5	5	0.04253198	0.2744769	1	10	0.03	2000	-0.4863892	40.92393	-91.39362
235955	-9	0	0	-0.1464665	0.1987787	-39.71653	0	11.68	4004	0	0	5	5	0.04253198	0.2784327	1	10	0.03	2000	-0.7243042	40.92393	-91.39362
236055	-1	0	5	-0.1463836	0.1934146	-39.72025	0	11.68	4003	0	0	5	5	0.04253198	0.2815192	1	10	0.03	2000	-0.7302551	40.92393	-91.39362
236122	-7	4	2	-0.1482972	0.1948748	-39.72257	0	11.68	4003	0	0	5	5	0.04253198	0.2888938	1	10	0.03	2000	-0.7145081	40.92393	-91.39362
236219	-5	0	0	-0.1440868	0.1929459	-39.72617	0	11.68	4003	0	0	5	5	0.04253198	0.3105142	1	10	0.03	2000	-0.7226868	40.92393	-91.39362
236303	5	3	0	-0.1425624	0.1841664	-39.72727	0	11.68	4003	0	0	5	5	0.04253198	0.3250607	1	10	0.03	2000	-0.727478	40.92393	-91.39362
236399	0	0	4	-0.1373344	0.177522	-39.7302	0	11.68	4003	0	0	5	5	0.04253198	0.338498	1	10	0.03	2000	-0.7310486	40.92393	-91.39362
236441	-5	-3	2	-0.1348398	0.1745213	-39.73282	0	11.63	4002	0	0	5	5	0.04253198	0.3424663	1	10	0.03	2000	-0.7392883	40.92393	-91.39362
236561	-6	5	1	-0.1314225	0.1720231	-39.73545	0	11.63	4004	0	0	5	5	0.04253198	0.3632408	1	10	0.03	2000	-0.7535095	40.92393	-91.39363
236741	-3	3	-1	-0.119408	0.1705451	-39.73624	0	11.63	4002	0	0	5	5	0.04253198	0.3847235	1	10	0.03	2000	-0.7609863	40.92393	-91.39363
236837	2	3	0	-0.1143925	0.1678537	-39.73801	0	11.63	4004	0	0	5	5	0.04253198	0.3917647	1	10	0.03	2000	-0.7767029	40.92393	-91.39363
236931	1	3	-3	-0.1081207	0.1678247	-39.73655	0	11.63	4003	0	0	5	5	0.04253198	0.3976155	1	10	0.03	2000	-0.5331421	40.92393	-91.39363
237025	4	1	3	-0.1061438	0.1650717	-39.73801	0	11.63	4004	0	0	5	5	0.04253198	0.40001	1	10	0.03	2000	-0.5521851	40.92393	-91.39362
237152	-2	0	-3	-0.0994647	0.1681332	-39.73996	0	11.63	4004	0	0	5	5	0.04253198	0.4036147	1	10	0.03	2000	-0.7921448	40.92393	-91.39362
237274	3	-2	1	-0.08729019	0.1716942	-39.741	0	11.63	4004	0	0	5	5	0.04253198	0.4055803	1	10	0.03	2000	-0.8205566	40.92393	-91.39362
237382	1	0	0	-0.07840125	0.1739255	-39.74259	0	11.63	4003	0	0	5	5	0.04253198	0.4067538	1	10	0.03	2000	-0.839325	40.92393	-91.39362
237439	-3	1	3	-0.08028553	0.1693782	-39.74479	0	11.63	4003	0	0	5	5	0.04253198	0.4082086	1	10	0.03	2000	-0.8345337	40.92393	-91.39362
237591	6	3	-1	-0.07065071	0.174383	-39.74472	0	11.63	4004	0	0	5	5	0.04253198	0.3997965	1	10	0.03	2000	-0.8462219	40.92393	-91.39363
237736	-2	-1	0	-0.07097112	0.1746327	-39.74625	0	11.63	4003	0	0	5	5	0.04253198	0.3868841	1	10	0.03	2000	-0.8564148	40.92393	-91.39363
237872	6	3	8	-0.07017577	0.1731304	-39.74717	0	11.63	4004	0	0	5	5	0.04253198	0.3867171	1	10	0.03	2000	-1.089478	40.92393	-91.39363
237950	9	-2	0	-0.06850182	0.1743227	-39.74863	0	11.63	4004	0	0	5	5	0.04253198	0.3880588	1	10	0.03	2000	-0.8527527	40.92393	-91.39363
238021	-1	0	-1	-0.06603638	0.1779833	-39.749	0	11.63	4003	0	0	5	5	0.04253198	0.3873405	1	10	0.03	2000	-0.8602905	40.92393	-91.39363
238154	5	-1	0	-0.05965151	0.1798537	-39.74936	0	11.63	4002	0	0	5	5	0.04253198	0.3810005	1	10	0.03	2000	-0.8707581	40.92393	-91.39363
238250	6	3	1	-0.05145635	0.1856745	-39.749	0	11.68	4004	0	0	5	5	0.04253198	0.3832203	1	10	0.03	2000	-0.8742065	40.92393	-91.39363
238442	7	0	1	-0.04135408	0.1989025	-39.74985	0	11.68	4003	0	0	5	5	0.04253198	0.373805	1	10	0.03	2000	-0.646698	40.92393	-91.39363
238518	1	7	0	-0.04122125	0.1942238	-39.74857	0	11.68	4004	0	0	5	5	0.04253198	0.370159	1	10	0.03	2000	-0.6592712	40.92393	-91.39363
238612	-3	0	1	-0.04381181	0.1890119	-39.74833	0	11.68	4002	0	0	5	5	0.04253198	0.3617811	1	10	0.03	2000	-0.6551819	40.92393	-91.39363
238780	7	0	1	-0.04817509	0.189596	-39.74967	0	11.68	4003	0	0	5	5	0.04253198	0.3539044	1	10	0.03	2000	-0.8917847	40.92393	-91.39363
238826	1	4	-3	-0.05024773	0.1875264	-39.74961	0	11.68	4002	0	0	5	5	0.04253198	0.3513486	1	10	0.03	2000	-0.8871155	40.92393	-91.39363
238973	5	-4	0	-0.04858034	0.1871122	-39.74991	0	11.68	4004	0	0	5	5	0.04253198	0.3387612	1	10	0.03	2000	-0.8876648	40.92393	-91.39363
239117	2	-1	0	-0.04728101	0.1850548	-39.75333	0	11.68	4002	0	0	5	5	0.04253198	0.3329781	1	10	0.03	2000	-0.8904114	40.92393	-91.39363
239188	-5	2	-2	-0.04664741	0.1862425	-39.75248	0	11.68	4002	0	0	5	5	0.04253198	0.3376498	1	10	0.03	2000	-0.6508484	40.92393	-91.39363
239246	5	-4	3	-0.04585436	0.1904222	-39.7537	0	11.68	4003	0	0	5	5	0.04253198	0.3400328	1	10	0.03	2000	-0.8917847	40.92393	-91.39363
239354	8	-2	-2	-0.05206385	0.1872945	-39.75254	0	11.68	4003	0	0	5	5	0.04253198	0.3423452	1	10	0.03	2000	-0.8915405	40.92393	-91.39363
239471	4	0	6	-0.0557925	0.1859004	-39.75467	0	11.68	4004	0	0	5	5	0.04253198	0.3413554	1	10	0.03	2000	-0.8771667	40.92393	-91.39363
239588	-1	4	1	-0.05617772	0.1834967	-39.75705	0	11.68	4002	0	0	5	5	0.04253198	0.3435453	1	10	0.03	2000	-0.8846436	40.92393	-91.39363
239659	5	2	-1	-0.05863533	0.1871052	-39.75693	0	11.68	4003	0	0	5	5	0.04253198	0.3398922	1	10	0.03	2000	-0.8662415	40.92393	-91.39363
239776	2	0	3	-0.06144881	0.1851656	-39.75907	0	11.68	4003	0	0	5	5	0.04253198	0.3335797	1	10	0.03	2000	-0.8627319	40.92393	-91.39363
239809	2	-2	1	-0.06146888	0.1847037	-39.75901	0	11.68	4003	0	0	5	5	0.04253198	0.3315973	1	10	0.03	2000	-0.8627319	40.92393	-91.39363
239883	0	5	-3	-0.05833977	0.1834609	-39.75888	0	11.68	4004	0	0	5	5	0.04253198	0.3245786	1	10	0.03	2000	-0.869751	40.92393	-91.39363
240006	-1	-1	1	-0.05876232	0.1815146	-39.76261	0	11.68	4003	0	0	5	5	0.04253198	0.312663	1	10	0.03	2000	-0.8713074	40.92393	-91.39363
240176	5	2	0	-0.05746222	0.1790588	-39.76572	0	11.68	4004	0	0	5	5	0.04253198	0.3033279	1	10	0.03	2000	-0.8688965	40.92393	-91.39363
240206	1	5	5	-0.05728106	0.1820975	-39.76676	0	11.68	4003	0	0	5	5	0.04253198	0.3034318	1	10	0.03	2000	-0.8696594	40.92393	-91.39363
240287	3	-2	3	-0.0591132	0.1882866	-39.76944	0	11.68	4002	0	0	5	5	0.04253198	0.3054801	1	10	0.03	2000	-0.8676147	40.92393	-91.39363
240434	9	0	2	-0.05923878	0.1899251	-39.76975	0	11.68	4003	0	0	5	5	0.04253198	0.300323	1	10	0.03	2000	-0.8676758	40.92393	-91.39363
240561	0	-2	4	-0.05698356	0.1844797	-39.76987	0	11.68	4004	0	0	5	5	0.04253198	0.2935248	1	10	0.03	2000	-0.8781128	40.92393	-91.39363
240709	3	0	2	-0.0561339	0.1855909	-39.77158	0	11.68	4003	0	0	5	5	0.04253198	0.2880633	1	10	0.03	2000	-0.6321411	40.92393	-91.39363
240862	-3	-1	2	-0.05361504	0.1893859	-39.77506	0	11.68	4004	0	0	5	5	0.04253198	0.2880204	1	10	0.03	2000	-0.8729248	40.92393	-91.39363
240907	0	0	0	-0.05626113	0.188456	-39.77707	0	11.63	4003	0	0	5	5	0.04253198	0.2913374	1	10	0.03	2000	-0.8825684	40.92393	-91.39363
241024	-2	-5	0	-0.05558211	0.186278	-39.7764	0	11.63	4003	0	0	5	5	0.04253198	0.2933138	1	10	0.03	2000	-0.8779602	40.92393	-91.39363
241137	4	5	0	-0.05085874	0.1882858	-39.77689	0	11.63	4002	0	0	5	5	0.04253198	0.2971576	1	10	0.03	2000	-0.8808289	40.92393	-91.39363
241233	-1	0	-2	-0.05437944	0.1903687	-39.77811	0	11.63	4003	0	0	5	5	0.04253198	0.2965953	1	10	0.03	2000	-0.8808289	40.92393	-91.39363
241270	2	-3	-1	-0.04925055	0.1903065	-39.7775	0	11.63	4003	0	0	5	5	0.04253198	0.2984768	1	10	0.03	2000	-0.8781433	40.92393	-91.39363
241455	4	3	3	-0.04163388	0.1892636	-39.77915	0	11.63	4003	0	0	5	5	0.04253198	0.3047949	1	10	0.03	2000	-0.8964539	40.92393	-91.39363
241528	8	3	2	-0.04223242	0.1883881	-39.77994	0	11.63	4004	0	0	5	5	0.04253198	0.3040761	1	10	0.03	2000	-0.9023132	40.92393	-91.39363
241584	3	1	1	-0.04376086	0.1866377	-39.78159	0	11.63	4003	0	0	5	5	0.04253198	0.3017713	1	10	0.03	2000	-0.8948364	40.92393	-91.39363
241696	0	2	0	-0.0376748	0.1827267	-39.78147	0	11.63	4003	0	0	5	5	0.04253198	0.302991	1	10	0.03	2000	-0.6652222	40.92393	-91.39363
241799	0	5	2	-0.0372929	0.183994	-39.7844	0	11.68	4002	0	0	5	5	0.04253198	0.2995206	1	10	0.03	2000	-0.9080505	40.92393	-91.39363
241855	11	2	0	-0.03555966	0.1822068	-39.78537	0	11.68	4003	0	0	5	5	0.04253198	0.2998931	1	10	0.03	2000	-0.9074097	40.92393	-91.39363
242079	1	5	4	-0.02378523	0.1806089	-39.78946	0	11.68	4003	0	0	5	5	0.04253198	0.3021673	1	10	0.03	2000	-0.9224548	40.92393	-91.39363
242234	7	0	-2	-0.02058892	0.1755382	-39.78812	0	11.68	4002	0	0	5	5	0.04253198	0.3007842	1	10	0.03	2000	-0.9327087	40.92393	-91.39363
242318	7	-1	2	-0.01979497	0.1706719	-39.78965	0	11.68	4004	0	0	5	5	0.04253198	0.3067277	1	10	0.03	2000	-0.9351196	40.92393	-91.39363
242358	6	-3	6	-0.01997568	0.1754085	-39.79062	0	11.68	4003	0	0	5	5	0.04253198	0.3091875	1	10	0.03	2000	-0.693634	40.92393	-91.39363
242437	-1	7	-4	-0.01989841	0.1744365	-39.79081	0	11.68	4003	0	0	5	5	0.04253198	0.3155473	1	10	0.03	2000	-0.693634	40.92393	-91.39363
242591	2	2	1	-0.01735531	0.1731764	-39.79517	0	11.68	4002	0	0	5	5	0.04253198	0.3243936	1	10	0.03	2000	-0.9317017	40.92393	-91.39363
242800	6	-1	2	-0.01339819	0.1794174	-39.79371	0	11.68	4002	0	0	5	5	0.04253198	0.3157617	1	10	0.03	2000	-0.9467163	40.92393	-91.39363
242891	7	0	0	-0.009792447	0.1808103	-39.79438	0	11.68	4003	0	0	5	5	0.04253198	0.3044921	1	10	0.03	2000	-0.9467163	40.92393	-91.39363
242966	12	-1	0	-0.004597606	0.1742167	-39.79412	0	11.68	4003	0	0	5	5	0.04253198	0.2998578	1	10	0.03	2000	-0.7190552	40.92393	-91.39363
243082	7	-4	-1	-0.001001779	0.1700265	-39.79131	0	11.68	4004	0	0	5	5	0.04253198	0.2820428	1	10	0.03	2000	-0.9578552	40.92393	-91.39363
243095	7	-4	-1	-0.001001779	0.1700265	-39.79131	0	11.68	4004	0	0	5	5	0.04253198	0.2808221	1	10	0.03	2000	-0.9578552	40.92393	-91.39363
243311	2	0	-2	0.008919837	0.1684145	-39.78857	0	11.68	4004	0	0	5	5	0.04253198	0.2701927	1	10	0.03	2000	-0.9819336	40.92393	-91.39363
243433	6	0	2	0.01176028	0.1680029	-39.78545	0	11.68	4004	0	0	5	5	0.04253198	0.2658925	1	10	0.03	2000	-0.9936218	40.92393	-91.39363
243495	14	1	0	0.01609134	0.1693458	-39.78551	0	11.68	4004	0	0	5	5	0.04253198	0.2627713	1	10	0.03	2000	-0.9859314	40.92393	-91.39363
243623	17	0	-3	0.0250467	0.1711086	-39.78588	0	11.68	4002	0	0	5	5	0.04253198	0.261876	1	10	0.03	2000	-1.001068	40.92393	-91.39363
243678	14	4	-4	0.02532887	0.1654809	-39.78527	0	11.68	4002	0	0	5	5	0.04253198	0.2642555	1	10	0.03	2000	-1.018219	40.92393	-91.39363
243772	9	3	-1	0.02938137	0.165471	-39.78374	0	11.68	4003	0	0	5	5	0.04253198	0.2581447	1	10	0.03	2000	-0.7710876	40.92393	-91.39363
243875	10	-2	0	0.03832842	0.1661737	-39.78271	0	11.68	4003	0	0	5	5	0.04253198	0.2506332	1	10	0.03	2000	-1.269318	40.92393	-91.39363
243978	7	6	5	0.04171442	0.1686552	-39.78252	0	11.68	4003	0	0	5	5	0.04253198	0.2451057	1	10	0.03	2000	-1.035034	40.92393	-91.39363
244092	11	-7	-2	0.04547983	0.1755647	-39.78326	0	11.68	4003	0	0	5	5	0.04253198	0.249659	1	10	0.03	2000	-1.042114	40.92393	-91.39363
244197	10	-3	1	0.04311709	0.1758797	-39.78313	0	11.68	4003	0	0	5	5	0.04253198	0.2497641	1	10	0.03	2000	-1.052826	40.92393	-91.39363
244341	8	6	0	0.04493047	0.1709809	-39.77978	0	11.68	4004	0	0	5	5	0.04253198	0.2518422	1	10	0.03	2000	-1.040436	40.92393	-91.39363
244392	5	2	-3	0.04413643	0.1702256	-39.78002	0	11.68	4004	0	0	5	5	0.04253198	0.2558584	1	10	0.03	2000	-1.048126	40.92393	-91.39363
244489	4	1	5	0.04233681	0.1765913	-39.77911	0	11.68	4003	0	0	5	5	0.04253198	0.257022	1	10	0.03	2000	-1.037689	40.92393	-91.39363
244591	9	0	-1	0.04097537	0.1744202	-39.77764	0	11.68	4004	0	0	5	5	0.04253198	0.2552064	1	10	0.03	2000	-0.7966309	40.92393	-91.39363
244751	6	2	-2	0.03417914	0.1717278	-39.77703	0	11.68	4003	0	0	5	5	0.04253198	0.2416314	1	10	0.03	2000	-1.033386	40.92393	-91.39363
244796	9	0	3	0.03771506	0.170298	-39.77734	0	11.68	4002	0	0	5	5	0.04253198	0.2407421	1	10	0.03	2000	-1.033386	40.92393	-91.39363
244918	5	0	-5	0.04578766	0.1712167	-39.77624	0	11.68	4002	0	0	5	5	0.04253198	0.2362789	1	10	0.03	2000	-1.045654	40.92393	-91.39363
244996	8	-1	0	0.04769748	0.1675155	-39.77624	0	11.68	4004	0	0	5	5	0.04253198	0.227177	1	10	0.03	2000	-1.050781	40.92393	-91.39363
245109	10	-1	0	0.05014765	0.171776	-39.77435	0	11.68	4003	0	0	5	5	0.04253198	0.2162514	1	10	0.03	2000	-1.05481	40.92393	-91.39363
245243	9	-1	0	0.05177275	0.1689663	-39.77374	0	11.68	4002	0	0	5	5	0.04253198	0.2120737	1	10	0.03	2000	-1.060638	40.92393	-91.39363
245296	9	0	1	0.0536238	0.170396	-39.77282	0	11.68	4004	0	0	5	5	0.04253198	0.2133052	1	10	0.03	2000	-1.053101	40.92393	-91.39363
245450	4	-3	-1	0.05143217	0.1683634	-39.76946	0	11.68	4003	0	0	5	5	0.04253198	0.2120033	1	10	0.03	2000	-0.8104553	40.92393	-91.39363
245491	12	0	3	0.05083282	0.168387	-39.77032	0	11.68	4004	0	0	5	5	0.04253198	0.2129343	1	10	0.03	2000	-1.054657	40.92393	-91.39363
245625	7	3	-1	0.04821515	0.1611898	-39.76745	0	11.68	4003	0	0	5	5	0.04253198	0.2376109	1	10	0.03	2000	-1.051727	40.92393	-91.39363
245703	5	0	-2	0.04530197	0.1608445	-39.76733	0	11.68	4003	0	0	5	5	0.04253198	0.2453251	1	10	0.03	2000	-1.045563	40.92393	-91.39363
245801	13	-7	0	0.04911315	0.1668276	-39.76623	0	11.68	4002	0	0	5	5	0.04253198	0.2506227	1	10	0.03	2000	-1.052765	40.92393	-91.39363
245921	19	0	1	0.05221508	0.1689285	-39.76708	0	11.68	4003	0	0	5	5	0.04253198	0.2692467	1	10	0.03	2000	-1.054169	40.92393	-91.39363
246017	9	0	0	0.05201645	0.1622786	-39.76714	0	11.68	4004	0	0	5	5	0.04253198	0.2695209	3	10	0.03	2000	-1.057312	40.92393	-91.39363
246098	15	0	-2	0.05270296	0.1626764	-39.76415	0	11.68	4002	0	0	5	5	0.04253198	0.2656789	3	10	0.03	2000	-1.050995	40.92393	-91.39363
246190	6	7	1	0.05835278	0.1602037	-39.76379	0	11.68	4004	0	0	5	5	0.04253198	0.2576943	3	10	0.03	2000	-1.066559	40.92393	-91.39363
246339	9	-2	-3	0.05095411	0.1575412	-39.76293	0	11.68	4002	0	0	5	5	0.04253198	0.2527165	3	10	0.03	2000	-1.065308	40.92393	-91.39363
246387	6	4	-3	0.05432925	0.152031	-39.7633	0	11.68	4002	0	0	5	5	0.04253198	0.252569	3	10	0.03	2000	-1.060883	40.92393	-91.39363
246534	15	0	-2	0.06769481	0.155375	-39.76263	0	11.68	4003	0	0	5	5	0.04253198	0.2593485	3	10	0.03	2000	-1.081238	40.92393	-91.39363
246634	13	-5	-2	0.06567296	0.1525193	-39.76208	0	11.68	4003	0	0	5	5	0.04253198	0.2657429	3	10	0.03	2000	-0.8359985	40.92393	-91.39363
246692	14	1	0	0.06709567	0.1522486	-39.76159	0	11.68	4003	0	0	5	5	0.04253198	0.278324	3	10	0.03	2000	-1.081207	40.92393	-91.39363
246822	10	-1	1	0.0667707	0.1510013	-39.76348	0	11.68	4003	0	0	5	5	0.04253198	0.285029	3	10	0.03	2000	-1.081268	40.92393	-91.39363
246893	14	3	0	0.07512934	0.1528832	-39.76324	0	11.68	4002	0	0	5	5	0.04253198	0.2885332	3	10	0.03	2000	-1.089813	40.92393	-91.39363
246996	7	1	-4	0.07479695	0.1558042	-39.76165	0	11.68	4002	0	0	5	5	0.04253198	0.2938453	3	10	0.03	2000	-1.104279	40.92393	-91.39363
247158	9	-1	2	0.06885996	0.1551595	-39.75988	0	11.68	4002	0	0	5	5	0.04253198	0.3001496	3	10	0.03	2000	-1.092133	40.92393	-91.39363
247219	14	-4	0	0.06738564	0.1565586	-39.7611	0	11.68	4002	0	0	5	5	0.04253198	0.3038965	3	10	0.03	2000	-1.089844	40.92393	-91.39363
247369	15	3	-5	0.07302118	0.1547056	-39.75933	0	11.63	4003	0	0	5	5	0.04253198	0.3152888	3	10	0.03	2000	-1.07962	40.92393	-91.39363
247482	14	-2	-7	0.08196139	0.1521873	-39.75799	0	11.63	4004	0	0	5	5	0.04253198	0.3194335	3	10	0.03	2000	-1.109039	40.92393	-91.39363
247579	12	0	0	0.08578338	0.1422449	-39.75323	0	11.63	4002	0	0	5	5	0.04253198	0.3128746	3	10	0.03	2000	-0.8703918	40.92393	-91.39363
247717	12	5	-3	0.09806454	0.1476712	-39.7539	0	11.63	4002	0	0	5	5	0.04253198	0.2952976	3	10	0.03	2000	-1.132965	40.92393	-91.39363
247851	7	6	-2	0.1025604	0.1510996	-39.75359	0	11.63	4003	0	0	5	5	0.04253198	0.2925042	3	10	0.03	2000	-1.13266	40.92393	-91.39363
247936	13	2	-1	0.1072986	0.1507256	-39.74993	0	11.63	4002	0	0	5	5	0.04253198	0.2896414	3	10	0.03	2000	-1.147949	40.92393	-91.39363
248005	14	3	-3	0.1102286	0.1503486	-39.74932	0	11.63	4003	0	0	5	5	0.04253198	0.2868911	3	10	0.03	2000	-1.156097	40.92393	-91.39363
248151	25	-2	-3	0.1170836	0.1556496	-39.74731	0	11.63	4002	0	0	5	5	0.04253198	0.2799272	3	10	0.03	2000	-0.9134521	40.92393	-91.39363
248286	12	3	0	0.1180419	0.1481155	-39.74334	0	11.63	4003	0	0	5	5	0.04253198	0.2829472	3	10	0.03	2000	-1.16864	40.92393	-91.39363
248354	19	0	0	0.117854	0.1520696	-39.7431	0	11.63	4003	0	0	5	5	0.04253198	0.2906965	3	10	0.03	2000	-1.174438	40.92393	-91.39363
248400	13	5	0	0.1164705	0.1533257	-39.74322	0	11.63	4003	0	0	5	5	0.04253198	0.2931416	3	10	0.03	2000	-0.927124	40.92393	-91.39363
248472	20	0	-2	0.1191058	0.1520794	-39.74114	0	11.63	4002	0	0	5	5	0.04253198	0.3041298	3	10	0.03	2000	-0.9224854	40.92393	-91.39363
248575	11	-1	-1	0.1165425	0.1561656	-39.73693	0	11.63	4003	0	0	5	5	0.04253198	0.307221	3	10	0.03	2000	-0.9335022	40.92393	-91.39363
248715	18	-3	-6	0.1100006	0.1559934	-39.73272	0	11.63	4004	0	0	5	5	0.04253198	0.3120417	3	10	0.03	2000	-1.160919	40.92393	-91.39363
248779	23	-4	-1	0.1130859	0.1544198	-39.73101	0	11.63	4004	0	0	5	5	0.04253198	0.3165135	3	10	0.03	2000	-1.157074	40.92393	-91.39363
248893	18	2	-6	0.1232138	0.1570019	-39.72887	0	11.63	4003	0	0	5	5	0.04253198	0.3238644	3	10	0.03	2000	-1.17041	40.92393	-91.39363
249004	23	0	0	0.1337923	0.1532957	-39.72558	0	11.63	4003	0	0	5	5	0.04253198	0.3333395	3	10	0.03	2000	-1.198914	40.92393	-91.39363
249153	15	-1	0	0.1335494	0.1486397	-39.72271	0	11.63	4004	0	0	5	5	0.04253198	0.33077	3	10	0.03	2000	-1.194977	40.92393	-91.39363
249207	20	0	0	0.1359997	0.1511194	-39.7221	0	11.63	4003	0	0	5	5	0.04253198	0.329529	3	10	0.03	2000	-1.190399	40.92393	-91.39363
249359	16	0	-1	0.1337223	0.1537573	-39.71911	0	11.63	4003	0	0	5	5	0.04253198	0.3284814	3	10	0.03	2000	-1.186951	40.92393	-91.39363
249412	14	2	0	0.13372	0.1534955	-39.71911	0	11.63	4004	0	0	5	5	0.04253198	0.3311326	3	10	0.03	2000	-1.186951	40.92393	-91.39363
249469	13	1	0	0.132155	0.1552701	-39.71606	0	11.63	4004	0	0	5	5	0.04253198	0.3311699	3	10	0.03	2000	-1.185699	40.92393	-91.39363
249568	20	-4	-6	0.1319261	0.1521017	-39.71416	0	11.63	4003	0	0	5	5	0.04253198	0.3326615	3	10	0.03	2000	-1.1922	40.92393	-91.39363
