time(ms)	gyro_x(deg/s)	gyro_y(deg/s)	gyro_z(deg/s)	orientation_roll(deg)	orientation_pitch(deg)	orientation_yaw(deg)	throttle	battery(V)	loop_time(uS)	pid_output_roll	pid_output_pitch	pid_output_yaw	pid_output_throttle	ultrasonic_alt	baro_alt	flight_mode	p_gain_altitude	i_gain_altitude	d_gain_altitude	compass_heading	latitude	longitude
435668	-65	3	11	-0.846341	0.1630266	-34.90167	0	11.11	4004	0	0	5	5	0.02641101	-0.3913716	1	10	0.03	2000	2.915001	40.92392	-91.39363
435762	-70	1	12	-0.8417989	0.1646115	-34.91498	0	11.11	4003	0	0	5	5	0.02641101	-0.3949507	1	10	0.03	2000	2.918561	40.92392	-91.39363
435803	-67	3	11	-0.8427598	0.163639	-34.92054	0	11.11	4003	0	0	5	5	0.02641101	-0.3957984	1	10	0.03	2000	2.903315	40.92392	-91.39363
436035	-64	0	9	-0.8390557	0.1564298	-34.95191	0	11.11	4003	0	0	5	5	0.02641101	-0.3818552	1	10	0.03	2000	2.929322	40.92392	-91.39363
436210	-62	0	8	-0.8209822	0.1599361	-34.98182	0	11.11	4003	0	0	5	5	0.02641101	-0.3806075	1	10	0.03	2000	2.901831	40.92392	-91.39363
436305	-55	0	6	-0.8185895	0.1614632	-34.99787	0	11.11	4002	0	0	5	5	0.02641101	-0.3763888	1	10	0.03	2000	2.876793	40.92392	-91.39363
436396	-60	3	12	-0.8125438	0.1625726	-35.01142	0	11.11	4003	0	0	5	5	0.02641101	-0.3712981	1	10	0.03	2000	2.866617	40.92392	-91.39363
436488	-61	11	8	-0.8200604	0.1583228	-35.02406	0	11.11	4004	0	0	5	5	0.02641101	-0.3632855	1	10	0.03	2000	3.088948	40.92392	-91.39363
436557	-67	0	5	-0.8183678	0.1589421	-35.02796	0	11.11	4004	0	0	5	5	0.02641101	-0.3554844	1	10	0.03	2000	3.088948	40.92392	-91.39363
436672	-62	6	11	-0.8113983	0.1609809	-35.04884	0	11.11	4003	0	0	5	5	0.02641101	-0.3488046	1	10	0.03	2000	3.107474	40.92392	-91.39363
436749	-63	10	11	-0.8113238	0.159474	-35.06184	0	11.11	4003	0	0	5	5	0.02641101	-0.3485471	1	10	0.03	2000	2.87294	40.92392	-91.39363
436833	-60	7	5	-0.8128036	0.1591561	-35.06977	0	11.11	4003	0	0	5	5	0.02641101	-0.3463	1	10	0.03	2000	2.864562	40.92392	-91.39363
436943	-64	3	4	-0.8136371	0.1579063	-35.08118	0	11.11	4002	0	0	5	5	0.02641101	-0.3428396	1	10	0.03	2000	2.864724	40.92392	-91.39363
437120	-65	0	10	-0.8104687	0.1504104	-35.11012	0	11.11	4003	0	0	5	5	0.02641101	-0.3574596	1	10	0.03	2000	3.102778	40.92392	-91.39363
437248	-61	-4	7	-0.7970196	0.1525743	-35.12684	0	11.11	4003	0	0	5	5	0.02641101	-0.3728054	1	10	0.03	2000	2.842951	40.92392	-91.39363
437418	-66	0	3	-0.7917872	0.1425936	-35.1457	0	11.11	4004	0	0	5	5	0.02641101	-0.3915575	1	10	0.03	2000	2.832193	40.92392	-91.39363
437496	-62	2	5	-0.7951092	0.1435492	-35.15284	0	11.11	4003	0	0	5	5	0.02641101	-0.3997829	1	10	0.03	2000	2.827689	40.92392	-91.39363
437643	-63	2	8	-0.7910262	0.1381613	-35.17439	0	11.11	4003	0	0	5	5	0.02641101	-0.4160396	1	10	0.03	2000	2.828353	40.92392	-91.39363
437694	-65	6	2	-0.7930841	0.1315379	-35.1811	0	11.11	4002	0	0	5	5	0.02641101	-0.4235786	1	10	0.03	2000	2.827644	40.92392	-91.39363
437962	-61	-2	3	-0.7934036	0.1369874	-35.20692	0	11.11	4002	0	0	5	5	0.02641101	-0.438242	1	10	0.03	2000	2.843067	40.92392	-91.39363
438036	-60	5	11	-0.7894385	0.1448189	-35.21449	0	11.11	4003	0	0	5	5	0.02641101	-0.4364891	1	10	0.03	2000	2.843067	40.92392	-91.39363
438137	-62	0	7	-0.7830693	0.1477739	-35.22169	0	11.11	4004	0	0	5	5	0.02641101	-0.4326566	1	10	0.03	2000	2.834642	40.92392	-91.39363
438216	-65	0	1	-0.7792096	0.1465195	-35.23817	0	11.11	4003	0	0	5	5	0.02641101	-0.4181652	1	10	0.03	2000	2.818724	40.92392	-91.39363
438333	-68	0	11	-0.7718331	0.1432672	-35.25434	0	11.11	4004	0	0	5	5	0.02641101	-0.4058342	1	10	0.03	2000	2.791606	40.92392	-91.39363
438409	-67	0	4	-0.7671224	0.1486841	-35.26252	0	11.11	4003	0	0	5	5	0.02641101	-0.3978606	1	10	0.03	2000	2.784261	40.92392	-91.39363
438544	-58	1	1	-0.7567867	0.1488097	-35.27631	0	11.11	4004	0	0	5	5	0.02641101	-0.3897976	1	10	0.03	2000	2.78369	40.92392	-91.39363
438627	-60	-1	6	-0.7553267	0.1406814	-35.29084	0	11.11	4004	0	0	5	5	0.02641101	-0.3831775	1	10	0.03	2000	2.76672	40.92392	-91.39363
438721	-60	-3	11	-0.756232	0.1439451	-35.2981	0	11.11	4003	0	0	5	5	0.02641101	-0.3723262	1	10	0.03	2000	2.770533	40.92392	-91.39363
438904	-67	0	8	-0.7496161	0.1427813	-35.31647	0	11.11	4003	0	0	5	5	0.02641101	-0.3627205	1	10	0.03	2000	2.776173	40.92392	-91.39363
438941	-61	0	11	-0.7538735	0.1442435	-35.32276	0	11.11	4003	0	0	5	5	0.02641101	-0.3618567	1	10	0.03	2000	2.767539	40.92392	-91.39363
439030	-69	-1	12	-0.7540089	0.146852	-35.33339	0	11.11	4004	0	0	5	5	0.02641101	-0.3638216	1	10	0.03	2000	2.772186	40.92392	-91.39363
439140	-61	6	5	-0.7554457	0.1459953	-35.34791	0	11.11	4003	0	0	5	5	0.02641101	-0.3713988	1	10	0.03	2000	2.772003	40.92392	-91.39363
439248	-63	1	7	-0.7494425	0.1426674	-35.35615	0	11.11	4002	0	0	5	5	0.02641101	-0.3793316	1	10	0.03	2000	2.760292	40.92392	-91.39363
439330	-54	-4	7	-0.7445227	0.1436488	-35.36781	0	11.11	4004	0	0	5	5	0.02641101	-0.3816424	1	10	0.03	2000	2.778704	40.92392	-91.39363
439487	-53	5	8	-0.7370491	0.141212	-35.38484	0	11.11	4002	0	0	5	5	0.02641101	-0.394107	1	10	0.03	2000	2.751828	40.92393	-91.39363
439575	-58	-1	4	-0.7327382	0.1493887	-35.39766	0	11.11	4002	0	0	5	5	0.02641101	-0.3965428	1	10	0.03	2000	2.741376	40.92393	-91.39363
439718	-61	-2	4	-0.731346	0.1445315	-35.41695	0	11.11	4004	0	0	5	5	0.02641101	-0.4063226	1	10	0.03	2000	2.739831	40.92393	-91.39363
439780	-50	-4	6	-0.7300526	0.144407	-35.42146	0	11.11	4004	0	0	5	5	0.02641101	-0.411905	1	10	0.03	2000	2.739831	40.92393	-91.39363
439870	-58	-3	4	-0.7187657	0.1457863	-35.43758	0	11.11	4004	0	0	5	5	0.02641101	-0.4219517	1	10	0.03	2000	2.726756	40.92393	-91.39363
439940	-58	0	6	-0.7190027	0.1488353	-35.44466	0	11.06	4003	0	0	5	5	0.02641101	-0.4350251	1	10	0.03	2000	2.712303	40.92393	-91.39363
440086	-60	1	0	-0.7180757	0.146697	-35.45528	0	11.06	4003	0	0	5	5	0.02641101	-0.4567493	1	10	0.03	2000	2.711199	40.92393	-91.39363
440200	-57	6	9	-0.7134218	0.1448185	-35.47255	0	11.06	4003	0	0	5	5	0.02641101	-0.4610883	1	10	0.03	2000	2.941181	40.92393	-91.39363
440298	-54	3	9	-0.7103727	0.1432952	-35.48476	0	11.06	4004	0	0	5	5	0.02641101	-0.4603873	1	10	0.03	2000	2.71994	40.92393	-91.39363
440349	-48	1	9	-0.7060454	0.1462536	-35.49348	0	11.06	4003	0	0	5	5	0.02641101	-0.4609172	1	10	0.03	2000	2.929358	40.92393	-91.39363
440490	-48	5	4	-0.6995704	0.151797	-35.51051	0	11.06	4003	0	0	5	5	0.02641101	-0.4561813	1	10	0.03	2000	2.684812	40.92393	-91.39363
440548	-59	5	9	-0.6985252	0.1510826	-35.51436	0	11.06	4003	0	0	5	5	0.02641101	-0.4545482	1	10	0.03	2000	2.684812	40.92393	-91.39363
440727	-52	3	7	-0.6881347	0.1485031	-35.53725	0	11.06	4004	0	0	5	5	0.02641101	-0.4507516	1	10	0.03	2000	2.672856	40.92393	-91.39363
440835	-54	2	10	-0.6872299	0.1516535	-35.55013	0	11.06	4003	0	0	5	5	0.02641101	-0.4443558	1	10	0.03	2000	2.681211	40.92393	-91.39363
440890	-54	0	5	-0.6866311	0.153337	-35.55824	0	11.11	4003	0	0	5	5	0.02641101	-0.4392742	1	10	0.03	2000	2.890934	40.92393	-91.39363
441005	-49	-3	11	-0.6843138	0.1623817	-35.56996	0	11.11	4004	0	0	5	5	0.02641101	-0.4327673	1	10	0.03	2000	2.88921	40.92393	-91.39363
441064	-60	1	8	-0.6804157	0.1606402	-35.57704	0	11.11	4003	0	0	5	5	0.02641101	-0.4303876	1	10	0.03	2000	2.673548	40.92393	-91.39363
441185	-46	0	3	-0.6779937	0.1578246	-35.59285	0	11.11	4003	0	0	5	5	0.02641101	-0.4315073	1	10	0.03	2000	2.660333	40.92393	-91.39363
441252	-50	-4	5	-0.6777542	0.161988	-35.59645	0	11.11	4002	0	0	5	5	0.02641101	-0.4321707	1	10	0.03	2000	2.872772	40.92393	-91.39363
441495	-52	2	6	-0.6702008	0.1664405	-35.61928	0	11.11	4004	0	0	5	5	0.02641101	-0.4234493	1	10	0.03	2000	2.641018	40.92393	-91.39363
441670	-52	4	3	-0.6674204	0.1650456	-35.63948	0	11.11	4004	0	0	5	5	0.02641101	-0.4098711	1	10	0.03	2000	2.86891	40.92393	-91.39363
441807	-47	0	10	-0.6604331	0.1669333	-35.64992	0	11.11	4002	0	0	5	5	0.02641101	-0.391201	1	10	0.03	2000	2.630102	40.92393	-91.39363
441876	-55	-4	7	-0.6593825	0.1656993	-35.66133	0	11.11	4003	0	0	5	5	0.02641101	-0.3870937	1	10	0.03	2000	2.857723	40.92393	-91.39363
441972	-51	0	10	-0.65683	0.1624958	-35.6714	0	11.11	4004	0	0	5	5	0.02641101	-0.3838915	1	10	0.03	2000	2.619711	40.92393	-91.39363
442075	-50	0	6	-0.6575885	0.1619044	-35.67873	0	11.11	4002	0	0	5	5	0.02641101	-0.3835348	1	10	0.03	2000	2.840157	40.92393	-91.39363
442188	-43	4	11	-0.660339	0.158961	-35.69167	0	11.11	4003	0	0	5	5	0.02641101	-0.3776018	1	10	0.03	2000	2.639362	40.92393	-91.39363
442348	-47	3	7	-0.6581304	0.1570526	-35.71046	0	11.11	4002	0	0	5	5	0.02641101	-0.3760163	1	10	0.03	2000	2.625559	40.92393	-91.39363
442415	-52	2	5	-0.658932	0.163022	-35.71669	0	11.11	4002	0	0	5	5	0.02641101	-0.3793642	1	10	0.03	2000	2.625415	40.92393	-91.39363
442501	-46	-2	0	-0.6647224	0.1578209	-35.72182	0	11.11	4004	0	0	5	5	0.02641101	-0.3830692	1	10	0.03	2000	2.625415	40.92393	-91.39363
442606	-54	5	1	-0.6551433	0.1515623	-35.73494	0	11.11	4003	0	0	5	5	0.02641101	-0.387219	1	10	0.03	2000	2.62388	40.92393	-91.39363
442730	-54	5	8	-0.64955	0.1530376	-35.75044	0	11.11	4003	0	0	5	5	0.02641101	-0.3968883	1	10	0.03	2000	2.611683	40.92393	-91.39363
442781	-52	6	8	-0.6483085	0.1522009	-35.75386	0	11.11	4004	0	0	5	5	0.02641101	-0.3990956	1	10	0.03	2000	2.60218	40.92393	-91.39363
442940	-51	1	7	-0.6536396	0.1508501	-35.7693	0	11.11	4004	0	0	5	5	0.02641101	-0.4083204	1	10	0.03	2000	2.623538	40.92393	-91.39363
443065	-53	2	0	-0.650201	0.1553812	-35.77711	0	11.11	4003	0	0	5	5	0.02641101	-0.4022574	1	10	0.03	2000	2.602969	40.92393	-91.39363
443090	-52	0	5	-0.6469438	0.1571199	-35.77992	0	11.11	4004	0	0	5	5	0.02641101	-0.4022574	1	10	0.03	2000	2.602969	40.92393	-91.39363
443233	-45	0	12	-0.6462723	0.1562022	-35.79701	0	11.11	4003	0	0	5	5	0.02641101	-0.3908577	1	10	0.03	2000	2.59953	40.92393	-91.39363
443311	-57	6	5	-0.6475903	0.152453	-35.80342	0	11.11	4007	0	0	5	5	0.02641101	-0.3840478	1	10	0.03	2000	2.606228	40.92393	-91.39363
443447	-44	1	6	-0.6466208	0.1541084	-35.81691	0	11.11	4002	0	0	5	5	0.02641101	-0.3675824	1	10	0.03	2000	2.608296	40.92393	-91.39363
443535	-48	7	5	-0.643375	0.1532876	-35.82478	0	11.11	4002	0	0	5	5	0.02641101	-0.3617909	1	10	0.03	2000	2.607074	40.92393	-91.39363
443655	-48	-1	10	-0.6415054	0.1516926	-35.83723	0	11.11	4002	0	0	5	5	0.02641101	-0.3560224	1	10	0.03	2000	2.597559	40.92393	-91.39363
443706	-51	0	4	-0.6390983	0.1533562	-35.84096	0	11.11	4003	0	0	5	5	0.02641101	-0.3556491	1	10	0.03	2000	2.82426	40.92393	-91.39363
443852	-38	1	7	-0.6294668	0.1520721	-35.85616	0	11.11	4002	0	0	5	5	0.02641101	-0.3562366	1	10	0.03	2000	2.57814	40.92393	-91.39363
443918	-58	-1	9	-0.6282221	0.1493483	-35.85939	0	11.11	4002	0	0	5	5	0.02641101	-0.3521887	1	10	0.03	2000	2.57814	40.92393	-91.39363
444022	-50	3	8	-0.6243275	0.1536406	-35.87123	0	11.11	4003	0	0	5	5	0.02641101	-0.3470987	1	10	0.03	2000	2.578452	40.92393	-91.39363
444158	-48	7	6	-0.6231986	0.1521908	-35.88753	0	11.11	4003	0	0	5	5	0.02641101	-0.340934	1	10	0.03	2000	2.580215	40.92393	-91.39363
444254	-60	0	4	-0.6282097	0.1487315	-35.89308	0	11.11	4004	0	0	5	5	0.02641101	-0.3501364	1	10	0.03	2000	2.570623	40.92393	-91.39363
444329	-57	-3	4	-0.6283501	0.148024	-35.90242	0	11.11	4004	0	0	5	5	0.02641101	-0.3582483	1	10	0.03	2000	2.590542	40.92393	-91.39363
444459	-43	0	7	-0.6257808	0.1480354	-35.91402	0	11.11	4002	0	0	5	5	0.02641101	-0.3583445	1	10	0.03	2000	2.565209	40.92393	-91.39363
444477	-45	0	4	-0.6251844	0.1451506	-35.92403	0	11.11	4002	0	0	5	5	0.02641101	-0.3579089	1	10	0.03	2000	2.564632	40.92393	-91.39363
444635	-52	0	6	-0.6294505	0.1411901	-35.94142	0	11.11	4004	0	0	5	5	0.02641101	-0.3504929	1	10	0.03	2000	2.579446	40.92393	-91.39363
444739	-47	-1	8	-0.6275202	0.1411816	-35.95149	0	11.11	4003	0	0	5	5	0.02641101	-0.3446618	1	10	0.03	2000	2.816834	40.92393	-91.39363
444857	-56	3	12	-0.6345763	0.1345592	-35.964	0	11.11	4003	0	0	5	5	0.02641101	-0.3374546	1	10	0.03	2000	2.577219	40.92393	-91.39363
444889	-46	4	9	-0.6322358	0.1346316	-35.96803	0	11.11	4004	0	0	5	5	0.02641101	-0.3362529	1	10	0.03	2000	2.589976	40.92393	-91.39363
444961	-45	1	3	-0.6313583	0.1406969	-35.97457	0	11.11	4003	0	0	5	5	0.02641101	-0.3364764	1	10	0.03	2000	2.589976	40.92393	-91.39363
445095	-47	0	6	-0.6194085	0.1440189	-35.98787	0	11.11	4003	0	0	5	5	0.02641101	-0.3389775	1	10	0.03	2000	2.559625	40.92393	-91.39363
445283	-44	0	5	-0.6150835	0.1463848	-36.00631	0	11.11	4002	0	0	5	5	0.02641101	-0.3418235	1	10	0.03	2000	2.558404	40.92393	-91.39363
445436	-45	5	10	-0.6075189	0.1443854	-36.02449	0	11.06	4004	0	0	5	5	0.02641101	-0.3523186	1	10	0.03	2000	2.55461	40.92393	-91.39363
445519	-47	2	8	-0.6085029	0.1496228	-36.03151	0	11.06	4004	0	0	5	5	0.02641101	-0.3502735	1	10	0.03	2000	2.545269	40.92393	-91.39363
445563	-47	2	6	-0.6060966	0.1482	-36.04262	0	11.06	4004	0	0	5	5	0.02641101	-0.3497575	1	10	0.03	2000	2.535633	40.92393	-91.39363
445742	-51	1	10	-0.6025594	0.1369411	-36.05581	0	11.06	4004	0	0	5	5	0.02641101	-0.3568473	1	10	0.03	2000	2.53565	40.92393	-91.39363
445802	-42	6	6	-0.602149	0.135493	-36.06484	0	11.06	4003	0	0	5	5	0.02641101	-0.3557586	1	10	0.03	2000	2.541927	40.92393	-91.39363
445864	-49	4	5	-0.5999373	0.1339858	-36.06826	0	11.06	4003	0	0	5	5	0.02641101	-0.352382	1	10	0.03	2000	2.541927	40.92393	-91.39363
445995	-47	0	14	-0.601793	0.1380711	-36.0837	0	11.06	4003	0	0	5	5	0.02641101	-0.345866	1	10	0.03	2000	2.75017	40.92393	-91.39363
446063	-40	5	7	-0.6020213	0.139795	-36.0945	0	11.06	4002	0	0	5	5	0.02641101	-0.3423433	1	10	0.03	2000	2.531375	40.92393	-91.39363
446182	-45	3	7	-0.6002869	0.1393723	-36.09768	0	11.06	4002	0	0	5	5	0.02641101	-0.3380755	1	10	0.03	2000	2.531375	40.92393	-91.39363
446302	-48	3	3	-0.6065778	0.144448	-36.11377	0	11.06	4003	0	0	5	5	0.02641101	-0.3257323	1	10	0.03	2000	2.535996	40.92394	-91.39363
446369	-48	5	5	-0.6043485	0.1435913	-36.11578	0	11.11	4003	0	0	5	5	0.02641101	-0.3143979	1	10	0.03	2000	2.545105	40.92394	-91.39363
446524	-47	3	7	-0.610047	0.1453224	-36.12801	0	11.11	4009	0	0	5	5	0.02641101	-0.2877631	1	10	0.03	2000	2.526546	40.92394	-91.39363
446621	-47	1	4	-0.596003	0.144332	-36.14009	0	11.11	4003	0	0	5	5	0.02641101	-0.2713831	1	10	0.03	2000	2.515009	40.92394	-91.39363
446791	-44	6	7	-0.59175	0.1452213	-36.15071	0	11.11	4003	0	0	5	5	0.02641101	-0.2510461	1	10	0.03	2000	2.51287	40.92394	-91.39363
446905	-45	6	6	-0.586615	0.1523491	-36.16261	0	11.11	4004	0	0	5	5	0.02641101	-0.2367414	1	10	0.03	2000	2.521393	40.92394	-91.39363
446986	-52	-1	5	-0.5882602	0.1509629	-36.16841	0	11.11	4004	0	0	5	5	0.02641101	-0.2367297	1	10	0.03	2000	2.519158	40.92394	-91.39363
447067	-39	1	2	-0.5713596	0.1419702	-36.18092	0	11.11	4003	0	0	5	5	0.02641101	-0.2389463	1	10	0.03	2000	2.492758	40.92394	-91.39363
447086	-43	7	7	-0.5716226	0.1439138	-36.20332	0	11.11	4004	0	0	5	5	0.02641101	-0.2428063	1	10	0.03	2000	2.491488	40.92394	-91.39363
447106	-51	0	5	-0.5649415	0.1416973	-36.21242	0	11.11	4003	0	0	5	5	0.02641101	-0.2532835	1	10	0.03	2000	2.699781	40.92394	-91.39363
447123	-43	-4	4	-0.5599605	0.1478348	-36.22389	0	11.11	4002	0	0	5	5	0.02641101	-0.2504979	1	10	0.03	2000	2.47442	40.92394	-91.39363
447142	-43	-4	1	-0.5610487	0.1445318	-36.23482	0	11.11	4004	0	0	5	5	0.02641101	-0.2401069	1	10	0.03	2000	2.699278	40.92394	-91.39363
447160	-47	2	4	-0.5618204	0.1431891	-36.24232	0	11.11	4004	0	0	5	5	0.02641101	-0.229885	1	10	0.03	2000	2.701906	40.92394	-91.39363
447185	-43	0	10	-0.5570988	0.15682	-36.26521	0	11.11	4003	0	0	5	5	0.02641101	-0.2062769	1	10	0.03	2000	2.469852	40.92394	-91.39363
447213	-50	0	10	-0.5533675	0.1546606	-36.27058	0	11.11	4003	0	0	5	5	0.02641101	-0.2035421	1	10	0.03	2000	2.469852	40.92394	-91.39363
447284	-43	1	1	-0.5510615	0.1527088	-36.28224	0	11.11	4002	0	0	5	5	0.02641101	-0.1963549	1	10	0.03	2000	2.671609	40.92394	-91.39363
447372	-37	-1	8	-0.5477625	0.1508168	-36.2986	0	11.06	4003	0	0	5	5	0.02641101	-0.1908799	1	10	0.03	2000	2.445908	40.92394	-91.39363
447444	-40	1	6	-0.539667	0.1485917	-36.30592	0	11.06	4004	0	0	5	5	0.02641101	-0.1852302	1	10	0.03	2000	2.678244	40.92394	-91.39363
447462	-45	1	6	-0.528853	0.1520963	-36.3268	0	11.06	4003	0	0	5	5	0.02641101	-0.1781951	1	10	0.03	2000	2.426501	40.92394	-91.39363
447537	-37	4	5	-0.5257326	0.1433264	-36.33778	0	11.06	4004	0	0	5	5	0.02641101	-0.1759205	1	10	0.03	2000	2.641687	40.92394	-91.39363
447611	-35	-2	5	-0.5269599	0.1404818	-36.34645	0	11.06	4002	0	0	5	5	0.02641101	-0.1763268	1	10	0.03	2000	2.412507	40.92394	-91.39363
447715	-44	0	7	-0.5227273	0.1379892	-36.35353	0	11.06	4003	0	0	5	5	0.02641101	-0.1831413	1	10	0.03	2000	2.419172	40.92394	-91.39363
447852	-46	8	5	-0.5253705	0.1367471	-36.37013	0	11.06	4003	0	0	5	5	0.02641101	-0.1952443	1	10	0.03	2000	2.412574	40.92394	-91.39363
447987	-48	9	5	-0.5213179	0.1303375	-36.38081	0	11.11	4002	0	0	5	5	0.02641101	-0.197868	1	10	0.03	2000	2.418846	40.92394	-91.39363
448061	-36	1	10	-0.5125118	0.1310131	-36.38985	0	11.11	4003	0	0	5	5	0.02641101	-0.1899565	1	10	0.03	2000	2.415435	40.92394	-91.39363
448192	-43	0	4	-0.5090712	0.1404859	-36.3987	0	11.11	4004	0	0	5	5	0.02641101	-0.1766331	1	10	0.03	2000	2.622169	40.92394	-91.39363
448274	-35	0	8	-0.5121478	0.1485326	-36.4095	0	11.11	4002	0	0	5	5	0.02641101	-0.1713514	1	10	0.03	2000	2.401967	40.92394	-91.39363
448322	-52	-3	7	-0.5125594	0.1466675	-36.41341	0	11.11	4002	0	0	5	5	0.02641101	-0.171134	1	10	0.03	2000	2.401967	40.92394	-91.39363
448456	-37	2	7	-0.5030968	0.1442828	-36.42677	0	11.11	4004	0	0	5	5	0.02641101	-0.167388	1	10	0.03	2000	2.393595	40.92394	-91.39363
448495	-43	4	8	-0.506494	0.1452223	-36.43391	0	11.11	4002	0	0	5	5	0.02641101	-0.1629978	1	10	0.03	2000	2.388957	40.92394	-91.39363
448638	-37	2	2	-0.5009391	0.1394608	-36.44911	0	11.11	4009	0	0	5	5	0.02641101	-0.160096	1	10	0.03	2000	2.383089	40.92394	-91.39363
448720	-34	9	4	-0.4991145	0.1408005	-36.45412	0	11.11	4002	0	0	5	5	0.02641101	-0.1614378	1	10	0.03	2000	2.388745	40.92394	-91.39363
448876	-43	0	9	-0.4979984	0.1394245	-36.47237	0	11.06	4003	0	0	5	5	0.02641101	-0.1667993	1	10	0.03	2000	2.373955	40.92394	-91.39363
449006	-39	-2	7	-0.4949149	0.1490205	-36.48262	0	11.06	4003	0	0	5	5	0.02641101	-0.1757731	1	10	0.03	2000	2.36164	40.92394	-91.39363
449087	-34	-1	9	-0.4930914	0.1482768	-36.48891	0	11.06	4004	0	0	5	5	0.02641101	-0.1826413	1	10	0.03	2000	2.368721	40.92394	-91.39363
449137	-38	0	1	-0.4813603	0.1467537	-36.4991	0	11.06	4004	0	0	5	5	0.02641101	-0.1906745	1	10	0.03	2000	2.359481	40.92394	-91.39363
449296	-45	-1	5	-0.4745372	0.1371948	-36.51082	0	11.06	4003	0	0	5	5	0.02641101	-0.2078553	1	10	0.03	2000	2.332531	40.92394	-91.39363
449349	-37	-1	6	-0.4736643	0.1344208	-36.5143	0	11.06	4004	0	0	5	5	0.02641101	-0.2130236	1	10	0.03	2000	2.332531	40.92394	-91.39363
449593	-41	3	4	-0.4736756	0.1307029	-36.53914	0	11.06	4002	0	0	5	5	0.02641101	-0.2258847	1	10	0.03	2000	2.568312	40.92394	-91.39363
449755	-34	-5	6	-0.4742587	0.1284773	-36.56026	0	11.06	4003	0	0	5	5	0.02641101	-0.2293404	1	10	0.03	2000	2.342225	40.92394	-91.39363
449851	-38	-1	4	-0.4689682	0.1251283	-36.5685	0	11.06	4003	0	0	5	5	0.02641101	-0.2276597	1	10	0.03	2000	2.328666	40.92394	-91.39363
449938	-33	5	8	-0.4660193	0.1247493	-36.57533	0	11.06	4002	0	0	5	5	0.02641101	-0.2294414	1	10	0.03	2000	2.321689	40.92394	-91.39363
450168	-37	0	10	-0.4522479	0.1206007	-36.59761	0	11.06	4003	0	0	5	5	0.02641101	-0.223809	1	10	0.03	2000	2.300883	40.92394	-91.39363
450286	-32	3	3	-0.4540629	0.1229625	-36.61079	0	11.06	4004	0	0	5	5	0.02641101	-0.2221082	1	10	0.03	2000	2.307957	40.92393	-91.39363
450342	-37	1	6	-0.4492566	0.1254821	-36.61354	0	11.06	4003	0	0	5	5	0.02641101	-0.2266514	1	10	0.03	2000	2.307957	40.92393	-91.39363
450546	-28	1	8	-0.4449254	0.1246412	-36.62959	0	11.06	4002	0	0	5	5	0.02641101	-0.237192	1	10	0.03	2000	2.298128	40.92393	-91.39363
450638	-33	-2	7	-0.4482107	0.1265597	-36.63771	0	11.11	4003	0	0	5	5	0.02641101	-0.239849	1	10	0.03	2000	2.298471	40.92393	-91.39363
450796	-30	7	6	-0.4368224	0.1306968	-36.65144	0	11.11	4004	0	0	5	5	0.02641101	-0.2495502	1	10	0.03	2000	2.278168	40.92393	-91.39363
450850	-43	7	0	-0.437108	0.1288878	-36.65242	0	11.11	4003	0	0	5	5	0.02641101	-0.2515131	1	10	0.03	2000	2.278168	40.92393	-91.39363
450947	-23	0	2	-0.429536	0.125037	-36.66231	0	11.11	4004	0	0	5	5	0.02641101	-0.2536545	1	10	0.03	2000	2.274767	40.92393	-91.39363
451055	-32	-2	8	-0.4263272	0.1219803	-36.67226	0	11.11	4003	0	0	5	5	0.02641101	-0.261799	1	10	0.03	2000	2.26475	40.92393	-91.39363
451149	-43	0	5	-0.4315415	0.1216433	-36.68111	0	11.11	4003	0	0	5	5	0.02641101	-0.2657409	1	10	0.03	2000	2.271489	40.92393	-91.39363
451342	-33	2	3	-0.4203161	0.1160931	-36.69917	0	11.11	4003	0	0	5	5	0.02641101	-0.2785778	1	10	0.03	2000	2.263537	40.92393	-91.39363
451388	-34	1	2	-0.4183859	0.1152073	-36.70131	0	11.11	4002	0	0	5	5	0.02641101	-0.27866	1	10	0.03	2000	2.256366	40.92393	-91.39363
451459	-33	-1	3	-0.4165559	0.1162142	-36.70595	0	11.11	4003	0	0	5	5	0.02641101	-0.2785756	1	10	0.03	2000	2.253855	40.92393	-91.39363
451550	-29	-1	2	-0.4146228	0.1164753	-36.71095	0	11.11	4004	0	0	5	5	0.02641101	-0.2700371	1	10	0.03	2000	2.250064	40.92393	-91.39363
451656	-35	-1	6	-0.406565	0.1184849	-36.72127	0	11.06	4002	0	0	5	5	0.02641101	-0.2691624	1	10	0.03	2000	2.472511	40.92393	-91.39363
451776	-30	0	5	-0.4004306	0.1231911	-36.72926	0	11.06	4004	0	0	5	5	0.02641101	-0.2726482	1	10	0.03	2000	2.233162	40.92393	-91.39363
451920	-30	0	0	-0.4060135	0.1165107	-36.73842	0	11.06	4003	0	0	5	5	0.02641101	-0.2800961	1	10	0.03	2000	2.220048	40.92393	-91.39363
452026	-30	5	11	-0.4051848	0.1112519	-36.74995	0	11.06	4003	0	0	5	5	0.02641101	-0.2829822	1	10	0.03	2000	2.228773	40.92393	-91.39363
452065	-30	5	11	-0.4051848	0.1112519	-36.74995	0	11.06	4003	0	0	5	5	0.02641101	-0.2827304	1	10	0.03	2000	2.228773	40.92393	-91.39363
452152	-32	5	5	-0.4007019	0.1094033	-36.75917	0	11.06	4004	0	0	5	5	0.02641101	-0.2796192	1	10	0.03	2000	2.217958	40.92393	-91.39363
452231	-32	-2	4	-0.405969	0.1109823	-36.76668	0	11.06	4004	0	0	5	5	0.02641101	-0.2804058	1	10	0.03	2000	2.230206	40.92393	-91.39363
452358	-28	-4	4	-0.4020653	0.1182585	-36.77633	0	11.06	4003	0	0	5	5	0.02641101	-0.2762027	1	10	0.03	2000	2.231187	40.92393	-91.39363
452424	-34	2	8	-0.3971342	0.1185804	-36.78145	0	11.06	4003	0	0	5	5	0.02641101	-0.2739074	1	10	0.03	2000	2.218864	40.92393	-91.39363
452610	-35	2	4	-0.3975873	0.1164379	-36.79836	0	11.06	4004	0	0	5	5	0.02641101	-0.2598808	1	10	0.03	2000	2.221463	40.92393	-91.39363
452630	-30	1	2	-0.394814	0.1170289	-36.80147	0	11.06	4004	0	0	5	5	0.02641101	-0.2598808	1	10	0.03	2000	2.221463	40.92393	-91.39363
452787	-35	0	4	-0.3893899	0.1130298	-36.81545	0	11.06	4004	0	0	5	5	0.02641101	-0.2490232	1	10	0.03	2000	2.222036	40.92393	-91.39363
452893	-33	6	8	-0.384327	0.1110744	-36.81844	0	11.06	4002	0	0	5	5	0.02641101	-0.241871	1	10	0.03	2000	2.192073	40.92393	-91.39363
452960	-33	5	2	-0.3835284	0.1062569	-36.82943	0	11.06	4004	0	0	5	5	0.02641101	-0.2375037	1	10	0.03	2000	2.208079	40.92393	-91.39363
453139	-41	-2	2	-0.3848636	0.1056162	-36.84054	0	11.06	4003	0	0	5	5	0.02641101	-0.2383607	1	10	0.03	2000	2.195829	40.92393	-91.39363
453222	-39	2	7	-0.3863707	0.1021449	-36.85177	0	11.06	4003	0	0	5	5	0.02641101	-0.2451323	1	10	0.03	2000	2.206193	40.92393	-91.39363
453394	-29	2	3	-0.3855426	0.1051264	-36.8608	0	11.11	4004	0	0	5	5	0.02641101	-0.2494975	1	10	0.03	2000	2.198683	40.92393	-91.39362
453453	-26	0	6	-0.3798955	0.1041023	-36.86916	0	11.11	4003	0	0	5	5	0.02641101	-0.2436363	1	10	0.03	2000	2.204622	40.92393	-91.39362
453497	-29	-1	5	-0.3793758	0.1048296	-36.87301	0	11.11	4003	0	0	5	5	0.02641101	-0.2407849	1	10	0.03	2000	2.204622	40.92393	-91.39362
453604	-32	3	0	-0.3906038	0.09987579	-36.88072	0	11.11	4004	0	0	5	5	0.02641101	-0.228118	1	10	0.03	2000	2.200744	40.92393	-91.39362
453733	-33	-2	4	-0.3892007	0.1035197	-36.89128	0	11.11	4003	0	0	5	5	0.02641101	-0.2025357	1	10	0.03	2000	2.201956	40.92393	-91.39362
453888	-31	1	3	-0.4022399	0.1062109	-36.90441	0	11.11	4004	0	0	5	5	0.02641101	-0.195667	1	10	0.03	2000	2.201568	40.92393	-91.39362
453998	-27	5	5	-0.3920362	0.1112917	-36.91637	0	11.11	4002	0	0	5	5	0.02641101	-0.2041994	1	10	0.03	2000	2.213953	40.92393	-91.39362
454138	-32	0	8	-0.3915888	0.1105293	-36.92895	0	11.11	4003	0	0	5	5	0.02641101	-0.2109551	1	10	0.03	2000	2.223377	40.92393	-91.39362
454313	-29	0	2	-0.3854117	0.1141313	-36.94653	0	11.11	4004	0	0	5	5	0.02641101	-0.2155139	1	10	0.03	2000	2.194631	40.92393	-91.39362
454465	-28	0	5	-0.3770665	0.1156325	-36.96325	0	11.11	4003	0	0	5	5	0.02641101	-0.2127014	1	10	0.03	2000	2.185749	40.92393	-91.39362
454538	-29	3	6	-0.3735045	0.1121252	-36.96728	0	11.11	4003	0	0	5	5	0.02641101	-0.2161734	1	10	0.03	2000	2.177991	40.92393	-91.39362
454621	-33	0	5	-0.3768546	0.1112236	-36.97314	0	11.11	4004	0	0	5	5	0.02641101	-0.2224479	1	10	0.03	2000	2.193867	40.92393	-91.39362
454713	-32	0	5	-0.3806299	0.1112399	-36.9862	0	11.11	4003	0	0	5	5	0.02641101	-0.2314252	1	10	0.03	2000	2.184571	40.92393	-91.39362
454771	-28	-2	7	-0.3811675	0.1086728	-36.99157	0	11.11	4002	0	0	5	5	0.02641101	-0.232889	1	10	0.03	2000	2.184196	40.92393	-91.39362
454830	-25	-2	5	-0.3857065	0.1124918	-36.99706	0	11.11	4004	0	0	5	5	0.02641101	-0.2428116	1	10	0.03	2000	2.200912	40.92393	-91.39362
454926	-22	0	6	-0.3799991	0.1144449	-37.00695	0	11.11	4003	0	0	5	5	0.02641101	-0.2444559	1	10	0.03	2000	2.194961	40.92393	-91.39362
455098	-27	0	12	-0.3646183	0.1159211	-37.02075	0	11.11	4009	0	0	5	5	0.02641101	-0.2423275	1	10	0.03	2000	2.176565	40.92393	-91.39362
455217	-26	3	3	-0.3554425	0.1086596	-37.02649	0	11.11	4004	0	0	5	5	0.02641101	-0.2425537	1	10	0.03	2000	2.164237	40.92393	-91.39362
455269	-27	8	3	-0.3488609	0.1113703	-37.03277	0	11.11	4003	0	0	5	5	0.02641101	-0.2431229	1	10	0.03	2000	2.152317	40.92393	-91.39362
455347	-34	-4	5	-0.3411391	0.108938	-37.03704	0	11.11	4004	0	0	5	5	0.02641101	-0.2429944	1	10	0.03	2000	2.145103	40.92393	-91.39362
455495	-25	0	2	-0.3392225	0.1088672	-37.04553	0	11.11	4003	0	0	5	5	0.02641101	-0.2389458	1	10	0.03	2000	2.36396	40.92393	-91.39362
455590	-19	2	6	-0.3394607	0.1100731	-37.05255	0	11.11	4004	0	0	5	5	0.02641101	-0.2340316	1	10	0.03	2000	2.370643	40.92393	-91.39362
455683	-22	-2	3	-0.3396134	0.108953	-37.06201	0	11.11	4003	0	0	5	5	0.02641101	-0.2350666	1	10	0.03	2000	2.123319	40.92393	-91.39362
455752	-28	3	2	-0.3343017	0.1079626	-37.06994	0	11.11	4004	0	0	5	5	0.02641101	-0.240926	1	10	0.03	2000	2.120015	40.92393	-91.39362
455851	-26	-1	7	-0.3389922	0.1239062	-37.0783	0	11.11	4002	0	0	5	5	0.02641101	-0.2529524	1	10	0.03	2000	2.119644	40.92393	-91.39362
455902	-26	5	1	-0.3392222	0.1203709	-37.0813	0	11.11	4004	0	0	5	5	0.02641101	-0.2651117	1	10	0.03	2000	2.119644	40.92393	-91.39362
456000	-22	1	11	-0.3387004	0.1218181	-37.09265	0	11.11	4003	0	0	5	5	0.02641101	-0.2756777	1	10	0.03	2000	2.120457	40.92393	-91.39362
456095	-34	-6	6	-0.3390464	0.1254665	-37.09948	0	11.11	4004	0	0	5	5	0.02641101	-0.2829099	1	10	0.03	2000	2.121271	40.92393	-91.39362
456214	-20	-2	7	-0.3406708	0.1293416	-37.11077	0	11.11	4003	0	0	5	5	0.02641101	-0.2926648	1	10	0.03	2000	2.125291	40.92393	-91.39362
456309	-30	0	4	-0.3420529	0.1254916	-37.11554	0	11.11	4003	0	0	5	5	0.02641101	-0.2965843	1	10	0.03	2000	2.126025	40.92393	-91.39362
456455	-28	0	6	-0.3398887	0.1302335	-37.12854	0	11.11	4004	0	0	5	5	0.02641101	-0.2878901	1	10	0.03	2000	2.134458	40.92393	-91.39362
456581	-23	-1	10	-0.3338057	0.1266219	-37.13659	0	11.11	4003	0	0	5	5	0.02641101	-0.2879765	1	10	0.03	2000	2.131381	40.92393	-91.39362
456652	-32	-4	5	-0.3373849	0.1337383	-37.14068	0	11.11	4004	0	0	5	5	0.02641101	-0.2934649	1	10	0.03	2000	2.117533	40.92393	-91.39362
456744	-24	3	1	-0.3359109	0.132164	-37.15033	0	11.11	4004	0	0	5	5	0.02641101	-0.2975165	1	10	0.03	2000	2.122718	40.92393	-91.39362
456770	-19	6	7	-0.3333714	0.1279288	-37.15185	0	11.11	4003	0	0	5	5	0.02641101	-0.2982119	1	10	0.03	2000	2.350159	40.92393	-91.39362
456898	-25	2	3	-0.3341365	0.1205715	-37.15936	0	11.11	4003	0	0	5	5	0.02641101	-0.3016354	1	10	0.03	2000	2.111656	40.92393	-91.39362
457047	-24	5	2	-0.3207415	0.1135732	-37.1712	0	11.11	4004	0	0	5	5	0.02641101	-0.2911543	1	10	0.03	2000	2.319875	40.92393	-91.39362
457106	-30	8	10	-0.3183888	0.1149348	-37.17511	0	11.11	4004	0	0	5	5	0.02641101	-0.2816173	1	10	0.03	2000	2.319875	40.92393	-91.39362
457214	-19	0	5	-0.3161291	0.1175418	-37.18066	0	11.11	4003	0	0	5	5	0.02641101	-0.2689544	1	10	0.03	2000	2.099988	40.92393	-91.39362
457315	-31	-3	2	-0.3055247	0.1122677	-37.18963	0	11.11	4003	0	0	5	5	0.02641101	-0.26064	1	10	0.03	2000	2.0873	40.92393	-91.39362
457341	-26	9	5	-0.3063823	0.1121621	-37.19299	0	11.11	4004	0	0	5	5	0.02641101	-0.2590889	1	10	0.03	2000	2.086837	40.92393	-91.39362
457524	-18	-2	1	-0.3020574	0.1088649	-37.20721	0	11.11	4003	0	0	5	5	0.02641101	-0.2664107	1	10	0.03	2000	2.066885	40.92393	-91.39362
457576	-23	-4	6	-0.3015421	0.1066818	-37.21002	0	11.11	4004	0	0	5	5	0.02641101	-0.2745996	1	10	0.03	2000	2.066885	40.92393	-91.39362
457698	-25	1	0	-0.2983355	0.0987021	-37.22314	0	11.11	4002	0	0	5	5	0.02641101	-0.2765241	1	10	0.03	2000	2.073562	40.92394	-91.39362
457853	-25	2	4	-0.2888678	0.09969738	-37.23407	0	11.11	4003	0	0	5	5	0.02641101	-0.2781213	1	10	0.03	2000	2.04095	40.92394	-91.39362
458002	-16	6	1	-0.2820394	0.09876819	-37.24322	0	11.11	4004	0	0	5	5	0.02641101	-0.2872435	1	10	0.03	2000	2.046051	40.92394	-91.39362
458132	-29	2	3	-0.2828494	0.09937337	-37.25293	0	11.11	4004	0	0	5	5	0.02641101	-0.3032502	1	10	0.03	2000	2.269207	40.92394	-91.39362
458219	-22	2	4	-0.2811128	0.09699869	-37.25872	0	11.11	4004	0	0	5	5	0.02641101	-0.3094261	1	10	0.03	2000	2.042532	40.92394	-91.39362
458291	-21	-1	4	-0.2804102	0.09384011	-37.26446	0	11.11	4002	0	0	5	5	0.02641101	-0.3134311	1	10	0.03	2000	2.038126	40.92394	-91.39362
458379	-23	2	8	-0.275008	0.09153416	-37.27209	0	11.11	4003	0	0	5	5	0.02641101	-0.3177091	1	10	0.03	2000	2.041927	40.92394	-91.39362
458489	-24	1	8	-0.2683689	0.09706979	-37.28088	0	11.11	4004	0	0	5	5	0.02641101	-0.3243002	1	10	0.03	2000	2.018022	40.92394	-91.39362
458559	-30	5	3	-0.2696895	0.09805664	-37.28888	0	11.11	4002	0	0	5	5	0.02641101	-0.3252507	1	10	0.03	2000	2.033632	40.92394	-91.39362
458630	-18	-1	5	-0.2654497	0.105068	-37.29388	0	11.11	4003	0	0	5	5	0.02641101	-0.3241047	1	10	0.03	2000	2.23349	40.92394	-91.39362
458662	-18	0	0	-0.265268	0.1000731	-37.30059	0	11.11	4002	0	0	5	5	0.02641101	-0.3261876	1	10	0.03	2000	2.004368	40.92394	-91.39362
458711	-19	5	2	-0.2667896	0.09756614	-37.30481	0	11.11	4003	0	0	5	5	0.02641101	-0.3203361	1	10	0.03	2000	2.244669	40.92394	-91.39362
458750	-20	-7	2	-0.2633398	0.09956421	-37.31488	0	11.11	4004	0	0	5	5	0.02641101	-0.3083303	1	10	0.03	2000	2.013478	40.92394	-91.39362
458812	-13	0	-1	-0.2564591	0.09217859	-37.32489	0	11.11	4002	0	0	5	5	0.02641101	-0.3018524	1	10	0.03	2000	2.005276	40.92394	-91.39362
458871	-15	3	8	-0.2584483	0.09231228	-37.33337	0	11.11	4004	0	0	5	5	0.02641101	-0.2909062	1	10	0.03	2000	2.003565	40.92394	-91.39362
459021	-24	-2	2	-0.2514088	0.09790868	-37.34277	0	11.11	4002	0	0	5	5	0.02641101	-0.2787893	1	10	0.03	2000	1.985714	40.92394	-91.39362
459108	-18	3	2	-0.2501234	0.1056959	-37.35156	0	11.11	4002	0	0	5	5	0.02641101	-0.2724066	1	10	0.03	2000	1.992628	40.92394	-91.39362
459197	-21	3	9	-0.2496857	0.1013784	-37.35699	0	11.11	4002	0	0	5	5	0.02641101	-0.2611356	1	10	0.03	2000	1.981425	40.92394	-91.39362
459224	-16	1	3	-0.2518309	0.09749684	-37.35925	0	11.11	4003	0	0	5	5	0.02641101	-0.2611356	1	10	0.03	2000	1.981425	40.92394	-91.39362
459303	-22	0	3	-0.2477725	0.1012546	-37.36132	0	11.11	4003	0	0	5	5	0.02641101	-0.2555557	1	10	0.03	2000	1.981425	40.92394	-91.39362
459482	-22	1	3	-0.2429606	0.1029625	-37.37431	0	11.11	4004	0	0	5	5	0.02641101	-0.2601494	1	10	0.03	2000	1.985555	40.92394	-91.39362
459543	-17	3	4	-0.2400222	0.1008101	-37.37803	0	11.11	4002	0	0	5	5	0.02641101	-0.2616929	1	10	0.03	2000	2.216656	40.92394	-91.39362
459608	-19	3	1	-0.2409812	0.1026431	-37.38657	0	11.11	4003	0	0	5	5	0.02641101	-0.2647373	1	10	0.03	2000	1.977902	40.92394	-91.39362
459662	-20	-6	10	-0.2425646	0.1030102	-37.38877	0	11.11	4003	0	0	5	5	0.02641101	-0.2597502	1	10	0.03	2000	1.977902	40.92393	-91.39362
459812	-23	-1	7	-0.2390566	0.1046929	-37.39964	0	11.11	4003	0	0	5	5	0.02641101	-0.2403099	1	10	0.03	2000	1.973236	40.92393	-91.39362
459871	-15	-2	2	-0.2395477	0.1016828	-37.40495	0	11.11	4003	0	0	5	5	0.02641101	-0.2330996	1	10	0.03	2000	1.965888	40.92393	-91.39362
459965	-20	2	10	-0.2430477	0.1010343	-37.41074	0	11.11	4003	0	0	5	5	0.02641101	-0.218966	1	10	0.03	2000	1.985426	40.92393	-91.39362
460092	-19	2	6	-0.233353	0.09912186	-37.42197	0	11.06	4002	0	0	5	5	0.02641101	-0.2114645	1	10	0.03	2000	1.958258	40.92393	-91.39362
460191	-21	1	2	-0.223485	0.09981772	-37.42802	0	11.06	4003	0	0	5	5	0.02641101	-0.1990663	1	10	0.03	2000	1.944749	40.92393	-91.39362
460276	-17	5	1	-0.2265012	0.09374128	-37.4354	0	11.06	4003	0	0	5	5	0.02641101	-0.1805652	1	10	0.03	2000	1.948437	40.92393	-91.39362
460347	-12	0	-2	-0.2261176	0.08871211	-37.44071	0	11.06	4003	0	0	5	5	0.02641101	-0.1737963	1	10	0.03	2000	1.954543	40.92393	-91.39362
460449	-23	-2	4	-0.2173057	0.08746555	-37.44584	0	11.06	4004	0	0	5	5	0.02641101	-0.1502944	1	10	0.03	2000	2.177013	40.92393	-91.39362
460483	-14	4	7	-0.2166212	0.08614618	-37.44712	0	11.06	4003	0	0	5	5	0.02641101	-0.1423211	1	10	0.03	2000	1.939324	40.92393	-91.39362
460606	-16	0	2	-0.2140751	0.09077056	-37.45322	0	11.06	4004	0	0	5	5	0.02641101	-0.1287556	1	10	0.03	2000	2.15054	40.92393	-91.39362
460732	-17	0	2	-0.2054825	0.08868986	-37.45969	0	11.06	4003	0	0	5	5	0.02641101	-0.09796169	1	10	0.03	2000	2.158883	40.92393	-91.39362
460791	-18	-1	3	-0.2106149	0.09759371	-37.46311	0	11.06	4003	0	0	5	5	0.02641101	-0.08118499	1	10	0.03	2000	1.922114	40.92393	-91.39362
460903	-12	0	0	-0.2057415	0.09703971	-37.46714	0	11.06	4002	0	0	5	5	0.02641101	-0.04823599	1	10	0.03	2000	1.922456	40.92393	-91.39362
460989	-18	0	-1	-0.2048445	0.09239434	-37.47074	0	11.06	4004	0	0	5	5	0.02641101	-0.03215654	1	10	0.03	2000	1.91409	40.92393	-91.39362
461068	-16	-2	6	-0.2056448	0.08852036	-37.47379	0	11.06	4004	0	0	5	5	0.02641101	-0.02472564	1	10	0.03	2000	1.923654	40.92393	-91.39362
461184	-17	0	3	-0.2148057	0.08921184	-37.48148	0	11.06	4004	0	0	5	5	0.02641101	-0.01693494	1	10	0.03	2000	1.936208	40.92393	-91.39362
461278	-24	2	4	-0.2062305	0.08434954	-37.48765	0	11.06	4002	0	0	5	5	0.02641101	-0.01555492	1	10	0.03	2000	1.939299	40.92393	-91.39362
461435	-14	6	2	-0.1997636	0.08783205	-37.49552	0	11.06	4002	0	0	5	5	0.02641101	-0.01266673	1	10	0.03	2000	2.130562	40.92393	-91.39362
461563	-13	1	0	-0.1909963	0.08753546	-37.50504	0	11.06	4004	0	0	5	5	0.02641101	-0.01234645	1	10	0.03	2000	1.903887	40.92393	-91.39362
461604	-18	-1	4	-0.1892415	0.09228201	-37.50858	0	11.06	4004	0	0	5	5	0.02641101	-0.01345975	1	10	0.03	2000	1.897976	40.92393	-91.39362
461665	-17	3	1	-0.1880794	0.09497438	-37.51316	0	11.06	4004	0	0	5	5	0.02641101	-0.01805509	1	10	0.03	2000	2.116858	40.92393	-91.39362
461774	-17	0	2	-0.1850633	0.0943504	-37.51768	0	11.06	4003	0	0	5	5	0.02641101	-0.01974992	1	10	0.03	2000	1.88681	40.92393	-91.39362
461935	-14	-4	5	-0.1805185	0.09525084	-37.52598	0	11.11	4004	0	0	5	5	0.02641101	-0.01657032	1	10	0.03	2000	1.88345	40.92393	-91.39362
462032	-18	0	5	-0.1760599	0.09526376	-37.52805	0	11.11	4002	0	0	5	5	0.02641101	-0.0004253706	1	10	0.03	2000	1.882427	40.92393	-91.39362
462088	-11	3	-1	-0.1727119	0.09694136	-37.53037	0	11.11	4004	0	0	5	5	0.02641101	0.002325983	1	10	0.03	2000	1.882783	40.92393	-91.39362
462176	-16	4	5	-0.1645661	0.09923462	-37.5355	0	11.11	4003	0	0	5	5	0.02641101	0.01496542	1	10	0.03	2000	1.858337	40.92393	-91.39362
462267	-14	3	0	-0.166216	0.09683929	-37.54331	0	11.11	4003	0	0	5	5	0.02641101	0.02437396	1	10	0.03	2000	1.862058	40.92393	-91.39362
462382	-15	2	2	-0.1647846	0.1012975	-37.54636	0	11.11	4004	0	0	5	5	0.02641101	0.02452656	1	10	0.03	2000	1.855334	40.92393	-91.39362
462567	-17	-1	1	-0.1637766	0.09795368	-37.55656	0	11.11	4004	0	0	5	5	0.02641101	0.01559221	1	10	0.03	2000	1.855773	40.92393	-91.39362
462642	-19	3	4	-0.1672041	0.0969406	-37.56083	0	11.11	4002	0	0	5	5	0.02641101	0.0100495	1	10	0.03	2000	1.621966	40.92393	-91.39362
462741	-13	0	5	-0.164604	0.09346357	-37.5651	0	11.11	4004	0	0	5	5	0.02641101	0.000466553	1	10	0.03	2000	1.872604	40.92393	-91.39362
462768	-14	-1	4	-0.1663582	0.09401222	-37.56663	0	11.06	4004	0	0	5	5	0.02641101	0.000466553	1	10	0.03	2000	1.872604	40.92393	-91.39362
462901	-7	1	5	-0.1500662	0.09191984	-37.57499	0	11.06	4003	0	0	5	5	0.02641101	-0.008732567	1	10	0.03	2000	2.064752	40.92393	-91.39362
462965	-11	-2	2	-0.1503002	0.08516751	-37.57731	0	11.06	4004	0	0	5	5	0.02641101	-0.01272298	1	10	0.03	2000	1.842481	40.92393	-91.39362
463070	-14	0	4	-0.1513976	0.08581412	-37.58164	0	11.06	4002	0	0	5	5	0.02641101	-0.0287325	1	10	0.03	2000	1.837362	40.92393	-91.39362
463180	-9	1	3	-0.1494698	0.08630437	-37.58451	0	11.06	4002	0	0	5	5	0.02641101	-0.03922826	1	10	0.03	2000	1.833292	40.92393	-91.39362
463274	-5	0	5	-0.1396407	0.09107907	-37.59116	0	11.06	4003	0	0	5	5	0.02641101	-0.04543665	1	10	0.03	2000	1.825537	40.92393	-91.39362
463471	-15	3	2	-0.1467251	0.09472767	-37.60062	0	11.06	4003	0	0	5	5	0.02641101	-0.05407285	1	10	0.03	2000	1.822444	40.92393	-91.39362
463529	-11	-6	6	-0.1418565	0.09454935	-37.60361	0	11.06	4002	0	0	5	5	0.02641101	-0.05881543	1	10	0.03	2000	1.822444	40.92393	-91.39362
463650	-13	0	0	-0.1405333	0.09512416	-37.60844	0	11.06	4004	0	0	5	5	0.02641101	-0.06562165	1	10	0.03	2000	1.829716	40.92393	-91.39362
463753	-16	8	0	-0.1454622	0.09698313	-37.61198	0	11.11	4004	0	0	5	5	0.02641101	-0.0730998	1	10	0.03	2000	1.816693	40.92393	-91.39362
463854	-22	1	5	-0.1472343	0.09855872	-37.61643	0	11.11	4004	0	0	5	5	0.02641101	-0.07424794	1	10	0.03	2000	1.822348	40.92393	-91.39362
463991	-17	-2	5	-0.1503789	0.0937378	-37.62345	0	11.11	4004	0	0	5	5	0.02641101	-0.06409544	1	10	0.03	2000	1.83796	40.92393	-91.39362
464078	-5	3	2	-0.1557268	0.0893866	-37.62547	0	11.11	4003	0	0	5	5	0.02641101	-0.05955384	1	10	0.03	2000	1.830994	40.92393	-91.39362
464237	-13	-3	-1	-0.1528799	0.08628537	-37.63261	0	11.11	4004	0	0	5	5	0.02641101	-0.05512746	1	10	0.03	2000	1.838639	40.92393	-91.39362
464364	-15	-1	-2	-0.1475071	0.08847135	-37.63871	0	11.11	4003	0	0	5	5	0.02641101	-0.05865553	1	10	0.03	2000	1.834749	40.92393	-91.39362
464408	-10	4	0	-0.1427627	0.08952273	-37.63926	0	11.11	4003	0	0	5	5	0.02641101	-0.05933523	1	10	0.03	2000	1.826424	40.92393	-91.39362
464467	-18	-1	4	-0.1451448	0.08533113	-37.64396	0	11.11	4002	0	0	5	5	0.02641101	-0.05805955	1	10	0.03	2000	1.817057	40.92393	-91.39362
464628	-12	0	5	-0.1445376	0.07782888	-37.6522	0	11.06	4004	0	0	5	5	0.02641101	-0.05692576	1	10	0.03	2000	1.82106	40.92393	-91.39362
464694	-13	5	0	-0.1486657	0.075651	-37.65464	0	11.06	4003	0	0	5	5	0.02641101	-0.05964566	1	10	0.03	2000	1.833717	40.92393	-91.39362
464771	-13	-4	0	-0.1446969	0.07540838	-37.65757	0	11.06	4002	0	0	5	5	0.02641101	-0.05996754	1	10	0.03	2000	1.831569	40.92393	-91.39362
464896	-21	-3	5	-0.1512236	0.07696842	-37.66557	0	11.06	4003	0	0	5	5	0.02641101	-0.06295482	1	10	0.03	2000	1.835537	40.92393	-91.39362
464957	-16	0	-1	-0.1509475	0.07549346	-37.66941	0	11.06	4004	0	0	5	5	0.02641101	-0.06057886	1	10	0.03	2000	1.838736	40.92393	-91.39362
465057	-22	8	6	-0.1546682	0.0692251	-37.6757	0	11.06	4004	0	0	5	5	0.02641101	-0.05795819	1	10	0.03	2000	2.060754	40.92393	-91.39362
465169	-11	4	7	-0.1490003	0.07169048	-37.6815	0	11.06	4003	0	0	5	5	0.02641101	-0.05722284	1	10	0.03	2000	1.83354	40.92393	-91.39362
465318	-12	1	0	-0.1467283	0.07347146	-37.68699	0	11.06	4004	0	0	5	5	0.02641101	-0.06514315	1	10	0.03	2000	1.843355	40.92393	-91.39362
465388	-10	2	7	-0.1496279	0.07037748	-37.69138	0	11.06	4002	0	0	5	5	0.02641101	-0.06765774	1	10	0.03	2000	1.834849	40.92393	-91.39362
465482	-15	-5	6	-0.1421301	0.07388739	-37.69492	0	11.11	4002	0	0	5	5	0.02641101	-0.07349507	1	10	0.03	2000	1.826402	40.92393	-91.39362
465559	-9	4	3	-0.1434058	0.07918679	-37.69901	0	11.11	4003	0	0	5	5	0.02641101	-0.07541743	1	10	0.03	2000	1.824271	40.92393	-91.39362
465629	-13	0	0	-0.1484377	0.07848506	-37.70432	0	11.11	4002	0	0	5	5	0.02641101	-0.07822964	1	10	0.03	2000	1.832523	40.92393	-91.39362
465711	-11	-3	3	-0.1542223	0.08283404	-37.70957	0	11.11	4003	0	0	5	5	0.02641101	-0.08292956	1	10	0.03	2000	1.835609	40.92393	-91.39362
465776	-5	3	8	-0.1531184	0.08536836	-37.71531	0	11.11	4004	0	0	5	5	0.02641101	-0.08337722	1	10	0.03	2000	1.832767	40.92393	-91.39362
