time(ms)	gyro_x(deg/s)	gyro_y(deg/s)	gyro_z(deg/s)	orientation_roll(deg)	orientation_pitch(deg)	orientation_yaw(deg)	throttle	battery(V)	loop_time(uS)	pid_output_roll	pid_output_pitch	pid_output_yaw	pid_output_throttle	ultrasonic_alt	baro_alt	flight_mode	p_gain_altitude	i_gain_altitude	d_gain_altitude	compass_heading	latitude	longitude
92258	-47	6	6	-1.005104	0.09722935	-3.582129	0	12.02	4004	0	0	5	5	0.02606801	0.2971275	1	10	0.03	2000	-0.4408569	40.92393	-91.39363
92462	-46	-3	7	-1.025161	0.1007486	-3.591177	0	12.02	4003	0	0	5	5	0.02606801	0.2933107	1	10	0.03	2000	-0.1617432	40.92393	-91.39363
92624	-48	1	2	-1.0136	0.1001822	-3.605362	0	12.02	4002	0	0	5	5	0.02606801	0.3015319	1	10	0.03	2000	-0.178833	40.92393	-91.39362
92713	-50	7	6	-1.00748	0.09492879	-3.611169	0	12.02	4003	0	0	5	5	0.02606801	0.3126354	1	10	0.03	2000	-0.4208069	40.92393	-91.39362
92812	-49	8	3	-1.022392	0.08971003	-3.61765	0	12.02	4004	0	0	5	5	0.02606801	0.3126354	1	10	0.03	2000	-0.4014587	40.92393	-91.39362
92852	-49	-1	5	-1.017419	0.09063834	-3.620096	0	12.02	4004	0	0	5	5	0.02606801	0.3143904	1	10	0.03	2000	-0.4014587	40.92393	-91.39362
92954	-47	2	6	-1.008953	0.09522767	-3.626209	0	12.02	4002	0	0	5	5	0.02606801	0.3264194	1	10	0.03	2000	-0.1711121	40.92393	-91.39362
93116	-42	5	4	-0.9964588	0.09847776	-3.640026	0	12.02	4002	0	0	5	5	0.02606801	0.3363976	1	10	0.03	2000	-0.2093811	40.92393	-91.39362
93340	-47	10	4	-0.9870896	0.08830459	-3.655066	0	12.08	4002	0	0	5	5	0.02606801	0.335729	1	10	0.03	2000	-0.4620361	40.92393	-91.39362
93416	-51	0	1	-0.9793541	0.08953407	-3.663137	0	12.08	4004	0	0	5	5	0.02606801	0.3369119	1	10	0.03	2000	-0.4624939	40.92393	-91.39362
93484	-50	-1	9	-0.9783388	0.08957775	-3.664849	0	12.08	4003	0	0	5	5	0.02606801	0.3375962	1	10	0.03	2000	-0.234375	40.92393	-91.39362
93564	-44	0	3	-0.9752094	0.08506662	-3.671207	0	12.08	4004	0	0	5	5	0.02606801	0.3378053	1	10	0.03	2000	-0.479248	40.92393	-91.39362
93706	-47	1	7	-0.9708961	0.08075017	-3.681784	0	12.08	4003	0	0	5	5	0.02606801	0.3503235	1	10	0.03	2000	-0.4881592	40.92393	-91.39362
93795	-48	0	3	-0.9639598	0.08217015	-3.687776	0	12.08	4003	0	0	5	5	0.02606801	0.350726	1	10	0.03	2000	-0.2594299	40.92393	-91.39362
93888	-47	0	4	-0.9566585	0.08667969	-3.698903	0	12.08	4003	0	0	5	5	0.02606801	0.3488098	1	10	0.03	2000	-0.2785339	40.92393	-91.39362
94007	-42	-3	8	-0.9496915	0.08979479	-3.70196	0	12.08	4002	0	0	5	5	0.02606801	0.3342157	1	10	0.03	2000	-0.530365	40.92393	-91.39362
94069	-46	3	5	-0.9446236	0.09134214	-3.7148	0	12.08	4002	0	0	5	5	0.02606801	0.3255289	1	10	0.03	2000	-0.5343933	40.92393	-91.39362
94214	-47	2	6	-0.9439597	0.0847256	-3.724827	0	12.08	4003	0	0	5	5	0.02606801	0.2988563	1	10	0.03	2000	-0.5395203	40.92393	-91.39362
94303	-49	4	6	-0.9437577	0.08835211	-3.732652	0	12.08	4002	0	0	5	5	0.02606801	0.2875873	1	10	0.03	2000	-0.2998352	40.92393	-91.39362
94410	-51	10	2	-0.9395709	0.08027814	-3.736076	0	12.08	4003	0	0	5	5	0.02606801	0.2698638	1	10	0.03	2000	-0.3058167	40.92393	-91.39362
94513	-42	7	7	-0.9345406	0.07227109	-3.746348	0	12.08	4003	0	0	5	5	0.02606801	0.2626592	1	10	0.03	2000	-0.5531616	40.92393	-91.39362
94581	-48	0	7	-0.9345406	0.07227109	-3.746348	0	12.08	4003	0	0	5	5	0.02606801	0.2572914	1	10	0.03	2000	-0.5531616	40.92393	-91.39362
94708	-52	3	4	-0.9359697	0.07146636	-3.76261	0	12.08	4002	0	0	5	5	0.02606801	0.2543716	1	10	0.03	2000	-0.2970276	40.92393	-91.39362
94771	-44	0	4	-0.9361783	0.07473762	-3.767624	0	12.08	4002	0	0	5	5	0.02606801	0.2558437	1	10	0.03	2000	-0.5448303	40.92393	-91.39362
94875	-48	5	6	-0.9292156	0.07006937	-3.776305	0	12.08	4004	0	0	5	5	0.02606801	0.2636683	3	10	0.03	2000	-0.3224182	40.92393	-91.39362
95044	-41	0	1	-0.9223328	0.06664108	-3.785782	0	12.02	4004	0	0	5	5	0.02606801	0.2702678	3	10	0.03	2000	-0.5776367	40.92393	-91.39362
95084	-35	-2	1	-0.924373	0.06539575	-3.787616	0	12.02	4003	0	0	5	5	0.02606801	0.270175	3	10	0.03	2000	-0.3359985	40.92393	-91.39362
95189	-41	8	4	-0.9190927	0.07085751	-3.79373	0	12.02	4003	0	0	5	5	0.02606801	0.2730547	3	10	0.03	2000	-0.3424072	40.92393	-91.39362
95307	-47	0	2	-0.9158468	0.06905196	-3.799599	0	12.02	4003	0	0	5	5	0.02606801	0.2758695	3	10	0.03	2000	-0.3424377	40.92393	-91.39362
95394	-40	6	1	-0.9122807	0.06773137	-3.804918	0	12.02	4003	0	0	5	5	0.02606801	0.2752497	3	10	0.03	2000	-0.3499451	40.92393	-91.39362
95529	-43	-4	8	-0.9109264	0.07154579	-3.815311	0	12.02	4003	0	0	5	5	0.02606801	0.2678041	3	10	0.03	2000	-0.5968323	40.92393	-91.39362
95587	-44	3	5	-0.9122761	0.07165037	-3.817146	0	12.02	4003	0	0	5	5	0.02606801	0.2628315	3	10	0.03	2000	-0.5924072	40.92393	-91.39362
95695	-34	1	2	-0.9094295	0.07487588	-3.821915	0	12.02	4003	0	0	5	5	0.02606801	0.2559357	3	10	0.03	2000	-0.5990906	40.92393	-91.39362
95814	-43	0	6	-0.8994152	0.06692888	-3.830781	0	12.02	4003	0	0	5	5	0.02606801	0.2442215	3	10	0.03	2000	-0.6087952	40.92393	-91.39362
95903	-41	0	7	-0.8965459	0.06425764	-3.83561	0	12.02	4003	0	0	5	5	0.02606801	0.2368726	3	10	0.03	2000	-0.3773193	40.92393	-91.39362
96005	-38	4	1	-0.889211	0.06898419	-3.843498	0	12.02	4003	0	0	5	5	0.02606801	0.2316186	3	10	0.03	2000	-0.6298523	40.92393	-91.39362
96098	-37	-1	7	-0.8855836	0.06957179	-3.847717	0	12.02	4003	0	0	5	5	0.02606801	0.2272741	3	10	0.03	2000	-0.6338806	40.92393	-91.39362
96212	-47	0	0	-0.8835685	0.06666026	-3.85059	0	12.02	4004	0	0	5	5	0.02606801	0.2262816	3	10	0.03	2000	-0.6435852	40.92393	-91.39362
96304	-44	-3	10	-0.8878222	0.0664833	-3.860616	0	12.02	4004	0	0	5	5	0.02606801	0.2186926	3	10	0.03	2000	-0.6384583	40.92393	-91.39362
96410	-41	4	1	-0.8831794	0.06532072	-3.868626	0	12.02	4002	0	0	5	5	0.02606801	0.2169249	3	10	0.03	2000	-0.4004211	40.92393	-91.39362
96559	-42	1	3	-0.8785701	0.06200943	-3.877246	0	12.02	4003	0	0	5	5	0.02606801	0.2115734	3	10	0.03	2000	-0.8855286	40.92393	-91.39362
96649	-39	2	7	-0.8778272	0.05972905	-3.883787	0	12.02	4004	0	0	5	5	0.02606801	0.2091108	3	10	0.03	2000	-0.6455078	40.92393	-91.39362
96710	-38	5	8	-0.8767086	0.06214911	-3.885988	0	12.02	4002	0	0	5	5	0.02606801	0.2052919	3	10	0.03	2000	-0.6455078	40.92393	-91.39362
96855	-36	0	8	-0.873283	0.06421512	-3.898522	0	12.02	4003	0	0	5	5	0.02606801	0.2053707	3	10	0.03	2000	-0.4173889	40.92393	-91.39362
96905	-34	0	2	-0.8758681	0.0628313	-3.900846	0	12.02	4003	0	0	5	5	0.02606801	0.2051308	3	10	0.03	2000	-0.4173889	40.92393	-91.39362
97021	-42	3	2	-0.869146	0.05383954	-3.913929	0	12.02	4003	0	0	5	5	0.02606801	0.2039937	3	10	0.03	2000	-0.6669617	40.92393	-91.39362
97131	-36	-4	3	-0.8673315	0.05804523	-3.917414	0	12.02	4003	0	0	5	5	0.02606801	0.2001831	3	10	0.03	2000	-0.6715698	40.92393	-91.39362
97211	-37	0	6	-0.8707665	0.0628482	-3.921938	0	12.02	4003	0	0	5	5	0.02606801	0.1950774	3	10	0.03	2000	-0.6715698	40.92393	-91.39362
97348	-43	3	4	-0.8772483	0.07141934	-3.930802	0	12.02	4002	0	0	5	5	0.02606801	0.1800952	3	10	0.03	2000	-0.6523132	40.92393	-91.39362
97433	-45	1	3	-0.8704572	0.07785536	-3.934838	0	12.02	4003	0	0	5	5	0.02606801	0.1702605	3	10	0.03	2000	-0.6589355	40.92393	-91.39362
97556	-36	0	4	-0.872839	0.08020151	-3.939118	0	12.02	4003	0	0	5	5	0.02606801	0.1564842	3	10	0.03	2000	-0.42453	40.92393	-91.39362
97657	-40	0	3	-0.8639098	0.0845442	-3.947556	0	12.02	4003	0	0	5	5	0.02606801	0.1491033	3	10	0.03	2000	-0.6724243	40.92393	-91.39362
97727	-38	8	7	-0.8655365	0.08538835	-3.952202	0	12.02	4003	0	0	5	5	0.02606801	0.1434939	3	10	0.03	2000	-0.9135437	40.92393	-91.39362
97851	-44	6	9	-0.86286	0.09264453	-3.960823	0	12.02	4004	0	0	5	5	0.02606801	0.1409559	1	10	0.03	2000	-0.6799316	40.92393	-91.39362
97933	-38	1	1	-0.8669191	0.09169943	-3.96547	0	12.02	4003	0	0	5	5	0.02606801	0.1375114	1	10	0.03	2000	-0.6723328	40.92393	-91.39362
98069	-39	5	5	-0.8630242	0.08453787	-3.974274	0	12.02	4003	0	0	5	5	0.02606801	0.1288756	1	10	0.03	2000	-0.6687622	40.92393	-91.39362
98139	-40	6	0	-0.8620031	0.08570021	-3.977086	0	12.02	4003	0	0	5	5	0.02606801	0.1304345	1	10	0.03	2000	-0.6742554	40.92393	-91.39362
98243	-37	1	1	-0.8617381	0.08131844	-3.983872	0	12.02	4004	0	0	5	5	0.02606801	0.1316293	1	10	0.03	2000	-0.671875	40.92393	-91.39362
98347	-33	0	0	-0.8594809	0.0803232	-3.988213	0	12.02	4003	0	0	5	5	0.02606801	0.1382732	1	10	0.03	2000	-0.6829224	40.92393	-91.39362
98524	-34	0	1	-0.858748	0.08201694	-3.998056	0	12.02	4002	0	0	5	5	0.02606801	0.1425057	1	10	0.03	2000	-0.6786499	40.92393	-91.39362
98623	-39	3	5	-0.8619421	0.07544255	-4.002091	0	12.02	4004	0	0	5	5	0.02606801	0.1468976	1	10	0.03	2000	-0.6781616	40.92393	-91.39362
98673	-34	6	2	-0.8577657	0.07299541	-4.005393	0	12.02	4004	0	0	5	5	0.02606801	0.1474129	3	10	0.03	2000	-0.6765747	40.92393	-91.39362
98759	-35	4	2	-0.8542838	0.07079877	-4.010467	0	12.02	4002	0	0	5	5	0.02606801	0.1463938	3	10	0.03	2000	-0.4546204	40.92393	-91.39362
98845	-43	1	4	-0.8568458	0.07176694	-4.013463	0	12.02	4004	0	0	5	5	0.02606801	0.1500536	3	10	0.03	2000	-0.4487	40.92393	-91.39362
98948	-41	4	9	-0.851805	0.06480265	-4.021472	0	12.02	4004	0	0	5	5	0.02606801	0.1501688	3	10	0.03	2000	-0.6898499	40.92393	-91.39362
99060	-36	0	8	-0.8443704	0.06761967	-4.027709	0	12.02	4003	0	0	5	5	0.02606801	0.1465363	3	10	0.03	2000	-0.4642944	40.92393	-91.39362
99152	-37	4	1	-0.8451024	0.06720708	-4.032845	0	12.02	4002	0	0	5	5	0.02606801	0.1424004	3	10	0.03	2000	-0.4682312	40.92393	-91.39362
99254	-37	4	3	-0.8414034	0.06661794	-4.039204	0	12.02	4004	0	0	5	5	0.02606801	0.1354856	3	10	0.03	2000	-0.7028503	40.92393	-91.39362
99354	-35	-1	7	-0.8343109	0.0744478	-4.048009	0	12.02	4003	0	0	5	5	0.02606801	0.1340331	3	10	0.03	2000	-0.7202454	40.92393	-91.39362
99458	-37	5	2	-0.8346728	0.06864056	-4.052045	0	12.02	4002	0	0	5	5	0.02606801	0.1364327	3	10	0.03	2000	-0.7206726	40.92393	-91.39362
99605	-37	-6	27	-0.8334593	0.06754138	-4.061522	0	12.02	4002	0	0	5	5	0.02606801	0.1377556	3	10	0.03	2000	-0.9670715	40.92393	-91.39362
99714	-4	9	40	-0.8264528	0.05665648	-4.07308	0	12.02	4003	0	0	5	5	0.02606801	0.1398748	3	10	0.03	2000	-0.7496033	40.92393	-91.39362
99766	-18	11	70	-0.82969	0.05788383	-4.080903	0	12.02	4003	0	0	5	5	0.02606801	0.1409547	3	10	0.03	2000	-0.7496033	40.92393	-91.39362
99911	-74	-20	60	-0.8523533	0.06944361	-4.081437	0	12.02	4002	0	0	5	5	0.02606801	0.1426396	3	10	0.03	2000	-0.5461426	40.92393	-91.39362
99972	-23	0	-39	-0.8637028	0.07719416	-4.083761	0	12.02	4003	0	0	5	5	0.02606801	0.1430701	3	10	0.03	2000	-0.5461426	40.92393	-91.39362
100077	-19	89	53	-0.8364868	0.04939035	-4.096238	0	12.02	4003	0	0	5	5	0.02606801	0.1491536	3	10	0.03	2000	-0.7243652	40.92393	-91.39362
100180	-1	38	61	-0.8577196	0.08641282	-4.098006	0	12.02	4003	0	0	5	5	0.02606801	0.1639992	3	10	0.03	2000	-0.4812317	40.92393	-91.39362
100289	-13	-199	134	-0.8522528	0.09061286	-4.118168	0	12.02	4004	0	0	5	5	0.02606801	0.187216	3	10	0.03	2000	-0.4537048	40.92393	-91.39362
100391	-7	2	2	-0.8550556	0.0836224	-4.124166	0	12.02	4004	0	0	5	5	0.02606801	0.1948061	3	10	0.03	2000	-0.4544067	40.92393	-91.39362
100499	-101	6	53	-0.8807813	0.07672594	-4.134924	0	12.02	4004	0	0	5	5	0.02606801	0.2017423	3	10	0.03	2000	-0.2484131	40.92393	-91.39362
100608	-58	94	33	-0.9046404	0.01635635	-4.160788	0	11.63	4004	0	0	5	5	0.02606801	0.2231085	3	10	0.03	2000	-0.4413147	40.92393	-91.39362
100697	-178	-238	99	-0.9355463	0.007224436	-4.16562	0	11.63	4003	0	0	5	5	0.02606801	0.2331272	3	10	0.03	2000	-0.626709	40.92393	-91.39362
100816	-68	166	204	-0.9412966	-0.01852776	-4.172338	0	11.63	4004	0	0	5	5	0.02606801	0.2416975	3	10	0.03	2000	-0.3200378	40.92393	-91.39362
100914	-28	-51	128	-0.9122943	-0.006506562	-4.183458	0	11.63	4004	0	0	5	5	0.02606801	0.2390854	3	10	0.03	2000	-0.09002686	40.92393	-91.39362
101050	-25	-59	-39	-0.8663755	-0.1106683	-4.193618	0	11.63	4003	0	0	5	5	0.02606801	0.2403891	3	10	0.03	2000	-0.4838257	40.92393	-91.39362
101117	23	121	-100	-0.9509553	-0.05094531	-4.194903	0	11.63	4003	0	0	5	5	0.02606801	0.241383	3	10	0.03	2000	-0.4838257	40.92393	-91.39362
101264	-128	-126	149	-0.9177856	-0.04457437	-4.192573	0	11.63	4003	0	0	5	5	0.02606801	0.2435537	3	10	0.03	2000	-0.4137573	40.92393	-91.39362
101363	-290	-111	72	-0.9580802	-0.03366581	-4.200572	0	11.63	4004	0	0	5	5	0.02606801	0.2427204	3	10	0.03	2000	-0.5392456	40.92393	-91.39362
101512	-286	-146	87	-1.050762	0.03427809	-4.200937	0	11.74	4002	0	0	5	5	0.02606801	0.234786	3	10	0.03	2000	-0.1698608	40.92393	-91.39362
101782	46	-21	35	-0.9098958	-0.06476993	-4.229566	0	11.74	4004	0	0	5	5	0.02606801	0.2028659	3	10	0.03	2000	-0.3365173	40.92393	-91.39362
101865	162	28	-71	-0.8728001	-0.04096738	-4.234443	0	11.74	4004	0	0	5	5	0.02606801	0.1942793	3	10	0.03	2000	-0.3060608	40.92393	-91.39362
101979	-18	-111	-247	-0.8982958	-0.01793438	-4.242663	0	11.74	4003	0	0	5	5	0.02606801	0.1933666	3	10	0.03	2000	-0.4839172	40.92393	-91.39362
101999	-18	-111	-247	-0.8982958	-0.01793438	-4.242663	0	11.74	4003	0	0	5	5	0.02606801	0.1938522	3	10	0.03	2000	-0.4839172	40.92393	-91.39362
102163	-116	-125	71	-0.8663458	-0.04374595	-4.250731	0	11.74	4002	0	0	5	5	0.02606801	0.1927999	3	10	0.03	2000	0.03077295	40.92393	-91.39362
102275	-187	-67	334	-0.8800514	-0.03062764	-4.288762	0	11.74	4003	0	0	5	5	0.02606801	0.1996067	3	10	0.03	2000	-0.4805603	40.92393	-91.39362
102318	3	1	-209	-0.8574534	-0.01161022	-4.294942	0	11.74	4004	0	0	5	5	0.02606801	0.2005208	3	10	0.03	2000	0.5208252	40.92393	-91.39362
102399	-154	-87	213	-0.8714385	-0.03437598	-4.307966	0	11.74	4003	0	0	5	5	0.02606801	0.2013479	3	10	0.03	2000	-0.2154846	40.92393	-91.39362
102577	-216	-79	233	-0.8164018	-0.02247562	-4.323755	0	11.97	4004	0	0	5	5	0.02606801	0.1975137	3	10	0.03	2000	-1.071838	40.92393	-91.39362
102659	65	24	-46	-0.7815327	0.01017372	-4.3215	0	11.97	4002	0	0	5	5	0.02606801	0.1984182	3	10	0.03	2000	-0.5622559	40.92393	-91.39362
102705	-241	201	174	-0.7737072	-0.005781856	-4.343107	0	11.97	4002	0	0	5	5	0.02606801	0.1984182	3	10	0.03	2000	-0.9958191	40.92393	-91.39362
102848	263	54	-132	-0.8056051	0.05916837	-4.357858	0	11.97	4003	0	0	5	5	0.02606801	0.1870505	3	10	0.03	2000	-0.7346191	40.92393	-91.39362
102938	-231	160	52	-0.8434675	0.04638331	-4.378828	0	11.97	4004	0	0	5	5	0.02606801	0.1731324	3	10	0.03	2000	-0.9868774	40.92393	-91.39362
103004	-47	-103	-70	-0.819428	0.07949869	-4.38857	0	11.97	4003	0	0	5	5	0.02606801	0.1695826	3	10	0.03	2000	-0.5506897	40.92393	-91.39362
103140	221	70	-151	-0.8061009	0.06092188	-4.399649	0	11.97	4003	0	0	5	5	0.02606801	0.1444915	3	10	0.03	2000	-0.8007813	40.92393	-91.39362
103207	11	-26	-224	-0.7980977	0.05157901	-4.38307	0	11.97	4003	0	0	5	5	0.02606801	0.1378353	3	10	0.03	2000	-0.5881348	40.92393	-91.39362
103322	-42	4	-58	-0.7593588	0.0515393	-4.410155	0	11.97	4003	0	0	5	5	0.02606801	0.1278725	3	10	0.03	2000	-0.8649292	40.92393	-91.39362
103378	56	11	-223	-0.7720736	0.0390713	-4.40294	0	11.91	4003	0	0	5	5	0.02606801	0.1228092	3	10	0.03	2000	-0.8649292	40.92393	-91.39362
103540	114	-116	-144	-0.7593294	0.04107219	-4.418062	0	11.91	4003	0	0	5	5	0.02606801	0.1224865	3	10	0.03	2000	-0.1119385	40.92393	-91.39362
103651	138	34	-74	-0.7357065	0.01891043	-4.415568	0	11.91	4004	0	0	5	5	0.02606801	0.1232757	3	10	0.03	2000	-0.6915894	40.92394	-91.39362
103741	122	-118	-56	-0.756843	0.01483272	-4.43373	0	11.91	4003	0	0	5	5	0.02606801	0.1225916	3	10	0.03	2000	-0.6437378	40.92394	-91.39362
103844	-27	7	-58	-0.7385455	0.007974239	-4.443956	0	11.91	4002	0	0	5	5	0.02606801	0.1256789	3	10	0.03	2000	-0.6341858	40.92394	-91.39362
103947	-39	36	-159	-0.7647775	-0.0139753	-4.440162	0	11.91	4004	0	0	5	5	0.02606801	0.1337055	3	10	0.03	2000	-0.6475525	40.92394	-91.39362
103985	53	-84	-192	-0.7443242	-0.01531306	-4.446269	0	11.91	4003	0	0	5	5	0.02606801	0.1361396	3	10	0.03	2000	-0.6475525	40.92394	-91.39362
104137	-246	48	122	-0.7366145	-0.02014945	-4.47824	0	11.91	4003	0	0	5	5	0.02606801	0.1597639	3	10	0.03	2000	-0.225769	40.92394	-91.39362
104185	-246	48	122	-0.7366145	-0.02014945	-4.47824	0	11.91	4003	0	0	5	5	0.02606801	0.1622747	3	10	0.03	2000	-0.225769	40.92394	-91.39362
104289	168	1	-164	-0.7206474	-0.04914552	-4.498105	0	12.02	4003	0	0	5	5	0.02606801	0.1703192	3	10	0.03	2000	-0.9695129	40.92394	-91.39362
104539	-1	-10	-86	-0.7054526	-0.04261217	-4.521538	0	12.02	4003	0	0	5	5	0.02606801	0.1835902	3	10	0.03	2000	-1.443634	40.92394	-91.39362
104605	152	-78	-152	-0.6831061	-0.053612	-4.534256	0	12.02	4004	0	0	5	5	0.02606801	0.1834661	3	10	0.03	2000	-0.4605408	40.92394	-91.39362
104702	-73	63	67	-0.6588302	-0.05640892	-4.548143	0	12.02	4004	0	0	5	5	0.02606801	0.1791046	3	10	0.03	2000	-0.2730713	40.92394	-91.39362
104813	164	-117	-209	-0.6683599	-0.08118742	-4.537185	0	12.02	4004	0	0	5	5	0.02	0.1721963	3	10	0.03	2000	-0.2701721	40.92394	-91.39362
104986	-115	-78	140	-0.7507035	-0.05375256	-4.557428	0	12.02	4002	0	0	5	5	0.02671516	0.1579483	6	10	0.03	2000	-0.4706421	40.92393	-91.39362
105013	-16	70	-44	-0.7004637	-0.0866648	-4.545874	0	12.02	4004	0	0	5	5	0.02917499	0.1484117	6	10	0.03	2000	-0.4706421	40.92393	-91.39362
105138	93	-34	-302	-0.7136307	-0.1122211	-4.562551	0	12.02	4004	0	0	5	5	0.03273487	0.1426951	6	10	0.03	2000	-0.7695007	40.92393	-91.39362
105277	-325	-185	695	-0.7518287	-0.1992608	-4.577084	0	12.02	4002	0	0	5	5	0.03539636	0.1442039	6	10	0.03	2000	-0.745575	40.92393	-91.39362
105315	25	-43	-280	-0.7633153	-0.291251	-4.547558	0	12.02	4004	0	0	5	5	0.03539636	0.1442039	6	10	0.03	2000	-0.1226196	40.92394	-91.39362
105433	-15	48	-22	-0.6956501	-0.4519063	-4.542439	0	12.02	4003	0	0	5	5	0.03712378	0.1442796	6	10	0.03	2000	-0.6055908	40.92394	-91.39362
105520	145	133	-704	-0.7203416	-0.4734834	-4.542998	0	12.02	4003	0	0	5	5	0.03776032	0.1480914	6	10	0.03	2000	-0.01730347	40.92394	-91.39362
105654	-149	145	235	-0.6968022	-0.7194663	-4.572815	0	12.02	4004	0	0	5	5	0.04219518	0.1631705	6	10	0.03	2000	-0.7284241	40.92394	-91.39362
105800	-56	-187	548	-0.7722461	-1.348655	-4.555251	0	12.02	4004	0	0	5	5	0.04149034	0.1778055	6	10	0.03	2000	-0.6308594	40.92394	-91.39362
105902	-94	-218	154	-0.9756225	-1.815666	-4.596627	0	12.02	4003	0	0	5	5	0.04129723	0.1815301	6	10	0.03	2000	0.1746055	40.92394	-91.39362
106001	-233	-303	375	-1.068339	-2.02615	-4.601531	0	12.02	4003	0	0	5	5	0.04107413	0.1835337	6	10	0.03	2000	0.5977179	40.92394	-91.39362
106102	-10	-160	191	-0.9267973	-2.438622	-4.630157	0	11.91	4002	0	0	5	5	0.04286351	0.1847176	6	10	0.03	2000	-0.04782104	40.92394	-91.39362
106237	186	24	-860	-1.198819	-2.871314	-4.548863	0	11.91	4003	0	0	5	5	0.04414826	0.1877452	6	10	0.03	2000	-0.06237793	40.92394	-91.39362
106338	1033	-609	-555	-0.1226301	-3.420507	-4.58594	0	11.91	4004	0	0	5	5	0.0436835	0.1923366	6	10	0.03	2000	0.6147429	40.92394	-91.39362
106408	1869	218	-94	1.734532	-3.357215	-4.673803	0	11.91	4002	0	0	5	5	0.04410612	0.1993611	6	10	0.03	2000	1.080219	40.92394	-91.39362
106511	1895	-1075	-834	3.684052	-2.961612	-3.957709	0	11.91	4002	0	0	5	5	0.04718705	0.210502	6	10	0.03	2000	3.662442	40.92394	-91.39362
106655	669	-782	-2376	7.307124	-1.599259	0.5862271	0	11.91	4004	0	0	5	5	0.05577676	0.2218876	6	10	0.03	2000	1.234246	40.92394	-91.39362
106713	-1140	-523	88	7.437696	-0.7913478	2.186957	0	11.91	4003	0	0	5	5	0.05795088	0.2241423	6	10	0.03	2000	0.3628106	40.92394	-91.39362
106860	-3236	-2202	1533	-0.95488	-0.2643491	0.2048992	0	11.91	4004	0	0	5	5	0.06362337	0.24079	6	10	0.03	2000	1.413033	40.92394	-91.39362
106950	1812	1922	1312	-1.271747	-2.045166	-3.78488	0	11.91	4003	0	0	5	5	0.06495994	0.2450875	6	10	0.03	2000	3.224906	40.92394	-91.39362
107010	1778	2216	1261	-0.3557701	-3.378242	-4.568136	0	11.91	4003	0	0	5	5	0.06604257	0.2553099	6	10	0.03	2000	4.543674	40.92394	-91.39362
107127	2777	-916	-2911	3.013673	-4.61106	-3.737242	0	11.51	4002	0	0	5	5	0.07219172	0.2900585	6	10	0.03	2000	6.864788	40.92394	-91.39362
107214	-1548	-445	-240	2.966577	-4.938107	-1.7084	0	11.51	4004	0	0	5	5	0.08943104	0.3134359	6	10	0.03	2000	7.201074	40.92394	-91.39362
107321	-134	-653	415	0.5053998	-3.393201	-1.848691	0	11.51	4003	0	0	5	5	0.1224207	0.3461462	6	10	0.03	2000	6.49965	40.92393	-91.39362
107403	-2167	1789	1077	-0.8157194	-3.275733	-2.975521	0	11.51	4003	0	0	5	5	0.1488855	0.3553951	6	10	0.03	2000	6.970197	40.92393	-91.39362
107519	-2486	2784	339	-6.871236	-8.668109	-4.02482	0	11.51	4003	0	0	5	5	0.1738594	0.3712998	6	10	0.03	2000	6.879817	40.92393	-91.39362
107647	-1607	2933	454	-9.656716	-11.55294	-3.937917	0	11.51	4005	-121	300	5	5	0.2192554	0.378679	8	10	0.03	2000	2.455986	40.92393	-91.39362
107746	1758	-6134	919	-7.397197	-6.564648	-4.272489	0	11.51	4004	8	300	5	5	0.2387915	0.3864156	8	10	0.03	2000	-0.239502	40.92393	-91.39362
107834	-167	-5310	-1475	-5.046956	6.824098	-2.332034	0	11.51	4003	8	300	5	5	0.2546157	0.394173	8	10	0.03	2000	-0.8878174	40.92393	-91.39362
107892	655	-3545	-691	-4.524666	8.503967	-2.186251	0	11.51	4002	8	300	5	5	0.2778156	0.4170509	8	10	0.03	2000	-0.8878174	40.92393	-91.39362
108034	2300	-1306	575	-1.160889	12.43129	-2.403131	0	11.51	4004	-112	300	5	5	0.2930371	0.4370755	8	10	0.03	2000	-0.9454346	40.92393	-91.39362
108174	-1248	-1939	-781	-0.7141423	12.74144	-2.815861	0	11.51	4004	-112	300	5	5	0.303024	0.4740228	8	10	0.03	2000	3.620672	40.92393	-91.39362
108231	2849	5994	-983	1.939734	7.370544	-1.520666	0	11.51	4003	128	-127	5	5	0.3081873	0.5015385	8	10	0.03	2000	6.229536	40.92393	-91.39362
108309	-3975	10411	2330	1.341256	-2.346313	-2.437839	0	11.51	4004	10	-153	5	5	0.3108264	0.5219706	8	10	0.03	2000	8.041791	40.92393	-91.39362
108388	-331	13370	508	-1.605658	-15.05745	-3.072335	0	11.51	4003	8	-128	5	5	0.312964	0.5479286	8	10	0.03	2000	9.901643	40.92393	-91.39362
108542	-1735	8420	-546	-1.120562	-34.08898	-1.653928	0	11.51	4002	8	-192	5	5	0.3166958	0.6123862	8	10	0.03	2000	1.131226	40.92392	-91.39362
108600	180	7280	145	-1.39065	-39.4312	-0.7769619	0	11.51	4003	8	-255	5	5	0.3172339	0.6223565	8	10	0.03	2000	-0.1433411	40.92392	-91.39362
108734	-1569	2493	-22	-2.034669	-39.97695	-1.622918	0	11.51	4003	8	-256	5	5	0.3192173	0.7145427	8	10	0.03	2000	-2.229919	40.92392	-91.39362
108791	-268	2674	1445	-2.532162	-39.9007	-1.902232	0	11.51	4002	136	-256	5	5	0.3195032	0.7488562	8	10	0.03	2000	-1.101227	40.92392	-91.39361
108899	-2357	-4731	1079	-4.731621	-30.56447	-1.622372	0	11.29	4003	136	-136	5	5	0.3203883	0.8384382	8	10	0.03	2000	-0.3674622	40.92392	-91.39361
109002	-2231	-1713	-35	-10.20675	-19.16901	-1.578507	0	11.29	4003	136	-200	5	5	0.3207092	0.9009493	8	10	0.03	2000	-1.21756	40.92392	-91.39361
109129	-239	-7003	-1294	-9.479095	-12.04321	-3.291124	0	11.29	4008	136	-140	5	5	0.3210799	1.026898	8	10	0.03	2000	-0.4542236	40.92392	-91.39361
109247	-860	1323	566	-8.577105	-8.129443	-3.747897	0	11.29	4003	136	-81	5	5	0.3214882	1.240641	8	10	0.03	2000	0.4265197	40.92392	-91.39361
109362	-846	-2906	-879	-11.01527	-8.741138	-3.66248	0	11.29	4002	136	-16	5	5	0.3216478	1.313426	8	10	0.03	2000	-0.4284363	40.92392	-91.39361
109405	-41	-3136	1355	-10.93391	-7.124752	-3.804048	0	11.29	4003	17	-16	5	5	0.3217293	1.363756	8	10	0.03	2000	-0.04318237	40.92392	-91.39361
109489	2131	-6838	824	-5.731574	1.117482	-3.446401	0	11.29	4003	16	-16	5	5	0.3217954	1.424559	8	10	0.03	2000	-1.050018	40.92392	-91.39361
109633	972	-7877	160	-1.805894	20.86117	-2.914541	0	11.29	4004	16	107	5	5	0.3219107	1.661959	8	10	0.03	2000	1.120635	40.92392	-91.39361
109683	-408	-5129	-20	-1.713568	22.43104	-3.237724	0	11.29	4004	16	170	5	5	0.3219273	1.67502	8	10	0.03	2000	1.120635	40.92393	-91.39361
109872	556	-498	-1227	-2.994031	11.98329	-3.935668	0	11.51	4003	16	171	5	5	0.3219975	1.828764	8	10	0.03	2000	3.005242	40.92393	-91.39361
109949	202	-1409	-1090	-2.241703	10.74379	-3.391203	0	11.51	4003	16	235	5	5	0.3220126	1.891789	8	10	0.03	2000	3.135618	40.92393	-91.39361
110065	1762	570	966	-1.623356	9.177962	-2.669736	0	11.51	4003	16	239	5	5	0.3220347	1.991426	8	10	0.03	2000	4.753399	40.92393	-91.39361
110100	975	-757	-578	-1.008146	8.769842	-2.556574	0	11.51	4002	16	239	5	5	0.322039	2.018735	8	10	0.03	2000	4.753399	40.92393	-91.39361
110267	-34	-326	1013	-2.269013	11.16136	-3.028452	0	11.51	4004	16	180	5	5	0.3220521	2.052529	8	10	0.03	2000	10.25519	40.92394	-91.39361
110317	912	-1289	-708	-1.545526	10.47264	-3.151934	0	11.51	4004	16	184	5	5	0.3220588	2.040889	8	10	0.03	2000	10.25519	40.92394	-91.39361
110412	346	4479	-718	-1.110076	5.3892	-3.275109	0	11.51	4004	16	183	5	5	0.3220623	2.015325	8	10	0.03	2000	11.60218	40.92394	-91.39361
110460	1127	5814	-758	-0.5867132	1.787652	-3.275177	0	11.51	4003	17	183	5	5	0.3220662	1.98297	8	10	0.03	2000	11.60218	40.92394	-91.39361
110570	1258	5752	-409	-1.359997	-6.084249	-2.614214	0	11.51	4004	17	123	5	5	0.3220691	1.915579	8	10	0.03	2000	20.16761	40.92394	-91.39361
110664	-579	1479	-1591	-2.195095	-9.360693	-1.74522	0	11.23	4004	20	76	5	5	0.3220706	1.864418	8	10	0.03	2000	11.37414	40.92394	-91.39361
110891	-923	556	373	-2.639071	-3.021967	-1.690347	0	11.23	4002	17	-60	5	5	0.3220742	1.694052	8	10	0.03	2000	12.55848	40.92393	-91.39361
111044	156	3362	155	-1.650463	-6.224976	-2.29868	0	11.23	4003	17	-60	5	5	0.3220747	1.657373	8	10	0.03	2000	11.40787	40.92393	-91.39361
111143	227	7455	335	-1.969504	-18.73466	-2.634456	0	11.23	4004	17	-60	5	5	0.3220755	1.60129	8	10	0.03	2000	12.36238	40.92393	-91.39361
111292	-2407	1547	-1692	-5.642457	-24.30833	-0.9037488	0	11.23	4003	17	-124	5	5	0.3220761	1.522841	8	10	0.03	2000	6.505594	40.92393	-91.39361
111397	893	-719	1926	-4.965925	-23.00537	-0.6493154	0	11.23	4002	17	-65	5	5	0.3220763	1.501402	8	10	0.03	2000	2.152005	40.92393	-91.39361
111527	666	0	-25	-3.060457	-15.01577	-2.64206	0	11.23	4003	17	-64	5	5	0.3220766	1.479824	8	10	0.03	2000	3.91096	40.92393	-91.39361
111569	1387	920	-442	-2.382421	-14.9446	-2.741643	0	11.29	4003	17	-128	5	5	0.3220766	1.480336	8	10	0.03	2000	4.715558	40.92393	-91.39361
111755	-218	-1749	-175	-1.220354	-13.10147	-2.322897	0	11.29	4004	17	-69	5	5	0.3220768	1.508403	8	10	0.03	2000	5.587776	40.92393	-91.39361
111820	-201	-1402	749	-1.192037	-9.024058	-2.793675	0	11.29	4002	17	-68	5	5	0.3220769	1.529544	8	10	0.03	2000	4.486858	40.92393	-91.39361
111919	-41	50	82	-1.297604	-8.959763	-3.230298	0	11.29	4003	145	-68	5	5	0.3220769	1.592728	8	10	0.03	2000	4.33503	40.92393	-91.3936
111960	-2568	-481	-785	-2.928341	-9.245055	-3.485815	0	11.29	4003	174	-82	5	5	0.3220769	1.622052	8	10	0.03	2000	5.150971	40.92393	-91.3936
112070	-3184	-2729	-1512	-4.793159	-8.884216	-3.436249	0	11.29	4004	17	-68	5	5	0.3220769	1.676023	8	10	0.03	2000	5.261523	40.92393	-91.39361
112250	6	-2638	-395	-3.692301	-6.049452	-2.809442	0	11.29	4004	87	32	5	5	0.3220769	1.778996	8	10	0.03	2000	4.335975	40.92393	-91.3936
112300	-1906	-971	414	-4.814908	-3.491161	-2.874029	0	11.29	4009	146	55	5	5	0.3220769	1.790111	8	10	0.03	2000	4.973387	40.92393	-91.3936
112404	-1570	-4692	13	-7.958753	0.6206465	-2.928831	0	11.29	4003	145	118	5	5	0.3220769	1.8534	8	10	0.03	2000	5.218514	40.92393	-91.3936
112479	-447	-7743	-1410	-8.944704	6.255077	-2.572996	0	11	4003	146	119	5	5	0.3220769	1.891126	8	10	0.03	2000	5.008917	40.92393	-91.3936
112674	4585	-962	-1077	-6.685579	4.052904	-3.248286	0	11	4003	16	119	5	5	0.3220769	1.969892	8	10	0.03	2000	6.614801	40.92393	-91.39361
112870	-243	-3556	-467	-3.931101	4.04384	-3.240791	0	11	4003	-100	124	5	5	0.3220769	2.099779	8	10	0.03	2000	6.950845	40.92394	-91.39361
112920	2984	-2107	-1307	-2.926087	4.04384	-3.240791	0	11	4003	-102	123	5	5	0.3220769	2.10972	8	10	0.03	2000	6.950845	40.92394	-91.39361
113005	2638	-731	-56	0.2528427	7.161911	-3.38786	0	11	4003	-101	123	5	5	0.3220769	2.128941	8	10	0.03	2000	5.954684	40.92394	-91.39361
113072	500	387	1273	2.580888	4.370351	-3.685236	0	11	4004	-101	63	5	5	0.3220769	2.152132	8	10	0.03	2000	11.71167	40.92394	-91.39361
113159	2732	3494	1085	4.052558	1.17708	-3.189273	0	11	4002	-101	63	5	5	0.3220769	2.189135	8	10	0.03	2000	20.54674	40.92394	-91.39361
113270	513	407	-1496	5.738661	-2.594505	-1.818939	0	11	4002	18	63	5	5	0.3220769	2.199523	8	10	0.03	2000	31.66739	40.92394	-91.39361
113367	-2483	4674	1950	0.985937	-6.662333	-2.784091	0	11	4002	18	63	5	5	0.3220769	2.219973	8	10	0.03	2000	33.79259	40.92394	-91.39361
113471	706	-1695	-1838	0.2957644	-9.608076	-3.108356	0	11	4003	21	4	5	5	0.3220769	2.219675	8	10	0.03	2000	34.88105	40.92394	-91.39361
113612	390	-86	586	-0.94269	-6.979966	-2.223552	0	11	4002	18	3	5	5	0.3220769	2.214204	8	10	0.03	2000	33.33298	40.92394	-91.39361
113683	-47	-848	-1649	-1.37752	-7.089825	-1.548705	0	11	4004	18	3	5	5	0.3220769	2.200064	8	10	0.03	2000	34.26944	40.92393	-91.39361
113821	1803	2258	1850	-1.754433	-5.661247	-2.705303	0	11	4003	18	-60	5	5	0.3220769	2.179717	8	10	0.03	2000	45.37901	40.92393	-91.39361
113920	-757	315	1239	0.08135883	-8.100498	-2.961613	0	11	4003	18	-125	5	5	0.3220769	2.16112	8	10	0.03	2000	42.86196	40.92393	-91.39361
114022	-767	231	-1173	-3.104527	-8.301992	-2.955735	0	11	4004	18	-125	5	5	0.3220769	2.148911	8	10	0.03	2000	47.26548	40.92393	-91.39361
114098	-1064	2298	531	-2.84916	-9.833249	-3.184532	0	11	4004	146	-189	5	5	0.3220769	2.147237	8	10	0.03	2000	36.93836	40.92393	-91.3936
114191	-1867	1734	1555	-6.03881	-10.25315	-3.322404	0	11	4002	146	-188	5	5	0.3220769	2.141462	8	10	0.03	2000	32.92739	40.92393	-91.3936
114317	927	2847	-1871	-6.973541	-11.46346	-3.348231	0	11	4003	147	-253	5	5	0.3220769	2.145164	8	10	0.03	2000	29.04004	40.92392	-91.3936
114405	-2094	2693	-1553	-7.786618	-14.11368	-2.609227	0	10.55	4004	147	-193	5	5	0.3220769	2.147349	8	10	0.03	2000	23.31863	40.92392	-91.3936
114509	-511	2441	-597	-10.13577	-15.2419	-2.66211	0	10.55	4004	147	-257	5	5	0.3220769	2.148127	8	10	0.03	2000	18.47516	40.92392	-91.3936
114665	-821	-440	-759	-11.53874	-15.91147	-2.259027	0	10.55	4003	147	-261	5	5	0.3220769	2.16169	8	10	0.03	2000	11.55557	40.92392	-91.3936
114761	2123	1272	-1175	-9.666347	-17.15636	-1.77764	0	10.55	4004	27	-201	5	5	0.3220769	2.169115	8	10	0.03	2000	6.222078	40.92392	-91.3936
114898	493	415	576	-6.582827	-14.13633	-2.348775	0	10.55	4002	27	-205	5	5	0.3220769	2.187543	8	10	0.03	2000	4.70587	40.92391	-91.3936
115052	148	1527	1760	-4.315581	-15.35943	-3.481575	0	10.55	4004	27	-269	5	5	0.3220769	2.228315	8	10	0.03	2000	3.511254	40.92391	-91.3936
115105	-1298	-1027	-1687	-5.091374	-15.83463	-3.457767	0	10.55	4004	27	-209	5	5	0.3220769	2.234686	8	10	0.03	2000	3.66673	40.92391	-91.3936
115200	1511	1408	19	-4.455059	-14.23684	-2.456279	0	10.55	4002	27	-273	5	5	0.3220769	2.258221	8	10	0.03	2000	3.824003	40.9239	-91.3936
115420	-138	913	604	-3.706246	-16.13568	-3.045205	0	11.34	4003	27	-213	5	5	0.3220769	2.365142	8	10	0.03	2000	1.735248	40.9239	-91.3936
115547	536	2142	726	-3.159335	-18.40109	-3.126959	0	11.34	4004	27	-153	5	5	0.3220769	2.395546	8	10	0.03	2000	0.3329906	40.9239	-91.3936
115607	170	-216	1447	-2.066086	-17.98988	-2.984382	0	11.34	4002	27	-218	5	5	0.3220769	2.433025	8	10	0.03	2000	0.420305	40.9239	-91.3936
115762	258	-34	238	-2.743293	-16.11808	-2.927428	0	11.34	4004	27	-157	5	5	0.3220769	2.50778	8	10	0.03	2000	1.472708	40.9239	-91.3936
115914	-17	-1248	-1250	-4.114867	-12.61018	-2.95775	0	11.34	4002	27	-98	5	5	0.3220769	2.59042	8	10	0.03	2000	1.022406	40.9239	-91.3936
116104	-378	-631	1667	-4.315726	-8.252829	-3.474365	0	11.34	4002	28	-98	5	5	0.3220769	2.685658	8	10	0.03	2000	2.640545	40.9239	-91.3936
116153	344	174	-382	-3.721323	-8.220879	-3.910948	0	11.34	4002	28	-34	5	5	0.3220769	2.709385	8	10	0.03	2000	2.640833	40.9239	-91.3936
116303	-41	-1742	-1132	-2.733355	-5.390591	-3.883348	0	11.57	4002	28	25	5	5	0.3220769	2.78638	8	10	0.03	2000	3.091987	40.9239	-91.3936
116362	-11	456	-13	-3.020732	-4.823962	-3.739251	0	11.57	4002	28	25	5	5	0.3220769	2.818504	8	10	0.03	2000	2.870886	40.9239	-91.3936
116466	-27	-1396	231	-3.31481	-4.168603	-3.316232	0	11.57	4004	28	25	5	5	0.3220769	2.874359	8	10	0.03	2000	4.442321	40.9239	-91.3936
116549	2217	-2114	-120	-3.227011	-3.697412	-3.426145	0	11.57	4004	-99	153	5	5	0.3220769	2.905717	8	10	0.03	2000	3.896894	40.92391	-91.39361
116636	1488	-3374	1806	1.987903	1.057175	-3.591101	0	11.57	4003	-99	153	5	5	0.3220769	2.92688	8	10	0.03	2000	6.979167	40.92391	-91.39361
116731	1655	-3246	-1192	3.274543	3.774289	-3.755144	0	11.57	4004	-99	94	5	5	0.3220769	2.954743	8	10	0.03	2000	8.451637	40.92391	-91.39361
116820	244	-317	707	4.50037	4.159745	-3.574258	0	11.57	4003	-99	93	5	5	0.3220769	2.985512	8	10	0.03	2000	10.20562	40.92392	-91.39361
116886	360	-1293	217	4.246336	4.132624	-3.442182	0	11.57	4003	-99	221	5	5	0.3220769	3.001109	8	10	0.03	2000	12.54842	40.92392	-91.39361
117045	3265	-1123	339	5.974257	7.72804	-2.83773	0	11.57	4002	-227	221	5	5	0.3220769	2.989873	8	10	0.03	2000	19.07995	40.92392	-91.39362
117171	1531	-3503	-723	9.766952	10.04534	-2.921777	0	10.83	4003	-107	101	5	5	0.3220769	2.947481	8	10	0.03	2000	25.71509	40.92392	-91.39362
117274	186	861	-251	7.165126	7.718058	-3.591307	0	10.83	4003	-107	165	5	5	0.3220769	2.851848	8	10	0.03	2000	35.92437	40.92392	-91.39362
117334	43	1205	1075	7.072223	5.501408	-3.395261	0	10.83	4004	-107	165	5	5	0.3220769	2.813203	8	10	0.03	2000	37.19388	40.92392	-91.39362
117436	-383	1015	-1729	6.014476	2.171071	-3.19263	0	10.83	4004	-107	229	5	5	0.3220769	2.654613	8	10	0.03	2000	43.23247	40.92393	-91.39362
117475	-383	1015	-1729	6.014476	2.171071	-3.19263	0	10.83	4004	-107	110	5	5	0.3220769	2.639078	8	10	0.03	2000	43.23247	40.92393	-91.39362
117576	402	2231	363	4.962305	-1.815917	-2.117075	0	10.83	4003	-85	87	5	5	0.3220769	2.527406	8	10	0.03	2000	48.00986	40.92393	-91.39362
117673	-3822	299	65	0.00600422	-3.077428	-2.852038	0	10.83	4004	12	109	5	5	0.3220769	2.354063	8	10	0.03	2000	51.86711	40.92393	-91.39362
117807	-4693	861	-789	-5.926837	-5.045002	-4.039052	0	10.83	4004	141	109	5	5	0.3220769	2.247898	8	10	0.03	2000	44.96276	40.92393	-91.39361
117954	-5144	2003	589	-17.42041	-8.113015	-3.849376	0	10.66	4003	269	-15	5	5	0.3220769	2.020822	8	10	0.03	2000	42.64748	40.92392	-91.3936
118030	-5332	3720	-108	-22.66626	-10.57196	-3.986357	0	10.66	4003	269	-75	5	5	0.3220769	1.969625	8	10	0.03	2000	28.4716	40.92392	-91.3936
118129	-312	1418	-2004	-24.79301	-13.21358	-3.089273	0	10.66	4003	269	-139	5	5	0.3220769	1.895739	8	10	0.03	2000	7.615376	40.92392	-91.3936
118165	899	2220	1242	-23.07767	-14.0525	-2.92546	0	10.66	4002	268	-139	5	5	0.3220769	1.832904	8	10	0.03	2000	7.615376	40.92392	-91.3936
118251	-2229	255	-1324	-22.5245	-15.31973	-3.02777	0	10.66	4003	269	-139	5	5	0.3220769	1.674605	8	10	0.03	2000	-3.108612	40.92392	-91.39359
118411	-1976	129	368	-20.49419	-10.57548	-3.633374	0	10.66	4004	277	-139	5	5	0.3220769	1.561149	8	10	0.03	2000	-11.14517	40.92392	-91.39359
118458	-1976	129	368	-20.49419	-10.57548	-3.633374	0	10.66	4004	277	-203	5	5	0.3220769	1.498981	8	10	0.03	2000	-11.14517	40.92392	-91.39359
118554	-1062	650	-1234	-18.67484	-13.17733	-3.770193	0	10.66	4004	158	-143	5	5	0.3220769	1.423136	8	10	0.03	2000	-16.48257	40.92392	-91.39359
118710	-37	-78	-753	-17.3755	-9.438343	-2.460121	0	10.66	4003	157	-84	5	5	0.3220769	1.318406	8	10	0.03	2000	-21.47635	40.92392	-91.39359
118826	504	2467	647	-15.37692	-11.50105	-1.751417	0	10.66	4002	157	-83	5	5	0.3220769	1.27947	8	10	0.03	2000	-23.73981	40.92391	-91.3936
118882	4643	1409	943	-9.530295	-13.57005	-0.771419	0	10.09	4004	-89	-147	5	5	0.3220769	1.253193	8	10	0.03	2000	-24.1987	40.92391	-91.3936
119047	5390	11	-385	1.567434	-9.686706	-2.568087	0	10.09	4003	-90	-147	5	5	0.3220769	1.239239	8	10	0.03	2000	-20.60608	40.92391	-91.3936
119128	5666	1183	934	6.610338	-9.970797	-3.023305	0	10.09	4004	-90	-87	5	5	0.3220769	1.252297	8	10	0.03	2000	-17.30759	40.92391	-91.3936
119229	4144	-1555	-242	12.35296	-7.999017	-2.80992	0	10.09	4002	-218	-87	5	5	0.3220769	1.278925	8	10	0.03	2000	-15.07974	40.92391	-91.39361
119261	4924	-752	-1737	14.24104	-8.546133	-2.543182	0	10.09	4003	-218	-87	5	5	0.3220769	1.278925	8	10	0.03	2000	-13.72397	40.92391	-91.39361
119355	-181	107	1718	14.82138	-8.16931	-2.286381	0	10.09	4004	-300	-88	5	5	0.3220769	1.310161	8	10	0.03	2000	-9.073334	40.92391	-91.39362
119531	3182	677	-19	17.67005	-6.584873	-2.147878	0	10.09	4004	-226	-27	5	5	0.3220769	1.399445	8	10	0.03	2000	-1.543304	40.92392	-91.39362
119672	3015	-1881	600	16.57114	-4.745225	-2.730137	0	10.09	4003	-300	43	5	5	0.3220769	1.405149	8	10	0.03	2000	6.084564	40.92392	-91.39362
119805	2907	-404	-1839	18.35811	-3.364239	-2.365123	0	11.63	4002	-300	35	5	5	0.3220769	1.376217	8	10	0.03	2000	13.30386	40.92392	-91.39362
119942	-4977	-2324	648	12.26582	-1.231679	-3.525493	0	11.63	4004	0	0	5	5	0.3220769	1.324501	3	10	0.03	2000	21.85938	40.92392	-91.39362
120008	-4602	-885	164	5.889598	0.1359591	-3.995086	0	11.63	4003	0	0	5	5	0.3220769	1.249842	3	10	0.03	2000	22.70299	40.92392	-91.39362
120099	-1490	700	881	2.499696	-0.1329271	-4.323079	0	11.63	4003	0	0	5	5	0.3220769	1.195568	3	10	0.03	2000	23.52411	40.92392	-91.39362
120152	-1490	700	881	2.499696	-0.1329271	-4.323079	0	11.63	4003	0	0	5	5	0.3220769	1.195568	3	10	0.03	2000	23.52411	40.92392	-91.39362
120278	-12016	-5048	-982	3.998084	-8.723019	-4.934251	0	11.63	4003	0	0	5	5	0.3220769	1.057549	3	10	0.03	2000	25.86721	40.92392	-91.39363
120347	-7947	-4504	-1009	-1.984336	-6.133811	-4.32445	0	11.63	4004	0	0	5	5	0.3220769	1.004545	3	10	0.03	2000	21.5572	40.92392	-91.39363
120501	5021	-1246	-484	-1.73702	-1.301966	-1.985946	0	11.63	4004	0	0	5	5	0.3220769	0.9108902	3	10	0.03	2000	18.77707	40.92392	-91.39363
120653	528	-550	-668	9.385724	0.8409547	-0.6428947	0	11.63	4004	0	0	5	5	0.3220769	0.8094828	3	10	0.03	2000	23.08514	40.92393	-91.39362
120729	-8477	-103	1092	-2.151804	0.6086541	-0.4562249	0	11.74	4004	0	0	5	5	0.3220769	0.7244559	3	10	0.03	2000	24.42876	40.92393	-91.39362
120788	-4271	-58	-159	-7.618721	0.3555058	-0.6042999	0	11.74	4002	0	0	5	5	0.3220769	0.7095603	3	10	0.03	2000	24.06837	40.92393	-91.39362
120881	-3925	907	517	-10.7282	-0.6574685	-1.422346	0	11.74	4003	0	0	5	5	0.3220769	0.6488784	3	10	0.03	2000	20.47092	40.92393	-91.39362
120951	-6971	1358	-1916	-18.01189	-2.088197	-1.153228	0	11.74	4003	0	0	5	5	0.3220769	0.6162115	3	10	0.03	2000	16.69337	40.92393	-91.39362
121140	-2200	-761	-2700	-28.12217	-1.046747	2.677947	0	11.74	4004	0	0	5	5	0.3220769	0.5417837	3	10	0.03	2000	1.723809	40.92393	-91.39362
121212	-59	-2428	1015	-24.31968	1.130608	3.629998	0	11.74	4003	0	0	5	5	0.3220769	0.4757175	3	10	0.03	2000	-4.176361	40.92393	-91.39362
121266	-1847	678	2981	-23.79386	0.0888645	1.703145	0	11.74	4004	0	0	5	5	0.3220769	0.4568322	3	10	0.03	2000	-7.238678	40.92393	-91.39362
121336	2905	-727	1249	-21.4994	-1.098894	-0.1924698	0	11.74	4003	0	0	5	5	0.3220769	0.4280877	3	10	0.03	2000	-11.4902	40.92393	-91.39361
121441	5524	-446	400	-14.63298	-0.7685876	-1.141325	0	11.74	4004	0	0	5	5	0.3220769	0.3981038	3	10	0.03	2000	-11.96445	40.92393	-91.39361
121614	1514	917	280	-5.890734	-2.032267	0.6026242	0	11.74	4003	0	0	5	5	0.3220769	0.3785408	3	10	0.03	2000	-15.59964	40.92393	-91.39361
121643	1850	-920	973	-4.467428	-1.503032	0.8277967	0	11.34	4004	0	0	5	5	0.3220769	0.3853551	3	10	0.03	2000	-15.59964	40.92393	-91.39361
121783	566	-1697	563	-2.319128	2.894339	3.159828	0	11.34	4002	0	0	5	5	0.3220769	0.4202741	3	10	0.03	2000	-18.31323	40.92393	-91.39361
121851	-343	-212	163	-2.716115	3.025076	2.688601	0	11.34	4002	0	0	5	5	0.3220769	0.438408	3	10	0.03	2000	-17.57413	40.92393	-91.39361
121951	598	-682	864	-2.611306	2.146315	1.354256	0	11.34	4003	0	0	5	5	0.3220769	0.4555147	3	10	0.03	2000	-16.94559	40.92393	-91.39361
122055	577	1233	1204	-1.903594	0.7917765	0.847389	0	11.34	4004	0	0	5	5	0.3220769	0.4908497	3	10	0.03	2000	-16.86145	40.92393	-91.39361
122211	-1778	-33	-1007	-0.5994654	-4.674249	2.496216	0	11.34	4002	0	0	5	5	0.3220769	0.5255555	3	10	0.03	2000	-18.28671	40.92393	-91.39361
122361	652	-752	-1208	-2.410386	-0.3206371	6.842464	0	11.34	4006	0	0	5	5	0.3220769	0.5724936	3	10	0.03	2000	-16.20029	40.92393	-91.39362
122495	362	1904	3099	-1.601114	-6.984445	4.096542	0	11.34	4003	0	0	5	5	0.3220769	0.6374027	3	10	0.03	2000	-15.6315	40.92393	-91.39362
122565	257	-491	563	-0.4069201	-7.725756	1.038058	0	11.11	4003	0	0	5	5	0.3220769	0.6781027	3	10	0.03	2000	-10.66537	40.92393	-91.39362
122735	1343	2947	-178	-0.541533	-8.289838	0.2224698	0	11.11	4004	0	0	5	5	0.3220769	0.7625611	3	10	0.03	2000	-7.923187	40.92393	-91.39362
122782	1993	2963	-1192	0.2851801	-11.07567	1.02351	0	11.11	4003	0	0	5	5	0.3220769	0.7915956	3	10	0.03	2000	-5.613831	40.92393	-91.39362
122883	-793	333	-346	1.476817	-12.70632	2.068568	0	11.11	4004	0	0	5	5	0.3220769	0.8247591	3	10	0.03	2000	-5.565063	40.92393	-91.39362
123010	633	-695	-930	-1.529485	-9.935451	2.548133	0	11.11	4002	0	0	5	5	0.3220769	0.8703329	3	10	0.03	2000	-2.015472	40.92393	-91.39362
123142	-1413	491	1126	-1.821678	-10.52025	1.314264	0	11.11	4003	0	0	5	5	0.3220769	0.8806348	3	10	0.03	2000	0.6645528	40.92393	-91.39362
123200	-2058	-740	-705	-2.876293	-10.11387	1.122745	0	11.11	4003	0	0	5	5	0.3220769	0.8870847	3	10	0.03	2000	0.6645528	40.92393	-91.39362
123309	-765	-1943	-721	-5.407809	-7.930366	1.522577	0	11.11	4003	0	0	5	5	0.3220769	0.8979102	3	10	0.03	2000	0.5171849	40.92393	-91.39362
123350	-2420	-2568	284	-6.090546	-6.916253	1.578367	0	11.11	4002	0	0	5	5	0.3220769	0.89757	3	10	0.03	2000	-0.6316223	40.92393	-91.39362
123453	-1889	-1294	437	-7.985926	-5.268796	2.082124	0	11.4	4002	0	0	5	5	0.3220769	0.8895397	3	10	0.03	2000	-1.912598	40.92393	-91.39362
123628	-2125	1487	-158	-12.6424	-9.536551	1.262098	0	11.4	4004	0	0	5	5	0.3220769	0.8766469	3	10	0.03	2000	-4.761536	40.92393	-91.39362
123685	-1547	-1485	-1059	-14.5014	-8.866484	0.8483602	0	11.4	4002	0	0	5	5	0.3220769	0.8616195	3	10	0.03	2000	-8.14798	40.92393	-91.39362
