time(ms)	gyro_x(deg/s)	gyro_y(deg/s)	gyro_z(deg/s)	orientation_roll(deg)	orientation_pitch(deg)	orientation_yaw(deg)	throttle	battery(V)	loop_time(uS)	pid_output_roll	pid_output_pitch	pid_output_yaw	pid_output_throttle	ultrasonic_alt	baro_alt	flight_mode	p_gain_altitude	i_gain_altitude	d_gain_altitude	compass_heading	latitude	longitude
249812	21	-6	0	0.1314342	0.1486438	-39.7066	0	11.63	4003	0	0	5	5	0.04253198	0.3329103	3	10	0.03	2000	-1.201813	40.92393	-91.39363
249881	23	-5	0	0.1333501	0.150405	-39.70464	0	11.63	4004	0	0	5	5	0.04253198	0.3325752	3	10	0.03	2000	-1.19104	40.92393	-91.39363
249999	15	4	0	0.1404281	0.14991	-39.70312	0	11.63	4003	0	0	5	5	0.04253198	0.3305854	3	10	0.03	2000	-1.19455	40.92393	-91.39363
250080	22	-2	-5	0.1366791	0.1462487	-39.70068	0	11.63	4004	0	0	5	5	0.04253198	0.3213515	3	10	0.03	2000	-1.20636	40.92393	-91.39363
250184	12	0	-5	0.140709	0.1492348	-39.69952	0	11.63	4004	0	0	5	5	0.04253198	0.3186476	3	10	0.03	2000	-1.196411	40.92393	-91.39363
250288	19	-5	4	0.1425818	0.152036	-39.69775	0	11.63	4004	0	0	5	5	0.04253198	0.3150842	3	10	0.03	2000	-0.9691467	40.92393	-91.39363
250392	15	1	-1	0.1428037	0.1516612	-39.69512	0	11.63	4004	0	0	5	5	0.04253198	0.3147303	3	10	0.03	2000	-1.207123	40.92393	-91.39363
250496	18	-6	0	0.1517165	0.1526313	-39.69164	0	11.63	4003	0	0	5	5	0.04253198	0.314965	3	10	0.03	2000	-1.225647	40.92393	-91.39362
250607	14	6	-2	0.1481296	0.1463091	-39.68969	0	11.63	4004	0	0	5	5	0.04253198	0.3231485	3	10	0.03	2000	-1.218292	40.92393	-91.39362
250734	15	-3	-4	0.1479714	0.1446752	-39.68499	0	11.63	4004	0	0	5	5	0.04253198	0.3186769	3	10	0.03	2000	-1.211151	40.92393	-91.39362
250858	15	-2	-1	0.1480389	0.1442359	-39.68188	0	11.63	4003	0	0	5	5	0.04253198	0.3165632	3	10	0.03	2000	-1.215576	40.92393	-91.39362
250926	19	0	0	0.156133	0.1431884	-39.67797	0	11.68	4002	0	0	5	5	0.04253198	0.3152382	3	10	0.03	2000	-1.226929	40.92393	-91.39362
251011	23	0	-4	0.1609277	0.1410031	-39.67516	0	11.68	4003	0	0	5	5	0.04253198	0.3109987	3	10	0.03	2000	-1.234161	40.92393	-91.39362
251182	16	-4	-5	0.1610776	0.1357879	-39.67199	0	11.68	4003	0	0	5	5	0.04253198	0.3052596	3	10	0.03	2000	-1.241425	40.92393	-91.39362
251233	19	-4	-6	0.1605726	0.136749	-39.66747	0	11.68	4004	0	0	5	5	0.04253198	0.3043463	3	10	0.03	2000	-1.236969	40.92393	-91.39362
251329	23	4	2	0.1640239	0.1351971	-39.66668	0	11.68	4003	0	0	5	5	0.04253198	0.2982836	3	10	0.03	2000	-1.242126	40.92393	-91.39362
251479	19	2	0	0.1696217	0.1300049	-39.66033	0	11.68	4003	0	0	5	5	0.04253198	0.2902418	3	10	0.03	2000	-1.25238	40.92393	-91.39362
251601	25	-1	-6	0.178083	0.1258927	-39.65673	0	11.68	4004	0	0	5	5	0.04253198	0.2898112	3	10	0.03	2000	-1.268311	40.92393	-91.39362
251692	66	-11	35	0.1682869	0.1191056	-39.66412	0	11.68	4003	0	0	5	5	0.04253198	0.2877139	3	10	0.03	2000	-1.268311	40.92393	-91.39362
251731	66	-11	35	0.1682869	0.1191056	-39.66412	0	11.68	4003	0	0	5	5	0.04253198	0.2877139	3	10	0.03	2000	-1.268311	40.92393	-91.39362
251855	0	25	89	0.1512996	0.1212163	-39.65148	0	11.63	4004	0	0	5	5	0.04253198	0.2901087	3	10	0.03	2000	-2.166779	40.92393	-91.39362
252015	10	20	-42	0.1743901	0.1296092	-39.64592	0	11.63	4002	0	0	5	5	0.04253198	0.3107357	3	10	0.03	2000	-1.021667	40.92393	-91.39362
252055	71	-108	-5	0.1831081	0.1632004	-39.64561	0	11.63	4002	0	0	5	5	0.04253198	0.3142832	3	10	0.03	2000	-0.2816772	40.92393	-91.39362
252196	-48	56	-160	0.2341674	0.1434972	-39.63601	0	11.63	4004	0	0	5	5	0.04253198	0.339527	3	10	0.03	2000	-1.608856	40.92393	-91.39362
252238	241	-104	56	0.23255	0.1601917	-39.651	0	11.63	4004	0	0	5	5	0.04253198	0.352103	3	10	0.03	2000	-1.608856	40.92393	-91.39362
252387	-136	9	-96	0.2022412	0.122326	-39.6395	0	11.63	4003	0	0	5	5	0.04253198	0.3717936	3	10	0.03	2000	-1.5513	40.92393	-91.39362
252461	40	-22	-49	0.2207987	0.1196406	-39.65625	0	11.63	4004	0	0	5	5	0.04253198	0.381887	3	10	0.03	2000	-1.755951	40.92393	-91.39362
252600	-80	-108	160	0.2092585	0.1726721	-39.67207	0	11.63	4003	0	0	5	5	0.04253198	0.3949063	3	10	0.03	2000	-1.307159	40.92393	-91.39362
252654	-74	-20	-254	0.213874	0.1488053	-39.6555	0	11.63	4003	0	0	5	5	0.04253198	0.4003139	3	10	0.03	2000	-1.359436	40.92393	-91.39362
252816	113	14	-122	0.1885085	0.1612199	-39.67127	0	11.4	4003	0	0	5	5	0.04253198	0.4053507	3	10	0.03	2000	-1.347778	40.92393	-91.39362
252925	182	67	269	0.1822495	0.1594766	-39.66992	0	11.4	4003	0	0	5	5	0.04253198	0.4100837	3	10	0.03	2000	-1.205872	40.92393	-91.39362
253011	15	100	-190	0.1743234	0.1473923	-39.65893	0	11.4	4004	0	0	5	5	0.04253198	0.4101828	3	10	0.03	2000	-0.5251465	40.92393	-91.39362
253110	22	67	-100	0.09955159	0.1755852	-39.66597	0	11.4	4003	0	0	5	5	0.04253198	0.4098364	3	10	0.03	2000	-0.9128113	40.92393	-91.39362
253157	84	15	47	0.1016298	0.1907887	-39.66689	0	11.4	4004	0	0	5	5	0.04253198	0.4090707	3	10	0.03	2000	-0.9128113	40.92393	-91.39362
253291	120	-1	150	0.1047646	0.2202127	-39.66842	0	11.4	4003	0	0	5	5	0.04253198	0.4010335	3	10	0.03	2000	-1.398071	40.92393	-91.39362
253429	-56	-82	91	0.05492609	0.2369411	-39.65822	0	11.4	4004	0	0	5	5	0.04253198	0.4189239	3	10	0.03	2000	-1.279144	40.92393	-91.39362
253466	166	48	-280	0.06266689	0.2194606	-39.64318	0	11.4	4003	0	0	5	5	0.04253198	0.426969	3	10	0.03	2000	-1.279144	40.92393	-91.39362
253627	17	3	191	0.06461295	0.2168181	-39.67614	0	11.4	4004	0	0	5	5	0.04253198	0.4467971	3	10	0.03	2000	-0.6036072	40.92393	-91.39362
253664	-67	55	-142	0.0381785	0.1964205	-39.65872	0	11.4	4004	0	0	5	5	0.04253198	0.4470087	3	10	0.03	2000	-0.6036072	40.92393	-91.39362
253797	-162	19	-52	0.0599579	0.2135659	-39.66458	0	11.57	4004	0	0	5	5	0.04253198	0.445831	3	10	0.03	2000	-0.5895996	40.92393	-91.39362
253870	-167	4	9	0.05489621	0.2286056	-39.67123	0	11.57	4003	0	0	5	5	0.04253198	0.441727	3	10	0.03	2000	-0.8442993	40.92393	-91.39362
253988	-83	-99	-103	0.04213317	0.2078133	-39.6683	0	11.57	4003	0	0	5	5	0.04253198	0.4330357	3	10	0.03	2000	-1.053253	40.92393	-91.39362
254071	40	-3	0	0.05428206	0.2155606	-39.68133	0	11.57	4003	0	0	5	5	0.04253198	0.4303819	3	10	0.03	2000	-1.55188	40.92393	-91.39362
254196	56	-75	166	0.08206806	0.1727185	-39.69522	0	11.57	4004	0	0	5	5	0.04253198	0.425256	6	10	0.03	2000	-1.527802	40.92393	-91.39362
254281	-127	53	147	0.04293317	0.1688234	-39.68854	0	11.57	4002	0	0	5	5	0.02389006	0.4223703	6	10	0.03	2000	-1.060547	40.92393	-91.39362
254381	60	37	-229	0.05952459	0.1617582	-39.68211	0	11.57	4002	0	0	5	5	0.02864876	0.4222765	6	10	0.03	2000	-1.961914	40.92393	-91.39362
254528	-18	26	-170	0.06726501	0.1576871	-39.68082	0	11.57	4002	0	0	5	5	0.03335804	0.4280563	6	10	0.03	2000	-0.8636475	40.92393	-91.39362
254608	-42	48	-174	0.05029779	0.185941	-39.67048	0	11.57	4003	0	0	5	5	0.03471007	0.4365296	6	10	0.03	2000	-1.056335	40.92393	-91.39362
254731	-104	-73	-15	0.08712186	0.2471155	-39.66733	0	11.51	4003	0	0	5	5	0.03715705	0.45025	6	10	0.03	2000	-1.114075	40.92393	-91.39362
254881	-86	-95	-150	0.07415708	0.2025061	-39.61523	0	11.51	4003	0	0	5	5	0.03935815	0.4576757	6	10	0.03	2000	-1.357971	40.92393	-91.39362
255022	-196	-16	-206	0.03185067	0.1582687	-39.57572	0	11.51	4002	0	0	5	5	0.04021826	0.4534374	6	10	0.03	2000	-1.004272	40.92393	-91.39362
255091	186	-38	-328	0.09792911	0.125552	-39.56384	0	11.51	4004	0	0	5	5	0.04084529	0.4487415	6	10	0.03	2000	-1.564026	40.92393	-91.39362
255197	72	-15	-90	0.09025989	0.1251408	-39.54635	0	11.51	4002	0	0	5	5	0.04109659	0.4589445	6	10	0.03	2000	-1.279449	40.92393	-91.39362
255381	-40	-22	-30	0.01478461	0.1192587	-39.52269	0	11.51	4004	0	0	5	5	0.04139935	0.4876663	6	10	0.03	2000	-1.494995	40.92393	-91.39362
255437	-144	33	89	-0.03774474	0.03753528	-39.50613	0	11.51	4004	0	0	5	5	0.04161455	0.499491	6	10	0.03	2000	-1.494995	40.92393	-91.39362
255533	82	46	214	0.03980508	-0.05877829	-39.39456	0	11.51	4004	0	0	5	5	0.0408407	0.5183822	6	10	0.03	2000	-0.8085022	40.92393	-91.39362
255668	-7	107	-638	0.05920213	-0.03024875	-39.36462	0	11.29	4003	0	0	5	5	0.04077064	0.5372432	6	10	0.03	2000	-1.253082	40.92393	-91.39362
255758	202	-28	-141	0.1595575	-0.07908486	-39.42251	0	11.29	4002	0	0	5	5	0.04076229	0.5460053	6	10	0.03	2000	-1.453278	40.92393	-91.39362
255849	42	197	588	0.350463	-0.05679945	-39.71375	0	11.29	4002	0	0	5	5	0.04099226	0.5614446	6	10	0.03	2000	-1.350037	40.92393	-91.39362
255960	92	-607	-435	0.4283715	0.001982556	-40.0218	0	11.29	4003	0	0	5	5	0.04278372	0.5728062	6	10	0.03	2000	-0.941803	40.92393	-91.39362
256017	-284	-469	75	0.4044132	0.2722086	-40.03513	0	11.29	4002	0	0	5	5	0.04322417	0.5863096	6	10	0.03	2000	-1.461182	40.92393	-91.39362
256175	-791	1554	500	-0.3806134	-0.2101302	-40.33969	0	11.29	4003	0	0	5	5	0.04440451	0.5991784	6	10	0.03	2000	-0.193573	40.92393	-91.39362
256210	-700	1336	323	-0.8363334	-1.070788	-40.45612	0	11.29	4002	0	0	5	5	0.04561281	0.6032596	6	10	0.03	2000	-0.193573	40.92393	-91.39362
256329	1353	670	-427	-1.29336	-1.582441	-39.90543	0	11.29	4002	0	0	5	5	0.04977611	0.6186606	6	10	0.03	2000	1.137243	40.92393	-91.39362
256442	714	-1299	-1778	-0.8298377	-2.92668	-38.95028	0	11.29	4002	0	0	5	5	0.05932241	0.6436124	6	10	0.03	2000	0.6290579	40.92393	-91.39362
256516	53	383	276	-0.4262322	-3.791047	-38.52789	0	11.57	4004	0	0	5	5	0.0659729	0.651579	6	10	0.03	2000	2.488918	40.92393	-91.39362
256652	-451	-2489	-470	-0.8657336	-0.5792139	-38.04354	0	11.57	4004	0	0	5	5	0.08176003	0.6643649	6	10	0.03	2000	2.824651	40.92393	-91.39362
256761	334	-1024	-269	-0.7650926	-0.3008822	-38.76419	0	11.57	4002	0	0	5	5	0.101423	0.6571334	6	10	0.03	2000	3.564143	40.92393	-91.39362
256822	-263	683	1141	-0.3177714	-0.4533956	-39.19154	0	11.57	4004	0	0	5	5	0.09618133	0.6504528	6	10	0.03	2000	3.571346	40.92393	-91.39362
256912	1929	2229	-914	-0.0005339949	-4.176463	-38.3283	0	11.57	4004	0	0	5	5	0.1671211	0.6420688	6	10	0.03	2000	2.672843	40.92393	-91.39362
257006	-215	1209	1346	0.7666337	-5.696694	-37.89955	0	11.57	4003	-241	181	5	5	0.2137676	0.6473156	6	10	0.03	2000	3.916254	40.92393	-91.39362
257132	5173	-7167	-124	3.200944	3.140754	-39.12356	0	11.57	4003	-240	180	5	5	0.282156	0.6811281	8	10	0.03	2000	5.38979	40.92393	-91.39362
257219	4023	54	668	8.99727	6.194892	-39.86682	0	11.57	4003	-240	180	5	5	0.3069459	0.7058364	8	10	0.03	2000	15.06832	40.92393	-91.39362
257377	920	-680	1694	11.72593	7.852636	-38.56724	0	11.57	4004	-240	158	5	5	0.3502241	0.7610011	8	10	0.03	2000	24.75356	40.92393	-91.39362
257415	-411	-2204	-1703	10.9896	7.892083	-38.34314	0	11.63	4004	-240	159	5	5	0.3564646	0.7785264	8	10	0.03	2000	24.75356	40.92393	-91.39362
257517	1052	-1277	-1039	13.90375	7.69524	-37.50911	0	11.63	4003	-199	137	5	5	0.3716852	0.8080832	8	10	0.03	2000	35.51949	40.92393	-91.39362
257653	648	-694	-265	12.94572	7.363864	-37.96021	0	11.63	4003	0	-42	5	5	0.3857658	0.8606884	8	10	0.03	2000	51.32546	40.92393	-91.39362
257747	-6929	6590	1071	5.748664	1.305809	-39.62492	0	11.63	4003	42	-42	5	5	0.3930457	0.8997877	8	10	0.03	2000	51.89526	40.92393	-91.39362
257852	-4818	6899	-355	-1.228746	-5.391853	-39.93135	0	11.63	4003	42	-42	5	5	0.3983528	0.934463	8	10	0.03	2000	54.22903	40.92393	-91.39362
257923	-1999	5225	-1963	-6.183094	-13.23822	-38.76697	0	11.63	4003	84	-63	5	5	0.4010653	0.9603996	8	10	0.03	2000	34.22014	40.92392	-91.39361
258077	-1564	344	115	-14.95508	-22.4233	-38.40712	0	11.63	4003	127	-43	5	5	0.4058007	1.013382	8	10	0.03	2000	16.49512	40.92392	-91.3936
258136	-1216	-1780	-1120	-14.78751	-20.99832	-38.34459	0	11.63	4002	127	-64	5	5	0.4070981	1.026885	8	10	0.03	2000	16.49512	40.92392	-91.3936
258250	-1882	1970	113	-15.11366	-18.81671	-38.60201	0	11.63	4003	127	-44	5	5	0.408597	1.060456	8	10	0.03	2000	7.612751	40.92391	-91.3936
258438	-905	-3068	643	-12.30633	-11.58997	-39.15742	0	10.15	4003	87	-87	5	5	0.4102481	1.117169	8	10	0.03	2000	0.008559873	40.92391	-91.3936
258507	952	2454	-329	-10.59208	-10.83522	-39.0751	0	10.15	4004	129	-108	5	5	0.4108933	1.150517	8	10	0.03	2000	-1.140656	40.92391	-91.39359
258579	-451	-2089	645	-8.974343	-12.67679	-38.79985	0	10.15	4003	89	-88	5	5	0.4112231	1.175022	8	10	0.03	2000	-2.399384	40.92391	-91.39359
258666	634	-2364	-1753	-7.734835	-10.69691	-38.49953	0	10.15	4002	132	-109	5	5	0.4116041	1.214704	8	10	0.03	2000	-3.777008	40.9239	-91.39359
258752	-481	-1096	-1655	-7.86581	-8.103447	-38.63121	0	10.15	4002	92	-89	5	5	0.4117988	1.230948	8	10	0.03	2000	-4.881958	40.9239	-91.39359
258880	-1537	234	3	-8.482391	-8.384172	-39.3856	0	10.15	4004	134	-50	5	5	0.4120238	1.26631	8	10	0.03	2000	-5.649109	40.9239	-91.39358
258999	-523	-2219	-1371	-8.684375	-8.24233	-39.2685	0	10.15	4003	134	-70	5	5	0.412232	1.321912	8	10	0.03	2000	-8.219208	40.9239	-91.39358
259082	-351	-284	205	-8.944195	-5.8361	-38.35128	0	10.15	4003	134	-70	5	5	0.4123395	1.353174	8	10	0.03	2000	-7.849762	40.9239	-91.39358
259151	-903	-556	-282	-8.204757	-5.782429	-37.84161	0	10.15	4003	94	-50	5	5	0.4123685	1.367813	8	10	0.03	2000	-10.30908	40.9239	-91.39358
259329	243	-2090	-113	-10.40432	-2.752858	-39.72459	0	10.94	4004	96	-30	5	5	0.4124905	1.436925	8	10	0.03	2000	-11.50168	40.9239	-91.39357
259370	-24	708	-128	-8.858064	-2.880368	-39.93819	0	10.94	4004	96	-30	5	5	0.4125044	1.446605	8	10	0.03	2000	-10.94235	40.9239	-91.39357
259461	-679	436	-111	-8.94056	-4.346401	-39.44743	0	10.94	4003	97	-30	5	5	0.4125381	1.490204	8	10	0.03	2000	-11.57559	40.9239	-91.39357
259566	73	-432	339	-8.587599	-4.137797	-39.20085	0	10.94	4003	56	-30	5	5	0.4125628	1.534016	8	10	0.03	2000	-14.01627	40.9239	-91.39357
259690	1618	1267	273	-2.201818	-3.121029	-38.93481	0	10.94	4004	56	-10	5	5	0.4125855	1.594289	8	10	0.03	2000	-14.05524	40.9239	-91.39357
259768	197	-117	360	-1.931188	-4.004987	-39.2047	0	10.94	4004	14	-10	5	5	0.4125938	1.622953	8	10	0.03	2000	-14.05524	40.9239	-91.39358
259911	1482	-1211	211	2.925783	-5.506337	-39.66626	0	10.94	4004	-25	-10	5	5	0.4126082	1.682978	8	10	0.03	2000	-13.02136	40.9239	-91.39358
260005	1915	-1763	-552	4.222371	-3.001609	-38.82906	0	10.94	4002	-25	-10	5	5	0.4126122	1.708981	8	10	0.03	2000	-12.62375	40.9239	-91.39358
260150	-152	-869	293	4.016683	-4.822795	-38.61427	0	10.94	4002	-25	-10	5	5	0.4126191	1.765262	8	10	0.03	2000	-10.81882	40.9239	-91.39358
260186	-198	-2110	-744	3.364264	-4.10332	-38.64074	0	10.72	4004	-25	-10	5	5	0.41262	1.77273	8	10	0.03	2000	-7.433777	40.9239	-91.39358
260372	1849	-546	-1312	2.774652	-4.94448	-38.81521	0	10.72	4004	-28	-10	5	5	0.4126242	1.820028	8	10	0.03	2000	-6.746033	40.9239	-91.39359
260553	-489	2143	1735	0.1551569	-2.533426	-38.91512	0	10.72	4002	-28	-10	5	5	0.4126259	1.831464	8	10	0.03	2000	-3.879364	40.9239	-91.39359
260625	1080	1483	1223	0.02416553	-4.400141	-39.33489	0	10.72	4004	-28	-10	5	5	0.4126267	1.833403	8	10	0.03	2000	-2.64978	40.9239	-91.39359
260730	2014	-386	-1897	2.007537	-4.598501	-38.85521	0	10.72	4003	-28	10	5	5	0.4126275	1.847061	8	10	0.03	2000	-1.024139	40.9239	-91.39359
260755	936	477	541	2.301282	-4.83662	-38.79628	0	10.72	4003	-28	10	5	5	0.4126275	1.847061	8	10	0.03	2000	0.9047318	40.9239	-91.39359
260883	-543	614	2056	0.1946346	-3.918335	-37.83812	0	10.72	4004	-70	10	5	5	0.412628	1.87128	8	10	0.03	2000	1.4763	40.9239	-91.39359
261004	68	-610	1613	0.4216513	-4.480036	-39.58453	0	10.72	4002	-30	10	5	5	0.4126283	1.891521	8	10	0.03	2000	4.915329	40.9239	-91.39359
261089	616	-1969	-386	1.449928	-1.164645	-39.89119	0	10.72	4003	-30	10	5	5	0.4126284	1.890881	8	10	0.03	2000	7.533589	40.9239	-91.39359
261275	-579	-1017	-884	0.4681945	-2.234096	-38.51372	0	11.29	4004	-30	10	5	5	0.4126287	1.871723	8	10	0.03	2000	9.98737	40.9239	-91.39359
261400	481	700	623	1.176265	-2.97216	-37.87171	0	11.29	4003	-30	-9	5	5	0.4126288	1.859521	8	10	0.03	2000	11.21641	40.9239	-91.3936
261560	-4	-1608	547	2.750944	-3.623925	-39.17265	0	11.29	4004	-32	-9	5	5	0.4126288	1.844033	8	10	0.03	2000	16.56737	40.9239	-91.3936
261647	-1800	-1701	381	1.266768	-2.551799	-39.1953	0	11.29	4004	-32	-9	5	5	0.4126288	1.840989	8	10	0.03	2000	16.84413	40.9239	-91.3936
261762	-1761	3008	1264	0.05927832	-5.284818	-39.03241	0	11.29	4003	-32	-9	5	5	0.4126288	1.834497	8	10	0.03	2000	18.04727	40.9239	-91.3936
261883	678	883	-887	-2.853877	-7.345132	-39.22776	0	11.29	4003	-32	-9	5	5	0.4126288	1.824484	8	10	0.03	2000	17.697	40.9239	-91.3936
261910	678	883	-887	-2.853877	-7.345132	-39.22776	0	11.29	4003	-32	-9	5	5	0.4126288	1.824484	8	10	0.03	2000	17.697	40.9239	-91.3936
261982	-725	1019	-470	-2.806579	-6.545435	-38.11212	0	11.29	4003	-26	-24	5	5	0.4126288	1.824784	8	10	0.03	2000	13.46581	40.9239	-91.3936
262113	-1032	3145	137	-4.321332	-8.430947	-37.88545	0	10.32	4003	7	-30	5	5	0.4126288	1.839932	8	10	0.03	2000	12.89217	40.9239	-91.3936
262214	-4133	-2009	1144	-8.976801	-12.69914	-38.99002	0	10.32	4004	7	-30	5	5	0.4126288	1.85097	8	10	0.03	2000	9.042583	40.9239	-91.3936
262399	-2454	3603	1287	-13.83958	-10.22225	-38.92321	0	10.32	4002	49	-30	5	5	0.4126288	1.892209	8	10	0.03	2000	6.228097	40.9239	-91.39359
262527	1647	-724	-149	-11.90055	-11.72265	-38.94805	0	10.32	4004	49	-30	5	5	0.4126288	1.931687	8	10	0.03	2000	-1.779572	40.9239	-91.39359
262672	-215	-3038	-980	-7.652009	-6.74901	-38.60311	0	10.32	4003	49	-10	5	5	0.4126288	1.962233	8	10	0.03	2000	-4.541656	40.9239	-91.39359
262762	212	3068	1362	-7.470779	-6.175628	-39.11444	0	10.32	4003	49	-32	5	5	0.4126288	2.012444	8	10	0.03	2000	-3.735535	40.9239	-91.39359
262910	1310	-1658	-2148	-5.741364	-8.355001	-39.11348	0	10.32	4003	49	-31	5	5	0.4126288	2.064663	8	10	0.03	2000	-5.158112	40.9239	-91.39359
263024	656	64	-779	-5.152997	-7.381455	-38.10765	0	11.4	4004	9	-32	5	5	0.4126288	2.140174	8	10	0.03	2000	-5.470581	40.9239	-91.39359
263108	2466	299	-1090	-4.251383	-7.704196	-37.163	0	11.4	4004	-32	-32	5	5	0.4126288	2.209838	8	10	0.03	2000	-5.097809	40.9239	-91.3936
263245	1296	-352	315	-2.13872	-5.620903	-38.687	0	11.4	4003	-32	-32	5	5	0.4126288	2.251991	8	10	0.03	2000	-3.214203	40.9239	-91.3936
263339	201	-297	-792	-1.844344	-6.1878	-39.31879	0	11.4	4002	-32	-12	5	5	0.4126288	2.333062	8	10	0.03	2000	-3.129303	40.9239	-91.3936
263424	725	880	1778	-1.686291	-6.850181	-39.74133	0	11.4	4003	-32	-12	5	5	0.4126288	2.367949	8	10	0.03	2000	-2.836823	40.9239	-91.3936
263546	-446	-1809	-236	0.06820212	-4.454489	-38.68956	0	11.4	4004	-32	-12	5	5	0.4126288	2.408129	8	10	0.03	2000	-3.160675	40.9239	-91.3936
263649	1353	-1862	635	-1.000312	-4.132286	-38.80253	0	11.4	4004	-32	-11	5	5	0.4126288	2.424867	8	10	0.03	2000	0.7959651	40.9239	-91.3936
263706	1863	-653	-1773	-0.4368838	-3.043166	-38.25609	0	11.4	4004	6	-12	5	5	0.4126288	2.449923	8	10	0.03	2000	4.10895	40.9239	-91.3936
263911	1899	-947	64	0.2679947	-5.207275	-37.04132	0	11.4	4002	7	-12	5	5	0.4126288	2.507776	8	10	0.03	2000	5.325701	40.9239	-91.3936
263944	944	-1755	320	0.3829281	-4.416065	-37.15765	0	11.06	4003	7	-12	5	5	0.4126288	2.532128	8	10	0.03	2000	7.311122	40.9239	-91.3936
264080	-1337	-1539	-135	-2.006411	-2.25456	-38.82211	0	11.06	4002	7	-12	5	5	0.4126288	2.557758	8	10	0.03	2000	9.680592	40.9239	-91.3936
264214	757	957	1463	-1.955771	-0.5940216	-39.62905	0	11.06	4004	7	-12	5	5	0.4126288	2.581299	8	10	0.03	2000	10.5003	40.9239	-91.39361
264282	-417	2528	-965	-1.856637	-2.908003	-39.8103	0	11.06	4002	-35	9	5	5	0.4126288	2.582238	8	10	0.03	2000	11.04033	40.9239	-91.39361
264319	1583	2670	-822	-1.563429	-5.854759	-39.38746	0	11.06	4004	-35	9	5	5	0.4126288	2.580871	8	10	0.03	2000	11.20339	40.9239	-91.39361
264391	318	-93	340	-0.3062234	-4.480301	-37.87505	0	11.06	4004	-35	9	5	5	0.4126288	2.574042	8	10	0.03	2000	10.40969	40.9239	-91.39361
264530	746	1377	665	-0.02590872	-7.057992	-37.94515	0	11.06	4004	-35	9	5	5	0.4126288	2.564148	8	10	0.03	2000	10.89868	40.9239	-91.39361
264599	908	719	452	0.7859885	-8.202566	-38.56994	0	11.06	4003	-35	-12	5	5	0.4126288	2.553271	8	10	0.03	2000	11.53903	40.9239	-91.39361
264798	1465	-1279	647	0.3154189	-7.419512	-39.63163	0	11.06	4002	-42	-14	5	5	0.4126288	2.508698	8	10	0.03	2000	16.4819	40.9239	-91.39361
264865	1510	-1427	-422	0.9834901	-5.181698	-39.17794	0	10.09	4002	4	-32	5	5	0.4126288	2.505188	8	10	0.03	2000	16.18572	40.9239	-91.39361
264944	-1291	-27	-1566	-0.5680549	-4.927446	-38.7449	0	10.09	4004	4	-31	5	5	0.4126288	2.495147	8	10	0.03	2000	18.39411	40.9239	-91.39361
265046	-278	-954	232	-0.02347608	-4.498429	-39.31546	0	10.09	4004	4	-32	5	5	0.4126288	2.49263	8	10	0.03	2000	18.7702	40.9239	-91.39361
265115	462	-2374	-231	-0.4057494	-4.268219	-39.92834	0	10.09	4002	4	-32	5	5	0.4126288	2.493311	8	10	0.03	2000	19.84149	40.9239	-91.39361
265274	244	-1836	-1080	-0.2858877	-3.387524	-40.72403	0	10.09	4003	47	-11	5	5	0.4126288	2.499277	8	10	0.03	2000	20.13149	40.9239	-91.3936
265364	-1529	793	871	-0.6359287	-2.871774	-40.65994	0	10.09	4004	47	-12	5	5	0.4126288	2.509757	8	10	0.03	2000	21.06591	40.9239	-91.3936
265405	-1529	793	871	-0.6359287	-2.871774	-40.65994	0	10.09	4004	47	-12	5	5	0.4126288	2.511804	8	10	0.03	2000	21.06591	40.9239	-91.3936
265535	-720	252	-59	-2.197141	-2.924657	-39.792	0	10.09	4003	47	-12	5	5	0.4126288	2.528672	8	10	0.03	2000	18.82192	40.9239	-91.3936
265681	331	633	39	-2.545148	-3.305391	-40.35196	0	10.09	4002	47	-33	5	5	0.4126288	2.549842	8	10	0.03	2000	17.21731	40.92389	-91.3936
265779	99	1289	953	-2.780166	-3.87958	-40.13004	0	10.66	4004	47	-33	5	5	0.4126288	2.556406	8	10	0.03	2000	16.41186	40.92389	-91.3936
265856	21	622	-2483	-3.224088	-4.348129	-39.4427	0	10.66	4004	47	-33	5	5	0.4126288	2.575335	8	10	0.03	2000	17.66515	40.92389	-91.3936
265920	832	1445	-2353	-2.871257	-5.399602	-37.95366	0	10.66	4004	47	-33	5	5	0.4126288	2.580762	8	10	0.03	2000	17.10938	40.92389	-91.3936
266014	-597	-658	1080	-2.992056	-5.685802	-38.24079	0	10.66	4004	49	-54	5	5	0.4126288	2.588468	8	10	0.03	2000	16.42088	40.92389	-91.39359
266192	-637	581	-199	-4.298089	-6.008844	-39.318	0	10.66	4004	49	-54	5	5	0.4126288	2.589502	8	10	0.03	2000	17.09873	40.92389	-91.39359
266256	-892	3196	771	-5.98789	-8.312508	-39.59701	0	10.66	4003	49	-54	5	5	0.4126288	2.589277	8	10	0.03	2000	16.9962	40.92389	-91.39359
266341	-2478	-949	685	-8.070175	-8.910784	-39.12711	0	10.66	4003	49	-34	5	5	0.4126288	2.587461	8	10	0.03	2000	16.10904	40.92389	-91.39359
266440	-4219	-375	982	-11.89847	-5.303859	-38.45113	0	10.66	4004	92	-34	5	5	0.4126288	2.586128	8	10	0.03	2000	13.11147	40.92389	-91.39359
266576	-1665	-882	126	-18.40158	-3.799484	-39.03117	0	10.66	4002	92	-34	5	5	0.4126288	2.580016	8	10	0.03	2000	4.291862	40.92389	-91.39359
266625	-1199	-1381	96	-18.16875	-3.37962	-38.9491	0	10.66	4003	92	-34	5	5	0.4126288	2.580474	8	10	0.03	2000	4.291862	40.92389	-91.39359
266732	-303	2038	-690	-18.15713	-3.906028	-38.63793	0	10.43	4003	52	-14	5	5	0.4126288	2.579978	8	10	0.03	2000	2.688592	40.92389	-91.39359
266831	465	784	1536	-11.14015	-4.163205	-38.14977	0	10.43	4004	94	-35	5	5	0.4126288	2.581264	8	10	0.03	2000	-10.13596	40.92389	-91.39358
266992	-597	4310	476	-11.124	-9.480478	-39.27942	0	10.43	4004	94	-35	5	5	0.4126288	2.592979	8	10	0.03	2000	-8.975311	40.92389	-91.39358
267038	-597	4310	476	-11.124	-9.480478	-39.27942	0	10.43	4004	65	-42	5	5	0.4126288	2.59645	8	10	0.03	2000	-8.975311	40.92389	-91.39358
267213	1139	1692	1180	-9.139971	-15.95704	-39.33198	0	10.43	4003	54	-56	5	5	0.4126288	2.620858	8	10	0.03	2000	-13.40265	40.92388	-91.39358
267240	507	1377	-30	-8.721274	-16.01548	-39.21811	0	10.43	4003	54	-56	5	5	0.4126288	2.628251	8	10	0.03	2000	-12.66266	40.92388	-91.39358
267344	35	-2697	384	-8.008871	-13.44003	-39.03557	0	10.43	4004	54	-56	5	5	0.4126288	2.637179	8	10	0.03	2000	-12.90088	40.92388	-91.39358
267471	-194	-964	2074	-7.314847	-5.748291	-39.35896	0	10.43	4003	14	-36	5	5	0.4126288	2.697074	8	10	0.03	2000	-12.93292	40.92388	-91.39359
267597	619	2292	1038	-5.067158	-7.442916	-40.57677	0	10.43	4003	-28	-36	5	5	0.4126288	2.736102	8	10	0.03	2000	-11.78851	40.92388	-91.39359
267735	2012	-2861	325	-3.309317	-4.872966	-40.81059	0	10.66	4002	-28	-36	5	5	0.4126288	2.791596	8	10	0.03	2000	-11.08356	40.92388	-91.39359
267758	2502	-2135	-2083	-1.117629	-2.065104	-39.99597	0	10.66	4004	-28	-17	5	5	0.4126288	2.798203	8	10	0.03	2000	-11.65784	40.92388	-91.39359
267887	2337	2441	-823	0.4329911	-6.795205	-38.55252	0	10.66	4003	-28	-16	5	5	0.4126288	2.824573	8	10	0.03	2000	-10.71497	40.92388	-91.39359
267930	2162	1694	106	2.599677	-9.476633	-38.33201	0	10.66	4003	-28	-16	5	5	0.4126288	2.82936	8	10	0.03	2000	-11.60339	40.92388	-91.39359
268034	1368	-1829	-596	3.657806	-9.061192	-38.50827	0	10.66	4003	-28	-16	5	5	0.4126288	2.852514	8	10	0.03	2000	-8.353485	40.92388	-91.39359
268147	-398	1848	1034	3.529525	-8.014346	-39.34001	0	10.66	4004	-30	-16	5	5	0.4126288	2.873819	8	10	0.03	2000	-5.96701	40.92388	-91.39359
268238	2122	-2275	-1637	2.927786	-10.1158	-38.66338	0	10.66	4003	-30	-16	5	5	0.4126288	2.886625	8	10	0.03	2000	-2.577972	40.92388	-91.39359
268396	-732	-765	913	1.44295	-6.706038	-38.36908	0	10.66	4003	-30	-16	5	5	0.4126288	2.895806	8	10	0.03	2000	-2.113098	40.92388	-91.3936
268446	338	-2079	-1120	0.8206052	-6.155379	-38.51804	0	10.66	4003	-72	-16	5	5	0.4126288	2.894869	8	10	0.03	2000	-1.740631	40.92388	-91.3936
268600	1303	-1754	530	3.059384	-3.024292	-39.16447	0	11.23	4003	-72	-16	5	5	0.4126288	2.874973	8	10	0.03	2000	1.026878	40.92388	-91.3936
268735	-957	-1238	-95	3.12519	-4.634325	-38.73145	0	11.23	4003	-32	-16	5	5	0.4126288	2.818792	8	10	0.03	2000	4.301357	40.92388	-91.3936
268755	-957	-1238	-95	3.12519	-4.634325	-38.73145	0	11.23	4003	-32	-16	5	5	0.4126288	2.810083	8	10	0.03	2000	4.301357	40.92388	-91.3936
268848	730	-1926	-644	3.010776	-2.838039	-38.60239	0	11.23	4004	-75	4	5	5	0.4126288	2.776186	8	10	0.03	2000	4.836597	40.92389	-91.39361
268935	832	-668	969	3.509701	-1.780547	-38.78106	0	11.23	4003	-75	4	5	5	0.4126288	2.720078	8	10	0.03	2000	5.680743	40.92389	-91.39361
269034	925	888	-771	3.354786	-3.886007	-38.9528	0	11.23	4003	-75	4	5	5	0.4126288	2.685801	8	10	0.03	2000	7.923875	40.92389	-91.39361
269166	282	1083	-231	3.363022	-5.430734	-38.99498	0	11.23	4004	-35	4	5	5	0.4126288	2.625564	8	10	0.03	2000	9.96765	40.92389	-91.39361
269320	-1712	544	984	-6.03891	-7.00344	-38.55642	0	11.23	4003	-35	4	5	5	0.4126288	2.540993	8	10	0.03	2000	8.112012	40.92389	-91.39361
269373	-2171	-621	50	-6.917156	-7.005374	-38.54494	0	11.23	4004	-35	4	5	5	0.4126288	2.504363	8	10	0.03	2000	8.112012	40.92389	-91.39361
269482	-1378	2294	270	-9.523173	-8.26764	-38.35548	0	10.89	4003	4	-15	5	5	0.4126288	2.452091	8	10	0.03	2000	5.427366	40.92389	-91.39361
269697	-1127	2776	923	-11.36319	-13.04759	-38.69596	0	10.89	4004	4	5	5	5	0.4126288	2.326786	8	10	0.03	2000	-0.959259	40.92389	-91.39361
269838	3136	575	-187	-9.714945	-13.4971	-38.55712	0	10.89	4004	4	5	5	5	0.4126288	2.282229	8	10	0.03	2000	-3.868896	40.92389	-91.39361
269924	151	-2704	581	-5.143452	-10.96095	-38.58459	0	10.89	4004	-37	5	5	5	0.4126288	2.232623	8	10	0.03	2000	-4.584503	40.92389	-91.39362
270018	2593	-1916	-868	-3.259939	-6.059597	-38.38546	0	10.89	4002	-37	5	5	5	0.4126288	2.215501	8	10	0.03	2000	-4.298645	40.92389	-91.39362
270063	1929	-2490	110	-2.139459	-5.918563	-38.37549	0	10.89	4003	-37	5	5	5	0.4126288	2.209154	8	10	0.03	2000	-4.298645	40.92389	-91.39362
270145	117	-1311	-258	-1.5387	-5.536771	-39.01136	0	10.89	4003	-37	26	5	5	0.4126288	2.207253	8	10	0.03	2000	-2.350037	40.92389	-91.39362
270314	-196	-3083	-1660	-2.059996	-4.374454	-38.84087	0	10.89	4005	-37	6	5	5	0.4126288	2.23061	8	10	0.03	2000	0.1782378	40.92389	-91.39362
270445	423	586	-18	-0.03201237	-3.247674	-38.33979	0	10.15	4002	-37	27	5	5	0.4126288	2.268285	8	10	0.03	2000	1.701015	40.9239	-91.39362
270498	-727	1426	938	-0.3003419	-3.886403	-38.75534	0	10.15	4003	-37	28	5	5	0.4126288	2.284867	8	10	0.03	2000	1.701015	40.9239	-91.39362
270647	670	-2183	-80	-1.142341	-2.934582	-39.33108	0	10.15	4003	2	27	5	5	0.4126288	2.308861	8	10	0.03	2000	6.218887	40.9239	-91.39362
270741	660	-2828	282	-0.5315021	-0.1277618	-38.95417	0	10.15	4002	2	8	5	5	0.4126288	2.312294	8	10	0.03	2000	5.683981	40.9239	-91.39362
270843	-588	1855	1507	-1.476401	-1.556626	-39.23324	0	10.15	4004	2	7	5	5	0.4126288	2.311747	8	10	0.03	2000	9.620997	40.9239	-91.39362
271003	1214	763	-773	-1.71526	-4.821418	-39.65826	0	10.15	4004	-15	3	5	5	0.4126288	2.303709	8	10	0.03	2000	11.11655	40.9239	-91.39362
271082	163	-2360	17	0.2214895	-3.074871	-38.91393	0	10.15	4004	-40	-12	5	5	0.4126288	2.278953	8	10	0.03	2000	10.79767	40.9239	-91.39362
271137	-74	1509	1927	-0.5180438	-2.955023	-39.16266	0	10.15	4002	-39	-11	5	5	0.4126288	2.274072	8	10	0.03	2000	10.67135	40.9239	-91.39362
271294	2359	-344	576	0.6787608	-3.412292	-40.019	0	10.77	4004	-40	-12	5	5	0.4126288	2.247986	8	10	0.03	2000	13.01387	40.9239	-91.39362
271490	214	-956	265	1.531607	-2.909172	-38.55639	0	10.77	4003	-40	-12	5	5	0.4126288	2.179553	8	10	0.03	2000	21.73109	40.9239	-91.39362
271582	-856	1966	563	0.6239481	-4.706141	-37.99831	0	10.77	4003	2	-12	5	5	0.4126288	2.147475	8	10	0.03	2000	22.72828	40.9239	-91.39362
271617	206	2672	1760	0.5468891	-5.355082	-38.28195	0	10.77	4004	42	-12	5	5	0.4126288	2.131687	8	10	0.03	2000	22.72828	40.9239	-91.39362
271721	-1025	-756	-178	-0.2442178	-6.438203	-38.81814	0	10.77	4003	42	-11	5	5	0.4126288	2.100548	8	10	0.03	2000	24.07892	40.9239	-91.39362
271873	-746	670	575	-1.868529	-2.978462	-39.10897	0	10.77	4004	42	-12	5	5	0.4126288	2.059259	8	10	0.03	2000	28.26886	40.9239	-91.39362
271923	-1146	487	-1269	-3.964347	-4.395212	-38.97649	0	10.77	4003	42	-12	5	5	0.4126288	2.051036	8	10	0.03	2000	28.26886	40.9239	-91.39362
272075	-2659	2408	1141	-5.027142	-5.223914	-39.31902	0	10.77	4002	42	-12	5	5	0.4126288	2.032866	8	10	0.03	2000	30.36757	40.92389	-91.39362
272137	-3929	2837	941	-8.778277	-7.088764	-39.95863	0	10.77	4002	3	-39	5	5	0.4126288	2.021056	8	10	0.03	2000	25.87968	40.92389	-91.39362
272303	-2928	1133	-443	-14.20409	-8.409082	-38.77491	0	10.55	4002	44	-54	5	5	0.4126288	1.999283	8	10	0.03	2000	16.11089	40.92389	-91.39361
272366	875	-1200	318	-14.10358	-10.01159	-38.49341	0	10.55	4003	44	-54	5	5	0.4126288	1.983536	8	10	0.03	2000	9.855578	40.92389	-91.39361
272432	1288	-275	657	-12.44214	-9.700254	-38.65207	0	10.55	4002	44	-54	5	5	0.4126288	1.976004	8	10	0.03	2000	7.263511	40.92389	-91.39361
272548	-1301	1977	185	-9.960068	-10.23913	-39.46181	0	10.55	4003	44	-54	5	5	0.4126288	1.965084	8	10	0.03	2000	3.341999	40.92389	-91.39361
272643	474	2661	-688	-9.592128	-12.30728	-39.42925	0	10.55	4003	87	-75	5	5	0.4126288	1.957849	8	10	0.03	2000	0.8229571	40.92389	-91.3936
272707	-1080	2033	320	-9.21416	-14.72481	-39.37942	0	10.55	4003	87	-55	5	5	0.4126288	1.956806	8	10	0.03	2000	0.03109586	40.92389	-91.3936
272802	-433	5847	1735	-8.682684	-20.50091	-39.67656	0	10.55	4004	87	-77	5	5	0.4126288	1.950227	8	10	0.03	2000	-1.52887	40.92388	-91.3936
272905	1474	-1838	-934	-7.798717	-20.25194	-39.37099	0	10.55	4003	47	-57	5	5	0.4126288	1.949513	8	10	0.03	2000	-5.797943	40.92388	-91.3936
273048	-550	399	1226	-7.657363	-10.05057	-38.33735	0	10.55	4004	47	-56	5	5	0.4126288	1.943748	8	10	0.03	2000	-6.385712	40.92388	-91.3936
273095	1006	-915	-431	-7.010334	-10.29866	-38.54604	0	11.06	4004	47	-56	5	5	0.4126288	1.949649	8	10	0.03	2000	-6.186127	40.92387	-91.3936
273208	1398	-1380	-1448	-5.442587	-10.27186	-39.0678	0	11.06	4003	47	-78	5	5	0.4126288	1.962691	8	10	0.03	2000	-6.186127	40.92387	-91.3936
273298	-342	-2610	-897	-2.625946	-9.493587	-38.39899	0	11.06	4002	7	-58	5	5	0.4126288	1.970776	8	10	0.03	2000	-6.127502	40.92387	-91.39359
273416	-781	-78	559	-2.695709	-7.398248	-37.84015	0	11.06	4004	49	-58	5	5	0.4126288	1.979225	8	10	0.03	2000	-7.170624	40.92387	-91.39359
273499	-78	-1223	-784	-4.348524	-5.875082	-38.5906	0	11.06	4003	49	-38	5	5	0.4126288	1.984766	8	10	0.03	2000	-6.772095	40.92387	-91.39359
273602	-284	1063	1708	-3.757511	-6.555835	-39.21514	0	11.06	4003	49	-38	5	5	0.4126288	1.991681	8	10	0.03	2000	-6.24884	40.92387	-91.39359
273709	-1192	-963	985	-3.570976	-6.365959	-39.67228	0	11.06	4003	49	-37	5	5	0.4126288	2.011368	8	10	0.03	2000	-6.612	40.92387	-91.39359
273844	43	853	-2125	-5.50419	-4.697245	-39.2774	0	11.06	4002	49	-18	5	5	0.4126288	2.037549	8	10	0.03	2000	-7.050751	40.92387	-91.39359
273971	127	-2412	-1055	-5.085055	-6.67823	-38.44205	0	10.83	4004	9	-18	5	5	0.4126288	2.054188	8	10	0.03	2000	-7.311493	40.92387	-91.39359
274040	-344	-4221	-835	-4.844937	-5.817129	-38.39729	0	10.83	4003	9	-18	5	5	0.4126288	2.07045	8	10	0.03	2000	-7.771576	40.92387	-91.39359
274123	1992	-1456	-1607	-1.96787	-4.480557	-37.45079	0	10.83	4003	9	-18	5	5	0.4126288	2.088232	8	10	0.03	2000	-8.703613	40.92387	-91.39359
274181	-1158	-771	1137	-2.480378	-4.628434	-38.01516	0	10.83	4004	9	-18	5	5	0.4126288	2.101189	8	10	0.03	2000	-6.262024	40.92387	-91.39359
274329	500	-694	467	-2.416084	-1.987121	-38.83809	0	10.83	4004	9	-18	5	5	0.4126288	2.117038	8	10	0.03	2000	-5.962708	40.92387	-91.39359
274425	-180	756	1460	-2.932669	-3.055495	-39.69458	0	10.83	4002	9	-18	5	5	0.4126288	2.121185	8	10	0.03	2000	-6.050262	40.92387	-91.39359
274516	992	394	-187	-3.014831	-3.239814	-38.81145	0	10.83	4003	9	-18	5	5	0.4126288	2.119939	8	10	0.03	2000	-3.872375	40.92387	-91.39359
274596	-1277	542	435	-2.817486	-3.088566	-38.62569	0	10.83	4003	9	-18	5	5	0.4126288	2.117412	8	10	0.03	2000	-4.048523	40.92387	-91.39359
274714	975	-518	-1970	-2.858239	-4.582838	-38.43669	0	10.83	4002	9	-18	5	5	0.4126288	2.123855	8	10	0.03	2000	-4.878204	40.92387	-91.39359
274801	497	-1304	-1014	-1.844975	-4.656636	-37.85688	0	10.83	4002	9	3	5	5	0.4126288	2.128128	8	10	0.03	2000	-3.159424	40.92388	-91.39359
274874	-178	-1248	-809	-2.214761	-4.373971	-38.03551	0	9.75	4003	9	3	5	5	0.4126288	2.131243	8	10	0.03	2000	-2.617218	40.92388	-91.39359
274970	554	-194	1115	-1.311197	-4.284712	-39.04139	0	9.75	4004	-32	3	5	5	0.4126288	2.137906	8	10	0.03	2000	-1.979584	40.92388	-91.3936
275095	-356	-2260	-1731	-0.6091123	-3.267644	-37.71839	0	9.75	4004	-32	3	5	5	0.4126288	2.141284	8	10	0.03	2000	-0.3022156	40.92388	-91.3936
275191	299	-809	-627	-1.289542	-2.30765	-37.95483	0	9.75	4003	-32	3	5	5	0.4126288	2.136465	8	10	0.03	2000	1.698559	40.92388	-91.3936
275282	1523	103	399	0.3163763	-4.515724	-39.10884	0	9.75	4002	-32	3	5	5	0.4126288	2.132304	8	10	0.03	2000	1.092849	40.92388	-91.3936
275397	1691	-14	-539	-1.506825	-2.486186	-39.77691	0	9.75	4004	-32	-16	5	5	0.4126288	2.115251	8	10	0.03	2000	4.027273	40.92388	-91.3936
275476	2041	1423	-1158	0.6053427	-3.724819	-39.1554	0	9.75	4003	-32	-16	5	5	0.4126288	2.108633	8	10	0.03	2000	2.30371	40.92388	-91.3936
275569	-26	-135	-183	0.2812836	-3.322467	-37.48533	0	9.75	4002	6	-38	5	5	0.4126288	2.090883	8	10	0.03	2000	6.967154	40.92387	-91.3936
275698	2197	4100	-813	2.307621	-5.575994	-36.37062	0	9.75	4003	7	-37	5	5	0.4126288	2.083804	8	10	0.03	2000	8.65025	40.92387	-91.3936
275769	-3212	-1590	254	1.659091	-7.16107	-36.78101	0	9.75	4004	7	-38	5	5	0.4126288	2.081439	8	10	0.03	2000	7.65039	40.92387	-91.3936
276005	-656	-1133	1284	-2.353393	-4.450163	-40.03342	0	10.89	4003	7	-38	5	5	0.4126288	2.071715	8	10	0.03	2000	11.49031	40.92387	-91.3936
276117	107	-851	-708	-0.7025935	-2.109466	-39.46159	0	10.89	4003	7	-59	5	5	0.4126288	2.07692	8	10	0.03	2000	11.00482	40.92387	-91.3936
276265	26	874	-1263	-1.023576	-5.835716	-38.25256	0	10.89	4003	8	-46	5	5	0.4126288	2.082587	8	10	0.03	2000	7.708378	40.92387	-91.3936
276342	-1021	2389	-1457	-2.099342	-8.082703	-38.03592	0	10.89	4002	7	-39	5	5	0.4126288	2.086635	8	10	0.03	2000	9.642657	40.92387	-91.3936
276458	-2588	1108	-701	-6.039634	-11.45058	-38.78266	0	10.89	4004	49	-60	5	5	0.4126288	2.124445	8	10	0.03	2000	7.366782	40.92387	-91.39359
276478	-1124	1124	-1325	-6.798862	-11.95498	-38.82257	0	10.89	4002	49	-60	5	5	0.4126288	2.124445	8	10	0.03	2000	4.104856	40.92387	-91.39359
276624	-451	1658	-517	-7.918035	-14.87531	-39.19027	0	10.89	4004	49	-81	5	5	0.4126288	2.151452	8	10	0.03	2000	2.986431	40.92387	-91.39359
276730	-1178	-63	-852	-9.145807	-17.00008	-38.98556	0	10.04	4003	49	-61	5	5	0.4126288	2.167569	8	10	0.03	2000	1.997634	40.92387	-91.39359
276773	-1415	-140	742	-9.505433	-16.65472	-38.89622	0	10.04	4004	49	-61	5	5	0.4126288	2.169911	8	10	0.03	2000	0.1474815	40.92387	-91.39359
276873	-1467	3581	-1445	-10.56996	-18.98196	-38.82531	0	10.04	4003	49	-61	5	5	0.4126288	2.180486	8	10	0.03	2000	-2.549347	40.92387	-91.39359
277012	567	-725	-969	-10.84296	-17.74216	-38.52449	0	10.04	4002	49	-82	5	5	0.4126288	2.203335	8	10	0.03	2000	-5.207306	40.92386	-91.39359
277112	604	3409	1630	-9.34017	-20.03176	-38.60376	0	10.04	4003	9	-62	5	5	0.4126288	2.213982	8	10	0.03	2000	-6.150452	40.92386	-91.39359
277227	-27	-2954	-1110	-5.160931	-16.2404	-38.24135	0	10.04	4003	9	-43	5	5	0.4126288	2.229094	8	10	0.03	2000	-7.716003	40.92386	-91.39359
277276	-1045	-3948	327	-5.37673	-14.2721	-38.38986	0	10.04	4002	9	-42	5	5	0.4126288	2.232769	8	10	0.03	2000	-6.770996	40.92386	-91.39359
277407	2254	1066	-1153	-4.218385	-8.390545	-38.80822	0	10.04	4004	9	-42	5	5	0.4126288	2.250235	8	10	0.03	2000	-6.494659	40.92386	-91.39359
277479	670	-181	664	-1.898866	-9.092806	-38.46888	0	10.04	4002	9	-42	5	5	0.4126288	2.262138	8	10	0.03	2000	-5.860138	40.92386	-91.39359
277618	167	-1436	-2137	-3.238704	-6.397235	-37.83941	0	10.04	4002	9	-23	5	5	0.4126288	2.279573	8	10	0.03	2000	-5.986023	40.92386	-91.39359
277805	763	-484	-256	-3.94193	-5.657503	-38.5238	0	11	4004	9	-22	5	5	0.4126288	2.309675	8	10	0.03	2000	-5.433197	40.92386	-91.39359
277903	-1257	-244	-520	-3.863007	-7.52791	-39.08062	0	11	4002	9	-1	5	5	0.4126288	2.314151	8	10	0.03	2000	-5.98465	40.92387	-91.39359
277968	438	11	-180	-3.940534	-7.678572	-39.09179	0	11	4004	9	-1	5	5	0.4126288	2.319957	8	10	0.03	2000	-6.509918	40.92387	-91.39359
278073	-234	-2377	-256	-3.83077	-5.135626	-38.77457	0	11	4002	9	-1	5	5	0.4126288	2.334908	8	10	0.03	2000	-5.256653	40.92387	-91.39359
278219	-328	1193	-720	-6.176094	-3.462176	-39.22108	0	11	4002	-32	19	5	5	0.4126288	2.35616	8	10	0.03	2000	-6.872894	40.92387	-91.3936
278340	1745	-1252	-383	-3.439785	-4.161092	-39.44759	0	11	4003	-32	19	5	5	0.4126288	2.36742	8	10	0.03	2000	-6.601532	40.92387	-91.3936
278377	-1100	-152	1939	-3.465071	-3.5314	-39.76936	0	11	4003	-39	23	5	5	0.4126288	2.378835	8	10	0.03	2000	-7.018585	40.92387	-91.3936
278514	-398	-3713	-536	-5.026322	-0.4871043	-39.46342	0	11	4010	0	0	5	5	0.4126288	2.408156	3	10	0.03	2000	-7.374756	40.92387	-91.3936
278614	47	-556	254	-5.45555	3.191987	-39.0723	0	11.29	4002	0	0	5	5	0.4126288	2.40735	3	10	0.03	2000	-8.307648	40.92387	-91.3936
278709	453	1669	-546	-5.270352	1.069794	-39.29832	0	11.29	4003	0	0	5	5	0.4126288	2.407265	3	10	0.03	2000	-8.366638	40.92387	-91.3936
278779	1715	1731	-221	-3.776771	-2.350555	-39.45863	0	11.29	4002	0	0	5	5	0.4126288	2.415747	3	10	0.03	2000	-8.366638	40.92387	-91.3936
278868	1034	1277	1198	-1.606573	-5.423632	-40.13788	0	11.29	4004	0	0	5	5	0.4126288	2.42731	3	10	0.03	2000	-9.022888	40.92387	-91.3936
278991	535	2135	485	-1.715964	-6.810145	-40.74876	0	11.29	4002	0	0	5	5	0.4126288	2.431806	3	10	0.03	2000	-6.440491	40.92388	-91.3936
279116	1160	2466	27	-1.689099	-8.856755	-39.68157	0	11.29	4002	0	0	5	5	0.4126288	2.404476	3	10	0.03	2000	-3.765503	40.92388	-91.39361
279175	-656	2397	652	-1.508162	-10.4833	-39.11469	0	11.29	4003	0	0	5	5	0.4126288	2.380882	3	10	0.03	2000	-2.928619	40.92388	-91.39361
279339	554	1097	493	-2.791124	-14.91984	-40.10065	0	11.29	4002	0	0	5	5	0.4126288	2.305985	3	10	0.03	2000	-1.174255	40.92389	-91.39361
279392	55	-2601	-1136	-3.283598	-13.46991	-40.34133	0	11.29	4002	0	0	5	5	0.4126288	2.281072	3	10	0.03	2000	-1.174255	40.92389	-91.39361
279538	1213	-2500	-728	-2.747824	-6.050015	-40.6048	0	10.89	4003	0	0	5	5	0.4126288	2.225372	3	10	0.03	2000	1.739891	40.92389	-91.39362
279579	307	-451	-37	-2.406466	-5.771438	-40.95788	0	10.89	4003	0	0	5	5	0.4126288	2.18988	3	10	0.03	2000	1.739891	40.92389	-91.39362
279691	326	-574	2037	-1.653278	-6.326239	-41.9311	0	10.89	4003	0	0	5	5	0.4126288	2.143212	3	10	0.03	2000	4.164583	40.92389	-91.39362
279779	1717	-763	-1234	-2.86606	-3.826786	-41.43196	0	10.89	4003	0	0	5	5	0.4126288	2.109384	3	10	0.03	2000	7.337078	40.92389	-91.39362
279909	166	-343	-1222	-2.27432	-4.915294	-41.25202	0	10.89	4004	0	0	5	5	0.4126288	2.022159	3	10	0.03	2000	6.57784	40.92389	-91.39362
279981	-250	-189	880	-2.215105	-4.574017	-41.23466	0	10.89	4003	0	0	5	5	0.4126288	1.995386	3	10	0.03	2000	7.85663	40.92389	-91.39362
280126	492	375	213	-1.615866	-5.263303	-41.27723	0	10.89	4004	0	0	5	5	0.4126288	1.906644	3	10	0.03	2000	8.021818	40.92389	-91.39362
280195	428	479	-652	-1.303444	-7.663229	-41.27343	0	10.89	4002	0	0	5	5	0.4126288	1.858841	3	10	0.03	2000	11.44347	40.92389	-91.39362
280312	-1210	402	2663	-0.9462394	-5.889264	-41.4607	0	10.89	4002	0	0	5	5	0.4126288	1.767127	3	10	0.03	2000	11.64523	40.92389	-91.39362
280382	-1210	402	2663	-1.312886	-5.939725	-41.75977	0	10.89	4003	0	0	5	5	0.4126288	1.721336	3	10	0.03	2000	11.41884	40.92389	-91.39362
280489	-452	1236	1235	-3.257894	-8.429605	-41.92919	0	9.98	4002	0	0	5	5	0.4126288	1.659101	3	10	0.03	2000	14.64278	40.92389	-91.39362
280652	-1551	-21	-283	-6.945369	-10.84198	-41.27417	0	9.98	4002	0	0	5	5	0.4126288	1.542703	3	10	0.03	2000	8.969615	40.9239	-91.39362
280728	-964	2944	-158	-8.251913	-12.1884	-41.08242	0	9.98	4003	0	0	5	5	0.4126288	1.516409	3	10	0.03	2000	7.04783	40.9239	-91.39362
280844	80	595	-1649	-9.719312	-14.95664	-40.70877	0	9.98	4003	0	0	5	5	0.4126288	1.472496	3	10	0.03	2000	4.150192	40.9239	-91.39362
280888	566	2127	-654	-9.825223	-15.66802	-40.73296	0	9.98	4003	0	0	5	5	0.4126288	1.447823	3	10	0.03	2000	3.012445	40.9239	-91.39362
