time(ms)	gyro_x(deg/s)	gyro_y(deg/s)	gyro_z(deg/s)	orientation_roll(deg)	orientation_pitch(deg)	orientation_yaw(deg)	throttle	battery(V)	loop_time(uS)	pid_output_roll	pid_output_pitch	pid_output_yaw	pid_output_throttle	ultrasonic_alt	baro_alt	flight_mode	p_gain_altitude	i_gain_altitude	d_gain_altitude	compass_heading	latitude	longitude
340765	-42	1	4	-0.5291907	-0.003343476	-28.64494	0	11.4	4002	0	0	5	5	0.05762398	0.01054378	1	10	0.03	2000	-1.027405	40.92391	-91.39362
340812	-42	0	2	-0.5299703	-0.006154553	-28.64726	0	11.4	4003	0	0	5	5	0.05762398	0.007923847	1	10	0.03	2000	-1.270782	40.92391	-91.39362
340907	-39	0	3	-0.5266122	-0.01283835	-28.66033	0	11.4	4004	0	0	5	5	0.05762398	0.001533839	1	10	0.03	2000	-1.022705	40.92391	-91.39362
341078	-47	2	6	-0.5208061	-0.01435438	-28.67163	0	11.4	4004	0	0	5	5	0.05762398	-0.01406593	1	10	0.03	2000	-1.281006	40.92391	-91.39362
341124	-47	4	10	-0.5217146	-0.01564079	-28.67505	0	11.4	4003	0	0	5	5	0.05762398	-0.01541005	1	10	0.03	2000	-1.277405	40.92391	-91.39362
341278	-35	-2	5	-0.5133446	-0.01655367	-28.69057	0	11.4	4003	0	0	5	5	0.05762398	-0.02029899	1	10	0.03	2000	-1.044922	40.92391	-91.39362
341490	-41	1	7	-0.5060984	-0.01498727	-28.70956	0	11.46	4002	0	0	5	5	0.05762398	-0.0192446	1	10	0.03	2000	-1.30661	40.92391	-91.39362
341639	-44	-4	5	-0.5010399	-0.01448239	-28.72563	0	11.46	4003	0	0	5	5	0.05762398	-0.01091874	1	10	0.03	2000	-1.312256	40.92391	-91.39362
341882	-38	0	3	-0.4979787	-0.001089004	-28.74468	0	11.46	4002	0	0	5	5	0.05762398	0.0154698	1	10	0.03	2000	-1.321228	40.92391	-91.39362
341968	-52	3	7	-0.504088	-0.004404082	-28.75274	0	11.46	4003	0	0	5	5	0.05762398	0.02197045	1	10	0.03	2000	-1.074158	40.92391	-91.39362
342042	-44	-3	5	-0.4959617	-0.006836498	-28.75806	0	11.46	4002	0	0	5	5	0.05762398	0.02483495	1	10	0.03	2000	-1.564514	40.92391	-91.39362
342190	-41	0	11	-0.4959897	-0.006931828	-28.76868	0	11.46	4004	0	0	5	5	0.05762398	0.03937961	1	10	0.03	2000	-1.335297	40.92391	-91.39362
342376	-45	2	2	-0.490202	-0.00908733	-28.78664	0	11.4	4002	0	0	5	5	0.05762398	0.05385935	1	10	0.03	2000	-1.33252	40.92391	-91.39362
342475	-32	3	5	-0.4876245	-0.009279632	-28.79311	0	11.4	4003	0	0	5	5	0.05762398	0.05910799	1	10	0.03	2000	-1.343536	40.92391	-91.39361
342567	-41	5	6	-0.4838846	-0.006437954	-28.80551	0	11.4	4004	0	0	5	5	0.05762398	0.06379386	1	10	0.03	2000	-1.347198	40.92391	-91.39361
342720	-38	2	6	-0.4764226	-0.000962293	-28.82066	0	11.4	4003	0	0	5	5	0.05762398	0.064214	1	10	0.03	2000	-1.360931	40.92391	-91.39361
342874	-38	-6	6	-0.4670368	-0.001167644	-28.83031	0	11.4	4003	0	0	5	5	0.05762398	0.05752432	1	10	0.03	2000	-1.365082	40.92391	-91.39361
343054	-35	2	1	-0.4609558	-0.006632577	-28.84276	0	11.4	4002	0	0	5	5	0.05762398	0.04256007	1	10	0.03	2000	-1.14209	40.92391	-91.39361
343127	-36	3	8	-0.4540324	-0.0101507	-28.84752	0	11.4	4003	0	0	5	5	0.05762398	0.03461145	1	10	0.03	2000	-1.401154	40.92391	-91.39361
343196	-38	0	7	-0.4579063	-0.01015344	-28.8565	0	11.4	4003	0	0	5	5	0.05762398	0.0288169	1	10	0.03	2000	-1.147064	40.92391	-91.39361
343289	-37	-2	5	-0.4501507	-0.01118946	-28.86364	0	11.34	4004	0	0	5	5	0.05762398	0.01884762	1	10	0.03	2000	-1.633545	40.92391	-91.39361
343341	-34	0	5	-0.4479163	-0.01143239	-28.86578	0	11.34	4004	0	0	5	5	0.05762398	0.01337037	1	10	0.03	2000	-1.404602	40.92391	-91.39361
343498	-36	4	6	-0.4466743	-0.014871	-28.88105	0	11.34	4003	0	0	5	5	0.05762398	0.003641475	1	10	0.03	2000	-1.401459	40.92391	-91.39361
343591	-38	6	8	-0.44886	-0.01543953	-28.88783	0	11.34	4004	0	0	5	5	0.05762398	-0.007576175	1	10	0.03	2000	-1.412292	40.92391	-91.39361
343660	-39	-4	2	-0.4464769	-0.0190076	-28.89393	0	11.34	4003	0	0	5	5	0.05762398	-0.01181787	1	10	0.03	2000	-1.416321	40.92391	-91.39361
343788	-38	-4	4	-0.4353473	-0.002003739	-28.9067	0	11.34	4004	0	0	5	5	0.05762398	-0.01925632	1	10	0.03	2000	-1.666626	40.92391	-91.39361
343873	-37	1	8	-0.4299131	-0.005683908	-28.91116	0	11.34	4002	0	0	5	5	0.05762398	-0.02114291	1	10	0.03	2000	-1.192657	40.92391	-91.39361
343954	-35	3	11	-0.4296181	-0.01023419	-28.91525	0	11.34	4003	0	0	5	5	0.05762398	-0.0204007	1	10	0.03	2000	-1.195038	40.92391	-91.39361
344057	-34	0	5	-0.4233069	-0.009904566	-28.92729	0	11.34	4004	0	0	5	5	0.05762398	-0.02233498	1	10	0.03	2000	-1.45105	40.92391	-91.39361
344295	-34	0	5	-0.417595	-0.01295478	-28.9387	0	11.4	4004	0	0	5	5	0.05762398	-0.02765564	1	10	0.03	2000	-1.20517	40.92391	-91.39361
344370	-41	-1	7	-0.4148317	-0.0112657	-28.95012	0	11.4	4004	0	0	5	5	0.05762398	-0.03446747	1	10	0.03	2000	-1.468903	40.92391	-91.39361
344496	-32	0	2	-0.4134765	-0.006604899	-28.95421	0	11.4	4003	0	0	5	5	0.05762398	-0.03891109	1	10	0.03	2000	-1.711273	40.92391	-91.39361
344576	-33	2	6	-0.4034037	-0.007574777	-28.95952	0	11.4	4004	0	0	5	5	0.05762398	-0.04024158	1	10	0.03	2000	-1.96756	40.92391	-91.39361
344679	-35	3	1	-0.4024958	-0.01384007	-28.9696	0	11.4	4003	0	0	5	5	0.05762398	-0.0383796	1	10	0.03	2000	-1.229858	40.92391	-91.39361
344783	-39	-3	6	-0.3986538	-0.01282929	-28.97834	0	11.4	4002	0	0	5	5	0.05762398	-0.03679736	1	10	0.03	2000	-1.251343	40.92391	-91.39361
344931	-34	2	8	-0.389906	-0.02464296	-28.98835	0	11.4	4004	0	0	5	5	0.05762398	-0.02690074	1	10	0.03	2000	-1.502411	40.92391	-91.39361
345074	-28	-1	6	-0.3881847	-0.03125767	-28.99573	0	11.4	4004	0	0	5	5	0.05762398	-0.01644493	1	10	0.03	2000	-1.74173	40.92391	-91.39361
345131	-35	0	4	-0.381948	-0.03198332	-29.0011	0	11.4	4003	0	0	5	5	0.05762398	-0.01203163	1	10	0.03	2000	-2.005524	40.92391	-91.39361
345217	-33	0	6	-0.3887713	-0.03290657	-29.00764	0	11.34	4004	0	0	5	5	0.05762398	0.002284691	1	10	0.03	2000	-1.505188	40.92391	-91.39361
345276	-33	-1	7	-0.3827724	-0.03145783	-29.01454	0	11.34	4004	0	0	5	5	0.05762398	0.006010919	1	10	0.03	2000	-1.506165	40.92391	-91.39361
345385	-36	-3	4	-0.3810955	-0.03013856	-29.02376	0	11.34	4007	0	0	5	5	0.05762398	0.01804422	1	10	0.03	2000	-1.52356	40.92391	-91.39361
345486	-29	3	6	-0.3731809	-0.03175445	-29.02755	0	11.34	4003	0	0	5	5	0.05762398	0.02634262	1	10	0.03	2000	-1.775238	40.92391	-91.39361
345577	-29	0	5	-0.3712583	-0.03096535	-29.0353	0	11.34	4003	0	0	5	5	0.05762398	0.02940191	1	10	0.03	2000	-1.77771	40.92391	-91.39361
345711	-27	-2	5	-0.3598683	-0.03309572	-29.04623	0	11.34	4004	0	0	5	5	0.05762398	0.03617353	1	10	0.03	2000	-1.546021	40.92391	-91.39361
345793	-27	6	7	-0.3648884	-0.03317727	-29.04946	0	11.34	4003	0	0	5	5	0.05762398	0.03664953	1	10	0.03	2000	-1.554138	40.92391	-91.39361
345950	-35	1	5	-0.362144	-0.03245915	-29.06204	0	11.34	4004	0	0	5	5	0.05762398	0.04098446	1	10	0.03	2000	-1.555908	40.92391	-91.39361
346054	-37	0	3	-0.3577777	-0.03422245	-29.06552	0	11.34	4003	0	0	5	5	0.05762398	0.04130088	1	10	0.03	2000	-1.551819	40.92391	-91.39361
346138	-30	-1	2	-0.3638012	-0.03638184	-29.07425	0	11.4	4003	0	0	5	5	0.05762398	0.04141438	1	10	0.03	2000	-1.559723	40.92391	-91.39361
346179	-35	-3	4	-0.3641171	-0.03538708	-29.07761	0	11.4	4003	0	0	5	5	0.05762398	0.04141438	1	10	0.03	2000	-1.550934	40.92391	-91.39361
346279	-26	5	4	-0.3652745	-0.03321958	-29.08549	0	11.4	4002	0	0	5	5	0.05762398	0.03178213	1	10	0.03	2000	-1.552887	40.92391	-91.39361
346381	-28	4	4	-0.3696487	-0.03759043	-29.0919	0	11.4	4003	0	0	5	5	0.05762398	0.0302088	1	10	0.03	2000	-1.537415	40.92391	-91.39361
346566	-34	0	5	-0.3631176	-0.04125542	-29.10644	0	11.4	4004	0	0	5	5	0.05762398	0.0221746	1	10	0.03	2000	-1.790405	40.92391	-91.39361
346673	-24	-2	7	-0.3531761	-0.04164841	-29.11407	0	11.4	4003	0	0	5	5	0.05762398	0.02224128	1	10	0.03	2000	-1.563263	40.92391	-91.39361
346752	-29	5	4	-0.3541068	-0.04318328	-29.12085	0	11.4	4004	0	0	5	5	0.05762398	0.02308583	1	10	0.03	2000	-1.333862	40.92391	-91.39361
346806	-31	0	0	-0.3586051	-0.04433039	-29.12629	0	11.4	4002	0	0	5	5	0.05762398	0.02720281	1	10	0.03	2000	-1.326263	40.92391	-91.39361
347014	-27	4	6	-0.3581504	-0.05044216	-29.14156	0	11.4	4003	0	0	5	5	0.05762398	0.02369093	1	10	0.03	2000	-1.562256	40.92391	-91.39361
347122	-25	4	5	-0.3542832	-0.04785345	-29.14907	0	11.4	4002	0	0	5	5	0.05762398	0.01235299	1	10	0.03	2000	-1.566895	40.92391	-91.39361
347212	-31	3	7	-0.3538917	-0.04587005	-29.15492	0	11.4	4004	0	0	5	5	0.05762398	0.006224073	1	10	0.03	2000	-1.566895	40.92391	-91.39361
347277	-30	4	3	-0.3576051	-0.04573764	-29.16134	0	11.4	4002	0	0	5	5	0.05762398	0.00271101	1	10	0.03	2000	-1.803101	40.92391	-91.39361
347481	-29	3	5	-0.354304	-0.04426929	-29.17697	0	11.4	4004	0	0	5	5	0.05762398	-0.004954401	1	10	0.03	2000	-1.821472	40.92391	-91.39361
347591	-27	0	4	-0.3421002	-0.04019171	-29.18308	0	11.4	4003	0	0	5	5	0.05762398	-0.01392121	1	10	0.03	2000	-1.573822	40.92391	-91.39361
347727	-28	2	4	-0.3491588	-0.04159302	-29.19157	0	11.4	4003	0	0	5	5	0.05762398	-0.008279694	1	10	0.03	2000	-1.573151	40.92391	-91.39361
347861	-28	3	-1	-0.3396557	-0.04466424	-29.20012	0	11.4	4003	0	0	5	5	0.05762398	-0.001773646	1	10	0.03	2000	-1.823792	40.92391	-91.39361
347942	-19	3	2	-0.3438716	-0.04217603	-29.20915	0	11.4	4003	0	0	5	5	0.05762398	0.004367055	1	10	0.03	2000	-1.841888	40.92391	-91.39361
348028	-20	-4	5	-0.3491304	-0.03708534	-29.2155	0	11.4	4003	0	0	5	5	0.05762398	0.003510713	1	10	0.03	2000	-1.577667	40.92391	-91.39361
348104	-30	5	5	-0.344171	-0.03656388	-29.22093	0	11.4	4002	0	0	5	5	0.05762398	0.00242003	1	10	0.03	2000	-1.820923	40.92391	-91.39361
348286	-29	1	7	-0.3353525	-0.04423681	-29.2315	0	11.4	4002	0	0	5	5	0.05762398	-0.008473287	1	10	0.03	2000	-1.364197	40.92391	-91.39361
348386	-31	4	2	-0.3346373	-0.04721269	-29.23779	0	11.4	4003	0	0	5	5	0.05762398	-0.01933758	1	10	0.03	2000	-1.840881	40.92391	-91.39361
348501	-33	3	2	-0.3321728	-0.05422886	-29.2456	0	11.4	4004	0	0	5	5	0.05762398	-0.0198445	1	10	0.03	2000	-1.848328	40.92391	-91.39361
348626	-22	5	7	-0.3327165	-0.04623098	-29.25207	0	11.4	4003	0	0	5	5	0.05762398	-0.01395283	1	10	0.03	2000	-1.603241	40.92391	-91.39361
348686	-23	-1	5	-0.324304	-0.04816755	-29.25898	0	11.4	4004	0	0	5	5	0.05762398	-0.007964429	1	10	0.03	2000	-1.604218	40.92391	-91.39361
348774	-18	-2	3	-0.3180691	-0.0486997	-29.266	0	11.4	4004	0	0	5	5	0.05762398	-0.0009611379	1	10	0.03	2000	-1.627594	40.92391	-91.39361
348837	-31	0	5	-0.3182893	-0.04522195	-29.27125	0	11.4	4004	0	0	5	5	0.05762398	0.001631261	1	10	0.03	2000	-1.386383	40.92391	-91.39361
349026	-28	-6	6	-0.3174519	-0.04824968	-29.28511	0	11.4	4003	0	0	5	5	0.05762398	0.01495283	1	10	0.03	2000	-1.629303	40.92391	-91.39361
349076	-25	5	1	-0.3155602	-0.04625372	-29.28676	0	11.4	4002	0	0	5	5	0.05762398	0.01860177	1	10	0.03	2000	-1.635193	40.92391	-91.39361
349258	-27	3	3	-0.3151529	-0.0433765	-29.29915	0	11.4	4004	0	0	5	5	0.05762398	0.04093298	1	10	0.03	2000	-1.633148	40.92391	-91.39361
349406	-24	5	5	-0.3156738	-0.03995344	-29.30984	0	11.4	4003	0	0	5	5	0.05762398	0.04954132	1	10	0.03	2000	-1.635162	40.92391	-91.39361
349496	-22	3	2	-0.3026727	-0.04291926	-29.31845	0	11.4	4003	0	0	5	5	0.05762398	0.05109055	1	10	0.03	2000	-1.652191	40.92391	-91.39361
349584	-32	1	5	-0.3095824	-0.04245623	-29.32242	0	11.4	4003	0	0	5	5	0.05762398	0.04780889	1	10	0.03	2000	-1.657257	40.92391	-91.39361
349667	-32	0	8	-0.3114905	-0.04123994	-29.33103	0	11.34	4004	0	0	5	5	0.05762398	0.04108053	1	10	0.03	2000	-1.40799	40.92391	-91.39361
349752	-24	1	5	-0.3148382	-0.0378984	-29.33872	0	11.34	4003	0	0	5	5	0.05762398	0.03436381	1	10	0.03	2000	-1.637573	40.92391	-91.39361
349796	-27	7	2	-0.3126743	-0.03943714	-29.34433	0	11.34	4004	0	0	5	5	0.05762398	0.025787	1	10	0.03	2000	-1.392059	40.92391	-91.39361
349992	-27	2	6	-0.3108495	-0.03613974	-29.35404	0	11.34	4004	0	0	5	5	0.05762398	0.01689254	1	10	0.03	2000	-1.880157	40.92391	-91.39361
350033	-20	-3	6	-0.3069069	-0.03515527	-29.36057	0	11.34	4003	0	0	5	5	0.05762398	0.0156904	1	10	0.03	2000	-1.647461	40.92391	-91.39361
350178	-32	7	1	-0.3103337	-0.0432828	-29.37028	0	11.34	4002	0	0	5	5	0.05762398	0.01875781	1	10	0.03	2000	-1.882477	40.92391	-91.39361
350237	-33	1	6	-0.3117052	-0.04456278	-29.37883	0	11.34	4004	0	0	5	5	0.05762398	0.02081219	1	10	0.03	2000	-1.391418	40.92391	-91.39361
350382	-39	-4	4	-0.3137673	-0.0463099	-29.3853	0	11.34	4004	0	0	5	5	0.05762398	0.0297699	1	10	0.03	2000	-1.646362	40.92391	-91.39361
350586	-31	1	6	-0.3212786	-0.04948744	-29.398	0	11.46	4004	0	0	5	5	0.05762398	0.04542129	1	10	0.03	2000	-1.622284	40.92391	-91.39361
350677	-32	0	0	-0.3250053	-0.04528484	-29.40362	0	11.46	4003	0	0	5	5	0.05762398	0.04887616	1	10	0.03	2000	-1.858978	40.92391	-91.39361
350737	-34	1	2	-0.3229482	-0.04241244	-29.40961	0	11.46	4003	0	0	5	5	0.05762398	0.05077461	1	10	0.03	2000	-1.619141	40.92391	-91.39361
350790	-32	0	1	-0.3219925	-0.03989257	-29.4107	0	11.46	4002	0	0	5	5	0.05762398	0.06048531	1	10	0.03	2000	-1.613708	40.92391	-91.39361
350909	-31	-6	0	-0.3226623	-0.03915364	-29.42151	0	11.46	4002	0	0	5	5	0.05762398	0.07504535	1	10	0.03	2000	-1.631531	40.92391	-91.39361
351058	-21	0	6	-0.3177623	-0.03810471	-29.43226	0	11.46	4004	0	0	5	5	0.05762398	0.09695072	1	10	0.03	2000	-1.623047	40.92391	-91.39361
351132	-22	0	0	-0.3120037	-0.03295064	-29.43727	0	11.46	4004	0	0	5	5	0.05762398	0.115702	1	10	0.03	2000	-1.871124	40.92391	-91.39361
351250	-19	1	5	-0.3164743	-0.03527085	-29.44313	0	11.46	4003	0	0	5	5	0.05762398	0.1387256	1	10	0.03	2000	-1.391754	40.92391	-91.39361
351293	-28	-5	4	-0.3147379	-0.03440754	-29.44703	0	11.46	4003	0	0	5	5	0.05762398	0.1426067	1	10	0.03	2000	-1.636749	40.92391	-91.39361
351461	-27	-4	6	-0.325277	-0.03867014	-29.45741	0	11.4	4003	0	0	5	5	0.05762398	0.164947	1	10	0.03	2000	-1.613831	40.92391	-91.39361
351618	-26	4	3	-0.315644	-0.04296078	-29.46614	0	11.4	4002	0	0	5	5	0.05762398	0.1655444	1	10	0.03	2000	-1.627838	40.92391	-91.39361
351685	-23	0	2	-0.3126478	-0.04312525	-29.4698	0	11.4	4003	0	0	5	5	0.05762398	0.1654539	1	10	0.03	2000	-1.638397	40.92391	-91.39361
351764	-24	0	5	-0.3084503	-0.04401124	-29.47902	0	11.4	4002	0	0	5	5	0.05762398	0.1654256	1	10	0.03	2000	-1.638458	40.92391	-91.39361
351825	-23	4	6	-0.3081751	-0.04456496	-29.48214	0	11.4	4002	0	0	5	5	0.05762398	0.1625486	1	10	0.03	2000	-1.401581	40.92391	-91.39361
351928	-24	-4	1	-0.3198779	-0.04581437	-29.48995	0	11.4	4003	0	0	5	5	0.05762398	0.1613567	1	10	0.03	2000	-1.628784	40.92391	-91.39361
352048	-20	7	2	-0.3110853	-0.04698562	-29.49795	0	11.4	4004	0	0	5	5	0.05762398	0.1519223	1	10	0.03	2000	-1.624664	40.92391	-91.39361
352125	-28	3	0	-0.3098554	-0.04326545	-29.50106	0	11.4	4004	0	0	5	5	0.05762398	0.1470008	1	10	0.03	2000	-1.639099	40.92391	-91.39361
352235	-17	-4	8	-0.2981333	-0.03974837	-29.51083	0	11.4	4004	0	0	5	5	0.05762398	0.1550751	1	10	0.03	2000	-1.90387	40.92391	-91.39361
352364	-23	-2	2	-0.2951891	-0.04057873	-29.51785	0	11.4	4002	0	0	5	5	0.05762398	0.1713631	1	10	0.03	2000	-1.672028	40.92391	-91.39361
352423	-29	4	0	-0.2965018	-0.04029178	-29.5195	0	11.4	4003	0	0	5	5	0.05762398	0.1770004	1	10	0.03	2000	-1.672028	40.92391	-91.39361
352529	-28	-3	1	-0.2997122	-0.04861456	-29.52884	0	11.4	4002	0	0	5	5	0.05762398	0.1781949	1	10	0.03	2000	-1.668701	40.92391	-91.39361
352623	-31	-2	1	-0.2984753	-0.05309777	-29.53006	0	11.4	4003	0	0	5	5	0.05762398	0.1729534	1	10	0.03	2000	-1.668701	40.92391	-91.39361
352729	-26	0	9	-0.2948121	-0.04493563	-29.53922	0	11.4	4003	0	0	5	5	0.05762398	0.1687632	1	10	0.03	2000	-1.662384	40.92391	-91.39361
352858	-29	6	-2	-0.2898336	-0.04707444	-29.54771	0	11.4	4004	0	0	5	5	0.05762398	0.1673616	1	10	0.03	2000	-1.908386	40.92391	-91.39361
352913	-29	2	2	-0.2893815	-0.04716125	-29.55082	0	11.4	4002	0	0	5	5	0.05762398	0.1668984	1	10	0.03	2000	-1.679291	40.92391	-91.39361
353085	-30	2	9	-0.2824348	-0.0456894	-29.55943	0	11.4	4002	0	0	5	5	0.05762398	0.1648049	1	10	0.03	2000	-1.445282	40.92391	-91.39361
353115	-27	4	-1	-0.2824348	-0.0456894	-29.55943	0	11.4	4004	0	0	5	5	0.05762398	0.1638964	1	10	0.03	2000	-1.445282	40.92391	-91.39361
353335	-22	3	3	-0.2707933	-0.04127518	-29.57048	0	11.46	4004	0	0	5	5	0.05762398	0.1561956	1	10	0.03	2000	-1.713318	40.92391	-91.39361
353449	-26	7	7	-0.2716974	-0.04772677	-29.57463	0	11.46	4004	0	0	5	5	0.05762398	0.1522315	1	10	0.03	2000	-1.936798	40.92391	-91.39361
353545	-20	2	4	-0.2637401	-0.05335113	-29.58257	0	11.46	4003	0	0	5	5	0.05762398	0.1495233	1	10	0.03	2000	-1.713654	40.92391	-91.39361
353622	-21	2	3	-0.2651067	-0.0567986	-29.58678	0	11.46	4002	0	0	5	5	0.05762398	0.1412218	1	10	0.03	2000	-1.715393	40.92391	-91.39361
353775	-23	1	0	-0.25954	-0.04990897	-29.58875	0	11.46	4002	0	0	5	5	0.05762398	0.1379546	1	10	0.03	2000	-1.727875	40.92391	-91.39361
353896	-30	1	2	-0.2615844	-0.04898078	-29.59467	0	11.46	4002	0	0	5	5	0.05762398	0.1305089	1	10	0.03	2000	-1.727448	40.92391	-91.39361
353941	-24	5	8	-0.2608817	-0.04722101	-29.59687	0	11.46	4003	0	0	5	5	0.05762398	0.1283833	1	10	0.03	2000	-1.726959	40.92391	-91.39361
354009	-26	2	2	-0.2661892	-0.04734893	-29.59912	0	11.46	4004	0	0	5	5	0.05762398	0.124208	1	10	0.03	2000	-1.726959	40.92391	-91.39361
354118	-16	-2	1	-0.2601276	-0.04581964	-29.60358	0	11.46	4003	0	0	5	5	0.05762398	0.1201585	1	10	0.03	2000	-1.469635	40.92391	-91.39361
354218	-19	0	0	-0.260187	-0.04362677	-29.60688	0	11.4	4002	0	0	5	5	0.05762398	0.1135325	1	10	0.03	2000	-1.973969	40.92391	-91.39361
354369	-22	0	3	-0.249655	-0.04560713	-29.61127	0	11.4	4003	0	0	5	5	0.05762398	0.1072697	1	10	0.03	2000	-1.75061	40.92391	-91.39361
354425	-25	-1	3	-0.2521366	-0.04823077	-29.61542	0	11.4	4003	0	0	5	5	0.05762398	0.1068318	1	10	0.03	2000	-1.75061	40.92391	-91.39361
354609	-23	-2	1	-0.2502881	-0.0567349	-29.62189	0	11.4	4002	0	0	5	5	0.05762398	0.1082541	1	10	0.03	2000	-1.973022	40.92391	-91.39361
354707	-21	7	4	-0.2431387	-0.05890552	-29.62964	0	11.4	4002	0	0	5	5	0.05762398	0.1075549	1	10	0.03	2000	-1.75647	40.92391	-91.39361
354792	-26	0	2	-0.2443402	-0.05481982	-29.6341	0	11.4	4004	0	0	5	5	0.05762398	0.1082624	1	10	0.03	2000	-1.996368	40.92391	-91.39361
354838	-26	0	2	-0.2443402	-0.05481982	-29.6341	0	11.4	4004	0	0	5	5	0.05762398	0.1096076	1	10	0.03	2000	-1.996368	40.92391	-91.39361
354915	-22	0	4	-0.2393872	-0.05942946	-29.64161	0	11.4	4002	0	0	5	5	0.05762398	0.1135994	1	10	0.03	2000	-1.520813	40.92391	-91.39361
355005	-23	1	7	-0.2319168	-0.05987589	-29.64906	0	11.4	4004	0	0	5	5	0.05762398	0.1136027	1	10	0.03	2000	-1.771484	40.92391	-91.39361
355181	-18	0	7	-0.2284976	-0.0537386	-29.65755	0	11.34	4004	0	0	5	5	0.05762398	0.1041992	1	10	0.03	2000	-1.540497	40.92391	-91.39361
355247	-19	3	5	-0.2312443	-0.05300293	-29.66224	0	11.34	4003	0	0	5	5	0.05762398	0.1056482	1	10	0.03	2000	-1.77356	40.92391	-91.39361
355385	-28	0	4	-0.2393718	-0.05868021	-29.66908	0	11.34	4003	0	0	5	5	0.05762398	0.1074482	1	10	0.03	2000	-1.762085	40.92391	-91.3936
355458	-28	4	8	-0.2373916	-0.05974136	-29.67635	0	11.34	4004	0	0	5	5	0.05762398	0.1087354	1	10	0.03	2000	-1.768524	40.92391	-91.3936
355512	-20	-2	2	-0.2410651	-0.05663532	-29.68013	0	11.34	4004	0	0	5	5	0.05762398	0.1106801	1	10	0.03	2000	-1.779297	40.92391	-91.3936
355628	-18	3	0	-0.2396532	-0.0593554	-29.68581	0	11.34	4003	0	0	5	5	0.05762398	0.1155078	1	10	0.03	2000	-1.770203	40.92391	-91.3936
355691	-16	1	3	-0.2388023	-0.05579739	-29.68837	0	11.34	4002	0	0	5	5	0.05762398	0.1170011	1	10	0.03	2000	-1.768799	40.92391	-91.3936
355780	-19	-5	1	-0.2458355	-0.04728501	-29.69222	0	11.34	4003	0	0	5	5	0.05762398	0.117031	1	10	0.03	2000	-2.247711	40.92391	-91.3936
355924	-25	-1	1	-0.24904	-0.04830771	-29.70309	0	11.4	4004	0	0	5	5	0.05762398	0.09942676	1	10	0.03	2000	-1.744232	40.92391	-91.3936
355984	-23	4	9	-0.2505046	-0.05038412	-29.70614	0	11.4	4003	0	0	5	5	0.05762398	0.09529985	1	10	0.03	2000	-1.752258	40.92391	-91.3936
356065	-18	5	7	-0.2454159	-0.05163641	-29.71005	0	11.4	4002	0	0	5	5	0.05762398	0.08620584	1	10	0.03	2000	-1.750031	40.92391	-91.3936
356184	-20	4	3	-0.244855	-0.05527777	-29.71499	0	11.4	4004	0	0	5	5	0.0234194	0.07506814	3	10	0.03	2000	-1.997162	40.92391	-91.3936
356297	-25	5	8	-0.240196	-0.04326119	-29.7239	0	11.4	4004	0	0	5	5	0.03210232	0.06783552	6	10	0.03	2000	-1.749756	40.92391	-91.3936
356377	-25	7	8	-0.2411582	-0.04533765	-29.72928	0	11.4	4002	0	0	5	5	0.03657413	0.06584044	6	10	0.03	2000	-1.767151	40.92391	-91.3936
356506	-26	1	8	-0.2419267	-0.05040719	-29.7388	0	11.4	4002	0	0	5	5	0.04316735	0.05322526	6	10	0.03	2000	-1.996887	40.92391	-91.3936
356623	-26	4	5	-0.2387044	-0.05169114	-29.74411	0	11.4	4003	0	0	5	5	0.0477207	0.03629823	6	10	0.03	2000	-1.771301	40.92391	-91.3936
356684	-27	-1	-1	-0.2413154	-0.05368773	-29.74491	0	11.4	4004	0	0	5	5	0.04871103	0.03164698	6	10	0.03	2000	-1.771301	40.92391	-91.3936
356884	-26	0	6	-0.2418134	-0.0584663	-29.75846	0	11.4	4003	0	0	5	5	0.05271809	0.0295022	3	10	0.03	2000	-1.528717	40.92391	-91.3936
356918	-18	1	0	-0.2372055	-0.06028751	-29.75932	0	11.4	4003	0	0	5	5	0.05307148	0.03234269	3	10	0.03	2000	-1.758636	40.92391	-91.3936
357042	-26	1	2	-0.2328782	-0.06303745	-29.7697	0	11.4	4002	0	0	5	5	0.05416526	0.05373808	1	10	0.03	2000	-2.001282	40.92391	-91.3936
357088	-18	-3	6	-0.2332385	-0.0606559	-29.77238	0	11.4	4004	0	0	5	5	0.05456174	0.05847353	1	10	0.03	2000	-1.533569	40.92391	-91.3936
357233	-15	1	3	-0.2293466	-0.06166169	-29.7805	0	11.4	4003	0	0	5	5	0.05514302	0.06903096	1	10	0.03	2000	-2.0224	40.92391	-91.3936
357365	-20	2	0	-0.2175524	-0.07035163	-29.78831	0	11.4	4003	0	0	5	5	0.0555244	0.08562097	1	10	0.03	2000	-1.794983	40.92391	-91.3936
357430	-20	2	5	-0.2129219	-0.07100942	-29.78923	0	11.4	4003	0	0	5	5	0.05566264	0.09317756	1	10	0.03	2000	-2.042908	40.92391	-91.3936
357514	-14	-6	0	-0.2063805	-0.06635836	-29.79405	0	11.4	4003	0	0	5	5	0.05577462	0.1005632	1	10	0.03	2000	-2.046112	40.92392	-91.3936
357571	-16	0	3	-0.2096795	-0.069137	-29.79594	0	11.4	4003	0	0	5	5	0.05590399	0.112134	1	10	0.03	2000	-1.817932	40.92392	-91.3936
357655	-20	3	1	-0.2063411	-0.07630169	-29.79826	0	11.4	4004	0	0	5	5	0.05597011	0.1204019	1	10	0.03	2000	-1.822937	40.92392	-91.3936
357790	-25	0	3	-0.2084874	-0.07330801	-29.80388	0	11.4	4004	0	0	5	5	0.05606705	0.1374759	1	10	0.03	2000	-1.818787	40.92392	-91.3936
357851	-16	1	1	-0.2063186	-0.07350301	-29.80602	0	11.4	4002	0	0	5	5	0.05610219	0.1455891	1	10	0.03	2000	-1.81955	40.92392	-91.3936
357960	-22	2	0	-0.1973239	-0.06322859	-29.81157	0	11.4	4004	0	0	5	5	0.05616354	0.1738921	1	10	0.03	2000	-1.839355	40.92392	-91.3936
358064	-23	5	0	-0.1940912	-0.06327256	-29.81828	0	11.4	4002	0	0	5	5	0.05618035	0.1836186	1	10	0.03	2000	-1.829224	40.92392	-91.3936
358133	-20	0	5	-0.1907081	-0.06345315	-29.82158	0	11.4	4004	0	0	5	5	0.05619396	0.1916827	1	10	0.03	2000	-1.839172	40.92392	-91.3936
358237	-19	0	0	-0.1908786	-0.0656682	-29.82414	0	11.4	4004	0	0	5	5	0.05621392	0.2080388	1	10	0.03	2000	-1.854584	40.92392	-91.3936
358339	-22	4	0	-0.1863122	-0.06681342	-29.825	0	11.4	4004	0	0	5	5	0.05622424	0.2188262	1	10	0.03	2000	-1.605652	40.92392	-91.3936
358434	-16	0	3	-0.1860804	-0.06390284	-29.83239	0	11.4	4003	0	0	5	5	0.05622701	0.222891	1	10	0.03	2000	-1.851868	40.92392	-91.3936
358598	-16	-3	-4	-0.181496	-0.06304049	-29.83788	0	11.4	4003	0	0	5	5	0.05623872	0.2376354	1	10	0.03	2000	-2.105469	40.92392	-91.3936
358652	-16	0	7	-0.1738177	-0.0667759	-29.83947	0	11.4	4004	0	0	5	5	0.05624232	0.255825	1	10	0.03	2000	-2.10907	40.92392	-91.3936
358743	-7	-1	-4	-0.1748295	-0.06952696	-29.84197	0	11.4	4003	0	0	5	5	0.05624416	0.2660311	1	10	0.03	2000	-2.115112	40.92392	-91.3936
358842	-13	-3	4	-0.1780186	-0.06768048	-29.84783	0	11.4	4003	0	0	5	5	0.05624565	0.281663	1	10	0.03	2000	-1.872833	40.92392	-91.3936
359006	-11	-4	7	-0.1776381	-0.06532431	-29.85265	0	11.4	4004	0	0	5	5	0.05624862	0.3100074	1	10	0.03	2000	-1.634827	40.92392	-91.3936
359099	-15	-2	0	-0.1774994	-0.06723779	-29.85589	0	11.4	4004	0	0	5	5	0.05624927	0.3133764	1	10	0.03	2000	-1.859924	40.92392	-91.3936
359181	-14	2	0	-0.1774973	-0.06499019	-29.85815	0	11.4	4004	0	0	5	5	0.05625021	0.3119593	1	10	0.03	2000	-1.860901	40.92392	-91.3936
359332	-14	6	2	-0.1640634	-0.07076672	-29.86468	0	11.4	4002	0	0	5	5	0.05625082	0.3082175	1	10	0.03	2000	-1.881256	40.92392	-91.3936
359405	-13	7	10	-0.1575889	-0.06937696	-29.86926	0	11.4	4003	0	0	5	5	0.05625105	0.3058036	1	10	0.03	2000	-1.671051	40.92392	-91.3936
359515	-14	5	3	-0.157471	-0.07045167	-29.87604	0	11.34	4004	0	0	5	5	0.05625131	0.2968854	1	10	0.03	2000	-1.662842	40.92392	-91.3936
359546	-17	2	1	-0.1578817	-0.06919211	-29.87769	0	11.34	4004	0	0	5	5	0.05625138	0.2968854	1	10	0.03	2000	-1.901917	40.92392	-91.3936
359650	-9	4	6	-0.1544805	-0.07087402	-29.88324	0	11.34	4002	0	0	5	5	0.05625155	0.2973422	3	10	0.03	2000	-1.662506	40.92392	-91.3936
359791	-1	-1	2	-0.1545617	-0.0709039	-29.88935	0	11.34	4004	0	0	5	5	0.05625173	0.294728	3	10	0.03	2000	-1.907837	40.92392	-91.3936
359892	-19	-2	1	-0.1547582	-0.07293633	-29.89344	0	11.34	4003	0	0	5	5	0.05625181	0.286734	3	10	0.03	2000	-2.158691	40.92392	-91.3936
359941	-15	0	0	-0.148845	-0.07243031	-29.89667	0	11.34	4004	0	0	5	5	0.05625182	0.2826996	3	10	0.03	2000	-1.930511	40.92392	-91.3936
360020	-16	-2	4	-0.1405775	-0.07269192	-29.90076	0	11.34	4004	0	0	5	5	0.05625187	0.2759206	3	10	0.03	2000	-1.918304	40.92392	-91.3936
360126	-15	-1	9	-0.139058	-0.07032854	-29.90589	0	11.34	4004	0	0	5	5	0.05625191	0.2649505	3	10	0.03	2000	-2.177216	40.92392	-91.3936
360287	-12	-3	0	-0.1357858	-0.07798152	-29.91377	0	11.34	4002	0	0	5	5	0.05625194	0.2420424	3	10	0.03	2000	-1.940521	40.92392	-91.3936
360367	-8	1	4	-0.1390745	-0.07311589	-29.91774	0	11.34	4004	0	0	5	5	0.05625195	0.2354119	3	10	0.03	2000	-2.184662	40.92392	-91.3936
360468	-15	0	4	-0.1327861	-0.07146172	-29.92177	0	11.4	4003	0	0	5	5	0.05625197	0.222048	3	10	0.03	2000	-1.940308	40.92392	-91.3936
360523	-14	2	1	-0.1294461	-0.08020915	-29.92451	0	11.4	4004	0	0	5	5	0.05625197	0.219831	3	10	0.03	2000	-1.942657	40.92392	-91.3936
360626	-13	0	4	-0.128012	-0.08204117	-29.93025	0	11.4	4003	0	0	5	5	0.05625198	0.2146133	3	10	0.03	2000	-1.707855	40.92392	-91.3936
360752	-17	-1	0	-0.1268475	-0.07451759	-29.93562	0	11.4	4004	0	0	5	5	0.05625198	0.2167523	3	10	0.03	2000	-1.95636	40.92392	-91.3936
360889	-11	-1	1	-0.1313047	-0.07305054	-29.941	0	11.4	4002	0	0	5	5	0.05625198	0.2189774	3	10	0.03	2000	-1.946381	40.92392	-91.3936
361002	-17	0	2	-0.1236111	-0.06424159	-29.94918	0	11.4	4004	0	0	5	5	0.05625198	0.2216365	3	10	0.03	2000	-1.966156	40.92392	-91.3936
361027	-17	0	2	-0.1236111	-0.06424159	-29.94918	0	11.4	4004	0	0	5	5	0.05625198	0.2231658	3	10	0.03	2000	-1.966156	40.92392	-91.3936
361131	-13	-2	3	-0.1276959	-0.07319716	-29.95431	0	11.4	4002	0	0	5	5	0.05625198	0.2297188	3	10	0.03	2000	-1.713135	40.92392	-91.3936
361238	-14	2	1	-0.1258345	-0.07278724	-29.96163	0	11.4	4004	0	0	5	5	0.05625198	0.2399803	3	10	0.03	2000	-2.19928	40.92392	-91.3936
361309	-15	1	4	-0.1314623	-0.07972369	-29.96322	0	11.4	4003	0	0	5	5	0.05625198	0.2470623	3	10	0.03	2000	-1.963531	40.92392	-91.3936
361461	-16	6	3	-0.1329808	-0.07474776	-29.97116	0	11.4	4004	0	0	5	5	0.05625198	0.2624013	3	10	0.03	2000	-1.94986	40.92392	-91.3936
361573	-1	15	6	-0.133529	-0.06718876	-29.97776	0	11.4	4002	0	0	5	5	0.05625198	0.264845	3	10	0.03	2000	-2.190674	40.92392	-91.3936
361653	51	-38	-76	-0.1209954	-0.07730018	-29.96896	0	11.4	4002	0	0	5	5	0.05625198	0.2614233	3	10	0.03	2000	-1.695953	40.92392	-91.3936
361721	-12	25	5	-0.123249	-0.09656327	-29.97825	0	11.4	4004	0	0	5	5	0.05625198	0.2588332	3	10	0.03	2000	-1.720428	40.92392	-91.3936
361811	-1	-46	37	-0.1247475	-0.08369475	-29.98289	0	11.4	4003	0	0	5	5	0.05625198	0.2551184	3	10	0.03	2000	-1.71994	40.92392	-91.3936
361945	-46	-25	30	-0.1460475	-0.0796499	-29.99322	0	11.4	4003	0	0	5	5	0.05625198	0.2528776	3	10	0.03	2000	-1.998169	40.92392	-91.3936
362000	-71	47	-67	-0.1777113	-0.0691091	-29.99488	0	11.4	4004	0	0	5	5	0.05625198	0.2507518	3	10	0.03	2000	-2.621643	40.92392	-91.3936
362257	-23	21	-197	-0.1505668	-0.06447507	-30.01125	0	11.34	4003	0	0	5	5	0.05625198	0.2619971	3	10	0.03	2000	-2.645874	40.92392	-91.3936
362332	8	41	-38	-0.1241284	-0.05814057	-30.01676	0	11.34	4004	0	0	5	5	0.05625198	0.2667418	3	10	0.03	2000	-2.740234	40.92392	-91.3936
362465	126	-18	109	-0.1337108	-0.07334523	-30.02942	0	11.34	4002	0	0	5	5	0.05625198	0.2635778	3	10	0.03	2000	-2.414032	40.92392	-91.3936
362545	274	-26	-116	-0.2104228	-0.1688464	-30.02459	0	11.34	4004	0	0	5	5	0.05625198	0.2550389	3	10	0.03	2000	-2.547852	40.92392	-91.3936
362640	-48	-17	-104	-0.2650898	-0.1860509	-30.02379	0	11.34	4004	0	0	5	5	0.05625198	0.2576672	3	10	0.03	2000	-2.708618	40.92392	-91.3936
362721	-163	80	120	-0.3141544	-0.1982263	-30.04305	0	11.34	4004	0	0	5	5	0.05625198	0.2615442	3	10	0.03	2000	-2.368561	40.92392	-91.3936
362844	-56	60	-82	-0.2769333	-0.2621531	-30.04819	0	11.34	4003	0	0	5	5	0.05625198	0.2792936	3	10	0.03	2000	-2.262878	40.92392	-91.3936
362918	222	-21	154	-0.2341141	-0.3062907	-30.05505	0	11.34	4003	0	0	5	5	0.05625198	0.2891054	3	10	0.03	2000	-2.654877	40.92392	-91.3936
363019	-144	111	105	-0.3317223	-0.2757377	-30.06653	0	11.34	4004	0	0	5	5	0.05625198	0.3006446	3	10	0.03	2000	-2.457855	40.92392	-91.3936
363135	155	-177	-194	-0.2784588	-0.3297937	-30.05686	0	11.11	4004	0	0	5	5	0.05625198	0.324089	3	10	0.03	2000	-2.159302	40.92392	-91.3936
363255	25	-61	78	-0.25676	-0.3366247	-30.06969	0	11.11	4004	0	0	5	5	0.05625198	0.3369336	3	10	0.03	2000	-2.230255	40.92392	-91.3936
363375	-109	-3	-105	-0.2211464	-0.3299199	-30.07239	0	11.11	4002	0	0	5	5	0.05625198	0.3592038	3	10	0.03	2000	-2.467957	40.92392	-91.3936
363435	45	-103	-222	-0.2069559	-0.3564577	-30.07147	0	11.11	4003	0	0	5	5	0.05625198	0.3636141	3	10	0.03	2000	-2.581512	40.92392	-91.3936
363513	276	-143	-107	-0.1791771	-0.3429885	-30.07447	0	11.11	4003	0	0	5	5	0.05625198	0.3694177	3	10	0.03	2000	-1.877045	40.92392	-91.3936
363679	-108	99	30	-0.3066309	-0.3990035	-30.10344	0	11.11	4002	0	0	5	5	0.05625198	0.3780061	3	10	0.03	2000	-2.54303	40.92392	-91.3936
363719	-162	83	236	-0.2852266	-0.3975729	-30.11671	0	11.11	4004	0	0	5	5	0.05625198	0.3774457	3	10	0.03	2000	-1.933411	40.92392	-91.3936
363815	184	123	105	-0.2380139	-0.4400761	-30.11481	0	11.11	4002	0	0	5	5	0.05625198	0.3754503	3	10	0.03	2000	-1.970215	40.92392	-91.3936
363925	216	52	-44	-0.2384105	-0.4500422	-30.11842	0	11.11	4003	0	0	5	5	0.05625198	0.3738428	3	10	0.03	2000	-1.708191	40.92392	-91.3936
364040	-139	-13	21	-0.2499055	-0.5023019	-30.11646	0	11.11	4003	0	0	5	5	0.0272789	0.3720191	6	10	0.03	2000	-2.050354	40.92392	-91.3936
364128	-273	130	129	-0.2781823	-0.5336924	-30.14691	0	11.46	4003	0	0	5	5	0.03307191	0.3764916	6	10	0.03	2000	-2.507355	40.92392	-91.3936
364273	-20	-129	-177	-0.2890951	-0.4859885	-30.16825	0	11.46	4004	0	0	5	5	0.04244534	0.3805065	6	10	0.03	2000	-2.730713	40.92392	-91.3936
364337	100	-61	-5	-0.2219989	-0.513414	-30.18439	0	11.46	4003	0	0	5	5	0.0448731	0.3770787	6	10	0.03	2000	-2.26239	40.92392	-91.3936
364414	-112	107	207	-0.272262	-0.4615335	-30.19022	0	11.46	4004	0	0	5	5	0.04813823	0.3677131	6	10	0.03	2000	-2.281464	40.92392	-91.3936
364582	70	-122	-63	-0.311516	-0.5471454	-30.19231	0	11.46	4003	0	0	5	5	0.05129807	0.3507788	6	10	0.03	2000	-2.350586	40.92392	-91.3936
364692	48	-101	-293	-0.2756269	-0.569903	-30.19588	0	11.46	4003	0	0	5	5	0.0469311	0.3403182	6	10	0.03	2000	-1.7258	40.92392	-91.3936
364719	128	-20	-362	-0.276988	-0.5024546	-30.19802	0	11.46	4003	0	0	5	5	0.04782889	0.3338096	6	10	0.03	2000	-2.210205	40.92392	-91.3936
364849	-159	-8	431	-0.2933951	-0.3776745	-30.21225	0	11.46	4004	0	0	5	5	0.05027928	0.3191592	6	10	0.03	2000	-1.941437	40.92392	-91.3936
364946	80	-94	-123	-0.2723577	-0.386197	-30.20091	0	11.46	4003	0	0	5	5	0.05270641	0.3083754	6	10	0.03	2000	-1.941437	40.92392	-91.3936
365031	16	-48	473	-0.4374861	-0.412017	-30.2143	0	11.46	4003	0	0	5	5	0.05377109	0.3082116	6	10	0.03	2000	-1.915314	40.92392	-91.3936
365186	122	116	427	-0.2487758	-0.8402724	-30.27958	0	10.83	4004	0	0	5	5	0.05515473	0.3118362	6	10	0.03	2000	-2.29541	40.92393	-91.3936
365276	14	-152	100	-0.2766432	-0.935091	-30.24833	0	10.83	4003	0	0	5	5	0.05575423	0.312699	6	10	0.03	2000	-1.786255	40.92393	-91.3936
365362	277	162	-337	-0.3354685	-1.114553	-30.3127	0	10.83	4003	0	0	5	5	0.05651202	0.310831	6	10	0.03	2000	-2.246948	40.92393	-91.3936
365457	66	-135	7	-0.3767916	-1.250087	-30.44361	0	10.83	4003	0	0	5	5	0.05699927	0.3186772	6	10	0.03	2000	-2.501923	40.92393	-91.3936
365524	-156	-44	-196	-0.4906839	-1.255889	-30.6959	0	10.83	4004	0	0	5	5	0.05744743	0.3375069	6	10	0.03	2000	-1.465424	40.92393	-91.3936
365615	43	-720	-669	-0.6763853	-1.041069	-30.64591	0	10.83	4003	0	0	5	5	0.05780683	0.3452908	6	10	0.03	2000	-2.055084	40.92393	-91.3936
365732	-53	-1300	77	-0.8435484	0.9442282	-30.40849	0	10.83	4004	0	0	5	5	0.05664184	0.3559232	6	10	0.03	2000	-1.273102	40.92393	-91.3936
365850	1039	-404	1587	1.288408	1.418844	-31.3932	0	10.83	4009	0	0	5	5	0.05922331	0.3651633	6	10	0.03	2000	0.1120884	40.92393	-91.39361
365990	193	2257	191	2.512078	-0.8206474	-31.56516	0	10.15	4004	0	0	5	5	0.06299915	0.3833844	6	10	0.03	2000	2.310457	40.92393	-91.39361
366024	1140	1480	-2033	1.686353	-2.706376	-30.50306	0	10.15	4002	0	0	5	5	0.06510273	0.3866125	6	10	0.03	2000	2.875298	40.92393	-91.39361
366125	-1421	-408	-46	1.898878	-3.77692	-28.85547	0	10.15	4003	0	0	5	5	0.06749624	0.4017776	6	10	0.03	2000	5.981509	40.92393	-91.39361
366295	649	-1602	54	0.4042334	-0.1563087	-27.82697	0	10.15	4008	0	0	5	5	0.1029348	0.4198514	6	10	0.03	2000	5.407295	40.92393	-91.39361
366425	217	-6	-346	-2.327323	-1.881919	-28.65	0	10.15	4002	0	0	5	5	0.176548	0.4253813	6	10	0.03	2000	8.037972	40.92393	-91.3936
366443	217	-6	-346	-2.327323	-1.881919	-28.65	0	10.15	4002	0	0	5	5	0.2083762	0.4277212	6	10	0.03	2000	8.037972	40.92393	-91.3936
366572	-7575	-5946	-994	-8.038102	1.898415	-28.07158	0	10.15	4003	-300	300	5	5	0.2573864	0.4319163	8	10	0.03	2000	12.99128	40.92393	-91.3936
366627	4400	-1924	509	-9.895019	5.398651	-27.62371	0	10.15	4002	-300	300	5	5	0.2667366	0.4331813	8	10	0.03	2000	11.27933	40.92393	-91.3936
366799	4996	-1253	1745	8.68092	13.48176	-28.14829	0	10.15	4002	-300	300	5	5	0.3011979	0.4432192	8	10	0.03	2000	17.74602	40.92392	-91.3936
366911	2211	2316	-232	13.91147	8.783744	-28.75249	0	10.38	4005	-300	300	5	5	0.3146642	0.4509009	8	10	0.03	2000	36.61962	40.92392	-91.3936
366996	-40	2670	-100	14.07019	4.892694	-28.53255	0	10.38	4002	-300	300	5	5	0.3271219	0.4696387	8	10	0.03	2000	41.29497	40.92392	-91.3936
367070	2118	4018	827	14.95114	1.265625	-28.68865	0	10.38	4002	-300	300	5	5	0.3316376	0.4733391	8	10	0.03	2000	43.06441	40.92392	-91.3936
367187	-2662	8650	-499	12.53765	-14.08622	-29.56637	0	10.38	4004	66	-82	5	5	0.3382581	0.4700147	8	10	0.03	2000	43.49748	40.92392	-91.3936
367270	-8099	5785	180	5.278294	-19.59445	-29.22685	0	10.38	4004	149	-123	5	5	0.3416811	0.4781571	8	10	0.03	2000	40.42622	40.92392	-91.39359
367356	-7857	4415	-832	-18.81346	-25.03959	-28.22316	0	10.38	4003	149	-83	5	5	0.3441764	0.496778	8	10	0.03	2000	30.1248	40.92392	-91.39359
367448	-7859	3047	211	-24.9559	-27.04615	-27.29502	0	10.38	4003	231	-124	5	5	0.3459955	0.5264376	8	10	0.03	2000	19.55247	40.92391	-91.39359
367524	1179	-4091	-1128	-27.31963	-20.99887	-27.097	0	10.38	4002	231	-124	5	5	0.3473217	0.566069	8	10	0.03	2000	7.429867	40.92391	-91.39359
367615	-2044	-2008	1802	-23.65804	-17.105	-28.21206	0	10.38	4002	300	-166	5	5	0.3482884	0.6280623	8	10	0.03	2000	6.091542	40.92391	-91.39358
367670	-2101	931	-1279	-23.37185	-16.56804	-29.16694	0	10.6	4004	300	-166	5	5	0.3485485	0.6405338	8	10	0.03	2000	4.01588	40.92391	-91.39358
367756	-1120	-539	-146	-21.8134	-16.77989	-29.14087	0	10.6	4002	300	-167	5	5	0.3489932	0.6790048	8	10	0.03	2000	0.3753331	40.9239	-91.39358
367925	774	485	573	-21.32386	-11.64907	-28.85083	0	10.6	4004	234	-127	5	5	0.3498815	0.7821422	8	10	0.03	2000	-3.302948	40.9239	-91.39358
368019	-2797	626	-1053	-19.93104	-13.10851	-28.80515	0	10.6	4004	300	-127	5	5	0.3501545	0.8218091	8	10	0.03	2000	-6.788361	40.9239	-91.39357
368096	3875	2123	-778	-18.67843	-14.26821	-28.83595	0	10.6	4004	236	-87	5	5	0.3502941	0.8435076	8	10	0.03	2000	-9.597534	40.9239	-91.39357
368142	3358	2612	601	-16.17444	-15.46126	-28.69173	0	10.6	4003	236	-87	5	5	0.3504071	0.8745765	8	10	0.03	2000	-9.597534	40.9239	-91.39357
368346	4917	-2550	-246	-1.790327	-12.69374	-27.7501	0	10.6	4004	74	-47	5	5	0.3506329	1.000361	8	10	0.03	2000	-11.37936	40.9239	-91.39358
368379	3750	-2091	1694	0.7022379	-11.2183	-28.12339	0	10.6	4004	74	-47	5	5	0.3506585	1.018546	8	10	0.03	2000	-10.71307	40.9239	-91.39358
368450	2302	-5613	1316	3.56602	-6.478765	-28.87783	0	10.6	4004	74	-7	5	5	0.3507023	1.080137	8	10	0.03	2000	-8.363129	40.9239	-91.39358
368621	-2583	496	189	0.01458223	4.362895	-29.44378	0	10.09	4003	-5	-7	5	5	0.3507788	1.327433	8	10	0.03	2000	-7.237457	40.9239	-91.39358
368673	-702	1503	61	-1.057015	3.247645	-29.51179	0	10.09	4004	-88	-7	5	5	0.3507997	1.35771	8	10	0.03	2000	-5.915619	40.9239	-91.39359
368822	932	-1311	805	2.188543	0.4039783	-29.32608	0	10.09	4004	-88	-7	5	5	0.3508363	1.462953	8	10	0.03	2000	-6.000275	40.9239	-91.39359
368944	1236	-1205	443	2.76491	2.540521	-29.65287	0	10.09	4002	-24	40	5	5	0.3508506	1.529992	8	10	0.03	2000	-1.371277	40.92391	-91.39359
369019	3719	255	-1025	5.109492	1.268596	-29.41199	0	10.09	4003	-8	34	5	5	0.3508579	1.558289	8	10	0.03	2000	0.4953194	40.92391	-91.39359
369113	-1521	651	240	3.965019	-0.1456416	-29.80317	0	10.09	4004	-91	34	5	5	0.3508686	1.663607	8	10	0.03	2000	5.531219	40.92391	-91.39359
369157	559	931	-145	3.651914	-0.9561393	-29.79404	0	10.09	4002	-91	34	5	5	0.3508706	1.699639	8	10	0.03	2000	5.531219	40.92391	-91.39359
369343	2155	-990	-278	4.350545	0.170288	-30.05865	0	10.09	4003	-93	75	5	5	0.3508781	1.781338	8	10	0.03	2000	11.97625	40.92391	-91.3936
369427	764	-1835	-379	5.433696	0.971926	-30.02942	0	10.09	4002	-93	75	5	5	0.3508811	1.812576	8	10	0.03	2000	14.20117	40.92391	-91.3936
369475	1499	-319	42	5.240372	1.984622	-29.7163	0	10.32	4002	-93	75	5	5	0.3508819	1.816212	8	10	0.03	2000	17.91667	40.92391	-91.3936
369541	319	-1713	-1098	5.145204	1.828855	-29.4873	0	10.32	4002	-93	35	5	5	0.3508832	1.81551	8	10	0.03	2000	19.18468	40.92391	-91.39361
369701	2932	1613	1049	8.651131	-1.663395	-29.59518	0	10.32	4003	-96	35	5	5	0.3508856	1.733818	8	10	0.03	2000	26.33928	40.92391	-91.39361
369834	7560	3367	1248	-7.754685	-8.904241	-28.74645	0	10.32	4003	-95	35	5	5	0.3508867	1.508649	8	10	0.03	2000	24.50385	40.92391	-91.39361
369894	7187	850	1753	-2.808727	-9.251375	-29.6987	0	10.32	4003	-15	-4	5	5	0.3508872	1.354519	8	10	0.03	2000	24.50385	40.92391	-91.39361
369943	5971	-670	794	0.7954558	-9.198359	-30.52518	0	10.32	4002	-15	-4	5	5	0.3508874	1.341332	8	10	0.03	2000	21.19656	40.92391	-91.39361
370077	988	-311	-1820	7.890121	-6.108825	-29.87073	0	10.32	4003	-15	-4	5	5	0.350888	1.23345	8	10	0.03	2000	26.34157	40.92391	-91.39361
370147	-574	-17	29	6.053109	-5.406112	-28.67103	0	10.32	4004	16	-2	5	5	0.3508881	1.204435	8	10	0.03	2000	28.53476	40.92391	-91.39361
370251	-4467	4208	-354	0.6648914	-11.58557	-28.44355	0	10.32	4003	63	-4	5	5	0.3508884	1.148153	8	10	0.03	2000	28.5045	40.92391	-91.39361
370416	-4482	1827	850	-9.945632	-16.78749	-29.20895	0	10.6	4003	64	-4	5	5	0.3508886	1.066458	8	10	0.03	2000	25.15492	40.92391	-91.39361
370463	-5074	320	0	-11.53604	-17.00631	-29.35697	0	10.6	4004	64	-4	5	5	0.3508887	1.040281	8	10	0.03	2000	23.46916	40.92391	-91.39361
370560	-2770	-1042	-1602	-15.8972	-15.70843	-29.41126	0	10.6	4004	64	-4	5	5	0.3508888	1.021198	8	10	0.03	2000	19.18431	40.92391	-91.39361
370768	-685	-4614	312	-16.35248	-7.862386	-29.71749	0	10.6	4004	147	36	5	5	0.3508888	1.022621	8	10	0.03	2000	16.04209	40.92392	-91.3936
370843	-840	-2283	-639	-14.46703	-4.292577	-29.71977	0	10.6	4003	146	36	5	5	0.3508888	1.039223	8	10	0.03	2000	15.00252	40.92392	-91.3936
370919	134	-1678	-707	-14.70206	-3.751492	-29.70295	0	10.6	4003	147	77	5	5	0.3508888	1.05231	8	10	0.03	2000	13.77473	40.92392	-91.3936
371082	55	-2157	-1184	-11.73013	0.3432167	-28.32379	0	10.6	4004	146	77	5	5	0.3508888	1.141197	8	10	0.03	2000	11.36469	40.92392	-91.3936
371158	-1521	-377	902	-11.17251	-0.2571825	-28.73437	0	10.6	4003	147	77	5	5	0.3508888	1.183333	8	10	0.03	2000	10.61531	40.92392	-91.3936
371256	-911	-483	1062	-12.40112	-0.1109386	-29.67951	0	10.6	4003	147	77	5	5	0.3508888	1.245977	8	10	0.03	2000	8.588921	40.92392	-91.3936
371378	1094	-2031	-504	-9.840136	2.7941	-29.50217	0	10.21	4003	66	37	5	5	0.3508888	1.304484	8	10	0.03	2000	9.223338	40.92392	-91.3936
371470	-188	348	1054	-8.720778	2.47853	-29.65895	0	10.21	4004	66	78	5	5	0.3508888	1.398761	8	10	0.03	2000	6.821137	40.92392	-91.3936
371614	1054	-1659	-1185	-8.50325	2.558917	-29.41766	0	10.21	4003	66	38	5	5	0.3508888	1.457898	8	10	0.03	2000	7.36743	40.92392	-91.39361
371672	-135	2105	1582	-7.883433	0.4261616	-30.30537	0	10.21	4004	-32	46	5	5	0.3508888	1.485628	8	10	0.03	2000	6.024254	40.92392	-91.39361
371773	1587	1223	-60	-4.303736	-2.450428	-30.35372	0	10.21	4003	-15	38	5	5	0.3508888	1.565695	8	10	0.03	2000	6.179069	40.92392	-91.39361
371887	710	-1580	-160	-2.39864	-2.053359	-29.67164	0	10.21	4005	-15	38	5	5	0.3508888	1.599184	8	10	0.03	2000	3.956739	40.92392	-91.39361
