time(ms)	gyro_x(deg/s)	gyro_y(deg/s)	gyro_z(deg/s)	orientation_roll(deg)	orientation_pitch(deg)	orientation_yaw(deg)	throttle	battery(V)	loop_time(uS)	pid_output_roll	pid_output_pitch	pid_output_yaw	pid_output_throttle	ultrasonic_alt	baro_alt	flight_mode	p_gain_altitude	i_gain_altitude	d_gain_altitude	compass_heading	latitude	longitude
403937	-571	-340	324	-10.76043	-9.193622	-28.7508	0	10.94	4002	139	-49	5	5	0.3508888	1.937374	8	10	0.03	2000	4.430789	40.9239	-91.39362
404090	-580	4320	1211	-10.25342	-12.6278	-29.53602	0	10.94	4003	60	-90	5	5	0.3508888	1.881555	8	10	0.03	2000	0.01446428	40.9239	-91.39362
404157	701	1918	622	-9.739756	-15.73467	-29.55465	0	10.94	4002	59	-90	5	5	0.3508888	1.869154	8	10	0.03	2000	-3.084808	40.9239	-91.39362
404222	-1086	1950	-1319	-7.337115	-21.77767	-29.26792	0	10.94	4005	59	-90	5	5	0.3508888	1.835241	8	10	0.03	2000	-5.767975	40.9239	-91.39362
404316	-294	-865	548	-7.067873	-21.69346	-29.46234	0	9.98	4002	59	-50	5	5	0.3508888	1.810559	8	10	0.03	2000	-4.301514	40.9239	-91.39362
404394	342	-717	-252	-6.9653	-20.3851	-29.57703	0	9.98	4003	141	-50	5	5	0.3508888	1.807032	8	10	0.03	2000	-4.301514	40.9239	-91.39362
404470	-2649	-3399	312	-8.945556	-13.6109	-28.99011	0	9.98	4002	141	-50	5	5	0.3508888	1.806355	8	10	0.03	2000	-4.170074	40.9239	-91.39362
404566	-1358	-3003	-554	-10.50432	-10.69666	-28.87484	0	9.98	4004	141	-50	5	5	0.3508888	1.811112	8	10	0.03	2000	-3.472595	40.9239	-91.39362
404697	-1146	-1766	-366	-10.40136	-4.084517	-28.89632	0	9.98	4004	141	-10	5	5	0.3508888	1.826215	8	10	0.03	2000	-5.779663	40.9239	-91.39362
404814	-525	1035	-326	-11.14788	-4.619058	-29.17543	0	9.98	4002	141	-10	5	5	0.3508888	1.839142	8	10	0.03	2000	-7.442932	40.9239	-91.39362
404913	-1075	-2684	-831	-11.01915	-5.271097	-29.17088	0	9.98	4004	141	-10	5	5	0.3508888	1.880929	8	10	0.03	2000	-8.871735	40.9239	-91.39362
404957	-400	-33	92	-11.35311	-4.269963	-29.07315	0	9.98	4004	141	-10	5	5	0.3508888	1.898568	8	10	0.03	2000	-8.871735	40.9239	-91.39362
405173	878	-430	-416	-9.195089	-6.960443	-28.9208	0	9.98	4004	61	30	5	5	0.3508888	1.976849	8	10	0.03	2000	-10.58951	40.9239	-91.39362
405344	680	-3224	-570	-8.448143	-2.694927	-29.66154	0	10.89	4004	-20	72	5	5	0.3508888	2.037134	8	10	0.03	2000	-11.91086	40.9239	-91.39362
405416	2795	-3449	-2187	-7.389709	-1.480482	-29.47806	0	10.89	4004	-20	72	5	5	0.3508888	2.070751	8	10	0.03	2000	-12.26898	40.9239	-91.39362
405472	572	-1706	-669	-3.260761	-0.9675419	-29.43405	0	10.89	4004	-20	72	5	5	0.3508888	2.110229	8	10	0.03	2000	-12.20401	40.9239	-91.39362
405585	-25	-2301	403	-2.803727	1.257419	-29.34217	0	10.89	4002	-21	72	5	5	0.3508888	2.158558	8	10	0.03	2000	-12.82681	40.9239	-91.39362
405683	510	196	404	-0.9349906	2.534182	-29.14128	0	10.89	4004	-20	72	5	5	0.3508888	2.208287	8	10	0.03	2000	-12.85178	40.9239	-91.39362
405794	950	1130	271	-0.4631512	0.6355959	-29.02232	0	10.89	4003	-20	32	5	5	0.3508888	2.253796	8	10	0.03	2000	-12.84613	40.9239	-91.39362
405934	2214	-1135	102	0.7186183	0.394017	-29.11912	0	10.89	4004	-41	40	5	5	0.3508888	2.272526	8	10	0.03	2000	-10.12524	40.92391	-91.39363
406083	458	879	-1593	0.5252312	-0.01072784	-29.53086	0	10.89	4004	-23	33	5	5	0.3508888	2.268674	8	10	0.03	2000	-7.659882	40.92391	-91.39363
406143	384	-986	-1394	0.3634891	-2.130244	-29.46216	0	10.89	4003	-41	40	5	5	0.3508888	2.25048	8	10	0.03	2000	-5.506134	40.92391	-91.39363
406203	1557	-133	-377	1.213024	-2.035496	-28.97061	0	10.15	4002	-23	33	5	5	0.3508888	2.23245	8	10	0.03	2000	-2.029175	40.92391	-91.39364
406296	3611	-2001	-2029	3.228601	-2.311074	-28.42687	0	10.15	4003	-105	74	5	5	0.3508888	2.207976	8	10	0.03	2000	0.5155405	40.92391	-91.39364
406382	-1145	12	1598	3.625358	-1.352161	-28.57957	0	10.15	4004	-139	89	5	5	0.3508888	2.189138	8	10	0.03	2000	8.150525	40.92391	-91.39364
406571	-940	559	-158	3.956597	-0.6036786	-29.70852	0	10.15	4002	-25	34	5	5	0.3508888	2.078316	8	10	0.03	2000	16.1488	40.92391	-91.39364
406669	805	221	-1011	2.013385	0.2086466	-28.8665	0	10.15	4004	-25	-6	5	5	0.3508888	2.045459	8	10	0.03	2000	25.75207	40.92391	-91.39364
406819	1345	998	-1772	2.379848	-2.110447	-27.33917	0	10.15	4002	-108	-6	5	5	0.3508888	1.903248	8	10	0.03	2000	30.71796	40.92391	-91.39365
407016	1465	1918	1092	2.563309	-9.353179	-27.73258	0	10.15	4004	-27	-88	5	5	0.3508888	1.775016	8	10	0.03	2000	36.32526	40.9239	-91.39365
407153	953	2266	135	2.602897	-10.9991	-27.45832	0	10.21	4002	-28	-129	5	5	0.3508888	1.698659	8	10	0.03	2000	32.66045	40.9239	-91.39365
407252	-1168	-240	148	-0.2399354	-12.6875	-28.28407	0	10.21	4004	-28	-89	5	5	0.3508888	1.66284	8	10	0.03	2000	28.66419	40.9239	-91.39365
407312	143	1490	-16	-0.5190203	-12.591	-28.57867	0	10.21	4004	-28	-89	5	5	0.3508888	1.640585	8	10	0.03	2000	28.66419	40.9239	-91.39365
407448	-3175	645	-1783	-3.853071	-14.49276	-28.9807	0	10.21	4004	134	-130	5	5	0.3508888	1.61456	8	10	0.03	2000	24.61161	40.9239	-91.39364
407564	-1004	1948	157	-6.524463	-14.28007	-28.35591	0	10.21	4004	134	-172	5	5	0.3508888	1.580346	8	10	0.03	2000	23.07261	40.92389	-91.39364
407632	-2490	1434	2375	-6.55384	-16.13977	-29.0372	0	10.21	4002	134	-131	5	5	0.3508888	1.573424	8	10	0.03	2000	19.80365	40.92389	-91.39364
407769	-277	86	-703	-6.243036	-17.71099	-29.07127	0	10.21	4004	134	-133	5	5	0.3508888	1.564924	8	10	0.03	2000	14.86059	40.92389	-91.39364
407911	-1799	2024	1080	-7.419507	-15.57247	-29.33661	0	10.21	4002	217	-132	5	5	0.3508888	1.567555	8	10	0.03	2000	11.63224	40.92389	-91.39363
407969	-1096	44	576	-9.402461	-14.26731	-29.72565	0	10.21	4004	136	-92	5	5	0.3508888	1.575423	8	10	0.03	2000	10.28435	40.92389	-91.39363
408074	-1111	-460	1033	-9.098553	-11.58281	-29.87404	0	10.32	4003	136	-133	5	5	0.3508888	1.596656	8	10	0.03	2000	8.826229	40.92389	-91.39363
408164	-1499	-618	306	-11.97488	-11.63416	-30.19858	0	10.32	4002	137	-94	5	5	0.3508888	1.612882	8	10	0.03	2000	7.08907	40.92389	-91.39363
408201	-2551	-790	781	-12.94938	-10.62086	-30.15537	0	10.32	4002	136	-94	5	5	0.3508888	1.627045	8	10	0.03	2000	7.08907	40.92389	-91.39363
408300	-243	-570	39	-13.12106	-9.777148	-29.44679	0	10.32	4004	219	-135	5	5	0.3508888	1.660851	8	10	0.03	2000	5.922665	40.92388	-91.39362
408470	-3097	-2268	-1517	-15.38242	-10.47129	-28.82089	0	10.32	4004	222	-95	5	5	0.3508888	1.739014	8	10	0.03	2000	2.187795	40.92388	-91.39362
408534	-862	-838	1283	-16.02071	-8.702584	-28.63892	0	10.32	4004	221	-95	5	5	0.3508888	1.75912	8	10	0.03	2000	0.8069211	40.92388	-91.39362
408665	-991	1091	1540	-16.27498	-7.137161	-28.97979	0	10.32	4002	221	-55	5	5	0.3508888	1.843305	8	10	0.03	2000	-1.136078	40.92388	-91.39362
408717	-588	331	-1186	-16.05933	-8.533058	-29.00172	0	10.32	4008	221	-55	5	5	0.3508888	1.852945	8	10	0.03	2000	-3.92038	40.92388	-91.39362
408787	-1023	-935	591	-15.12119	-7.58298	-29.04996	0	10.32	4003	222	-55	5	5	0.3508888	1.881635	8	10	0.03	2000	-4.536255	40.92388	-91.39362
408954	815	-1609	-7	-16.17365	-3.893043	-29.26982	0	10.32	4002	141	-15	5	5	0.3508888	1.951681	8	10	0.03	2000	-6.959869	40.92389	-91.39362
408995	293	392	1337	-14.05802	-3.702993	-29.45309	0	10.26	4003	141	25	5	5	0.3508888	1.963593	8	10	0.03	2000	-8.587402	40.92389	-91.39362
409125	1998	-2341	-1009	-11.67095	-0.8884363	-29.08228	0	10.26	4003	60	31	5	5	0.3508888	2.02927	8	10	0.03	2000	-9.86731	40.92389	-91.39362
409259	1193	-161	-2012	-9.517743	-1.897407	-29.10111	0	10.26	4004	61	26	5	5	0.3508888	2.090065	8	10	0.03	2000	-11.40704	40.92389	-91.39362
409367	-281	-840	1583	-6.379395	-0.8652949	-29.23815	0	10.26	4002	61	67	5	5	0.3508888	2.131461	8	10	0.03	2000	-13.36359	40.92389	-91.39362
409460	-325	-1219	-565	-7.156034	-1.798621	-29.68408	0	10.26	4004	61	67	5	5	0.3508888	2.168908	8	10	0.03	2000	-14.55579	40.92389	-91.39362
409584	765	879	-521	-6.779326	-1.94503	-29.26908	0	10.26	4003	61	27	5	5	0.3508888	2.228613	8	10	0.03	2000	-14.12814	40.92389	-91.39362
409621	903	53	-612	-6.504795	-2.016551	-29.13295	0	10.26	4003	61	27	5	5	0.3508888	2.242592	8	10	0.03	2000	-15.28577	40.92389	-91.39362
409716	-845	-1829	512	-6.495443	-0.3961321	-28.8479	0	10.26	4003	61	27	5	5	0.3508888	2.255018	8	10	0.03	2000	-16.25708	40.92389	-91.39362
409860	1264	-1456	-1796	-4.347302	1.199317	-28.64432	0	10.49	4002	-20	68	5	5	0.3508888	2.303556	8	10	0.03	2000	-20.38107	40.92389	-91.39362
409964	1099	938	-1322	-2.875924	-0.7273065	-28.81399	0	10.49	4004	-21	28	5	5	0.3508888	2.315045	8	10	0.03	2000	-16.62762	40.92389	-91.39362
410047	3814	1860	1188	-0.8355089	-2.498501	-28.69219	0	10.49	4004	-103	28	5	5	0.3508888	2.317356	8	10	0.03	2000	-16.44446	40.92389	-91.39363
410196	485	407	-506	1.376041	-4.254426	-29.0594	0	10.49	4004	-103	69	5	5	0.3508888	2.306452	8	10	0.03	2000	-10.44455	40.9239	-91.39363
410285	1469	-576	-476	2.573816	-5.701835	-29.08177	0	10.49	4004	-103	69	5	5	0.3508888	2.291947	8	10	0.03	2000	-7.27002	40.9239	-91.39363
410332	2123	218	668	2.777018	-4.598022	-29.14903	0	10.49	4004	-185	69	5	5	0.3508888	2.285472	8	10	0.03	2000	-2.062531	40.9239	-91.39364
410401	3786	105	-1342	5.156703	-4.070329	-28.96517	0	10.49	4004	-107	30	5	5	0.3508888	2.260934	8	10	0.03	2000	0.05795054	40.9239	-91.39364
410663	2350	587	-202	7.642855	-2.721588	-28.26372	0	10.49	4004	-108	29	5	5	0.3508888	2.121643	8	10	0.03	2000	16.62415	40.9239	-91.39365
410781	2150	463	1144	7.534119	-4.410205	-28.6389	0	10.15	4003	-190	29	5	5	0.3508888	2.007063	8	10	0.03	2000	24.61241	40.9239	-91.39365
410841	1853	-503	696	9.808485	-3.562726	-28.56804	0	10.15	4004	-190	-10	5	5	0.3508888	1.866561	8	10	0.03	2000	28.5017	40.9239	-91.39365
410919	263	60	389	8.882486	-4.722507	-29.92563	0	10.15	4002	-190	-10	5	5	0.3508888	1.809848	8	10	0.03	2000	35.29276	40.9239	-91.39365
411037	3144	-1164	-1290	11.18003	-3.723456	-29.35126	0	10.15	4003	-110	-10	5	5	0.3508888	1.621677	8	10	0.03	2000	33.4186	40.9239	-91.39366
411127	775	-1033	-612	8.009026	-3.900673	-28.12734	0	10.15	4002	-193	-10	5	5	0.3508888	1.409824	8	10	0.03	2000	42.39516	40.9239	-91.39366
411257	1625	-1016	874	9.03063	-1.407598	-27.96395	0	10.15	4003	-113	-10	5	5	0.3508888	1.3323	8	10	0.03	2000	41.35917	40.92389	-91.39366
411361	769	1402	-733	8.315803	-2.119239	-28.3183	0	10.15	4004	-33	-51	5	5	0.3508888	1.259034	8	10	0.03	2000	45.72511	40.92389	-91.39366
411560	-3518	-125	978	0.1783728	-7.492454	-27.65942	0	10.15	4002	46	-61	5	5	0.3508888	1.083731	8	10	0.03	2000	46.82996	40.92389	-91.39365
411780	-2786	1267	445	-2.84036	-8.575454	-28.73784	0	10.26	4003	129	-51	5	5	0.3508888	0.9394259	8	10	0.03	2000	45.70904	40.92389	-91.39365
411860	-4089	66	1198	-7.937326	-5.53019	-28.60902	0	10.26	4004	211	-92	5	5	0.3508888	0.8891879	8	10	0.03	2000	42.06921	40.92389	-91.39365
411961	-3007	2676	-191	-10.5254	-6.673198	-29.29397	0	10.26	4003	212	-53	5	5	0.3508888	0.8593003	8	10	0.03	2000	39.927	40.92389	-91.39365
412072	-1425	1449	-899	-12.8673	-7.520978	-29.27817	0	10.26	4004	294	-52	5	5	0.3508888	0.8531624	8	10	0.03	2000	36.79557	40.92389	-91.39364
412159	-2241	-156	-623	-13.73752	-8.318056	-27.63861	0	10.26	4004	214	-52	5	5	0.3508888	0.8622095	8	10	0.03	2000	30.3172	40.92389	-91.39364
412277	-2928	1724	1683	-14.95835	-7.614956	-26.71178	0	10.26	4003	300	-94	5	5	0.3508888	0.8770009	8	10	0.03	2000	23.92912	40.92389	-91.39362
412474	-3780	-986	1542	-17.87699	-11.06288	-28.31156	0	10.26	4003	300	-135	5	5	0.3508888	0.9102234	8	10	0.03	2000	12.58759	40.92388	-91.39362
412637	-735	946	-1434	-18.98836	-13.32196	-29.2867	0	9.81	4004	300	-177	5	5	0.3508888	0.9825495	8	10	0.03	2000	6.071168	40.92387	-91.39361
412717	-2240	3450	-63	-18.52573	-15.64743	-29.09717	0	9.81	4006	300	-177	5	5	0.3508888	1.016862	8	10	0.03	2000	1.303676	40.92387	-91.39361
412825	-1895	1873	-511	-21.27713	-17.47376	-29.32987	0	9.81	4002	300	-178	5	5	0.3508888	1.072788	8	10	0.03	2000	-10.04422	40.92387	-91.3936
412862	-1118	2026	-25	-21.24562	-17.83272	-29.1553	0	9.81	4003	300	-138	5	5	0.3508888	1.082677	8	10	0.03	2000	-10.04422	40.92387	-91.3936
412994	-1308	-1159	1628	-19.77605	-18.67406	-29.13646	0	9.81	4005	300	-179	5	5	0.3508888	1.134818	8	10	0.03	2000	-14.55945	40.92387	-91.3936
413069	-2185	-1638	-707	-19.68914	-17.6517	-29.36345	0	9.81	4004	258	-166	5	5	0.3508888	1.155209	8	10	0.03	2000	-15.08038	40.92387	-91.3936
413239	24	965	-379	-19.67293	-15.58149	-28.80191	0	9.81	4002	229	-18	5	5	0.3508888	1.18169	8	10	0.03	2000	-17.37469	40.92387	-91.39359
413333	6555	-4150	-1430	-5.6711	-9.498438	-27.55374	0	9.81	4003	229	-17	5	5	0.3508888	1.192885	8	10	0.03	2000	-18.62085	40.92387	-91.39359
413375	5215	-2199	1229	-2.326801	-7.652169	-27.67202	0	9.81	4003	149	-17	5	5	0.3508888	1.197941	8	10	0.03	2000	-18.62085	40.92387	-91.39359
413471	4666	-1330	920	2.123005	-5.057923	-28.31009	0	9.81	4004	148	-17	5	5	0.3508888	1.235676	8	10	0.03	2000	-16.87119	40.92387	-91.3936
413579	4268	-1311	418	8.425717	-2.920546	-29.11866	0	9.98	4003	66	-17	5	5	0.3508888	1.270213	8	10	0.03	2000	-14.15414	40.92387	-91.3936
413745	1950	-825	1042	9.730535	0.4344545	-29.46178	0	9.98	4003	66	63	5	5	0.3508888	1.353314	8	10	0.03	2000	-10.63107	40.92387	-91.3936
413804	3125	-1983	-669	10.73529	0.8420947	-29.36141	0	9.98	4004	-13	23	5	5	0.3508888	1.370016	8	10	0.03	2000	-8.779846	40.92387	-91.3936
413924	-3624	-806	1032	10.15174	1.037159	-29.31782	0	9.98	4002	-13	64	5	5	0.3508888	1.401459	8	10	0.03	2000	-3.877014	40.92388	-91.3936
414004	-1424	-2888	-1640	5.768597	2.253443	-29.11487	0	9.98	4003	-13	64	5	5	0.3508888	1.441678	8	10	0.03	2000	-2.944946	40.92388	-91.3936
414086	825	-1526	-1052	4.36015	3.581618	-29.18988	0	9.98	4002	-96	64	5	5	0.3508888	1.458888	8	10	0.03	2000	-0.8692932	40.92388	-91.39361
414211	-1882	56	496	2.576332	3.75401	-29.71682	0	9.98	4004	-16	64	5	5	0.3508888	1.472977	8	10	0.03	2000	1.472688	40.92388	-91.39361
414399	82	-1354	-1464	1.242982	3.505855	-29.04708	0	9.98	4003	0	0	5	5	0.3508888	1.482423	3	10	0.03	2000	6.719224	40.92389	-91.39361
414534	-1443	-707	190	-2.042257	0.6680002	-29.14269	0	10.66	4003	0	0	5	5	0.3508888	1.455598	3	10	0.03	2000	8.649117	40.92389	-91.39362
414655	-1554	1012	-395	-4.277215	-1.942496	-29.37574	0	10.66	4004	0	0	5	5	0.3508888	1.413956	3	10	0.03	2000	11.05621	40.92389	-91.39362
414758	-1847	-1391	-489	-6.996601	-2.521675	-29.14157	0	10.66	4005	0	0	5	5	0.3508888	1.364706	3	10	0.03	2000	9.764677	40.92389	-91.39362
414783	-901	-39	-288	-8.613726	-2.738563	-29.04733	0	10.66	4004	0	0	5	5	0.3508888	1.364706	3	10	0.03	2000	8.483744	40.92389	-91.39362
414887	2519	-2013	361	-6.713818	-2.738655	-28.65145	0	10.66	4004	0	0	5	5	0.3508888	1.317044	3	10	0.03	2000	8.23206	40.92389	-91.39362
415005	2299	1649	-976	-4.002985	-2.127269	-27.67196	0	10.66	4003	0	0	5	5	0.3508888	1.277038	3	10	0.03	2000	9.096149	40.9239	-91.39362
415081	307	-143	678	-2.298472	-3.269484	-27.43439	0	10.66	4002	0	0	5	5	0.3508888	1.23769	3	10	0.03	2000	10.45314	40.9239	-91.39362
415182	-58	-380	199	-3.130981	-2.711207	-27.91383	0	10.66	4002	0	0	5	5	0.3508888	1.192794	3	10	0.03	2000	11.03357	40.9239	-91.39362
415291	359	-337	574	-3.858016	-2.804504	-29.52158	0	10.66	4003	0	0	5	5	0.3508888	1.123708	3	10	0.03	2000	14.89307	40.9239	-91.39362
415387	-1195	2055	414	-4.643258	-4.919571	-30.26552	0	9.98	4004	0	0	5	5	0.3508888	1.084545	3	10	0.03	2000	17.56705	40.9239	-91.39362
415510	-2520	2660	-267	-8.735884	-9.120278	-29.90808	0	9.98	4004	0	0	5	5	0.3508888	1.012903	3	10	0.03	2000	14.96543	40.9239	-91.39362
415633	2730	3374	-1668	-9.103287	-13.56175	-29.53511	0	9.98	4002	0	0	5	5	0.3508888	0.9464334	3	10	0.03	2000	11.2307	40.9239	-91.39362
415699	2051	-1631	1153	-5.620873	-13.943	-29.4557	0	9.98	4003	0	0	5	5	0.3508888	0.926553	3	10	0.03	2000	8.717563	40.9239	-91.39362
415878	591	-381	-836	-3.043233	-7.816105	-28.42342	0	9.98	4003	0	0	5	5	0.3508888	0.8720846	3	10	0.03	2000	8.917016	40.92389	-91.39362
415961	197	548	966	-2.911573	-8.879921	-28.10269	0	9.98	4003	0	0	5	5	0.3508888	0.8079545	3	10	0.03	2000	11.20095	40.92389	-91.39362
416069	81	-2181	-151	-3.2912	-5.316056	-28.06769	0	9.98	4003	0	0	5	5	0.3508888	0.7476305	3	10	0.03	2000	14.30806	40.92389	-91.39363
416106	643	-1262	219	-2.82621	-4.251428	-28.19422	0	9.98	4003	0	0	5	5	0.3508888	0.722362	3	10	0.03	2000	14.30806	40.92389	-91.39363
416196	514	19	1133	-2.001742	-2.796552	-28.5498	0	9.98	4003	0	0	5	5	0.3508888	0.6919051	3	10	0.03	2000	14.6249	40.92389	-91.39363
416317	-5	-2583	-388	-1.353356	-0.4551134	-28.70446	0	10.77	4004	0	0	5	5	0.3508888	0.657831	3	10	0.03	2000	14.99376	40.92389	-91.39363
416388	-1008	-1079	-523	-1.923564	0.2432463	-28.76141	0	10.77	4004	0	0	5	5	0.3508888	0.6266203	3	10	0.03	2000	17.73682	40.92389	-91.39363
416503	432	366	-639	-2.884238	-1.655485	-28.75188	0	10.77	4002	0	0	5	5	0.3508888	0.5872961	3	10	0.03	2000	19.2967	40.92389	-91.39363
416631	-1364	1487	2002	-4.708988	-4.228456	-29.31334	0	10.77	4003	0	0	5	5	0.3508888	0.5223057	3	10	0.03	2000	19.4968	40.92389	-91.39363
416748	1296	4174	-939	-5.510974	-9.934373	-29.39619	0	10.77	4003	0	0	5	5	0.3508888	0.4758635	3	10	0.03	2000	19.21427	40.92389	-91.39363
416797	4115	-863	-1710	-2.078988	-11.03662	-27.58195	0	10.77	4003	0	0	5	5	0.3508888	0.4554909	3	10	0.03	2000	14.95856	40.92389	-91.39363
416899	4047	-7166	-2045	2.584494	-2.538205	-24.14622	0	10.77	4003	0	0	5	5	0.3508888	0.3831581	3	10	0.03	2000	14.27396	40.92389	-91.39363
417032	3585	1949	1592	-8.628416	8.396437	-31.96902	0	10.77	4004	0	0	5	5	0.3508888	0.3100087	3	10	0.03	2000	20.04102	40.92389	-91.39363
417159	-595	2226	195	-10.40173	2.867783	-32.80159	0	10.77	4002	0	0	5	5	0.3508888	0.2205169	3	10	0.03	2000	21.496	40.92389	-91.39363
417290	-66	-74	69	-9.03423	3.096557	-32.9579	0	10.94	4004	0	0	5	5	0.3508888	0.1611994	3	10	0.03	2000	18.17889	40.92389	-91.39363
417324	-64	83	-7	-8.755386	3.294196	-32.96158	0	10.94	4003	0	0	5	5	0.3508888	0.1462738	3	10	0.03	2000	16.69862	40.92389	-91.39363
417415	-47	56	50	-8.291682	3.559434	-32.98989	0	10.94	4004	0	0	5	5	0.3508888	0.06318972	3	10	0.03	2000	15.12087	40.92389	-91.39363
417584	-99	68	34	-7.12641	4.238951	-33.05422	0	10.94	4003	0	0	5	5	0.3508888	0.001111765	3	10	0.03	2000	13.4956	40.92389	-91.39363
417660	-105	47	51	-6.792675	4.412694	-33.08228	0	10.94	4003	0	0	5	5	0.3508888	-0.03118356	3	10	0.03	2000	12.78188	40.92389	-91.39363
417763	-95	20	63	-6.490654	4.584379	-33.09891	0	10.94	4004	0	0	5	5	0.3508888	-0.05443056	3	10	0.03	2000	12.34425	40.92389	-91.39363
417786	-95	20	63	-6.490654	4.584379	-33.09891	0	10.94	4004	0	0	5	5	0.3508888	-0.06530057	3	10	0.03	2000	12.34425	40.92389	-91.39363
417898	-94	32	24	-5.828824	4.962829	-33.14783	0	10.94	4003	0	0	5	5	0.3508888	-0.08695968	3	10	0.03	2000	10.2765	40.92389	-91.39363
417987	-91	11	37	-5.50897	5.153067	-33.17603	0	10.94	4004	0	0	5	5	0.3508888	-0.09839143	3	10	0.03	2000	10.16081	40.92389	-91.39363
418128	-99	23	44	-5.051733	5.405147	-33.21962	0	11.06	4003	0	0	5	5	0.3508888	-0.121934	3	10	0.03	2000	8.887975	40.92389	-91.39363
418185	-104	23	13	-4.969758	5.443011	-33.22622	0	11.06	4004	0	0	5	5	0.3508888	-0.123288	3	10	0.03	2000	8.800375	40.92389	-91.39363
418268	-100	18	25	-4.760466	5.565848	-33.25299	0	11.06	4004	0	0	5	5	0.3508888	-0.1233966	3	10	0.03	2000	8.339718	40.92389	-91.39363
418359	-104	11	14	-4.509157	5.697735	-33.28899	0	11.06	4002	0	0	5	5	0.3508888	-0.1341681	3	10	0.03	2000	7.188959	40.92389	-91.39363
418470	-97	18	13	-4.405538	5.751462	-33.30518	0	11.06	4002	0	0	5	5	0.3508888	-0.1381339	3	10	0.03	2000	7.425756	40.92389	-91.39363
418576	-103	18	12	-4.174282	5.8616	-33.34608	0	11.06	4002	0	0	5	5	0.3508888	-0.1525897	3	10	0.03	2000	7.309073	40.92389	-91.39363
418642	-100	14	19	-4.133131	5.877123	-33.35427	0	11.06	4003	0	0	5	5	0.3508888	-0.1652963	3	10	0.03	2000	7.309073	40.92389	-91.39363
418783	-98	18	18	-3.955019	5.953127	-33.39893	0	11.06	4002	0	0	5	5	0.3508888	-0.183811	3	10	0.03	2000	6.726527	40.92389	-91.39363
418849	-98	14	16	-3.889779	5.977893	-33.41567	0	11.06	4002	0	0	5	5	0.3508888	-0.1998282	3	10	0.03	2000	6.607978	40.92389	-91.39363
418940	-94	5	16	-3.831338	5.999135	-33.43448	0	11.06	4003	0	0	5	5	0.3508888	-0.2123353	3	10	0.03	2000	6.462748	40.92389	-91.39363
419052	-100	17	11	-3.753752	6.025815	-33.45658	0	11.06	4002	0	0	5	5	0.3508888	-0.2285131	3	10	0.03	2000	6.216099	40.92389	-91.39363
419205	-101	6	13	-3.642518	6.056201	-33.49844	0	11.06	4003	0	0	5	5	0.3508888	-0.2336844	3	10	0.03	2000	6.067925	40.92389	-91.39363
419301	-104	12	12	-3.625041	6.064466	-33.5054	0	11.06	4003	0	0	5	5	0.3508888	-0.2316507	3	10	0.03	2000	5.923914	40.92389	-91.39363
419340	-104	2	11	-3.557747	6.084918	-33.53923	0	11.06	4003	0	0	5	5	0.3508888	-0.2321812	3	10	0.03	2000	6.111	40.92389	-91.39363
419443	-96	8	9	-3.542138	6.089874	-33.54534	0	11.06	4004	0	0	5	5	0.3508888	-0.232568	3	10	0.03	2000	5.576922	40.92389	-91.39363
419544	-96	6	7	-3.493641	6.109134	-33.56939	0	11.06	4004	0	0	5	5	0.3508888	-0.228335	3	10	0.03	2000	5.752533	40.92389	-91.39363
419712	-100	14	15	-3.444751	6.112521	-33.60958	0	11.06	4002	0	0	5	5	0.3508888	-0.2340586	3	10	0.03	2000	5.602361	40.92389	-91.39363
419780	-88	11	13	-3.400967	6.115635	-33.64341	0	11.06	4003	0	0	5	5	0.3508888	-0.2400958	3	10	0.03	2000	5.539227	40.92389	-91.39363
419837	-83	1033	56	-3.420743	6.010725	-33.69097	0	11.06	4004	0	0	5	5	0.3508888	-0.2385776	3	10	0.03	2000	5.495537	40.92389	-91.39363
419865	-207	666	-141	-3.837097	5.071669	-33.90893	0	11.06	4002	0	0	5	5	0.3508888	-0.2263152	3	10	0.03	2000	5.20669	40.92389	-91.39363
419974	-784	-3960	-119	-5.452867	7.169318	-34.48361	0	11.06	4002	0	0	5	5	0.3508888	-0.2191404	3	10	0.03	2000	6.398441	40.92389	-91.39363
420045	844	-2086	52	-5.807509	11.29814	-34.35355	0	11.06	4003	0	0	5	5	0.3508888	-0.2075792	3	10	0.03	2000	6.820961	40.92389	-91.39363
420204	-419	-2424	-856	-3.872957	17.93973	-32.89361	0	11.06	4003	0	0	5	5	0.3508888	-0.1812293	3	10	0.03	2000	7.55215	40.92389	-91.39363
420308	-291	-776	-759	-3.968099	19.97642	-32.0151	0	11.06	4004	0	0	5	5	0.3508888	-0.1582734	3	10	0.03	2000	7.79171	40.92389	-91.39363
420402	-1151	600	-720	-5.227859	20.20721	-30.16817	0	11.06	4004	0	0	5	5	0.3508888	-0.13868	3	10	0.03	2000	6.25006	40.92389	-91.39363
420436	-935	459	-465	-5.836193	20.17881	-29.85293	0	11.06	4003	0	0	5	5	0.3508888	-0.1243932	3	10	0.03	2000	5.789641	40.92389	-91.39363
420540	-1778	-146	-927	-7.19468	20.31698	-29.18713	0	11.06	4003	0	0	5	5	0.3508888	-0.0943045	3	10	0.03	2000	5.789641	40.92389	-91.39363
420656	-2688	3139	-1880	-12.34377	16.71895	-24.31747	0	11.06	4002	0	0	5	5	0.3508888	-0.0546099	3	10	0.03	2000	3.057434	40.92388	-91.39363
420732	-3121	3457	-1217	-14.53535	13.76166	-22.59542	0	11	4003	0	0	5	5	0.3508888	-0.02989169	3	10	0.03	2000	-0.6053772	40.92388	-91.39363
420904	318	1969	-1982	-17.20446	7.741571	-19.03614	0	11	4004	0	0	5	5	0.3508888	0.06301277	3	10	0.03	2000	-7.641937	40.92389	-91.39363
420981	1055	82	-2480	-15.48313	8.550729	-16.6638	0	11	4004	0	0	5	5	0.3508888	0.1039417	3	10	0.03	2000	-9.64447	40.92389	-91.39363
421048	237	-401	-3582	-14.39464	10.73831	-11.40418	0	11	4004	0	0	5	5	0.3508888	0.1178868	3	10	0.03	2000	-12.73019	40.92389	-91.39363
421132	1359	-1343	-2502	-12.816	13.09834	-7.94435	0	11	4002	0	0	5	5	0.3508888	0.1829792	3	10	0.03	2000	-12.73019	40.92389	-91.39363
421291	255	-2107	871	-8.634362	15.54681	-6.264275	0	11	4004	0	0	5	5	0.3508888	0.2542235	3	10	0.03	2000	-17.04855	40.92389	-91.39363
421348	-576	1814	1818	-8.64027	14.7717	-8.052396	0	11	4003	0	0	5	5	0.3508888	0.2838836	3	10	0.03	2000	-16.79572	40.92389	-91.39363
421484	1811	-2064	1298	-8.019711	14.30017	-10.69643	0	11	4002	0	0	5	5	0.3508888	0.3275227	3	10	0.03	2000	-17.435	40.92389	-91.39363
421586	834	-2947	961	-5.401298	16.35139	-12.64758	0	11.06	4003	0	0	5	5	0.3508888	0.3917261	3	10	0.03	2000	-16.89832	40.92389	-91.39362
421615	26	-2682	419	-5.13291	17.11206	-13.03216	0	11.06	4004	0	0	5	5	0.3508888	0.3994087	3	10	0.03	2000	-17.13699	40.92389	-91.39362
421740	214	-2752	-991	-3.866597	19.09015	-11.95361	0	11.06	4003	0	0	5	5	0.3508888	0.4377424	3	10	0.03	2000	-18.45535	40.9239	-91.39362
421824	1583	3096	-1754	-3.520739	17.69727	-8.940184	0	11.06	4003	0	0	5	5	0.3508888	0.4595548	3	10	0.03	2000	-22.22195	40.9239	-91.39362
421933	2766	565	-578	1.622064	15.43329	-7.397713	0	11.06	4003	0	0	5	5	0.3508888	0.4839099	3	10	0.03	2000	-22.47034	40.9239	-91.39362
422073	119	1919	-457	3.306221	11.46428	-5.894234	0	11.06	4003	0	0	5	5	0.3508888	0.4981117	3	10	0.03	2000	-19.7504	40.9239	-91.39362
422120	-1124	1851	-548	2.771074	9.770202	-5.48949	0	11.06	4002	0	0	5	5	0.3508888	0.5015361	3	10	0.03	2000	-18.8566	40.9239	-91.39363
422245	-422	134	-1491	1.462711	5.965209	-2.774453	0	11.06	4004	0	0	5	5	0.3508888	0.5111289	3	10	0.03	2000	-18.47424	40.9239	-91.39363
422313	-1854	3702	-1782	1.076508	5.388955	-1.911521	0	11.06	4003	0	0	5	5	0.3508888	0.5118719	3	10	0.03	2000	-19.64371	40.9239	-91.39363
422417	433	320	185	0.2068541	1.047759	-0.08821283	0	11.06	4003	0	0	5	5	0.3508888	0.5083861	3	10	0.03	2000	-20.80505	40.9239	-91.39363
422540	964	-2187	1016	0.0149306	3.176982	-0.8667456	0	11.06	4002	0	0	5	5	0.3508888	0.5035337	3	10	0.03	2000	-22.74835	40.9239	-91.39363
422612	2100	-1923	1528	0.8611692	4.154986	-1.601525	0	11.06	4003	0	0	5	5	0.3508888	0.4990506	3	10	0.03	2000	-22.74835	40.9239	-91.39363
422730	493	3075	1553	2.334155	6.760664	-6.726619	0	11.06	4002	0	0	5	5	0.3508888	0.4897584	3	10	0.03	2000	-19.93317	40.9239	-91.39363
422803	1753	1761	1848	2.632048	5.344258	-7.668461	0	11.06	4002	0	0	5	5	0.3508888	0.4838714	3	10	0.03	2000	-16.60651	40.9239	-91.39363
422947	158	-181	1538	1.999778	4.312825	-11.74777	0	11.06	4003	0	0	5	5	0.3508888	0.4718652	3	10	0.03	2000	-11.02686	40.92391	-91.39363
423057	-576	2957	2738	1.434742	1.314545	-15.72247	0	11.06	4004	0	0	5	5	0.3508888	0.4488873	3	10	0.03	2000	-9.050568	40.92391	-91.39363
423167	-1597	-23	1550	-1.031066	-2.008486	-19.08281	0	11.06	4003	0	0	5	5	0.3508888	0.4172127	3	10	0.03	2000	-3.347443	40.92391	-91.39363
423331	649	-69	289	-0.6482546	-4.53757	-21.34437	0	11.06	4004	0	0	5	5	0.3508888	0.3543522	3	10	0.03	2000	-0.2384338	40.92391	-91.39363
423394	-2150	134	1038	-1.848168	-4.628761	-22.26489	0	11.06	4002	0	0	5	5	0.3508888	0.3298755	3	10	0.03	2000	1.385144	40.92391	-91.39363
423569	-916	-999	865	-5.055488	-5.153723	-27.26215	0	11.06	4003	0	0	5	5	0.3508888	0.256126	3	10	0.03	2000	3.071913	40.92391	-91.39364
423633	-1195	-1244	-1239	-5.372751	-4.304451	-27.06284	0	11.06	4003	0	0	5	5	0.3508888	0.2264928	3	10	0.03	2000	3.071913	40.92391	-91.39364
423704	-2392	959	-1608	-6.056779	-4.196845	-26.19755	0	11.06	4003	0	0	5	5	0.3508888	0.204566	3	10	0.03	2000	3.087839	40.92391	-91.39364
423826	797	-1299	4895	-3.688632	-2.874815	-33.15482	0	11.06	4003	0	0	5	5	0.3508888	0.1461439	3	10	0.03	2000	4.806757	40.92391	-91.39364
423943	-383	279	-556	-2.031808	-2.682459	-35.2883	0	11.06	4004	0	0	5	5	0.3508888	0.1101987	3	10	0.03	2000	7.238335	40.92391	-91.39364
424084	65	137	-1214	-1.85357	-2.716047	-33.3747	0	11.06	4003	0	0	5	5	0.3508888	0.0601223	3	10	0.03	2000	5.403363	40.92391	-91.39364
424198	-13	36	-87	-1.869853	-1.9573	-33.08899	0	11.06	4004	0	0	5	5	0.3508888	0.02223417	3	10	0.03	2000	4.983707	40.92391	-91.39364
424268	-98	1	6	-1.754885	-1.711407	-33.08727	0	11.06	4002	0	0	5	5	0.3508888	0.00853996	3	10	0.03	2000	4.658581	40.92391	-91.39364
424456	-91	-2	13	-1.645737	-1.396228	-33.10527	0	11.06	4004	0	0	5	5	0.3508888	-0.04663754	3	10	0.03	2000	4.370707	40.92391	-91.39364
424483	-85	11	11	-1.625658	-1.325585	-33.11046	0	11.06	4004	0	0	5	5	0.3508888	-0.05319204	3	10	0.03	2000	4.370707	40.92391	-91.39364
424574	-81	0	13	-1.547105	-1.071924	-33.13353	0	11.06	4003	0	0	5	5	0.3508888	-0.07575694	3	10	0.03	2000	4.213123	40.92391	-91.39364
424728	-88	-5	9	-1.49559	-0.9152266	-33.15007	0	11.06	4004	0	0	5	5	0.3508888	-0.1243274	3	10	0.03	2000	4.056088	40.92391	-91.39364
424842	-86	4	11	-1.432197	-0.7298917	-33.17437	0	11.06	4003	0	0	5	5	0.3508888	-0.156204	3	10	0.03	2000	3.988375	40.92391	-91.39364
424948	-91	-1	11	-1.393698	-0.608196	-33.19329	0	11.06	4004	0	0	5	5	0.3508888	-0.1768652	3	10	0.03	2000	3.887801	40.92391	-91.39364
425108	-93	0	7	-1.337479	-0.4483714	-33.2155	0	11.06	4003	0	0	5	5	0.3508888	-0.1911727	3	10	0.03	2000	3.767814	40.92391	-91.39364
425215	-82	9	12	-1.31128	-0.369758	-33.23314	0	11.06	4003	0	0	5	5	0.3508888	-0.1939386	3	10	0.03	2000	3.708096	40.92391	-91.39364
425280	-92	5	9	-1.292521	-0.3278983	-33.24358	0	11.06	4003	0	0	5	5	0.3508888	-0.1970943	3	10	0.03	2000	3.651696	40.92391	-91.39364
425399	-81	1	12	-1.271058	-0.2429642	-33.26763	0	11.06	4002	0	0	5	5	0.3508888	-0.2055182	3	10	0.03	2000	3.639096	40.92391	-91.39364
425486	-83	-5	14	-1.257661	-0.1900299	-33.28447	0	11.06	4004	0	0	5	5	0.3508888	-0.2100735	3	10	0.03	2000	3.600976	40.92391	-91.39364
425595	-89	0	13	-1.240722	-0.1556299	-33.29583	0	11.06	4003	0	0	5	5	0.3508888	-0.2210566	3	10	0.03	2000	3.574552	40.92391	-91.39364
425689	-86	2	12	-1.222409	-0.1020439	-33.31945	0	11.06	4004	0	0	5	5	0.3508888	-0.2315385	3	10	0.03	2000	3.523279	40.92391	-91.39364
425793	-83	0	14	-1.208979	-0.06411587	-33.33776	0	11.06	4003	0	0	5	5	0.3508888	-0.2356994	3	10	0.03	2000	3.510491	40.92391	-91.39364
425972	-85	-1	9	-1.183278	-0.007277193	-33.36681	0	11.06	4003	0	0	5	5	0.3214595	-0.23428	5	10	0.03	2000	3.458597	40.92391	-91.39364
426151	-87	-2	10	-1.163904	0.03405373	-33.39764	0	11.11	4003	0	0	5	5	0.2090242	-0.2364969	5	10	0.03	2000	3.434875	40.92391	-91.39364
426238	-90	5	6	-1.158775	0.05639707	-33.41735	0	11.11	4002	0	0	5	5	0.1667486	-0.2460852	5	10	0.03	2000	3.425977	40.92391	-91.39364
426305	-91	-7	13	-1.160414	0.06355698	-33.42315	0	11.11	4003	0	0	5	5	0.1462105	-0.2560273	5	10	0.03	2000	3.418673	40.92391	-91.39364
426463	-84	0	6	-1.146826	0.08731429	-33.4516	0	11.11	4004	0	0	5	5	0.1069837	-0.2772479	1	10	0.03	2000	3.405483	40.92391	-91.39364
426499	-88	3	12	-1.141177	0.09648129	-33.46247	0	11.11	4003	0	0	5	5	0.1013274	-0.2789302	1	10	0.03	2000	3.375302	40.92391	-91.39364
426605	-77	0	14	-1.135239	0.10681	-33.47364	0	11.11	4004	0	0	5	5	0.08753181	-0.2818685	1	10	0.03	2000	3.384266	40.92391	-91.39364
426709	-90	1	14	-1.126385	0.1236594	-33.49463	0	11.11	4003	0	0	5	5	0.0747694	-0.2741583	1	10	0.03	2000	3.354166	40.92391	-91.39364
426922	-86	0	8	-1.114474	0.1427698	-33.53247	0	11.11	4003	0	0	5	5	0.06336074	-0.2742617	5	10	0.03	2000	3.319653	40.92391	-91.39364
427102	-88	1	15	-1.096536	0.1619947	-33.55988	0	11.11	4003	0	0	5	5	0.05806179	-0.2783338	5	10	0.03	2000	3.312028	40.92391	-91.39364
427185	-83	0	11	-1.091686	0.1700328	-33.58295	0	11.11	4004	0	0	5	5	0.05817411	-0.2834333	5	10	0.03	2000	3.532466	40.92391	-91.39364
427250	-88	4	8	-1.089898	0.1633683	-33.59382	0	11.11	4004	0	0	5	5	0.05498022	-0.2896263	5	10	0.03	2000	3.311455	40.92391	-91.39364
427324	-80	4	11	-1.08929	0.164731	-33.60536	0	11.11	4003	0	0	5	5	0.0553475	-0.2930245	5	10	0.03	2000	3.540341	40.92391	-91.39364
427391	-84	9	10	-1.082638	0.1698282	-33.62349	0	11.11	4004	0	0	5	5	0.05610609	-0.3003969	5	10	0.03	2000	3.3043	40.92391	-91.39364
427492	-82	4	9	-1.08166	0.1683467	-33.63545	0	11.11	4003	0	0	5	5	0.05670565	-0.311913	5	10	0.03	2000	3.287189	40.92391	-91.39364
427585	-90	0	5	-1.077883	0.1721053	-33.65297	0	11.11	4002	0	0	5	5	0.05668463	-0.3205181	5	10	0.03	2000	3.281715	40.92391	-91.39364
427688	-77	-1	14	-1.072894	0.1841231	-33.67165	0	11.11	4009	0	0	5	5	0.05498065	-0.3364079	5	10	0.03	2000	3.291571	40.92391	-91.39364
427788	-75	5	10	-1.063046	0.187956	-33.69002	0	11.11	4004	0	0	5	5	0.05411432	-0.3414235	5	10	0.03	2000	3.259157	40.92391	-91.39364
427894	-81	5	12	-1.059115	0.1806561	-33.71572	0	11.11	4002	0	0	5	5	0.05435002	-0.350739	5	10	0.03	2000	3.259786	40.92391	-91.39364
427988	-84	4	3	-1.051174	0.1738219	-33.72536	0	11.06	4004	0	0	5	5	0.05328526	-0.3560126	5	10	0.03	2000	3.259786	40.92391	-91.39364
428080	-82	1	7	-1.046578	0.1628198	-33.74514	0	11.06	4002	0	0	5	5	0.05211802	-0.3594725	5	10	0.03	2000	3.236032	40.92391	-91.39364
428218	-75	3	11	-1.034516	0.17791	-33.77224	0	11.06	4002	0	0	5	5	0.05266449	-0.363023	5	10	0.03	2000	3.225527	40.92391	-91.39364
428346	-79	3	12	-1.036823	0.1804616	-33.78805	0	11.06	4004	0	0	5	5	0.0525566	-0.3668766	5	10	0.03	2000	3.207998	40.92391	-91.39364
428399	-83	2	14	-1.041279	0.1778824	-33.79336	0	11.06	4004	0	0	5	5	0.05197785	-0.37566	5	10	0.03	2000	3.207998	40.92391	-91.39364
428492	-87	8	14	-1.039621	0.1771033	-33.81716	0	11.06	4002	0	0	5	5	0.05155595	-0.3847241	5	10	0.03	2000	3.214957	40.92391	-91.39364
428594	-77	3	11	-1.040206	0.1765143	-33.82772	0	11.06	4003	0	0	5	5	0.05124838	-0.3891915	5	10	0.03	2000	3.227003	40.92391	-91.39364
428804	-80	7	11	-1.046959	0.1763815	-33.86605	0	11.06	4003	0	0	5	5	0.05049119	-0.3869525	5	10	0.03	2000	3.221307	40.92391	-91.39363
428948	-75	1	7	-1.041923	0.1832911	-33.88345	0	11.06	4004	0	0	5	5	0.04684189	-0.3660519	5	10	0.03	2000	3.223652	40.92391	-91.39363
429015	-81	0	12	-1.030735	0.1852015	-33.90035	0	11.06	4002	0	0	5	5	0.04764033	-0.3481401	5	10	0.03	2000	3.417414	40.92391	-91.39363
429105	-80	2	8	-1.018517	0.1832514	-33.91634	0	11.06	4004	0	0	5	5	0.0478428	-0.3383286	5	10	0.03	2000	3.168762	40.92391	-91.39363
429231	-79	-1	7	-1.012114	0.1846339	-33.93679	0	11.06	4002	0	0	5	5	0.05050791	-0.3273248	5	10	0.03	2000	3.195385	40.92391	-91.39363
429350	-78	0	13	-1.019261	0.1946711	-33.94985	0	11.06	4002	0	0	5	5	0.0514282	-0.3171559	5	10	0.03	2000	3.181306	40.92391	-91.39363
429478	-79	1	7	-1.014851	0.1825594	-33.97103	0	11.06	4003	0	0	5	5	0.05101574	-0.3236044	5	10	0.03	2000	3.172858	40.92391	-91.39363
429577	-78	12	2	-1.004112	0.1973716	-33.98642	0	11.06	4002	0	0	5	5	0.05090274	-0.3341763	5	10	0.03	2000	3.175901	40.92391	-91.39363
429685	-81	0	11	-1.004008	0.1934876	-34.00119	0	11.06	4003	0	0	5	5	0.05073707	-0.3554878	5	10	0.03	2000	3.379512	40.92391	-91.39363
429716	-83	0	9	-0.9989999	0.198723	-34.0057	0	11.06	4003	0	0	5	5	0.05152866	-0.3632547	5	10	0.03	2000	3.379512	40.92391	-91.39363
429870	-77	2	11	-0.9855255	0.2126052	-34.03207	0	11.06	4004	0	0	5	5	0.05221527	-0.3690993	5	10	0.03	2000	3.142422	40.92391	-91.39363
429941	-87	8	15	-0.9977272	0.2137146	-34.04361	0	11.06	4004	0	0	5	5	0.05203585	-0.3691438	5	10	0.03	2000	3.131835	40.92391	-91.39363
430006	-84	0	9	-0.9914314	0.2182593	-34.0552	0	11.06	4003	0	0	5	5	0.05172903	-0.3670922	1	10	0.03	2000	3.374296	40.92391	-91.39363
430127	-79	0	4	-0.9830109	0.2209461	-34.07272	0	11.06	4004	0	0	5	5	0.05127919	-0.356631	1	10	0.03	2000	3.141028	40.92391	-91.39363
430249	-81	2	8	-0.983964	0.2259004	-34.08676	0	11.06	4002	0	0	5	5	0.05104662	-0.3516553	1	10	0.03	2000	3.351054	40.92391	-91.39363
430312	-76	-5	5	-0.9810845	0.2166637	-34.10012	0	11.06	4003	0	0	5	5	0.05092775	-0.3463991	1	10	0.03	2000	3.125946	40.92391	-91.39363
430433	-80	5	1	-0.9692081	0.2130626	-34.1102	0	11.06	4003	0	0	5	5	0.05075348	-0.3363062	1	10	0.03	2000	3.359991	40.92391	-91.39363
430531	-77	5	11	-0.9795269	0.2121558	-34.12454	0	11.06	4003	0	0	5	5	0.05066338	-0.330785	1	10	0.03	2000	3.091829	40.92391	-91.39363
430610	-68	0	13	-0.9602557	0.2054237	-34.1373	0	11.06	4004	0	0	5	5	0.05059769	-0.3261887	1	10	0.03	2000	3.115525	40.92391	-91.39363
430724	-76	6	18	-0.9706668	0.2075126	-34.15372	0	11.06	4003	0	0	5	5	0.05054981	-0.3270392	1	10	0.03	2000	3.092854	40.92391	-91.39363
430816	-72	8	7	-0.9658801	0.2074079	-34.17539	0	11.06	4004	0	0	5	5	0.0230421	-0.3281212	6	10	0.03	2000	3.307468	40.92391	-91.39363
430918	-79	3	9	-0.9641139	0.2074184	-34.18625	0	11.06	4002	0	0	5	5	0.03213185	-0.329485	6	10	0.03	2000	3.097273	40.92391	-91.39363
431032	-78	5	10	-0.971687	0.2081797	-34.20249	0	11.06	4004	0	0	5	5	0.03931908	-0.3271246	6	10	0.03	2000	3.339791	40.92391	-91.39363
431184	-79	1	4	-0.9697714	0.2022389	-34.22702	0	11.06	4002	0	0	5	5	0.03892707	-0.3307738	6	10	0.03	2000	3.105996	40.92391	-91.39363
431328	-83	2	11	-0.9745566	0.1864671	-34.249	0	11.06	4003	0	0	5	5	0.03462279	-0.3386857	1	10	0.03	2000	3.136238	40.92391	-91.39363
431466	-85	-1	10	-0.9559794	0.1906127	-34.27549	0	11.06	4002	0	0	5	5	0.0323974	-0.343701	1	10	0.03	2000	3.320828	40.92392	-91.39363
431574	-79	3	8	-0.9581392	0.1949156	-34.28989	0	11.06	4003	0	0	5	5	0.03033867	-0.3460172	1	10	0.03	2000	3.090351	40.92392	-91.39363
431668	-73	2	8	-0.9651302	0.1950289	-34.30082	0	11.06	4003	0	0	5	5	0.02927427	-0.3408996	1	10	0.03	2000	3.087999	40.92392	-91.39363
431727	-74	8	10	-0.9683481	0.1855157	-34.31481	0	11.06	4004	0	0	5	5	0.02898795	-0.3385197	1	10	0.03	2000	3.109509	40.92392	-91.39363
431897	-70	6	13	-0.9784857	0.1892511	-34.33404	0	11.06	4004	0	0	5	5	0.02778049	-0.3241857	1	10	0.03	2000	3.111326	40.92392	-91.39363
431986	-77	1	14	-0.9768642	0.1895263	-34.34527	0	11.06	4004	0	0	5	5	0.02752029	-0.3248632	1	10	0.03	2000	3.112544	40.92392	-91.39363
432052	-78	4	8	-0.9662096	0.1949716	-34.35863	0	11.06	4002	0	0	5	5	0.02721967	-0.3253972	1	10	0.03	2000	3.092236	40.92392	-91.39363
432236	-74	0	9	-0.9541454	0.2107578	-34.38238	0	11.06	4003	0	0	5	5	0.02688851	-0.3256752	1	10	0.03	2000	3.089028	40.92392	-91.39363
432285	-69	6	7	-0.9342284	0.2199753	-34.39922	0	11.06	4003	0	0	5	5	0.02684076	-0.3246998	1	10	0.03	2000	3.068462	40.92392	-91.39363
432386	-72	5	9	-0.9246286	0.2109092	-34.40972	0	11.06	4004	0	0	5	5	0.02669297	-0.3232076	1	10	0.03	2000	3.049168	40.92392	-91.39363
432457	-70	-1	12	-0.9150385	0.2134943	-34.41985	0	11.06	4003	0	0	5	5	0.02663939	-0.3241399	1	10	0.03	2000	3.024409	40.92392	-91.39363
432541	-77	0	10	-0.907737	0.2055345	-34.43627	0	11.06	4005	0	0	5	5	0.026596	-0.323535	1	10	0.03	2000	3.006444	40.92392	-91.39363
432671	-64	1	8	-0.9099492	0.1958837	-34.45678	0	11.11	4002	0	0	5	5	0.02653238	-0.3190797	1	10	0.03	2000	3.238252	40.92392	-91.39363
432737	-63	0	8	-0.9065663	0.187295	-34.4663	0	11.11	4003	0	0	5	5	0.02650931	-0.3148009	1	10	0.03	2000	3.012003	40.92392	-91.39363
432837	-71	3	7	-0.9021659	0.1909142	-34.48107	0	11.11	4003	0	0	5	5	0.0264755	-0.299827	1	10	0.03	2000	3.213175	40.92392	-91.39363
432946	-74	8	8	-0.9035388	0.1967851	-34.49786	0	11.11	4002	0	0	5	5	0.02645802	-0.2876927	1	10	0.03	2000	3.024451	40.92392	-91.39363
433101	-76	2	7	-0.9060949	0.196591	-34.51947	0	11.11	4004	0	0	5	5	0.02644185	-0.2742277	1	10	0.03	2000	2.988862	40.92392	-91.39363
433143	-65	2	6	-0.8982295	0.1973979	-34.52899	0	11.11	4003	0	0	5	5	0.02643877	-0.2722329	1	10	0.03	2000	3.219383	40.92392	-91.39363
433254	-71	7	10	-0.9048527	0.1890518	-34.54345	0	11.11	4003	0	0	5	5	0.02642922	-0.2680968	1	10	0.03	2000	2.984554	40.92392	-91.39363
433389	-72	0	11	-0.8945843	0.190285	-34.56555	0	11.11	4002	0	0	5	5	0.02642428	-0.274143	1	10	0.03	2000	2.989681	40.92392	-91.39363
433466	-68	3	8	-0.893513	0.1822898	-34.58075	0	11.11	4003	0	0	5	5	0.02642176	-0.2767335	1	10	0.03	2000	2.981213	40.92392	-91.39363
433560	-73	4	7	-0.9075065	0.1767179	-34.59057	0	11.11	4002	0	0	5	5	0.02641805	-0.2815129	1	10	0.03	2000	3.221034	40.92392	-91.39363
433657	-66	0	6	-0.8926943	0.1795373	-34.60394	0	11.11	4003	0	0	5	5	0.02641671	-0.290842	1	10	0.03	2000	2.989448	40.92392	-91.39363
433801	-73	0	8	-0.8806833	0.1775106	-34.62384	0	11.11	4003	0	0	5	5	0.02641437	-0.3095285	1	10	0.03	2000	2.972838	40.92392	-91.39363
433865	-64	5	7	-0.8742244	0.1720694	-34.63232	0	11.11	4003	0	0	5	5	0.02641404	-0.3103696	1	10	0.03	2000	3.180285	40.92392	-91.39363
433967	-64	0	6	-0.8703684	0.1704325	-34.64252	0	11.11	4003	0	0	5	5	0.02641299	-0.3143944	1	10	0.03	2000	2.943211	40.92392	-91.39363
434081	-67	7	13	-0.8645586	0.163425	-34.67096	0	11.11	4004	0	0	5	5	0.02641245	-0.3106089	1	10	0.03	2000	3.178218	40.92392	-91.39363
434157	-73	1	9	-0.8631047	0.1684448	-34.67944	0	11.11	4002	0	0	5	5	0.02641206	-0.2992664	1	10	0.03	2000	2.93915	40.92392	-91.39363
434311	-72	5	6	-0.8604226	0.1747259	-34.70392	0	11.11	4004	0	0	5	5	0.02641169	-0.2958919	1	10	0.03	2000	3.177349	40.92392	-91.39363
434415	-67	4	7	-0.8587662	0.1693508	-34.71722	0	11.11	4002	0	0	5	5	0.02641151	-0.2975135	1	10	0.03	2000	2.927388	40.92392	-91.39363
434510	-77	-2	11	-0.8670388	0.1611105	-34.73181	0	11.11	4003	0	0	5	5	0.02641137	-0.2996024	1	10	0.03	2000	2.950445	40.92392	-91.39363
434655	-73	4	7	-0.8700788	0.1605354	-34.75006	0	11.11	4003	0	0	5	5	0.02641122	-0.2989084	1	10	0.03	2000	3.172065	40.92392	-91.39363
434727	-67	0	8	-0.8621821	0.1601578	-34.76556	0	11.11	4002	0	0	5	5	0.02641118	-0.3022934	1	10	0.03	2000	2.945892	40.92392	-91.39363
434800	-72	0	5	-0.8586564	0.161007	-34.77264	0	11.11	4004	0	0	5	5	0.02641113	-0.3097167	1	10	0.03	2000	2.927133	40.92392	-91.39363
434899	-61	5	9	-0.8582554	0.1689765	-34.78632	0	11.11	4002	0	0	5	5	0.0264111	-0.3142433	1	10	0.03	2000	2.932113	40.92392	-91.39363
435120	-66	-2	10	-0.8517781	0.1704088	-34.81506	0	11.11	4002	0	0	5	5	0.02641105	-0.3353315	1	10	0.03	2000	2.923765	40.92392	-91.39363
435203	-59	6	1	-0.8434747	0.1768823	-34.83386	0	11.11	4003	0	0	5	5	0.02641103	-0.3579146	1	10	0.03	2000	2.917799	40.92392	-91.39363
435351	-68	1	6	-0.8464069	0.17025	-34.8512	0	11.11	4002	0	0	5	5	0.02641102	-0.3671004	1	10	0.03	2000	2.921874	40.92392	-91.39363
435470	-63	6	10	-0.8448216	0.1616415	-34.87463	0	11.11	4003	0	0	5	5	0.02641101	-0.3828833	1	10	0.03	2000	2.90799	40.92392	-91.39363
