time(ms)	gyro_x(deg/s)	gyro_y(deg/s)	gyro_z(deg/s)	orientation_roll(deg)	orientation_pitch(deg)	orientation_yaw(deg)	throttle	battery(V)	loop_time(uS)	pid_output_roll	pid_output_pitch	pid_output_yaw	pid_output_throttle	ultrasonic_alt	baro_alt	flight_mode	p_gain_altitude	i_gain_altitude	d_gain_altitude	compass_heading	latitude	longitude
311851	-1404	-132	524	-9.182164	-9.743288	-38.03344	0	10.72	4004	61	-35	5	5	0.4074839	2.102784	8	10	0.03	2000	-1.577301	40.92388	-91.39355
311994	447	-1244	249	-8.251699	-7.663243	-37.65318	0	10.49	4002	61	-35	5	5	0.4074839	2.011963	8	10	0.03	2000	-3.92746	40.92388	-91.39355
312092	725	953	901	-7.482685	-6.206118	-38.61637	0	10.49	4002	61	-15	5	5	0.4074839	1.972021	8	10	0.03	2000	-2.91394	40.92387	-91.39355
312230	-625	2956	908	-5.827933	-9.550544	-38.85743	0	10.49	4004	22	-36	5	5	0.4074839	1.914903	8	10	0.03	2000	-3.756348	40.92387	-91.39355
312347	1084	-2054	30	-6.391856	-8.706117	-38.99111	0	10.49	4004	21	-36	5	5	0.4074839	1.863732	8	10	0.03	2000	-3.782684	40.92387	-91.39355
312398	1254	-2176	185	-4.966523	-6.973549	-38.68954	0	10.49	4004	21	-36	5	5	0.4074839	1.842638	8	10	0.03	2000	-3.782684	40.92387	-91.39355
312526	1138	604	-1315	-3.205698	-6.262227	-37.72936	0	10.49	4003	21	-36	5	5	0.4074839	1.807742	8	10	0.03	2000	-5.608002	40.92387	-91.39355
312610	-1123	-1364	49	-3.826639	-6.859973	-37.94755	0	10.49	4004	25	-44	5	5	0.4074839	1.793638	8	10	0.03	2000	-6.22995	40.92387	-91.39355
312749	80	709	897	-3.200752	-8.292863	-38.45722	0	10.49	4002	21	-36	5	5	0.4074839	1.781934	8	10	0.03	2000	-5.754639	40.92387	-91.39355
312880	-555	-2874	-611	-3.090073	-8.147472	-38.25356	0	10.49	4003	21	4	5	5	0.4074839	1.776101	8	10	0.03	2000	-2.924194	40.92388	-91.39355
312926	68	-2091	-418	-2.996884	-5.232094	-38.02148	0	11.11	4004	21	4	5	5	0.4074839	1.777055	8	10	0.03	2000	-1.059784	40.92388	-91.39355
313051	447	-272	1530	-2.994867	-3.187362	-37.74331	0	11.11	4003	25	5	5	5	0.4074839	1.783624	8	10	0.03	2000	-2.405548	40.92388	-91.39355
313207	522	1169	104	-2.654045	-3.61119	-37.79188	0	11.11	4003	21	4	5	5	0.4074839	1.809934	8	10	0.03	2000	-1.494781	40.92388	-91.39355
313239	1207	473	-1314	-2.346883	-4.636609	-37.68435	0	11.11	4003	21	4	5	5	0.4074839	1.815413	8	10	0.03	2000	-1.494781	40.92388	-91.39355
313365	-1288	-1298	-516	-2.755239	-6.279058	-37.77125	0	11.11	4004	21	4	5	5	0.4074839	1.854407	8	10	0.03	2000	-1.117645	40.92388	-91.39355
313473	-16	5377	-133	-5.025815	-10.50692	-38.29895	0	11.11	4002	21	4	5	5	0.4074839	1.890032	8	10	0.03	2000	-0.01000977	40.92388	-91.39355
313588	305	-6	-520	-4.500828	-15.3444	-38.4374	0	11.11	4003	21	-15	5	5	0.4074839	1.938251	8	10	0.03	2000	-2.357178	40.92388	-91.39355
313713	421	-1054	50	-6.438004	-15.31252	-38.26824	0	11.11	4003	21	-15	5	5	0.4074839	1.972373	8	10	0.03	2000	-2.968689	40.92388	-91.39355
313859	-400	-1012	-1372	-6.13015	-12.285	-37.9858	0	10.09	4004	21	-15	5	5	0.4074839	2.011261	8	10	0.03	2000	-1.193176	40.92388	-91.39355
313941	499	-1355	2604	-5.861513	-11.14453	-38.42758	0	10.09	4004	21	-15	5	5	0.4074839	2.074205	8	10	0.03	2000	-1.249573	40.92388	-91.39355
314112	801	-1170	-1067	-3.069904	-7.221522	-37.39484	0	10.09	4003	21	-15	5	5	0.4074839	2.161997	8	10	0.03	2000	-0.5446167	40.92388	-91.39355
314150	-792	-325	910	-3.020143	-6.609878	-37.4206	0	10.09	4004	21	-15	5	5	0.4074839	2.173666	8	10	0.03	2000	-0.677948	40.92388	-91.39355
314390	913	-1562	-326	-3.404247	-5.295373	-38.03051	0	10.09	4003	21	-15	5	5	0.4074839	2.316645	8	10	0.03	2000	0.6657351	40.92388	-91.39355
314478	127	-593	-106	-2.556453	-3.526397	-37.78138	0	10.09	4002	21	-15	5	5	0.4074839	2.351529	8	10	0.03	2000	1.680257	40.92388	-91.39355
314618	-3347	6206	597	-4.732818	-10.05119	-37.93681	0	10.09	4004	21	-15	5	5	0.4074839	2.408757	8	10	0.03	2000	1.04568	40.92388	-91.39355
314660	-4534	1564	-404	-8.728277	-14.42281	-38.44628	0	10.09	4003	21	-15	5	5	0.4074839	2.416859	8	10	0.03	2000	0.5768061	40.92388	-91.39355
314779	-1823	-1588	427	-12.92542	-11.66976	-37.76736	0	10.09	4004	21	-15	5	5	0.4074839	2.458611	8	10	0.03	2000	-4.148315	40.92388	-91.39355
314815	-1395	1624	33	-16.6454	-9.886171	-38.11063	0	10.09	4003	21	-15	5	5	0.4074839	2.475387	8	10	0.03	2000	-6.605225	40.92388	-91.39355
314835	-41	1619	-644	-16.72496	-11.37744	-38.37802	0	10.09	4002	21	-15	5	5	0.4074839	2.485462	8	10	0.03	2000	-6.605225	40.92388	-91.39355
314924	3684	-909	-2153	-12.62896	-12.24046	-39.07414	0	10.09	4004	21	-15	5	5	0.4074839	2.509192	8	10	0.03	2000	-9.613373	40.92388	-91.39355
315004	1139	31	-303	-7.785716	-11.65996	-38.46004	0	10.09	4003	21	-15	5	5	0.4074839	2.533961	8	10	0.03	2000	-7.395233	40.92388	-91.39355
315048	719	-2161	-2126	-7.302205	-9.746836	-37.9738	0	10.09	4004	21	-15	5	5	0.4074839	2.550261	8	10	0.03	2000	-8.227264	40.92388	-91.39355
315119	795	-1912	-530	-5.228	-8.604327	-37.5188	0	10.09	4002	-20	5	5	5	0.4074839	2.567461	8	10	0.03	2000	-8.186249	40.92389	-91.39356
315181	391	421	412	-3.786462	-8.1516	-38.93785	0	10.09	4004	-24	6	5	5	0.4074839	2.581388	8	10	0.03	2000	-7.397125	40.92389	-91.39356
315301	738	-2980	22	-3.449542	-6.048059	-39.44963	0	10.09	4003	-20	26	5	5	0.4074839	2.597023	8	10	0.03	2000	-5.335022	40.92389	-91.39356
315424	571	-1978	-294	-1.532515	-3.225534	-37.95412	0	10.55	4002	-20	26	5	5	0.4074839	2.610821	8	10	0.03	2000	-3.629547	40.92389	-91.39356
315498	-2354	-2219	356	-2.903539	-1.358019	-37.65986	0	10.55	4003	-20	26	5	5	0.4074839	2.619985	8	10	0.03	2000	-3.161865	40.92389	-91.39356
315637	-413	-946	-316	-5.462862	-0.730962	-38.30901	0	10.55	4004	-63	26	5	5	0.4074839	2.632584	8	10	0.03	2000	-1.134583	40.92389	-91.39357
315734	-638	2565	1028	-5.122922	-5.198287	-39.51894	0	10.55	4004	-23	6	5	5	0.4074839	2.617226	8	10	0.03	2000	-0.3947754	40.92389	-91.39357
315846	-1767	964	222	-8.172619	-7.312788	-39.48838	0	10.55	4003	-23	-13	5	5	0.4074839	2.603006	8	10	0.03	2000	-0.6479797	40.92389	-91.39357
315966	-653	1867	-1027	-8.422359	-10.98609	-38.46124	0	10.55	4004	-23	8	5	5	0.4074839	2.566172	8	10	0.03	2000	-3.374146	40.92389	-91.39357
316056	-525	438	-85	-8.85487	-12.12179	-38.36697	0	10.55	4003	-23	8	5	5	0.4074839	2.53513	8	10	0.03	2000	-5.36264	40.92389	-91.39357
316210	-438	562	-1668	-8.354077	-12.12411	-38.40397	0	10.55	4004	-23	8	5	5	0.4074839	2.491603	8	10	0.03	2000	-7.376404	40.92389	-91.39357
316339	-1902	-47	8	-10.96726	-15.22102	-38.14836	0	10.43	4003	0	0	5	5	0.4074839	2.441827	3	10	0.03	2000	-9.279388	40.92389	-91.39358
316409	-1367	-1029	-858	-12.61067	-13.4976	-38.15565	0	10.43	4003	0	0	5	5	0.4074839	2.424643	3	10	0.03	2000	-10.32138	40.92389	-91.39358
316550	12	1975	-395	-11.40188	-15.6794	-38.4085	0	10.43	4002	0	0	5	5	0.4074839	2.378148	3	10	0.03	2000	-10.26749	40.92389	-91.39358
316654	1826	-1957	-427	-10.29165	-13.68715	-38.01848	0	10.43	4003	0	0	5	5	0.4074839	2.304932	3	10	0.03	2000	-9.440216	40.92389	-91.39358
316740	-40	-737	-1188	-6.641616	-7.160694	-36.63428	0	10.43	4004	0	0	5	5	0.4074839	2.261653	3	10	0.03	2000	-6.826904	40.9239	-91.39359
316800	425	-1117	267	-6.052874	-6.317574	-36.413	0	10.43	4003	0	0	5	5	0.4074839	2.19878	3	10	0.03	2000	-5.780701	40.9239	-91.39359
316870	-683	-623	1479	-6.497833	-5.395331	-37.75043	0	10.43	4003	0	0	5	5	0.4074839	2.162353	3	10	0.03	2000	-4.666931	40.9239	-91.39359
316906	713	-1886	113	-5.319967	-1.118031	-38.81157	0	10.43	4003	0	0	5	5	0.4074839	2.147603	3	10	0.03	2000	-2.337524	40.9239	-91.39359
316957	475	26	927	-5.30374	-0.6895028	-38.88212	0	10.43	4003	0	0	5	5	0.4074839	2.104774	3	10	0.03	2000	-1.459442	40.9239	-91.39359
317095	682	-1429	-311	-4.448422	-1.490628	-38.92289	0	10.43	4003	0	0	5	5	0.4074839	2.026146	3	10	0.03	2000	0.4204564	40.9239	-91.39359
317123	451	-2534	-728	-3.94188	-2.096568	-38.95638	0	10.66	4004	0	0	5	5	0.4074839	1.994395	3	10	0.03	2000	2.470595	40.9239	-91.39359
317268	2553	-827	524	-1.567207	-4.384804	-38.59872	0	10.66	4002	0	0	5	5	0.4074839	1.775204	3	10	0.03	2000	7.251978	40.9239	-91.39359
317303	-1247	1136	1639	-1.264375	-3.144049	-39.47713	0	10.66	4003	0	0	5	5	0.4074839	1.690799	3	10	0.03	2000	9.569237	40.9239	-91.3936
317430	-3233	-423	-897	-4.977427	-2.329714	-39.36143	0	10.66	4004	0	0	5	5	0.4074839	1.559495	3	10	0.03	2000	12.53067	40.9239	-91.3936
317452	-3904	-1075	-2136	-11.97468	-2.63964	-37.76926	0	10.66	4003	0	0	5	5	0.4074839	1.489634	3	10	0.03	2000	12.35447	40.9239	-91.3936
317471	-2500	-1014	-831	-13.30965	-2.767983	-37.52575	0	10.66	4002	0	0	5	5	0.4074839	1.477417	3	10	0.03	2000	9.951673	40.9239	-91.3936
317511	-1841	2144	1194	-14.94114	-3.698705	-37.9542	0	10.66	4008	0	0	5	5	0.4074839	1.436928	3	10	0.03	2000	8.94483	40.9239	-91.3936
317580	116	-1244	1204	-15.20117	-5.369414	-38.59454	0	10.66	4002	0	0	5	5	0.4074839	1.344004	3	10	0.03	2000	6.891902	40.9239	-91.3936
317646	1799	-797	2	-8.057324	-4.304741	-38.0684	0	9.98	4003	0	0	5	5	0.4074839	1.269025	3	10	0.03	2000	6.309167	40.9239	-91.3936
317696	876	693	-1151	-6.750655	-3.99984	-37.55174	0	9.98	4002	0	0	5	5	0.4074839	1.225519	3	10	0.03	2000	7.791786	40.9239	-91.3936
317727	374	-1349	530	-5.965433	-4.682871	-37.72205	0	9.98	4003	0	0	5	5	0.4074839	1.194954	3	10	0.03	2000	9.014422	40.9239	-91.3936
317780	950	-2203	-67	-4.609462	-2.99242	-38.14444	0	9.98	4003	0	0	5	5	0.4074839	1.171174	3	10	0.03	2000	9.884137	40.9239	-91.39361
317800	1353	586	762	-4.732755	-5.046154	-39.23108	0	9.98	4003	0	0	5	5	0.4074839	1.163275	3	10	0.03	2000	13.97794	40.9239	-91.39361
317847	1410	-260	-1304	-2.647862	-4.938211	-37.5966	0	9.98	4002	0	0	5	5	0.4074839	1.150449	3	10	0.03	2000	17.30685	40.9239	-91.39361
317897	546	-1609	-795	-2.635497	-4.02912	-36.53377	0	9.98	4003	0	0	5	5	0.4074839	1.131913	3	10	0.03	2000	18.36588	40.9239	-91.39361
317971	-2043	1522	2933	-3.23978	-3.664842	-37.42337	0	9.98	4003	0	0	5	5	0.4074839	1.126616	3	10	0.03	2000	16.93733	40.9239	-91.39361
318022	7	-1344	-394	-1.510614	-1.249925	-38.50694	0	9.98	4002	0	0	5	5	0.4074839	1.116872	3	10	0.03	2000	21.00511	40.9239	-91.39361
318107	384	1243	-1034	-2.323623	-2.823471	-38.5265	0	10.43	4003	0	0	5	5	0.4074839	1.10155	3	10	0.03	2000	24.90329	40.9239	-91.39361
318142	856	-727	-963	-2.575147	-3.569944	-38.11538	0	10.43	4003	0	0	5	5	0.4074839	1.096168	3	10	0.03	2000	26.96062	40.9239	-91.39361
318163	-246	-55	1859	-2.458463	-3.739642	-38.14468	0	10.43	4004	0	0	5	5	0.4074839	1.097634	3	10	0.03	2000	31.56203	40.9239	-91.39361
318195	32	677	-224	-3.958888	-4.055461	-37.67351	0	10.43	4003	0	0	5	5	0.4074839	1.098746	3	10	0.03	2000	31.71305	40.9239	-91.39361
318246	68	1303	92	-4.867504	-4.229655	-37.44963	0	10.43	4004	0	0	5	5	0.4074839	1.091886	3	10	0.03	2000	33.24184	40.9239	-91.39361
318290	521	1496	-319	-5.146028	-4.240615	-37.22062	0	10.43	4003	0	0	5	5	0.4074839	1.08546	3	10	0.03	2000	34.55453	40.9239	-91.39361
318373	5793	7902	3774	-3.691558	-5.465062	-42.35405	0	10.43	4004	0	0	5	5	0.4074839	1.015645	3	10	0.03	2000	30.05257	40.92389	-91.3936
318401	1423	796	-1744	9.857084	-25.15867	-30.36513	0	10.43	4004	0	0	5	5	0.4074839	0.9909483	3	10	0.03	2000	17.09226	40.92389	-91.3936
318469	4517	586	-4607	20.07799	-22.31998	-19.95061	0	10.43	4002	0	0	5	5	0.4074839	0.8698054	3	10	0.03	2000	4.737534	40.92389	-91.3936
318490	-432	4378	-2173	21.20846	-28.10284	-17.23039	0	11.17	4004	0	0	5	5	0.4074839	0.8276122	3	10	0.03	2000	0.3919418	40.92389	-91.3936
318532	-1121	2986	134	23.35383	-38.93537	-14.28707	0	11.17	4002	0	0	5	5	0.4074839	0.7862352	3	10	0.03	2000	3.244583	40.92389	-91.3936
318581	-2972	-3926	2413	20.9801	-35.14944	-15.26319	0	11.17	4004	0	0	5	5	0.4074839	0.714677	3	10	0.03	2000	4.241461	40.92389	-91.3936
318632	-9103	-533	4795	15.24432	-21.1372	-25.33401	0	11.17	4003	0	0	5	5	0.4074839	0.6633208	3	10	0.03	2000	3.641161	40.92389	-91.3936
318700	-5229	-8097	2431	3.191449	-9.963544	-31.25324	0	11.17	4003	0	0	5	5	0.4074839	0.625541	3	10	0.03	2000	4.098629	40.92389	-91.3936
318722	-13410	-8239	3045	1.034467	-6.071593	-32.88232	0	11.17	4004	0	0	5	5	0.4074839	0.6226605	3	10	0.03	2000	2.010264	40.92389	-91.39359
318743	-12742	-5706	620	-14.71572	6.329578	-35.48484	0	11.17	4003	0	0	5	5	0.4074839	0.6234125	3	10	0.03	2000	-2.623291	40.92389	-91.39359
318797	-5016	-5755	1804	-23.27432	16.80532	-36.16015	0	11.17	4003	0	0	5	5	0.4074839	0.6242889	3	10	0.03	2000	-2.623291	40.92389	-91.39359
318949	3272	4029	3054	-16.19451	19.14262	-40.85483	0	11.17	4003	0	0	5	5	0.4074839	0.6357809	3	10	0.03	2000	-8.026093	40.92389	-91.39359
319056	4815	1835	4494	-13.72142	6.320113	-46.33818	0	11.29	4003	0	0	5	5	0.4074839	0.6576637	3	10	0.03	2000	-7.64502	40.92389	-91.39359
319188	2444	977	1157	2.352708	1.289334	-53.46851	0	11.29	4002	0	0	5	5	0.4074839	0.6791992	3	10	0.03	2000	-0.8163452	40.92389	-91.39359
319268	322	-1979	4362	2.292201	1.033974	-58.77305	0	11.29	4003	0	0	5	5	0.4074839	0.6914984	3	10	0.03	2000	5.450858	40.92389	-91.39359
319383	265	-494	4841	4.296486	4.384048	-66.29809	0	11.29	4003	0	0	5	5	0.4074839	0.7123207	3	10	0.03	2000	10.16297	40.92389	-91.39359
319431	-2282	-1606	4078	3.27477	5.714357	-68.70699	0	11.29	4004	0	0	5	5	0.4074839	0.7282125	3	10	0.03	2000	10.16297	40.92389	-91.39359
319591	2489	-2776	4641	2.966731	19.21403	-82.2206	0	11.29	4004	0	0	5	5	0.4074839	0.7555245	3	10	0.03	2000	24.78139	40.92389	-91.39359
319704	-1480	-8624	2255	1.723567	24.59602	-86.91163	0	11.29	4004	0	0	5	5	0.4074839	0.782061	3	10	0.03	2000	29.47551	40.92389	-91.39359
319792	879	-8079	-6737	14.46229	39.32983	-78.29881	0	11.29	4004	0	0	5	5	0.4074839	0.795253	3	10	0.03	2000	27.028	40.9239	-91.3936
319943	1304	3288	-3876	25.50167	44.05186	-65.55318	0	11.23	4003	0	0	5	5	0.4074839	0.8123219	3	10	0.03	2000	12.14693	40.9239	-91.3936
320000	2393	10297	-1115	30.32728	30.56308	-61.98951	0	11.23	4004	0	0	5	5	0.4074839	0.8190437	3	10	0.03	2000	3.484256	40.9239	-91.3936
320090	-5240	11215	1440	25.3743	10.07188	-65.9898	0	11.23	4002	0	0	5	5	0.4074839	0.8264526	3	10	0.03	2000	3.740333	40.9239	-91.3936
320216	-3297	7927	-343	14.29643	-5.10734	-66.26303	0	11.23	4004	0	0	5	5	0.4074839	0.8198208	3	10	0.03	2000	22.80534	40.9239	-91.3936
320309	123	5963	-5816	10.2104	-15.55437	-59.91169	0	11.23	4004	0	0	5	5	0.4074839	0.7944285	3	10	0.03	2000	22.5298	40.9239	-91.39361
320386	1394	2432	-6883	6.727277	-21.5858	-48.94815	0	11.23	4003	0	0	5	5	0.4074839	0.7701736	3	10	0.03	2000	11.86695	40.9239	-91.39361
320505	3302	2785	-1575	9.264921	-24.08321	-41.00244	0	11.23	4003	0	0	5	5	0.4074839	0.7507157	3	10	0.03	2000	6.303153	40.9239	-91.39361
320603	-2602	7036	-2008	11.81076	-31.40443	-38.90913	0	11.23	4003	0	0	5	5	0.4074839	0.7209331	3	10	0.03	2000	3.215001	40.9239	-91.39361
320731	-2976	2443	2862	10.44577	-38.23847	-39.56351	0	11.23	4004	0	0	5	5	0.4074839	0.7051916	3	10	0.03	2000	2.82272	40.9239	-91.39361
320802	-1130	162	4041	9.022451	-42.03896	-43.97088	0	11.23	4003	0	0	5	5	0.4074839	0.7054702	3	10	0.03	2000	5.043685	40.9239	-91.39361
320885	-1677	24	5868	10.41392	-41.98295	-46.81262	0	11.29	4003	0	0	5	5	0.4074839	0.7051722	3	10	0.03	2000	7.334279	40.9239	-91.39361
320994	3390	-975	-306	15.00454	-41.82454	-58.44883	0	11.29	4003	0	0	5	5	0.4074839	0.6935088	3	10	0.03	2000	20.11104	40.92391	-91.39362
321112	-777	826	-2582	13.89424	-43.56998	-56.41034	0	11.29	4002	0	0	5	5	0.4074839	0.6635045	3	10	0.03	2000	25.82765	40.92391	-91.39362
321229	-1962	-312	-417	7.911818	-43.76146	-53.67722	0	11.29	4002	0	0	5	5	0.4074839	0.6173171	3	10	0.03	2000	21.94719	40.92391	-91.39362
321321	166	-884	-2274	4.286086	-40.94374	-50.76516	0	11.29	4004	0	0	5	5	0.4074839	0.5886696	3	10	0.03	2000	20.86894	40.92391	-91.39362
321412	-351	1856	-2925	1.302574	-42.45488	-47.78949	0	11.29	4003	0	0	5	5	0.4074839	0.5724289	3	10	0.03	2000	19.31147	40.92391	-91.39362
321524	4074	5418	-233	3.192263	-50.02612	-45.31255	0	11.29	4002	0	0	5	5	0.4074839	0.5327141	3	10	0.03	2000	15.83103	40.92391	-91.39362
321564	-1181	4700	-2204	3.080738	-57.41164	-43.80152	0	11.29	4004	0	0	5	5	0.4074839	0.5069036	3	10	0.03	2000	17.49838	40.92391	-91.39362
321675	-2040	-1355	-917	-3.330575	-59.43895	-41.68861	0	11.29	4004	0	0	5	5	0.4074839	0.4884743	3	10	0.03	2000	13.78592	40.92391	-91.39362
321771	1316	-1264	-3080	-8.925352	-55.93232	-36.39706	0	11.29	4002	0	0	5	5	0.4074839	0.4371459	3	10	0.03	2000	7.535119	40.92391	-91.39362
321874	738	-950	-3022	-11.44952	-54.00609	-32.51074	0	11.29	4003	0	0	5	5	0.4074839	0.4005012	3	10	0.03	2000	3.411598	40.92391	-91.39362
321966	-500	-3532	-1023	-12.71567	-50.82334	-30.71173	0	11.29	4004	0	0	5	5	0.4074839	0.3835694	3	10	0.03	2000	-0.6254883	40.92391	-91.39362
322078	2830	-2604	-2462	-14.11169	-40.86276	-26.75053	0	11.29	4003	0	0	5	5	0.4074839	0.3432104	3	10	0.03	2000	0.3787535	40.92391	-91.39362
322169	599	-444	1105	-11.03276	-38.58682	-24.09576	0	11.29	4004	0	0	5	5	0.4074839	0.2932732	3	10	0.03	2000	-0.4890747	40.92391	-91.39362
322273	2800	-5296	2150	-7.19969	-34.36002	-27.37965	0	11.29	4003	0	0	5	5	0.4074839	0.249288	3	10	0.03	2000	2.89931	40.92391	-91.39362
322388	912	64	-1318	-4.611062	-22.87787	-27.76215	0	11.29	4002	0	0	5	5	0.4074839	0.2347228	3	10	0.03	2000	5.678683	40.92391	-91.39362
322474	246	-1890	576	-4.860521	-19.43198	-23.57879	0	11.29	4002	0	0	5	5	0.4074839	0.2051648	3	10	0.03	2000	2.250184	40.92391	-91.39362
322669	-77	-512	46	-3.911222	-15.6925	-24.01635	0	11.29	4003	0	0	5	5	0.4074839	0.1785177	3	10	0.03	2000	1.953151	40.92391	-91.39362
322755	-112	-8940	-171	-3.370596	-10.86366	-23.88404	0	11.34	4004	0	0	5	5	0.4074839	0.1719287	3	10	0.03	2000	1.620871	40.92391	-91.39362
322831	-509	-215	515	-3.508968	-3.519029	-23.90028	0	11.34	4004	0	0	5	5	0.4074839	0.1687548	3	10	0.03	2000	1.443569	40.92391	-91.39362
322943	-181	176	51	-2.877309	-3.561128	-23.84636	0	11.34	4003	0	0	5	5	0.4074839	0.144906	3	10	0.03	2000	0.4604522	40.92391	-91.39362
322963	-129	-209	-3	-2.776754	-3.479855	-23.85687	0	11.34	4002	0	0	5	5	0.4074839	0.144906	3	10	0.03	2000	0.4604522	40.92391	-91.39362
323083	-80	0	15	-2.563267	-2.99805	-23.87999	0	11.34	4003	0	0	5	5	0.4074839	0.1150459	3	10	0.03	2000	-0.2285156	40.92391	-91.39362
323161	-69	-8	16	-2.431593	-2.734103	-23.89515	0	11.34	4004	0	0	5	5	0.4074839	0.1003537	3	10	0.03	2000	-0.2285156	40.92392	-91.39362
323337	-70	-2	11	-2.144949	-2.15273	-23.9234	0	11.34	4004	0	0	5	5	0.4074839	0.06188293	3	10	0.03	2000	-0.6690063	40.92392	-91.39362
323363	-51	-3	29	-2.095477	-2.053307	-23.93123	0	11.34	4004	0	0	5	5	0.4074839	0.05817343	3	10	0.03	2000	-0.6690063	40.92392	-91.39362
323519	-113	70	50	-1.913574	-1.629354	-23.93269	0	11.34	4003	0	0	5	5	0.4074839	0.04147663	3	10	0.03	2000	-1.484161	40.92392	-91.39362
323593	-1174	766	-471	-2.001207	-1.798207	-23.79616	0	11.34	4004	0	0	5	5	0.4074839	0.02719968	3	10	0.03	2000	-1.191498	40.92392	-91.39362
323740	181	-135	169	-5.221258	-1.196245	-23.96085	0	11.34	4003	0	0	5	5	0.4074839	0.01655862	3	10	0.03	2000	-1.758118	40.92391	-91.39362
323787	203	107	393	-5.062914	-1.057717	-24.09496	0	11.34	4010	0	0	5	5	0.4074839	0.01655862	3	10	0.03	2000	-1.758118	40.92391	-91.39362
323900	-7	-139	134	-4.416884	-1.022697	-25.85835	0	11.34	4004	0	0	5	5	0.4074839	0.01071914	3	10	0.03	2000	-0.7073975	40.92391	-91.39362
323998	-372	-72	443	-4.520555	-0.836697	-26.02252	0	11.34	4004	0	0	5	5	0.4074839	0.01561392	3	10	0.03	2000	-0.9511108	40.92391	-91.39362
324115	4424	350	-437	-3.163135	-0.7195169	-26.3709	0	11.34	4004	0	0	5	5	0.4074839	0.02142974	3	10	0.03	2000	0.06157665	40.92391	-91.39362
324215	-216	48	19	-1.534103	-0.7383289	-26.35028	0	11.34	4003	0	0	5	5	0.4074839	0.02154765	3	10	0.03	2000	0.3198768	40.92391	-91.39362
324273	-85	15	10	-1.521061	-0.65857	-26.37267	0	11.34	4004	0	0	5	5	0.4074839	0.0189685	3	10	0.03	2000	0.2530149	40.92391	-91.39362
324362	-58	-1	6	-1.458902	-0.6169264	-26.38135	0	11.34	4009	0	0	5	5	0.4074839	0.01724192	3	10	0.03	2000	0.1300284	40.92391	-91.39362
324554	-67	1	11	-1.303583	-0.4537579	-26.41651	0	11.34	4003	0	0	5	5	0.4074839	0.01642639	3	10	0.03	2000	0.07885614	40.92391	-91.39362
324597	-65	5	11	-1.261739	-0.4111382	-26.42623	0	11.34	4003	0	0	5	5	0.4074839	0.009895295	3	10	0.03	2000	-0.003326416	40.92391	-91.39362
324630	-65	5	11	-1.261739	-0.4111382	-26.42623	0	11.34	4003	0	0	5	5	0.4074839	0.003448663	3	10	0.03	2000	-0.003326416	40.92391	-91.39362
324749	-66	-1	5	-1.174538	-0.3127863	-26.45381	0	11.34	4003	0	0	5	5	0.4074839	-0.006003706	3	10	0.03	2000	0.1084423	40.92391	-91.39362
324805	-64	7	11	-1.147433	-0.2787782	-26.46775	0	11.34	4003	0	0	5	5	0.4074839	-0.003101887	3	10	0.03	2000	0.06206233	40.92391	-91.39362
324957	-70	3	11	-1.090555	-0.2170796	-26.49558	0	11.34	4003	0	0	5	5	0.4074839	0.005419859	3	10	0.03	2000	-0.2610779	40.92391	-91.39362
325044	-69	5	15	-1.063346	-0.1951614	-26.50732	0	11.34	4002	0	0	5	5	0.4074839	0.01986788	3	10	0.03	2000	-0.07034302	40.92391	-91.39362
325088	-68	-1	14	-1.045587	-0.1788753	-26.51979	0	11.34	4004	0	0	5	5	0.4074839	0.02625877	3	10	0.03	2000	-0.3654785	40.92391	-91.39362
325168	-64	0	11	-1.012225	-0.1456059	-26.53832	0	11.34	4003	0	0	5	5	0.4074839	0.04515009	3	10	0.03	2000	-0.4307251	40.92391	-91.39362
325261	-67	1	7	-0.9817157	-0.115036	-26.56242	0	11.34	4003	0	0	5	5	0.4074839	0.06149759	3	10	0.03	2000	-0.7260742	40.92391	-91.39362
325395	-72	6	10	-0.9619332	-0.09639543	-26.5864	0	11.34	4004	0	0	5	5	0.4074839	0.07278659	3	10	0.03	2000	-0.5314941	40.92391	-91.39362
325462	-73	0	12	-0.9490303	-0.08688524	-26.59955	0	11.34	4003	0	0	5	5	0.4074839	0.07231876	3	10	0.03	2000	-0.5546265	40.92391	-91.39362
325544	-65	2	5	-0.9334866	-0.07660436	-26.60866	0	11.34	4003	0	0	5	5	0.4074839	0.07263119	3	10	0.03	2000	-0.5546265	40.92391	-91.39362
325726	-72	7	14	-0.9196435	-0.05564798	-26.64149	0	11.34	4003	0	0	5	5	0.4074839	0.06423447	3	10	0.03	2000	-0.5977478	40.92391	-91.39362
325762	-66	-2	7	-0.9147297	-0.05489593	-26.64699	0	11.34	4003	0	0	5	5	0.4074839	0.06213803	3	10	0.03	2000	-0.604126	40.92391	-91.39362
325856	-69	-5	11	-0.9022422	-0.03956976	-26.66375	0	11.34	4002	0	0	5	5	0.4074839	0.05001965	3	10	0.03	2000	-0.6347046	40.92391	-91.39362
325980	-68	6	6	-0.8909391	-0.02181621	-26.68105	0	11.34	4003	0	0	5	5	0.4074839	0.04618614	3	10	0.03	2000	-0.6499634	40.92391	-91.39362
326049	-68	5	9	-0.8844615	-0.01088379	-26.69934	0	11.34	4004	0	0	5	5	0.4074839	0.04444775	3	10	0.03	2000	-0.6527405	40.92391	-91.39362
326201	-66	1	13	-0.8770507	-0.007343437	-26.72264	0	11.34	4003	0	0	5	5	0.2805561	0.03450704	5	10	0.03	2000	-0.6778259	40.92391	-91.39362
326302	-67	0	1	-0.8628208	-0.00571027	-26.74569	0	11.34	4002	0	0	5	5	0.2028896	0.02705117	5	10	0.03	2000	-0.6974792	40.92391	-91.39362
326327	-71	2	7	-0.8582234	-0.004097283	-26.75082	0	11.34	4004	0	0	5	5	0.2028896	0.02705117	5	10	0.03	2000	-0.6974792	40.92391	-91.39362
326519	-63	0	11	-0.8447787	-0.001314263	-26.78115	0	11.34	4003	0	0	5	5	0.1348185	0.02204927	5	10	0.03	2000	-0.7154236	40.92391	-91.39362
326567	-60	5	14	-0.8418719	-0.00329375	-26.78628	0	11.34	4003	0	0	5	5	0.1201515	0.01851158	5	10	0.03	2000	-0.4934082	40.92391	-91.39362
326675	-63	-1	12	-0.8438916	0.0002347293	-26.8047	0	11.34	4004	0	0	5	5	0.1032066	0.009426768	5	10	0.03	2000	-0.7327271	40.92391	-91.39362
326727	-61	0	9	-0.837607	0.008942285	-26.82182	0	11.34	4004	0	0	5	5	0.09864832	0.00673963	5	10	0.03	2000	-0.740387	40.92391	-91.39362
326864	-69	4	9	-0.8275719	0.01077306	-26.83735	0	11.34	4002	0	0	5	5	0.0815226	-0.009564252	5	10	0.03	2000	-0.9972229	40.92391	-91.39362
326986	-63	8	11	-0.8098393	0.005262819	-26.86249	0	11.34	4002	0	0	5	5	0.07317884	-0.0132051	5	10	0.03	2000	-0.5433044	40.92391	-91.39362
327105	-59	0	11	-0.8090257	-4.461003E-05	-26.87968	0	11.34	4003	0	0	5	5	0.06767552	-0.01375499	5	10	0.03	2000	-1.030609	40.92391	-91.39362
327151	-62	8	9	-0.8076125	0.004600419	-26.89198	0	11.34	4004	0	0	5	5	0.06567566	-0.01449627	5	10	0.03	2000	-0.7956848	40.92391	-91.39362
327263	-65	6	10	-0.8050731	0.004115466	-26.91375	0	11.34	4004	0	0	5	5	0.0618883	-0.01936677	5	10	0.03	2000	-0.5499268	40.92392	-91.39362
327328	-57	-2	9	-0.8070545	0.006447686	-26.91833	0	11.34	4003	0	0	5	5	0.06107808	-0.02159585	5	10	0.03	2000	-0.7962341	40.92392	-91.39362
327414	-67	3	6	-0.7982647	0.007052305	-26.93428	0	11.34	4004	0	0	5	5	0.06009595	-0.02459967	1	10	0.03	2000	-0.5603333	40.92392	-91.39362
327522	-63	1	12	-0.7937739	0.01005191	-26.95147	0	11.34	4003	0	0	5	5	0.05865606	-0.02104229	1	10	0.03	2000	-0.5748901	40.92392	-91.39362
327605	-62	3	5	-0.7883397	0.01043652	-26.96546	0	11.34	4003	0	0	5	5	0.05813412	-0.01365938	1	10	0.03	2000	-1.070587	40.92392	-91.39362
327704	-61	6	11	-0.7766851	0.01940945	-26.9775	0	11.34	4004	0	0	5	5	0.02	-0.01360107	6	10	0.03	2000	-0.8414917	40.92392	-91.39362
327863	-62	8	8	-0.7696462	0.02834939	-26.99987	0	11.34	4002	0	0	5	5	0.03503094	-0.01568102	6	10	0.03	2000	-0.6187134	40.92392	-91.39362
327916	-58	4	9	-0.7735967	0.02735844	-27.01026	0	11.34	4003	0	0	5	5	0.03711875	-0.0174309	6	10	0.03	2000	-0.6090088	40.92392	-91.39362
328023	-71	1	7	-0.7696965	0.0280348	-27.02054	0	11.29	4004	0	0	5	5	0.0421766	-0.02038168	6	10	0.03	2000	-0.6090088	40.92392	-91.39362
328158	-55	4	7	-0.7643995	0.02719177	-27.04358	0	11.29	4003	0	0	5	5	0.04684639	-0.02970556	6	10	0.03	2000	-0.8575745	40.92392	-91.39362
328200	-60	2	9	-0.7626705	0.02901454	-27.0489	0	11.29	4004	0	0	5	5	0.04775265	-0.03418769	6	10	0.03	2000	-0.8575745	40.92392	-91.39362
328329	-61	5	7	-0.7574078	0.0239248	-27.06834	0	11.29	4002	0	0	5	5	0.05133031	-0.05184165	5	10	0.03	2000	-0.8736267	40.92392	-91.39362
328407	-63	-5	10	-0.7574161	0.0218125	-27.07837	0	11.29	4002	0	0	5	5	0.05252611	-0.05540142	5	10	0.03	2000	-0.6396179	40.92392	-91.39362
328509	-59	0	10	-0.7693596	0.02166641	-27.09848	0	11.29	4002	0	0	5	5	0.05316886	-0.05604929	5	10	0.03	2000	-1.106049	40.92392	-91.39362
328612	-61	5	14	-0.7697516	0.02181229	-27.10807	0	11.29	4004	0	0	5	5	0.05457596	-0.04902554	5	10	0.03	2000	-0.8523254	40.92392	-91.39362
328713	-62	1	9	-0.7689815	0.02002456	-27.12427	0	11.29	4004	0	0	5	5	0.05490291	-0.04460844	5	10	0.03	2000	-0.6200562	40.92392	-91.39362
328942	-62	1	5	-0.7691581	0.0205173	-27.15202	0	11.4	4002	0	0	5	5	0.05592135	-0.0340605	5	10	0.03	2000	-0.8654785	40.92392	-91.39362
329054	-68	3	11	-0.7670001	0.02869448	-27.17793	0	11.4	4003	0	0	5	5	0.05594917	-0.02876583	5	10	0.03	2000	-1.10318	40.92392	-91.39362
329123	-61	-1	6	-0.7662197	0.02718992	-27.1871	0	11.4	4003	0	0	5	5	0.05626739	-0.03054651	5	10	0.03	2000	-0.617218	40.92392	-91.39362
329244	-58	5	11	-0.7670957	0.02734169	-27.20764	0	11.4	4004	0	0	5	5	0.05663503	-0.03369274	5	10	0.03	2000	-1.100952	40.92392	-91.39362
329395	-63	3	8	-0.7599107	0.02611783	-27.22628	0	11.4	4003	0	0	5	5	0.05289897	-0.03721208	5	10	0.03	2000	-0.8763428	40.92392	-91.39362
329426	-64	3	8	-0.762191	0.01985268	-27.23459	0	11.4	4003	0	0	5	5	0.05337147	-0.0367635	5	10	0.03	2000	-0.8695068	40.92392	-91.39362
329570	-62	10	6	-0.7591049	0.01878403	-27.24927	0	11.4	4003	0	0	5	5	0.05511292	-0.02790537	1	10	0.03	2000	-0.8707886	40.92392	-91.39362
329692	-59	1	4	-0.7568496	0.0197132	-27.26191	0	11.4	4004	0	0	5	5	0.05579342	-0.02040577	1	10	0.03	2000	-0.6381226	40.92392	-91.39362
329790	-54	4	11	-0.7559588	0.02035574	-27.28722	0	11.4	4003	0	0	5	5	0.05642296	-0.02080851	1	10	0.03	2000	-0.8811035	40.92392	-91.39362
329959	-66	9	11	-0.7613966	0.02473949	-27.30959	0	11.4	4003	0	0	5	5	0.05698571	-0.02428602	1	10	0.03	2000	-0.6362915	40.92392	-91.39362
330040	-59	-1	11	-0.7556385	0.0215056	-27.32456	0	11.4	4004	0	0	5	5	0.05710699	-0.02246623	1	10	0.03	2000	-0.6312256	40.92392	-91.39362
330109	-56	4	4	-0.7511685	0.02587831	-27.33379	0	11.4	4004	0	0	5	5	0.05724709	-0.0231702	1	10	0.03	2000	-0.8883667	40.92392	-91.39362
330208	-58	3	8	-0.7476049	0.02470768	-27.35654	0	11.4	4002	0	0	5	5	0.05737671	-0.02797247	1	10	0.03	2000	-0.8962402	40.92392	-91.39362
330259	-54	3	9	-0.7434994	0.03081803	-27.36589	0	11.4	4003	0	0	5	5	0.05740144	-0.02799848	1	10	0.03	2000	-0.6586914	40.92392	-91.39362
330327	-66	8	6	-0.7401409	0.02841439	-27.3769	0	11.4	4003	0	0	5	5	0.05744373	-0.02813259	1	10	0.03	2000	-1.141113	40.92392	-91.39362
330462	-62	-4	14	-0.7422414	0.02990731	-27.39548	0	11.4	4003	0	0	5	5	0.05751755	-0.02383555	1	10	0.03	2000	-0.9060974	40.92392	-91.39362
330527	-62	-3	9	-0.7408437	0.03536157	-27.40489	0	11.4	4002	0	0	5	5	0.05753778	-0.02109463	1	10	0.03	2000	-0.9107361	40.92392	-91.39362
330621	-61	6	12	-0.7401254	0.03566584	-27.41107	0	11.4	4004	0	0	5	5	0.05755416	-0.01575061	1	10	0.03	2000	-0.9107361	40.92392	-91.39362
330739	-60	10	12	-0.7405276	0.02305008	-27.44134	0	11.34	4004	0	0	5	5	0.05757818	0.006692721	1	10	0.03	2000	-0.9021301	40.92392	-91.39362
330822	-63	1	11	-0.7489858	0.02347491	-27.45637	0	11.34	4002	0	0	5	5	0.05758689	0.01364242	1	10	0.03	2000	-0.8922119	40.92392	-91.39362
330918	-63	2	2	-0.7530049	0.02177652	-27.46695	0	11.34	4002	0	0	5	5	0.05759965	0.02752475	1	10	0.03	2000	-0.8899536	40.92392	-91.39362
331022	-63	2	11	-0.7550207	0.02512344	-27.48261	0	11.34	4002	0	0	5	5	0.05760428	0.03110898	1	10	0.03	2000	-0.6399536	40.92392	-91.39362
331145	-55	1	11	-0.7553216	0.0245616	-27.50425	0	11.34	4002	0	0	5	5	0.05761106	0.03512166	1	10	0.03	2000	-0.8847656	40.92392	-91.39362
331222	-63	2	12	-0.7525583	0.02417886	-27.51354	0	11.34	4004	0	0	5	5	0.05761352	0.03197415	1	10	0.03	2000	-1.127869	40.92392	-91.39362
331357	-60	-4	8	-0.7510878	0.01892851	-27.5323	0	11.34	4002	0	0	5	5	0.05761781	0.02000137	1	10	0.03	2000	-1.127502	40.92392	-91.39362
331448	-64	-6	7	-0.7397047	0.01653861	-27.54593	0	11.34	4004	0	0	5	5	0.05761898	0.01481744	1	10	0.03	2000	-0.8962708	40.92392	-91.39362
331564	-64	0	9	-0.7407802	0.01464752	-27.56152	0	11.34	4004	0	0	5	5	0.05762034	0.00128302	1	10	0.03	2000	-0.6678162	40.92392	-91.39362
331630	-54	0	11	-0.7405806	0.02026088	-27.57368	0	11.34	4002	0	0	5	5	0.05762133	-0.008319974	1	10	0.03	2000	-0.90802	40.92392	-91.39362
331782	-55	4	10	-0.7474964	0.01999198	-27.59348	0	11.34	4002	0	0	5	5	0.05762225	-0.02818645	1	10	0.03	2000	-0.9004211	40.92392	-91.39362
331839	-51	2	3	-0.7472007	0.02112434	-27.5966	0	11.34	4003	0	0	5	5	0.05762258	-0.03678102	1	10	0.03	2000	-0.9004211	40.92392	-91.39362
331940	-62	-4	14	-0.7444872	0.02492699	-27.61133	0	11.34	4003	0	0	5	5	0.05762296	-0.0519093	1	10	0.03	2000	-0.6584473	40.92392	-91.39362
332088	-60	0	7	-0.7367471	0.03059061	-27.63278	0	11.34	4003	0	0	5	5	0.05762332	-0.07096704	1	10	0.03	2000	-0.9136047	40.92392	-91.39362
332150	-57	0	13	-0.7332817	0.031395	-27.64194	0	11.34	4002	0	0	5	5	0.05762345	-0.07945793	1	10	0.03	2000	-1.149353	40.92392	-91.39362
332248	-57	0	10	-0.7300907	0.03486643	-27.64665	0	11.34	4004	0	0	5	5	0.05762359	-0.09180823	1	10	0.03	2000	-0.680542	40.92392	-91.39362
332371	-54	2	9	-0.7163207	0.03413016	-27.67152	0	11.34	4003	0	0	5	5	0.05762374	-0.1037763	1	10	0.03	2000	-0.9395142	40.92392	-91.39362
332562	-62	-3	9	-0.7060484	0.03599169	-27.69468	0	11.4	4004	0	0	5	5	0.05762384	-0.1207458	1	10	0.03	2000	-0.9521484	40.92392	-91.39362
332701	-56	0	7	-0.712588	0.03111103	-27.71706	0	11.4	4003	0	0	5	5	0.0576239	-0.1229953	1	10	0.03	2000	-0.9488831	40.92392	-91.39362
332758	-58	4	6	-0.7089252	0.03076066	-27.72121	0	11.4	4003	0	0	5	5	0.05762392	-0.1186144	1	10	0.03	2000	-0.9488831	40.92392	-91.39362
332879	-51	-1	4	-0.7066526	0.02720011	-27.74481	0	11.4	4003	0	0	5	5	0.05762394	-0.1099023	1	10	0.03	2000	-0.9708252	40.92392	-91.39362
333012	-50	1	9	-0.6990618	0.01936704	-27.75997	0	11.4	4003	0	0	5	5	0.05762396	-0.1043842	1	10	0.03	2000	-0.973053	40.92392	-91.39362
333077	-59	0	8	-0.6982914	0.01116016	-27.77531	0	11.4	4003	0	0	5	5	0.05762396	-0.1057128	1	10	0.03	2000	-0.9743652	40.92392	-91.39362
333183	-55	2	5	-0.6958604	0.01307618	-27.78931	0	11.4	4003	0	0	5	5	0.05762398	-0.1112886	1	10	0.03	2000	-0.9884644	40.92392	-91.39362
333265	-58	3	10	-0.699807	0.01107108	-27.79958	0	11.4	4003	0	0	5	5	0.05762398	-0.1127765	1	10	0.03	2000	-0.7391968	40.92392	-91.39362
333369	-53	0	3	-0.6961264	0.009158086	-27.81174	0	11.4	4003	0	0	5	5	0.05762398	-0.1065021	1	10	0.03	2000	-1.219727	40.92392	-91.39362
333535	-55	1	15	-0.6836181	0.008037389	-27.83441	0	11.4	4002	0	0	5	5	0.05762398	-0.08778386	1	10	0.03	2000	-0.7596741	40.92392	-91.39362
333573	-50	0	5	-0.6845372	0.006911247	-27.83862	0	11.4	4003	0	0	5	5	0.05762398	-0.08692478	1	10	0.03	2000	-0.7596741	40.92392	-91.39362
333677	-58	0	10	-0.6860946	0.009533813	-27.8509	0	11.4	4003	0	0	5	5	0.05762398	-0.09467312	1	10	0.03	2000	-1.002136	40.92392	-91.39362
333776	-60	-3	10	-0.6900031	0.005038469	-27.863	0	11.4	4003	0	0	5	5	0.05762398	-0.1033202	1	10	0.03	2000	-0.9951477	40.92392	-91.39362
333876	-50	5	13	-0.6829016	0.00424434	-27.8784	0	11.4	4003	0	0	5	5	0.05762398	-0.1080984	1	10	0.03	2000	-0.9980164	40.92392	-91.39362
333989	-57	0	9	-0.6775406	0.007560483	-27.89123	0	11.4	4004	0	0	5	5	0.05762398	-0.1077608	1	10	0.03	2000	-1.008575	40.92392	-91.39362
334065	-56	6	7	-0.6720386	0.004723914	-27.89654	0	11.4	4003	0	0	5	5	0.05762398	-0.1124634	1	10	0.03	2000	-1.015289	40.92392	-91.39362
334191	-54	1	3	-0.6710319	0.002134816	-27.91187	0	11.4	4004	0	0	5	5	0.05762398	-0.1174277	1	10	0.03	2000	-1.505463	40.92392	-91.39362
334282	-51	0	6	-0.673577	0.004521511	-27.92	0	11.4	4004	0	0	5	5	0.05762398	-0.1157465	1	10	0.03	2000	-1.015259	40.92392	-91.39362
334376	-51	0	9	-0.673251	0.006061354	-27.93203	0	11.4	4002	0	0	5	5	0.05762398	-0.1137705	1	10	0.03	2000	-1.031281	40.92392	-91.39362
334480	-52	1	3	-0.6705734	0.003931919	-27.94589	0	11.4	4003	0	0	5	5	0.05762398	-0.1026206	1	10	0.03	2000	-1.025543	40.92392	-91.39362
334588	-60	7	7	-0.6682838	0.006538482	-27.95591	0	11.4	4002	0	0	5	5	0.05762398	-0.09745545	1	10	0.03	2000	-0.7891235	40.92392	-91.39362
334683	-45	2	5	-0.6629985	0.006291806	-27.96336	0	11.4	4003	0	0	5	5	0.05762398	-0.09186883	1	10	0.03	2000	-1.038208	40.92392	-91.39362
334852	-52	-6	9	-0.6565796	0.009181967	-27.98756	0	11.4	4002	0	0	5	5	0.05762398	-0.081125	1	10	0.03	2000	-1.044342	40.92391	-91.39362
334888	-55	-5	8	-0.658408	0.005279814	-27.99024	0	11.4	4004	0	0	5	5	0.05762398	-0.07943035	1	10	0.03	2000	-1.051605	40.92391	-91.39362
334961	-57	0	4	-0.6539925	0.009031777	-28.00345	0	11.4	4004	0	0	5	5	0.05762398	-0.07653249	1	10	0.03	2000	-0.8091125	40.92391	-91.39362
335094	-51	-2	4	-0.6611201	0.007925344	-28.01138	0	11.4	4004	0	0	5	5	0.05762398	-0.07024892	1	10	0.03	2000	-1.288361	40.92391	-91.39362
335243	-48	6	5	-0.6493459	0.007353449	-28.02879	0	11.4	4004	0	0	5	5	0.05762398	-0.07270608	1	10	0.03	2000	-1.048553	40.92391	-91.39362
335298	-60	2	8	-0.6534544	0.009232806	-28.03496	0	11.34	4003	0	0	5	5	0.05762398	-0.07293135	1	10	0.03	2000	-1.060638	40.92391	-91.39362
335414	-51	-1	5	-0.640429	0.0110847	-28.04681	0	11.34	4003	0	0	5	5	0.05762398	-0.07390401	1	10	0.03	2000	-1.071106	40.92391	-91.39362
335500	-58	1	10	-0.6412853	0.006637865	-28.05585	0	11.34	4003	0	0	5	5	0.05762398	-0.07442307	1	10	0.03	2000	-1.066772	40.92391	-91.39362
335627	-54	7	5	-0.6362477	0.007590794	-28.06849	0	11.34	4003	0	0	5	5	0.05762398	-0.0660331	1	10	0.03	2000	-1.087524	40.92391	-91.39362
335693	-51	6	5	-0.6323838	0.003590966	-28.07992	0	11.34	4003	0	0	5	5	0.05762398	-0.05707474	1	10	0.03	2000	-1.340179	40.92391	-91.39362
335767	-56	-1	5	-0.6350645	0.009129858	-28.08725	0	11.34	4003	0	0	5	5	0.05762398	-0.04172203	1	10	0.03	2000	-1.084503	40.92391	-91.39362
335949	-51	-6	5	-0.6367801	0.006256473	-28.10644	0	11.34	4003	0	0	5	5	0.05762398	-0.02727443	1	10	0.03	2000	-1.327057	40.92391	-91.39362
335980	-54	6	6	-0.6347279	0.006574888	-28.11365	0	11.34	4002	0	0	5	5	0.05762398	-0.02727443	1	10	0.03	2000	-1.089722	40.92391	-91.39362
336165	-54	-2	13	-0.6302578	0.004331278	-28.1324	0	11.34	4003	0	0	5	5	0.05762398	-0.01873999	1	10	0.03	2000	-1.095917	40.92391	-91.39362
336267	-61	0	9	-0.6288253	0.009128746	-28.1475	0	11.34	4003	0	0	5	5	0.05762398	-0.02642958	1	10	0.03	2000	-0.8591919	40.92391	-91.39362
336372	-51	-2	10	-0.6269641	0.01042963	-28.15532	0	11.34	4002	0	0	5	5	0.05762398	-0.03607104	1	10	0.03	2000	-1.09964	40.92391	-91.39362
336467	-49	-2	5	-0.6245272	0.01068739	-28.16809	0	11.34	4004	0	0	5	5	0.05762398	-0.04253622	1	10	0.03	2000	-1.103516	40.92391	-91.39362
336558	-46	-1	2	-0.6240197	0.008095243	-28.17884	0	11.34	4003	0	0	5	5	0.05762398	-0.04547631	1	10	0.03	2000	-1.10202	40.92391	-91.39362
336695	-52	6	5	-0.6231055	0.01325048	-28.1948	0	11.34	4004	0	0	5	5	0.05762398	-0.04388603	1	10	0.03	2000	-0.8704529	40.92391	-91.39362
336818	-52	1	4	-0.6215568	0.02056713	-28.2086	0	11.34	4003	0	0	5	5	0.05762398	-0.03738303	1	10	0.03	2000	-1.117401	40.92391	-91.39362
336914	-57	1	7	-0.6296285	0.02135749	-28.21855	0	11.34	4003	0	0	5	5	0.05762398	-0.035148	1	10	0.03	2000	-1.106293	40.92391	-91.39362
336986	-47	5	7	-0.6382728	0.01936901	-28.2268	0	11.34	4004	0	0	5	5	0.05762398	-0.04024528	1	10	0.03	2000	-0.8434143	40.92391	-91.39362
337085	-48	0	8	-0.6306646	0.02033686	-28.24324	0	11.4	4004	0	0	5	5	0.05762398	-0.03742126	1	10	0.03	2000	-1.09259	40.92391	-91.39362
337181	-47	0	8	-0.6288999	0.01259222	-28.25472	0	11.4	4002	0	0	5	5	0.05762398	-0.03739881	1	10	0.03	2000	-1.097992	40.92391	-91.39362
337210	-51	4	8	-0.6287364	0.01339429	-28.26114	0	11.4	4003	0	0	5	5	0.05762398	-0.03734164	1	10	0.03	2000	-1.096283	40.92391	-91.39362
337369	-43	7	15	-0.6321531	0.01472722	-28.27531	0	11.4	4003	0	0	5	5	0.05762398	-0.03323016	1	10	0.03	2000	-1.083221	40.92391	-91.39362
337538	-45	0	5	-0.6305434	0.01136861	-28.29639	0	11.4	4002	0	0	5	5	0.05762398	-0.01157538	1	10	0.03	2000	-1.099731	40.92391	-91.39362
337695	-50	-3	2	-0.6260199	0.01907286	-28.31753	0	11.4	4002	0	0	5	5	0.05762398	0.002504506	1	10	0.03	2000	-0.8623352	40.92391	-91.39362
337868	-52	-2	3	-0.6216024	0.01661778	-28.3317	0	11.4	4002	0	0	5	5	0.05762398	0.02894962	1	10	0.03	2000	-0.8719177	40.92391	-91.39362
338020	-54	-6	10	-0.6189896	0.01204779	-28.35057	0	11.4	4002	0	0	5	5	0.05762398	0.04027605	1	10	0.03	2000	-1.115997	40.92391	-91.39362
338130	-53	-1	8	-0.6204006	0.01057245	-28.3604	0	11.4	4002	0	0	5	5	0.05762398	0.04468061	1	10	0.03	2000	-1.109039	40.92391	-91.39362
338199	-51	0	11	-0.6254094	0.007775069	-28.37342	0	11.4	4003	0	0	5	5	0.05762398	0.03931993	1	10	0.03	2000	-1.106323	40.92391	-91.39362
338313	-55	2	8	-0.6234515	0.002260166	-28.38552	0	11.4	4003	0	0	5	5	0.05762398	0.03088606	1	10	0.03	2000	-1.344666	40.92391	-91.39362
338432	-46	0	8	-0.6211379	0.0003432405	-28.39676	0	11.4	4003	0	0	5	5	0.05762398	0.02356243	1	10	0.03	2000	-1.10968	40.92391	-91.39362
338581	-46	5	10	-0.6163183	-0.0003397356	-28.41375	0	11.4	4003	0	0	5	5	0.05762398	0.01149821	1	10	0.03	2000	-1.355988	40.92391	-91.39362
338627	-41	8	6	-0.615675	-0.004433769	-28.42168	0	11.4	4004	0	0	5	5	0.05762398	0.01104267	1	10	0.03	2000	-1.117737	40.92391	-91.39362
338704	-45	3	9	-0.6178469	-0.006572557	-28.42987	0	11.4	4002	0	0	5	5	0.05762398	0.00788291	1	10	0.03	2000	-1.117493	40.92391	-91.39362
338777	-47	2	4	-0.6070917	-0.007034032	-28.43983	0	11.4	4002	0	0	5	5	0.05762398	0.002148343	1	10	0.03	2000	-1.122559	40.92391	-91.39362
338920	-46	0	3	-0.6024051	-0.008532275	-28.4496	0	11.34	4003	0	0	5	5	0.05762398	0.00797767	1	10	0.03	2000	-1.143677	40.92391	-91.39362
339048	-49	2	5	-0.6034274	-0.006641331	-28.46757	0	11.34	4004	0	0	5	5	0.05762398	0.02323454	1	10	0.03	2000	-1.145905	40.92391	-91.39362
339176	-49	4	6	-0.5955136	-0.009785794	-28.47831	0	11.34	4003	0	0	5	5	0.05762398	0.03205021	1	10	0.03	2000	-1.14563	40.92391	-91.39362
339252	-46	0	12	-0.5831504	-0.006497378	-28.49163	0	11.34	4003	0	0	5	5	0.05762398	0.03364553	1	10	0.03	2000	-0.9224548	40.92391	-91.39362
339337	-42	7	10	-0.5767798	-0.006631395	-28.50342	0	11.34	4002	0	0	5	5	0.05762398	0.03319032	1	10	0.03	2000	-1.179657	40.92391	-91.39362
339364	-44	0	6	-0.5702065	-0.006208273	-28.5135	0	11.34	4002	0	0	5	5	0.05762398	0.03369243	1	10	0.03	2000	-1.185364	40.92391	-91.39362
339453	-42	1	5	-0.5637379	-0.001394996	-28.52352	0	11.34	4002	0	0	5	5	0.05762398	0.03565103	1	10	0.03	2000	-0.966095	40.92391	-91.39362
339630	-45	-2	4	-0.5650995	-0.01035824	-28.54032	0	11.4	4003	0	0	5	5	0.05762398	0.03797634	1	10	0.03	2000	-1.212128	40.92391	-91.39362
339704	-44	6	9	-0.564337	-0.006382799	-28.54942	0	11.4	4004	0	0	5	5	0.05762398	0.03957428	1	10	0.03	2000	-1.206482	40.92391	-91.39362
339776	-51	-2	6	-0.5598837	0.0002613078	-28.55688	0	11.4	4003	0	0	5	5	0.05762398	0.03969759	1	10	0.03	2000	-1.208344	40.92391	-91.39362
339894	-40	0	5	-0.5577165	-0.006533031	-28.56647	0	11.4	4002	0	0	5	5	0.05762398	0.03407992	1	10	0.03	2000	-1.468811	40.92391	-91.39362
339997	-43	0	7	-0.5474306	-0.001340333	-28.57947	0	11.4	4003	0	0	5	5	0.05762398	0.03100495	1	10	0.03	2000	-1.237061	40.92391	-91.39362
340083	-40	8	6	-0.5469201	-0.002406476	-28.59059	0	11.4	4003	0	0	5	5	0.05762398	0.02913807	1	10	0.03	2000	-1.242554	40.92391	-91.39362
340144	-42	2	4	-0.5438597	-0.002688612	-28.59652	0	11.4	4002	0	0	5	5	0.05762398	0.03231434	1	10	0.03	2000	-1.246399	40.92391	-91.39362
340207	-43	1	8	-0.5451224	-0.0002954311	-28.59872	0	11.4	4002	0	0	5	5	0.05762398	0.03480026	1	10	0.03	2000	-1.246399	40.92391	-91.39362
340293	-40	3	7	-0.5419564	-0.0004710279	-28.60971	0	11.4	4004	0	0	5	5	0.05762398	0.03653687	1	10	0.03	2000	-1.005524	40.92391	-91.39362
340397	-38	0	3	-0.5380133	0.002609716	-28.61893	0	11.4	4003	0	0	5	5	0.05762398	0.03791775	1	10	0.03	2000	-1.247162	40.92391	-91.39362
340502	-49	3	4	-0.5365398	-0.002212109	-28.62369	0	11.4	4003	0	0	5	5	0.05762398	0.03587532	1	10	0.03	2000	-1.262115	40.92391	-91.39362
