time(ms)	gyro_x(deg/s)	gyro_y(deg/s)	gyro_z(deg/s)	orientation_roll(deg)	orientation_pitch(deg)	orientation_yaw(deg)	throttle	battery(V)	loop_time(uS)	pid_output_roll	pid_output_pitch	pid_output_yaw	pid_output_throttle	ultrasonic_alt	baro_alt	flight_mode	p_gain_altitude	i_gain_altitude	d_gain_altitude	compass_heading	latitude	longitude
61174	40	1760	596	0.6509587	-8.254007	0.1031871	0	11.8	4003	24	-69	5	5	0.4188029	1.771175	8	10	0.03	2000	14.42698	40.92389	-91.39361
61232	704	-752	-1506	0.8459637	-7.505418	0.614948	0	11.8	4002	24	-69	5	5	0.4188029	1.761527	8	10	0.03	2000	13.4369	40.92389	-91.39361
61304	-1580	1193	-1009	-0.5496166	-7.878869	0.9702995	0	11.46	4002	24	-69	5	5	0.4188029	1.734827	8	10	0.03	2000	17.83051	40.92389	-91.39361
61428	-1364	1102	1952	-2.666816	-9.863409	0.2841997	0	11.46	4004	97	-69	5	5	0.4188029	1.686549	8	10	0.03	2000	13.93846	40.92389	-91.3936
61557	-1441	-1189	-1040	-4.389804	-8.034472	0.4471955	0	11.46	4003	96	-69	5	5	0.4188029	1.666297	8	10	0.03	2000	15.62138	40.92389	-91.3936
61620	-1012	1281	203	-5.582409	-7.887179	0.3631761	0	11.46	4004	0	0	5	5	0.4188029	1.656066	8	10	0.03	2000	16.60618	40.92389	-91.3936
61711	-530	-367	-160	-5.647233	-8.029511	0.4694997	0	11.46	4004	0	0	5	5	0.4188029	1.642325	3	10	0.03	2000	11.58461	40.92389	-91.3936
61864	753	-1536	534	-2.239917	-5.386625	0.272238	0	11.46	4003	0	0	5	5	0.4188029	1.626553	3	10	0.03	2000	9.323742	40.92389	-91.3936
61918	6	-1580	4	-1.703151	-4.312629	0.2792903	0	11.46	4004	0	0	5	5	0.4188029	1.618685	3	10	0.03	2000	10.01472	40.92389	-91.39359
62023	-636	2850	-157	-1.95382	-2.50153	0.0259028	0	11.46	4003	0	0	5	5	0.4188029	1.603907	3	10	0.03	2000	11.65321	40.92389	-91.39359
62149	-489	1325	321	-2.114668	-5.791121	0.3733098	0	11.46	4002	0	0	5	5	0.4188029	1.589302	3	10	0.03	2000	9.050473	40.92389	-91.39359
62231	-1113	-1106	-702	-3.349795	-4.825228	0.5399953	0	11.46	4002	0	0	5	5	0.4188029	1.573814	3	10	0.03	2000	9.090639	40.92389	-91.39359
62334	-1085	45	606	-4.660381	-4.345139	-0.04254634	0	10.6	4002	0	0	5	5	0.4188029	1.548131	3	10	0.03	2000	6.605468	40.92389	-91.39359
62445	-3563	-536	-505	-6.151724	-3.932344	0.01923707	0	10.6	4004	0	0	5	5	0.4188029	1.504069	3	10	0.03	2000	3.6932	40.92389	-91.39359
62543	-972	1776	896	-9.409781	-3.890692	0.2914927	0	10.6	4004	0	0	5	5	0.4188029	1.487525	3	10	0.03	2000	1.542994	40.92389	-91.39359
62661	-3110	2271	-488	-12.80696	-6.909768	1.149137	0	10.6	4003	0	0	5	5	0.4188029	1.431489	3	10	0.03	2000	-1.529724	40.92389	-91.39358
62750	-3029	205	1459	-14.24824	-8.582205	1.131309	0	10.6	4002	0	0	5	5	0.4188029	1.403486	3	10	0.03	2000	-7.567413	40.92389	-91.39358
62850	-85	4707	-882	-13.59711	-14.41164	-0.121288	0	10.6	4003	0	0	5	5	0.4188029	1.368647	3	10	0.03	2000	-13.81845	40.92388	-91.39358
62964	655	2750	-986	-11.5488	-20.69002	-0.008460801	0	10.6	4004	0	0	5	5	0.4188029	1.357753	3	10	0.03	2000	-17.77084	40.92388	-91.39358
63057	-159	1420	494	-11.11605	-22.38484	-0.05963808	0	10.6	4002	0	0	5	5	0.4188029	1.351641	3	10	0.03	2000	-17.90012	40.92388	-91.39357
63161	1728	-1896	-1628	-6.875202	-20.70545	0.8540735	0	10.6	4003	0	0	5	5	0.4188029	1.349814	3	10	0.03	2000	-18.76709	40.92388	-91.39357
63266	-984	-3487	1155	-5.369282	-15.77522	1.323059	0	11.8	4004	0	0	5	5	0.4188029	1.354742	3	10	0.03	2000	-16.96228	40.92388	-91.39357
63370	977	-692	768	-3.988042	-9.305748	0.4675586	0	11.8	4003	0	0	5	5	0.4188029	1.378358	3	10	0.03	2000	-16.29904	40.92388	-91.39357
63475	544	-611	1203	-2.64397	-6.789931	-0.1065615	0	11.8	4002	0	0	5	5	0.4188029	1.394773	3	10	0.03	2000	-16.52448	40.92388	-91.39357
63579	-957	-817	291	-1.829349	-6.039152	-0.4733523	0	11.8	4002	0	0	5	5	0.4188029	1.424388	3	10	0.03	2000	-15.89056	40.92388	-91.39357
63684	-1237	-3634	983	-3.456584	-3.340332	-0.7417014	0	11.8	4002	0	0	5	5	0.4188029	1.48801	3	10	0.03	2000	-16.48761	40.92388	-91.39357
63788	482	-235	1515	-4.558018	-1.463064	-1.247629	0	11.8	4004	0	0	5	5	0.4188029	1.52857	3	10	0.03	2000	-16.66443	40.92389	-91.39357
63915	571	-249	-846	-1.929955	-3.44997	-0.7138129	0	11.8	4004	0	0	5	5	0.4188029	1.611431	3	10	0.03	2000	-16.98022	40.92389	-91.39357
63993	-1638	-2714	260	-2.228376	-3.453949	-0.3782856	0	11.8	4003	0	0	5	5	0.4188029	1.668394	3	10	0.03	2000	-17.71698	40.92389	-91.39357
64161	1478	737	679	-2.246565	-1.910571	-0.6854015	0	11.23	4003	0	0	5	5	0.4188029	1.785537	3	10	0.03	2000	-20.44751	40.92389	-91.39357
64217	1981	1701	-432	-1.786964	-2.846622	-0.6041549	0	11.23	4004	0	0	5	5	0.4188029	1.834188	3	10	0.03	2000	-19.27664	40.92389	-91.39357
64352	-1398	-971	1735	-1.417387	-6.566556	-0.9405035	0	11.23	4003	0	0	5	5	0.4188029	1.912907	3	10	0.03	2000	-18.17749	40.92389	-91.39357
64405	766	-815	-195	-1.660179	-6.2092	-0.8895658	0	11.23	4004	0	0	5	5	0.4188029	1.94699	3	10	0.03	2000	-18.17749	40.92389	-91.39357
64509	-286	1942	-283	-0.8922271	-7.739733	-1.150447	0	11.23	4004	0	0	5	5	0.4188029	1.969032	3	10	0.03	2000	-17.51163	40.92389	-91.39357
64613	-2149	-1348	-1237	-3.630277	-10.12442	-0.6846498	0	11.23	4002	0	0	5	5	0.4188029	2.025463	3	10	0.03	2000	-17.07245	40.92389	-91.39357
64719	-2528	-2252	378	-6.802776	-7.776518	-0.6348539	0	11.23	4003	0	0	5	5	0.4188029	2.047423	3	10	0.03	2000	-20.02396	40.92389	-91.39357
64820	-863	23	1045	-8.473338	-5.289517	-1.012229	0	11.23	4004	0	0	5	5	0.4188029	2.07449	3	10	0.03	2000	-23.44342	40.92389	-91.39357
64944	3425	-470	71	-4.830905	-5.413373	-0.7181683	0	11.23	4004	0	0	5	5	0.4188029	2.076795	3	10	0.03	2000	-26.34943	40.92389	-91.39357
65027	-455	798	1143	-2.432593	-5.039933	-0.4833066	0	11.23	4003	0	0	5	5	0.4188029	2.076183	3	10	0.03	2000	-27.673	40.92389	-91.39357
65132	-928	524	52	-3.388452	-6.945572	-1.064504	0	11.06	4002	0	0	5	5	0.4188029	2.064189	3	10	0.03	2000	-27.09976	40.92389	-91.39357
65258	719	-2654	-158	-1.42334	-4.038568	-1.257147	0	11.06	4004	0	0	5	5	0.4188029	2.048454	3	10	0.03	2000	-23.47678	40.92389	-91.39357
65376	230	-1080	296	-2.087758	-2.496404	-0.679776	0	11.06	4003	0	0	5	5	0.4188029	2.018153	3	10	0.03	2000	-23.81741	40.9239	-91.39358
65445	-936	165	1658	-2.267183	-2.159724	-0.7470866	0	11.06	4004	0	0	5	5	0.4188029	2.005685	3	10	0.03	2000	-24.10922	40.9239	-91.39358
65546	-367	567	2343	-1.679288	-4.638222	-1.218114	0	11.06	4003	0	0	5	5	0.4188029	1.967285	3	10	0.03	2000	-26.18597	40.9239	-91.39358
65683	-2632	3093	-346	-4.252074	-8.705518	-0.861226	0	11.06	4002	0	0	5	5	0.4188029	1.93994	3	10	0.03	2000	-29.21872	40.92389	-91.39358
65732	-2536	2346	593	-5.512281	-9.640705	-0.7905571	0	11.06	4004	0	0	5	5	0.4188029	1.926286	3	10	0.03	2000	-24.68613	40.92389	-91.39358
65854	-747	2253	82	-7.9956	-12.58624	-0.2737245	0	11.06	4002	0	0	5	5	0.4188029	1.859839	3	10	0.03	2000	-26.72601	40.92389	-91.39359
65995	2306	-1225	-723	-6.674108	-15.48244	-0.5599354	0	11.06	4002	0	0	5	5	0.4188029	1.811892	3	10	0.03	2000	-25.05814	40.92389	-91.39359
66049	371	-2421	820	-4.573831	-12.75528	-0.5912721	0	11.23	4003	0	0	5	5	0.4188029	1.763844	3	10	0.03	2000	-26.40353	40.92389	-91.39359
66141	802	1679	1706	-3.676618	-10.76277	-1.135504	0	11.23	4003	0	0	5	5	0.4188029	1.733421	3	10	0.03	2000	-25.99414	40.92389	-91.39359
66249	-134	776	-805	-2.649102	-11.7458	-1.377868	0	11.23	4003	0	0	5	5	0.4188029	1.670436	3	10	0.03	2000	-27.53912	40.92389	-91.39359
66426	-32	-1657	1187	-2.269707	-6.521004	-0.7973434	0	11.23	4004	0	0	5	5	0.4188029	1.625489	3	10	0.03	2000	-22.47476	40.92389	-91.3936
66507	578	187	203	-2.299352	-5.664852	-0.7274787	0	11.23	4003	0	0	5	5	0.4188029	1.571741	3	10	0.03	2000	-20.03333	40.92389	-91.3936
66651	249	-2331	-282	-2.412083	-2.273028	-0.2583422	0	11.23	4004	0	0	5	5	0.4188029	1.491359	3	10	0.03	2000	-17.83353	40.92389	-91.3936
66840	306	1056	-281	-3.643807	-3.171165	0.2590795	0	11.23	4004	0	0	5	5	0.4188029	1.412805	3	10	0.03	2000	-18.12314	40.92389	-91.39361
66940	234	1842	103	-5.165758	-4.34754	0.4553326	0	11.68	4002	0	0	5	5	0.4188029	1.387468	3	10	0.03	2000	-15.22192	40.92389	-91.39361
67054	-1943	29369	-11003	-15.29171	-30.2517	10.23533	0	11.68	4002	0	0	5	5	0.4188029	1.337642	3	10	0.03	2000	-8.30835	40.92389	-91.39362
67139	870	24565	-6557	-19.04487	-34.69313	19.5148	0	11.68	4004	0	0	5	5	0.4188029	1.311174	3	10	0.03	2000	-28.28784	40.92388	-91.39362
67247	5881	-19424	5418	-3.020776	-31.80072	9.620339	0	11.68	4003	0	0	5	5	0.4188029	1.26002	3	10	0.03	2000	-28.21396	40.92388	-91.39362
67392	-913	-2896	-154	6.451555	-23.35884	-7.943831	0	11.68	4003	0	0	5	5	0.4188029	1.183616	3	10	0.03	2000	3.496356	40.92388	-91.39362
67424	-4243	-10493	-1465	5.749481	-18.80637	-7.63483	0	11.68	4003	0	0	5	5	0.4188029	1.16988	3	10	0.03	2000	6.771554	40.92388	-91.39362
67527	127	-7348	-7382	2.785601	-11.77265	-1.819241	0	11.68	4002	0	0	5	5	0.4188029	1.128693	3	10	0.03	2000	2.547266	40.92388	-91.39362
67630	2314	-1693	1883	4.741466	-3.534061	1.732709	0	11.68	4004	0	0	5	5	0.4188029	1.067872	3	10	0.03	2000	-0.02496338	40.92388	-91.39362
67731	-6165	7961	2795	-1.830015	-16.81464	-7.27997	0	11.68	4003	0	0	5	5	0.4188029	1.040316	3	10	0.03	2000	5.020155	40.92388	-91.39363
67835	-7213	5527	1651	-8.638368	-24.99925	-9.437097	0	11.68	4004	0	0	5	5	0.4188029	0.9900901	3	10	0.03	2000	7.379261	40.92388	-91.39363
67950	-12958	2169	2219	-23.53948	-31.55334	-12.79594	0	11.8	4004	0	0	5	5	0.4188029	0.9618306	3	10	0.03	2000	5.229913	40.92388	-91.39363
68100	-10908	-6956	3220	-55.41176	-29.54387	-19.49125	0	11.8	4004	0	0	5	5	0.4188029	0.9334649	3	10	0.03	2000	5.197934	40.92388	-91.39363
68208	-1563	-8140	7776	-53.77063	-23.29868	-29.62225	0	11.8	4002	0	0	5	5	0.4188029	0.9276075	3	10	0.03	2000	11.38797	40.92388	-91.39363
68290	-1320	-3011	8789	-45.1156	-23.92432	-46.74358	0	11.8	4002	0	0	5	5	0.4188029	0.9302223	3	10	0.03	2000	29.7783	40.92388	-91.39363
68365	-2154	-1351	8989	-39.07809	-27.76099	-56.69216	0	11.8	4002	0	0	5	5	0.4188029	0.9298836	3	10	0.03	2000	37.59158	40.92388	-91.39363
68425	-2316	-611	6904	-35.07726	-29.58921	-61.43471	0	11.8	4003	0	0	5	5	0.4188029	0.9331735	3	10	0.03	2000	45.5996	40.92388	-91.39363
68561	-597	-331	5422	-24.82041	-36.96685	-78.76868	0	11.8	4003	0	0	5	5	0.4188029	0.9305636	3	10	0.03	2000	59.51209	40.92388	-91.39363
68648	-2253	-124	4885	-21.3041	-38.58783	-84.05887	0	11.8	4003	0	0	5	5	0.4188029	0.928412	3	10	0.03	2000	67.28428	40.92389	-91.39363
68772	310	2819	2834	-17.07124	-45.60521	-93.68555	0	11.85	4004	0	0	5	5	0.4188029	0.9002714	3	10	0.03	2000	82.65884	40.92389	-91.39363
68845	1965	1047	-354	-12.40064	-48.08865	-95.05424	0	11.85	4004	0	0	5	5	0.4188029	0.8925613	3	10	0.03	2000	86.82122	40.92389	-91.39363
68926	1514	725	-950	-8.831956	-50.17781	-93.06245	0	11.85	4004	0	0	5	5	0.4188029	0.8818094	3	10	0.03	2000	87.77963	40.92389	-91.39363
69068	-37	-2360	-1555	-7.504726	-48.80511	-90.71233	0	11.85	4004	0	0	5	5	0.4188029	0.847394	3	10	0.03	2000	89.12847	40.92389	-91.39363
69140	3381	-113	-2449	-8.08194	-46.20166	-87.51453	0	11.85	4002	0	0	5	5	0.4188029	0.8320535	3	10	0.03	2000	85.42442	40.92389	-91.39363
69229	4635	526	-2207	-6.019793	-46.09303	-84.64446	0	11.85	4004	0	0	5	5	0.4188029	0.8241472	3	10	0.03	2000	80.29516	40.92389	-91.39363
69351	914	-2766	1230	-2.108504	-44.03105	-84.11694	0	11.85	4003	0	0	5	5	0.4188029	0.8261268	3	10	0.03	2000	77.8631	40.92389	-91.39363
69463	-762	-831	56	0.3429964	-36.55972	-87.70469	0	11.85	4004	0	0	5	5	0.4188029	0.834783	1	10	0.03	2000	81.8712	40.92389	-91.39363
69588	-4147	-808	-3553	-4.623963	-34.23819	-84.31986	0	11.85	4003	0	0	5	5	0.4188029	0.8266551	1	10	0.03	2000	80.34396	40.92389	-91.39363
69667	-5512	2157	-9923	-18.93164	-33.92912	-74.70573	0	11.85	4003	0	0	5	5	0.4188029	0.8219259	1	10	0.03	2000	67.57138	40.92389	-91.39363
69754	-1440	-327	-18287	-29.46731	-28.52665	-58.71564	0	11.8	4002	0	0	5	5	0.4188029	0.8228118	1	10	0.03	2000	49.88965	40.92389	-91.39363
69994	7746	-3891	-22672	-3.776685	6.503501	26.76838	0	11.8	4004	0	0	5	5	0.4188029	0.8771625	1	10	0.03	2000	-7.421021	40.92389	-91.39363
70108	-1278	8279	6192	-4.53199	1.918291	46.97335	0	11.8	4003	0	0	5	5	0.4188029	0.8968407	1	10	0.03	2000	-44.13635	40.9239	-91.39363
70207	831	1957	1632	-3.723181	-3.210138	43.24691	0	11.8	4002	0	0	5	5	0.4188029	0.8998318	1	10	0.03	2000	-32.22037	40.9239	-91.39363
70232	-1056	-703	131	-3.905457	-2.745776	42.82465	0	11.8	4004	0	0	5	5	0.4188029	0.8995478	1	10	0.03	2000	-25.55167	40.9239	-91.39363
70331	-2030	-5684	252	-6.753655	5.669833	42.95415	0	11.8	4003	0	0	5	5	0.4188029	0.899641	1	10	0.03	2000	-23.85193	40.9239	-91.39363
70462	-1910	977	1839	-10.43753	10.97434	39.25646	0	11.8	4003	0	0	5	5	0.4188029	0.8852159	1	10	0.03	2000	-24.90662	40.9239	-91.39363
70543	1111	-1987	-256	-10.65665	10.94853	38.91732	0	11.8	4004	0	0	5	5	0.4188029	0.8856608	1	10	0.03	2000	-23.53876	40.9239	-91.39363
70687	48	-519	926	-9.115029	15.935	38.91229	0	11.91	4002	0	0	5	5	0.4188029	0.8907348	1	10	0.03	2000	-25.07904	40.9239	-91.39363
70780	-3158	2248	-2815	-11.00177	14.72078	40.39364	0	11.91	4004	0	0	5	5	0.4188029	0.8930495	1	10	0.03	2000	-25.79739	40.9239	-91.39363
70837	-3645	1982	-3429	-12.54783	13.62484	42.19868	0	11.91	4002	0	0	5	5	0.4188029	0.8988196	1	10	0.03	2000	-25.79739	40.92391	-91.39362
71033	768	2445	183	-21.71326	9.460573	51.95531	0	11.91	4004	0	0	5	5	0.4188029	0.92673	1	10	0.03	2000	-38.36743	40.92391	-91.39362
71081	241	1677	285	-21.29329	8.216329	51.43184	0	11.91	4004	0	0	5	5	0.4188029	0.9295934	1	10	0.03	2000	-37.04932	40.92391	-91.39362
71163	2864	-2061	-1651	-20.1663	8.293701	52.44578	0	11.91	4004	0	0	5	5	0.4188029	0.9436216	1	10	0.03	2000	-33.91006	40.92391	-91.39362
71234	-1381	-3419	7750	-19.08887	10.14818	52.97987	0	11.91	4004	0	0	5	5	0.4188029	0.9462981	1	10	0.03	2000	-34.52975	40.92391	-91.39362
71382	3864	5772	7494	-20.49558	-0.4453993	28.77461	0	11.91	4004	0	0	5	5	0.4188029	0.9580416	1	10	0.03	2000	-23.42941	40.92392	-91.39362
71431	5463	2404	3811	-15.59187	-6.179086	22.13807	0	11.91	4002	0	0	5	5	0.4188029	0.9589164	1	10	0.03	2000	-15.42355	40.92392	-91.39362
71627	-1624	623	-3220	-8.792987	-10.28793	24.64612	0	11.85	4004	0	0	5	5	0.4188029	0.9478271	1	10	0.03	2000	-8.17041	40.92392	-91.39362
71743	-2251	-9255	-3806	-15.70955	-0.3032189	32.69639	0	11.85	4003	0	0	5	5	0.4188029	0.94296	1	10	0.03	2000	-14.31223	40.92392	-91.39362
71871	-2649	-139	-66	-20.90277	11.52737	32.9236	0	11.85	4004	0	0	5	5	0.4188029	0.9411532	1	10	0.03	2000	-17.69757	40.92392	-91.39362
71940	-2347	532	-4832	-23.67653	13.04296	37.10778	0	11.85	4003	0	0	5	5	0.4188029	0.9454384	1	10	0.03	2000	-19.88336	40.92392	-91.39362
72022	-3339	3199	-3807	-25.19774	13.9003	42.2675	0	11.85	4004	0	0	5	5	0.4188029	0.9518399	1	10	0.03	2000	-25.66922	40.92392	-91.39362
72165	-1363	903	4332	-29.77147	7.646844	40.15189	0	11.85	4003	0	0	5	5	0.4188029	0.9564007	1	10	0.03	2000	-27.59448	40.92392	-91.39362
72317	581	-843	4054	-30.2899	-0.8501886	27.82527	0	11.85	4003	0	0	5	5	0.4188029	0.9762469	1	10	0.03	2000	-20.41843	40.92392	-91.39362
72362	233	-337	3050	-29.90644	-1.203	25.997	0	11.85	4004	0	0	5	5	0.4188029	0.9785177	1	10	0.03	2000	-14.83261	40.92392	-91.39362
72515	1065	685	4297	-29.29705	-5.961762	18.38535	0	11.91	4002	0	0	5	5	0.4188029	0.9677922	1	10	0.03	2000	-11.2226	40.92393	-91.39362
72574	1951	3311	6135	-26.89031	-13.21767	12.15314	0	11.91	4003	0	0	5	5	0.4188029	0.9529061	1	10	0.03	2000	-8.493744	40.92393	-91.39362
72643	4514	1131	4032	-21.06969	-19.22743	5.969312	0	11.91	4003	0	0	5	5	0.4188029	0.9418273	1	10	0.03	2000	-8.314178	40.92393	-91.39362
72728	3426	2357	304	-15.48393	-22.84916	4.738399	0	11.91	4002	0	0	5	5	0.4188029	0.9254886	1	10	0.03	2000	-5.621338	40.92393	-91.39362
72914	-2837	488	246	-18.59155	-26.25352	4.252953	0	11.91	4004	0	0	5	5	0.4188029	0.845576	1	10	0.03	2000	-5.753632	40.92393	-91.39362
72977	181	760	1995	-19.56407	-27.5249	2.233748	0	11.91	4003	0	0	5	5	0.4188029	0.8083181	1	10	0.03	2000	-7.278473	40.92393	-91.39362
73050	2880	3311	797	-16.33983	-30.36303	1.017157	0	11.91	4003	0	0	5	5	0.4188029	0.7679722	1	10	0.03	2000	-6.224274	40.92393	-91.39362
73121	4129	4552	285	-12.5848	-35.1527	0.7490361	0	11.91	4004	0	0	5	5	0.4188029	0.7120387	1	10	0.03	2000	-6.660736	40.92393	-91.39362
73225	1360	1955	882	-5.414944	-37.65604	-1.555225	0	11.91	4004	0	0	5	5	0.4188029	0.6573777	1	10	0.03	2000	-4.90625	40.92393	-91.39362
73324	457	-179	550	1.391607	-43.54784	-2.00179	0	11.91	4003	0	0	5	5	0.4188029	0.6263408	1	10	0.03	2000	-2.427795	40.92393	-91.39362
73535	-210	-6856	-339	0.4905705	-32.8334	-1.641495	0	11.91	4002	0	0	5	5	0.4188029	0.5410362	1	10	0.03	2000	-2.883606	40.92393	-91.39362
73552	-210	-6856	-339	0.4905705	-32.8334	-1.641495	0	11.91	4002	0	0	5	5	0.4188029	0.5229343	1	10	0.03	2000	-2.883606	40.92393	-91.39362
73673	151	-9514	-209	0.1284205	-14.05574	-1.289637	0	11.91	4003	0	0	5	5	0.4188029	0.4840429	1	10	0.03	2000	-2.484863	40.92393	-91.39362
73789	87	-99	535	-0.4133289	-4.472126	-1.329334	0	11.91	4002	0	0	5	5	0.4188029	0.451176	1	10	0.03	2000	-1.613983	40.92393	-91.39362
73834	225	693	-43	-0.3619116	-4.114133	-1.41242	0	11.91	4002	0	0	5	5	0.4188029	0.42945	1	10	0.03	2000	-1.433167	40.92393	-91.39362
73986	39	226	-103	-0.8115776	-3.186867	-1.4066	0	11.91	4003	0	0	5	5	0.4188029	0.4050826	1	10	0.03	2000	-1.076599	40.92393	-91.39362
74103	-77	-192	34	-0.8497748	-2.780039	-1.429525	0	11.91	4003	0	0	5	5	0.4188029	0.3815823	1	10	0.03	2000	-0.5879517	40.92393	-91.39362
74166	-78	-17	8	-0.906456	-2.493479	-1.439123	0	11.91	4003	0	0	5	5	0.4188029	0.3738855	1	10	0.03	2000	-0.6691284	40.92393	-91.39362
74228	-91	-10	12	-0.9738476	-2.16873	-1.456976	0	11.91	4004	0	0	5	5	0.4188029	0.3721342	1	10	0.03	2000	-0.7904663	40.92393	-91.39362
74331	-86	17	9	-1.014994	-1.963335	-1.466819	0	11.97	4004	0	0	5	5	0.4188029	0.3599176	1	10	0.03	2000	-0.4492493	40.92393	-91.39362
74431	-94	0	16	-1.092539	-1.62113	-1.489074	0	11.97	4002	0	0	5	5	0.4188029	0.3487336	1	10	0.03	2000	-0.1135559	40.92393	-91.39362
74571	-87	4	13	-1.143924	-1.324526	-1.509617	0	11.97	4004	0	0	5	5	0.4188029	0.340325	1	10	0.03	2000	-0.2504578	40.92393	-91.39362
74682	-92	0	10	-1.191636	-1.065425	-1.532974	0	11.97	4003	0	0	5	5	0.4188029	0.338483	1	10	0.03	2000	0.103337	40.92393	-91.39362
74735	-81	2	16	-1.200091	-1.01106	-1.538843	0	11.97	4004	0	0	5	5	0.4188029	0.3403745	1	10	0.03	2000	0.1382817	40.92393	-91.39362
74862	-79	10	15	-1.226477	-0.8702314	-1.557122	0	11.97	4004	0	0	5	5	0.4188029	0.3498992	1	10	0.03	2000	-0.08044434	40.92393	-91.39362
74965	-88	4	9	-1.265195	-0.7143058	-1.577665	0	11.97	4002	0	0	5	5	0.4188029	0.3617122	1	10	0.03	2000	-0.01309204	40.92393	-91.39362
75041	-79	6	7	-1.27316	-0.6405532	-1.587877	0	11.97	4002	0	0	5	5	0.4188029	0.3675002	1	10	0.03	2000	0.2649813	40.92393	-91.39362
75131	-76	1	8	-1.293527	-0.5446479	-1.603652	0	11.97	4003	0	0	5	5	0.4188029	0.3687713	1	10	0.03	2000	0.2789438	40.92393	-91.39362
75279	-82	3	10	-1.318167	-0.4299133	-1.626641	0	11.97	4004	0	0	5	5	0.4188029	0.3782714	1	10	0.03	2000	0.08712333	40.92393	-91.39362
75429	-81	1	9	-1.324054	-0.3159559	-1.655253	0	11.97	4003	0	0	5	5	0.4188029	0.3828991	1	10	0.03	2000	0.1196161	40.92393	-91.39362
75567	-81	7	7	-1.347291	-0.2499837	-1.67922	0	11.97	4004	0	0	5	5	0.4188029	0.3803958	1	10	0.03	2000	0.1489371	40.92393	-91.39362
75640	-83	1	8	-1.3506	-0.2010302	-1.692914	0	11.97	4003	0	0	5	5	0.4188029	0.3825077	1	10	0.03	2000	0.1548674	40.92393	-91.39362
75768	-78	3	11	-1.352587	-0.1609727	-1.709482	0	11.97	4003	0	0	5	5	0.4188029	0.3873834	1	10	0.03	2000	0.4011525	40.92393	-91.39363
75900	-81	3	12	-1.364717	-0.120527	-1.726357	0	11.97	4002	0	0	5	5	0.4188029	0.3896828	1	10	0.03	2000	0.1724834	40.92393	-91.39363
75960	-82	4	6	-1.362598	-0.08959997	-1.742744	0	11.97	4002	0	0	5	5	0.4188029	0.3870468	1	10	0.03	2000	0.1874497	40.92393	-91.39363
76098	-85	8	10	-1.365194	-0.06146827	-1.757418	0	11.97	4003	0	0	5	5	0.4188029	0.3865563	1	10	0.03	2000	0.4228322	40.92393	-91.39363
76130	-81	3	4	-1.366471	-0.0461907	-1.773009	0	11.97	4003	0	0	5	5	0.4188029	0.384369	1	10	0.03	2000	0.4181	40.92393	-91.39363
76285	-82	8	14	-1.366683	-0.02268078	-1.796547	0	11.97	4003	0	0	5	5	0.4188029	0.379628	1	10	0.03	2000	0.4222437	40.92393	-91.39363
76366	-81	2	9	-1.371644	-0.007290113	-1.80804	0	11.97	4002	0	0	5	5	0.4188029	0.3702984	1	10	0.03	2000	0.4304794	40.92393	-91.39363
76422	-83	4	9	-1.378668	0.008077653	-1.821981	0	11.97	4008	0	0	5	5	0.4188029	0.3663645	1	10	0.03	2000	-0.02877808	40.92393	-91.39363
76518	-84	2	6	-1.376213	0.02063082	-1.83048	0	11.97	4002	0	0	5	5	0.4188029	0.3461959	1	10	0.03	2000	0.2017934	40.92393	-91.39363
76620	-72	4	8	-1.377139	0.03282986	-1.846008	0	11.97	4003	0	0	5	5	0.4188029	0.338386	1	10	0.03	2000	0.2010283	40.92393	-91.39363
76722	-73	2	5	-1.379006	0.04302993	-1.867225	0	11.97	4005	0	0	5	5	0.4188029	0.3248618	1	10	0.03	2000	0.4467367	40.92393	-91.39363
76887	-76	5	7	-1.373001	0.05522477	-1.887217	0	11.97	4003	0	0	5	5	0.4188029	0.3086222	1	10	0.03	2000	0.1919765	40.92393	-91.39363
76925	-78	0	9	-1.373771	0.05581584	-1.892536	0	11.97	4003	0	0	5	5	0.4188029	0.3038023	1	10	0.03	2000	0.1919765	40.92393	-91.39363
77025	-73	5	7	-1.364894	0.05964682	-1.909595	0	11.91	4002	0	0	5	5	0.4188029	0.3016941	1	10	0.03	2000	0.1777103	40.92393	-91.39363
77124	-75	7	7	-1.364081	0.06735253	-1.917727	0	11.91	4003	0	0	5	5	0.4188029	0.3094864	1	10	0.03	2000	-0.05471802	40.92393	-91.39363
77225	-78	11	1	-1.358582	0.07123029	-1.929527	0	11.91	4003	0	0	5	5	0.4188029	0.3157777	1	10	0.03	2000	0.4202223	40.92393	-91.39363
77328	-83	1	8	-1.351454	0.0783217	-1.949641	0	11.91	4004	0	0	5	5	0.4188029	0.3163685	1	10	0.03	2000	0.3952535	40.92393	-91.39363
77431	-83	2	6	-1.353606	0.08664069	-1.963152	0	11.91	4003	0	0	5	5	0.4188029	0.3101307	1	10	0.03	2000	0.1650918	40.92393	-91.39363
77534	-76	2	12	-1.356272	0.08849316	-1.976847	0	11.91	4003	0	0	5	5	0.4188029	0.3039171	1	10	0.03	2000	0.4013644	40.92393	-91.39363
77641	-81	0	7	-1.359987	0.09377432	-1.985834	0	11.91	4004	0	0	5	5	0.4188029	0.3037226	1	10	0.03	2000	0.1719926	40.92393	-91.39363
77739	-71	1	7	-1.358258	0.09845487	-2.001791	0	11.91	4003	0	0	5	5	0.4188029	0.302236	1	10	0.03	2000	0.416001	40.92393	-91.39363
77842	-77	5	7	-1.360044	0.1008487	-2.011207	0	11.91	4003	0	0	5	5	0.4188029	0.2988467	1	10	0.03	2000	0.1633613	40.92393	-91.39363
77946	-71	0	9	-1.353737	0.1069141	-2.028938	0	12.02	4002	0	0	5	5	0.4188029	0.2920451	1	10	0.03	2000	0.166893	40.92393	-91.39363
78050	-74	4	11	-1.354551	0.1077009	-2.042511	0	12.02	4003	0	0	5	5	0.4188029	0.2825552	1	10	0.03	2000	0.4090176	40.92393	-91.39363
78154	-76	7	3	-1.349987	0.1105618	-2.046363	0	12.02	4003	0	0	5	5	0.4188029	0.2712498	1	10	0.03	2000	0.3945565	40.92393	-91.39363
78258	-79	3	7	-1.338593	0.1206414	-2.065683	0	12.02	4003	0	0	5	5	0.4188029	0.2659216	1	10	0.03	2000	0.1331394	40.92393	-91.39363
78361	-80	4	6	-1.334207	0.1262421	-2.079195	0	12.02	4004	0	0	5	5	0.4188029	0.2649693	1	10	0.03	2000	0.1307894	40.92393	-91.39363
78464	-75	6	7	-1.337069	0.1301819	-2.087693	0	12.02	4004	0	0	5	5	0.4188029	0.261675	1	10	0.03	2000	0.1241084	40.92393	-91.39363
78564	-83	3	8	-1.33959	0.1249037	-2.10414	0	12.02	4003	0	0	5	5	0.4188029	0.258056	1	10	0.03	2000	0.3662963	40.92393	-91.39363
78668	-68	-1	10	-1.336468	0.1298812	-2.117653	0	12.02	4002	0	0	5	5	0.4188029	0.2527818	1	10	0.03	2000	-0.109375	40.92393	-91.39363
78772	-72	1	6	-1.331965	0.1287744	-2.13355	0	12.02	4004	0	0	5	5	0.4188029	0.2506555	1	10	0.03	2000	0.3611394	40.92393	-91.39363
78869	-67	0	10	-1.325469	0.1296318	-2.147	0	11.97	4003	0	0	5	5	0.4188029	0.2507698	1	10	0.03	2000	0.3532027	40.92393	-91.39363
78981	-77	0	7	-1.318339	0.129626	-2.163507	0	11.97	4002	0	0	5	5	0.4188029	0.2566161	1	10	0.03	2000	0.1089237	40.92393	-91.39363
79096	-79	5	8	-1.322743	0.1313552	-2.17604	0	11.97	4003	0	0	5	5	0.4188029	0.2610056	1	10	0.03	2000	-0.1281738	40.92393	-91.39363
79165	-72	5	15	-1.31792	0.1294759	-2.184722	0	11.97	4004	0	0	5	5	0.4188029	0.2598066	3	10	0.03	2000	0.1017379	40.92393	-91.39363
79268	-79	1	6	-1.316142	0.1334604	-2.196094	0	11.97	4004	0	0	5	5	0.4188029	0.2562585	3	10	0.03	2000	0.09329695	40.92393	-91.39363
79372	-73	2	5	-1.314283	0.1370676	-2.208139	0	11.97	4003	0	0	5	5	0.3158984	0.2540821	5	10	0.03	2000	0.3341697	40.92393	-91.39363
79475	-77	5	10	-1.305868	0.1286854	-2.220856	0	11.97	4004	0	0	5	5	0.2628509	0.2498071	5	10	0.03	2000	-0.1577454	40.92393	-91.39363
79627	-74	10	8	-1.308398	0.1233855	-2.243171	0	11.97	4002	0	0	5	5	0.1717854	0.2333022	5	10	0.03	2000	0.3145915	40.92393	-91.39363
79685	-74	1	6	-1.309778	0.1229457	-2.247941	0	11.97	4004	0	0	5	5	0.1464452	0.2255	5	10	0.03	2000	0.08142894	40.92393	-91.39363
79823	-74	-2	6	-1.300979	0.1266878	-2.268851	0	11.97	4004	0	0	5	5	0.1098517	0.2185868	5	10	0.03	2000	-0.1564941	40.92393	-91.39363
79937	-74	2	6	-1.295141	0.1220722	-2.28114	0	11.97	4004	0	0	5	5	0.08998702	0.2159693	5	10	0.03	2000	0.2968588	40.92393	-91.39363
79976	-69	0	4	-1.294852	0.1183538	-2.286155	0	11.97	4004	0	0	5	5	0.07557518	0.2181783	5	10	0.03	2000	0.2968588	40.92393	-91.39363
80168	-71	0	5	-1.294489	0.1247479	-2.312139	0	11.97	4003	0	0	5	5	0.05934805	0.2163153	5	10	0.03	2000	0.05837737	40.92393	-91.39363
80203	-71	2	6	-1.292286	0.1241512	-2.316786	0	11.97	4004	0	0	5	5	0.05728914	0.2145324	5	10	0.03	2000	0.05837737	40.92393	-91.39363
80292	-73	6	5	-1.290583	0.1199934	-2.327056	0	11.97	4003	0	0	5	5	0.05259332	0.2081144	5	10	0.03	2000	0.05773055	40.92393	-91.39363
80381	-69	4	12	-1.292563	0.1128931	-2.346131	0	11.97	4003	0	0	5	5	0.04898313	0.2066869	5	10	0.03	2000	0.3030169	40.92393	-91.39363
80484	-77	3	13	-1.29214	0.1148801	-2.354202	0	11.97	4003	0	0	5	5	0.04667716	0.2063978	5	10	0.03	2000	0.06125099	40.92393	-91.39363
80622	-74	4	3	-1.290812	0.1165664	-2.375906	0	11.97	4003	0	0	5	5	0.04412561	0.2091348	5	10	0.03	2000	0.292862	40.92393	-91.39363
80720	-74	3	9	-1.290123	0.1155437	-2.384098	0	11.97	4004	0	0	5	5	0.04286982	0.2067749	5	10	0.03	2000	0.05049353	40.92393	-91.39363
80767	-81	2	6	-1.289623	0.1198188	-2.395898	0	12.02	4002	0	0	5	5	0.04263024	0.2054574	5	10	0.03	2000	-0.4280701	40.92393	-91.39363
80991	-69	2	7	-1.283817	0.1173964	-2.423657	0	12.02	4004	0	0	5	5	0.04150532	0.2066614	5	10	0.03	2000	0.04055291	40.92393	-91.39363
81092	-68	12	12	-1.273645	0.1190473	-2.441816	0	12.02	4002	0	0	5	5	0.04098352	0.2050106	5	10	0.03	2000	0.03289668	40.92393	-91.39363
81176	-79	0	11	-1.27125	0.1229594	-2.449887	0	12.02	4003	0	0	5	5	0.04070653	0.2003176	5	10	0.03	2000	0.02100332	40.92393	-91.39363
81312	-74	7	7	-1.275843	0.1196474	-2.466212	0	12.02	4004	0	0	5	5	0.0406113	0.1960076	5	10	0.03	2000	0.2612809	40.92393	-91.39363
81413	-72	5	11	-1.272724	0.1177419	-2.481619	0	12.02	4002	0	0	5	5	0.04056409	0.2032206	5	10	0.03	2000	0.01805487	40.92393	-91.39363
81440	-70	5	6	-1.263268	0.1153575	-2.491035	0	12.02	4002	0	0	5	5	0.04055508	0.2065887	5	10	0.03	2000	0.02007208	40.92393	-91.39363
81558	-72	1	7	-1.254987	0.1106091	-2.501123	0	12.02	4003	0	0	5	5	0.0405331	0.2125356	5	10	0.03	2000	-0.003112793	40.92393	-91.39363
81671	-72	2	7	-1.256898	0.1182018	-2.516773	0	11.97	4003	0	0	5	5	0.04051708	0.214906	5	10	0.03	2000	-0.006225586	40.92393	-91.39363
81738	-63	7	6	-1.250859	0.1186344	-2.525578	0	11.97	4004	0	0	5	5	0.04050541	0.2139896	5	10	0.03	2000	0.2273258	40.92393	-91.39363
81910	-65	-2	7	-1.253054	0.1129985	-2.539518	0	11.97	4002	0	0	5	5	0.0404946	0.2172539	5	10	0.03	2000	-0.01257324	40.92393	-91.39363
81984	-69	0	2	-1.247747	0.1187518	-2.553031	0	11.97	4002	0	0	5	5	0.04048902	0.2163607	5	10	0.03	2000	-0.2459412	40.92393	-91.39363
82085	-77	4	5	-1.250314	0.1167192	-2.560858	0	11.97	4004	0	0	5	5	0.04048495	0.2171573	5	10	0.03	2000	0.2248942	40.92393	-91.39363
82166	-68	0	10	-1.239685	0.1199042	-2.576998	0	11.97	4002	0	0	5	5	0.04048385	0.2167013	5	10	0.03	2000	-0.0335083	40.92393	-91.39363
82228	-62	6	4	-1.236293	0.1215792	-2.580912	0	11.97	4003	0	0	5	5	0.0385801	0.2212718	5	10	0.03	2000	-0.0335083	40.92393	-91.39363
82374	-70	-4	12	-1.235535	0.1212137	-2.601025	0	11.97	4004	0	0	5	5	0.03923141	0.2270247	5	10	0.03	2000	0.2016897	40.92393	-91.39363
82415	-63	1	1	-1.231953	0.1226551	-2.604999	0	11.97	4004	0	0	5	5	0.0394675	0.2303874	5	10	0.03	2000	0.2016897	40.92393	-91.39363
82521	-73	0	4	-1.233471	0.1257854	-2.615577	0	12.02	4003	0	0	5	5	0.0392755	0.2320127	5	10	0.03	2000	0.1906782	40.92394	-91.39363
82662	-74	-1	9	-1.231091	0.1240088	-2.635448	0	12.02	4003	0	0	5	5	0.03845286	0.2285808	5	10	0.03	2000	-0.03872681	40.92394	-91.39363
82751	-72	0	9	-1.231159	0.1293868	-2.640829	0	12.02	4003	0	0	5	5	0.0380004	0.2237349	5	10	0.03	2000	-0.2746887	40.92394	-91.39363
82822	-66	3	7	-1.224493	0.1248135	-2.648166	0	12.02	4004	0	0	5	5	0.03824776	0.2231349	5	10	0.03	2000	-0.05154419	40.92394	-91.39363
82926	-67	6	5	-1.22154	0.1202052	-2.663023	0	12.02	4004	0	0	5	5	0.03885107	0.2182993	5	10	0.03	2000	-0.06515503	40.92394	-91.39363
83024	-76	3	6	-1.220671	0.1173833	-2.670726	0	12.02	4003	0	0	5	5	0.03940919	0.2173138	5	10	0.03	2000	-0.06134033	40.92394	-91.39363
83128	-65	4	9	-1.214531	0.1190501	-2.683199	0	12.02	4002	0	0	5	5	0.03961151	0.2189254	5	10	0.03	2000	-0.07907104	40.92394	-91.39363
83231	-63	5	4	-1.212647	0.1123841	-2.690291	0	12.02	4003	0	0	5	5	0.0393504	0.2234414	5	10	0.03	2000	-0.0730896	40.92394	-91.39363
83351	-65	4	2	-1.213474	0.1077076	-2.69616	0	12.02	4002	0	0	5	5	0.03965489	0.2318515	5	10	0.03	2000	0.1558191	40.92394	-91.39363
83436	-63	0	9	-1.21289	0.1064376	-2.709367	0	12.08	4003	0	0	5	5	0.03981052	0.2379875	5	10	0.03	2000	-0.3152161	40.92394	-91.39363
83540	-65	0	6	-1.209261	0.1073608	-2.717315	0	12.08	4004	0	0	5	5	0.03972197	0.2480716	5	10	0.03	2000	0.150431	40.92394	-91.39363
83644	-70	-1	8	-1.212644	0.1085539	-2.731928	0	12.08	4002	0	0	5	5	0.03992577	0.2551343	5	10	0.03	2000	-0.07861328	40.92393	-91.39363
83748	-66	1	7	-1.212694	0.115007	-2.742016	0	12.08	4003	0	0	5	5	0.03961815	0.260268	5	10	0.03	2000	-0.07498169	40.92393	-91.39363
83852	-64	1	7	-1.207167	0.1156223	-2.748129	0	12.08	4003	0	0	5	5	0.03947827	0.2689157	5	10	0.03	2000	-0.08126831	40.92393	-91.39363
83956	-67	10	8	-1.204331	0.1160494	-2.757118	0	12.08	4002	0	0	5	5	0.03974811	0.2713279	5	10	0.03	2000	0.1457847	40.92393	-91.39363
84060	-70	0	2	-1.203836	0.1225845	-2.768978	0	12.08	4004	0	0	5	5	0.03973903	0.2665485	5	10	0.03	2000	-0.09133911	40.92393	-91.39363
84164	-63	1	7	-1.198368	0.1197113	-2.780777	0	12.08	4004	0	0	5	5	0.03941479	0.2597821	5	10	0.03	2000	-0.1020203	40.92393	-91.39363
84268	-66	2	7	-1.198595	0.1196684	-2.790071	0	12.08	4004	0	0	5	5	0.03956291	0.2602103	5	10	0.03	2000	-0.1014709	40.92393	-91.39363
84371	-69	1	6	-1.198482	0.1226131	-2.802358	0	12.08	4004	0	0	5	5	0.03707268	0.2743443	3	10	0.03	2000	-0.1055298	40.92393	-91.39363
84475	-70	0	1	-1.195345	0.1251121	-2.813424	0	12.02	4002	0	0	5	5	0.03328817	0.2934063	1	10	0.03	2000	-0.108551	40.92393	-91.39363
84579	-62	-2	2	-1.198435	0.1222435	-2.823023	0	12.02	4004	0	0	5	5	0.03191634	0.2978222	1	10	0.03	2000	0.1299224	40.92393	-91.39363
84677	-61	0	4	-1.191997	0.1284356	-2.832743	0	12.02	4002	0	0	5	5	0.0299051	0.3072962	1	10	0.03	2000	-0.1105347	40.92393	-91.39363
84774	-63	11	9	-1.190197	0.1182321	-2.84283	0	12.02	4004	0	0	5	5	0.02917605	0.3115884	1	10	0.03	2000	-0.1197205	40.92393	-91.39363
84877	-64	4	5	-1.19267	0.1167028	-2.855548	0	12.02	4004	0	0	5	5	0.02833377	0.3195624	1	10	0.03	2000	0.1227122	40.92393	-91.39363
84980	-66	6	7	-1.189034	0.1186703	-2.86423	0	12.02	4004	0	0	5	5	0.02755457	0.3171456	1	10	0.03	2000	-0.1159058	40.92393	-91.39363
85081	-63	5	8	-1.19184	0.1197786	-2.875786	0	12.02	4004	0	0	5	5	0.02727212	0.3145394	1	10	0.03	2000	0.1263076	40.92393	-91.39363
85148	-60	3	1	-1.190371	0.1192442	-2.890764	0	12.02	4002	0	0	5	5	0.02694581	0.3146051	1	10	0.03	2000	0.1152373	40.92393	-91.39363
85215	-63	2	4	-1.189013	0.1187712	-2.896634	0	12.02	4002	0	0	5	5	0.02664393	0.3187	1	10	0.03	2000	-0.1175842	40.92393	-91.39363
85312	-58	3	12	-1.186352	0.1187677	-2.912041	0	11.97	4002	0	0	5	5	0.02658634	0.3199505	1	10	0.03	2000	-0.1181946	40.92393	-91.39363
85415	-61	3	5	-1.184749	0.1130247	-2.916382	0	11.97	4004	0	0	5	5	0.02637407	0.3188273	1	10	0.03	2000	-0.1222534	40.92393	-91.39363
85518	-61	2	7	-1.17898	0.119025	-2.929649	0	11.97	4002	0	0	5	5	0.02631592	0.3196658	1	10	0.03	2000	-0.1325378	40.92393	-91.39363
85621	-60	3	9	-1.178527	0.117185	-2.937413	0	11.97	4003	0	0	5	5	0.02623066	0.3126189	1	10	0.03	2000	0.09924266	40.92393	-91.39363
85736	-65	11	3	-1.181929	0.1159748	-2.946216	0	11.97	4004	0	0	5	5	0.02618658	0.3101625	1	10	0.03	2000	-0.1447754	40.92393	-91.39363
85828	-63	2	3	-1.186017	0.1147468	-2.95771	0	11.97	4004	0	0	5	5	0.02615444	0.3082027	1	10	0.03	2000	-0.1177063	40.92393	-91.39363
85926	-62	5	9	-1.192991	0.1100813	-2.963029	0	11.97	4004	0	0	5	5	0.02613102	0.3075077	1	10	0.03	2000	0.1177739	40.92393	-91.39363
86128	-54	0	11	-1.18402	0.1153194	-2.986018	0	11.97	4002	0	0	5	5	0.02610149	0.3122326	1	10	0.03	2000	0.1116655	40.92393	-91.39363
86180	-67	6	14	-1.185923	0.1124959	-2.993356	0	11.97	4004	0	0	5	5	0.02609513	0.3179963	1	10	0.03	2000	-0.1243286	40.92393	-91.39363
86235	-63	6	7	-1.185361	0.114561	-3.001671	0	11.97	4003	0	0	5	5	0.02609242	0.3201524	1	10	0.03	2000	-0.1228943	40.92393	-91.39363
86365	-68	0	0	-1.181984	0.1212986	-3.014388	0	11.97	4002	0	0	5	5	0.0260858	0.3282469	1	10	0.03	2000	-0.124115	40.92393	-91.39363
86543	-64	-1	9	-1.188456	0.1228719	-3.032058	0	11.97	4002	0	0	5	5	0.02607746	0.3402234	1	10	0.03	2000	-0.1267395	40.92393	-91.39363
86649	-61	0	7	-1.184433	0.1280326	-3.047953	0	11.97	4003	0	0	5	5	0.02607421	0.3506365	1	10	0.03	2000	-0.3536072	40.92393	-91.39363
86706	-63	2	6	-1.187544	0.1262611	-3.055474	0	11.97	4004	0	0	5	5	0.02607421	0.3506365	1	10	0.03	2000	-0.1325073	40.92393	-91.39363
86904	-60	5	3	-1.188291	0.128819	-3.07406	0	11.97	4003	0	0	5	5	0.02607067	0.368404	1	10	0.03	2000	0.1156392	40.92393	-91.39363
86971	-66	1	9	-1.188795	0.1214737	-3.083231	0	11.97	4003	0	0	5	5	0.02607016	0.367121	1	10	0.03	2000	-0.3599854	40.92393	-91.39363
87059	-65	-5	5	-1.187145	0.1200216	-3.093563	0	12.02	4004	0	0	5	5	0.02606958	0.3650964	1	10	0.03	2000	-0.1231079	40.92393	-91.39363
87248	-61	0	6	-1.182868	0.1170057	-3.110928	0	12.02	4003	0	0	5	5	0.02606893	0.3687128	1	10	0.03	2000	-0.1320801	40.92393	-91.39363
87370	-59	1	0	-1.171075	0.1154077	-3.122176	0	12.02	4003	0	0	5	5	0.02606855	0.3775531	1	10	0.03	2000	0.08765285	40.92393	-91.39363
87400	-63	3	9	-1.171247	0.1150143	-3.125662	0	12.02	4004	0	0	5	5	0.02606855	0.3775531	1	10	0.03	2000	0.08765285	40.92393	-91.39363
87642	-55	0	6	-1.148083	0.1032589	-3.147489	0	12.02	4004	0	0	5	5	0.02606826	0.3750838	1	10	0.03	2000	-0.1828003	40.92393	-91.39363
87783	-63	0	11	-1.138504	0.1083851	-3.159534	0	12.02	4003	0	0	5	5	0.02606817	0.3765465	1	10	0.03	2000	-0.2016602	40.92393	-91.39363
87873	-55	4	9	-1.135622	0.1132354	-3.170417	0	12.02	4004	0	0	5	5	0.02606811	0.3687314	1	10	0.03	2000	0.03149021	40.92393	-91.39363
88020	-53	0	5	-1.125466	0.1092714	-3.178914	0	12.02	4003	0	0	5	5	0.02606807	0.359516	1	10	0.03	2000	0.01211716	40.92393	-91.39363
88107	-51	3	8	-1.124312	0.1046951	-3.187597	0	12.02	4004	0	0	5	5	0.02606805	0.3508501	1	10	0.03	2000	-0.2256165	40.92393	-91.39363
88232	-45	0	2	-1.119477	0.1016876	-3.193711	0	12.02	4004	0	0	5	5	0.02606804	0.3471538	1	10	0.03	2000	-0.2388611	40.92393	-91.39363
88303	-53	7	5	-1.108147	0.104072	-3.207406	0	12.02	4002	0	0	5	5	0.02606803	0.340261	1	10	0.03	2000	-0.2509155	40.92393	-91.39363
88503	-52	1	7	-1.109745	0.1008221	-3.224831	0	12.02	4010	0	0	5	5	0.02606802	0.332063	1	10	0.03	2000	-0.5012817	40.92393	-91.39363
88655	-58	1	5	-1.10098	0.09623748	-3.241278	0	12.02	4002	0	0	5	5	0.02606801	0.3222522	1	10	0.03	2000	-0.2716064	40.92393	-91.39363
88733	-54	0	6	-1.09757	0.0969218	-3.248064	0	12.02	4003	0	0	5	5	0.02606801	0.3151841	1	10	0.03	2000	-0.2699585	40.92393	-91.39363
88858	-55	5	6	-1.094695	0.09730427	-3.256867	0	12.02	4003	0	0	5	5	0.02606801	0.3163246	1	10	0.03	2000	-0.04602051	40.92393	-91.39363
88942	-59	0	3	-1.090675	0.09070618	-3.268056	0	11.97	4002	0	0	5	5	0.02606801	0.3172948	1	10	0.03	2000	-0.04602051	40.92393	-91.39363
89074	-57	4	3	-1.089095	0.08890597	-3.275087	0	11.97	4003	0	0	5	5	0.02606801	0.3203405	1	10	0.03	2000	-0.2897949	40.92393	-91.39363
89159	-60	0	2	-1.087304	0.08516334	-3.287926	0	11.97	4004	0	0	5	5	0.02606801	0.3189795	1	10	0.03	2000	-0.2928162	40.92393	-91.39363
89208	-53	-3	2	-1.087153	0.09273842	-3.290432	0	11.97	4003	0	0	5	5	0.02606801	0.3129479	1	10	0.03	2000	-0.2874451	40.92393	-91.39363
89305	-56	3	3	-1.081687	0.09588125	-3.301255	0	11.97	4003	0	0	5	5	0.02606801	0.3094713	1	10	0.03	2000	-0.06231689	40.92393	-91.39363
89355	-56	1	0	-1.084273	0.09918157	-3.303334	0	11.97	4004	0	0	5	5	0.02606801	0.3106937	1	10	0.03	2000	-0.2989807	40.92393	-91.39363
89490	-49	7	8	-1.081115	0.1017269	-3.315989	0	11.97	4004	0	0	5	5	0.02606801	0.3121773	1	10	0.03	2000	-0.3035889	40.92393	-91.39363
89553	-55	5	6	-1.082139	0.09953698	-3.318984	0	11.97	4003	0	0	5	5	0.02606801	0.313462	1	10	0.03	2000	-0.3035889	40.92393	-91.39363
89662	-54	3	6	-1.080661	0.1052678	-3.328339	0	11.97	4004	0	0	5	5	0.02606801	0.3087431	1	10	0.03	2000	-0.0668335	40.92393	-91.39363
89772	-53	-2	7	-1.082754	0.09962351	-3.341361	0	12.02	4004	0	0	5	5	0.02606801	0.3042964	1	10	0.03	2000	-0.3033447	40.92393	-91.39363
89878	-54	12	2	-1.07873	0.09675056	-3.347965	0	12.02	4002	0	0	5	5	0.02606801	0.2992431	1	10	0.03	2000	-0.3087158	40.92393	-91.39363
89973	-60	4	4	-1.068936	0.09847703	-3.362028	0	12.02	4002	0	0	5	5	0.02606801	0.2932777	1	10	0.03	2000	-0.08569336	40.92393	-91.39363
90071	-48	-3	4	-1.070703	0.09578977	-3.367101	0	12.02	4003	0	0	5	5	0.02606801	0.2924513	1	10	0.03	2000	-0.5622559	40.92393	-91.39363
90260	-58	1	6	-1.070823	0.09396666	-3.381041	0	12.02	4003	0	0	5	5	0.02606801	0.2984641	1	10	0.03	2000	-0.3227234	40.92393	-91.39363
90324	-53	5	6	-1.071873	0.09341601	-3.388867	0	12.02	4002	0	0	5	5	0.02606801	0.3013891	1	10	0.03	2000	-0.3225708	40.92393	-91.39363
90426	-54	10	10	-1.060855	0.09445357	-3.398711	0	12.02	4004	0	0	5	5	0.02606801	0.3076768	1	10	0.03	2000	-0.08978271	40.92393	-91.39363
90457	-55	8	2	-1.060359	0.09365845	-3.401523	0	12.02	4002	0	0	5	5	0.02606801	0.3109053	1	10	0.03	2000	-0.3397217	40.92393	-91.39363
90553	-56	3	6	-1.062235	0.09338031	-3.409227	0	12.02	4003	0	0	5	5	0.02606801	0.3146717	1	10	0.03	2000	-0.3316345	40.92393	-91.39363
90719	-48	6	6	-1.051679	0.09630737	-3.427019	0	12.02	4002	0	0	5	5	0.02606801	0.3141916	1	10	0.03	2000	-0.1219788	40.92393	-91.39363
90822	-57	0	8	-1.050181	0.09709331	-3.432216	0	12.02	4003	0	0	5	5	0.02606801	0.3207229	1	10	0.03	2000	-0.5905457	40.92393	-91.39363
90875	-55	1	4	-1.049358	0.1003336	-3.438024	0	12.02	4004	0	0	5	5	0.02606801	0.325186	1	10	0.03	2000	-0.1163025	40.92393	-91.39363
90992	-56	2	7	-1.047903	0.09248204	-3.453125	0	12.02	4004	0	0	5	5	0.02606801	0.3307831	1	10	0.03	2000	-0.3632202	40.92393	-91.39363
91010	-53	-2	4	-1.041646	0.09473549	-3.467248	0	12.02	4003	0	0	5	5	0.02606801	0.3354292	1	10	0.03	2000	-0.3711548	40.92393	-91.39363
91030	-51	3	10	-1.038122	0.09725594	-3.484856	0	12.02	4003	0	0	5	5	0.02606801	0.349052	1	10	0.03	2000	-0.3813171	40.92393	-91.39363
91055	-51	3	10	-1.038122	0.09725594	-3.484856	0	12.02	4003	0	0	5	5	0.02606801	0.3512348	1	10	0.03	2000	-0.3813171	40.92393	-91.39363
91165	-48	11	5	-1.026066	0.08584408	-3.495862	0	12.02	4002	0	0	5	5	0.02606801	0.3615856	1	10	0.03	2000	-0.6139221	40.92393	-91.39363
91276	-47	2	9	-1.019708	0.08841603	-3.506929	0	11.97	4003	0	0	5	5	0.02606801	0.3626412	1	10	0.03	2000	-0.4051819	40.92393	-91.39363
91396	-53	5	6	-1.012979	0.09748189	-3.516222	0	11.97	4003	0	0	5	5	0.02606801	0.3545937	1	10	0.03	2000	-0.6556091	40.92393	-91.39363
91532	-49	1	8	-1.008	0.1052708	-3.528389	0	11.97	4004	0	0	5	5	0.02606801	0.3380239	1	10	0.03	2000	-0.1885071	40.92393	-91.39363
91708	-52	2	5	-1.001983	0.1038643	-3.542755	0	11.97	4003	0	0	5	5	0.02606801	0.3142188	1	10	0.03	2000	-0.6744995	40.92393	-91.39363
91778	-45	4	7	-1.001735	0.1074305	-3.5441	0	11.97	4003	0	0	5	5	0.02606801	0.30579	1	10	0.03	2000	-0.4350891	40.92393	-91.39363
91832	-47	0	4	-1.000972	0.1003691	-3.551804	0	11.97	4003	0	0	5	5	0.02606801	0.303634	1	10	0.03	2000	-0.4343567	40.92393	-91.39363
91962	-47	7	5	-0.9945037	0.09221596	-3.558284	0	11.97	4002	0	0	5	5	0.02606801	0.3016609	1	10	0.03	2000	-0.2150269	40.92393	-91.39363
92094	-51	0	4	-0.9995012	0.0931664	-3.5688	0	11.97	4003	0	0	5	5	0.02606801	0.2985572	1	10	0.03	2000	-0.2047424	40.92393	-91.39363
