time(ms)	gyro_x(deg/s)	gyro_y(deg/s)	gyro_z(deg/s)	orientation_roll(deg)	orientation_pitch(deg)	orientation_yaw(deg)	throttle	battery(V)	loop_time(uS)	pid_output_roll	pid_output_pitch	pid_output_yaw	pid_output_throttle	ultrasonic_alt	baro_alt	flight_mode	p_gain_altitude	i_gain_altitude	d_gain_altitude	compass_heading	latitude	longitude
187019	0	-134	-64	0.6664264	-0.1694794	0.1794559	0	11.11	4002	0	0	5	5	0.05003009	0.3106867	6	10	0.03	2000	-2.52182	40.92393	-91.39363
187103	161	-202	-851	0.6583006	-0.3264801	0.2216963	0	11.11	4004	0	0	5	5	0.04831232	0.3306341	6	10	0.03	2000	-2.52182	40.92393	-91.39363
187172	-103	-288	-338	0.6316927	-0.1751152	0.3497303	0	11.11	4004	0	0	5	5	0.04714889	0.3364004	6	10	0.03	2000	-1.380463	40.92393	-91.39363
187224	16	-688	167	0.1883654	0.6363879	1.102914	0	11.11	4004	0	0	5	5	0.047579	0.340101	6	10	0.03	2000	-1.669098	40.92393	-91.39363
187331	-414	-1069	997	-0.04094788	1.349827	1.434969	0	11.11	4004	0	0	5	5	0.05056556	0.3500929	6	10	0.03	2000	-2.09375	40.92393	-91.39363
187451	-48	-851	-598	-0.2803664	2.529808	2.393115	0	11.11	4004	0	0	5	5	0.05217655	0.3496833	6	10	0.03	2000	-1.969666	40.92393	-91.39363
187592	1020	1369	523	-1.610046	1.525037	2.242439	0	11.11	4002	0	0	5	5	0.05187161	0.3508236	6	10	0.03	2000	-2.237946	40.92393	-91.39363
187647	1118	1317	302	-1.209223	0.4256032	2.021852	0	11.11	4004	0	0	5	5	0.05363665	0.3510012	6	10	0.03	2000	-2.237946	40.92393	-91.39363
187764	-1415	-64	751	-1.184625	-0.6569656	1.644947	0	11.11	4004	0	0	5	5	0.06350309	0.3383383	6	10	0.03	2000	-0.5428772	40.92393	-91.39363
187867	1198	1625	916	-1.280972	-2.984214	1.413263	0	11.11	4003	0	0	5	5	0.07072783	0.32795	6	10	0.03	2000	-1.314331	40.92393	-91.39363
188000	-89	-52	-678	-1.517471	-4.231053	1.061908	0	11.11	4004	0	0	5	5	0.1386777	0.3014548	6	10	0.03	2000	0.893797	40.92393	-91.39363
188084	665	-90	-855	-1.577308	-4.288701	0.9795913	0	11.11	4003	0	0	5	5	0.1620536	0.2880583	6	10	0.03	2000	1.767092	40.92393	-91.39363
188165	344	-848	321	-0.9749344	-3.871859	1.090854	0	11.11	4002	0	0	5	5	0.1948453	0.2731005	6	10	0.03	2000	1.764873	40.92393	-91.39363
188374	1242	-7656	923	3.382229	3.500062	-1.06425	0	10.66	4002	-80	240	5	5	0.291104	0.2477621	8	10	0.03	2000	0.8820984	40.92393	-91.39363
188502	2303	-4317	-271	4.762159	11.81118	1.295733	0	10.66	4004	-80	240	5	5	0.32865	0.252081	8	10	0.03	2000	1.012212	40.92393	-91.39363
188606	-1661	-437	-1370	3.272792	13.45418	1.398837	0	10.66	4002	0	157	5	5	0.348062	0.2677774	8	10	0.03	2000	13.03782	40.92393	-91.39363
188695	645	1257	-521	3.302718	11.57815	1.408832	0	10.66	4004	0	157	5	5	0.3622133	0.300535	8	10	0.03	2000	16.52519	40.92393	-91.39363
188815	362	60	941	5.391037	7.358993	2.308486	0	10.66	4004	0	157	5	5	0.3725296	0.3437933	8	10	0.03	2000	20.12642	40.92393	-91.39363
188936	-1009	-1065	-750	3.695542	7.906537	2.363875	0	10.66	4003	0	-43	5	5	0.3820733	0.4326571	8	10	0.03	2000	22.05474	40.92393	-91.39363
189025	-3903	9227	15	-1.989042	-5.456417	1.281165	0	10.66	4002	86	-86	5	5	0.3870076	0.4984317	8	10	0.03	2000	26.36359	40.92392	-91.39362
189153	-1544	7593	-203	-8.253725	-15.77127	0.6024845	0	11.17	4004	86	-86	5	5	0.3906047	0.5534562	8	10	0.03	2000	16.37855	40.92392	-91.39362
189268	-2194	6781	299	-11.93987	-25.99298	0.9408466	0	11.17	4003	86	-46	5	5	0.3939323	0.6394114	8	10	0.03	2000	2.839136	40.92392	-91.39362
189467	-613	-6244	-2182	-10.25634	-14.03882	2.907597	0	11.17	4002	86	-46	5	5	0.3969071	0.778853	8	10	0.03	2000	-3.538147	40.92392	-91.39362
189499	-120	-4088	-1422	-10.26598	-11.18153	3.923944	0	11.17	4004	86	-46	5	5	0.3972445	0.9148923	8	10	0.03	2000	-4.254761	40.92391	-91.39362
189630	1816	3591	-44	-11.72929	-11.78975	2.965543	0	11.17	4002	93	-179	5	5	0.3982887	1.128649	8	10	0.03	2000	-6.197693	40.92391	-91.39362
189767	-259	1568	642	-7.878491	-12.52929	0.4846306	0	11.17	4003	93	-223	5	5	0.3989739	1.223224	8	10	0.03	2000	-6.695435	40.9239	-91.39362
189826	145	4713	551	-7.811976	-13.81878	0.1433939	0	11.17	4003	93	-223	5	5	0.3992222	1.376739	8	10	0.03	2000	-6.111633	40.9239	-91.39362
189934	231	6710	422	-6.915824	-24.01096	0.5154244	0	11.17	4004	111	-267	5	5	0.3995863	1.585669	8	10	0.03	2000	-7.798035	40.9239	-91.39362
190079	-1029	-3282	-207	-8.145736	-20.99605	1.730966	0	11.8	4004	179	-266	5	5	0.3998252	1.778258	8	10	0.03	2000	-10.84363	40.9239	-91.39361
190160	-3015	934	127	-9.917118	-17.90544	1.589684	0	11.8	4002	100	-107	5	5	0.3999118	1.834822	8	10	0.03	2000	-8.699768	40.9239	-91.39361
190239	275	-2667	503	-10.11424	-18.32598	0.7669533	0	11.8	4003	99	-105	5	5	0.4000118	2.024336	8	10	0.03	2000	-10.38562	40.9239	-91.39361
190330	150	-2858	143	-8.325663	-11.2087	0.9588255	0	11.8	4004	99	-66	5	5	0.400063	2.058588	8	10	0.03	2000	-10.05313	40.9239	-91.39361
190393	-840	-6868	-1334	-8.365798	-8.84304	1.008776	0	11.8	4003	99	-66	5	5	0.4001044	2.115888	8	10	0.03	2000	-9.392212	40.9239	-91.39361
190520	-400	-4333	-665	-10.40119	4.308797	1.315578	0	11.8	4002	99	-66	5	5	0.4001651	2.323642	8	10	0.03	2000	-9.240051	40.9239	-91.39361
190676	3314	-3911	-886	-7.487642	9.988717	0.4628657	0	11.8	4003	-66	16	5	5	0.4002126	2.546618	8	10	0.03	2000	-9.728058	40.9239	-91.39362
190749	2567	1195	-271	-4.332688	9.053606	0.1503176	0	11.8	4003	-67	17	5	5	0.4002256	2.595117	8	10	0.03	2000	-9.376434	40.92391	-91.39362
190909	4697	-914	-898	2.227248	2.103736	1.168322	0	11.8	4004	-66	60	5	5	0.4002483	2.73205	8	10	0.03	2000	-8.587463	40.92391	-91.39362
191073	1159	-2894	392	9.439099	4.069196	0.7757678	0	10.83	4004	-66	103	5	5	0.4002617	2.861047	8	10	0.03	2000	-4.382233	40.92391	-91.39362
191111	-511	-415	1127	8.194551	3.865036	0.4629906	0	10.83	4004	-66	103	5	5	0.4002636	2.878597	8	10	0.03	2000	-3.485382	40.92391	-91.39362
191173	1753	-872	136	7.589969	2.570494	0.7613125	0	10.83	4002	-153	146	5	5	0.4002683	2.951138	8	10	0.03	2000	-1.095154	40.92392	-91.39362
191300	-363	-616	750	7.121741	1.643052	0.9582961	0	10.83	4003	-73	106	5	5	0.4002717	2.988026	8	10	0.03	2000	3.158038	40.92392	-91.39362
191439	228	-20	-219	5.014879	5.315514	0.8742726	0	10.83	4002	-73	110	5	5	0.4002755	2.986239	8	10	0.03	2000	11.278	40.92392	-91.39362
191495	27	-723	771	4.246952	4.513185	0.7255974	0	10.83	4004	-73	110	5	5	0.400276	2.972885	8	10	0.03	2000	11.278	40.92392	-91.39362
191619	733	-236	226	4.429864	3.772467	0.5973992	0	10.83	4004	-73	69	5	5	0.4002774	2.942846	8	10	0.03	2000	19.26411	40.92392	-91.39362
191745	804	-400	546	4.70478	3.256024	1.245643	0	10.83	4004	-87	83	5	5	0.4002789	2.692807	8	10	0.03	2000	24.65116	40.92392	-91.39362
191841	-947	95	-1514	2.784041	2.517817	2.031533	0	10.83	4002	6	29	5	5	0.4002793	2.648967	8	10	0.03	2000	31.62456	40.92392	-91.39362
191959	-83	4404	-399	1.681858	-1.742997	1.888849	0	10.89	4003	6	-10	5	5	0.4002798	2.447167	8	10	0.03	2000	35.21265	40.92392	-91.39362
192002	-83	4404	-399	1.681858	-1.742997	1.888849	0	10.89	4003	6	-10	5	5	0.4002801	2.403557	8	10	0.03	2000	35.21265	40.92392	-91.39362
192092	-1319	4442	763	-1.951711	-8.521162	1.914537	0	10.89	4002	8	-12	5	5	0.4002802	2.34993	8	10	0.03	2000	29.76499	40.92392	-91.39362
192189	-3728	1638	521	-4.847744	-14.09748	2.604186	0	10.89	4003	6	-10	5	5	0.4002805	2.142459	8	10	0.03	2000	28.79214	40.92392	-91.39362
192307	-838	2896	431	-4.390589	-17.79389	2.038058	0	10.89	4003	6	-10	5	5	0.4002806	2.077079	8	10	0.03	2000	21.34933	40.92392	-91.39362
192428	-1685	762	53	-7.284437	-18.73557	1.589631	0	10.89	4002	93	-53	5	5	0.4002807	2.01562	8	10	0.03	2000	19.60188	40.92392	-91.39362
192526	-1629	-3436	-294	-7.162066	-13.89503	2.378998	0	10.89	4003	93	-53	5	5	0.4002808	1.959834	8	10	0.03	2000	13.5468	40.92392	-91.39362
192662	46	550	295	-8.996452	-10.73004	1.672426	0	10.89	4002	93	-53	5	5	0.4002808	1.894388	8	10	0.03	2000	14.74521	40.92392	-91.39362
192771	-954	-3220	-1222	-9.729962	-7.744205	0.962309	0	10.89	4002	179	-96	5	5	0.4002808	1.813249	8	10	0.03	2000	13.93691	40.92391	-91.39361
192877	-2859	25	-466	-10.2633	-6.608623	1.004607	0	10.55	4004	180	-96	5	5	0.4002808	1.795969	8	10	0.03	2000	9.855674	40.92391	-91.39361
192956	-1528	-798	527	-11.01386	-7.018236	0.8871007	0	10.55	4004	179	-96	5	5	0.4002808	1.776251	8	10	0.03	2000	6.917224	40.92391	-91.39361
193033	-1556	-1295	-1065	-11.4361	-7.890812	1.111641	0	10.55	4002	100	-57	5	5	0.4002808	1.750032	8	10	0.03	2000	4.168858	40.92391	-91.39361
193184	-1115	474	1549	-9.288173	-7.750607	1.205477	0	10.55	4004	99	-56	5	5	0.4002808	1.73302	8	10	0.03	2000	1.296487	40.92391	-91.39361
193275	-302	-881	-1552	-11.03997	-6.939879	1.069173	0	10.55	4004	100	-57	5	5	0.4002808	1.742402	8	10	0.03	2000	-1.9375	40.92391	-91.39361
193325	1338	519	199	-9.890919	-6.552999	1.368237	0	10.55	4003	100	-57	5	5	0.4002808	1.749452	8	10	0.03	2000	-3.169006	40.92391	-91.3936
193479	-834	-114	1135	-11.14789	-7.642006	1.543603	0	10.55	4004	106	-60	5	5	0.4002808	1.779849	8	10	0.03	2000	-6.120331	40.92391	-91.3936
193572	-780	276	447	-10.34849	-7.312833	1.771775	0	10.55	4002	106	-60	5	5	0.4002808	1.818557	8	10	0.03	2000	-8.007935	40.92391	-91.3936
193683	-634	-165	1271	-9.323937	-7.565726	0.5890335	0	10.55	4003	106	-60	5	5	0.4002808	1.897654	8	10	0.03	2000	-10.42584	40.92391	-91.3936
193792	-1088	324	1536	-8.491291	-7.042968	0.05326485	0	11.51	4004	106	-60	5	5	0.4002808	1.961181	8	10	0.03	2000	-12.1882	40.92391	-91.3936
193826	-1703	942	980	-8.883479	-7.640072	-0.168861	0	11.51	4003	127	-72	5	5	0.4002808	1.996109	8	10	0.03	2000	-12.1882	40.92391	-91.3936
193953	-63	380	359	-9.209971	-7.915651	0.6870235	0	11.51	4003	106	-103	5	5	0.4002808	2.114708	8	10	0.03	2000	-15.90118	40.9239	-91.3936
194110	1490	-1320	-365	-8.11838	-6.920465	1.979708	0	11.51	4002	-59	-63	5	5	0.4002808	2.238044	8	10	0.03	2000	-16.50668	40.9239	-91.39361
194240	2024	2521	487	-2.570201	-6.421568	1.572501	0	11.51	4004	-59	-63	5	5	0.4002808	2.33373	8	10	0.03	2000	-16.53165	40.9239	-91.39361
194287	1372	2572	950	-1.655734	-7.28882	1.261556	0	11.51	4004	-59	-106	5	5	0.4002808	2.392806	8	10	0.03	2000	-15.30325	40.9239	-91.39361
194472	1343	-120	244	0.859383	-5.559876	0.9400001	0	11.51	4004	-146	-107	5	5	0.4002808	2.523368	8	10	0.03	2000	-9.155792	40.9239	-91.39362
194595	2148	3338	255	4.006578	-7.288049	1.287436	0	11.51	4004	-146	-66	5	5	0.4002808	2.608815	8	10	0.03	2000	-8.67395	40.9239	-91.39362
194695	1416	37	-560	6.109628	-10.08179	1.345318	0	10.66	4002	-66	-110	5	5	0.4002808	2.679998	8	10	0.03	2000	-2.674561	40.9239	-91.39362
194742	-2294	64	2012	4.118733	-9.988926	0.7174027	0	10.66	4002	-66	-110	5	5	0.4002808	2.693798	8	10	0.03	2000	1.275655	40.9239	-91.39362
194846	-63	-629	791	2.148021	-8.690781	0.3501348	0	10.66	4003	-65	-109	5	5	0.4002808	2.755299	8	10	0.03	2000	2.008828	40.9239	-91.39362
194970	766	-921	-669	3.67598	-8.741045	0.6190974	0	10.66	4003	-79	-83	5	5	0.4002808	2.784671	8	10	0.03	2000	6.002653	40.9239	-91.39362
195120	2877	1378	-398	4.916094	-9.765601	1.293573	0	10.66	4003	-72	-70	5	5	0.4002808	2.770801	8	10	0.03	2000	10.52628	40.9239	-91.39362
195209	195	-1463	218	4.428032	-8.639812	1.847534	0	10.66	4003	-72	-113	5	5	0.4002808	2.719917	8	10	0.03	2000	11.26459	40.92389	-91.39362
195337	1195	284	-41	3.964065	-8.446148	1.589749	0	10.66	4003	-72	-73	5	5	0.4002808	2.653111	8	10	0.03	2000	13.77629	40.92389	-91.39363
195419	2775	-893	1677	5.99987	-6.758821	1.099982	0	10.66	4004	-159	-73	5	5	0.4002808	2.600204	8	10	0.03	2000	16.85461	40.92389	-91.39363
195478	2121	-339	69	6.629322	-6.622947	1.090975	0	10.66	4003	-158	-73	5	5	0.4002808	2.516658	8	10	0.03	2000	16.55901	40.92389	-91.39363
195557	1130	798	1620	9.595143	-7.197513	1.027601	0	10.89	4007	-127	-94	5	5	0.4002808	2.45131	8	10	0.03	2000	18.41266	40.92389	-91.39363
195783	1138	-1528	-356	8.052344	-9.726715	1.138309	0	10.89	4004	-78	-117	5	5	0.4002808	2.081507	8	10	0.03	2000	24.64101	40.92389	-91.39363
195944	-2056	1205	759	6.574765	-8.183246	1.272029	0	10.89	4003	-78	-77	5	5	0.4002808	1.987969	8	10	0.03	2000	24.65682	40.92389	-91.39362
196045	-1878	1924	1061	1.944453	-9.334956	1.262094	0	10.89	4002	87	-77	5	5	0.4002808	1.890569	8	10	0.03	2000	26.60774	40.92389	-91.39362
196209	-102	525	-797	-3.641935	-8.543585	1.55937	0	10.89	4004	87	-37	5	5	0.4002808	1.748739	8	10	0.03	2000	24.88268	40.92389	-91.39362
196310	-1772	193	1480	-3.204308	-7.228405	1.98941	0	10.89	4003	173	-37	5	5	0.4002808	1.677255	8	10	0.03	2000	22.27843	40.92389	-91.39362
196497	-2093	-1878	-81	-8.871457	-5.805311	0.9718464	0	10.89	4002	260	-37	5	5	0.4002808	1.571483	8	10	0.03	2000	20.75583	40.92389	-91.39361
196627	-1015	508	836	-11.1119	-4.667652	0.8938342	0	10.72	4004	180	-37	5	5	0.4002808	1.524906	8	10	0.03	2000	18.18645	40.92389	-91.3936
196721	-1909	-706	-61	-10.65764	-3.453021	1.257305	0	10.72	4002	267	-37	5	5	0.4002808	1.493137	8	10	0.03	2000	12.23589	40.92389	-91.3936
196795	-3046	1321	53	-12.24522	-3.698931	1.854993	0	10.72	4004	267	-37	5	5	0.4002808	1.471392	8	10	0.03	2000	9.900129	40.92389	-91.3936
196954	-1234	401	326	-15.45301	-5.703626	1.077964	0	10.72	4004	188	-37	5	5	0.4002808	1.442351	8	10	0.03	2000	5.385316	40.92389	-91.3936
196986	-1224	173	-824	-15.76156	-5.927899	1.126779	0	10.72	4004	187	-37	5	5	0.4002808	1.437666	8	10	0.03	2000	2.767288	40.92389	-91.3936
197101	-1616	-1079	-948	-15.14325	-3.996519	0.9565452	0	10.72	4003	193	-37	5	5	0.4002808	1.426754	8	10	0.03	2000	-4.047058	40.92389	-91.39359
197214	-467	451	-173	-13.40416	-4.164526	0.9786137	0	10.72	4003	279	-37	5	5	0.4002808	1.421715	8	10	0.03	2000	-6.757507	40.92389	-91.39359
197297	-2546	-502	-265	-15.84841	-3.941361	0.8346749	0	10.72	4003	200	-37	5	5	0.4002808	1.426017	8	10	0.03	2000	-8.450256	40.92389	-91.39359
197385	-96	-515	-178	-15.58771	-3.054626	0.7281145	0	10.72	4004	200	5	5	5	0.4002808	1.436654	8	10	0.03	2000	-10.78183	40.92389	-91.39359
197535	-976	-373	-364	-15.86834	-1.84183	0.3250841	0	11.46	4003	200	5	5	5	0.4002808	1.459448	8	10	0.03	2000	-15.80573	40.9239	-91.39358
197652	-1758	-1002	244	-15.60099	-1.771639	1.056254	0	11.46	4004	206	48	5	5	0.4002808	1.499396	8	10	0.03	2000	-21.92661	40.9239	-91.39358
197703	-1774	-1270	399	-15.5195	-0.8745335	1.260141	0	11.46	4004	207	48	5	5	0.4002808	1.512214	8	10	0.03	2000	-21.92661	40.9239	-91.39358
197752	-494	229	805	-15.59932	0.6828597	1.872964	0	11.46	4002	206	48	5	5	0.4002808	1.518808	8	10	0.03	2000	-24.92365	40.9239	-91.39358
197931	4709	1518	-997	-10.73463	-1.223827	1.996375	0	11.46	4003	40	48	5	5	0.4002808	1.580206	8	10	0.03	2000	-31.05365	40.9239	-91.39359
198054	7116	222	-232	-3.719446	-2.588885	1.470372	0	11.46	4003	40	8	5	5	0.4002808	1.650497	8	10	0.03	2000	-29.71524	40.9239	-91.39359
198097	4107	1550	1028	6.096094	-4.787949	1.337568	0	11.46	4004	40	8	5	5	0.4002808	1.693282	8	10	0.03	2000	-28.45953	40.9239	-91.39359
198208	759	-2632	830	7.250939	-3.307144	1.636079	0	11.46	4002	-39	-31	5	5	0.4002808	1.745185	8	10	0.03	2000	-22.98563	40.9239	-91.39359
198296	4178	954	-476	9.093246	-0.718293	1.755535	0	11.06	4004	-39	-31	5	5	0.4002808	1.811119	8	10	0.03	2000	-24.84024	40.9239	-91.39359
198414	-2974	-783	-67	7.286891	-3.089725	1.432718	0	11.06	4003	-39	-31	5	5	0.4002808	1.849937	8	10	0.03	2000	-17.67819	40.9239	-91.39359
198555	1145	-2054	756	6.676475	-4.30291	0.2071581	0	11.06	4003	0	0	5	5	0.4002808	1.863462	3	10	0.03	2000	-9.325104	40.9239	-91.39359
198639	-2570	-3684	310	4.454757	-1.371781	0.2754987	0	11.06	4004	0	0	5	5	0.4002808	1.856236	3	10	0.03	2000	-4.82663	40.9239	-91.3936
198689	-901	-1195	-922	1.183393	0.4017437	0.6918598	0	11.06	4003	0	0	5	5	0.4002808	1.851358	3	10	0.03	2000	-4.480103	40.9239	-91.3936
198775	-100	2387	936	0.2562485	-1.678739	0.3352838	0	11.06	4002	0	0	5	5	0.4002808	1.828561	3	10	0.03	2000	-1.083923	40.9239	-91.3936
198872	2732	699	667	1.93827	-3.487877	0.728405	0	11.06	4004	0	0	5	5	0.4002808	1.765345	3	10	0.03	2000	-3.027008	40.92389	-91.3936
199020	2342	4168	-354	3.539387	-7.180839	0.4079865	0	11.06	4004	0	0	5	5	0.4002808	1.713921	3	10	0.03	2000	3.099093	40.92389	-91.39361
199101	2945	2981	-1783	6.386247	-12.43911	0.6568455	0	11.06	4004	0	0	5	5	0.4002808	1.624521	3	10	0.03	2000	5.24531	40.92389	-91.39361
199243	836	1798	582	4.995508	-15.61158	1.59182	0	11.46	4004	0	0	5	5	0.4002808	1.43147	3	10	0.03	2000	9.899342	40.92389	-91.39361
199325	887	-1732	-2180	3.802713	-12.492	2.733008	0	11.46	4003	0	0	5	5	0.4002808	1.364804	3	10	0.03	2000	14.79069	40.92389	-91.39361
199437	-2592	431	479	1.489135	-9.626152	3.298144	0	11.46	4002	0	0	5	5	0.4002808	1.299845	3	10	0.03	2000	13.3316	40.92389	-91.39362
199498	-2537	-1727	1731	-0.4032862	-8.778312	2.957772	0	11.46	4004	0	0	5	5	0.4002808	1.253936	3	10	0.03	2000	13.75962	40.92389	-91.39362
199624	-1856	-2841	1520	-6.442938	-0.01467845	1.780304	0	11.46	4003	0	0	5	5	0.4002808	1.16959	3	10	0.03	2000	14.84532	40.92389	-91.39362
199719	-2752	-68	-933	-8.433857	-0.0258397	1.461013	0	11.46	4004	0	0	5	5	0.4002808	1.138458	3	10	0.03	2000	15.18769	40.92389	-91.39362
199813	-1295	661	1089	-9.649732	-0.8451669	1.328001	0	11.46	4003	0	0	5	5	0.4002808	1.092428	3	10	0.03	2000	15.18769	40.92389	-91.39362
199915	-2684	41	254	-6.844714	-4.217177	1.598689	0	11.46	4003	0	0	5	5	0.4002808	1.070026	3	10	0.03	2000	15.52142	40.92389	-91.39362
200010	1991	-950	918	-6.97305	-4.010504	0.7226525	0	11.46	4004	0	0	5	5	0.4002808	1.038644	3	10	0.03	2000	15.72449	40.92389	-91.39362
200125	1124	3121	41	-4.739398	-4.075364	0.8302292	0	11.46	4003	0	0	5	5	0.4002808	1.030793	3	10	0.03	2000	17.8524	40.92389	-91.39362
200235	-1396	2236	115	-5.94855	-9.059529	0.9653078	0	10.26	4003	0	0	5	5	0.4002808	1.026387	3	10	0.03	2000	16.33269	40.92389	-91.39362
200382	3064	-17	-1243	-3.915831	-4.78324	1.925992	0	10.26	4003	0	0	5	5	0.4002808	1.027029	3	10	0.03	2000	15.0862	40.92389	-91.39362
200468	893	-566	-1001	-1.474758	-3.740459	2.279912	0	10.26	4004	0	0	5	5	0.4002808	1.043284	3	10	0.03	2000	14.98151	40.92389	-91.39362
200536	-670	877	393	-3.846921	-4.330239	1.790707	0	10.26	4004	0	0	5	5	0.4002808	1.059818	3	10	0.03	2000	15.31525	40.92389	-91.39362
200665	1144	-432	-650	-2.632702	-4.500381	1.242745	0	10.26	4003	0	0	5	5	0.4002808	1.109797	3	10	0.03	2000	16.72339	40.92389	-91.39362
200734	-239	829	-272	-2.48492	-5.205096	0.7804272	0	10.26	4003	0	0	5	5	0.4002808	1.133566	3	10	0.03	2000	17.12704	40.92389	-91.39362
200881	-257	1783	-622	-3.462049	-9.623431	0.1596462	0	10.26	4002	0	0	5	5	0.4002808	1.180411	3	10	0.03	2000	17.38199	40.92389	-91.39362
200998	-3155	-1553	-238	-5.172292	-8.34237	0.9036781	0	10.26	4004	0	0	5	5	0.4002808	1.221773	3	10	0.03	2000	17.30378	40.92389	-91.39362
201037	-3555	332	-1027	-6.804232	-7.634409	1.223172	0	10.26	4002	0	0	5	5	0.4002808	1.231323	3	10	0.03	2000	17.30378	40.92389	-91.39362
201150	-3092	1465	-131	-13.70656	-8.19484	0.8856125	0	11	4004	0	0	5	5	0.4002808	1.274068	3	10	0.03	2000	12.37586	40.92389	-91.39362
201237	2248	-1993	-1484	-13.19969	-8.58192	0.7476751	0	11	4004	0	0	5	5	0.4002808	1.306102	3	10	0.03	2000	9.31274	40.92389	-91.39361
201332	4085	-2863	-777	-8.309668	-6.781869	0.9577503	0	11	4004	0	0	5	5	0.4002808	1.335134	3	10	0.03	2000	9.868587	40.92389	-91.39361
201466	1518	1141	580	-4.420785	-4.733788	0.6075484	0	11	4003	0	0	5	5	0.4002808	1.375412	3	10	0.03	2000	8.568423	40.92389	-91.39361
201572	312	-938	227	-1.712634	-4.698985	1.880239	0	11	4002	0	0	5	5	0.4002808	1.420546	3	10	0.03	2000	8.262752	40.92389	-91.39361
201665	-971	-720	884	-2.29658	-4.4562	1.891395	0	11	4003	0	0	5	5	0.4002808	1.449833	3	10	0.03	2000	7.358094	40.92389	-91.39361
201783	1515	-195	-2050	-0.669861	-5.584907	1.637815	0	11	4002	0	0	5	5	0.4002808	1.494868	3	10	0.03	2000	6.630847	40.92389	-91.39361
201881	-1623	-2434	563	-0.04393037	-4.981711	0.8109549	0	11	4003	0	0	5	5	0.4002808	1.540826	3	10	0.03	2000	8.514209	40.92389	-91.39361
201963	-1423	-4650	510	-2.378471	-0.1846388	0.2029178	0	11.46	4002	0	0	5	5	0.4002808	1.563553	3	10	0.03	2000	10.1512	40.92389	-91.39361
202019	-1347	-4964	393	-2.945958	2.07396	0.0170233	0	11.46	4003	0	0	5	5	0.4002808	1.572172	3	10	0.03	2000	10.1512	40.92389	-91.39361
202087	-1177	-6838	246	-3.908543	9.857184	-0.5612688	0	11.46	4004	0	0	5	5	0.4002808	1.578586	3	10	0.03	2000	10.70322	40.92389	-91.39361
202179	-666	-7954	626	-5.989351	16.76115	-0.9171059	0	11.46	4002	0	0	5	5	0.4002808	1.580643	3	10	0.03	2000	10.70322	40.92389	-91.39361
202291	-4630	-6954	5239	-11.78568	33.01276	-4.757518	0	11.46	4004	0	0	5	5	0.4002808	1.570667	3	10	0.03	2000	32.93324	40.92389	-91.39361
202411	-446	10634	6515	-21.71444	20.24005	-16.69825	0	11.46	4003	0	0	5	5	0.4002808	1.544094	3	10	0.03	2000	40.71886	40.92389	-91.39361
202508	-2769	-663	2259	-28.76743	5.350486	-31.47157	0	11.46	4002	0	0	5	5	0.4002808	1.489679	3	10	0.03	2000	14.42768	40.92389	-91.39361
202596	-1083	2710	-4617	-31.36151	7.691049	-29.40178	0	11.46	4003	0	0	5	5	0.4002808	1.439068	3	10	0.03	2000	15.51306	40.92389	-91.39361
202706	416	8010	-6395	-26.70773	-4.199017	-12.52091	0	11.46	4002	0	0	5	5	0.4002808	1.345183	3	10	0.03	2000	5.9089	40.92389	-91.39361
202816	2167	8341	-4283	-24.71319	-12.23423	-5.778072	0	11.46	4004	0	0	5	5	0.4002808	1.252929	3	10	0.03	2000	-1.636047	40.92389	-91.39361
202985	5579	8439	7877	-3.835449	-35.20305	-8.879207	0	11.51	4002	0	0	5	5	0.4002808	1.169845	3	10	0.03	2000	-21.88504	40.9239	-91.39361
203054	14	3185	11072	11.83989	-40.31362	-26.68879	0	11.51	4004	0	0	5	5	0.4002808	1.139779	3	10	0.03	2000	-4.956757	40.9239	-91.39361
203170	-260	-146	6444	17.64863	-39.5001	-40.79668	0	11.51	4003	0	0	5	5	0.4002808	1.097631	3	10	0.03	2000	5.877106	40.9239	-91.39361
203280	1143	1300	2566	21.71351	-33.49115	-49.24029	0	11.51	4002	0	0	5	5	0.4002808	1.057583	3	10	0.03	2000	20.97686	40.9239	-91.39362
203404	6200	7959	844	33.53112	-45.71769	-51.05735	0	11.51	4004	0	0	5	5	0.4002808	1.000296	3	10	0.03	2000	26.26593	40.9239	-91.39362
203544	2462	16	95	43.01609	-51.89333	-52.30653	0	11.51	4002	0	0	5	5	0.4002808	0.9704477	3	10	0.03	2000	47.34229	40.9239	-91.39362
203655	-6361	-1384	-4313	33.70831	-51.63826	-47.54567	0	11.51	4002	0	0	5	5	0.4002808	0.9411028	3	10	0.03	2000	45.65761	40.9239	-91.39362
203808	6277	1100	593	24.93606	-48.92131	-43.4109	0	11.57	4004	0	0	5	5	0.4002808	0.9047723	3	10	0.03	2000	31.22194	40.9239	-91.39362
204013	222	-2779	-549	25.00838	-43.14951	-42.08189	0	11.57	4002	0	0	5	5	0.4002808	0.854103	1	10	0.03	2000	29.66623	40.9239	-91.39362
204136	-1230	-5171	-839	21.47552	-29.81946	-41.28072	0	11.57	4003	0	0	5	5	0.4002808	0.8385332	1	10	0.03	2000	25.03374	40.9239	-91.39362
204243	-3871	-4077	-3184	16.97703	-23.35511	-39.0477	0	11.57	4002	0	0	5	5	0.4002808	0.8034219	1	10	0.03	2000	21.45249	40.9239	-91.39362
204371	-823	523	-3139	10.09642	-18.29794	-33.51003	0	11.57	4002	0	0	5	5	0.4002808	0.7790887	1	10	0.03	2000	12.75828	40.9239	-91.39362
204406	399	-4963	-756	10.46135	-17.28346	-31.14473	0	11.57	4002	0	0	5	5	0.4002808	0.7676438	1	10	0.03	2000	10.89435	40.9239	-91.39362
204524	-690	-7197	-1480	8.606629	-8.518983	-30.21859	0	11.57	4002	0	0	5	5	0.4002808	0.7558655	1	10	0.03	2000	7.110771	40.92391	-91.39362
204677	-2128	-5626	-2745	5.718393	1.055996	-23.27674	0	11.57	4003	0	0	5	5	0.4002808	0.7538619	1	10	0.03	2000	4.442117	40.92391	-91.39362
204769	4404	1024	-2363	9.405065	6.299318	-14.42139	0	11.51	4004	0	0	5	5	0.4002808	0.7616992	1	10	0.03	2000	-1.533142	40.92391	-91.39362
204832	907	3277	-3842	11.63396	3.094934	-10.84481	0	11.51	4003	0	0	5	5	0.4002808	0.7749951	1	10	0.03	2000	-3.044861	40.92391	-91.39362
204958	8499	-7877	-1684	17.89154	6.87724	-5.349778	0	11.51	4003	0	0	5	5	0.4002808	0.7844338	1	10	0.03	2000	-4.617218	40.92391	-91.39362
204970	11129	-7104	-3632	29.30705	12.63102	-5.349778	0	11.51	4004	0	0	5	5	0.4002808	0.7844338	1	10	0.03	2000	-4.617218	40.92391	-91.39362
205005	6166	-9607	-5610	31.91895	17.20472	2.439846	0	11.51	4002	0	0	5	5	0.4002808	0.7900824	1	10	0.03	2000	-0.5350037	40.92391	-91.39362
205146	7607	-5733	-8737	43.85687	23.49296	12.32357	0	11.51	4003	0	0	5	5	0.4002808	0.7924464	1	10	0.03	2000	12.58882	40.92391	-91.39362
205248	1251	3056	-4595	75.98927	-13.87656	42.25763	0	11.51	4004	0	0	5	5	0.4002808	0.8068932	1	10	0.03	2000	3.961973	40.92392	-91.39362
205295	603	-1353	1128	76.0072	-14.2759	42.89417	0	11.51	4003	0	0	5	5	0.4002808	0.8091186	1	10	0.03	2000	3.961973	40.92392	-91.39362
205396	-6586	-1348	10597	70.08227	16.68282	27.95838	0	11.51	4002	0	0	5	5	0.4002808	0.8180745	1	10	0.03	2000	-1.21814	40.92392	-91.39362
205533	-5218	-256	9187	45.71101	34.64909	5.390581	0	11.57	4003	0	0	5	5	0.4002808	0.8214936	1	10	0.03	2000	-1.427338	40.92392	-91.39362
205703	-5523	7636	3427	20.64181	35.66759	-13.4746	0	11.57	4004	0	0	5	5	0.4002808	0.8153476	1	10	0.03	2000	15.58818	40.92392	-91.39362
205911	-3520	673	204	8.561562	18.611	-15.67996	0	11.57	4002	0	0	5	5	0.4002808	0.8160223	1	10	0.03	2000	7.437942	40.92392	-91.39362
206008	-3588	4201	936	5.883957	17.06927	-16.5942	0	11.57	4004	0	0	5	5	0.4002808	0.7914712	1	10	0.03	2000	0.5019003	40.92393	-91.39362
206157	-292	3120	3595	3.152719	9.303619	-20.61778	0	11.57	4004	0	0	5	5	0.4002808	0.7436512	1	10	0.03	2000	-5.183136	40.92393	-91.39362
206248	-349	3387	5126	1.837304	3.212132	-28.43946	0	11.57	4003	0	0	5	5	0.4002808	0.7230528	1	10	0.03	2000	-1.856171	40.92393	-91.39362
206340	-2498	4062	3227	0.08124045	-2.035823	-32.98677	0	11.57	4003	0	0	5	5	0.4002808	0.6827611	1	10	0.03	2000	3.051283	40.92393	-91.39362
206466	-1440	565	-498	-0.7935739	-7.35872	-35.30744	0	11.63	4002	0	0	5	5	0.4002808	0.6367491	1	10	0.03	2000	5.619264	40.92393	-91.39362
206524	-1440	565	-498	-0.7935739	-7.35872	-35.30744	0	11.63	4002	0	0	5	5	0.4002808	0.608302	1	10	0.03	2000	5.619264	40.92393	-91.39362
206713	2164	2185	1518	-2.49075	-5.352134	-36.37922	0	11.63	4003	0	0	5	5	0.4002808	0.5272231	1	10	0.03	2000	2.774408	40.92393	-91.39362
206746	-48	-33	-100	-2.466192	-5.993897	-36.66305	0	11.63	4004	0	0	5	5	0.4002808	0.4962608	1	10	0.03	2000	2.774408	40.92393	-91.39362
206833	259	-306	-170	-2.261357	-5.331976	-36.61591	0	11.63	4003	0	0	5	5	0.4002808	0.4685323	1	10	0.03	2000	2.747808	40.92393	-91.39362
206928	-680	483	1402	-1.813263	-4.749643	-38.27609	0	11.63	4003	0	0	5	5	0.4002808	0.4390668	1	10	0.03	2000	1.997731	40.92393	-91.39362
207085	-28	-21	-69	-1.747414	-3.701489	-38.39061	0	11.63	4002	0	0	5	5	0.4002808	0.3610926	1	10	0.03	2000	2.602267	40.92393	-91.39362
207192	-22	10	-31	-1.567359	-3.185534	-38.37832	0	11.63	4002	0	0	5	5	0.4002808	0.325121	1	10	0.03	2000	1.999906	40.92393	-91.39362
207266	-35	10	6	-1.467943	-2.904613	-38.38162	0	11.63	4004	0	0	5	5	0.4002808	0.2983843	1	10	0.03	2000	1.839401	40.92393	-91.39362
207393	-28	1	-1	-1.340714	-2.502907	-38.38809	0	11.63	4002	0	0	5	5	0.4002808	0.2699757	1	10	0.03	2000	1.443599	40.92393	-91.39362
207462	-30	0	11	-1.224597	-2.160432	-38.39517	0	11.63	4003	0	0	5	5	0.4002808	0.2542167	1	10	0.03	2000	1.281573	40.92393	-91.39362
207556	-25	-1	6	-1.152843	-1.951731	-38.40048	0	11.63	4003	0	0	5	5	0.4002808	0.2167614	1	10	0.03	2000	1.123522	40.92393	-91.39362
207730	-26	-2	5	-0.9806519	-1.428423	-38.41623	0	11.63	4004	0	0	5	5	0.4002808	0.1541166	1	10	0.03	2000	0.7636817	40.92393	-91.39362
207870	-29	8	4	-0.8901198	-1.150476	-38.42893	0	11.63	4004	0	0	5	5	0.4002808	0.1111372	1	10	0.03	2000	0.5771906	40.92393	-91.39362
207916	-36	12	1	-0.8725005	-1.091266	-38.43204	0	11.63	4004	0	0	5	5	0.4002808	0.09416883	1	10	0.03	2000	0.5771906	40.92393	-91.39362
207992	-27	4	7	-0.8235691	-0.9340098	-38.44059	0	11.63	4003	0	0	5	5	0.4002808	0.07384937	1	10	0.03	2000	0.4491298	40.92393	-91.39362
208180	-29	2	6	-0.748687	-0.6981788	-38.45688	0	11.63	4004	0	0	5	5	0.4002808	0.06156442	1	10	0.03	2000	0.5777165	40.92393	-91.39362
208213	-23	0	10	-0.7346693	-0.6575834	-38.45993	0	11.63	4004	0	0	5	5	0.4002808	0.06039231	1	10	0.03	2000	0.2795896	40.92393	-91.39362
208274	-32	-1	4	-0.6968158	-0.5416301	-38.47013	0	11.63	4003	0	0	5	5	0.4002808	0.06090388	1	10	0.03	2000	0.234611	40.92393	-91.39362
208414	-24	6	8	-0.659257	-0.4408861	-38.47849	0	11.63	4003	0	0	5	5	0.4002808	0.05632786	1	10	0.03	2000	0.4344444	40.92393	-91.39362
208485	-23	2	1	-0.6414034	-0.3912998	-38.48276	0	11.63	4003	0	0	5	5	0.4002808	0.05108652	1	10	0.03	2000	0.1407179	40.92393	-91.39362
208582	-26	5	2	-0.6141915	-0.3151046	-38.49259	0	11.63	4002	0	0	5	5	0.4002808	0.04430364	1	10	0.03	2000	0.3169333	40.92393	-91.39362
208675	-19	-3	4	-0.601388	-0.2700956	-38.49729	0	11.63	4002	0	0	5	5	0.4002808	0.04404572	1	10	0.03	2000	0.2956969	40.92393	-91.39362
208785	-21	2	0	-0.559254	-0.1660209	-38.5087	0	11.63	4004	0	0	5	5	0.4002808	0.04555846	1	10	0.03	2000	-0.01467896	40.92393	-91.39362
208938	-25	-2	11	-0.539444	-0.09017582	-38.52188	0	11.63	4004	0	0	5	5	0.4002808	0.05421116	1	10	0.03	2000	-0.05654907	40.92393	-91.39362
209043	-28	0	10	-0.5244876	-0.05219699	-38.53074	0	11.63	4003	0	0	5	5	0.4002808	0.05559016	1	10	0.03	2000	-0.08380127	40.92393	-91.39362
209121	-26	0	6	-0.5151045	-0.03134646	-38.53684	0	11.63	4003	0	0	5	5	0.4002808	0.05038413	1	10	0.03	2000	-0.09658813	40.92393	-91.39362
209177	-27	4	4	-0.5092733	0.004259485	-38.54337	0	11.63	4004	0	0	5	5	0.4002808	0.04945415	1	10	0.03	2000	-0.1080627	40.92393	-91.39362
209257	-31	3	5	-0.5038547	0.02624006	-38.55002	0	11.63	4004	0	0	5	5	0.4002808	0.04608582	1	10	0.03	2000	0.3688549	40.92393	-91.39362
209365	-31	0	3	-0.5011579	0.04319856	-38.55362	0	11.63	4002	0	0	5	5	0.4002808	0.04027295	1	10	0.03	2000	-0.131073	40.92393	-91.39362
209510	-31	-1	3	-0.4813289	0.08249223	-38.56247	0	11.63	4004	0	0	5	5	0.4002808	0.04208025	1	10	0.03	2000	0.08314056	40.92393	-91.39362
209567	-20	-2	11	-0.4731967	0.09524255	-38.56748	0	11.63	4003	0	0	5	5	0.4002808	0.04080108	1	10	0.03	2000	0.08314056	40.92393	-91.39362
209676	-25	-1	6	-0.4650486	0.1114703	-38.57401	0	11.63	4003	0	0	5	5	0.4002808	0.03990405	1	10	0.03	2000	-0.1832581	40.92393	-91.39362
209805	-22	0	1	-0.4517328	0.1342124	-38.582	0	11.63	4003	0	0	5	5	0.4002808	0.03763175	1	10	0.03	2000	0.03278334	40.92393	-91.39362
209891	-22	-1	7	-0.4424577	0.1442164	-38.58762	0	11.63	4003	0	0	5	5	0.4002808	0.04176924	1	10	0.03	2000	-0.2191467	40.92393	-91.39362
209995	-27	1	4	-0.4397271	0.1507057	-38.59922	0	11.63	4003	0	0	5	5	0.4002808	0.04544434	1	10	0.03	2000	-0.2291565	40.92393	-91.39362
210089	-35	-2	1	-0.4344049	0.1607888	-38.60343	0	11.63	4002	0	0	5	5	0.4002808	0.04809088	1	10	0.03	2000	-0.2421265	40.92393	-91.39362
210288	-19	-3	5	-0.4279025	0.175976	-38.61771	0	11.63	4002	0	0	5	5	0.4002808	0.06296203	1	10	0.03	2000	-0.003265381	40.92393	-91.39362
210360	-26	1	6	-0.4315377	0.1778487	-38.62223	0	11.63	4002	0	0	5	5	0.4002808	0.06712185	1	10	0.03	2000	-0.00668335	40.92393	-91.39362
210425	-25	0	-2	-0.4300431	0.1797286	-38.62558	0	11.63	4003	0	0	5	5	0.4002808	0.07015435	1	10	0.03	2000	-0.2404785	40.92393	-91.39362
210531	-16	0	4	-0.4210959	0.1919302	-38.6334	0	11.63	4004	0	0	5	5	0.4002808	0.07397666	1	10	0.03	2000	-0.2587585	40.92393	-91.39362
210629	-17	0	2	-0.4131638	0.1897851	-38.6406	0	11.63	4004	0	0	5	5	0.4002808	0.07515151	1	10	0.03	2000	-0.2740784	40.92393	-91.39362
210670	-26	0	3	-0.4119311	0.1878956	-38.64261	0	11.63	4003	0	0	5	5	0.4002808	0.07564864	1	10	0.03	2000	-0.2740784	40.92393	-91.39362
210811	-25	0	4	-0.4076606	0.1951641	-38.64939	0	11.63	4003	0	0	5	5	0.4002808	0.07205751	1	10	0.03	2000	-0.2833252	40.92393	-91.39362
210871	-25	0	2	-0.4084218	0.198449	-38.65488	0	11.63	4004	0	0	5	5	0.4002808	0.07223968	1	10	0.03	2000	-0.0428772	40.92393	-91.39362
210977	-23	-3	7	-0.4048257	0.1980397	-38.66147	0	11.63	4003	0	0	5	5	0.4002808	0.07388525	1	10	0.03	2000	-0.2910767	40.92393	-91.39362
211130	-25	-5	1	-0.4017192	0.1974748	-38.66935	0	11.63	4004	0	0	5	5	0.4002808	0.0788191	1	10	0.03	2000	-0.05181885	40.92393	-91.39362
211222	-22	2	2	-0.3910732	0.2031137	-38.67502	0	11.63	4003	0	0	5	5	0.4002808	0.0789161	1	10	0.03	2000	-0.3090515	40.92393	-91.39362
211289	-20	8	8	-0.391192	0.2041368	-38.68119	0	11.63	4003	0	0	5	5	0.4002808	0.07349528	1	10	0.03	2000	-0.06552124	40.92393	-91.39362
211397	-26	0	3	-0.3877927	0.2133006	-38.68857	0	11.63	4004	0	0	5	5	0.4002808	0.05659062	1	10	0.03	2000	-0.3231201	40.92393	-91.39362
211476	-31	-1	1	-0.3873556	0.2161913	-38.69248	0	11.63	4003	0	0	5	5	0.4002808	0.04472486	1	10	0.03	2000	-0.314209	40.92393	-91.39362
211586	-26	0	1	-0.3926224	0.216914	-38.69742	0	11.63	4004	0	0	5	5	0.4002808	0.03478042	1	10	0.03	2000	-0.06954956	40.92393	-91.39362
211703	-25	-1	4	-0.3911536	0.2189943	-38.70444	0	11.63	4004	0	0	5	5	0.4002808	0.02680915	1	10	0.03	2000	-0.3112488	40.92394	-91.39362
211793	-20	2	3	-0.3829782	0.2127913	-38.70554	0	11.63	4004	0	0	5	5	0.4002808	0.028003	1	10	0.03	2000	-0.3111572	40.92394	-91.39362
211880	-28	1	-1	-0.3820706	0.2125489	-38.71097	0	11.63	4004	0	0	5	5	0.4002808	0.03061076	1	10	0.03	2000	-0.332489	40.92394	-91.39362
212023	-23	2	4	-0.3745055	0.2163126	-38.71878	0	11.68	4003	0	0	5	5	0.4002808	0.04093649	1	10	0.03	2000	-0.3412781	40.92394	-91.39362
212072	-26	2	3	-0.3723825	0.2127149	-38.72293	0	11.68	4003	0	0	5	5	0.4002808	0.04242362	1	10	0.03	2000	-0.3412781	40.92394	-91.39362
212215	-20	-3	5	-0.3732605	0.2061312	-38.73423	0	11.68	4004	0	0	5	5	0.4002808	0.04962822	1	10	0.03	2000	-0.3388672	40.92394	-91.39362
212351	-14	4	6	-0.3677516	0.2081333	-38.74106	0	11.68	4003	0	0	5	5	0.4002808	0.0498416	1	10	0.03	2000	-0.1017761	40.92394	-91.39362
212383	-33	3	2	-0.3672462	0.2100318	-38.74344	0	11.68	4004	0	0	5	5	0.4002808	0.04679386	1	10	0.03	2000	-0.3526917	40.92394	-91.39362
212466	-27	3	1	-0.3682235	0.2099753	-38.74887	0	11.68	4002	0	0	5	5	0.4002808	0.04606	1	10	0.03	2000	-0.3520203	40.92394	-91.39362
212592	-15	2	3	-0.3684942	0.2065569	-38.75687	0	11.68	4002	0	0	5	5	0.4002808	0.04304127	1	10	0.03	2000	-0.3468323	40.92394	-91.39362
212667	-18	-1	1	-0.3690392	0.2084849	-38.75919	0	11.68	4004	0	0	5	5	0.4002808	0.03792862	1	10	0.03	2000	-0.1046753	40.92394	-91.39362
212789	-19	3	6	-0.3613336	0.2081119	-38.76773	0	11.68	4003	0	0	5	5	0.4002808	0.02768599	1	10	0.03	2000	-0.360321	40.92393	-91.39362
212893	-19	-1	4	-0.3625171	0.2095726	-38.77219	0	11.63	4003	0	0	5	5	0.4002808	0.01280044	1	10	0.03	2000	-0.3603516	40.92393	-91.39362
212949	-18	3	6	-0.361497	0.2126618	-38.77494	0	11.63	4002	0	0	5	5	0.4002808	0.004671816	1	10	0.03	2000	-0.3586731	40.92393	-91.39362
213042	-30	4	0	-0.3596538	0.2124101	-38.78098	0	11.63	4002	0	0	5	5	0.4002808	0.0004122008	1	10	0.03	2000	-0.1246643	40.92393	-91.39362
213141	-20	0	6	-0.3655645	0.2104664	-38.78562	0	11.63	4003	0	0	5	5	0.4002808	0.005019047	1	10	0.03	2000	-0.3592834	40.92393	-91.39362
213246	-19	5	7	-0.3636176	0.2056146	-38.79056	0	11.63	4003	0	0	5	5	0.4002808	0.01519622	1	10	0.03	2000	-0.3591919	40.92393	-91.39362
213408	-25	-1	6	-0.3643267	0.2048775	-38.80271	0	11.63	4002	0	0	5	5	0.4002808	0.02849647	1	10	0.03	2000	-0.3601074	40.92393	-91.39362
213441	-25	-1	6	-0.3643267	0.2048775	-38.80271	0	11.63	4002	0	0	5	5	0.4002808	0.03626959	1	10	0.03	2000	-0.3601074	40.92393	-91.39362
213548	-19	3	1	-0.3583136	0.1985162	-38.8079	0	11.63	4004	0	0	5	5	0.4002808	0.05127484	1	10	0.03	2000	-0.3627319	40.92393	-91.39362
213665	-19	0	-1	-0.3562559	0.195888	-38.81607	0	11.63	4002	0	0	5	5	0.4002808	0.05986614	1	10	0.03	2000	-0.3676758	40.92393	-91.39362
213752	-21	0	2	-0.3571021	0.1965724	-38.81955	0	11.68	4002	0	0	5	5	0.4002808	0.06669565	1	10	0.03	2000	-0.369751	40.92393	-91.39362
213903	-17	0	0	-0.3669449	0.1983267	-38.82694	0	11.68	4002	0	0	5	5	0.4002808	0.07806984	1	10	0.03	2000	-0.3556519	40.92393	-91.39362
214009	-20	4	4	-0.3650537	0.1949039	-38.83292	0	11.68	4002	0	0	5	5	0.4002808	0.07275969	1	10	0.03	2000	-0.3574829	40.92393	-91.39362
214058	-16	0	5	-0.3665338	0.1950934	-38.83609	0	11.68	4004	0	0	5	5	0.4002808	0.07108214	1	10	0.03	2000	-0.3575745	40.92393	-91.39362
214141	-20	-4	2	-0.3588066	0.201882	-38.84177	0	11.68	4004	0	0	5	5	0.4002808	0.06813508	1	10	0.03	2000	-0.3625793	40.92393	-91.39362
214259	-21	8	11	-0.3555623	0.1995979	-38.84751	0	11.68	4004	0	0	5	5	0.4002808	0.06897004	1	10	0.03	2000	-0.3683777	40.92394	-91.39362
214351	-26	-4	7	-0.3538468	0.1993936	-38.85294	0	11.68	4004	0	0	5	5	0.4002808	0.06717327	1	10	0.03	2000	-0.3735352	40.92394	-91.39362
214468	-20	-2	7	-0.3518128	0.2033603	-38.85978	0	11.68	4003	0	0	5	5	0.4002808	0.0734726	1	10	0.03	2000	-0.3785095	40.92393	-91.39362
214571	-19	2	1	-0.3489222	0.2036686	-38.86435	0	11.68	4004	0	0	5	5	0.4002808	0.07518692	1	10	0.03	2000	-0.3793945	40.92393	-91.39362
214695	-26	5	-1	-0.3566967	0.2035872	-38.86893	0	11.63	4002	0	0	5	5	0.4002808	0.07187904	1	10	0.03	2000	-0.3857117	40.92393	-91.39362
214861	-21	3	4	-0.3484133	0.2034229	-38.87626	0	11.63	4003	0	0	5	5	0.4002808	0.04860031	1	10	0.03	2000	-0.1396484	40.92393	-91.39362
214926	-25	0	3	-0.3504229	0.2064616	-38.87851	0	11.63	4003	0	0	5	5	0.4002808	0.04366527	1	10	0.03	2000	-0.3826294	40.92393	-91.39362
215038	-22	0	7	-0.3499132	0.2130894	-38.88669	0	11.63	4003	0	0	5	5	0.4002808	0.03434469	1	10	0.03	2000	-0.1407471	40.92394	-91.39362
215122	-15	2	7	-0.3437246	0.2113966	-38.89005	0	11.63	4004	0	0	5	5	0.4002808	0.03236783	1	10	0.03	2000	-0.3883057	40.92394	-91.39362
215242	-23	0	1	-0.3422505	0.2056063	-38.89603	0	11.63	4004	0	0	5	5	0.4002808	0.02968461	1	10	0.03	2000	-0.3912048	40.92393	-91.39362
215278	-23	7	2	-0.3423871	0.203407	-38.89743	0	11.63	4003	0	0	5	5	0.4002808	0.02923308	1	10	0.03	2000	-0.3912048	40.92393	-91.39362
215382	-17	2	3	-0.351693	0.2035374	-38.90311	0	11.63	4003	0	0	5	5	0.4002808	0.015945	1	10	0.03	2000	-0.1439514	40.92393	-91.39362
215426	-26	3	9	-0.3506624	0.2058283	-38.90769	0	11.63	4003	0	0	5	5	0.4002808	0.01206309	1	10	0.03	2000	-0.3772888	40.92393	-91.39362
215543	-19	0	5	-0.3511304	0.2077151	-38.91184	0	11.68	4003	0	0	5	5	0.4002808	0.006371831	1	10	0.03	2000	-0.3789673	40.92393	-91.39362
215772	-22	-3	7	-0.3414569	0.217537	-38.9224	0	11.68	4002	0	0	5	5	0.03610154	-0.02048003	6	10	0.03	2000	-0.1453247	40.92393	-91.39362
215904	-17	-4	2	-0.3423564	0.2156694	-38.92813	0	11.68	4004	0	0	5	5	0.03523789	-0.02835568	6	10	0.03	2000	-0.3995056	40.92393	-91.39362
216006	-18	-1	3	-0.3430454	0.2172267	-38.93418	0	11.68	4003	0	0	5	5	0.03777314	-0.03555197	6	10	0.03	2000	-0.3936768	40.92393	-91.39362
216054	-13	1	1	-0.3402834	0.2176555	-38.93625	0	11.68	4003	0	0	5	5	0.03867733	-0.03502914	6	10	0.03	2000	-0.1524963	40.92393	-91.39362
216197	-17	0	4	-0.3416926	0.2144501	-38.94345	0	11.68	4003	0	0	5	5	0.03944523	-0.03339174	6	10	0.03	2000	-0.3973999	40.92393	-91.39362
216274	-19	-5	5	-0.3411918	0.214799	-38.94584	0	11.68	4004	0	0	5	5	0.03970587	-0.03526663	6	10	0.03	2000	-0.3955383	40.92393	-91.39362
216405	-19	-3	0	-0.3425447	0.2236198	-38.95011	0	11.68	4003	0	0	5	5	0.03870564	-0.04882823	5	10	0.03	2000	-0.3887634	40.92393	-91.39362
216497	-16	-2	1	-0.33914	0.2232996	-38.9531	0	11.68	4004	0	0	5	5	0.03969242	-0.05362002	5	10	0.03	2000	-0.3961792	40.92393	-91.39362
216667	-16	0	1	-0.3216781	0.2204189	-38.96091	0	11.68	4003	0	0	5	5	0.03876705	-0.05567165	5	10	0.03	2000	-0.1869202	40.92393	-91.39362
216721	-19	-3	3	-0.3230768	0.2213874	-38.96311	0	11.68	4003	0	0	5	5	0.03978735	-0.05316599	5	10	0.03	2000	-0.1869202	40.92393	-91.39362
216816	-22	-1	0	-0.3258663	0.2190317	-38.96933	0	11.68	4004	0	0	5	5	0.04030883	-0.05381367	5	10	0.03	2000	-0.4259644	40.92393	-91.39362
216899	-11	5	3	-0.3242607	0.2185421	-38.97068	0	11.68	4002	0	0	5	5	0.04091131	-0.05552051	5	10	0.03	2000	-0.4259644	40.92393	-91.39362
217032	-18	-3	4	-0.31993	0.2169887	-38.98056	0	11.68	4002	0	0	5	5	0.04111042	-0.05685402	5	10	0.03	2000	-0.4317932	40.92393	-91.39362
217144	-9	3	2	-0.3183781	0.2173642	-38.98801	0	11.68	4004	0	0	5	5	0.0410851	-0.06253348	5	10	0.03	2000	-0.4331055	40.92393	-91.39362
217199	-18	0	6	-0.3211454	0.2152896	-38.9907	0	11.68	4003	0	0	5	5	0.04108619	-0.06406273	5	10	0.03	2000	-0.4360657	40.92393	-91.39362
217317	-20	0	2	-0.3174473	0.2186218	-38.99686	0	11.68	4003	0	0	5	5	0.04131131	-0.05922268	5	10	0.03	2000	-0.4322815	40.92393	-91.39362
217426	-3	-6	-1	-0.3119493	0.2267906	-39.00235	0	11.74	4003	0	0	5	5	0.04131627	-0.04658093	5	10	0.03	2000	-0.4420471	40.92393	-91.39362
217557	-16	1	-1	-0.3040259	0.2219716	-39.00766	0	11.74	4003	0	0	5	5	0.04106091	-0.03490213	5	10	0.03	2000	-0.4564514	40.92393	-91.39362
217635	-13	0	-1	-0.3014685	0.2191148	-39.01163	0	11.74	4003	0	0	5	5	0.04118607	-0.03170146	5	10	0.03	2000	-0.4608765	40.92393	-91.39362
217773	-18	0	6	-0.3086101	0.2218415	-39.01743	0	11.74	4004	0	0	5	5	0.04144398	-0.0192616	5	10	0.03	2000	-0.455719	40.92393	-91.39362
217815	-14	0	5	-0.3106063	0.224179	-39.01847	0	11.74	4003	0	0	5	5	0.04155278	-0.018592	5	10	0.03	2000	-0.455719	40.92393	-91.39362
217970	-16	-6	6	-0.3001952	0.2156327	-39.0253	0	11.74	4002	0	0	5	5	0.04195378	-0.0152463	5	10	0.03	2000	-0.2200317	40.92393	-91.39362
218030	-18	0	0	-0.2949801	0.2101893	-39.02927	0	11.74	4002	0	0	5	5	0.04206364	-0.01399881	5	10	0.03	2000	-0.4723206	40.92393	-91.39362
218160	-20	6	4	-0.2938242	0.2092668	-39.03116	0	11.74	4004	0	0	5	5	0.03753949	-0.01651901	5	10	0.03	2000	-0.4759827	40.92393	-91.39362
218260	-19	-1	7	-0.2944123	0.2127896	-39.03562	0	11.74	4002	0	0	5	5	0.03822567	-0.01846785	5	10	0.03	2000	-0.2393799	40.92393	-91.39362
218394	-9	0	6	-0.2971153	0.208632	-39.04251	0	11.63	4004	0	0	5	5	0.03995485	-0.01323063	5	10	0.03	2000	-0.471344	40.92393	-91.39362
