time(ms)	gyro_x(deg/s)	gyro_y(deg/s)	gyro_z(deg/s)	orientation_roll(deg)	orientation_pitch(deg)	orientation_yaw(deg)	throttle	battery(V)	loop_time(uS)	pid_output_roll	pid_output_pitch	pid_output_yaw	pid_output_throttle	ultrasonic_alt	baro_alt	flight_mode	p_gain_altitude	i_gain_altitude	d_gain_altitude	compass_heading	latitude	longitude
372147	-308	-2	1006	-0.315682	-1.955088	-29.12619	0	10.21	4002	-15	-1	5	5	0.3508888	1.724166	8	10	0.03	2000	8.622434	40.92392	-91.39361
372276	3117	3405	-1390	-0.9950745	-6.203962	-30.00571	0	10.21	4003	-18	-42	5	5	0.3508888	1.790216	8	10	0.03	2000	11.82204	40.92392	-91.39362
372338	2167	5534	1483	3.042099	-12.49011	-30.5735	0	10.55	4004	-18	-42	5	5	0.3508888	1.797102	8	10	0.03	2000	15.20361	40.92392	-91.39362
372449	1539	1898	-1451	3.661008	-17.42356	-29.97529	0	10.55	4003	-17	-42	5	5	0.3508888	1.819177	8	10	0.03	2000	18.08908	40.92392	-91.39362
372490	1522	3006	163	3.419113	-18.03177	-29.6722	0	10.55	4004	-18	-42	5	5	0.3508888	1.820921	8	10	0.03	2000	18.08908	40.92392	-91.39362
372650	1410	-975	-1192	0.9628379	-17.2076	-28.15878	0	10.55	4003	-17	-83	5	5	0.3508888	1.836675	8	10	0.03	2000	20.37317	40.92392	-91.39362
372748	349	-2664	615	1.210374	-14.45691	-28.04309	0	10.55	4003	-18	-83	5	5	0.3508888	1.83562	8	10	0.03	2000	23.32376	40.92392	-91.39362
372844	-186	737	416	0.6293912	-9.107848	-29.02545	0	10.55	4004	61	-85	5	5	0.3508888	1.831488	8	10	0.03	2000	25.20435	40.92391	-91.39362
372963	-663	132	-1082	-1.938602	-11.2637	-29.70462	0	10.55	4002	-20	-84	5	5	0.3508888	1.820196	8	10	0.03	2000	26.49415	40.92391	-91.39362
372997	1002	-25	-820	-1.839807	-11.17739	-29.76088	0	10.55	4002	-20	-84	5	5	0.3508888	1.816357	8	10	0.03	2000	23.65155	40.92391	-91.39362
373152	-515	-541	-1203	0.06227751	-10.19318	-27.88969	0	10.55	4003	-20	-126	5	5	0.3508888	1.798466	8	10	0.03	2000	27.27254	40.92391	-91.39362
373219	711	1530	650	0.1362405	-10.71309	-27.66233	0	11	4003	-20	-86	5	5	0.3508888	1.785996	8	10	0.03	2000	26.02477	40.92391	-91.39362
373342	-102	1223	1488	0.09352542	-10.33685	-29.45971	0	11	4004	-20	-86	5	5	0.3508888	1.758728	8	10	0.03	2000	25.43413	40.92391	-91.39362
373458	1510	-645	-148	0.1632089	-10.53768	-29.88593	0	11	4003	-20	-46	5	5	0.3508888	1.730437	8	10	0.03	2000	28.69349	40.92391	-91.39362
373556	-1397	1482	251	-0.778236	-8.337296	-30.46442	0	11	4002	58	-87	5	5	0.3508888	1.70767	8	10	0.03	2000	27.13196	40.9239	-91.39362
373611	-450	361	-981	-0.9506827	-8.589168	-30.29095	0	11	4002	59	-87	5	5	0.3508888	1.657824	8	10	0.03	2000	27.13196	40.9239	-91.39362
373715	-1038	366	439	-1.483362	-7.584716	-29.52501	0	11	4002	59	-87	5	5	0.3508888	1.625463	8	10	0.03	2000	26.3513	40.9239	-91.39362
373804	-874	-430	1159	-2.104374	-8.790443	-28.65346	0	11	4003	59	-47	5	5	0.3508888	1.571768	8	10	0.03	2000	25.35614	40.9239	-91.39362
373908	-612	1113	785	-2.999099	-6.792616	-28.19813	0	11	4002	59	-47	5	5	0.3508888	1.544478	8	10	0.03	2000	24.7965	40.9239	-91.39362
374124	256	400	-391	-5.151008	-7.843791	-29.97291	0	11	4002	59	-47	5	5	0.3508888	1.471548	8	10	0.03	2000	25.61912	40.9239	-91.39362
374258	-260	-1965	-1338	-3.946006	-5.986271	-28.6054	0	10.43	4002	59	-7	5	5	0.3508888	1.428478	8	10	0.03	2000	26.02779	40.9239	-91.39362
374339	-1343	-1206	-1566	-4.868969	-5.37453	-28.42124	0	10.43	4002	59	-7	5	5	0.3508888	1.407506	8	10	0.03	2000	26.02779	40.9239	-91.39362
374475	-667	-118	373	-4.94164	-4.921538	-28.77321	0	10.43	4002	59	-48	5	5	0.3508888	1.363198	8	10	0.03	2000	28.41655	40.9239	-91.39362
374597	-1149	727	1374	-6.069947	-4.647994	-29.4175	0	10.43	4002	59	-48	5	5	0.3508888	1.327998	8	10	0.03	2000	27.88329	40.9239	-91.39362
374727	-1800	1592	697	-8.402466	-5.856095	-29.25482	0	10.43	4002	142	-48	5	5	0.3508888	1.30132	8	10	0.03	2000	23.469	40.9239	-91.39362
374827	159	3296	-592	-9.209616	-8.486651	-28.54059	0	10.43	4004	142	-48	5	5	0.3508888	1.293334	8	10	0.03	2000	19.5773	40.9239	-91.39362
374941	442	1243	-640	-9.652635	-14.66849	-28.50401	0	10.43	4002	142	-48	5	5	0.3508888	1.288344	8	10	0.03	2000	16.06495	40.9239	-91.39362
375021	-365	1382	1075	-7.90646	-15.13938	-28.40524	0	10.43	4004	142	-48	5	5	0.3508888	1.282553	8	10	0.03	2000	13.45037	40.9239	-91.39362
375118	-2329	-1190	688	-9.324854	-13.97562	-28.7596	0	10.77	4002	142	-8	5	5	0.3508888	1.28107	8	10	0.03	2000	11.19625	40.9239	-91.39362
375301	737	47	-22	-10.24156	-8.74596	-29.29857	0	10.77	4003	62	-49	5	5	0.3508888	1.302474	8	10	0.03	2000	9.795718	40.9239	-91.39362
375325	943	-1082	438	-7.580574	-8.450946	-29.0509	0	10.77	4002	62	-49	5	5	0.3508888	1.302474	8	10	0.03	2000	7.129928	40.9239	-91.39362
375457	-1648	667	2130	-7.201351	-6.256442	-29.11662	0	10.77	4004	62	-49	5	5	0.3508888	1.321771	8	10	0.03	2000	7.410741	40.9239	-91.39362
375544	1803	2599	435	-7.577286	-9.135245	-29.98254	0	10.77	4003	62	-49	5	5	0.3508888	1.333639	8	10	0.03	2000	5.556202	40.9239	-91.39362
375629	865	-1088	1099	-5.005471	-8.099605	-29.90625	0	10.77	4002	62	-49	5	5	0.3508888	1.34563	8	10	0.03	2000	6.221399	40.9239	-91.39362
375755	-717	834	-144	-5.745604	-5.991377	-28.71674	0	10.77	4003	62	-49	5	5	0.3508888	1.375812	8	10	0.03	2000	9.715491	40.9239	-91.39362
375844	-838	-1186	412	-6.377634	-6.782101	-28.65935	0	10.77	4003	62	-9	5	5	0.3508888	1.384057	8	10	0.03	2000	7.643616	40.9239	-91.39362
375996	494	-551	632	-6.538561	-3.878863	-28.97458	0	10.55	4002	62	-9	5	5	0.3508888	1.396759	8	10	0.03	2000	8.689934	40.9239	-91.39362
376100	-562	-397	384	-7.486196	-3.807896	-29.25327	0	10.55	4002	62	-50	5	5	0.3508888	1.405583	8	10	0.03	2000	10.80391	40.92389	-91.39362
376127	641	-357	-796	-7.01241	-3.859523	-29.11869	0	10.55	4002	62	-50	5	5	0.3508888	1.409077	8	10	0.03	2000	10.15306	40.92389	-91.39362
376268	1325	1630	1361	-5.528309	-6.668643	-29.3182	0	10.55	4004	62	-51	5	5	0.3508888	1.426288	8	10	0.03	2000	11.58507	40.92389	-91.39362
376329	3056	1728	1014	-4.528162	-7.159418	-29.25534	0	10.55	4002	-20	-50	5	5	0.3508888	1.427195	8	10	0.03	2000	9.852451	40.92389	-91.39362
376543	1748	-1069	-630	2.594659	-7.464917	-28.35437	0	10.55	4004	-20	-92	5	5	0.3508888	1.421437	8	10	0.03	2000	13.50971	40.92389	-91.39362
376701	-1072	478	433	1.197954	-10.72418	-28.83484	0	10.55	4004	-20	-52	5	5	0.3508888	1.40727	8	10	0.03	2000	20.02865	40.92389	-91.39362
376759	281	-1185	864	-0.4638566	-9.184457	-28.92813	0	10.55	4002	-37	-62	5	5	0.3508888	1.400369	8	10	0.03	2000	22.0664	40.92389	-91.39362
376966	1180	2453	-213	1.589489	-9.302841	-28.17311	0	10.89	4003	-40	-111	5	5	0.3508888	1.372517	8	10	0.03	2000	25.46145	40.92389	-91.39363
377129	620	234	-1621	0.3057209	-10.35191	-27.16014	0	10.89	4002	-22	-53	5	5	0.3508888	1.339751	8	10	0.03	2000	27.59793	40.92389	-91.39363
377256	-253	-2232	-274	-0.7240567	-10.00439	-28.16736	0	10.89	4003	-22	-94	5	5	0.3508888	1.319746	8	10	0.03	2000	30.07048	40.92388	-91.39363
377320	-394	468	764	-0.3770248	-9.435716	-28.74526	0	10.89	4002	-22	-94	5	5	0.3508888	1.306176	8	10	0.03	2000	28.83689	40.92388	-91.39363
377394	116	196	-830	-1.576602	-9.744434	-29.73306	0	10.89	4003	-22	-94	5	5	0.3508888	1.297495	8	10	0.03	2000	30.50779	40.92388	-91.39363
377462	1024	-60	-1544	-0.9320406	-10.10326	-29.92304	0	10.89	4002	-22	-94	5	5	0.3508888	1.284124	8	10	0.03	2000	31.2	40.92388	-91.39363
377566	588	-14	-2072	-0.6654814	-9.591928	-28.9001	0	10.89	4003	57	-54	5	5	0.3508888	1.272259	8	10	0.03	2000	31.8211	40.92388	-91.39363
377685	-233	2209	1569	-3.382388	-14.27489	-28.39615	0	10.89	4004	57	-54	5	5	0.3508888	1.258858	8	10	0.03	2000	28.43936	40.92388	-91.39363
377882	-510	2211	1001	-3.454983	-19.98254	-29.09237	0	10.6	4002	57	-56	5	5	0.3508888	1.256911	8	10	0.03	2000	25.03001	40.92387	-91.39363
378059	-616	-2505	556	-4.230269	-15.52774	-28.66339	0	10.6	4004	57	-55	5	5	0.3508888	1.268606	8	10	0.03	2000	22.83467	40.92387	-91.39363
378108	-236	-2134	-112	-4.756611	-11.7198	-28.76199	0	10.6	4002	59	-44	5	5	0.3508888	1.27787	8	10	0.03	2000	22.2873	40.92387	-91.39363
378220	-186	-1550	-986	-4.528903	-10.40571	-28.44793	0	10.6	4002	55	-66	5	5	0.3508888	1.283675	8	10	0.03	2000	22.33756	40.92387	-91.39363
378259	-386	-1184	-149	-4.49948	-9.887776	-28.57632	0	10.6	4002	57	-55	5	5	0.3508888	1.287277	8	10	0.03	2000	23.08363	40.92387	-91.39363
378376	280	1519	1406	-4.767817	-10.00879	-28.79263	0	10.6	4002	57	-16	5	5	0.3508888	1.30366	8	10	0.03	2000	21.34973	40.92387	-91.39363
378489	-1518	-1135	-1101	-6.812607	-10.82045	-29.68591	0	10.6	4002	139	-15	5	5	0.3508888	1.326889	8	10	0.03	2000	20.01015	40.92387	-91.39362
378574	-1323	-1700	-668	-8.035716	-8.941103	-29.75583	0	10.6	4004	139	-15	5	5	0.3508888	1.343915	8	10	0.03	2000	19.92085	40.92387	-91.39362
378721	-137	-1964	-906	-10.34341	-4.33278	-29.08138	0	10.6	4003	139	25	5	5	0.3508888	1.375192	8	10	0.03	2000	19.13856	40.92388	-91.39362
378837	-1189	-477	-163	-10.2745	-3.503759	-29.01277	0	11	4003	139	25	5	5	0.3508888	1.390204	8	10	0.03	2000	17.31371	40.92388	-91.39362
378907	-652	-189	304	-10.20155	-4.277054	-29.53904	0	11	4005	139	25	5	5	0.3508888	1.408462	8	10	0.03	2000	15.85724	40.92388	-91.39362
378958	-1181	-433	-557	-10.56166	-4.332544	-29.89738	0	11	4004	139	25	5	5	0.3508888	1.422275	8	10	0.03	2000	15.85724	40.92388	-91.39362
379115	85	-4237	-1191	-10.51985	-1.314186	-30.12879	0	11	4003	58	79	5	5	0.3508888	1.437726	8	10	0.03	2000	16.06351	40.92389	-91.39362
379156	85	-4237	-1191	-10.51985	-1.314186	-30.12879	0	11	4003	59	66	5	5	0.3508888	1.439502	8	10	0.03	2000	16.06351	40.92389	-91.39362
379327	2609	1700	-217	-5.116604	-0.3527772	-28.7375	0	11	4003	59	27	5	5	0.3508888	1.439696	8	10	0.03	2000	9.716763	40.92389	-91.39362
379364	2609	1700	-217	-5.116604	-0.3527772	-28.7375	0	11	4003	59	26	5	5	0.3508888	1.44072	8	10	0.03	2000	9.716763	40.92389	-91.39362
379488	793	2559	119	2.765708	-4.295701	-28.79345	0	11	4003	58	31	5	5	0.3508888	1.442441	8	10	0.03	2000	14.17999	40.92389	-91.39362
379590	-475	3521	-955	1.605392	-10.64656	-28.36089	0	11	4003	59	26	5	5	0.3508888	1.439989	8	10	0.03	2000	15.23258	40.92389	-91.39362
379694	-2007	1452	565	0.02753236	-13.17336	-28.39885	0	10.15	4004	59	-13	5	5	0.3508888	1.426962	8	10	0.03	2000	15.08354	40.92389	-91.39362
379786	-369	1975	-449	-2.368802	-15.58341	-28.90868	0	10.15	4004	59	-13	5	5	0.3508888	1.400589	8	10	0.03	2000	14.53959	40.92389	-91.39362
379914	525	2908	-205	-3.42942	-17.93073	-29.79756	0	10.15	4003	59	-13	5	5	0.3508888	1.383479	8	10	0.03	2000	13.42073	40.92389	-91.39362
380021	100	-132	-939	-3.915717	-17.5506	-28.85512	0	10.15	4002	59	-13	5	5	0.3508888	1.364854	8	10	0.03	2000	12.98018	40.92389	-91.39362
380079	-283	-2132	-757	-3.836963	-16.6461	-28.74587	0	10.15	4002	59	-13	5	5	0.3508888	1.360881	8	10	0.03	2000	11.61438	40.92389	-91.39362
380173	-740	-190	916	-5.16272	-10.76377	-29.08961	0	10.15	4004	59	-13	5	5	0.3508888	1.362569	8	10	0.03	2000	13.35564	40.92389	-91.39362
380300	650	-367	-657	-5.350183	-8.955147	-29.14116	0	10.15	4003	59	-13	5	5	0.3508888	1.370746	8	10	0.03	2000	12.82569	40.92389	-91.39362
380460	1619	-2419	-176	-2.734686	-4.068572	-28.71792	0	10.15	4002	-23	27	5	5	0.3508888	1.383557	8	10	0.03	2000	14.10752	40.92389	-91.39363
380507	739	-891	1355	-2.426004	-3.036	-28.84602	0	10.15	4004	-22	27	5	5	0.3508888	1.388849	8	10	0.03	2000	14.10752	40.92389	-91.39363
380584	1785	1199	864	-1.537105	-3.38899	-29.0287	0	10.15	4003	-40	33	5	5	0.3508888	1.392026	8	10	0.03	2000	16.66796	40.92389	-91.39363
380730	-408	-1781	-401	-0.3312631	-4.02961	-29.27006	0	10.66	4004	-23	27	5	5	0.3508888	1.414205	8	10	0.03	2000	18.1611	40.92389	-91.39363
380786	263	-153	948	-1.218457	-1.746221	-29.4665	0	10.66	4003	-23	27	5	5	0.3508888	1.415613	8	10	0.03	2000	21.77564	40.92389	-91.39363
380875	642	1635	1075	-0.1485499	-2.939739	-29.4962	0	10.66	4004	-23	27	5	5	0.3508888	1.414674	8	10	0.03	2000	23.06025	40.92389	-91.39363
380977	-245	-2974	-408	0.111657	-3.741347	-29.1562	0	10.66	4002	-23	27	5	5	0.3508888	1.415051	8	10	0.03	2000	22.85947	40.92389	-91.39363
381199	-653	-197	387	-2.956795	-2.599625	-29.00842	0	10.66	4002	57	29	5	5	0.3508888	1.402932	8	10	0.03	2000	29.69449	40.92389	-91.39363
381383	-58	2044	968	-4.0864	-2.423917	-29.60936	0	10.66	4004	57	29	5	5	0.3508888	1.390925	8	10	0.03	2000	33.83998	40.92389	-91.39363
381444	-793	-1357	496	-4.483979	-2.852858	-29.72246	0	10.66	4002	-24	29	5	5	0.3508888	1.38801	8	10	0.03	2000	33.83998	40.92389	-91.39364
381545	2112	-1218	823	-3.968648	-0.1704688	-28.98582	0	10.66	4002	-25	29	5	5	0.3508888	1.379447	8	10	0.03	2000	39.29712	40.92389	-91.39364
381667	-169	-1710	911	0.07151776	-0.7770032	-28.36765	0	10.94	4003	-43	34	5	5	0.3508888	1.373041	8	10	0.03	2000	39.76678	40.92389	-91.39364
381772	235	1859	-554	0.5273578	-1.910726	-28.51266	0	10.94	4004	-25	-11	5	5	0.3508888	1.365736	8	10	0.03	2000	45.25314	40.92389	-91.39364
381797	-484	2340	-285	0.2783723	-3.865528	-28.87773	0	10.94	4002	-25	-10	5	5	0.3508888	1.364625	8	10	0.03	2000	45.09675	40.92389	-91.39364
381934	461	3443	918	0.5954973	-10.4774	-29.34681	0	10.94	4004	-25	-11	5	5	0.3508888	1.358334	8	10	0.03	2000	48.44849	40.92389	-91.39364
381995	-697	1311	-80	0.2900364	-11.55431	-29.49252	0	10.94	4004	57	-11	5	5	0.3508888	1.35763	8	10	0.03	2000	48.44849	40.92389	-91.39363
382092	-1242	-18	-653	-2.086963	-11.88167	-29.55845	0	10.94	4004	137	-11	5	5	0.3508888	1.356816	8	10	0.03	2000	42.5372	40.92389	-91.39363
382194	-3228	-309	-1383	-5.807046	-12.46976	-29.32729	0	10.94	4003	137	-52	5	5	0.3508888	1.363285	8	10	0.03	2000	39.57175	40.92389	-91.39363
382304	-910	-459	-1026	-9.069143	-12.16164	-29.41471	0	10.94	4003	137	-52	5	5	0.3508888	1.371377	8	10	0.03	2000	35.12889	40.92389	-91.39363
382399	-268	3437	1105	-8.424549	-16.2288	-29.19692	0	10.94	4003	136	-52	5	5	0.3508888	1.376967	8	10	0.03	2000	33.93322	40.92389	-91.39363
382596	-1213	2150	418	-8.209488	-17.82626	-29.38541	0	9.92	4003	137	-52	5	5	0.3508888	1.39861	8	10	0.03	2000	27.89458	40.92389	-91.39363
382627	-1819	49	745	-8.966168	-17.88798	-29.54745	0	9.92	4004	137	-52	5	5	0.3508888	1.400323	8	10	0.03	2000	19.92648	40.92389	-91.39363
382715	1766	878	79	-7.233928	-16.34805	-28.61529	0	9.92	4002	57	-52	5	5	0.3508888	1.403949	8	10	0.03	2000	15.43842	40.92389	-91.39363
382805	158	-2109	-1044	-6.685489	-15.06429	-28.39418	0	9.92	4003	57	-53	5	5	0.3508888	1.410621	8	10	0.03	2000	14.94908	40.92389	-91.39363
382967	1010	-1988	-686	-7.775514	-8.138029	-28.83365	0	9.92	4004	57	-53	5	5	0.3508888	1.425822	8	10	0.03	2000	15.21719	40.92389	-91.39363
383053	1309	1236	762	-6.488162	-7.624111	-28.86853	0	9.92	4002	57	-53	5	5	0.3508888	1.436455	8	10	0.03	2000	16.17329	40.92389	-91.39363
383154	-1270	616	223	-6.877628	-9.413118	-28.42918	0	9.92	4003	139	-94	5	5	0.3508888	1.455943	8	10	0.03	2000	16.4204	40.92388	-91.39362
383254	-2628	312	855	-9.188036	-8.923463	-28.80533	0	9.92	4003	154	-113	5	5	0.3508888	1.482984	8	10	0.03	2000	14.47136	40.92388	-91.39362
383302	-2628	312	855	-9.188036	-8.923463	-28.80533	0	9.92	4003	139	-94	5	5	0.3508888	1.508006	8	10	0.03	2000	14.47136	40.92388	-91.39362
383419	117	1064	233	-7.845329	-13.02308	-29.39001	0	10.43	4002	139	-54	5	5	0.3508888	1.562681	8	10	0.03	2000	10.82856	40.92388	-91.39362
383497	1710	1625	706	-6.337138	-13.01255	-29.3431	0	10.43	4003	57	-54	5	5	0.3508888	1.573395	8	10	0.03	2000	10.1887	40.92388	-91.39363
383666	3180	2912	940	-0.6765258	-16.81047	-29.23099	0	10.43	4002	57	-54	5	5	0.3508888	1.646834	8	10	0.03	2000	10.25011	40.92388	-91.39363
383704	4228	3167	1793	1.520795	-18.4311	-29.32257	0	10.43	4003	57	-54	5	5	0.3508888	1.672979	8	10	0.03	2000	9.628783	40.92388	-91.39363
383927	1323	-669	161	9.976398	-13.96494	-30.22717	0	10.43	4003	-22	-14	5	5	0.3508888	1.711565	8	10	0.03	2000	16.10892	40.92388	-91.39363
384046	-261	-3659	-1532	5.220457	-8.800628	-28.82818	0	10.43	4004	-23	-14	5	5	0.3508888	1.723886	8	10	0.03	2000	17.42337	40.92388	-91.39363
384159	-4015	231	-2	1.717879	-6.149463	-29.09389	0	10.43	4004	57	-14	5	5	0.3508888	1.726048	8	10	0.03	2000	19.87013	40.92388	-91.39363
384226	-647	-318	-81	-1.247588	-6.185144	-29.42517	0	10.43	4004	57	26	5	5	0.3508888	1.724762	8	10	0.03	2000	19.34077	40.92389	-91.39363
384434	-1246	-645	-1252	-3.122786	-2.084446	-29.3337	0	10.77	4003	57	26	5	5	0.3508888	1.700376	8	10	0.03	2000	22.95636	40.92389	-91.39363
384528	653	-1584	-1516	-3.152427	-1.335008	-29.05598	0	10.77	4004	57	26	5	5	0.3508888	1.680636	8	10	0.03	2000	21.51275	40.92389	-91.39363
384711	634	-976	-38	-3.806243	0.7691416	-29.17536	0	10.77	4002	57	67	5	5	0.3508888	1.663673	8	10	0.03	2000	23.4268	40.92389	-91.39363
384837	455	-2405	-1091	-3.701895	0.7553705	-29.50467	0	10.77	4003	57	69	5	5	0.3508888	1.640276	8	10	0.03	2000	25.2824	40.92389	-91.39363
384893	-406	-1203	270	-2.920922	1.627521	-29.48357	0	10.77	4004	57	68	5	5	0.3508888	1.635872	8	10	0.03	2000	25.21869	40.92389	-91.39363
385000	-198	-1507	-914	-3.418296	1.962932	-29.14293	0	10.77	4003	57	110	5	5	0.3508888	1.623074	8	10	0.03	2000	26.43734	40.9239	-91.39363
385070	-661	-1800	-1222	-3.182635	2.594904	-28.75796	0	10.77	4004	57	110	5	5	0.3508888	1.591176	8	10	0.03	2000	29.0135	40.9239	-91.39363
385219	-634	-302	1195	-3.473241	2.501519	-28.78961	0	10.77	4004	57	110	5	5	0.3508888	1.552913	8	10	0.03	2000	28.37058	40.9239	-91.39363
385287	-857	-2585	630	-4.552402	3.736664	-29.10371	0	10.26	4003	57	70	5	5	0.3508888	1.519755	8	10	0.03	2000	28.30703	40.9239	-91.39363
385378	-679	567	-1200	-4.28848	4.712393	-29.49508	0	10.26	4003	57	111	5	5	0.3508888	1.493126	8	10	0.03	2000	33.36035	40.9239	-91.39363
385520	688	1680	395	-3.260223	1.668591	-29.42824	0	10.26	4003	57	71	5	5	0.3508888	1.429806	8	10	0.03	2000	35.19286	40.9239	-91.39363
385568	239	378	-1114	-3.07531	0.5548351	-29.18506	0	10.26	4004	57	71	5	5	0.3508888	1.412124	8	10	0.03	2000	35.19286	40.9239	-91.39363
385667	-2067	-428	-591	-1.388696	-3.586071	-27.61345	0	10.26	4003	139	31	5	5	0.3508888	1.375718	8	10	0.03	2000	35.43721	40.9239	-91.39362
385701	-2067	-428	-591	-1.388696	-3.586071	-27.61345	0	10.26	4003	139	31	5	5	0.3508888	1.349938	8	10	0.03	2000	35.43721	40.9239	-91.39362
385797	-2528	-1463	990	-6.132474	-2.566257	-28.03226	0	10.26	4005	139	31	5	5	0.3508888	1.321914	8	10	0.03	2000	34.666	40.9239	-91.39362
385949	-2133	2619	267	-8.505385	-6.301988	-29.61819	0	10.26	4002	139	-8	5	5	0.3508888	1.305193	8	10	0.03	2000	32.76878	40.9239	-91.39362
386060	-1187	1581	-1743	-10.0352	-10.70412	-29.73733	0	10.26	4002	221	-8	5	5	0.3508888	1.2893	8	10	0.03	2000	22.29479	40.9239	-91.39362
386163	-2956	-1781	-1342	-14.30215	-10.72747	-29.09408	0	9.92	4002	222	-8	5	5	0.3508888	1.285408	8	10	0.03	2000	10.36777	40.9239	-91.39362
386200	-1817	-198	-281	-14.50867	-9.848279	-28.84562	0	9.92	4003	222	-50	5	5	0.3508888	1.283397	8	10	0.03	2000	10.36777	40.9239	-91.39362
386300	-1260	1164	592	-13.90481	-9.153589	-28.65263	0	9.92	4003	142	-49	5	5	0.3508888	1.279841	8	10	0.03	2000	5.309585	40.9239	-91.39362
386417	678	1605	-1616	-11.76947	-11.68876	-28.804	0	9.92	4003	142	-50	5	5	0.3508888	1.274507	8	10	0.03	2000	-3.18399	40.9239	-91.39362
386541	1028	2113	253	-6.007014	-14.61109	-28.41773	0	9.92	4003	142	-50	5	5	0.3508888	1.263329	8	10	0.03	2000	-7.085876	40.9239	-91.39362
386615	1027	1915	-18	-3.770839	-15.66168	-28.34888	0	9.92	4003	141	-91	5	5	0.3508888	1.263302	8	10	0.03	2000	-7.992218	40.92389	-91.39362
386740	2533	18	407	-0.1085681	-17.33641	-28.37587	0	9.92	4004	61	-91	5	5	0.3508888	1.275832	8	10	0.03	2000	-6.098846	40.92389	-91.39362
386832	1428	-341	197	3.263285	-17.95226	-28.70751	0	9.92	4004	61	-92	5	5	0.3508888	1.288155	8	10	0.03	2000	-5.142365	40.92389	-91.39362
386901	4101	1109	-279	5.03097	-17.53211	-29.00628	0	9.92	4004	61	-92	5	5	0.3508888	1.302561	8	10	0.03	2000	-2.045074	40.92389	-91.39362
387015	2405	-1320	-65	9.343755	-15.76778	-29.59616	0	9.92	4004	61	-92	5	5	0.3508888	1.324672	8	10	0.03	2000	-0.64505	40.92389	-91.39362
387181	776	2249	-962	12.54164	-14.13364	-28.83525	0	10.32	4004	61	-133	5	5	0.3508888	1.354097	8	10	0.03	2000	7.287851	40.92389	-91.39362
387267	-5065	-1357	-725	6.187302	-14.5214	-29.06184	0	10.32	4004	61	-93	5	5	0.3508888	1.381951	8	10	0.03	2000	9.436887	40.92389	-91.39362
387377	-205	-190	1950	0.8874712	-10.64166	-29.45208	0	10.32	4003	61	-54	5	5	0.3508888	1.399312	8	10	0.03	2000	10.91503	40.92389	-91.39362
387397	-859	-75	1006	0.2091815	-10.11856	-29.64299	0	10.32	4003	61	-53	5	5	0.3508888	1.399312	8	10	0.03	2000	10.91503	40.92389	-91.39362
387543	-1272	-896	1474	-1.448149	-6.862479	-29.83627	0	10.32	4002	61	-53	5	5	0.3508888	1.418247	8	10	0.03	2000	10.49572	40.92389	-91.39362
387653	-793	1388	861	-3.725063	-8.102674	-30.20461	0	10.32	4003	61	-53	5	5	0.3508888	1.425119	8	10	0.03	2000	11.7235	40.92389	-91.39362
387782	2366	-1396	-776	-0.3258114	-6.939469	-29.01068	0	10.32	4004	61	-13	5	5	0.3508888	1.437332	8	10	0.03	2000	10.76674	40.92389	-91.39362
387861	693	-1997	-435	1.520621	-5.002141	-28.52977	0	10.32	4008	61	27	5	5	0.3508888	1.444156	8	10	0.03	2000	10.14877	40.92389	-91.39362
387918	-794	-2406	888	1.153999	-0.7913784	-28.93899	0	10.32	4003	61	27	5	5	0.3508888	1.45225	8	10	0.03	2000	10.93047	40.92389	-91.39362
387983	-160	-1626	270	0.009282168	0.63261	-29.45498	0	9.92	4004	61	27	5	5	0.3508888	1.466981	8	10	0.03	2000	12.9926	40.92389	-91.39362
388111	-377	1151	-650	-2.713934	-0.1296785	-29.93928	0	9.92	4004	61	27	5	5	0.3508888	1.486721	8	10	0.03	2000	15.64555	40.92389	-91.39362
388177	51	77	115	-2.770575	-0.4665938	-29.62539	0	9.92	4004	61	27	5	5	0.3508888	1.50465	8	10	0.03	2000	15.64555	40.92389	-91.39362
388317	-1371	-1447	-763	-2.500412	0.6665709	-28.87706	0	9.92	4002	60	33	5	5	0.3508888	1.520817	8	10	0.03	2000	14.73214	40.92389	-91.39362
388377	-1857	-1285	-329	-3.381689	0.5485592	-28.97999	0	9.92	4003	60	33	5	5	0.3508888	1.531241	8	10	0.03	2000	16.0478	40.92389	-91.39362
388514	733	-539	774	-4.939421	-0.9113997	-29.56962	0	9.92	4003	61	28	5	5	0.3508888	1.539605	8	10	0.03	2000	16.0641	40.92389	-91.39362
388659	648	975	-1644	-3.726629	-2.66021	-28.61086	0	9.92	4003	61	28	5	5	0.3508888	1.55351	8	10	0.03	2000	18.24657	40.92389	-91.39362
388706	-238	-2085	-506	-3.230108	-2.906267	-28.12479	0	9.92	4003	61	28	5	5	0.3508888	1.554574	8	10	0.03	2000	17.15036	40.92389	-91.39362
388787	-347	-2728	449	-3.949123	-0.020035	-28.27148	0	9.92	4003	61	70	5	5	0.3508888	1.55471	8	10	0.03	2000	17.17604	40.9239	-91.39362
389002	-968	303	1938	-2.299895	1.325061	-28.80682	0	10.04	4004	61	70	5	5	0.3508888	1.543375	8	10	0.03	2000	20.19149	40.9239	-91.39362
389091	-125	-2019	-727	-4.231706	0.2641225	-29.58505	0	10.04	4003	61	30	5	5	0.3508888	1.538182	8	10	0.03	2000	20.16752	40.9239	-91.39361
389193	-1594	-2474	-321	-4.586131	0.5353711	-29.74421	0	10.04	4004	144	30	5	5	0.3508888	1.536903	8	10	0.03	2000	20.16752	40.9239	-91.39361
389388	-720	-471	53	-8.192228	0.2403952	-29.5946	0	10.04	4003	159	-11	5	5	0.3508888	1.5323	8	10	0.03	2000	22.99137	40.9239	-91.39361
389470	-1495	1680	-606	-10.1387	-0.713606	-29.02175	0	10.04	4002	144	-9	5	5	0.3508888	1.52533	8	10	0.03	2000	19.68218	40.9239	-91.39361
389550	-359	-787	-1841	-10.96203	-3.198758	-28.26105	0	10.04	4004	144	-9	5	5	0.3508888	1.518081	8	10	0.03	2000	17.32794	40.9239	-91.39361
389599	-457	19	-1010	-10.58561	-3.451241	-27.30241	0	10.04	4003	144	-10	5	5	0.3508888	1.51087	8	10	0.03	2000	14.35305	40.9239	-91.39361
389729	-1412	38	275	-12.78186	-1.830262	-27.60635	0	10.04	4004	147	-10	5	5	0.3508888	1.486461	8	10	0.03	2000	9.842701	40.9239	-91.3936
389873	-1020	852	107	-11.05363	-2.592855	-28.47623	0	9.92	4003	146	-51	5	5	0.3508888	1.467379	8	10	0.03	2000	1.704224	40.92389	-91.3936
389908	-1097	731	570	-11.20855	-3.323096	-28.67021	0	9.92	4004	162	-61	5	5	0.3508888	1.460479	8	10	0.03	2000	-1.379486	40.92389	-91.3936
390082	353	2914	382	-12.88481	-8.95851	-29.99351	0	9.92	4004	146	-92	5	5	0.3508888	1.459102	8	10	0.03	2000	-4.357269	40.92389	-91.3936
390173	239	1970	-459	-7.404047	-11.40651	-28.47869	0	9.92	4004	147	-92	5	5	0.3508888	1.455917	8	10	0.03	2000	-12.03189	40.92389	-91.3936
390360	4853	4779	1422	-1.747738	-18.34228	-28.03817	0	9.92	4004	66	-92	5	5	0.3508888	1.44235	8	10	0.03	2000	-12.54117	40.92389	-91.3936
390425	4853	4779	1422	-1.747738	-18.34228	-28.03817	0	9.92	4004	66	-133	5	5	0.3508888	1.433237	8	10	0.03	2000	-12.54117	40.92389	-91.3936
390613	3074	2782	610	8.94915	-18.17259	-29.0913	0	9.92	4002	66	-108	5	5	0.3508888	1.414658	8	10	0.03	2000	-0.6810913	40.92388	-91.3936
390737	-614	-430	124	8.572536	-17.62923	-29.15803	0	10.26	4002	-15	-135	5	5	0.3508888	1.417452	8	10	0.03	2000	3.098723	40.92387	-91.39361
390774	-892	389	636	7.840281	-16.56918	-29.10141	0	10.26	4004	-15	-136	5	5	0.3508888	1.418782	8	10	0.03	2000	6.105194	40.92387	-91.39361
390866	-1701	-806	-120	4.493053	-15.43063	-29.4045	0	10.26	4002	-15	-136	5	5	0.3508888	1.421439	8	10	0.03	2000	6.373411	40.92387	-91.39361
390969	603	-1663	-953	3.565396	-12.71271	-29.21911	0	10.26	4004	-15	-136	5	5	0.3508888	1.421222	8	10	0.03	2000	7.059798	40.92387	-91.39361
391070	-217	417	627	3.238742	-12.57585	-28.86428	0	10.26	4003	-15	-96	5	5	0.3508888	1.419235	8	10	0.03	2000	7.76429	40.92387	-91.39361
391315	-12	-92	1079	2.210617	-10.14691	-29.02347	0	10.26	4004	-15	-97	5	5	0.3508888	1.44827	8	10	0.03	2000	8.583299	40.92387	-91.39361
391416	-217	-1290	-1106	-0.05367686	-10.81407	-30.14412	0	10.26	4002	64	-57	5	5	0.3508888	1.458913	8	10	0.03	2000	10.66954	40.92387	-91.39361
391518	-1135	-2308	-1477	-2.12571	-6.046746	-28.79755	0	10.26	4009	64	-16	5	5	0.3508888	1.464483	8	10	0.03	2000	11.42199	40.92387	-91.39361
391672	-1985	1002	1657	-5.409615	-5.220367	-29.17933	0	9.7	4003	64	-16	5	5	0.3508888	1.480597	8	10	0.03	2000	10.68885	40.92387	-91.39361
391740	51	-2149	-962	-5.67115	-6.344996	-29.55402	0	9.7	4003	64	64	5	5	0.3508888	1.484639	8	10	0.03	2000	10.07402	40.92388	-91.39361
391844	-1080	-2636	-1051	-6.240344	-5.146472	-30.22132	0	9.7	4003	64	65	5	5	0.3508888	1.505519	8	10	0.03	2000	10.27922	40.92388	-91.3936
391913	-580	-2805	-2537	-6.626455	-2.714489	-29.44447	0	9.7	4002	146	65	5	5	0.3508888	1.513015	8	10	0.03	2000	10.67929	40.92388	-91.3936
392063	-2135	-1962	662	-8.826628	-0.3238149	-29.05832	0	9.7	4004	146	106	5	5	0.3508888	1.530219	8	10	0.03	2000	8.677188	40.92389	-91.3936
392102	-2497	-719	794	-9.884545	0.1824127	-29.31063	0	9.7	4003	146	106	5	5	0.3508888	1.533998	8	10	0.03	2000	8.677188	40.92389	-91.3936
392202	-29	-999	-60	-10.08432	0.609129	-29.45403	0	9.7	4002	146	66	5	5	0.3508888	1.545096	8	10	0.03	2000	8.176233	40.92389	-91.3936
392374	-1071	-3696	-739	-10.03313	4.127918	-29.77984	0	9.7	4004	146	67	5	5	0.3508888	1.579778	8	10	0.03	2000	7.714168	40.92389	-91.3936
392412	-596	-1475	81	-9.935583	5.183734	-29.75705	0	9.7	4004	146	67	5	5	0.3508888	1.582569	8	10	0.03	2000	7.782581	40.92389	-91.3936
392474	-866	-532	-16	-9.148844	4.485852	-29.10466	0	9.7	4002	67	130	5	5	0.3508888	1.598466	8	10	0.03	2000	4.942537	40.92389	-91.3936
392577	521	-605	-1380	-7.811809	5.678552	-28.40936	0	10.15	4003	66	108	5	5	0.3508888	1.606323	8	10	0.03	2000	0.4028866	40.92389	-91.3936
392679	1020	-1404	-1105	-6.829442	4.227397	-28.73852	0	10.15	4002	66	69	5	5	0.3508888	1.61606	8	10	0.03	2000	1.225095	40.92389	-91.3936
392854	-2	-2004	48	-5.881508	1.825574	-29.23713	0	10.15	4004	66	70	5	5	0.3508888	1.613219	8	10	0.03	2000	-1.258972	40.9239	-91.3936
392908	-15	-80	1733	-5.798217	2.13871	-29.3447	0	10.15	4002	66	70	5	5	0.3508888	1.600996	8	10	0.03	2000	-1.258972	40.9239	-91.3936
393050	150	225	556	-5.779986	1.913371	-28.45157	0	10.15	4004	66	30	5	5	0.3508888	1.565997	8	10	0.03	2000	-2.552277	40.9239	-91.3936
393132	-778	-750	552	-5.825995	0.2583594	-28.56521	0	10.15	4004	66	29	5	5	0.3508888	1.545578	8	10	0.03	2000	-2.713593	40.9239	-91.3936
393171	152	990	187	-5.573658	-0.2656157	-28.59656	0	10.15	4003	66	29	5	5	0.3508888	1.537692	8	10	0.03	2000	-2.713593	40.9239	-91.3936
393292	519	-10	-1870	-4.846304	-1.940945	-27.64657	0	10.15	4002	66	-11	5	5	0.3508888	1.520561	8	10	0.03	2000	-5.474792	40.92389	-91.3936
393335	-1284	696	-52	-6.005999	-2.761451	-28.01406	0	10.15	4004	66	-51	5	5	0.3508888	1.509584	8	10	0.03	2000	-7.776428	40.92389	-91.3936
393380	599	1820	983	-6.237845	-5.539556	-29.19523	0	9.98	4003	66	-92	5	5	0.3508888	1.490353	8	10	0.03	2000	-9.373932	40.92389	-91.3936
393436	-831	738	261	-5.716032	-7.496236	-29.89714	0	9.98	4002	66	-92	5	5	0.3508888	1.487103	8	10	0.03	2000	-7.584106	40.92389	-91.3936
393616	-1131	-324	-481	-6.659769	-7.929907	-28.916	0	9.98	4004	66	-92	5	5	0.3508888	1.481909	8	10	0.03	2000	-2.921387	40.92389	-91.3936
393658	-819	-1132	-496	-7.071061	-6.798614	-28.22653	0	9.98	4004	66	-92	5	5	0.3508888	1.486641	8	10	0.03	2000	-2.921387	40.92389	-91.3936
393740	-373	278	-822	-7.252346	-7.319549	-28.43952	0	9.98	4003	66	-133	5	5	0.3508888	1.492594	8	10	0.03	2000	-3.434326	40.92389	-91.3936
393841	-222	1654	218	-7.722017	-10.48232	-29.00368	0	9.98	4002	66	-93	5	5	0.3508888	1.508792	8	10	0.03	2000	-3.892792	40.92389	-91.3936
393944	39	-2500	421	-7.199049	-9.045843	-29.06652	0	9.98	4004	66	-135	5	5	0.3508888	1.530449	8	10	0.03	2000	-4.317749	40.92388	-91.3936
394111	894	4045	-483	-6.412821	-15.43504	-28.87027	0	9.98	4002	-15	-177	5	5	0.3508888	1.576771	8	10	0.03	2000	-8.171326	40.92387	-91.39361
394194	1389	5445	771	-5.104954	-19.78265	-28.87695	0	9.98	4004	-15	-177	5	5	0.3508888	1.601095	8	10	0.03	2000	-4.423645	40.92387	-91.39361
394313	-210	3265	-122	-3.261237	-30.19768	-29.76394	0	10.43	4004	-15	-179	5	5	0.3508888	1.65149	8	10	0.03	2000	-3.279938	40.92387	-91.39361
394339	919	3785	119	-3.024015	-30.65908	-29.73363	0	10.43	4004	-15	-179	5	5	0.3508888	1.662182	8	10	0.03	2000	-3.279938	40.92387	-91.39361
394432	3051	2406	-2245	-2.311749	-32.26307	-29.76366	0	10.43	4002	-98	-220	5	5	0.3508888	1.717119	8	10	0.03	2000	-2.366821	40.92387	-91.39362
394645	690	-1128	-322	8.440262	-38.77016	-28.71429	0	10.43	4003	-97	-261	5	5	0.3508888	1.784586	8	10	0.03	2000	2.30283	40.92385	-91.39362
394742	-1046	-5601	-1258	5.723423	-32.25397	-28.11278	0	10.43	4002	-35	-218	5	5	0.3508888	1.79597	8	10	0.03	2000	3.104118	40.92385	-91.39362
394866	-704	-240	1549	2.877098	-24.95356	-28.28087	0	10.43	4003	-18	-182	5	5	0.3508888	1.792895	8	10	0.03	2000	3.281203	40.92385	-91.39362
394981	-34	-2578	1070	1.193618	-20.11407	-28.89496	0	10.43	4003	-100	-183	5	5	0.3508888	1.769863	8	10	0.03	2000	4.683702	40.92385	-91.39362
395051	1857	-603	-261	2.411999	-16.98157	-28.7877	0	10.43	4002	-20	-143	5	5	0.3508888	1.759179	8	10	0.03	2000	3.395007	40.92385	-91.39362
395122	-1247	230	-344	1.756346	-15.97754	-28.57837	0	10.89	4004	-20	-143	5	5	0.3508888	1.736234	8	10	0.03	2000	4.681963	40.92385	-91.39362
395252	263	-7183	-1703	0.3557613	-10.76957	-28.01235	0	10.89	4004	-20	-64	5	5	0.3508888	1.703498	8	10	0.03	2000	4.851442	40.92385	-91.39362
395326	43	-6917	-612	-0.07571252	-0.4832868	-28.37277	0	10.89	4002	-20	-63	5	5	0.3508888	1.688745	8	10	0.03	2000	6.446219	40.92385	-91.39362
395416	473	-5726	196	-0.7062848	9.120577	-29.28384	0	10.89	4004	-20	-63	5	5	0.3508888	1.669924	8	10	0.03	2000	7.800473	40.92385	-91.39362
395520	633	-4453	966	-0.4013612	11.48471	-29.40737	0	10.89	4003	-20	-63	5	5	0.3508888	1.642	8	10	0.03	2000	9.023449	40.92385	-91.39362
395663	-712	1962	-863	-1.538284	5.554975	-30.11721	0	10.89	4004	59	17	5	5	0.3508888	1.610585	8	10	0.03	2000	11.49278	40.92386	-91.39362
395716	-1229	965	474	-2.555168	2.854331	-29.95153	0	10.89	4003	59	59	5	5	0.3508888	1.591942	8	10	0.03	2000	10.86937	40.92386	-91.39362
395831	-4507	1604	38	-4.570837	0.9218344	-29.25069	0	10.89	4003	59	59	5	5	0.3508888	1.539188	8	10	0.03	2000	9.739486	40.92386	-91.39362
395939	-4040	-3097	277	-14.31596	-0.09253248	-29.16662	0	10.89	4002	141	100	5	5	0.3508888	1.466372	8	10	0.03	2000	5.435565	40.92387	-91.39362
396058	-2890	-8356	-135	-17.09884	9.071689	-29.12063	0	9.7	4004	141	100	5	5	0.3508888	1.341712	8	10	0.03	2000	4.076826	40.92387	-91.39362
396237	-617	4419	-235	-15.12616	12.04339	-29.0422	0	9.7	4003	141	142	5	5	0.3508888	1.177818	8	10	0.03	2000	-0.5555725	40.92387	-91.39362
396394	-244	-2637	-464	-13.2779	9.945879	-28.94527	0	9.7	4003	141	144	5	5	0.3508888	0.9592075	8	10	0.03	2000	-7.1698	40.92387	-91.39362
396480	1478	78	-522	-12.12524	10.45105	-28.4457	0	9.7	4004	141	185	5	5	0.3508888	0.8986374	8	10	0.03	2000	-11.35422	40.92388	-91.39362
396567	115	-307	-233	-10.58115	9.69502	-27.5332	0	9.7	4003	61	145	5	5	0.3508888	0.872445	8	10	0.03	2000	-14.11206	40.92388	-91.39362
396636	501	2237	181	-10.31501	8.883356	-27.49708	0	9.7	4003	61	145	5	5	0.3508888	0.8353227	8	10	0.03	2000	-17.55762	40.92389	-91.39362
396788	2949	1941	149	-3.264702	-0.7388644	-29.26668	0	9.7	4004	61	106	5	5	0.3508888	0.7663909	8	10	0.03	2000	-17.21307	40.92389	-91.39362
396859	2826	3186	1789	-0.6582016	-2.776594	-30.30382	0	9.7	4003	61	106	5	5	0.3508888	0.7579994	8	10	0.03	2000	-16.72644	40.92389	-91.39362
397033	-2339	-627	-672	2.861273	-6.334589	-29.49553	0	10.32	4003	61	25	5	5	0.3508888	0.764302	8	10	0.03	2000	-12.72308	40.92388	-91.39362
397073	-1381	1989	-1203	-0.8938484	-6.975746	-29.10541	0	10.32	4003	61	-14	5	5	0.3508888	0.7796339	8	10	0.03	2000	-9.106659	40.92388	-91.39362
397172	207	5279	-17	-2.456171	-11.70192	-28.36885	0	10.32	4002	61	-15	5	5	0.3508888	0.8278211	8	10	0.03	2000	-4.009674	40.92388	-91.39362
397245	-999	6309	484	-2.647253	-17.14866	-28.81315	0	10.32	4002	61	-15	5	5	0.3508888	0.8838106	8	10	0.03	2000	-3.536774	40.92388	-91.39362
397352	-970	5090	936	-4.387955	-21.81236	-29.18324	0	10.32	4004	61	-55	5	5	0.3508888	0.9323588	8	10	0.03	2000	-3.371826	40.92388	-91.39362
397493	1402	-1330	35	-3.723284	-23.05839	-28.68263	0	10.32	4004	-20	-55	5	5	0.3508888	1.054228	8	10	0.03	2000	-3.328308	40.92388	-91.39362
397539	734	-3808	-937	-3.286655	-20.72641	-28.46894	0	10.32	4004	-20	-55	5	5	0.3508888	1.117895	8	10	0.03	2000	-2.556793	40.92388	-91.39362
397737	121	45	945	-3.496857	-11.69188	-29.93376	0	10.32	4004	-20	-15	5	5	0.3508888	1.365451	8	10	0.03	2000	-0.6294861	40.92388	-91.39362
397810	1357	-1826	-929	-3.343231	-10.32724	-29.98119	0	10.32	4004	-20	-15	5	5	0.3508888	1.404546	8	10	0.03	2000	0.5196402	40.92388	-91.39362
397880	1011	632	149	-0.8339161	-9.524364	-29.27477	0	10.32	4004	-20	-15	5	5	0.3508888	1.469041	8	10	0.03	2000	0.01241353	40.92388	-91.39362
397991	-466	-2288	-816	-1.59543	-9.005603	-28.69807	0	10.32	4002	-20	-15	5	5	0.3508888	1.557661	8	10	0.03	2000	1.831676	40.92388	-91.39362
398101	-1449	597	1657	-3.002786	-5.772547	-28.48682	0	10.32	4002	-22	-15	5	5	0.3508888	1.639486	8	10	0.03	2000	3.857357	40.92388	-91.39363
398144	561	-1803	673	-3.940853	-5.675535	-29.00577	0	10.32	4004	-23	-15	5	5	0.3508888	1.65613	8	10	0.03	2000	4.033543	40.92388	-91.39363
398282	-710	-81	1932	-2.108604	-5.872189	-30.18876	0	10.32	4004	-40	-17	5	5	0.3508888	1.753892	8	10	0.03	2000	5.170112	40.92388	-91.39363
398401	1336	-1699	-1035	-1.165386	-3.231517	-29.76361	0	10.32	4004	-22	-15	5	5	0.3508888	1.894245	8	10	0.03	2000	6.444057	40.92388	-91.39363
398491	-1362	956	-344	-1.353189	-4.077174	-28.85396	0	10.32	4003	-23	-15	5	5	0.3508888	1.950587	8	10	0.03	2000	7.047235	40.92389	-91.39363
398575	-321	-1032	79	-2.793135	-4.402008	-28.75369	0	10.32	4004	-23	26	5	5	0.3508888	2.006308	8	10	0.03	2000	6.999812	40.92389	-91.39363
398795	1048	-1756	-1798	0.02901747	1.831821	-29.27946	0	10.09	4003	56	67	5	5	0.3508888	2.146814	8	10	0.03	2000	10.72199	40.92389	-91.39363
398902	-1094	326	365	-2.839056	-0.3053288	-29.27474	0	10.09	4003	56	67	5	5	0.3508888	2.230385	8	10	0.03	2000	13.17924	40.92389	-91.39363
398944	-897	-904	1259	-3.096196	0.03716587	-29.22547	0	10.09	4004	55	80	5	5	0.3508888	2.256731	8	10	0.03	2000	13.17924	40.92389	-91.39363
399113	191	-1557	57	-3.472993	1.041569	-28.82901	0	10.09	4003	56	108	5	5	0.3508888	2.307039	8	10	0.03	2000	13.52422	40.92389	-91.39363
399264	-1563	2305	-554	-5.994788	-3.788106	-28.87442	0	10.09	4004	56	109	5	5	0.3508888	2.355641	8	10	0.03	2000	13.08133	40.9239	-91.39363
399423	183	1979	618	-7.448457	-7.712379	-29.15182	0	10.09	4004	56	69	5	5	0.3508888	2.372129	8	10	0.03	2000	10.74632	40.9239	-91.39363
399477	-833	632	634	-7.974339	-8.334496	-29.58695	0	10.09	4004	56	69	5	5	0.3508888	2.376452	8	10	0.03	2000	8.473124	40.9239	-91.39363
399595	495	399	1518	-7.600757	-9.064114	-29.69306	0	10.09	4004	139	69	5	5	0.3508888	2.379695	8	10	0.03	2000	6.958673	40.9239	-91.39362
399736	-1910	-545	-693	-9.414102	-8.988328	-29.31958	0	10.21	4003	139	29	5	5	0.3508888	2.377504	8	10	0.03	2000	4.708507	40.9239	-91.39362
399889	-52	-1466	1817	-9.316235	-3.867369	-29.26886	0	10.21	4003	139	-9	5	5	0.3508888	2.367245	8	10	0.03	2000	2.246851	40.9239	-91.39362
399970	-1760	675	-182	-9.627797	-3.735151	-29.22979	0	10.21	4004	139	-10	5	5	0.3508888	2.360979	8	10	0.03	2000	2.246851	40.9239	-91.39362
400083	-1319	-1285	960	-10.90277	-3.363857	-29.08435	0	10.21	4003	139	-10	5	5	0.3508888	2.348866	8	10	0.03	2000	-3.151245	40.9239	-91.39362
400194	-402	2988	1133	-11.15655	-6.271996	-28.97622	0	10.21	4004	139	-10	5	5	0.3508888	2.343366	8	10	0.03	2000	-6.810638	40.9239	-91.39362
400256	-819	1400	883	-10.97674	-7.825119	-28.87359	0	10.21	4004	59	-10	5	5	0.3508888	2.342531	8	10	0.03	2000	-6.810638	40.9239	-91.39362
400430	3892	1752	-99	-0.1359223	-12.45349	-28.37955	0	10.21	4003	59	-10	5	5	0.3508888	2.366077	8	10	0.03	2000	-9.795013	40.9239	-91.39362
400572	2221	2573	838	4.169579	-16.16434	-29.3869	0	10.21	4003	59	-10	5	5	0.3508888	2.388362	8	10	0.03	2000	-3.79364	40.9239	-91.39362
400637	305	1585	1730	4.436163	-17.36005	-29.13469	0	10.21	4004	59	-10	5	5	0.3508888	2.407117	8	10	0.03	2000	-1.172089	40.9239	-91.39362
400686	-2579	-1604	-586	1.015551	-16.89544	-28.95202	0	9.87	4002	59	-10	5	5	0.3508888	2.416966	8	10	0.03	2000	1.509534	40.9239	-91.39362
400763	-183	-4913	284	-2.141212	-9.905834	-28.8956	0	9.87	4003	59	-10	5	5	0.3508888	2.43238	8	10	0.03	2000	2.373856	40.9239	-91.39362
400884	-1596	1385	2443	-1.551343	-7.018132	-28.92414	0	9.87	4003	59	-51	5	5	0.3508888	2.466448	8	10	0.03	2000	3.146603	40.92389	-91.39362
400968	-2612	2525	1810	-4.0807	-9.220591	-29.67541	0	9.87	4004	59	-51	5	5	0.3508888	2.47054	8	10	0.03	2000	3.972882	40.92389	-91.39362
401060	-1569	1680	-84	-6.988004	-12.14369	-29.37445	0	9.87	4003	59	-51	5	5	0.3508888	2.477105	8	10	0.03	2000	1.401517	40.92389	-91.39362
401166	-929	2681	1584	-8.093724	-13.12144	-29.04769	0	9.87	4003	59	-51	5	5	0.3508888	2.494956	8	10	0.03	2000	-0.3437805	40.92389	-91.39362
401286	-680	2850	52	-8.486728	-17.57395	-29.32658	0	9.87	4003	59	-51	5	5	0.3508888	2.504535	8	10	0.03	2000	-2.988098	40.92389	-91.39362
401424	-179	2194	411	-7.377046	-15.3486	-29.73548	0	9.87	4002	141	-51	5	5	0.3508888	2.522518	8	10	0.03	2000	-2.473633	40.92389	-91.39362
401527	-1273	1061	-956	-9.504798	-17.12074	-29.69007	0	9.87	4004	141	-11	5	5	0.3508888	2.528514	8	10	0.03	2000	-4.793121	40.92389	-91.39362
401564	-917	-742	6	-10.08206	-16.43217	-29.66618	0	9.87	4003	141	-11	5	5	0.3508888	2.531378	8	10	0.03	2000	-4.793121	40.92389	-91.39362
401704	-814	-1784	67	-10.4544	-9.265649	-29.76718	0	10.55	4004	141	-11	5	5	0.3508888	2.53968	8	10	0.03	2000	-5.411499	40.92389	-91.39362
401797	-542	-2483	-306	-9.700901	-8.08923	-29.59764	0	10.55	4003	141	-11	5	5	0.3508888	2.545336	8	10	0.03	2000	-5.60257	40.92389	-91.39362
401871	-1261	-1327	45	-9.624492	-6.239032	-29.77119	0	10.55	4003	141	-11	5	5	0.3508888	2.547045	8	10	0.03	2000	-6.335083	40.92389	-91.39362
401991	-2718	105	157	-11.07936	-5.480711	-30.19955	0	10.55	4004	141	29	5	5	0.3508888	2.537127	8	10	0.03	2000	-9.079468	40.9239	-91.39362
402103	1213	-3507	-1340	-10.6649	-3.23294	-29.92903	0	10.55	4003	61	29	5	5	0.3508888	2.537046	8	10	0.03	2000	-11.40897	40.9239	-91.39362
402200	2682	-2115	1227	-7.615227	-1.056448	-29.40682	0	10.55	4002	-20	29	5	5	0.3508888	2.528823	8	10	0.03	2000	-13.22446	40.9239	-91.39362
402277	6085	511	218	-2.18571	0.01467294	-28.91716	0	10.55	4003	-37	35	5	5	0.3508888	2.527743	8	10	0.03	2000	-15.50854	40.9239	-91.39362
402397	2947	-1047	95	8.83918	-0.9577014	-29.25879	0	10.55	4002	-20	29	5	5	0.3508888	2.530665	8	10	0.03	2000	-9.380951	40.9239	-91.39362
402470	1044	-986	1348	10.13375	0.3394165	-29.31798	0	10.55	4002	-20	29	5	5	0.3508888	2.53089	8	10	0.03	2000	-9.380951	40.9239	-91.39362
402641	-113	-206	305	5.048472	-1.634928	-28.97853	0	10.21	4004	-20	30	5	5	0.3508888	2.521935	8	10	0.03	2000	-0.7035217	40.9239	-91.39362
402736	-1949	787	702	2.825935	-1.556359	-29.26487	0	10.21	4003	-20	30	5	5	0.3508888	2.498379	8	10	0.03	2000	2.383044	40.9239	-91.39362
402774	-627	14	-1072	1.899235	-2.260803	-29.50492	0	10.21	4003	-20	30	5	5	0.3508888	2.491882	8	10	0.03	2000	3.89547	40.9239	-91.39362
402894	-1554	-1584	-179	1.358161	-2.736761	-29.40132	0	10.21	4004	59	30	5	5	0.3508888	2.4562	8	10	0.03	2000	7.798533	40.9239	-91.39362
403015	59	-2571	17	0.308695	0.5853575	-28.79012	0	10.21	4003	-23	72	5	5	0.3508888	2.355872	8	10	0.03	2000	6.505662	40.9239	-91.39363
403154	841	2778	795	-0.3685128	-0.4679352	-29.31204	0	10.21	4002	-23	72	5	5	0.3508888	2.298221	8	10	0.03	2000	12.13468	40.9239	-91.39363
403224	282	2438	-209	0.3450139	-2.734884	-28.99227	0	10.21	4003	-23	32	5	5	0.3508888	2.267132	8	10	0.03	2000	13.17126	40.9239	-91.39363
403299	278	2826	359	1.584622	-5.277988	-29.12626	0	10.21	4004	-23	32	5	5	0.3508888	2.188981	8	10	0.03	2000	12.50738	40.9239	-91.39363
403425	734	829	-82	1.077849	-7.494445	-28.88372	0	10.94	4003	-23	32	5	5	0.3508888	2.132352	8	10	0.03	2000	13.43939	40.9239	-91.39363
403533	-558	-1273	-871	-1.12502	-6.402071	-29.78084	0	10.94	4003	138	-7	5	5	0.3508888	2.065454	8	10	0.03	2000	14.23777	40.9239	-91.39362
403598	-3087	1875	1161	-3.308484	-6.812629	-30.34335	0	10.94	4003	139	-7	5	5	0.3508888	2.038437	8	10	0.03	2000	12.16809	40.9239	-91.39362
403740	-1187	1829	-1399	-6.850808	-9.192285	-29.57635	0	10.94	4003	139	-49	5	5	0.3508888	1.979593	8	10	0.03	2000	12.32063	40.9239	-91.39362
