time(ms)	gyro_x(deg/s)	gyro_y(deg/s)	gyro_z(deg/s)	orientation_roll(deg)	orientation_pitch(deg)	orientation_yaw(deg)	throttle	battery(V)	loop_time(uS)	pid_output_roll	pid_output_pitch	pid_output_yaw	pid_output_throttle	ultrasonic_alt	baro_alt	flight_mode	p_gain_altitude	i_gain_altitude	d_gain_altitude	compass_heading	latitude	longitude
496833	-645	-3738	-1640	-6.304529	0.8581248	-37.19029	0	9.92	4003	105	102	5	5	0.3097217	2.248373	8	10	0.03	2000	0.03027242	40.92392	-91.3936
496898	-831	-1878	-665	-6.796569	2.543598	-37.30048	0	9.92	4002	104	102	5	5	0.3097231	2.29469	8	10	0.03	2000	0.03027242	40.92392	-91.3936
496995	-1486	1348	1160	-8.016996	2.694366	-38.04662	0	9.92	4002	104	50	5	5	0.3097247	2.341346	8	10	0.03	2000	-1.925415	40.92392	-91.3936
497040	-866	-367	-1282	-8.478669	1.083315	-38.13468	0	9.92	4004	210	102	5	5	0.3097255	2.383479	8	10	0.03	2000	-3.355255	40.92392	-91.39359
497145	-2971	-2386	925	-9.933441	2.068419	-38.1144	0	9.7	4003	106	102	5	5	0.3097264	2.443865	8	10	0.03	2000	-3.637665	40.92392	-91.39359
497313	-722	-709	-67	-9.168932	5.996284	-37.81594	0	9.7	4002	105	51	5	5	0.3097275	2.494994	8	10	0.03	2000	-9.85434	40.92392	-91.39359
497394	268	-1684	-361	-8.287935	5.376504	-37.8877	0	9.7	4004	105	50	5	5	0.3097278	2.502136	8	10	0.03	2000	-16.42456	40.92392	-91.39359
497447	-1091	1379	976	-8.287935	5.376504	-37.8877	0	9.7	4004	105	50	5	5	0.3097279	2.502595	8	10	0.03	2000	-16.42456	40.92392	-91.39359
497552	-2029	1295	887	-8.595155	3.100181	-38.40256	0	9.7	4003	105	50	5	5	0.3097283	2.501986	8	10	0.03	2000	-16.28702	40.92392	-91.39359
497646	-2373	-1907	-495	-8.81754	2.370781	-38.05906	0	9.7	4004	107	-1	5	5	0.3097284	2.500162	8	10	0.03	2000	-24.12061	40.92392	-91.39359
497755	1004	912	75	-9.244151	2.439413	-38.00617	0	9.7	4004	106	-1	5	5	0.3097286	2.462545	8	10	0.03	2000	-38.31876	40.92392	-91.39359
497897	-1311	4746	1153	-7.693468	-4.827956	-38.30054	0	9.7	4003	106	-54	5	5	0.3097287	2.399527	8	10	0.03	2000	-40.75781	40.92392	-91.39359
497969	494	3141	-196	-7.686698	-8.57515	-38.47161	0	9.7	4003	106	-106	5	5	0.3097288	2.378546	8	10	0.03	2000	-38.24655	40.92391	-91.39359
498086	406	3457	874	-5.567732	-11.81204	-38.38681	0	9.7	4003	106	-106	5	5	0.3097289	2.33811	8	10	0.03	2000	-36.987	40.92391	-91.39359
498273	1242	-543	483	-7.755108	-12.72472	-37.6047	0	10.72	4002	-101	-106	5	5	0.3097289	2.285946	8	10	0.03	2000	-31.69052	40.92391	-91.39359
498447	1518	2440	-110	0.9725744	-16.48245	-35.9524	0	10.72	4003	-102	-106	5	5	0.3097289	2.24886	8	10	0.03	2000	-29.00616	40.92391	-91.39359
498504	2099	-2104	7	2.144724	-14.02008	-35.98438	0	10.72	4003	-102	-107	5	5	0.3097289	2.239357	8	10	0.03	2000	-25.69223	40.92391	-91.39359
498575	311	-2133	-89	2.797308	-10.28513	-36.2651	0	10.72	4003	-102	-159	5	5	0.3097289	2.230195	8	10	0.03	2000	-21.0051	40.9239	-91.39359
498777	4063	1578	-75	5.458421	-10.28839	-36.94745	0	10.72	4004	-207	-160	5	5	0.3097289	2.182254	8	10	0.03	2000	-14.80994	40.9239	-91.3936
498830	3205	1296	804	6.553635	-10.41569	-36.88308	0	10.72	4004	-104	-160	5	5	0.3097289	2.165722	8	10	0.03	2000	-14.80994	40.9239	-91.3936
498892	-33	2435	649	6.595088	-10.7134	-36.8583	0	10.72	4004	-103	-159	5	5	0.3097289	2.155475	8	10	0.03	2000	-11.79349	40.9239	-91.3936
499098	1264	-846	-217	6.418907	-13.7264	-36.78977	0	8.9	4002	-103	-160	5	5	0.3097289	2.114363	8	10	0.03	2000	-5.284882	40.9239	-91.3936
499249	904	824	-1146	4.503628	-13.10691	-37.00441	0	8.9	4002	-103	-108	5	5	0.3097289	2.093829	8	10	0.03	2000	0.2968274	40.9239	-91.3936
499330	2487	964	150	5.432675	-13.68819	-37.43749	0	8.9	4003	-208	-108	5	5	0.3097289	2.074222	8	10	0.03	2000	3.949841	40.9239	-91.39361
499411	2590	-284	-983	6.525185	-12.38131	-37.9236	0	8.9	4002	-104	-56	5	5	0.3097289	2.062947	8	10	0.03	2000	5.776661	40.9239	-91.39361
499589	-1529	-1624	-83	5.177073	-10.49266	-38.32815	0	8.9	4004	0	-108	5	5	0.3097289	2.015163	8	10	0.03	2000	10.00718	40.92389	-91.3936
499610	-1529	-1624	-83	5.177073	-10.49266	-38.32815	0	8.9	4004	0	-108	5	5	0.3097289	2.00989	8	10	0.03	2000	10.00718	40.92389	-91.3936
499746	1	1185	211	2.395551	-10.00046	-38.35086	0	8.9	4004	0	-108	5	5	0.3097289	1.983165	8	10	0.03	2000	9.807111	40.92389	-91.3936
499869	333	-402	-130	1.753618	-9.275853	-37.43249	0	8.9	4004	0	-109	5	5	0.3097289	1.961337	8	10	0.03	2000	9.596855	40.92389	-91.3936
499936	-742	411	150	2.015713	-9.592257	-37.36733	0	8.9	4003	103	-108	5	5	0.3097289	1.959174	8	10	0.03	2000	8.971452	40.92389	-91.3936
500012	-2718	-328	-57	-0.2105208	-8.590638	-37.60045	0	10.38	4004	104	-108	5	5	0.3097289	1.954257	8	10	0.03	2000	9.209848	40.92389	-91.39359
500180	-339	1579	737	-5.715748	-8.720622	-37.9811	0	10.38	4004	105	-56	5	5	0.3097289	1.976079	8	10	0.03	2000	6.243916	40.92389	-91.39359
500258	-218	-945	-1009	-5.071863	-10.62155	-37.79753	0	10.38	4003	105	-56	5	5	0.3097289	1.987517	8	10	0.03	2000	5.066308	40.92389	-91.39359
500357	-2147	-2081	-28	-6.227663	-8.799051	-37.50973	0	10.38	4004	105	-56	5	5	0.3097289	1.995135	8	10	0.03	2000	3.016964	40.92389	-91.39359
500480	-1943	-366	-1257	-6.887619	-6.797501	-37.51604	0	10.38	4002	210	-5	5	5	0.3097289	2.021465	8	10	0.03	2000	0.7778115	40.92389	-91.39359
500600	-2592	-2450	827	-11.40646	-5.706251	-37.88587	0	10.38	4003	210	-4	5	5	0.3097289	2.038389	8	10	0.03	2000	-1.727814	40.92389	-91.39359
500687	-5214	923	1465	-15.17641	-4.411026	-38.57854	0	10.38	4002	253	-5	5	5	0.3097289	2.074279	8	10	0.03	2000	-5.130951	40.92389	-91.39358
500725	-2284	396	-272	-16.45975	-4.697231	-38.49595	0	10.38	4002	212	-4	5	5	0.3097289	2.081918	8	10	0.03	2000	-5.130951	40.92389	-91.39358
500890	-2973	-1340	-720	-14.38726	-5.041533	-38.15517	0	10.43	4003	300	-4	5	5	0.3097289	2.094238	8	10	0.03	2000	-11.70859	40.92389	-91.39357
501018	-3018	-1166	512	-18.60237	-3.42962	-37.83978	0	10.43	4004	300	-4	5	5	0.3097289	2.078594	8	10	0.03	2000	-19.21576	40.92389	-91.39357
501066	-688	-290	270	-18.85305	-2.783542	-37.85442	0	10.43	4004	212	-4	5	5	0.3097289	2.067878	8	10	0.03	2000	-20.16339	40.92389	-91.39357
501139	151	-1141	145	-16.41506	-2.746872	-37.87092	0	10.43	4003	300	-4	5	5	0.3097289	2.056297	8	10	0.03	2000	-24.01218	40.92389	-91.39356
501260	-1384	-45	633	-18.12126	-2.493723	-37.40815	0	10.43	4004	213	-4	5	5	0.3097289	2.023162	8	10	0.03	2000	-30.34747	40.92389	-91.39356
501380	-911	-1795	-1545	-17.67037	-1.878367	-37.23857	0	10.43	4004	212	-4	5	5	0.3097289	1.998623	8	10	0.03	2000	-34.62354	40.92389	-91.39356
501454	1915	1805	-294	-15.91212	-4.661149	-37.37575	0	10.43	4003	109	-4	5	5	0.3097289	1.986042	8	10	0.03	2000	-38.39355	40.92389	-91.39356
501587	364	-550	-1206	-13.39773	-4.712507	-37.45954	0	10.43	4004	108	47	5	5	0.3097289	1.975437	8	10	0.03	2000	-39.54431	40.92389	-91.39356
501650	412	-468	-668	-12.86578	-3.931716	-36.98378	0	10.43	4003	108	47	5	5	0.3097289	1.968572	8	10	0.03	2000	-39.54431	40.92389	-91.39356
501767	-484	-2800	-283	-11.61751	-0.9621438	-36.07167	0	10.43	4003	5	47	5	5	0.3097289	1.952805	8	10	0.03	2000	-42.49655	40.92389	-91.39356
501896	1667	166	1063	-8.301226	0.4300147	-36.91672	0	10.72	4004	4	47	5	5	0.3097289	1.935031	8	10	0.03	2000	-45.60254	40.92389	-91.39356
501932	1667	166	1063	-8.301226	0.4300147	-36.91672	0	10.72	4004	4	47	5	5	0.3097289	1.925983	8	10	0.03	2000	-45.60254	40.92389	-91.39356
502063	1702	1160	882	-3.98033	-2.662941	-37.89432	0	10.72	4004	-79	38	5	5	0.3097289	1.894723	8	10	0.03	2000	-47.43219	40.92389	-91.39357
502107	2640	778	1057	-2.947427	-3.087829	-37.66754	0	10.72	4003	-100	47	5	5	0.3097289	1.885419	8	10	0.03	2000	-48.52731	40.92389	-91.39357
502210	3277	1750	-652	5.101961	-5.161156	-36.60995	0	10.72	4004	-204	-4	5	5	0.3097289	1.858191	8	10	0.03	2000	-46.57425	40.92389	-91.39358
502377	4288	1587	732	16.48499	-11.53561	-37.77351	0	10.72	4003	-205	-4	5	5	0.3097289	1.800254	8	10	0.03	2000	-41.47504	40.92389	-91.39359
502414	1893	2161	1818	17.36746	-12.18054	-38.3145	0	10.72	4003	-300	-4	5	5	0.3097289	1.788033	8	10	0.03	2000	-27.7149	40.92389	-91.39359
502527	1557	-3667	567	16.68941	-9.567182	-39.01076	0	10.72	4003	-300	-4	5	5	0.3097289	1.718803	8	10	0.03	2000	-15.43594	40.92389	-91.39359
502612	3320	329	458	17.82352	-6.502328	-37.14198	0	10.72	4004	-300	-4	5	5	0.3097289	1.670265	8	10	0.03	2000	-12.1369	40.92389	-91.39359
502788	3070	873	844	20.00265	-8.240935	-36.7042	0	7.77	4003	-300	-56	5	5	0.3097289	1.416922	8	10	0.03	2000	-5.590668	40.92389	-91.3936
502814	3033	-276	-1038	20.19052	-8.479081	-36.48508	0	7.77	4003	-300	-56	5	5	0.3097289	1.396917	8	10	0.03	2000	-0.5687561	40.92389	-91.3936
502957	406	3523	-377	17.82937	-14.10147	-36.02422	0	7.77	4003	-300	-56	5	5	0.3097289	1.167647	8	10	0.03	2000	24.3776	40.92389	-91.3936
503055	-6370	3242	1206	11.16073	-17.57068	-36.27559	0	7.77	4003	-207	-56	5	5	0.3097289	1.127057	8	10	0.03	2000	29.74214	40.92389	-91.3936
503098	-7062	2373	686	7.498693	-17.91775	-36.8574	0	7.77	4002	-207	-56	5	5	0.3097289	0.9534017	8	10	0.03	2000	30.1595	40.92389	-91.3936
503241	31335	-2377	13383	29.78427	-0.5135946	-56.58801	0	7.77	4003	-300	-109	5	5	0.3097289	0.7303892	8	10	0.03	2000	39.371	40.92389	-91.39361
503315	18590	-4233	19486	48.86658	17.10584	-75.8299	0	7.77	4003	-208	-57	5	5	0.3097289	0.6953136	8	10	0.03	2000	49.31792	40.92389	-91.3936
503441	8653	-526	32008	32.87054	54.6298	-120.486	0	7.77	4003	0	-57	5	5	0.3097289	0.6113926	8	10	0.03	2000	89.86481	40.92389	-91.3936
503488	8653	-526	32008	32.87054	54.6298	-120.486	0	7.77	4003	0	-57	5	5	0.3097289	0.6055691	8	10	0.03	2000	89.86481	40.92389	-91.3936
503581	32498	-32755	2505	31.64243	107.4271	-169.0907	0	9.92	4004	0	-68	5	5	0.3097289	0.6296909	8	10	0.03	2000	130.3767	40.92389	-91.3936
503692	32498	-32757	9502	61.17416	106.1221	-180.2576	0	9.92	4003	0	-57	5	5	0.3097289	0.6563427	8	10	0.03	2000	-94.69891	40.92389	-91.3936
503827	32498	25593	-4535	111.1861	59.60295	-173.9785	0	9.92	4004	0	0	5	5	0.3097289	0.6666471	3	10	0.03	2000	160.9028	40.92389	-91.3936
503955	32498	-17148	7847	126.6162	120.2482	-190.0993	0	9.92	4003	0	0	5	5	0.3097289	0.6011462	1	10	0.03	2000	-28.53702	40.92388	-91.3936
504031	32498	-21987	9148	133.7152	151.8691	-199.6506	0	9.92	4004	0	0	5	5	0.3097289	0.5477343	1	10	0.03	2000	-58.61658	40.92388	-91.39359
504105	-24794	-19359	-611	119.1705	171.1164	-203.8912	0	9.92	4003	0	0	5	5	0.3097289	0.4502855	1	10	0.03	2000	-7.786987	40.92388	-91.39359
504222	-27369	-26280	-436	47.27758	192.8342	-204.0934	0	9.92	4003	0	0	5	5	0.3097289	0.3519794	1	10	0.03	2000	26.89566	40.92388	-91.39359
504322	-14134	-9995	-6521	24.20573	177.954	-200.8474	0	9.92	4003	0	0	5	5	0.3097289	0.3017531	1	10	0.03	2000	49.47947	40.92388	-91.39359
504439	-2422	264	1281	29.60059	144.3375	-192.328	0	9.92	4004	0	0	5	5	0.3097289	0.219072	1	10	0.03	2000	77.50954	40.92388	-91.39359
504504	3034	1456	1571	27.58432	131.6895	-194.4833	0	10.89	4004	0	0	5	5	0.3097289	0.1435613	1	10	0.03	2000	82.32669	40.92388	-91.39359
504568	3578	1919	2886	26.36349	119.3634	-196.9691	0	10.89	4004	0	0	5	5	0.3097289	0.1293212	1	10	0.03	2000	89.58993	40.92388	-91.39359
504653	3851	1886	3009	24.09882	108.5065	-200.3204	0	10.89	4004	0	0	5	5	0.3097289	0.06334066	1	10	0.03	2000	100.4503	40.92388	-91.39359
504732	3065	917	1589	22.80303	94.89255	-204.2962	0	10.89	4003	0	0	5	5	0.3097289	0.02592696	1	10	0.03	2000	111.8916	40.92387	-91.39358
504884	663	73	177	23.3473	80.47199	-205.6209	0	10.89	4003	0	0	5	5	0.3097289	-0.01216703	1	10	0.03	2000	127.6689	40.92387	-91.39358
504938	-221	62	-80	23.04368	77.23138	-205.6795	0	10.89	4004	0	0	5	5	0.3097289	-0.01806054	1	10	0.03	2000	131.8576	40.92387	-91.39358
505132	-22	33	27	21.20292	60.6089	-205.6714	0	10.89	4003	0	0	5	5	0.3097289	-0.05184378	1	10	0.03	2000	136.5557	40.92387	-91.39359
505195	-6	20	12	20.7248	56.02678	-205.6908	0	10.89	4003	0	0	5	5	0.3097289	-0.06965819	1	10	0.03	2000	138.0224	40.92387	-91.39359
505357	-8	23	26	19.51553	44.54628	-205.7646	0	10.94	4002	0	0	5	5	0.3097289	-0.1042811	1	10	0.03	2000	140.3291	40.92387	-91.39359
505476	2	17	20	19.01796	39.8834	-205.7992	0	10.94	4004	0	0	5	5	0.3097289	-0.1151289	1	10	0.03	2000	141.0882	40.92387	-91.39359
505550	-3	21	25	18.58571	35.81098	-205.831	0	10.94	4003	0	0	5	5	0.3097289	-0.1171478	1	10	0.03	2000	141.1221	40.92387	-91.39359
505704	-4	16	13	17.97289	30.15015	-205.8877	0	10.94	4002	0	0	5	5	0.3097289	-0.1182829	1	10	0.03	2000	141.1667	40.92387	-91.39359
505746	5	20	23	17.86654	29.16692	-205.8983	0	10.94	4003	0	0	5	5	0.3097289	-0.1201494	1	10	0.03	2000	141.1728	40.92387	-91.39359
505914	-3	15	18	17.491	25.632	-205.9458	0	10.94	4004	0	0	5	5	0.3097289	-0.1263628	1	10	0.03	2000	140.9508	40.92387	-91.39359
506110	-11	20	-12	17.01934	21.42842	-206.0101	0	10.94	4004	0	0	5	5	0.3097289	-0.1245646	1	10	0.03	2000	140.3752	40.92386	-91.39359
506276	-7	16	52	16.70446	18.70249	-206.0528	0	10.94	4002	0	0	5	5	0.3097289	-0.128065	1	10	0.03	2000	140.0967	40.92385	-91.3936
506379	15	14	21	16.50151	16.93296	-206.0939	0	10.89	4002	0	0	5	5	0.3097289	-0.1259954	1	10	0.03	2000	139.8018	40.92385	-91.3936
506441	-2	16	12	16.41065	16.1572	-206.1137	0	10.89	4002	0	0	5	5	0.3097289	-0.1265641	1	10	0.03	2000	139.6416	40.92385	-91.3936
506597	-4	12	20	16.22869	14.81355	-206.1554	0	10.89	4004	0	0	5	5	0.3097289	-0.1334446	1	10	0.03	2000	139.6027	40.92385	-91.3936
506689	-10	8	12	16.10452	13.96066	-206.1792	0	10.89	4003	0	0	5	5	0.3097289	-0.1437266	1	10	0.03	2000	139.543	40.92385	-91.3936
506759	-10	9	16	16.02348	13.45127	-206.1949	0	10.89	4003	0	0	5	5	0.3097289	-0.1444617	1	10	0.03	2000	139.3608	40.92385	-91.39361
506891	-6	3	16	15.87861	12.56882	-206.229	0	10.89	4002	0	0	5	5	0.3097289	-0.1432736	1	10	0.03	2000	139.3057	40.92385	-91.39361
506986	-8	9	13	15.78197	12.0028	-206.253	0	10.89	4003	0	0	5	5	0.3097289	-0.1433334	1	10	0.03	2000	139.1419	40.92385	-91.39361
507050	-16	8	9	15.72027	11.66429	-206.2652	0	10.89	4004	0	0	5	5	0.3097289	-0.1431277	1	10	0.03	2000	139.0569	40.92385	-91.39361
507179	-8	12	19	15.61554	11.08112	-206.2904	0	10.89	4004	0	0	5	5	0.3097289	-0.1481361	1	10	0.03	2000	138.9078	40.92385	-91.39361
507248	4	12	23	15.58078	10.82614	-206.3097	0	10.94	4003	0	0	5	5	0.3097289	-0.1471933	1	10	0.03	2000	139.092	40.92385	-91.39361
507375	-11	14	32	15.51503	10.49104	-206.3373	0	10.94	4002	0	0	5	5	0.3097289	-0.1511035	1	10	0.03	2000	138.8036	40.92385	-91.39361
507472	-5	11	32	15.45047	10.18916	-206.3568	0	10.94	4002	0	0	5	5	0.3097289	-0.1559241	1	10	0.03	2000	138.8207	40.92385	-91.39361
507606	-7	0	8	15.33222	9.784827	-206.3951	0	10.94	4004	0	0	5	5	0.3097289	-0.1553295	1	10	0.03	2000	138.7611	40.92385	-91.39361
507659	-7	8	20	15.29155	9.645348	-206.4108	0	10.94	4003	0	0	5	5	0.3097289	-0.1518202	1	10	0.03	2000	138.7558	40.92385	-91.39361
507778	418	55	79	15.85587	8.801619	-206.339	0	10.94	4003	0	0	5	5	0.3097289	-0.1558515	1	10	0.03	2000	138.6995	40.92385	-91.39361
507886	-1833	-1889	881	17.14682	10.06368	-206.8338	0	10.94	4003	0	0	5	5	0.3097289	-0.1635219	1	10	0.03	2000	139.0068	40.92385	-91.39361
508034	-666	-838	1978	14.85216	14.90215	-209.6867	0	10.94	4003	0	0	5	5	0.3097289	-0.1781493	1	10	0.03	2000	140.5293	40.92385	-91.39361
508082	-598	-3258	3461	12.51008	16.037	-212.7458	0	10.94	4003	0	0	5	5	0.3097289	-0.1781887	1	10	0.03	2000	142.4258	40.92385	-91.39361
508197	-11190	-13999	6399	-1.405186	30.32418	-222.7392	0	10.89	4004	0	0	5	5	0.3097289	-0.1777026	1	10	0.03	2000	145.7875	40.92385	-91.39361
508277	-16220	-11538	7783	-27.08034	40.8712	-235.0503	0	10.89	4004	0	0	5	5	0.3097289	-0.1751413	1	10	0.03	2000	150.6373	40.92385	-91.39361
508404	-16105	-7369	-727	-48.56231	43.55818	-242.3653	0	10.89	4004	0	0	5	5	0.3097289	-0.1603861	1	10	0.03	2000	144.123	40.92385	-91.3936
508453	-11945	-5005	-3450	-51.82273	46.17072	-239.9884	0	10.89	4002	0	0	5	5	0.3097289	-0.1521956	1	10	0.03	2000	130.9073	40.92385	-91.3936
508588	-1913	-87	-3545	-40.95117	46.02277	-231.4876	0	10.89	4002	0	0	5	5	0.3097289	-0.1135539	1	10	0.03	2000	102.8385	40.92385	-91.39361
508639	471	650	-2158	-36.10024	43.72246	-229.8108	0	10.89	4003	0	0	5	5	0.3097289	-0.107422	1	10	0.03	2000	88.40448	40.92385	-91.39361
508730	636	-2330	-1195	-23.09194	35.35817	-226.8051	0	10.89	4002	0	0	5	5	0.3097289	-0.06550524	1	10	0.03	2000	78.38251	40.92385	-91.39361
508792	85	-7612	-2465	-12.04293	37.00076	-224.2579	0	10.89	4002	0	0	5	5	0.3097289	-0.05591173	1	10	0.03	2000	73.61477	40.92385	-91.39361
508951	-2634	-13488	-10964	0.1536676	46.44219	-209.2747	0	10.89	4004	0	0	5	5	0.3097289	0.02997657	1	10	0.03	2000	64.3426	40.92385	-91.39361
509078	6394	-11291	-16073	38.50593	52.877	-178.9351	0	10.94	4004	0	0	5	5	0.3097289	0.1099952	1	10	0.03	2000	27.37422	40.92385	-91.39361
509126	4321	-12234	-15963	55.25328	46.97747	-161.2952	0	10.94	4004	0	0	5	5	0.3097289	0.125607	1	10	0.03	2000	6.361264	40.92385	-91.39361
509260	-16853	-7869	-10144	58.03247	43.30561	-141.2016	0	10.94	4002	0	0	5	5	0.3097289	0.2166001	1	10	0.03	2000	-19.33932	40.92386	-91.39361
509318	-11136	1306	-4866	36.46854	31.79555	-127.4522	0	10.94	4002	0	0	5	5	0.3097289	0.257748	1	10	0.03	2000	-31.52051	40.92386	-91.39361
509466	4217	13930	2165	41.7897	6.320729	-130.0908	0	10.94	4003	0	0	5	5	0.3097289	0.3496918	1	10	0.03	2000	-24.41794	40.92386	-91.39361
509534	-4840	-7434	432	37.17754	4.014867	-130.4721	0	10.94	4003	0	0	5	5	0.3097289	0.3832957	1	10	0.03	2000	-15.58771	40.92386	-91.39361
509661	666	-9673	-3978	30.98304	15.02898	-126.6409	0	10.94	4004	0	0	5	5	0.3097289	0.4299306	1	10	0.03	2000	-24.57962	40.92386	-91.39361
509746	2906	-2855	-4079	33.2835	13.42454	-120.2414	0	10.94	4004	0	0	5	5	0.3097289	0.442958	1	10	0.03	2000	-32.96582	40.92387	-91.39361
509824	-2352	5923	635	25.63099	0.9408823	-116.104	0	10.94	4004	0	0	5	5	0.3097289	0.4823474	1	10	0.03	2000	-31.82025	40.92387	-91.39361
509905	-5207	7670	-1189	15.92719	-10.57988	-118.3047	0	10.94	4003	0	0	5	5	0.3097289	0.5051925	1	10	0.03	2000	-25.22171	40.92387	-91.39361
509968	-6685	7618	-4189	11.08491	-15.53001	-116.6517	0	10.94	4003	0	0	5	5	0.3097289	0.5261688	1	10	0.03	2000	-25.22171	40.92387	-91.39361
510096	-4251	1686	589	-6.558224	-26.43905	-108.064	0	10.94	4003	0	0	5	5	0.3097289	0.5604935	1	10	0.03	2000	-28.83005	40.92387	-91.39361
510146	-2040	-559	921	-8.408317	-26.9533	-108.5506	0	10.94	4002	0	0	5	5	0.3097289	0.5621727	1	10	0.03	2000	-28.83005	40.92387	-91.39361
510167	880	-6701	-2031	-11.64392	-17.06386	-106.6923	0	10.94	4002	0	0	5	5	0.3097289	0.5551358	1	10	0.03	2000	-29.81299	40.92387	-91.39361
510198	-3334	-2688	1001	-12.4419	-14.90261	-106.2789	0	10.94	4004	0	0	5	5	0.3097289	0.5551358	1	10	0.03	2000	-29.81299	40.92387	-91.39361
510305	101	-8361	694	-14.37687	-6.260994	-110.3307	0	10.94	4003	0	0	5	5	0.3097289	0.5414362	1	10	0.03	2000	-27.85068	40.92387	-91.39362
510430	-3381	-6293	588	-22.58944	4.026081	-110.5808	0	10.94	4003	0	0	5	5	0.3097289	0.5267363	1	10	0.03	2000	-23.51883	40.92387	-91.39362
510546	-2005	1059	756	-29.49645	10.01937	-111.8643	0	10.94	4002	0	0	5	5	0.3097289	0.5190251	1	10	0.03	2000	-17.5863	40.92387	-91.39362
510678	840	4377	-1375	-29.08864	-6.29185	-115.4526	0	10.94	4003	0	0	5	5	0.3097289	0.5101696	1	10	0.03	2000	-12.96442	40.92387	-91.39362
510712	825	3714	-2500	-28.93326	-7.688012	-114.3186	0	10.94	4003	0	0	5	5	0.3097289	0.5092686	1	10	0.03	2000	-14.16461	40.92387	-91.39362
510780	2848	3349	-1920	-28.14318	-8.816119	-113.0217	0	10.94	4002	0	0	5	5	0.3097289	0.5039358	1	10	0.03	2000	-14.16461	40.92387	-91.39362
510934	6405	-1164	-444	-11.14965	-13.07084	-115.3934	0	10.94	4003	0	0	5	5	0.3097289	0.4914657	1	10	0.03	2000	-13.18494	40.92387	-91.39362
510992	5419	-1940	-1702	-9.050296	-14.17771	-114.7494	0	10.94	4003	0	0	5	5	0.3097289	0.485967	1	10	0.03	2000	-13.18494	40.92387	-91.39362
511168	113	7009	4166	-8.989556	-12.38449	-113.24	0	10.94	4004	0	0	5	5	0.3097289	0.4745791	1	10	0.03	2000	-17.44855	40.92388	-91.39362
511249	-6189	3347	873	-10.66561	-20.69472	-118.6636	0	10.94	4002	0	0	5	5	0.3097289	0.4585218	1	10	0.03	2000	-16.6936	40.92388	-91.39362
511399	-3704	1732	-393	-29.98777	-28.18606	-120.1619	0	10.94	4002	0	0	5	5	0.3097289	0.421254	1	10	0.03	2000	-15.22333	40.92389	-91.39362
511512	-3446	-101	-48	-36.72727	-29.92418	-119.9005	0	10.94	4004	0	0	5	5	0.3097289	0.3965946	1	10	0.03	2000	-17.4325	40.92389	-91.39362
511652	228	-4464	1632	-45.93695	-24.93189	-121.5113	0	10.94	4008	0	0	5	5	0.3097289	0.3535147	1	10	0.03	2000	-16.24335	40.92389	-91.39363
511706	-284	-4634	1333	-45.38078	-22.85328	-122.452	0	10.94	4002	0	0	5	5	0.3097289	0.332584	1	10	0.03	2000	-16.24335	40.92389	-91.39363
511877	1773	-1657	-565	-44.05328	-7.233454	-118.8566	0	10.94	4004	0	0	5	5	0.3097289	0.2769296	1	10	0.03	2000	0.07522471	40.92389	-91.39363
511924	-132	-410	-395	-43.55172	-6.683328	-118.5425	0	10.94	4004	0	0	5	5	0.3097289	0.2696735	1	10	0.03	2000	3.150855	40.92389	-91.39363
512003	4797	-1971	-2965	-40.22546	-0.6135288	-115.666	0	10.94	4003	0	0	5	5	0.3097289	0.2497071	1	10	0.03	2000	5.039162	40.92389	-91.39363
512107	-1620	-1634	1352	-32.30832	0.3139749	-115.2582	0	10.94	4003	0	0	5	5	0.3097289	0.1961396	1	10	0.03	2000	5.479662	40.92389	-91.39363
512220	4147	-52	6	-32.13691	0.6258444	-115.5006	0	10.94	4004	0	0	5	5	0.3097289	0.1539969	1	10	0.03	2000	6.822425	40.92389	-91.39363
512316	8528	-223	1334	-14.46986	1.285859	-115.7262	0	10.94	4002	0	0	5	5	0.3097289	0.1021269	1	10	0.03	2000	8.920465	40.92389	-91.39363
512458	25	-17	67	-5.445337	0.6696469	-116.4974	0	11.06	4004	0	0	5	5	0.3097289	0.07121474	1	10	0.03	2000	9.342916	40.92389	-91.39363
512582	-17	-1	7	-4.670075	0.6304591	-116.5118	0	11.06	4004	0	0	5	5	0.3097289	0.0244458	1	10	0.03	2000	6.895411	40.92389	-91.39363
512680	-39	-7	8	-4.131502	0.6089104	-116.5237	0	11.06	4003	0	0	5	5	0.3097289	-0.003742722	1	10	0.03	2000	5.512611	40.92389	-91.39363
512771	-33	0	7	-3.818304	0.5922614	-116.5322	0	11.06	4002	0	0	5	5	0.3097289	-0.02607072	1	10	0.03	2000	5.163932	40.92389	-91.39363
512885	-35	6	8	-3.26444	0.5585823	-116.5465	0	11.06	4003	0	0	5	5	0.3097289	-0.05400314	1	10	0.03	2000	4.157492	40.92389	-91.39363
512903	-35	6	8	-3.140702	0.5513185	-116.5508	0	11.06	4002	0	0	5	5	0.3097289	-0.06526015	1	10	0.03	2000	4.157492	40.92389	-91.39363
513113	-37	10	3	-2.594865	0.5211765	-116.5688	0	11.06	4004	0	0	5	5	0.3097289	-0.0923685	1	10	0.03	2000	3.091224	40.92389	-91.39363
513255	-27	12	1	-2.148253	0.4998841	-116.5859	0	11.06	4002	0	0	5	5	0.3097289	-0.1155652	1	10	0.03	2000	2.56684	40.92389	-91.39363
513313	-30	6	7	-2.001004	0.4936503	-116.593	0	11.06	4003	0	0	5	5	0.3097289	-0.1185129	1	10	0.03	2000	2.033881	40.92389	-91.39363
513415	-24	-1	13	-1.868711	0.4898187	-116.6024	0	11	4003	0	0	5	5	0.3097289	-0.1217473	1	10	0.03	2000	1.78984	40.92389	-91.39363
513530	-26	1	1	-1.623938	0.4801396	-116.6142	0	11	4002	0	0	5	5	0.3097289	-0.1158775	1	10	0.03	2000	1.115271	40.92389	-91.39363
513657	-27	2	7	-1.428745	0.4718425	-116.6267	0	11	4002	0	0	5	5	0.3097289	-0.1161727	1	10	0.03	2000	0.9102471	40.92389	-91.39363
513720	-22	-3	2	-1.385179	0.4676715	-116.6294	0	11	4002	0	0	5	5	0.3097289	-0.1129369	1	10	0.03	2000	0.9899358	40.92389	-91.39363
513839	-23	1	3	-1.221821	0.4574241	-116.6401	0	11	4003	0	0	5	5	0.3097289	-0.1101912	1	10	0.03	2000	0.4459997	40.92389	-91.39363
514005	-28	2	7	-1.057716	0.4442552	-116.6519	0	11	4004	0	0	5	5	0.3097289	-0.112453	1	10	0.03	2000	0.4387129	40.9239	-91.39363
514043	-22	3	6	-0.9994752	0.4384446	-116.657	0	11	4002	0	0	5	5	0.3097289	-0.1126701	1	10	0.03	2000	0.3288907	40.9239	-91.39363
514161	-30	-6	2	-0.9189503	0.4310741	-116.6655	0	11	4003	0	0	5	5	0.0309729	-0.1174133	6	10	0.03	2000	-0.1143188	40.9239	-91.39363
514230	-22	4	4	-0.8742161	0.4270995	-116.6715	0	11	4004	0	0	5	5	0.03284328	-0.1187069	6	10	0.03	2000	-0.1143188	40.9239	-91.39363
514322	-22	4	9	-0.8126599	0.4257384	-116.6821	0	11	4003	0	0	5	5	0.0349526	-0.1206757	6	10	0.03	2000	-0.03561401	40.9239	-91.39363
514414	-29	1	2	-0.7515979	0.4142307	-116.6889	0	11	4003	0	0	5	5	0.03430725	-0.1254472	6	10	0.03	2000	-0.3457642	40.9239	-91.39363
514514	-18	4	2	-0.7045813	0.4105418	-116.6974	0	11	4004	0	0	5	5	0.03640039	-0.1351761	6	10	0.03	2000	0.009262829	40.9239	-91.39363
514624	-20	-2	6	-0.6602779	0.4105109	-116.7047	0	11	4004	0	0	5	5	0.03694456	-0.1360924	6	10	0.03	2000	-0.5383911	40.9239	-91.39363
514755	-28	0	4	-0.6000758	0.4074289	-116.7135	0	11	4002	0	0	5	5	0.03657459	-0.1280238	6	10	0.03	2000	-0.6305237	40.9239	-91.39363
514844	-27	0	8	-0.5808691	0.4024533	-116.7207	0	11	4003	0	0	5	5	0.03731548	-0.1288771	6	10	0.03	2000	-0.4373169	40.9239	-91.39363
514940	-26	2	3	-0.5481769	0.3957509	-116.7326	0	11	4003	0	0	5	5	0.03807849	-0.133612	6	10	0.03	2000	-0.7526245	40.9239	-91.39363
515038	-25	6	5	-0.5252051	0.391351	-116.7421	0	11	4002	0	0	5	5	0.03925109	-0.1493762	6	10	0.03	2000	-0.531311	40.9239	-91.39363
515115	-30	7	7	-0.4983963	0.3911397	-116.7504	0	11	4004	0	0	5	5	0.03980929	-0.1618276	6	10	0.03	2000	-0.5933838	40.9239	-91.39363
515219	-25	-2	6	-0.4883619	0.3942603	-116.7547	0	11	4003	0	0	5	5	0.04062768	-0.1828834	6	10	0.03	2000	-0.6170959	40.9239	-91.39363
515324	-32	7	4	-0.473534	0.3921001	-116.763	0	11	4004	0	0	5	5	0.04105079	-0.1912904	6	10	0.03	2000	-0.6269226	40.9239	-91.39363
515427	-22	-8	33	-0.4539151	0.3863097	-116.7772	0	11	4004	0	0	5	5	0.04135925	-0.1927339	6	10	0.03	2000	-0.4232178	40.9239	-91.39363
515548	-16	9	-15	-0.4431472	0.3815553	-116.7828	0	11	4002	0	0	5	5	0.04172826	-0.2009183	6	10	0.03	2000	-1.178925	40.9239	-91.39363
515625	-48	-30	7	-0.4351526	0.3847724	-116.7956	0	11	4002	0	0	5	5	0.04065262	-0.2118571	6	10	0.03	2000	-0.4613342	40.9239	-91.39363
515762	-13	11	59	-0.4118024	0.3904024	-116.8086	0	11	4003	0	0	5	5	0.04009657	-0.2116783	6	10	0.03	2000	-0.5011292	40.9239	-91.39363
515875	-37	1	-9	-0.412753	0.3909129	-116.8115	0	11	4002	0	0	5	5	0.03815242	-0.2031948	6	10	0.03	2000	-1.236725	40.9239	-91.39363
516012	-10	15	0	-0.3959381	0.387165	-116.8243	0	11	4003	0	0	5	5	0.03933271	-0.1824744	6	10	0.03	2000	-0.7724915	40.9239	-91.39363
516059	-18	-10	8	-0.3932617	0.3821229	-116.8323	0	11	4004	0	0	5	5	0.03948114	-0.1793092	6	10	0.03	2000	-1.27063	40.9239	-91.39363
516154	-16	8	8	-0.3777652	0.3789225	-116.8387	0	11	4002	0	0	5	5	0.03811904	-0.165558	6	10	0.03	2000	-1.270447	40.9239	-91.39363
516238	169	10	-45	-0.3383007	0.3517161	-116.8334	0	11	4003	0	0	5	5	0.03781531	-0.1557184	6	10	0.03	2000	-1.055023	40.9239	-91.39363
516358	-48	23	-5	-0.3250388	0.357685	-116.8478	0	11	4003	0	0	5	5	0.03937221	-0.1464118	6	10	0.03	2000	-1.164825	40.9239	-91.39363
516462	-24	-7	24	-0.3063159	0.3570266	-116.8546	0	11	4003	0	0	5	5	0.04013556	-0.1480583	6	10	0.03	2000	-1.421631	40.9239	-91.39363
516501	-46	37	77	-0.3174523	0.360651	-116.8641	0	11	4004	0	0	5	5	0.04034091	-0.1477988	6	10	0.03	2000	-1.403229	40.9239	-91.39363
516601	-46	34	-5	-0.3234865	0.3527172	-116.8701	0	11	4002	0	0	5	5	0.04087604	-0.1491276	6	10	0.03	2000	-1.172058	40.9239	-91.39363
516701	-44	-12	6	-0.3254886	0.3607766	-116.8783	0	11	4003	0	0	5	5	0.04132481	-0.1560023	6	10	0.03	2000	-1.15509	40.9239	-91.39363
516843	-2	5	0	-0.3188224	0.363925	-116.8925	0	11	4004	0	0	5	5	0.04175399	-0.1575675	6	10	0.03	2000	-0.907959	40.9239	-91.39363
516904	-13	-1	23	-0.3294308	0.3762037	-116.8953	0	11	4003	0	0	5	5	0.04179749	-0.1573099	6	10	0.03	2000	-1.15567	40.9239	-91.39363
517018	-25	13	22	-0.3309721	0.3717218	-116.9056	0	11	4004	0	0	5	5	0.04205009	-0.1567954	6	10	0.03	2000	-0.8888855	40.9239	-91.39363
517196	-28	19	2	-0.3315865	0.3716406	-116.9221	0	11	4002	0	0	5	5	0.04215448	-0.160882	6	10	0.03	2000	-1.379089	40.9239	-91.39363
517255	-8	-6	9	-0.3270704	0.3695568	-116.9272	0	11	4004	0	0	5	5	0.04216104	-0.1636176	6	10	0.03	2000	-1.379089	40.9239	-91.39363
517317	-19	3	39	-0.3213164	0.3619854	-116.9326	0	11	4002	0	0	5	5	0.04210119	-0.1697184	6	10	0.03	2000	-0.9041748	40.9239	-91.39363
517408	-70	47	-58	-0.3060867	0.344612	-116.9149	0	11	4003	0	0	5	5	0.04218304	-0.1738888	6	10	0.03	2000	-0.9046936	40.9239	-91.39363
517558	-33	19	45	-0.3529189	0.368245	-116.9524	0	11	4002	0	0	5	5	0.04193493	-0.1928893	6	10	0.03	2000	-0.8896484	40.9239	-91.39363
517626	-21	10	-19	-0.3574011	0.3705351	-116.9514	0	11	4004	0	0	5	5	0.04169165	-0.2022902	6	10	0.03	2000	-1.111511	40.9239	-91.39363
517735	8	-14	-23	-0.3545899	0.3791035	-116.96	0	11	4004	0	0	5	5	0.04126052	-0.221582	6	10	0.03	2000	-0.8495483	40.9239	-91.39363
517814	-39	-3	46	-0.359417	0.37864	-116.9689	0	11	4003	0	0	5	5	0.03909081	-0.2273108	6	10	0.03	2000	-0.6081238	40.9239	-91.39363
517936	-17	8	-19	-0.3619341	0.3742215	-116.9773	0	11	4004	0	0	5	5	0.03934906	-0.2353177	6	10	0.03	2000	-1.306824	40.9239	-91.39363
518017	-33	24	42	-0.3615451	0.3780069	-116.9837	0	11	4003	0	0	5	5	0.03962797	-0.2363266	6	10	0.03	2000	-1.326477	40.9239	-91.39363
518159	-131	-16	75	-0.3318619	0.3132865	-116.9993	0	11	4004	0	0	5	5	0.04041496	-0.2337005	6	10	0.03	2000	-1.380402	40.9239	-91.39363
518291	-108	-39	100	-0.3185279	0.3174306	-117.006	0	11	4003	0	0	5	5	0.04118896	-0.2189712	6	10	0.03	2000	-0.4430847	40.9239	-91.39363
518371	-29	-8	96	-0.3177558	0.3395249	-117.0199	0	11	4004	0	0	5	5	0.04014074	-0.2178014	6	10	0.03	2000	-0.9260254	40.9239	-91.39363
518488	-34	168	52	-0.3346837	0.335057	-117.0027	0	11	4002	0	0	5	5	0.04096309	-0.2106028	6	10	0.03	2000	-1.160583	40.9239	-91.39363
518594	-106	-10	166	-0.2418279	0.1541898	-117.0274	0	11	4002	0	0	5	5	0.04118247	-0.2095425	6	10	0.03	2000	-1.174622	40.9239	-91.39363
518661	129	-77	-53	-0.2363998	0.1409871	-117.0233	0	11	4002	0	0	5	5	0.04095617	-0.2082727	6	10	0.03	2000	-0.5615845	40.9239	-91.39363
518773	-207	-312	-656	-0.4174981	-0.03513016	-117.0321	0	11	4003	0	0	5	5	0.04118874	-0.2061179	6	10	0.03	2000	-1.363861	40.9239	-91.39363
518822	29	119	-277	-0.4402477	-0.07350302	-117.0359	0	11	4004	0	0	5	5	0.04135725	-0.201111	6	10	0.03	2000	-1.363861	40.9239	-91.39363
518918	-131	56	148	-0.3447317	-0.04453291	-117.0673	0	11	4003	0	0	5	5	0.04086358	-0.197051	6	10	0.03	2000	-0.3597107	40.9239	-91.39363
518969	-93	108	14	-0.3538766	-0.04603346	-117.0656	0	11	4004	0	0	5	5	0.04084101	-0.1909533	6	10	0.03	2000	-0.3597107	40.9239	-91.39363
519077	-85	-109	68	-0.4601442	-0.2725591	-117.0519	0	11	4002	0	0	5	5	0.03907642	-0.1787107	6	10	0.03	2000	-0.5534058	40.9239	-91.39362
519177	-84	92	-5	-0.4632061	-0.2417759	-117.0561	0	11	4002	0	0	5	5	0.03973298	-0.1758482	6	10	0.03	2000	-0.5518799	40.9239	-91.39362
519322	87	37	51	-0.4209554	-0.1317618	-117.0728	0	11	4002	0	0	5	5	0.03903164	-0.1686495	6	10	0.03	2000	-0.7033997	40.9239	-91.39362
519416	-41	16	22	-0.4524267	-0.05869308	-117.0792	0	11	4004	0	0	5	5	0.03955951	-0.1685136	6	10	0.03	2000	-0.7159119	40.9239	-91.39362
519471	-22	-21	-36	-0.4536944	-0.01856497	-117.0838	0	11	4003	0	0	5	5	0.04013044	-0.1697913	6	10	0.03	2000	-0.9318237	40.9239	-91.39362
519587	-6	21	-37	-0.4267284	0.009491162	-117.0945	0	11	4003	0	0	5	5	0.04045542	-0.179829	6	10	0.03	2000	-0.478302	40.9239	-91.39362
519680	-12	-13	15	-0.423366	0.07098296	-117.1099	0	11	4003	0	0	5	5	0.04069562	-0.1898478	6	10	0.03	2000	-0.728241	40.9239	-91.39362
519784	-20	5	22	-0.4194855	0.1040426	-117.1108	0	11	4003	0	0	5	5	0.04132715	-0.2133434	6	10	0.03	2000	-1.241638	40.9239	-91.39362
519896	-23	13	17	-0.4084728	0.1426671	-117.1207	0	11	4003	0	0	5	5	0.04165366	-0.2214776	6	10	0.03	2000	-0.7538452	40.9239	-91.39362
519967	-48	14	2	-0.4052734	0.1849311	-117.1261	0	11	4003	0	0	5	5	0.0418574	-0.2292735	6	10	0.03	2000	-1.028656	40.9239	-91.39362
520070	-12	17	-7	-0.4023654	0.2119573	-117.1382	0	11	4003	0	0	5	5	0.0419204	-0.2337051	6	10	0.03	2000	-1.014435	40.9239	-91.39362
520174	-42	-22	0	-0.3815066	0.2336282	-117.1464	0	11	4004	0	0	5	5	0.04199319	-0.2381741	6	10	0.03	2000	-0.8062439	40.9239	-91.39362
520299	-23	-4	0	-0.3757338	0.2531631	-117.162	0	11	4004	0	0	5	5	0.04010738	-0.235234	6	10	0.03	2000	-1.069977	40.9239	-91.39362
520454	-19	-1	4	-0.3670669	0.2774144	-117.1746	0	11	4003	0	0	5	5	0.04107779	-0.2418614	6	10	0.03	2000	-1.056183	40.9239	-91.39362
520532	-8	-16	13	-0.3629376	0.2991532	-117.1851	0	11	4003	0	0	5	5	0.04140671	-0.2470834	6	10	0.03	2000	-1.072021	40.9239	-91.39362
520599	-27	-4	17	-0.3633966	0.2999634	-117.1913	0	11	4003	0	0	5	5	0.04155535	-0.2518705	6	10	0.03	2000	-1.319977	40.9239	-91.39362
520716	-24	-2	-1	-0.3521746	0.3149868	-117.2038	0	11	4003	0	0	5	5	0.03977197	-0.2530254	6	10	0.03	2000	-1.086517	40.9239	-91.39362
520869	-20	-5	2	-0.3443396	0.3264173	-117.217	0	11	4002	0	0	5	5	0.04045048	-0.252086	6	10	0.03	2000	-1.107544	40.9239	-91.39362
520969	-20	-1	12	-0.3398242	0.3271072	-117.2228	0	11	4003	0	0	5	5	0.04101457	-0.2442115	6	10	0.03	2000	-1.117676	40.9239	-91.39362
521048	-22	4	0	-0.3249681	0.3285933	-117.2289	0	11	4003	0	0	5	5	0.04086807	-0.2324739	5	10	0.03	2000	-1.129669	40.9239	-91.39362
521154	-19	5	12	-0.3181356	0.3314908	-117.2376	0	11	4004	0	0	5	5	0.041319	-0.2213819	5	10	0.03	2000	-1.391174	40.9239	-91.39362
521273	-22	-3	3	-0.3123139	0.3427454	-117.2442	0	11	4004	0	0	5	5	0.04167098	-0.2002981	5	10	0.03	2000	-1.157349	40.9239	-91.39362
521350	-22	0	4	-0.311845	0.3492234	-117.2468	0	11	4004	0	0	5	5	0.0418037	-0.1915854	5	10	0.03	2000	-1.166107	40.9239	-91.39362
521496	-19	2	2	-0.3094943	0.3535936	-117.2583	0	11	4004	0	0	5	5	0.04210195	-0.1733847	1	10	0.03	2000	-1.167572	40.9239	-91.39362
521594	-13	0	4	-0.3127237	0.3629697	-117.2672	0	11	4003	0	0	5	5	0.04218366	-0.1647653	1	10	0.03	2000	-1.166016	40.9239	-91.39362
521666	-17	-4	0	-0.308465	0.3683943	-117.2742	0	11	4002	0	0	5	5	0.04227806	-0.1575616	1	10	0.03	2000	-1.166016	40.9239	-91.39362
521753	-23	0	1	-0.3065853	0.3726768	-117.2799	0	11	4004	0	0	5	5	0.04232631	-0.1581841	1	10	0.03	2000	-1.171722	40.9239	-91.39362
521840	-15	-1	-1	-0.3027056	0.3711495	-117.2855	0	11	4002	0	0	5	5	0.04238205	-0.1611848	1	10	0.03	2000	-1.410156	40.9239	-91.39362
521949	-19	0	2	-0.2975541	0.3679685	-117.2892	0	11	4004	0	0	5	5	0.04242269	-0.1597383	1	10	0.03	2000	-1.179901	40.9239	-91.39362
522049	-20	1	2	-0.2900155	0.3598675	-117.2958	0	11	4004	0	0	5	5	0.04246028	-0.1537418	1	10	0.03	2000	-1.192261	40.9239	-91.39362
522149	-20	-1	7	-0.2905149	0.3653274	-117.3021	0	11	4003	0	0	5	5	0.0424739	-0.1557377	1	10	0.03	2000	-1.198914	40.9239	-91.39362
522257	-26	-6	9	-0.291661	0.3685344	-117.3102	0	11	4003	0	0	5	5	0.04249389	-0.1625265	1	10	0.03	2000	-1.431091	40.9239	-91.39362
522360	-15	0	6	-0.2818251	0.3742805	-117.3188	0	11	4004	0	0	5	5	0.04250422	-0.1660659	1	10	0.03	2000	-1.450348	40.9239	-91.39362
522510	-18	1	6	-0.275623	0.3745182	-117.3266	0	11	4003	0	0	5	5	0.04251559	-0.1791695	1	10	0.03	2000	-1.454742	40.9239	-91.39362
522544	-23	2	3	-0.2727431	0.3754546	-117.3277	0	11	4003	0	0	5	5	0.04251723	-0.1810711	1	10	0.03	2000	-1.454742	40.9239	-91.39362
522631	-8	11	-8	-0.2783403	0.3897915	-117.3315	0	11	4003	0	0	5	5	0.04252004	-0.1877941	1	10	0.03	2000	-1.219757	40.9239	-91.39362
522751	-22	-8	10	-0.2836209	0.3747945	-117.3404	0	11	4003	0	0	5	5	0.04252494	-0.2096206	1	10	0.03	2000	-1.212219	40.9239	-91.39362
522865	-14	-6	6	-0.2757529	0.3777637	-117.3458	0	11	4004	0	0	5	5	0.04252686	-0.2245693	1	10	0.03	2000	-1.454926	40.9239	-91.39362
522884	-16	-7	3	-0.2723418	0.3832512	-117.3523	0	11	4002	0	0	5	5	0.04252737	-0.2264231	1	10	0.03	2000	-1.217346	40.9239	-91.39362
523011	-16	-2	0	-0.267609	0.3798767	-117.3597	0	11	4003	0	0	5	5	0.04252927	-0.2272864	1	10	0.03	2000	-1.236908	40.9239	-91.39362
523035	-20	-7	7	-0.2570623	0.3795018	-117.3681	0	11	4003	0	0	5	5	0.04253001	-0.2191773	1	10	0.03	2000	-1.01593	40.9239	-91.39362
523111	-8	3	7	-0.2570275	0.3816002	-117.3714	0	11	4003	0	0	5	5	0.04253055	-0.204748	1	10	0.03	2000	-1.253235	40.9239	-91.39362
523163	-19	1	4	-0.2549692	0.372439	-117.3744	0	11	4003	0	0	5	5	0.04253082	-0.1916243	1	10	0.03	2000	-1.500305	40.9239	-91.39362
523318	-23	5	-3	-0.2583762	0.3744487	-117.3821	0	11.06	4004	0	0	5	5	0.04253123	-0.173969	1	10	0.03	2000	-1.261383	40.9239	-91.39362
523431	-16	-1	2	-0.2591913	0.3767302	-117.3884	0	11.06	4003	0	0	5	5	0.04253144	-0.1707833	1	10	0.03	2000	-1.489166	40.9239	-91.39362
523481	-17	6	-3	-0.2626242	0.3900319	-117.389	0	11.06	4002	0	0	5	5	0.04253159	-0.1705592	1	10	0.03	2000	-1.489166	40.9239	-91.39362
523586	-19	4	2	-0.2604354	0.381354	-117.3937	0	11.06	4004	0	0	5	5	0.04253167	-0.1726195	1	10	0.03	2000	-1.491852	40.9239	-91.39362
523689	-16	2	1	-0.2575144	0.3847603	-117.4	0	11.06	4003	0	0	5	5	0.04253176	-0.1715329	1	10	0.03	2000	-1.247559	40.92391	-91.39362
523802	-20	-10	3	-0.2620496	0.38708	-117.408	0	11.06	4004	0	0	5	5	0.04253184	-0.1658539	1	10	0.03	2000	-1.497803	40.92391	-91.39362
523883	-22	3	9	-0.2631066	0.3975645	-117.4114	0	11.06	4004	0	0	5	5	0.04253187	-0.1642147	1	10	0.03	2000	-1.245148	40.92391	-91.39362
523982	-17	2	1	-0.2633384	0.3971511	-117.4192	0	11.06	4002	0	0	5	5	0.0425319	-0.1650487	1	10	0.03	2000	-1.243225	40.92391	-91.39362
524084	-16	-6	8	-0.2610005	0.3975153	-117.4239	0	11.06	4002	0	0	5	5	0.04253193	-0.1712905	1	10	0.03	2000	-1.002716	40.92391	-91.39362
524224	-22	3	4	-0.2552055	0.3937067	-117.4341	0	11	4002	0	0	5	5	0.04253195	-0.1722014	1	10	0.03	2000	-1.501221	40.92391	-91.39362
524291	-23	-8	4	-0.2490139	0.3982525	-117.4368	0	11	4004	0	0	5	5	0.04253196	-0.1712766	1	10	0.03	2000	-1.501221	40.92391	-91.39362
524406	-27	-2	5	-0.2503933	0.4005313	-117.4465	0	11	4003	0	0	5	5	0.04253197	-0.169142	1	10	0.03	2000	-1.265442	40.92391	-91.39362
524548	-24	-1	7	-0.2483206	0.3955035	-117.4513	0	11	4004	0	0	5	5	0.04253198	-0.1668226	1	10	0.03	2000	-1.27182	40.92391	-91.39362
524584	-17	-1	5	-0.2501484	0.400252	-117.457	0	11	4002	0	0	5	5	0.04253198	-0.166288	1	10	0.03	2000	-1.265717	40.92391	-91.39362
524698	-21	1	1	-0.2479695	0.389135	-117.4617	0	11	4003	0	0	5	5	0.04253198	-0.1515532	1	10	0.03	2000	-1.271393	40.92391	-91.39362
524886	-38	-15	-7	-0.2658767	0.401084	-117.4679	0	11	4004	0	0	5	5	0.04253198	-0.1228765	1	10	0.03	2000	-1.256226	40.92391	-91.39362
525003	-38	-15	-7	-0.2658767	0.401084	-117.4679	0	11	4004	0	0	5	5	0.04253198	-0.1228765	1	10	0.03	2000	-1.256226	40.92391	-91.39362
525076	-38	-15	-7	-0.2658767	0.401084	-117.4679	0	11	4004	0	0	5	5	0.04253198	-0.1228765	1	10	0.03	2000	-1.256226	40.92391	-91.39362
525181	-38	-15	-7	-0.2658767	0.401084	-117.4679	0	11	4004	0	0	5	5	0.04253198	-0.1228765	1	10	0.03	2000	-1.256226	40.92391	-91.39362
525316	-38	-15	-7	-0.2658767	0.401084	-117.4679	0	11	4004	0	0	5	5	0.04253198	-0.1228765	1	10	0.03	2000	-1.256226	40.92391	-91.39362
525407	-38	-15	-7	-0.2658767	0.401084	-117.4679	0	11	4004	0	0	5	5	0.04253198	-0.1228765	1	10	0.03	2000	-1.256226	40.92391	-91.39362
525499	-38	-15	-7	-0.2658767	0.401084	-117.4679	0	11	4004	0	0	5	5	0.04253198	-0.1228765	1	10	0.03	2000	-1.256226	40.92391	-91.39362
525590	-38	-15	-7	-0.2658767	0.401084	-117.4679	0	11	4004	0	0	5	5	0.04253198	-0.1228765	1	10	0.03	2000	-1.256226	40.92391	-91.39362
525677	-38	-15	-7	-0.2658767	0.401084	-117.4679	0	11	4004	0	0	5	5	0.04253198	-0.1228765	1	10	0.03	2000	-1.256226	40.92391	-91.39362
525780	-38	-15	-7	-0.2658767	0.401084	-117.4679	0	11	4004	0	0	5	5	0.04253198	-0.1228765	1	10	0.03	2000	-1.256226	40.92391	-91.39362
525889	-38	-15	-7	-0.2658767	0.401084	-117.4679	0	11	4004	0	0	5	5	0.04253198	-0.1228765	1	10	0.03	2000	-1.256226	40.92391	-91.39362
526006	-38	-15	-7	-0.2658767	0.401084	-117.4679	0	11	4004	0	0	5	5	0.04253198	-0.1228765	1	10	0.03	2000	-1.256226	40.92391	-91.39362
526107	-38	-15	-7	-0.2658767	0.401084	-117.4679	0	11	4004	0	0	5	5	0.04253198	-0.1228765	1	10	0.03	2000	-1.256226	40.92391	-91.39362
526163	-38	-15	-7	-0.2658767	0.401084	-117.4679	0	11	4004	0	0	5	5	0.04253198	-0.1228765	1	10	0.03	2000	-1.256226	40.92391	-91.39362
526282	-38	-15	-7	-0.2658767	0.401084	-117.4679	0	11	4004	0	0	5	5	0.04253198	-0.1228765	1	10	0.03	2000	-1.256226	40.92391	-91.39362
526366	-38	-15	-7	-0.2658767	0.401084	-117.4679	0	11	4004	0	0	5	5	0.04253198	-0.1228765	1	10	0.03	2000	-1.256226	40.92391	-91.39362
526480	-38	-15	-7	-0.2658767	0.401084	-117.4679	0	11	4004	0	0	5	5	0.04253198	-0.1228765	1	10	0.03	2000	-1.256226	40.92391	-91.39362
526571	-38	-15	-7	-0.2658767	0.401084	-117.4679	0	11	4004	0	0	5	5	0.04253198	-0.1228765	1	10	0.03	2000	-1.256226	40.92391	-91.39362
526722	-38	-15	-7	-0.2658767	0.401084	-117.4679	0	11	4004	0	0	5	5	0.04253198	-0.1228765	1	10	0.03	2000	-1.256226	40.92391	-91.39362
526787	-38	-15	-7	-0.2658767	0.401084	-117.4679	0	11	4004	0	0	5	5	0.04253198	-0.1228765	1	10	0.03	2000	-1.256226	40.92391	-91.39362
526948	-38	-15	-7	-0.2658767	0.401084	-117.4679	0	11	4004	0	0	5	5	0.04253198	-0.1228765	1	10	0.03	2000	-1.256226	40.92391	-91.39362
527014	-38	-15	-7	-0.2658767	0.401084	-117.4679	0	11	4004	0	0	5	5	0.04253198	-0.1228765	1	10	0.03	2000	-1.256226	40.92391	-91.39362
527064	-38	-15	-7	-0.2658767	0.401084	-117.4679	0	11	4004	0	0	5	5	0.04253198	-0.1228765	1	10	0.03	2000	-1.256226	40.92391	-91.39362
