time(ms)	gyro_x(deg/s)	gyro_y(deg/s)	gyro_z(deg/s)	orientation_roll(deg)	orientation_pitch(deg)	orientation_yaw(deg)	throttle	battery(V)	loop_time(uS)	pid_output_roll	pid_output_pitch	pid_output_yaw	pid_output_throttle	ultrasonic_alt	baro_alt	flight_mode	p_gain_altitude	i_gain_altitude	d_gain_altitude	compass_heading	latitude	longitude
30846	208	2393	-419	-2.518939	-14.00406	0.431184	0	11.68	4003	8	-63	5	5	0.418794	2.75491	8	10	0.03	2000	1.113527	40.92393	-91.39361
30950	1032	3510	833	-2.092137	-15.01192	0.497735	0	11.68	4004	8	-63	5	5	0.4187957	2.754792	8	10	0.03	2000	1.113527	40.92393	-91.39361
31057	562	-613	-1468	-2.359188	-15.20972	1.835227	0	11.34	4003	8	-67	5	5	0.4187982	2.749028	8	10	0.03	2000	-1.068909	40.92393	-91.39361
31159	-675	-1325	1012	-2.100854	-12.23738	1.648767	0	11.34	4003	8	-103	5	5	0.4187991	2.746579	8	10	0.03	2000	1.945245	40.92393	-91.39361
31263	-253	78	-567	-1.788761	-11.22754	0.389871	0	11.34	4002	8	-104	5	5	0.4188004	2.743819	8	10	0.03	2000	1.182867	40.92393	-91.39361
31368	16	813	-1471	-1.906677	-11.12304	0.1178183	0	11.34	4002	8	-139	5	5	0.4188012	2.735529	8	10	0.03	2000	1.92226	40.92392	-91.39361
31471	57	2549	-498	-0.4727468	-17.02496	1.149685	0	11.34	4003	8	-108	5	5	0.4188015	2.733485	8	10	0.03	2000	3.036168	40.92392	-91.39361
31576	-1428	1849	1007	-2.840613	-16.88177	1.116675	0	11.34	4002	8	-144	5	5	0.418802	2.723982	8	10	0.03	2000	2.791244	40.92392	-91.39361
31681	286	-2607	-280	-2.487723	-16.54928	0.5322298	0	11.34	4004	8	-148	5	5	0.4188022	2.720778	8	10	0.03	2000	0.9766898	40.92392	-91.39361
31785	196	1564	395	-0.8221644	-13.44077	1.236118	0	11.34	4002	8	-148	5	5	0.4188025	2.708082	8	10	0.03	2000	1.393294	40.92392	-91.39361
31889	-490	402	-1195	-1.241414	-14.22888	1.086527	0	11.34	4004	8	-116	5	5	0.4188026	2.700843	8	10	0.03	2000	2.174717	40.92391	-91.39361
31990	141	-2106	-1296	-2.376403	-12.53429	0.64249	0	11.34	4004	8	-120	5	5	0.4188027	2.701412	8	10	0.03	2000	1.625114	40.92391	-91.39361
32096	167	-1544	-1688	-1.243355	-11.22116	0.2775951	0	11.46	4002	81	-120	5	5	0.4188028	2.708622	8	10	0.03	2000	2.102001	40.92391	-91.3936
32196	-826	-1055	-897	-2.265737	-9.594749	1.118918	0	11.46	4004	81	-88	5	5	0.4188029	2.732823	8	10	0.03	2000	2.516599	40.92391	-91.3936
32300	-1368	-3667	1230	-4.256348	-6.113647	0.6358019	0	11.46	4004	81	-88	5	5	0.4188029	2.768692	8	10	0.03	2000	2.159007	40.92391	-91.3936
32402	-371	-3816	810	-4.808547	-0.8041269	0.5051042	0	11.46	4003	81	-56	5	5	0.4188029	2.805462	8	10	0.03	2000	1.916046	40.92391	-91.3936
32525	647	2674	-657	-5.019636	-2.622266	0.8402418	0	11.46	4002	81	-56	5	5	0.4188029	2.867041	8	10	0.03	2000	1.427504	40.92391	-91.3936
32608	-710	876	198	-4.692417	-4.64759	0.9847273	0	11.46	4004	81	-24	5	5	0.4188029	2.895609	8	10	0.03	2000	0.4409207	40.92391	-91.3936
32712	-1980	-475	326	-6.310509	-4.261151	0.7440442	0	11.46	4002	153	-24	5	5	0.4188029	2.926489	8	10	0.03	2000	0.3104793	40.92391	-91.39359
32815	-59	825	1216	-7.162694	-3.245464	0.8170298	0	11.46	4004	89	-24	5	5	0.4188029	2.953279	8	10	0.03	2000	-0.2298889	40.92391	-91.39359
32919	-646	1731	-696	-7.124078	-4.240183	1.043963	0	11.46	4004	89	-24	5	5	0.4188029	2.989716	8	10	0.03	2000	-1.965393	40.92391	-91.39359
33023	-791	925	1526	-6.737509	-6.533866	0.9737401	0	11.46	4003	89	-24	5	5	0.4188029	3.005375	8	10	0.03	2000	-4.168549	40.92391	-91.39359
33127	-568	-2485	713	-7.455452	-5.254019	0.5571448	0	11.46	4004	89	-24	5	5	0.4188029	3.029412	8	10	0.03	2000	-6.151093	40.92391	-91.39359
33233	-1032	-651	1543	-7.881416	-2.040263	-0.09028815	0	11.46	4002	161	-25	5	5	0.4188029	3.044652	8	10	0.03	2000	-5.865204	40.92391	-91.39359
33336	-120	2380	862	-8.713323	-6.097793	0.04155103	0	11.46	4004	116	-29	5	5	0.4188029	3.049732	8	10	0.03	2000	-8.362396	40.92391	-91.39359
33434	371	-16	-1520	-8.484657	-8.043938	0.4852133	0	11.46	4004	97	-25	5	5	0.4188029	3.044724	8	10	0.03	2000	-9.981812	40.92391	-91.39359
33542	-448	-837	189	-7.431724	-6.834236	1.529694	0	11.46	4003	97	-25	5	5	0.4188029	3.045023	8	10	0.03	2000	-11.20654	40.92391	-91.39359
33641	-926	-572	-955	-9.118814	-6.481198	1.186661	0	11.46	4004	97	-25	5	5	0.4188029	3.048646	8	10	0.03	2000	-12.35745	40.92391	-91.39359
33743	139	-947	2257	-8.092162	-4.991348	0.3777886	0	11.46	4002	98	-25	5	5	0.4188029	3.052475	8	10	0.03	2000	-14.96661	40.92391	-91.39359
33850	-636	-1574	-847	-7.960954	-4.319141	0.5277118	0	11.46	4004	98	-25	5	5	0.4188029	3.056513	8	10	0.03	2000	-15.17197	40.92391	-91.39359
33948	688	1289	-159	-5.470189	-7.002767	1.031897	0	12.19	4004	34	-25	5	5	0.4188029	3.057536	8	10	0.03	2000	-18.2681	40.92391	-91.39359
34060	-693	-2120	-720	-5.862321	-6.280237	1.126241	0	12.19	4003	34	-25	5	5	0.4188029	3.055904	8	10	0.03	2000	-16.05762	40.92391	-91.39359
34156	-310	2552	203	-6.209299	-7.136762	0.8386385	0	12.19	4004	34	-25	5	5	0.4188029	3.05298	8	10	0.03	2000	-16.90631	40.92391	-91.39359
34260	-406	2846	1349	-5.801095	-12.62798	0.4306108	0	12.19	4004	34	-25	5	5	0.4188029	3.015564	8	10	0.03	2000	-16.75076	40.92391	-91.39359
34363	1239	551	-509	-5.52576	-13.06498	0.6574448	0	12.19	4003	34	-61	5	5	0.4188029	2.987031	8	10	0.03	2000	-14.78705	40.92391	-91.39359
34467	-356	-3097	892	-5.773759	-12.72456	0.7503828	0	12.19	4003	34	-61	5	5	0.4188029	2.922934	8	10	0.03	2000	-14.76352	40.92391	-91.39359
34569	1099	355	166	-5.549244	-10.33257	1.177275	0	12.19	4003	41	-73	5	5	0.4188029	2.865913	8	10	0.03	2000	-15.38205	40.92391	-91.39359
34673	-24	-352	1303	-4.510421	-10.69807	0.7420906	0	12.19	4002	34	-62	5	5	0.4188029	2.820169	8	10	0.03	2000	-12.64398	40.92391	-91.39359
34777	574	-408	-471	-3.670321	-9.317913	1.498435	0	12.19	4003	-37	-62	5	5	0.4188029	2.731672	8	10	0.03	2000	-11.55746	40.92391	-91.39359
34883	1275	161	-135	-1.937618	-9.063474	1.394908	0	11.4	4004	-37	-62	5	5	0.4188029	2.678306	8	10	0.03	2000	-11.97064	40.92391	-91.39359
34985	4089	1071	132	1.517482	-7.702486	0.7332024	0	11.4	4003	-37	-30	5	5	0.4188029	2.623764	8	10	0.03	2000	-9.762146	40.92391	-91.39359
35088	1198	870	-776	4.538884	-9.285763	0.003761966	0	11.4	4002	-44	-35	5	5	0.4188029	2.559093	8	10	0.03	2000	-5.201569	40.92391	-91.39359
35192	933	-450	388	5.053342	-8.456559	-0.3553006	0	11.4	4003	-36	-30	5	5	0.4188029	2.468708	8	10	0.03	2000	-3.497681	40.92391	-91.39359
35293	-809	-809	-793	3.105313	-5.414726	0.4424987	0	11.4	4002	-108	-30	5	5	0.4188029	2.397218	8	10	0.03	2000	0.7713581	40.92391	-91.3936
35392	1762	499	-130	4.548723	-5.357955	1.10807	0	11.4	4003	-45	-30	5	5	0.4188029	2.329675	8	10	0.03	2000	0.1086635	40.92391	-91.3936
35496	134	1218	1076	4.919153	-5.582623	1.002643	0	11.4	4003	-44	-30	5	5	0.4188029	2.246272	8	10	0.03	2000	1.164026	40.92391	-91.3936
35603	734	-1240	-1013	2.564562	-4.231049	-0.2271386	0	11.4	4004	-44	-30	5	5	0.4188029	2.167269	8	10	0.03	2000	5.609267	40.92391	-91.3936
35704	508	-306	-932	3.661305	-4.997206	0.4872979	0	11.4	4004	-44	-30	5	5	0.4188029	2.119162	8	10	0.03	2000	6.037628	40.92391	-91.3936
35810	-852	-109	-351	1.361779	-4.271302	0.9168099	0	11.8	4002	-44	-30	5	5	0.4188029	2.074876	8	10	0.03	2000	7.808163	40.92391	-91.3936
35912	-1191	-178	1778	-0.08962716	-4.152849	1.032029	0	11.8	4003	-44	5	5	5	0.4188029	1.994809	8	10	0.03	2000	8.614263	40.92391	-91.3936
36016	-2802	426	1021	-1.18895	-3.740264	2.787123	0	11.8	4002	19	5	5	5	0.4188029	1.9477	8	10	0.03	2000	8.531075	40.92391	-91.3936
36123	-1083	-1721	-1685	-5.257851	-4.082649	2.446875	0	11.8	4003	19	5	5	5	0.4188029	1.886467	8	10	0.03	2000	8.468812	40.92391	-91.3936
36222	-1200	-691	-1156	-6.83058	-3.376006	2.864465	0	11.8	4004	19	4	5	5	0.4188029	1.861143	8	10	0.03	2000	7.854686	40.92391	-91.39359
36329	-2146	-309	-1011	-10.08636	-2.91156	2.975618	0	11.8	4003	91	4	5	5	0.4188029	1.83294	8	10	0.03	2000	9.146049	40.92391	-91.39359
36428	-1665	977	2757	-10.76959	-3.381387	2.441828	0	11.8	4002	91	4	5	5	0.4188029	1.823738	8	10	0.03	2000	2.555151	40.92391	-91.39359
36532	768	2112	1040	-14.00152	-1.349056	0.5117188	0	11.8	4004	91	-26	5	5	0.4188029	1.822011	8	10	0.03	2000	-0.1185913	40.92391	-91.39359
36635	755	10	1271	-11.47607	-3.87841	-0.560561	0	11.8	4003	109	-32	5	5	0.4188029	1.833766	8	10	0.03	2000	-1.642761	40.92391	-91.39359
36738	490	1005	751	-11.20376	-4.34165	-1.480921	0	10.72	4003	92	-27	5	5	0.4188029	1.854134	8	10	0.03	2000	-3.83905	40.92391	-91.39359
36841	-1609	-1346	-410	-10.47381	-2.759913	0.1777667	0	10.72	4003	164	-27	5	5	0.4188029	1.876352	8	10	0.03	2000	-4.230042	40.92391	-91.39359
36944	621	1185	514	-12.83027	-3.413265	0.3137956	0	10.72	4007	100	-27	5	5	0.4188029	1.919421	8	10	0.03	2000	-5.942291	40.92391	-91.39359
37048	-2025	-150	1913	-11.49774	-5.163898	-0.4401077	0	10.72	4004	100	-27	5	5	0.4188029	1.947109	8	10	0.03	2000	-11.00281	40.92391	-91.39359
37131	-396	-1298	-1269	-12.05615	-5.476876	-0.5135138	0	10.72	4004	100	-27	5	5	0.4188029	2.010504	8	10	0.03	2000	-12.72659	40.92391	-91.39359
37216	-13	-1131	-1503	-8.958381	-2.274188	1.054626	0	10.72	4004	100	-27	5	5	0.4188029	2.060385	8	10	0.03	2000	-16.52554	40.92391	-91.39359
37296	89	2583	1397	-9.644828	-5.876028	1.088929	0	10.72	4004	100	-27	5	5	0.4188029	2.124484	8	10	0.03	2000	-22.47726	40.92391	-91.39359
37399	-774	3039	276	-9.396097	-9.71353	0.6113405	0	10.72	4002	37	-64	5	5	0.4188029	2.183428	8	10	0.03	2000	-19.60419	40.92391	-91.39359
37503	534	2884	-55	-9.13573	-12.69474	0.2927909	0	10.72	4004	36	-63	5	5	0.4188029	2.233201	8	10	0.03	2000	-19.60419	40.92391	-91.39359
37606	1377	3931	-670	-4.704914	-17.07176	0.7641588	0	11.91	4003	36	-64	5	5	0.4188029	2.322055	8	10	0.03	2000	-23.16388	40.92391	-91.39359
37712	-109	1442	-293	-4.181174	-19.24468	0.9311935	0	11.91	4003	-35	-64	5	5	0.4188029	2.409644	8	10	0.03	2000	-20.73297	40.92391	-91.39359
37817	343	-2536	1329	-3.82216	-12.71592	0.3872858	0	11.91	4003	-35	-64	5	5	0.4188029	2.474807	8	10	0.03	2000	-18.0928	40.92391	-91.39359
37915	1941	272	-91	-1.661844	-10.96346	0.06866413	0	11.91	4002	-35	-100	5	5	0.4188029	2.525001	8	10	0.03	2000	-17.98926	40.9239	-91.39359
38018	544	-477	256	-0.8477636	-10.65676	0.04712371	0	11.91	4003	-35	-68	5	5	0.4188029	2.576335	8	10	0.03	2000	-15.4288	40.9239	-91.39359
38121	791	-1416	-1430	-1.079095	-7.803987	0.5702832	0	11.91	4003	-35	-68	5	5	0.4188029	2.610867	8	10	0.03	2000	-13.73117	40.9239	-91.39359
38222	286	0	729	-0.7625398	-8.1119	0.4002708	0	11.91	4003	-35	-68	5	5	0.4188029	2.644352	8	10	0.03	2000	-13.15805	40.92391	-91.3936
38325	1874	-781	321	1.629427	-6.594693	0.026932	0	11.91	4003	-43	-32	5	5	0.4188029	2.665061	8	10	0.03	2000	-11.42111	40.92391	-91.3936
38428	-1097	515	1654	1.505119	-6.11794	-0.2314521	0	11.91	4002	-42	-32	5	5	0.4188029	2.689813	8	10	0.03	2000	-7.989502	40.92391	-91.3936
38535	968	-1234	-669	0.5344591	-7.967277	-0.3405118	0	11.51	4003	-42	0	5	5	0.4188029	2.698528	8	10	0.03	2000	-7.425049	40.92391	-91.3936
38632	973	-1929	-1864	0.8379998	-6.313874	0.6843854	0	11.51	4002	-52	0	5	5	0.4188029	2.697808	8	10	0.03	2000	-4.253754	40.92391	-91.3936
38735	672	1254	-709	1.378245	-7.098135	1.077925	0	11.51	4004	-42	0	5	5	0.4188029	2.67906	8	10	0.03	2000	-5.001373	40.92391	-91.3936
38837	2400	-1815	-906	2.902302	-7.175075	0.9948747	0	11.51	4002	-114	0	5	5	0.4188029	2.634037	8	10	0.03	2000	-0.8452454	40.92391	-91.39361
38938	-216	888	296	3.854614	-4.490234	0.8755571	0	11.51	4003	-50	-33	5	5	0.4188029	2.602248	8	10	0.03	2000	-2.476288	40.92391	-91.39361
39041	1213	-508	-1441	4.323609	-5.22538	1.249312	0	11.51	4004	-50	-33	5	5	0.4188029	2.550095	8	10	0.03	2000	3.59487	40.92391	-91.39361
39150	-1636	183	1332	3.111712	-3.65971	0.565496	0	11.51	4003	-50	-33	5	5	0.4188029	2.450073	8	10	0.03	2000	5.280097	40.92391	-91.39361
39247	358	-1330	-234	2.28426	-2.006033	0.04968889	0	11.51	4002	-50	2	5	5	0.4188029	2.395625	8	10	0.03	2000	6.507833	40.92391	-91.39361
39351	-741	381	624	1.045621	0.3550553	-0.1957732	0	11.51	4003	-50	2	5	5	0.4188029	2.285759	8	10	0.03	2000	9.225804	40.92391	-91.39361
39454	-741	381	624	1.045621	0.3550553	-0.1957732	0	11.51	4003	-50	2	5	5	0.4188029	2.254008	8	10	0.03	2000	9.225804	40.92391	-91.39361
39573	130	964	1308	-0.3719564	-3.580049	0.5204777	0	11.06	4002	13	2	5	5	0.4188029	2.161933	8	10	0.03	2000	12.44954	40.92391	-91.39361
39654	-957	-204	-1837	-0.7478337	-3.56342	0.7886126	0	11.06	4004	13	2	5	5	0.4188029	2.118395	8	10	0.03	2000	14.30952	40.92391	-91.39361
39826	-2081	30	118	-4.685266	-0.5344336	1.934821	0	11.06	4004	85	-29	5	5	0.4188029	2.002644	8	10	0.03	2000	13.98865	40.92391	-91.3936
39864	-1093	-77	1765	-5.542446	-0.7584769	1.62152	0	11.06	4004	85	-29	5	5	0.4188029	1.982141	8	10	0.03	2000	13.98865	40.92391	-91.3936
39962	16	-1535	-1369	-5.198816	-2.50081	0.3458248	0	11.06	4003	85	-65	5	5	0.4188029	1.959925	8	10	0.03	2000	13.47539	40.92391	-91.3936
40066	-2137	615	-1387	-6.333395	-4.427714	-0.09504726	0	11.06	4003	101	-77	5	5	0.4188029	1.937509	8	10	0.03	2000	13.89501	40.92391	-91.3936
40189	-717	-332	401	-4.956659	-6.39	0.580802	0	11.06	4004	85	-65	5	5	0.4188029	1.92615	8	10	0.03	2000	12.47932	40.92391	-91.3936
40290	-4277	2840	806	-7.209584	-8.588214	0.9645995	0	11.06	4002	85	-66	5	5	0.4188029	1.91554	8	10	0.03	2000	10.89734	40.92391	-91.3936
40361	-4993	3358	1899	-11.64589	-10.98907	0.158113	0	11.06	4004	85	-66	5	5	0.4188029	1.911689	8	10	0.03	2000	6.5196	40.92391	-91.3936
40466	-78	3146	-242	-13.62757	-16.4814	0.3724974	0	11.06	4003	21	-66	5	5	0.4188029	1.912022	8	10	0.03	2000	0.9982682	40.9239	-91.39359
40568	-1429	440	-911	-14.59678	-16.445	0.8167527	0	11.06	4002	94	-70	5	5	0.4188029	1.916637	8	10	0.03	2000	-1.251495	40.9239	-91.39359
40738	-1464	722	124	-12.45051	-8.717074	0.8741112	0	11.06	4004	166	-70	5	5	0.4188029	1.935023	8	10	0.03	2000	-8.477386	40.9239	-91.39359
40758	-565	951	1470	-12.20716	-9.052275	0.6552592	0	11.06	4003	166	-70	5	5	0.4188029	1.94597	8	10	0.03	2000	-11.32849	40.9239	-91.39359
40821	-985	328	783	-12.42131	-9.311116	0.4975961	0	11.06	4004	165	-70	5	5	0.4188029	1.96303	8	10	0.03	2000	-11.32849	40.9239	-91.39359
40935	-862	-3244	-1480	-12.2023	-7.481588	0.6405029	0	11.06	4003	166	-70	5	5	0.4188029	2.003348	8	10	0.03	2000	-14.11368	40.9239	-91.39359
41070	-2995	113	-940	-13.40743	-5.945096	0.5119122	0	11.06	4003	175	-39	5	5	0.4188029	2.055285	8	10	0.03	2000	-15.03568	40.9239	-91.39358
41125	-2514	573	649	-14.48306	-6.405697	0.4799485	0	11.06	4004	207	-45	5	5	0.4188029	2.092825	8	10	0.03	2000	-17.1384	40.9239	-91.39358
41218	-396	-253	-117	-13.90688	-8.303573	0.4020783	0	11.06	4003	174	-38	5	5	0.4188029	2.151472	8	10	0.03	2000	-20.43341	40.9239	-91.39358
41316	-271	-1370	800	-13.0645	-6.810778	0.2535982	0	11.17	4003	110	-38	5	5	0.4188029	2.187618	8	10	0.03	2000	-20.19693	40.9239	-91.39358
41419	-1206	-775	696	-11.80442	-6.903188	-0.3154763	0	11.17	4004	110	-39	5	5	0.4188029	2.251609	8	10	0.03	2000	-22.31238	40.9239	-91.39358
41586	810	1096	-166	-10.52413	-7.770139	0.2660185	0	11.17	4003	111	-39	5	5	0.4188029	2.358679	8	10	0.03	2000	-25.84018	40.9239	-91.39358
41676	-761	-2334	-784	-9.970509	-9.094059	0.8778808	0	11.17	4003	47	-39	5	5	0.4188029	2.40362	8	10	0.03	2000	-26.43747	40.9239	-91.39358
41715	635	-1962	266	-9.065831	-7.132688	1.05198	0	11.17	4003	47	-39	5	5	0.4188029	2.435572	8	10	0.03	2000	-27.40567	40.92391	-91.39359
41851	1255	-1847	169	-5.87288	-2.664276	1.049294	0	11.17	4003	-24	-3	5	5	0.4188029	2.559696	8	10	0.03	2000	-28.40103	40.92391	-91.39359
41947	1350	542	-39	-4.043334	-2.830121	0.5820677	0	11.17	4003	-24	-3	5	5	0.4188029	2.595127	8	10	0.03	2000	-29.05359	40.92391	-91.39359
42022	330	-975	-205	-3.460681	-3.335642	0.4461193	0	11.17	4003	-24	-3	5	5	0.4188029	2.646929	8	10	0.03	2000	-26.35605	40.92391	-91.39359
42139	1696	-1410	-978	-3.077039	-1.094914	0.9611233	0	11.17	4002	-96	32	5	5	0.4188029	2.744051	8	10	0.03	2000	-27.25241	40.92391	-91.39359
42259	2064	172	1823	0.3676246	-0.6642827	0.7272458	0	11.29	4003	-96	32	5	5	0.4188029	2.787888	8	10	0.03	2000	-25.59088	40.92391	-91.39359
42350	1002	-757	1289	1.032437	-1.315197	-0.2546073	0	11.29	4003	-33	0	5	5	0.4188029	2.855301	8	10	0.03	2000	-22.44724	40.92391	-91.39359
42499	2040	1275	621	1.7677	-4.180813	-0.2693267	0	11.29	4003	-104	0	5	5	0.4188029	2.872622	8	10	0.03	2000	-18.29807	40.92391	-91.3936
42523	2040	1275	621	1.7677	-4.180813	-0.2693267	0	11.29	4003	-126	1	5	5	0.4188029	2.872622	8	10	0.03	2000	-18.29807	40.92391	-91.3936
42644	2125	1416	360	4.001453	-5.259915	0.09776545	0	11.29	4004	-176	0	5	5	0.4188029	2.828692	8	10	0.03	2000	-10.65347	40.92391	-91.39361
42767	965	-598	-1049	5.353043	-5.227464	-0.6392708	0	11.29	4002	-112	-31	5	5	0.4188029	2.792265	8	10	0.03	2000	-1.234772	40.92391	-91.39361
42833	2389	110	896	5.300911	-5.192325	-0.5835648	0	11.29	4002	-112	-31	5	5	0.4188029	2.682901	8	10	0.03	2000	-1.234772	40.92391	-91.39361
42932	754	284	-610	5.612666	-4.401581	0.5974175	0	11.29	4003	-112	-32	5	5	0.4188029	2.496888	8	10	0.03	2000	8.985744	40.92391	-91.39361
43036	2496	276	1016	6.218197	-5.633241	0.02295627	0	11.29	4003	-146	-27	5	5	0.4188029	2.305548	8	10	0.03	2000	16.47403	40.92391	-91.39362
43148	1805	439	-784	7.782664	-6.411563	0.7767937	0	11.34	4003	-120	-32	5	5	0.4188029	2.239422	8	10	0.03	2000	16.47403	40.92391	-91.39362
43243	-3306	493	-220	4.248922	-9.254223	1.394381	0	11.34	4004	-120	-32	5	5	0.4188029	2.066366	8	10	0.03	2000	20.56445	40.92391	-91.39362
43361	43	2683	-175	-0.5524927	-8.85045	1.454348	0	11.34	4003	-56	-32	5	5	0.4188029	1.847622	8	10	0.03	2000	15.59193	40.92391	-91.39362
43438	-792	1662	593	-1.257932	-9.297154	1.700117	0	11.34	4003	-56	-32	5	5	0.4188029	1.788047	8	10	0.03	2000	15.59193	40.92391	-91.39362
43551	1024	2054	-269	-2.960925	-8.671865	2.882253	0	11.34	4003	-56	-32	5	5	0.4188029	1.61685	8	10	0.03	2000	19.11203	40.92391	-91.39362
43727	-2548	158	1342	-7.461702	-8.048194	1.355014	0	11.34	4003	7	-32	5	5	0.4188029	1.482957	8	10	0.03	2000	12.69007	40.92391	-91.39362
43768	-1861	-1319	815	-8.669966	-7.498142	1.160651	0	11.34	4003	7	-32	5	5	0.4188029	1.426431	8	10	0.03	2000	12.69007	40.92391	-91.39362
43848	-4063	-1671	1470	-10.66494	-5.675385	0.4769866	0	11.34	4003	7	-32	5	5	0.4188029	1.39059	8	10	0.03	2000	14.30093	40.92391	-91.39362
43965	-656	971	-1938	-14.01582	-4.263198	0.3011813	0	11.34	4003	7	-32	5	5	0.4188029	1.28998	8	10	0.03	2000	11.25001	40.92391	-91.39362
44057	41	1060	-403	-13.90168	-6.148678	1.751441	0	10.72	4004	7	-32	5	5	0.4188029	1.248683	8	10	0.03	2000	5.717273	40.92391	-91.39362
44154	-1147	-1305	-246	-9.847779	-7.444903	1.000701	0	10.72	4003	79	-32	5	5	0.4188029	1.206645	8	10	0.03	2000	2.608689	40.92391	-91.39361
44240	-532	1118	-115	-9.971626	-7.814613	0.4698389	0	10.72	4003	79	-32	5	5	0.4188029	1.178025	8	10	0.03	2000	2.608689	40.92391	-91.39361
44341	2573	-197	-375	-7.452549	-8.039158	0.4789681	0	10.72	4003	79	-33	5	5	0.4188029	1.166995	8	10	0.03	2000	0.6524463	40.92391	-91.39361
44444	-2421	-437	758	-10.33935	-6.306187	0.32685	0	10.72	4002	79	-33	5	5	0.4188029	1.17213	8	10	0.03	2000	-0.4607239	40.92391	-91.39361
44550	-234	-546	-813	-12.30818	-4.922812	0.560735	0	10.72	4003	79	-33	5	5	0.4188029	1.188034	8	10	0.03	2000	1.959504	40.92391	-91.39361
44650	-800	-895	14	-8.818897	-2.899448	0.5599657	0	10.72	4002	80	2	5	5	0.4188029	1.227154	8	10	0.03	2000	-0.2433167	40.92392	-91.39361
44793	2533	1334	-60	-7.559788	-3.105025	0.06016466	0	10.72	4003	16	2	5	5	0.4188029	1.285737	8	10	0.03	2000	-0.8590088	40.92392	-91.39361
44977	-2246	-3089	27	-4.429666	-3.572073	0.1536478	0	11.8	4004	15	2	5	5	0.4188029	1.402405	8	10	0.03	2000	-2.430939	40.92392	-91.39361
45158	-932	-926	-203	-1.156831	-1.583528	0.9088065	0	11.8	4002	16	38	5	5	0.4188029	1.516037	8	10	0.03	2000	-4.20694	40.92392	-91.39361
45238	991	-2097	-954	-2.763739	0.9213569	1.065141	0	11.8	4002	14	29	5	5	0.4188029	1.562178	8	10	0.03	2000	-4.773651	40.92392	-91.39361
45326	-1030	2085	-507	-2.362485	-0.1197312	0.5328289	0	11.8	4003	16	6	5	5	0.4188029	1.625148	8	10	0.03	2000	-3.545746	40.92392	-91.39361
45402	-298	1706	-895	-3.794148	-2.997662	0.1656339	0	11.8	4004	16	6	5	5	0.4188029	1.690525	8	10	0.03	2000	-3.476349	40.92392	-91.39361
45457	1053	-1804	-1054	-2.085255	-3.410316	0.4809624	0	11.8	4004	16	6	5	5	0.4188029	1.73406	8	10	0.03	2000	-2.267548	40.92392	-91.39361
45536	-709	-998	601	-1.911875	-1.621041	0.6573518	0	11.8	4003	16	6	5	5	0.4188029	1.80646	8	10	0.03	2000	-1.245575	40.92392	-91.39361
45638	-485	794	-489	-2.987735	-1.660334	0.5969352	0	11.8	4003	16	-25	5	5	0.4188029	1.848779	8	10	0.03	2000	-1.445862	40.92392	-91.39361
45767	1374	5099	-323	-3.145684	-11.52783	0.3977433	0	11.8	4003	16	-25	5	5	0.4188029	1.909898	8	10	0.03	2000	0.7076875	40.92392	-91.39361
45868	-854	-842	-1372	-2.079503	-13.95413	0.5737286	0	10.94	4003	16	-25	5	5	0.4188029	1.954299	8	10	0.03	2000	0.2659431	40.92392	-91.39361
45921	-358	1569	837	-2.974657	-14.18879	0.3466619	0	10.94	4003	16	-25	5	5	0.4188029	2.009847	8	10	0.03	2000	1.735151	40.92392	-91.39361
45968	-247	-2132	671	-3.32294	-13.17424	0.01732957	0	10.94	4004	16	-25	5	5	0.4188029	2.034624	8	10	0.03	2000	1.510418	40.92392	-91.39361
46032	2	-1656	1760	-3.72951	-8.216998	0.1526748	0	10.94	4004	16	-25	5	5	0.4188029	2.064347	8	10	0.03	2000	3.346091	40.92392	-91.39361
46131	-652	301	540	-2.575001	-6.87622	0.701695	0	10.94	4003	16	-25	5	5	0.4188029	2.084806	8	10	0.03	2000	2.755033	40.92392	-91.39361
46229	-238	-1518	-450	-3.579299	-5.853041	0.7797283	0	10.94	4004	16	-25	5	5	0.4188029	2.115443	8	10	0.03	2000	4.060084	40.92392	-91.39361
46357	-239	-1097	-427	-2.230472	-6.10401	0.5711517	0	10.94	4003	16	-26	5	5	0.4188029	2.138759	8	10	0.03	2000	3.873837	40.92392	-91.39362
46437	1853	-981	293	-1.781173	-3.769851	0.4993882	0	10.94	4002	-55	-26	5	5	0.4188029	2.150081	8	10	0.03	2000	4.731084	40.92392	-91.39362
46549	2225	1736	-2074	0.6623228	-5.049598	0.7253935	0	10.94	4004	-55	-26	5	5	0.4188029	2.150215	8	10	0.03	2000	3.538999	40.92392	-91.39362
46631	2219	457	-85	1.653786	-9.758357	0.350464	0	10.94	4003	-55	-26	5	5	0.4188029	2.152788	8	10	0.03	2000	8.080386	40.92392	-91.39362
46735	1256	-412	548	2.894266	-8.528032	0.5974818	0	10.94	4002	-55	-26	5	5	0.4188029	2.151243	8	10	0.03	2000	8.91451	40.92392	-91.39362
46838	172	1700	-450	2.66602	-10.19321	0.3179535	0	10.94	4002	-55	-26	5	5	0.4188029	2.138949	8	10	0.03	2000	11.38303	40.92392	-91.39362
46941	-432	-1341	151	2.301324	-10.78905	-0.05090389	0	10.94	4003	-55	-26	5	5	0.4188029	2.124743	8	10	0.03	2000	11.25024	40.92392	-91.39362
47056	-143	-74	-1881	2.152431	-6.661763	0.04465681	0	10.94	4002	8	-26	5	5	0.4188029	2.112385	8	10	0.03	2000	14.62606	40.92392	-91.39362
47256	-162	-1845	-631	-0.113537	-10.76523	0.8279992	0	10.94	4002	80	-26	5	5	0.4188029	2.092046	8	10	0.03	2000	14.39495	40.92392	-91.39361
47332	-1551	-3293	-441	-1.619586	-7.499941	1.080852	0	10.94	4002	80	-62	5	5	0.4188029	2.092046	8	10	0.03	2000	14.87567	40.92392	-91.39361
47378	-1463	334	401	-2.800887	-6.368123	0.9141361	0	10.94	4003	80	-62	5	5	0.4188029	2.079722	8	10	0.03	2000	16.4062	40.92392	-91.39361
47440	-393	72	-1500	-3.02705	-7.049664	0.8216852	0	10.94	4003	80	-62	5	5	0.4188029	2.07559	8	10	0.03	2000	16.4062	40.92392	-91.39361
47547	-649	-489	-346	-4.584943	-4.817091	0.9621205	0	10.94	4002	80	-98	5	5	0.4188029	2.074794	8	10	0.03	2000	14.68075	40.92391	-91.39361
47647	-395	1350	-480	-5.315271	-8.146317	0.3963892	0	11.17	4003	80	-98	5	5	0.4188029	2.07924	8	10	0.03	2000	12.24132	40.92391	-91.39361
47782	-1536	-1883	-599	-5.77982	-7.113137	0.06901189	0	11.17	4003	89	-98	5	5	0.4188029	2.094612	8	10	0.03	2000	9.455791	40.92391	-91.3936
47860	-121	398	-800	-7.283312	-6.065717	0.06067847	0	11.17	4004	88	-98	5	5	0.4188029	2.100337	8	10	0.03	2000	8.773874	40.92391	-91.3936
47967	-1368	845	1183	-6.628804	-10.42804	0.4038117	0	11.17	4004	88	-67	5	5	0.4188029	2.104523	8	10	0.03	2000	1.829013	40.92391	-91.3936
48064	-67	-1820	-462	-7.049394	-8.586952	0.4200009	0	11.17	4004	88	-102	5	5	0.4188029	2.101989	8	10	0.03	2000	1.829013	40.92391	-91.3936
48157	-145	2476	1583	-5.067335	-9.965507	0.3431797	0	11.17	4002	104	-82	5	5	0.4188029	2.095546	8	10	0.03	2000	-3.49588	40.92391	-91.3936
48278	529	-922	114	-4.914003	-8.044827	0.1619992	0	11.17	4003	88	-71	5	5	0.4188029	2.086523	8	10	0.03	2000	-4.51178	40.92391	-91.3936
48388	290	1477	218	-4.530224	-8.323073	-0.3098677	0	11.17	4004	27	-83	5	5	0.4188029	2.067405	8	10	0.03	2000	-7.303345	40.92391	-91.3936
48495	-2247	-187	776	-3.478096	-10.56845	-0.03556383	0	11.17	4002	97	-107	5	5	0.4188029	2.054565	8	10	0.03	2000	-9.191132	40.9239	-91.39359
48581	179	509	-677	-4.623886	-10.65935	0.3071204	0	11.46	4003	96	-107	5	5	0.4188029	2.043105	8	10	0.03	2000	-9.503235	40.9239	-91.39359
48683	-2274	534	2262	-4.857431	-10.24532	0.1652496	0	11.46	4003	96	-107	5	5	0.4188029	2.029871	8	10	0.03	2000	-10.88663	40.9239	-91.39359
48811	377	-1593	304	-6.89369	-7.730731	-0.7333815	0	11.46	4003	96	-111	5	5	0.4188029	2.015951	8	10	0.03	2000	-10.12848	40.9239	-91.39359
48973	-254	658	120	-7.40678	-7.609464	-1.069557	0	11.46	4003	97	-111	5	5	0.4188029	2.007503	8	10	0.03	2000	-10.21957	40.9239	-91.39359
49047	-178	597	-2230	-6.67175	-9.295042	0.250804	0	11.46	4003	97	-111	5	5	0.4188029	2.004894	8	10	0.03	2000	-13.25702	40.9239	-91.39359
49115	1191	-425	-944	-6.431532	-8.241834	0.9784154	0	11.46	4004	33	-80	5	5	0.4188029	2.006748	8	10	0.03	2000	-12.1073	40.9239	-91.39359
49245	-715	950	496	-5.072109	-7.752803	0.1609549	0	11.46	4002	33	-116	5	5	0.4188029	2.019416	8	10	0.03	2000	-12.11664	40.9239	-91.39359
49305	-607	756	1359	-4.338952	-8.345134	-0.5191182	0	11.46	4003	33	-116	5	5	0.4188029	2.027356	8	10	0.03	2000	-12.11664	40.9239	-91.39359
49433	-87	158	1393	-4.446072	-9.008993	-0.8593844	0	11.46	4004	33	-116	5	5	0.4188029	2.031994	8	10	0.03	2000	-12.91342	40.9239	-91.39359
49538	2308	2399	-374	-3.564825	-9.278778	0.2744263	0	10.89	4004	-38	-120	5	5	0.4188029	2.038765	8	10	0.03	2000	-13.88574	40.92389	-91.3936
49559	3333	2267	-1206	-1.985314	-10.34601	0.6812973	0	10.89	4003	-38	-120	5	5	0.4188029	2.037141	8	10	0.03	2000	-13.88574	40.92389	-91.3936
49680	1721	736	-294	1.075225	-11.68142	1.071275	0	10.89	4004	-38	-120	5	5	0.4188029	2.03368	8	10	0.03	2000	-11.62607	40.92389	-91.3936
49757	2999	3674	1864	4.594663	-13.42955	1.012904	0	10.89	4004	-38	-120	5	5	0.4188029	2.028648	8	10	0.03	2000	-12.48645	40.92389	-91.3936
49886	1728	-445	1179	6.946597	-15.43917	1.004883	0	10.89	4003	-38	-124	5	5	0.4188029	2.024168	8	10	0.03	2000	-5.700531	40.92389	-91.3936
49956	1492	1631	800	8.511658	-17.06971	0.5272605	0	10.89	4004	-38	-124	5	5	0.4188029	2.028738	8	10	0.03	2000	-2.84024	40.92389	-91.3936
50058	-1105	-1194	-961	7.133061	-16.40516	0.4604803	0	10.89	4002	-38	-125	5	5	0.4188029	2.024232	8	10	0.03	2000	-1.637878	40.92389	-91.3936
50162	-267	-846	-1697	3.537467	-15.54417	1.142753	0	10.89	4004	25	-93	5	5	0.4188029	2.019514	8	10	0.03	2000	1.729376	40.92389	-91.3936
50255	-2799	-3192	1215	1.784814	-13.45479	0.9352446	0	10.89	4002	25	-93	5	5	0.4188029	2.003096	8	10	0.03	2000	2.474667	40.92389	-91.3936
50373	540	-553	-1634	-1.395115	-10.21691	0.2801771	0	11.06	4002	25	-93	5	5	0.4188029	1.97414	8	10	0.03	2000	4.047398	40.92389	-91.3936
50484	-363	-166	-72	-3.284164	-8.890984	-0.4865861	0	11.06	4004	25	-61	5	5	0.4188029	1.951932	8	10	0.03	2000	3.6459	40.92389	-91.3936
50586	589	-1159	-852	-2.121356	-7.56138	-0.4401489	0	11.06	4003	25	-61	5	5	0.4188029	1.914296	8	10	0.03	2000	3.471715	40.92389	-91.3936
50678	770	-254	-129	-2.656526	-6.347648	0.05383272	0	11.06	4003	26	-25	5	5	0.4188029	1.889133	8	10	0.03	2000	3.537186	40.92389	-91.3936
50764	533	153	-67	-2.194049	-6.410294	0.6053544	0	11.06	4003	26	-25	5	5	0.4188029	1.871497	8	10	0.03	2000	2.663813	40.9239	-91.3936
50866	-79	600	580	-2.146025	-6.63343	0.9042256	0	11.06	4003	26	10	5	5	0.4188029	1.829328	8	10	0.03	2000	4.330458	40.9239	-91.3936
50938	284	-2016	-642	-1.997151	-5.507585	0.7240728	0	11.06	4003	26	9	5	5	0.4188029	1.825035	8	10	0.03	2000	5.548676	40.9239	-91.3936
51041	-856	-1703	208	-1.990298	-4.969483	0.4736617	0	11.06	4003	26	9	5	5	0.4188029	1.812117	8	10	0.03	2000	3.033172	40.9239	-91.3936
51147	-387	-1865	-523	-2.566949	-4.467875	0.464619	0	11.06	4003	26	45	5	5	0.4188029	1.799297	8	10	0.03	2000	4.597404	40.9239	-91.3936
51243	-861	-916	2145	-3.429586	-0.9932458	0.417966	0	11.06	4002	26	13	5	5	0.4188029	1.79049	8	10	0.03	2000	5.498087	40.9239	-91.3936
51343	1531	216	-886	-2.504997	-2.217254	0.3434369	0	11.85	4003	29	19	5	5	0.4188029	1.771832	8	10	0.03	2000	6.855208	40.9239	-91.3936
51435	-801	-1089	299	-2.315404	-1.985764	0.2419082	0	11.85	4002	26	17	5	5	0.4188029	1.75172	8	10	0.03	2000	6.690739	40.9239	-91.3936
51531	-151	-355	-1023	-1.878803	-3.06379	0.7399919	0	11.85	4003	26	17	5	5	0.4188029	1.73828	8	10	0.03	2000	6.024869	40.9239	-91.3936
51634	-1079	-2303	1366	-2.379475	-2.055276	0.6201773	0	11.85	4003	26	17	5	5	0.4188029	1.719873	8	10	0.03	2000	7.285825	40.9239	-91.3936
51738	-4	504	-1108	-2.775037	-2.854044	0.4907054	0	11.85	4003	26	17	5	5	0.4188029	1.707592	8	10	0.03	2000	6.927468	40.9239	-91.3936
51841	666	-665	170	-2.875476	-2.878301	0.1290098	0	11.85	4003	29	-14	5	5	0.4188029	1.696134	8	10	0.03	2000	6.8998	40.92391	-91.39359
51941	-415	-551	-1049	-2.773828	-2.819761	0.3875749	0	11.85	4002	98	21	5	5	0.4188029	1.675715	8	10	0.03	2000	7.726277	40.92391	-91.39359
52045	-2162	618	256	-5.180017	-4.517574	0.2787758	0	11.85	4003	98	-11	5	5	0.4188029	1.654192	8	10	0.03	2000	11.67169	40.92391	-91.39359
52146	-206	-583	-150	-5.814039	-3.553664	0.2120032	0	11.85	4003	98	-11	5	5	0.4188029	1.642945	8	10	0.03	2000	8.102175	40.92391	-91.39359
52250	-790	-574	-1048	-7.15034	-2.233842	0.2902026	0	10.49	4004	98	-11	5	5	0.4188029	1.624423	8	10	0.03	2000	7.157349	40.92391	-91.39359
52354	-1976	-2133	-356	-8.374501	-4.004312	0.5131083	0	10.49	4002	99	-11	5	5	0.4188029	1.609526	8	10	0.03	2000	7.092224	40.92391	-91.39359
52458	-1474	-996	-444	-8.740419	-4.263554	0.7540051	0	10.49	4002	98	-11	5	5	0.4188029	1.584617	8	10	0.03	2000	7.092224	40.92391	-91.39359
52562	1995	1033	-1569	-7.593057	-5.691926	0.7070638	0	10.49	4002	34	-43	5	5	0.4188029	1.575828	8	10	0.03	2000	-1.010406	40.92391	-91.39359
52666	-811	1550	1269	-5.74024	-6.645337	0.7068993	0	10.49	4004	107	-43	5	5	0.4188029	1.57204	8	10	0.03	2000	0.07927422	40.92391	-91.39359
52763	-640	244	-409	-6.120052	-7.839312	0.7600077	0	10.49	4004	107	-43	5	5	0.4188029	1.567951	8	10	0.03	2000	-3.046631	40.92391	-91.39359
52866	-904	194	59	-6.404431	-4.723402	0.2169793	0	10.49	4004	107	-79	5	5	0.4188029	1.567523	8	10	0.03	2000	-7.100647	40.9239	-91.39359
52938	-925	4002	1907	-7.110113	-7.174158	-0.1516979	0	10.49	4004	107	-79	5	5	0.4188029	1.573861	8	10	0.03	2000	-5.924347	40.9239	-91.39359
53042	-1113	2476	-187	-10.13654	-13.51623	0.8241695	0	10.49	4007	107	-79	5	5	0.4188029	1.585388	8	10	0.03	2000	-11.07401	40.9239	-91.39359
53145	1599	2434	722	-7.86199	-14.38335	1.401041	0	10.89	4003	107	-80	5	5	0.4188029	1.594474	8	10	0.03	2000	-9.075806	40.9239	-91.39359
53248	312	1334	-185	-7.604905	-18.06288	0.8761405	0	10.89	4004	43	-116	5	5	0.4188029	1.617168	8	10	0.03	2000	-13.1817	40.9239	-91.39359
53340	1576	2945	96	-5.015125	-20.55044	0.6649539	0	10.89	4004	43	-116	5	5	0.4188029	1.633113	8	10	0.03	2000	-13.10513	40.9239	-91.39359
53434	-337	-4323	-332	-5.565319	-14.53204	0.7925772	0	10.89	4002	43	-84	5	5	0.4188029	1.665127	8	10	0.03	2000	-14.08823	40.9239	-91.39359
53536	271	-794	88	-5.610922	-10.26205	0.9138342	0	10.89	4004	43	-120	5	5	0.4188029	1.694871	8	10	0.03	2000	-13.40323	40.9239	-91.39359
53628	304	2130	-531	-4.848145	-13.84648	0.6832649	0	10.89	4002	43	-120	5	5	0.4188029	1.717056	8	10	0.03	2000	-13.13245	40.9239	-91.39359
53731	24	382	322	-4.405246	-14.09728	0.2938168	0	10.89	4002	44	-120	5	5	0.4188029	1.738834	8	10	0.03	2000	-12.09009	40.9239	-91.39359
53825	686	602	-750	-5.491955	-15.18306	0.2103745	0	10.89	4003	44	-88	5	5	0.4188029	1.765703	8	10	0.03	2000	-10.75403	40.9239	-91.39359
53928	2071	-982	-263	-3.178314	-14.4859	0.7360973	0	10.89	4004	44	-124	5	5	0.4188029	1.798145	8	10	0.03	2000	-11.29465	40.92389	-91.39359
54034	-692	-928	-1572	-3.753294	-12.35172	0.9873269	0	11.85	4003	44	-125	5	5	0.4188029	1.832774	8	10	0.03	2000	-8.507904	40.92389	-91.39359
54126	384	123	307	-3.796479	-11.37936	0.5187418	0	11.85	4005	44	-93	5	5	0.4188029	1.858615	8	10	0.03	2000	-9.680756	40.92389	-91.39359
54202	-1689	-897	818	-3.919719	-9.629486	-0.06528433	0	11.85	4004	44	-93	5	5	0.4188029	1.903256	8	10	0.03	2000	-8.617401	40.92389	-91.39359
54302	403	2403	782	-4.102166	-9.531019	0.09274802	0	11.85	4004	44	-93	5	5	0.4188029	1.936093	8	10	0.03	2000	-8.463379	40.92389	-91.39359
54401	-245	-1891	259	-5.14681	-9.783107	0.1113766	0	11.85	4004	44	-93	5	5	0.4188029	1.964065	8	10	0.03	2000	-7.062653	40.92389	-91.39359
54484	1234	-1226	-209	-5.344179	-7.019838	0.5340434	0	11.85	4002	44	-61	5	5	0.4188029	1.992244	8	10	0.03	2000	-7.908997	40.92389	-91.39359
54552	648	934	294	-3.967547	-6.83431	0.9725033	0	11.85	4004	44	-61	5	5	0.4188029	1.999199	8	10	0.03	2000	-8.580627	40.92389	-91.39359
54655	-949	-183	18	-3.739981	-7.172252	0.5551276	0	11.85	4004	44	-61	5	5	0.4188029	2.002178	8	10	0.03	2000	-8.93924	40.92389	-91.39359
54758	348	332	875	-4.262062	-8.774868	0.06240472	0	11.85	4003	-27	-61	5	5	0.4188029	2.010717	8	10	0.03	2000	-7.260468	40.92389	-91.39359
54879	1560	-1279	688	-2.338104	-6.665592	0.03101015	0	11.17	4004	-27	-62	5	5	0.4188029	2.019899	8	10	0.03	2000	-8.147766	40.92389	-91.39359
55017	320	-319	-391	-1.908391	-6.618543	0.4628339	0	11.17	4004	-26	-62	5	5	0.4188029	2.034171	8	10	0.03	2000	-7.088898	40.92389	-91.39359
55104	1177	-640	-1989	-1.952308	-6.55092	0.5313532	0	11.17	4002	-26	-62	5	5	0.4188029	2.044816	8	10	0.03	2000	-7.098511	40.92389	-91.39359
55162	2245	1307	-1427	-0.6352603	-7.428402	0.8166084	0	11.17	4002	-26	-62	5	5	0.4188029	2.051789	8	10	0.03	2000	-5.155212	40.92389	-91.39359
55302	-528	-846	-209	1.611566	-9.441676	0.746258	0	11.17	4004	-26	-62	5	5	0.4188029	2.045861	8	10	0.03	2000	-4.312653	40.92389	-91.39359
55372	-1088	-1972	-461	-0.2149887	-8.131458	0.1694622	0	11.17	4004	36	-62	5	5	0.4188029	2.038521	8	10	0.03	2000	-3.206177	40.92389	-91.39359
55473	-812	-1917	-680	-2.499246	-6.66595	-0.3302266	0	11.17	4003	-34	-26	5	5	0.4188029	2.014469	8	10	0.03	2000	-2.364746	40.9239	-91.3936
55576	810	-200	1682	0.0576108	-5.381861	0.1163293	0	11.17	4003	-34	-26	5	5	0.4188029	2.006355	8	10	0.03	2000	-2.315338	40.9239	-91.3936
55674	160	-599	-1033	0.2245176	-5.520323	0.4004517	0	11.17	4003	-34	-26	5	5	0.4188029	1.975749	8	10	0.03	2000	0.6076018	40.9239	-91.3936
55777	1114	-1527	-1168	1.870112	-5.695799	1.14182	0	11.51	4003	-34	-27	5	5	0.4188029	1.958878	8	10	0.03	2000	-0.72995	40.9239	-91.3936
55880	58	735	239	1.453202	-5.705323	1.04609	0	11.51	4002	-43	-28	5	5	0.4188029	1.923201	8	10	0.03	2000	1.332892	40.9239	-91.3936
55987	1051	-2610	-1731	1.75374	-5.732008	0.8415408	0	11.51	4003	-34	-27	5	5	0.4188029	1.885934	8	10	0.03	2000	2.20696	40.9239	-91.3936
56086	-987	124	-42	1.44949	-4.478395	0.3671014	0	11.51	4004	29	-59	5	5	0.4188029	1.87937	8	10	0.03	2000	6.31267	40.9239	-91.3936
56186	-362	1665	882	0.4753765	-5.311188	0.03036521	0	11.51	4003	29	-59	5	5	0.4188029	1.823784	8	10	0.03	2000	6.31267	40.9239	-91.3936
56289	-37	145	-1207	-1.404798	-7.668353	0.1498159	0	11.51	4003	32	-67	5	5	0.4188029	1.795182	8	10	0.03	2000	6.439375	40.9239	-91.3936
56392	64	323	318	-1.570364	-7.60798	0.3517734	0	11.51	4004	29	-59	5	5	0.4188029	1.771914	8	10	0.03	2000	8.012852	40.9239	-91.3936
56495	-1981	341	1141	-4.159661	-6.547425	0.3363541	0	11.51	4003	101	-59	5	5	0.4188029	1.754143	8	10	0.03	2000	7.903826	40.9239	-91.39359
56593	-577	600	631	-5.43865	-7.140429	0.07717827	0	11.51	4002	102	-59	5	5	0.4188029	1.738806	8	10	0.03	2000	6.279039	40.9239	-91.39359
56700	-144	-74	510	-6.571467	-7.642076	0.1388144	0	11.51	4003	102	-60	5	5	0.4188029	1.722651	8	10	0.03	2000	8.207486	40.9239	-91.39359
56784	-1690	-1041	491	-6.85823	-7.586615	0.3633599	0	10.83	4003	102	-60	5	5	0.4188029	1.710533	8	10	0.03	2000	7.08823	40.9239	-91.39359
56887	-142	587	-636	-6.954807	-7.454613	0.8033649	0	10.83	4003	102	-60	5	5	0.4188029	1.698778	8	10	0.03	2000	4.077917	40.9239	-91.39359
56991	-1268	178	1285	-7.947354	-8.347251	0.06582344	0	10.83	4002	102	-60	5	5	0.4188029	1.690353	8	10	0.03	2000	1.504205	40.9239	-91.39359
57095	-1105	-81	-1107	-8.652244	-8.290276	-0.5876555	0	10.83	4002	38	-60	5	5	0.4188029	1.680316	8	10	0.03	2000	0.1786284	40.9239	-91.39359
57146	642	-1810	-183	-4.61956	-6.818079	-0.3380669	0	10.83	4003	38	-60	5	5	0.4188029	1.667	8	10	0.03	2000	-2.898712	40.9239	-91.39359
57247	811	1077	953	-3.221477	-7.223341	0.4951012	0	10.83	4002	38	-60	5	5	0.4188029	1.662178	8	10	0.03	2000	-3.26535	40.9239	-91.39359
57353	-1729	1066	1371	-3.185448	-8.535552	1.000942	0	10.83	4002	129	-68	5	5	0.4188029	1.65319	8	10	0.03	2000	-5.755737	40.9239	-91.39359
57453	205	-614	-1664	-4.838264	-8.490798	0.6273347	0	10.83	4005	110	-60	5	5	0.4188029	1.653333	8	10	0.03	2000	-5.085938	40.9239	-91.39359
57557	-2753	-2046	-1068	-5.823093	-7.80404	-0.2540687	0	10.83	4003	110	-61	5	5	0.4188029	1.656581	8	10	0.03	2000	-6.395447	40.9239	-91.39359
57663	-1301	-629	1722	-6.644754	-7.297975	-0.2506758	0	11.46	4004	110	-97	5	5	0.4188029	1.668229	8	10	0.03	2000	-9.1073	40.92389	-91.39359
57763	-1363	2273	1268	-7.312451	-9.350252	0.2724694	0	11.46	4002	110	-97	5	5	0.4188029	1.672344	8	10	0.03	2000	-9.497528	40.92389	-91.39359
57865	658	367	456	-6.630189	-10.12642	1.022048	0	11.46	4003	111	-97	5	5	0.4188029	1.694045	8	10	0.03	2000	-12.26859	40.92389	-91.39359
57968	-2127	-316	909	-6.762304	-8.189667	0.8861991	0	11.46	4003	47	-97	5	5	0.4188029	1.706056	8	10	0.03	2000	-14.27292	40.92389	-91.39359
58072	1304	399	387	-6.787846	-7.759304	0.5221034	0	11.46	4002	47	-97	5	5	0.4188029	1.740368	8	10	0.03	2000	-14.13055	40.92389	-91.39359
58175	-379	918	317	-5.029125	-9.491977	0.7226621	0	11.46	4004	47	-97	5	5	0.4188029	1.757822	8	10	0.03	2000	-16.90005	40.92389	-91.39359
58279	-570	-113	-650	-5.169869	-9.323199	0.5907975	0	11.46	4003	47	-97	5	5	0.4188029	1.795579	8	10	0.03	2000	-17.2626	40.92389	-91.39359
58383	186	1065	2304	-4.786968	-8.595078	0.5950983	0	11.46	4004	47	-66	5	5	0.4188029	1.817988	8	10	0.03	2000	-16.12854	40.92389	-91.39359
58486	-350	1607	1273	-4.342669	-9.453146	0.2752138	0	11.46	4003	47	-102	5	5	0.4188029	1.825782	8	10	0.03	2000	-18.90567	40.92389	-91.39359
58604	601	-996	-543	-4.624701	-9.330627	0.4588516	0	11.63	4003	47	-102	5	5	0.4188029	1.847474	8	10	0.03	2000	-17.75101	40.92389	-91.39359
58700	-1492	510	216	-5.318811	-7.929234	0.4122767	0	11.63	4003	47	-102	5	5	0.4188029	1.858492	8	10	0.03	2000	-16.82208	40.92389	-91.39359
58788	506	779	1079	-5.941887	-8.315693	0.4744126	0	11.63	4004	47	-102	5	5	0.4188029	1.867668	8	10	0.03	2000	-15.56955	40.92389	-91.39359
58905	-497	1416	583	-5.46717	-10.75658	0.5242927	0	11.63	4004	47	-102	5	5	0.4188029	1.879448	8	10	0.03	2000	-15.64825	40.92389	-91.39359
58996	9	-1582	-336	-5.789858	-10.64424	0.4111523	0	11.63	4004	47	-102	5	5	0.4188029	1.885445	8	10	0.03	2000	-17.04221	40.92389	-91.39359
59096	1291	2393	-348	-4.722787	-8.825394	1.066008	0	11.63	4002	48	-70	5	5	0.4188029	1.88825	8	10	0.03	2000	-17.42056	40.92389	-91.39359
59199	-41	-1182	-1182	-4.032252	-10.86305	0.7940602	0	11.63	4002	48	-71	5	5	0.4188029	1.897162	8	10	0.03	2000	-15.76303	40.92389	-91.39359
59300	-559	-2594	-1163	-3.899377	-10.50409	0.7573915	0	11.63	4004	48	-71	5	5	0.4188029	1.907306	8	10	0.03	2000	-16.54782	40.92389	-91.39359
59404	177	-496	822	-4.370569	-9.13037	0.8684067	0	11.63	4002	-23	-71	5	5	0.4188029	1.922896	8	10	0.03	2000	-15.8479	40.92389	-91.39359
59500	1245	321	1796	-2.629092	-6.96174	0.450575	0	11	4004	-23	-71	5	5	0.4188029	1.933376	8	10	0.03	2000	-14.21661	40.92389	-91.39359
59604	866	944	-1302	-1.022186	-10.3862	0.2287753	0	11	4004	-23	-71	5	5	0.4188029	1.958138	8	10	0.03	2000	-13.97461	40.92389	-91.39359
59708	768	-551	-1440	-0.07157744	-11.24658	0.4098934	0	11	4003	-23	-71	5	5	0.4188029	1.983765	8	10	0.03	2000	-12.84555	40.92389	-91.39359
59812	-1230	-1649	288	-0.1839392	-8.436662	0.5712623	0	11	4002	-23	-71	5	5	0.4188029	2.011975	8	10	0.03	2000	-12.93192	40.92389	-91.39359
59916	226	-1302	628	-1.729185	-6.071636	0.3545175	0	11	4004	-95	-71	5	5	0.4188029	2.044958	8	10	0.03	2000	-12.2821	40.92389	-91.3936
60020	1383	667	813	1.6997	-5.535145	0.5093281	0	11	4003	-32	-72	5	5	0.4188029	2.065035	8	10	0.03	2000	-6.797729	40.92389	-91.3936
60125	-472	-1362	-181	1.760581	-4.761068	0.5760227	0	11	4004	-31	-36	5	5	0.4188029	2.088332	8	10	0.03	2000	-5.442017	40.92389	-91.3936
60229	-202	1062	628	0.6206973	-5.271488	0.05851457	0	11	4002	-31	-36	5	5	0.4188029	2.103533	8	10	0.03	2000	-4.152069	40.92389	-91.3936
60333	825	-750	-205	0.9913701	-6.75026	0.6299697	0	11	4002	-31	-36	5	5	0.4188029	2.113977	8	10	0.03	2000	-2.666351	40.92389	-91.3936
60435	-381	-560	344	0.6645058	-4.610401	0.6708066	0	11.8	4004	-31	-36	5	5	0.4188029	2.116201	8	10	0.03	2000	-0.3023376	40.92389	-91.39361
60596	-565	-444	159	2.186446	-6.917434	0.07904366	0	11.8	4003	-39	-36	5	5	0.4188029	2.084846	8	10	0.03	2000	1.313095	40.92389	-91.39361
60642	-103	-1143	-244	1.871909	-6.636599	-0.3522687	0	11.8	4004	-39	-36	5	5	0.4188029	2.078626	8	10	0.03	2000	2.301782	40.92389	-91.39361
60794	767	703	-532	2.160921	-6.041899	0.6339092	0	11.8	4003	-50	-77	5	5	0.4188029	2.013455	8	10	0.03	2000	8.452553	40.92389	-91.39361
60858	820	672	428	2.771583	-6.682497	0.933031	0	11.8	4002	-39	-69	5	5	0.4188029	1.975136	8	10	0.03	2000	8.452553	40.92389	-91.39361
60954	-663	-2078	-1206	1.140547	-6.592439	0.8891772	0	11.8	4002	-39	-69	5	5	0.4188029	1.934593	8	10	0.03	2000	13.47029	40.92389	-91.39361
