time(ms)	gyro_x(deg/s)	gyro_y(deg/s)	gyro_z(deg/s)	orientation_roll(deg)	orientation_pitch(deg)	orientation_yaw(deg)	throttle	battery(V)	loop_time(uS)	pid_output_roll	pid_output_pitch	pid_output_yaw	pid_output_throttle	ultrasonic_alt	baro_alt	flight_mode	p_gain_altitude	i_gain_altitude	d_gain_altitude
327507	2690	-136	-854	5.84935	-11.11437	1.045494	0	10.55	4004	-14	171	8	0	1.257781	0.807135	3	20	0.022	1600
327686	-1285	349	387	8.415859	-12.32033	0.3686193	0	10.55	4002	-15	-3	21	0	1.257781	0.7954451	3	20	0.022	1600
327733	-1285	349	387	8.415859	-12.32033	0.3686193	0	10.55	4002	97	-51	8	0	1.257781	0.7868052	3	20	0.022	1600
327827	-2465	-2777	1364	3.922393	-2.982178	0.7315319	0	10.55	4002	0	122	21	0	1.257781	0.7767067	3	20	0.022	1600
327886	-3451	-1020	1546	0.4067127	-0.2107415	0.3730559	0	10.55	4003	46	-44	3	0	1.257781	0.7800928	3	20	0.022	1600
327998	1333	-352	-409	-0.294507	0.002365327	0.3616228	0	10.55	4004	33	128	24	0	1.257781	0.7953694	3	20	0.022	1600
328085	-111	-1898	-1043	0.4416388	0.02524284	0.6833465	0	10.55	4004	12	-174	-1	0	1.257781	0.8061121	3	20	0.022	1600
328253	-767	2141	1522	0.9169459	-0.2357705	1.616573	0	10.89	4003	75	175	8	0	1.257781	0.8251596	3	20	0.022	1600
328340	99	673	-831	0.4912172	-3.660378	1.069124	0	10.89	4003	-31	-183	-1	0	1.257781	0.8256407	3	20	0.022	1600
328479	276	-2236	-1288	0.5593567	-4.185768	1.344275	0	10.89	4003	51	-126	-13	0	1.257781	0.8181417	3	20	0.022	1600
328563	171	-388	681	0.7356841	-3.211215	1.698108	0	10.89	4003	-6	60	-6	0	1.257781	0.8112426	3	20	0.022	1600
328650	851	-125	-239	1.413991	-2.338747	2.226921	0	10.89	4003	-8	239	-21	0	1.257781	0.8146176	3	20	0.022	1600
328762	-380	-1582	816	2.423481	-0.8659718	1.889366	0	10.89	4004	-67	134	2	0	1.257781	0.8256406	3	20	0.022	1600
328815	-90	-1356	-169	2.941858	1.053592	1.620723	0	10.89	4007	46	-151	-22	0	1.257781	0.8338746	3	20	0.022	1600
328918	170	-1046	-1085	1.576895	0.752864	1.592038	0	10.89	4003	36	-143	-14	0	1.257781	0.8366183	3	20	0.022	1600
329032	-651	-1233	37	1.954798	1.448866	2.416669	0	10.55	4002	80	-116	-32	0	1.257781	0.8318617	3	20	0.022	1600
329118	-351	-734	-470	1.187565	1.651425	2.762239	0	10.55	4003	21	-5	-39	0	1.257781	0.8207039	3	20	0.022	1600
329237	214	-181	110	-0.09377071	0.1584629	2.026062	0	10.55	4003	0	0	0	0	1.257781	0.7910304	3	20	0.022	1600
329334	2945	-1647	123	0.5295328	-1.163911	0.5060248	0	10.55	4002	0	0	0	0	1.257781	0.773252	3	20	0.022	1600
329490	27	-87	524	0.9427806	-1.447138	-3.190775	0	10.55	4003	0	0	0	0	1.257781	0.7295395	3	20	0.022	1600
329590	-52	27	-42	0.8123724	-1.154244	-3.226002	0	10.55	4004	0	0	0	0	1.257781	0.6835417	3	20	0.022	1600
329647	53	62	-10	0.7720065	-1.106445	-3.230647	0	10.55	4003	0	0	0	0	1.257781	0.6592879	1	20	0.022	1600
329728	12	-39	-34	0.6980107	-0.9410083	-3.242513	0	10.55	4002	0	0	0	0	1.257781	0.6255696	1	20	0.022	1600
329854	5	11	6	0.6168724	-0.7934679	-3.257861	0	10.55	4003	0	0	0	0	1.257781	0.5429692	1	20	0.022	1600
329919	-23	-30	5	0.5464392	-0.6511376	-3.258226	0	10.55	4002	0	0	0	0	1.257781	0.5347977	1	20	0.022	1600
330034	19	5	94	0.478065	-0.5195247	-3.276685	0	11.17	4003	0	0	0	0	1.257781	0.4806823	1	20	0.022	1600
330170	-61	-22	64	0.4194052	-0.4340167	-3.285367	0	11.17	4002	0	0	0	0	1.257781	0.4301544	1	20	0.022	1600
330282	5	-3	-24	0.3636508	-0.3095107	-3.297169	0	11.17	4003	0	0	0	0	1.257781	0.4091353	1	20	0.022	1600
330346	-4	10	50	0.3376647	-0.2800427	-3.304567	0	11.17	4004	0	0	0	0	1.257781	0.3908271	1	20	0.022	1600
330435	-22	0	15	0.298454	-0.2196585	-3.305364	0	11.17	4003	0	0	0	0	1.257781	0.3494543	1	20	0.022	1600
330530	3	-14	-8	0.2631113	-0.1685653	-3.316434	0	11.17	4004	0	0	0	0	1.257781	0.3255212	1	20	0.022	1600
330694	14	10	18	0.2267141	-0.0772163	-3.333235	0	11.17	4002	0	0	0	0	1.257781	0.2972879	1	20	0.022	1600
330741	-1	-10	10	0.2268891	-0.05240788	-3.335071	0	11.17	4003	0	0	0	0	1.257781	0.2957993	1	20	0.022	1600
330865	10	3	19	0.1942691	-0.007957241	-3.34638	0	11.17	4004	0	0	0	0	1.257781	0.2776543	1	20	0.022	1600
330952	10	-13	-14	0.1801385	0.01799764	-3.349926	0	11.17	4004	0	0	0	0	1.257781	0.2564513	1	20	0.022	1600
331034	-7	9	26	0.1593352	0.06144718	-3.359342	0	11.17	4004	0	0	0	0	1.257781	0.2395846	1	20	0.022	1600
331161	6	-13	-19	0.1526918	0.08802043	-3.366927	0	11.17	4003	0	0	0	0	1.257781	0.2309776	1	20	0.022	1600
331327	5	-2	5	0.1404621	0.1187552	-3.380991	0	11.17	4002	0	0	0	0	1.257781	0.2049732	1	20	0.022	1600
331377	11	-10	-8	0.1355104	0.1301689	-3.385882	0	11.17	4003	0	0	0	0	1.257781	0.1878095	1	20	0.022	1600
331442	7	-6	9	0.1390099	0.1405553	-3.390712	0	11.17	4003	0	0	0	0	1.257781	0.175579	1	20	0.022	1600
331546	5	2	1	0.1348489	0.1598477	-3.397866	0	11.17	4003	0	0	0	0	1.257781	0.1663812	1	20	0.022	1600
331651	11	-3	0	0.1241883	0.1713699	-3.40398	0	11.17	4003	0	0	0	0	1.257781	0.1639716	1	20	0.022	1600
331749	2	2	5	0.1328983	0.1793106	-3.411439	0	11.17	4003	0	0	0	0	1.257781	0.1565594	1	20	0.022	1600
331851	7	3	8	0.1345349	0.18465	-3.417248	0	11.23	4003	0	0	0	0	1.257781	0.1487772	1	20	0.022	1600
332055	8	-5	1	0.1319675	0.1994342	-3.430881	0	11.23	4002	0	0	0	0	1.257781	0.1260089	1	20	0.022	1600
332104	9	0	10	0.1292265	0.2047652	-3.435527	0	11.23	4003	0	0	0	0	1.257781	0.1214155	1	20	0.022	1600
332202	15	0	5	0.122433	0.2105793	-3.442252	0	11.23	4002	0	0	0	0	1.257781	0.1200807	1	20	0.022	1600
332308	7	2	3	0.1262804	0.2213166	-3.448121	0	11.23	4003	0	0	0	0	1.257781	0.1233945	1	20	0.022	1600
332347	6	-4	6	0.1245416	0.2226985	-3.453379	0	11.23	4003	0	0	0	0	1.257781	0.1250935	1	20	0.022	1600
332494	21	-1	4	0.1338222	0.2286371	-3.461143	0	11.23	4002	0	0	0	0	1.257781	0.1291403	1	20	0.022	1600
332562	4	-3	5	0.1329732	0.2309315	-3.465302	0	11.23	4002	0	0	0	0	1.257781	0.1330376	1	20	0.022	1600
332677	17	-2	0	0.130408	0.2401236	-3.469581	0	11.23	4003	0	0	0	0	1.257781	0.1329748	1	20	0.022	1600
332796	14	-4	0	0.1318697	0.2356414	-3.473128	0	11.11	4004	0	0	0	0	1.257781	0.1204431	1	20	0.022	1600
332859	7	-4	0	0.1399282	0.2376146	-3.477591	0	11.11	4002	0	0	0	0	1.257781	0.1141207	1	20	0.022	1600
333069	23	-1	1	0.1480441	0.2501874	-3.485722	0	11.11	4004	0	0	0	0	1.257781	0.09592418	1	20	0.022	1600
333166	10	0	2	0.1593953	0.2447594	-3.489329	0	11.11	4002	0	0	0	0	1.257781	0.08833477	1	20	0.022	1600
333263	13	0	1	0.1644305	0.2476491	-3.491775	0	11.11	4003	0	0	0	0	1.257781	0.08138751	1	20	0.022	1600
333445	11	-3	3	0.1669758	0.2451858	-3.497888	0	11.11	4003	0	0	0	0	1.257781	0.07873508	1	20	0.022	1600
333483	11	-6	8	0.168447	0.2492003	-3.499844	0	11.11	4002	0	0	0	0	1.257781	0.08136059	1	20	0.022	1600
333595	15	-4	4	0.1725436	0.2509084	-3.504918	0	11.11	4002	0	0	0	0	1.257781	0.0910018	1	20	0.022	1600
333659	12	-6	6	0.1730442	0.2507448	-3.507975	0	11.23	4011	0	0	0	0	1.257781	0.09446542	1	20	0.022	1600
333750	17	-9	7	0.1719809	0.2533588	-3.510298	0	11.23	4004	0	0	0	0	1.257781	0.1047731	1	20	0.022	1600
333844	22	0	2	0.1752373	0.2538178	-3.514211	0	11.23	4003	0	0	0	0	1.257781	0.1118375	1	20	0.022	1600
334040	16	-2	-1	0.1802165	0.2558387	-3.518613	0	11.23	4002	0	0	0	0	1.257781	0.1466361	1	20	0.022	1600
334119	24	1	0	0.1817701	0.2605822	-3.522586	0	11.23	4003	0	0	0	0	1.257781	0.1617103	1	20	0.022	1600
334170	12	-6	2	0.1921164	0.2639994	-3.523259	0	11.23	4003	0	0	0	0	1.257781	0.174357	1	20	0.022	1600
334253	21	-7	2	0.1976041	0.2640412	-3.526194	0	11.23	4004	0	0	0	0	1.257781	0.1784588	1	20	0.022	1600
334341	21	-2	-5	0.2065955	0.2641778	-3.527355	0	11.23	4002	0	0	0	0	1.257781	0.1824815	1	20	0.022	1600
334550	16	-5	3	0.2155632	0.2582999	-3.5309	0	11.23	4003	0	0	0	0	1.257781	0.1795409	1	20	0.022	1600
334591	22	-2	2	0.2163133	0.2557499	-3.532612	0	11.29	4003	0	0	0	0	1.257781	0.1762582	1	20	0.022	1600
334702	11	0	0	0.2210697	0.2463695	-3.537565	0	11.29	4002	0	0	0	0	1.257781	0.1699612	1	20	0.022	1600
334806	8	-4	1	0.2177218	0.245673	-3.540806	0	11.29	4004	0	0	0	0	1.257781	0.1665204	1	20	0.022	1600
334905	28	-3	-5	0.2211277	0.2425542	-3.542578	0	11.29	4003	0	0	0	0	1.257781	0.1632429	1	20	0.022	1600
335009	19	-10	-3	0.231839	0.2418743	-3.544595	0	11.29	4002	0	0	0	0	1.257781	0.1571589	1	20	0.022	1600
335040	18	-5	4	0.2318027	0.2394153	-3.545329	0	11.29	4004	0	0	0	0	1.257781	0.1560296	1	20	0.022	1600
335132	21	2	2	0.2299624	0.2431132	-3.545757	0	11.29	4003	0	0	0	0	1.257781	0.1478074	1	20	0.022	1600
335231	24	-6	-2	0.2352653	0.2524416	-3.548568	0	11.29	4002	0	0	0	0	1.257781	0.1557478	1	20	0.022	1600
335337	15	-7	2	0.237232	0.2498683	-3.551258	0	11.29	4004	0	0	0	0	1.257781	0.1845138	1	20	0.022	1600
335477	19	-3	4	0.2405035	0.2493484	-3.555415	0	11.29	4003	0	0	0	0	1.257781	0.2095982	1	20	0.022	1600
335680	24	-4	-3	0.232901	0.2511679	-3.562507	0	11.29	4002	0	0	0	0	1.257781	0.204179	1	20	0.022	1600
335824	12	-1	0	0.2351436	0.2500578	-3.564584	0	11.29	4003	0	0	0	0	1.257781	0.1964639	1	20	0.022	1600
335890	18	-4	5	0.2364195	0.2526692	-3.565928	0	11.29	4003	0	0	0	0	1.257781	0.191152	1	20	0.022	1600
335991	21	-5	-1	0.2431689	0.2495574	-3.567274	0	11.29	4004	0	0	0	0	1.257781	0.1777564	1	20	0.022	1600
336116	24	3	2	0.2491012	0.2505127	-3.57088	0	11.29	4003	0	0	0	0	1.257781	0.1773965	1	20	0.022	1600
336190	26	0	0	0.2516359	0.2469029	-3.572347	0	11.29	4003	0	0	0	0	1.257781	0.1762746	1	20	0.022	1600
336288	10	0	4	0.2554297	0.2450541	-3.57522	0	11.29	4003	0	0	0	0	1.257781	0.1741317	1	20	0.022	1600
336351	17	-4	3	0.2507159	0.2401624	-3.575465	0	11.29	4002	0	0	0	0	1.257781	0.1748905	1	20	0.022	1600
336424	23	-1	1	0.2524063	0.2387902	-3.574915	0	11.29	4003	0	0	0	0	1.257781	0.1739503	1	20	0.022	1600
336563	23	1	3	0.25999	0.2407097	-3.579255	0	11.29	4002	0	0	0	0	1.257781	0.1784648	1	20	0.022	1600
336722	16	3	3	0.2523613	0.247759	-3.582557	0	11.29	4004	0	0	0	0	1.257781	0.191903	1	20	0.022	1600
337001	21	-2	5	0.2584568	0.244391	-3.59075	0	11.29	4003	0	0	0	0	1.257781	0.2105586	1	20	0.022	1600
337110	23	-4	0	0.2563058	0.2385394	-3.594052	0	11.29	4002	0	0	0	0	1.257781	0.2171082	1	20	0.022	1600
337208	20	0	0	0.2576678	0.2435178	-3.594969	0	11.29	4003	0	0	0	0	1.257781	0.2251346	1	20	0.022	1600
337285	24	-6	-4	0.2589074	0.2441809	-3.596436	0	11.29	4004	0	0	0	0	1.257781	0.2273496	1	20	0.022	1600
337335	18	-2	2	0.2596921	0.2450892	-3.596986	0	11.29	4004	0	0	0	0	1.257781	0.2233315	1	20	0.022	1600
337519	24	-2	2	0.2579894	0.2491174	-3.597168	0	11.29	4003	0	0	0	0	1.257781	0.1963332	1	20	0.022	1600
337689	18	0	2	0.2544556	0.2373213	-3.60102	0	11.29	4004	0	0	0	0	1.257781	0.2092827	1	20	0.022	1600
337769	23	2	3	0.2584562	0.2419633	-3.601754	0	11.29	4002	0	0	0	0	1.257781	0.220127	1	20	0.022	1600
337820	22	-1	0	0.2540622	0.2392662	-3.60316	0	11.29	4004	0	0	0	0	1.257781	0.221752	1	20	0.022	1600
337944	18	4	3	0.2567262	0.2342021	-3.603099	0	11.29	4003	0	0	0	0	1.257781	0.2185152	1	20	0.022	1600
338058	31	-2	1	0.2537839	0.2321139	-3.603894	0	11.29	4004	0	0	0	0	1.257781	0.2127622	1	20	0.022	1600
338103	25	0	-3	0.2564046	0.2347716	-3.603832	0	11.29	4004	0	0	0	0	1.257781	0.2132785	1	20	0.022	1600
338211	24	0	1	0.2623045	0.2349548	-3.604443	0	11.23	4002	0	0	0	0	1.257781	0.2163962	1	20	0.022	1600
338337	30	1	0	0.2687173	0.2388259	-3.605544	0	11.23	4003	0	0	0	0	1.257781	0.2208347	1	20	0.022	1600
338366	19	-3	-4	0.2704988	0.238495	-3.605178	0	11.23	4002	0	0	0	0	1.257781	0.2198513	1	20	0.022	1600
338478	21	-6	4	0.2741701	0.2477315	-3.604994	0	11.23	4002	0	0	0	0	1.257781	0.2111541	1	20	0.022	1600
338708	18	-1	2	0.2806927	0.2457025	-3.605055	0	11.23	4003	0	0	0	0	1.257781	0.184945	1	20	0.022	1600
338814	33	2	-3	0.2867826	0.2429602	-3.606949	0	11.23	4004	0	0	0	0	1.257781	0.1731459	1	20	0.022	1600
338910	35	-3	-1	0.2951608	0.2451625	-3.605237	0	11.23	4004	0	0	0	0	1.257781	0.1577168	1	20	0.022	1600
338965	19	8	1	0.3011498	0.2442651	-3.606277	0	11.23	4003	0	0	0	0	1.257781	0.1541538	1	20	0.022	1600
339073	30	0	0	0.2987584	0.2467891	-3.605726	0	11.23	4002	0	0	0	0	1.257781	0.1484304	1	20	0.022	1600
339171	35	-2	-1	0.301176	0.2508156	-3.606766	0	11.23	4002	0	0	0	0	1.257781	0.1509592	1	20	0.022	1600
339314	29	-3	-4	0.2996035	0.2524984	-3.603587	0	11.23	4002	0	0	0	0	1.257781	0.1509323	1	20	0.022	1600
339383	22	1	0	0.2999925	0.2501434	-3.604687	0	11.23	4004	0	0	0	0	1.257781	0.1541546	1	20	0.022	1600
339479	21	0	0	0.2982354	0.2507677	-3.606215	0	11.23	4002	0	0	0	0	1.257781	0.1509326	1	20	0.022	1600
339656	26	2	4	0.3030132	0.2413792	-3.608723	0	11.23	4003	0	0	0	0	1.257781	0.1509883	1	20	0.022	1600
339745	21	-2	-3	0.3141552	0.2405916	-3.609212	0	11.23	4003	0	0	0	0	1.257781	0.1576102	1	20	0.022	1600
339796	24	-1	2	0.3153499	0.2382117	-3.60909	0	11.23	4002	0	0	0	0	1.257781	0.1640874	1	20	0.022	1600
339864	30	-5	3	0.3227076	0.2378156	-3.608845	0	11.23	4004	0	0	0	0	1.257781	0.175891	1	20	0.022	1600
340028	25	-4	2	0.3256605	0.2201073	-3.609396	0	11.29	4004	0	0	0	0	1.257781	0.1854821	1	20	0.022	1600
340223	34	-2	0	0.33323	0.2451937	-3.608357	0	11.29	4004	0	0	0	0	1.257781	0.1981153	1	20	0.022	1600
340277	29	1	0	0.3381826	0.2408715	-3.608234	0	11.29	4003	0	0	0	0	1.257781	0.2016929	1	20	0.022	1600
340454	29	-4	1	0.3320104	0.2469219	-3.609457	0	11.29	4004	0	0	0	0	1.257781	0.1945387	1	20	0.022	1600
340572	24	-7	0	0.3354559	0.2464639	-3.608846	0	11.29	4002	0	0	0	0	1.257781	0.1826357	1	20	0.022	1600
340643	20	-7	1	0.3272872	0.2346734	-3.609091	0	11.29	4004	0	0	0	0	1.257781	0.184965	1	20	0.022	1600
340745	33	-3	-1	0.3240095	0.2304356	-3.608236	0	11.29	4003	0	0	0	0	1.257781	0.1901215	1	20	0.022	1600
340847	31	-1	0	0.3323451	0.2207839	-3.609458	0	11.29	4004	0	0	0	0	1.257781	0.1849734	1	20	0.022	1600
341087	25	0	-2	0.3267748	0.2098426	-3.612087	0	11.23	4004	0	0	0	0	1.257781	0.1191057	1	20	0.022	1600
341233	29	-4	-4	0.3491732	0.2122999	-3.61227	0	11.23	4002	0	0	0	0	1.257781	0.09605201	1	20	0.022	1600
341304	33	-5	-1	0.3489087	0.2185739	-3.611598	0	11.23	4004	0	0	0	0	1.257781	0.08444107	1	20	0.022	1600
341344	23	-3	1	0.3511545	0.2197044	-3.611598	0	11.23	4003	0	0	0	0	1.257781	0.08001155	1	20	0.022	1600
341494	24	0	0	0.3474467	0.20994	-3.610009	0	11.23	4004	0	0	0	0	1.257781	0.06498717	1	20	0.022	1600
341562	27	-3	1	0.3428878	0.2073197	-3.610803	0	11.23	4003	0	0	0	0	1.257781	0.05755137	1	20	0.022	1600
341672	27	1	-6	0.3472752	0.2183572	-3.61172	0	11.23	4003	0	0	0	0	1.257781	0.04514237	1	20	0.022	1600
341789	32	-5	7	0.3553704	0.2134252	-3.613371	0	11.34	4003	0	0	0	0	1.257781	0.03530125	1	20	0.022	1600
341852	32	-2	0	0.3554022	0.2068515	-3.612698	0	11.34	4003	0	0	0	0	1.257781	0.03858672	1	20	0.022	1600
341945	21	-3	3	0.3559246	0.2170437	-3.612576	0	11.34	4010	0	0	0	0	1.257781	0.04519469	1	20	0.022	1600
342097	27	1	0	0.361419	0.2126523	-3.613676	0	11.34	4004	0	0	0	0	1.257781	0.07486062	1	20	0.022	1600
342327	37	2	0	0.3693814	0.2126348	-3.613613	0	11.34	4002	0	0	0	0	1.257781	0.1152573	1	20	0.022	1600
342413	25	-2	3	0.3691337	0.215997	-3.613063	0	11.34	4004	0	0	0	0	1.257781	0.1114201	1	20	0.022	1600
342524	32	-1	-3	0.3659586	0.2207186	-3.613186	0	11.34	4003	0	0	0	0	1.257781	0.1012512	1	20	0.022	1600
342631	33	-2	0	0.3767033	0.2273209	-3.613308	0	11.34	4004	0	0	0	0	1.257781	0.09760102	1	20	0.022	1600
342828	29	-3	-5	0.3844363	0.2332933	-3.613369	0	11.34	4002	0	0	0	0	1.257781	0.1307896	1	20	0.022	1600
342931	28	2	3	0.3964214	0.2250803	-3.612513	0	11.34	4002	0	0	0	0	1.257781	0.1479421	1	20	0.022	1600
342991	33	-3	0	0.4032257	0.2249392	-3.61288	0	11.34	4004	0	0	0	0	1.257781	0.1614571	1	20	0.022	1600
343168	29	0	-1	0.4051014	0.2280263	-3.611229	0	11.34	4004	0	0	0	0	1.257781	0.1835848	1	20	0.022	1600
343259	31	-6	0	0.4075737	0.2265216	-3.612696	0	11.34	4004	0	0	0	0	1.257781	0.1798534	1	20	0.022	1600
343373	28	-11	-2	0.4000764	0.2244526	-3.612085	0	11.34	4002	0	0	0	0	1.257781	0.1764506	1	20	0.022	1600
343411	34	-6	0	0.4041369	0.228801	-3.611718	0	11.34	4002	0	0	0	0	1.257781	0.1771132	1	20	0.022	1600
343478	32	-5	0	0.4099478	0.2354738	-3.611901	0	11.34	4004	0	0	0	0	1.257781	0.1775259	1	20	0.022	1600
343576	35	-2	1	0.4158044	0.2331463	-3.613062	0	11.29	4003	0	0	0	0	1.257781	0.1709397	1	20	0.022	1600
343705	28	1	-1	0.4155374	0.2185505	-3.613735	0	11.29	4003	0	0	0	0	1.257781	0.1456391	1	20	0.022	1600
343796	30	-2	-4	0.4205359	0.2201943	-3.611962	0	11.29	4002	0	0	0	0	1.257781	0.138106	1	20	0.022	1600
343895	29	-5	-3	0.4232158	0.216951	-3.609761	0	11.29	4002	0	0	0	0	1.257781	0.1404783	1	20	0.022	1600
343975	34	1	-1	0.4285242	0.2230615	-3.609761	0	11.29	4003	0	0	0	0	1.257781	0.1341364	1	20	0.022	1600
344077	27	0	-2	0.4273568	0.2249262	-3.607009	0	11.29	4002	0	0	0	0	1.257781	0.1168096	1	20	0.022	1600
344221	36	0	-2	0.4204981	0.220386	-3.600651	0	11.29	4003	0	0	0	0	1.257781	0.1116385	1	20	0.022	1600
344315	35	-4	-3	0.4332777	0.2235571	-3.59845	0	11.29	4004	0	0	0	0	1.257781	0.1185594	1	20	0.022	1600
344419	38	0	3	0.4341715	0.2228845	-3.598327	0	11.29	4004	0	0	0	0	1.257781	0.1256227	1	20	0.022	1600
344492	38	-2	-5	0.4355392	0.2262109	-3.596432	0	11.34	4003	0	0	0	0	1.257781	0.1288052	1	20	0.022	1600
344679	34	-8	2	0.4394954	0.2269639	-3.594903	0	11.34	4003	0	0	0	0	1.257781	0.1423841	1	20	0.022	1600
344752	36	-2	-1	0.4475884	0.2318281	-3.59527	0	11.34	4003	0	0	0	0	1.257781	0.1432542	1	20	0.022	1600
344853	31	-5	7	0.4585916	0.2342634	-3.594903	0	11.34	4002	0	0	0	0	1.257781	0.1470852	1	20	0.022	1600
344929	30	-5	-5	0.4582931	0.2324752	-3.593314	0	11.34	4002	0	0	0	0	1.257781	0.1397341	1	20	0.022	1600
345015	31	-5	-4	0.4650172	0.2298796	-3.591908	0	11.34	4003	0	0	0	0	1.257781	0.1349622	1	20	0.022	1600
345085	33	3	-3	0.4687215	0.2362123	-3.59093	0	11.34	4002	0	0	0	0	1.257781	0.1332732	1	20	0.022	1600
345182	35	3	0	0.4719502	0.2349521	-3.587996	0	11.34	4004	0	0	0	0	1.257781	0.1228448	1	20	0.022	1600
345333	29	-4	-2	0.463869	0.2299302	-3.588974	0	11.34	4004	0	0	0	0	1.257781	0.1098128	1	20	0.022	1600
345390	41	-1	0	0.4636914	0.2363876	-3.588851	0	11.34	4003	0	0	0	0	1.257781	0.1042999	1	20	0.022	1600
345550	37	-1	0	0.4424949	0.2347696	-3.586405	0	11.29	4004	0	0	0	0	1.257781	0.08908156	1	20	0.022	1600
345597	39	-5	-2	0.4463435	0.2368767	-3.585427	0	11.29	4003	0	0	0	0	1.257781	0.08209513	1	20	0.022	1600
345769	34	-1	-1	0.4347987	0.2195591	-3.58182	0	11.29	4002	0	0	0	0	1.257781	0.08974655	1	20	0.022	1600
345840	38	-5	1	0.4382268	0.2183291	-3.580536	0	11.29	4004	0	0	0	0	1.257781	0.09135299	1	20	0.022	1600
345890	42	-5	0	0.4379685	0.2165257	-3.579252	0	11.29	4004	0	0	0	0	1.257781	0.08826625	1	20	0.022	1600
345990	26	-2	0	0.4330483	0.2183457	-3.577113	0	11.29	4003	0	0	0	0	1.257781	0.07693384	1	20	0.022	1600
346145	33	-2	-6	0.4267765	0.2086574	-3.5743	0	11.29	4003	0	0	0	0	1.257781	0.06254098	1	20	0.022	1600
346249	32	-1	3	0.4385769	0.2126677	-3.573749	0	11.29	4003	0	0	0	0	1.257781	0.0614023	1	20	0.022	1600
346348	34	-3	0	0.4318699	0.2177108	-3.571243	0	11.34	4003	0	0	0	0	1.257781	0.04987646	1	20	0.022	1600
346423	37	-2	-1	0.4464554	0.2159187	-3.567697	0	11.34	4003	0	0	0	0	1.257781	0.04660022	1	20	0.022	1600
346488	32	0	-3	0.4459855	0.2163305	-3.567759	0	11.34	4004	0	0	0	0	1.257781	0.04630546	1	20	0.022	1600
346592	36	-6	-5	0.4474583	0.2134142	-3.567331	0	11.34	4003	0	0	0	0	1.257781	0.03918435	1	20	0.022	1600
346791	37	0	-3	0.4648478	0.2171227	-3.566046	0	11.34	4004	0	0	0	0	1.257781	0.01896306	1	20	0.022	1600
346853	36	-7	-1	0.4656509	0.2210746	-3.564212	0	11.34	4004	0	0	0	0	1.257781	0.01811671	1	20	0.022	1600
346940	43	0	-4	0.4658689	0.2287915	-3.563356	0	11.34	4004	0	0	0	0	1.257781	0.03226479	1	20	0.022	1600
347082	31	-9	1	0.4652969	0.2212738	-3.559932	0	11.34	4003	0	0	0	0	1.257781	0.05618589	1	20	0.022	1600
347160	36	-5	0	0.4682116	0.2167625	-3.55822	0	11.34	4004	0	0	0	0	1.257781	0.07308866	1	20	0.022	1600
347226	38	-5	0	0.4786881	0.2193329	-3.556325	0	11.34	4003	0	0	0	0	1.257781	0.0768949	1	20	0.022	1600
347359	36	-1	1	0.4736062	0.2158995	-3.552778	0	11.34	4004	0	0	0	0	1.257781	0.08038068	1	20	0.022	1600
347435	37	-8	0	0.4676175	0.2174159	-3.551067	0	11.34	4009	0	0	0	0	1.257781	0.08368123	1	20	0.022	1600
347567	31	-3	0	0.4739752	0.2168467	-3.550149	0	11.34	4002	0	0	0	0	1.257781	0.08677299	1	20	0.022	1600
347641	41	-5	0	0.4778253	0.2149637	-3.549355	0	11.34	4003	0	0	0	0	1.257781	0.08314745	1	20	0.022	1600
347710	49	-4	3	0.4847241	0.2205191	-3.548621	0	11.34	4003	0	0	0	0	1.257781	0.08112815	1	20	0.022	1600
347793	36	-1	-3	0.4829773	0.2144506	-3.549417	0	11.34	4003	0	0	0	0	1.257781	0.09169216	1	20	0.022	1600
347884	35	-4	7	0.4873084	0.2128221	-3.548683	0	11.34	4004	0	0	0	0	1.257781	0.09810563	1	20	0.022	1600
347928	47	0	-3	0.4831042	0.21553	-3.547766	0	11.34	4003	0	0	0	0	1.257781	0.09912347	1	20	0.022	1600
348070	40	0	-4	0.5030349	0.2192793	-3.542612	0	11.34	4003	0	0	0	0	1.257781	0.101511	1	20	0.022	1600
348138	46	-3	2	0.5041873	0.2158562	-3.541695	0	11.29	4004	0	0	0	0	1.257781	0.1005387	1	20	0.022	1600
348258	38	-3	0	0.5155615	0.214838	-3.542574	0	11.29	4004	0	0	0	0	1.257781	0.09751353	1	15	0.022	1400
348397	38	0	-4	0.5138028	0.2204497	-3.540984	0	11.29	4002	0	0	0	0	1.257781	0.09045581	1	15	0.022	1400
348488	37	0	-4	0.5149266	0.2139719	-3.540556	0	11.29	4003	0	0	0	0	1.257781	0.08352038	1	15	0.022	1400
348611	44	-5	-2	0.5257085	0.2126393	-3.539822	0	11.29	4003	0	0	0	0	1.257781	0.09466901	1	15	0.022	1400
348664	45	-5	1	0.5254047	0.2149558	-3.537621	0	11.29	4003	0	0	0	0	1.257781	0.1072616	1	15	0.022	1400
348724	35	-6	-3	0.5216421	0.2109331	-3.536276	0	11.29	4004	0	0	0	0	1.257781	0.1203564	1	15	0.022	1400
348850	41	-9	-1	0.5292814	0.2149865	-3.533891	0	11.29	4002	0	0	0	0	1.257781	0.135255	1	15	0.022	1400
348981	39	-3	3	0.543081	0.2150598	-3.531446	0	11.29	4002	0	0	0	0	1.257781	0.1310338	1	15	0.022	1400
349041	43	3	0	0.5394676	0.2176686	-3.529183	0	11.29	4002	0	0	0	0	1.257781	0.1267838	1	15	0.022	1400
349136	46	-2	-1	0.5448793	0.2140408	-3.527289	0	11.29	4003	0	0	0	0	1.257781	0.1219252	1	15	0.022	1400
349305	34	-4	3	0.5359115	0.216965	-3.525577	0	11.29	4004	0	0	0	0	1.257781	0.1280047	1	15	0.022	1400
349384	48	-3	-2	0.540105	0.2204085	-3.523192	0	11.29	4003	0	0	0	0	1.257781	0.1231567	1	15	0.022	1400
349486	41	-3	-4	0.5391813	0.2207618	-3.520868	0	11.29	4003	0	0	0	0	1.257781	0.1185537	1	15	0.022	1400
349532	41	-3	-4	0.5391813	0.2207618	-3.520868	0	11.29	4003	0	0	0	0	1.257781	0.1136516	1	15	0.022	1400
349671	41	-6	-6	0.5358214	0.2262713	-3.515549	0	11.29	4002	0	0	0	0	1.257781	0.1067449	1	15	0.022	1400
349843	48	1	-2	0.5384449	0.225039	-3.511758	0	11.29	4003	0	0	0	0	1.257781	0.101902	1	15	0.022	1400
350038	30	-10	-3	0.549682	0.2216336	-3.505462	0	11.29	4003	0	0	0	0	1.257781	0.09716368	1	15	0.022	1400
350216	45	-1	3	0.5528966	0.2111159	-3.501427	0	11.29	4002	0	0	0	0	1.257781	0.0738277	1	15	0.022	1400
350361	50	-5	-3	0.5533936	0.2112862	-3.495191	0	11.29	4004	0	0	0	0	1.257781	0.06500554	1	15	0.022	1400
350506	45	-5	0	0.5518383	0.214	-3.488283	0	11.29	4003	0	0	0	0	1.257781	0.05124525	1	15	0.022	1400
350663	45	-3	-7	0.5429166	0.2124536	-3.482659	0	11.29	4002	0	0	0	0	1.257781	0.05461724	1	15	0.022	1400
350753	36	-1	0	0.5521241	0.2081281	-3.478685	0	11.29	4002	0	0	0	0	1.257781	0.0625254	1	15	0.022	1400
350877	43	-7	-1	0.5522224	0.2066669	-3.472999	0	11.34	4004	0	0	0	0	1.257781	0.07332208	1	15	0.022	1400
350947	42	3	-5	0.5592628	0.2018225	-3.470676	0	11.34	4003	0	0	0	0	1.257781	0.07489984	1	15	0.022	1400
351006	41	1	-3	0.5590491	0.2089251	-3.468292	0	11.34	4002	0	0	0	0	1.257781	0.07987547	1	15	0.022	1400
351169	42	0	1	0.5558291	0.2082723	-3.462605	0	11.34	4002	0	0	0	0	1.257781	0.1078412	1	15	0.022	1400
351264	52	-1	-6	0.558335	0.2055057	-3.458998	0	11.34	4002	0	0	0	0	1.257781	0.1152967	1	15	0.022	1400
351361	45	-5	-3	0.5701562	0.2045801	-3.455941	0	11.34	4003	0	0	0	0	1.257781	0.1249938	1	15	0.022	1400
351555	47	-1	-9	0.5717916	0.1948764	-3.446771	0	11.34	4002	0	0	0	0	1.257781	0.1278566	1	15	0.022	1400
351645	44	2	-4	0.5699363	0.1961138	-3.44457	0	11.34	4003	0	0	0	0	1.257781	0.1279618	1	15	0.022	1400
351692	42	1	-6	0.5677128	0.1949728	-3.442491	0	11.29	4004	0	0	0	0	1.257781	0.1267608	1	15	0.022	1400
351777	51	1	0	0.5780664	0.1987401	-3.440107	0	11.29	4003	0	0	0	0	1.257781	0.1273331	1	15	0.022	1400
351896	47	-5	0	0.5742311	0.1969595	-3.435766	0	11.29	4003	0	0	0	0	1.257781	0.1257472	1	15	0.022	1400
352027	45	-4	-6	0.5740137	0.1963646	-3.429775	0	11.29	4002	0	0	0	0	1.257781	0.1166232	1	15	0.022	1400
352065	45	-5	0	0.5768874	0.199998	-3.427818	0	11.29	4002	0	0	0	0	1.257781	0.1139613	1	15	0.022	1400
352143	46	-5	-2	0.5822591	0.2018283	-3.423538	0	11.29	4003	0	0	0	0	1.257781	0.1162489	1	15	0.022	1400
352242	53	-1	-4	0.5823158	0.2001561	-3.421949	0	11.29	4002	0	0	0	0	1.257781	0.1139722	1	15	0.022	1400
352403	36	-9	-5	0.5906311	0.1960483	-3.414123	0	11.29	4002	0	0	0	0	1.257781	0.111281	1	15	0.022	1400
352460	50	-3	3	0.5971814	0.1868849	-3.411127	0	11.29	4003	0	0	0	0	1.257781	0.1063085	1	15	0.022	1400
352668	42	4	1	0.6034667	0.182282	-3.403484	0	11.29	4002	0	0	0	0	1.257781	0.1053541	1	15	0.022	1400
352857	57	1	-5	0.6098418	0.1914068	-3.399816	0	11.29	4004	0	0	0	0	1.257781	0.1157518	1	15	0.022	1400
353012	48	4	0	0.6126007	0.1851	-3.396515	0	11.29	4003	0	0	0	0	1.257781	0.09689589	1	15	0.022	1400
353113	45	0	-6	0.6192096	0.1848875	-3.39089	0	11.29	4002	0	0	0	0	1.257781	0.08193633	1	15	0.022	1400
353252	46	-1	-3	0.6194934	0.1925266	-3.383002	0	11.29	4007	0	0	0	0	1.257781	0.07924602	1	15	0.022	1400
353434	47	0	-6	0.6229393	0.188533	-3.376339	0	11.29	4003	0	0	0	0	1.257781	0.06350286	1	15	0.022	1400
353477	52	-4	0	0.6266615	0.1802648	-3.374199	0	11.29	4004	0	0	0	0	1.257781	0.06275255	1	15	0.022	1400
353606	54	0	-2	0.6364315	0.1862482	-3.368145	0	11.29	4003	0	0	0	0	1.257781	0.06274395	1	15	0.022	1400
353706	48	-3	-3	0.6447558	0.1908083	-3.363743	0	11.29	4002	0	0	0	0	1.257781	0.06110448	1	15	0.022	1400
353747	49	-4	-2	0.6443993	0.1905598	-3.362459	0	11.29	4002	0	0	0	0	1.257781	0.06069079	1	15	0.022	1400
353885	55	-5	-3	0.6531128	0.1902028	-3.352005	0	11.29	4003	0	0	0	0	1.257781	0.07585458	1	15	0.022	1400
353949	58	-8	-7	0.6574872	0.1924949	-3.349926	0	11.29	4003	0	0	0	0	1.257781	0.083473	1	15	0.022	1400
354021	47	-1	-2	0.6572409	0.191947	-3.344179	0	11.29	4003	0	0	0	0	1.257781	0.08804381	1	15	0.022	1400
354132	56	-11	-1	0.6532545	0.1908116	-3.340206	0	11.29	4004	0	0	0	0	1.257781	0.0930531	1	15	0.022	1400
354233	52	-4	-5	0.6558993	0.1914809	-3.333971	0	11.29	4003	0	0	0	0	1.257781	0.1027021	1	15	0.022	1400
354337	47	0	-6	0.6532498	0.1944532	-3.329201	0	11.29	4004	0	0	0	0	1.257781	0.1147743	1	15	0.022	1400
354489	55	3	-2	0.6654799	0.190998	-3.324861	0	11.34	4002	0	0	0	0	1.257781	0.1358335	1	15	0.022	1400
354538	56	-1	0	0.6705731	0.1896635	-3.322355	0	11.34	4002	0	0	0	0	1.257781	0.1379366	1	15	0.022	1400
354640	53	-4	-4	0.6711962	0.1909478	-3.317893	0	11.34	4002	0	0	0	0	1.257781	0.1412545	1	15	0.022	1400
354703	51	0	-1	0.6717847	0.1890225	-3.317587	0	11.34	4004	0	0	0	0	1.257781	0.1403559	1	15	0.022	1400
354810	53	-7	0	0.6810744	0.1929447	-3.312879	0	11.34	4002	0	0	0	0	1.257781	0.141781	1	15	0.022	1400
354927	50	-3	-1	0.6796085	0.1914044	-3.309272	0	11.34	4003	0	0	0	0	1.257781	0.1461311	1	15	0.022	1400
355003	57	0	-1	0.6842008	0.1909455	-3.303648	0	11.34	4004	0	0	0	0	1.257781	0.1459541	1	15	0.022	1400
355151	55	-2	-3	0.6745026	0.190125	-3.298696	0	11.34	4003	0	0	0	0	1.257781	0.1413445	1	15	0.022	1400
355224	52	-3	-3	0.6785005	0.1904642	-3.294967	0	11.34	4004	0	0	0	0	1.257781	0.1414884	1	15	0.022	1400
355432	52	-2	-1	0.6844229	0.1857584	-3.283899	0	11.34	4004	0	0	0	0	1.257781	0.1382473	1	15	0.022	1400
355530	59	1	-5	0.6972298	0.1807214	-3.279559	0	11.34	4003	0	0	0	0	1.257781	0.1291907	1	15	0.022	1400
355613	56	0	-2	0.7090158	0.1792822	-3.275891	0	11.34	4003	0	0	0	0	1.257781	0.1247794	1	15	0.022	1400
355713	54	1	-2	0.7095489	0.1729949	-3.273018	0	11.34	4004	0	0	0	0	1.257781	0.1299494	1	15	0.022	1400
355812	60	-3	1	0.7191246	0.1751228	-3.270084	0	11.34	4004	0	0	0	0	1.257781	0.1366118	1	15	0.022	1400
355894	56	-2	0	0.7192468	0.1809733	-3.267333	0	11.34	4004	0	0	0	0	1.257781	0.1370325	1	15	0.022	1400
356072	55	0	-3	0.725715	0.1846735	-3.259019	0	11.34	4004	0	0	0	0	1.257781	0.1633665	1	15	0.022	1400
356170	51	-2	-2	0.736628	0.1817384	-3.256084	0	11.34	4002	0	0	0	0	1.257781	0.1857342	1	15	0.022	1400
356278	62	-2	-3	0.7401242	0.1762034	-3.24893	0	11.29	4004	0	0	0	0	1.257781	0.1885118	1	15	0.022	1400
356313	60	1	-3	0.7411476	0.1758837	-3.248625	0	11.29	4003	0	0	0	0	1.257781	0.1794146	1	15	0.022	1400
356534	50	-1	0	0.7488469	0.1746154	-3.239208	0	11.29	4003	0	0	0	0	1.257781	0.167175	1	15	0.022	1400
356714	51	-1	-3	0.7551824	0.1695497	-3.229243	0	11.29	4003	0	0	0	0	1.257781	0.1584105	1	15	0.022	1400
356928	63	-4	-6	0.754218	0.1696963	-3.217993	0	11.29	4003	0	0	0	0	1.257781	0.1702905	1	15	0.022	1400
357079	63	1	-1	0.7565428	0.1721738	-3.208823	0	11.29	4003	0	0	0	0	1.257781	0.1888991	1	15	0.022	1400
357176	62	-4	-6	0.7608057	0.1791426	-3.203137	0	11.34	4002	0	0	0	0	1.257781	0.2003432	1	15	0.022	1400
357241	54	-1	-6	0.76063	0.1745622	-3.199224	0	11.34	4003	0	0	0	0	1.257781	0.2049559	1	15	0.022	1400
357313	63	-5	2	0.7653323	0.1763169	-3.196962	0	11.34	4002	0	0	0	0	1.257781	0.1998162	1	15	0.022	1400
357404	62	0	-6	0.7655597	0.1855735	-3.190847	0	11.34	4003	0	0	0	0	1.257781	0.1841759	1	15	0.022	1400
357516	71	1	-2	0.7661064	0.1781502	-3.184427	0	11.34	4003	0	0	0	0	1.257781	0.1668021	1	15	0.022	1400
357697	57	-2	-10	0.7788739	0.1801303	-3.171097	0	11.34	4004	0	0	0	0	1.257781	0.1419231	1	15	0.022	1400
357755	64	-4	-5	0.7840914	0.1803795	-3.166022	0	11.34	4004	0	0	0	0	1.257781	0.1332459	1	15	0.022	1400
357901	56	-6	-5	0.7848936	0.1858392	-3.159725	0	11.34	4003	0	0	0	0	1.257781	0.1167189	1	15	0.022	1400
357964	57	3	-10	0.7824377	0.1836402	-3.152939	0	11.34	4002	0	0	0	0	1.257781	0.1050452	1	15	0.022	1400
358068	63	-3	-9	0.784777	0.1799435	-3.141017	0	11.29	4004	0	0	0	0	1.257781	0.09996027	1	15	0.022	1400
358129	64	-6	-7	0.7896762	0.1845291	-3.133803	0	11.29	4002	0	0	0	0	1.257781	0.09857646	1	15	0.022	1400
358189	57	-2	2	0.7955388	0.1824633	-3.130013	0	11.29	4003	0	0	0	0	1.257781	0.09325266	1	15	0.022	1400
358340	66	-1	-8	0.7953652	0.1858743	-3.121941	0	11.29	4003	0	0	0	0	1.257781	0.0726582	1	15	0.022	1400
358400	61	-1	-5	0.8004776	0.183457	-3.119006	0	11.29	4003	0	0	0	0	1.257781	0.07126419	1	15	0.022	1400
358566	65	-3	-3	0.8082455	0.1788752	-3.10519	0	11.29	4003	0	0	0	0	1.257781	0.09712341	1	15	0.022	1400
358603	73	-10	-3	0.8115489	0.1806681	-3.103661	0	11.29	4003	0	0	0	0	1.257781	0.1017264	1	15	0.022	1400
358704	58	-3	-7	0.8148973	0.1829011	-3.097425	0	11.29	4003	0	0	0	0	1.257781	0.1041852	1	15	0.022	1400
358803	66	1	-10	0.816683	0.1864001	-3.089782	0	11.29	4003	0	0	0	0	1.257781	0.109745	1	15	0.022	1400
358891	64	-3	-4	0.8189018	0.1840416	-3.084769	0	11.29	4004	0	0	0	0	1.257781	0.1192923	1	15	0.022	1400
359115	62	-5	-3	0.8178595	0.1832177	-3.070339	0	11.34	4003	0	0	0	0	1.257781	0.1376183	1	15	0.022	1400
359221	65	-7	-6	0.8239214	0.1818866	-3.05799	0	11.34	4003	0	0	0	0	1.257781	0.1497949	1	15	0.022	1400
359322	57	-4	0	0.823961	0.177746	-3.052609	0	11.34	4003	0	0	0	0	1.257781	0.1728296	1	15	0.022	1400
359455	59	-6	-7	0.8215379	0.1713835	-3.042338	0	11.34	4003	0	0	0	0	1.257781	0.195159	1	15	0.022	1400
359505	56	-2	-1	0.8209707	0.1700236	-3.03867	0	11.34	4003	0	0	0	0	1.257781	0.2020514	1	15	0.022	1400
359603	58	-1	-1	0.8164991	0.1669079	-3.030906	0	11.34	4004	0	0	0	0	1.257781	0.1921376	1	15	0.022	1400
