time(ms)	gyro_x(deg/s)	gyro_y(deg/s)	gyro_z(deg/s)	orientation_roll(deg)	orientation_pitch(deg)	orientation_yaw(deg)	throttle	battery(V)	loop_time(uS)	pid_output_roll	pid_output_pitch	pid_output_yaw	pid_output_throttle	ultrasonic_alt	baro_alt	flight_mode	p_gain_altitude	i_gain_altitude	d_gain_altitude
296175	219	169	464	1.839519	-7.49226	-0.04120663	0	10.43	4004	72	27	24	50	1.287928	0.9309012	5	20	0.022	1600
296228	219	169	464	1.839519	-7.49226	-0.04120663	0	10.43	4004	-98	-200	17	24	1.252812	0.9709157	5	20	0.022	1600
296364	-1483	725	-564	-1.074939	-8.321695	-0.3676249	0	10.21	4004	78	-57	31	0	1.291368	1.064344	5	20	0.022	1600
296466	-34	-3431	-2116	-0.6041625	-6.963062	0.06437025	0	10.21	4003	81	-121	13	1	1.251747	1.129166	5	20	0.022	1600
296634	-753	516	1000	-1.278049	-3.283753	1.328128	0	10.21	4002	-58	154	3	3	1.096979	1.23494	5	20	0.022	1600
296737	1041	-1628	-1371	-1.797914	-2.782715	1.806403	0	10.21	4003	59	-221	-20	4	1.150874	1.292844	5	20	0.022	1600
296875	-239	994	333	-0.1173202	-3.685707	1.44526	0	10.21	4004	21	39	9	-4	1.297958	1.394662	5	20	0.022	1600
296968	-33	-1110	-680	-1.40495	-4.058342	1.544597	0	10.21	4004	-68	12	-11	0	1.337792	1.425622	5	20	0.022	1600
297051	444	-328	573	0.1792735	-3.242284	1.852881	0	10.21	4002	10	-58	-2	-3	1.216549	1.505568	5	20	0.022	1600
297181	992	-1857	-7	0.3472561	-3.224727	2.429092	0	10.21	4004	-24	-54	-20	-5	1.268715	1.570812	5	20	0.022	1600
297282	-109	-130	774	-0.1908205	-1.237712	2.355951	0	10.72	4004	-63	147	-9	0	1.311246	1.636022	5	20	0.022	1600
297336	993	17	733	0.4500039	-1.897317	2.087289	0	10.72	4003	-9	167	-15	1	1.318728	1.658957	5	20	0.022	1600
297549	-224	310	67	-0.7491029	-0.5195948	0.949078	0	10.72	4004	-13	130	17	0	1.325104	1.777858	5	20	0.022	1600
297686	-1139	560	-20	-0.1441417	-2.620607	1.442068	0	10.72	4004	2	-135	-9	3	1.303104	1.832381	5	20	0.022	1600
297735	-1506	798	555	-1.098777	-2.938506	1.311846	0	10.72	4002	-33	67	7	10	1.317954	1.843689	5	20	0.022	1600
297843	784	-254	263	-1.326452	-2.709038	1.649683	0	10.72	4003	37	21	0	16	1.285385	1.84306	5	20	0.022	1600
297981	1752	2602	899	-0.5582356	-2.686697	1.710129	0	10.72	4004	-58	88	-5	21	1.167262	1.829518	5	20	0.022	1600
298052	193	3891	583	0.3246974	-6.220798	1.799148	0	10.72	4004	97	-106	-21	35	1.210594	1.815958	5	20	0.022	1600
298151	-250	-1178	-737	-0.5397708	-8.839225	2.082539	0	11	4004	-37	-128	-16	35	1.253726	1.784226	5	20	0.022	1600
298258	-631	1005	498	-0.8644713	-10.49336	1.359391	0	11	4004	-20	-119	0	26	1.279381	1.760828	5	20	0.022	1600
298366	-290	-556	-71	-0.95564	-9.770234	0.3839847	0	11	4003	-12	-34	16	31	1.295019	1.732098	5	20	0.022	1600
298471	1338	533	499	-0.7418048	-9.171088	0.5562029	0	11	4003	-4	81	19	33	1.316624	1.693309	5	20	0.022	1600
298647	56	847	233	-2.796032	-6.730419	1.49826	0	11	4002	50	97	-8	55	1.299328	1.640544	5	20	0.022	1600
298703	658	3542	2240	-1.433296	-8.055647	0.9490108	0	11	4002	-120	33	20	36	1.303569	1.608846	5	20	0.022	1600
298773	889	495	138	-0.9809552	-10.29342	0.3887026	0	11	4002	105	-93	10	38	1.313704	1.579536	5	20	0.022	1600
298895	-442	1744	1501	0.724529	-9.007833	0.1710882	0	11	4002	-60	-335	14	44	1.199666	1.551938	5	20	0.022	1600
299010	-1267	561	-1336	-0.3011412	-10.22058	0.1025764	0	11	4004	66	103	14	35	1.211137	1.498141	5	20	0.022	1600
299064	141	1326	919	-0.5023795	-10.83364	0.6861143	0	11	4003	-36	-184	11	38	1.207124	1.488897	5	20	0.022	1600
299269	-693	682	1741	0.8604543	-9.415071	1.155107	0	10.77	4003	96	257	18	42	1.195564	1.418112	5	20	0.022	1600
299326	-584	1346	58	0.05509465	-9.840139	1.013663	0	10.77	4003	63	-14	-1	39	1.03685	1.377589	5	20	0.022	1600
299440	-907	17	683	-0.3197522	-10.50627	0.758547	0	10.77	4004	86	-145	6	62	1.154911	1.332677	5	20	0.022	1600
299604	196	1339	1184	0.9036503	-10.61943	0.5196325	0	10.77	4004	32	250	26	42	1.136018	1.273636	5	20	0.022	1600
299680	-1717	2962	765	0.256997	-10.94283	0.6906905	0	10.77	4002	99	211	11	41	1.156937	1.24581	5	20	0.022	1600
299845	259	-166	306	0.1392954	-8.054801	1.040813	0	10.77	4003	-92	-108	12	40	1.182641	1.210544	5	20	0.022	1600
299881	603	-1411	-544	0.3293674	-8.038227	1.107463	0	10.77	4002	43	-58	-14	38	1.175411	1.192895	5	20	0.022	1600
299985	1202	312	-1215	0.6346824	-7.704599	1.291659	0	10.77	4004	-88	-61	-9	65	1.29199	1.166458	5	20	0.022	1600
300124	-160	-153	907	-0.962476	-9.090542	0.203743	0	9.75	4002	47	-40	21	56	1.360271	1.134832	5	20	0.022	1600
300182	-188	-2428	-1138	0.7821881	-5.981011	0.04228975	0	9.75	4002	58	-147	18	58	1.371082	1.125061	5	20	0.022	1600
300305	41	-1329	-1235	-0.6276156	-3.851167	0.6681089	0	9.75	4004	-64	-177	-10	33	1.388708	1.109441	5	20	0.022	1600
300517	-849	-2208	230	-1.053267	0.8555679	1.012218	0	9.75	4003	126	161	35	46	1.39524	1.065834	5	20	0.022	1600
300631	-22	-1125	1081	-1.948143	2.109194	0.3634514	0	9.75	4002	51	66	33	73	1.390869	1.017583	5	20	0.022	1600
300752	-261	-1443	-872	-0.5953985	6.443107	0.3317834	0	9.75	4003	-102	-81	24	56	1.364097	0.9941556	5	20	0.022	1600
300878	241	-313	-1325	-0.4387137	5.771559	0.7461044	0	9.75	4003	-13	-130	6	58	1.237479	0.9579008	5	20	0.022	1600
300964	314	-378	-980	-0.08752989	4.282282	1.019472	0	9.75	4004	-6	-36	24	56	1.220953	0.9505666	5	20	0.022	1600
301012	225	742	-598	-1.240616	1.043675	0.4788817	0	11.11	4004	-99	-34	36	64	1.209012	0.917082	5	20	0.022	1600
301203	-631	201	-25	0.09441482	-1.044223	0.5905766	0	11.11	4002	38	97	27	95	1.181144	0.8664296	5	20	0.022	1600
301306	38	-281	373	-0.2552556	-1.493435	0.7109265	0	11.11	4004	32	106	26	63	1.108687	0.8476114	5	20	0.022	1600
301392	-435	-383	-548	0.08665252	-0.07084772	0.8789117	0	11.11	4003	-14	-107	22	89	1.122221	0.8396442	5	20	0.022	1600
301496	-1283	954	437	-0.4365201	-0.4432496	0.708958	0	11.11	4004	56	8	24	85	1.155193	0.832916	5	20	0.022	1600
301632	961	-199	-770	-0.4251567	-0.9227175	0.5818685	0	11.11	4004	-52	-22	32	50	1.235322	0.8369661	5	20	0.022	1600
301697	185	1337	575	0.03313133	-1.998252	0.6219519	0	11.11	4004	33	-107	5	45	1.262416	0.8521671	5	20	0.022	1600
301795	-142	1565	181	0.02196639	-2.818621	0.8885386	0	11.11	4003	36	-74	1	52	1.269704	0.8575934	5	20	0.022	1600
301934	1257	2644	759	0.0723502	-9.221691	0.5021102	0	10.77	4003	-25	-100	18	38	1.281653	0.9308353	5	20	0.022	1600
302002	85	3172	1107	-0.3400798	-10.47434	0.9174615	0	10.77	4003	-16	-192	-9	35	1.29292	0.9556111	5	20	0.022	1600
302099	85	3172	1107	-0.3400798	-10.47434	0.9174615	0	10.77	4003	-53	-116	19	21	1.303738	1.00232	5	20	0.022	1600
302193	942	327	-589	0.391555	-13.23615	1.100726	0	10.77	4003	-16	112	10	15	1.314474	1.026662	5	20	0.022	1600
302303	954	-1576	-780	1.344334	-9.735699	2.069828	0	10.77	4003	14	-254	-23	15	1.368847	1.11112	5	20	0.022	1600
302415	95	-875	493	1.98919	-8.805873	1.017994	0	10.77	4002	24	11	13	13	1.38443	1.160522	5	20	0.022	1600
302605	-419	-179	749	3.163029	-7.904749	0.9659168	0	10.77	4003	-18	34	13	15	1.267023	1.242617	5	20	0.022	1600
302635	431	-975	-173	2.687109	-7.4811	1.208461	0	10.77	4003	-80	11	3	17	1.279373	1.261864	5	20	0.022	1600
302713	438	-310	-207	2.709603	-6.13348	1.685547	0	10.77	4003	-108	-9	0	17	1.331903	1.279889	5	20	0.022	1600
302874	-488	97	686	0.4441335	-6.056775	1.529817	0	11.06	4003	132	-51	-17	9	1.319668	1.377555	5	20	0.022	1600
302952	-120	-1661	-623	0.4912187	-6.415036	1.286723	0	11.06	4003	63	-230	-6	7	1.301393	1.428506	5	20	0.022	1600
303028	1196	32	1132	0.04505541	-4.118293	1.542972	0	11.06	4002	-37	4	3	4	1.283557	1.470981	5	20	0.022	1600
303134	493	-813	-200	0.6086072	-3.005258	1.697974	0	11.06	4003	22	123	-11	4	1.269601	1.531759	5	20	0.022	1600
303206	245	-265	164	0.8576269	-1.975135	1.825866	0	11.06	4002	-17	174	-12	-1	1.306088	1.596	5	20	0.022	1600
303345	-185	-368	-1060	1.160169	-1.46351	2.303638	0	11.06	4002	49	-153	-31	4	1.311588	1.630779	5	20	0.022	1600
303412	358	-812	-391	0.5000932	-2.236011	2.272472	0	11.06	4004	-6	-137	-30	11	1.343855	1.656802	5	20	0.022	1600
303515	176	-966	314	0.3301475	-1.415434	2.162819	0	11.06	4002	7	149	-4	19	1.343589	1.682516	5	20	0.022	1600
303620	-678	1344	-408	-0.6279913	-2.719624	1.498486	0	11.06	4003	102	89	-7	16	1.342782	1.689188	5	20	0.022	1600
303771	-981	2127	-527	-1.267116	-8.069566	0.7383782	0	10.32	4002	26	-319	10	19	1.377559	1.710132	5	20	0.022	1600
303924	121	1282	1100	-1.207682	-10.98197	0.3756847	0	10.32	4002	-42	-315	-2	22	1.307476	1.73018	5	20	0.022	1600
304047	-132	-452	930	-1.142444	-9.995665	0.9933214	0	10.32	4004	31	-272	-9	23	1.332947	1.731876	5	20	0.022	1600
304145	-427	-771	-993	-1.483124	-9.376747	0.9796752	0	10.32	4004	22	136	25	25	1.340542	1.722639	5	20	0.022	1600
304235	-458	-367	-273	-1.036751	-6.586405	0.5019788	0	10.32	4003	-132	-110	18	21	1.328598	1.72403	5	20	0.022	1600
304323	-387	-1973	-854	-2.280555	-5.74769	0.7280869	0	10.32	4004	25	-171	-3	19	1.255308	1.733585	5	20	0.022	1600
304436	-359	591	1029	-2.297452	-4.420706	1.259951	0	10.32	4003	-60	-253	-9	22	1.318628	1.741502	5	20	0.022	1600
304589	-553	829	-357	-2.513119	-4.113486	1.464975	0	10.32	4002	61	86	-8	21	1.263259	1.749395	5	20	0.022	1600
304628	172	-593	-1156	-2.75371	-4.704748	1.534455	0	10.32	4004	-5	-189	-19	26	1.233478	1.752468	5	20	0.022	1600
304844	35	-813	-742	-1.503251	-1.840517	1.648096	0	10.77	4002	17	-88	-15	29	1.328397	1.740683	5	20	0.022	1600
304932	-114	558	1360	-1.836574	-2.43052	0.7654064	0	10.77	4002	-81	-69	24	29	1.256048	1.723739	5	20	0.022	1600
305036	861	1090	1251	-0.7393917	-2.876408	0.547197	0	10.77	4002	49	189	28	32	1.128113	1.703122	5	20	0.022	1600
305152	-277	-481	-1560	0.3811312	-4.139611	0.7304537	0	10.77	4002	-60	147	34	31	1.214918	1.673442	5	20	0.022	1600
305234	-1200	-642	-843	-0.3427462	-4.261267	0.5632365	0	10.77	4004	139	106	18	28	1.251356	1.662669	5	20	0.022	1600
305366	-1594	1827	1169	0.09424573	-4.760683	0.7914764	0	10.77	4003	19	-54	21	26	1.238932	1.655272	5	20	0.022	1600
305428	328	-299	-304	-0.793456	-5.03053	0.9860797	0	10.77	4003	-23	-63	19	28	1.213839	1.651363	5	20	0.022	1600
305530	330	2105	1545	-0.1962444	-5.719459	0.9771907	0	10.77	4004	27	-261	-11	31	1.264044	1.642232	5	20	0.022	1600
305788	107	-722	-740	-1.330729	-6.562164	0.4632274	0	10.77	4003	13	-110	0	35	1.201537	1.593138	5	20	0.022	1600
305910	185	-1023	-274	-1.540275	-6.253539	0.5441191	0	10.77	4003	62	45	6	35	1.170302	1.570682	5	20	0.022	1600
305998	236	-1388	-1271	-1.276792	-5.931883	0.8536282	0	10.77	4002	60	-99	2	37	1.12242	1.541612	5	20	0.022	1600
306060	85	417	1212	-0.7602413	-4.111465	0.4919014	0	10.77	4002	17	-9	40	40	1.111363	1.534772	5	20	0.022	1600
306140	1042	-151	311	0.01182617	-3.858834	0.8805428	0	10.77	4002	51	103	10	42	1.083613	1.506395	5	20	0.022	1600
306254	1042	-151	311	0.01182617	-3.858834	0.8805428	0	10.77	4002	84	267	35	41	1.181854	1.460397	5	20	0.022	1600
306433	-945	1091	1147	2.145426	-7.888286	1.037881	0	10.77	4003	-7	151	20	38	1.074317	1.41925	5	20	0.022	1600
306507	490	200	849	0.9120615	-7.038034	1.460071	0	10.43	4004	-5	-106	0	37	1.089473	1.414175	5	20	0.022	1600
306570	240	1245	906	1.058156	-5.427313	1.947978	0	10.43	4002	-83	14	-6	37	1.0267	1.389704	5	20	0.022	1600
306661	-237	1842	1689	1.015678	-7.127444	1.48272	0	10.43	4003	-2	45	7	34	1.101035	1.380334	5	20	0.022	1600
306730	-684	-506	501	0.5384122	-6.572579	1.066581	0	10.43	4003	61	88	11	35	1.190454	1.378422	5	20	0.022	1600
306825	468	1884	-694	0.57099	-6.60148	1.167284	0	10.43	4003	-23	174	26	32	1.408549	1.371375	5	20	0.022	1600
306939	1116	-416	-1935	0.6593965	-9.078587	1.785408	0	10.43	4002	20	250	-17	50	1.377308	1.358657	5	20	0.022	1600
307033	-127	-1735	737	1.02234	-7.542209	2.162186	0	10.43	4002	-17	19	-12	34	1.31331	1.35405	5	20	0.022	1600
307157	356	-1054	447	-0.2348783	-3.017604	1.71603	0	10.43	4003	58	-189	-1	30	1.191252	1.354923	5	20	0.022	1600
307262	25	-425	733	-0.4106997	-1.938567	1.494724	0	10.43	4004	18	75	-5	29	1.262637	1.362587	5	20	0.022	1600
307341	507	-603	147	0.1342929	-1.191419	1.54104	0	10.43	4003	-47	14	6	27	1.391176	1.37165	5	20	0.022	1600
307470	942	815	-751	-0.2550313	-3.970751	1.118449	0	10.04	4004	9	279	9	30	1.407697	1.380616	5	20	0.022	1600
307572	-181	-1417	-1829	-0.8879808	-4.529773	1.274753	0	10.04	4003	65	81	6	42	1.401714	1.380933	5	20	0.022	1600
307648	589	171	973	-0.5141661	-4.59594	1.009792	0	10.04	4002	0	235	24	33	1.415228	1.37746	5	20	0.022	1600
307741	-119	-640	495	-0.3919661	-4.601585	1.004125	0	10.04	4003	21	76	7	43	1.445249	1.376753	5	20	0.022	1600
307831	-827	455	-337	-0.402815	-7.154485	0.1852247	0	10.04	4002	-49	141	49	31	1.403268	1.380984	5	20	0.022	1600
307934	4	-321	-668	-0.6128057	-6.564407	0.5643498	0	10.04	4002	-37	-21	-11	31	1.402695	1.392452	5	20	0.022	1600
308043	46	-918	-73	0.148674	-5.914284	1.370802	0	10.04	4003	5	-151	3	27	1.362959	1.402457	5	20	0.022	1600
308077	-1803	1883	1020	-0.1875375	-6.084404	1.353227	0	10.04	4003	5	-151	3	27	1.362959	1.402457	5	20	0.022	1600
308233	1679	-853	1106	0.4759827	-5.398929	0.6845154	0	9.47	4002	-149	67	29	25	1.226222	1.434494	5	20	0.022	1600
308275	-91	-1341	-1414	0.6346781	-5.264065	0.6082122	0	9.47	4003	35	153	21	27	1.2077	1.439044	5	20	0.022	1600
308512	1157	-285	-230	0.4235179	-5.027419	0.9957141	0	9.47	4002	21	-270	-6	20	1.060496	1.509779	5	20	0.022	1600
308615	-573	-761	-1396	-0.1315443	-4.47759	1.251763	0	9.47	4004	68	-138	-14	25	1.104944	1.523551	5	20	0.022	1600
308713	-645	-679	1284	0.167769	-3.659201	1.22255	0	9.47	4003	96	132	16	26	1.202765	1.531497	5	20	0.022	1600
308786	-1229	-1133	-403	-0.3508811	-3.423789	0.905701	0	9.47	4002	47	-209	18	27	1.330589	1.536039	5	20	0.022	1600
308889	278	1345	1537	-1.186565	-2.624689	0.1519948	0	9.47	4003	-16	211	47	28	1.293569	1.547094	5	20	0.022	1600
309022	-6	-2	752	-1.553618	-2.508713	0.6767705	0	9.47	4003	56	-144	3	25	1.245099	1.563373	5	20	0.022	1600
309094	351	-1053	-792	-1.746971	-2.089577	0.8007994	0	9.47	4004	-70	-189	14	31	1.182168	1.562703	5	20	0.022	1600
309231	516	579	809	-0.2163994	-3.491447	0.5710737	0	10.32	4002	73	-28	9	25	1.28986	1.57149	5	20	0.022	1600
309355	34	579	275	0.3172729	-4.068642	1.053733	0	10.32	4004	26	98	25	30	1.202663	1.581561	5	20	0.022	1600
309445	-129	1239	1388	0.9890462	-3.88865	1.370456	0	10.32	4003	-85	-115	3	31	1.175492	1.582166	5	20	0.022	1600
309482	989	225	-1519	0.9560192	-4.246259	1.401909	0	10.32	4004	-74	-92	-3	39	1.203169	1.580384	5	20	0.022	1600
309583	209	2055	1246	2.081212	-5.619788	1.131442	0	10.32	4003	131	58	6	39	1.250497	1.579943	5	20	0.022	1600
309705	-606	-1913	-247	2.417935	-4.216131	1.293433	0	10.32	4003	2	169	7	31	1.163515	1.571136	5	20	0.022	1600
309786	-51	-527	-845	1.586752	-3.278464	1.192837	0	10.32	4003	22	79	14	30	1.179796	1.571213	5	20	0.022	1600
309930	882	-922	-1833	2.544415	-2.904005	1.279101	0	10.32	4004	-17	-187	-8	30	1.206374	1.577395	5	20	0.022	1600
309978	-319	1190	821	2.544415	-2.904005	1.279101	0	10.32	4004	25	89	11	23	1.231031	1.58583	5	20	0.022	1600
310095	332	1115	1473	1.449041	-3.322331	1.313581	0	10.89	4003	-93	-225	-6	23	1.237056	1.607206	5	20	0.022	1600
310187	524	1211	1338	1.601637	-3.535154	1.147894	0	10.89	4004	8	130	16	22	1.217272	1.617551	5	20	0.022	1600
310351	-244	-181	-722	0.7786468	-6.469503	0.8294814	0	10.89	4003	29	117	19	20	1.289961	1.658071	5	20	0.022	1600
310443	1287	173	-1184	1.455204	-6.883787	1.46786	0	10.89	4002	-30	-241	-14	16	1.335428	1.695756	5	20	0.022	1600
310488	1287	173	-1184	1.455204	-6.883787	1.46786	0	10.89	4002	-30	-241	-14	16	1.340526	1.702579	5	20	0.022	1600
310646	438	-1490	-83	2.600692	-8.589713	1.742657	0	10.89	4004	59	-189	-18	3	1.236951	1.746855	5	20	0.022	1600
310763	161	-2521	-287	3.0955	-6.142298	1.776564	0	10.89	4004	59	56	0	5	1.193292	1.803769	5	20	0.022	1600
310781	-218	-386	32	2.513776	-5.262396	1.337715	0	10.89	4003	-24	32	-1	12	1.193292	1.803769	5	20	0.022	1600
310916	399	-1231	-328	2.416096	-4.23973	1.583829	0	10.89	4003	34	33	-6	13	1.190985	1.848905	5	20	0.022	1600
311013	-537	-1483	141	1.186212	-2.518062	1.610473	0	10.38	4004	19	-67	-5	15	1.183122	1.863296	5	20	0.022	1600
311091	279	627	516	0.7076425	-2.099084	1.380662	0	10.38	4003	-14	172	5	22	1.28767	1.88311	5	20	0.022	1600
311247	-318	2353	1858	0.1842294	-3.553434	0.6554052	0	10.38	4004	-10	-210	13	21	1.405998	1.886544	5	20	0.022	1600
311411	52	1586	-760	-0.0591677	-6.981582	0.3660225	0	10.38	4004	52	82	13	19	1.378736	1.896109	5	20	0.022	1600
311520	-184	-260	-774	-0.3533587	-7.394489	0.3855827	0	10.38	4003	75	-73	-2	32	1.388548	1.88144	5	20	0.022	1600
311645	241	2090	1055	-0.9713322	-10.71025	0.2194846	0	10.38	4002	-61	-92	30	35	1.445865	1.849776	5	20	0.022	1600
311721	37	563	-1349	-1.266051	-11.06023	0.1411087	0	10.38	4002	-61	-240	20	31	1.446514	1.836042	5	20	0.022	1600
311867	-1007	-1768	-1094	-1.695575	-9.404302	1.240321	0	10.38	4002	62	-209	-13	22	1.312382	1.832021	5	20	0.022	1600
311973	747	1566	1027	-1.139846	-10.51115	1.230439	0	9.92	4002	-32	286	12	34	1.270484	1.834725	5	20	0.022	1600
312063	21	-1488	-1469	-0.9435406	-9.965261	1.500895	0	9.92	4002	16	-207	-26	38	1.27357	1.832497	5	20	0.022	1600
312178	-994	-222	1349	-1.701765	-8.71801	1.266635	0	9.92	4003	-84	-212	7	32	1.224025	1.798384	5	20	0.022	1600
312306	369	-1403	686	-1.38667	-5.294395	0.8248586	0	9.92	4004	22	-189	3	35	1.200826	1.769715	5	20	0.022	1600
312421	580	-1319	-1151	0.07601012	-3.107808	1.188051	0	9.92	4004	-103	-232	3	63	1.063597	1.704105	5	20	0.022	1600
312440	-990	1231	593	0.6408351	-3.309612	1.195314	0	9.92	4003	61	13	-8	42	1.063597	1.704105	5	20	0.022	1600
312585	397	-1167	1195	1.301578	-2.661222	0.8774801	0	9.92	4004	44	123	28	45	1.107622	1.644546	5	20	0.022	1600
312670	-92	-216	875	-0.9565123	-1.644335	1.082259	0	9.92	4004	-35	-218	-19	59	1.139059	1.60349	5	20	0.022	1600
312772	-1412	-1233	-1052	-1.887077	-1.11578	0.78947	0	9.92	4003	-49	-50	30	40	1.17943	1.565245	5	20	0.022	1600
312866	-671	1360	1356	-1.941174	-1.229136	0.47988	0	10.32	4004	-51	-323	15	39	1.196796	1.551289	5	20	0.022	1600
312966	5	-282	-1237	-2.399748	-2.87671	0.5361303	0	10.32	4002	70	245	34	36	1.212616	1.542075	5	20	0.022	1600
313119	-1748	1558	638	-2.939734	-4.672257	0.6700844	0	10.32	4004	127	-47	9	59	1.251885	1.495325	5	20	0.022	1600
313170	565	-427	633	-1.891387	-4.42302	0.4756151	0	10.32	4003	-54	-150	20	60	1.241604	1.474638	5	20	0.022	1600
313317	-326	175	212	-1.507262	-3.042507	0.8369349	0	10.32	4003	-76	-207	0	38	1.233856	1.45025	5	20	0.022	1600
313400	1083	146	1	-1.031209	-4.011396	1.370061	0	10.32	4002	-4	-304	-5	36	1.237398	1.435105	5	20	0.022	1600
313466	469	-177	-1037	-0.4067887	-5.254676	1.148934	0	10.32	4003	51	280	17	40	1.114166	1.425725	5	20	0.022	1600
313560	295	462	-946	-0.696174	-4.791399	1.164241	0	10.32	4002	-30	205	17	34	1.240368	1.423182	5	20	0.022	1600
313614	781	1197	1163	-0.02152736	-4.822864	1.403722	0	10.32	4003	-47	-91	-1	30	1.109691	1.428807	5	20	0.022	1600
313862	40	-584	-1057	0.9138781	-7.183078	1.428393	0	10.66	4002	40	-218	-15	38	1.207795	1.403044	5	20	0.022	1600
313984	1077	-191	-1401	0.4759337	-8.14862	0.8435734	0	10.66	4003	20	220	13	40	1.248111	1.390434	5	20	0.022	1600
314008	-288	735	1520	0.6771932	-8.20431	0.7200999	0	10.66	4004	20	220	13	40	1.258648	1.383551	5	20	0.022	1600
314136	-87	1009	957	-0.2543134	-8.37803	0.7263141	0	10.66	4002	119	-56	4	46	1.284347	1.363476	5	20	0.022	1600
314204	148	-205	-46	0.03322491	-7.70655	0.5885479	0	10.66	4004	-104	-59	22	44	1.251687	1.33549	5	20	0.022	1600
314364	658	-1237	661	-0.4237859	-7.606514	0.8244964	0	10.66	4002	31	148	20	45	1.272957	1.305122	5	20	0.022	1600
314440	563	-700	-1229	0.1952889	-4.76406	1.441114	0	10.66	4002	-21	37	15	43	1.271075	1.293501	5	20	0.022	1600
314549	949	823	850	1.613747	-5.122082	0.9244683	0	10.66	4003	-20	159	8	36	1.268681	1.284259	5	20	0.022	1600
314635	254	-417	-1060	1.606636	-5.63865	0.7327271	0	10.32	4003	94	141	17	32	1.285045	1.294882	5	20	0.022	1600
314730	-97	1080	-257	2.52858	-5.229819	1.325185	0	10.32	4003	0	8	-9	31	1.303457	1.302378	5	20	0.022	1600
314836	-761	387	998	1.625074	-5.638314	1.155824	0	10.32	4003	15	166	17	26	1.180961	1.327855	5	20	0.022	1600
314878	-1258	528	554	0.6436496	-5.656446	1.059638	0	10.32	4004	15	166	17	26	1.180961	1.327855	5	20	0.022	1600
315043	-1664	866	1052	-0.7840294	-5.487812	0.5121784	0	10.32	4003	-2	36	33	28	1.279752	1.395284	5	20	0.022	1600
315089	829	-1496	-1437	-0.8342601	-5.778655	0.9307231	0	10.32	4003	97	-81	-6	23	1.289785	1.415022	5	20	0.022	1600
315173	-1045	583	893	-1.521639	-4.863236	0.9028976	0	10.32	4004	-8	-163	17	19	1.28697	1.441435	5	20	0.022	1600
315327	344	182	326	-2.124388	-4.078431	1.712545	0	10.32	4003	-46	145	-8	21	1.248252	1.497884	5	20	0.022	1600
315448	355	-896	1085	-1.954912	-2.712971	1.559321	0	10.32	4004	-42	-229	-5	21	1.29809	1.533996	5	20	0.022	1600
315467	355	-896	1085	-1.954912	-2.712971	1.559321	0	10.32	4004	27	143	7	19	1.305961	1.549206	5	20	0.022	1600
315582	-1741	-1629	-763	-3.521986	-1.622776	1.150434	0	10.38	4002	35	-159	-7	19	1.187479	1.581969	5	20	0.022	1600
315706	462	1203	415	-4.246679	-2.067676	0.3954128	0	10.38	4003	49	198	24	14	1.288701	1.616769	5	20	0.022	1600
315820	98	-196	349	-3.861924	-3.739377	0.5922257	0	10.38	4004	59	-104	-14	20	1.229198	1.65482	5	20	0.022	1600
315875	-95	-306	293	-2.96956	-2.906435	1.060403	0	10.38	4003	-14	-99	18	20	1.224395	1.681909	5	20	0.022	1600
316115	-499	-106	1297	-3.838507	-6.06225	0.4913521	0	10.38	4002	-32	-25	34	27	1.228812	1.712422	5	20	0.022	1600
316173	-802	346	-205	-4.215116	-5.777729	0.4359557	0	10.38	4002	9	-44	5	25	1.133052	1.720086	5	20	0.022	1600
316276	625	695	842	-2.129292	-5.04105	0.4919816	0	10.38	4004	-76	-242	15	24	1.285294	1.7293	5	20	0.022	1600
316378	240	266	-543	-0.2546181	-4.060431	1.068611	0	10.77	4003	-88	108	25	24	1.331417	1.744655	5	20	0.022	1600
316528	603	2137	1600	1.111808	-6.400409	1.210352	0	10.77	4003	-57	-291	-18	25	1.277098	1.760512	5	20	0.022	1600
316578	-1064	1339	979	0.6156045	-7.398766	0.7338762	0	10.77	4004	10	179	37	26	1.181116	1.766061	5	20	0.022	1600
316724	-605	-26	-197	-1.370512	-7.623003	-0.3301317	0	10.77	4003	-115	-234	17	21	1.223858	1.782037	5	20	0.022	1600
316904	-1518	893	-501	-0.3232154	-7.077854	0.7172714	0	10.77	4004	64	33	3	30	1.270671	1.792989	5	20	0.022	1600
317043	656	627	-154	-0.4138049	-8.985777	0.9378162	0	10.77	4003	13	-12	1	31	1.138607	1.785356	5	20	0.022	1600
317136	641	-1760	-1015	-0.03401073	-8.63238	0.9900616	0	10.77	4004	13	-12	1	31	1.177784	1.772184	5	20	0.022	1600
317227	-251	1989	2195	1.271758	-5.062302	0.9121431	0	10.77	4003	130	223	21	30	1.19198	1.766641	5	20	0.022	1600
317339	1602	-1612	-1417	2.750517	-6.841509	0.297727	0	10.55	4004	102	80	21	25	1.198802	1.771078	5	20	0.022	1600
317450	-188	-1554	-639	4.396473	-5.884713	0.3451732	0	10.55	4003	78	-86	6	30	1.221341	1.775261	5	20	0.022	1600
317541	1122	-465	940	4.978455	-4.688749	0.4301159	0	10.55	4002	-80	-240	5	22	1.236933	1.786001	5	20	0.022	1600
317573	2048	-168	1317	6.096692	-4.143615	0.5742848	0	10.55	4004	-44	144	35	26	1.269167	1.79405	5	20	0.022	1600
317667	227	817	-578	7.341763	-3.810412	0.9807858	0	10.55	4004	-62	16	17	26	1.332239	1.798724	5	20	0.022	1600
317770	220	1250	1144	6.807234	-4.612001	1.174133	0	10.55	4003	0	197	14	27	1.223215	1.800672	5	20	0.022	1600
317874	510	-991	-1490	5.990973	-4.369772	1.434036	0	10.55	4004	-54	-49	1	26	1.249035	1.803194	5	20	0.022	1600
318018	-260	-1021	-966	4.966335	-3.022068	1.692446	0	10.55	4003	61	-124	-14	29	1.341227	1.811604	5	20	0.022	1600
318152	-619	-1136	839	2.31781	-2.118922	1.270886	0	10.55	4003	-12	11	11	32	1.270891	1.798073	5	20	0.022	1600
318218	-150	-1275	-478	1.801189	-0.6642861	1.376156	0	10.49	4004	75	-69	-9	33	1.319885	1.790365	5	20	0.022	1600
318385	-200	-1956	-1420	1.605154	-3.521237	0.7023499	0	10.49	4004	64	-137	-6	24	1.345329	1.789611	5	20	0.022	1600
318519	-150	-369	1109	1.623759	-1.573989	0.8480803	0	10.49	4003	-43	159	21	26	1.356481	1.800706	5	20	0.022	1600
318635	-1	-1275	-174	0.783146	-1.410323	1.088273	0	10.49	4002	-46	-217	5	29	1.299178	1.807765	5	20	0.022	1600
318711	941	-897	-1280	0.373001	-0.5594581	1.246534	0	10.49	4004	-70	76	22	34	1.329828	1.804239	5	20	0.022	1600
318797	-1561	-64	-1494	-1.243038	-2.019403	0.7491459	0	10.49	4002	-8	-93	8	38	1.269497	1.794173	5	20	0.022	1600
318837	1062	-124	1041	-1.36752	-1.905602	0.7647712	0	10.49	4002	-100	62	25	52	1.205881	1.776362	5	20	0.022	1600
318938	358	-2054	-2	-0.6153606	0.3656509	1.170456	0	10.49	4003	32	19	-24	41	1.17876	1.762214	5	20	0.022	1600
319050	-652	114	882	-0.881806	0.8562875	0.7477002	0	10.49	4004	25	-83	23	41	1.158374	1.706676	5	20	0.022	1600
319172	655	1491	-237	0.2696122	0.2261954	1.38462	0	10.66	4004	40	-52	-26	49	1.148667	1.685131	5	20	0.022	1600
319287	-425	1326	-58	0.375504	-1.587306	1.517029	0	10.66	4004	32	-266	0	31	1.163867	1.677593	5	20	0.022	1600
319331	-863	1516	728	-0.4990333	-3.437719	1.390914	0	10.66	4002	-8	27	9	32	1.166124	1.680876	5	20	0.022	1600
319521	1190	1822	-955	1.141923	-6.066325	1.236627	0	10.66	4004	-138	109	16	26	1.159413	1.701475	5	20	0.022	1600
319591	-474	2609	-569	0.6203459	-8.798088	1.201093	0	10.66	4004	62	-40	-6	24	1.183116	1.715438	5	20	0.022	1600
319710	-217	899	-1106	0.1517761	-12.28479	1.144457	0	10.66	4004	30	-129	-13	32	1.214463	1.719208	5	20	0.022	1600
319768	1237	576	-914	1.35944	-13.28146	1.523578	0	10.66	4004	-14	-207	-13	33	1.217415	1.714462	5	20	0.022	1600
319886	504	764	-404	1.377073	-13.98036	1.690727	0	10.66	4003	83	-160	-14	36	1.19215	1.710968	5	20	0.022	1600
319932	475	2950	1048	1.688282	-15.33047	1.422037	0	10.66	4002	-3	139	10	40	1.180843	1.709301	5	20	0.022	1600
320005	1154	-1347	-1237	2.158854	-15.48231	1.83595	0	10.94	4003	-3	139	10	40	1.154242	1.701034	5	20	0.022	1600
320173	-316	735	1241	0.6261212	-11.53868	1.518718	0	10.94	4003	-60	110	12	29	1.178126	1.701094	5	20	0.022	1600
320222	-2015	878	-359	-1.51593	-11.30662	1.115129	0	10.94	4002	62	142	8	26	1.211135	1.71257	5	20	0.022	1600
320352	-2014	495	-133	-3.922771	-11.79579	0.6555595	0	10.94	4003	-81	-193	14	28	1.241561	1.721616	5	20	0.022	1600
320447	-222	-1590	-1207	-3.618447	-9.761151	1.635558	0	10.94	4002	16	135	-14	31	1.124661	1.72865	5	20	0.022	1600
320515	-426	-1257	-352	-3.638299	-8.841167	1.594985	0	10.94	4002	19	-240	-17	34	1.124016	1.729989	5	20	0.022	1600
320609	-948	762	-575	-3.844573	-9.262359	1.192728	0	10.94	4003	35	-35	21	31	1.184773	1.734817	5	20	0.022	1600
320650	-332	-2664	931	-4.295014	-7.538877	0.7652504	0	10.94	4003	39	50	18	33	1.138935	1.729092	5	20	0.022	1600
320742	18	523	-1448	-4.579029	-4.629651	1.477798	0	10.94	4003	-27	-11	10	33	1.112834	1.724579	5	20	0.022	1600
320842	12	684	500	-4.224219	-5.27631	1.723494	0	10.94	4003	32	95	-7	30	1.153137	1.721822	5	20	0.022	1600
321026	-696	2598	1447	-1.728522	-3.489131	2.679212	0	11.06	4002	42	92	-14	35	1.238268	1.70842	5	20	0.022	1600
321033	-696	2598	1447	-1.728522	-3.489131	2.679212	0	11.06	4002	42	92	-14	35	1.238268	1.70842	5	20	0.022	1600
321193	1407	-2217	126	-2.39789	-5.992805	1.487597	0	11.06	4002	-147	-194	1	36	1.181049	1.693882	5	20	0.022	1600
321239	1247	-1169	1163	-0.5579125	-4.12257	1.339409	0	11.06	4003	-55	135	12	28	1.202442	1.697149	5	20	0.022	1600
321333	-400	-1952	71	-0.4060541	-2.059665	1.472701	0	11.06	4004	0	123	4	27	1.236137	1.71238	5	20	0.022	1600
321446	-315	1439	404	-0.6836939	-4.203582	1.702113	0	11.06	4003	-76	43	-3	31	1.239252	1.714556	5	20	0.022	1600
321541	-199	2896	404	-0.4034524	-6.109934	1.72541	0	11.06	4003	112	158	-7	0	1.241105	1.716583	3	20	0.022	1600
321707	57	-18	-554	-1.263867	-9.200418	0.7946715	0	11.06	4004	-33	-48	-3	0	1.248918	1.738126	3	20	0.022	1600
321789	1263	-5942	-242	-0.3678875	-4.424987	1.938112	0	11.06	4004	1	-108	-32	0	1.25132	1.742216	3	20	0.022	1600
321840	1200	-6378	-857	0.3694764	-0.720173	2.406542	0	11.06	4002	104	141	-30	0	1.251966	1.743152	3	20	0.022	1600
321970	963	-152	523	-0.1209117	7.343421	2.041695	0	11.06	4002	-18	41	-20	0	1.253966	1.75078	3	20	0.022	1600
322056	-780	1747	2465	-0.4843142	5.899398	1.188927	0	11.06	4004	16	299	35	0	1.255	1.771629	3	20	0.022	1600
322239	810	2238	700	-0.2028107	1.035814	0.0171867	0	11.06	4004	-19	-335	-3	0	1.256139	1.802524	3	20	0.022	1600
322259	810	2238	700	-0.2028107	1.035814	0.0171867	0	11.06	4004	62	-45	3	0	1.256451	1.832567	3	20	0.022	1600
322370	4355	3540	-484	5.614861	-6.859338	1.28417	0	11.06	4003	-37	-70	-14	0	1.256811	1.883851	3	20	0.022	1600
322433	1214	1255	-437	9.505595	-10.58315	1.070162	0	11.06	4004	53	207	9	0	1.256996	1.904377	3	20	0.022	1600
322544	629	938	707	8.578349	-11.24654	0.6788559	0	11.06	4003	-89	121	9	0	1.257208	1.951574	3	20	0.022	1600
322634	-1025	-689	-456	6.626317	-10.70281	1.34376	0	11.06	4003	-3	-221	-1	0	1.257364	1.998203	3	20	0.022	1600
322786	-1609	-1612	-923	0.5830343	-8.819842	0.7621894	0	10.89	4004	13	-206	7	0	1.257507	2.07264	3	20	0.022	1600
322890	-1030	-648	-303	-0.5845166	-8.472459	0.6725556	0	10.89	4002	70	-40	9	0	1.257581	2.143732	3	20	0.022	1600
322956	-1443	-2832	-601	-2.401409	-6.426625	1.096355	0	10.89	4002	-63	-125	-13	0	1.257619	2.180714	3	20	0.022	1600
323039	-2361	-3151	-558	-3.773199	-2.045775	1.639976	0	10.89	4003	-33	-15	-2	0	1.257663	2.222407	3	20	0.022	1600
323151	-786	-3311	-316	-6.931765	2.145473	1.632919	0	10.89	4004	-27	-133	-8	0	1.257704	2.294538	3	20	0.022	1600
323313	-983	-3156	614	-6.952446	6.482355	1.12812	0	10.89	4004	63	-25	8	0	1.25773	2.376874	3	20	0.022	1600
323380	208	-2074	877	-6.453182	8.390066	1.010088	0	10.89	4004	-25	28	14	0	1.25774	2.404823	3	20	0.022	1600
323523	437	-1057	129	-3.820282	7.378739	1.203512	0	10.89	4003	12	25	-2	0	1.257757	2.481332	3	20	0.022	1600
323579	301	-1613	-98	-3.585726	7.596879	1.203583	0	10.94	4003	25	-89	0	0	1.257761	2.50949	3	20	0.022	1600
323647	637	-776	-628	-3.043392	8.968768	1.216202	0	10.94	4004	19	-63	12	0	1.257765	2.529955	3	20	0.022	1600
323776	1560	1751	-537	-1.321698	6.035486	1.178999	0	10.94	4004	44	-135	4	0	1.257771	2.561525	3	20	0.022	1600
323880	1459	3703	162	0.8468577	0.09209173	1.479829	0	10.94	4003	-9	134	1	0	1.257774	2.56367	3	20	0.022	1600
323937	971	2116	913	1.080401	-1.198526	1.40758	0	10.94	4003	69	-126	-23	0	1.257774	2.558153	3	20	0.022	1600
324037	1744	3441	1233	2.068949	-4.517119	1.272006	0	10.94	4003	-104	243	39	0	1.257776	2.541857	3	20	0.022	1600
324217	878	-270	-803	5.503167	-7.4821	0.7876061	0	10.94	4003	-10	-40	13	0	1.257778	2.451017	3	20	0.022	1600
324325	2183	863	415	6.826002	-8.439203	0.9904989	0	10.94	4002	-134	237	16	0	1.257779	2.394586	3	20	0.022	1600
324344	1625	660	-640	7.4138	-8.69033	1.017066	0	10.94	4004	-134	237	16	0	1.257779	2.380871	3	20	0.022	1600
324459	577	2097	-1403	7.925611	-10.9172	1.675976	0	10.94	4002	4	-81	-24	0	1.25778	2.294677	3	20	0.022	1600
324546	-2058	-2946	-20	4.578461	-10.01742	2.583854	0	10.72	4003	68	-67	-33	0	1.25778	2.204771	3	20	0.022	1600
324687	-2319	-338	362	0.02467196	-4.121795	2.240396	0	10.72	4002	67	192	-15	0	1.257781	2.126636	3	20	0.022	1600
324764	-2514	773	1975	-3.210672	-4.585835	1.151562	0	10.72	4002	-5	-235	16	0	1.257781	2.07808	3	20	0.022	1600
324827	-447	-2499	-1200	-3.513261	-3.555286	1.127676	0	10.72	4002	-98	-257	11	0	1.257781	2.05083	3	20	0.022	1600
324934	-432	290	584	-3.123467	-2.003431	-0.2814607	0	10.72	4004	30	-32	28	0	1.257781	1.980752	3	20	0.022	1600
325066	1198	-251	-1608	-1.805721	-1.72075	-0.2809698	0	10.72	4003	-51	-13	44	0	1.257781	1.900235	3	20	0.022	1600
325146	423	-1024	-107	-1.179397	-2.847252	0.8389214	0	10.72	4003	0	91	18	0	1.257781	1.849471	3	20	0.022	1600
325239	-494	98	-184	-1.074657	-1.599275	1.776176	0	10.72	4004	34	30	-5	0	1.257781	1.82792	3	20	0.022	1600
325311	83	424	-341	-0.7891994	-2.265866	2.293243	0	10.72	4002	40	-90	-29	0	1.257781	1.800965	3	20	0.022	1600
325427	43	-206	-355	-0.1807461	-1.805404	2.413305	0	11	4003	9	-35	-31	0	1.257781	1.739715	3	20	0.022	1600
325488	422	530	508	-0.1786176	-1.829818	2.327407	0	11	4003	-43	76	-16	0	1.257781	1.712707	3	20	0.022	1600
325648	825	2386	692	1.307694	-7.418015	1.815671	0	11	4004	0	30	0	0	1.257781	1.641456	3	20	0.022	1600
325691	-10	2871	1019	1.137534	-8.25385	1.334081	0	11	4003	-25	52	8	0	1.257781	1.616435	3	20	0.022	1600
325820	249	-1835	-1414	1.840301	-9.252418	2.059822	0	11	4004	35	31	-32	0	1.257781	1.548145	3	20	0.022	1600
325889	249	-1835	-1414	1.840301	-9.252418	2.059822	0	11	4004	-6	182	-7	0	1.257781	1.499084	3	20	0.022	1600
326025	-1648	-3854	-582	-0.6383508	-2.465504	1.246072	0	11	4004	-3	-171	-8	0	1.257781	1.390996	3	20	0.022	1600
326111	-842	-946	-848	-2.79554	0.5809292	1.189075	0	11	4003	43	41	0	0	1.257781	1.31984	3	20	0.022	1600
326247	-752	-1212	-161	-3.443808	-0.6282465	0.9406571	0	11	4002	-30	-322	8	0	1.257781	1.221236	3	20	0.022	1600
326349	-65	-534	-1618	-4.92198	-1.263257	1.466236	0	10.6	4003	91	-215	-12	0	1.257781	1.161219	3	20	0.022	1600
326388	1044	-322	75	-4.250525	-1.220827	1.726846	0	10.6	4002	49	155	-11	0	1.257781	1.135077	3	20	0.022	1600
326545	-1934	718	1834	-3.214658	-1.225475	0.7456213	0	10.6	4004	9	70	40	0	1.257781	1.072229	3	20	0.022	1600
326633	-940	1384	633	-3.780796	-2.302097	-0.1592131	0	10.6	4004	1	48	44	0	1.257781	1.01958	3	20	0.022	1600
326688	-1032	165	-237	-3.325865	-1.629168	-0.1821711	0	10.6	4004	-100	-19	52	0	1.257781	0.9820394	3	20	0.022	1600
326792	-156	1459	-1274	-2.760389	-4.089794	0.096373	0	10.6	4003	122	-36	9	0	1.257781	0.9178321	3	20	0.022	1600
326923	-879	1779	124	-1.711799	-6.17907	1.672341	0	10.6	4004	121	-61	-5	0	1.257781	0.8689843	3	20	0.022	1600
327064	350	0	-21	-1.936695	-7.927865	2.064114	0	10.6	4002	-69	-127	-24	0	1.257781	0.8448008	3	20	0.022	1600
327114	597	765	282	-1.313197	-7.391321	2.045041	0	10.6	4003	-59	84	-15	0	1.257781	0.8352752	3	20	0.022	1600
327194	-323	-589	10	-1.351834	-7.289015	2.066009	0	10.6	4004	51	86	-12	0	1.257781	0.8278691	3	20	0.022	1600
327387	2230	83	-864	0.02328018	-12.37921	0.8395684	0	10.55	4003	-37	325	13	0	1.257781	0.8243868	3	20	0.022	1600
