time(ms)	gyro_x(deg/s)	gyro_y(deg/s)	gyro_z(deg/s)	orientation_roll(deg)	orientation_pitch(deg)	orientation_yaw(deg)	throttle	battery(V)	loop_time(uS)	pid_output_roll	pid_output_pitch	pid_output_yaw	pid_output_throttle	ultrasonic_alt	baro_alt	flight_mode	p_gain_altitude	i_gain_altitude	d_gain_altitude
31	12	1	0	0.2223676	-0.01853923	-0.2711957	0	12.59	4002	0	0	0	0	0.02	0.1660619	1	20	0.022	1600
224	21	6	-2	0.2189741	-0.01556801	-0.2683833	0	12.59	4004	0	0	0	0	0.02	0.1898451	1	20	0.022	1600
397	23	0	-5	0.2245757	-0.02277209	-0.2680775	0	12.59	4003	0	0	0	0	0.02	0.2147582	1	20	0.022	1600
508	15	0	-3	0.2245105	-0.02344551	-0.2670994	0	12.59	4003	0	0	0	0	0.02	0.2168474	1	20	0.022	1600
578	16	-1	-1	0.2221756	-0.02420403	-0.2665491	0	12.59	4002	0	0	0	0	0.02	0.2159835	1	20	0.022	1600
671	20	3	0	0.2195611	-0.02615651	-0.2674663	0	12.59	4004	0	0	0	0	0.02	0.2143507	1	20	0.022	1600
783	26	-2	1	0.2269911	-0.03051283	-0.2670381	0	12.53	4002	0	0	0	0	0.02	0.1945964	1	20	0.022	1600
835	17	7	-1	0.2258167	-0.03023442	-0.2655709	0	12.53	4002	0	0	0	0	0.02	0.192066	1	20	0.022	1600
1022	13	0	0	0.2197872	-0.02717627	-0.2638592	0	12.53	4004	0	0	0	0	0.02	0.17198	1	20	0.022	1600
1064	17	0	-3	0.2161562	-0.02507609	-0.2633089	0	12.53	4002	0	0	0	0	0.02	0.1554462	1	20	0.022	1600
1188	17	0	2	0.2186903	-0.02573333	-0.2611077	0	12.53	4004	0	0	0	0	0.02	0.1395001	1	20	0.022	1600
1323	25	-2	-3	0.2294367	-0.02555623	-0.2589065	0	12.53	4004	0	0	0	0	0.02	0.1283712	1	20	0.022	1600
1394	14	-1	0	0.2315099	-0.02610708	-0.2581116	0	12.53	4004	0	0	0	0	0.02	0.126643	1	20	0.022	1600
1468	27	-3	0	0.2330761	-0.02136347	-0.2559719	0	12.53	4003	0	0	0	0	0.02	0.1205658	1	20	0.022	1600
1556	17	0	0	0.2325487	-0.02124813	-0.255483	0	12.53	4004	0	0	0	0	0.02	0.1139583	1	20	0.022	1600
1685	14	1	1	0.2319964	-0.02582147	-0.2521813	0	12.53	4002	0	0	0	0	0.02	0.1181587	1	20	0.022	1600
1763	19	4	0	0.2264936	-0.02286476	-0.2512642	0	12.53	4004	0	0	0	0	0.02	0.1116107	1	20	0.022	1600
1876	15	4	-1	0.2332844	-0.02113806	-0.2484521	0	12.53	4002	0	0	0	0	0.02	0.1063242	1	20	0.022	1600
1947	29	3	0	0.2370531	-0.02098632	-0.2474739	0	12.53	4003	0	0	0	0	0.02	0.1079399	1	20	0.022	1600
2040	21	-2	0	0.2395436	-0.01988995	-0.2457009	0	12.53	4004	0	0	0	0	0.02	0.1042447	1	20	0.022	1600
2177	27	3	-6	0.2370663	-0.02075327	-0.2450895	0	12.53	4002	0	0	0	0	0.02	0.09835082	1	20	0.022	1600
2313	6	0	-1	0.2342074	-0.02214827	-0.242705	0	12.53	4004	0	0	0	0	0.02	0.1181164	1	20	0.022	1600
2407	21	0	-1	0.2319335	-0.02027163	-0.2401983	0	12.53	4003	0	0	0	0	0.02	0.1230471	1	20	0.022	1600
2458	18	-2	0	0.2267504	-0.01935181	-0.2381196	0	12.53	4004	0	0	0	0	0.02	0.1215419	1	20	0.022	1600
2573	23	2	-1	0.2290622	-0.01614571	-0.2358575	0	12.53	4004	0	0	0	0	0.02	0.1146433	1	20	0.022	1600
2715	17	-5	-2	0.2262727	-0.01697008	-0.2343291	0	12.53	4004	0	0	0	0	0.02	0.1198415	1	20	0.022	1600
2818	14	-3	0	0.2232231	-0.01694999	-0.2323729	0	12.53	4004	0	0	0	0	0.02	0.120223	1	20	0.022	1600
2850	26	0	-5	0.2240578	-0.01961553	-0.2324341	0	12.53	4002	0	0	0	0	0.02	0.1233016	1	20	0.022	1600
2927	17	0	1	0.224297	-0.02598381	-0.2326176	0	12.53	4004	0	0	0	0	0.02	0.1327119	1	20	0.022	1600
3056	10	0	-2	0.2218707	-0.02080201	-0.2318229	0	12.53	4004	0	0	0	0	0.02	0.1461193	1	20	0.022	1600
3148	22	1	-6	0.2197504	-0.02324885	-0.2296829	0	12.53	4003	0	0	0	0	0.02	0.1631671	1	20	0.022	1600
3276	18	1	1	0.2208382	-0.02691929	-0.2290714	0	12.53	4003	0	0	0	0	0.02	0.1730645	1	20	0.022	1600
3374	22	-3	-9	0.2246034	-0.02530739	-0.2261978	0	12.53	4003	0	0	0	0	0.02	0.1810706	1	20	0.022	1600
3444	20	-3	-4	0.2297684	-0.02611922	-0.2254639	0	12.53	4002	0	0	0	0	0.02	0.1827757	1	20	0.022	1600
3550	27	3	-1	0.2348553	-0.02880686	-0.2246692	0	12.48	4003	0	0	0	0	0.02	0.1814025	1	20	0.022	1600
3652	28	-4	0	0.2352693	-0.03455476	-0.2232015	0	12.48	4004	0	0	0	0	0.02	0.1839487	1	20	0.022	1600
3824	22	-3	2	0.2453433	-0.03541435	-0.219289	0	12.48	4002	0	0	0	0	0.02	0.194129	3	20	0.022	1600
3869	19	0	0	0.2470501	-0.03191509	-0.2205729	0	12.48	4002	0	0	0	0	0.02	0.2042348	3	20	0.022	1600
4008	20	3	3	0.2521345	-0.02439564	-0.2181273	0	12.48	4004	0	0	0	0	0.02	0.2075509	3	20	0.022	1600
4063	27	-1	5	0.2578417	-0.02662486	-0.2184939	0	12.48	4002	0	0	0	0	0.02	0.210399	3	20	0.022	1600
4209	26	3	0	0.2566586	-0.02766998	-0.2172104	0	12.48	4002	0	0	0	0	0.02	0.2340308	3	20	0.022	1600
4297	20	-5	-6	0.2580809	-0.02492563	-0.2158654	0	12.48	4003	0	0	0	0	0.02	0.247494	3	20	0.022	1600
4395	25	-1	4	0.2629959	-0.02366093	-0.2174547	0	12.48	4003	-1	0	0	0	0.02	0.255038	3	20	0.022	1600
4496	21	8	-59	0.2629775	-0.03014462	-0.2174565	0	12.53	4003	0	0	0	0	0.02	0.2630019	3	20	0.022	1600
4582	17	-6	9	0.2690302	-0.03321857	-0.2216164	0	12.53	4004	0	0	0	0	0.02	0.2643446	3	20	0.022	1600
4685	22	3	-7	0.2722812	-0.03669699	-0.2202089	0	12.53	4004	0	0	0	0	0.02	0.2549509	3	20	0.022	1600
4776	21	-9	-14	0.2782145	-0.04679718	-0.2213697	0	12.53	4003	0	0	0	0	0.02	0.2445109	3	20	0.022	1600
4850	30	0	24	0.2837473	-0.04467689	-0.222834	0	12.53	4004	0	0	0	0	0.02	0.2439548	3	20	0.022	1600
5032	33	-1	10	0.2769138	-0.04287828	-0.219533	0	12.53	4003	-2	4	0	0	0.02	0.2491591	3	20	0.022	1600
5145	12	6	10	0.281426	-0.05852264	-0.2221597	0	12.53	4003	-3	-1	0	0	0.02	0.2354986	3	20	0.022	1600
5176	6	-12	-30	0.2814143	-0.03569711	-0.2231363	0	12.53	4004	-2	3	0	0	0.02	0.2334033	3	20	0.022	1600
5312	-15	13	-87	0.2689722	-0.04938361	-0.2233787	0	12.53	4004	-10	0	1	0	0.02	0.232211	3	20	0.022	1600
5402	112	-41	89	0.3094449	-0.0533994	-0.2337683	0	12.65	4003	9	0	0	0	0.02	0.2303537	3	20	0.022	1600
5496	88	-40	28	0.2966064	-0.03555581	-0.225105	0	12.65	4002	1	6	0	0	0.02	0.2243681	3	20	0.022	1600
5591	64	-18	-130	0.2741517	-0.03858951	-0.2154419	0	12.65	4003	-1	4	-1	0	0.02	0.2192604	3	20	0.022	1600
5650	-1	88	-189	0.2448827	-0.03240671	-0.2198438	0	12.65	4003	-14	28	1	0	0.02	0.2178242	3	20	0.022	1600
5774	15	-13	-153	0.3059374	-0.04179825	-0.2210271	0	12.65	4003	0	0	0	0	0.02	0.2206687	3	20	0.022	1600
5950	38	27	27	0.2970288	-0.04436558	-0.2310003	0	12.65	4003	-8	5	0	0	0.02	0.2260217	3	20	0.022	1600
6000	29	51	-26	0.3033502	-0.04873161	-0.2339415	0	12.65	4003	-1	-13	0	0	0.02	0.2279075	3	20	0.022	1600
6080	41	-17	-18	0.311799	-0.0644366	-0.239688	0	12.65	4003	3	-4	0	0	0.02	0.2255672	3	20	0.022	1600
6166	31	3	-50	0.3111827	-0.0325672	-0.2310646	0	12.65	4003	-3	-4	0	0	0.02	0.2273229	3	20	0.022	1600
6247	14	12	-34	0.304629	-0.04597636	-0.225803	0	12.48	4007	-10	5	0	0	0.02	0.2338008	3	20	0.022	1600
6348	126	71	107	0.2809148	-0.04570342	-0.233252	0	12.48	4004	-25	26	-1	0	0.02	0.2380357	3	20	0.022	1600
6478	-232	-132	41	0.2780009	-0.05200817	-0.2310309	0	12.48	4002	-17	-21	2	0	0.02	0.2505099	3	20	0.022	1600
6563	-153	-38	44	0.2684298	-0.08348458	-0.2237596	0	12.48	4002	0	0	0	0	0.02	0.2721788	3	20	0.022	1600
6646	138	18	-2	0.2735725	-0.05275517	-0.2154435	0	12.48	4004	0	0	0	0	0.02	0.2907219	3	20	0.022	1600
6838	29	13	-68	0.2798135	-0.04822769	-0.2071437	0	12.48	4002	0	0	0	0	0.02	0.3136551	3	20	0.022	1600
6890	29	-17	-107	0.2693055	-0.04157633	-0.2218819	0	12.48	4004	0	0	0	0	0.02	0.3158931	3	20	0.022	1600
6971	-6	6	46	0.2568746	-0.0494236	-0.2277511	0	12.48	4004	0	0	0	0	0.02	0.3122955	3	20	0.022	1600
7054	14	-17	42	0.2553009	-0.04076582	-0.2278081	0	12.48	4004	0	-4	0	0	0.02	0.3046126	3	20	0.022	1600
7204	79	70	-132	0.2742213	-0.04305606	-0.2215718	0	12.42	4004	-3	-4	0	0	0.02	0.2909524	3	20	0.022	1600
7246	35	-9	-34	0.2820224	-0.06602759	-0.2270151	0	12.42	4003	12	-3	0	0	0.02	0.2909524	3	20	0.022	1600
7414	-34	-92	124	0.2619962	-0.06272101	-0.2463313	0	12.42	4004	19	-16	2	0	0.02	0.278791	3	20	0.022	1600
7486	91	57	-23	0.2872715	-0.05229916	-0.2421136	0	12.42	4003	5	0	0	0	0.02	0.2718787	3	20	0.022	1600
7575	-149	-1	-145	0.2779536	-0.07093478	-0.2411316	0	12.42	4004	45	-8	0	0	0.02	0.2616167	3	20	0.022	1600
7640	153	-115	165	0.3223881	-0.04192233	-0.2581915	0	12.42	4002	-64	-4	0	0	0.02	0.2545423	3	20	0.022	1600
7763	261	-95	80	0.3391573	-0.02557571	-0.2603328	0	12.42	4003	-51	-19	2	0	0.02	0.2552726	3	20	0.022	1600
7883	14	23	50	0.2792989	-0.01882576	-0.2620516	0	12.42	4002	40	-19	0	0	0.02	0.2609885	3	20	0.022	1600
7955	163	-36	9	0.3270102	-0.01748621	-0.2638799	0	12.42	4003	-15	-15	0	0	0.02	0.2628182	3	20	0.022	1600
8033	-74	69	40	0.3033887	-0.02049198	-0.2650338	0	12.42	4003	12	-24	1	0	0.02	0.2663208	3	20	0.022	1600
8145	-130	-78	-30	0.3593838	-0.02107409	-0.2788476	0	12.42	4004	18	2	1	0	0.02	0.2720739	3	20	0.022	1600
8315	195	207	-34	0.4341674	-0.03441668	-0.280856	0	12.42	4003	15	25	2	0	0.02	0.2755126	3	20	0.022	1600
8362	-84	-115	81	0.4252247	-0.004639323	-0.2923498	0	12.42	4003	13	-27	5	0	0.02	0.2685558	3	20	0.022	1600
8429	-21	-25	29	0.5257587	-0.02363881	-0.2987714	0	12.42	4003	-8	23	0	0	0.02	0.268857	3	20	0.022	1600
8601	206	-111	-63	0.536386	-0.1695158	-0.3121597	0	12.42	4004	11	-30	5	0	0.02	0.2753631	3	20	0.022	1600
8730	56	-23	256	0.4536791	-0.1844503	-0.3276386	0	12.42	4004	20	0	0	0	0.02	0.263846	3	20	0.022	1600
8781	47	12	-215	0.412728	-0.1310376	-0.3145657	0	12.42	4004	-6	-44	3	0	0.02	0.2638766	3	20	0.022	1600
8881	-57	-62	-61	0.3452004	-0.1939618	-0.3178128	0	12.42	4002	-33	17	1	0	0.02	0.2734737	3	20	0.022	1600
8926	80	122	-186	0.3679377	-0.260614	-0.3126838	0	12.42	4004	-12	9	6	0	0.02	0.2766321	3	20	0.022	1600
9057	147	116	92	0.3861165	-0.2585445	-0.357303	0	12.48	4004	26	-5	10	0	0.02	0.3004329	3	20	0.022	1600
9132	230	198	-351	0.5113364	-0.2045604	-0.3149446	0	12.48	4003	26	-6	13	0	0.02	0.3050938	3	20	0.022	1600
9264	173	-552	99	0.509061	-0.1638572	-0.529321	0	12.48	4002	-10	-45	11	0	0.02	0.3070079	3	20	0.022	1600
9326	205	-1668	311	0.5952615	0.9953893	-0.3238223	0	12.48	4003	-66	-59	-1	0	0.02	0.3107044	3	20	0.022	1600
9469	-595	3279	431	1.979885	0.3015361	0.4717987	0	12.48	4004	80	-46	-17	0	0.02	0.328038	3	20	0.022	1600
9524	-1756	599	-229	0.5062896	-2.967557	0.2749869	0	12.48	4002	80	-46	-17	0	0.02	0.339237	3	20	0.022	1600
9710	-654	3470	942	-1.141261	-7.854389	-0.9101172	0	12.48	4003	74	97	19	0	0.02	0.369682	3	20	0.022	1600
9761	483	3368	600	-1.074026	-9.252692	-1.138266	0	12.48	4003	-35	32	35	0	0.02	0.3860121	3	20	0.022	1600
9844	1595	1415	-22	-0.5573195	-11.30881	-0.9190873	0	12.48	4003	-90	53	28	0	0.02	0.4001424	3	20	0.022	1600
10001	-734	1613	-636	0.5679351	-14.70164	0.2010538	0	12.14	4004	-63	117	-15	0	0.02	0.43584	3	20	0.022	1600
10067	651	-538	183	0.5035497	-14.19386	0.7287198	0	12.14	4004	36	-28	-22	0	0.02	0.4481671	3	20	0.022	1600
10152	1851	730	-465	3.252457	-14.35206	0.9557689	0	12.14	4004	20	-142	-46	0	0.02	0.459343	3	20	0.022	1600
10244	-776	-474	274	3.802519	-14.63551	0.7385488	0	12.14	4002	37	-67	-16	0	0.02	0.4820826	3	20	0.022	1600
10361	1718	-695	697	2.794232	-6.925725	0.3023526	0	12.14	4004	-151	164	5	0	0.02	0.5096234	3	20	0.022	1600
10443	-1110	608	-313	3.864997	-8.320527	0.1568663	0	12.14	4003	83	-63	-16	0	0.02	0.5421439	3	20	0.022	1600
10557	1550	-2154	-125	3.240646	-6.56588	0.4135328	0	12.14	4002	-40	95	-22	0	0.02	0.6017108	3	20	0.022	1600
10682	-563	-332	150	6.373394	-3.186634	1.201355	0	12.14	4003	-50	60	-34	0	0.02	0.6945112	3	20	0.022	1600
10796	-1104	-1866	371	4.333608	-2.149315	1.110934	0	12.14	4004	-77	71	-30	0	0.02	0.7303133	3	20	0.022	1600
10895	-78	1745	1892	2.579941	-2.161243	0.6350368	0	11.74	4004	-83	261	2	0	0.02	0.7587924	3	20	0.022	1600
10948	1296	1420	-35	3.127308	-4.308183	-0.06433749	0	11.74	4003	-83	261	2	0	0.02	0.783236	3	20	0.022	1600
11045	-2221	-680	-175	2.770857	-5.03554	-0.7346449	0	11.74	4003	15	-185	3	0	0.02	0.8087819	3	20	0.022	1600
11223	-29	-1263	502	0.8644226	-2.152458	-0.4101239	0	11.74	4002	-36	139	0	0	0.02	0.8618287	3	20	0.022	1600
11328	2868	-471	-1402	5.471831	-3.032196	-0.1128372	0	11.74	4004	-38	-239	-20	0	0.02	0.865496	3	20	0.022	1600
11436	190	-396	-259	8.438032	-4.720263	-0.2613197	0	11.74	4004	83	-179	5	0	0.02	0.8545356	3	20	0.022	1600
11526	240	203	688	7.608639	-5.722516	-0.7055728	0	11.74	4002	-38	73	8	0	0.02	0.843415	3	20	0.022	1600
11629	-78	-420	787	7.616693	-4.883317	-0.5655252	0	11.74	4003	-101	23	16	0	0.02	0.827594	3	20	0.022	1600
11732	-1619	-2314	-1400	4.602843	-3.941122	-0.4042109	0	11.74	4003	29	93	0	0	0.02	0.821277	3	20	0.022	1600
11856	-988	-1736	-1534	3.002359	-3.42611	-0.1442076	0	12.14	4003	83	202	3	0	0.02	0.8116772	3	20	0.022	1600
11995	-613	1269	1246	1.219943	-2.663431	-0.1852868	0	12.14	4003	-36	-11	11	0	0.02	0.7810969	3	20	0.022	1600
12052	146	-367	-1187	0.675046	-2.824635	-0.1383874	0	12.14	4003	-12	-204	-21	0	0.02	0.77446	3	20	0.022	1600
12193	2230	667	472	3.590995	-5.047607	-0.270887	0	12.14	4002	-87	-126	1	0	0.02	0.758803	3	20	0.022	1600
12245	729	1679	74	7.58816	-9.239501	-0.4171915	0	12.14	4004	-93	238	14	0	0.02	0.7524648	3	20	0.022	1600
12360	1359	3845	421	8.350468	-11.9557	0.07913766	0	12.14	4004	-82	254	-2	0	0.02	0.7297868	3	20	0.022	1600
12495	-393	3271	79	6.47815	-16.79253	0.1742291	0	12.14	4004	-133	36	-13	0	0.02	0.690739	3	20	0.022	1600
12585	-801	-3707	-381	5.293131	-13.62497	0.8291014	0	12.14	4005	83	-32	-27	0	0.02	0.6764605	3	20	0.022	1600
12666	-182	1289	1445	4.310637	-9.917924	0.7322372	0	11.29	4004	116	-91	-27	0	0.02	0.6629996	3	20	0.022	1600
12825	-1316	-103	-97	-0.3028514	-8.828092	-1.440332	0	11.29	4003	34	278	50	0	0.02	0.6246262	3	20	0.022	1600
12869	-1316	-103	-97	-0.3028514	-8.828092	-1.440332	0	11.29	4003	-89	143	62	0	0.02	0.6191368	3	20	0.022	1600
13009	-167	-2411	-2357	-1.472441	-7.329386	-0.7585136	0	11.29	4004	40	-159	-19	0	0.02	0.6126992	3	20	0.022	1600
13105	-381	-2686	-651	-1.155982	-5.279037	0.1555394	0	11.29	4004	-63	6	-17	0	0.02	0.6067765	3	20	0.022	1600
13186	-343	1543	1379	-0.7495152	-3.388891	0.8279828	0	11.29	4003	-99	279	-16	0	0.02	0.6027611	3	20	0.022	1600
13282	2191	1766	-679	0.951485	-5.136314	1.148544	0	11.29	4002	12	52	-26	0	0.02	0.5886565	3	20	0.022	1600
13391	804	1532	209	3.895653	-8.21384	0.8401994	0	11.29	4004	25	10	-23	0	0.02	0.5808879	3	20	0.022	1600
13476	-966	-623	456	3.823335	-9.36486	0.4949633	0	11.29	4004	36	5	-8	0	0.02	0.6044712	3	20	0.022	1600
13649	-1241	2480	221	5.278409	-11.83545	0.117889	0	11	4003	-97	68	-6	0	0.02	0.6391893	3	20	0.022	1600
13732	349	1527	-98	5.047316	-13.18634	0.07087143	0	11	4003	-13	-40	-8	0	0.02	0.6546193	3	20	0.022	1600
13767	349	1527	-98	5.047316	-13.18634	0.07087143	0	11	4003	7	-70	26	0	0.02	0.6649619	3	20	0.022	1600
14024	-1112	660	459	4.674378	-11.22102	-1.112837	0	11	4004	121	92	6	0	0.02	0.6587505	3	20	0.022	1600
14112	-563	-383	-941	1.573239	-12.06535	0.09632311	0	11	4004	30	-42	-17	0	0.02	0.6237617	3	20	0.022	1600
14224	67	-1803	-591	1.506128	-11.19888	0.573226	0	11	4003	-4	-337	-28	0	0.02	0.5898663	3	20	0.022	1600
14294	540	-193	-2179	3.624512	-11.25705	1.283268	0	11	4003	-55	289	-24	0	0.02	0.5531017	3	20	0.022	1600
14392	884	2782	1140	5.193748	-13.22944	1.134545	0	11	4003	-131	252	-21	0	0.02	0.5381435	3	20	0.022	1600
14474	1409	1392	722	5.907442	-14.15628	0.5535107	0	13.04	4003	-70	112	-15	0	0.02	0.5373061	3	20	0.022	1600
14572	-1679	-2913	-714	5.267515	-11.36364	0.1405171	0	13.04	4004	121	-148	-23	0	0.02	0.5422482	3	20	0.022	1600
14664	-340	-1158	-559	4.341304	-8.627181	1.124105	0	13.04	4003	-108	176	-27	0	0.02	0.5730386	3	20	0.022	1600
14731	-1424	-2090	-271	3.881244	-6.944642	1.254011	0	13.04	4004	74	-48	-49	0	0.02	0.5867123	3	20	0.022	1600
14831	-1505	-1842	-1172	3.226862	-6.289592	1.151519	0	13.04	4003	52	-185	-25	0	0.02	0.6158359	3	20	0.022	1600
14937	1050	1349	726	1.826397	-6.278667	-0.09274856	0	13.04	4003	-58	-22	0	0	0.02	0.6516181	3	20	0.022	1600
15041	-345	1195	1455	1.961945	-7.944721	-0.5199174	0	13.04	4003	-6	-114	-6	0	0.02	0.6781491	3	20	0.022	1600
15180	1217	440	246	1.827938	-6.746608	-0.2818393	0	13.04	4003	-73	42	11	0	0.02	0.7274529	3	20	0.022	1600
15280	-643	-3557	-1245	1.90032	-6.716579	-0.02882565	0	13.04	4003	-43	75	-6	0	0.02	0.7463455	3	20	0.022	1600
15396	909	-1382	-487	1.346057	-4.112101	0.4103445	0	13.04	4004	-57	221	-2	0	0.02	0.7662019	3	20	0.022	1600
15521	-9973	651	462	-4.075371	-6.246933	-0.6583694	0	11.23	4003	364	-19	15	1600	0.09160779	0.7999435	4	20	0.022	1600
15583	-3842	621	414	-13.70922	-6.229793	-1.009546	0	11.23	4004	253	117	21	-76	0.2140571	0.8094031	4	20	0.022	1600
15744	4467	-82	-748	-1.302419	-6.05999	-0.3899658	0	11.23	4003	-28	-173	-6	-37	0.3528321	0.823876	4	20	0.022	1600
15856	5894	-903	-270	8.819418	-7.007979	1.661439	0	11.23	4002	-7	-70	-51	-19	0.4287647	0.8467861	4	20	0.022	1600
15928	2472	-612	-533	12.00689	-6.066905	1.841476	0	11.23	4004	4	-12	-49	-12	0.4697538	0.8632999	4	20	0.022	1600
16033	-130	-798	692	11.76092	-4.88773	1.207899	0	11.23	4003	67	-142	-25	4	0.4979609	0.8694223	4	20	0.022	1600
16133	-67	310	632	9.659404	-5.555963	0.3605463	0	11.23	4003	-5	82	-8	28	0.4816644	0.8441231	4	20	0.022	1600
16290	-152	1084	1351	7.363862	-4.899787	-0.3380909	0	11.23	4004	-52	-20	25	46	0.4221041	0.8061975	4	20	0.022	1600
16340	-464	1083	1784	6.778064	-5.267395	-1.340644	0	11.74	4002	-13	-27	16	54	0.3763141	0.7791402	4	20	0.022	1600
16444	-1315	691	1013	2.80743	-4.635389	-2.175569	0	11.74	4002	9	-9	60	95	0.3194368	0.7468813	4	20	0.022	1600
16511	-476	-383	-164	1.657527	-4.253297	-1.754014	0	11.74	4002	-37	-70	39	86	0.306191	0.735097	4	20	0.022	1600
16724	19	-911	-2031	-1.725986	-1.905778	0.9062558	0	11.74	4002	-12	171	-21	34	0.2910001	0.6842903	4	20	0.022	1600
16743	19	-911	-2031	-1.725986	-1.905778	0.9062558	0	11.74	4002	-65	-179	-39	36	0.3005562	0.6774969	4	20	0.022	1600
16822	123	604	40	-0.8352718	-2.460269	0.8547838	0	11.74	4004	107	143	-30	9	0.3168971	0.6647412	4	20	0.022	1600
16980	3919	18	-396	3.135983	-4.840014	0.8719016	0	11.74	4004	54	-238	-30	-9	0.3862699	0.6651961	4	20	0.022	1600
17069	2473	-612	-516	7.76214	-5.080032	0.7441282	0	11.74	4004	8	-228	-30	-117	0.5173402	0.6927338	4	20	0.022	1600
17157	292	921	-406	9.459287	-6.804265	0.8841246	0	11.74	4004	62	-58	-15	-66	0.6101446	0.7103545	4	20	0.022	1600
17235	-1575	-730	-457	7.333834	-6.099797	0.7892154	0	12.08	4004	41	-54	-18	-63	0.742409	0.7239605	4	20	0.022	1600
17332	-66	347	856	5.196073	-5.862287	0.844543	0	12.08	4003	-19	-64	-27	-55	0.8193449	0.7359338	4	20	0.022	1600
17449	-3061	-31	80	0.9021608	-5.853688	0.1121943	0	12.08	4003	47	0	-13	-43	0.9405994	0.748373	4	20	0.022	1600
17524	279	3186	-718	0.03148973	-8.622563	0.2188295	0	12.08	4003	-3	104	-13	-27	0.9943939	0.7502392	4	20	0.022	1600
17632	1620	3144	-651	2.119087	-14.76599	0.842537	0	12.08	4003	-113	-2	-36	1	0.9940121	0.7330914	4	20	0.022	1600
17766	836	2304	112	1.76397	-15.59987	0.9486639	0	12.08	4003	-63	172	-34	7	0.8899059	0.7195223	4	20	0.022	1600
17830	-1330	11	-593	2.33131	-16.02004	0.8918782	0	12.08	4003	60	36	-36	31	0.8787547	0.7142713	4	20	0.022	1600
17934	-1161	250	250	1.332895	-15.24641	-0.08235226	0	12.08	4003	125	57	4	33	0.8432435	0.7087404	4	20	0.022	1600
18029	5	-1616	-402	-0.6392578	-15.05383	-0.6661691	0	12.08	4003	-33	17	30	40	0.7635537	0.6995819	4	20	0.022	1600
18127	574	-1502	-25	-0.7573597	-8.516356	-0.8227181	0	12.08	4004	-72	94	17	38	0.7017533	0.6835385	4	20	0.022	1600
18303	-1388	-655	-902	-1.033964	-4.11307	0.3321185	0	10.09	4003	3	-21	-10	47	0.6447341	0.6747465	4	20	0.022	1600
18417	-511	575	877	-0.5965948	-3.163456	0.6448931	0	10.09	4003	-46	-31	-12	29	0.6102457	0.6714219	4	20	0.022	1600
18453	1059	1434	441	-0.2198958	-3.777369	0.3468737	0	10.09	4004	70	57	-18	27	0.5978304	0.6731541	4	20	0.022	1600
18574	662	-821	-408	0.4206154	-4.500719	-0.03836594	0	10.09	4002	-26	-84	-7	11	0.5985988	0.6800104	4	20	0.022	1600
18646	-237	-1125	-478	0.6985806	-3.965721	-0.09834707	0	10.09	4002	-34	-201	-6	-19	0.6195426	0.6919278	4	20	0.022	1600
18737	963	-269	-757	1.80117	-4.228666	0.007856041	0	10.09	4002	23	-192	-10	-16	0.6641371	0.7004162	4	20	0.022	1600
18835	-561	1836	-61	3.003283	-6.329677	-0.1240846	0	10.09	4004	82	-184	-13	-31	0.7329911	0.7118567	4	20	0.022	1600
18922	-714	-856	-410	0.5458249	-7.618302	0.07497532	0	10.09	4002	43	-7	-32	-46	0.7703987	0.7267441	4	20	0.022	1600
19058	845	-441	-337	1.75762	-8.418208	0.8246983	0	11.74	4003	52	-191	-31	-26	0.8884497	0.7733487	4	20	0.022	1600
19127	795	-1519	70	1.874249	-6.980108	1.502316	0	11.74	4002	-43	-49	-42	-46	0.9437639	0.7931456	4	20	0.022	1600
19244	-833	-2408	-413	1.325528	-3.463865	1.282686	0	11.74	4003	0	-144	-36	-4	0.9565451	0.8463636	4	20	0.022	1600
19331	-389	-370	180	1.302083	-3.007231	0.6184618	0	11.74	4004	-30	-93	-12	-28	0.9955801	0.8909864	4	20	0.022	1600
19477	-730	-1648	-1212	2.627477	-2.781974	-0.07046938	0	11.74	4003	29	-170	-9	-24	1.061803	0.9559713	4	20	0.022	1600
19614	-159	228	-676	3.072179	-7.956079	0.6846675	0	11.74	4003	15	31	-28	0	1.056661	0.9890568	4	20	0.022	1600
19647	-410	-830	-775	3.004252	-8.089067	1.016662	0	11.74	4003	-7	-17	-41	0	1.056571	0.9938451	4	20	0.022	1600
19769	-1149	11	697	1.608081	-6.346099	1.376857	0	11.74	4003	-49	64	-22	27	1.024559	0.9926756	4	20	0.022	1600
19831	-1118	617	18	0.3478094	-6.669449	0.6965328	0	11.74	4004	46	-13	-31	4	1.020385	0.9833449	4	20	0.022	1600
19924	141	-1461	-334	0.8148889	-6.417315	-0.0596557	0	11.74	4004	87	-263	-18	46	0.9890827	0.9760768	4	20	0.022	1600
20065	-199	1056	566	-0.4192969	-4.916031	0.01684346	0	11.63	4002	19	-80	-16	15	0.9265164	0.9638547	4	20	0.022	1600
20143	-246	236	-878	-0.828565	-5.976537	-0.07580073	0	11.63	4003	-46	-3	-2	24	0.9066908	0.9547094	4	20	0.022	1600
20230	372	1017	839	-0.5915962	-7.044231	0.002131451	0	11.63	4002	-46	71	2	13	0.872184	0.9202253	4	20	0.022	1600
20419	614	-865	-96	1.633904	-8.683981	-0.1721379	0	11.63	4002	-140	-39	14	32	0.8321747	0.8832628	4	20	0.022	1600
20462	-1166	1121	-187	1.083474	-8.802687	-0.3205078	0	11.63	4003	-46	-94	-2	12	0.827367	0.8795209	4	20	0.022	1600
20555	-1166	1121	-187	1.083474	-8.802687	-0.3205078	0	11.63	4003	-4	96	5	12	0.8141319	0.8745825	4	20	0.022	1600
20689	229	351	-456	2.500292	-8.932588	2.969657	0	11.63	4004	-107	48	-76	0	0.8150796	0.881072	4	20	0.022	1600
20742	-985	-120	818	2.307072	-8.858393	2.796813	0	11.63	4004	7	234	-70	22	0.8056087	0.8890852	4	20	0.022	1600
20815	-951	843	104	0.9292551	-9.369299	2.160981	0	11.63	4002	100	-251	-55	20	0.8015711	0.8929563	4	20	0.022	1600
20919	1199	784	1272	1.088506	-10.03252	1.401397	0	11.29	4004	92	14	-26	3	0.8047369	0.9125401	4	20	0.022	1600
21025	-262	-235	1715	1.825918	-6.836586	-0.386788	0	11.29	4004	148	339	23	-5	0.741408	0.9210426	4	20	0.022	1600
21173	302	-3122	-813	3.142293	-3.419513	-0.8080804	0	11.29	4004	20	-241	2	-20	0.819023	0.9427652	4	20	0.022	1600
21233	-117	146	13	3.389771	-2.478689	-0.2502826	0	11.29	4002	85	-247	-21	-14	0.819023	0.9427652	4	20	0.022	1600
21419	624	-938	-973	2.75393	-5.659641	1.53798	0	11.29	4004	0	16	-54	-29	0.9340661	1.002729	4	20	0.022	1600
21474	607	-70	254	3.64934	-5.010429	1.135055	0	11.29	4003	-35	43	-38	-45	0.8559641	1.032208	4	20	0.022	1600
21597	-1022	836	274	3.672945	-7.42226	-0.2038789	0	11.29	4002	74	-106	13	-47	0.9434054	1.053341	4	20	0.022	1600
21648	-1062	-2244	-394	2.818732	-6.774821	-0.4668543	0	11.29	4003	126	-95	3	-42	0.9674342	1.053789	4	20	0.022	1600
21767	-286	-47	-376	3.023449	-4.617277	0.8151285	0	11.29	4003	44	198	-34	-34	1.044158	1.056336	4	20	0.022	1600
21874	569	-837	-134	3.297701	-4.616377	1.527116	0	11.23	4003	-38	-44	-48	-8	1.077356	1.062888	4	20	0.022	1600
21906	91	-999	315	3.352161	-4.01116	1.514593	0	11.23	4002	-33	22	-40	16	1.068164	1.064951	4	20	0.022	1600
22012	-819	693	170	2.048816	-3.572939	1.072512	0	11.23	4004	92	149	-32	308	0.9593543	1.063894	4	20	0.022	1600
22112	-1144	2589	798	1.156623	-8.14473	-0.05197211	0	11.23	4002	-6	38	12	-5	0.9686768	1.052119	4	20	0.022	1600
22273	1623	709	518	-0.03220263	-8.652113	-0.2421892	0	11.23	4003	-55	223	3	-31	0.9932107	1.004764	4	20	0.022	1600
22319	989	-207	283	1.516745	-8.596051	0.06667143	0	11.23	4004	-63	-276	-19	-14	1.001592	0.9984363	4	20	0.022	1600
22473	-1283	-2805	-889	0.5789534	-5.659369	-0.04829716	0	11.23	4008	-114	-181	7	-26	0.9143307	0.9778363	4	20	0.022	1600
22525	-625	-986	-608	-0.1998479	-3.778725	-0.113943	0	11.23	4003	-7	-103	-12	-19	0.9596279	0.9609821	4	20	0.022	1600
22627	1303	-651	450	-0.2250902	-3.58141	-0.1781245	0	11.23	4002	-101	153	-5	-55	1.005068	0.9512499	4	20	0.022	1600
22756	-1533	-1603	-2597	-1.263851	-1.186504	5.544904	0	10.6	4002	50	-64	-164	7	1.024515	0.9571754	5	20	0.022	1600
22845	-842	-63	3774	-3.694471	0.06480771	4.408205	0	10.6	4004	-155	56	-41	9	1.045895	0.9630477	5	20	0.022	1600
22940	2055	2618	4011	-0.8911881	-2.446595	-0.6034479	0	10.6	4003	107	238	42	10	1.079955	0.9696759	5	20	0.022	1600
23032	504	-1269	608	-0.1927872	-2.94911	-1.634891	0	10.6	4002	-66	-286	71	11	1.073011	0.9707192	5	20	0.022	1600
23139	1746	3751	-48	5.119766	-6.127895	-1.625993	0	10.6	4002	6	87	29	2	1.067073	0.9810467	5	20	0.022	1600
23283	2124	2381	-49	6.603259	-11.41692	0.05892573	0	10.6	4004	89	-93	-20	-1	1.067089	1.031837	5	20	0.022	1600
23360	1186	1014	-1468	6.86299	-12.08702	0.3450281	0	10.6	4002	146	-354	-19	-7	1.07923	1.042158	5	20	0.022	1600
23413	-658	2417	1061	5.336044	-13.07488	0.4349064	0	10.6	4004	-76	52	-6	-7	1.013161	1.095542	5	20	0.022	1600
23566	1102	2366	1632	6.057686	-16.37386	-0.3170036	0	10.6	4004	-50	107	7	-10	1.095061	1.157898	5	20	0.022	1600
23623	-2601	-2569	-1059	4.408447	-16.17806	-0.1799603	0	12.08	4002	149	267	2	-14	1.147604	1.21226	5	20	0.022	1600
23715	-572	-1932	-766	1.947528	-12.40441	0.1340375	0	12.08	4003	-66	105	-10	-32	1.146777	1.286416	5	20	0.022	1600
23814	728	-1892	-771	2.516819	-10.30386	0.6715667	0	12.08	4004	-102	57	-15	-16	1.130484	1.314483	5	20	0.022	1600
23954	289	1695	-401	2.010945	-12.22559	0.8211727	0	12.08	4002	55	-74	-36	-17	1.126695	1.395546	5	20	0.022	1600
24074	1239	528	-996	2.513283	-12.84892	0.6567027	0	12.08	4003	-56	144	-28	-17	1.165859	1.475366	5	20	0.022	1600
24169	-1858	-804	-812	1.262865	-13.52672	0.6434845	0	12.08	4003	97	-88	-30	-28	1.194347	1.54156	5	20	0.022	1600
24229	-804	-1031	85	0.2997042	-12.47974	0.4693988	0	12.08	4002	-44	-45	-6	-26	1.181652	1.597409	5	20	0.022	1600
24322	-1769	-1170	652	-0.8674776	-10.9464	0.1486247	0	12.08	4004	-140	173	7	-35	1.028116	1.671554	5	20	0.022	1600
24427	-2251	-2263	-826	-2.63995	-9.820948	0.1719161	0	12.08	4002	-130	105	-1	-370	1.005675	1.857747	5	20	0.022	1600
24589	-1586	376	952	-7.277799	-5.877693	0.3078688	0	11.4	4002	-2	186	-5	-32	1.172816	1.9476	5	20	0.022	1600
24665	-2822	641	327	-7.633771	-6.640124	-0.1060527	0	11.4	4002	55	104	-4	-32	1.176356	2.049432	5	20	0.022	1600
24760	1382	-1133	1426	-8.035625	-4.984187	0.1110693	0	11.4	4003	-63	183	8	-40	1.179194	2.084654	5	20	0.022	1600
24875	2716	141	-1496	-4.086967	-4.908504	-0.323883	0	11.4	4003	-76	225	12	-44	1.199076	2.209828	5	20	0.022	1600
24978	-923	-1457	-88	-1.951426	-5.858052	-0.09662612	0	11.4	4002	-28	23	-1	-66	1.232626	2.400867	5	20	0.022	1600
25019	-774	-1693	-554	-2.214345	-5.207977	0.1966474	0	11.4	4003	59	-73	-8	-37	1.259117	2.41389	5	20	0.022	1600
25093	671	-1330	-1171	-1.960832	-5.095932	0.7836221	0	11.4	4003	-14	-231	-35	-77	1.262014	2.47178	5	20	0.022	1600
25191	835	235	525	-1.268604	-7.547379	0.6751361	0	11.4	4002	-60	117	-19	-54	1.268118	2.554469	5	20	0.022	1600
25307	1034	-1419	-1279	-0.0185109	-6.759701	0.7885207	0	11.4	4003	-58	-225	-39	-54	1.286335	2.608419	5	20	0.022	1600
25393	3261	2714	933	2.505691	-8.310069	0.9871138	0	11.4	4003	-174	205	-26	-48	1.147571	2.652711	5	20	0.022	1600
25573	-723	-1276	187	6.280321	-10.30211	0.8683668	0	11.51	4002	-16	-78	-22	-54	1.132019	2.718834	5	20	0.022	1600
25648	-1191	-1127	241	4.809427	-9.140828	0.5188972	0	11.51	4003	110	-80	-17	-49	1.178919	2.73759	5	20	0.022	1600
25814	733	463	-338	3.094501	-6.837422	1.128678	0	11.51	4003	87	-95	-34	-51	1.27486	2.800938	5	20	0.022	1600
25882	-596	975	124	3.017632	-7.986098	1.113384	0	11.51	4002	-3	33	-37	-57	1.168681	2.820882	5	20	0.022	1600
25986	-265	-553	-174	2.443172	-7.703613	0.9589425	0	11.51	4003	-48	3	-22	-56	1.258916	2.840508	5	20	0.022	1600
26106	-928	-1080	-121	2.310425	-5.510603	0.1177547	0	11.51	4004	48	-136	-15	-87	1.251094	2.863282	5	20	0.022	1600
26198	1331	2626	755	2.161955	-6.37038	0.3755288	0	11.51	4003	-34	-107	-6	-84	1.19703	2.875298	5	20	0.022	1600
26290	-509	3167	426	2.100014	-9.468568	0.3630352	0	11.51	4002	-38	-1	-6	-35	1.194235	2.875318	5	20	0.022	1600
26457	-1211	-1102	75	0.2531349	-9.563935	0.4755929	0	11.23	4004	74	-201	-17	-28	1.22044	2.848135	5	20	0.022	1600
26539	1170	1629	-1648	0.3151504	-10.84676	0.2139142	0	11.23	4004	9	-209	-25	-24	1.21134	2.794056	5	20	0.022	1600
26579	1468	1646	384	0.8028704	-12.13086	0.05919909	0	11.23	4003	-15	-154	-2	-24	1.193574	2.771651	5	20	0.022	1600
26681	706	-494	-1412	2.082274	-13.11698	0.2996036	0	11.23	4003	68	-102	-22	-16	1.086639	2.730464	5	20	0.022	1600
26819	183	189	-1034	2.786915	-13.58543	0.2162313	0	11.23	4004	143	-211	-20	-23	1.147739	2.653119	5	20	0.022	1600
26896	434	1584	896	3.190327	-13.20254	-0.1285029	0	11.23	4004	4	-96	-22	-8	1.220269	2.563645	5	20	0.022	1600
27008	-2338	1223	299	4.795998	-14.64682	0.091221	0	11.23	4003	-42	103	-6	6	1.220174	2.477635	5	20	0.022	1600
27120	-1475	-1449	-1266	1.121311	-13.108	0.2226909	0	11.23	4003	-74	34	-5	11	1.257663	2.411882	5	20	0.022	1600
27201	704	1310	-658	1.509319	-13.55979	0.2767238	0	11.23	4002	38	-130	-15	11	1.28534	2.336601	5	20	0.022	1600
27313	-175	175	1270	2.12268	-13.34568	0.205325	0	11	4003	33	126	6	26	1.265925	2.224167	5	20	0.022	1600
27408	257	-947	1071	1.535881	-10.55385	-0.1368449	0	11	4003	-21	101	11	14	1.233425	2.165841	5	20	0.022	1600
27538	-290	197	552	-0.0127219	-7.271332	-0.9157529	0	11	4003	-18	147	16	12	1.158872	2.075829	5	20	0.022	1600
27590	-356	-1068	-572	-0.1710591	-6.750739	-0.9032033	0	11	4003	-18	147	16	12	1.031883	2.026253	5	20	0.022	1600
27693	-1281	-541	-426	-0.8731045	-5.854263	-0.7126708	0	11	4002	3	235	12	16	1.057273	1.976327	5	20	0.022	1600
27831	29	-414	-202	-3.963886	-5.620189	-0.3271811	0	11	4004	-50	-94	5	12	1.047723	1.870974	5	20	0.022	1600
27944	1303	-667	1037	-2.066829	-4.910246	-0.2077943	0	11	4004	-30	93	2	16	0.9572276	1.823267	5	20	0.022	1600
28036	-107	-834	853	-0.6450813	-2.840027	-0.1956096	0	11	4003	-27	-202	-13	11	0.9598534	1.778333	5	20	0.022	1600
28089	-1076	-603	-590	-1.006989	-2.735546	-0.3741474	0	11	4003	-39	-58	9	5	1.025518	1.759545	5	20	0.022	1600
28192	-680	622	433	-1.277977	-3.043092	-0.5697556	0	11	4002	30	-218	-10	-1	1.057475	1.747684	5	20	0.022	1600
28320	161	67	57	-0.5343251	-3.15851	-0.232401	0	11.8	4004	20	7	-8	-1	1.188923	1.721311	5	20	0.022	1600
28444	-477	-1874	-368	0.05982505	-1.036088	0.4713495	0	11.8	4003	137	-67	-29	-3	1.282317	1.708615	5	20	0.022	1600
28500	506	218	-154	0.03095199	-0.767537	0.506325	0	11.8	4003	14	58	-27	-4	1.309026	1.706084	5	20	0.022	1600
28640	493	1587	1411	-0.01629048	-2.25651	0.2521735	0	11.8	4002	-33	234	3	-4	1.276265	1.705679	5	20	0.022	1600
28702	-122	467	242	0.1865041	-3.742696	-0.04692415	0	11.8	4004	3	-12	-22	-9	1.191749	1.70502	5	20	0.022	1600
28804	-608	-1573	657	-0.5100941	-3.62875	-0.109572	0	11.8	4004	102	59	-26	-5	1.136278	1.706589	5	20	0.022	1600
28982	201	-271	-689	1.452363	-3.190376	0.9986803	0	11.8	4003	-3	44	-41	-12	1.166281	1.717812	5	20	0.022	1600
29002	-135	-2024	-1033	1.765351	-3.752005	0.9739956	0	11.8	4005	66	28	-36	-14	1.162054	1.726179	5	20	0.022	1600
29158	-2424	-527	1619	0.1805803	-3.131648	0.4265218	0	11.11	4004	151	-64	-25	-11	1.164351	1.744863	5	20	0.022	1600
29239	-1040	-2817	-488	-0.6841176	-2.483174	0.1836207	0	11.11	4002	-136	140	3	-11	1.045712	1.75553	5	20	0.022	1600
29294	219	-106	-123	-0.1608852	-2.478343	-0.05702673	0	11.11	4003	128	-133	-3	-18	1.040439	1.760821	5	20	0.022	1600
29475	-1229	-91	1278	-0.8509102	-1.616833	-0.8429978	0	11.11	4003	46	185	13	-11	1.020706	1.766673	5	20	0.022	1600
29600	-905	1867	1047	-0.6552286	-1.655145	-1.085065	0	11.11	4004	90	197	18	-11	1.094225	1.779239	5	20	0.022	1600
29734	1774	479	-943	-0.4919227	-3.865169	-0.3392841	0	11.11	4003	25	39	-14	-13	1.083793	1.799541	5	20	0.022	1600
29844	-198	194	-1483	-0.1126925	-4.823447	0.3185328	0	11.11	4003	-129	-127	-17	-24	1.115881	1.818134	5	20	0.022	1600
29902	-268	1208	-277	0.03033457	-6.246173	0.2882294	0	11.11	4002	63	-127	-15	-26	1.115881	1.818134	5	20	0.022	1600
29999	1710	-305	538	0.6706455	-5.490601	0.4634679	0	11.29	4002	-62	-130	-17	-23	1.045145	1.839917	5	20	0.022	1600
30100	-739	1140	-416	1.068482	-4.085266	0.8546886	0	11.29	4004	-62	43	-9	-28	1.139405	1.858353	5	20	0.022	1600
30201	134	2984	1582	0.9342105	-5.161092	0.5659154	0	11.29	4002	3	54	-11	-22	1.216835	1.878134	5	20	0.022	1600
30313	1005	872	853	1.209242	-6.825272	0.2587199	0	11.29	4003	-138	213	3	-29	1.08968	1.944047	5	20	0.022	1600
30395	962	2831	778	1.59508	-8.729377	0.2711964	0	11.29	4003	-100	1	-7	-36	1.115102	1.972811	5	20	0.022	1600
30523	449	-517	-146	0.709809	-7.145557	0.7293904	0	11.29	4003	-2	67	-21	-51	1.240045	2.060261	5	20	0.022	1600
