time(ms)	gyro_x(deg/s)	gyro_y(deg/s)	gyro_z(deg/s)	orientation_roll(deg)	orientation_pitch(deg)	orientation_yaw(deg)	throttle	battery(V)	loop_time(uS)	pid_output_roll	pid_output_pitch	pid_output_yaw	pid_output_throttle	ultrasonic_alt	baro_alt	flight_mode	p_gain_altitude	i_gain_altitude	d_gain_altitude
30715	512	-1054	340	-0.1077801	-7.895391	0.5024287	0	11.29	4003	-109	71	-20	-27	1.245344	2.120975	5	20	0.022	1600
30854	-1152	2042	802	1.163948	-8.850947	0.7212725	0	11.29	4002	120	62	-17	-33	1.154682	2.187614	5	20	0.022	1600
30895	506	448	249	0.8815024	-9.238959	0.6672176	0	11.34	4002	-22	90	-24	-35	1.142388	2.205935	5	20	0.022	1600
31019	153	-1175	-161	0.9751009	-8.036657	0.4349516	0	11.34	4003	-10	-175	-14	-30	1.13192	2.231334	5	20	0.022	1600
31097	41	1755	992	1.441898	-7.463181	0.3284487	0	11.34	4004	-76	129	-3	-52	1.149969	2.257236	5	20	0.022	1600
31223	-234	-379	-652	2.042016	-11.18489	1.45528	0	11.34	4003	-2	-235	-53	-58	1.214251	2.322061	5	20	0.022	1600
31289	-726	23	-439	1.558319	-10.88622	1.589951	0	11.34	4003	60	-113	-51	-58	1.225945	2.34025	5	20	0.022	1600
31441	210	2668	203	3.201479	-14.52163	1.221704	0	11.34	4003	9	37	-32	-27	1.197731	2.381322	5	20	0.022	1600
31543	-73	-1216	26	2.53003	-13.90331	0.688412	0	11.34	4002	-102	49	-18	-28	1.238982	2.403682	5	20	0.022	1600
31595	226	-426	-217	2.304189	-12.86902	0.7104611	0	11.34	4003	-47	33	-19	-27	1.251083	2.407293	5	20	0.022	1600
31754	1016	-291	-105	2.473925	-9.488517	1.168064	0	11.34	4004	-119	193	-38	-24	1.132628	2.419423	5	20	0.022	1600
31863	343	-694	548	2.514282	-7.272815	1.599403	0	11.97	4004	-58	-61	-38	-27	1.166769	2.437437	5	20	0.022	1600
31974	-686	-2404	-216	1.148593	-4.439756	1.11535	0	11.97	4004	-107	-55	-32	-39	1.08806	2.445231	5	20	0.022	1600
32024	1059	-829	845	1.181241	-4.051219	1.082182	0	11.97	4003	-112	116	-19	-22	1.158171	2.443684	5	20	0.022	1600
32139	-2469	590	362	2.11103	-4.248874	0.9372346	0	11.97	4003	-114	172	-23	-25	1.190685	2.446004	5	20	0.022	1600
32282	374	1749	-84	1.970558	-8.251312	0.7580928	0	11.97	4002	54	5	-22	-18	1.1686	2.438989	5	20	0.022	1600
32353	-915	407	-474	0.679972	-9.93456	0.3222472	0	11.97	4008	-16	-17	-13	-27	1.157	2.427979	5	20	0.022	1600
32406	-915	407	-474	0.679972	-9.93456	0.3222472	0	11.97	4008	7	-166	-30	-27	1.168313	2.424326	5	20	0.022	1600
32587	-111	512	-1238	0.3096155	-11.30561	0.9633316	0	11.97	4002	-132	148	-23	-24	1.082493	2.39436	5	20	0.022	1600
32621	571	-10	-395	0.3757372	-11.75869	1.143713	0	11.97	4002	-184	223	-21	-16	1.082493	2.39436	5	20	0.022	1600
32694	1467	1562	478	0.5813118	-11.52164	1.216146	0	11.97	4003	124	-117	-42	-13	1.192177	2.359662	5	20	0.022	1600
32879	-748	-2691	-531	-0.2407103	-5.731618	0.6013165	0	10.89	4003	37	-124	-27	-16	1.205791	2.338897	5	20	0.022	1600
32929	-1753	654	949	-1.91696	-5.207233	-0.1535881	0	10.89	4003	-123	12	15	-15	1.085212	2.331542	5	20	0.022	1600
33070	652	-110	769	-1.054365	-3.83462	-0.6499489	0	10.89	4009	16	-204	5	-27	1.057047	2.318643	5	20	0.022	1600
33122	652	-110	769	-1.054365	-3.83462	-0.6499489	0	10.89	4009	21	177	21	-21	1.049917	2.317668	5	20	0.022	1600
33218	652	-110	769	-1.054365	-3.83462	-0.6499489	0	10.89	4009	156	-110	5	-33	1.054102	2.317221	5	20	0.022	1600
33341	-1299	66	-447	-0.1679036	-2.216947	-0.5062423	0	10.89	4004	115	-59	5	-20	0.9967411	2.315275	5	20	0.022	1600
33424	-726	-1200	1032	-0.6645735	-0.429478	-0.6592285	0	10.89	4002	-24	-139	18	-22	1.047316	2.313421	5	20	0.022	1600
33511	256	-514	-161	-1.299596	0.1229728	-0.6186703	0	10.89	4002	-7	-2	22	-21	1.105747	2.310239	5	20	0.022	1600
33636	-597	-199	-241	0.7684411	-3.805019	-0.5546586	0	10.89	4003	59	128	12	-25	1.228772	2.323829	5	20	0.022	1600
33701	2034	1685	714	1.633335	-4.467	-0.3359389	0	11.85	4003	-114	-42	11	-26	1.201568	2.328387	5	20	0.022	1600
33834	40	699	245	3.848177	-5.576931	0.7369378	0	11.85	4002	2	199	-20	-21	1.163966	2.32954	5	20	0.022	1600
33897	783	644	-927	4.171502	-7.963746	0.993516	0	11.85	4003	-23	-123	-29	-21	1.157329	2.329018	5	20	0.022	1600
34053	985	536	-992	5.92709	-8.78468	1.04319	0	11.85	4003	-112	129	-22	-20	1.183237	2.316063	5	20	0.022	1600
34097	211	3315	1402	6.305977	-11.23612	0.5336357	0	11.85	4003	-44	-66	-10	-17	1.209491	2.309791	5	20	0.022	1600
34265	765	-2572	-1424	5.819752	-10.62659	0.4089842	0	11.85	4003	-45	-303	-23	-11	1.239311	2.271864	5	20	0.022	1600
34296	20	628	1871	5.933731	-9.809043	0.1500706	0	11.85	4004	-44	142	10	-16	1.237659	2.2598	5	20	0.022	1600
34395	-680	-876	-91	3.393015	-8.47956	0.127921	0	11.85	4004	-95	-182	-9	-9	1.24233	2.240164	5	20	0.022	1600
34491	-211	-534	-429	2.464185	-8.200861	0.0704988	0	11.85	4002	-84	-55	5	-8	1.250397	2.208659	5	20	0.022	1600
34600	-331	-1105	780	-0.414031	-4.965106	-0.2625495	0	11.11	4003	-6	64	5	-8	1.210413	2.164916	5	20	0.022	1600
34730	-105	1386	1321	-0.4753886	-5.752386	-0.655727	0	11.11	4004	-37	-120	-10	-10	1.14175	2.133565	5	20	0.022	1600
34786	-431	124	-585	0.1650448	-5.585157	-0.5348411	0	11.11	4002	79	-99	-9	-11	1.125021	2.123307	5	20	0.022	1600
34893	562	972	524	0.6717168	-6.729516	-0.2429718	0	11.11	4004	-88	23	2	-15	1.087609	2.102771	5	20	0.022	1600
35029	630	1799	-287	1.216329	-7.446772	0.113404	0	11.11	4004	-14	-176	-7	-7	0.9649407	2.068782	5	20	0.022	1600
35158	-52	951	944	1.76571	-9.062691	-0.06094608	0	11.11	4004	-70	114	10	-5	1.000297	2.038404	5	20	0.022	1600
35209	35	-2439	-736	1.855897	-8.639028	0.1594473	0	11.11	4004	80	-275	-26	-6	1.013489	2.017194	5	20	0.022	1600
35342	-610	557	-1062	1.318581	-9.070958	0.07653876	0	11.11	4003	-18	-125	-19	-19	1.137302	2.002013	5	20	0.022	1600
35425	-512	1803	1629	-0.1898206	-8.490371	0.8480456	0	11.11	4003	27	-122	-41	-20	1.131193	2.007161	5	20	0.022	1600
35548	68	-862	-7	-1.276458	-9.644313	0.1121797	0	11.46	4003	-74	18	3	-34	1.18377	2.024168	5	20	0.022	1600
35667	-269	-2868	-975	-1.216946	-8.132998	0.4399497	0	11.46	4004	46	246	-10	-24	1.077899	2.03514	5	20	0.022	1600
35702	-127	1476	-205	-1.756165	-8.968852	0.4766297	0	11.46	4004	-90	273	-7	-22	1.077899	2.03514	5	20	0.022	1600
35790	-127	1476	-205	-1.756165	-8.968852	0.4766297	0	11.46	4004	-69	153	9	-27	1.099169	2.064259	5	20	0.022	1600
35898	-124	-1586	382	-2.321672	-8.462607	-0.3996394	0	11.46	4004	-115	-12	12	-27	1.091676	2.086002	5	20	0.022	1600
36023	-501	275	-206	-1.924102	-6.100481	0.1213923	0	11.46	4003	15	52	-18	-23	1.082871	2.097535	5	20	0.022	1600
36101	210	-1419	-1622	-1.33853	-7.302074	0.2930619	0	11.46	4003	-80	243	-3	-29	1.166219	2.112145	5	20	0.022	1600
36221	-1181	-552	-691	-2.286479	-6.725072	0.425358	0	11.46	4004	89	-63	-27	-30	1.134194	2.138948	5	20	0.022	1600
36308	-355	-678	1099	-2.430049	-5.939309	-0.02974329	0	11.46	4003	-71	206	12	-26	1.061812	2.155482	5	20	0.022	1600
36502	223	-463	630	-1.472935	-3.798015	-0.3763387	0	11.34	4004	16	94	21	-23	0.9488401	2.170405	5	20	0.022	1600
36517	223	-463	630	-1.472935	-3.798015	-0.3763387	0	11.34	4004	8	-197	-5	-26	0.9488401	2.170405	5	20	0.022	1600
36666	-558	-793	-1151	-0.9175436	-4.990726	-0.400422	0	11.34	4003	55	184	3	-27	1.037586	2.182441	5	20	0.022	1600
36790	332	1179	1494	-0.2307769	-6.187719	0.08289396	0	11.34	4003	-56	276	9	-22	1.130226	2.200775	5	20	0.022	1600
36823	332	1179	1494	-0.2307769	-6.187719	0.08289396	0	11.34	4003	40	-212	-10	-38	1.130226	2.200775	5	20	0.022	1600
36938	-703	789	551	-0.672744	-7.475973	-0.3356375	0	11.34	4003	108	-169	-8	-21	1.045434	2.205766	5	20	0.022	1600
37050	-467	831	-279	0.215665	-7.76154	0.1917794	0	11.34	4004	26	-82	-20	-22	1.076888	2.201202	5	20	0.022	1600
37139	-24	1126	605	-0.1367585	-9.136555	-0.04474761	0	11.34	4003	-60	284	10	-22	1.144481	2.20062	5	20	0.022	1600
37221	-520	828	497	-0.04527887	-9.821717	-0.07941546	0	11.34	4002	-60	-18	-2	-20	1.193054	2.198361	5	20	0.022	1600
37342	-1059	-2734	-802	-0.199816	-6.985826	0.2770503	0	11.34	4002	-80	-265	-15	-23	1.192188	2.196892	5	20	0.022	1600
37449	-948	1300	938	0.3944766	-6.394027	-0.3966584	0	10.32	4002	-17	-66	21	-47	1.090463	2.213881	5	20	0.022	1600
37511	-1755	3128	970	-0.922912	-7.145187	-0.6855092	0	10.32	4002	-125	-9	22	-46	1.13646	2.22579	5	20	0.022	1600
37599	962	-1767	-1647	-0.05428422	-7.762246	0.1126133	0	10.32	4004	-191	80	1	-29	1.20811	2.241753	5	20	0.022	1600
37681	-338	704	-606	0.002043243	-7.595308	0.4720106	0	10.32	4003	67	-125	-33	-27	1.206257	2.255217	5	20	0.022	1600
37806	1480	352	208	2.519875	-8.776478	0.4920275	0	10.32	4003	-141	228	-7	-25	1.21656	2.253804	5	20	0.022	1600
37875	892	1876	1196	3.728193	-8.293427	0.642207	0	10.32	4004	-66	-119	-21	-22	1.227259	2.250905	5	20	0.022	1600
38008	369	935	814	3.959712	-10.02637	-0.2385997	0	10.32	4004	-41	-1	5	-21	1.0982	2.246066	5	20	0.022	1600
38085	59	244	687	3.624314	-9.82408	-0.3823634	0	10.32	4004	15	-32	-10	-36	1.078905	2.245578	5	20	0.022	1600
38214	-1292	82	-1215	0.99602	-11.12794	-0.06405261	0	10.32	4003	42	-185	-18	-41	1.093632	2.248503	5	20	0.022	1600
38279	-427	186	-340	0.3659543	-11.06242	0.1231455	0	11.06	4002	38	64	-40	-29	1.125602	2.255472	5	20	0.022	1600
38419	-99	2334	-473	0.03664742	-13.28325	0.4123735	0	11.06	4004	60	-190	-18	-33	1.23215	2.287735	5	20	0.022	1600
38585	1051	162	-232	2.952858	-14.38852	0.6895779	0	11.06	4003	-30	244	-21	-35	1.089921	2.316006	5	20	0.022	1600
38639	-1235	1330	-28	2.591959	-15.13165	0.7057255	0	11.06	4003	28	9	-26	-31	1.188549	2.328947	5	20	0.022	1600
38698	-729	922	-540	1.821714	-15.39609	0.7695662	0	11.06	4002	-52	-7	-40	-32	1.230595	2.335817	5	20	0.022	1600
38785	337	-522	226	1.849937	-14.95819	0.8682626	0	11.06	4002	-60	15	-21	-52	1.256704	2.352155	5	20	0.022	1600
38885	-1176	-1129	-563	1.525853	-11.97437	0.7683437	0	11.06	4002	45	-97	-29	-24	1.238205	2.35669	5	20	0.022	1600
39040	131	-1237	-35	0.6697485	-11.19552	0.813212	0	11.06	4006	49	-166	-26	-25	1.118621	2.334564	5	20	0.022	1600
39102	-566	-2630	-1122	1.104092	-9.235485	0.9284216	0	11.06	4004	-37	-188	-37	-18	1.147526	2.330356	5	20	0.022	1600
39253	-664	-415	-411	0.910637	-5.495405	1.520868	0	10.49	4004	44	-118	-49	-15	1.190597	2.293353	5	20	0.022	1600
39290	-189	-1061	-395	0.6246318	-5.276518	1.410187	0	10.49	4004	21	-65	-44	-16	1.218872	2.271677	5	20	0.022	1600
39394	-114	-1449	53	0.8766934	-5.136944	1.204202	0	10.49	4004	10	-123	-20	-15	1.125893	2.25157	5	20	0.022	1600
39495	404	963	1487	0.5507973	-2.915469	0.06363034	0	10.49	4002	-65	186	11	-15	1.165666	2.221013	5	20	0.022	1600
39600	410	727	-678	-0.01405733	-6.188584	-0.138932	0	10.49	4004	-34	-177	7	-15	1.198399	2.183601	5	20	0.022	1600
39697	-265	2012	1036	0.7663512	-9.42287	-0.589463	0	10.49	4003	35	-228	4	-16	1.234378	2.16672	5	20	0.022	1600
39798	-526	899	-677	1.82673	-10.5802	-0.2069089	0	10.49	4004	38	297	2	-16	1.111213	2.149998	5	20	0.022	1600
39919	-379	621	-230	1.296172	-11.28285	0.09152527	0	10.49	4003	-34	-139	-22	-7	1.054119	2.10221	5	20	0.022	1600
39984	-709	538	998	0.2286259	-8.425098	0.5128082	0	10.49	4002	25	-18	-27	-6	1.053154	2.074794	5	20	0.022	1600
40078	73	613	991	0.07535955	-8.624583	0.2046049	0	10.49	4004	-128	-14	24	-5	1.085953	2.037398	5	20	0.022	1600
40208	-865	-753	-1074	0.6465304	-10.16029	-0.3928946	0	10.49	4003	50	-138	-14	-10	1.121577	1.993287	5	20	0.022	1600
40301	-1353	42	352	-0.6513588	-8.04277	-0.2230433	0	10.49	4004	17	-43	-4	-9	1.168849	1.972171	5	20	0.022	1600
40378	307	-911	-640	-0.9890031	-7.353815	-0.2784784	0	10.49	4004	-77	-91	-12	-7	1.223284	1.949673	5	20	0.022	1600
40570	1967	644	719	0.4948794	-6.394014	0.7640027	0	10.49	4004	-111	-38	-18	0	1.288016	1.886809	5	20	0.022	1600
40607	1967	644	719	0.4948794	-6.394014	0.7640027	0	10.49	4004	96	-189	-41	-3	1.284624	1.865009	5	20	0.022	1600
40686	655	1238	617	0.9984501	-6.497212	0.5361817	0	10.49	4004	27	76	-34	-6	1.283173	1.852132	5	20	0.022	1600
40806	-678	-1258	-626	1.912863	-8.076835	0.01124341	0	10.49	4003	64	269	0	-7	1.31338	1.818918	5	20	0.022	1600
40968	282	-1447	-696	0.8395894	-5.187254	0.09490641	0	10.49	4004	-104	64	7	-13	1.29105	1.792554	5	20	0.022	1600
41037	-132	-515	-1036	1.155082	-5.727838	0.1057848	0	10.38	4003	-36	70	16	-12	1.188231	1.778894	5	20	0.022	1600
41092	-115	-1020	-1294	-0.5034894	-7.100479	-0.09696817	0	10.38	4002	-68	-149	-1	-10	1.157044	1.775984	5	20	0.022	1600
41232	68	-737	-30	-0.001238523	-7.727584	0.04094419	0	10.38	4003	12	-163	-5	-7	1.008762	1.752785	5	20	0.022	1600
41352	61	703	326	-0.03363537	-7.157584	0.2886881	0	10.38	4004	59	-34	-27	-9	1.00964	1.722061	5	20	0.022	1600
41429	850	-608	224	0.09851431	-7.728766	0.3154726	0	10.38	4002	6	-87	-29	-11	1.009992	1.703793	5	20	0.022	1600
41558	-1275	-304	-152	2.008496	-7.855192	0.1968318	0	10.38	4002	-46	-1	-6	-7	1.015502	1.679121	5	20	0.022	1600
41615	-1275	-304	-152	2.008496	-7.855192	0.1968318	0	10.38	4002	168	1	-18	-10	1.061785	1.675397	5	20	0.022	1600
41740	-319	-25	-915	0.6799007	-7.326755	-0.1755527	0	10.38	4003	-13	-209	-11	-20	1.12461	1.665064	5	20	0.022	1600
41796	185	228	1031	0.669874	-7.537797	-0.4246919	0	10.38	4004	157	34	4	-23	1.228797	1.672597	5	20	0.022	1600
41897	217	-988	16	-0.535078	-6.889617	-0.538396	0	10.38	4004	-67	76	15	-22	1.112282	1.685764	5	20	0.022	1600
41985	-393	-177	-765	-0.7096468	-6.129051	-0.1393849	0	11.74	4002	173	-134	-11	-28	1.162149	1.693901	5	20	0.022	1600
42114	1148	-257	-350	-0.7309611	-7.59126	0.1124144	0	11.74	4002	43	196	0	-12	1.25667	1.685808	5	20	0.022	1600
42306	827	-10	564	0.03044526	-7.570279	-0.36071	0	11.74	4004	71	-10	-14	-18	1.20944	1.681136	5	20	0.022	1600
42450	-459	1967	1156	0.08495848	-8.420663	-0.5415493	0	11.74	4004	-6	-122	0	-18	1.229132	1.683058	5	20	0.022	1600
42523	-138	1089	813	-0.5586009	-9.263178	-0.6689854	0	11.74	4004	-20	-34	-5	-19	1.260578	1.683817	5	20	0.022	1600
42601	473	-2895	-1110	-1.532154	-8.413543	-0.4003151	0	11.74	4003	-116	-34	6	-20	1.273804	1.686691	5	20	0.022	1600
42767	-132	718	842	-1.62363	-5.960623	-0.8077871	0	11.74	4004	85	-98	0	-23	1.243985	1.715995	5	20	0.022	1600
42801	-58	36	45	-0.7378326	-5.780203	-0.8678512	0	11.74	4003	-37	25	32	-25	1.242758	1.726166	5	20	0.022	1600
42916	1328	1493	-9	0.5697326	-5.733316	-0.2173088	0	11.63	4004	-92	-67	-19	-27	1.135153	1.744537	5	20	0.022	1600
43058	-793	-294	-615	1.125136	-7.262642	0.5815537	0	11.63	4002	126	8	-38	-25	1.162913	1.775988	5	20	0.022	1600
43174	387	-898	-853	1.061732	-9.000227	0.619592	0	11.63	4004	173	-135	-23	-25	1.190372	1.808691	5	20	0.022	1600
43257	566	-416	765	2.647635	-8.838922	0.9282841	0	11.63	4004	19	-156	-45	-26	1.185697	1.824754	5	20	0.022	1600
43311	-1331	-1128	-245	2.590282	-8.698525	0.6319443	0	11.63	4004	6	-160	-16	-26	1.164592	1.838985	5	20	0.022	1600
43414	357	-2064	-1321	2.188973	-6.969405	0.6251987	0	11.63	4002	-52	147	0	-24	1.197222	1.864585	5	20	0.022	1600
43570	783	-740	-1568	1.645784	-9.64606	-0.4938067	0	11.63	4008	24	98	2	-30	1.087289	1.893457	5	20	0.022	1600
43605	1009	655	950	2.540011	-9.415532	-0.4121127	0	11.63	4003	-36	-256	-7	-33	1.087289	1.893457	5	20	0.022	1600
43766	343	-1172	-1619	0.8930131	-7.33816	0.4463347	0	11.11	4003	-37	212	-1	-48	1.11426	1.960309	5	20	0.022	1600
43811	1014	-141	423	1.334935	-6.924435	0.4908724	0	11.11	4003	-69	206	-1	-43	1.098634	1.965637	5	20	0.022	1600
43919	-485	901	592	0.6674053	-7.503215	-0.1015789	0	11.11	4004	-104	4	13	-23	1.080594	1.978037	5	20	0.022	1600
44139	-551	-95	1325	0.9479624	-7.286712	-0.7523798	0	11.11	4005	-81	186	27	-26	1.071312	1.984611	5	20	0.022	1600
44327	877	1831	745	0.1357365	-7.984235	-0.7986178	0	11.11	4004	-1	141	15	-29	1.077265	1.995375	5	20	0.022	1600
44381	193	544	-569	0.8942347	-8.231242	-0.7371573	0	11.11	4004	41	-101	6	-20	1.099845	1.993708	5	20	0.022	1600
44456	65	1108	781	0.677301	-9.201354	-0.6430608	0	11.11	4002	-27	78	21	-26	1.118681	1.987619	5	20	0.022	1600
44584	1242	738	804	2.236695	-8.255509	0.1893387	0	11.11	4003	-66	-159	-22	-17	1.151825	1.971331	5	20	0.022	1600
44700	-1495	1691	435	1.020035	-10.23452	-0.2339773	0	11.23	4003	39	125	19	-17	1.024633	1.956771	5	20	0.022	1600
44735	374	547	-184	0.4740478	-10.97505	-0.6378078	0	11.23	4004	-33	-19	-2	-21	1.020496	1.948891	5	20	0.022	1600
44822	-1700	-1026	-297	-0.01599812	-8.250648	-0.8716258	0	11.23	4004	-40	162	27	-24	1.038123	1.951038	5	20	0.022	1600
44920	-92	411	1476	-0.09370457	-6.71439	-1.045073	0	11.23	4004	-10	-243	17	-21	1.069537	1.9538	5	20	0.022	1600
45105	-9	33	380	0.7690807	-7.221946	-0.5905434	0	11.23	4002	73	-113	-4	-29	1.111034	1.959976	5	20	0.022	1600
45220	-743	-140	137	-0.1474189	-7.081877	0.03152241	0	11.23	4004	-99	68	17	-20	1.119107	1.951954	5	20	0.022	1600
45317	486	143	1157	-0.5059284	-7.470617	-1.013415	0	11.23	4002	-113	191	35	-18	1.166618	1.942139	5	20	0.022	1600
45426	-1301	1919	485	-0.2401631	-7.233037	-1.836779	0	11.23	4004	28	-173	42	-16	1.11385	1.927535	5	20	0.022	1600
45532	73	1875	956	-0.4388082	-8.00396	-1.827072	0	11.23	4003	-83	-158	24	-17	1.119113	1.909531	5	20	0.022	1600
45693	-70	-760	-1493	0.2605013	-8.355059	-0.2244778	0	10.89	4002	-30	221	10	-16	1.134564	1.891298	5	20	0.022	1600
45797	1977	313	625	1.82734	-8.736107	-0.2625222	0	10.89	4003	-40	-11	12	-19	1.173068	1.879521	5	20	0.022	1600
45807	1977	313	625	1.82734	-8.736107	-0.2625222	0	10.89	4003	36	138	-8	-16	1.173068	1.879521	5	20	0.022	1600
45932	736	-1839	-1488	1.849187	-8.394275	0.06240701	0	10.89	4003	0	321	5	-15	1.22431	1.860919	5	20	0.022	1600
46058	891	-881	-275	4.365339	-8.061411	-0.3520365	0	10.89	4003	5	55	13	196	1.110822	1.852953	4	20	0.022	1600
46107	-182	1142	755	4.108171	-8.165689	-0.6954908	0	10.89	4003	82	77	26	4	1.09746	1.860171	4	20	0.022	1600
46238	-573	-3104	-1274	4.580778	-4.804965	-0.9963507	0	10.89	4003	-62	-91	37	-13	1.098258	1.903195	4	20	0.022	1600
46322	-450	-856	-354	4.233796	-3.815033	-0.8862363	0	10.89	4003	-17	-71	0	-38	1.127264	1.915823	4	20	0.022	1600
46434	437	596	417	4.619988	-4.375494	-0.3898914	0	10.89	4003	-130	56	18	-100	1.244714	1.923483	4	20	0.022	1600
46516	-331	-1861	-843	3.819232	-3.331153	0.2489699	0	11.51	4004	-4	-122	-20	-250	1.436829	1.931795	4	20	0.022	1600
46682	-1162	-103	1147	4.595836	-4.168786	0.2372986	0	11.51	4003	-26	-26	-20	-35	1.356436	1.949413	4	20	0.022	1600
46714	74	2019	821	4.347433	-4.526784	0.08829869	0	11.51	4002	122	-178	-8	408	1.341151	1.951255	4	20	0.022	1600
46805	284	2048	-1330	3.890146	-7.753073	-0.2120847	0	11.51	4003	-69	-104	4	0	1.315014	1.952594	4	20	0.022	1600
46952	-300	-1431	-855	3.144207	-8.128939	-0.1721692	0	11.51	4003	7	-220	-12	-26	1.21666	1.95632	4	20	0.022	1600
47070	-517	-2082	-995	3.231791	-6.848867	-0.1108694	0	11.51	4004	-76	108	18	0	1.197899	1.958664	4	20	0.022	1600
47114	-995	98	1123	1.639591	-5.437345	-0.1806208	0	11.51	4002	80	-309	-7	-6	1.191608	1.957954	4	20	0.022	1600
47214	564	-1167	-369	1.391356	-4.957245	-0.08476974	0	11.51	4002	54	-93	-21	-32	1.202755	1.950759	4	20	0.022	1600
47336	-464	-1456	-1213	1.268748	-3.557811	0.1051785	0	11.51	4004	-79	-40	6	-39	1.237042	1.944541	4	20	0.022	1600
47416	-874	-944	-1461	0.7380154	-3.511282	0.1692891	0	11.51	4003	-127	50	4	-39	1.249543	1.943019	4	20	0.022	1600
47532	-264	530	1478	0.1139914	-4.578449	0.01147395	0	10.32	4004	2	30	-13	16	1.073746	1.925038	4	20	0.022	1600
47669	-715	640	1446	1.872412	-2.371972	-0.7694468	0	10.32	4004	-54	-225	8	3	1.024111	1.904319	4	20	0.022	1600
47775	-412	1390	962	1.592759	-2.922334	-0.9092045	0	10.32	4004	15	48	-3	-113	1.069461	1.890319	4	20	0.022	1600
47821	808	-72	-226	0.9907365	-3.50024	-0.1506218	0	10.32	4002	-95	87	0	-177	1.174061	1.877429	4	20	0.022	1600
47925	986	371	6	2.245822	-3.494282	0.6795432	0	10.32	4004	-113	71	-26	6	1.132147	1.864008	4	20	0.022	1600
48115	-371	-893	252	2.067213	-3.896306	0.484665	0	10.32	4002	-46	118	-13	-79	1.259515	1.817571	4	20	0.022	1600
48185	769	565	233	2.842644	-4.274358	0.4146833	0	10.32	4003	-112	127	-10	-23	1.299391	1.792708	4	20	0.022	1600
48251	-840	170	634	2.354228	-4.605611	0.6088734	0	10.32	4004	-59	114	-15	-72	1.356329	1.777198	4	20	0.022	1600
48310	-289	-167	-420	1.877535	-4.655969	0.6669664	0	10.32	4004	-68	106	-12	-61	1.341776	1.761587	4	20	0.022	1600
48430	-830	-276	173	1.376057	-3.383902	1.044437	0	11	4004	-58	221	-17	-10	1.323659	1.736696	4	20	0.022	1600
48546	-867	1163	1750	1.58058	-3.145926	0.8513318	0	11	4004	50	137	-17	-37	1.208109	1.702222	4	20	0.022	1600
48609	-2108	1870	1659	0.97411	-3.514662	0.3631311	0	11	4004	-5	278	34	-32	1.233664	1.682439	4	20	0.022	1600
48725	1042	-800	-1840	-1.521551	-5.8427	-1.161731	0	11	4002	26	67	19	-39	1.249506	1.662758	4	20	0.022	1600
48829	-550	1014	-279	0.7631528	-6.660426	0.6047699	0	11	4003	-42	57	-27	-4	1.219587	1.652653	4	20	0.022	1600
48922	-266	-350	-1794	-0.7632529	-7.751398	1.470638	0	11	4002	-24	-200	-57	8	1.166172	1.639535	4	20	0.022	1600
49013	-278	25	-619	-0.201724	-9.502926	1.013309	0	11	4004	-37	-367	-20	3	1.13659	1.62581	4	20	0.022	1600
49120	1837	563	-46	1.638875	-8.776764	-0.1798593	0	11	4002	-54	121	1	-116	1.324394	1.59233	4	20	0.022	1600
49270	1249	319	-5	5.278457	-8.790651	0.7385626	0	11.29	4004	-23	-44	-32	-105	1.540586	1.558911	4	20	0.022	1600
49392	-387	178	-867	4.591217	-8.023825	1.109826	0	11.29	4003	53	-32	-33	24	1.433222	1.514675	4	20	0.022	1600
49421	582	2087	-286	3.964052	-10.01274	0.9687646	0	11.29	4003	25	-45	-36	14	1.405319	1.495705	4	20	0.022	1600
49576	1200	1560	727	6.376022	-13.87992	0.4299888	0	11.29	4004	-42	-67	-4	-41	1.394435	1.451691	4	20	0.022	1600
49690	-210	2335	1211	6.582217	-14.20368	-0.2074302	0	11.29	4003	26	165	13	13	1.193655	1.395754	4	20	0.022	1600
49844	411	613	960	3.381138	-14.04029	-0.6776136	0	11.29	4002	72	-291	-7	-35	1.247311	1.323541	4	20	0.022	1600
49923	-614	38	1270	2.818013	-12.7751	-0.1860164	0	11.29	4002	39	84	8	14	1.230579	1.288472	4	20	0.022	1600
50024	-241	-356	-340	0.5310335	-10.60952	-0.6370156	0	11.29	4002	-124	82	22	191	1.07657	1.243764	4	20	0.022	1600
50115	696	-169	1368	1.001229	-9.779407	-0.8206315	0	11.29	4003	28	-7	9	26	0.9988906	1.198671	4	20	0.022	1600
50265	-954	-1509	-637	0.09587242	-6.027083	-0.3648981	0	11.46	4003	-32	-31	9	125	0.8503862	1.129631	4	20	0.022	1600
50349	-1589	4334	551	-1.613203	-7.321778	-0.2821741	0	11.46	4003	39	217	-11	103	0.7360298	1.070027	4	20	0.022	1600
50477	-2993	-1784	-507	-3.580477	-9.059306	0.3351144	0	11.46	4003	46	-110	-16	81	0.6684576	1.050758	4	20	0.022	1600
50527	1067	1482	47	-4.779732	-8.618298	0.3685165	0	11.46	4004	-85	143	-7	21	0.603229	1.02352	4	20	0.022	1600
50756	362	-3874	-594	0.4737413	-3.628275	1.072923	0	11.46	4004	10	-24	-13	14	0.5094873	0.965198	4	20	0.022	1600
50857	1628	668	1861	0.7784229	-4.749573	0.04570056	0	11.46	4004	19	133	-7	6	0.509475	0.9302315	4	20	0.022	1600
51012	372	-2501	-1084	-0.05539425	-4.363132	-1.179796	0	11.46	4004	-73	-159	22	-39	0.5881175	0.9195021	4	20	0.022	1600
51071	1029	-445	756	0.3681289	-3.544651	-1.095225	0	11.46	4003	-20	-284	0	-41	0.6314146	0.9134004	4	20	0.022	1600
51142	457	-1166	-2205	2.53673	-3.412407	-0.3434069	0	9.81	4004	-83	-60	-3	-67	0.6087892	0.8997283	4	20	0.022	1600
51246	-124	-415	-114	3.635196	-3.324679	0.2920487	0	9.81	4004	-22	86	-4	-63	0.7156684	0.8900003	4	20	0.022	1600
51348	855	1257	-248	3.941442	-3.275517	1.845462	0	9.81	4003	-66	-71	-49	-77	0.8659877	0.89222	4	20	0.022	1600
51442	3	806	122	4.117362	-4.817136	1.937903	0	9.81	4004	-82	45	-50	-75	0.9815403	0.8997123	4	20	0.022	1600
51641	-1303	2007	418	2.079525	-4.652614	-0.698667	0	9.81	4002	124	46	9	-181	1.086849	0.9229353	4	20	0.022	1600
51714	-651	-505	-91	1.88694	-6.15869	-0.9612806	0	9.81	4002	45	-102	17	-86	1.208464	0.9294509	4	20	0.022	1600
51813	-203	-2644	-1469	1.077036	-3.597857	-0.2254227	0	9.81	4002	-77	131	-10	-20	1.210991	0.9345123	4	20	0.022	1600
51848	-572	1980	278	0.6125076	-3.951982	0.66988	0	9.81	4003	-145	147	-20	11	1.173897	0.9572588	4	20	0.022	1600
52022	212	-1607	-807	0.973138	-5.975752	0.6323696	0	10.66	4002	95	84	-30	-27	1.176586	0.9808398	4	20	0.022	1600
52085	882	1397	1381	1.538037	-6.874679	0.1511549	0	10.66	4003	83	52	-21	-25	1.172181	0.9861895	4	20	0.022	1600
52198	-457	1662	633	1.210547	-8.168036	-0.2755828	0	10.66	4003	116	3	1	-57	1.202193	0.989655	4	20	0.022	1600
52223	-1376	-446	-169	-0.5119662	-9.000941	-0.6254022	0	10.66	4004	-3	-137	5	-84	1.202193	0.989655	4	20	0.022	1600
52349	-563	420	-311	-0.6238213	-9.100757	0.002994506	0	10.66	4003	-42	-214	-5	1	1.204909	0.9761742	4	20	0.022	1600
52530	728	-503	221	-0.2136723	-7.524404	-0.1193005	0	10.66	4004	54	-35	-24	15	1.151533	0.9646356	4	20	0.022	1600
52636	-1035	-1615	-695	0.04018258	-7.733075	-0.2979065	0	10.66	4002	147	-245	-6	-61	1.233774	0.9696583	4	20	0.022	1600
52720	823	-386	-750	0.779404	-6.482967	0.04472854	0	10.66	4004	-19	247	-8	5	1.237095	0.9848506	4	20	0.022	1600
52825	-394	390	184	0.6520927	-6.845854	-0.01170448	0	10.66	4007	123	58	-11	-17	1.226843	0.9892138	4	20	0.022	1600
52981	-89	13	-24	0.9375056	-5.898142	-0.04360142	0	11.46	4004	38	132	-16	-65	1.266959	0.9914035	4	20	0.022	1600
53038	785	1351	-556	1.736227	-6.849281	0.2396588	0	11.46	4003	39	16	-22	-10	1.256287	0.9881894	4	20	0.022	1600
53154	108	990	-460	2.952933	-7.766865	0.9010968	0	11.46	4004	-63	-20	-10	170	1.131546	0.9871797	4	20	0.022	1600
53233	-3260	-681	-604	1.090709	-9.463896	0.2865528	0	11.46	4004	80	-362	-16	-17	1.114703	0.9868528	4	20	0.022	1600
53341	1395	-2047	-1406	1.589608	-8.5172	-0.2594432	0	11.46	4002	-62	-173	1	4	1.060147	0.9871286	4	20	0.022	1600
53536	-1048	1174	545	0.467998	-6.406421	-0.7248353	0	11.46	4003	59	93	10	-20	0.9262399	0.9804317	4	20	0.022	1600
53612	772	-1208	-76	0.1812539	-6.898341	-0.6679899	0	11.46	4003	-40	-174	3	-31	0.9511052	0.9808242	4	20	0.022	1600
53703	-779	476	502	0.5678352	-6.535437	0.01266272	0	11.46	4002	19	-137	-23	-26	1.06041	0.9836118	4	20	0.022	1600
53795	1052	1243	839	0.6528776	-6.860001	0.4313478	0	11.46	4002	47	142	-18	-21	1.067346	0.9954579	4	20	0.022	1600
53909	-816	274	1656	1.327667	-7.564878	0.4423265	0	10.43	4002	53	153	-7	3	0.9531753	1.01489	4	20	0.022	1600
53954	-924	-2568	714	0.5455415	-6.711921	0.05325926	0	10.43	4002	-48	-37	18	0	0.9359094	1.022665	4	20	0.022	1600
54069	-476	-1551	-1138	0.1946059	-4.104105	-0.8260138	0	10.43	4002	54	43	9	-81	1.006219	1.041228	4	20	0.022	1600
54138	392	-767	-1154	0.5818577	-3.728755	-0.7355711	0	10.43	4004	-81	149	28	-43	1.02482	1.048961	4	20	0.022	1600
54304	916	54	886	-0.58147	-3.645405	0.6731852	0	10.43	4002	-80	53	-23	-25	1.127131	1.083097	4	20	0.022	1600
54355	654	-504	-1407	-0.2907301	-3.752629	1.239394	0	10.43	4004	1	-196	-47	-23	1.127131	1.083097	4	20	0.022	1600
54492	1139	-1602	288	-0.3865618	-6.018118	0.5088509	0	10.43	4004	-48	45	-20	-35	1.054333	1.112731	4	20	0.022	1600
54559	598	301	1339	1.106475	-4.543965	0.2973928	0	10.43	4003	8	-47	-25	-54	1.096637	1.124144	4	20	0.022	1600
54682	-1231	-2052	-703	1.127295	-3.888919	-0.2677091	0	10.43	4003	5	-1	-5	-86	1.212377	1.14477	4	20	0.022	1600
54766	727	260	-100	1.942567	-3.1417	0.3665067	0	10.49	4003	-141	111	-14	-46	1.307379	1.194911	4	20	0.022	1600
54838	-14	-239	81	1.991821	-3.387296	0.4902074	0	10.49	4004	-47	10	-17	-51	1.325588	1.209733	4	20	0.022	1600
54931	-237	-307	148	1.350446	-3.736335	0.8221304	0	10.49	4004	77	-117	-21	-44	1.360636	1.241288	4	20	0.022	1600
55101	291	5241	1310	2.080829	-8.675022	0.0780431	0	10.49	4002	8	178	6	-1	1.210361	1.264522	4	20	0.022	1600
55202	1136	249	286	1.729064	-12.07016	-0.1504268	0	10.49	4004	96	-81	-15	22	1.15389	1.270495	4	20	0.022	1600
55236	608	1900	1326	2.951025	-11.96239	0.2088637	0	10.49	4002	-98	-186	-22	36	1.127304	1.268781	4	20	0.022	1600
55454	1803	1202	-515	2.544854	-16.26018	-0.07713975	0	10.49	4004	51	-77	-21	9	0.9754685	1.268043	4	20	0.022	1600
55566	-983	-537	-1040	2.703256	-17.24619	0.1316507	0	10.49	4004	-6	-169	-8	-69	1.086089	1.263532	4	20	0.022	1600
55650	-1182	-1707	-345	1.504785	-15.85046	0.2143136	0	10.49	4002	-39	-21	-26	-144	1.391771	1.252877	4	20	0.022	1600
55750	-130	-3328	440	0.6758631	-10.0196	0.5156699	0	11.46	4003	-3	-95	-11	-92	1.475538	1.248421	4	20	0.022	1600
55870	445	459	28	1.544159	-7.330483	0.5066597	0	11.46	4004	-5	-147	-21	-6	1.292441	1.251317	4	20	0.022	1600
56008	-34	-185	-380	1.557256	-8.76229	0.6242643	0	11.46	4004	68	-71	-26	-59	1.330547	1.250108	4	20	0.022	1600
56087	-1353	-971	-732	1.624806	-7.973395	0.3904276	0	11.46	4002	90	-150	-19	-34	1.347286	1.244713	4	20	0.022	1600
56309	-280	-114	-1565	2.156866	-10.04472	0.1538283	0	11.46	4003	-20	-236	-24	18	1.222694	1.199824	4	20	0.022	1600
56347	-927	1159	1681	2.500594	-9.737337	-0.05234239	0	11.46	4002	-62	166	11	18	1.233714	1.186197	4	20	0.022	1600
56443	-608	1853	683	1.86516	-10.14332	-0.157002	0	11.46	4002	83	-113	-20	4	1.221683	1.151019	4	20	0.022	1600
56577	54	-1214	-769	2.089781	-10.09177	0.9043645	0	11.46	4003	36	123	-10	-38	1.100769	1.123278	4	20	0.022	1600
56714	831	-2574	-590	-1.08483	-8.274746	0.3737678	0	11.11	4004	-103	-56	-7	-7	1.104995	1.093498	4	20	0.022	1600
56797	1065	217	1129	-0.1018516	-6.18708	0.647375	0	11.11	4004	-71	216	-11	-24	1.114734	1.085141	4	20	0.022	1600
56866	-1018	16	-629	-0.1440112	-6.313985	0.3700019	0	11.11	4004	104	-102	-26	-4	1.118886	1.074173	4	20	0.022	1600
56956	907	-1291	338	1.081491	-5.766966	0.4053395	0	11.11	4003	-84	-13	-15	145	0.9869145	1.026538	4	20	0.022	1600
57080	322	-2060	523	2.154367	-3.926279	0.1623068	0	11.11	4003	-106	103	17	-4	0.954612	0.9836079	4	20	0.022	1600
57203	136	148	698	1.172294	-0.09567755	-0.7741985	0	11.11	4004	84	124	9	-6	0.9306064	0.9465871	4	20	0.022	1600
57222	103	-1475	-1602	1.02713	-0.2347192	-0.6385274	0	11.11	4002	-71	-190	1	-11	0.9306064	0.9465871	4	20	0.022	1600
57360	-183	-727	-1761	1.002565	-2.65907	0.01975965	0	11.11	4002	43	220	7	2	0.9107146	0.9398264	4	20	0.022	1600
57468	-1483	-515	-618	0.02722954	-2.974822	0.4157551	0	11.11	4002	-99	-229	-37	123	0.8149424	0.9333977	4	20	0.022	1600
57552	448	767	1275	0.01537089	-2.358344	0.9967018	0	10.26	4002	-98	111	-19	-34	0.8548262	0.920954	4	20	0.022	1600
57636	-949	-294	-669	0.3889938	-3.780517	0.3342123	0	10.26	4004	-29	-21	3	-10	0.8532488	0.9164058	4	20	0.022	1600
57775	1682	2312	582	1.688203	-6.557268	0.01723247	0	10.26	4004	-50	147	0	-7	0.8548251	0.910917	4	20	0.022	1600
57801	1682	2312	582	1.688203	-6.557268	0.01723247	0	10.26	4004	10	118	-5	-18	0.8586598	0.9109043	4	20	0.022	1600
58046	120	1018	-7	1.946858	-10.68197	0.9655316	0	10.26	4004	-99	320	-6	-7	0.7825794	0.8890288	4	20	0.022	1600
58159	-1710	590	1159	1.833793	-9.539499	0.3044605	0	10.26	4003	11	-335	-21	-38	0.8141034	0.8788284	4	20	0.022	1600
58254	87	3140	1501	1.171616	-10.71566	-0.006351858	0	10.26	4003	-33	256	3	-20	0.8338187	0.8703679	4	20	0.022	1600
58373	660	-997	276	2.361256	-9.385976	0.1804365	0	10.26	4002	-126	10	-12	-33	0.8588007	0.8537036	4	20	0.022	1600
58398	1313	-249	33	3.390138	-8.200173	0.5662401	0	11.23	4002	-83	143	-15	-29	0.8777753	0.8490341	4	20	0.022	1600
58494	-280	-644	56	3.654251	-7.663554	0.6113073	0	11.23	4003	-64	72	-19	-27	0.8090535	0.8412047	4	20	0.022	1600
58654	-2132	1348	314	1.533232	-7.045838	-0.5655243	0	11.23	4003	82	141	10	-42	0.8772725	0.831436	4	20	0.022	1600
58754	200	-268	40	0.4532356	-5.191351	-0.4056848	0	11.23	4002	39	-158	-12	-33	0.9069223	0.8228985	4	20	0.022	1600
58813	-625	514	287	0.2814804	-5.220745	-0.4068926	0	11.23	4004	5	270	16	-28	0.9287657	0.8162172	4	20	0.022	1600
58954	125	771	666	1.113947	-8.283899	-0.1982775	0	11.23	4002	-105	143	4	-36	0.9561151	0.8067014	4	20	0.022	1600
59021	-58	384	523	0.9810439	-8.280764	-0.09704249	0	11.23	4003	-12	125	-2	-31	0.975633	0.8006328	4	20	0.022	1600
59106	2162	651	-12	1.428121	-8.934111	0.3392594	0	11.23	4003	-167	36	-7	-25	0.9910136	0.7979531	4	20	0.022	1600
59267	727	506	-92	2.953429	-8.785165	0.4619998	0	11.23	4003	-27	221	-12	-18	0.9958296	0.7877607	4	20	0.022	1600
59314	727	506	-92	2.953429	-8.785165	0.4619998	0	11.23	4003	-132	-131	7	-5	0.9852529	0.7837846	4	20	0.022	1600
59477	-366	-1192	-932	3.949302	-10.65601	-0.9233773	0	11.74	4002	4	172	42	-23	0.9978183	0.7792132	4	20	0.022	1600
59627	-91	-532	-1168	3.095108	-6.237618	-0.9264907	0	11.74	4003	-35	-143	2	15	0.9564317	0.7535537	4	20	0.022	1600
59701	-762	251	-106	2.422198	-6.452104	-0.8510576	0	11.74	4003	62	124	24	16	0.9373397	0.7473376	4	20	0.022	1600
59913	-1062	2091	-97	1.190929	-7.221521	-0.3411705	0	11.74	4003	-118	164	8	16	0.8368506	0.7370099	4	20	0.022	1600
59958	856	684	-1145	1.905243	-8.580116	-0.1633821	0	11.74	4002	8	-58	-8	18	0.8211824	0.7348402	4	20	0.022	1600
60029	710	1516	790	3.885608	-11.09676	-0.2479006	0	11.74	4004	-30	-116	2	11	0.726373	0.7281517	4	20	0.022	1600
60162	-1296	668	193	1.560567	-10.91713	0.05908125	0	11.74	4003	97	-48	-15	1	0.6969132	0.7327076	4	20	0.022	1600
60232	849	-442	-1088	1.407207	-10.19914	0.3871405	0	11.74	4003	54	98	-26	4	0.6890305	0.7343048	4	20	0.022	1600
60314	663	-296	-640	2.447692	-9.739311	0.7566256	0	11.46	4003	-9	45	-37	-6	0.6790404	0.7587981	4	20	0.022	1600
60418	1788	199	-258	5.47367	-11.94046	0.4696385	0	11.46	4003	-51	-152	-14	-8	0.6845516	0.7745492	4	20	0.022	1600
60558	-377	-1494	4	4.655657	-11.0615	-0.01786063	0	11.46	4003	87	-232	-18	-6	0.6834208	0.7793832	4	20	0.022	1600
60643	-1179	-960	-254	3.09437	-8.280416	-0.00552457	0	11.46	4003	-54	161	15	-5	0.6750577	0.7848381	4	20	0.022	1600
60819	-781	-3049	-1539	1.765496	-8.089139	-0.3775399	0	11.46	4004	-61	-166	0	-13	0.677483	0.7969676	4	20	0.022	1600
60837	-798	-2022	-1114	1.12913	-6.934347	-0.1050109	0	11.46	4003	-39	-111	-9	-12	0.677483	0.7969676	4	20	0.022	1600
60929	-601	-787	610	-0.2625217	-5.090485	-0.2908374	0	11.46	4002	6	61	0	-12	0.6942315	0.7966856	4	20	0.022	1600
61048	47	-1057	-778	-0.4780956	-3.612354	-0.1545668	0	11.46	4003	-37	-81	-4	-18	0.710391	0.7929599	4	20	0.022	1600
61141	-231	-687	-572	0.2703856	-3.386219	-0.1107391	0	11.46	4002	19	-211	-7	-16	0.7273695	0.7983801	4	20	0.022	1600
61243	-462	1101	273	-0.8940904	-4.216107	0.1034506	0	11.34	4002	57	75	-20	-35	0.7592817	0.8081304	4	20	0.022	1600
61321	81	-10	799	0.3214871	-4.042765	0.5961202	0	11.34	4004	-61	-125	-14	-34	0.8029456	0.8147508	4	20	0.022	1600
61454	-698	-1149	619	-0.441815	-2.185823	1.043547	0	11.34	4004	6	4	-31	-20	0.838552	0.8223779	4	20	0.022	1600
61523	664	-1480	-58	0.4104591	-1.260039	0.7719431	0	11.34	4003	-42	98	-16	-19	0.7591804	0.827152	4	20	0.022	1600
61735	-317	-603	-450	-0.2244392	-3.104628	-0.8397787	0	11.34	4005	-2	-236	2	-48	0.8544924	0.8203014	4	20	0.022	1600
