time(ms)	gyro_x(deg/s)	gyro_y(deg/s)	gyro_z(deg/s)	orientation_roll(deg)	orientation_pitch(deg)	orientation_yaw(deg)	throttle	battery(V)	loop_time(uS)	pid_output_roll	pid_output_pitch	pid_output_yaw	pid_output_throttle	ultrasonic_alt	baro_alt	flight_mode	p_gain_altitude	i_gain_altitude	d_gain_altitude
484691	57	-541	-447	1.845834	-0.2385215	0.01342941	0	10.66	4003	-86	-121	74	98	1.167436	3.50953	5	15	0.022	1400
484844	465	-287	611	1.249535	0.8344267	0.8290488	0	10.66	4003	-53	-96	34	104	1.20173	3.465987	5	15	0.022	1400
484890	357	-1328	-1702	1.109316	1.052024	1.092251	0	10.66	4004	-104	-202	18	112	1.214367	3.444271	5	15	0.022	1400
485015	-732	1265	-1299	2.744852	-0.4910506	2.274494	0	10.66	4002	40	-77	-4	69	1.120406	3.359664	5	15	0.022	1400
485135	379	279	-215	0.07484802	-2.854709	2.423965	0	10.66	4003	39	152	0	62	1.112696	3.330649	5	15	0.022	1400
485202	64	1940	860	0.2835044	-3.366446	2.48565	0	10.66	4002	-16	246	20	60	1.080958	3.312654	5	15	0.022	1400
485360	1143	331	38	-0.9180382	-5.255634	3.645423	0	10.38	4003	-31	19	-23	110	1.133756	3.269752	5	15	0.022	1400
485462	-1550	522	158	-1.903479	-7.486579	2.98561	0	10.38	4004	-22	76	17	100	1.095662	3.241819	5	15	0.022	1400
485504	-16	-3384	-635	-2.212491	-6.158595	3.047166	0	10.38	4003	-108	184	12	60	1.0927	3.233715	5	15	0.022	1400
485621	150	1434	-536	-2.898273	-3.337621	3.340521	0	10.38	4003	58	74	-15	68	1.215295	3.215412	5	15	0.022	1400
485717	1340	1635	-280	-0.3292371	-7.242773	4.36682	0	10.38	4002	-30	-165	-58	67	1.220221	3.197969	5	15	0.022	1400
485812	886	1713	1488	-0.09145847	-8.6117	4.340281	0	10.38	4003	10	69	-32	62	1.208156	3.193958	5	15	0.022	1400
485971	398	1252	69	2.000859	-6.643276	2.975873	0	10.38	4003	10	69	-32	62	1.313567	3.207739	5	15	0.022	1400
486019	398	1252	69	2.000859	-6.643276	2.975873	0	10.38	4003	-13	113	35	75	1.18221	3.22072	5	15	0.022	1400
486204	1292	-140	254	3.839202	-11.5322	2.360309	0	10.38	4003	-43	81	11	38	1.220298	3.290444	5	15	0.022	1400
486254	-619	-891	281	3.490663	-10.83173	2.58069	0	10.04	4004	-82	35	0	38	1.237391	3.333058	5	15	0.022	1400
486312	-619	-891	281	3.490663	-10.83173	2.58069	0	10.04	4004	64	204	1	32	1.244677	3.364402	5	15	0.022	1400
486449	423	1081	-508	1.225475	-11.92213	2.008257	0	10.04	4003	76	-139	2	32	1.276923	3.462953	5	15	0.022	1400
486547	1015	-1123	-2027	0.3428669	-11.32526	2.697104	0	10.04	4003	-27	143	8	47	1.295538	3.531531	5	15	0.022	1400
486606	-349	741	1170	1.05411	-10.69432	2.729618	0	10.04	4004	27	163	7	45	1.276308	3.571611	5	15	0.022	1400
486734	-1995	-169	121	-0.757772	-9.302364	1.572687	0	10.04	4004	171	-138	23	41	1.253347	3.627357	5	15	0.022	1400
486823	-1009	488	1021	-1.444736	-9.609111	1.166459	0	10.04	4003	51	136	44	30	1.089747	3.707383	5	15	0.022	1400
486969	153	-1562	-1544	-1.855702	-8.215522	2.111196	0	10.04	4003	58	-110	-3	19	1.157237	3.812978	5	15	0.022	1400
487046	-174	454	1194	-1.456777	-5.877577	2.407714	0	10.04	4003	-45	126	21	17	1.152814	3.852892	5	15	0.022	1400
487115	539	-785	-1206	-1.66206	-5.902937	2.546318	0	10.04	4004	88	22	-6	17	1.185531	3.91084	5	15	0.022	1400
487256	854	-3066	-450	-1.50457	-4.18816	2.824858	0	10.26	4003	-51	-223	-8	-2	1.360252	4.042604	5	15	0.022	1400
487322	-156	-878	-223	-0.07475757	-1.737984	2.720868	0	10.26	4004	34	-70	0	1	1.362525	4.075657	5	15	0.022	1400
487424	-9	-728	-654	-0.03574779	-1.076321	2.711921	0	10.26	4003	75	-149	-10	7	1.386246	4.14414	5	15	0.022	1400
487571	-337	-1244	-906	-0.04125984	-2.239763	2.883973	0	10.26	4004	66	-129	-16	9	1.436803	4.247879	5	15	0.022	1400
487678	-642	-1975	-982	-1.650311	-1.22919	3.087558	0	10.26	4002	103	-176	-12	15	1.483777	4.299838	5	15	0.022	1400
487717	-883	-1416	-325	-1.928215	-1.040858	2.774565	0	10.26	4004	54	-151	-4	16	1.496163	4.318566	5	15	0.022	1400
487828	148	2036	1029	-2.094937	-3.647591	1.775925	0	10.26	4002	-34	142	36	16	1.432305	4.354441	5	15	0.022	1400
487914	-615	-1003	-969	-2.724424	-4.53213	1.900445	0	10.26	4004	90	-6	8	3	1.397575	4.385577	5	15	0.022	1400
488072	302	-892	600	-2.837117	1.307181	3.152482	0	9.98	4002	82	-10	-19	6	1.38252	4.478687	5	15	0.022	1400
488126	-1391	391	281	-3.18814	1.059915	2.700372	0	9.98	4002	82	-10	-19	6	1.371521	4.506314	5	15	0.022	1400
488332	906	1242	876	-3.648414	-2.050407	1.755278	0	9.98	4004	-27	61	37	12	1.193099	4.602623	5	15	0.022	1400
488488	989	1180	1319	-0.8320701	-2.962277	2.480498	0	9.98	4004	26	79	10	19	1.341056	4.649767	5	15	0.022	1400
488627	402	479	271	-2.264528	-5.127398	1.718377	0	9.98	4004	-67	-196	25	28	1.346123	4.65857	5	15	0.022	1400
488709	1166	1426	1071	-1.745876	-5.413857	1.676681	0	9.98	4002	-60	-55	23	28	1.363813	4.652614	5	15	0.022	1400
488860	215	-465	1297	-0.4182896	-4.719672	2.048118	0	9.98	4003	6	-169	22	28	1.443305	4.63319	5	15	0.022	1400
488919	175	-2220	-1304	0.1848638	-3.894562	2.136185	0	9.98	4004	69	-219	-1	31	1.456021	4.624993	5	15	0.022	1400
489032	958	387	644	1.450195	-3.372274	1.95392	0	10.55	4003	-104	-131	0	34	1.421158	4.606737	5	15	0.022	1400
489218	96	3	-1338	0.6980314	-3.976849	2.285927	0	10.55	4003	27	94	15	56	1.284875	4.509837	5	15	0.022	1400
489247	384	-886	-1055	0.5618681	-4.406222	2.367417	0	10.55	4003	-36	-229	3	56	1.269406	4.500543	5	15	0.022	1400
489320	-481	-1400	-1181	-0.8362819	-3.992328	2.74515	0	10.55	4002	88	5	-7	60	1.306755	4.470995	5	15	0.022	1400
489424	-1113	287	273	-1.211599	-4.260583	2.595078	0	10.55	4004	51	-288	-7	42	1.325923	4.413661	5	15	0.022	1400
489542	1107	-732	930	-0.2602467	-4.333305	2.02143	0	10.55	4004	46	225	19	43	1.339326	4.357494	5	15	0.022	1400
489631	-1463	1736	1553	-1.336962	-3.423967	2.020241	0	10.55	4002	-69	94	17	41	1.328833	4.328508	5	15	0.022	1400
489742	726	1292	-177	-1.437993	-4.830782	2.260554	0	10.55	4003	25	105	21	64	1.337477	4.292967	5	15	0.022	1400
489951	-132	551	987	-1.961137	-5.021482	1.691874	0	10.09	4004	104	119	47	49	1.324521	4.222352	5	15	0.022	1400
490095	-221	-1187	-834	-0.9405088	-3.823694	1.382436	0	10.09	4002	-21	-68	30	54	1.264033	4.086453	5	15	0.022	1400
490171	-600	-217	340	-1.365789	-3.406906	1.248899	0	10.09	4002	72	-66	43	49	1.278737	4.048984	5	15	0.022	1400
490221	666	1006	-253	-1.268835	-3.830688	1.339069	0	10.09	4004	72	-66	43	49	1.299259	4.029365	5	15	0.022	1400
490326	-484	1973	1002	-1.064829	-5.040061	1.728894	0	10.09	4003	4	193	44	53	1.169333	4.013817	5	15	0.022	1400
490445	-381	1505	687	-0.7334256	-5.591023	1.670079	0	10.09	4004	-18	-235	29	83	1.124439	3.949405	5	15	0.022	1400
490542	70	615	718	-0.7359937	-6.4553	1.822775	0	10.09	4002	11	141	28	92	1.174783	3.940247	5	15	0.022	1400
490633	-144	2171	1017	-0.9752556	-6.715616	2.064533	0	10.09	4003	105	80	8	62	1.28958	3.884944	5	15	0.022	1400
490820	710	-1186	-1639	-0.7590255	-8.044691	2.070436	0	10.09	4004	64	-91	0	54	1.301209	3.84574	5	15	0.022	1400
490833	710	-1186	-1639	-0.7590255	-8.044691	2.070436	0	10.09	4004	64	-91	0	54	1.301209	3.84574	5	15	0.022	1400
490962	560	-421	-634	0.7988262	-6.652213	1.835387	0	9.64	4004	119	58	14	51	1.24985	3.815925	5	15	0.022	1400
491053	896	941	408	1.237371	-6.620156	1.921724	0	9.64	4002	12	104	27	79	1.248273	3.808541	5	15	0.022	1400
491146	-705	41	1703	1.050082	-6.143847	2.202506	0	9.64	4003	-54	-112	13	71	1.224774	3.8043	5	15	0.022	1400
491220	-899	151	992	0.3201173	-5.5911	1.949241	0	9.64	4004	97	83	20	47	1.168352	3.808891	5	15	0.022	1400
491340	-29	-860	1598	-0.04187769	-2.807017	1.206337	0	9.64	4003	126	104	50	48	1.09893	3.825444	5	15	0.022	1400
491458	-567	208	417	0.4633108	-1.907199	1.508976	0	9.64	4004	142	40	19	48	1.156532	3.830085	5	15	0.022	1400
491575	-659	-1176	-1806	0.6508169	-2.423064	2.574847	0	9.64	4004	7	-266	-13	58	1.250149	3.853269	5	15	0.022	1400
491712	790	-1609	-1388	0.1238811	-1.2432	3.124216	0	9.64	4004	-20	-313	-21	40	1.334759	3.883343	5	15	0.022	1400
491768	-135	3698	1880	0.2806925	-4.382196	2.27569	0	10.77	4002	-36	13	30	44	1.216391	3.922679	5	15	0.022	1400
491840	-160	620	-1481	-0.4409164	-6.25162	2.146588	0	10.77	4004	-21	-213	5	39	1.173357	3.948624	5	15	0.022	1400
491948	-160	620	-1481	-0.4409164	-6.25162	2.146588	0	10.77	4004	5	-23	6	42	1.177209	3.965851	5	15	0.022	1400
492029	207	28	-209	-0.8751016	-8.38608	1.834371	0	10.77	4004	-49	-60	40	44	1.175354	3.969106	5	15	0.022	1400
492152	23	-751	-692	-0.6822485	-7.489917	1.590946	0	10.77	4003	105	118	10	50	1.149438	3.962823	5	15	0.022	1400
492224	23	-751	-692	-0.6822485	-7.489917	1.590946	0	10.77	4003	73	-253	-11	72	1.026402	3.957806	5	15	0.022	1400
492369	1498	-2092	1220	1.434285	-3.278548	2.782754	0	10.77	4002	-72	127	0	64	1.190049	3.950305	5	15	0.022	1400
492435	1127	-1777	247	1.699491	-1.450155	2.867143	0	10.77	4003	-69	139	15	61	1.193023	3.957273	5	15	0.022	1400
492633	294	-1730	-1481	2.08408	-2.478837	1.360051	0	10.77	4002	-19	-227	16	41	1.291204	3.989657	5	15	0.022	1400
492816	-320	1252	779	1.748971	-3.053921	1.935079	0	10.15	4004	-84	0	28	26	1.26482	4.020905	5	15	0.022	1400
492890	-95	-534	1027	1.197201	-3.518079	2.3863	0	10.15	4002	-33	-5	16	21	1.232435	4.087059	5	15	0.022	1400
492965	-975	-1060	1143	0.5720218	-1.893493	2.2133	0	10.15	4004	14	90	20	20	1.228566	4.122259	5	15	0.022	1400
493119	1033	593	786	-1.441213	-1.875978	1.989264	0	10.15	4003	-59	101	28	19	1.248846	4.202905	5	15	0.022	1400
493227	-353	-1414	-202	-0.1089015	-1.040929	2.165783	0	10.15	4002	40	-202	-3	17	1.304065	4.260367	5	15	0.022	1400
493302	-428	-54	226	-0.6207621	-1.415231	2.001476	0	10.15	4003	-26	148	34	16	1.209909	4.297719	5	15	0.022	1400
493516	520	-39	469	-1.566346	-2.096869	2.427555	0	9.98	4003	63	-141	21	12	1.217359	4.390952	5	15	0.022	1400
493631	1032	395	753	-0.2897781	-2.424851	2.814645	0	9.98	4003	-48	29	2	22	1.314333	4.459876	5	15	0.022	1400
493695	1032	395	753	-0.2897781	-2.424851	2.814645	0	9.98	4003	2	-57	-23	26	1.335017	4.475438	5	15	0.022	1400
493769	407	-566	-1739	-0.6565557	-2.387617	3.103929	0	9.98	4003	48	-155	2	28	1.360322	4.486842	5	15	0.022	1400
493921	6	739	-191	-1.485959	-4.100857	2.403506	0	9.98	4003	87	46	1	29	1.385389	4.496218	5	15	0.022	1400
494066	-359	-239	-863	-0.1876145	-6.02009	2.311089	0	9.98	4003	-31	-193	7	31	1.415236	4.504849	5	15	0.022	1400
494098	-432	2476	1014	-0.7839283	-6.549866	2.294633	0	9.98	4003	4	225	13	38	1.273712	4.50434	5	15	0.022	1400
494183	190	-1600	-1846	-0.9168285	-7.426172	2.277951	0	9.98	4004	8	-97	31	39	1.355934	4.502556	5	15	0.022	1400
494285	55	-2408	-290	-0.7422026	-6.426681	2.508704	0	9.98	4008	-60	-95	10	52	1.340739	4.494485	5	15	0.022	1400
494373	599	-973	1190	-0.6447943	-2.954846	2.799448	0	9.98	4004	29	-265	-10	36	1.31869	4.479872	5	15	0.022	1400
494511	-166	1502	-15	-1.569602	-4.032754	2.107618	0	9.81	4002	-31	205	41	38	1.349882	4.453933	5	15	0.022	1400
494558	939	197	189	-1.264201	-6.648065	1.721875	0	9.81	4003	-121	63	32	39	1.284483	4.440081	5	15	0.022	1400
494613	673	52	482	-0.6654404	-5.955812	2.086761	0	9.81	4004	25	30	-13	57	1.262345	4.407829	5	15	0.022	1400
494690	-262	2226	1635	-0.6102015	-8.059211	2.038722	0	9.81	4004	14	-285	8	40	1.31349	4.387151	5	15	0.022	1400
494726	-343	365	839	-1.92398	-8.316794	2.012686	0	9.81	4003	-53	211	31	51	1.31349	4.387151	5	15	0.022	1400
494775	182	-1719	-562	-2.54072	-7.429211	2.278836	0	9.81	4003	-72	-205	16	42	1.31349	4.387151	5	15	0.022	1400
494796	361	19	318	-2.192294	-7.581535	1.934634	0	9.81	4003	-25	258	33	40	1.257836	4.349789	5	15	0.022	1400
494868	334	-1042	1222	-2.01298	-4.735567	1.946582	0	9.81	4003	17	-367	0	39	1.313593	4.340109	5	15	0.022	1400
494938	760	2167	-1024	-1.204188	-6.141554	2.502789	0	9.81	4003	-3	14	-11	48	1.303397	4.327462	5	15	0.022	1400
495107	-1450	-421	1551	-2.128527	-6.190848	2.620146	0	10.38	4002	-87	82	10	55	1.369025	4.301986	5	15	0.022	1400
495160	-2274	479	1802	-2.526945	-5.900799	2.258975	0	10.38	4004	127	92	28	57	1.413409	4.28697	5	15	0.022	1400
495263	987	1070	-634	-2.043794	-7.296936	1.219663	0	10.38	4004	-28	-142	28	40	1.463282	4.272585	5	15	0.022	1400
495325	230	2159	-877	-0.6677983	-8.97446	1.051257	0	10.38	4003	63	-19	57	39	1.44294	4.26572	5	15	0.022	1400
495415	532	-189	-263	-1.098192	-9.639865	1.2395	0	10.38	4004	29	255	30	47	1.290842	4.253674	5	15	0.022	1400
495515	-713	-379	-1835	1.103273	-7.765689	2.4622	0	10.38	4002	-17	279	22	43	1.255205	4.231286	5	15	0.022	1400
495640	256	2530	769	-0.5608849	-10.32565	1.957271	0	10.38	4003	27	183	24	45	1.184553	4.194208	5	15	0.022	1400
495761	213	118	363	-0.3211874	-10.48563	1.72063	0	10.38	4002	-20	-80	37	53	1.204533	4.182424	5	15	0.022	1400
495862	-803	23	-37	0.6846897	-8.525226	1.545411	0	10.38	4002	-35	-157	16	38	1.170161	4.183694	5	15	0.022	1400
495917	-899	636	-279	0.2368453	-8.209468	1.305884	0	9.36	4002	83	-22	24	36	1.178292	4.188177	5	15	0.022	1400
496071	-73	196	-977	-0.7221699	-8.075633	1.452909	0	9.36	4004	1	9	51	41	1.154083	4.185627	5	15	0.022	1400
496114	-399	478	-85	-0.8948525	-8.219794	1.413245	0	9.36	4002	75	90	48	41	1.173004	4.178902	5	15	0.022	1400
496232	550	-575	915	-0.8737172	-7.173531	1.90646	0	9.36	4003	-85	-192	10	59	1.141537	4.17005	5	15	0.022	1400
496367	418	-1256	-1150	-0.1704339	-5.213716	2.259767	0	9.36	4004	66	133	8	59	1.191953	4.137042	5	15	0.022	1400
496425	418	-1256	-1150	-0.1704339	-5.213716	2.259767	0	9.36	4004	66	133	8	59	1.27706	4.129447	5	15	0.022	1400
496525	-353	1128	712	-0.0004386217	-5.857526	1.786959	0	9.36	4004	72	106	21	42	1.2446	4.118241	5	15	0.022	1400
496706	-110	855	961	0.4327396	-5.73246	2.898839	0	9.36	4002	39	-87	5	41	1.226725	4.111264	5	15	0.022	1400
496786	-433	1116	750	-0.331797	-5.549869	3.163855	0	9.36	4003	36	-251	-15	42	1.248642	4.105978	5	15	0.022	1400
496877	-330	223	431	-0.4671837	-5.714212	2.960899	0	9.98	4003	-4	206	29	45	1.288177	4.099624	5	15	0.022	1400
496902	-632	-1622	-1252	-0.9849728	-5.296204	2.908164	0	9.98	4004	-4	206	29	45	1.342554	4.094165	5	15	0.022	1400
497036	-552	-1607	-1080	-2.182914	-4.159686	2.542389	0	9.98	4002	116	143	25	36	1.334797	4.098385	5	15	0.022	1400
497123	-576	-116	-213	-2.183547	-2.058685	2.357288	0	9.98	4004	-57	10	38	39	1.360408	4.106705	5	15	0.022	1400
497199	204	-137	-238	-1.836443	-2.50183	1.732782	0	9.98	4002	-102	-63	52	44	1.352506	4.103004	5	15	0.022	1400
497320	334	561	109	-0.9892485	-3.031008	1.852424	0	9.98	4003	96	34	12	44	1.308293	4.098664	5	15	0.022	1400
497391	-374	-799	-506	-0.01736148	-2.302573	2.694975	0	9.98	4004	-62	-26	19	44	1.333666	4.092001	5	15	0.022	1400
497492	487	1621	889	-1.390011	-3.169637	2.759369	0	9.98	4004	48	64	13	52	1.369523	4.092827	5	15	0.022	1400
497592	24	-1275	814	-0.815047	-3.432304	2.53731	0	9.98	4004	-25	-182	14	49	1.418251	4.096288	5	15	0.022	1400
497683	-29	-2272	-1135	-0.7456279	-1.822373	2.670449	0	9.98	4002	0	-365	11	40	1.410365	4.102546	5	15	0.022	1400
497822	-657	-474	-1662	-0.5230201	-1.455113	2.70343	0	10.72	4002	60	-189	0	38	1.390632	4.115149	5	15	0.022	1400
497906	-19	-2250	-1707	0.0001278426	-1.788688	2.921749	0	10.72	4003	-33	-163	5	37	1.417265	4.120566	5	15	0.022	1400
497987	-406	-642	-1415	0.0282586	-1.177904	2.98553	0	10.72	4003	-84	-165	10	39	1.4274	4.129068	5	15	0.022	1400
498114	356	-1650	-373	-1.451836	-3.439865	2.570359	0	10.72	4004	0	126	35	43	1.218537	4.130116	5	15	0.022	1400
498193	1218	-551	-1375	-0.6646964	-2.593907	2.853303	0	10.72	4003	-36	-147	36	43	1.234596	4.128201	5	15	0.022	1400
498301	270	814	910	0.4919786	-3.237541	3.765888	0	10.72	4003	81	178	16	45	1.284104	4.120312	5	15	0.022	1400
498409	2141	275	984	1.859393	-3.31643	4.167304	0	10.72	4004	-111	43	19	48	1.339495	4.1031	5	15	0.022	1400
498499	2567	689	77	6.389144	-4.065835	4.406399	0	10.72	4002	9	-301	-4	43	1.375218	4.097784	5	15	0.022	1400
498646	2052	672	902	10.10854	-4.650611	3.689502	0	10.04	4003	-17	49	34	50	1.316713	4.102031	5	15	0.022	1400
498771	90	-1166	-797	10.14278	-5.054915	3.789644	0	10.04	4003	21	-21	-4	59	1.281305	4.096039	5	15	0.022	1400
498784	90	-1166	-797	10.14278	-5.054915	3.789644	0	10.04	4003	21	-21	-4	59	1.281305	4.096039	5	15	0.022	1400
498909	-1209	-275	-34	6.045188	-5.251535	3.545471	0	10.04	4003	80	-21	7	51	1.278962	4.062352	5	15	0.022	1400
499003	-556	-455	75	3.678376	-3.970421	3.575971	0	10.04	4003	22	-192	4	47	1.30364	4.051778	5	15	0.022	1400
499076	-822	-21	545	2.7328	-3.954174	3.505741	0	10.04	4004	137	30	10	51	1.266643	4.040597	5	15	0.022	1400
499193	-218	-136	736	1.20907	-3.575066	3.460795	0	10.04	4002	90	102	37	50	1.220237	4.011662	5	15	0.022	1400
499288	-94	237	-694	0.003613279	-3.529606	3.666827	0	10.04	4004	-58	-97	25	84	1.20593	3.999256	5	15	0.022	1400
499396	363	-2526	86	-0.288361	-2.257162	4.049236	0	10.04	4002	31	82	12	55	1.292485	3.988924	5	15	0.022	1400
499459	-909	-405	168	-0.5183063	-1.027766	4.457773	0	10.04	4003	126	88	-1	55	1.310687	3.984264	5	15	0.022	1400
499649	175	184	1270	-1.444066	-1.383026	4.136435	0	9.13	4002	-25	-2	29	59	1.275379	3.962813	5	15	0.022	1400
499704	998	-1868	-453	-0.5098006	-0.4977678	4.094905	0	9.13	4003	-43	-71	22	53	1.263238	3.961481	5	15	0.022	1400
499832	-189	-4	1109	0.6890556	-0.1148399	4.128216	0	9.13	4003	77	1	6	50	1.164971	3.978273	5	15	0.022	1400
499861	-189	-4	1109	0.6890556	-0.1148399	4.128216	0	9.13	4003	21	-308	3	64	1.180255	3.986082	5	15	0.022	1400
499991	974	-1067	-990	1.007122	2.790228	4.260181	0	9.13	4003	35	209	18	53	1.20639	3.994525	5	15	0.022	1400
500067	150	-1058	353	1.382298	3.060283	4.059731	0	9.13	4004	7	-174	13	59	1.329257	3.992282	5	15	0.022	1400
500187	-61	1838	1237	0.2708989	1.035057	3.576048	0	9.13	4002	49	164	27	63	1.369666	3.96491	5	15	0.022	1400
500269	734	977	-1305	0.01088733	0.09900124	3.650393	0	9.13	4004	79	162	34	59	1.369666	3.96491	5	15	0.022	1400
500450	740	2057	-1639	0.3795878	-7.751367	3.643888	0	9.98	4004	34	-117	1	57	1.346527	3.953993	5	15	0.022	1400
500509	382	1970	92	1.222826	-8.616625	4.180211	0	9.98	4004	76	240	5	59	1.322627	3.949172	5	15	0.022	1400
500635	-55	3022	-44	2.462867	-10.79812	4.284338	0	9.98	4003	-22	23	23	59	1.336271	3.929356	5	15	0.022	1400
500657	1154	1378	-1074	2.867351	-12.0729	4.391152	0	9.98	4002	-22	23	23	59	1.336271	3.929356	5	15	0.022	1400
500726	1154	1378	-1074	2.867351	-12.0729	4.391152	0	9.98	4002	-123	-110	14	56	1.231276	3.926422	5	15	0.022	1400
500863	-1212	-2635	807	1.435694	-9.142485	3.450264	0	9.98	4003	35	97	39	63	1.194027	3.918783	5	15	0.022	1400
500967	208	-1828	1095	1.392592	-5.321731	3.830535	0	9.98	4003	-102	-128	19	54	1.11864	3.91679	5	15	0.022	1400
501019	-631	447	1423	1.041043	-4.25739	3.825753	0	9.98	4003	40	180	24	51	1.120823	3.920281	5	15	0.022	1400
501115	-1098	1522	1835	0.8559567	-3.762588	3.496232	0	9.98	4002	79	316	51	50	1.132666	3.941226	5	15	0.022	1400
501250	-327	-1373	-245	1.650667	-3.158943	3.740253	0	9.98	4003	-52	-11	30	68	1.149936	3.96325	5	15	0.022	1400
501355	-413	-983	49	0.2535738	-0.487552	4.346331	0	10.26	4003	19	-217	12	64	1.22067	3.982125	5	15	0.022	1400
501465	-1423	807	-139	-0.8656593	-0.9833795	3.775539	0	10.26	4002	32	-125	13	34	1.112584	4.022883	5	15	0.022	1400
501520	-113	668	755	-0.9293262	-1.986576	3.415832	0	10.26	4004	43	234	42	32	1.115956	4.032904	5	15	0.022	1400
501641	-25	-1305	76	1.810123	-1.783858	3.782065	0	10.26	4002	-27	74	31	37	1.141158	4.098273	5	15	0.022	1400
501720	-1195	-2115	-1412	0.5000138	-0.4355321	4.226509	0	10.26	4004	25	-194	-6	38	1.148396	4.104527	5	15	0.022	1400
501915	1478	-632	-279	-0.2417988	-0.6949542	4.002933	0	10.26	4003	-38	-174	14	42	1.233729	4.159039	5	15	0.022	1400
501983	1558	-75	699	0.3743654	-0.5356308	4.111054	0	10.26	4004	-1	183	25	44	1.148924	4.172943	5	15	0.022	1400
502030	-455	-1003	-464	1.073333	-2.830469	3.972409	0	10.26	4002	11	-150	13	38	1.175809	4.18958	5	15	0.022	1400
502124	-455	-1003	-464	1.073333	-2.830469	3.972409	0	10.26	4002	-142	-28	15	33	1.193664	4.212756	5	15	0.022	1400
502221	-533	-1580	-125	0.9988667	-2.38235	4.268122	0	10.26	4002	-16	-128	0	36	1.314868	4.243834	5	15	0.022	1400
502327	404	-211	195	0.6976737	-1.238281	4.700035	0	10.04	4004	35	-179	7	41	1.65831	4.267996	5	15	0.022	1400
502398	147	-570	-1032	-0.1229483	-3.007378	4.122117	0	10.04	4004	113	-223	9	46	1.627307	4.27674	5	15	0.022	1400
502499	3135	1332	803	4.306157	-3.248962	4.385584	0	10.04	4003	-32	210	10	44	1.503587	4.292733	5	15	0.022	1400
502603	2057	2003	-378	6.553322	-4.806247	4.704354	0	10.04	4003	-57	207	-10	34	1.432415	4.322714	5	15	0.022	1400
502774	-835	-2176	213	7.364747	-4.34507	5.081009	0	10.04	4002	111	-143	-13	34	1.42169	4.372187	5	15	0.022	1400
502822	-835	-2176	213	7.364747	-4.34507	5.081009	0	10.04	4002	49	-132	-23	36	1.42169	4.372187	5	15	0.022	1400
502903	-638	1930	78	4.071584	-6.563832	5.376355	0	10.04	4002	-56	-165	-24	41	1.414654	4.392035	5	15	0.022	1400
503021	-1862	1036	318	-1.457129	-9.026448	5.370483	0	10.04	4003	-53	22	-21	58	1.362425	4.381671	5	15	0.022	1400
503107	-1460	-447	199	-2.205223	-8.746014	5.503872	0	10.04	4003	116	-119	-16	49	1.360855	4.370379	5	15	0.022	1400
503232	-3155	-527	-136	-9.024905	-7.400543	4.702731	0	10.38	4004	1	-95	6	62	1.334284	4.343272	5	15	0.022	1400
503309	-790	1	-63	-10.95881	-6.694006	4.508661	0	10.38	4004	41	-214	-8	50	1.334737	4.327173	5	15	0.022	1400
503454	-1411	1988	238	-13.30075	-9.100518	4.217426	0	10.38	4004	-18	104	29	50	1.348595	4.312542	5	15	0.022	1400
503564	357	-2445	-952	-12.32399	-8.214279	4.345229	0	10.38	4002	32	10	4	53	1.264525	4.288708	5	15	0.022	1400
503634	357	-2445	-952	-12.32399	-8.214279	4.345229	0	10.38	4002	-9	-398	-11	72	1.221629	4.254079	5	15	0.022	1400
503707	357	-2445	-952	-12.32399	-8.214279	4.345229	0	10.38	4002	-18	292	29	75	1.302726	4.229401	5	15	0.022	1400
503806	2412	160	782	-5.15998	-3.352266	4.152507	0	10.38	4002	112	-88	24	53	1.323151	4.194614	5	15	0.022	1400
503890	3261	-317	-1432	-2.228202	-2.910379	4.782343	0	10.38	4003	50	-92	-20	57	1.303855	4.183115	5	15	0.022	1400
504013	2577	1677	1196	3.830287	-3.218278	5.321737	0	9.53	4004	-70	89	-1	67	1.239485	4.123845	5	15	0.022	1400
504154	1746	246	-1195	7.01557	-6.188396	5.124941	0	9.53	4003	40	79	-14	67	1.300599	4.055948	5	15	0.022	1400
504201	-554	4160	2241	7.361618	-8.233037	4.872453	0	9.53	4004	113	240	20	61	1.317945	4.019946	5	15	0.022	1400
504311	-1082	1024	-690	5.992905	-11.57283	4.115642	0	9.53	4004	57	163	7	106	1.262469	3.992534	5	15	0.022	1400
504454	-284	7	1011	3.332016	-11.49764	5.337679	0	9.53	4003	-132	-193	-24	113	1.125915	3.913025	5	15	0.022	1400
504559	-218	220	1017	1.862281	-9.562851	5.231779	0	9.53	4002	-18	-205	-18	80	1.096879	3.877149	5	15	0.022	1400
504596	945	237	632	2.239137	-9.190042	4.980662	0	9.53	4002	-61	-43	-5	83	1.085055	3.82096	5	15	0.022	1400
504718	-330	-1006	-291	1.921434	-6.64583	4.618052	0	9.53	4003	47	-123	-8	82	1.074653	3.79001	5	15	0.022	1400
504863	-264	-1144	888	0.7862408	-1.383771	4.742011	0	9.53	4002	-4	-143	-23	72	1.046111	3.745632	5	15	0.022	1400
504904	-264	-1144	888	0.7862408	-1.383771	4.742011	0	9.53	4002	29	113	9	105	1.040524	3.734031	5	15	0.022	1400
505067	701	-367	-1147	-0.08011721	-0.2318989	3.822094	0	9.36	4004	-110	15	23	99	1.013611	3.698623	5	15	0.022	1400
505110	402	477	330	0.5879727	-0.7284827	3.860053	0	9.36	4003	104	-133	6	70	1.013611	3.698623	5	15	0.022	1400
505200	-11	-619	-656	0.6876002	-0.7421405	4.08825	0	9.36	4003	-2	-33	29	69	1.138302	3.689729	5	15	0.022	1400
505307	-444	934	851	0.6783941	-2.196553	4.284302	0	9.36	4002	11	256	19	64	1.115095	3.695185	5	15	0.022	1400
505412	158	1809	1023	-0.4652313	-5.284791	3.614592	0	9.36	4004	-12	-73	26	62	1.043664	3.722724	5	15	0.022	1400
505524	786	-619	-621	0.3720757	-5.793142	3.836942	0	9.36	4003	-20	-202	16	74	1.071301	3.750411	5	15	0.022	1400
505586	534	-1477	547	0.3161873	-4.93515	4.230281	0	9.36	4003	-42	-56	18	55	1.106893	3.766659	5	15	0.022	1400
505756	-513	-1476	-1194	-0.2299096	-2.896917	4.725349	0	9.36	4002	-64	3	14	51	1.143642	3.829228	5	15	0.022	1400
505877	773	-99	-618	0.3045284	-2.70556	4.734322	0	10.09	4003	-25	98	19	54	1.082453	3.876365	5	15	0.022	1400
505906	444	-533	-289	0.7017912	-2.267816	4.431574	0	10.09	4003	38	-77	1	53	1.092852	3.884743	5	15	0.022	1400
505981	-335	-1265	-1078	0.1884074	-1.397293	4.432557	0	10.09	4003	36	-91	-4	52	1.096071	3.892999	5	15	0.022	1400
506063	240	1522	723	-0.1021413	-0.9799594	4.813794	0	10.09	4003	-8	-222	-9	63	1.098968	3.908984	5	15	0.022	1400
506147	434	-434	338	-0.7218066	-4.170301	4.413922	0	10.09	4002	-39	-172	6	62	1.179431	3.97732	5	15	0.022	1400
506252	178	1020	761	-0.6193081	-3.110313	4.581938	0	10.09	4003	53	-5	-11	44	1.172502	4.002985	5	15	0.022	1400
506350	178	1020	761	-0.6193081	-3.110313	4.581938	0	10.09	4003	22	-62	2	47	1.158117	4.030794	5	15	0.022	1400
506506	-443	-92	439	-0.2458333	-2.259364	4.764213	0	10.09	4003	-103	112	5	42	1.116754	4.066458	5	15	0.022	1400
506547	-443	-92	439	-0.2458333	-2.259364	4.764213	0	10.09	4003	-46	147	-11	42	1.176021	4.088113	5	15	0.022	1400
506644	297	499	68	-0.0484521	-4.333878	4.622318	0	10.09	4004	-60	-15	10	43	1.241932	4.110079	5	15	0.022	1400
506834	778	1213	195	1.262584	-5.160054	4.653841	0	9.7	4002	-62	96	-5	46	1.30975	4.156226	5	15	0.022	1400
506868	778	1213	195	1.262584	-5.160054	4.653841	0	9.7	4002	-19	74	0	43	1.310796	4.162314	5	15	0.022	1400
506994	928	457	110	0.03665293	-5.951605	5.334007	0	9.7	4002	-101	91	-9	45	1.404387	4.196872	5	15	0.022	1400
507047	958	1303	436	0.3685735	-6.497339	5.31041	0	9.7	4004	-101	91	-9	45	1.430715	4.20097	5	15	0.022	1400
507145	958	1303	436	0.3685735	-6.497339	5.31041	0	9.7	4004	5	-62	-11	49	1.415422	4.204764	5	15	0.022	1400
507251	-430	-2533	-73	-0.02913656	-4.593449	5.167289	0	9.7	4003	11	-175	-9	62	1.429291	4.208647	5	15	0.022	1400
507363	-670	1721	307	-1.01637	-4.924067	4.639903	0	9.7	4004	-29	-25	10	59	1.448157	4.205865	5	15	0.022	1400
507430	-1862	-1694	-330	-2.281639	-4.915277	4.561949	0	9.7	4004	125	-128	-2	48	1.449958	4.20673	5	15	0.022	1400
507534	-397	-1193	-1367	-4.177253	-1.565674	5.380493	0	9.7	4004	29	-15	-34	50	1.414915	4.223468	5	15	0.022	1400
507678	1465	-741	-532	-3.497385	-0.8789392	5.26551	0	9.47	4003	27	-55	-18	50	1.412772	4.233219	5	15	0.022	1400
507835	915	1124	822	-1.171458	-1.690483	4.750877	0	9.47	4003	-54	161	0	47	1.385588	4.244802	5	15	0.022	1400
507844	6	1448	-794	-0.1528655	-4.497255	4.964933	0	9.47	4004	-54	161	0	47	1.385588	4.244802	5	15	0.022	1400
507943	355	812	209	-0.6538509	-5.326591	5.221246	0	9.47	4002	-94	-23	-15	56	1.370723	4.255633	5	15	0.022	1400
508072	322	1671	265	0.474713	-10.72277	5.630819	0	9.47	4004	-15	80	-23	66	1.358833	4.252669	5	15	0.022	1400
508136	314	-325	-46	0.5147213	-10.81889	5.716991	0	9.47	4002	38	-71	-30	80	1.379713	4.236591	5	15	0.022	1400
508227	-193	-1889	161	0.9762922	-8.897926	5.560315	0	9.47	4004	-68	108	-6	69	1.330412	4.201284	5	15	0.022	1400
508323	-483	-1787	1323	-0.3462521	-4.535163	4.851277	0	9.47	4003	-65	-55	13	69	1.355895	4.133032	5	15	0.022	1400
508442	222	-215	-323	-1.050188	-4.060254	4.499854	0	9.47	4002	-119	-128	33	68	1.22754	4.072662	5	15	0.022	1400
508507	394	-852	896	-1.33752	-7.100828	3.294523	0	9.47	4002	-13	10	41	67	1.251194	4.032265	5	15	0.022	1400
508603	-819	-2434	996	-1.133593	-5.483341	3.306666	0	10.21	4004	-37	-248	3	72	1.34224	4.002212	5	15	0.022	1400
508723	445	-54	-1151	-1.560625	-1.469079	4.12636	0	10.21	4004	-30	-97	5	79	1.477387	3.966023	5	15	0.022	1400
508824	-538	-1439	-60	-1.8686	-0.6795877	4.339478	0	10.21	4004	-22	-191	-4	80	1.309143	3.887011	5	15	0.022	1400
508994	0	2421	1314	-2.901028	-3.374278	3.740649	0	10.21	4002	-17	-22	42	92	1.294545	3.790933	5	15	0.022	1400
509046	0	2421	1314	-2.901028	-3.374278	3.740649	0	10.21	4002	36	-109	34	89	1.294545	3.790933	5	15	0.022	1400
509089	0	2421	1314	-2.901028	-3.374278	3.740649	0	10.21	4002	-6	308	37	128	1.278168	3.726382	5	15	0.022	1400
509208	494	998	690	-1.219448	-5.564469	4.320338	0	10.21	4003	-11	3	18	120	1.279987	3.685083	5	15	0.022	1400
509325	-132	-918	-1272	-1.878459	-4.984353	4.66993	0	10.21	4004	-17	-167	24	109	1.132919	3.642222	5	15	0.022	1400
509411	1221	1821	1520	1.552179	-7.789929	4.112646	0	8.96	4003	5	162	1	79	1.150448	3.636359	5	15	0.022	1400
509536	-1442	-1867	926	1.535777	-4.75692	4.067729	0	8.96	4003	164	70	11	80	1.164133	3.62016	5	15	0.022	1400
509631	-908	-394	1494	1.19805	-2.717645	4.215052	0	8.96	4004	-12	160	29	83	1.185516	3.593059	5	15	0.022	1400
509680	-531	-675	-921	0.7144201	-3.094148	4.130273	0	8.96	4004	-20	-298	12	87	1.191621	3.573614	5	15	0.022	1400
509779	1038	955	809	2.552148	-3.777687	4.113522	0	8.96	4004	-63	-83	16	88	1.201316	3.534177	5	15	0.022	1400
509935	717	-1468	-1119	4.256022	-5.201456	4.559863	0	8.96	4004	70	-54	-16	80	1.127566	3.51453	5	15	0.022	1400
510034	358	-371	172	4.858685	-3.921292	4.846086	0	8.96	4003	58	-210	-16	114	1.113726	3.505315	5	15	0.022	1400
510074	-120	413	378	4.300191	-4.168928	4.701359	0	8.96	4003	-11	-207	-9	78	1.124365	3.502068	5	15	0.022	1400
510206	-893	-821	-1290	3.339613	-4.343694	4.969358	0	8.96	4002	-50	320	-1	78	1.052668	3.511058	5	15	0.022	1400
510261	-81	-166	626	1.703916	-3.796252	4.968332	0	8.96	4003	-127	-161	-16	75	1.059185	3.514552	5	15	0.022	1400
510443	-530	-1059	-1108	0.3133277	-1.670835	4.211161	0	9.47	4002	48	-207	0	103	1.107327	3.532622	5	15	0.022	1400
510511	-306	-303	-113	0.2751649	-1.133067	4.317679	0	9.47	4004	47	-40	-6	108	1.147892	3.533091	5	15	0.022	1400
510573	-1423	181	-1274	-1.562145	-2.705225	4.218935	0	9.47	4002	6	-79	12	84	1.217257	3.530001	5	15	0.022	1400
510650	-344	396	1069	-1.507226	-2.728492	4.155931	0	9.47	4003	105	47	13	89	1.320906	3.503943	5	15	0.022	1400
510772	-417	-12	1857	-1.118533	-1.804544	3.579979	0	9.47	4004	-65	-185	30	85	1.377511	3.487156	5	15	0.022	1400
510842	-594	824	1129	-0.7482393	-1.541502	3.486157	0	9.47	4004	32	189	32	86	1.429382	3.482149	5	15	0.022	1400
510961	-118	381	836	-1.901528	-1.708218	3.48462	0	9.47	4003	-81	127	37	102	1.293078	3.487478	5	15	0.022	1400
511095	364	-198	778	-1.519295	-0.4410461	4.166658	0	9.47	4002	15	-110	-11	74	1.217203	3.520594	5	15	0.022	1400
511175	-580	517	925	-1.281989	0.160086	4.398221	0	9.47	4002	-12	-147	-5	92	1.239715	3.525578	5	15	0.022	1400
511237	1191	-551	-1561	-1.503602	-0.5950088	4.720771	0	9.87	4003	85	-14	-9	72	1.278209	3.544573	5	15	0.022	1400
511334	-1201	296	-16	-0.735476	-0.8025819	4.560296	0	9.87	4003	55	-21	0	70	1.389858	3.597177	5	15	0.022	1400
511474	567	800	977	-1.877187	-1.266743	4.377696	0	9.87	4003	65	214	17	68	1.364998	3.630167	5	15	0.022	1400
511556	304	298	0	-1.401998	-2.153699	4.02746	0	9.87	4004	-2	-179	16	87	1.361046	3.650755	5	15	0.022	1400
511624	775	310	565	-1.098724	-2.279655	4.184079	0	9.87	4002	40	159	9	81	1.381245	3.677512	5	15	0.022	1400
511722	-1617	1442	1099	-1.853806	-2.114822	4.207241	0	9.87	4004	48	113	9	80	1.286041	3.721051	5	15	0.022	1400
511822	1847	-1102	-46	-2.128131	-2.715463	4.454015	0	9.87	4003	-84	-164	8	60	1.283309	3.773831	5	15	0.022	1400
511993	72	64	-1427	-1.607314	-3.174137	4.297378	0	9.87	4004	82	-96	2	0	1.280782	3.833137	3	15	0.022	1400
512096	804	-719	-162	-1.006756	-3.982985	3.912445	0	9.13	4003	85	-336	-1	0	1.279475	3.860936	3	15	0.022	1400
512144	-527	-1525	-974	-1.295607	-4.113358	3.768018	0	9.13	4003	69	277	22	0	1.278522	3.90061	3	15	0.022	1400
512224	-525	-2432	-1437	-1.239465	-3.586058	4.217863	0	9.13	4004	107	-150	-20	0	1.278036	3.919995	3	15	0.022	1400
512370	-857	384	-183	-1.046841	-4.696358	5.342765	0	9.13	4002	71	-14	-14	0	1.277322	3.935519	3	15	0.022	1400
512431	-724	-744	-870	-1.269266	-4.311993	5.404878	0	9.13	4003	-40	-64	-22	0	1.277063	3.941997	3	15	0.022	1400
512579	-272	1621	610	-1.374018	-3.268081	4.596727	0	9.13	4003	-29	-66	-8	0	1.276684	3.945149	3	15	0.022	1400
512642	-70	2258	-9	-1.682015	-4.118951	4.380011	0	9.13	4004	7	-13	16	0	1.276546	3.934365	3	15	0.022	1400
512741	540	685	-356	-1.723964	-6.918184	4.153389	0	9.13	4003	2	-55	4	0	1.276387	3.919702	3	15	0.022	1400
512837	95	-64	-793	-1.65696	-6.603949	4.421904	0	9.13	4002	61	-55	6	0	1.27624	3.884353	3	15	0.022	1400
512930	237	1017	609	-1.421338	-5.900696	4.765548	0	9.13	4002	22	42	-5	0	1.276187	3.860796	3	15	0.022	1400
513074	1495	790	434	-0.7158961	-6.373443	4.791348	0	9.13	4003	69	-107	-8	0	1.276109	3.813772	3	15	0.022	1400
513148	-287	274	-1036	0.3296967	-7.869457	4.709811	0	8.56	4002	13	205	20	0	1.276081	3.785972	3	15	0.022	1400
513247	52	-2846	111	-0.9276821	-4.359175	5.067601	0	8.56	4003	-27	98	-12	0	1.276048	3.729301	3	15	0.022	1400
513340	-1355	-3149	318	-1.865127	2.032591	6.033536	0	8.56	4003	-27	98	-12	0	1.276031	3.703178	3	15	0.022	1400
513553	-978	-1750	-850	-4.166495	3.91607	7.712332	0	8.56	4002	9	-92	-82	0	1.275994	3.585772	3	15	0.022	1400
513652	192	3958	2534	-4.201505	2.410164	7.137839	0	8.56	4003	47	345	-37	0	1.275985	3.536597	3	15	0.022	1400
513840	-113	3579	2190	-1.389944	-5.139224	5.601471	0	8.56	4002	109	58	-16	0	1.275973	3.281097	3	15	0.022	1400
513888	992	2110	2026	1.426677	-6.079786	4.178377	0	8.56	4003	23	162	31	0	1.275973	3.281097	3	15	0.022	1400
513952	176	558	-253	1.324925	-6.630333	3.809773	0	8.96	4003	-76	-95	41	0	1.275969	3.196562	3	15	0.022	1400
514123	674	-1464	-1180	1.745186	-7.502131	4.258558	0	8.96	4002	6	-81	0	0	1.275965	2.933909	3	15	0.022	1400
514191	1705	-2946	-673	2.696716	-4.353857	5.131182	0	8.96	4003	34	-106	-14	0	1.275965	2.933909	3	15	0.022	1400
514264	509	-731	648	3.286535	-0.8555267	4.619438	0	8.96	4004	-24	-55	7	0	1.275964	2.761836	3	15	0.022	1400
514395	134	43	857	3.12183	-0.9928029	3.882403	0	8.96	4004	-12	-79	58	0	1.275962	2.527508	3	15	0.022	1400
514518	-1281	1580	-534	4.803082	-3.453339	2.309601	0	8.96	4003	15	-67	30	0	1.275962	2.335609	3	15	0.022	1400
514575	-1817	2632	126	2.714948	-5.273499	3.190587	0	8.96	4003	89	-148	28	0	1.275961	2.294653	3	15	0.022	1400
514672	235	199	-751	1.37615	-7.938797	3.725725	0	8.96	4004	64	69	7	0	1.275961	2.208868	3	15	0.022	1400
