time(ms)	gyro_x(deg/s)	gyro_y(deg/s)	gyro_z(deg/s)	orientation_roll(deg)	orientation_pitch(deg)	orientation_yaw(deg)	throttle	battery(V)	loop_time(uS)	pid_output_roll	pid_output_pitch	pid_output_yaw	pid_output_throttle	ultrasonic_alt	baro_alt	flight_mode	p_gain_altitude	i_gain_altitude	d_gain_altitude
61928	-1421	1333	1297	0.3653004	-4.349597	0.21216	0	11.34	4003	-25	-182	-15	-5	0.887431	0.752515	4	20	0.022	1600
62073	950	-2344	-999	2.119817	-4.199955	0.4646566	0	11.34	4002	103	-174	-29	125	0.8281837	0.7225428	4	20	0.022	1600
62180	-1532	159	-51	1.912403	-3.209642	0.07935217	0	9.7	4003	-15	123	2	-25	0.8595659	0.709084	4	20	0.022	1600
62223	-464	-583	-119	1.183023	-3.081594	-0.05340025	0	9.7	4004	-79	110	8	-36	0.8733537	0.7067665	4	20	0.022	1600
62384	191	510	-351	2.084825	-1.376685	0.411762	0	9.7	4002	27	110	-23	-56	0.9515211	0.7126207	4	20	0.022	1600
62441	-915	41	-234	1.913036	-1.872621	0.4348153	0	9.7	4002	46	-25	-18	-33	0.9754962	0.7198912	4	20	0.022	1600
62526	1330	607	470	1.346141	-2.521777	0.5646699	0	9.7	4004	8	-125	-42	-29	0.9857172	0.7231916	4	20	0.022	1600
62630	486	1294	-1283	1.7321	-5.721756	0.6221283	0	9.7	4003	29	-145	-37	-2	0.9775777	0.7441931	4	20	0.022	1600
62741	-883	-1990	-1193	2.755135	-6.933314	0.8470457	0	9.7	4003	-36	-253	-32	25	0.9463037	0.7443249	4	20	0.022	1600
62840	-20	-297	630	2.834132	-5.793047	1.074896	0	9.7	4002	4	-84	-18	19	0.9255859	0.7404665	4	20	0.022	1600
62955	467	1889	1175	1.223185	-4.964736	-0.6113515	0	9.7	4003	-58	129	-4	17	0.9068494	0.7398565	4	20	0.022	1600
63043	942	1040	197	1.586888	-6.769204	-0.9674833	0	10.21	4004	-67	68	35	7	0.8445745	0.7386001	4	20	0.022	1600
63191	726	-1837	-1099	-0.09076249	-6.533534	-0.5973963	0	10.21	4002	-144	-203	10	-6	0.815528	0.7393799	4	20	0.022	1600
63338	2870	1386	398	3.068064	-6.081981	-0.3517302	0	10.21	4004	-16	12	-7	25	0.7916235	0.7500562	4	20	0.022	1600
63374	2870	1386	398	3.068064	-6.081981	-0.3517302	0	10.21	4004	49	195	-1	42	0.7565007	0.7616767	4	20	0.022	1600
63446	2001	2735	-594	5.538739	-9.566532	-0.113876	0	10.21	4003	73	-72	-18	39	0.7109963	0.7784524	4	20	0.022	1600
63619	1277	233	-942	5.025391	-12.1407	0.1808991	0	10.21	4003	3	-79	-30	19	0.675221	0.7768773	4	20	0.022	1600
63702	167	381	-470	5.230598	-12.37365	0.2787143	0	10.21	4004	-43	121	0	-3	0.6667089	0.7744649	4	20	0.022	1600
63803	227	-1071	1110	3.704723	-10.12923	0.5653532	0	10.21	4004	89	65	-21	10	0.6532716	0.7766838	4	20	0.022	1600
63907	-1765	2082	2179	2.058814	-9.817134	-0.1936896	0	10.21	4003	-46	-48	17	-6	0.6438881	0.762502	4	20	0.022	1600
63957	-1265	-849	-298	0.303988	-10.19563	-0.8898033	0	10.89	4004	57	-3	19	-30	0.6566743	0.7584544	4	20	0.022	1600
64060	1024	-1653	-942	0.5025888	-6.15755	-0.4778438	0	10.89	4004	-156	121	18	-21	0.6836889	0.7509414	4	20	0.022	1600
64162	-154	-745	-1337	0.1602708	-6.241096	0.03074202	0	10.89	4004	-2	134	-19	-43	0.7168543	0.7410982	4	20	0.022	1600
64282	339	-2217	-1211	0.229183	-5.506609	0.6322888	0	10.89	4003	-53	-317	-38	-38	0.7281749	0.7392228	4	20	0.022	1600
64418	883	1044	1059	3.665256	-3.709681	-0.4084584	0	10.89	4004	-125	132	19	-18	0.7025732	0.7154189	4	20	0.022	1600
64501	-1376	-1135	-706	3.05868	-4.379087	-0.8383387	0	10.89	4003	6	-272	3	-25	0.7320612	0.695971	4	20	0.022	1600
64604	537	555	1200	2.871443	-3.767499	-0.4665375	0	10.89	4002	-60	-288	0	-24	0.7775847	0.6934056	4	20	0.022	1600
64701	-1004	1116	-404	2.200897	-5.522789	-0.2898417	0	10.89	4003	75	-159	-2	-46	0.8351124	0.6837119	4	20	0.022	1600
64802	478	-1429	-567	1.466923	-5.913966	0.1953249	0	10.89	4004	14	-179	-11	-39	0.858171	0.6697097	4	20	0.022	1600
64865	484	-1061	567	1.948948	-5.506146	0.2236697	0	10.89	4003	-61	-98	-6	-12	0.8587899	0.6676603	4	20	0.022	1600
64996	-227	-238	-134	1.540708	-6.605303	0.100094	0	10.72	4003	106	-136	-7	-36	0.817133	0.6470775	4	20	0.022	1600
65116	-1293	-766	-1138	2.634607	-7.365642	-0.2052376	0	10.72	4002	-9	-148	-18	-28	0.8501953	0.6443816	4	20	0.022	1600
65181	-837	-246	-256	2.936299	-6.51431	-0.5035912	0	10.72	4003	-1	196	30	-23	0.8656599	0.6405969	4	20	0.022	1600
65317	-766	361	-340	2.609602	-6.582163	-0.6164898	0	10.72	4004	-10	-41	-11	-1	0.8600366	0.625017	4	20	0.022	1600
65383	-1210	625	19	1.412347	-7.474845	0.594841	0	10.72	4004	-16	79	-22	-20	0.8714156	0.6246713	4	20	0.022	1600
65539	2020	1152	814	2.250159	-6.342309	1.552019	0	10.72	4004	-94	132	-35	-13	0.7886602	0.6218209	4	20	0.022	1600
65589	-670	2140	1204	2.444881	-7.115354	1.395258	0	10.72	4004	49	111	-56	0	0.7900562	0.6220716	3	20	0.022	1600
65676	-1499	335	1410	2.968651	-7.440891	0.7179305	0	10.72	4004	-59	4	-20	0	0.793461	0.627125	3	20	0.022	1600
65899	436	68	-1055	0.125371	-5.002696	-0.09430864	0	10.72	4004	-114	182	13	0	0.7982394	0.6357431	3	20	0.022	1600
66074	-245	-1187	484	-0.2563782	-4.598563	0.2504664	0	10.72	4004	-114	-70	2	0	0.800292	0.6696814	3	20	0.022	1600
66131	343	615	983	-0.1899903	-4.071508	-0.1662229	0	10.72	4004	40	73	2	0	0.8005248	0.674002	3	20	0.022	1600
66267	767	505	869	1.737075	-3.345018	-1.0049	0	10.72	4004	82	6	23	0	0.8012453	0.6823051	3	20	0.022	1600
66324	2007	947	522	4.045339	-4.358693	-1.027349	0	10.72	4002	121	-128	9	0	0.8015065	0.6798356	3	20	0.022	1600
66418	1307	2529	1151	6.186751	-6.251925	-1.063069	0	10.72	4002	-64	234	41	0	0.8017181	0.6882373	3	20	0.022	1600
66473	1307	2529	1151	6.186751	-6.251925	-1.063069	0	10.72	4002	9	147	28	0	0.8019625	0.6968508	3	20	0.022	1600
66624	73	943	148	7.624505	-10.19426	-0.4130915	0	10.72	4003	-58	-81	6	0	0.8021407	0.7107413	3	20	0.022	1600
66765	-525	-1062	-319	4.94773	-11.39329	0.5869853	0	11.11	4004	27	4	-24	0	0.802337	0.7574644	3	20	0.022	1600
66834	-305	-2085	-230	4.522003	-8.491571	0.7142072	0	11.11	4003	-77	-16	-19	0	0.8023908	0.7844756	3	20	0.022	1600
66976	-725	-1607	754	3.552952	-4.889383	0.1455644	0	11.11	4003	14	-31	-11	0	0.8024696	0.8295485	3	20	0.022	1600
67076	-1444	-1872	-119	1.462222	-1.677137	-0.2521233	0	11.11	4002	-35	16	-28	0	0.8025213	0.8577599	3	20	0.022	1600
67251	-22	160	1921	2.466733	-2.228086	-4.667197	0	11.11	4002	38	-140	-31	0	0.8025618	0.8986923	3	20	0.022	1600
67335	-901	-297	1513	2.511502	-3.417318	-8.296442	0	11.11	4003	32	-116	2	0	0.8025776	0.9205602	3	20	0.022	1600
67367	-901	-297	1513	2.511502	-3.417318	-8.296442	0	11.11	4003	-16	-145	7	0	0.8025818	0.9246334	3	20	0.022	1600
67505	-425	1869	-169	-0.1093115	-4.943826	-10.9591	0	11.11	4004	-47	184	64	0	0.802595	0.9342598	3	20	0.022	1600
67661	-1088	-553	-1226	-1.400368	-5.443968	-9.169237	0	11	4004	-19	24	-3	0	0.8026053	0.9301816	3	20	0.022	1600
67712	-903	1362	-325	-2.087812	-5.395211	-8.778144	0	11	4004	-63	-147	0	0	0.8026068	0.9287929	3	20	0.022	1600
67827	-202	-750	-521	-3.095712	-6.407609	-10.21105	0	11	4003	-139	-10	43	0	0.8026113	0.9197141	3	20	0.022	1600
67885	2877	-2140	-123	-0.1168432	-3.999651	-10.51643	0	11	4002	75	102	31	0	0.8026122	0.9112777	3	20	0.022	1600
67973	344	243	-1291	1.741463	-2.795585	-10.06246	0	11	4003	-122	-45	11	0	0.8026143	0.8966402	3	20	0.022	1600
68061	-65	1062	-249	1.726757	-3.255469	-9.684107	0	11	4004	88	8	-20	0	0.8026159	0.8769438	3	20	0.022	1600
68165	560	660	-369	3.791802	-4.866977	-9.311329	0	11	4004	-52	32	-22	0	0.802617	0.8671318	3	20	0.022	1600
68269	-474	-1473	33	4.1898	-3.449126	-9.238889	0	11	4003	-41	41	-29	0	0.8026178	0.8530636	3	20	0.022	1600
68418	-686	-16	914	3.811064	-1.995636	-10.05864	0	11	4003	-89	-32	-21	0	0.8026186	0.8546321	3	20	0.022	1600
68492	-188	-185	769	3.485715	-1.893681	-10.41139	0	11	4004	-79	34	-12	0	0.8026189	0.8564116	3	20	0.022	1600
68630	-2233	2397	1859	-0.01202593	-3.434279	-12.36909	0	10.83	4002	56	35	-17	0	0.8026193	0.8685151	3	20	0.022	1600
68691	-2154	1888	801	-1.769526	-4.491642	-13.70165	0	10.83	4003	70	174	32	0	0.8026194	0.867257	3	20	0.022	1600
68904	589	-2896	127	-0.7976366	-0.5371379	-13.37624	0	10.83	4002	-7	134	-2	0	0.8026197	0.8506955	3	20	0.022	1600
69031	1540	210	531	-0.3683048	0.951517	-12.31136	0	10.83	4003	-33	-81	-25	0	0.8026197	0.8571038	3	20	0.022	1600
69121	573	-1688	239	3.409493	1.418027	-12.40491	0	10.83	4003	9	-67	-12	0	0.8026197	0.8468692	3	20	0.022	1600
69180	1506	-457	345	4.329012	1.752974	-12.55812	0	10.83	4003	-139	126	-8	0	0.8026197	0.8434556	3	20	0.022	1600
69287	868	534	119	5.815053	-0.2001324	-13.10727	0	10.83	4004	23	-140	-1	0	0.8026197	0.8245969	3	20	0.022	1600
69435	-479	2211	567	6.306917	-2.919113	-13.50324	0	10.83	4003	127	-53	-2	0	0.8026197	0.8076909	3	20	0.022	1600
69550	-402	1279	-1328	3.39941	-9.150001	-14.08546	0	10.72	4004	-135	76	30	0	0.8026197	0.7868451	3	20	0.022	1600
69652	-2837	-485	600	-0.6039964	-8.550055	-14.81479	0	10.72	4003	-48	-168	43	0	0.8026197	0.7705352	3	20	0.022	1600
69790	-833	1251	-169	0.5077315	-8.556974	-13.7428	0	10.72	4003	30	136	-2	0	0.8026197	0.7709156	3	20	0.022	1600
69915	1602	2534	558	1.072842	-9.92527	-12.53281	0	10.72	4002	7	-232	-23	0	0.8026197	0.7950402	3	20	0.022	1600
69992	1935	1492	-324	2.823713	-11.6176	-12.75508	0	10.72	4004	20	26	-17	0	0.8026197	0.8061761	3	20	0.022	1600
70118	1336	-582	507	6.391238	-9.755241	-13.24747	0	10.72	4002	-37	-29	1	0	0.8026197	0.8031399	3	20	0.022	1600
70270	565	-1328	-518	7.581528	-9.164103	-13.68863	0	10.72	4004	-18	-186	-4	0	0.8026197	0.7625303	3	20	0.022	1600
70369	-70	-867	-176	7.467504	-8.495802	-13.53663	0	10.72	4004	-70	10	-16	0	0.8026197	0.7162548	3	20	0.022	1600
70422	-568	-1204	-1563	6.723491	-7.910384	-13.62686	0	11.4	4002	20	130	-1	0	0.8026197	0.6822883	3	20	0.022	1600
70538	-547	813	587	5.447036	-7.007354	-13.69555	0	11.4	4004	-61	277	19	0	0.8026197	0.6553256	3	20	0.022	1600
70704	-195	-165	-466	4.166557	-7.57447	-13.03085	0	11.4	4004	0	0	0	0	0.8026197	0.6058967	3	20	0.022	1600
70864	40	1445	1534	1.094577	-0.593555	-15.69451	0	11.4	4003	0	0	0	0	0.8026197	0.5474475	3	20	0.022	1600
71015	-35	70	-67	1.234178	1.189942	-17.31781	0	11.4	4003	0	0	0	0	0.8026197	0.4574196	1	20	0.022	1600
71096	-58	35	20	1.126849	1.119478	-17.33456	0	11.4	4003	0	0	0	0	0.8026197	0.4276254	1	20	0.022	1600
71240	-73	0	37	0.9462145	0.9618197	-17.35829	0	11.4	4004	0	0	0	0	0.8026197	0.3867502	1	20	0.022	1600
71307	-85	-39	-26	0.861167	0.9063069	-17.37241	0	11.4	4004	0	0	0	0	0.8026197	0.3674262	1	20	0.022	1600
71402	-52	9	41	0.7432218	0.7830724	-17.38795	0	11.63	4004	0	0	0	0	0.8026197	0.3441738	1	20	0.022	1600
71506	-74	-37	-11	0.6452271	0.7438114	-17.4058	0	11.63	4003	0	0	0	0	0.8026197	0.3285475	1	20	0.022	1600
71631	-35	-3	36	0.5519366	0.637034	-17.4242	0	11.63	4003	0	0	0	0	0.8026197	0.3060146	1	20	0.022	1600
71752	-53	-7	-8	0.4513328	0.5764942	-17.43839	0	11.63	4004	0	0	0	0	0.8026197	0.2910905	1	20	0.022	1600
71816	-53	-2	36	0.4228583	0.532472	-17.45251	0	11.63	4004	0	0	0	0	0.8026197	0.2892273	1	20	0.022	1600
71921	-59	16	11	0.3703583	0.4821259	-17.46315	0	11.63	4002	0	0	0	0	0.8026197	0.2836451	1	20	0.022	1600
72064	-52	9	11	0.2978709	0.4146863	-17.48974	0	11.63	4003	0	0	0	0	0.8026197	0.2704543	1	20	0.022	1600
72156	-32	-9	-10	0.2669038	0.3943052	-17.50222	0	11.63	4004	0	0	0	0	0.8026197	0.2715291	1	20	0.022	1600
72263	-28	-6	39	0.2349073	0.360691	-17.51799	0	11.63	4002	0	0	0	0	0.8026197	0.2774839	1	20	0.022	1600
72347	-40	-12	46	0.2125841	0.3365778	-17.53627	0	11.68	4003	0	0	0	0	0.8026197	0.2776437	1	20	0.022	1600
72459	-30	7	2	0.1847691	0.3115337	-17.54868	0	11.68	4003	0	0	0	0	0.8026197	0.2738612	1	20	0.022	1600
72638	-56	5	7	0.1578516	0.2958231	-17.57277	0	11.68	4003	0	0	0	0	0.8026197	0.2613824	1	20	0.022	1600
72738	-44	3	-2	0.1419007	0.2875905	-17.58805	0	11.68	4003	0	0	0	0	0.8026197	0.2635247	1	20	0.022	1600
72875	-42	2	11	0.1168651	0.2768375	-17.60634	0	11.68	4003	0	0	0	0	0.8026197	0.2685653	1	20	0.022	1600
72944	-46	2	1	0.1012617	0.2581748	-17.62327	0	11.68	4004	0	0	0	0	0.8026197	0.2739038	1	20	0.022	1600
73059	-40	3	8	0.08950118	0.2551675	-17.63739	0	11.68	4002	0	0	0	0	0.8026197	0.2696179	1	20	0.022	1600
73199	-48	-1	0	0.08993321	0.2479195	-17.65757	0	11.68	4003	0	0	0	0	0.8026197	0.2546001	1	20	0.022	1600
73249	-40	-2	8	0.08219343	0.2388283	-17.66686	0	11.74	4003	0	0	0	0	0.8026197	0.253484	1	20	0.022	1600
73376	-41	3	11	0.07632842	0.2213858	-17.68648	0	11.74	4002	0	0	0	0	0.8026197	0.2513112	1	20	0.022	1600
73487	-43	3	6	0.07402827	0.2125015	-17.70041	0	11.74	4004	0	0	0	0	0.8026197	0.2486038	1	20	0.022	1600
73568	-45	0	9	0.07135754	0.2090776	-17.70983	0	11.74	4004	0	0	0	0	0.8026197	0.2495745	1	20	0.022	1600
73706	-41	-1	9	0.0740073	0.2020575	-17.73092	0	11.74	4002	0	0	0	0	0.8026197	0.2558967	1	20	0.022	1600
73738	-41	-3	10	0.07111793	0.2019733	-17.73495	0	11.74	4004	0	0	0	0	0.8026197	0.2569134	1	20	0.022	1600
73856	-40	0	8	0.07304119	0.1965678	-17.74772	0	11.74	4003	0	0	0	0	0.8026197	0.2706062	1	20	0.022	1600
73955	-45	6	10	0.07765489	0.1997852	-17.76159	0	11.74	4003	0	0	0	0	0.8026197	0.2805704	1	20	0.022	1600
74031	-46	0	11	0.07647684	0.1930627	-17.77057	0	11.74	4002	0	0	0	0	0.8026197	0.2891698	1	20	0.022	1600
74234	-43	-1	8	0.06477416	0.1878676	-17.79697	0	11.74	4003	0	0	0	0	0.8026197	0.3120533	1	20	0.022	1600
74265	-48	3	9	0.06437004	0.1857841	-17.80174	0	11.74	4002	0	0	0	0	0.8026197	0.3180959	1	20	0.022	1600
74370	-40	1	7	0.0616806	0.1856878	-17.81359	0	11.74	4004	0	0	0	0	0.8026197	0.3229049	1	20	0.022	1600
74461	-43	1	8	0.05685298	0.1784843	-17.82544	0	11.74	4004	0	0	0	0	0.8026197	0.3202505	1	20	0.022	1600
74586	-46	0	7	0.05343222	0.1757962	-17.84348	0	11.74	4003	0	0	0	0	0.8026197	0.3053888	1	20	0.022	1600
74639	-42	3	7	0.05336448	0.1715388	-17.85295	0	11.74	4003	0	0	0	0	0.8026197	0.3045674	1	20	0.022	1600
74759	-41	1	7	0.06245477	0.1654358	-17.86896	0	11.74	4004	0	0	0	0	0.8026197	0.3035109	1	20	0.022	1600
74900	-35	-4	12	0.07406264	0.1711655	-17.88699	0	11.74	4003	0	0	0	0	0.8026197	0.3018301	1	20	0.022	1600
74982	-42	0	9	0.07036591	0.1684308	-17.89303	0	11.74	4004	0	0	0	0	0.8026197	0.2934886	1	20	0.022	1600
75051	-52	0	7	0.07069229	0.1620034	-17.90263	0	11.74	4002	0	0	0	0	0.8026197	0.2883371	1	20	0.022	1600
75136	-40	-3	9	0.07450933	0.1623063	-17.91381	0	11.74	4003	0	0	0	0	0.8026197	0.2825088	1	20	0.022	1600
75307	-40	-2	4	0.08451112	0.1679045	-17.93757	0	11.74	4002	0	0	0	0	0.8026197	0.2731494	1	20	0.022	1600
75356	-35	-2	5	0.08585085	0.1698854	-17.93946	0	11.74	4003	0	0	0	0	0.8026197	0.2734464	1	20	0.022	1600
75414	-32	-3	13	0.09023541	0.1718876	-17.94814	0	11.74	4003	0	0	0	0	0.8026197	0.2742558	1	20	0.022	1600
75521	-43	4	7	0.09140547	0.1670156	-17.95852	0	11.74	4004	0	0	0	0	0.8026197	0.2802248	1	20	0.022	1600
75659	-38	-1	3	0.08707434	0.1732545	-17.97391	0	11.74	4004	0	0	0	0	0.8026197	0.2896752	1	20	0.022	1600
75726	-40	0	7	0.09031759	0.1743136	-17.98166	0	11.74	4002	0	0	0	0	0.8026197	0.3000912	1	20	0.022	1600
75840	-41	0	12	0.09103595	0.1759805	-17.99382	0	11.74	4003	0	0	0	0	0.8026197	0.3366958	1	20	0.022	1600
75964	-38	0	2	0.1027803	0.1775973	-18.01196	0	11.74	4002	0	0	0	0	0.8026197	0.3391715	1	20	0.022	1600
76040	-36	0	6	0.1037702	0.1768089	-18.01801	0	11.74	4002	0	0	0	0	0.8026197	0.3376541	1	20	0.022	1600
76174	-40	-1	5	0.102939	0.1793985	-18.03156	0	11.74	4005	0	0	0	0	0.8026197	0.3439524	1	20	0.022	1600
76274	-37	0	5	0.1026716	0.1852015	-18.04225	0	11.74	4002	0	0	0	0	0.8026197	0.343205	1	20	0.022	1600
76327	-37	0	7	0.1069599	0.1786621	-18.04842	0	11.74	4003	0	0	0	0	0.8026197	0.3427429	1	20	0.022	1600
76436	-34	-5	3	0.1072651	0.1849732	-18.05324	0	11.74	4002	0	0	0	0	0.8026197	0.3443854	1	20	0.022	1600
76545	-34	-1	3	0.1140695	0.1876249	-18.06569	0	11.74	4003	0	0	0	0	0.8026197	0.342435	1	20	0.022	1600
76661	-43	3	4	0.1176523	0.1788455	-18.07614	0	11.74	4002	0	0	0	0	0.8026197	0.3308952	1	20	0.022	1600
76736	-36	0	4	0.1186037	0.1766534	-18.08584	0	11.74	4004	0	0	0	0	0.8026197	0.3165136	1	20	0.022	1600
76848	-31	-4	13	0.1234564	0.1722489	-18.10001	0	11.8	4002	0	0	0	0	0.8026197	0.2972078	1	20	0.022	1600
76918	-34	6	5	0.1221431	0.1738351	-18.10374	0	11.8	4004	0	0	0	0	0.8026197	0.2944738	1	20	0.022	1600
77055	-39	-2	4	0.1265309	0.1701771	-18.11748	0	11.8	4003	0	0	0	0	0.8026197	0.297164	1	20	0.022	1600
77185	-37	1	8	0.1370088	0.165575	-18.13147	0	11.8	4004	0	0	0	0	0.8026197	0.2996223	1	20	0.022	1600
77335	-32	-5	2	0.1428194	0.1711621	-18.14479	0	11.8	4003	0	0	0	0	0.8026197	0.2928317	1	20	0.022	1600
77448	-39	-1	6	0.144946	0.1732911	-18.15804	0	11.8	4004	0	0	0	0	0.8026197	0.2939176	1	20	0.022	1600
77533	-34	1	6	0.1502064	0.1725314	-18.16659	0	11.8	4003	0	0	0	0	0.8026197	0.3062278	1	20	0.022	1600
77637	-40	0	8	0.1510175	0.1697689	-18.176	0	11.8	4003	0	0	0	0	0.8026197	0.3200802	1	20	0.022	1600
77741	-42	0	4	0.1512461	0.1625276	-18.184	0	11.8	4003	0	0	0	0	0.8026197	0.326931	1	20	0.022	1600
77845	-31	7	5	0.1562612	0.1633162	-18.19407	0	11.74	4003	0	0	0	0	0.8026197	0.3277347	1	20	0.022	1600
77950	-38	1	7	0.1703878	0.1639508	-18.20525	0	11.74	4003	0	0	0	0	0.8026197	0.3370161	1	20	0.022	1600
78052	-34	-3	9	0.159568	0.1628566	-18.216	0	11.74	4003	0	0	0	0	0.8026197	0.3456329	1	20	0.022	1600
78200	-30	0	12	0.157008	0.1600755	-18.22833	0	11.74	4004	0	0	0	0	0.8026197	0.3550259	1	20	0.022	1600
78256	-27	2	9	0.1477654	0.1584246	-18.23542	0	11.74	4004	0	0	0	0	0.8026197	0.3637631	1	20	0.022	1600
78412	-34	-5	7	0.145182	0.1536539	-18.24862	0	11.74	4003	0	0	0	0	0.8026197	0.3817614	1	20	0.022	1600
78517	-40	0	4	0.1469678	0.1583659	-18.26077	0	11.74	4003	0	0	0	0	0.8026197	0.3891362	1	20	0.022	1600
78626	-33	5	2	0.1503575	0.1510626	-18.26841	0	11.74	4003	0	0	0	0	0.8026197	0.3979503	1	20	0.022	1600
78663	-33	-4	9	0.1588144	0.1538467	-18.27518	0	11.74	4004	0	0	0	0	0.8026197	0.3972963	1	20	0.022	1600
78828	-30	0	7	0.1700928	0.1567836	-18.28899	0	11.8	4003	0	0	0	0	0.8026197	0.3819335	1	20	0.022	1600
78865	-34	-1	5	0.168515	0.1537091	-18.29417	0	11.8	4002	0	0	0	0	0.8026197	0.3815675	1	20	0.022	1600
78969	-33	2	5	0.1650643	0.1454329	-18.30272	0	11.8	4002	0	0	0	0	0.8026197	0.3828396	1	20	0.022	1600
79118	-29	0	5	0.1703771	0.1469737	-18.31519	0	11.8	4003	0	0	0	0	0.8026197	0.3645429	1	20	0.022	1600
79189	-33	4	9	0.1760922	0.1504243	-18.32234	0	11.8	4003	0	0	0	0	0.8026197	0.3581246	1	20	0.022	1600
79340	-35	5	7	0.1819919	0.1533462	-18.33522	0	11.8	4004	0	0	0	0	0.8026197	0.3517022	1	20	0.022	1600
79449	-30	6	6	0.1867724	0.1607864	-18.34365	0	11.8	4004	0	0	0	0	0.8026197	0.3571299	1	20	0.022	1600
79560	-31	2	13	0.1897523	0.1672251	-18.35562	0	11.8	4004	0	0	0	0	0.8026197	0.3624753	1	20	0.022	1600
79618	-31	3	6	0.1948099	0.166015	-18.35995	0	11.8	4003	0	0	0	0	0.8026197	0.3656576	1	20	0.022	1600
79749	-29	0	8	0.2050472	0.1732556	-18.37553	0	11.8	4003	0	0	0	0	0.8026197	0.3683131	1	20	0.022	1600
79889	-26	3	2	0.2054783	0.1593431	-18.38561	0	11.8	4004	0	0	0	0	0.8026197	0.3775743	1	20	0.022	1600
79957	-36	0	5	0.197845	0.1624026	-18.39489	0	11.8	4003	0	0	0	0	0.8026197	0.3885846	1	20	0.022	1600
80032	-26	4	4	0.2049422	0.161239	-18.40173	0	11.8	4004	0	0	0	0	0.8026197	0.3918321	1	20	0.022	1600
80206	-30	-3	7	0.2242195	0.1666469	-18.4181	0	11.8	4004	0	0	0	0	0.8026197	0.3832173	1	20	0.022	1600
80303	-36	5	4	0.2230894	0.1689331	-18.4261	0	11.8	4002	0	0	0	0	0.8026197	0.3841219	1	20	0.022	1600
80367	-31	-1	3	0.228359	0.1644149	-18.43141	0	11.8	4003	0	0	0	0	0.8026197	0.3887889	1	20	0.022	1600
80511	-27	-1	2	0.2288454	0.1689905	-18.44123	0	11.8	4003	0	0	0	0	0.8026197	0.3945548	1	20	0.022	1600
80608	-24	-7	1	0.2317133	0.1727879	-18.44551	0	11.8	4003	0	0	0	0	0.8026197	0.3954915	1	20	0.022	1600
80691	-23	1	6	0.2236803	0.1610597	-18.45235	0	11.8	4004	0	0	0	0	0.8026197	0.3964057	1	20	0.022	1600
80817	-23	-1	7	0.2312828	0.1652507	-18.46358	0	11.8	4002	0	0	0	0	0.8026197	0.3922811	1	20	0.022	1600
80929	-22	0	6	0.2396952	0.1662585	-18.47182	0	11.8	4004	0	0	0	0	0.8026197	0.3779378	1	20	0.022	1600
81051	-25	-4	5	0.2362627	0.1607669	-18.47768	0	11.8	4003	0	0	0	0	0.8026197	0.3664545	1	20	0.022	1600
81101	-27	0	0	0.2359482	0.1646947	-18.48348	0	11.8	4004	0	0	0	0	0.8026197	0.3661059	1	20	0.022	1600
81176	-31	1	0	0.2318553	0.1566744	-18.48849	0	11.8	4002	0	0	0	0	0.8026197	0.3637719	1	20	0.022	1600
81285	-28	1	7	0.2407468	0.1520147	-18.49661	0	11.8	4004	0	0	0	0	0.8026197	0.3472579	1	20	0.022	1600
81428	-27	-4	5	0.2525285	0.1504512	-18.50467	0	11.8	4003	0	0	0	0	0.8026197	0.3309595	1	20	0.022	1600
81483	-29	1	-1	0.2540394	0.1474801	-18.50925	0	11.8	4003	0	0	0	0	0.8026197	0.3326871	1	20	0.022	1600
81606	-24	0	2	0.2461489	0.147346	-18.51987	0	11.8	4003	0	0	0	0	0.8026197	0.348044	1	20	0.022	1600
81689	-29	2	6	0.2479747	0.143758	-18.52916	0	11.8	4004	0	0	0	0	0.8026197	0.3623385	1	20	0.022	1600
81804	-27	9	4	0.255309	0.1402522	-18.53459	0	11.8	4003	0	0	0	0	0.8026197	0.3877378	1	20	0.022	1600
81896	-21	-3	2	0.259153	0.1508868	-18.54106	0	11.8	4002	0	0	0	0	0.8026197	0.3946853	1	20	0.022	1600
81986	-26	0	4	0.2658747	0.1479534	-18.54918	0	11.8	4002	0	0	0	0	0.8026197	0.4094729	1	20	0.022	1600
82078	-28	0	3	0.2629839	0.1339267	-18.5537	0	11.8	4004	0	0	0	0	0.8026197	0.4185579	1	20	0.022	1600
82233	-26	0	4	0.2719972	0.1423965	-18.56725	0	11.8	4003	0	0	0	0	0.8026197	0.4069235	1	20	0.022	1600
82306	-26	1	1	0.2768314	0.1416062	-18.57213	0	11.8	4002	0	0	0	0	0.8026197	0.3990915	1	20	0.022	1600
82387	-26	-1	6	0.2826793	0.1412095	-18.57665	0	11.8	4004	0	0	0	0	0.8026197	0.3983099	1	20	0.022	1600
82496	-20	4	1	0.290032	0.1342881	-18.58739	0	11.85	4003	0	0	0	0	0.8026197	0.3943567	1	20	0.022	1600
82676	-26	-1	6	0.2952669	0.1457004	-18.59905	0	11.85	4004	0	0	0	0	0.8026197	0.3771451	1	20	0.022	1600
82721	-24	-4	-1	0.3031517	0.1415334	-18.60412	0	11.85	4003	0	0	0	0	0.8026197	0.3733529	1	20	0.022	1600
82826	-22	-4	8	0.302097	0.1467038	-18.61329	0	11.85	4004	0	0	0	0	0.8026197	0.3685615	1	20	0.022	1600
82905	-25	-3	1	0.299615	0.1451475	-18.61854	0	11.85	4003	0	0	0	0	0.8026197	0.3672311	1	20	0.022	1600
82994	-19	-2	4	0.2985403	0.1509234	-18.62715	0	11.85	4003	0	0	0	0	0.8026197	0.3597572	1	20	0.022	1600
83119	-26	3	7	0.2924139	0.137519	-18.63557	0	11.85	4002	0	0	0	0	0.8026197	0.3409583	1	20	0.022	1600
83217	-20	5	3	0.2916391	0.1260539	-18.64241	0	11.85	4004	0	0	0	0	0.8026197	0.3350672	1	20	0.022	1600
83305	-16	0	5	0.2947159	0.1198712	-18.64815	0	11.85	4003	0	0	0	0	0.8026197	0.3357268	1	20	0.022	1600
83394	-22	1	6	0.2997299	0.1276719	-18.6556	0	11.91	4004	0	0	0	0	0.8026197	0.3423238	1	20	0.022	1600
83555	-23	-2	4	0.2939614	0.1310941	-18.66769	0	11.91	4002	0	0	0	0	0.8026197	0.3470779	1	20	0.022	1600
83654	-27	-6	1	0.2983538	0.1328304	-18.67507	0	11.91	4003	0	0	0	0	0.8026197	0.3468199	1	20	0.022	1600
83693	-23	4	8	0.2907365	0.1308945	-18.67941	0	11.91	4002	0	0	0	0	0.8026197	0.3477832	1	20	0.022	1600
83797	-27	1	8	0.2854881	0.124445	-18.68618	0	11.91	4003	0	0	0	0	0.8026197	0.3673985	1	20	0.022	1600
83900	-25	-2	4	0.288714	0.1238483	-18.69431	0	11.91	4003	0	0	0	0	0.8026197	0.3818679	1	20	0.022	1600
84031	-17	5	5	0.2925811	0.1269286	-18.70383	0	11.91	4004	0	0	0	0	0.8026197	0.3835985	1	20	0.022	1600
84162	-18	3	3	0.2978306	0.1279865	-18.71329	0	11.91	4004	0	0	0	0	0.8026197	0.3853585	1	20	0.022	1600
84285	-29	7	5	0.3041242	0.1184545	-18.72435	0	11.8	4004	0	0	0	0	0.8026197	0.377432	1	20	0.022	1600
84346	-20	0	4	0.3029295	0.1174347	-18.72856	0	11.8	4003	0	0	0	0	0.8026197	0.3783256	1	20	0.022	1600
84469	-27	0	6	0.3143325	0.1334078	-18.73803	0	11.8	4003	0	0	0	0	0.8026197	0.3864654	1	20	0.022	1600
84564	-25	-2	3	0.3148772	0.1437262	-18.74578	0	11.8	4004	0	0	0	0	0.8026197	0.3975907	1	20	0.022	1600
84596	-16	1	3	0.315836	0.1423893	-18.74779	0	11.8	4003	0	0	0	0	0.8026197	0.4018662	1	20	0.022	1600
84721	-17	-1	7	0.3096612	0.1401976	-18.75371	0	11.8	4004	0	0	0	0	0.8026197	0.4100067	1	20	0.022	1600
84817	-23	4	5	0.3072702	0.135583	-18.76012	0	11.8	4003	0	0	0	0	0.8026197	0.406681	1	20	0.022	1600
85014	-25	4	3	0.3323575	0.1289439	-18.77416	0	11.8	4004	0	0	0	0	0.8026197	0.4059192	1	20	0.022	1600
85173	-10	-4	2	0.331343	0.1289996	-18.78179	0	11.8	4003	0	0	0	0	0.8026197	0.3997307	1	20	0.022	1600
85238	-17	0	1	0.3355641	0.1395016	-18.7843	0	11.8	4004	0	0	0	0	0.8026197	0.3904939	1	20	0.022	1600
85383	-20	4	0	0.3436761	0.1445738	-18.79272	0	11.8	4003	0	0	0	0	0.8026197	0.3827389	1	20	0.022	1600
85520	-26	3	0	0.3508551	0.1478224	-18.79834	0	11.8	4004	0	0	0	0	0.8026197	0.4002207	1	20	0.022	1600
85700	-16	-2	2	0.3433844	0.1283459	-18.80792	0	11.8	4004	0	0	0	0	0.8026197	0.4153057	1	20	0.022	1600
228107	39	-1	0	0.3842472	-0.05181181	-0.08853174	0	11.91	4002	0	0	0	0	0.02	0.02116684	1	20	0.022	1600
228173	29	-7	-1	0.3826978	-0.05129888	-0.08614713	0	11.91	4003	0	0	0	0	0.02	0.01834414	1	20	0.022	1600
228294	34	-3	-8	0.4026353	-0.0436445	-0.07991116	0	11.91	4004	0	0	0	0	0.02	0.01871287	1	20	0.022	1600
228381	28	0	1	0.4074405	-0.04671545	-0.06798896	0	11.85	4002	0	0	0	0	0.02	0.02495842	1	20	0.022	1600
228542	39	-2	-6	0.3958353	-0.05586691	-0.05949106	0	11.85	4002	0	0	0	0	0.02	0.0283805	1	20	0.022	1600
228591	30	-1	1	0.4029961	-0.04658114	-0.05729047	0	11.85	4004	0	0	0	0	0.02	0.02841691	1	20	0.022	1600
228678	28	2	0	0.4091246	-0.04882334	-0.05698492	0	11.85	4004	0	0	0	0	0.02	0.0282977	1	20	0.022	1600
228747	34	0	-4	0.4039326	-0.04995198	-0.05496717	0	11.85	4003	0	0	0	0	0.02	0.02219131	1	20	0.022	1600
228900	36	1	-3	0.4092319	-0.06293184	-0.05019882	0	11.85	4004	0	0	0	0	0.02	0.009983416	1	20	0.022	1600
228963	33	-2	0	0.4142624	-0.06021158	-0.04909843	0	11.85	4004	0	0	0	0	0.02	-0.0006172088	1	20	0.022	1600
229078	36	-5	-5	0.4014517	-0.05920242	-0.04634729	0	11.85	4003	0	0	0	0	0.02	-0.004588498	1	20	0.022	1600
229225	33	-8	1	0.4105525	-0.0577853	-0.04231197	0	11.85	4004	0	0	0	0	0.02	0.01095937	1	20	0.022	1600
229362	36	-4	0	0.4019879	-0.05169163	-0.03943842	0	11.91	4002	0	0	0	0	0.02	0.008371353	1	20	0.022	1600
229546	37	0	3	0.4011214	-0.0608174	-0.03265279	0	11.91	4004	0	0	0	0	0.02	-0.01160357	1	20	0.022	1600
229621	38	0	-3	0.4031382	-0.06157188	-0.03069603	0	11.91	4002	0	0	0	0	0.02	-0.01624607	1	20	0.022	1600
229682	26	-3	-2	0.4132557	-0.05413242	-0.0262325	0	11.91	4004	0	0	0	0	0.02	-0.01666614	1	20	0.022	1600
229758	36	-8	1	0.4105372	-0.04305078	-0.02500979	0	11.91	4004	0	0	0	0	0.02	-0.00972462	1	20	0.022	1600
229873	29	1	-2	0.4068704	-0.05194258	-0.02134156	0	11.91	4004	0	0	0	0	0.02	0.002630753	1	20	0.022	1600
229941	43	2	-6	0.4139797	-0.05053934	-0.01791835	0	11.91	4002	0	0	0	0	0.02	0.008253613	1	20	0.022	1600
230035	35	-7	-4	0.4131653	-0.05498975	-0.01425026	0	11.91	4003	0	0	0	0	0.02	0.01288608	1	20	0.022	1600
230139	35	-3	0	0.4206163	-0.05535666	-0.01168223	0	11.91	4004	0	0	0	0	0.02	0.0161267	1	20	0.022	1600
230229	34	2	-2	0.4270256	-0.05712051	-0.007647204	0	11.91	4004	0	0	0	0	0.02	0.0169562	1	20	0.022	1600
230321	36	-6	0	0.4254488	-0.06039203	-0.005385189	0	11.91	4007	0	0	0	0	0.02	0.04101552	1	20	0.022	1600
230427	38	-1	-4	0.435925	-0.05698342	0.001584842	0	11.91	4004	0	0	0	0	0.02	0.06436498	1	20	0.022	1600
230550	34	-5	4	0.4468869	-0.06012566	0.00604753	0	11.91	4003	0	0	0	0	0.02	0.07184637	1	20	0.022	1600
230619	43	-3	-5	0.4512858	-0.05691706	0.009288249	0	11.91	4003	0	0	0	0	0.02	0.07004066	1	20	0.022	1600
230718	40	-6	3	0.4587819	-0.04806483	0.01540237	0	11.91	4002	0	0	0	0	0.02	0.06250874	1	20	0.022	1600
230838	30	-4	1	0.4609501	-0.03851959	0.0172975	0	11.91	4002	0	0	0	0	0.02	0.04330265	1	20	0.022	1600
230950	34	0	-3	0.4555043	-0.03695333	0.02231113	0	11.91	4004	0	0	0	0	0.02	0.02722339	1	20	0.022	1600
231068	26	1	-1	0.468782	-0.03152053	0.02799734	0	11.91	4002	0	0	0	0	0.02	0.006760984	1	20	0.022	1600
231119	36	-5	3	0.4737452	-0.02930903	0.03068732	0	11.91	4003	0	0	0	0	0.02	-0.006457794	1	20	0.022	1600
231225	38	-4	-4	0.4784446	-0.03529122	0.03466136	0	11.91	4003	0	0	0	0	0.02	-0.01641532	1	20	0.022	1600
231247	37	1	0	0.4908779	-0.03655118	0.03894098	0	11.91	4003	0	0	0	0	0.02	-0.02568386	1	20	0.022	1600
231295	47	-1	-1	0.4952756	-0.04247778	0.04199785	0	11.91	4003	0	0	0	0	0.02	-0.04233772	1	20	0.022	1600
231411	33	-5	4	0.4991448	-0.05851535	0.04572701	0	11.91	4003	0	0	0	0	0.02	-0.02780112	1	20	0.022	1600
231430	36	-3	0	0.4942158	-0.06011274	0.05025125	0	11.91	4002	0	0	0	0	0.02	-0.0179278	1	20	0.022	1600
231471	46	-2	-7	0.4860524	-0.0549725	0.05330825	0	11.91	4004	0	0	0	0	0.02	-0.003404775	1	20	0.022	1600
231494	42	-5	0	0.488551	-0.0569848	0.05685397	0	11.91	4004	0	0	0	0	0.02	0.01220813	1	20	0.022	1600
231542	39	0	2	0.4880258	-0.05626956	0.05954435	0	11.91	4003	0	0	0	0	0.02	0.0256774	1	20	0.022	1600
231642	45	0	-2	0.4754167	-0.05665069	0.06180607	0	11.91	4004	0	0	0	0	0.02	0.0440363	3	20	0.022	1600
231683	40	0	4	0.48529	-0.0611149	0.06461852	0	11.91	4004	0	0	0	0	0.02	0.05593469	3	20	0.022	1600
231701	43	-3	-4	0.4823842	-0.06060023	0.06596381	0	11.91	4002	0	0	0	0	0.02	0.05826976	3	20	0.022	1600
231743	41	3	0	0.4908483	-0.05873329	0.06737005	0	11.91	4004	0	0	0	0	0.02	0.05736838	3	20	0.022	1600
231790	40	-3	-5	0.5033461	-0.05881738	0.07067157	0	11.91	4003	0	0	0	0	0.02	0.05191146	3	20	0.022	1600
231809	48	-3	4	0.5036964	-0.05808835	0.07323955	0	11.91	4002	0	0	0	0	0.02	0.05801412	3	20	0.022	1600
231842	48	-3	-3	0.5041138	-0.06247805	0.07654133	0	11.91	4003	0	0	0	0	0.02	0.06602603	3	20	0.022	1600
231879	44	-7	-2	0.5139602	-0.06098903	0.08112676	0	11.91	4002	0	0	0	0	0.02	0.07164787	3	20	0.022	1600
231982	45	-6	2	0.5145081	-0.06313885	0.08760723	0	11.91	4002	0	0	0	0	0.02	0.06984305	3	20	0.022	1600
232127	38	-11	-6	0.5355149	-0.05415861	0.09659479	0	11.91	4003	0	0	0	0	0.02	0.0703192	3	20	0.022	1600
232179	46	-2	-1	0.5317606	-0.05504232	0.09769549	0	11.91	4004	0	0	0	0	0.02	0.07035227	3	20	0.022	1600
232339	45	3	-6	0.5544934	-0.04683438	0.1074163	0	11.91	4003	0	0	0	0	0.02	0.08019916	3	20	0.022	1600
232445	38	-3	1	0.557299	-0.05662279	0.1112685	0	11.91	4002	0	0	0	0	0.02	0.09008936	3	20	0.022	1600
232478	38	-5	-1	0.5571069	-0.05707008	0.1129804	0	11.91	4004	0	0	0	0	0.02	0.09055874	3	20	0.022	1600
232593	37	-5	-4	0.5556181	-0.05842606	0.1186051	0	11.91	4003	0	0	0	0	0.02	0.08923724	3	20	0.022	1600
232701	47	-4	-1	0.5549417	-0.06718398	0.1229458	0	11.91	4004	0	0	0	0	0.02	0.1033612	3	20	0.022	1600
232793	44	-2	-7	0.5461217	-0.06653294	0.1285703	0	11.91	4004	0	0	0	0	0.02	0.109036	3	20	0.022	1600
232917	48	-3	-1	0.5521727	-0.06483807	0.1352959	0	11.91	4002	0	0	0	0	0.02	0.1102459	3	20	0.022	1600
233005	52	1	-1	0.5476567	-0.06354531	0.1385971	0	11.91	4002	0	0	0	0	0.02	0.1046305	3	20	0.022	1600
233057	47	-4	1	0.5535773	-0.06760044	0.140859	0	11.91	4004	0	0	0	0	0.02	0.09314787	3	20	0.022	1600
233144	41	-2	-1	0.5565235	-0.0645201	0.1422653	0	11.91	4004	0	0	0	0	0.02	0.08004058	3	20	0.022	1600
233245	42	-5	0	0.5572771	-0.05928648	0.1477678	0	11.91	4003	0	0	0	0	0.02	0.0700317	3	20	0.022	1600
233355	45	-4	-5	0.5565506	-0.06291466	0.1581612	0	11.91	4003	0	0	0	0	0.02	0.09047335	3	20	0.022	1600
233448	43	1	-3	0.5575168	-0.06017266	0.1613407	0	11.91	4004	0	0	0	0	0.02	0.1073821	3	20	0.022	1600
233530	54	-6	-5	0.5611441	-0.06135792	0.1670884	0	11.91	4003	0	0	0	0	0.02	0.1078179	3	20	0.022	1600
233683	51	-1	2	0.5753586	-0.06322701	0.170451	0	11.91	4004	0	0	0	0	0.02	0.1028873	3	20	0.022	1600
233821	46	-1	-6	0.5795243	-0.06350088	0.1763199	0	11.91	4003	0	0	0	0	0.02	0.1097035	3	20	0.022	1600
233892	51	0	-3	0.5829108	-0.0635905	0.1801107	0	11.85	4004	0	0	0	0	0.02	0.1106579	3	20	0.022	1600
233984	48	-9	-4	0.58647	-0.05748387	0.1861024	0	11.85	4002	0	0	0	0	0.02	0.1118959	3	20	0.022	1600
234025	38	-5	-3	0.5852655	-0.05898219	0.1881201	0	11.85	4003	0	0	0	0	0.02	0.1189755	3	20	0.022	1600
234167	47	-4	-2	0.5963508	-0.0601966	0.1955786	0	11.85	4003	0	0	0	0	0.02	0.1171821	3	20	0.022	1600
234278	44	-2	1	0.5940767	-0.06395163	0.2018147	0	11.85	4002	0	0	0	0	0.02	0.1205239	3	20	0.022	1600
234378	51	0	2	0.6006991	-0.06409936	0.2071335	0	11.85	4004	0	0	0	0	0.02	0.1222271	3	20	0.022	1600
234440	44	1	0	0.6011415	-0.06579892	0.2082951	0	11.85	4004	0	0	0	0	0.02	0.128158	1	20	0.022	1600
234511	44	-3	4	0.594047	-0.06609482	0.2112297	0	11.85	4003	0	0	0	0	0.02	0.1367063	1	20	0.022	1600
234618	49	-7	-7	0.5940279	-0.06620588	0.2169768	0	11.85	4003	0	0	0	0	0.02	0.1640393	1	20	0.022	1600
