time(ms)	gyro_x(deg/s)	gyro_y(deg/s)	gyro_z(deg/s)	orientation_roll(deg)	orientation_pitch(deg)	orientation_yaw(deg)	throttle	battery(V)	loop_time(uS)	pid_output_roll	pid_output_pitch	pid_output_yaw	pid_output_throttle	ultrasonic_alt	baro_alt	flight_mode	p_gain_altitude	i_gain_altitude	d_gain_altitude
391459	1779	-93	575	3.509305	-1.360466	-2.560826	0	11	4004	-11	-400	28	-6	1.162385	0.8814808	5	15	0.022	1400
391516	1427	1029	-421	4.720494	-1.399492	-2.180498	0	11	4007	41	84	13	-11	1.15543	0.9235744	5	15	0.022	1400
391596	1105	-838	-721	5.460569	-2.114193	-1.086726	0	11	4002	-16	-154	-6	-10	1.190453	0.9610749	5	15	0.022	1400
391657	2178	221	-1309	5.460569	-2.114193	-1.086726	0	11	4003	-7	35	-28	-16	1.106474	0.9915375	5	15	0.022	1400
391798	-1324	89	60	6.702742	-3.429966	-0.8754437	0	11	4002	16	140	-2	-33	1.200869	1.090627	5	15	0.022	1400
391896	-935	841	297	4.711595	-3.134228	-0.9350891	0	11	4003	4	199	1	-18	1.265671	1.15338	5	15	0.022	1400
392082	-1823	3493	1442	2.744593	-7.761456	-1.465021	0	10.83	4002	-1	104	29	-15	1.316497	1.25061	5	15	0.022	1400
392241	-496	-1473	-473	0.9497131	-9.934974	-1.133238	0	10.83	4004	5	-164	0	-12	1.254314	1.339733	5	15	0.022	1400
392303	-496	-1473	-473	0.9497131	-9.934974	-1.133238	0	10.83	4004	-50	-234	-30	-12	1.288167	1.365758	5	15	0.022	1400
392357	-756	2143	535	-0.5801109	-11.33117	-0.8361846	0	10.83	4004	-57	-96	-4	-10	1.29432	1.382903	5	15	0.022	1400
392461	-416	-1453	934	-1.725566	-9.756226	-1.653255	0	10.83	4004	64	-13	21	-12	1.249096	1.419986	5	15	0.022	1400
392619	-46	-264	-592	-2.671736	-8.180511	-1.725864	0	10.83	4003	54	70	9	-31	1.201247	1.496408	5	15	0.022	1400
392733	243	627	-65	-2.522464	-8.083906	-0.8423064	0	10.83	4004	42	79	-20	-8	1.277997	1.52955	5	15	0.022	1400
392791	-436	776	-363	-2.927914	-8.755329	-0.8251933	0	10.83	4003	75	-36	-14	-5	1.300159	1.539444	5	15	0.022	1400
392903	2470	-1197	-1102	-1.478234	-8.047422	-0.6149536	0	10.83	4002	54	65	-21	-3	1.184187	1.547575	5	15	0.022	1400
393013	-1006	-197	1711	-1.716558	-5.825994	-1.195917	0	10.83	4004	-22	-65	13	0	1.318924	1.545133	5	15	0.022	1400
393091	-1006	-197	1711	-1.716558	-5.825994	-1.195917	0	10.83	4004	15	206	24	-1	1.328878	1.543809	5	15	0.022	1400
393218	-395	-908	1002	-1.907383	-3.449507	-2.281712	0	10.83	4003	33	170	53	-6	1.347097	1.549782	5	15	0.022	1400
393275	-544	630	987	-2.551696	-3.334541	-2.297894	0	10.83	4003	49	59	38	-4	1.350856	1.553621	5	15	0.022	1400
393380	-1119	-517	-252	-2.418188	-3.249454	-2.266561	0	10.83	4003	105	94	24	-10	1.260845	1.562785	5	15	0.022	1400
393545	704	-727	-1484	-1.749915	-1.938926	-2.110368	0	10.83	4004	-12	-150	11	-1	1.151758	1.569477	5	15	0.022	1400
393585	18	-409	519	-1.552426	-1.767801	-2.241519	0	10.83	4004	-23	-65	35	0	1.168843	1.567625	5	15	0.022	1400
393763	280	1278	452	-1.424615	-1.843925	-1.850435	0	10.83	4002	-24	54	37	9	1.248915	1.531496	5	15	0.022	1400
393961	-1310	-114	1021	-0.7304925	-2.021899	-1.440565	0	10.32	4004	112	144	20	4	1.351103	1.501443	5	15	0.022	1400
394075	1547	-605	-133	1.28597	-1.645783	-1.88718	0	10.32	4002	116	-116	15	5	1.297608	1.476951	5	15	0.022	1400
394097	1547	-605	-133	1.28597	-1.902738	-2.241149	0	10.32	4002	116	-116	15	5	1.297608	1.476951	5	15	0.022	1400
394193	1284	579	524	3.203082	-2.388047	-1.924654	0	10.32	4002	67	57	2	3	1.39712	1.456164	5	15	0.022	1400
394343	-157	-722	1161	2.809321	0.3399308	-0.8518269	0	10.32	4004	52	-194	-24	0	1.34545	1.450137	5	15	0.022	1400
394420	2325	856	1026	3.803577	0.1593802	-0.8782918	0	10.32	4002	-43	81	11	-2	1.361559	1.449919	5	15	0.022	1400
394509	797	737	529	5.16814	-1.432293	-1.329917	0	10.32	4004	-42	38	14	-5	1.34321	1.450948	5	15	0.022	1400
394673	1568	2364	-1668	6.181673	-3.033922	-1.403732	0	10.32	4003	-76	-162	-10	2	1.302988	1.442914	5	15	0.022	1400
394714	500	2666	291	6.928955	-6.884738	-1.43491	0	10.32	4003	-31	-70	17	2	1.312804	1.437204	5	15	0.022	1400
394866	-1527	-782	-729	5.11382	-9.116512	-0.5773593	0	10.72	4003	12	-40	-18	6	1.34019	1.414723	5	15	0.022	1400
394905	-1035	-1548	-813	2.519689	-7.594176	-0.5782391	0	10.72	4004	12	-40	-18	6	1.354161	1.399938	5	15	0.022	1400
395083	126	-2329	-1640	-0.3070943	-5.213233	-1.537437	0	10.72	4003	18	-88	-2	10	1.21507	1.356955	5	15	0.022	1400
395153	-177	-249	-697	-0.06207315	-4.222451	-1.764561	0	10.72	4003	-11	130	37	10	1.198389	1.336679	5	15	0.022	1400
395250	-1352	813	1526	-0.9316905	-3.999792	-1.92461	0	10.72	4004	41	189	38	15	1.16626	1.312167	5	15	0.022	1400
395307	877	-1807	-1239	-0.5806234	-3.693536	-1.425625	0	10.72	4003	125	-41	-3	9	1.151059	1.301255	5	15	0.022	1400
395458	-920	1419	888	-1.07732	-4.069286	-1.420245	0	10.72	4002	44	176	22	11	1.214172	1.253921	5	15	0.022	1400
395508	-1647	62	57	-1.813886	-4.488375	-1.342798	0	10.72	4002	205	-135	-9	15	1.141125	1.237057	5	15	0.022	1400
395614	-256	-1032	-1042	-2.531012	-3.67485	-1.415272	0	10.72	4002	36	-186	-5	15	1.225003	1.200838	5	15	0.022	1400
395790	-164	511	1077	-2.109652	-4.052928	-2.376518	0	10.09	4003	-92	-220	25	16	1.326364	1.137357	5	15	0.022	1400
395909	38	2601	551	-0.2047033	-4.643448	-2.208438	0	10.09	4004	64	147	17	19	1.269667	1.094851	5	15	0.022	1400
395975	187	578	-1158	0.0748978	-6.159868	-1.800033	0	10.09	4003	35	80	29	18	1.234172	1.06634	5	15	0.022	1400
396024	187	578	-1158	0.0748978	-6.159868	-1.800033	0	10.09	4003	110	21	-8	16	1.243215	1.026874	5	15	0.022	1400
396144	-971	1508	536	0.6620528	-8.859552	-1.979292	0	10.09	4004	62	-151	14	10	1.233932	1.006867	5	15	0.022	1400
396274	1711	-655	-1152	2.035352	-11.71725	-2.592165	0	10.09	4002	89	-226	49	7	1.240907	0.9875275	5	15	0.022	1400
396339	-700	-989	646	2.741832	-10.11818	-2.417112	0	10.09	4003	-66	301	31	17	1.122715	0.9805474	5	15	0.022	1400
396465	-1753	-1046	247	0.4914445	-5.622103	-1.034534	0	10.09	4003	-7	112	15	9	1.203405	0.9661213	5	15	0.022	1400
396554	-666	-934	-518	-0.05254881	-3.394398	-1.039664	0	10.09	4003	-108	-127	4	11	1.169297	0.9561408	5	15	0.022	1400
396608	-349	-359	-585	-1.643251	-3.000913	-2.141973	0	10.55	4004	-32	400	46	9	1.124184	0.9504954	5	15	0.022	1400
396711	-349	-359	-585	-1.643251	-3.000913	-2.141973	0	10.55	4004	-43	-316	21	11	1.097035	0.9393134	5	15	0.022	1400
396853	1352	-429	190	1.135095	-0.315774	-2.530192	0	10.55	4004	-44	82	43	17	1.159559	0.9232508	5	15	0.022	1400
396946	-650	324	-356	1.149632	-0.3173279	-2.194812	0	10.55	4003	64	-19	13	3	1.065501	0.9250019	5	15	0.022	1400
397060	-547	337	583	2.164158	-0.5263934	-2.105855	0	10.55	4004	118	-174	19	4	1.184988	0.9366573	5	15	0.022	1400
397118	479	1888	429	1.945861	-1.43607	-2.528299	0	10.55	4003	-49	185	48	0	1.184988	0.9366573	5	15	0.022	1400
397263	1127	-1089	-1980	2.425421	-4.722453	-1.492858	0	10.55	4003	23	-301	-11	-5	1.207643	0.9843355	5	15	0.022	1400
397345	1879	958	744	3.587344	-4.349674	-1.239394	0	10.55	4003	-49	-47	-25	-4	1.213819	1.017693	5	15	0.022	1400
397422	-352	2348	908	6.483997	-6.560171	-1.038822	0	10.55	4003	7	228	1	-2	1.221129	1.037988	5	15	0.022	1400
397544	1937	81	874	6.151344	-6.945032	-1.127943	0	10.72	4004	-52	-64	16	-10	1.232997	1.064626	5	15	0.022	1400
397623	401	583	635	6.599103	-6.607883	-1.371707	0	10.72	4003	-98	174	14	-9	1.337151	1.099914	5	15	0.022	1400
397737	-531	1191	1474	4.311155	-5.993022	-1.618159	0	10.72	4004	41	133	21	-14	1.293822	1.135773	5	15	0.022	1400
397844	303	-2692	-2355	1.843971	-3.699403	-1.963725	0	10.72	4003	15	137	20	-8	1.225866	1.184038	5	15	0.022	1400
397967	-248	-412	-1589	1.30386	-3.114065	-1.688542	0	10.72	4004	-1	215	30	-4	1.26445	1.20662	5	15	0.022	1400
398044	-85	1103	648	1.437271	-2.90518	-1.20678	0	10.72	4003	-50	-113	5	-5	1.268964	1.223291	5	15	0.022	1400
398133	869	-798	45	1.305853	-3.642688	-1.377203	0	10.72	4004	-55	9	30	-6	1.173496	1.256485	5	15	0.022	1400
398242	-733	-745	-708	2.208973	-3.8314	-1.673725	0	10.72	4002	107	-172	0	-25	1.183803	1.305205	5	15	0.022	1400
398326	-55	24	452	1.746773	-3.739643	-1.597696	0	10.72	4002	-2	76	-2	-15	1.25283	1.354971	5	15	0.022	1400
398441	-539	-86	29	2.657198	-2.42786	-0.7494844	0	10.94	4002	64	-132	-10	-12	1.309949	1.40386	5	15	0.022	1400
398509	-326	-413	-347	2.019845	-2.735102	-0.8775382	0	10.94	4004	9	-57	-8	-13	1.280421	1.431599	5	15	0.022	1400
398659	-588	-979	820	1.649891	-1.529422	-1.060572	0	10.94	4004	-3	-161	-1	-7	1.236984	1.47668	5	15	0.022	1400
398718	987	849	216	0.9025875	-1.59784	-1.280592	0	10.94	4003	-38	-119	4	-15	1.256837	1.490702	5	15	0.022	1400
398843	-807	815	353	-0.0421971	-3.255592	-0.798785	0	10.94	4002	17	-58	3	-5	1.337869	1.501554	5	15	0.022	1400
398989	-603	3184	1134	-0.3558451	-5.39784	-1.103313	0	10.94	4002	27	-163	-6	-4	1.335944	1.509774	5	15	0.022	1400
399078	271	-1319	-565	-1.227437	-10.34961	-1.803035	0	10.94	4003	21	-294	18	-3	1.268044	1.513877	5	15	0.022	1400
399125	271	-1319	-565	-1.227437	-10.34961	-1.803035	0	10.94	4003	-26	37	15	1	1.292358	1.509565	5	15	0.022	1400
399250	-587	-1221	-494	-1.205147	-7.399415	-1.00507	0	10.94	4004	46	16	-8	1	1.289989	1.49644	5	15	0.022	1400
399402	694	-146	-882	-1.279464	-4.864568	-0.491284	0	10.09	4002	27	-75	-22	1	1.247223	1.491746	5	15	0.022	1400
399431	694	-146	-882	-1.279464	-4.864568	-0.491284	0	10.09	4002	23	-123	-24	1	1.114746	1.484358	5	15	0.022	1400
399533	338	63	-338	-0.8695346	-4.92074	-0.2405845	0	10.09	4003	-38	224	-17	3	1.207514	1.476313	5	15	0.022	1400
399625	1037	2427	297	-0.1759307	-8.780629	-0.417969	0	10.09	4004	90	-71	-34	5	1.215761	1.463067	5	15	0.022	1400
399783	4	-2485	-79	-0.3995357	-11.20344	-1.309529	0	10.09	4003	1	18	6	11	1.206009	1.435771	5	15	0.022	1400
399895	-1133	-2748	-952	-1.090256	-7.995974	-1.116066	0	10.09	4003	-74	-275	-4	12	1.238307	1.388805	5	15	0.022	1400
399936	298	263	-1032	-1.377362	-6.738329	-0.9863976	0	10.09	4002	43	164	0	12	1.274143	1.371067	5	15	0.022	1400
400066	561	1984	1334	-0.7633842	-8.426698	-1.443911	0	10.09	4002	43	184	9	14	1.287729	1.313714	5	15	0.022	1400
400181	-2314	779	1177	-0.1643828	-8.224451	-2.154376	0	10.09	4004	-90	-76	20	13	1.294552	1.288357	5	15	0.022	1400
400208	-968	-635	-1157	-1.04946	-8.644094	-2.204568	0	10.09	4003	97	200	39	12	1.281504	1.264864	5	15	0.022	1400
400358	356	846	329	-0.9729299	-7.67991	-2.063792	0	10.55	4002	-27	-22	46	9	1.211348	1.229537	5	15	0.022	1400
400473	-301	-806	-1149	-0.05474249	-7.373601	-1.731409	0	10.55	4003	137	221	13	8	1.125756	1.211038	5	15	0.022	1400
400563	-39	-810	-341	-0.9801234	-6.928812	-2.325455	0	10.55	4004	-96	112	45	12	1.136136	1.180956	5	15	0.022	1400
400618	884	-1952	-312	-0.8449219	-5.713802	-2.150787	0	10.55	4004	6	18	29	11	1.130052	1.162701	5	15	0.022	1400
400731	-845	442	1351	-0.000188493	-4.1696	-1.784783	0	10.55	4004	81	-266	-5	27	1.036344	1.124477	5	15	0.022	1400
400794	785	-1719	-687	-0.8742687	-2.99279	-1.532736	0	10.55	4003	-50	-126	18	28	1.073334	1.107492	5	15	0.022	1400
400966	681	360	384	0.6119763	-1.196761	-2.083386	0	10.55	4004	-88	-83	27	11	1.146002	1.067074	5	15	0.022	1400
401014	1356	-1367	-1659	3.012157	-0.9616095	-1.829477	0	10.55	4003	4	229	38	5	1.145388	1.06617	5	15	0.022	1400
401143	-559	1724	358	1.823261	-2.732357	-2.117677	0	9.87	4003	6	-175	30	8	1.139414	1.061973	5	15	0.022	1400
401196	1299	1218	687	2.272006	-3.255799	-2.093154	0	9.87	4004	43	62	35	16	1.135987	1.059434	5	15	0.022	1400
401291	1159	51	-1361	3.652565	-4.368934	-1.540968	0	9.87	4003	-11	19	26	24	1.192789	1.035169	5	15	0.022	1400
401433	1078	1584	1020	3.678656	-6.816415	-2.246796	0	9.87	4003	100	-34	23	14	1.176364	1.012347	5	15	0.022	1400
401486	1078	1584	1020	3.678656	-6.816415	-2.246796	0	9.87	4003	94	142	43	13	1.232172	0.9885825	5	15	0.022	1400
401601	-627	-1638	217	2.192195	-5.533061	-2.691007	0	9.87	4004	-101	-174	44	10	1.237107	0.9725881	5	15	0.022	1400
401681	403	-3638	-2140	1.974687	-4.219107	-2.359808	0	9.87	4003	-74	-58	9	11	1.220609	0.9607291	5	15	0.022	1400
401794	-786	-1631	-905	2.127823	-0.8555	-1.810049	0	9.87	4003	11	-200	21	12	1.311682	0.9432486	5	15	0.022	1400
401950	999	-1867	164	1.228239	-1.206381	-2.189397	0	9.87	4003	-4	-69	48	18	1.343492	0.9284918	5	15	0.022	1400
401992	1221	-3376	-1809	1.447731	-0.1650894	-1.887262	0	9.87	4003	44	157	22	14	1.343492	0.9284918	5	15	0.022	1400
402125	-1136	2554	1537	1.663056	-0.07280828	-1.839249	0	11.11	4004	22	155	43	15	1.257962	0.9279127	5	15	0.022	1400
402195	-820	1630	-180	1.242949	-0.9534006	-1.78216	0	11.11	4003	10	-112	4	12	1.237501	0.9231246	5	15	0.022	1400
402297	1591	-1165	-776	2.229343	-0.3487059	-0.6966867	0	11.11	4003	-15	131	7	13	1.197411	0.9039152	5	15	0.022	1400
402437	580	119	-62	3.801003	-0.2141034	-0.7282178	0	11.11	4004	51	-187	-14	9	1.298402	0.8977909	5	15	0.022	1400
402541	524	-303	-344	4.81374	-1.829397	-0.9677743	0	11.11	4003	10	2	-3	13	1.300539	0.8962227	5	15	0.022	1400
402661	353	1428	1063	4.710372	-2.505797	-1.1136	0	11.11	4002	-21	128	17	20	1.346855	0.8832918	5	15	0.022	1400
402740	-357	1	-517	2.318363	-3.677924	-1.372233	0	11.11	4003	-38	88	17	10	1.411189	0.8759611	5	15	0.022	1400
402826	-357	1	-517	2.318363	-3.677924	-1.372233	0	11.11	4003	-21	-128	18	8	1.467675	0.8769437	5	15	0.022	1400
402863	-357	1	-517	2.318363	-3.677924	-1.372233	0	11.11	4003	-38	222	40	10	1.307563	0.8750572	5	15	0.022	1400
403009	-534	-1470	-584	-0.5764256	-2.441947	-1.086887	0	11.06	4002	95	110	-7	12	1.263655	0.8685644	5	15	0.022	1400
403067	755	572	1353	-0.3396979	-2.462334	-1.172741	0	11.06	4003	-34	15	19	12	1.298464	0.8572519	5	15	0.022	1400
403155	-911	274	578	-0.2107257	-1.943491	-1.457188	0	11.06	4004	61	-117	-6	15	1.317137	0.8506656	5	15	0.022	1400
403274	738	-154	316	0.1651863	-2.738443	-1.802893	0	11.06	4004	76	-199	0	24	1.212747	0.8325904	5	15	0.022	1400
403438	-689	75	-504	1.589219	-3.548777	-1.746718	0	11.06	4003	48	57	22	12	1.170982	0.8143634	5	15	0.022	1400
403493	-1258	532	1357	0.2505586	-3.372485	-1.86581	0	11.06	4002	24	-343	3	14	1.167421	0.8071567	5	15	0.022	1400
403595	-163	603	-77	-0.6053146	-4.035238	-2.039702	0	11.06	4003	2	-195	4	9	1.229374	0.8039114	5	15	0.022	1400
403635	1243	972	-635	0.2737814	-4.737644	-2.022512	0	11.06	4002	2	-195	4	9	1.254887	0.8058274	5	15	0.022	1400
403736	-428	381	-1445	0.2929431	-5.564172	-2.100933	0	11.06	4003	71	192	21	20	1.275563	0.8022348	5	15	0.022	1400
403876	857	-1807	-1820	-0.6253363	-5.306941	-1.534268	0	10.32	4004	-16	-149	-14	16	1.20611	0.7858627	5	15	0.022	1400
403947	-310	-236	312	-1.053379	-4.202434	-1.583431	0	10.32	4002	-8	-93	30	21	1.157388	0.7707278	5	15	0.022	1400
404070	-408	1070	669	-1.352135	-6.112698	-1.976516	0	10.32	4004	29	55	22	23	1.146645	0.7160884	5	15	0.022	1400
404183	689	-2124	-214	0.09636609	-5.307339	-1.862613	0	10.32	4002	114	-81	0	22	1.143481	0.6864057	5	15	0.022	1400
404241	689	-2124	-214	0.5466204	-4.478808	-1.816764	0	10.32	4003	0	-163	-1	18	1.148501	0.6703964	5	15	0.022	1400
404356	-797	-857	-903	1.255559	-3.324356	-1.384948	0	10.32	4003	65	-39	-11	20	1.205753	0.662213	5	15	0.022	1400
404487	497	114	763	0.3955972	-4.420968	-1.363436	0	10.32	4004	-63	8	16	28	1.240155	0.6559129	5	15	0.022	1400
404588	-1233	2286	1321	0.3225986	-5.300498	-1.645286	0	10.32	4004	66	-108	-1	18	1.142472	0.637997	5	15	0.022	1400
404666	304	-125	-595	0.1249115	-5.803471	-1.863786	0	10.32	4003	-76	-116	35	13	1.17105	0.6354213	5	15	0.022	1400
404833	-1429	391	1564	-1.796921	-3.974208	-2.000668	0	9.98	4004	109	204	18	6	1.363733	0.6460027	5	15	0.022	1400
404865	-314	-762	-1215	-2.55103	-3.902267	-1.773581	0	9.98	4003	109	204	18	6	1.360101	0.6552819	5	15	0.022	1400
404934	-814	-1076	-1253	-2.258238	-4.380214	-1.917711	0	9.98	4004	77	-242	9	7	1.202935	0.6719256	5	15	0.022	1400
405086	639	122	1251	-0.8663503	-3.846327	-1.927276	0	9.98	4003	-68	-79	30	6	1.244075	0.7046142	5	15	0.022	1400
405158	636	-1525	-719	-0.3235804	-3.696571	-1.537274	0	9.98	4003	-104	-177	16	1	1.282931	0.7218364	5	15	0.022	1400
405242	811	2238	-608	-1.356779	-5.375265	-1.629496	0	9.98	4004	-77	-113	1	-5	1.272045	0.7828185	5	15	0.022	1400
405394	-46	-327	-539	1.075143	-4.963672	-0.869856	0	9.98	4003	-54	230	-4	-4	1.295777	0.855626	5	15	0.022	1400
405510	-57	1435	979	-0.1382758	-6.914369	-1.706725	0	9.98	4003	15	-229	-10	-7	1.309834	0.9053059	5	15	0.022	1400
405596	2158	485	699	0.5362762	-7.154689	-2.03104	0	9.98	4003	-19	47	18	-4	1.146338	0.9476231	5	15	0.022	1400
405647	1798	-1777	-1548	1.949006	-5.926206	-1.619458	0	9.98	4003	-48	168	10	-12	1.132478	0.9689184	5	15	0.022	1400
405750	-897	1490	1658	2.323062	-5.336965	-1.590696	0	10.43	4004	62	84	22	-10	1.129159	1.022517	5	15	0.022	1400
405844	-897	1490	1658	2.323062	-5.336965	-1.590696	0	10.43	4004	100	-102	1	0	1.145475	1.057435	5	15	0.022	1400
405990	-416	-2	781	2.083137	-5.580875	-1.372716	0	10.43	4002	74	156	17	0	1.098737	1.09366	5	15	0.022	1400
406035	-900	720	12	1.621511	-5.770062	-1.155464	0	10.43	4002	-44	-161	8	-4	1.122633	1.100891	5	15	0.022	1400
406185	-473	-1793	-1356	0.1701531	-5.044597	-1.276253	0	10.43	4004	104	-101	-7	-5	1.203574	1.163244	5	15	0.022	1400
406237	11	246	955	-0.2375691	-4.260854	-1.288687	0	10.43	4003	5	-140	5	-13	1.231404	1.189138	5	15	0.022	1400
406341	-21	-1684	-1359	-1.688527	-4.486878	-1.123976	0	10.43	4004	39	136	6	-2	1.198304	1.214268	5	15	0.022	1400
406434	1597	-436	-1386	-0.5062929	-4.14388	-0.8071924	0	10.43	4004	45	-115	-22	-10	1.136375	1.242408	5	15	0.022	1400
406646	9	1052	856	-0.3442897	-3.482321	-0.7276766	0	9.64	4002	-26	131	8	0	1.232533	1.287331	5	15	0.022	1400
406757	306	1885	1262	-0.3307313	-4.55362	-0.837335	0	9.64	4002	-37	-256	-11	-2	1.293076	1.305939	5	15	0.022	1400
406841	-969	-513	290	-0.07432217	-5.654981	-0.8886057	0	9.64	4003	98	59	-2	-6	1.374564	1.335797	5	15	0.022	1400
406990	302	1727	1470	-1.244958	-6.034656	-1.426903	0	9.64	4003	-15	139	19	-15	1.466992	1.372042	5	15	0.022	1400
407102	601	-512	-757	-0.6707599	-6.800072	-0.8756793	0	9.64	4002	-66	-218	-17	-7	1.419151	1.415642	5	15	0.022	1400
407134	-333	-534	-771	-0.5379134	-6.917717	-0.8058027	0	9.64	4003	-66	-218	-17	-7	1.419151	1.415642	5	15	0.022	1400
407314	191	702	1414	-0.5108256	-5.861461	-0.8957031	0	9.64	4005	-36	91	8	-4	1.363614	1.463369	5	15	0.022	1400
407350	31	991	668	-0.5111068	-5.860541	-0.9127733	0	9.64	4003	44	134	0	-5	1.334543	1.467487	5	15	0.022	1400
407443	-452	-371	-504	-1.274709	-6.217015	-1.122024	0	9.64	4004	72	-112	-5	-4	1.291336	1.487646	5	15	0.022	1400
407522	298	-1568	-438	-1.272852	-5.76089	-1.205982	0	9.64	4004	-64	-20	13	-2	1.263932	1.494466	5	15	0.022	1400
407720	204	1142	1634	-1.212098	-9.578136	-1.397985	0	10.66	4004	-2	-134	-9	3	1.19136	1.490087	5	15	0.022	1400
407777	177	-441	-105	-0.6687437	-9.607759	-1.232118	0	10.66	4003	81	-198	-6	4	1.242756	1.484291	5	15	0.022	1400
407931	91	-2800	-1111	-0.4568575	-6.029665	-0.9705284	0	10.66	4003	11	-147	-20	6	1.22823	1.47508	5	15	0.022	1400
408107	-916	-906	-369	-1.458073	-2.811584	-1.473873	0	10.66	4004	7	61	33	12	1.313737	1.446393	5	15	0.022	1400
408139	-916	-906	-369	-1.458073	-2.811584	-1.473873	0	10.66	4004	44	181	49	14	1.312086	1.4418	5	15	0.022	1400
408208	-1032	557	328	-1.359933	-3.035888	-2.100764	0	10.66	4004	-54	-151	25	11	1.3106	1.430683	5	15	0.022	1400
408339	-1399	-2188	-114	-1.197255	-1.411362	-2.750622	0	10.66	4002	-10	-306	36	12	1.247575	1.38379	5	15	0.022	1400
408411	1689	-2925	-1661	-0.025088	2.149678	-1.435813	0	9.98	4003	-12	-30	14	17	1.308281	1.346246	5	15	0.022	1400
408496	512	-1342	-928	0.7916875	3.550062	-0.8222799	0	9.98	4002	-27	-113	-10	13	1.252856	1.321744	5	15	0.022	1400
408626	-413	482	35	1.110149	2.179948	-1.244796	0	9.98	4004	62	84	16	18	1.183734	1.288865	5	15	0.022	1400
408727	211	-1932	-261	1.256758	2.181766	-1.804017	0	9.98	4003	135	6	9	32	1.209006	1.234317	5	15	0.022	1400
408812	-374	500	419	1.861342	2.102054	-1.908204	0	9.98	4002	107	184	42	23	1.204718	1.199987	5	15	0.022	1400
408965	285	782	-951	0.9925188	-1.806095	-2.051798	0	9.98	4003	-138	-153	23	28	1.235307	1.090479	5	15	0.022	1400
409016	691	-425	-1041	1.502271	-2.721409	-1.862967	0	9.98	4003	-138	-153	23	28	1.237554	1.062941	5	15	0.022	1400
409110	-222	-1398	-1983	0.4428722	-2.555563	-1.493266	0	9.98	4004	-46	-212	0	26	1.188472	1.008093	5	15	0.022	1400
409314	1124	-1356	-449	1.128116	-3.101478	-1.674489	0	9.98	4003	-52	-289	22	25	1.135242	0.9165484	5	15	0.022	1400
409350	123	88	1410	1.463973	-2.490485	-1.805078	0	10.49	4003	-11	33	31	25	1.128116	0.9046177	5	15	0.022	1400
409429	-1312	2121	1002	0.4703468	-2.925858	-2.174217	0	10.49	4002	99	60	28	23	1.082266	0.8466224	5	15	0.022	1400
409500	-584	1628	1229	-0.08331943	-4.34403	-2.313455	0	10.49	4004	88	196	28	25	1.071657	0.8376182	5	15	0.022	1400
409631	42	-596	-1635	1.12028	-4.137708	-1.009172	0	10.49	4009	44	-113	-29	19	1.060522	0.7774489	5	15	0.022	1400
409746	1176	-994	-801	4.35385	-4.760427	0.20893	0	10.49	4003	78	103	-39	21	1.027256	0.7500759	5	15	0.022	1400
409844	1129	1682	666	5.679203	-5.300478	0.555339	0	10.49	4003	59	306	-43	19	1.02903	0.7278429	5	15	0.022	1400
409889	623	120	-401	5.867999	-6.054204	0.6289536	0	10.49	4003	69	-85	-40	28	1.033246	0.7222823	5	15	0.022	1400
410077	804	1535	-242	7.313218	-8.76931	-2.388826	0	10.49	4003	10	-95	28	21	1.063643	0.7188753	5	15	0.022	1400
410110	804	1535	-242	7.313218	-8.76931	-2.388826	0	10.49	4003	-33	-179	48	14	1.075511	0.7167616	5	15	0.022	1400
410270	-1274	-101	287	4.222857	-10.4372	-2.093682	0	9.75	4002	-87	71	43	12	1.087832	0.7191451	5	15	0.022	1400
410316	-2220	-542	-469	3.272791	-9.829742	-1.89943	0	9.75	4004	115	-23	6	12	1.084084	0.72065	5	15	0.022	1400
410462	-478	-1717	-1116	1.117622	-8.523206	-1.885336	0	9.75	4003	116	19	16	9	1.035214	0.729881	5	15	0.022	1400
410544	-1677	-95	1083	1.828101	-5.392575	-1.874801	0	9.75	4002	145	95	17	14	1.055725	0.7381647	5	15	0.022	1400
410602	770	-507	697	1.986361	-5.573026	-2.084833	0	9.75	4004	4	-180	17	21	1.050788	0.7419478	5	15	0.022	1400
410688	510	878	272	1.927663	-5.449669	-1.873935	0	9.75	4002	22	-70	12	16	1.091189	0.7294816	5	15	0.022	1400
410771	1447	355	903	2.939098	-5.825183	-1.599336	0	9.75	4004	-37	116	23	17	1.071162	0.7229113	5	15	0.022	1400
410882	-1287	602	747	2.033802	-3.605668	-1.479616	0	9.75	4004	-22	-4	33	17	1.106212	0.7154261	5	15	0.022	1400
410996	297	130	614	2.185659	-4.496798	-2.247938	0	9.75	4003	-42	-185	45	14	1.159657	0.7148535	5	15	0.022	1400
411064	297	130	614	2.185659	-4.496798	-2.247938	0	9.75	4003	-43	-61	36	8	1.169276	0.7256345	5	15	0.022	1400
411217	-923	1824	942	2.535497	-2.894416	-1.890115	0	10.6	4002	52	-125	0	-3	1.20073	0.7641451	5	15	0.022	1400
411252	-74	579	-1522	1.086238	-3.675077	-1.788077	0	10.6	4004	-54	25	29	1	1.227471	0.7900742	5	15	0.022	1400
411382	970	66	14	2.584302	-5.979745	-1.725788	0	10.6	4004	-97	-58	22	2	1.227019	0.8269227	5	15	0.022	1400
411453	-303	-931	-1982	1.86255	-5.72261	-1.418772	0	10.6	4002	32	10	-5	2	1.217418	0.8494034	5	15	0.022	1400
411555	-439	457	-262	1.538206	-5.442843	-1.420412	0	10.6	4004	-5	-269	9	3	1.199617	0.8895149	5	15	0.022	1400
411712	-1264	1077	1872	0.4030428	-1.814393	-2.082705	0	10.6	4003	28	281	47	7	1.278656	0.9074549	5	15	0.022	1400
411780	-984	658	1080	-0.08802634	-1.997522	-2.336239	0	10.6	4003	-76	-187	17	5	1.177652	0.9204407	5	15	0.022	1400
411979	990	-1604	-2087	0.5640383	-0.6408746	-1.720359	0	10.6	4002	48	199	9	0	1.209762	0.9555393	5	15	0.022	1400
412110	788	2112	-725	-0.005911536	-3.742864	-0.4014065	0	10.83	4002	-57	130	-27	1	1.179673	1.005842	5	15	0.022	1400
412192	1734	-213	-1203	0.8124387	-4.750343	0.1102237	0	10.83	4002	-31	-182	-41	0	1.176331	1.025166	5	15	0.022	1400
412375	2509	-557	-354	4.702123	-5.965409	-0.6460986	0	10.83	4004	-25	-267	-13	-15	1.178677	1.076868	5	15	0.022	1400
412430	-265	736	699	7.07217	-6.754323	-0.8586528	0	10.83	4004	-50	181	6	-18	1.169911	1.135311	5	15	0.022	1400
412542	-809	644	-650	4.682233	-6.810205	-0.7972175	0	10.83	4003	39	23	-18	-2	1.229779	1.170668	5	15	0.022	1400
412566	420	998	961	4.207579	-7.326328	-1.191099	0	10.83	4002	-54	-253	-7	-9	1.239542	1.178368	5	15	0.022	1400
412671	-678	548	113	4.413047	-8.136382	-1.628811	0	10.83	4002	-32	124	28	-12	1.145088	1.221573	5	15	0.022	1400
412767	-779	-1416	-434	2.72111	-7.529178	-1.395987	0	10.83	4003	41	-193	-9	-6	1.187803	1.259005	5	15	0.022	1400
412857	-958	-971	184	2.081719	-7.055581	-1.381952	0	10.83	4002	-13	146	13	-2	1.19771	1.279638	5	15	0.022	1400
412965	-220	-739	-671	0.08569232	-5.598691	-1.394358	0	10.49	4004	-49	-209	1	-6	1.326127	1.306953	5	15	0.022	1400
413099	-2660	-155	-8	0.06798003	-4.887135	-1.396017	0	10.49	4002	121	0	-3	-1	1.375175	1.337266	5	15	0.022	1400
413200	-517	-867	-1375	-2.153861	-4.846725	-1.882841	0	10.49	4003	-18	213	27	-4	1.413052	1.352557	5	15	0.022	1400
413280	91	-2417	374	-2.14764	-4.053731	-1.930436	0	10.49	4002	-70	-99	30	-7	1.449047	1.364792	5	15	0.022	1400
413370	-1008	-1786	346	-2.673343	-2.65427	-1.808803	0	10.49	4003	-79	-17	23	0	1.348692	1.392006	5	15	0.022	1400
413490	-533	-1834	-1041	-3.768266	-1.653457	-0.8357394	0	10.49	4004	76	-107	-17	0	1.377061	1.415087	5	15	0.022	1400
413581	-575	-2192	-872	-3.762442	-1.522586	-0.9035548	0	10.49	4003	-14	123	4	1	1.366702	1.425514	5	15	0.022	1400
413655	992	-836	-822	-3.231855	-1.637823	-0.654743	0	10.49	4004	65	-180	-15	5	1.342944	1.426695	5	15	0.022	1400
413786	100	-119	799	-2.096453	-1.982702	-1.000945	0	10.49	4003	-14	129	4	6	1.469951	1.42153	5	15	0.022	1400
413861	-443	-1995	-956	-1.995141	-1.217794	-0.9323148	0	10.49	4005	35	-138	-14	5	1.447039	1.420194	5	15	0.022	1400
414089	-258	-1262	803	-1.050937	-2.723081	-1.586609	0	10.94	4002	-21	-120	25	4	1.489376	1.425818	5	15	0.022	1400
414193	-694	2103	912	0.2561946	-0.8133835	-1.446362	0	10.94	4003	50	-8	0	9	1.418149	1.410479	5	15	0.022	1400
414274	428	2969	1453	-0.1453567	-3.167721	-1.526232	0	10.94	4004	-86	131	28	9	1.392718	1.401123	5	15	0.022	1400
414372	679	1010	404	0.9643458	-4.814328	-1.447483	0	10.94	4004	-42	-162	0	7	1.408204	1.391801	5	15	0.022	1400
414491	-37	-159	-476	0.1975978	-7.540915	-1.272012	0	10.94	4002	-11	-147	1	21	1.316827	1.363727	5	15	0.022	1400
414616	31	-1350	-1284	0.3652255	-8.137657	-1.862841	0	10.94	4003	11	-205	13	18	1.269513	1.325312	5	15	0.022	1400
414664	-251	349	252	0.2459077	-6.70283	-1.378792	0	10.94	4003	100	121	-12	19	1.251893	1.299282	5	15	0.022	1400
414802	722	-167	-488	0.9819756	-6.094659	-0.6829183	0	10.94	4004	-74	-120	-19	15	1.125834	1.278117	5	15	0.022	1400
414877	547	1021	748	1.237521	-6.308589	-0.1676554	0	10.15	4003	51	-16	-4	22	1.142459	1.246368	5	15	0.022	1400
415007	831	-2067	-896	3.251047	-4.385051	-0.7775723	0	10.15	4004	127	55	-11	18	1.242609	1.215494	5	15	0.022	1400
415103	199	1585	1049	3.326386	-4.209433	-0.8255448	0	10.15	4004	34	317	9	16	1.254094	1.202093	5	15	0.022	1400
415166	-905	317	1491	2.910721	-6.61789	-1.569703	0	10.15	4002	-44	132	26	16	1.294598	1.170215	5	15	0.022	1400
415327	-452	-2728	-242	1.401271	-5.151792	-2.285283	0	10.15	4004	-131	-191	29	20	1.157763	1.111448	5	15	0.022	1400
415436	-963	1430	1092	-0.8195024	-2.100367	-2.364844	0	10.15	4003	-59	-155	20	15	1.043312	1.088902	5	15	0.022	1400
415470	-1047	-97	-1269	-1.714182	-2.029616	-2.195179	0	10.15	4003	-74	157	47	16	1.037422	1.084308	5	15	0.022	1400
415564	189	749	625	-1.421317	-2.292831	-2.232742	0	10.15	4003	60	112	28	20	1.065176	1.066625	5	15	0.022	1400
415774	-210	6	-214	-2.047683	-0.986569	-1.445577	0	10.26	4002	114	33	-4	15	1.185814	1.030372	5	15	0.022	1400
415854	-1048	1816	1037	-1.377464	-0.6204807	-1.320427	0	10.26	4004	173	199	4	15	1.228648	1.02466	5	15	0.022	1400
415967	-75	3359	1498	-1.668998	-3.000649	-1.66774	0	10.26	4004	62	43	41	14	1.322644	1.001174	5	15	0.022	1400
416093	436	-2304	-1346	-1.277183	-1.696894	-1.374561	0	10.26	4004	-8	-141	9	17	1.266262	0.9942086	5	15	0.022	1400
416231	-972	4784	1960	-0.2149312	-2.818686	-0.8017182	0	10.26	4004	42	379	13	20	1.27025	0.951812	5	15	0.022	1400
416346	57	-1209	109	-0.3679996	-7.325016	-1.423242	0	10.26	4004	-57	-216	15	18	1.29879	0.9304619	5	15	0.022	1400
416365	-690	137	-217	-0.5377688	-6.944761	-1.293589	0	10.26	4004	-57	-216	15	18	1.316812	0.9203864	5	15	0.022	1400
416455	-183	1217	864	-0.5776578	-6.936873	-1.292137	0	10.26	4004	2	-138	-14	20	1.268424	0.9017701	5	15	0.022	1400
416561	-95	-869	653	0.3832489	-5.692104	-0.6918857	0	10.26	4003	-24	207	-1	18	1.239073	0.8796567	5	15	0.022	1400
416721	237	1297	226	-0.2311973	-4.790705	-1.158944	0	10.72	4002	64	37	-15	16	1.119413	0.8597591	5	15	0.022	1400
416773	2447	557	1519	0.850355	-4.816789	-1.288023	0	10.72	4003	-100	187	30	24	1.143857	0.8527923	5	15	0.022	1400
416936	-2238	173	1283	1.524518	0.1246118	-2.729985	0	10.72	4004	-121	5	57	21	1.169951	0.8371363	5	15	0.022	1400
416975	490	1035	-1162	0.7320112	-1.310268	-2.938634	0	10.72	4002	-8	-18	34	12	1.239752	0.8371948	5	15	0.022	1400
417106	-452	1466	938	3.390604	-1.774068	-2.000911	0	10.72	4004	106	58	15	8	1.297688	0.8417591	5	15	0.022	1400
417178	-1950	2320	1009	1.990645	-3.740672	-1.676495	0	10.72	4004	33	257	16	12	1.298945	0.8496005	5	15	0.022	1400
417265	-345	-539	-627	0.04754926	-3.851834	-1.333693	0	10.72	4002	11	-101	0	11	1.251844	0.8590991	5	15	0.022	1400
417369	-91	0	-1778	-0.6136733	-3.354584	-0.7831604	0	10.72	4003	39	-51	-34	13	1.197708	0.864956	5	15	0.022	1400
417515	302	1608	1357	0.4491777	-4.82467	-1.087417	0	10.55	4004	4	-184	3	8	1.207922	0.8924985	5	15	0.022	1400
417622	-121	3201	1696	1.363633	-7.95752	-2.21476	0	10.55	4004	4	-76	29	7	1.301132	0.9180149	5	15	0.022	1400
417641	-121	3201	1696	1.363633	-7.95752	-2.21476	0	10.55	4004	50	237	45	8	1.333635	0.9244936	5	15	0.022	1400
417744	212	1090	874	1.800309	-9.365445	-2.536682	0	10.55	4002	-76	151	38	7	1.343699	0.9397426	5	15	0.022	1400
417869	-553	1495	520	1.329539	-9.250959	-2.127322	0	10.55	4003	-82	-8	36	7	1.340758	0.9601139	5	15	0.022	1400
417935	150	284	-1452	0.7353444	-10.33584	-1.93311	0	10.55	4003	0	179	34	5	1.345782	0.974311	5	15	0.022	1400
418054	233	-554	-893	0.397695	-10.34932	-1.806882	0	10.55	4003	-38	-27	1	11	1.316654	0.9842848	5	15	0.022	1400
418132	18	-2953	-1448	0.7449875	-8.196406	-1.585963	0	10.55	4002	-70	-261	3	12	1.16089	0.9841187	5	15	0.022	1400
418230	-743	-2138	-1095	0.1633765	-6.581532	-1.579564	0	10.55	4002	49	-304	0	18	1.148251	0.9828762	5	15	0.022	1400
418353	53	-858	-1241	-0.7779285	-5.563336	-1.521127	0	10.55	4003	20	177	32	12	1.180277	0.9798439	5	15	0.022	1400
418436	-389	-1749	-1012	0.02758351	-4.645163	-2.110478	0	10.43	4003	29	-245	14	14	1.204973	0.977982	5	15	0.022	1400
418531	149	747	911	0.04921453	-5.162621	-2.226899	0	10.43	4002	0	-103	33	12	1.18266	0.974723	5	15	0.022	1400
418660	-687	159	894	-0.8643509	-2.917026	-1.218364	0	10.43	4003	13	229	3	14	1.155234	0.9799169	5	15	0.022	1400
418752	136	156	-686	-1.485409	-3.909436	-1.355482	0	10.43	4003	12	-51	-4	8	1.154906	0.9870268	5	15	0.022	1400
418907	-603	-423	-1098	-0.806862	-3.552663	-1.596303	0	10.43	4002	44	-153	-2	8	1.231504	1.013284	5	15	0.022	1400
418939	-603	-423	-1098	-0.806862	-3.552663	-1.596303	0	10.43	4002	-61	-4	37	8	1.231504	1.013284	5	15	0.022	1400
419033	899	858	1103	-0.813135	-4.042475	-2.017259	0	10.43	4004	74	160	15	11	1.123296	1.022556	5	15	0.022	1400
419127	111	-642	-1411	0.2776601	-3.372749	-1.178115	0	10.43	4002	-11	-7	-24	9	1.112222	1.023185	5	15	0.022	1400
419203	235	526	437	0.7345576	-3.297298	-0.8939278	0	10.43	4003	-11	-7	-24	9	1.123803	1.037256	5	15	0.022	1400
419402	-889	1958	1404	1.207052	-2.644801	-1.981621	0	10.04	4002	135	13	28	-7	1.189715	1.091171	5	15	0.022	1400
419551	296	-337	870	0.4633166	-1.908796	-1.669543	0	10.04	4002	66	179	18	0	1.191172	1.133398	5	15	0.022	1400
419645	-516	956	745	-0.1473496	-0.8834234	-0.9101186	0	10.04	4004	11	-203	-3	0	1.179103	1.178232	5	15	0.022	1400
419724	488	1227	680	-0.2911023	-2.653555	-0.7963867	0	10.04	4004	-44	155	-4	6	1.178004	1.195034	5	15	0.022	1400
419796	488	1227	680	-0.2911023	-2.653555	-0.7963867	0	10.04	4004	-42	58	-42	5	1.180649	1.200169	5	15	0.022	1400
419894	-1436	1499	1712	0.7225513	-3.869563	-0.5277696	0	10.04	4003	17	51	2	11	1.063599	1.200066	5	15	0.022	1400
419999	710	229	1122	0.06420255	-4.151915	-1.016797	0	10.04	4002	33	170	21	12	1.062403	1.204056	5	15	0.022	1400
420248	-406	-1502	-569	1.400841	-1.576395	-0.7853848	0	10.83	4003	-24	-150	-14	11	1.226868	1.185783	5	15	0.022	1400
420353	-904	-1304	8	0.9893239	-1.431366	-0.7540566	0	10.83	4002	0	103	13	17	1.154711	1.174967	5	15	0.022	1400
420405	360	596	-533	-0.10284	-3.791779	-1.086995	0	10.83	4003	-9	-51	-1	15	1.180041	1.165831	5	15	0.022	1400
420497	1448	256	807	1.30663	-3.713168	-0.8303654	0	10.83	4002	-40	-300	-14	18	1.242735	1.146985	5	15	0.022	1400
420621	-481	839	36	0.4692917	-5.460316	-0.9776597	0	10.83	4003	-71	215	5	17	1.183401	1.124632	5	15	0.022	1400
420741	-1012	1752	41	0.2166547	-6.189435	-0.8097707	0	10.83	4003	-53	-105	4	11	1.172791	1.1206	5	15	0.022	1400
420796	-873	801	-459	-0.3260262	-7.251589	-1.016527	0	10.83	4003	-45	-235	1	8	1.151727	1.125216	5	15	0.022	1400
420937	840	-719	-1909	-1.790544	-8.415854	-2.002481	0	10.83	4003	-57	147	26	9	1.14049	1.132876	5	15	0.022	1400
420983	-305	-784	-581	0.2286746	-7.925886	-1.673223	0	10.83	4004	89	8	9	12	1.115204	1.13086	5	15	0.022	1400
421149	-911	-2814	176	-1.458631	-5.426189	-1.494222	0	9.92	4003	92	-234	4	16	1.122164	1.120222	5	15	0.022	1400
421230	-509	-237	302	-2.965782	-3.457145	-1.434075	0	9.92	4003	3	-63	-9	21	1.232177	1.105291	5	15	0.022	1400
421376	1405	592	299	-1.783988	-2.270871	-1.710131	0	9.92	4006	128	169	14	14	1.395287	1.093703	5	15	0.022	1400
421498	425	-961	284	-0.01320249	-2.100501	-1.405295	0	9.92	4003	-76	-124	12	12	1.458811	1.095728	5	15	0.022	1400
421564	567	719	1155	0.1778206	-0.3506794	-0.7547249	0	9.92	4003	14	96	-14	10	1.475939	1.097684	5	15	0.022	1400
421690	-874	92	-495	0.179066	-1.947966	-0.7892553	0	9.92	4004	-47	-105	16	12	1.348255	1.097895	5	15	0.022	1400
421765	520	1704	902	-0.3751885	-4.170709	-1.805852	0	9.92	4003	-56	4	10	11	1.350774	1.098592	5	15	0.022	1400
421881	12	551	177	1.4061	-4.18365	-1.034948	0	9.92	4004	-29	175	-4	15	1.315769	1.089475	5	15	0.022	1400
422028	940	-88	784	-0.3182706	-4.051641	-0.4350037	0	10.43	4004	2	11	-7	16	1.282835	1.065636	5	15	0.022	1400
422146	679	-91	681	0.6202129	-3.152211	-0.6059503	0	10.43	4003	-100	8	-1	22	1.324009	1.041321	5	15	0.022	1400
