time(ms)	gyro_x(deg/s)	gyro_y(deg/s)	gyro_z(deg/s)	orientation_roll(deg)	orientation_pitch(deg)	orientation_yaw(deg)	throttle	battery(V)	loop_time(uS)	pid_output_roll	pid_output_pitch	pid_output_yaw	pid_output_throttle	ultrasonic_alt	baro_alt	flight_mode	p_gain_altitude	i_gain_altitude	d_gain_altitude
359795	65	1	0	0.8062533	0.1658621	-3.019166	0	11.34	4003	0	0	0	0	1.257781	0.1816043	1	15	0.022	1400
359880	55	0	-2	0.8095549	0.1653719	-3.017455	0	11.29	4002	0	0	0	0	1.257781	0.1884831	1	15	0.022	1400
360020	68	-3	-5	0.8167744	0.1674676	-3.007	0	11.29	4003	0	0	0	0	1.257781	0.1911933	1	15	0.022	1400
360100	61	-9	-1	0.8149583	0.1633604	-3.004554	0	11.29	4003	0	0	0	0	1.257781	0.1921097	1	15	0.022	1400
360196	71	-8	-5	0.8148292	0.1697854	-2.99893	0	11.29	4002	0	0	0	0	1.257781	0.1891355	1	15	0.022	1400
360311	70	0	-3	0.817507	0.1609238	-2.991531	0	11.29	4004	0	0	0	0	1.257781	0.1772336	1	15	0.022	1400
360430	60	-5	-5	0.8166898	0.1575295	-2.986457	0	11.29	4003	0	0	0	0	1.257781	0.1686202	1	15	0.022	1400
360502	61	-7	-5	0.8178835	0.1591402	-2.982605	0	11.29	4003	0	0	0	0	1.257781	0.1612034	1	15	0.022	1400
360725	61	2	-5	0.8190594	0.1602977	-2.969521	0	11.29	4004	0	0	0	0	1.257781	0.1410278	1	15	0.022	1400
360937	57	-7	-5	0.8222218	0.1598335	-2.954359	0	11.34	4003	0	0	0	0	1.257781	0.1246331	1	15	0.022	1400
361074	62	4	-8	0.8277341	0.1542893	-2.946778	0	11.34	4004	0	0	0	0	1.257781	0.1279513	1	15	0.022	1400
361163	61	-5	-1	0.8285448	0.1586539	-2.93987	0	11.34	4003	0	0	0	0	1.257781	0.1356135	1	15	0.022	1400
361274	75	-3	-3	0.8360226	0.1599669	-2.934918	0	11.34	4002	0	0	0	0	1.257781	0.1236366	1	15	0.022	1400
361333	68	0	-8	0.8338484	0.1589147	-2.932656	0	11.34	4002	0	0	0	0	1.257781	0.1195062	1	15	0.022	1400
361445	69	-4	-7	0.8341619	0.1549259	-2.92257	0	11.34	4004	0	0	0	0	1.257781	0.1102127	1	15	0.022	1400
361507	67	-6	-6	0.8347549	0.153469	-2.917863	0	11.34	4002	0	0	0	0	1.257781	0.1098287	1	15	0.022	1400
361673	66	5	-1	0.845758	0.1570149	-2.90912	0	11.34	4003	0	0	0	0	1.257781	0.1042596	1	15	0.022	1400
361862	63	-2	0	0.8359355	0.1609545	-2.897198	0	11.29	4004	0	0	0	0	1.257781	0.08948696	1	15	0.022	1400
362037	67	-6	-8	0.845081	0.1665923	-2.889556	0	11.29	4002	0	0	0	0	1.257781	0.0810328	1	15	0.022	1400
362134	75	-2	-3	0.8467018	0.1618733	-2.883748	0	11.29	4003	0	0	0	0	1.257781	0.07674027	1	15	0.022	1400
362216	72	-4	-7	0.8513853	0.1606592	-2.88008	0	11.29	4003	0	0	0	0	1.257781	0.07442202	1	15	0.022	1400
362386	69	3	-2	0.8589872	0.1600677	-2.871398	0	11.29	4003	0	0	0	0	1.257781	0.07116067	1	15	0.022	1400
362412	66	-7	-5	0.8598989	0.1635537	-2.869258	0	11.29	4002	0	0	0	0	1.257781	0.07116067	1	15	0.022	1400
362499	64	3	-1	0.8640776	0.1576481	-2.863083	0	11.29	4002	0	0	0	0	1.257781	0.06212725	1	15	0.022	1400
362603	63	-3	-7	0.8587694	0.156488	-2.857397	0	11.34	4003	0	0	0	0	1.257781	0.05124794	1	15	0.022	1400
362705	68	-6	2	0.8627557	0.1582204	-2.850612	0	11.34	4003	0	0	0	0	1.257781	0.03563433	1	15	0.022	1400
362899	72	-2	-6	0.8735726	0.1544357	-2.841258	0	11.34	4002	0	0	0	0	1.257781	0.02555292	1	15	0.022	1400
362954	75	-3	-8	0.8764562	0.154966	-2.837223	0	11.34	4002	0	0	0	0	1.257781	0.0259106	1	15	0.022	1400
363079	67	-2	-3	0.8820556	0.1543957	-2.830498	0	11.34	4002	0	0	0	0	1.257781	0.02318088	1	15	0.022	1400
363161	64	-2	-3	0.881019	0.1594924	-2.827991	0	11.34	4003	0	0	0	0	1.257781	0.02115102	1	15	0.022	1400
363208	71	-11	-6	0.8849301	0.1601196	-2.823344	0	11.34	4004	0	0	0	0	1.257781	0.02069874	1	15	0.022	1400
363334	63	-2	1	0.8902034	0.1606726	-2.818882	0	11.34	4002	0	0	0	0	1.257781	0.02675115	1	15	0.022	1400
363413	64	-4	0	0.8854063	0.1607541	-2.817415	0	11.34	4004	0	0	0	0	1.257781	0.03476382	1	15	0.022	1400
363515	66	-3	-2	0.8874152	0.1619855	-2.813869	0	11.34	4004	0	0	0	0	1.257781	0.03965018	1	15	0.022	1400
363746	73	-3	-4	0.883369	0.1546841	-2.800052	0	11.34	4002	0	0	0	0	1.257781	0.03268141	1	15	0.022	1400
363879	68	-6	-10	0.8863803	0.1547105	-2.791003	0	11.34	4003	0	0	0	0	1.257781	0.02971828	1	15	0.022	1400
363981	65	0	-6	0.8858345	0.1558923	-2.782811	0	11.34	4003	0	0	0	0	1.257781	0.01993061	1	15	0.022	1400
364029	66	-2	-3	0.8830529	0.1542689	-2.779449	0	11.34	4002	0	0	0	0	1.257781	0.007333903	1	15	0.022	1400
364134	54	-3	1	0.8818681	0.1577788	-2.771196	0	11.34	4003	0	0	0	0	1.257781	-0.006074715	1	15	0.022	1400
364262	71	3	-6	0.8767653	0.1561843	-2.767466	0	11.34	4003	0	0	0	0	1.257781	-0.02708771	1	15	0.022	1400
364360	66	-3	-6	0.8812228	0.1593342	-2.762392	0	11.34	4003	0	0	0	0	1.257781	-0.04525062	1	15	0.022	1400
364457	70	-4	-2	0.8844083	0.1627146	-2.757318	0	11.34	4003	0	0	0	0	1.257781	-0.07270533	1	15	0.022	1400
364534	70	0	-5	0.8817264	0.1639142	-2.754934	0	11.34	4004	0	0	0	0	1.257781	-0.08708125	1	15	0.022	1400
364659	72	-4	-2	0.8869975	0.171955	-2.747108	0	11.34	4002	0	0	0	0	1.257781	-0.09500068	1	15	0.022	1400
364759	59	0	-5	0.8896598	0.1708239	-2.739038	0	11.34	4002	0	0	0	0	1.257781	-0.09575372	1	15	0.022	1400
364836	74	2	-2	0.8863074	0.1672136	-2.735492	0	11.34	4003	0	0	0	0	1.257781	-0.09520384	1	15	0.022	1400
364952	73	-2	-1	0.8907081	0.1708066	-2.730112	0	11.34	4002	0	0	0	0	1.257781	-0.08981591	1	15	0.022	1400
365106	79	-2	-9	0.8908437	0.1602053	-2.714888	0	11.34	4002	0	0	0	0	1.257781	-0.0845042	1	15	0.022	1400
365156	76	-6	-1	0.8897767	0.1610202	-2.711709	0	11.34	4003	0	0	0	0	1.257781	-0.08272645	1	15	0.022	1400
365226	74	0	0	0.8928439	0.1601144	-2.707797	0	11.34	4004	0	0	0	0	1.257781	-0.07679844	1	15	0.022	1400
365327	70	-6	-3	0.8877683	0.1669641	-2.702295	0	11.34	4003	0	0	0	0	1.257781	-0.0791993	1	15	0.022	1400
365551	75	0	1	0.8889965	0.1682358	-2.688293	0	11.29	4004	0	0	0	0	1.257781	-0.07375107	1	15	0.022	1400
365709	71	0	-7	0.8986482	0.1697699	-2.679671	0	11.29	4003	0	0	0	0	1.257781	-0.06307571	1	15	0.022	1400
365763	78	-3	-9	0.9039841	0.1657839	-2.673802	0	11.29	4004	0	0	0	0	1.257781	-0.06097604	1	15	0.022	1400
365896	73	-4	-1	0.9075848	0.1582094	-2.664265	0	11.29	4002	0	0	0	0	1.257781	-0.07174867	1	15	0.022	1400
365973	73	-3	-7	0.913403	0.1578146	-2.658946	0	11.29	4009	0	0	0	0	1.257781	-0.07782806	1	15	0.022	1400
366045	68	3	0	0.920036	0.155466	-2.652466	0	11.29	4003	0	0	0	0	1.257781	-0.07854244	1	15	0.022	1400
366113	64	0	-8	0.9168847	0.1630896	-2.64782	0	11.29	4004	0	0	0	0	1.257781	-0.08202684	1	15	0.022	1400
366200	75	-1	-1	0.9208905	0.1620429	-2.643112	0	11.29	4003	0	0	0	0	1.257781	-0.08276937	1	15	0.022	1400
366299	75	0	-4	0.9287554	0.1588131	-2.635225	0	11.34	4004	0	0	0	0	1.257781	-0.08582234	1	15	0.022	1400
366403	79	-3	0	0.9370584	0.1565994	-2.631496	0	11.34	4003	0	0	0	0	1.257781	-0.08845524	1	15	0.022	1400
366574	70	-3	-10	0.9396374	0.1464519	-2.623242	0	11.34	4002	0	0	0	0	1.257781	-0.1047647	1	15	0.022	1400
366637	67	-1	-1	0.9445816	0.1460004	-2.619023	0	11.34	4002	0	0	0	0	1.257781	-0.1060225	1	15	0.022	1400
366710	67	-4	0	0.9428531	0.1533664	-2.615539	0	11.34	4002	0	0	0	0	1.257781	-0.1070901	1	15	0.022	1400
366816	81	-7	-2	0.9432298	0.1560256	-2.608203	0	11.34	4003	0	0	0	0	1.257781	-0.1022035	1	15	0.022	1400
366983	65	-10	-3	0.9310798	0.1555817	-2.600928	0	11.34	4003	0	0	0	0	1.257781	-0.09675205	1	15	0.022	1400
367047	72	-4	-7	0.926917	0.1535977	-2.595304	0	11.34	4004	0	0	0	0	1.257781	-0.09523267	1	15	0.022	1400
367134	76	-2	-6	0.9276401	0.15615	-2.589802	0	11.34	4003	0	0	0	0	1.257781	-0.09624154	1	15	0.022	1400
367274	77	-8	-3	0.9319738	0.1520757	-2.582466	0	11.34	4004	0	0	0	0	1.257781	-0.08649224	1	15	0.022	1400
367325	76	-5	0	0.9275535	0.1536631	-2.57831	0	11.34	4002	0	0	0	0	1.257781	-0.08458274	1	15	0.022	1400
367372	71	-5	-5	0.9295726	0.156222	-2.574886	0	11.34	4003	0	0	0	0	1.257781	-0.08454846	1	15	0.022	1400
367473	74	-7	-2	0.931784	0.1590171	-2.568895	0	11.34	4003	0	0	0	0	1.257781	-0.09030692	1	15	0.022	1400
367574	63	-2	-2	0.9299338	0.1576393	-2.563698	0	11.34	4004	0	0	0	0	1.257781	-0.08978409	1	15	0.022	1400
367719	76	0	0	0.9368134	0.1646799	-2.553733	0	11.34	4004	0	0	0	0	1.257781	-0.07203739	1	15	0.022	1400
367835	76	2	-6	0.9404473	0.1648468	-2.548353	0	11.34	4002	0	0	0	0	1.257781	-0.07577588	1	15	0.022	1400
367944	78	-8	-5	0.946439	0.1743528	-2.538326	0	11.34	4003	0	0	0	0	1.257781	-0.09179125	1	15	0.022	1400
368001	73	-4	-8	0.9501613	0.1734109	-2.535453	0	11.34	4002	0	0	0	0	1.257781	-0.1040636	1	15	0.022	1400
368124	74	-5	-3	0.9450829	0.1723516	-2.528666	0	11.34	4002	0	0	0	0	1.257781	-0.1128052	1	15	0.022	1400
368180	84	-6	-2	0.9499906	0.1715192	-2.524509	0	11.34	4004	0	0	0	0	1.257781	-0.1138566	1	15	0.022	1400
368365	68	-6	-4	0.9525484	0.1721166	-2.51381	0	11.34	4003	0	0	0	0	1.257781	-0.1022695	1	15	0.022	1400
368411	73	-5	-8	0.95496	0.1730771	-2.511425	0	11.34	4004	0	0	0	0	1.257781	-0.1030717	1	15	0.022	1400
368525	80	-1	-5	0.9606972	0.1648098	-2.502133	0	11.34	4003	0	0	0	0	1.257781	-0.0977675	1	15	0.022	1400
368593	71	-5	-9	0.9558088	0.160854	-2.496569	0	11.34	4002	0	0	0	0	1.257781	-0.09158947	1	15	0.022	1400
368687	77	-1	-3	0.9558801	0.1632929	-2.491556	0	11.34	4003	0	0	0	0	1.257781	-0.09275358	1	15	0.022	1400
368790	73	-5	-1	0.9632779	0.1627278	-2.487704	0	11.34	4002	0	0	0	0	1.257781	-0.09063727	1	15	0.022	1400
368891	73	-1	-4	0.9580727	0.1637846	-2.47939	0	11.34	4004	0	0	0	0	1.257781	-0.09212946	1	15	0.022	1400
369031	89	-1	-4	0.9599754	0.1628014	-2.471076	0	11.29	4003	0	0	0	0	1.257781	-0.09990487	1	15	0.022	1400
369105	75	-10	-2	0.9633107	0.160329	-2.465512	0	11.29	4002	0	0	0	0	1.257781	-0.09821394	1	15	0.022	1400
369245	74	0	-4	0.9663194	0.1602593	-2.45842	0	11.29	4002	0	0	0	0	1.257781	-0.07799473	1	15	0.022	1400
369388	74	0	-2	0.9760048	0.1520601	-2.450472	0	11.29	4003	0	0	0	0	1.257781	-0.08453397	1	15	0.022	1400
369450	72	3	-3	0.9791662	0.1452669	-2.445642	0	11.29	4004	0	0	0	0	1.257781	-0.0807101	1	15	0.022	1400
369536	77	-3	-5	0.9761369	0.1413042	-2.43372	0	11.29	4004	0	0	0	0	1.257781	-0.06568134	1	15	0.022	1400
369630	78	3	-4	0.9800656	0.1418462	-2.426873	0	11.29	4003	0	0	0	0	1.257781	-0.06185489	1	15	0.022	1400
369716	77	-6	-4	0.9776945	0.14208	-2.423266	0	11.29	4002	0	0	0	0	1.257781	-0.06719362	1	15	0.022	1400
369792	77	-1	-5	0.9761884	0.142746	-2.415318	0	11.29	4003	0	0	0	0	1.257781	-0.07382054	1	15	0.022	1400
369903	75	-3	-1	0.9826918	0.1444859	-2.408716	0	11.29	4003	0	0	0	0	1.257781	-0.07997043	1	15	0.022	1400
370124	74	-4	-4	0.9940026	0.1423907	-2.39013	0	11.34	4002	0	0	0	0	1.257781	-0.05919185	1	15	0.022	1400
370210	74	-3	-4	0.9989124	0.1380925	-2.384383	0	11.34	4003	0	0	0	0	1.257781	-0.06215768	1	15	0.022	1400
370353	78	0	-7	1.00044	0.1414543	-2.372522	0	11.34	4004	0	0	0	0	1.257781	-0.06820381	1	15	0.022	1400
370468	77	-4	-5	1.009211	0.1431042	-2.358337	0	11.34	4003	0	0	0	0	1.257781	-0.06651093	1	15	0.022	1400
370560	75	0	-7	1.002348	0.1480098	-2.348126	0	11.34	4004	0	0	0	0	1.257781	-0.06007476	1	15	0.022	1400
370694	81	6	-5	1.011306	0.1419433	-2.335899	0	11.34	4004	0	0	0	0	1.257781	-0.04926047	1	15	0.022	1400
370770	74	-3	-12	1.011771	0.1470554	-2.330274	0	11.34	4003	0	0	0	0	1.257781	-0.04153225	1	15	0.022	1400
370820	79	-4	-2	1.010484	0.148693	-2.325321	0	11.34	4004	0	0	0	0	1.257781	-0.03715594	1	15	0.022	1400
370962	72	-4	-9	1.010843	0.1464855	-2.312053	0	11.34	4004	0	0	0	0	1.257781	-0.02857276	1	15	0.022	1400
371081	80	0	-1	1.020642	0.1488171	-2.305084	0	11.34	4004	0	0	0	0	1.257781	-0.01657978	1	15	0.022	1400
371170	74	0	-5	1.015445	0.1504974	-2.294507	0	11.34	4002	0	0	0	0	1.257781	-0.01143902	1	15	0.022	1400
371230	80	-3	-8	1.016229	0.1514539	-2.291816	0	11.34	4002	0	0	0	0	1.257781	-0.0131877	1	15	0.022	1400
371334	71	-3	-4	1.022553	0.1447909	-2.283562	0	11.34	4002	0	0	0	0	1.257781	-0.01480614	1	15	0.022	1400
371429	75	0	-6	1.017995	0.1509432	-2.274881	0	11.34	4003	0	0	0	0	1.257781	-0.01856894	1	15	0.022	1400
371557	81	-1	-1	1.023703	0.1495128	-2.26253	0	11.34	4003	0	0	0	0	1.257781	-0.01845729	1	15	0.022	1400
371654	86	-4	-2	1.022672	0.1491317	-2.254766	0	11.34	4004	0	0	0	0	1.257781	-0.02266646	1	15	0.022	1400
371751	89	0	-3	1.027798	0.1447426	-2.247552	0	11.34	4003	0	0	0	0	1.257781	-0.02384152	1	15	0.022	1400
371842	75	1	-1	1.031502	0.1446474	-2.240703	0	11.29	4002	0	0	0	0	1.257781	-0.01694114	1	15	0.022	1400
371995	82	-3	-5	1.035905	0.1497537	-2.230065	0	11.29	4003	0	0	0	0	1.257781	-0.02011197	1	15	0.022	1400
372028	88	1	-7	1.037464	0.1458537	-2.227436	0	11.29	4003	0	0	0	0	1.257781	-0.02090526	1	15	0.022	1400
372189	72	-1	-2	1.043604	0.1458088	-2.214229	0	11.29	4004	0	0	0	0	1.257781	-0.0237059	1	15	0.022	1400
372240	88	-8	-8	1.042568	0.1452719	-2.211416	0	11.29	4003	0	0	0	0	1.257781	-0.02527208	1	15	0.022	1400
372341	81	4	-9	1.037581	0.1441328	-2.203652	0	11.29	4003	0	0	0	0	1.257781	-0.03209408	1	15	0.022	1400
372475	83	-6	-6	1.045618	0.151321	-2.190018	0	11.29	4002	0	0	0	0	1.257781	-0.04600015	1	15	0.022	1400
372566	83	-10	-7	1.051647	0.1499154	-2.185432	0	11.29	4003	0	0	0	0	1.257781	-0.05608725	1	15	0.022	1400
372634	87	-1	-8	1.053208	0.1494464	-2.180541	0	11.29	4003	0	0	0	0	1.257781	-0.054368	1	15	0.022	1400
372768	82	-7	-1	1.046537	0.1462083	-2.169048	0	11.29	4004	0	0	0	0	1.257781	-0.04768673	1	15	0.022	1400
372906	83	-9	-6	1.048607	0.1519125	-2.158166	0	11.29	4003	0	0	0	0	1.257781	-0.03288226	1	15	0.022	1400
372983	80	-7	0	1.05158	0.1573774	-2.154803	0	11.29	4003	0	0	0	0	1.257781	-0.02950869	1	15	0.022	1400
373031	82	0	-4	1.051428	0.1558305	-2.150156	0	11.29	4004	0	0	0	0	1.257781	-0.03159398	1	15	0.022	1400
373150	78	-3	-7	1.056072	0.1584077	-2.143736	0	11.29	4002	0	0	0	0	1.257781	-0.03726259	1	15	0.022	1400
373309	82	-2	-9	1.053552	0.1477401	-2.126251	0	11.29	4004	0	0	0	0	1.257781	-0.06038798	1	15	0.022	1400
373399	86	2	-6	1.062263	0.1461927	-2.117936	0	11.29	4004	0	0	0	0	1.257781	-0.0815686	1	15	0.022	1400
373451	83	0	-3	1.062195	0.1476769	-2.115674	0	11.29	4002	0	0	0	0	1.257781	-0.08657461	1	15	0.022	1400
373593	76	-2	-2	1.068667	0.1519587	-2.106136	0	11.29	4002	0	0	0	0	1.257781	-0.0868192	1	15	0.022	1400
373656	88	-9	-7	1.064245	0.1468006	-2.099473	0	11.34	4003	0	0	0	0	1.257781	-0.08913243	1	15	0.022	1400
373808	79	-1	1	1.068932	0.144781	-2.09073	0	11.34	4003	0	0	0	0	1.257781	-0.091167	1	15	0.022	1400
373917	76	-7	-4	1.071329	0.1454726	-2.082844	0	11.34	4003	0	0	0	0	1.257781	-0.08426144	1	15	0.022	1400
374046	82	-7	-8	1.067778	0.1392775	-2.072388	0	11.34	4002	0	0	0	0	1.257781	-0.08174705	1	15	0.022	1400
374077	82	-4	3	1.074597	0.1381789	-2.070493	0	11.34	4003	0	0	0	0	1.257781	-0.07930559	1	15	0.022	1400
374195	87	1	-11	1.077752	0.1354267	-2.061567	0	11.34	4003	0	0	0	0	1.257781	-0.07981811	1	15	0.022	1400
374308	81	-4	-4	1.07704	0.1329748	-2.047933	0	11.34	4003	0	0	0	0	1.257781	-0.0777661	1	15	0.022	1400
374429	86	5	-4	1.073121	0.1304109	-2.040963	0	11.34	4003	0	0	0	0	1.257781	-0.07520035	1	15	0.022	1400
374527	87	1	-9	1.077023	0.13432	-2.030632	0	11.34	4002	0	0	0	0	1.257781	-0.07333424	1	15	0.022	1400
374644	85	-5	-4	1.078067	0.1317786	-2.017975	0	11.34	4004	0	0	0	0	1.257781	-0.05934937	1	15	0.022	1400
374743	93	-4	-4	1.0796	0.1367865	-2.012412	0	11.34	4004	0	0	0	0	1.257781	-0.05318017	1	15	0.022	1400
374860	83	1	-6	1.084174	0.1431494	-2.001224	0	11.34	4004	0	0	0	0	1.257781	-0.03809202	1	15	0.022	1400
374924	79	-4	-4	1.080031	0.1398339	-1.99566	0	11.34	4002	0	0	0	0	1.257781	-0.02931356	1	15	0.022	1400
375025	86	-3	-5	1.084753	0.1352825	-1.987895	0	11.34	4004	0	0	0	0	1.257781	-0.02261545	1	15	0.022	1400
375127	89	-7	-3	1.087875	0.1344683	-1.979274	0	11.34	4002	0	0	0	0	1.257781	-0.01700197	1	15	0.022	1400
375235	86	0	-6	1.092168	0.1357564	-1.972488	0	11.34	4002	0	0	0	0	1.257781	-0.007938284	1	15	0.022	1400
375370	83	0	1	1.093395	0.1355225	-1.961727	0	11.34	4002	0	0	0	0	1.257781	0.006672526	1	15	0.022	1400
375447	83	-3	-2	1.097052	0.1358715	-1.956714	0	11.34	4004	0	0	0	0	1.257781	0.01199856	1	15	0.022	1400
375541	85	-1	-6	1.090689	0.1386264	-1.950721	0	11.4	4004	0	0	0	0	1.257781	0.01145094	1	15	0.022	1400
375699	76	-1	-2	1.097383	0.1429008	-1.937575	0	11.4	4002	0	0	0	0	1.257781	0.001968687	1	15	0.022	1400
375746	82	-1	-2	1.098635	0.144919	-1.935191	0	11.4	4004	0	0	0	0	1.257781	8.617311E-06	1	15	0.022	1400
375843	88	-4	-10	1.09966	0.1454783	-1.928588	0	11.4	4004	0	0	0	0	1.257781	-0.0009273232	1	15	0.022	1400
375947	81	-7	-6	1.108911	0.1464335	-1.920149	0	11.4	4003	0	0	0	0	1.257781	0.006327409	1	15	0.022	1400
376044	84	-5	-6	1.113222	0.1470951	-1.912324	0	11.4	4004	0	0	0	0	1.257781	0.01970078	1	15	0.022	1400
376216	90	-1	-4	1.109055	0.1500217	-1.894898	0	11.4	4010	0	0	0	0	1.257781	0.02389211	1	15	0.022	1400
376262	75	-7	-8	1.111456	0.1488355	-1.890619	0	11.4	4002	0	0	0	0	1.257781	0.0188035	1	15	0.022	1400
376375	91	-8	-4	1.10349	0.1516278	-1.879552	0	11.34	4004	0	0	0	0	1.257781	0.01077537	1	15	0.022	1400
376478	87	-2	-6	1.102541	0.1458685	-1.869219	0	11.34	4004	0	0	0	0	1.257781	-0.008036271	1	15	0.022	1400
376589	86	-4	-3	1.107927	0.14369	-1.85962	0	11.34	4002	0	0	0	0	1.257781	-0.02055644	1	15	0.022	1400
376674	97	-5	-7	1.109858	0.1390549	-1.853566	0	11.34	4004	0	0	0	0	1.257781	-0.02413058	1	15	0.022	1400
376790	82	0	-2	1.106464	0.1389981	-1.843479	0	11.34	4002	0	0	0	0	1.257781	-0.02558047	1	15	0.022	1400
376866	83	-4	-7	1.101441	0.1326456	-1.836631	0	11.34	4003	0	0	0	0	1.257781	-0.03146849	1	15	0.022	1400
377006	84	-1	-3	1.103521	0.1351204	-1.825504	0	11.34	4003	0	0	0	0	1.257781	-0.05527757	1	15	0.022	1400
377087	88	-3	-6	1.109452	0.1324216	-1.82104	0	11.34	4004	0	0	0	0	1.257781	-0.06969649	1	15	0.022	1400
377202	84	-4	-9	1.10837	0.134057	-1.808627	0	11.34	4004	0	0	0	0	1.257781	-0.08463279	3	15	0.022	1400
377297	85	-6	-9	1.11227	0.1360475	-1.802146	0	11.34	4004	0	0	0	0	1.257781	-0.08452633	3	15	0.022	1400
377463	85	1	-5	1.124461	0.1289862	-1.782704	0	11.34	4003	0	0	0	0	1.257781	-0.08279333	3	15	0.022	1400
377526	82	-2	-5	1.123632	0.1319712	-1.774695	0	11.34	4004	0	0	0	0	1.257781	-0.08920714	3	15	0.022	1400
377638	78	-10	-5	1.116444	0.1303689	-1.761734	0	11.34	4004	0	0	0	0	1.257781	-0.09982109	3	15	0.022	1400
377691	85	-6	-1	1.115831	0.1274413	-1.759594	0	11.34	4003	0	0	0	0	1.257781	-0.1096275	3	15	0.022	1400
377773	94	-4	-8	1.126031	0.1276022	-1.75238	0	11.34	4004	0	0	0	0	1.257781	-0.1163735	3	15	0.022	1400
377849	84	-7	-9	1.128085	0.1251553	-1.746755	0	11.34	4003	0	0	0	0	1.257781	-0.1213865	3	15	0.022	1400
377967	92	-3	1	1.125869	0.1241133	-1.732082	0	11.34	4002	0	0	0	0	1.257781	-0.126782	3	15	0.022	1400
378046	94	-10	-6	1.13005	0.1222454	-1.726151	0	11.34	4004	0	0	0	0	1.257781	-0.1315411	3	15	0.022	1400
378150	87	-2	-2	1.136744	0.1261861	-1.717164	0	11.34	4004	0	0	0	0	1.257781	-0.1383369	3	15	0.022	1400
378324	92	-2	-10	1.138082	0.1237345	-1.70035	0	11.34	4004	0	0	0	0	1.257781	-0.1402275	3	15	0.022	1400
378421	88	-1	-3	1.142706	0.1242877	-1.690324	0	11.34	4003	0	0	0	0	1.257781	-0.1406348	3	15	0.022	1400
378540	91	0	0	1.145516	0.1242089	-1.68262	0	11.34	4003	0	0	0	0	1.257781	-0.1401521	3	15	0.022	1400
378571	90	-6	-10	1.139049	0.1233212	-1.674672	0	11.34	4004	0	0	0	0	1.257781	-0.1362026	3	15	0.022	1400
378677	92	-4	-2	1.14668	0.1208854	-1.66544	0	11.34	4002	0	0	0	0	1.257781	-0.133664	3	15	0.022	1400
378758	94	-5	-7	1.142062	0.1202464	-1.659755	0	11.34	4003	0	0	0	0	1.257781	-0.1319672	3	15	0.022	1400
378858	91	-3	-12	1.141861	0.1236631	-1.649972	0	11.34	4004	0	0	0	0	1.257781	-0.1298936	3	15	0.022	1400
379032	81	-5	-2	1.148786	0.1197335	-1.634628	0	11.34	4004	0	0	0	0	1.257781	-0.1387394	3	15	0.022	1400
379080	90	-6	0	1.149305	0.1200972	-1.628514	0	11.34	4004	0	0	0	0	1.257781	-0.1389372	3	15	0.022	1400
379202	91	0	-7	1.144719	0.1163654	-1.61971	0	11.29	4004	0	0	0	0	1.257781	-0.1357225	3	15	0.022	1400
379325	92	-4	-4	1.144155	0.1184589	-1.60467	0	11.29	4004	0	0	0	0	1.257781	-0.1334203	3	15	0.022	1400
379398	91	-1	-9	1.142734	0.1229617	-1.598617	0	11.29	4003	0	0	0	0	1.257781	-0.1259078	3	15	0.022	1400
379457	83	-2	-4	1.144024	0.1198128	-1.59177	0	11.29	4002	0	0	0	0	1.257781	-0.1189055	3	15	0.022	1400
379561	93	-8	-2	1.154786	0.1255437	-1.583944	0	11.29	4002	0	0	0	0	1.257781	-0.1025557	3	15	0.022	1400
379666	92	-2	-6	1.154242	0.1248648	-1.574038	0	11.29	4004	0	0	0	0	1.257781	-0.1004719	3	15	0.022	1400
379768	97	-1	-6	1.149734	0.1308989	-1.564746	0	11.29	4002	0	0	0	0	1.257781	-0.08370782	3	15	0.022	1400
379918	90	-12	-4	1.153247	0.1261195	-1.552335	0	11.29	4003	0	0	0	0	1.257781	-0.04934375	3	15	0.022	1400
379973	91	-7	-4	1.159553	0.1241709	-1.545426	0	11.29	4004	0	0	0	0	1.257781	-0.0375998	3	15	0.022	1400
380064	88	0	-4	1.159299	0.1285828	-1.539251	0	11.29	4003	0	0	0	0	1.257781	-0.02492085	3	15	0.022	1400
380172	87	-5	-2	1.158187	0.1269003	-1.530203	0	11.34	4004	0	0	0	0	1.257781	-0.00782569	3	15	0.022	1400
380269	97	-4	-6	1.164027	0.122381	-1.51449	0	11.34	4003	0	0	0	0	1.257781	0.003901074	3	15	0.022	1400
380452	88	-3	-6	1.164994	0.1298559	-1.49957	0	11.34	4002	0	0	0	0	1.257781	0.00304413	3	15	0.022	1400
380567	94	-3	-6	1.170063	0.1323992	-1.489177	0	11.34	4003	0	0	0	0	1.257781	-0.007128025	3	15	0.022	1400
380630	85	-4	-4	1.168	0.1294091	-1.484041	0	11.34	4003	0	0	0	0	1.257781	-0.01374259	3	15	0.022	1400
380733	95	-5	-11	1.17289	0.1254053	-1.470468	0	11.34	4004	0	0	0	0	1.257781	-0.02269365	3	15	0.022	1400
380831	81	-7	-9	1.185253	0.1226659	-1.460258	0	11.34	4004	0	0	0	0	1.257781	-0.03887087	3	15	0.022	1400
380923	91	3	-6	1.180885	0.1211419	-1.451454	0	11.34	4003	0	0	0	0	1.257781	-0.04693229	3	15	0.022	1400
380949	89	-6	-7	1.181104	0.121417	-1.448153	0	11.34	4003	0	0	0	0	1.257781	-0.04617583	3	15	0.022	1400
381096	95	0	-12	1.18614	0.1131466	-1.432745	0	11.34	4004	0	0	0	0	1.257781	-0.03719899	3	15	0.022	1400
381189	89	-4	-5	1.184695	0.1124989	-1.423757	0	11.34	4003	0	0	0	0	1.257781	-0.04133093	3	15	0.022	1400
381242	91	-2	-3	1.179974	0.1137792	-1.421556	0	11.34	4004	0	0	0	0	1.257781	-0.05040918	3	15	0.022	1400
381358	90	0	-5	1.185849	0.1146565	-1.408228	0	11.34	4003	0	0	0	0	1.257781	-0.06530595	3	15	0.022	1400
381452	94	0	-9	1.181496	0.1208852	-1.39655	0	11.34	4003	0	0	0	0	1.257781	-0.07353213	3	15	0.022	1400
381540	91	-4	-2	1.185158	0.1150584	-1.39062	0	11.34	4002	0	0	0	0	1.257781	-0.07057679	3	15	0.022	1400
381640	94	-4	-3	1.20186	0.1142253	-1.381511	0	11.34	4003	0	0	0	0	1.257781	-0.06762706	3	15	0.022	1400
381741	91	-4	-5	1.205401	0.1125289	-1.370689	0	11.34	4003	0	0	0	0	1.257781	-0.0701535	3	15	0.022	1400
381927	94	-11	-2	1.208495	0.1176367	-1.354426	0	11.29	4004	0	0	0	0	1.257781	-0.09335373	3	15	0.022	1400
382018	96	-6	-5	1.205197	0.1185014	-1.344277	0	11.29	4004	0	0	0	0	1.257781	-0.1018701	3	15	0.022	1400
382079	89	-7	-2	1.209098	0.1109476	-1.336451	0	11.29	4004	0	0	0	0	1.257781	-0.1006227	3	15	0.022	1400
382256	92	-2	-3	1.213928	0.1066515	-1.31389	0	11.29	4004	0	0	0	0	1.257781	-0.1030077	3	15	0.022	1400
382351	93	-4	-10	1.21901	0.1123331	-1.302335	0	11.29	4003	0	0	0	0	1.257781	-0.09278096	3	15	0.022	1400
382460	95	-9	-5	1.231567	0.1125009	-1.288029	0	11.29	4003	0	0	0	0	1.257781	-0.08158696	3	15	0.022	1400
382557	94	-5	-5	1.229385	0.1144292	-1.280814	0	11.29	4003	0	0	0	0	1.257781	-0.07319288	3	15	0.022	1400
382672	99	-8	-8	1.232777	0.1219753	-1.266631	0	11.29	4002	0	0	0	0	1.257781	-0.05191741	3	15	0.022	1400
382803	96	2	-9	1.242697	0.1188973	-1.25483	0	11.29	4004	0	0	0	0	1.257781	-0.03993698	3	15	0.022	1400
382888	104	0	-8	1.231086	0.1083993	-1.238568	0	11.29	4003	0	0	0	0	1.257781	-0.03074227	3	15	0.022	1400
383008	93	-6	-2	1.242623	0.1108245	-1.224812	0	11.29	4003	0	0	0	0	1.257781	-0.02953565	3	15	0.022	1400
383064	86	-3	-9	1.243628	0.1073813	-1.220777	0	11.29	4002	0	0	0	0	1.257781	-0.03521464	3	15	0.022	1400
383139	104	-9	-12	1.248203	0.1087317	-1.211667	0	11.29	4003	0	0	0	0	1.257781	-0.03731083	3	15	0.022	1400
383214	101	-5	-8	1.256191	0.1113689	-1.204942	0	11.29	4004	0	0	0	0	1.257781	-0.03342602	3	15	0.022	1400
383318	89	-5	0	1.265911	0.1045914	-1.195466	0	11.29	4003	0	0	0	0	1.257781	-0.01710504	3	15	0.022	1400
383519	100	2	-9	1.261539	0.1122859	-1.179081	0	11.29	4004	0	0	0	0	1.257781	0.02374586	3	15	0.022	1400
383573	96	-2	-6	1.262766	0.1212595	-1.168381	0	11.29	4002	-5	0	0	0	1.257781	0.03534239	3	15	0.022	1400
383725	98	-4	12	1.259058	0.1176377	-1.154625	0	11.29	4003	-7	0	0	0	1.257781	0.05342766	3	15	0.022	1400
383842	114	-6	-42	1.27194	0.1073372	-1.133224	0	11.29	4003	-7	0	0	0	1.257781	0.06563046	3	15	0.022	1400
383972	123	-28	-17	1.244876	0.1140056	-1.114636	0	11.29	4004	0	0	0	0	1.257781	0.07248665	3	15	0.022	1400
384063	96	-9	-39	1.249628	0.1029844	-1.104976	0	11.29	4003	0	0	0	0	1.257781	0.06951718	3	15	0.022	1400
384128	82	-5	9	1.258708	0.1052661	-1.098191	0	11.29	4002	0	0	0	0	1.257781	0.0622587	3	15	0.022	1400
384216	104	10	7	1.259532	0.1039326	-1.088653	0	11.29	4003	0	0	0	0	1.257781	0.0365648	3	15	0.022	1400
384353	107	2	2	1.261308	0.1093705	-1.075752	0	11.29	4003	-7	0	0	0	1.257781	0.0118621	3	15	0.022	1400
384414	95	-23	-10	1.26507	0.1218473	-1.068353	0	11.29	4003	-8	0	0	0	1.257781	-0.002955555	3	15	0.022	1400
384549	107	10	25	1.264485	0.1038475	-1.049155	0	11.29	4004	-9	-4	-1	0	1.257781	-0.01159796	3	15	0.022	1400
384702	28	-28	-54	1.283474	0.09165572	-1.028861	0	11.23	4002	-17	2	0	0	1.257781	-0.01381512	3	15	0.022	1400
384768	143	-3	93	1.277052	0.1147917	-1.024887	0	11.23	4003	12	-13	-3	0	1.257781	-0.01481463	3	15	0.022	1400
384863	-24	40	-63	1.254354	0.1042278	-1.012843	0	11.23	4002	-18	6	-4	0	1.257781	-0.0216759	3	15	0.022	1400
384939	80	33	11	1.248144	0.0953078	-0.9957907	0	11.23	4004	0	4	0	0	1.257781	-0.01490409	3	15	0.022	1400
385022	36	-16	143	1.285621	0.08970713	-0.9965954	0	11.23	4004	-26	-5	-3	0	1.257781	-0.003274188	3	15	0.022	1400
385128	215	17	81	1.363948	0.08136062	-0.9890106	0	11.23	4003	-45	23	-1	0	1.257781	0.005279935	3	15	0.022	1400
385230	188	72	1	1.336457	0.07056132	-0.9781227	0	11.23	4003	-39	-15	-4	0	1.257781	0.01006811	3	15	0.022	1400
385361	77	67	11	1.310454	0.05073136	-0.9580138	0	11.23	4004	-21	6	-4	0	1.257781	0.01408953	3	15	0.022	1400
385496	43	-156	-51	1.281288	0.1619712	-0.9274703	0	11.23	4004	-33	-62	-6	0	1.257781	0.02234698	3	15	0.022	1400
385563	-67	-88	803	1.193042	0.1841034	-0.9498433	0	11.17	4003	-35	-89	-14	0	1.257781	0.03333519	3	15	0.022	1400
385679	-896	1073	-124	0.4435179	-0.5669742	-0.6072233	0	11.17	4004	10	-7	-11	0	1.257781	0.06801599	3	15	0.022	1400
385742	-1605	3091	466	-2.028459	-4.342451	-0.4962618	0	11.17	4003	13	42	-8	0	1.257781	0.09555797	3	15	0.022	1400
385898	1	4168	337	-5.217231	-10.59209	-0.7111657	0	11.17	4006	-2	121	-10	0	1.257781	0.1751904	3	15	0.022	1400
385938	-246	4497	790	-5.489233	-12.91671	-0.9079894	0	11.17	4002	-66	67	3	0	1.257781	0.1918085	3	15	0.022	1400
386064	87	1328	356	-5.113708	-15.4869	-1.248243	0	11.17	4003	46	-39	3	0	1.257781	0.2212586	3	15	0.022	1400
386174	443	-5620	1032	-0.5409486	-3.316913	-1.083097	0	11.17	4003	20	71	4	0	1.257781	0.264908	3	15	0.022	1400
386309	-745	614	1663	0.1543326	4.010877	-3.783304	0	11.17	4004	-50	-117	87	0	1.257781	0.307826	3	15	0.022	1400
386380	987	3004	523	0.621469	0.5143593	-4.455567	0	11.17	4002	-84	216	96	0	1.257781	0.3329497	3	15	0.022	1400
386503	-2007	1380	-1498	0.07399899	-2.869213	-2.517602	0	10.15	4003	42	-103	-4	0	1.257781	0.3704759	3	15	0.022	1400
386625	146	4138	-925	0.1647239	-7.706199	0.1695268	0	10.15	4002	171	96	-40	0	1.257781	0.4601093	3	15	0.022	1400
386686	1100	5340	-37	0.3852773	-13.47335	0.01712777	0	10.15	4003	15	-55	-42	0	1.257781	0.4872012	3	15	0.022	1400
386753	2458	4841	191	0.9461064	-16.06567	-0.1178596	0	10.15	4003	-65	-13	-17	0	1.257781	0.5456374	3	15	0.022	1400
386893	-588	-1473	236	2.667469	-15.65422	-0.9504257	0	10.15	4002	-1	91	-4	0	1.257781	0.6109176	3	15	0.022	1400
386955	-5	-2492	-493	1.571861	-12.73893	-0.9322002	0	10.15	4003	1	-36	-2	0	1.257781	0.6345754	3	15	0.022	1400
387083	-1445	-650	202	0.9943417	-10.33935	-1.5047	0	10.15	4004	60	46	13	0	1.257781	0.6772453	3	15	0.022	1400
387222	-1659	-6474	-1987	-4.154682	-1.666845	-1.292568	0	10.15	4004	-36	-294	-9	0	1.257781	0.7039173	3	15	0.022	1400
387303	-736	-3140	1618	-4.206595	0.767458	-1.407754	0	10.15	4004	98	155	35	0	1.257781	0.7811533	3	15	0.022	1400
387340	-293	3123	2036	-2.741575	0.2852432	-2.623376	0	10.15	4004	3	-194	37	0	1.257781	0.7961609	3	15	0.022	1400
387575	3307	-684	950	5.528976	-0.5299479	-1.828046	0	10.38	4002	-15	106	24	0	1.257781	0.8869196	3	15	0.022	1400
387690	-1068	1699	1085	5.882123	-1.289836	-1.257435	0	10.38	4002	22	-143	12	0	1.257781	0.9180085	3	15	0.022	1400
387748	-1699	1440	598	4.871224	-1.851513	-1.210807	0	10.38	4002	30	92	9	0	1.257781	0.9342457	3	15	0.022	1400
387865	102	-1425	-226	2.489757	-1.206196	-1.135244	0	10.38	4004	49	46	2	0	1.257781	0.9520853	3	15	0.022	1400
387985	-1810	435	-160	1.049484	0.004694561	-1.419148	0	10.38	4004	9	103	-6	0	1.257781	0.9668994	3	15	0.022	1400
388047	-768	2686	1741	0.013049	-1.54371	-1.734793	0	10.38	4004	58	247	37	0	1.257781	0.9706368	3	15	0.022	1400
388192	-270	371	1543	-0.02455603	-1.591992	-1.948591	0	10.38	4003	137	136	17	0	1.257781	0.9736208	3	15	0.022	1400
388262	-45	568	395	-0.6180266	-0.871155	-1.786564	0	10.38	4002	-85	-79	6	0	1.257781	0.971453	3	15	0.022	1400
388415	407	-387	970	-0.9437258	-1.590558	-1.079639	0	10.89	4003	67	81	-22	0	1.257781	0.9559278	3	15	0.022	1400
388492	1021	-836	1516	0.3890807	-0.4496922	-0.9707756	0	10.89	4002	69	29	-14	0	1.257781	0.9442357	3	15	0.022	1400
388564	-853	1192	1576	-0.3505476	0.7314777	-1.28641	0	10.89	4002	32	75	0	0	1.257781	0.9057705	3	15	0.022	1400
388719	-522	604	2059	-1.14843	-0.6762218	-3.146384	0	10.89	4003	40	156	70	0	1.257781	0.8687772	3	15	0.022	1400
388821	448	-1603	196	0.1194472	2.059968	-3.05085	0	10.89	4003	75	31	36	0	1.257781	0.8149322	3	15	0.022	1400
388927	316	-743	-1608	0.2159711	2.825287	-2.025813	0	10.89	4002	100	126	-8	0	1.257781	0.7723449	3	15	0.022	1400
388960	-470	-87	-1796	-0.08389265	1.56549	-0.8819625	0	10.89	4004	71	-212	-23	0	1.257781	0.7395101	3	15	0.022	1400
389068	410	-43	-525	-0.4634869	-1.040708	-0.6236768	0	10.89	4004	-5	-36	-12	23	1.16752	0.6856029	5	15	0.022	1400
389174	-1808	3978	1728	-0.5420517	-3.965431	-2.045084	0	10.89	4004	-37	-263	3	19	1.024074	0.6629235	5	15	0.022	1400
389371	937	1518	1070	-0.9847413	-5.654369	-1.653912	0	10.77	4003	-34	-139	-12	21	0.8148616	0.6087698	5	15	0.022	1400
389517	-80	790	-35	-0.299541	-6.483957	-0.1127961	0	10.77	4002	49	-317	-42	15	0.7323434	0.5758622	5	15	0.022	1400
389625	1510	1950	-127	0.4248798	-11.40166	-1.518565	0	10.77	4004	-40	121	6	15	0.6894885	0.5682339	5	15	0.022	1400
389683	869	-59	-560	1.002267	-11.97537	-1.598849	0	10.77	4004	95	165	-9	14	0.6767917	0.5684171	5	15	0.022	1400
389758	331	-877	1072	1.817519	-7.224463	-0.8110439	0	10.77	4002	41	210	-2	12	0.684342	0.5639185	5	15	0.022	1400
389865	-321	429	329	-0.4403028	-5.200244	-1.214899	0	10.77	4002	7	18	0	14	0.7152799	0.557451	5	15	0.022	1400
390002	1525	1137	1425	2.212758	-4.318436	-2.244964	0	10.77	4003	18	195	46	12	0.7856115	0.5512186	5	15	0.022	1400
390091	1171	-703	-1449	2.885299	-4.319493	-2.255141	0	10.77	4003	22	192	53	10	0.8544139	0.5547192	5	15	0.022	1400
390312	-402	1659	895	1.601084	-1.844341	-1.552928	0	10.38	4003	120	163	11	10	0.9744639	0.5701958	5	15	0.022	1400
390471	769	-1755	-455	0.955794	-2.706911	-1.221455	0	10.38	4003	7	-64	-11	9	1.025893	0.5835968	5	15	0.022	1400
390503	448	-2439	-1587	1.025101	-1.777608	-1.121084	0	10.38	4003	-33	-113	-1	5	1.048876	0.590795	5	15	0.022	1400
390641	-108	3129	525	0.7804639	-4.332997	-1.511152	0	10.38	4003	32	260	3	-2	1.133117	0.6468516	5	15	0.022	1400
390764	-442	-971	1214	1.0072	-3.818832	-1.369516	0	10.38	4004	17	69	12	2	1.130279	0.6752875	5	15	0.022	1400
390783	-776	-2074	-1074	0.08887803	-1.892262	-1.401634	0	10.38	4004	17	69	12	2	1.130518	0.6958535	5	15	0.022	1400
390908	-486	-349	-523	-0.05059961	-1.805681	-1.600186	0	10.38	4002	85	-73	5	3	1.214121	0.7284679	5	15	0.022	1400
390969	-7	1029	-260	0.03834513	-2.858704	-1.832675	0	10.38	4002	-17	0	35	2	1.248705	0.7332357	5	15	0.022	1400
391185	-214	1683	1224	-0.5928892	-0.6383476	-2.250691	0	11	4004	5	84	48	3	1.314761	0.779077	5	15	0.022	1400
