time(ms)	gyro_x(deg/s)	gyro_y(deg/s)	gyro_z(deg/s)	orientation_roll(deg)	orientation_pitch(deg)	orientation_yaw(deg)	throttle	battery(V)	loop_time(uS)	pid_output_roll	pid_output_pitch	pid_output_yaw	pid_output_throttle	ultrasonic_alt	baro_alt	flight_mode	p_gain_altitude	i_gain_altitude	d_gain_altitude
266058	-388	-97	1100	-9.884526	-10.7436	-0.1799514	0	10.77	4003	-57	-97	-27	-45	0.4704649	0.3937658	4	20	0.022	1600
266095	-388	-97	1100	-9.884526	-10.7436	-0.1799514	0	10.77	4003	5	-118	-22	-43	0.5060129	0.3971138	4	20	0.022	1600
266264	1	3060	221	-5.930439	-14.06448	-1.862636	0	10.77	4004	-13	-45	13	-47	0.7366356	0.4270549	4	20	0.022	1600
266389	397	-3218	-531	-4.662598	-11.91982	-1.24236	0	10.77	4002	-6	-74	0	-106	0.9608554	0.4436717	4	20	0.022	1600
266468	62	-3803	-174	-4.412804	-9.365232	-1.060975	0	10.77	4002	18	46	-16	-141	1.066622	0.4568126	4	20	0.022	1600
266542	-328	-3519	1419	-3.977006	-2.604214	-1.104295	0	10.77	4004	-44	-66	-17	-117	1.150842	0.4678169	4	20	0.022	1600
266588	409	-2685	262	-3.800266	-1.674907	-1.083656	0	10.77	4002	-32	-17	-10	-40	1.202182	0.4859956	4	20	0.022	1600
266734	288	6	150	-2.446449	-0.5177191	-1.480205	0	10.83	4002	-26	-115	-8	-22	1.262206	0.5190535	4	20	0.022	1600
266851	2003	-304	-1341	-1.966066	-1.108542	-1.036772	0	10.83	4002	35	50	-11	19	1.233257	0.5293269	4	20	0.022	1600
266975	2194	3024	1194	0.6289616	-3.486172	-1.00439	0	10.83	4003	47	143	10	64	1.092971	0.5286105	4	20	0.022	1600
267051	-104	1829	-850	-0.985663	-8.882216	-2.356895	0	10.83	4002	-81	-254	18	164	0.9854073	0.5220252	4	20	0.022	1600
267164	559	-124	11	0.1001923	-8.27492	-2.216231	0	10.83	4004	-26	95	35	143	0.829069	0.5156878	4	20	0.022	1600
267184	1361	2490	-401	0.5668003	-9.229236	-2.142752	0	10.83	4002	-26	95	35	143	0.7461621	0.5148022	4	20	0.022	1600
267289	-2547	-759	-952	1.711715	-10.3519	-1.755468	0	10.83	4003	58	150	13	85	0.6145035	0.5199223	4	20	0.022	1600
267424	669	-960	1143	-1.31559	-8.625013	-1.928898	0	10.83	4003	26	309	34	66	0.4713361	0.5205491	4	20	0.022	1600
267552	-890	169	703	-1.202741	-6.979639	-3.064544	0	10.83	4004	21	-67	28	53	0.3829997	0.5357692	4	20	0.022	1600
267665	658	-421	-521	-1.503013	-6.710726	-2.55868	0	11.06	4004	0	-20	24	31	0.3758577	0.5479628	4	20	0.022	1600
267719	-173	-1157	823	-1.014935	-5.059835	-1.971692	0	11.06	4004	-80	-177	3	17	0.3943867	0.5496351	4	20	0.022	1600
267801	-845	-891	-558	-2.19646	-3.832246	-1.675216	0	11.06	4002	-20	-69	13	-6	0.4610165	0.5514206	4	20	0.022	1600
267895	342	-274	-627	-1.972995	-5.594764	-1.490297	0	11.06	4002	34	-133	-4	-28	0.5207728	0.5562317	4	20	0.022	1600
268129	527	-380	883	-1.20683	-3.947731	-1.081	0	11.06	4002	44	-96	-12	76	0.8187457	0.5794795	5	20	0.022	1600
268217	358	3444	576	-1.024951	-6.290948	-1.807148	0	11.06	4003	-17	66	33	34	0.8685347	0.5958498	5	20	0.022	1600
268315	3940	209	1729	5.060943	-6.908922	-2.479472	0	11.06	4003	-20	112	38	36	0.925406	0.6377912	5	20	0.022	1600
268439	-2540	850	1247	4.277011	-6.400109	-2.175337	0	11.06	4004	87	143	27	21	1.008787	0.6710057	5	20	0.022	1600
268504	-2540	850	1247	4.277011	-6.400109	-2.175337	0	11.06	4004	90	139	8	38	1.082274	0.7125363	5	20	0.022	1600
268594	-518	-2643	1035	2.32361	-1.0284	-2.382802	0	10.43	4002	-81	-153	24	22	1.162747	0.788626	5	20	0.022	1600
268766	-823	-2683	1323	0.9093499	5.854337	-2.101516	0	10.43	4004	14	-80	8	17	1.202644	0.8667639	5	20	0.022	1600
268814	-823	-2683	1323	0.9093499	5.854337	-2.101516	0	10.43	4004	24	225	31	15	1.181391	0.9271517	5	20	0.022	1600
268886	272	-2813	-1733	-0.03786054	8.850287	-2.601628	0	10.43	4002	33	51	20	12	1.158175	0.9751676	5	20	0.022	1600
269033	419	1224	534	0.3747084	7.990087	-2.364204	0	10.43	4003	106	43	14	-2	1.127147	1.055903	5	20	0.022	1600
269096	1071	262	-1225	0.9710517	7.016052	-2.113146	0	10.43	4003	-65	-247	-3	0	1.120659	1.085586	5	20	0.022	1600
269217	1347	1111	187	2.946429	2.645112	-1.471272	0	10.43	4003	-49	-27	0	3	1.048516	1.160553	5	20	0.022	1600
269298	1431	115	871	4.10126	1.773264	-1.233808	0	10.43	4004	4	120	2	3	1.094445	1.204532	5	20	0.022	1600
269403	19	1353	9	4.257117	0.6653928	-1.445295	0	10.43	4005	0	-201	-6	4	1.129649	1.232188	5	20	0.022	1600
269591	-299	576	704	5.357869	-2.67722	-2.548642	0	10.66	4002	128	147	15	11	1.151947	1.301692	5	20	0.022	1600
269645	231	1896	-986	4.382305	-4.415176	-2.103641	0	10.66	4003	2	43	26	11	1.226277	1.311112	5	20	0.022	1600
269737	-670	754	555	3.687677	-5.706794	-1.779478	0	10.66	4004	59	117	1	18	1.23697	1.335098	5	20	0.022	1600
269798	-1278	-1078	-1028	2.427257	-5.178432	-1.7	0	10.66	4003	46	-36	22	9	1.238742	1.341353	5	20	0.022	1600
269899	901	2850	1734	2.262887	-5.77328	-1.986738	0	10.66	4004	-36	81	27	4	1.249517	1.380311	5	20	0.022	1600
270004	1294	982	-685	2.356099	-7.767896	-2.181366	0	10.66	4004	-41	-149	11	4	1.211571	1.415326	5	20	0.022	1600
270115	222	110	-489	4.748278	-3.526262	-2.067074	0	10.66	4002	-28	175	27	2	1.291228	1.461579	5	20	0.022	1600
270202	691	2854	1309	5.101619	-5.100945	-2.499219	0	10.66	4003	-36	-34	39	1	1.321131	1.487913	5	20	0.022	1600
270348	250	1079	168	7.371586	-6.390915	-2.070067	0	11	4002	-35	-135	14	8	1.256019	1.515423	5	20	0.022	1600
270468	-2454	3332	-1458	2.30179	-10.04311	-1.686204	0	11	4003	-11	-138	0	3	1.221879	1.533454	5	20	0.022	1600
270505	-2454	3332	-1458	2.30179	-10.04311	-1.686204	0	11	4003	43	-175	8	4	1.213948	1.562396	5	20	0.022	1600
270642	861	490	894	0.1667537	-12.78402	-1.31331	0	11	4002	-2	252	2	15	1.332471	1.587159	5	20	0.022	1600
270769	-797	-51	1226	0.5075526	-11.94637	-1.626358	0	11	4002	-6	73	20	11	1.223028	1.596259	5	20	0.022	1600
270883	595	-2206	163	0.1819566	-6.578014	-1.764482	0	11	4003	-15	-12	-5	14	1.242635	1.59463	5	20	0.022	1600
270908	-394	-2736	-1268	-0.2853274	-3.709446	-1.606397	0	11	4004	-15	-12	-5	14	1.219968	1.593881	5	20	0.022	1600
271005	-823	-447	-233	-2.557661	-3.528618	-1.682614	0	11	4003	-92	-218	12	20	1.202702	1.595963	5	20	0.022	1600
271099	-377	-642	48	-1.905537	-3.23856	-2.297542	0	11	4002	-6	-236	34	8	1.200339	1.608431	5	20	0.022	1600
271248	-1310	362	-514	-4.481583	-4.411187	-2.319346	0	11	4002	64	-31	7	8	1.182867	1.627668	5	20	0.022	1600
271299	-1310	362	-514	-4.481583	-4.411187	-2.319346	0	11	4002	-7	269	12	11	1.167103	1.629995	5	20	0.022	1600
271511	-190	996	657	-5.692082	-6.776291	-1.950944	0	11	4002	5	-256	6	4	1.096588	1.667073	5	20	0.022	1600
271661	1071	1893	99	-3.440045	-7.756936	-1.492824	0	11	4004	68	-88	-15	0	1.172525	1.703129	5	20	0.022	1600
271727	93	336	-120	-2.77406	-8.418949	-1.399539	0	11	4003	14	-10	-2	8	1.204299	1.712863	5	20	0.022	1600
271833	295	-1486	-918	-2.181375	-8.394168	-1.085822	0	11	4004	8	-171	-18	9	1.237201	1.721119	5	20	0.022	1600
271927	188	-12	-189	-2.933121	-8.452808	-1.970198	0	11	4003	-59	-222	11	8	1.231352	1.728138	5	20	0.022	1600
272033	712	1054	511	-0.6084738	-7.724676	-2.124454	0	11	4002	-69	-39	25	4	1.202708	1.746262	5	20	0.022	1600
272144	-1858	1177	-1192	-1.346836	-9.080962	-1.175033	0	11	4004	115	-37	-26	3	1.135205	1.764589	5	20	0.022	1600
272267	-1657	-526	-109	-2.854067	-10.67081	-1.123808	0	10.55	4004	10	-115	-3	6	1.224121	1.783579	5	20	0.022	1600
272356	-441	2168	871	-3.019722	-11.08323	-1.646251	0	10.55	4004	-51	49	16	7	1.234903	1.790752	5	20	0.022	1600
272440	169	1288	627	-3.099526	-12.0148	-1.688277	0	10.55	4004	8	197	4	12	1.124886	1.788877	5	20	0.022	1600
272561	-388	-2427	26	-2.073836	-7.145731	-1.54788	0	10.55	4002	-39	92	5	28	1.101503	1.772693	5	20	0.022	1600
272658	-685	760	1375	-1.005413	-5.329217	-1.503619	0	10.55	4003	-5	-268	-12	18	1.130585	1.745959	5	20	0.022	1600
272710	183	-158	728	0.03340453	-6.237091	-2.054248	0	10.55	4002	-31	41	32	16	1.130271	1.739229	5	20	0.022	1600
272811	501	-490	618	-1.016795	-5.458916	-2.445482	0	10.55	4002	118	51	11	17	1.137455	1.730712	5	20	0.022	1600
272926	-89	-2727	-1699	-0.4217905	-3.835065	-2.09584	0	10.55	4002	94	23	12	18	1.0345	1.713823	5	20	0.022	1600
273092	96	1976	1401	0.1704411	-1.411796	-1.069756	0	10.55	4003	-22	189	-11	10	1.088046	1.716018	5	20	0.022	1600
273117	677	1211	413	-0.5229947	-2.148998	-0.7756544	0	11.11	4004	-94	112	-22	10	1.088046	1.716018	5	20	0.022	1600
273221	1336	209	987	0.4429917	-1.889276	-0.6121157	0	11.11	4004	14	229	7	12	1.253302	1.719313	5	20	0.022	1600
273393	435	437	-641	0.6083944	-6.787426	-1.685672	0	11.11	4004	-51	29	1	17	1.338405	1.703244	5	20	0.022	1600
273442	-432	-1153	68	0.585741	-6.371295	-1.547432	0	11.11	4002	1	118	6	20	1.329793	1.698373	5	20	0.022	1600
273562	324	1782	702	-0.6368156	-6.078352	-1.248234	0	11.11	4003	-35	-17	5	36	1.336266	1.662847	5	20	0.022	1600
273637	1362	164	-1180	0.1624867	-8.187432	-0.8638486	0	11.11	4004	-23	-263	-25	27	1.41774	1.641285	5	20	0.022	1600
273764	1011	-1230	-970	-0.245545	-6.87137	-0.7772844	0	11.11	4003	3	88	0	19	1.391125	1.608865	5	20	0.022	1600
273851	592	1213	1324	0.7194549	-6.824929	-1.28274	0	11.11	4002	-49	-200	-4	22	1.376282	1.595562	5	20	0.022	1600
274002	-226	-182	-332	0.2296102	-6.396418	-1.218859	0	11.11	4002	85	78	-13	29	1.44358	1.53808	5	20	0.022	1600
274065	-120	95	-647	0.3633471	-6.334345	-1.549661	0	10.72	4004	-35	-184	3	32	1.437948	1.520249	5	20	0.022	1600
274140	3	854	435	-0.0174273	-7.246988	-1.839982	0	10.72	4003	-43	-77	18	32	1.422126	1.501773	5	20	0.022	1600
274222	-763	286	-702	-0.4737282	-7.73937	-1.706939	0	10.72	4003	-29	220	15	52	1.395072	1.473827	5	20	0.022	1600
274333	-29	2296	542	-0.8597117	-11.1775	-1.753852	0	10.72	4004	51	152	4	29	1.421825	1.425867	5	20	0.022	1600
274507	-1147	-379	-578	-0.9588014	-8.242114	-1.310373	0	10.72	4002	115	-78	-9	34	1.305685	1.369485	5	20	0.022	1600
274588	718	28	-57	-0.9441914	-8.480382	-1.734466	0	10.72	4002	-70	106	16	31	1.292087	1.346425	5	20	0.022	1600
274625	718	28	-57	-0.9441914	-8.480382	-1.734466	0	10.72	4002	-85	60	16	36	1.286289	1.330187	5	20	0.022	1600
274753	340	-310	-201	0.4204507	-7.210734	-1.908485	0	10.72	4004	24	-78	-13	27	1.318028	1.29456	5	20	0.022	1600
274862	223	-4481	-1450	0.4506457	-3.306369	-2.174674	0	10.72	4003	-29	119	30	34	1.265908	1.289823	5	20	0.022	1600
274953	-39	-2141	-904	0.8132654	-0.4148539	-2.216639	0	10.38	4003	66	50	17	34	1.263719	1.289755	5	20	0.022	1600
275024	-780	-721	-960	0.4775622	-0.7667971	-2.405557	0	10.38	4002	5	-7	51	16	1.307232	1.294381	5	20	0.022	1600
275122	-493	658	-193	-0.09149484	-2.358325	-2.457144	0	10.38	4004	35	146	39	12	1.346487	1.325779	5	20	0.022	1600
275289	-13	1181	-629	-0.283242	-3.620031	-1.854656	0	10.38	4004	28	-133	-6	15	1.251621	1.34881	5	20	0.022	1600
275427	95	-674	-1461	0.2841653	-4.471851	-1.619743	0	10.38	4002	80	115	-2	15	1.161766	1.365145	5	20	0.022	1600
275454	392	968	272	0.2499133	-4.733024	-1.683028	0	10.38	4002	80	115	-2	15	1.193765	1.369807	5	20	0.022	1600
275531	-949	1762	-1172	0.6480367	-6.873113	-1.858475	0	10.38	4002	96	-97	0	22	1.263796	1.372613	5	20	0.022	1600
275680	100	1268	428	1.010425	-8.807524	-1.257462	0	10.38	4002	50	-122	3	35	1.228802	1.362501	5	20	0.022	1600
275786	-10	-266	827	-0.3305949	-8.709995	-1.030619	0	10.38	4008	41	44	-16	23	1.242097	1.353984	5	20	0.022	1600
275843	-250	-1335	-138	-0.5440274	-7.95047	-0.8882279	0	10.38	4003	24	-198	-23	24	1.226996	1.3533	5	20	0.022	1600
275937	-340	1208	1255	-0.7115927	-7.77146	-1.999904	0	10.6	4003	61	195	30	19	1.267781	1.351687	5	20	0.022	1600
276112	-59	1400	1439	1.742542	-8.263767	-2.54298	0	10.6	4002	5	186	37	11	1.333896	1.376611	5	20	0.022	1600
276133	-59	1400	1439	1.742542	-8.263767	-2.54298	0	10.6	4002	-9	-298	10	15	1.3311	1.391706	5	20	0.022	1600
276236	59	395	1138	1.271533	-7.785058	-2.189759	0	10.6	4004	14	-109	-12	17	1.3311	1.391706	5	20	0.022	1600
276339	74	1224	1181	0.8488942	-7.232605	-1.851929	0	10.6	4004	43	-136	-13	25	1.356559	1.404138	5	20	0.022	1600
276472	790	-985	1199	1.760359	-5.394358	-2.128302	0	10.6	4003	-13	-113	-2	14	1.211488	1.43516	5	20	0.022	1600
276587	-719	809	-475	1.470379	-5.761587	-2.205746	0	10.6	4004	-11	-229	29	15	1.219254	1.446445	5	20	0.022	1600
276651	556	-287	-1495	0.9981291	-6.747128	-2.636161	0	10.6	4003	-74	-173	12	12	1.264129	1.457965	5	20	0.022	1600
276783	-513	-1201	-714	1.841494	-6.106248	-2.262282	0	10.83	4002	74	170	29	15	1.330918	1.487892	5	20	0.022	1600
276835	-26	-2498	-1124	1.407917	-5.308782	-2.167446	0	10.83	4004	57	219	23	12	1.325147	1.496745	5	20	0.022	1600
276981	615	337	-1044	-0.1989114	-6.423998	-2.745282	0	10.83	4009	-24	-240	28	5	1.254572	1.537161	5	20	0.022	1600
277072	962	-3343	-1917	0.9652539	-3.335021	-2.102224	0	10.83	4003	-49	73	39	3	1.163526	1.575937	5	20	0.022	1600
277235	689	-782	-1567	0.4192992	-5.262042	-2.432284	0	10.83	4004	-95	-173	12	1	1.108901	1.64011	5	20	0.022	1600
277363	158	-875	440	2.061793	-4.917266	-1.722712	0	10.83	4003	-10	138	5	9	1.087806	1.666738	5	20	0.022	1600
277429	-691	155	-81	0.3446636	-2.005776	-1.232652	0	10.83	4003	80	-34	-7	15	1.218212	1.674735	5	20	0.022	1600
277522	1445	1253	178	0.4061314	-2.867316	-1.654992	0	10.83	4004	65	45	-4	9	1.263988	1.684672	5	20	0.022	1600
277673	648	835	-441	2.863622	-4.42124	-1.828309	0	10.89	4004	29	-112	9	6	1.206176	1.723667	5	20	0.022	1600
277751	-1072	138	-235	1.593132	-5.588771	-2.059845	0	10.89	4004	31	124	16	9	1.212592	1.734487	5	20	0.022	1600
277823	601	-384	1014	1.442674	-4.775932	-1.77763	0	10.89	4004	-56	-288	2	10	1.093794	1.740375	5	20	0.022	1600
277946	970	-56	-1465	2.131197	-4.912988	-1.682299	0	10.89	4002	121	-37	-8	3	1.143802	1.778064	5	20	0.022	1600
278086	525	-1214	-764	3.899741	-6.203807	-1.301085	0	10.89	4004	5	-383	-17	8	1.126995	1.801757	5	20	0.022	1600
278135	-1423	1174	1484	3.691091	-6.312077	-1.393524	0	10.89	4003	-16	-204	-2	7	1.134509	1.810961	5	20	0.022	1600
278204	-894	-745	-1140	2.977181	-6.899131	-1.565603	0	10.89	4002	-6	-134	26	8	1.14998	1.820335	5	20	0.022	1600
278328	626	-18	1731	1.882074	-6.0395	-2.357921	0	10.89	4002	31	28	21	12	1.062716	1.829115	5	20	0.022	1600
278405	-102	-1019	-1262	1.935067	-4.839974	-2.393173	0	10.89	4003	31	-198	3	17	1.151433	1.825922	5	20	0.022	1600
278531	-646	67	-112	2.50131	-4.020343	-1.809794	0	10.89	4003	46	133	25	13	1.098362	1.827217	5	20	0.022	1600
278604	-711	1638	910	2.076585	-4.350799	-1.724969	0	11	4004	-76	-277	-1	11	1.140475	1.828271	5	20	0.022	1600
278725	214	667	1669	1.931087	-4.84551	-1.935121	0	11	4003	12	59	3	8	1.2203	1.84599	5	20	0.022	1600
278794	214	667	1669	1.931087	-4.84551	-1.935121	0	11	4003	-86	-199	17	12	1.248284	1.852135	5	20	0.022	1600
278925	-581	998	1505	1.274689	-3.106077	-2.556905	0	11	4003	33	146	51	13	1.328244	1.850866	5	20	0.022	1600
278981	-44	-1258	-407	0.7362199	-3.038111	-2.809246	0	11	4004	-82	-110	43	11	1.315539	1.851818	5	20	0.022	1600
279130	-542	-961	-1736	1.271083	-2.644827	-2.221764	0	11	4002	14	-288	1	8	1.317596	1.858788	5	20	0.022	1600
279187	-918	552	1335	0.1317812	-2.968217	-2.126282	0	11	4003	-14	41	30	10	1.194962	1.864764	5	20	0.022	1600
279331	683	-1635	-1850	0.07386082	-2.450454	-1.692588	0	11	4004	-37	-98	-14	12	1.135873	1.863778	5	20	0.022	1600
279391	683	-1635	-1850	0.07386082	-2.450454	-1.692588	0	11	4004	-33	170	10	17	1.122866	1.858825	5	20	0.022	1600
279510	-353	-1568	-1002	-0.2092022	-2.623556	-1.998953	0	10.43	4003	65	-222	1	21	1.083241	1.827998	5	20	0.022	1600
279664	-584	709	1553	0.5636563	-1.482314	-2.379133	0	10.43	4004	-34	-49	29	32	1.160373	1.773941	5	20	0.022	1600
279780	233	-1663	-1922	-0.2368416	-3.349254	-2.683681	0	10.43	4003	-13	125	44	46	1.168864	1.725693	5	20	0.022	1600
279860	182	-1061	-1228	0.2757389	-2.511863	-2.303231	0	10.43	4004	99	63	18	49	1.05288	1.696233	5	20	0.022	1600
279911	27	-1402	-1282	0.1349946	-2.298948	-1.985688	0	10.43	4002	20	-24	1	45	1.075714	1.671721	5	20	0.022	1600
280004	38	678	-696	-0.620084	-3.690829	-1.87969	0	10.43	4002	5	-125	-4	49	1.0761	1.623119	5	20	0.022	1600
280076	1142	628	841	0.332601	-3.942063	-1.582592	0	10.43	4004	13	187	0	29	1.127676	1.609306	5	20	0.022	1600
280215	220	-458	-868	0.257836	-3.322521	-1.085932	0	10.43	4004	77	23	-22	22	1.087379	1.580172	5	20	0.022	1600
280281	394	-1087	255	0.6982688	-3.014831	-1.119159	0	10.43	4002	31	-252	-23	21	1.07557	1.576272	5	20	0.022	1600
280467	528	-481	409	1.254225	-2.91794	-0.7902468	0	11.17	4002	85	283	-4	28	1.144912	1.561981	5	20	0.022	1600
280478	528	-481	409	1.254225	-2.91794	-0.7902468	0	11.17	4002	85	283	-4	28	1.156233	1.557337	5	20	0.022	1600
280629	-283	-1149	758	0.002837431	-4.650567	-1.413368	0	11.17	4002	39	151	-7	32	1.103184	1.512919	5	20	0.022	1600
280767	-733	2838	1206	-1.942191	-8.686055	-1.500806	0	11.17	4004	-10	-43	5	26	1.187341	1.484392	5	20	0.022	1600
280799	-795	1321	414	-2.558592	-9.302048	-1.420654	0	11.17	4003	39	215	14	28	1.190303	1.48004	5	20	0.022	1600
280908	-432	555	-1277	-2.717295	-8.979484	-1.230411	0	11.17	4004	-60	-120	-5	24	1.156195	1.468474	5	20	0.022	1600
280993	-520	2186	580	-2.759886	-10.67923	-1.682045	0	11.17	4004	24	133	11	36	1.176107	1.457221	5	20	0.022	1600
281074	-250	4309	1801	-3.097701	-12.69709	-2.337126	0	11.17	4004	61	225	22	40	1.200553	1.447589	5	20	0.022	1600
281226	525	1487	-525	-0.991959	-17.65886	-2.206907	0	11.17	4004	-116	-38	28	37	1.128634	1.433946	5	20	0.022	1600
281338	-466	-1314	-1801	-0.870209	-15.85671	-1.700741	0	11.23	4004	20	-43	-8	20	1.267765	1.434102	5	20	0.022	1600
281447	-364	841	2002	-0.03293104	-12.89148	-2.00727	0	11.23	4003	131	291	25	23	1.326256	1.43326	5	20	0.022	1600
281514	101	491	1433	0.4248207	-11.59186	-2.95291	0	11.23	4004	-40	64	25	28	1.322579	1.428281	5	20	0.022	1600
281623	-734	-480	-482	0.03728062	-10.68492	-3.117802	0	11.23	4002	-14	-114	40	23	1.282763	1.420814	5	20	0.022	1600
281657	-935	-197	-557	-0.4818169	-10.21095	-2.863271	0	11.23	4004	34	-121	12	34	1.258466	1.419412	5	20	0.022	1600
281736	-984	-456	-723	-1.157217	-9.899983	-2.662309	0	11.23	4004	-11	-83	0	30	1.13313	1.420733	5	20	0.022	1600
281888	360	2029	516	-2.78669	-12.06585	-3.480434	0	11.23	4003	-42	15	64	19	1.170295	1.427676	5	20	0.022	1600
281930	-251	1160	5	-2.590217	-12.36664	-3.463632	0	11.23	4003	-42	15	64	19	1.150779	1.43524	5	20	0.022	1600
282023	-433	1909	-88	-2.440785	-13.33364	-3.78479	0	11.23	4004	0	0	0	0	1.065444	1.454619	5	20	0.022	1600
282178	129	-4213	-937	-2.713248	-12.20227	-3.312958	0	9.87	4004	-50	28	26	-3	2.059326	1.490064	5	20	0.022	1600
282231	-659	-3766	14	-3.108206	-9.726825	-2.793941	0	9.87	4004	23	14	-2	-1	2.000551	1.510825	5	20	0.022	1600
282330	421	2861	1723	-4.173559	-10.5511	-3.504167	0	9.87	4002	-74	-133	-15	0	1.82414	1.548219	5	20	0.022	1600
282509	-119	345	485	-3.864092	-11.68104	-4.229831	0	9.87	4004	-28	121	40	-6	1.461693	1.622499	5	20	0.022	1600
282595	-795	1645	967	-2.946396	-9.018121	-4.080879	0	9.87	4003	98	-89	8	-13	1.27766	1.689406	5	20	0.022	1600
282631	1121	-617	845	-2.470749	-9.686551	-4.441046	0	9.87	4002	-40	-55	41	-10	1.287569	1.722925	5	20	0.022	1600
282756	-251	-2237	-139	-1.824295	-3.59958	-3.69275	0	9.87	4005	-27	-44	28	-8	1.393097	1.769358	5	20	0.022	1600
282784	838	-3287	-1060	-1.69983	-2.706063	-3.629021	0	9.87	4003	-5	-280	1	-7	1.379291	1.78611	5	20	0.022	1600
282844	-1	-790	928	-0.8817022	-1.635236	-3.68737	0	9.87	4002	23	158	23	-8	1.346338	1.816875	5	20	0.022	1600
282968	789	-3305	842	-0.7205024	3.494494	-3.833486	0	9.87	4003	-96	-82	16	-17	1.339737	1.848291	5	20	0.022	1600
283070	-539	-4115	253	-1.081819	8.348104	-3.928032	0	11.29	4004	85	137	19	-6	1.220196	1.884811	5	20	0.022	1600
283116	-52	-538	685	-1.011507	10.90616	-4.19403	0	11.29	4002	-30	-67	37	-5	1.241722	1.906738	5	20	0.022	1600
283257	261	-429	1824	-1.00618	10.45558	-4.671382	0	11.29	4004	-89	-282	42	-6	1.281317	1.928852	5	20	0.022	1600
283323	473	1176	1323	-0.1494293	8.382367	-4.964889	0	11.29	4004	14	-202	45	-8	1.274825	1.945571	5	20	0.022	1600
283472	1919	4879	598	1.408945	0.5500833	-4.358274	0	11.29	4003	-39	-270	17	-8	1.310575	1.979659	5	20	0.022	1600
283518	2033	5963	681	3.008485	-4.981408	-4.114336	0	11.29	4003	-72	128	31	12	1.271078	1.972436	5	20	0.022	1600
283591	517	681	-214	5.368463	-8.886438	-3.274209	0	11.29	4004	-96	152	9	29	1.214004	1.950098	5	20	0.022	1600
283689	-2086	-2135	-422	3.711577	-8.341851	-2.801811	0	11.29	4004	119	78	-21	23	1.162794	1.881595	5	20	0.022	1600
283832	105	-1487	-1340	0.01190395	-7.287149	-3.634892	0	11.29	4002	18	-292	0	39	1.086858	1.781385	5	20	0.022	1600
283920	395	-484	-508	0.1909455	-6.10574	-4.08538	0	10.66	4003	-75	-112	25	205	0.9091038	1.593582	5	20	0.022	1600
283983	495	714	-362	0.2024277	-6.506567	-4.088203	0	10.66	4003	-108	-41	28	33	0.8796591	1.563774	5	20	0.022	1600
284086	2117	2156	-879	1.181269	-9.886698	-4.035457	0	10.66	4003	-63	-132	18	46	0.7721493	1.492897	5	20	0.022	1600
284260	-1445	658	-941	0.7144663	-12.28583	-3.88461	0	10.66	4004	133	264	16	48	0.5285373	1.3047	5	20	0.022	1600
284331	-753	6478	-4235	-2.727815	-16.88068	-1.016408	0	10.66	4002	63	400	-43	36	0.4673476	1.147673	5	20	0.022	1600
284390	3958	4460	-4968	-5.684961	-22.7444	6.479798	0	10.66	4004	-10	5	-290	56	0.4064992	1.08792	5	20	0.022	1600
284528	-1432	-4507	4116	-2.53417	-18.40364	8.433482	0	10.66	4003	66	-70	-222	53	0.3167083	0.9087746	5	20	0.022	1600
284658	2038	-3028	2964	-0.221942	-4.747155	-6.099453	0	10.66	4003	-107	-189	119	54	0.3285862	0.852331	5	20	0.022	1600
284751	-1124	-1326	1922	0.4738581	-2.795279	-8.637728	0	10.66	4002	91	38	128	45	0.3976218	0.8302627	5	20	0.022	1600
284798	-2838	-1715	-1924	-2.046251	-1.761377	-7.943053	0	10.32	4004	-67	-125	108	79	0.4233384	0.8266283	5	20	0.022	1600
284899	-1705	-4614	-2619	-5.779244	2.232504	-4.445295	0	10.32	4004	77	-148	7	41	0.5204271	0.8211809	5	20	0.022	1600
284999	-1623	-4986	240	-5.704916	7.476646	-2.562594	0	10.32	4003	34	-54	-39	38	0.7149701	0.8152769	5	20	0.022	1600
285141	-1313	-2419	-232	-7.270756	13.42872	-2.782283	0	10.32	4004	57	43	3	27	0.9650095	0.8443681	5	20	0.022	1600
285269	2022	3306	377	-4.94464	8.685204	-5.030708	0	10.32	4002	-12	-56	42	24	1.104689	0.8722796	5	20	0.022	1600
285292	2022	3306	377	-4.94464	8.685204	-5.030708	0	10.32	4002	-70	-8	57	44	1.149016	0.8867279	5	20	0.022	1600
285417	1277	-12	-1905	1.15283	3.82708	-3.046457	0	10.32	4004	-39	-229	-22	23	1.251933	0.9170815	5	20	0.022	1600
285522	712	1666	-478	1.379475	-0.3815515	-3.005348	0	10.32	4004	89	-236	-10	24	1.216073	0.9545215	5	20	0.022	1600
285602	1347	2592	703	1.771638	-1.842971	-3.186509	0	10.32	4002	-13	-13	-14	16	1.14382	0.9975152	5	20	0.022	1600
285682	149	816	-1791	3.317286	-6.513999	-2.677516	0	10.6	4003	90	13	-26	3	1.101671	1.032048	5	20	0.022	1600
285786	-605	1223	98	1.712273	-7.638056	-2.126811	0	10.6	4003	2	98	-36	1	1.132916	1.079524	5	20	0.022	1600
285808	185	3141	4	1.429941	-12.33347	-3.593806	0	10.6	4004	93	-11	-1	4	1.098928	1.145692	5	20	0.022	1600
285978	-342	-66	-1539	2.131896	-16.04415	-3.264328	0	10.6	4002	20	-258	-20	0	1.192814	1.223515	5	20	0.022	1600
286062	-98	-684	-1123	1.510311	-15.54222	-2.578065	0	10.6	4004	-11	-251	-36	-3	1.175049	1.263714	5	20	0.022	1600
286126	858	1308	581	1.800998	-14.88388	-2.135455	0	10.6	4009	-107	250	-26	-8	1.16066	1.314336	5	20	0.022	1600
286161	-1508	-4935	-257	-0.5259581	-4.540548	-3.255414	0	10.6	4003	137	-165	-7	-10	1.273118	1.445091	5	20	0.022	1600
286324	-1334	1321	448	-1.936428	-3.36862	-3.674937	0	10.6	4003	-2	-65	17	-12	1.331715	1.547399	5	20	0.022	1600
286365	-1141	-1049	-58	-4.179106	-3.158585	-3.668366	0	10.6	4003	-117	-29	4	-25	1.352722	1.578574	5	20	0.022	1600
286519	-1459	150	1162	-4.830462	-2.563358	-3.597121	0	10.89	4004	19	140	16	-21	1.177535	1.643871	5	20	0.022	1600
286614	371	483	-1458	-4.891191	-3.028306	-3.51086	0	10.89	4002	-6	-190	-11	-1	1.340133	1.697567	5	20	0.022	1600
286646	471	-639	-964	-2.567135	-4.234684	-2.977687	0	10.89	4004	38	-21	-15	-1	1.374875	1.710356	5	20	0.022	1600
286850	-43	-89	75	-3.036414	-2.613874	-2.652837	0	10.89	4004	-55	-201	-16	-3	1.390211	1.751565	5	20	0.022	1600
286895	126	1162	-70	-2.547832	-4.063712	-2.730335	0	10.89	4003	39	-131	-19	-4	1.402937	1.780461	5	20	0.022	1600
287013	-613	1509	-573	-2.661304	-10.94026	-3.182772	0	10.89	4002	90	-143	-1	3	1.337294	1.794255	5	20	0.022	1600
287124	-1	1090	-866	-3.126937	-10.29237	-2.504303	0	10.89	4005	-24	144	-30	10	1.335824	1.797693	5	20	0.022	1600
287143	-1	1090	-866	-3.126937	-10.29237	-2.504303	0	10.89	4005	-24	144	-30	10	1.344758	1.79351	5	20	0.022	1600
287323	-285	9	-40	-2.174468	-17.05387	-2.301219	0	11.17	4003	11	167	-18	13	1.228293	1.773268	5	20	0.022	1600
287403	-367	1215	1019	-1.751794	-16.19983	-2.928963	0	11.17	4003	21	103	4	19	1.25531	1.75297	5	20	0.022	1600
287471	1931	1148	800	-1.355626	-15.31523	-3.008999	0	11.17	4004	-63	287	1	17	1.266052	1.746105	5	20	0.022	1600
287576	3806	62	-59	3.856549	-14.29606	-2.200172	0	11.17	4002	-7	-200	-45	24	1.110074	1.705628	5	20	0.022	1600
287704	2919	-752	-623	6.858982	-13.57594	-2.009104	0	11.17	4003	-25	-258	-40	49	1.12871	1.640956	5	20	0.022	1600
287783	-739	-822	527	7.366251	-11.83654	-1.869382	0	11.17	4004	41	27	-45	27	1.193053	1.607082	5	20	0.022	1600
287867	57	-3685	-478	4.639543	-8.326612	-2.016435	0	11.17	4003	11	-80	-45	29	1.302156	1.558454	5	20	0.022	1600
287903	442	-3367	-136	4.79198	-6.382352	-2.185272	0	11.17	4004	-16	-306	-50	23	1.291682	1.551323	5	20	0.022	1600
288040	228	-304	962	4.342515	-5.293297	-3.449202	0	11.17	4002	-136	77	-3	22	1.250903	1.523276	5	20	0.022	1600
288163	-1951	541	638	3.041953	-4.491138	-4.654693	0	10.43	4003	74	186	88	33	1.36479	1.485305	5	20	0.022	1600
288249	-1264	2324	1424	-0.7607405	-7.688812	-6.474731	0	10.43	4004	-38	-114	78	25	1.403885	1.464751	5	20	0.022	1600
288349	-1040	-742	-671	-1.520345	-5.12865	-5.44687	0	10.43	4003	16	-6	69	34	1.334221	1.435768	5	20	0.022	1600
288461	-1219	626	-612	-2.650301	-4.10909	-2.496628	0	10.43	4003	125	49	4	43	1.268205	1.388237	5	20	0.022	1600
288496	-1652	573	-413	-3.311244	-3.951079	-1.659374	0	10.43	4003	-101	-142	12	44	1.252722	1.357755	5	20	0.022	1600
288572	-431	941	-201	-4.372511	-3.245086	-0.2920556	0	10.43	4002	46	9	21	44	1.238809	1.273937	5	20	0.022	1600
288688	156	-2556	-1754	-3.486708	-3.3741	2.330804	0	10.43	4002	109	295	-17	52	1.184014	1.192219	5	20	0.022	1600
288826	1086	949	442	-1.860714	-3.238158	2.463304	0	10.43	4003	-26	213	25	57	1.035835	0.9989769	5	20	0.022	1600
288882	-441	-431	143	-1.752785	-4.233957	0.2386585	0	10.43	4009	-105	-110	63	55	0.9918995	0.985605	5	20	0.022	1600
289010	149	-2103	-2083	-0.02906577	-6.592363	-0.4047721	0	10.43	4003	-8	-266	16	54	0.7753772	0.8866623	5	20	0.022	1600
289115	498	2264	903	-1.500551	-4.08569	0.8238553	0	10.32	4003	-70	-250	7	55	0.6252413	0.8422961	5	20	0.022	1600
289229	-643	-3196	-415	-0.4374961	-1.541285	1.070347	0	10.32	4002	48	323	-6	57	0.4859249	0.7962357	5	20	0.022	1600
289333	214	3191	-278	-1.928717	-1.463164	1.36091	0	10.32	4003	-73	-57	-2	53	0.3987154	0.760205	5	20	0.022	1600
289461	1276	-3360	-1315	-0.5621087	-3.00491	2.192392	0	10.32	4002	145	-54	-20	60	0.3304702	0.7134291	5	20	0.022	1600
289494	-532	-4517	-1769	-0.4274454	-1.695438	2.369485	0	10.32	4002	51	-338	-41	106	0.3161853	0.7044233	5	20	0.022	1600
289578	-565	235	1580	-0.3226714	1.438371	1.089937	0	10.32	4003	-66	135	34	63	0.3596135	0.657553	5	20	0.022	1600
289681	863	-1212	642	1.305078	1.992509	0.2961918	0	10.32	4003	61	180	20	56	0.4242491	0.6319723	5	20	0.022	1600
289835	371	946	427	2.535132	1.174413	1.262563	0	10.32	4004	47	19	5	40	0.5191543	0.6271682	5	20	0.022	1600
289883	914	946	427	2.535132	1.174413	1.262563	0	10.32	4004	1	-238	-37	42	0.6234543	0.6394831	5	20	0.022	1600
289985	811	1235	665	3.53023	-0.1921287	1.570988	0	11.06	4003	-59	248	30	36	0.7233038	0.6607277	5	20	0.022	1600
290101	-1233	1741	-262	2.725227	-5.011926	0.8386561	0	11.06	4002	137	-11	-2	55	0.885704	0.7130424	5	20	0.022	1600
290190	116	1339	-745	1.199821	-7.972943	1.105776	0	11.06	4004	-13	99	23	31	0.9589158	0.7481866	5	20	0.022	1600
290329	-65	-8	610	0.8275419	-10.14668	1.000357	0	11.06	4003	-56	-114	7	31	1.074628	0.8000369	5	20	0.022	1600
290395	-286	-1770	-1562	-0.3168345	-8.475648	0.9647729	0	11.06	4002	1	27	6	28	1.086717	0.8265725	5	20	0.022	1600
290536	-904	1934	1029	-1.518321	-9.173412	0.6161416	0	11.06	4008	107	-242	13	24	1.040473	0.8998689	5	20	0.022	1600
290630	96	404	-288	-0.5218659	-9.343457	-0.1635246	0	11.06	4003	-17	-68	52	40	1.023675	0.9314215	5	20	0.022	1600
290720	-902	-361	334	-0.2696579	-8.819063	0.03243577	0	11.06	4002	22	101	22	17	0.9967937	0.9719252	5	20	0.022	1600
290827	-1302	1997	1218	-3.545509	-7.363001	0.5887278	0	11.06	4002	39	180	14	2	1.02377	1.076097	5	20	0.022	1600
290959	917	-1096	695	-0.8781961	-5.472216	0.9197776	0	10.89	4003	-39	94	19	0	1.150216	1.139849	5	20	0.022	1600
291147	-292	-1434	-1129	-0.5037373	-2.606486	1.56713	0	10.89	4002	11	-137	-18	-4	1.341859	1.266544	5	20	0.022	1600
291189	-824	-454	-207	-0.2965823	-2.682861	1.49045	0	10.89	4002	-11	-145	-14	-5	1.37626	1.318813	5	20	0.022	1600
291302	445	-258	1460	-0.5518957	-1.921782	0.9117156	0	10.89	4004	46	60	6	-12	1.37775	1.416556	5	20	0.022	1600
291427	-1411	-2127	-626	-2.038438	-1.721996	0.8556582	0	10.89	4002	42	-200	6	-12	1.361159	1.499691	5	20	0.022	1600
291513	115	-1463	-1507	-2.641401	-0.563413	1.499334	0	10.89	4004	18	-146	-23	-10	1.344708	1.568377	5	20	0.022	1600
291601	863	843	99	-1.554157	-1.302656	1.89665	0	10.89	4004	0	146	-17	-9	1.306404	1.643412	5	20	0.022	1600
291691	31	-718	165	-0.653166	-1.669215	1.951486	0	10.89	4004	-14	33	-4	-3	1.288012	1.678997	5	20	0.022	1600
291806	358	-189	-298	-1.26379	1.01996	1.496601	0	10.43	4003	17	-144	-14	0	1.309531	1.72826	5	20	0.022	1600
291894	273	2419	853	-0.4718785	-2.181077	1.404012	0	10.43	4002	17	-144	-14	0	1.145916	1.765643	5	20	0.022	1600
292012	94	-300	-489	-1.287115	-4.221918	1.442897	0	10.43	4003	-3	-213	-9	-15	1.207185	1.807514	5	20	0.022	1600
292130	501	-1294	294	-1.996459	-1.784544	1.754868	0	10.43	4002	-8	-136	-8	-6	1.283598	1.871064	5	20	0.022	1600
292199	-427	-473	-268	-2.275138	-1.956661	1.813937	0	10.43	4002	41	-123	-19	-6	1.31786	1.902885	5	20	0.022	1600
292295	626	1642	252	-1.979579	-2.913522	1.878054	0	10.43	4002	-32	115	-21	0	1.234173	1.934706	5	20	0.022	1600
292371	666	1495	652	-1.777982	-3.572298	1.848105	0	10.43	4004	-43	154	-9	10	1.2829	1.94838	5	20	0.022	1600
292536	14	3888	666	-0.8242725	-11.98365	1.785855	0	10.43	4004	-51	172	-6	24	1.436744	1.923232	5	20	0.022	1600
292575	646	1726	63	-0.8242725	-11.98365	1.785855	0	10.43	4003	-21	74	-9	17	1.439668	1.918739	5	20	0.022	1600
292729	-1152	1466	-478	-0.3593422	-14.32756	2.012311	0	11.23	4003	74	144	-19	22	1.324173	1.882871	5	20	0.022	1600
292759	-1748	335	-339	-0.7997321	-14.66648	1.743321	0	11.23	4003	123	3	-15	19	1.335301	1.876467	5	20	0.022	1600
292904	-213	-3841	-593	-2.100535	-9.980528	1.351078	0	11.23	4004	1	-217	-4	19	1.293226	1.835367	5	20	0.022	1600
292973	-1662	-2157	-24	-2.242629	-6.639794	1.382178	0	11.23	4002	-10	181	14	21	1.261826	1.819516	5	20	0.022	1600
293096	-983	-129	534	-6.751228	-3.865389	1.165835	0	11.23	4004	92	145	13	26	1.259	1.772812	5	20	0.022	1600
293151	-1384	124	-9	-6.966123	-3.922063	1.22944	0	11.23	4002	-87	-155	14	41	1.267179	1.755317	5	20	0.022	1600
293328	1116	-691	354	-4.179799	-2.202806	0.8365816	0	11.23	4002	31	-172	-12	34	1.247554	1.702666	5	20	0.022	1600
293434	796	-863	-1341	-2.183166	-2.491899	0.97924	0	11.23	4004	-116	-348	1	36	1.227483	1.628627	5	20	0.022	1600
293466	-585	1802	1936	-1.432357	-2.7539	0.8301466	0	11.23	4002	84	270	27	32	1.226294	1.605585	5	20	0.022	1600
293553	-1150	3346	5	-2.296559	-5.38327	0.2238755	0	11.23	4003	-51	32	36	37	1.229389	1.572757	5	20	0.022	1600
293676	-950	-434	120	-3.252496	-5.418378	0.03802156	0	9.98	4004	-62	-62	33	40	1.243119	1.492702	5	20	0.022	1600
293780	-31	-1322	-1745	-2.016845	-4.471471	1.094892	0	9.98	4003	1	142	14	73	1.308162	1.413651	5	20	0.022	1600
293913	-42	1753	720	-0.8843694	-4.184331	2.066088	0	9.98	4004	109	132	-16	75	1.213928	1.332129	5	20	0.022	1600
294016	184	-432	-23	2.854512	-5.676295	1.457454	0	9.98	4002	97	-108	-20	38	1.187858	1.268639	5	20	0.022	1600
294046	-370	-50	-171	2.524463	-5.89392	1.288215	0	9.98	4003	35	-245	-6	39	1.190426	1.251792	5	20	0.022	1600
294131	-273	-76	-1587	1.083445	-6.284615	1.146405	0	9.98	4003	-7	-163	-2	38	1.22621	1.228185	5	20	0.022	1600
294268	-535	928	788	1.09296	-7.502466	1.56051	0	9.98	4003	14	128	10	38	1.251458	1.187276	5	20	0.022	1600
294325	716	212	-921	0.8164175	-8.231238	1.635603	0	9.98	4003	89	-35	-26	67	1.249202	1.158541	5	20	0.022	1600
294428	-616	-14	-18	0.7735358	-8.465734	1.109114	0	9.98	4003	88	165	9	44	1.232285	1.118885	5	20	0.022	1600
294550	-623	-42	-388	-1.181782	-7.05718	0.339685	0	11.11	4004	92	107	22	49	1.258901	1.072114	5	20	0.022	1600
294719	-10	533	1163	1.194164	-6.445204	1.026051	0	11.11	4003	-26	123	23	53	1.302311	0.9732778	5	20	0.022	1600
294746	-10	533	1163	1.194164	-6.445204	1.026051	0	11.11	4003	153	-111	0	58	1.300087	0.9635878	5	20	0.022	1600
294840	-220	1393	795	-0.4379778	-8.958435	0.1574303	0	11.11	4004	79	67	33	58	1.296285	0.9368359	5	20	0.022	1600
294957	203	-2147	-201	-1.132786	-6.714979	-0.3654171	0	11.11	4003	127	25	34	96	1.176572	0.8900445	5	20	0.022	1600
295106	-716	662	266	-1.023577	-4.901787	0.4964432	0	11.11	4002	-23	-61	12	52	1.180548	0.8542668	5	20	0.022	1600
295197	-1081	-304	998	-0.5958672	-2.369283	1.31067	0	11.11	4002	57	-62	3	56	1.191213	0.8400984	5	20	0.022	1600
295250	359	-1145	-688	-0.7056597	-2.58361	1.026947	0	11.11	4004	-95	167	29	50	1.21331	0.8285851	5	20	0.022	1600
295367	-949	1070	-362	-0.8832204	-3.284574	-0.3247957	0	11.11	4004	16	-48	29	53	1.255758	0.8164724	5	20	0.022	1600
295576	-509	612	-520	0.1655964	-0.4018379	1.526983	0	10.43	4003	90	40	1	49	1.088852	0.7866167	5	20	0.022	1600
295758	-691	900	1477	2.978006	-2.408637	0.9394758	0	10.43	4004	78	122	26	40	1.042355	0.8189576	5	20	0.022	1600
295858	1015	51	-199	3.328058	-3.486262	0.7748965	0	10.43	4004	-94	-79	19	42	1.106328	0.8382394	5	20	0.022	1600
295924	1143	441	556	3.612628	-3.868391	1.014546	0	10.43	4002	-53	6	18	41	1.138106	0.8515191	5	20	0.022	1600
296040	-1059	-828	-1362	2.835675	-3.031787	1.296947	0	10.43	4004	93	178	17	38	1.131405	0.8689662	5	20	0.022	1600
