time(ms)	gyro_x(deg/s)	gyro_y(deg/s)	gyro_z(deg/s)	orientation_roll(deg)	orientation_pitch(deg)	orientation_yaw(deg)	throttle	battery(V)	loop_time(uS)	pid_output_roll	pid_output_pitch	pid_output_yaw	pid_output_throttle	ultrasonic_alt	baro_alt	flight_mode	p_gain_altitude	i_gain_altitude	d_gain_altitude
453621	68	1	0	0.7192029	0.009090707	1.398327	0	11.06	4002	0	0	0	0	1.474556	-0.01348832	1	15	0.022	1400
453731	66	-2	-4	0.7108623	0.009885536	1.401017	0	11.06	4004	0	0	0	0	1.474556	-0.01671639	1	15	0.022	1400
453813	74	-4	0	0.7115117	0.009248728	1.40652	0	11.06	4003	0	0	0	0	1.474556	-0.009182872	1	15	0.022	1400
453928	67	-5	-1	0.7153024	0.01594662	1.410372	0	11.06	4002	0	0	0	0	1.474556	-0.00285957	1	15	0.022	1400
453975	67	-6	0	0.7151049	0.01234665	1.413735	0	11.06	4003	0	0	0	0	1.474556	-0.0051554	1	15	0.022	1400
454094	77	-3	-8	0.724034	0.01773466	1.420276	0	11.06	4003	0	0	0	0	1.474556	-0.009634492	1	15	0.022	1400
454158	63	-4	-3	0.7267458	0.01904661	1.423944	0	11.11	4002	0	0	0	0	1.474556	-0.006914847	1	15	0.022	1400
454287	62	-5	-2	0.7214368	0.0201282	1.429202	0	11.11	4002	0	0	0	0	1.474556	0.009621288	1	15	0.022	1400
454368	79	0	-7	0.7254167	0.02075416	1.435744	0	11.11	4002	0	0	0	0	1.474556	0.01573172	1	15	0.022	1400
454485	66	-3	-4	0.7308038	0.02422027	1.44253	0	11.11	4003	0	0	0	0	1.474556	0.02745393	1	15	0.022	1400
454603	72	-5	-4	0.7197163	0.02412725	1.448277	0	11.11	4003	0	0	0	0	1.474556	0.03743738	1	15	0.022	1400
454716	62	-9	0	0.7238868	0.01654015	1.455064	0	11.11	4002	0	0	0	0	1.474556	0.03281378	1	15	0.022	1400
454823	70	-4	-3	0.7232203	0.01152004	1.460688	0	11.11	4004	0	0	0	0	1.474556	0.02608233	1	15	0.022	1400
454911	67	-4	-4	0.7208278	0.01511662	1.462584	0	11.11	4004	0	0	0	0	1.474556	0.02315893	1	15	0.022	1400
455085	69	-10	0	0.7330613	0.01829643	1.471632	0	11.11	4003	0	0	0	0	1.474556	0.007798318	1	15	0.022	1400
455134	78	-4	-8	0.7346106	0.01448965	1.474384	0	11.11	4004	0	0	0	0	1.474556	0.004338069	1	15	0.022	1400
455209	73	-9	-1	0.7408206	0.01294923	1.477686	0	11.11	4004	0	0	0	0	1.474556	0.003611683	1	15	0.022	1400
455291	62	-7	-3	0.7407647	0.01287277	1.480498	0	11.11	4004	0	0	0	0	1.474556	-0.001445905	1	15	0.022	1400
455422	72	2	-2	0.7323025	0.00850339	1.489119	0	11.11	4002	0	0	0	0	1.474556	-0.005942573	1	15	0.022	1400
455520	64	-3	-4	0.7390456	0.0139681	1.494377	0	11.11	4002	0	0	0	0	1.474556	-0.01059993	1	15	0.022	1400
455615	67	0	0	0.739624	0.009320008	1.498596	0	11.11	4003	0	0	0	0	1.474556	-0.01408347	1	15	0.022	1400
455710	75	-6	-7	0.7330641	0.00763119	1.501838	0	11.11	4009	0	0	0	0	1.474556	-0.01214691	1	15	0.022	1400
455847	67	5	3	0.7362221	0.01440643	1.505873	0	11.11	4002	0	0	0	0	1.474556	0.01054856	1	15	0.022	1400
455888	69	-6	-3	0.7371522	0.01682553	1.506239	0	11.11	4003	0	0	0	0	1.474556	0.01588599	1	15	0.022	1400
455993	75	-10	-5	0.7422693	0.0138849	1.51107	0	11.11	4004	0	0	0	0	1.474556	0.03394069	1	15	0.022	1400
456113	67	0	-4	0.750698	0.012729	1.518407	0	11.11	4002	0	0	0	0	1.474556	0.04017072	1	15	0.022	1400
456283	71	-9	-6	0.7524562	0.01363867	1.525499	0	11.11	4004	0	0	0	0	1.474556	0.05035553	1	15	0.022	1400
456334	71	-2	-8	0.7607021	0.01198483	1.531246	0	11.11	4002	0	0	0	0	1.474556	0.05976988	1	15	0.022	1400
456433	72	-1	-6	0.764649	0.01372959	1.536931	0	11.11	4003	0	0	0	0	1.474556	0.07344819	1	15	0.022	1400
456512	81	0	-2	0.7625864	0.01255789	1.539499	0	11.11	4004	0	0	0	0	1.474556	0.08287314	1	15	0.022	1400
456587	69	-3	-5	0.7701914	0.01260565	1.543106	0	11.11	4002	0	0	0	0	1.474556	0.08118918	1	15	0.022	1400
456695	71	-1	1	0.7670401	0.005272921	1.54598	0	11.11	4003	0	0	0	0	1.474556	0.07873408	1	15	0.022	1400
456796	71	0	-1	0.768464	0.01379266	1.550199	0	11.11	4004	0	0	0	0	1.474556	0.07938785	1	15	0.022	1400
456987	69	-2	-7	0.7685256	0.009629731	1.555762	0	11.06	4003	0	0	0	0	1.474556	0.06318422	1	15	0.022	1400
457033	72	-2	-6	0.7696366	0.007015011	1.556557	0	11.06	4002	0	0	0	0	1.474556	0.05237229	1	15	0.022	1400
457170	80	0	0	0.7717355	0.005551446	1.562671	0	11.06	4004	0	0	0	0	1.474556	0.04246452	1	15	0.022	1400
457213	66	2	-2	0.7714682	0.007318614	1.565056	0	11.06	4003	0	0	0	0	1.474556	0.0397779	1	15	0.022	1400
457337	82	-2	-3	0.7700266	0.005105067	1.571537	0	11.06	4004	0	0	0	0	1.474556	0.0225804	1	15	0.022	1400
457399	73	-8	0	0.7722188	0.006008291	1.572943	0	11.06	4003	0	0	0	0	1.474556	0.02200796	1	15	0.022	1400
457534	68	-3	0	0.7718706	0.005198553	1.577957	0	11.06	4003	0	0	0	0	1.474556	0.01439469	1	15	0.022	1400
457602	76	-9	-3	0.7726329	0.003958869	1.579608	0	11.06	4003	0	0	0	0	1.474556	0.005679556	1	15	0.022	1400
457706	68	-4	-3	0.7748649	0.002223714	1.584805	0	11.06	4003	0	0	0	0	1.474556	-0.003289821	1	15	0.022	1400
457794	68	-6	-2	0.7754082	-0.002723827	1.589879	0	11.06	4002	0	0	0	0	1.474556	-0.01426163	1	15	0.022	1400
457938	71	0	1	0.7719995	-0.005580568	1.593303	0	11.11	4002	0	0	0	0	1.474556	-0.02096406	1	15	0.022	1400
457993	70	-1	0	0.7725469	-0.01046788	1.595321	0	11.11	4003	0	0	0	0	1.474556	-0.02080024	1	15	0.022	1400
458114	73	-5	0	0.7737045	-0.01221655	1.599968	0	11.11	4002	0	0	0	0	1.474556	-0.02032498	1	15	0.022	1400
458218	72	-1	-3	0.7786661	-0.01131606	1.603269	0	11.11	4002	0	0	0	0	1.474556	-0.009622936	1	15	0.022	1400
458355	76	-3	-4	0.7850268	-0.01048044	1.610973	0	11.11	4004	0	0	0	0	1.474556	0.01139184	1	15	0.022	1400
458495	75	-4	0	0.7833226	-0.01557947	1.616598	0	11.11	4003	0	0	0	0	1.474556	0.0318801	1	15	0.022	1400
458586	70	-1	-9	0.7872202	-0.01144419	1.620817	0	11.11	4003	0	0	0	0	1.474556	0.04367331	1	15	0.022	1400
458740	76	-7	-6	0.7836973	-0.008446157	1.629499	0	11.11	4004	0	0	0	0	1.474556	0.05308225	1	15	0.022	1400
458828	69	-1	-1	0.7941893	-0.01105777	1.634145	0	11.06	4004	0	0	0	0	1.474556	0.06637446	1	15	0.022	1400
458930	72	-9	0	0.7919963	-0.003803375	1.63757	0	11.06	4003	0	0	0	0	1.474556	0.06693769	1	15	0.022	1400
458995	82	-1	-6	0.7912619	-0.004882562	1.640443	0	11.06	4004	0	0	0	0	1.474556	0.06493477	1	15	0.022	1400
459120	71	0	-2	0.7995647	-0.006267135	1.644601	0	11.06	4003	0	0	0	0	1.474556	0.07000259	1	15	0.022	1400
459251	82	0	-1	0.7985519	-0.01130808	1.649493	0	11.06	4004	0	0	0	0	1.474556	0.07301365	1	15	0.022	1400
459323	74	0	-4	0.7981319	-0.01204118	1.651755	0	11.06	4002	0	0	0	0	1.474556	0.07235103	1	15	0.022	1400
459430	73	0	-1	0.8000001	-0.008349716	1.657135	0	11.06	4004	0	0	0	0	1.474556	0.07145081	1	15	0.022	1400
459567	72	-9	-2	0.7938575	-0.01650926	1.664656	0	11.06	4002	0	0	0	0	1.474556	0.09002472	1	15	0.022	1400
459654	76	-4	0	0.7943103	-0.01518302	1.66594	0	11.06	4003	0	0	0	0	1.474556	0.09854955	1	15	0.022	1400
459728	75	-2	-6	0.7919192	-0.01796547	1.669791	0	11.06	4003	0	0	0	0	1.474556	0.1070084	1	15	0.022	1400
459899	74	0	-6	0.7983184	-0.01709366	1.680001	0	11.06	4003	0	0	0	0	1.474556	0.1050345	1	15	0.022	1400
459981	74	0	-2	0.8027253	-0.02030548	1.68153	0	11.06	4003	0	0	0	0	1.474556	0.1011605	1	15	0.022	1400
460028	80	0	-9	0.80511	-0.02539767	1.68532	0	11.06	4003	0	0	0	0	1.474556	0.09723745	1	15	0.022	1400
460172	66	-6	-9	0.8097575	-0.02805692	1.691495	0	11.06	4003	0	0	0	0	1.474556	0.07910268	1	15	0.022	1400
460312	80	-1	-3	0.8058683	-0.02935132	1.699443	0	11.06	4002	0	0	0	0	1.474556	0.05400066	1	15	0.022	1400
460345	81	-4	-4	0.8083565	-0.02635588	1.700788	0	11.06	4002	0	0	0	0	1.474556	0.05128538	1	15	0.022	1400
460418	71	-5	-3	0.810003	-0.0235286	1.703784	0	11.06	4003	0	0	0	0	1.474556	0.04288302	1	15	0.022	1400
460624	85	-2	-4	0.8146707	-0.01776935	1.715033	0	11.11	4003	0	0	0	0	1.474556	0.007316403	1	15	0.022	1400
460840	76	-7	-4	0.8242052	-0.01023444	1.725244	0	11.11	4003	0	0	0	0	1.474556	-0.0003038453	1	15	0.022	1400
460946	86	-5	0	0.8251722	-0.005376807	1.732825	0	11.11	4003	0	0	0	0	1.474556	-0.000198815	1	15	0.022	1400
461060	72	-4	-5	0.82914	-0.01155718	1.737655	0	11.11	4004	0	0	0	0	1.474556	-0.00466069	1	15	0.022	1400
461127	79	-7	-2	0.823184	-0.01121756	1.740101	0	11.11	4004	0	0	0	0	1.474556	0.001891622	1	15	0.022	1400
461236	84	-1	-3	0.8252084	-0.01575885	1.748477	0	11.11	4004	0	0	0	0	1.474556	0.003493057	1	15	0.022	1400
461395	77	-1	-7	0.823788	-0.01393848	1.754163	0	11.11	4003	0	0	0	0	1.474556	0.01404243	1	15	0.022	1400
461478	83	-9	-4	0.8245392	-0.008947415	1.761194	0	11.11	4003	0	0	0	0	1.474556	0.0182172	1	15	0.022	1400
461549	86	-6	0	0.8368947	-0.01133335	1.765352	0	11.11	4003	0	0	0	0	1.474556	0.02022239	1	15	0.022	1400
461631	79	-6	-8	0.8527043	-0.01378735	1.771283	0	11.11	4004	0	0	0	0	1.474556	0.03297106	1	15	0.022	1400
461781	80	-8	0	0.8560105	-0.009012083	1.778436	0	11.11	4003	0	0	0	0	1.474556	0.03667571	1	15	0.022	1400
461885	74	-6	-4	0.8618224	-0.005436343	1.786568	0	11.11	4002	0	0	0	0	1.474556	0.03068222	1	15	0.022	1400
461963	73	-8	-8	0.8539261	-0.008795815	1.790909	0	11.11	4003	0	0	0	0	1.474556	0.03068131	1	15	0.022	1400
462019	77	-7	1	0.8570765	-0.01146139	1.794394	0	11.11	4003	0	0	0	0	1.474556	0.03457187	1	15	0.022	1400
462122	74	0	-3	0.8582289	-0.01059379	1.800019	0	11.11	4004	0	0	0	0	1.474556	0.04662674	1	15	0.022	1400
462274	81	-4	-4	0.8588176	-0.01225223	1.80754	0	11.11	4003	0	0	0	0	1.474556	0.08022599	1	15	0.022	1400
462366	68	0	-7	0.8685722	-0.01205232	1.813715	0	11.11	4003	0	0	0	0	1.474556	0.09006442	1	15	0.022	1400
462467	68	-6	-2	0.8682168	-0.01143421	1.822826	0	11.06	4003	0	0	0	0	1.474556	0.08346117	1	15	0.022	1400
462545	84	1	1	0.868702	-0.01174071	1.826617	0	11.06	4003	0	0	0	0	1.474556	0.07179678	1	15	0.022	1400
462623	76	1	-6	0.8759568	-0.01744279	1.834321	0	11.06	4002	0	0	0	0	1.474556	0.06913168	1	15	0.022	1400
462773	85	-11	-4	0.8842154	-0.01535548	1.843186	0	11.06	4004	0	0	0	0	1.474556	0.06494997	1	15	0.022	1400
462898	85	-6	-2	0.8987222	-0.006625226	1.852479	0	11.06	4003	0	0	0	0	1.474556	0.04635086	1	15	0.022	1400
463001	74	-1	-1	0.8910199	-0.01217489	1.858532	0	11.06	4002	0	0	0	0	1.474556	0.03870345	1	15	0.022	1400
463071	78	-5	-8	0.8970478	-0.01067085	1.862078	0	11.06	4004	0	0	0	0	1.474556	0.03893517	1	15	0.022	1400
463165	83	-2	-5	0.895327	-0.01548994	1.867397	0	11.06	4003	0	0	0	0	1.474556	0.04335806	1	15	0.022	1400
463217	75	-6	1	0.8961132	-0.01351861	1.867336	0	11.06	4004	0	0	0	0	1.474556	0.03914025	1	15	0.022	1400
463356	81	-14	-1	0.8957227	-0.01653714	1.879198	0	11.11	4004	0	0	0	0	1.474556	0.0331613	1	15	0.022	1400
463411	84	0	-9	0.8979528	-0.01738039	1.882622	0	11.11	4004	0	0	0	0	1.474556	0.02744656	1	15	0.022	1400
463593	83	-5	0	0.890788	-0.01784831	1.894727	0	11.11	4003	0	0	0	0	1.474556	0.04824059	1	15	0.022	1400
463668	80	-5	-10	0.8929599	-0.01989649	1.898517	0	11.11	4004	0	0	0	0	1.474556	0.06752686	1	15	0.022	1400
463806	80	-6	0	0.8847486	-0.01712302	1.905671	0	11.11	4002	0	0	0	0	1.474556	0.08190002	1	15	0.022	1400
463919	83	-5	0	0.8869534	-0.01329556	1.913558	0	11.11	4004	0	0	0	0	1.474556	0.09652511	1	15	0.022	1400
464052	84	-1	-1	0.8837332	-0.01256907	1.922973	0	11.11	4004	0	0	0	0	1.474556	0.0916905	1	15	0.022	1400
464197	85	0	-6	0.8914416	-0.01116356	1.931595	0	11.11	4004	0	0	0	0	1.474556	0.09797791	1	15	0.022	1400
464245	73	-3	-2	0.8903192	-0.01110122	1.935814	0	11.06	4003	0	0	0	0	1.474556	0.100058	1	15	0.022	1400
464388	86	0	-4	0.8892295	-0.01328615	1.944556	0	11.06	4003	0	0	0	0	1.474556	0.1039742	1	15	0.022	1400
464432	80	-4	-6	0.8918683	-0.01603221	1.946757	0	11.06	4002	0	0	0	0	1.474556	0.1097172	1	15	0.022	1400
464473	82	0	0	0.8946061	-0.01847252	1.950426	0	11.06	4003	0	0	0	0	1.474556	0.1129614	1	15	0.022	1400
464592	82	-5	1	0.8981823	-0.01773505	1.957457	0	11.06	4002	0	0	0	0	1.474556	0.1255549	1	15	0.022	1400
464674	85	2	-8	0.9010542	-0.02256036	1.964427	0	11.06	4004	0	0	0	0	1.474556	0.1332648	1	15	0.022	1400
464777	79	-4	-5	0.9043856	-0.02107338	1.969135	0	11.06	4003	0	0	0	0	1.474556	0.1326017	1	15	0.022	1400
464914	81	-6	-7	0.8994833	-0.01847148	1.975005	0	11.06	4002	0	0	0	0	1.474556	0.1365038	1	15	0.022	1400
464985	92	-4	-4	0.9057671	-0.0266483	1.980385	0	11.06	4002	0	0	0	0	1.474556	0.1378108	1	15	0.022	1400
465119	92	-4	-5	0.9118013	-0.02121269	1.992063	0	11.06	4002	0	0	0	0	1.474556	0.1324908	1	15	0.022	1400
465204	87	-7	-4	0.9120188	-0.02249842	1.99879	0	11.06	4004	0	0	0	0	1.474556	0.137492	1	15	0.022	1400
465315	74	1	-2	0.9164402	-0.02324992	2.004904	0	11.06	4003	0	0	0	0	1.474556	0.1423925	1	15	0.022	1400
465397	83	-1	-5	0.9101196	-0.02203351	2.008206	0	11.06	4003	0	0	0	0	1.474556	0.1297093	1	15	0.022	1400
465461	86	-3	-5	0.9143103	-0.02333698	2.014076	0	11.06	4004	0	0	0	0	1.474556	0.1203723	1	15	0.022	1400
465610	81	-2	-2	0.9266375	-0.023173	2.023002	0	11.06	4003	0	0	0	0	1.474556	0.1038122	1	15	0.022	1400
465713	88	-6	-7	0.923451	-0.02588246	2.028933	0	11.06	4002	0	0	0	0	1.474556	0.09928133	1	15	0.022	1400
465768	86	0	-3	0.9226305	-0.02580275	2.033334	0	11.06	4004	0	0	0	0	1.474556	0.0927079	1	15	0.022	1400
465878	80	-6	-2	0.923732	-0.02830116	2.038103	0	11.06	4003	0	0	0	0	1.474556	0.08853112	1	15	0.022	1400
465983	94	3	-5	0.928426	-0.03045209	2.044461	0	11.06	4003	0	0	0	0	1.474556	0.08927221	1	15	0.022	1400
466075	86	-2	-7	0.9334729	-0.03294574	2.051003	0	11.11	4003	0	0	0	0	1.474556	0.09751984	1	15	0.022	1400
466166	83	-1	-9	0.9380443	-0.03217953	2.056199	0	11.11	4003	0	0	0	0	1.474556	0.09541404	1	15	0.022	1400
466291	84	1	-4	0.9362414	-0.03557832	2.064881	0	11.11	4004	0	0	0	0	1.474556	0.09735748	1	15	0.022	1400
466427	77	-3	-1	0.9470156	-0.0342577	2.075703	0	11.11	4002	0	0	0	0	1.474556	0.1116611	1	15	0.022	1400
466477	79	-7	-4	0.9438844	-0.03386613	2.079066	0	11.11	4006	0	0	0	0	1.474556	0.1168747	1	15	0.022	1400
466606	88	-2	-5	0.9494566	-0.02708228	2.086891	0	11.11	4003	0	0	0	0	1.474556	0.1249286	1	15	0.022	1400
466706	77	-7	-6	0.9479209	-0.01993404	2.095267	0	11.11	4002	0	0	0	0	1.474556	0.138314	1	15	0.022	1400
466814	93	-1	-4	0.9518215	-0.02327925	2.103216	0	11.11	4003	0	0	0	0	1.474556	0.1432221	1	15	0.022	1400
466878	95	1	-1	0.9489118	-0.01911612	2.109758	0	11.11	4004	0	0	0	0	1.474556	0.1503457	1	15	0.022	1400
467004	82	-2	-8	0.9530903	-0.02383119	2.1185	0	11.11	4003	0	0	0	0	1.474556	0.141345	1	15	0.022	1400
467113	92	-6	-5	0.9572896	-0.01781077	2.128589	0	11.11	4003	0	0	0	0	1.474556	0.144632	1	15	0.022	1400
467190	86	-7	-4	0.9627796	-0.01299628	2.132685	0	11.11	4003	0	0	0	0	1.474556	0.146875	1	15	0.022	1400
467280	83	-3	-5	0.9587894	-0.01610887	2.138066	0	11.11	4002	0	0	0	0	1.474556	0.1409261	1	15	0.022	1400
467413	90	-5	-3	0.9501008	-0.0134201	2.147664	0	11.11	4003	0	0	0	0	1.474556	0.1361621	1	15	0.022	1400
467509	83	-1	-6	0.9554979	-0.01427971	2.158057	0	11.11	4003	0	0	0	0	1.474556	0.1257669	1	15	0.022	1400
467592	80	-6	-11	0.9620169	-0.01636234	2.163376	0	11.11	4003	0	0	0	0	1.474556	0.1126421	1	15	0.022	1400
467698	93	-3	-6	0.9620045	-0.0155978	2.173831	0	11.11	4002	0	0	0	0	1.474556	0.1103252	1	15	0.022	1400
467904	86	2	-11	0.9601212	-0.01010489	2.191256	0	11.06	4003	0	0	0	0	1.474556	0.1149534	1	15	0.022	1400
468022	87	0	-4	0.9685691	-0.01056514	2.199204	0	11.06	4004	0	0	0	0	1.474556	0.1224649	1	15	0.022	1400
468099	82	0	-7	0.9663615	-0.008741592	2.206174	0	11.06	4004	0	0	0	0	1.474556	0.1210893	1	15	0.022	1400
468188	94	-7	-7	0.9578281	-0.009144131	2.212288	0	11.06	4003	0	0	0	0	1.474556	0.1189417	1	15	0.022	1400
468311	92	1	-2	0.9646353	-0.01477713	2.221581	0	11.06	4002	0	0	0	0	1.474556	0.1326405	1	15	0.022	1400
468391	87	-4	-2	0.9683406	-0.02189742	2.228734	0	11.06	4004	0	0	0	0	1.474556	0.1471322	1	15	0.022	1400
468545	89	-12	-4	0.9658632	-0.02523008	2.238212	0	11.06	4004	0	0	0	0	1.474556	0.1688283	1	15	0.022	1400
468623	83	3	-9	0.9667324	-0.02959305	2.243226	0	11.06	4004	0	0	0	0	1.474556	0.1688608	1	15	0.022	1400
468694	89	-1	-3	0.9603616	-0.0282394	2.248912	0	11.06	4002	0	0	0	0	1.474556	0.1690924	1	15	0.022	1400
468826	88	-4	0	0.9620877	-0.02624871	2.258938	0	11.06	4003	0	0	0	0	1.474556	0.17693	1	15	0.022	1400
468999	89	-3	-3	0.972507	-0.02131816	2.273488	0	11.06	4003	0	0	0	0	1.474556	0.1790968	1	15	0.022	1400
469108	89	0	-4	0.9730536	-0.02383636	2.283943	0	11.06	4002	0	0	0	0	1.474556	0.1681549	1	15	0.022	1400
469185	99	-3	-3	0.9756452	-0.02336423	2.288589	0	11.06	4002	0	0	0	0	1.474556	0.1616463	1	15	0.022	1400
469340	89	-5	-4	0.9702747	-0.02381097	2.303386	0	11.06	4004	0	0	0	0	1.474556	0.1494188	1	15	0.022	1400
469415	96	-7	-3	0.9768343	-0.0235536	2.307054	0	11.06	4002	0	0	0	0	1.474556	0.1430902	1	15	0.022	1400
469474	85	-1	-5	0.982361	-0.02533408	2.312312	0	11.06	4003	0	0	0	0	1.474556	0.1375928	1	15	0.022	1400
469585	88	0	-4	0.9807734	-0.02992732	2.32191	0	11.06	4002	0	0	0	0	1.474556	0.129384	1	15	0.022	1400
469669	86	-5	-2	0.977176	-0.03268595	2.329796	0	11.06	4002	0	0	0	0	1.474556	0.1179174	1	15	0.022	1400
469792	89	-6	-10	0.9824497	-0.03413414	2.337194	0	11.11	4003	0	0	0	0	1.474556	0.1014026	1	15	0.022	1400
469897	96	-7	-3	0.9822641	-0.0299611	2.34667	0	11.11	4003	0	0	0	0	1.474556	0.08685778	1	15	0.022	1400
469973	93	0	-5	0.990781	-0.02623395	2.358898	0	11.11	4004	0	0	0	0	1.474556	0.08247842	1	15	0.022	1400
470100	77	-1	-7	0.9892957	-0.02517428	2.366724	0	11.11	4002	0	0	0	0	1.474556	0.08633631	1	15	0.022	1400
470180	87	-6	-6	1.000228	-0.0292946	2.374795	0	11.11	4002	0	0	0	0	1.474556	0.08829942	1	15	0.022	1400
470350	81	-1	-4	0.9993989	-0.02868616	2.383721	0	11.11	4003	0	0	0	0	1.474556	0.09499495	1	15	0.022	1400
470405	95	5	-1	0.9957348	-0.02517169	2.387694	0	11.11	4004	0	0	0	0	1.474556	0.09655388	1	15	0.022	1400
470523	97	0	-9	0.9938339	-0.02634998	2.395764	0	11.11	4004	0	0	0	0	1.474556	0.1112783	1	15	0.022	1400
470635	87	-4	-3	1.005573	-0.03468584	2.403161	0	11.11	4004	0	0	0	0	1.474556	0.1249258	1	15	0.022	1400
470732	90	-2	-5	1.00373	-0.03232389	2.407074	0	11.11	4003	0	0	0	0	1.474556	0.127838	1	15	0.022	1400
470894	87	-9	-3	1.003428	-0.03362597	2.422481	0	11.11	4004	0	0	0	0	1.474556	0.1331021	1	15	0.022	1400
470966	96	-1	-4	1.002173	-0.02882733	2.426821	0	11.11	4003	0	0	0	0	1.474556	0.1304578	1	15	0.022	1400
471070	86	-4	-7	1.00123	-0.02673963	2.432507	0	11.11	4003	0	0	0	0	1.474556	0.1307556	1	15	0.022	1400
471115	82	-4	-2	0.9988842	-0.02730334	2.438254	0	11.11	4004	0	0	0	0	1.474556	0.129902	1	15	0.022	1400
471201	93	-10	-7	0.9966179	-0.0252666	2.445651	0	11.11	4004	0	0	0	0	1.474556	0.1193628	1	15	0.022	1400
471303	89	-5	-3	1.002205	-0.02479007	2.453355	0	11.11	4004	0	0	0	0	1.474556	0.1139316	1	15	0.022	1400
471411	87	1	-2	1.001246	-0.02678569	2.458795	0	11.11	4004	0	0	0	0	1.474556	0.1189825	1	15	0.022	1400
471514	93	-3	-8	0.9937885	-0.02350943	2.467538	0	11.11	4003	0	0	0	0	1.474556	0.1265886	1	15	0.022	1400
471658	90	-5	0	1.00968	-0.02152066	2.481294	0	11.06	4004	0	0	0	0	1.474556	0.1189925	1	15	0.022	1400
471710	86	0	-5	1.007905	-0.02233375	2.482211	0	11.06	4004	0	0	0	0	1.474556	0.1126591	1	15	0.022	1400
471785	90	-8	-1	1.009103	-0.02559063	2.486306	0	11.06	4002	0	0	0	0	1.474556	0.1061732	1	15	0.022	1400
471887	98	-1	-6	1.01028	-0.02396395	2.491932	0	11.06	4003	0	0	0	0	1.474556	0.09257706	1	15	0.022	1400
471996	91	0	-7	1.012756	-0.0311189	2.500369	0	11.06	4003	0	0	0	0	1.474556	0.08530424	1	15	0.022	1400
472139	98	-7	-2	1.016842	-0.02761164	2.513269	0	11.06	4003	0	0	0	0	1.474556	0.09324484	1	15	0.022	1400
472189	92	0	0	1.013973	-0.03313363	2.514369	0	11.06	4003	0	0	0	0	1.474556	0.09894262	1	15	0.022	1400
472311	89	-2	-6	1.008642	-0.03075239	2.525251	0	11.06	4004	0	0	0	0	1.474556	0.101018	1	15	0.022	1400
472393	93	-7	-2	1.01015	-0.0284031	2.530387	0	11.06	4004	0	0	0	0	1.474556	0.09965009	1	15	0.022	1400
472496	93	-4	-6	1.011656	-0.02903145	2.540415	0	11.11	4004	0	0	0	0	1.474556	0.1039207	1	15	0.022	1400
472623	95	-1	-7	1.005614	-0.03433275	2.549035	0	11.11	4002	0	0	0	0	1.474556	0.1173083	1	15	0.022	1400
472779	86	-3	3	1.014132	-0.03907067	2.554476	0	11.11	4002	0	0	0	0	1.474556	0.1235965	1	15	0.022	1400
472817	90	-5	-3	1.016828	-0.03678437	2.557472	0	11.11	4003	0	0	0	0	1.474556	0.1215691	3	15	0.022	1400
472958	97	-5	-9	1.009627	-0.03796999	2.569578	0	11.11	4004	0	0	0	0	1.474556	0.1117555	3	15	0.022	1400
473096	93	3	-5	1.014271	-0.03948429	2.579238	0	11.11	4004	0	0	0	0	1.474556	0.09822437	3	15	0.022	1400
473207	95	-2	1	1.017221	-0.04232465	2.586941	0	11.11	4003	0	0	0	0	1.474556	0.08674601	3	15	0.022	1400
473280	86	-1	0	1.017648	-0.04174745	2.59226	0	11.11	4003	0	0	0	0	1.474556	0.08010931	3	15	0.022	1400
473431	92	-5	-8	1.023485	-0.04080959	2.603387	0	11.11	4003	0	0	0	0	1.474556	0.06398249	3	15	0.022	1400
473514	86	-5	-9	1.031222	-0.04413949	2.606932	0	11.11	4002	0	0	0	0	1.474556	0.05882794	3	15	0.022	1400
473584	88	5	-4	1.028272	-0.04636252	2.61115	0	11.11	4003	-4	0	0	0	1.474556	0.05598285	3	15	0.022	1400
473690	91	-4	-2	1.021353	-0.04876342	2.618671	0	11.11	4004	-6	-1	0	0	1.474556	0.05451074	3	15	0.022	1400
473836	85	-11	27	1.034985	-0.06384304	2.632669	0	11.11	4002	-10	0	0	0	1.474556	0.05687878	3	15	0.022	1400
473913	75	16	29	1.043298	-0.0585999	2.634566	0	11.11	4003	-13	-3	-1	0	1.474556	0.06105822	3	15	0.022	1400
474061	103	-11	-49	1.04155	-0.0890212	2.643186	0	11.11	4006	-10	5	0	0	1.474556	0.06780857	3	15	0.022	1400
474191	95	3	59	1.0616	-0.07090976	2.645756	0	11.11	4002	-10	-2	-1	0	1.474556	0.07818319	3	15	0.022	1400
474218	97	-4	-27	1.056865	-0.06149746	2.647711	0	11.11	4002	-20	6	0	0	1.474556	0.08018633	3	15	0.022	1400
474301	103	20	3	1.067548	-0.05349829	2.653764	0	11.06	4004	0	0	0	0	1.474556	0.08450796	3	15	0.022	1400
474396	110	-24	-28	1.071804	-0.06564157	2.660674	0	11.06	4003	0	0	0	0	1.474556	0.09131371	3	15	0.022	1400
474501	100	16	-60	1.064648	-0.05156725	2.671191	0	11.06	4004	-9	8	0	0	1.474556	0.1057555	3	15	0.022	1400
474633	59	10	-52	1.064232	-0.05524816	2.680913	0	11.06	4002	0	8	0	0	1.474556	0.1239391	3	15	0.022	1400
474706	96	-107	10	1.06174	-0.0342228	2.684647	0	11.06	4002	-15	-29	0	0	1.474556	0.143187	3	15	0.022	1400
474831	57	-64	33	1.056152	-0.02850952	2.701264	0	11.06	4004	0	11	-2	0	1.474556	0.1414681	3	15	0.022	1400
474941	64	-146	32	1.056586	-0.03097424	2.726452	0	11.06	4002	21	-7	-4	0	1.474556	0.1284318	3	15	0.022	1400
475040	167	-16	-104	1.052463	-0.05670309	2.806979	0	11.06	4004	-9	-8	-5	0	1.474556	0.1147664	3	15	0.022	1400
475141	141	55	322	1.11306	-0.05937836	2.904308	0	11.06	4003	-8	-21	-5	0	1.474556	0.1028096	3	15	0.022	1400
475276	140	-64	-258	1.233172	0.1095402	3.018641	0	10.38	4004	43	-1	-8	0	1.474556	0.09003083	3	15	0.022	1400
475334	-751	-628	188	1.073881	0.5276291	2.586186	0	10.38	4003	13	-46	9	0	1.474556	0.09731381	3	15	0.022	1400
475477	-667	3354	1819	-0.03670284	-2.764807	2.156612	0	10.38	4004	-11	-121	-8	0	1.474556	0.1234364	3	15	0.022	1400
475535	-1309	1131	-661	-0.6798727	-4.098856	1.781553	0	10.38	4003	-67	-116	51	0	1.474556	0.16162	3	15	0.022	1400
475627	-987	4542	191	-3.696606	-10.4946	0.03840873	0	10.38	4003	-68	27	63	0	1.474556	0.1944079	3	15	0.022	1400
475801	2000	-1425	-1318	-0.235651	-6.42627	1.782791	0	10.38	4004	-52	50	8	0	1.474556	0.252177	3	15	0.022	1400
475859	1537	1495	639	2.313311	-5.733006	2.748788	0	10.38	4003	-153	-185	-14	0	1.474556	0.2715636	3	15	0.022	1400
475982	3340	1013	-673	6.307773	-8.925021	2.530566	0	10.38	4003	-97	-164	12	0	1.474556	0.2945938	3	15	0.022	1400
476046	2233	2910	1560	8.986584	-10.3612	2.188584	0	10.38	4002	-88	212	31	0	1.474556	0.3215173	3	15	0.022	1400
476216	-508	-4692	-2036	4.131969	-9.109306	2.147104	0	10.77	4003	-41	292	24	0	1.474556	0.4314334	3	15	0.022	1400
476255	-508	-4692	-2036	4.131969	-9.109306	2.147104	0	10.77	4003	67	79	8	0	1.474556	0.4478013	3	15	0.022	1400
476463	-349	-498	1365	-0.6717831	-5.11367	1.683147	0	10.77	4002	81	99	55	0	1.474556	0.70003	3	15	0.022	1400
476613	20	-2331	-1170	-0.4755757	-3.059645	1.6362	0	10.77	4003	61	-221	12	0	1.474556	0.814931	3	15	0.022	1400
476713	-657	895	700	-1.439782	-2.995442	1.797616	0	10.77	4004	5	263	19	0	1.474556	0.8898757	3	15	0.022	1400
476752	468	-1314	-879	-1.749518	-3.413765	2.356066	0	10.77	4002	-12	-195	-2	0	1.474556	0.9173508	3	15	0.022	1400
476847	36	-2076	-692	-1.70057	-2.8375	2.396232	0	10.77	4003	81	-162	0	0	1.474556	0.9173508	3	15	0.022	1400
476959	1687	-457	289	-0.4220503	-0.8502852	2.220765	0	10.77	4004	20	184	22	0	1.474556	1.041191	3	15	0.022	1400
477066	1318	-1087	-314	3.432063	-1.961984	2.364211	0	10.77	4003	8	4	15	0	1.474556	1.10957	3	15	0.022	1400
477163	-94	-1259	-860	3.602442	-1.723822	2.604559	0	10.55	4002	15	-128	0	0	1.474556	1.149216	3	15	0.022	1400
477242	-664	-1423	-145	2.289419	-1.208612	2.379532	0	10.55	4004	-7	-190	8	0	1.474556	1.209021	3	15	0.022	1400
477395	137	-2476	-970	0.3851046	-2.564141	2.089514	0	10.55	4002	6	-232	-6	0	1.474556	1.269429	3	15	0.022	1400
477451	137	-2476	-970	0.3851046	-2.564141	2.089514	0	10.55	4002	5	-266	2	0	1.474556	1.30691	3	15	0.022	1400
477561	334	-473	-1545	0.1665498	-0.280557	2.747441	0	10.55	4002	49	-119	-16	0	1.474556	1.365185	3	15	0.022	1400
477699	1189	-379	342	1.208991	-2.507199	2.593843	0	10.55	4003	-83	-100	3	0	1.474556	1.414517	3	15	0.022	1400
477790	402	-942	701	0.6874779	-2.021053	2.66888	0	10.55	4004	-11	103	12	0	1.474556	1.459694	3	15	0.022	1400
477877	238	-1352	43	0.9085134	-1.152674	2.750718	0	10.55	4003	-57	-37	10	0	1.474556	1.484848	3	15	0.022	1400
478047	111	-744	909	-1.543881	-2.711633	2.246721	0	10.55	4006	-60	36	17	0	1.474556	1.535365	3	15	0.022	1400
478087	111	-744	909	-1.543881	-2.711633	2.246721	0	10.55	4006	-19	141	14	0	1.474556	1.554076	3	15	0.022	1400
478223	-627	593	1044	-1.255755	0.2613043	2.450641	0	10.43	4003	-2	39	6	0	1.474556	1.580914	3	15	0.022	1400
478268	800	506	-479	-1.907391	-2.176528	2.362562	0	10.43	4003	67	-202	1	0	1.474556	1.58247	3	15	0.022	1400
478379	-1978	-3215	-1482	-2.261393	-2.394408	2.685916	0	10.43	4003	25	-75	-32	77	1.501081	1.592093	5	15	0.022	1400
478443	679	-395	-451	-2.172999	-0.717905	3.275012	0	10.43	4004	-26	-192	-24	72	1.495401	1.603521	5	15	0.022	1400
478535	-785	2406	131	-0.006366695	-3.72872	2.351444	0	10.43	4003	11	61	24	88	1.470953	1.607054	5	15	0.022	1400
478681	948	3700	1247	-0.7558208	-9.48103	0.3823987	0	10.43	4002	5	203	63	147	1.409588	1.601488	5	15	0.022	1400
478735	1490	1414	-691	-0.05835402	-10.65981	0.3421157	0	10.43	4003	-35	157	43	83	1.409588	1.601488	5	15	0.022	1400
478980	-274	-3043	-1163	0.9537524	-11.50518	2.355655	0	10.38	4003	-94	-276	21	79	1.375076	1.60571	5	15	0.022	1400
479075	669	-726	-681	0.8966231	-7.356371	2.122416	0	10.38	4002	-39	-82	3	76	1.424607	1.608422	5	15	0.022	1400
479179	940	334	-37	3.770234	-5.904003	2.686503	0	10.38	4003	59	108	-4	145	1.360714	1.616979	5	15	0.022	1400
479286	-546	1781	812	3.340544	-6.764972	2.913265	0	10.38	4004	156	-57	-29	148	1.257155	1.621087	5	15	0.022	1400
479398	-1314	53	749	1.487556	-10.18173	0.9256874	0	10.38	4004	5	-119	55	77	1.237667	1.622843	5	15	0.022	1400
479492	4608	-2684	-770	4.918225	-6.12027	0.9783928	0	10.38	4004	35	-116	29	86	1.207991	1.630093	5	15	0.022	1400
479538	4163	-3537	-1882	7.271431	-4.761756	1.399545	0	10.38	4002	-160	-209	17	80	1.207991	1.630093	5	15	0.022	1400
479646	-2575	1187	67	5.766244	-4.804775	2.309806	0	10.38	4003	86	120	-2	76	1.151894	1.660267	5	15	0.022	1400
479744	-584	527	1501	3.346141	-5.355553	2.559755	0	10.38	4003	-69	67	16	133	1.047655	1.686066	5	15	0.022	1400
479885	838	98	-498	5.447224	-7.11516	2.156362	0	10.66	4004	-89	185	17	105	1.029704	1.748575	5	15	0.022	1400
479949	-1820	-689	-1368	3.994959	-6.949106	2.657121	0	10.66	4004	50	197	11	-170	1.040058	1.924652	5	15	0.022	1400
480095	-39	1869	-231	2.622241	-8.056899	2.859788	0	10.66	4003	-121	-139	5	50	1.094655	1.973387	5	15	0.022	1400
480214	-22	836	-1055	1.876024	-16.13879	1.469046	0	10.66	4003	-40	163	37	50	1.19562	2.102104	5	15	0.022	1400
480258	401	-1834	-1307	1.805069	-14.70691	1.726575	0	10.66	4004	-58	33	26	45	1.178952	2.160882	5	15	0.022	1400
480414	-1362	-1875	-1091	1.595631	-12.70904	1.665508	0	10.66	4003	-128	46	43	47	1.161392	2.371695	5	15	0.022	1400
480491	641	-3456	778	2.288616	-7.642326	1.566644	0	10.66	4003	0	6	3	63	1.045253	2.390627	5	15	0.022	1400
480565	-105	-2576	1081	1.332858	-2.841058	2.316238	0	10.66	4002	-55	98	24	71	1.053837	2.612369	5	15	0.022	1400
480659	-1148	375	-794	0.4528882	-1.637235	2.141434	0	10.66	4003	51	171	25	43	1.067447	2.680897	5	15	0.022	1400
480808	-793	-2101	83	1.335626	-1.717171	2.176623	0	10.83	4003	-3	-122	-2	35	1.036351	3.017615	5	15	0.022	1400
480865	1591	-85	-676	1.568026	-0.650342	3.04046	0	10.83	4004	-94	6	4	27	1.085728	3.071196	5	15	0.022	1400
480979	-605	771	191	3.101523	-3.467994	2.399281	0	10.83	4004	49	-113	10	31	1.144667	3.248347	5	15	0.022	1400
481049	345	-81	829	3.101523	-3.467994	2.399281	0	10.83	4003	46	140	22	26	1.217968	3.298869	5	15	0.022	1400
481204	223	891	798	4.743195	-3.181056	2.805728	0	10.83	4003	-5	150	4	21	1.170131	3.518951	5	15	0.022	1400
481247	223	891	798	4.743195	-3.181056	2.805728	0	10.83	4003	-91	-44	4	17	1.255791	3.597437	5	15	0.022	1400
481396	670	-2923	-630	4.526293	-2.809414	2.98812	0	10.83	4004	19	87	-2	9	1.197026	3.795419	5	15	0.022	1400
481449	-462	-403	85	3.638969	-0.195503	2.737996	0	10.83	4003	-29	136	0	14	1.197026	3.795419	5	15	0.022	1400
481554	383	-1738	-568	2.410302	0.03845981	2.94406	0	10.83	4002	9	-24	1	-13	1.354331	4.058847	5	15	0.022	1400
481661	-306	401	1238	0.8520286	1.690466	2.417965	0	10.83	4002	-8	45	23	-166	1.316962	4.246372	5	15	0.022	1400
481776	-114	-1140	-152	-0.5549015	0.8745324	1.936613	0	10.83	4003	70	-124	19	-17	1.312534	4.313059	5	15	0.022	1400
481900	190	-748	-1002	-0.3269041	2.803708	2.831505	0	10.83	4004	41	-10	-17	-6	1.326325	4.422964	5	15	0.022	1400
481958	346	519	-205	-0.2510054	2.222951	2.918488	0	10.83	4002	7	85	-2	-6	1.330311	4.478798	5	15	0.022	1400
482063	-288	-163	436	-0.7928356	0.8083626	2.871553	0	10.83	4003	17	-19	-4	-5	1.330607	4.531229	5	15	0.022	1400
482179	-162	1184	149	-0.9847375	0.562727	2.781732	0	10.83	4003	-66	82	9	-1	1.278416	4.603763	5	15	0.022	1400
482346	1035	-143	89	-0.3577588	-4.058757	2.886442	0	10.83	4003	-19	-66	-12	-2	1.238704	4.689789	5	15	0.022	1400
482423	-114	-228	-280	-0.2702821	-3.529232	3.012074	0	10.83	4003	-48	28	-6	11	1.236097	4.703807	5	15	0.022	1400
482461	240	311	103	-0.2202526	-3.468032	3.138805	0	10.83	4004	37	-95	-16	10	1.213888	4.714555	5	15	0.022	1400
482587	-879	213	254	-0.3299255	-3.828827	3.301215	0	10.83	4004	2	-84	-18	11	1.285831	4.720446	5	15	0.022	1400
482667	705	2066	206	-0.38629	-6.416548	3.358722	0	10.6	4004	5	-13	-15	19	1.208282	4.709477	5	15	0.022	1400
482837	264	2088	419	-1.275741	-7.401699	3.602637	0	10.6	4003	-54	34	-21	37	1.260712	4.669996	5	15	0.022	1400
482869	264	2088	306	-1.385578	-7.79986	3.541933	0	10.6	4003	-58	84	-16	25	1.260712	4.669996	5	15	0.022	1400
482975	568	687	162	-0.4487666	-9.773186	3.477514	0	10.6	4005	-47	19	-18	38	1.286229	4.6299	5	15	0.022	1400
483088	1261	813	246	-0.04267702	-7.482266	3.359125	0	10.6	4003	11	-188	-23	31	1.307029	4.578628	5	15	0.022	1400
483193	-634	-404	-86	0.8505168	-7.807673	3.708425	0	10.6	4002	39	-101	-29	38	1.329094	4.538486	5	15	0.022	1400
483293	498	-735	-87	0.4454314	-7.465345	3.719188	0	10.6	4003	-12	82	-2	42	1.346829	4.455619	5	15	0.022	1400
483374	-754	-437	985	-0.11451	-7.494142	3.135644	0	10.6	4003	-53	49	10	46	1.329942	4.401651	5	15	0.022	1400
483546	-703	-252	918	-0.6579234	-7.791037	2.383032	0	9.98	4004	-3	133	20	45	1.269426	4.262504	5	15	0.022	1400
483604	356	231	573	-1.195639	-7.40404	2.392162	0	9.98	4002	-47	116	18	47	1.286681	4.231732	5	15	0.022	1400
483692	656	-1601	95	0.02176918	-5.04182	2.640366	0	9.98	4004	41	194	8	47	1.316186	4.197074	5	15	0.022	1400
483750	334	-1747	-263	0.3377253	-3.141963	2.919713	0	9.98	4003	-26	-246	-16	52	1.310769	4.102899	5	15	0.022	1400
483852	443	1115	-867	0.5416109	-4.31255	3.012835	0	9.98	4002	67	48	-28	51	1.305426	4.022051	5	15	0.022	1400
483975	201	-723	-1578	2.123213	-7.913965	1.980457	0	9.98	4003	80	-400	3	52	1.188222	3.959125	5	15	0.022	1400
484041	532	356	1204	1.990954	-7.292521	1.933113	0	9.98	4004	33	227	40	92	1.157558	3.90798	5	15	0.022	1400
484173	31	-1315	-412	1.133564	-7.226317	2.007411	0	9.98	4003	-30	199	26	102	1.096921	3.834051	5	15	0.022	1400
484234	393	-1379	-499	1.407763	-6.73429	2.281309	0	9.98	4004	-111	-146	8	106	1.030292	3.771336	5	15	0.022	1400
484430	610	-606	507	2.640007	-4.380797	1.982687	0	10.66	4003	-62	12	25	63	1.100415	3.650454	5	15	0.022	1400
484480	309	-2415	-406	2.578815	-3.530829	1.924733	0	10.66	4004	37	201	21	67	1.164659	3.614344	5	15	0.022	1400
