time(ms)	gyro_x(deg/s)	gyro_y(deg/s)	gyro_z(deg/s)	orientation_roll(deg)	orientation_pitch(deg)	orientation_yaw(deg)	throttle	battery(V)	loop_time(uS)	pid_output_roll	pid_output_pitch	pid_output_yaw	pid_output_throttle	ultrasonic_alt	baro_alt	flight_mode	p_gain_altitude	i_gain_altitude	d_gain_altitude	compass_heading	latitude	longitude
278029	-4	30	9	0.2016404	0.4276042	1.275427	0	12.19	4004	0	0	0	0	0.02	0.2051059	1	10	0.04	1800	-4.02597	0	0
278138	32	-14	-8	0.1583636	0.3875784	1.272982	0	12.19	4004	0	0	0	0	0.02	0.2179864	1	10	0.04	1800	-4.190765	0	0
278249	7	-65	7	0.1817297	0.3996328	1.259225	0	12.19	4002	0	0	0	0	0.02	0.2273563	1	10	0.04	1800	-4.470093	0	0
278341	-1	-3	3	0.1784763	0.5669557	1.247121	0	12.19	4004	0	0	0	0	0.02	0.2263389	1	10	0.04	1800	-4.051727	0	0
278446	4	18	2	0.1679221	0.5570217	1.244858	0	12.19	4004	0	0	0	0	0.02	0.2258227	1	10	0.04	1800	-3.99527	0	0
278555	10	9	0	0.1699075	0.5764324	1.238132	0	12.14	4002	0	0	0	0	0.02	0.2279961	1	10	0.04	1800	-4.223328	0	0
278651	0	-9	5	0.1735488	0.5456314	1.233975	0	12.14	4002	0	0	0	0	0.02	0.2213324	1	10	0.04	1800	-4.014801	0	0
278759	10	3	1	0.1678803	0.5608718	1.231102	0	12.14	4002	0	0	0	0	0.02	0.2036293	1	10	0.04	1800	-4.2258	0	0
278860	3	-4	4	0.1660066	0.552769	1.226577	0	12.14	4003	0	0	0	0	0.02	0.1878979	1	10	0.04	1800	-4.2211	0	0
278966	3	1	0	0.1628018	0.5620683	1.221686	0	12.14	4004	0	0	0	0	0.02	0.1799281	1	10	0.04	1800	-3.976379	0	0
279073	-1	-6	2	0.1635159	0.5687134	1.216978	0	12.14	4003	0	0	0	0	0.02	0.1863142	1	10	0.04	1800	-3.976379	0	0
279177	3	0	5	0.1644709	0.5761994	1.210803	0	12.14	4003	0	0	0	0	0.02	0.1938127	1	10	0.04	1800	-4.198547	0	0
279276	-5	-2	2	0.1629855	0.5782936	1.205362	0	12.14	4004	0	0	0	0	0.02	0.1974895	1	10	0.04	1800	-4.414185	0	0
279380	-3	2	0	0.1561447	0.580929	1.20151	0	12.14	4002	0	0	0	0	0.02	0.2007322	1	10	0.04	1800	-4.435516	0	0
279485	-5	-1	2	0.1399882	0.5845127	1.194662	0	12.14	4002	0	0	0	0	0.02	0.1947661	1	10	0.04	1800	-4.191833	0	0
279591	-4	0	3	0.1478322	0.5847374	1.193195	0	12.14	4002	0	0	0	0	0.02	0.1889006	1	10	0.04	1800	-4.40506	0	0
279700	-2	0	5	0.1422389	0.5929809	1.185797	0	12.14	4004	0	0	0	0	0.02	0.1844372	1	10	0.04	1800	-4.166962	0	0
279804	-7	-3	0	0.1326921	0.5873989	1.180906	0	12.14	4004	0	0	0	0	0.02	0.1837748	1	10	0.04	1800	-4.180298	0	0
279914	1	-3	6	0.1319724	0.5859296	1.175954	0	12.14	4003	0	0	0	0	0.02	0.1845982	1	10	0.04	1800	-4.146973	0	0
280014	-3	4	3	0.1257076	0.5903535	1.170207	0	12.14	4002	0	0	0	0	0.02	0.1807474	1	10	0.04	1800	-4.155182	0	0
280111	-2	-5	3	0.11849	0.5942152	1.16336	0	12.14	4003	0	0	0	0	0.02	0.1764381	1	10	0.04	1800	-3.934601	0	0
280208	3	0	4	0.1154558	0.5934379	1.161342	0	12.14	4004	0	0	0	0	0.02	0.1765115	1	10	0.04	1800	-4.124512	0	0
280313	0	0	1	0.1097013	0.6025403	1.152232	0	12.14	4002	0	0	0	0	0.02	0.1908994	1	10	0.04	1800	-3.913361	0	0
280419	-6	-2	4	0.1073499	0.6065251	1.146486	0	12.14	4002	0	0	0	0	0.02	0.1950676	1	10	0.04	1800	-4.35672	0	0
280524	-3	-4	2	0.1047784	0.6179792	1.139027	0	12.14	4003	0	0	0	0	0.02	0.2044723	1	10	0.04	1800	-4.124969	0	0
280623	3	0	4	0.107991	0.6148145	1.136581	0	12.14	4004	0	0	0	0	0.02	0.2111863	1	10	0.04	1800	-4.115784	0	0
280725	0	4	0	0.1072172	0.6194298	1.129305	0	12.14	4003	0	0	0	0	0.02	0.2156644	1	10	0.04	1800	-4.113586	0	0
280952	-1	0	3	0.1026451	0.6227658	1.118972	0	12.14	4003	0	0	0	0	0.02	0.203913	1	10	0.04	1800	-3.893463	0	0
281060	-7	0	3	0.09839487	0.6289065	1.111697	0	12.14	4002	0	0	0	0	0.02	0.1949429	1	10	0.04	1800	-3.89212	0	0
281136	-4	-7	1	0.1006623	0.6186517	1.109924	0	12.14	4003	0	0	0	0	0.02	0.1894675	1	10	0.04	1800	-3.886047	0	0
281314	-4	-3	3	0.09227321	0.623435	1.099775	0	12.14	4003	0	0	0	0	0.02	0.1823704	1	10	0.04	1800	-4.096954	0	0
281451	2	-1	0	0.09393656	0.6169636	1.093294	0	12.14	4003	0	0	0	0	0.02	0.1824753	1	10	0.04	1800	-4.101227	0	0
281578	-2	0	1	0.08003984	0.6200078	1.083818	0	12.14	4003	0	0	0	0	0.02	0.1831089	1	10	0.04	1800	-4.083801	0	0
281649	-6	2	3	0.0831815	0.6275002	1.08119	0	12.14	4002	0	0	0	0	0.02	0.1814609	1	10	0.04	1800	-4.282837	0	0
281770	-5	-3	8	0.08263576	0.6264395	1.073119	0	12.14	4003	0	0	0	0	0.02	0.1837372	1	10	0.04	1800	-4.080353	0	0
281932	-4	0	7	0.07480567	0.6250353	1.065293	0	12.14	4004	0	0	0	0	0.02	0.1827375	1	10	0.04	1800	-4.071869	0	0
282012	0	-4	3	0.07891639	0.6203254	1.062174	0	12.14	4004	0	0	0	0	0.02	0.1860688	1	10	0.04	1800	-3.855713	0	0
282071	-1	-1	3	0.08523303	0.6220168	1.059118	0	12.14	4004	0	0	0	0	0.02	0.1935018	1	10	0.04	1800	-4.085785	0	0
282151	-1	-3	6	0.0787098	0.6264423	1.055816	0	12.14	4003	0	0	0	0	0.02	0.1984303	1	10	0.04	1800	-4.312561	0	0
282255	1	4	0	0.07751028	0.6295363	1.048358	0	12.19	4004	0	0	0	0	0.02	0.2021729	1	10	0.04	1800	-4.07724	0	0
282360	-4	0	6	0.07893834	0.6355947	1.046095	0	12.19	4004	0	0	0	0	0.02	0.1967578	1	10	0.04	1800	-4.088684	0	0
282521	-3	-6	3	0.08846255	0.6411576	1.039614	0	12.19	4003	0	0	0	0	0.02	0.1645064	1	10	0.04	1800	-4.103424	0	0
282600	-3	0	5	0.08845167	0.6444483	1.035824	0	12.19	4003	0	0	0	0	0.02	0.1544325	1	10	0.04	1800	-4.323914	0	0
282669	-4	0	2	0.08847789	0.6448833	1.030383	0	12.19	4003	0	0	0	0	0.02	0.1524647	1	10	0.04	1800	-3.884674	0	0
282783	-2	0	2	0.08786622	0.6427574	1.025308	0	12.19	4004	0	0	0	0	0.02	0.1485527	1	10	0.04	1800	-4.087616	0	0
282875	-3	-2	5	0.08531266	0.6370785	1.019317	0	12.19	4002	0	0	0	0	0.02	0.1341089	1	10	0.04	1800	-4.103882	0	0
282975	-5	2	6	0.08379781	0.6340031	1.01467	0	12.19	4003	0	0	0	0	0.02	0.128807	1	10	0.04	1800	-4.098267	0	0
283111	-4	0	3	0.08829691	0.6337346	1.008923	0	12.19	4003	0	0	0	0	0.02	0.1120602	1	10	0.04	1800	-4.091919	0	0
283186	-3	7	2	0.08704033	0.629736	1.00446	0	12.19	4003	0	0	0	0	0.02	0.1004979	1	10	0.04	1800	-4.087677	0	0
283301	-10	0	2	0.08945883	0.6306913	1.000425	0	12.14	4003	0	0	0	0	0.02	0.08837877	1	10	0.04	1800	-4.090271	0	0
283386	6	-1	0	0.08525097	0.6293172	0.9969403	0	12.14	4002	0	0	0	0	0.02	0.07651603	1	10	0.04	1800	-3.865784	0	0
283499	3	-2	0	0.09031629	0.6261597	0.992355	0	12.14	4002	0	0	0	0	0.02	0.07527871	1	10	0.04	1800	-4.108765	0	0
283583	-5	-1	7	0.0949643	0.6184174	0.9870367	0	12.14	4003	0	0	0	0	0.02	0.07827314	1	10	0.04	1800	-3.892181	0	0
283726	4	-1	4	0.101159	0.6171328	0.9817175	0	12.14	4004	0	0	0	0	0.02	0.08010433	1	10	0.04	1800	-4.122437	0	0
283814	5	3	1	0.1020033	0.6053216	0.9771323	0	12.14	4004	0	0	0	0	0.02	0.07466031	1	10	0.04	1800	-3.895477	0	0
283893	1	-3	6	0.1040933	0.6041186	0.9753593	0	12.14	4004	0	0	0	0	0.02	0.07572743	1	10	0.04	1800	-4.114319	0	0
284002	-1	-1	2	0.1098328	0.6035889	0.9691843	0	12.14	4003	0	0	0	0	0.02	0.07783085	1	10	0.04	1800	-4.12793	0	0
284095	0	5	4	0.1205272	0.6077155	0.9630704	0	12.19	4004	0	0	0	0	0.02	0.0790321	1	10	0.04	1800	-4.360931	0	0
284243	-3	1	3	0.1232205	0.6119331	0.9599524	0	12.19	4002	0	0	0	0	0.02	0.07674704	1	10	0.04	1800	-4.156342	0	0
284323	0	2	-2	0.1287397	0.6115448	0.9573844	0	12.19	4004	0	0	0	0	0.02	0.07422794	1	10	0.04	1800	-4.152985	0	0
284396	6	0	0	0.1294194	0.6076245	0.9570787	0	12.19	4005	0	0	0	0	0.02	0.06926279	1	10	0.04	1800	-4.152985	0	0
284511	-3	5	3	0.1296088	0.6064358	0.9534104	0	12.19	4002	0	0	0	0	0.02	0.05669973	1	10	0.04	1800	-4.155579	0	0
284609	-3	-3	3	0.1333881	0.6080597	0.9485195	0	12.19	4004	0	0	0	0	0.02	0.05222263	1	10	0.04	1800	-4.177429	0	0
284716	3	1	3	0.1384151	0.6162131	0.9450963	0	12.19	4002	0	0	0	0	0.02	0.05853887	1	10	0.04	1800	-4.165588	0	0
284814	-2	-3	2	0.1393686	0.6193544	0.942284	0	12.19	4003	0	0	0	0	0.02	0.0747302	1	10	0.04	1800	-4.170868	0	0
284946	-4	4	4	0.1320642	0.6145982	0.9395938	0	12.19	4004	0	0	0	0	0.02	0.09192772	1	10	0.04	1800	-4.148468	0	0
285030	3	0	3	0.1302473	0.6119011	0.9375152	0	12.19	4003	0	0	0	0	0.02	0.09942609	1	10	0.04	1800	-4.378662	0	0
285110	2	3	5	0.1334008	0.6103877	0.9353143	0	12.19	4004	0	0	0	0	0.02	0.09969291	1	10	0.04	1800	-4.158905	0	0
285223	-4	-6	2	0.1257913	0.6084952	0.9315849	0	12.19	4002	0	0	0	0	0.02	0.09614196	1	10	0.04	1800	-4.156372	0	0
285320	1	-3	2	0.1274644	0.6137815	0.9260823	0	12.19	4004	0	0	0	0	0.02	0.1026865	1	10	0.04	1800	-3.932159	0	0
285411	0	-2	0	0.1283214	0.6085325	0.9239424	0	12.19	4004	0	0	0	0	0.02	0.1074501	1	10	0.04	1800	-3.932922	0	0
285525	1	0	3	0.1264126	0.6017875	0.9192961	0	12.19	4003	0	0	0	0	0.02	0.1172303	1	10	0.04	1800	-4.150879	0	0
285624	0	1	1	0.1325662	0.5971818	0.915567	0	12.19	4003	0	0	0	0	0.02	0.1286466	1	10	0.04	1800	-4.1586	0	0
285748	0	-4	3	0.1343595	0.5918236	0.912755	0	12.19	4002	0	0	0	0	0.02	0.1299182	1	10	0.04	1800	-4.179047	0	0
285870	8	1	4	0.1297892	0.5876277	0.9101869	0	12.19	4003	0	0	0	0	0.02	0.1310715	1	10	0.04	1800	-4.138519	0	0
285910	0	-8	-2	0.1295644	0.5892004	0.9098201	0	12.19	4003	0	0	0	0	0.02	0.1312731	1	10	0.04	1800	-4.392426	0	0
286040	1	-2	4	0.1426052	0.5895526	0.9059685	0	12.19	4003	0	0	0	0	0.02	0.1248498	1	10	0.04	1800	-4.191895	0	0
286111	3	-4	1	0.143991	0.5875166	0.9037674	0	12.19	4004	0	0	0	0	0.02	0.1225099	1	10	0.04	1800	-4.362488	0	0
286235	3	-1	3	0.1527176	0.5927178	0.8971643	0	12.19	4002	0	0	0	0	0.02	0.1221222	1	10	0.04	1800	-4.630524	0	0
286383	0	0	0	0.1581233	0.592586	0.8920898	0	12.19	4002	0	0	0	0	0.02	0.1187366	1	10	0.04	1800	-4.418854	0	0
286493	2	2	0	0.1653734	0.5910007	0.8895225	0	12.19	4003	0	0	0	0	0.02	0.1217341	1	10	0.04	1800	-4.208221	0	0
286561	2	0	0	0.163668	0.5914764	0.8867101	0	12.19	4003	0	0	0	0	0.02	0.1232839	1	10	0.04	1800	-4.213257	0	0
286669	2	0	1	0.1741924	0.5896375	0.8821858	0	12.19	4003	0	0	0	0	0.02	0.1271504	1	10	0.04	1800	-4.224121	0	0
286766	6	3	-2	0.175186	0.5887396	0.8797405	0	12.19	4004	0	0	0	0	0.02	0.1272079	1	10	0.04	1800	-4.212952	0	0
286870	-1	-1	3	0.171137	0.5851117	0.8758277	0	12.19	4003	0	0	0	0	0.02	0.1329039	1	10	0.04	1800	-4.220673	0	0
286969	7	-1	5	0.1707772	0.5858973	0.873688	0	12.19	4003	0	0	0	0	0.02	0.1365522	1	10	0.04	1800	-4.224701	0	0
287067	4	-4	4	0.1684358	0.5940157	0.8691638	0	12.19	4004	0	0	0	0	0.02	0.1427474	1	10	0.04	1800	-4.252289	0	0
287164	10	0	4	0.169621	0.594505	0.8659235	0	12.19	4004	0	0	0	0	0.02	0.1497045	1	10	0.04	1800	-4.654205	0	0
287248	0	4	-1	0.1677486	0.5928984	0.8599326	0	12.19	4004	0	0	0	0	0.02	0.1510623	1	10	0.04	1800	-4.432098	0	0
287343	6	1	2	0.1714353	0.5988452	0.8588324	0	12.19	4004	0	0	0	0	0.02	0.1473278	1	10	0.04	1800	-4.43454	0	0
287456	2	-2	7	0.1649353	0.5950081	0.8547972	0	12.19	4004	0	0	0	0	0.02	0.1446034	1	10	0.04	1800	-4.209351	0	0
287608	1	2	2	0.1701749	0.5829289	0.8522897	0	12.19	4002	0	0	0	0	0.02	0.1394758	1	10	0.04	1800	-4.221588	0	0
287841	1	-1	8	0.1685908	0.5798646	0.8414079	0	12.14	4002	0	0	0	0	0.02	0.1319543	1	10	0.04	1800	-4.436401	0	0
287904	0	0	4	0.1679216	0.5792153	0.8361502	0	12.14	4006	0	0	0	0	0.02	0.1307685	1	10	0.04	1800	-4.234283	0	0
287976	3	-3	3	0.1713954	0.5798372	0.8353555	0	12.14	4002	0	0	0	0	0.02	0.1273851	1	10	0.04	1800	-4.419006	0	0
288084	0	0	1	0.1798196	0.5760641	0.8300366	0	12.14	4003	0	0	0	0	0.02	0.1152156	1	10	0.04	1800	-4.236542	0	0
288187	3	4	3	0.178224	0.5770758	0.8278353	0	12.14	4003	0	0	0	0	0.02	0.1091046	1	10	0.04	1800	-4.015747	0	0
288384	8	0	2	0.1752384	0.578544	0.821232	0	12.14	4003	0	0	0	0	0.02	0.09155989	1	10	0.04	1800	-4.245422	0	0
288453	4	-1	4	0.1658963	0.5812288	0.8167693	0	12.14	4003	0	0	0	0	0.02	0.09229933	1	10	0.04	1800	-4.234772	0	0
288508	0	0	0	0.1673842	0.5805655	0.8160355	0	12.14	4004	0	0	0	0	0.02	0.09770728	1	10	0.04	1800	-4.437408	0	0
288579	4	-1	5	0.1688098	0.5788116	0.814079	0	12.14	4004	0	0	0	0	0.02	0.1008679	1	10	0.04	1800	-4.218781	0	0
288734	6	-1	1	0.1661665	0.5749904	0.8102276	0	12.14	4004	0	0	0	0	0.02	0.1087019	1	10	0.04	1800	-4.418518	0	0
288795	-1	0	0	0.1668602	0.5757433	0.808699	0	12.14	4002	0	0	0	0	0.02	0.1101983	1	10	0.04	1800	-4.215637	0	0
288880	1	-2	-1	0.1648448	0.5807349	0.8064371	0	12.14	4003	0	0	0	0	0.02	0.1075311	1	10	0.04	1800	-4.428284	0	0
289006	1	1	3	0.1628801	0.5818748	0.8010569	0	12.14	4003	0	0	0	0	0.02	0.09919165	1	10	0.04	1800	-4.208038	0	0
289093	4	-1	2	0.1589247	0.5829539	0.7998953	0	12.14	4002	0	0	0	0	0.02	0.09963637	1	10	0.04	1800	-4.44223	0	0
289188	1	-1	6	0.1642844	0.5883133	0.7948821	0	12.14	4003	0	0	0	0	0.02	0.1032811	1	10	0.04	1800	-4.424652	0	0
289286	6	-5	0	0.1664713	0.58951	0.7941484	0	12.14	4003	0	0	0	0	0.02	0.1050724	1	10	0.04	1800	-4.424652	0	0
289421	-2	2	0	0.1607403	0.5857107	0.7877291	0	12.14	4003	0	0	0	0	0.02	0.1201894	1	10	0.04	1800	-3.971039	0	0
289491	-1	-5	0	0.1587752	0.588599	0.786751	0	12.14	4003	0	0	0	0	0.02	0.128421	1	10	0.04	1800	-4.422913	0	0
289602	4	1	5	0.1601831	0.5938307	0.7851004	0	12.14	4002	0	0	0	0	0.02	0.1337468	1	10	0.04	1800	-3.998535	0	0
289754	4	-3	4	0.1649432	0.5948958	0.7840608	0	12.19	4004	0	0	0	0	0.02	0.1347066	1	10	0.04	1800	-4.425781	0	0
289786	4	-3	4	0.1649432	0.5948958	0.7840608	0	12.19	4004	0	0	0	0	0.02	0.1347066	1	10	0.04	1800	-4.425781	0	0
289934	4	-3	4	0.1649432	0.5948958	0.7840608	0	12.19	4004	0	0	0	0	0.02	0.1347066	1	10	0.04	1800	-4.425781	0	0
290047	4	-3	4	0.1649432	0.5948958	0.7840608	0	12.19	4004	0	0	0	0	0.02	0.1347066	1	10	0.04	1800	-4.425781	0	0
290167	4	-3	4	0.1649432	0.5948958	0.7840608	0	12.19	4004	0	0	0	0	0.02	0.1347066	1	10	0.04	1800	-4.425781	0	0
290201	4	-3	4	0.1649432	0.5948958	0.7840608	0	12.19	4004	0	0	0	0	0.02	0.1347066	1	10	0.04	1800	-4.425781	0	0
290280	4	-3	4	0.1649432	0.5948958	0.7840608	0	12.19	4004	0	0	0	0	0.02	0.1347066	1	10	0.04	1800	-4.425781	0	0
290420	4	-3	4	0.1649432	0.5948958	0.7840608	0	12.19	4004	0	0	0	0	0.02	0.1347066	1	10	0.04	1800	-4.425781	0	0
290479	4	-3	4	0.1649432	0.5948958	0.7840608	0	12.19	4004	0	0	0	0	0.02	0.1347066	1	10	0.04	1800	-4.425781	0	0
290620	4	-3	4	0.1649432	0.5948958	0.7840608	0	12.14	4004	0	0	0	0	0.02	0.1347066	1	10	0.04	1800	-4.425781	0	0
290685	4	-3	4	0.1649432	0.5948958	0.7840608	0	12.14	4004	0	0	0	0	0.02	0.1347066	1	10	0.04	1800	-4.425781	0	0
290791	4	-3	4	0.1649432	0.5948958	0.7840608	0	12.14	4004	0	0	0	0	0.02	0.1347066	1	10	0.04	1800	-4.425781	0	0
290938	4	-3	4	0.1649432	0.5948958	0.7840608	0	12.14	4004	0	0	0	0	0.02	0.1347066	1	10	0.04	1800	-4.425781	0	0
290990	4	-3	4	0.1649432	0.5948958	0.7840608	0	12.14	4004	0	0	0	0	0.02	0.1347066	1	10	0.04	1800	-4.425781	0	0
291099	4	-3	4	0.1649432	0.5948958	0.7840608	0	12.14	4004	0	0	0	0	0.02	0.1347066	1	10	0.04	1800	-4.425781	0	0
291217	4	-3	4	0.1649432	0.5948958	0.7840608	0	12.14	4004	0	0	0	0	0.02	0.1347066	1	10	0.04	1800	-4.425781	0	0
291298	4	-3	4	0.1649432	0.5948958	0.7840608	0	12.14	4004	0	0	0	0	0.02	0.1347066	1	10	0.04	1800	-4.425781	0	0
291396	4	-3	4	0.1649432	0.5948958	0.7840608	0	12.14	4004	0	0	0	0	0.02	0.1347066	1	10	0.04	1800	-4.425781	0	0
291543	4	-3	4	0.1649432	0.5948958	0.7840608	0	12.14	4004	0	0	0	0	0.02	0.1347066	1	10	0.04	1800	-4.425781	0	0
291623	4	-3	4	0.1649432	0.5948958	0.7840608	0	12.14	4004	0	0	0	0	0.02	0.1347066	1	10	0.04	1800	-4.425781	0	0
291712	4	-3	4	0.1649432	0.5948958	0.7840608	0	12.14	4004	0	0	0	0	0.02	0.1347066	1	10	0.04	1800	-4.425781	0	0
291793	4	-3	4	0.1649432	0.5948958	0.7840608	0	12.14	4004	0	0	0	0	0.02	0.1347066	1	10	0.04	1800	-4.425781	0	0
291892	4	-3	4	0.1649432	0.5948958	0.7840608	0	12.14	4004	0	0	0	0	0.02	0.1347066	1	10	0.04	1800	-4.425781	0	0
291964	4	-3	4	0.1649432	0.5948958	0.7840608	0	12.14	4004	0	0	0	0	0.02	0.1347066	1	10	0.04	1800	-4.425781	0	0
292040	4	-3	4	0.1649432	0.5948958	0.7840608	0	12.14	4004	0	0	0	0	0.02	0.1347066	1	10	0.04	1800	-4.425781	0	0
292090	4	-3	4	0.1649432	0.5948958	0.7840608	0	12.14	4004	0	0	0	0	0.02	0.1347066	1	10	0.04	1800	-4.425781	0	0
292225	4	-3	4	0.1649432	0.5948958	0.7840608	0	12.14	4004	0	0	0	0	0.02	0.1347066	1	10	0.04	1800	-4.425781	0	0
292290	4	-3	4	0.1649432	0.5948958	0.7840608	0	12.19	4004	0	0	0	0	0.02	0.1347066	1	10	0.04	1800	-4.425781	0	0
292392	4	-3	4	0.1649432	0.5948958	0.7840608	0	12.19	4004	0	0	0	0	0.02	0.1347066	1	10	0.04	1800	-4.425781	0	0
292510	4	-3	4	0.1649432	0.5948958	0.7840608	0	12.19	4004	0	0	0	0	0.02	0.1347066	1	10	0.04	1800	-4.425781	0	0
292692	4	-3	4	0.1649432	0.5948958	0.7840608	0	12.19	4004	0	0	0	0	0.02	0.1347066	1	10	0.04	1800	-4.425781	0	0
292721	4	-3	4	0.1649432	0.5948958	0.7840608	0	12.19	4004	0	0	0	0	0.02	0.1347066	1	10	0.04	1800	-4.425781	0	0
292793	4	-3	4	0.1649432	0.5948958	0.7840608	0	12.19	4004	0	0	0	0	0.02	0.1347066	1	10	0.04	1800	-4.425781	0	0
292899	4	-3	4	0.1649432	0.5948958	0.7840608	0	12.19	4004	0	0	0	0	0.02	0.1347066	1	10	0.04	1800	-4.425781	0	0
293014	4	-3	4	0.1649432	0.5948958	0.7840608	0	12.19	4004	0	0	0	0	0.02	0.1347066	1	10	0.04	1800	-4.425781	0	0
293160	4	-3	4	0.1649432	0.5948958	0.7840608	0	12.19	4004	0	0	0	0	0.02	0.1347066	1	10	0.04	1800	-4.425781	0	0
293201	4	-3	4	0.1649432	0.5948958	0.7840608	0	12.19	4004	0	0	0	0	0.02	0.1347066	1	10	0.04	1800	-4.425781	0	0
293295	4	-3	4	0.1649432	0.5948958	0.7840608	0	12.19	4004	0	0	0	0	0.02	0.1347066	1	10	0.04	1800	-4.425781	0	0
293401	4	-3	4	0.1649432	0.5948958	0.7840608	0	12.19	4004	0	0	0	0	0.02	0.1347066	1	10	0.04	1800	-4.425781	0	0
293494	4	-3	4	0.1649432	0.5948958	0.7840608	0	12.19	4004	0	0	0	0	0.02	0.1347066	1	10	0.04	1800	-4.425781	0	0
293600	4	-3	4	0.1649432	0.5948958	0.7840608	0	12.19	4004	0	0	0	0	0.02	0.1347066	1	10	0.04	1800	-4.425781	0	0
293714	4	-3	4	0.1649432	0.5948958	0.7840608	0	12.19	4004	0	0	0	0	0.02	0.1347066	1	10	0.04	1800	-4.425781	0	0
293808	4	-3	4	0.1649432	0.5948958	0.7840608	0	12.19	4004	0	0	0	0	0.02	0.1347066	1	10	0.04	1800	-4.425781	0	0
293954	4	-3	4	0.1649432	0.5948958	0.7840608	0	12.19	4004	0	0	0	0	0.02	0.1347066	1	10	0.04	1800	-4.425781	0	0
294013	4	-3	4	0.1649432	0.5948958	0.7840608	0	12.19	4004	0	0	0	0	0.02	0.1347066	1	10	0.04	1800	-4.425781	0	0
294106	4	-3	4	0.1649432	0.5948958	0.7840608	0	12.19	4004	0	0	0	0	0.02	0.1347066	1	10	0.04	1800	-4.425781	0	0
294315	4	-3	4	0.1649432	0.5948958	0.7840608	0	12.19	4004	0	0	0	0	0.02	0.1347066	1	10	0.04	1800	-4.425781	0	0
294371	4	-3	4	0.1649432	0.5948958	0.7840608	0	12.19	4004	0	0	0	0	0.02	0.1347066	1	10	0.04	1800	-4.425781	0	0
294426	4	-3	4	0.1649432	0.5948958	0.7840608	0	12.19	4004	0	0	0	0	0.02	0.1347066	1	10	0.04	1800	-4.425781	0	0
294497	4	-3	4	0.1649432	0.5948958	0.7840608	0	12.19	4004	0	0	0	0	0.02	0.1347066	1	10	0.04	1800	-4.425781	0	0
294596	4	-3	4	0.1649432	0.5948958	0.7840608	0	12.19	4004	0	0	0	0	0.02	0.1347066	1	10	0.04	1800	-4.425781	0	0
294730	4	-3	4	0.1649432	0.5948958	0.7840608	0	12.19	4004	0	0	0	0	0.02	0.1347066	1	10	0.04	1800	-4.425781	0	0
294822	4	-3	4	0.1649432	0.5948958	0.7840608	0	12.19	4004	0	0	0	0	0.02	0.1347066	1	10	0.04	1800	-4.425781	0	0
294941	4	-3	4	0.1649432	0.5948958	0.7840608	0	12.19	4004	0	0	0	0	0.02	0.1347066	1	10	0.04	1800	-4.425781	0	0
295015	4	-3	4	0.1649432	0.5948958	0.7840608	0	12.19	4004	0	0	0	0	0.02	0.1347066	1	10	0.04	1800	-4.425781	0	0
295137	4	-3	4	0.1649432	0.5948958	0.7840608	0	12.19	4004	0	0	0	0	0.02	0.1347066	1	10	0.04	1800	-4.425781	0	0
295254	4	-3	4	0.1649432	0.5948958	0.7840608	0	12.19	4004	0	0	0	0	0.02	0.1347066	1	10	0.04	1800	-4.425781	0	0
295326	4	-3	4	0.1649432	0.5948958	0.7840608	0	12.19	4004	0	0	0	0	0.02	0.1347066	1	10	0.04	1800	-4.425781	0	0
295375	4	-3	4	0.1649432	0.5948958	0.7840608	0	12.19	4004	0	0	0	0	0.02	0.1347066	1	10	0.04	1800	-4.425781	0	0
295423	4	-3	4	0.1649432	0.5948958	0.7840608	0	12.19	4004	0	0	0	0	0.02	0.1347066	1	10	0.04	1800	-4.425781	0	0
295480	4	-3	4	0.1649432	0.5948958	0.7840608	0	12.19	4004	0	0	0	0	0.02	0.1347066	1	10	0.04	1800	-4.425781	0	0
295573	4	-3	4	0.1649432	0.5948958	0.7840608	0	12.19	4004	0	0	0	0	0.02	0.1347066	1	10	0.04	1800	-4.425781	0	0
295702	4	-3	4	0.1649432	0.5948958	0.7840608	0	12.19	4004	0	0	0	0	0.02	0.1347066	1	10	0.04	1800	-4.425781	0	0
295768	4	-3	4	0.1649432	0.5948958	0.7840608	0	12.19	4004	0	0	0	0	0.02	0.1347066	1	10	0.04	1800	-4.425781	0	0
295859	4	-3	4	0.1649432	0.5948958	0.7840608	0	12.19	4004	0	0	0	0	0.02	0.1347066	1	10	0.04	1800	-4.425781	0	0
295958	4	-3	4	0.1649432	0.5948958	0.7840608	0	12.19	4004	0	0	0	0	0.02	0.1347066	1	10	0.04	1800	-4.425781	0	0
296093	4	-3	4	0.1649432	0.5948958	0.7840608	0	12.19	4004	0	0	0	0	0.02	0.1347066	1	10	0.04	1800	-4.425781	0	0
296150	4	-3	4	0.1649432	0.5948958	0.7840608	0	12.19	4004	0	0	0	0	0.02	0.1347066	1	10	0.04	1800	-4.425781	0	0
296297	4	-3	4	0.1649432	0.5948958	0.7840608	0	12.19	4004	0	0	0	0	0.02	0.1347066	1	10	0.04	1800	-4.425781	0	0
296432	4	-3	4	0.1649432	0.5948958	0.7840608	0	12.19	4004	0	0	0	0	0.02	0.1347066	1	10	0.04	1800	-4.425781	0	0
296462	4	-3	4	0.1649432	0.5948958	0.7840608	0	12.19	4004	0	0	0	0	0.02	0.1347066	1	10	0.04	1800	-4.425781	0	0
296534	4	-3	4	0.1649432	0.5948958	0.7840608	0	12.19	4004	0	0	0	0	0.02	0.1347066	1	10	0.04	1800	-4.425781	0	0
296638	4	-3	4	0.1649432	0.5948958	0.7840608	0	12.19	4004	0	0	0	0	0.02	0.1347066	1	10	0.04	1800	-4.425781	0	0
296742	4	-3	4	0.1649432	0.5948958	0.7840608	0	12.14	4004	0	0	0	0	0.02	0.1347066	1	10	0.04	1800	-4.425781	0	0
296893	4	-3	4	0.1649432	0.5948958	0.7840608	0	12.14	4004	0	0	0	0	0.02	0.1347066	1	10	0.04	1800	-4.425781	0	0
296948	4	-3	4	0.1649432	0.5948958	0.7840608	0	12.14	4004	0	0	0	0	0.02	0.1347066	1	10	0.04	1800	-4.425781	0	0
297041	4	-3	4	0.1649432	0.5948958	0.7840608	0	12.14	4004	0	0	0	0	0.02	0.1347066	1	10	0.04	1800	-4.425781	0	0
297143	4	-3	4	0.1649432	0.5948958	0.7840608	0	12.14	4004	0	0	0	0	0.02	0.1347066	1	10	0.04	1800	-4.425781	0	0
297236	4	-3	4	0.1649432	0.5948958	0.7840608	0	12.14	4004	0	0	0	0	0.02	0.1347066	1	10	0.04	1800	-4.425781	0	0
297386	4	-3	4	0.1649432	0.5948958	0.7840608	0	12.14	4004	0	0	0	0	0.02	0.1347066	1	10	0.04	1800	-4.425781	0	0
297448	4	-3	4	0.1649432	0.5948958	0.7840608	0	12.14	4004	0	0	0	0	0.02	0.1347066	1	10	0.04	1800	-4.425781	0	0
297544	4	-3	4	0.1649432	0.5948958	0.7840608	0	12.14	4004	0	0	0	0	0.02	0.1347066	1	10	0.04	1800	-4.425781	0	0
297645	4	-3	4	0.1649432	0.5948958	0.7840608	0	12.19	4004	0	0	0	0	0.02	0.1330951	1	10	0.04	1800	-4.425781	0	0
297813	3	-5	-1	1.110252	-0.3364585	0.005074381	0	12.19	4003	0	0	0	0	0.02	0.06364103	1	10	0.04	1800	-6.013062	0	0
297881	0	-1	2	1.0185	-0.3100741	0.006235694	0	12.19	4003	0	0	0	0	0.02	0.05046476	1	10	0.04	1800	-5.572449	0	0
297977	4	0	-1	0.8559994	-0.255277	0.006113343	0	12.19	4003	0	0	0	0	0.02	0.03179463	1	10	0.04	1800	-5.720978	0	0
298079	-2	0	1	0.7812697	-0.2327219	0.007458092	0	12.19	4004	0	0	0	0	0.02	0.008062697	1	10	0.04	1800	-5.36557	0	0
298160	0	-1	0	0.6876832	-0.2001205	0.006113129	0	12.19	4003	0	0	0	0	0.02	-2.105932E-05	1	10	0.04	1800	-5.159943	0	0
298262	7	-3	-8	0.6042973	-0.172472	0.009231327	0	12.19	4003	0	0	0	0	0.02	-0.01475506	1	10	0.04	1800	-5.471771	0	0
298349	8	-2	1	0.5303736	-0.1529914	0.01143202	0	12.19	4004	0	0	0	0	0.02	-0.02072001	1	10	0.04	1800	-4.86969	0	0
298549	3	0	-4	0.4067711	-0.1201254	0.01509963	0	12.19	4002	0	0	0	0	0.02	-0.03159693	1	10	0.04	1800	-4.942505	0	0
298609	6	1	-5	0.3897468	-0.1156015	0.01546644	0	12.19	4004	0	0	0	0	0.02	-0.03113128	1	10	0.04	1800	-4.663818	0	0
298671	4	-2	-1	0.3619402	-0.1049004	0.01650568	0	12.19	4003	0	0	0	0	0.02	-0.02814234	1	10	0.04	1800	-4.834137	0	0
298739	8	0	0	0.3196415	-0.09523829	0.01699449	0	12.19	4002	0	0	0	0	0.02	-0.02588238	1	10	0.04	1800	-4.568665	0	0
298884	5	-5	-2	0.2706503	-0.07209747	0.01864544	0	12.19	4003	0	0	0	0	0.02	-0.01299364	1	10	0.04	1800	-4.438751	0	0
298945	1	-4	0	0.2608956	-0.06955871	0.01956243	0	12.19	4003	0	0	0	0	0.02	-0.0006921981	1	10	0.04	1800	-4.438751	0	0
299046	8	3	-3	0.2302952	-0.06348833	0.02176323	0	12.19	4003	0	0	0	0	0.02	0.004957924	1	10	0.04	1800	-4.623932	0	0
299156	7	0	0	0.2052761	-0.05261515	0.02353602	0	12.19	4003	0	0	0	0	0.02	0.009213268	1	10	0.04	1800	-4.357513	0	0
299362	6	1	0	0.1677781	-0.03696439	0.02604248	0	12.19	4004	0	0	0	0	0.02	0.02074221	1	10	0.04	1800	-4.51355	0	0
299480	-3	-2	-2	0.1534089	-0.03340806	0.02879355	0	12.19	4002	0	0	0	0	0.02	0.02698742	1	10	0.04	1800	-4.265625	0	0
299552	9	2	0	0.1472154	-0.02781883	0.03087202	0	12.19	4004	0	0	0	0	0.02	0.02378001	1	10	0.04	1800	-4.255096	0	0
299704	7	0	-2	0.1271419	-0.03014996	0.03441775	0	12.19	4003	0	0	0	0	0.02	0.01071856	1	10	0.04	1800	-4.230621	0	0
299783	5	-4	-5	0.1237895	-0.02275821	0.03747458	0	12.19	4004	0	0	0	0	0.02	0.005772108	1	10	0.04	1800	-4.218475	0	0
299826	7	1	-4	0.1225844	-0.01934344	0.03863609	0	12.19	4004	0	0	0	0	0.02	0.004044003	1	10	0.04	1800	-4.217865	0	0
299928	4	-2	-6	0.1096692	-0.009724067	0.04089823	0	12.19	4003	0	0	0	0	0.02	-0.001957923	1	10	0.04	1800	-3.975311	0	0
300059	6	0	0	0.1004532	-0.007804029	0.04389384	0	12.19	4002	0	0	0	0	0.02	-0.02066378	1	10	0.04	1800	-4.186066	0	0
300113	0	1	-3	0.09022958	0.0002744918	0.04523902	0	12.19	4003	0	0	0	0	0.02	-0.02158202	1	10	0.04	1800	-4.190399	0	0
300253	11	0	0	0.07313441	0.0005799491	0.05012982	0	12.19	4002	0	0	0	0	0.02	-0.02395365	1	10	0.04	1800	-3.904114	0	0
300335	2	1	-5	0.07030668	-0.002123389	0.05208623	0	12.19	4003	0	0	0	0	0.02	-0.02215516	1	10	0.04	1800	-4.358765	0	0
300428	8	0	-2	0.06535579	-0.01206244	0.05288073	0	12.19	4004	0	0	0	0	0.02	-0.01886741	1	10	0.04	1800	-4.333099	0	0
300548	3	2	-1	0.0665568	-0.01276955	0.05416458	0	12.19	4004	0	0	0	0	0.02	-0.02466017	1	10	0.04	1800	-4.125122	0	0
300595	7	-3	-2	0.06359014	-0.0122788	0.05538735	0	12.19	4004	0	0	0	0	0.02	-0.02466487	1	10	0.04	1800	-4.125122	0	0
300738	1	1	0	0.05951794	-0.01727603	0.05783331	0	12.19	4002	0	0	0	0	0.02	-0.04057487	1	10	0.04	1800	-4.117096	0	0
300833	3	-1	-1	0.05451508	-0.01848708	0.05930055	0	12.19	4004	0	0	0	0	0.02	-0.05120742	1	10	0.04	1800	-3.88736	0	0
300896	3	-3	-1	0.04659126	-0.01366212	0.06052364	0	12.19	4003	0	0	0	0	0.02	-0.05438142	1	10	0.04	1800	-3.88736	0	0
300989	6	-5	-3	0.0460964	-0.009227204	0.06443634	0	12.19	4004	0	0	0	0	0.02	-0.05612495	1	10	0.04	1800	-4.335815	0	0
301137	4	-1	0	0.05771816	-0.002235798	0.06620927	0	12.19	4003	0	0	0	0	0.02	-0.06173076	1	10	0.04	1800	-4.095337	0	0
301249	2	0	-1	0.05168775	0.001263995	0.06883818	0	12.19	4004	0	0	0	0	0.02	-0.07210426	1	10	0.04	1800	-4.106445	0	0
301303	4	0	-2	0.05358813	0.001536415	0.06975505	0	12.19	4002	0	0	0	0	0.02	-0.07259091	1	10	0.04	1800	-4.106445	0	0
301393	0	-3	1	0.06069618	-0.007945773	0.07226165	0	12.19	4003	0	0	0	0	0.02	-0.07581764	1	10	0.04	1800	-4.119049	0	0
301487	5	-1	-3	0.0656747	-0.007071829	0.07342336	0	12.19	4004	0	0	0	0	0.02	-0.07768852	1	10	0.04	1800	-4.327942	0	0
301649	4	0	-8	0.06749927	-0.0004763783	0.07861982	0	12.19	4004	0	0	0	0	0.02	-0.07891674	1	10	0.04	1800	-4.347748	0	0
301773	5	0	0	0.06482339	-0.005071754	0.08161555	0	12.19	4003	0	0	0	0	0.02	-0.08330108	1	10	0.04	1800	-4.122162	0	0
301832	5	1	-2	0.06332988	-0.004358034	0.08448883	0	12.19	4004	0	0	0	0	0.02	-0.08489941	1	10	0.04	1800	-4.344421	0	0
301885	9	0	1	0.06535652	0.001813539	0.08467218	0	12.19	4002	0	0	0	0	0.02	-0.08661021	1	10	0.04	1800	-4.344421	0	0
301968	0	2	-3	0.06016526	0.005399762	0.08620048	0	12.19	4003	0	0	0	0	0.02	-0.087737	1	10	0.04	1800	-4.359497	0	0
302136	7	0	-3	0.05911805	0.002682616	0.09207004	0	12.19	4004	0	0	0	0	0.02	-0.0802457	1	10	0.04	1800	-4.109283	0	0
302236	10	-3	-4	0.05586848	-0.001087825	0.09592177	0	12.19	4003	0	0	0	0	0.02	-0.07547703	1	10	0.04	1800	-4.111115	0	0
302288	1	-3	0	0.05810663	-0.004078173	0.09671642	0	12.19	4003	0	0	0	0	0.02	-0.07444488	1	10	0.04	1800	-4.332031	0	0
302401	6	3	-3	0.06013709	-0.01045762	0.09995674	0	12.19	4003	0	0	0	0	0.02	-0.07461309	1	10	0.04	1800	-4.114868	0	0
302464	6	4	-2	0.06241675	-0.01138515	0.100079	0	12.19	4004	0	0	0	0	0.02	-0.07047962	1	10	0.04	1800	-4.114868	0	0
302573	0	-2	0	0.06419495	-0.01281506	0.1026471	0	12.19	4003	0	0	0	0	0.02	-0.05883317	1	10	0.04	1800	-4.123871	0	0
302749	5	-1	-4	0.05658711	-0.014002	0.105887	0	12.19	4002	0	0	0	0	0.02	-0.05151682	1	10	0.04	1800	-4.34317	0	0
302806	11	3	0	0.06137739	-0.01417387	0.1074765	0	12.19	4004	0	0	0	0	0.02	-0.05108011	1	10	0.04	1800	-4.127594	0	0
302871	5	0	-3	0.0607976	-0.01305364	0.1105944	0	12.19	4003	0	0	0	0	0.02	-0.05382852	1	10	0.04	1800	-4.118652	0	0
302975	6	0	-4	0.05961944	-0.01640948	0.1124285	0	12.19	4002	0	0	0	0	0.02	-0.06133207	1	10	0.04	1800	-4.116394	0	0
303088	4	-2	0	0.0576364	-0.01382831	0.1147517	0	12.19	4003	0	0	0	0	0.02	-0.06521691	1	10	0.04	1800	-4.117188	0	0
303256	11	0	0	0.06050361	-0.006944328	0.1216594	0	12.19	4003	0	0	0	0	0.02	-0.06798007	1	10	0.04	1800	-4.114624	0	0
303306	6	-2	0	0.05866248	-0.003804028	0.123371	0	12.19	4002	0	0	0	0	0.02	-0.06859215	1	10	0.04	1800	-4.098389	0	0
303351	0	0	2	0.05866248	-0.003804028	0.123371	0	12.19	4003	0	0	0	0	0.02	-0.076558	1	10	0.04	1800	-4.098389	0	0
303482	5	-3	2	0.05617138	-0.004366535	0.1294847	0	12.19	4003	0	0	0	0	0.02	-0.09686696	1	10	0.04	1800	-4.089478	0	0
303602	5	0	-2	0.05642	-0.008766826	0.134253	0	12.19	4004	0	0	0	0	0.02	-0.1404075	1	10	0.04	1800	-4.312195	0	0
303728	6	3	0	0.05493163	-0.01489692	0.1346809	0	12.19	4003	0	0	0	0	0.02	-0.1539081	1	10	0.04	1800	-4.108582	0	0
303825	0	-6	-4	0.05728357	-0.02194935	0.1363314	0	12.19	4003	0	0	0	0	0.02	-0.1573747	1	10	0.04	1800	-4.354218	0	0
303897	9	0	2	0.05738739	-0.02732397	0.1370649	0	12.14	4004	0	0	0	0	0.02	-0.1519268	1	10	0.04	1800	-4.337708	0	0
303948	6	-1	-1	0.05927311	-0.0269874	0.1368205	0	12.14	4002	0	0	0	0	0.02	-0.1451445	1	10	0.04	1800	-4.337708	0	0
304046	10	-1	0	0.05657011	-0.02594897	0.1381653	0	12.14	4004	0	0	0	0	0.02	-0.1401625	1	10	0.04	1800	-4.11673	0	0
304145	-3	2	-3	0.05892207	-0.02618303	0.139755	0	12.14	4004	0	0	0	0	0.02	-0.1261692	1	10	0.04	1800	-4.115417	0	0
304287	10	0	-4	0.06001439	-0.02472773	0.1417725	0	12.14	4003	0	0	0	0	0.02	-0.1148303	1	10	0.04	1800	-4.118378	0	0
304390	4	0	0	0.06009382	-0.0238974	0.1425063	0	12.14	4004	0	0	0	0	0.02	-0.104116	1	10	0.04	1800	-4.136444	0	0
304451	4	4	-5	0.06977104	-0.02500239	0.1456855	0	12.14	4004	0	0	0	0	0.02	-0.1009129	1	10	0.04	1800	-4.130768	0	0
304545	6	10	0	0.07337263	-0.0298197	0.1463577	0	12.14	4004	0	0	0	0	0.02	-0.1002833	1	10	0.04	1800	-4.379639	0	0
304745	6	0	0	0.071156	-0.02972414	0.1479471	0	12.14	4003	0	0	0	0	0.02	-0.1117111	1	10	0.04	1800	-3.925018	0	0
304800	0	0	-4	0.07179759	-0.03196943	0.14972	0	12.14	4003	0	0	0	0	0.02	-0.1173579	1	10	0.04	1800	-4.153931	0	0
304855	7	-3	-2	0.06812786	-0.02716968	0.1523488	0	12.19	4002	0	0	0	0	0.02	-0.1219048	1	10	0.04	1800	-4.376678	0	0
304949	8	-2	0	0.07007065	-0.02168782	0.1528992	0	12.19	4002	0	0	0	0	0.02	-0.1298029	1	10	0.04	1800	-4.135071	0	0
305052	-3	-6	4	0.06454939	-0.02564372	0.1527157	0	12.19	4002	0	0	0	0	0.02	-0.1323873	1	10	0.04	1800	-4.111572	0	0
305147	7	-6	4	0.06610198	-0.02342641	0.153816	0	12.19	4002	0	0	0	0	0.02	-0.1264157	1	10	0.04	1800	-3.918304	0	0
305251	6	0	-2	0.06926046	-0.02349599	0.1574232	0	12.19	4004	0	0	0	0	0.02	-0.1220719	1	10	0.04	1800	-4.111328	0	0
305337	8	-2	6	0.0651576	-0.01874659	0.1579121	0	12.19	4004	0	0	0	0	0.02	-0.1181907	1	10	0.04	1800	-4.135071	0	0
305440	-1	0	-2	0.06284168	-0.02239785	0.1598073	0	12.19	4002	0	0	0	0	0.02	-0.1183284	1	10	0.04	1800	-4.359955	0	0
305549	6	1	1	0.06268964	-0.0208183	0.1598073	0	12.19	4004	0	0	0	0	0.02	-0.1185113	1	10	0.04	1800	-4.137207	0	0
305641	5	4	-3	0.06369738	-0.0247388	0.1607245	0	12.19	4002	0	0	0	0	0.02	-0.1189775	1	10	0.04	1800	-4.134949	0	0
305761	8	-6	-4	0.070504	-0.01883977	0.1639648	0	12.19	4004	0	0	0	0	0.02	-0.1167052	1	10	0.04	1800	-4.353882	0	0
305837	2	-2	-1	0.06995562	-0.01583885	0.1658599	0	12.19	4004	0	0	0	0	0.02	-0.1151835	1	10	0.04	1800	-4.353882	0	0
305936	7	-2	-1	0.06851292	-0.0195138	0.1683052	0	12.19	4004	0	0	0	0	0.02	-0.1172634	1	10	0.04	1800	-4.369446	0	0
306130	8	0	0	0.07334302	-0.01786016	0.1683665	0	12.19	4004	0	0	0	0	0.02	-0.1224494	1	10	0.04	1800	-3.910522	0	0
306151	6	2	-5	0.07172944	-0.0159849	0.1696501	0	12.19	4002	0	0	0	0	0.02	-0.1224494	1	10	0.04	1800	-3.910522	0	0
306235	4	-3	0	0.07411731	-0.01729471	0.1702002	0	12.19	4004	0	0	0	0	0.02	-0.1248628	1	10	0.04	1800	-4.118622	0	0
306344	1	-3	-1	0.07554656	-0.01633728	0.1731956	0	12.19	4002	0	0	0	0	0.02	-0.1287722	1	10	0.04	1800	-3.930695	0	0
306444	5	-1	0	0.07563294	-0.01415914	0.1746017	0	12.19	4003	0	0	0	0	0.02	-0.121592	1	10	0.04	1800	-4.143158	0	0
306552	5	1	0	0.0715823	-0.01081709	0.176986	0	12.19	4003	0	0	0	0	0.02	-0.1135013	1	10	0.04	1800	-4.117371	0	0
306694	8	3	-1	0.07360766	-0.01360635	0.1786367	0	12.19	4004	0	0	0	0	0.02	-0.1023232	1	10	0.04	1800	-4.347137	0	0
306759	9	-3	-2	0.07448162	-0.01212703	0.1782086	0	12.19	4004	0	0	0	0	0.02	-0.09910762	1	10	0.04	1800	-3.911255	0	0
306852	0	0	0	0.08023997	-0.008367873	0.1808985	0	12.19	4004	0	0	0	0	0.02	-0.09531096	1	10	0.04	1800	-4.141388	0	0
307040	3	-2	-3	0.0840044	-0.008477543	0.1842611	0	12.19	4004	0	0	0	0	0.02	-0.09274351	1	10	0.04	1800	-4.15506	0	0
307073	4	-6	-3	0.08738127	-0.008540863	0.184628	0	12.19	4003	0	0	0	0	0.02	-0.09271059	1	10	0.04	1800	-4.15506	0	0
307220	0	2	2	0.08061119	-0.01086039	0.1885406	0	12.19	4003	0	0	0	0	0.02	-0.09295563	1	10	0.04	1800	-4.152802	0	0
307265	9	2	1	0.08447046	-0.009775992	0.1892743	0	12.19	4004	0	0	0	0	0.02	-0.09104985	1	10	0.04	1800	-4.170074	0	0
307364	5	3	1	0.08669507	-0.01048763	0.1911085	0	12.19	4003	0	0	0	0	0.02	-0.08495171	1	10	0.04	1800	-4.172211	0	0
307546	11	1	0	0.08812113	-0.008151905	0.1945321	0	12.19	4003	0	0	0	0	0.02	-0.06701234	1	10	0.04	1800	-4.143433	0	0
307580	9	2	-3	0.08757766	-0.00833177	0.1956937	0	12.19	4003	0	0	0	0	0.02	-0.06798945	1	10	0.04	1800	-4.143433	0	0
307671	4	-3	0	0.08540245	-0.002379876	0.1999121	0	12.19	4003	0	0	0	0	0.02	-0.06733269	1	10	0.04	1800	-4.155426	0	0
307766	3	1	2	0.09203277	-0.006677816	0.2024193	0	12.19	4003	0	0	0	0	0.02	-0.06782686	1	10	0.04	1800	-4.403046	0	0
307903	5	3	-2	0.09078411	-0.006539301	0.2047426	0	12.19	4004	0	0	0	0	0.02	-0.06354839	1	10	0.04	1800	-4.147522	0	0
307965	5	1	-1	0.08580598	-0.00524068	0.2058432	0	12.19	4003	0	0	0	0	0.02	-0.06504099	1	10	0.04	1800	-4.158112	0	0
308092	12	2	-2	0.09099732	-0.006677703	0.2090833	0	12.19	4004	0	0	0	0	0.02	-0.06646963	1	10	0.04	1800	-4.158783	0	0
308174	9	-3	0	0.09066051	-0.005983875	0.2101227	0	12.19	4004	0	0	0	0	0.02	-0.07017742	1	10	0.04	1800	-4.163574	0	0
308256	11	1	2	0.08532788	-0.008355187	0.2122013	0	12.19	4004	0	0	0	0	0.02	-0.07583324	1	10	0.04	1800	-4.139252	0	0
