time(ms)	gyro_x(deg/s)	gyro_y(deg/s)	gyro_z(deg/s)	orientation_roll(deg)	orientation_pitch(deg)	orientation_yaw(deg)	throttle	battery(V)	loop_time(uS)	pid_output_roll	pid_output_pitch	pid_output_yaw	pid_output_throttle	ultrasonic_alt	baro_alt	flight_mode	p_gain_altitude	i_gain_altitude	d_gain_altitude	compass_heading	latitude	longitude
123680	-4	-4	-2	0.06433361	-0.1652486	455.1506	0	12.25	4003	0	0	0	0	0.6904588	0.2243238	1	10	0.04	1800	-4.055023	40.92395	-91.39362
123784	2	-2	0	0.06498907	-0.1585829	455.1474	0	12.25	4003	0	0	0	0	0.6904588	0.2235975	1	10	0.04	1800	-3.856171	40.92395	-91.39362
123950	-3	-1	10	0.06610378	-0.1500113	455.1396	0	12.25	4003	0	0	0	0	0.6904588	0.220507	1	10	0.04	1800	-3.843903	40.92395	-91.39362
124013	-3	-1	10	0.06610378	-0.1500113	455.1396	0	12.25	4003	0	0	0	0	0.6904588	0.2208363	1	10	0.04	1800	-3.843903	40.92395	-91.39362
124100	3	-5	1	0.05024395	-0.1483104	455.1274	0	12.25	4002	0	0	0	0	0.6904588	0.2205611	1	10	0.04	1800	-4.070587	40.92395	-91.39362
124263	-1	-4	2	0.04905456	-0.1485949	455.1177	0	12.25	4002	0	0	0	0	0.6904588	0.2106598	1	10	0.04	1800	-3.850677	40.92395	-91.39363
124346	3	0	7	0.04456303	-0.1516309	455.109	0	12.25	4002	0	0	0	0	0.6904588	0.209253	1	10	0.04	1800	-3.811462	40.92395	-91.39363
124433	0	-2	2	0.04377131	-0.1432542	455.1061	0	12.25	4004	0	0	0	0	0.6904588	0.2058082	1	10	0.04	1800	-3.823303	40.92395	-91.39363
124526	-3	4	2	0.03943578	-0.1380525	455.1002	0	12.25	4003	0	0	0	0	0.6904588	0.20437	1	10	0.04	1800	-3.80127	40.92395	-91.39363
124603	0	-1	2	0.03332625	-0.1464753	455.0934	0	12.25	4003	0	0	0	0	0.6904588	0.1938788	1	10	0.04	1800	-3.576141	40.92395	-91.39363
124704	-1	-3	7	0.03106529	-0.1456504	455.089	0	12.25	4002	0	0	0	0	0.6904588	0.1838861	1	10	0.04	1800	-3.807098	40.92395	-91.39363
124828	-3	-2	1	0.02154641	-0.1455822	455.0792	0	12.25	4004	0	0	0	0	0.6904588	0.1697008	1	10	0.04	1800	-3.780914	40.92395	-91.39363
124958	-3	0	6	0.02209885	-0.1495549	455.0724	0	12.25	4002	0	0	0	0	0.6904588	0.1574225	1	10	0.04	1800	-3.77533	40.92395	-91.39363
125048	-2	-1	-1	0.0216199	-0.150804	455.0688	0	12.25	4003	0	0	0	0	0.6904588	0.1455529	1	10	0.04	1800	-3.778748	40.92395	-91.39363
125196	-2	-2	5	0.015726	-0.139017	455.0575	0	12.25	4003	0	0	0	0	0.6904588	0.1336362	1	10	0.04	1800	-3.574463	40.92395	-91.39363
125259	-6	-4	6	0.02146356	-0.1409574	455.0531	0	12.25	4003	0	0	0	0	0.6904588	0.1357342	1	10	0.04	1800	-3.574463	40.92395	-91.39363
125433	0	4	3	0.007093836	-0.1432677	455.0384	0	12.25	4003	0	0	0	0	0.6904588	0.1451646	1	10	0.04	1800	-3.992065	40.92395	-91.39363
125641	-5	0	1	0.00426246	-0.14275	455.0226	0	12.25	4003	0	0	0	0	0.6904588	0.1558276	1	10	0.04	1800	-3.768646	40.92395	-91.39363
125758	-3	-2	5	0.009432971	-0.1414562	455.0128	0	12.25	4003	0	0	0	0	0.6904588	0.1675684	1	10	0.04	1800	-3.991547	40.92395	-91.39363
125799	-4	0	10	0.004741078	-0.1447905	455.006	0	12.25	4003	0	0	0	0	0.6904588	0.1736045	1	10	0.04	1800	-3.529205	40.92395	-91.39363
125911	0	-2	12	0.007515442	-0.1377926	454.9984	0	12.25	4004	0	0	0	0	0.6904588	0.1954543	1	10	0.04	1800	-3.754883	40.92395	-91.39363
126038	-1	-7	3	0.01151122	-0.1376712	454.988	0	12.25	4002	0	0	0	0	0.6904588	0.2120343	1	10	0.04	1800	-3.76886	40.92395	-91.39363
126132	2	-5	9	0.007744231	-0.1417337	454.9747	0	12.25	4003	0	0	0	0	0.6904588	0.230163	1	10	0.04	1800	-3.762177	40.92395	-91.39363
126277	0	0	11	0.01144078	-0.1349096	454.9629	0	12.25	4004	0	0	0	0	0.6904588	0.2407159	1	10	0.04	1800	-3.762634	40.92395	-91.39363
126397	3	1	4	0.01581846	-0.133161	454.9547	0	12.25	4002	0	0	0	0	0.6904588	0.2400925	1	10	0.04	1800	-3.999786	40.92395	-91.39363
126425	7	2	4	0.01944782	-0.1299847	454.9474	0	12.25	4004	0	0	0	0	0.6904588	0.2400925	1	10	0.04	1800	-3.797028	40.92395	-91.39363
126520	0	4	7	0.02427188	-0.1324918	454.9406	0	12.25	4004	0	0	0	0	0.6904588	0.2334371	1	10	0.04	1800	-3.797028	40.92395	-91.39363
126662	-3	0	6	0.02723111	-0.1288704	454.9314	0	12.25	4002	0	0	0	0	0.6904588	0.2289125	1	10	0.04	1800	-4.012268	40.92395	-91.39363
126717	-2	-3	6	0.02918589	-0.1332849	454.9222	0	12.25	4004	0	0	0	0	0.6904588	0.2291108	1	10	0.04	1800	-3.799438	40.92395	-91.39363
126830	-3	0	5	0.02624919	-0.1408447	454.9153	0	12.25	4003	0	0	0	0	0.6904588	0.2281126	1	10	0.04	1800	-4.00415	40.92396	-91.39363
126929	4	-4	0	0.02253969	-0.138744	454.9109	0	12.25	4003	0	0	0	0	0.6904588	0.2184085	1	10	0.04	1800	-3.789978	40.92396	-91.39363
127012	-2	-5	8	0.02702723	-0.1431063	454.9028	0	12.25	4003	0	0	0	0	0.6904588	0.2134396	1	10	0.04	1800	-3.784088	40.92395	-91.39363
127130	2	-4	3	0.02916162	-0.1379948	454.8947	0	12.25	4003	0	0	0	0	0.6904588	0.2119943	1	10	0.04	1800	-3.797485	40.92395	-91.39363
127321	1	-5	9	0.03342315	-0.1391034	454.879	0	12.25	4004	0	0	0	0	0.6904588	0.2207466	1	10	0.04	1800	-3.582153	40.92395	-91.39363
127374	8	-3	6	0.03225711	-0.1351357	454.8732	0	12.25	4003	0	0	0	0	0.6904588	0.2231924	1	10	0.04	1800	-3.822144	40.92395	-91.39363
127483	0	4	6	0.02684833	-0.1325795	454.859	0	12.25	4002	0	0	0	0	0.6904588	0.2350504	1	10	0.04	1800	-3.562317	40.92395	-91.39363
127619	0	-5	4	0.02620008	-0.1336074	454.8514	0	12.25	4002	0	0	0	0	0.6904588	0.2432051	1	10	0.04	1800	-3.780243	40.92395	-91.39363
127713	-7	-2	6	0.02354431	-0.1380466	454.8403	0	12.25	4002	0	0	0	0	0.6904588	0.2475106	1	10	0.04	1800	-3.785217	40.92395	-91.39363
127818	4	0	2	0.02692294	-0.1379651	454.8308	0	12.25	4003	0	0	0	0	0.6904588	0.2538272	1	10	0.04	1800	-3.788147	40.92395	-91.39363
127937	5	-6	6	0.0186448	-0.135726	454.8221	0	12.25	4002	0	0	0	0	0.6904588	0.2576215	1	10	0.04	1800	-3.793518	40.92395	-91.39363
128030	1	2	0	0.02077901	-0.1303085	454.8186	0	12.25	4003	0	0	0	0	0.6904588	0.2582462	1	10	0.04	1800	-3.784058	40.92395	-91.39363
128115	5	-2	10	0.02048167	-0.129946	454.812	0	12.25	4002	0	0	0	0	0.6904588	0.2576287	1	10	0.04	1800	-3.770599	40.92395	-91.39363
128214	0	-3	3	0.0230748	-0.1235687	454.8009	0	12.25	4003	0	0	0	0	0.6904588	0.2626863	1	10	0.04	1800	-4.021881	40.92395	-91.39363
128310	0	-4	6	0.02405653	-0.1205769	454.7957	0	12.25	4004	0	0	0	0	0.6904588	0.2840664	1	10	0.04	1800	-4.232971	40.92395	-91.39363
128423	0	-3	3	0.02848456	-0.1207934	454.7839	0	12.25	4004	0	0	0	0	0.6904588	0.3022038	1	10	0.04	1800	-3.580475	40.92395	-91.39363
128579	0	0	3	0.02494916	-0.1195077	454.7712	0	12.25	4003	0	0	0	0	0.6904588	0.3122709	1	10	0.04	1800	-4.029083	40.92395	-91.39363
128647	2	0	0	0.03177047	-0.1200309	454.7659	0	12.25	4004	0	0	0	0	0.6904588	0.3198219	1	10	0.04	1800	-3.781708	40.92395	-91.39363
128737	0	1	1	0.02769552	-0.1213956	454.7615	0	12.25	4003	0	0	0	0	0.6904588	0.3197795	1	10	0.04	1800	-3.817566	40.92395	-91.39363
128822	0	-9	1	0.03546675	-0.1210397	454.7579	0	12.25	4002	0	0	0	0	0.6904588	0.3167098	1	10	0.04	1800	-3.781189	40.92395	-91.39363
129017	1	-7	0	0.04691293	-0.1175177	454.7447	0	12.25	4003	0	0	0	0	0.6904588	0.3042277	1	10	0.04	1800	-3.604523	40.92395	-91.39363
129081	4	-5	8	0.04850631	-0.119249	454.7397	0	12.25	4002	0	0	0	0	0.6904588	0.2996162	1	10	0.04	1800	-4.046295	40.92395	-91.39363
129163	-1	0	7	0.05399016	-0.1186592	454.7307	0	12.25	4004	0	0	0	0	0.6904588	0.2922054	1	10	0.04	1800	-3.817688	40.92395	-91.39363
129216	0	-6	0	0.0551005	-0.1242422	454.7289	0	12.25	4002	0	0	0	0	0.6904588	0.2783886	1	10	0.04	1800	-3.817688	40.92395	-91.39363
129379	3	-7	8	0.05556187	-0.1298531	454.7163	0	12.25	4003	0	0	0	0	0.6904588	0.2533883	1	10	0.04	1800	-4.059021	40.92395	-91.39363
129463	10	-5	4	0.04723139	-0.1240641	454.7089	0	12.25	4002	0	0	0	0	0.6904588	0.2467127	1	10	0.04	1800	-3.831451	40.92395	-91.39363
129517	1	-2	4	0.05164697	-0.1287994	454.7069	0	12.25	4002	0	0	0	0	0.6904588	0.2439114	1	10	0.04	1800	-4.053009	40.92395	-91.39363
129675	1	-9	10	0.05994339	-0.132697	454.695	0	12.25	4002	0	0	0	0	0.6904588	0.2435018	1	10	0.04	1800	-3.845001	40.92395	-91.39363
129779	7	-6	8	0.06131345	-0.1290732	454.6868	0	12.25	4003	0	0	0	0	0.6904588	0.2480113	1	10	0.04	1800	-4.068573	40.92395	-91.39363
129839	0	-1	7	0.06011485	-0.1355397	454.6789	0	12.25	4003	0	0	0	0	0.6904588	0.2507238	1	10	0.04	1800	-3.850311	40.92395	-91.39363
129982	9	-5	4	0.06457832	-0.1370311	454.6708	0	12.25	4003	0	0	0	0	0.6904588	0.2457152	1	10	0.04	1800	-3.633759	40.92395	-91.39363
130018	3	0	0	0.06209565	-0.1388242	454.6683	0	12.25	4004	0	0	0	0	0.6904588	0.2442283	1	10	0.04	1800	-3.633759	40.92395	-91.39363
130101	5	-1	6	0.06666524	-0.1410506	454.6634	0	12.25	4002	0	0	0	0	0.6904588	0.2415257	1	10	0.04	1800	-4.060211	40.92395	-91.39363
130183	0	-7	3	0.07051729	-0.1384803	454.6584	0	12.25	4002	0	0	0	0	0.6904588	0.2391921	1	10	0.04	1800	-3.877686	40.92395	-91.39363
130285	4	-5	0	0.0717727	-0.1385687	454.6473	0	12.25	4003	0	0	0	0	0.6904588	0.2424533	1	10	0.04	1800	-3.861542	40.92395	-91.39363
130399	8	-2	2	0.06916707	-0.1367217	454.6411	0	12.25	4002	0	0	0	0	0.6904588	0.2442625	1	10	0.04	1800	-3.848328	40.92395	-91.39363
130497	-3	3	7	0.07060278	-0.1352238	454.6353	0	12.25	4004	0	0	0	0	0.6904588	0.2351886	1	10	0.04	1800	-4.078217	40.92395	-91.39363
130589	4	-3	1	0.07571726	-0.1374937	454.6271	0	12.25	4003	0	0	0	0	0.6904588	0.2255817	1	10	0.04	1800	-3.873535	40.92395	-91.39363
130735	6	-2	2	0.07919192	-0.1336604	454.6212	0	12.25	4002	0	0	0	0	0.6904588	0.2154306	1	10	0.04	1800	-3.652954	40.92395	-91.39363
130859	2	-2	2	0.07892062	-0.1315291	454.6113	0	12.31	4004	0	0	0	0	0.6904588	0.2128803	1	10	0.04	1800	-3.654633	40.92396	-91.39363
130895	2	-2	2	0.07892062	-0.1315291	454.6113	0	12.31	4004	0	0	0	0	0.6904588	0.2128803	1	10	0.04	1800	-3.654633	40.92396	-91.39363
130976	4	-1	1	0.08154054	-0.1244854	454.6036	0	12.31	4004	0	0	0	0	0.6904588	0.2175971	1	10	0.04	1800	-3.658447	40.92396	-91.39363
131179	9	-2	3	0.0783157	-0.1265933	454.5944	0	12.31	4003	0	0	0	0	0.6904588	0.2262904	1	10	0.04	1800	-3.871307	40.92396	-91.39363
131223	7	-4	5	0.08370449	-0.1293129	454.5884	0	12.31	4002	0	0	0	0	0.6904588	0.2257993	1	10	0.04	1800	-4.08609	40.92396	-91.39363
131274	3	0	2	0.08330756	-0.1339585	454.5869	0	12.31	4004	0	0	0	0	0.6904588	0.224839	1	10	0.04	1800	-4.08609	40.92396	-91.39363
131376	9	-11	6	0.07508344	-0.1297006	454.5753	0	12.31	4003	0	0	0	0	0.6904588	0.2272417	1	10	0.04	1800	-3.856995	40.92396	-91.39363
131531	3	-1	4	0.07194958	-0.1290546	454.5686	0	12.31	4002	0	0	0	0	0.6904588	0.2284076	1	10	0.04	1800	-4.101807	40.92396	-91.39364
131658	2	-3	3	0.0706737	-0.1332499	454.5587	0	12.25	4003	0	0	0	0	0.6904588	0.2164353	1	10	0.04	1800	-3.867096	40.92396	-91.39364
131751	-2	0	1	0.06662458	-0.1285239	454.5524	0	12.25	4002	0	0	0	0	0.6904588	0.2116457	1	10	0.04	1800	-4.064789	40.92396	-91.39364
131806	-2	-4	3	0.06047034	-0.1293536	454.5463	0	12.25	4002	0	0	0	0	0.6904588	0.207085	1	10	0.04	1800	-3.628113	40.92396	-91.39364
131854	0	-1	5	0.0632737	-0.1265821	454.5436	0	12.25	4002	0	0	0	0	0.6904588	0.1985174	1	10	0.04	1800	-3.628113	40.92396	-91.39364
132076	2	3	-2	0.0825873	-0.1267558	454.5311	0	12.25	4004	0	0	0	0	0.6904588	0.1970365	1	10	0.04	1800	-3.862244	40.92396	-91.39364
132259	1	0	8	0.08436541	-0.1291104	454.5202	0	12.25	4002	0	0	0	0	0.6904588	0.2035272	1	10	0.04	1800	-3.884857	40.92396	-91.39364
132359	8	0	2	0.08004153	-0.1274538	454.5117	0	12.25	4003	0	0	0	0	0.6904588	0.2040789	1	10	0.04	1800	-3.882874	40.92396	-91.39364
132456	4	-1	3	0.07935105	-0.1318377	454.5077	0	12.25	4003	0	0	0	0	0.6904588	0.2015281	1	10	0.04	1800	-4.094177	40.92395	-91.39363
132598	-1	-2	7	0.08114597	-0.1319315	454.4958	0	12.25	4004	0	0	0	0	0.6904588	0.1906981	1	10	0.04	1800	-3.882507	40.92395	-91.39363
132729	-1	-3	8	0.0850858	-0.1282854	454.4896	0	12.25	4003	0	0	0	0	0.6904588	0.1871349	1	10	0.04	1800	-3.896729	40.92395	-91.39363
132814	0	1	3	0.08514647	-0.1281516	454.4826	0	12.25	4004	0	0	0	0	0.6904588	0.1853945	1	10	0.04	1800	-3.885315	40.92395	-91.39363
132919	0	0	1	0.08621508	-0.1298309	454.4755	0	12.25	4002	0	0	0	0	0.6904588	0.1882779	1	10	0.04	1800	-3.900085	40.92395	-91.39363
132950	2	0	3	0.09007672	-0.1305005	454.4744	0	12.25	4003	0	0	0	0	0.6904588	0.1888807	1	10	0.04	1800	-3.900085	40.92395	-91.39363
133072	12	-2	6	0.08853051	-0.1289954	454.4666	0	12.25	4004	0	0	0	0	0.6904588	0.1955302	1	10	0.04	1800	-3.6539	40.92395	-91.39363
133130	5	-7	3	0.09047703	-0.1266485	454.462	0	12.25	4002	0	0	0	0	0.6904588	0.1938495	1	10	0.04	1800	-3.685547	40.92395	-91.39363
133295	0	-5	1	0.09004568	-0.1347728	454.4548	0	12.25	4004	0	0	0	0	0.6904588	0.1913143	1	10	0.04	1800	-3.907074	40.92395	-91.39363
133378	8	0	4	0.09003627	-0.1329991	454.4472	0	12.25	4003	0	0	0	0	0.6904588	0.1925861	1	10	0.04	1800	-4.110046	40.92395	-91.39363
133427	3	0	4	0.0897975	-0.1320264	454.4448	0	12.25	4003	0	0	0	0	0.6904588	0.1967818	1	10	0.04	1800	-3.876038	40.92395	-91.39363
133531	0	-2	4	0.09339735	-0.1332163	454.438	0	12.25	4002	0	0	0	0	0.6904588	0.1985872	1	10	0.04	1800	-3.896484	40.92395	-91.39363
133646	9	-5	5	0.08999842	-0.1331469	454.4299	0	12.25	4004	0	0	0	0	0.6904588	0.1953797	1	10	0.04	1800	-3.891968	40.92395	-91.39363
133740	3	0	4	0.08827636	-0.1395325	454.4236	0	12.25	4003	0	0	0	0	0.6904588	0.1886942	1	10	0.04	1800	-3.893524	40.92395	-91.39363
133899	5	-3	8	0.09298972	-0.1384804	454.4146	0	12.25	4003	0	0	0	0	0.6904588	0.1752232	1	10	0.04	1800	-3.879242	40.92395	-91.39363
133997	-1	3	6	0.09298344	-0.1435738	454.4089	0	12.25	4002	0	0	0	0	0.6904588	0.1669835	1	10	0.04	1800	-3.677185	40.92395	-91.39363
134036	7	-3	2	0.09290234	-0.1453172	454.4009	0	12.25	4002	0	0	0	0	0.6904588	0.160532	1	10	0.04	1800	-3.910492	40.92395	-91.39363
134156	3	0	2	0.08701257	-0.1456175	454.3968	0	12.25	4003	0	0	0	0	0.6904588	0.1561197	1	10	0.04	1800	-3.92041	40.92395	-91.39363
134254	5	-3	0	0.08674608	-0.1476112	454.3864	0	12.25	4003	0	0	0	0	0.6904588	0.1588352	1	10	0.04	1800	-3.889954	40.92395	-91.39363
134345	6	-3	0	0.08538566	-0.1510978	454.3783	0	12.25	4003	0	0	0	0	0.6904588	0.1600447	1	10	0.04	1800	-3.65332	40.92395	-91.39363
134456	0	1	5	0.08559696	-0.1501058	454.3732	0	12.25	4003	0	0	0	0	0.6904588	0.1563175	1	10	0.04	1800	-3.875977	40.92395	-91.39364
134547	4	0	0	0.08460005	-0.1469106	454.3646	0	12.25	4004	0	0	0	0	0.6904588	0.152334	1	10	0.04	1800	-3.888397	40.92395	-91.39364
134695	6	-1	0	0.09022913	-0.1502247	454.3556	0	12.25	4004	0	0	0	0	0.6904588	0.1433402	1	10	0.04	1800	-3.672913	40.92395	-91.39364
134746	6	-3	2	0.0910962	-0.1520374	454.3506	0	12.25	4002	0	0	0	0	0.6904588	0.1369992	1	10	0.04	1800	-3.673798	40.92395	-91.39364
134928	6	0	2	0.09066117	-0.1528068	454.3389	0	12.25	4003	0	0	0	0	0.6904588	0.1333332	1	10	0.04	1800	-3.89975	40.92395	-91.39364
134969	9	-3	2	0.09506423	-0.1527325	454.3365	0	12.25	4003	0	0	0	0	0.6904588	0.129784	1	10	0.04	1800	-3.917175	40.92395	-91.39364
135169	4	-2	6	0.09471213	-0.1455953	454.3221	0	12.25	4002	0	0	0	0	0.6904588	0.1159138	1	10	0.04	1800	-3.670013	40.92395	-91.39364
135289	4	-3	6	0.09469554	-0.1360257	454.3101	0	12.25	4004	0	0	0	0	0.6904588	0.1069499	1	10	0.04	1800	-3.903442	40.92395	-91.39364
135392	6	-7	1	0.0895462	-0.1361432	454.3047	0	12.25	4003	0	0	0	0	0.6904588	0.09864987	1	10	0.04	1800	-3.896057	40.92395	-91.39364
135488	0	-7	2	0.08512396	-0.1321341	454.2939	0	12.25	4004	0	0	0	0	0.6904588	0.08792519	1	10	0.04	1800	-3.888672	40.92395	-91.39364
135572	1	-2	5	0.08404081	-0.1314135	454.2879	0	12.25	4002	0	0	0	0	0.6904588	0.06790604	1	10	0.04	1800	-3.88797	40.92395	-91.39364
135764	5	-1	3	0.0792781	-0.1341787	454.2739	0	12.25	4004	0	0	0	0	0.6904588	0.06270576	1	10	0.04	1800	-3.848663	40.92395	-91.39364
135798	1	-3	10	0.08545471	-0.1349285	454.269	0	12.25	4002	0	0	0	0	0.6904588	0.06336573	1	10	0.04	1800	-3.876282	40.92395	-91.39364
135885	0	0	5	0.08126855	-0.1365453	454.261	0	12.25	4003	0	0	0	0	0.6904588	0.06186522	1	10	0.04	1800	-3.884857	40.92395	-91.39364
135969	7	-4	7	0.08039259	-0.1381415	454.2558	0	12.25	4004	0	0	0	0	0.6904588	0.06375726	1	10	0.04	1800	-3.67038	40.92395	-91.39364
136175	1	-6	3	0.08440802	-0.1377103	454.2413	0	12.25	4004	0	0	0	0	0.6904588	0.08110715	1	10	0.04	1800	-3.884186	40.92395	-91.39364
136207	0	-5	6	0.08363524	-0.1344401	454.2383	0	12.19	4002	0	0	0	0	0.6904588	0.08276053	1	10	0.04	1800	-3.884186	40.92395	-91.39364
136277	-7	-1	2	0.08038822	-0.1371225	454.2324	0	12.19	4003	0	0	0	0	0.6904588	0.08611038	1	10	0.04	1800	-4.117371	40.92395	-91.39364
136439	7	-1	3	0.06969373	-0.1368613	454.2192	0	12.19	4004	0	0	0	0	0.6904588	0.08991905	1	10	0.04	1800	-3.876221	40.92395	-91.39364
136527	5	-3	6	0.06697632	-0.1405497	454.2112	0	12.19	4004	0	0	0	0	0.6904588	0.08917239	1	10	0.04	1800	-4.081604	40.92395	-91.39364
136573	9	0	0	0.07144985	-0.1392782	454.21	0	12.19	4004	0	0	0	0	0.6904588	0.0881959	1	10	0.04	1800	-4.081604	40.92395	-91.39364
136677	5	1	2	0.07157844	-0.1348086	454.2003	0	12.19	4004	0	0	0	0	0.6904588	0.08451061	1	10	0.04	1800	-3.659912	40.92395	-91.39364
136822	5	1	5	0.0706083	-0.138545	454.1945	0	12.19	4004	0	0	0	0	0.6904588	0.0865028	1	10	0.04	1800	-3.660095	40.92395	-91.39363
136887	1	3	7	0.06627306	-0.1371789	454.189	0	12.19	4003	0	0	0	0	0.6904588	0.08676184	1	10	0.04	1800	-3.649719	40.92395	-91.39363
136997	0	0	5	0.06651066	-0.1345978	454.1768	0	12.19	4002	0	0	0	0	0.6904588	0.08670197	1	10	0.04	1800	-3.837372	40.92395	-91.39363
137099	-3	0	4	0.06273006	-0.138728	454.1677	0	12.19	4002	0	0	0	0	0.6904588	0.09390035	3	10	0.04	1800	-3.849243	40.92395	-91.39363
137212	4	-2	2	0.05612481	-0.1470038	454.1595	0	12.25	4002	0	0	0	0	0.6904588	0.09682383	3	10	0.04	1800	-3.859406	40.92395	-91.39364
137357	0	0	5	0.0578741	-0.1488032	454.1457	0	12.25	4004	0	0	0	0	0.6904588	0.1041523	3	10	0.04	1800	-3.626343	40.92395	-91.39364
137393	2	-3	7	0.05615345	-0.1478066	454.1425	0	12.25	4002	0	0	0	0	0.6904588	0.1041787	3	10	0.04	1800	-3.626343	40.92395	-91.39364
137523	2	-4	6	0.05860921	-0.1438171	454.1296	0	12.25	4003	0	0	0	0	0.6904588	0.1011368	3	10	0.04	1800	-3.626282	40.92395	-91.39364
137595	7	-1	4	0.05533664	-0.1451014	454.124	0	12.25	4003	0	0	0	0	0.6904588	0.1022658	3	10	0.04	1800	-3.626282	40.92395	-91.39364
137653	1	-1	0	0.05443343	-0.1450425	454.1226	0	12.25	4004	0	0	0	0	0.6904588	0.1059974	3	10	0.04	1800	-3.840637	40.92395	-91.39364
137756	2	3	10	0.05528389	-0.1426098	454.1114	0	12.25	4002	0	0	0	0	0.6904588	0.1107161	3	10	0.04	1800	-3.834137	40.92395	-91.39364
137860	7	-5	3	0.05033211	-0.149214	454.1024	0	12.25	4003	0	0	0	0	0.6904588	0.1195468	3	10	0.04	1800	-4.058502	40.92395	-91.39364
137958	1	-4	2	0.05292054	-0.1511939	454.097	0	12.25	4004	0	0	0	0	0.6904588	0.1273116	3	10	0.04	1800	-3.83432	40.92395	-91.39364
138091	4	1	0	0.05474231	-0.1539783	454.0846	0	12.25	4003	0	0	0	0	0.6904588	0.1354866	3	10	0.04	1800	-3.839661	40.92395	-91.39364
138158	2	-3	3	0.05732326	-0.1471899	454.0801	0	12.25	4002	0	0	0	0	0.6904588	0.1383811	3	10	0.04	1800	-4.06427	40.92395	-91.39364
138299	1	0	4	0.06289498	-0.1477201	454.0731	0	12.25	4002	0	0	0	0	0.6904588	0.1369212	3	10	0.04	1800	-3.836182	40.92395	-91.39364
138365	0	-6	6	0.05393612	-0.1436032	454.0637	0	12.25	4003	0	0	0	0	0.6904588	0.1348529	3	10	0.04	1800	-3.849945	40.92395	-91.39364
138518	4	-6	5	0.05765579	-0.1481574	454.0529	0	12.25	4003	0	0	0	0	0.6904588	0.1322155	3	10	0.04	1800	-3.837738	40.92395	-91.39364
138620	9	-3	8	0.0599255	-0.1547628	454.0428	0	12.25	4004	0	0	0	0	0.6904588	0.1374823	3	10	0.04	1800	-3.838776	40.92395	-91.39364
138666	4	-5	1	0.06402146	-0.1566973	454.0404	0	12.25	4002	0	0	0	0	0.6904588	0.1396687	3	10	0.04	1800	-3.838776	40.92395	-91.39364
138754	0	-5	3	0.06037834	-0.1518487	454.0326	0	12.25	4004	0	0	0	0	0.6904588	0.1407703	3	10	0.04	1800	-3.85321	40.92395	-91.39364
138859	0	-6	4	0.05532964	-0.1547199	454.0257	0	12.25	4004	0	0	0	0	0.6904588	0.1401137	3	10	0.04	1800	-3.829132	40.92395	-91.39364
138958	2	2	0	0.05503408	-0.1528058	454.0182	0	12.25	4002	0	0	0	0	0.6904588	0.1397304	3	10	0.04	1800	-3.856384	40.92395	-91.39364
139092	5	2	11	0.05386926	-0.1514124	454.0043	0	12.25	4004	0	0	0	0	0.6904588	0.1414884	3	10	0.04	1800	-4.046387	40.92395	-91.39364
139178	3	0	1	0.06051578	-0.1493666	453.9987	0	12.25	4003	0	0	0	0	0.6904588	0.142362	3	10	0.04	1800	-3.845825	40.92395	-91.39364
139343	2	0	6	0.0720831	-0.1459944	453.9851	0	12.25	4003	0	0	0	0	0.6904588	0.1434161	3	10	0.04	1800	-3.857605	40.92395	-91.39364
139413	3	0	6	0.07439562	-0.1446996	453.9799	0	12.25	4003	0	0	0	0	0.6904588	0.1467838	3	10	0.04	1800	-3.662689	40.92395	-91.39364
139466	1	0	4	0.07188233	-0.1433343	453.972	0	12.25	4002	0	0	0	0	0.6904588	0.1490976	3	10	0.04	1800	-3.884949	40.92395	-91.39364
139555	6	-1	6	0.06943052	-0.1425331	453.9674	0	12.25	4003	0	0	0	0	0.6904588	0.1509256	3	10	0.04	1800	-3.881134	40.92395	-91.39364
139654	4	-3	5	0.07128278	-0.133277	453.9619	0	12.25	4002	0	0	0	0	0.6904588	0.1532332	3	10	0.04	1800	-3.642456	40.92395	-91.39364
139753	4	-1	3	0.06867862	-0.1352544	453.9556	0	12.25	4004	0	0	0	0	0.6904588	0.1573556	3	10	0.04	1800	-4.084747	40.92395	-91.39364
139856	0	1	6	0.06481341	-0.1348753	453.9466	0	12.25	4003	0	0	0	0	0.6904588	0.1627368	3	10	0.04	1800	-3.857361	40.92395	-91.39364
140027	3	0	8	0.06642971	-0.1389336	453.9349	0	12.25	4003	0	0	1	0	0.6904588	0.1762364	3	10	0.04	1800	-3.621674	40.92395	-91.39364
140152	4	0	1	0.05935664	-0.1355099	453.9224	0	12.25	4003	0	1	1	0	0.6904588	0.1812995	3	10	0.04	1800	-3.623627	40.92395	-91.39364
140176	2	0	4	0.06121206	-0.1333985	453.92	0	12.25	4004	0	1	1	0	0.6904588	0.1823819	3	10	0.04	1800	-3.623627	40.92395	-91.39364
140253	-3	-2	7	0.06377672	-0.1300341	453.9112	0	12.25	4003	0	0	1	0	0.6904588	0.188019	3	10	0.04	1800	-3.838379	40.92395	-91.39364
140412	7	-5	3	0.06526353	-0.1286481	453.899	0	12.25	4003	0	0	1	0	0.6904588	0.1852636	3	10	0.04	1800	-4.089935	40.92395	-91.39364
140506	3	0	7	0.07224156	-0.1286272	453.8932	0	12.25	4003	0	0	2	0	0.6904588	0.1750659	3	10	0.04	1800	-3.860413	40.92395	-91.39364
140549	7	-1	2	0.07216262	-0.1271383	453.8906	0	12.25	4003	0	0	2	0	0.6904588	0.1734258	3	10	0.04	1800	-3.861877	40.92395	-91.39364
140670	5	4	6	0.0708914	-0.1312584	453.8784	0	12.25	4002	0	1	2	0	0.6904588	0.1579694	3	10	0.04	1800	-4.082092	40.92395	-91.39364
140764	3	-2	5	0.07455217	-0.1346207	453.8726	0	12.25	4003	0	1	2	0	0.6904588	0.1441205	3	10	0.04	1800	-3.861542	40.92395	-91.39364
140879	8	-3	4	0.07919369	-0.1346599	453.8646	0	12.31	4004	0	1	2	0	0.6904588	0.1355662	3	10	0.04	1800	-3.85965	40.92395	-91.39364
140954	5	1	1	0.08623683	-0.1374117	453.855	0	12.31	4003	0	0	0	0	0.6904588	0.1258097	3	10	0.04	1800	-3.881836	40.92395	-91.39364
141093	5	-2	4	0.1010761	-0.1394294	453.8459	0	12.31	4002	0	0	0	0	0.6904588	0.1092292	3	10	0.04	1800	-3.700195	40.92395	-91.39364
141169	4	1	6	0.1016955	-0.1390159	453.8414	0	12.31	4003	0	0	0	0	0.6904588	0.09398704	3	10	0.04	1800	-3.910065	40.92395	-91.39364
141262	6	0	6	0.1044948	-0.1406622	453.8354	0	12.31	4003	0	0	0	0	0.6904588	0.07956202	3	10	0.04	1800	-3.694214	40.92395	-91.39363
141368	3	-1	3	0.109744	-0.1364712	453.8265	0	12.31	4002	0	0	0	0	0.6904588	0.05894001	3	10	0.04	1800	-4.139496	40.92395	-91.39363
141484	8	-4	7	0.1086329	-0.1385138	453.8217	0	12.31	4004	0	0	0	0	0.6904588	0.0408505	3	10	0.04	1800	-3.923828	40.92395	-196.3271
141568	10	-5	4	0.1097836	-0.1415081	453.8112	0	12.31	4003	0	0	0	0	0.6904588	0.03644719	3	10	0.04	1800	-3.702576	40.92395	-101.0761
141668	3	0	2	0.1002181	-0.1393444	453.8049	0	12.31	4003	0	0	0	0	0.6904588	0.03322435	3	10	0.04	1800	-3.895874	40.92395	-92.26506
141818	6	0	5	0.09394202	-0.1369991	453.7938	0	12.25	4004	0	0	0	0	0.6904588	0.03098494	3	10	0.04	1800	-3.897705	40.92395	-91.39575
141911	2	-4	2	0.08900645	-0.1331142	453.7888	0	12.25	4003	0	0	0	0	0.6904588	0.02108867	3	10	0.04	1800	-3.894348	40.92395	-91.39369
141962	13	-2	9	0.08690678	-0.1323554	453.7865	0	12.25	4002	0	0	0	0	0.6904588	0.01984536	3	10	0.04	1800	-4.106293	40.92395	-91.39365
142080	6	-2	3	0.08756002	-0.1354019	453.7731	0	12.25	4004	0	0	0	0	0.6904588	0.01951929	3	10	0.04	1800	-3.889404	40.92395	-91.39364
142167	6	-5	3	0.08539472	-0.1375124	453.7731	0	12.25	4003	0	0	0	0	0.6904588	0.01452493	3	10	0.04	1800	-3.889404	40.92395	-91.39364
142293	5	1	8	0.0826496	-0.1380646	453.7574	0	12.25	4003	0	0	0	0	0.6904588	0.004909864	3	10	0.04	1800	-3.882233	40.92395	-91.39364
142469	1	-2	2	0.08538191	-0.1376463	453.7474	0	12.25	4003	0	0	0	0	0.6904588	-0.005805175	3	10	0.04	1800	-3.906372	40.92395	-91.39364
142564	13	-4	-1	0.08812533	-0.1407163	453.7407	0	12.25	4002	0	0	0	0	0.6904588	-0.00971333	3	10	0.04	1800	-3.883698	40.92395	-91.39364
142753	7	-3	3	0.08310377	-0.1360051	453.7344	0	12.25	4003	0	1	0	0	0.6904588	-0.001857536	3	10	0.04	1800	-3.868408	40.92395	-91.39364
142792	6	0	8	0.08236779	-0.1366775	453.7316	0	12.25	4004	0	1	0	0	0.6904588	0.0002195443	3	10	0.04	1800	-3.868408	40.92395	-91.39364
142963	3	0	6	0.08324407	-0.1288417	453.7171	0	12.25	4003	0	0	0	0	0.6904588	0.01629804	3	10	0.04	1800	-4.11676	40.92395	-91.39364
143024	6	0	2	0.08659568	-0.1293481	453.7131	0	12.25	4004	0	0	0	0	0.6904588	0.01726563	3	10	0.04	1800	-3.894745	40.92395	-91.39364
143081	6	6	1	0.08963925	-0.1311271	453.7115	0	12.25	4003	0	0	0	0	0.6904588	0.01878518	3	10	0.04	1800	-3.876892	40.92395	-91.39364
143166	6	-4	1	0.09222934	-0.1250259	453.7034	0	12.25	4002	0	0	1	0	0.6904588	0.02157742	3	10	0.04	1800	-3.880249	40.92395	-91.39364
143271	2	0	5	0.0897921	-0.1288282	453.6991	0	12.25	4002	0	0	1	0	0.6904588	0.02487741	3	10	0.04	1800	-3.880249	40.92395	-91.39364
143451	3	-2	8	0.09466606	-0.1321334	453.6875	0	12.25	4002	0	1	1	0	0.6904588	0.03608337	3	10	0.04	1800	-3.67218	40.92395	-91.39364
143541	5	-8	5	0.09908183	-0.1293524	453.6823	0	12.25	4004	0	0	1	0	0.6904588	0.04932913	3	10	0.04	1800	-3.663666	40.92395	-91.39364
143584	8	2	8	0.09885003	-0.1313905	453.6795	0	12.25	4002	0	0	1	0	0.6904588	0.05509606	3	10	0.04	1800	-3.890808	40.92395	-91.39364
143727	8	-2	1	0.1088624	-0.1307926	453.6693	0	12.25	4002	0	1	1	0	0.6904588	0.07763235	3	10	0.04	1800	-3.692627	40.92395	-91.39364
143770	5	-2	1	0.1110171	-0.1316549	453.668	0	12.25	4002	-1	1	2	0	0.6904588	0.08083789	3	10	0.04	1800	-4.143433	40.92395	-91.39364
143882	11	2	2	0.111668	-0.1390036	453.6615	0	12.25	4002	0	0	2	0	0.6904588	0.1000991	3	10	0.04	1800	-3.941223	40.92395	-91.39364
143973	-2	-3	3	0.1190227	-0.1424244	453.655	0	12.25	4004	0	0	2	0	0.6904588	0.1072023	3	10	0.04	1800	-3.933533	40.92395	-91.39364
144076	3	0	4	0.1176256	-0.1471976	453.6513	0	12.25	4004	-1	1	2	0	0.6904588	0.1170111	3	10	0.04	1800	-3.939667	40.92395	-91.39364
144179	6	-4	5	0.1189862	-0.1473011	453.643	0	12.25	4003	-1	0	2	0	0.6904588	0.1143039	3	10	0.04	1800	-4.15567	40.92395	-91.39364
144281	6	-6	0	0.1206729	-0.1437911	453.6379	0	12.25	4002	0	1	2	0	0.6904588	0.1068851	3	10	0.04	1800	-3.942474	40.92395	-91.39364
144385	16	1	2	0.1256889	-0.14626	453.6334	0	12.25	4003	-1	1	2	0	0.6904588	0.0992123	3	10	0.04	1800	-3.925781	40.92395	-91.39363
144527	8	-2	7	0.1297728	-0.144315	453.6246	0	12.19	4004	-1	1	3	0	0.6904588	0.08952723	3	10	0.04	1800	-3.949677	40.92395	-91.39363
144699	15	0	1	0.1295497	-0.1468083	453.615	0	12.19	4003	-1	1	3	0	0.6904588	0.08067258	3	10	0.04	1800	-4.170593	40.92395	-91.39363
144792	8	-6	3	0.1327229	-0.1465852	453.6105	0	12.19	4003	0	1	3	0	0.6904588	0.07582599	3	10	0.04	1800	-3.956085	40.92395	-91.39363
144903	8	-5	2	0.1388541	-0.1422635	453.6027	0	12.19	4002	0	0	0	0	0.6904588	0.08045719	3	10	0.04	1800	-3.96994	40.92395	-91.39363
145011	11	-4	1	0.1388238	-0.139829	453.5995	0	12.19	4003	0	0	0	0	0.6904588	0.08122622	3	10	0.04	1800	-3.966827	40.92395	-91.39363
145099	13	-1	5	0.1380955	-0.1389941	453.5934	0	12.19	4002	0	0	0	0	0.6904588	0.08246358	3	10	0.04	1800	-3.972961	40.92395	-91.39363
145180	7	0	-1	0.141182	-0.1424807	453.5922	0	12.19	4003	0	0	0	0	0.6904588	0.08362196	3	10	0.04	1800	-4.187836	40.92395	-91.39363
145259	11	-4	0	0.1416905	-0.144137	453.5886	0	12.19	4003	0	0	0	0	0.6904588	0.08460509	3	10	0.04	1800	-4.194	40.92395	-91.39363
145494	12	0	3	0.1392409	-0.1426964	453.5805	0	12.31	4002	0	0	0	0	0.6904588	0.08325699	3	10	0.04	1800	-3.972198	40.92395	-91.39363
145626	3	-2	3	0.1427785	-0.1443371	453.5727	0	12.31	4003	0	0	0	0	0.6904588	0.08208627	3	10	0.04	1800	-4.178314	40.92395	-91.39363
145720	7	0	3	0.1413109	-0.1476489	453.564	0	12.31	4003	0	0	0	0	0.6904588	0.0837636	3	10	0.04	1800	-3.97464	40.92395	-91.39363
145804	5	-4	5	0.1385034	-0.1547634	453.561	0	12.31	4003	0	0	0	0	0.6904588	0.0907006	1	10	0.04	1800	-3.752808	40.92395	-91.39363
145906	5	-2	0	0.1433691	-0.152292	453.5559	0	12.31	4002	0	0	0	0	0.6904588	0.09413304	1	10	0.04	1800	-4.18042	40.92395	-91.39363
145974	2	-8	0	0.1259869	-0.1599964	453.5511	0	12.31	4003	0	0	0	0	0.6904588	0.09691392	1	10	0.04	1800	-3.970581	40.92395	-91.39363
146056	5	2	4	0.1242922	-0.1560193	453.548	0	12.31	4004	0	0	0	0	0.6904588	0.09741329	3	10	0.04	1800	-3.95108	40.92395	-91.39363
146177	12	-2	2	0.1293506	-0.1604266	453.54	0	12.31	4003	0	0	0	0	0.6904588	0.1056061	3	10	0.04	1800	-3.732635	40.92395	-91.39363
146203	11	-2	8	0.1295929	-0.1610091	453.5385	0	12.31	4004	0	0	0	0	0.6904588	0.1134299	3	10	0.04	1800	-3.732635	40.92395	-91.39363
146266	5	-3	1	0.1315181	-0.1565803	453.5358	0	12.14	4003	0	0	0	0	0.6904588	0.1215235	3	10	0.04	1800	-3.725281	40.92395	-91.39363
146350	5	-9	0	0.1314841	-0.1574171	453.5311	0	12.14	4002	0	0	0	0	0.6904588	0.125918	3	10	0.04	1800	-3.958496	40.92395	-91.39363
146512	11	-13	44	0.1214173	-0.1634121	453.5096	0	12.14	4004	3	0	1	0	0.6904588	0.1360088	3	10	0.04	1800	-4.490448	40.92395	-91.39363
146603	-53	-49	1	0.0592949	-0.1473707	453.5041	0	12.14	4002	-5	-9	4	0	0.6904588	0.1404705	3	10	0.04	1800	-2.390198	40.92395	-91.39363
146697	38	7	-119	0.07133494	-0.1089114	453.4685	0	12.14	4003	-6	15	0	0	0.6904588	0.1517619	3	10	0.04	1800	-3.525085	40.92395	-91.39363
146795	-130	-62	-38	0.1289508	-0.1214526	453.4894	0	12.14	4004	30	-14	0	0	0.6904588	0.1591877	3	10	0.04	1800	-2.49353	40.92395	-91.39363
146994	-169	-77	201	0.05452365	-0.1188103	453.4455	0	12.14	4003	-1	13	3	0	0.6904588	0.1839272	3	10	0.04	1800	-3.506073	40.92395	-91.39363
147131	-84	47	-58	0.02553842	-0.08818308	453.434	0	12.19	4003	22	13	0	0	0.6904588	0.2004184	3	10	0.04	1800	-2.755219	40.92395	-91.39363
147180	-62	62	-154	-0.02221144	-0.1148859	453.419	0	12.19	4002	-5	15	2	0	0.6904588	0.200948	3	10	0.04	1800	-2.713348	40.92395	-91.39363
147284	57	8	-51	0.03524898	-0.09209482	453.4261	0	12.19	4004	-42	9	2	0	0.6904588	0.1991984	3	10	0.04	1800	-2.304993	40.92394	-91.39363
147390	-33	9	95	-0.04937325	-0.09586738	453.4029	0	12.19	4002	7	-16	6	0	0.6904588	0.195783	3	10	0.04	1800	-2.638092	40.92394	-91.39363
147545	27	29	11	-0.07664461	-0.07509001	453.3789	0	12.19	4004	-31	-10	2	0	0.6904588	0.1918848	3	10	0.04	1800	-3.463837	40.92394	-91.39363
147594	-33	10	-225	-0.07294486	-0.08713559	453.3829	0	12.19	4003	30	-31	5	0	0.6904588	0.1881277	3	10	0.04	1800	-3.463837	40.92394	-91.39363
147741	-22	-11	83	-0.1129839	-0.09930456	453.3678	0	12.19	4002	19	25	4	0	0.6904588	0.186136	3	10	0.04	1800	-2.899841	40.92394	-91.39363
147840	78	2	18	-0.0699357	-0.104014	453.367	0	12.19	4003	3	9	3	0	0.6904588	0.1856053	3	10	0.04	1800	-2.346191	40.92394	-91.39363
147895	63	62	-110	-0.143031	-0.07755007	453.356	0	12.19	4002	7	30	4	0	0.6904588	0.1860218	3	10	0.04	1800	-2.576721	40.92394	-91.39363
148032	84	46	56	-0.1151858	-0.07287347	453.3479	0	11.91	4002	26	11	4	0	0.6904588	0.1779426	3	10	0.04	1800	-2.562317	40.92394	-91.39363
148079	-34	-60	-50	-0.1483774	-0.04208971	453.3581	0	11.91	4003	-32	-20	4	0	0.6904588	0.1756494	3	10	0.04	1800	-2.562317	40.92394	-91.39363
148178	-60	59	-164	-0.1497905	-0.05721992	453.3536	0	11.91	4003	5	-21	6	0	0.6904588	0.170564	3	10	0.04	1800	-2.424835	40.92394	-91.39363
148283	-91	2	31	-0.1770386	0.004775652	453.3284	0	11.91	4004	-56	-10	4	0	0.6904588	0.1683913	3	10	0.04	1800	-2.407532	40.92394	-91.39363
148432	-61	60	74	-0.1411167	-0.07274915	453.3307	0	11.91	4002	48	18	3	0	0.6904588	0.1661517	3	10	0.04	1800	-3.167633	40.92393	-91.39363
148618	196	48	-49	-0.2226093	-0.08972359	453.3034	0	11.91	4004	-10	5	7	0	0.6904588	0.176027	3	10	0.04	1800	-2.710663	40.92393	-91.39362
148805	-59	-118	94	-0.2563954	-0.04743817	453.2743	0	11.91	4002	-15	-17	7	0	0.6904588	0.1642135	3	10	0.04	1800	-3.001099	40.92393	-91.39362
148944	-3	0	-26	-0.2072428	-0.05611322	453.285	0	11.85	4004	17	34	4	0	0.6904588	0.1458417	3	10	0.04	1800	-2.643921	40.92393	-91.39362
149011	134	183	64	-0.146376	-0.1098921	453.2618	0	11.85	4003	23	-3	7	0	0.6904588	0.1426556	3	10	0.04	1800	-2.849396	40.92393	-91.39362
149076	-55	-64	-44	-0.1252571	-0.1217889	453.2733	0	11.85	4003	-13	25	4	0	0.6904588	0.1397596	3	10	0.04	1800	-3.182587	40.92393	-91.39362
149202	-45	-172	57	-0.1877427	-0.07021394	453.2532	0	11.85	4003	-23	-20	8	0	0.6904588	0.138762	3	10	0.04	1800	-2.393311	40.92393	-91.39362
149268	-90	78	116	-0.2830194	-0.0887198	453.2272	0	11.85	4004	-15	27	7	0	0.6904588	0.1359642	3	10	0.04	1800	-2.542877	40.92393	-91.39362
149375	112	71	56	-0.236063	-0.06801955	453.2275	0	11.85	4004	29	21	5	0	0.6904588	0.1336052	3	10	0.04	1800	-2.386169	40.92393	-91.39362
149563	-20	-2	-31	-0.2729571	-0.08604715	453.195	0	11.85	4004	21	-44	8	0	0.6904588	0.127335	3	10	0.04	1800	-2.883759	40.92393	-91.39362
149619	86	34	161	-0.3005722	-0.08742934	453.1843	0	11.85	4004	-50	-14	9	0	0.6904588	0.1268528	3	10	0.04	1800	-2.880463	40.92393	-91.39362
149686	-52	76	125	-0.281488	-0.1311255	453.1541	0	11.85	4002	26	10	11	0	0.6904588	0.1256085	3	10	0.04	1800	-2.688904	40.92393	-91.39362
149769	1	-11	57	-0.2909986	-0.155216	453.1252	0	11.91	4002	36	-32	10	0	0.6904588	0.1231562	3	10	0.04	1800	-3.129852	40.92393	-91.39362
149867	-33	20	189	-0.3172784	-0.1223004	453.1108	0	11.91	4003	-39	-9	10	0	0.6904588	0.1196275	3	10	0.04	1800	-2.516327	40.92393	-91.39362
150071	-64	200	-111	-0.316947	-0.1365779	453.0989	0	11.91	4004	44	17	7	0	0.6904588	0.1145171	3	10	0.04	1800	-2.2099	40.92393	-91.39362
150120	-163	88	202	-0.2667761	-0.1981356	453.0887	0	11.91	4003	-19	18	9	0	0.6904588	0.1142646	3	10	0.04	1800	-2.260773	40.92393	-91.39362
150219	45	81	264	-0.3893328	-0.1589907	453.0817	0	11.91	4003	25	13	10	0	0.6904588	0.1098728	3	10	0.04	1800	-2.360718	40.92393	-91.39362
150320	-69	54	-67	-0.3758814	-0.1494539	453.0634	0	11.91	4003	18	-7	13	0	0.6904588	0.1054342	3	10	0.04	1800	-1.889923	40.92393	-91.39362
150365	-47	-34	-32	-0.3949324	-0.1121317	453.0545	0	11.91	4002	-25	20	9	0	0.6904588	0.1028323	3	10	0.04	1800	-1.889923	40.92393	-91.39362
150451	-100	51	-67	-0.3312075	-0.1240267	453.0595	0	11.91	4003	35	26	12	0	0.6904588	0.101404	3	10	0.04	1800	-2.122528	40.92393	-91.39362
150549	-22	6	18	-0.3391545	-0.1145308	453.0611	0	11.91	4003	-14	0	12	0	0.6904588	0.09225782	3	10	0.04	1800	-2.450165	40.92393	-91.39362
150658	-75	-87	-155	-0.3355987	-0.115243	453.0377	0	11.91	4003	-31	-7	12	0	0.6904588	0.08463457	3	10	0.04	1800	-2.449249	40.92393	-91.39362
150757	237	-88	92	-0.3224709	-0.1752008	453.0137	0	12.14	4004	-2	7	14	0	0.6904588	0.07642124	3	10	0.04	1800	-2.206818	40.92393	-91.39362
150925	-74	148	-161	-0.2629842	-0.1905932	453.0135	0	12.14	4004	31	-16	11	0	0.6904588	0.0716192	3	10	0.04	1800	-2.956573	40.92393	-91.39362
150978	169	59	-62	-0.2944963	-0.1561839	453.0023	0	12.14	4003	28	4	12	0	0.6904588	0.07336427	3	10	0.04	1800	-2.956573	40.92393	-91.39362
151107	344	-82	101	-0.28902	-0.1513264	452.9874	0	12.14	4004	36	1	11	0	0.6904588	0.08045053	3	10	0.04	1800	-2.217224	40.92393	-91.39362
151194	-158	-125	-55	-0.4231476	-0.1441253	452.9615	0	12.14	4004	-16	13	14	0	0.6904588	0.08926345	3	10	0.04	1800	-2.217224	40.92393	-91.39362
151281	12	201	-103	-0.3900434	-0.1293402	452.9677	0	12.14	4003	63	5	12	0	0.6904588	0.09652872	3	10	0.04	1800	-2.914032	40.92393	-91.39362
151396	47	37	-67	-0.3992637	-0.09742425	452.9524	0	12.14	4004	23	7	14	0	0.6904588	0.1058623	3	10	0.04	1800	-2.040863	40.92393	-91.39362
151464	198	-81	-8	-0.4822404	-0.1094976	452.9219	0	12.14	4003	-20	4	15	0	0.6904588	0.1091	3	10	0.04	1800	-2.406158	40.92392	-91.39362
151571	-112	51	-4	-0.4256454	-0.1286627	452.9343	0	12.14	4003	18	-22	18	0	0.6904588	0.1120292	3	10	0.04	1800	-1.952362	40.92392	-91.39362
151662	-166	-83	-147	-0.4551453	-0.1465815	452.9077	0	12.19	4004	-21	18	13	0	0.6904588	0.1184494	3	10	0.04	1800	-2.17511	40.92392	-91.39362
151864	-129	24	-111	-0.4543516	-0.1821727	452.8812	0	12.19	4004	24	11	19	0	0.6904588	0.1306396	3	10	0.04	1800	-2.730652	40.92392	-91.39362
151926	-27	-32	375	-0.429661	-0.1734705	452.8584	0	12.19	4002	37	-8	16	0	0.6904588	0.1306279	3	10	0.04	1800	-2.730652	40.92392	-91.39362
152119	114	-45	4	-0.4806333	-0.1457132	452.8343	0	12.19	4004	-31	5	16	0	0.6904588	0.1148918	3	10	0.04	1800	-2.185394	40.92392	-91.39362
152202	-112	-75	-284	-0.4080874	-0.1542274	452.8476	0	12.19	4003	41	4	20	0	0.6904588	0.1105863	3	10	0.04	1800	-2.672882	40.92392	-91.39362
152271	2	127	95	-0.3560604	-0.1638805	452.8295	0	12.19	4004	-22	22	18	0	0.6904588	0.1073502	3	10	0.04	1800	-2.093872	40.92392	-91.39362
152361	-129	-84	-104	-0.3428134	-0.1831611	452.8418	0	12.19	4003	21	3	23	0	0.6904588	0.1046463	3	10	0.04	1800	-2.812775	40.92392	-91.39362
152462	-8	18	0	-0.34527	-0.109113	452.8525	0	12.19	4002	-10	-14	17	0	0.6904588	0.1067523	3	10	0.04	1800	-2.768738	40.92392	-91.39362
152565	144	69	171	-0.3445361	-0.1016385	452.8241	0	11.97	4004	21	0	13	0	0.6904588	0.1106959	3	10	0.04	1800	-2.175293	40.92392	-91.39362
152668	9	26	-152	-0.3294195	-0.06652454	452.8285	0	11.97	4002	3	-14	17	0	0.6904588	0.1113179	3	10	0.04	1800	-2.444	40.92392	-91.39362
152822	39	15	-102	-0.4039411	-0.08605065	452.8008	0	11.97	4004	2	31	22	0	0.6904588	0.1118238	3	10	0.04	1800	-2.372253	40.92392	-91.39362
152978	-150	-86	-207	-0.3987844	-0.07200544	452.7799	0	11.97	4003	14	0	21	0	0.6904588	0.1050516	3	10	0.04	1800	-2.500366	40.92392	-91.39362
153069	-183	-147	116	-0.4349265	-0.08451194	452.7615	0	11.97	4003	30	400	22	28	0.6904588	0.1079203	8	10	0.04	1800	-2.639923	40.92392	-91.39362
153152	-125	18	322	-0.378556	0.06780344	452.7154	0	11.97	4003	13	-20	24	50	0.6904588	0.1094745	8	10	0.04	1800	-2.519714	40.92392	-91.39362
153244	-96	53	326	-0.4321589	0.1090794	452.5436	0	11.97	4003	42	-6	33	99	0.6904588	0.1148923	8	10	0.04	1800	-2.334869	40.92392	-91.39362
153338	-185	-184	986	-0.399785	0.06948768	452.3222	0	11.97	4002	9	26	36	62	0.6904588	0.1173563	8	10	0.04	1800	-2.160065	40.92392	-91.39362
153442	-45	69	490	-0.3881377	0.102344	452.2937	0	11.8	4004	-25	-2	23	52	0.6904588	0.1245026	8	10	0.04	1800	-2.560699	40.92392	-91.39362
153572	100	88	-6	-0.4307195	0.02994015	452.2517	0	11.8	4002	22	35	35	59	0.6904588	0.1304606	8	10	0.04	1800	-3.004059	40.92392	-91.39362
153647	65	47	278	-0.4674056	-0.00300544	452.1632	0	11.8	4002	-16	23	31	55	0.6904588	0.1336239	8	10	0.04	1800	-1.601379	40.92392	-91.39362
153777	-219	-31	133	-0.3935982	-0.02059921	452.0438	0	11.8	4003	35	-18	38	62	0.6904588	0.1381002	8	10	0.04	1800	-2.514587	40.92392	-91.39362
153849	-74	-211	209	-0.4755746	0.05934106	451.97	0	11.8	4003	28	-22	49	57	0.6904588	0.1388235	8	10	0.04	1800	-1.993713	40.92392	-91.39362
153952	-73	-191	-75	-0.582594	-0.1289826	451.8797	0	11.8	4004	27	7	48	64	0.6904588	0.1408162	8	10	0.04	1800	-2.092804	40.92392	-91.39362
154104	-99	0	-61	-0.5507406	-0.1041326	451.8204	0	11.8	4003	-14	17	47	58	0.6904588	0.1326455	8	10	0.04	1800	-1.674011	40.92392	-91.39362
154201	8	-132	113	-0.5412836	0.001804696	451.712	0	11.8	4003	29	36	47	59	0.6904588	0.1267074	8	10	0.04	1800	-2.270752	40.92392	-91.39362
154266	-3	-58	-384	-0.5801926	-0.05424236	451.6661	0	11.8	4004	12	-5	48	71	0.6904588	0.1208189	8	10	0.04	1800	-2.242645	40.92392	-91.39362
154350	-3	162	-189	-0.6061121	-0.06717446	451.6364	0	12.14	4002	-8	-14	45	65	0.6904588	0.1124505	8	10	0.04	1800	-2.094452	40.92392	-91.39362
154466	28	-51	-365	-0.4568628	-0.1433151	451.6077	0	12.14	4004	40	-13	61	110	0.6904588	0.108938	8	10	0.04	1800	-1.879211	40.92392	-91.39362
154613	107	184	-850	-0.3478921	-0.1277356	451.5967	0	12.14	4004	38	-31	55	108	0.6904588	0.1073343	8	10	0.04	1800	-2.332275	40.92392	-91.39362
154724	135	260	0	-0.4463483	0.06479254	451.4737	0	12.14	4003	38	-15	53	111	0.6904588	0.1056923	8	10	0.04	1800	-1.958984	40.92392	-91.39363
154745	98	0	588	-0.5053039	0.01952808	451.4637	0	12.14	4004	56	25	52	64	0.6904588	0.1056923	8	10	0.04	1800	-1.958984	40.92392	-91.39363
154857	32	23	-354	-0.6275888	-0.06671087	451.5012	0	12.14	4003	-5	35	50	59	0.6904588	0.106517	8	10	0.04	1800	-2.218506	40.92392	-91.39363
