time(ms)	gyro_x(deg/s)	gyro_y(deg/s)	gyro_z(deg/s)	orientation_roll(deg)	orientation_pitch(deg)	orientation_yaw(deg)	throttle	battery(V)	loop_time(uS)	pid_output_roll	pid_output_pitch	pid_output_yaw	pid_output_throttle	ultrasonic_alt	baro_alt	flight_mode	p_gain_altitude	i_gain_altitude	d_gain_altitude	compass_heading	latitude	longitude
93195	-8	1	2	-2.861142	-1.66627	526.9233	0	12.25	4003	0	0	0	0	0.6904588	-0.4339423	1	10	0.04	1800	-63.64328	40.92387	-91.39362
93272	-20	-10	5	-2.860444	-1.660998	526.9172	0	12.25	4003	0	0	0	0	0.6904588	-0.4348731	1	10	0.04	1800	-63.12662	40.92387	-91.39362
93379	-15	-3	0	-2.857067	-1.660076	526.9075	0	12.25	4003	0	0	0	0	0.6904588	-0.439006	1	10	0.04	1800	-63.64218	40.92387	-91.39362
93479	-12	-4	3	-2.852748	-1.657702	526.9016	0	12.25	4003	0	0	0	0	0.6904588	-0.4378516	1	10	0.04	1800	-63.8992	40.92387	-91.39362
93592	-7	6	6	-2.846734	-1.655533	526.8901	0	12.25	4004	0	0	0	0	0.6904588	-0.4435773	1	10	0.04	1800	-63.64175	40.92387	-91.39362
93683	-13	-4	3	-2.842293	-1.652788	526.8865	0	12.25	4003	0	0	0	0	0.6904588	-0.4458559	1	10	0.04	1800	-63.63919	40.92387	-91.39362
93870	-8	6	5	-2.836929	-1.649952	526.8694	0	12.25	4002	0	0	0	0	0.6904588	-0.4585819	1	10	0.04	1800	-63.52036	40.92387	-91.39362
93929	-5	0	6	-2.835696	-1.653118	526.8634	0	12.25	4003	0	0	0	0	0.6904588	-0.461268	1	10	0.04	1800	-63.63547	40.92387	-91.39362
93985	-17	2	5	-2.837098	-1.654821	526.8612	0	12.25	4004	0	0	0	0	0.6904588	-0.4708763	1	10	0.04	1800	-63.63547	40.92387	-91.39362
94140	-9	-5	0	-2.836891	-1.655206	526.8481	0	12.25	4003	0	0	0	0	0.6904588	-0.4855863	1	10	0.04	1800	-63.38693	40.92387	-91.39362
94206	-11	-1	4	-2.83641	-1.654587	526.8429	0	12.25	4002	0	0	0	0	0.6904588	-0.4889879	1	10	0.04	1800	-63.51544	40.92387	-91.39362
94300	-12	-1	4	-2.835588	-1.656067	526.8378	0	12.25	4003	0	0	0	0	0.6904588	-0.4894539	1	10	0.04	1800	-63.522	40.92387	-91.39362
94449	-9	-2	3	-2.837131	-1.64626	526.8246	0	12.19	4002	0	0	0	0	0.6904588	-0.4942518	1	10	0.04	1800	-63.51791	40.92387	-91.39362
94501	-6	0	3	-2.836158	-1.645918	526.8203	0	12.19	4004	0	0	0	0	0.6904588	-0.4941144	1	10	0.04	1800	-63.24323	40.92387	-91.39362
94606	-15	-6	1	-2.835482	-1.644284	526.8153	0	12.19	4002	0	0	0	0	0.6904588	-0.4927018	1	10	0.04	1800	-63.11243	40.92388	-91.39362
94776	-8	4	5	-2.842971	-1.649779	526.8058	0	12.19	4003	0	0	0	0	0.6904588	-0.4961231	1	10	0.04	1800	-63.37305	40.92388	-91.39362
94827	-12	-19	4	-2.848922	-1.645313	526.7971	0	12.19	4003	0	0	0	0	0.6904588	-0.4946836	1	10	0.04	1800	-63.49835	40.92388	-91.39362
94926	-13	-1	2	-2.840601	-1.645161	526.791	0	12.19	4002	0	0	0	0	0.6904588	-0.4889832	1	10	0.04	1800	-63.23618	40.92388	-91.39362
95120	-17	-7	5	-2.84322	-1.626537	526.7767	0	12.19	4002	0	0	0	0	0.6904588	-0.4661331	1	10	0.04	1800	-63.6073	40.92388	-91.39362
95173	-5	-5	2	-2.845769	-1.626006	526.7749	0	12.19	4003	0	0	0	0	0.6904588	-0.4582346	1	10	0.04	1800	-63.58658	40.92388	-91.39362
95248	-7	-5	3	-2.844149	-1.628463	526.7715	0	12.19	4003	0	0	0	0	0.6904588	-0.4533307	1	10	0.04	1800	-63.58493	40.92388	-91.39362
95320	-11	-1	3	-2.845644	-1.618932	526.7645	0	12.19	4002	0	0	0	0	0.6904588	-0.4453536	1	10	0.04	1800	-63.59293	40.92388	-91.39362
95422	-9	0	3	-2.837611	-1.617975	526.7562	0	12.19	4003	0	0	0	0	0.6904588	-0.4418651	1	10	0.04	1800	-63.32126	40.92388	-91.39362
95623	48	-39	-193	-2.829989	-1.452382	526.6531	0	12.19	4004	0	0	0	0	0.6904588	-0.4079557	1	10	0.04	1800	-63.2959	40.92388	-91.39362
95682	23	22	45	-2.724874	-1.499906	526.767	0	12.19	4004	0	0	0	0	0.6904588	-0.3981069	1	10	0.04	1800	-63.80157	40.92388	-91.39362
95728	-63	20	38	-2.720102	-1.511506	526.7497	0	12.19	4003	0	0	0	0	0.6904588	-0.3848974	1	10	0.04	1800	-63.47269	40.92388	-91.39362
95852	-840	549	-386	-2.672656	-1.664212	527.0432	0	12.19	4003	0	0	0	0	0.6904588	-0.3672861	1	10	0.04	1800	-63.85379	40.92388	-91.39362
95926	-3006	24	-628	-5.064876	-2.04442	527.5991	0	12.19	4003	0	0	0	0	0.6904588	-0.3534818	1	10	0.04	1800	-64.87085	40.92388	-91.39362
96101	-990	1392	-898	-7.437243	-2.769974	529.7892	0	12.19	4004	0	0	0	0	0.6904588	-0.3229433	1	10	0.04	1800	-66.26675	40.92388	-91.39362
96185	-1169	656	-1472	-8.584822	-3.77889	531.1144	0	12.19	4002	0	0	0	0	0.6904588	-0.3079122	1	10	0.04	1800	-67.42886	40.92389	-91.39362
96320	571	-528	-3231	-7.904267	-3.214006	536.5366	0	12.19	4004	0	0	0	0	0.6904588	-0.2837934	1	10	0.04	1800	-73.21609	40.92389	-91.39362
96368	-679	-3328	-5422	-7.883633	0.1042689	543.9092	0	12.19	4003	0	0	0	0	0.6904588	-0.2746976	1	10	0.04	1800	-79.31049	40.92389	-91.39362
96427	-17	-4611	-6239	-8.045112	2.293957	547.1285	0	12.19	4003	0	0	0	0	0.6904588	-0.2575521	1	10	0.04	1800	-90.08533	40.92389	-91.39362
96522	257	-4261	-4683	-6.610686	9.119999	557.3456	0	12.19	4003	0	0	0	0	0.6904588	-0.2376088	1	10	0.04	1800	257.3914	40.92389	-91.39362
96641	3222	-1313	6251	-3.496965	14.61459	555.9231	0	12.19	4004	0	0	0	0	0.6904588	-0.1938719	1	10	0.04	1800	235.9606	40.9239	-91.39362
96726	2495	-461	9232	-2.936154	14.38943	546.9635	0	12.19	4003	0	0	0	0	0.6904588	-0.148252	1	10	0.04	1800	241.4524	40.9239	-91.39362
96825	3771	1306	11390	-1.502569	12.7733	524.2986	0	12.19	4003	0	0	0	0	0.6904588	-0.1174029	1	10	0.04	1800	-91.84305	40.9239	-91.39361
96943	3768	2224	11094	1.14772	9.797138	505.9908	0	12.19	4004	0	0	0	0	0.6904588	-0.06433778	1	10	0.04	1800	-72.22675	40.9239	-91.39362
97139	2290	-40	9962	0.9199066	10.41462	475.586	0	12.19	4002	0	0	0	0	0.6904588	0.01709868	1	10	0.04	1800	-27.53592	40.92391	-91.39362
97278	753	-294	5081	-3.97522	12.33543	454.5673	0	12.25	4004	0	0	0	0	0.6904588	0.06328364	1	10	0.04	1800	-8.249359	40.92391	-91.39362
97356	750	-286	2681	-5.570621	13.04469	450.4129	0	12.25	4004	0	0	0	0	0.6904588	0.07290462	1	10	0.04	1800	-1.083252	40.92391	-91.39362
97521	-504	782	-877	-9.098402	14.1194	448.7276	0	12.25	4004	0	0	0	0	0.6904588	0.08993516	1	10	0.04	1800	7.267057	40.92391	-91.39362
97596	699	577	-1762	-9.147097	13.13031	450.4681	0	12.25	4004	0	0	0	0	0.6904588	0.097985	1	10	0.04	1800	8.639745	40.92391	-91.39362
97730	929	1685	-182	-5.267029	8.042921	454.2953	0	12.25	4003	0	0	0	0	0.6904588	0.1094492	1	10	0.04	1800	4.057156	40.92391	-91.39362
97780	120	1656	602	-4.817723	6.266302	454.1572	0	12.25	4004	0	0	0	0	0.6904588	0.1135153	1	10	0.04	1800	4.057156	40.92391	-91.39362
97835	-1177	745	478	-5.359052	3.574935	453.2047	0	12.25	4003	0	0	0	0	0.6904588	0.1116216	1	10	0.04	1800	4.117737	40.92391	-91.39362
97937	1070	511	-1343	-4.595131	2.220807	453.7783	0	12.25	4002	0	0	0	0	0.6904588	0.1111925	1	10	0.04	1800	3.281718	40.92392	-91.39362
98041	-470	-387	594	-1.930499	-2.262851	457.019	0	12.25	4002	0	0	0	0	0.6904588	0.1088606	1	10	0.04	1800	-0.4277649	40.92392	-91.39362
98149	-159	-234	83	-0.8669032	-3.16971	456.9377	0	12.25	4004	0	0	0	0	0.6904588	0.1040306	1	10	0.04	1800	-1.238251	40.92392	-91.39362
98345	71	134	-77	-1.472005	-1.464868	456.7509	0	12.25	4002	0	0	0	0	0.6904588	0.08053304	1	10	0.04	1800	-1.790253	40.92393	-91.39362
98374	48	186	8	-1.30898	-1.498432	456.7356	0	12.25	4004	0	0	0	0	0.6904588	0.07582027	1	10	0.04	1800	-1.613068	40.92393	-91.39362
98452	-75	106	20	-1.088325	-1.541187	456.735	0	12.25	4004	0	0	0	0	0.6904588	0.06432581	1	10	0.04	1800	-2.117218	40.92393	-91.39362
98586	-23	-6	8	-0.9667215	-1.390208	456.7249	0	12.25	4003	0	0	0	0	0.6904588	0.04645952	1	10	0.04	1800	-2.061066	40.92393	-91.39362
98653	-16	18	6	-0.9178126	-1.288618	456.7157	0	12.25	4004	0	0	0	0	0.6904588	0.0303941	1	10	0.04	1800	-2.41095	40.92393	-91.39362
98789	-7	2	7	-0.756503	-1.044546	456.703	0	12.25	4002	0	0	0	0	0.6904588	-0.01833211	1	10	0.04	1800	-2.639618	40.92393	-91.39362
98859	-4	0	1	-0.718924	-1.012796	456.7015	0	12.25	4004	0	0	0	0	0.6904588	-0.02991527	1	10	0.04	1800	-2.639618	40.92393	-91.39362
98950	-5	7	6	-0.6424701	-0.8812255	456.6939	0	12.25	4004	0	0	0	0	0.6904588	-0.04531126	1	10	0.04	1800	-2.80127	40.92393	-91.39362
99087	-15	1	9	-0.5384235	-0.7594934	456.6838	0	12.31	4003	0	0	0	0	0.6904588	-0.0863359	1	10	0.04	1800	-2.972931	40.92393	-91.39362
99207	-18	4	3	-0.4707859	-0.6775253	456.6764	0	12.31	4002	0	0	0	0	0.6904588	-0.1024185	1	10	0.04	1800	-3.027527	40.92393	-91.39362
99263	-5	-5	3	-0.4187762	-0.6134458	456.6697	0	12.31	4003	0	0	0	0	0.6904588	-0.1067598	1	10	0.04	1800	-3.142822	40.92393	-91.39362
99362	-12	0	8	-0.385048	-0.5627577	456.664	0	12.31	4002	0	0	0	0	0.6904588	-0.1288776	1	10	0.04	1800	-3.183594	40.92393	-91.39362
99467	-3	-3	3	-0.3371355	-0.5018871	456.6557	0	12.31	4003	0	0	0	0	0.6904588	-0.1368932	1	10	0.04	1800	-3.241211	40.92393	-91.39362
99598	-10	-2	5	-0.280857	-0.4321023	456.6442	0	12.31	4003	0	0	0	0	0.6904588	-0.1493139	1	10	0.04	1800	-3.326477	40.92393	-91.39362
99716	-11	-2	6	-0.25227	-0.3880536	456.6344	0	12.31	4003	0	0	0	0	0.6904588	-0.1558381	1	10	0.04	1800	-3.587982	40.92393	-91.39362
99776	-3	2	3	-0.2245695	-0.3572079	456.6258	0	12.31	4003	0	0	0	0	0.6904588	-0.1574923	1	10	0.04	1800	-3.657776	40.92393	-91.39362
99916	-8	-3	8	-0.2028781	-0.3209224	456.62	0	12.31	4004	0	0	0	0	0.6904588	-0.1539644	1	10	0.04	1800	-3.449219	40.92393	-91.39362
100038	-10	-1	4	-0.1785037	-0.2828732	456.6093	0	12.31	4004	0	0	0	0	0.6904588	-0.1551625	1	10	0.04	1800	-3.486115	40.92393	-91.39362
100092	-7	0	3	-0.1706433	-0.2676996	456.6049	0	12.31	4005	0	0	0	0	0.6904588	-0.1555097	1	10	0.04	1800	-3.494568	40.92393	-91.39362
100171	-2	0	7	-0.1596244	-0.2491984	456.6002	0	12.31	4002	0	0	0	0	0.6904588	-0.1518106	1	10	0.04	1800	-3.731445	40.92393	-91.39362
100275	-11	6	4	-0.1335057	-0.2240541	456.5887	0	12.31	4003	0	0	0	0	0.6904588	-0.1508555	1	10	0.04	1800	-3.776123	40.92393	-91.39362
100376	-2	0	5	-0.1254591	-0.2102616	456.5822	0	12.31	4004	0	0	0	0	0.6904588	-0.149505	1	10	0.04	1800	-3.990784	40.92393	-91.39362
100589	-13	-2	3	-0.1011483	-0.1803326	456.5667	0	12.31	4004	0	0	0	0	0.6904588	-0.1370688	1	10	0.04	1800	-3.597504	40.92393	-91.39362
100703	-3	1	6	-0.08662822	-0.1732598	456.5591	0	12.31	4002	0	0	0	0	0.6904588	-0.1365219	1	10	0.04	1800	-3.816559	40.92393	-91.39362
100785	-3	1	3	-0.07652523	-0.1659985	456.5525	0	12.31	4002	0	0	0	0	0.6904588	-0.1362567	1	10	0.04	1800	-3.85965	40.92393	-91.39362
100873	-4	-1	3	-0.06399927	-0.1617722	456.5464	0	12.31	4004	0	0	0	0	0.6904588	-0.1319243	1	10	0.04	1800	-3.671143	40.92393	-91.39362
100971	0	-3	2	-0.06303415	-0.1566636	456.5417	0	12.19	4004	0	0	0	0	0.6904588	-0.1239505	1	10	0.04	1800	-3.434265	40.92393	-91.39362
101074	-2	4	2	-0.05913168	-0.1492536	456.5338	0	12.19	4003	0	0	0	0	0.6904588	-0.1184461	1	10	0.04	1800	-3.896088	40.92393	-91.39362
101180	-4	-5	6	-0.05207977	-0.1448284	456.529	0	12.19	4004	0	0	0	0	0.6904588	-0.1132892	1	10	0.04	1800	-3.445953	40.92393	-91.39362
101303	-7	0	4	-0.04228586	-0.1374812	456.5173	0	12.19	4003	0	0	0	0	0.6904588	-0.1137726	1	10	0.04	1800	-3.68634	40.92393	-91.39362
101383	-6	-3	9	-0.04341755	-0.1379646	456.5124	0	12.19	4002	0	0	0	0	0.6904588	-0.1126952	1	10	0.04	1800	-3.689606	40.92393	-91.39362
101487	-2	-4	6	-0.04454047	-0.1317281	456.5021	0	12.19	4002	0	0	0	0	0.6904588	-0.1134047	1	10	0.04	1800	-3.688141	40.92393	-91.39362
101584	1	-6	5	-0.04485031	-0.1321683	456.4958	0	12.19	4003	0	0	0	0	0.6904588	-0.1201556	1	10	0.04	1800	-3.684418	40.92393	-91.39362
101687	3	0	7	-0.04722849	-0.1313262	456.487	0	12.19	4004	0	0	0	0	0.6904588	-0.1233613	1	10	0.04	1800	-3.681091	40.92393	-91.39362
101844	-2	-1	6	-0.04660906	-0.1256255	456.4724	0	12.19	4003	0	0	0	0	0.6904588	-0.1161334	1	10	0.04	1800	-3.684998	40.92393	-91.39362
101892	-2	-1	5	-0.04297187	-0.126176	456.4688	0	12.19	4003	0	0	0	0	0.6904588	-0.1071898	1	10	0.04	1800	-3.906525	40.92393	-91.39362
102008	-6	-4	3	-0.04395433	-0.1221665	456.4612	0	12.19	4004	0	0	0	0	0.6904588	-0.09905357	1	10	0.04	1800	-3.451782	40.92393	-91.39362
102096	-8	-4	3	-0.03683374	-0.1188099	456.4561	0	12.19	4006	0	0	0	0	0.6904588	-0.1002988	1	10	0.04	1800	-3.912872	40.92393	-91.39362
102198	0	-1	4	-0.03560303	-0.1209494	456.4491	0	12.19	4002	0	0	0	0	0.6904588	-0.1021016	1	10	0.04	1800	-3.715973	40.92393	-91.39362
102307	-2	-2	2	-0.02843143	-0.1195891	456.4382	0	12.19	4004	0	0	0	0	0.6904588	-0.1065625	1	10	0.04	1800	-3.930145	40.92393	-91.39362
102417	-5	-8	0	-0.024903	-0.1222451	456.4296	0	12.19	4004	0	0	0	0	0.6904588	-0.1021769	1	10	0.04	1800	-3.716583	40.92393	-91.39362
102532	-15	-3	4	-0.02303034	-0.1250023	456.4237	0	12.19	4003	0	0	0	0	0.6904588	-0.1029658	1	10	0.04	1800	-3.923889	40.92393	-91.39362
102644	-9	-3	3	-0.02272379	-0.1264185	456.414	0	12.19	4004	0	0	0	0	0.6904588	-0.1099056	1	10	0.04	1800	-3.730377	40.92393	-91.39362
102688	-1	-1	6	-0.0231517	-0.1298307	456.4093	0	12.19	4004	0	0	0	0	0.6904588	-0.1162206	1	10	0.04	1800	-3.719635	40.92393	-91.39362
102775	2	1	3	-0.02488277	-0.1302871	456.4011	0	12.25	4002	0	0	0	0	0.6904588	-0.1224379	1	10	0.04	1800	-3.942108	40.92393	-91.39362
102919	-3	-3	0	-0.02047868	-0.1245378	456.394	0	12.25	4002	0	0	0	0	0.6904588	-0.1209854	1	10	0.04	1800	-3.926147	40.92393	-91.39362
102974	-5	-3	5	-0.01713344	-0.120583	456.3902	0	12.25	4002	0	0	0	0	0.6904588	-0.1210479	1	10	0.04	1800	-3.926147	40.92393	-91.39362
103076	-6	-3	7	-0.02172658	-0.1156785	456.3826	0	12.25	4003	0	0	0	0	0.6904588	-0.1177641	1	10	0.04	1800	-3.721954	40.92393	-91.39362
103281	0	2	4	-0.0205197	-0.1243656	456.3705	0	12.25	4003	0	0	0	0	0.6904588	-0.1111708	1	10	0.04	1800	-3.50412	40.92393	-91.39362
103311	-5	1	9	-0.01728988	-0.1216388	456.3678	0	12.25	4004	0	0	0	0	0.6904588	-0.1108912	1	10	0.04	1800	-3.50412	40.92393	-91.39362
103376	0	-4	4	-0.01625718	-0.1246741	456.3632	0	12.25	4003	0	0	0	0	0.6904588	-0.1166834	1	10	0.04	1800	-3.95929	40.92393	-91.39362
103476	0	-4	1	-0.01367522	-0.1322796	456.3584	0	12.25	4002	0	0	0	0	0.6904588	-0.1246079	1	10	0.04	1800	-3.507263	40.92393	-91.39362
103593	-4	2	3	-0.01251966	-0.1373017	456.3504	0	12.25	4002	0	0	0	0	0.6904588	-0.1322328	1	10	0.04	1800	-3.733368	40.92393	-91.39362
103710	0	-1	5	-0.009355788	-0.1349505	456.3414	0	12.25	4003	0	0	0	0	0.6904588	-0.1353823	1	10	0.04	1800	-3.725098	40.92393	-91.39362
103772	-6	1	3	-0.01045636	-0.1377339	456.3392	0	12.25	4004	0	0	0	0	0.6904588	-0.1351409	1	10	0.04	1800	-3.739258	40.92393	-91.39362
103877	-1	-6	4	-0.01298096	-0.1358755	456.3301	0	12.25	4003	0	0	0	0	0.6904588	-0.1381437	1	10	0.04	1800	-3.7229	40.92393	-91.39362
103981	-1	5	4	-0.01175361	-0.1311812	456.3263	0	12.25	4002	0	0	0	0	0.6904588	-0.1388852	1	10	0.04	1800	-3.733673	40.92393	-91.39362
104153	-7	-2	2	-0.01001415	-0.1417105	456.3156	0	12.25	4003	0	0	0	0	0.6904588	-0.1434715	1	10	0.04	1800	-3.741272	40.92393	-91.39362
104209	0	2	6	-0.009318574	-0.1408361	456.3138	0	12.25	4003	0	0	0	0	0.6904588	-0.1426597	1	10	0.04	1800	-3.75531	40.92393	-91.39362
104290	0	3	4	-0.004518874	-0.1368675	456.3066	0	12.25	4003	0	0	0	0	0.6904588	-0.1430069	1	10	0.04	1800	-3.726959	40.92393	-91.39362
104386	-2	-1	3	-0.004321164	-0.13776	456.2995	0	12.25	4003	0	0	0	0	0.6904588	-0.1404034	1	10	0.04	1800	-3.527466	40.92393	-91.39362
104487	6	-1	0	0.0005405144	-0.133322	456.2961	0	12.25	4003	0	0	0	0	0.6904588	-0.1389666	1	10	0.04	1800	-3.527466	40.92393	-91.39362
104591	1	-2	5	0.001203453	-0.1338148	456.287	0	12.25	4003	0	0	0	0	0.6904588	-0.139279	1	10	0.04	1800	-3.966156	40.92393	-91.39362
104692	-4	-3	2	0.002961865	-0.1287825	456.2778	0	12.25	4003	0	0	0	0	0.6904588	-0.1342173	1	10	0.04	1800	-3.73645	40.92393	-91.39362
104801	-2	-3	3	0.0006785549	-0.1283398	456.2737	0	12.25	4003	0	0	0	0	0.6904588	-0.119312	1	10	0.04	1800	-3.774567	40.92393	-91.39362
104895	0	-4	5	0.01298465	-0.1364757	456.2672	0	12.25	4003	0	0	0	0	0.6904588	-0.11983	1	10	0.04	1800	-3.992584	40.92393	-91.39362
104996	0	3	5	0.02196823	-0.1309005	456.2589	0	12.25	4003	0	0	0	0	0.6904588	-0.1158549	1	10	0.04	1800	-3.787811	40.92393	-91.39362
105097	0	-1	4	0.01682339	-0.132976	456.2538	0	12.25	4003	0	0	0	0	0.6904588	-0.1034771	1	10	0.04	1800	-3.787811	40.92393	-91.39362
105230	4	-6	7	0.02035337	-0.1321805	456.2462	0	12.25	4002	0	0	0	0	0.6904588	-0.09613154	1	10	0.04	1800	-3.76825	40.92393	-91.39362
105269	-2	-5	3	0.02128267	-0.1270088	456.2395	0	12.25	4003	0	0	0	0	0.6904588	-0.09268686	1	10	0.04	1800	-3.786957	40.92393	-91.39362
105396	1	-4	0	0.01438719	-0.128676	456.2344	0	12.25	4004	0	0	0	0	0.6904588	-0.09232066	1	10	0.04	1800	-3.776947	40.92393	-91.39362
105453	-3	-5	1	0.01564042	-0.1313645	456.2284	0	12.25	4003	0	0	0	0	0.6904588	-0.09663304	1	10	0.04	1800	-3.777069	40.92393	-91.39362
105526	5	0	2	0.01569556	-0.1306936	456.2282	0	12.25	4004	0	0	0	0	0.6904588	-0.1071898	1	10	0.04	1800	-3.779877	40.92393	-91.39362
105660	-6	-2	6	0.02034451	-0.1331185	456.2193	0	12.25	4003	0	0	0	0	0.6904588	-0.1162615	1	10	0.04	1800	-3.781036	40.92393	-91.39362
105726	0	0	3	0.0249819	-0.1320015	456.2171	0	12.25	4003	0	0	0	0	0.6904588	-0.1143674	1	10	0.04	1800	-3.781036	40.92394	-91.39362
105833	-4	-3	0	0.02213975	-0.1313082	456.2118	0	12.25	4002	0	0	0	0	0.6904588	-0.1127361	1	10	0.04	1800	-4.025543	40.92394	-91.39362
105934	-1	-7	5	0.01569595	-0.132563	456.2065	0	12.25	4003	0	0	0	0	0.6904588	-0.105244	1	10	0.04	1800	-4.002441	40.92394	-91.39362
106083	4	-4	6	0.02419093	-0.1357285	456.1986	0	12.25	4003	0	0	0	0	0.6904588	-0.09198213	1	10	0.04	1800	-3.573456	40.92394	-91.39362
106195	-4	-4	2	0.01868455	-0.1354324	456.1923	0	12.25	4003	0	0	0	0	0.6904588	-0.08754064	1	10	0.04	1800	-4.006897	40.92394	-91.39362
106238	1	-4	6	0.01811814	-0.1349116	456.189	0	12.25	4004	0	0	0	0	0.6904588	-0.08851101	1	10	0.04	1800	-3.784546	40.92394	-91.39362
106366	0	2	5	0.01704681	-0.1377626	456.1806	0	12.25	4002	0	0	0	0	0.6904588	-0.1030986	1	10	0.04	1800	-3.999329	40.92394	-91.39362
106443	-4	-2	1	0.01434077	-0.1358774	456.1772	0	12.25	4002	0	0	0	0	0.6904588	-0.1124898	1	10	0.04	1800	-3.764191	40.92394	-91.39362
106524	0	-2	6	0.01678953	-0.1375848	456.1721	0	12.25	4003	0	0	0	0	0.6904588	-0.1306366	1	10	0.04	1800	-3.559509	40.92394	-91.39362
106624	1	2	6	0.01874584	-0.137377	456.1678	0	12.25	4004	0	0	0	0	0.6904588	-0.1397998	1	10	0.04	1800	-3.782806	40.92394	-91.39362
106726	4	-1	5	0.01972487	-0.1384647	456.1642	0	12.25	4004	0	0	0	0	0.6904588	-0.1532677	1	10	0.04	1800	-3.785248	40.92394	-91.39362
106831	0	0	3	0.01328023	-0.1402283	456.1581	0	12.25	4002	0	0	0	0	0.6904588	-0.1646894	1	10	0.04	1800	-3.776062	40.92394	-91.39362
106908	-4	0	1	0.007428589	-0.141097	456.1541	0	12.25	4002	0	0	0	0	0.6904588	-0.1739109	1	10	0.04	1800	-3.767761	40.92394	-91.39362
106978	-1	-5	4	0.008720571	-0.1428746	456.1517	0	12.25	4002	0	0	0	0	0.6904588	-0.1754975	1	10	0.04	1800	-3.970459	40.92394	-91.39362
107079	-2	0	0	0.006627781	-0.1545885	456.148	0	12.25	4003	0	0	0	0	0.6904588	-0.1765123	1	10	0.04	1800	-3.752808	40.92394	-91.39362
107249	-5	-4	0	0.01745217	-0.1515628	456.138	0	12.25	4003	0	0	0	0	0.6904588	-0.1751248	1	10	0.04	1800	-3.765106	40.92394	-91.39362
107415	-1	-4	1	0.02503577	-0.1505069	456.1287	0	12.25	4003	0	0	0	0	0.6904588	-0.1828752	1	10	0.04	1800	-3.779419	40.92394	-91.39362
107554	-2	-1	11	0.02234867	-0.1460016	456.1211	0	12.25	4002	0	0	0	0	0.6904588	-0.1887669	1	10	0.04	1800	-3.794769	40.92394	-91.39362
107582	-1	-3	2	0.02837233	-0.149218	456.1187	0	12.25	4002	0	0	0	0	0.6904588	-0.1922652	1	10	0.04	1800	-3.569275	40.92394	-91.39362
107667	0	-3	2	0.02687144	-0.1471309	456.1168	0	12.25	4003	0	0	0	0	0.6904588	-0.1979629	1	10	0.04	1800	-3.802399	40.92394	-91.39362
107852	4	-3	0	0.03275347	-0.1431541	456.1098	0	12.25	4002	0	0	0	0	0.6904588	-0.2093971	1	10	0.04	1800	-4.007935	40.92394	-91.39362
107945	3	3	-2	0.03267203	-0.1405988	456.1079	0	12.25	4004	0	0	0	0	0.6904588	-0.2138949	1	10	0.04	1800	-3.787903	40.92394	-91.39362
108020	4	-6	2	0.03378395	-0.1397225	456.1023	0	12.25	4003	0	0	0	0	0.6904588	-0.2164195	1	10	0.04	1800	-4.022858	40.92394	-91.39362
108087	-4	0	2	0.03540242	-0.1374377	456.1003	0	12.25	4004	0	0	0	0	0.6904588	-0.2143519	1	10	0.04	1800	-3.805542	40.92394	-91.39362
108238	-3	0	2	0.0365409	-0.134928	456.0949	0	12.19	4003	0	0	0	0	0.6904588	-0.2063907	1	10	0.04	1800	-4.034637	40.92394	-91.39362
108320	3	-4	2	0.03732691	-0.1386151	456.0911	0	12.19	4002	0	0	0	0	0.6904588	-0.1983175	1	10	0.04	1800	-3.825653	40.92394	-91.39362
108421	0	0	5	0.03383339	-0.1414743	456.0883	0	12.19	4002	0	0	0	0	0.6904588	-0.1897608	1	10	0.04	1800	-3.588562	40.92394	-91.39362
108568	-1	-2	4	0.03430903	-0.1454	456.08	0	12.19	4003	0	0	0	0	0.6904588	-0.1887858	1	10	0.04	1800	-3.790009	40.92395	-91.39362
108622	0	1	-3	0.03283828	-0.1496009	456.0786	0	12.19	4003	0	0	0	0	0.6904588	-0.1918754	1	10	0.04	1800	-4.028137	40.92395	-91.39362
108718	1	-3	4	0.03716917	-0.1479167	456.0724	0	12.19	4003	0	0	0	0	0.6904588	-0.1923681	1	10	0.04	1800	-3.796967	40.92395	-91.39362
108889	-2	-1	1	0.03383302	-0.1494642	456.0664	0	12.19	4004	0	0	0	0	0.6904588	-0.1939224	1	10	0.04	1800	-3.802185	40.92395	-91.39362
108945	0	-6	0	0.03656189	-0.1378197	456.0617	0	12.19	4004	0	0	0	0	0.6904588	-0.1892238	1	10	0.04	1800	-4.034058	40.92395	-91.39362
109021	3	-2	2	0.03841874	-0.1364063	456.059	0	12.25	4004	0	0	0	0	0.6904588	-0.1891381	1	10	0.04	1800	-3.797028	40.92395	-91.39362
109132	2	2	2	0.04643102	-0.1363936	456.0552	0	12.25	4003	0	0	0	0	0.6904588	-0.1933026	1	10	0.04	1800	-4.044708	40.92395	-91.39362
109224	-2	-1	0	0.04661988	-0.1363319	456.0489	0	12.25	4004	0	0	0	0	0.6904588	-0.1993576	1	10	0.04	1800	-3.604614	40.92395	-91.39362
109322	0	2	4	0.04542144	-0.1370802	456.0462	0	12.25	4003	0	0	0	0	0.6904588	-0.1989065	1	10	0.04	1800	-3.604614	40.92395	-91.39362
109421	1	-3	3	0.03380473	-0.1366221	456.0393	0	12.25	4002	0	0	0	0	0.6904588	-0.1942012	1	10	0.04	1800	-3.809753	40.92395	-91.39362
109556	-6	-1	8	0.03577058	-0.1317376	456.0318	0	12.25	4002	0	0	0	0	0.6904588	-0.1866522	1	10	0.04	1800	-3.805817	40.92395	-91.39362
109633	-2	-8	0	0.03916692	-0.1304877	456.0291	0	12.25	4005	0	0	0	0	0.6904588	-0.1781244	1	10	0.04	1800	-3.808533	40.92395	-91.39362
109721	4	2	2	0.03999289	-0.1387079	456.0243	0	12.25	4003	0	0	0	0	0.6904588	-0.1664741	1	10	0.04	1800	-3.817444	40.92395	-91.39362
109823	6	-1	4	0.03489131	-0.145472	456.0213	0	12.25	4003	0	0	0	0	0.6904588	-0.1625925	1	10	0.04	1800	-3.824371	40.92395	-91.39362
109924	2	-2	3	0.04010092	-0.1446868	456.018	0	12.25	4004	0	0	0	0	0.6904588	-0.1561773	1	10	0.04	1800	-3.811554	40.92395	-91.39362
110034	3	0	2	0.04065125	-0.1409987	456.0116	0	12.19	4004	0	0	0	0	0.6904588	-0.1543906	1	10	0.04	1800	-4.03595	40.92395	-91.39362
110120	4	-7	4	0.04187387	-0.140305	456.0068	0	12.19	4004	0	0	0	0	0.6904588	-0.1529744	1	10	0.04	1800	-3.835602	40.92395	-91.39362
110230	2	-1	5	0.04361388	-0.1420217	456.0006	0	12.19	4002	0	0	0	0	0.6904588	-0.1465461	1	10	0.04	1800	-3.817841	40.92395	-91.39362
110323	13	-2	4	0.04546029	-0.1428144	455.9959	0	12.19	4003	0	0	0	0	0.6904588	-0.1441928	1	10	0.04	1800	-4.062469	40.92395	-91.39362
110420	3	0	2	0.05135557	-0.1383994	455.9917	0	12.19	4002	0	0	0	0	0.6904588	-0.1347154	1	10	0.04	1800	-3.605042	40.92395	-91.39362
110523	-3	-2	3	0.05300182	-0.139202	455.9854	0	12.19	4002	0	0	0	0	0.6904588	-0.1195864	1	10	0.04	1800	-3.823334	40.92395	-91.39362
110621	3	-3	2	0.06178973	-0.1403718	455.9814	0	12.19	4002	0	0	0	0	0.6904588	-0.1156095	1	10	0.04	1800	-4.062378	40.92395	-91.39362
110771	3	-1	0	0.05617822	-0.1397324	455.9732	0	12.19	4003	0	0	0	0	0.6904588	-0.1097248	1	10	0.04	1800	-3.628082	40.92395	-91.39362
110852	2	-2	1	0.05752435	-0.144042	455.9675	0	12.25	4004	0	0	0	0	0.6904588	-0.1086706	1	10	0.04	1800	-3.846222	40.92395	-91.39362
110975	3	-4	0	0.06163052	-0.1328681	455.9626	0	12.25	4004	0	0	0	0	0.6904588	-0.1134773	1	10	0.04	1800	-3.848969	40.92395	-91.39362
111027	1	-1	6	0.05885129	-0.1333424	455.959	0	12.25	4002	0	0	0	0	0.6904588	-0.1123713	1	10	0.04	1800	-3.845795	40.92395	-91.39362
111119	1	0	5	0.05545609	-0.1309947	455.9541	0	12.25	4004	0	0	0	0	0.6904588	-0.1139005	1	10	0.04	1800	-3.840759	40.92395	-91.39362
111212	4	-2	2	0.0617946	-0.1343385	455.946	0	12.25	4002	0	0	0	0	0.6904588	-0.1153545	1	10	0.04	1800	-3.843597	40.92395	-91.39362
111318	-1	-6	3	0.05582606	-0.1389849	455.9413	0	12.25	4003	0	0	0	0	0.6904588	-0.1213832	1	10	0.04	1800	-4.05426	40.92395	-91.39362
111508	-1	0	7	0.05870171	-0.136963	455.9302	0	12.25	4003	0	0	0	0	0.6904588	-0.1332326	1	10	0.04	1800	-4.078369	40.92395	-91.39362
111580	3	1	0	0.05866641	-0.1350478	455.924	0	12.25	4004	0	0	0	0	0.6904588	-0.1334879	1	10	0.04	1800	-3.844391	40.92395	-91.39362
111643	0	-4	6	0.06254367	-0.1344803	455.9214	0	12.25	4004	0	0	0	0	0.6904588	-0.1349431	1	10	0.04	1800	-3.844391	40.92395	-91.39362
111770	3	-1	4	0.05973871	-0.1410928	455.9136	0	12.25	4004	0	0	0	0	0.6904588	-0.125232	1	10	0.04	1800	-3.847382	40.92395	-91.39362
111812	-2	-2	4	0.05837303	-0.1415721	455.9118	0	12.25	4002	0	0	0	0	0.6904588	-0.1193221	1	10	0.04	1800	-4.067657	40.92395	-91.39362
111884	3	4	4	0.06134097	-0.1430389	455.9081	0	12.25	4004	0	0	0	0	0.6904588	-0.1120168	1	10	0.04	1800	-4.052979	40.92395	-91.39362
111980	6	-6	4	0.05876546	-0.138741	455.9005	0	12.25	4004	0	0	0	0	0.6904588	-0.1039047	1	10	0.04	1800	-3.85907	40.92395	-91.39362
112085	9	2	3	0.05995819	-0.1406656	455.8966	0	12.25	4002	0	0	0	0	0.6904588	-0.09339508	1	10	0.04	1800	-3.847778	40.92395	-91.39362
112281	3	-1	0	0.06417457	-0.1375813	455.8863	0	12.25	4003	0	0	0	0	0.6904588	-0.06205535	1	10	0.04	1800	-4.074341	40.92395	-91.39362
112304	0	1	6	0.06532192	-0.1404293	455.8826	0	12.25	4003	0	0	0	0	0.6904588	-0.05521543	1	10	0.04	1800	-3.857269	40.92395	-91.39362
112381	7	2	5	0.0643831	-0.140525	455.8761	0	12.25	4004	0	0	0	0	0.6904588	-0.04586342	1	10	0.04	1800	-3.857483	40.92395	-91.39362
112571	7	-2	3	0.06457894	-0.1458954	455.865	0	12.25	4003	0	0	0	0	0.6904588	-0.03678632	1	10	0.04	1800	-3.863495	40.92395	-91.39362
112677	-3	-6	6	0.06565098	-0.1467725	455.8578	0	12.25	4003	0	0	0	0	0.6904588	-0.04372319	1	10	0.04	1800	-4.067078	40.92395	-91.39362
112751	-2	-6	1	0.06409825	-0.1453157	455.8554	0	12.25	4003	0	0	0	0	0.6904588	-0.04819712	1	10	0.04	1800	-4.075409	40.92395	-91.39362
112860	7	-1	1	0.06904154	-0.1473264	455.8478	0	12.25	4004	0	0	0	0	0.6904588	-0.051766	1	10	0.04	1800	-4.082001	40.92395	-91.39362
112952	5	1	3	0.06517111	-0.1455218	455.8411	0	12.25	4002	0	0	0	0	0.6904588	-0.05400375	1	10	0.04	1800	-3.870789	40.92395	-91.39362
113053	4	-4	1	0.06230763	-0.1466748	455.8364	0	12.25	4002	0	0	0	0	0.6904588	-0.05404893	1	10	0.04	1800	-4.075378	40.92395	-91.39362
113261	1	-3	8	0.05763889	-0.1379164	455.8251	0	12.25	4004	0	0	0	0	0.6904588	-0.07356989	1	10	0.04	1800	-4.069336	40.92395	-91.39362
113351	3	2	1	0.06116867	-0.1404872	455.8181	0	12.25	4003	0	0	0	0	0.6904588	-0.09300046	1	10	0.04	1800	-3.863525	40.92395	-91.39362
113426	6	0	4	0.06111822	-0.1451819	455.8134	0	12.25	4003	0	0	0	0	0.6904588	-0.1021867	1	10	0.04	1800	-3.847748	40.92395	-91.39362
113475	2	-1	8	0.05761718	-0.143688	455.808	0	12.25	4004	0	0	0	0	0.6904588	-0.1081554	1	10	0.04	1800	-3.845093	40.92395	-91.39362
113572	-1	-1	1	0.05556147	-0.1453015	455.8004	0	12.25	4002	0	0	0	0	0.6904588	-0.1206998	1	10	0.04	1800	-3.624664	40.92395	-91.39362
113711	5	0	8	0.05680786	-0.1396976	455.7932	0	12.25	4004	0	0	0	0	0.6904588	-0.1242795	1	10	0.04	1800	-3.841766	40.92395	-91.39362
113740	5	0	8	0.05680786	-0.1396976	455.7932	0	12.25	4004	0	0	0	0	0.6904588	-0.1241654	1	10	0.04	1800	-3.841766	40.92395	-91.39362
113812	5	-4	1	0.05092315	-0.1400285	455.7889	0	12.25	4002	0	0	0	0	0.6904588	-0.1293019	1	10	0.04	1800	-3.81842	40.92395	-91.39362
113916	8	-6	5	0.06005154	-0.145791	455.7836	0	12.25	4003	0	0	0	0	0.6904588	-0.12579	1	10	0.04	1800	-3.636475	40.92395	-91.39362
114017	-4	-4	2	0.05215264	-0.1507715	455.776	0	12.25	4003	0	0	0	0	0.6904588	-0.1290663	1	10	0.04	1800	-3.844604	40.92395	-91.39362
114116	3	-3	6	0.04808208	-0.1522018	455.7709	0	12.25	4003	0	0	0	0	0.6904588	-0.1346569	1	10	0.04	1800	-3.817505	40.92395	-91.39362
114221	4	1	2	0.04735851	-0.1514342	455.7643	0	12.25	4004	0	0	0	0	0.6904588	-0.1368235	1	10	0.04	1800	-3.597046	40.92395	-91.39362
114345	0	-7	7	0.05015088	-0.1487875	455.7541	0	12.25	4002	0	0	0	0	0.6904588	-0.137441	1	10	0.04	1800	-3.606873	40.92395	-91.39362
114457	3	-3	9	0.04605703	-0.1490052	455.7485	0	12.31	4004	0	0	0	0	0.6904588	-0.1299188	1	10	0.04	1800	-4.065338	40.92395	-91.39362
114582	4	-4	0	0.04592387	-0.1530199	455.7407	0	12.31	4004	0	0	0	0	0.6904588	-0.1081535	1	10	0.04	1800	-3.824127	40.92395	-91.39362
114623	-4	-4	4	0.04354241	-0.1465843	455.7389	0	12.31	4002	0	0	0	0	0.6904588	-0.09941244	1	10	0.04	1800	-3.824127	40.92395	-91.39362
114722	0	-6	4	0.03906545	-0.1450242	455.73	0	12.31	4004	0	0	0	0	0.6904588	-0.08479277	1	10	0.04	1800	-3.824371	40.92395	-91.39362
114847	9	0	1	0.04054789	-0.1413362	455.7245	0	12.31	4004	0	0	0	0	0.6904588	-0.06160479	1	10	0.04	1800	-3.817719	40.92395	-91.39362
114915	3	-6	3	0.04492534	-0.1466517	455.7213	0	12.31	4003	0	0	0	0	0.6904588	-0.05772981	1	10	0.04	1800	-4.037872	40.92395	-91.39362
115023	-1	0	0	0.0469911	-0.1558083	455.7131	0	12.31	4004	0	0	0	0	0.6904588	-0.04962289	1	10	0.04	1800	-3.827423	40.92395	-91.39362
115109	3	-3	4	0.04270191	-0.1603019	455.7095	0	12.31	4002	0	0	0	0	0.6904588	-0.04895556	1	10	0.04	1800	-4.047394	40.92395	-91.39362
115216	6	6	1	0.04760329	-0.163957	455.7016	0	12.31	4003	0	0	0	0	0.6904588	-0.04198097	1	10	0.04	1800	-3.827759	40.92395	-91.39362
115309	3	3	7	0.04423919	-0.1661733	455.6952	0	12.25	4003	0	0	0	0	0.6904588	-0.04242106	1	10	0.04	1800	-3.813049	40.92395	-91.39362
115432	-2	-3	7	0.05028327	-0.1640028	455.6857	0	12.25	4004	0	0	0	0	0.6904588	-0.03507564	1	10	0.04	1800	-4.052673	40.92395	-91.39362
115518	0	-6	6	0.04604208	-0.1575377	455.6801	0	12.25	4003	0	0	0	0	0.6904588	-0.02202178	1	10	0.04	1800	-3.614624	40.92395	-91.39362
115622	-4	0	3	0.04415843	-0.1520237	455.6754	0	12.25	4002	0	0	0	0	0.6904588	-0.01503103	1	10	0.04	1800	-3.823395	40.92395	-91.39362
115743	0	-4	6	0.04680498	-0.1429459	455.6687	0	12.25	4003	0	0	0	0	0.6904588	-0.01333232	1	10	0.04	1800	-3.619171	40.92395	-91.39362
115857	4	1	10	0.04682277	-0.1432919	455.6618	0	12.25	4004	0	0	0	0	0.6904588	-0.01399498	1	10	0.04	1800	-3.839966	40.92395	-91.39362
115938	9	-1	5	0.04213331	-0.1463924	455.6523	0	12.25	4003	0	0	0	0	0.6904588	-0.01319308	1	10	0.04	1800	-4.041687	40.92395	-91.39362
116015	-6	-2	2	0.04270475	-0.1430659	455.6482	0	12.25	4002	0	0	0	0	0.6904588	-0.01013116	1	10	0.04	1800	-3.820862	40.92395	-91.39362
116141	0	-4	7	0.04262313	-0.1377503	455.6348	0	12.25	4003	0	0	0	0	0.6904588	0.001243224	1	10	0.04	1800	-3.841217	40.92395	-91.39362
116242	-3	-1	5	0.04022586	-0.1366172	455.6283	0	12.25	4002	0	0	0	0	0.6904588	0.01472139	1	10	0.04	1800	-3.571259	40.92395	-91.39362
116319	3	-1	7	0.03813154	-0.1385417	455.6208	0	12.25	4003	0	0	0	0	0.6904588	0.01922821	1	10	0.04	1800	-3.595886	40.92395	-91.39362
116433	4	-3	3	0.03712303	-0.1422229	455.6096	0	12.25	4003	0	0	0	0	0.6904588	0.01509829	1	10	0.04	1800	-4.017792	40.92395	-91.39362
116522	0	-1	6	0.03789777	-0.146119	455.601	0	12.25	4004	0	0	0	0	0.6904588	0.003773771	1	10	0.04	1800	-3.813416	40.92395	-91.39362
116664	2	-1	5	0.04369967	-0.1427736	455.5881	0	12.25	4003	0	0	0	0	0.6904588	-0.006213415	1	10	0.04	1800	-4.045807	40.92395	-91.39362
116724	0	-2	2	0.04566187	-0.1425437	455.5851	0	12.25	4002	0	0	0	0	0.6904588	-0.009934409	1	10	0.04	1800	-3.82251	40.92395	-91.39362
116827	0	-5	6	0.04672373	-0.1455334	455.5742	0	12.25	4002	0	0	0	0	0.6904588	-0.01980289	1	10	0.04	1800	-4.036346	40.92395	-91.39362
116849	0	-5	6	0.04672373	-0.1455334	455.5742	0	12.25	4002	0	0	0	0	0.6904588	-0.02127757	1	10	0.04	1800	-4.036346	40.92395	-91.39362
116954	2	-1	3	0.0471187	-0.1495611	455.5663	0	12.25	4003	0	0	0	0	0.6904588	-0.02079388	1	10	0.04	1800	-4.065582	40.92395	-91.39362
117050	0	0	4	0.03908224	-0.1435588	455.559	0	12.25	4002	0	0	0	0	0.6904588	-0.007682815	1	10	0.04	1800	-3.807739	40.92395	-91.39362
117178	7	-5	5	0.03701445	-0.1415457	455.5514	0	12.19	4003	0	0	0	0	0.6904588	0.003785957	1	10	0.04	1800	-3.805695	40.92395	-91.39362
117247	-5	-4	4	0.03487325	-0.1443895	455.5448	0	12.19	4002	0	0	0	0	0.6904588	0.005131986	1	10	0.04	1800	-3.814117	40.92395	-91.39362
117346	-1	-5	2	0.0266137	-0.1496071	455.5367	0	12.19	4002	0	0	0	0	0.6904588	0.006328093	1	10	0.04	1800	-3.572815	40.92395	-91.39362
117460	2	0	5	0.03030509	-0.1452258	455.5325	0	12.19	4002	0	0	0	0	0.6904588	0.004269619	1	10	0.04	1800	-3.81311	40.92395	-91.39362
117587	-4	4	3	0.02911257	-0.1398706	455.5208	0	12.19	4003	0	0	0	0	0.6904588	-0.001232716	1	10	0.04	1800	-4.038727	40.92395	-91.39362
117730	-1	-3	5	0.03178973	-0.1473318	455.5149	0	12.19	4003	0	0	0	0	0.6904588	-3.094851E-05	1	10	0.04	1800	-3.790802	40.92395	-91.39362
117795	0	-2	4	0.0356791	-0.1380728	455.5053	0	12.19	4003	0	0	0	0	0.6904588	0.002520648	1	10	0.04	1800	-3.809601	40.92395	-91.39362
117898	0	-3	3	0.03166696	-0.1431738	455.4998	0	12.19	4004	0	0	0	0	0.6904588	0.01340446	1	10	0.04	1800	-3.802979	40.92395	-91.39362
117942	4	-6	6	0.03193008	-0.140178	455.4973	0	12.19	4004	0	0	0	0	0.6904588	0.01535305	1	10	0.04	1800	-3.802979	40.92395	-91.39362
118047	2	0	6	0.02735663	-0.1458125	455.488	0	12.25	4003	0	0	0	0	0.6904588	0.02010504	1	10	0.04	1800	-4.019318	40.92395	-91.39362
118183	5	-1	9	0.03167793	-0.148314	455.4804	0	12.25	4003	0	0	0	0	0.6904588	0.02305768	1	10	0.04	1800	-3.785187	40.92395	-91.39362
118257	-2	-5	8	0.03428856	-0.147772	455.4713	0	12.25	4003	0	0	0	0	0.6904588	0.02702267	1	10	0.04	1800	-3.588165	40.92395	-91.39362
118327	3	-2	0	0.03470247	-0.1407142	455.4674	0	12.25	4003	0	0	0	0	0.6904588	0.03177069	1	10	0.04	1800	-3.807037	40.92395	-91.39362
118509	1	0	7	0.03394539	-0.1384207	455.4591	0	12.25	4004	0	0	0	0	0.6904588	0.02791689	1	10	0.04	1800	-3.789307	40.92395	-91.39362
118594	1	-4	5	0.0360558	-0.1333129	455.4525	0	12.25	4003	0	0	0	0	0.6904588	0.03064418	1	10	0.04	1800	-3.817017	40.92395	-91.39362
118652	7	0	3	0.03596823	-0.1309021	455.448	0	12.25	4002	0	0	0	0	0.6904588	0.02756402	1	10	0.04	1800	-3.817017	40.92395	-91.39362
118724	-4	-3	1	0.03195911	-0.1316588	455.4472	0	12.25	4004	0	0	0	0	0.6904588	0.02359112	1	10	0.04	1800	-3.575409	40.92395	-91.39362
118824	-5	-4	3	0.02567677	-0.1340646	455.4404	0	12.25	4003	0	0	0	0	0.6904588	0.01951904	1	10	0.04	1800	-3.798889	40.92395	-91.39362
119006	-2	-3	5	0.0243122	-0.1333683	455.4259	0	12.25	4004	0	0	0	0	0.6904588	0.01752391	1	10	0.04	1800	-3.796082	40.92395	-91.39362
119099	2	-3	5	0.02354893	-0.1391631	455.4193	0	12.25	4004	0	0	0	0	0.6904588	0.01892293	1	10	0.04	1800	-3.571045	40.92395	-91.39362
119153	1	2	4	0.01978271	-0.1391821	455.4171	0	12.25	4003	0	0	0	0	0.6904588	0.0208764	1	10	0.04	1800	-3.776611	40.92395	-91.39362
119260	7	1	3	0.01946359	-0.1351202	455.4092	0	12.25	4002	0	0	0	0	0.6904588	0.02310552	1	10	0.04	1800	-3.798035	40.92395	-91.39362
119304	3	-4	7	0.01454107	-0.1326744	455.4015	0	12.25	4003	0	0	0	0	0.6904588	0.0265943	1	10	0.04	1800	-3.777954	40.92395	-91.39362
119417	-4	1	5	0.008508206	-0.1292947	455.3966	0	12.25	4003	0	0	0	0	0.6904588	0.02885315	1	10	0.04	1800	-3.537354	40.92395	-91.39362
119510	2	1	5	0.01138578	-0.1283955	455.3868	0	12.25	4004	0	0	0	0	0.6904588	0.03473642	1	10	0.04	1800	-3.552612	40.92395	-91.39362
119612	-7	-3	0	0.01354573	-0.1310407	455.3828	0	12.25	4003	0	0	0	0	0.6904588	0.04711859	1	10	0.04	1800	-3.775391	40.92395	-91.39362
119794	0	-5	9	0.007617526	-0.1305352	455.3681	0	12.19	4002	0	0	0	0	0.6904588	0.08002883	1	10	0.04	1800	-3.746124	40.92395	-91.39362
119850	3	-1	5	0.01140286	-0.1318645	455.362	0	12.19	4004	0	0	0	0	0.6904588	0.09060051	1	10	0.04	1800	-3.75235	40.92395	-91.39362
120018	0	-3	8	0.01153633	-0.1330402	455.3511	0	12.19	4003	0	0	0	0	0.6904588	0.1112916	1	10	0.04	1800	-3.561523	40.92395	-91.39362
120120	9	0	-1	0.01476425	-0.1324696	455.3462	0	12.19	4003	0	0	0	0	0.6904588	0.1191405	1	10	0.04	1800	-3.787628	40.92395	-91.39362
120188	-3	-5	9	0.01987758	-0.1286937	455.3395	0	12.19	4002	0	0	0	0	0.6904588	0.1221853	1	10	0.04	1800	-4.005707	40.92395	-91.39362
120301	4	-5	1	0.019071	-0.1298272	455.3335	0	12.19	4003	0	0	0	0	0.6904588	0.127628	1	10	0.04	1800	-3.563293	40.92395	-91.39362
120396	-5	1	4	0.01859411	-0.1353206	455.3295	0	12.19	4003	0	0	0	0	0.6904588	0.1295204	1	10	0.04	1800	-3.78772	40.92395	-91.39362
120547	8	0	5	0.02834244	-0.1360484	455.3194	0	12.19	4003	0	0	0	0	0.6904588	0.1381621	1	10	0.04	1800	-3.78714	40.92395	-91.39362
120597	-6	-1	7	0.03464136	-0.1333406	455.3174	0	12.19	4004	0	0	0	0	0.6904588	0.1418507	1	10	0.04	1800	-3.81488	40.92395	-91.39362
120692	-2	-2	10	0.03860638	-0.1308267	455.3099	0	12.19	4004	0	0	0	0	0.6904588	0.1459538	1	10	0.04	1800	-3.806549	40.92395	-91.39362
120811	6	-1	0	0.0419757	-0.1381879	455.3021	0	12.25	4003	0	0	0	0	0.6904588	0.1473605	1	10	0.04	1800	-3.815521	40.92395	-91.39362
120897	-8	-4	4	0.03721778	-0.1367935	455.2971	0	12.25	4002	0	0	0	0	0.6904588	0.1451839	1	10	0.04	1800	-4.037689	40.92395	-91.39362
121102	2	-4	0	0.04581887	-0.1346952	455.2843	0	12.25	4003	0	0	0	0	0.6904588	0.1339412	1	10	0.04	1800	-3.820557	40.92395	-91.39362
121134	1	2	1	0.04694851	-0.1363559	455.2825	0	12.25	4003	0	0	0	0	0.6904588	0.1278558	1	10	0.04	1800	-3.798492	40.92395	-91.39362
121223	2	-3	0	0.04758091	-0.1411524	455.2786	0	12.25	4003	0	0	0	0	0.6904588	0.1221165	1	10	0.04	1800	-3.59137	40.92395	-91.39362
121330	7	0	4	0.04773724	-0.1383456	455.2737	0	12.25	4003	0	0	0	0	0.6904588	0.127141	1	10	0.04	1800	-3.592438	40.92395	-91.39362
121430	5	-5	2	0.04905144	-0.1403485	455.266	0	12.25	4003	0	0	0	0	0.6904588	0.1327798	1	10	0.04	1800	-3.841156	40.92395	-91.39362
121487	-1	-1	7	0.05106041	-0.1387235	455.2625	0	12.25	4003	0	0	0	0	0.6904588	0.1408831	1	10	0.04	1800	-4.052307	40.92395	-91.39362
121594	2	1	4	0.05395462	-0.1345246	455.2527	0	12.25	4003	0	0	0	0	0.6904588	0.1563058	1	10	0.04	1800	-3.843994	40.92395	-91.39362
121692	10	0	5	0.05362684	-0.1402228	455.2483	0	12.25	4002	0	0	0	0	0.6904588	0.1559251	1	10	0.04	1800	-3.835541	40.92395	-91.39362
121797	6	-1	2	0.05600249	-0.1378967	455.245	0	12.25	4002	0	0	0	0	0.6904588	0.1589166	1	10	0.04	1800	-3.838745	40.92395	-91.39362
121981	0	-2	3	0.04702078	-0.1327325	455.2347	0	12.25	4003	0	0	0	0	0.6904588	0.1574916	1	10	0.04	1800	-3.816681	40.92395	-91.39362
122037	-1	-3	5	0.04988577	-0.1294145	455.2317	0	12.25	4003	0	0	0	0	0.6904588	0.1559169	1	10	0.04	1800	-3.621063	40.92395	-91.39362
122135	-1	-4	4	0.05622745	-0.1302873	455.2249	0	12.25	4003	0	0	0	0	0.6904588	0.1584074	1	10	0.04	1800	-3.62027	40.92395	-91.39362
122256	0	0	4	0.04456918	-0.1283047	455.2186	0	12.25	4002	0	0	0	0	0.6904588	0.1571306	1	10	0.04	1800	-3.813019	40.92395	-91.39362
122347	2	-1	1	0.04981348	-0.1278883	455.2144	0	12.25	4004	0	0	0	0	0.6904588	0.1532347	1	10	0.04	1800	-3.82486	40.92395	-91.39362
122395	2	-4	2	0.04476887	-0.1295346	455.2099	0	12.25	4004	0	0	0	0	0.6904588	0.1542892	1	10	0.04	1800	-3.825562	40.92395	-91.39362
122484	0	-1	0	0.04089851	-0.1358922	455.2048	0	12.25	4002	0	0	0	0	0.6904588	0.1553024	1	10	0.04	1800	-3.827118	40.92395	-91.39362
122586	5	-3	0	0.04798262	-0.1355282	455.1986	0	12.25	4003	0	0	0	0	0.6904588	0.1574342	1	10	0.04	1800	-3.829529	40.92395	-91.39362
122714	6	5	2	0.04467756	-0.1322582	455.1933	0	12.25	4004	0	0	0	0	0.6904588	0.1650315	1	10	0.04	1800	-3.602875	40.92395	-91.39362
122827	6	5	3	0.0457426	-0.1417176	455.1861	0	12.25	4002	0	0	0	0	0.6904588	0.1701727	1	10	0.04	1800	-3.838684	40.92395	-91.39362
122934	5	-1	4	0.04821412	-0.1418112	455.1793	0	12.25	4003	0	0	0	0	0.6904588	0.1715755	1	10	0.04	1800	-3.609192	40.92395	-91.39362
123011	-3	-4	0	0.05451309	-0.1447372	455.1744	0	12.25	4004	0	0	0	0	0.6904588	0.1735405	1	10	0.04	1800	-3.835022	40.92395	-91.39362
123121	0	-2	4	0.05486617	-0.1488029	455.1712	0	12.25	4003	0	0	0	0	0.6904588	0.1807415	1	10	0.04	1800	-3.619812	40.92395	-91.39362
123186	3	0	1	0.05455407	-0.1513958	455.1683	0	12.25	4002	0	0	0	0	0.6904588	0.1895765	1	10	0.04	1800	-3.827362	40.92395	-91.39362
123272	1	4	0	0.03964258	-0.1511743	455.1624	0	12.25	4004	0	0	0	0	0.6904588	0.200886	1	10	0.04	1800	-4.031799	40.92395	-91.39362
123484	0	-4	0	0.04834953	-0.1574457	455.1538	0	12.25	4003	0	0	0	0	0.6904588	0.2112537	1	10	0.04	1800	-3.613159	40.92395	-91.39362
