time(ms)	gyro_x(deg/s)	gyro_y(deg/s)	gyro_z(deg/s)	orientation_roll(deg)	orientation_pitch(deg)	orientation_yaw(deg)	throttle	battery(V)	loop_time(uS)	pid_output_roll	pid_output_pitch	pid_output_yaw	pid_output_throttle	ultrasonic_alt	baro_alt	flight_mode	p_gain_altitude	i_gain_altitude	d_gain_altitude	compass_heading	latitude	longitude
246618	5	-1	0	0.08591702	-0.03239082	-0.1683602	0	12.14	4003	0	0	0	0	0.02	-0.02258667	1	10	0.04	1800	-4.652557	0	0
246709	7	-6	3	0.08208088	-0.0275169	-0.1702553	0	12.14	4004	0	0	0	0	0.02	-0.02223983	1	10	0.04	1800	-4.455902	0	0
246813	5	4	2	0.09043262	-0.02361416	-0.171478	0	12.14	4002	0	0	0	0	0.02	-0.02289965	1	10	0.04	1800	-4.445404	0	0
247041	11	3	-5	0.08605094	-0.0105456	-0.1710499	0	12.14	4004	0	0	0	0	0.02	-0.04215212	1	10	0.04	1800	-4.643921	0	0
247160	2	-6	4	0.08928248	-0.0157095	-0.1742288	0	12.14	4003	0	0	0	0	0.02	-0.04986103	1	10	0.04	1800	-4.469574	0	0
247258	4	-1	-2	0.08137879	-0.01875842	-0.1753903	0	12.19	4004	0	0	0	0	0.02	-0.05221752	1	10	0.04	1800	-4.454651	0	0
247336	8	0	0	0.08370327	-0.0272737	-0.1767963	0	12.19	4003	0	0	0	0	0.02	-0.05682806	1	10	0.04	1800	-4.458252	0	0
247443	3	3	-3	0.08263801	-0.02464448	-0.1764905	0	12.19	4002	0	0	0	0	0.02	-0.06692044	1	10	0.04	1800	-4.452271	0	0
247553	6	-5	1	0.08761749	-0.02635687	-0.1769795	0	12.19	4004	0	0	0	0	0.02	-0.07754287	1	10	0.04	1800	-4.670135	0	0
247653	5	-2	0	0.09020521	-0.01992575	-0.1783246	0	12.19	4004	0	0	0	0	0.02	-0.08299651	1	10	0.04	1800	-4.463287	0	0
247774	6	1	2	0.09664849	-0.01710958	-0.180831	0	12.19	4003	0	0	0	0	0.02	-0.08827089	1	10	0.04	1800	-4.660461	0	0
247896	6	1	5	0.1085723	-0.01050446	-0.1832762	0	12.19	4003	0	0	0	0	0.02	-0.08441101	1	10	0.04	1800	-4.486237	0	0
247996	5	0	3	0.102106	-0.01537924	-0.1853552	0	12.19	4003	0	0	0	0	0.02	-0.08191997	1	10	0.04	1800	-4.879974	0	0
248044	8	0	3	0.1025777	-0.01430867	-0.1859054	0	12.19	4003	0	0	0	0	0.02	-0.08100399	1	10	0.04	1800	-4.670319	0	0
248149	9	-1	1	0.1093941	-0.01730698	-0.1872504	0	12.19	4004	0	0	0	0	0.02	-0.08268686	1	10	0.04	1800	-4.710785	0	0
248302	10	-2	0	0.10729	-0.01850908	-0.1876781	0	12.19	4003	0	0	0	0	0.02	-0.07801222	1	10	0.04	1800	-4.507355	0	0
248385	13	-2	-1	0.1049681	-0.01757688	-0.1891453	0	12.19	4002	0	0	0	0	0.02	-0.06979648	1	10	0.04	1800	-4.488861	0	0
248447	5	-4	0	0.1074316	-0.01688676	-0.1901845	0	12.19	4004	0	0	0	0	0.02	-0.06231041	1	10	0.04	1800	-4.688751	0	0
248547	6	-2	0	0.1054188	-0.01576441	-0.1914071	0	12.19	4002	0	0	0	0	0.02	-0.05285956	1	10	0.04	1800	-4.264313	0	0
248682	8	2	-1	0.09742393	-0.01744577	-0.1922633	0	12.19	4002	0	0	0	0	0.02	-0.04794552	1	10	0.04	1800	-4.683258	0	0
248766	4	5	3	0.09483632	-0.01688391	-0.1917744	0	12.19	4004	0	0	0	0	0.02	-0.0428431	1	10	0.04	1800	-4.673401	0	0
248864	4	-3	-1	0.08720002	-0.01718144	-0.1915299	0	12.19	4003	0	0	0	0	0.02	-0.0437396	1	10	0.04	1800	-4.675018	0	0
248969	9	0	0	0.09174342	-0.01797998	-0.1905518	0	12.19	4002	0	0	0	0	0.02	-0.04418169	1	10	0.04	1800	-4.656525	0	0
249069	0	-3	1	0.09413669	-0.02049725	-0.1917134	0	12.19	4003	0	0	0	0	0.02	-0.04091512	1	10	0.04	1800	-4.448212	0	0
249179	6	-1	-2	0.09207844	-0.0183285	-0.1922635	0	12.19	4003	0	0	0	0	0.02	-0.03935783	1	10	0.04	1800	-4.655182	0	0
249295	4	6	3	0.08942587	-0.01612595	-0.1921411	0	12.19	4003	0	0	0	0	0.02	-0.03942688	1	10	0.04	1800	-4.673859	0	0
249400	11	-3	0	0.08943486	-0.0207013	-0.19477	0	12.19	4004	0	0	0	0	0.02	-0.04065213	1	10	0.04	1800	-4.464417	0	0
249463	13	1	0	0.09233851	-0.01937851	-0.1944036	0	12.19	4003	0	0	0	0	0.02	-0.04179166	1	10	0.04	1800	-4.467194	0	0
249600	6	3	2	0.09238615	-0.02017372	-0.1956876	0	12.19	4003	0	0	0	0	0.02	-0.04392203	1	10	0.04	1800	-4.656525	0	0
249669	7	-1	2	0.089066	-0.01957256	-0.1961156	0	12.19	4003	0	0	0	0	0.02	-0.04630765	1	10	0.04	1800	-4.670807	0	0
249783	6	-4	-5	0.0895993	-0.02237454	-0.1969103	0	12.19	4004	0	0	0	0	0.02	-0.0567492	1	10	0.04	1800	-4.879974	0	0
249877	0	2	2	0.08987901	-0.02158593	-0.1977662	0	12.19	4002	0	0	0	0	0.02	-0.06281587	1	10	0.04	1800	-4.649384	0	0
250017	11	0	2	0.08961055	-0.02640324	-0.2016798	0	12.19	4003	0	0	0	0	0.02	-0.06158544	1	10	0.04	1800	-4.464935	0	0
250136	0	0	0	0.0931964	-0.01950179	-0.2045534	0	12.19	4004	0	0	0	0	0.02	-0.05951874	1	10	0.04	1800	-4.66745	0	0
250189	14	0	3	0.09403264	-0.01626842	-0.2057761	0	12.19	4004	0	0	0	0	0.02	-0.06022609	1	10	0.04	1800	-4.453003	0	0
250279	15	0	-2	0.09831575	-0.01922167	-0.2058372	0	12.19	4002	0	0	0	0	0.02	-0.06471517	1	10	0.04	1800	-4.455048	0	0
250429	7	-5	6	0.09792101	-0.01500279	-0.2066322	0	12.19	4004	0	0	0	0	0.02	-0.07700279	1	10	0.04	1800	-4.47876	0	0
250491	5	1	6	0.09644308	-0.01508731	-0.2088944	0	12.19	4003	0	0	0	0	0.02	-0.08047699	1	10	0.04	1800	-4.47876	0	0
250582	10	0	0	0.1052335	-0.01375153	-0.209261	0	12.19	4002	0	0	0	0	0.02	-0.08333275	1	10	0.04	1800	-4.476929	0	0
250692	-3	0	-3	0.09785052	-0.01382201	-0.2093221	0	12.19	4003	0	0	0	0	0.02	-0.09508806	1	10	0.04	1800	-4.870361	0	0
250790	14	0	4	0.09380377	-0.009977469	-0.2114621	0	12.19	4004	0	0	0	0	0.02	-0.1004686	1	10	0.04	1800	-4.676514	0	0
250905	10	-3	0	0.1014037	-0.01210018	-0.2123183	0	12.19	4003	0	0	0	0	0.02	-0.08916499	1	10	0.04	1800	-4.456421	0	0
251066	10	0	0	0.1053329	-0.01350818	-0.2142134	0	12.19	4003	0	0	0	0	0.02	-0.06615893	1	10	0.04	1800	-4.265045	0	0
251177	3	5	6	0.105767	-0.01614406	-0.2139077	0	12.19	4002	0	0	0	0	0.02	-0.05210373	1	10	0.04	1800	-4.490753	0	0
251224	3	3	1	0.1031509	-0.01957533	-0.2132963	0	12.19	4004	0	0	0	0	0.02	-0.05069806	1	10	0.04	1800	-4.479431	0	0
251303	10	-3	3	0.1006202	-0.02343902	-0.2153747	0	12.19	4003	0	0	0	0	0.02	-0.04465942	1	10	0.04	1800	-4.471344	0	0
251405	10	-1	-3	0.102713	-0.02752526	-0.2159862	0	12.19	4004	0	0	0	0	0.02	-0.04318767	1	10	0.04	1800	-4.479645	0	0
251505	5	0	2	0.09992723	-0.02754932	-0.2183708	0	12.19	4004	0	0	0	0	0.02	-0.0420214	1	10	0.04	1800	-4.462067	0	0
251629	12	2	1	0.1055877	-0.02684932	-0.2198991	0	12.19	4004	0	0	0	0	0.02	-0.05233847	1	10	0.04	1800	-4.279327	0	0
251731	6	1	-1	0.1044394	-0.02970107	-0.2222834	0	12.19	4003	0	0	0	0	0.02	-0.06113863	1	10	0.04	1800	-4.67453	0	0
251879	13	-5	-2	0.1010811	-0.0262543	-0.2246063	0	12.14	4004	0	0	0	0	0.02	-0.06901788	1	10	0.04	1800	-4.691284	0	0
252003	-1	0	0	0.1021121	-0.02321796	-0.2243005	0	12.14	4004	0	0	0	0	0.02	-0.0676963	1	10	0.04	1800	-4.691132	0	0
252057	5	0	0	0.1031476	-0.02606684	-0.2247896	0	12.14	4002	0	0	0	0	0.02	-0.06567921	1	10	0.04	1800	-4.691132	0	0
252157	12	1	-1	0.1026956	-0.02474977	-0.2234444	0	12.14	4002	0	0	0	0	0.02	-0.06195036	1	10	0.04	1800	-4.489807	0	0
252224	10	-4	2	0.1059187	-0.02232868	-0.2238112	0	12.14	4003	0	0	0	0	0.02	-0.05882512	1	10	0.04	1800	-4.671387	0	0
252293	1	2	-1	0.1046195	-0.0221479	-0.2231382	0	12.14	4003	0	0	0	0	0.02	-0.05629065	1	10	0.04	1800	-4.501312	0	0
252411	12	0	2	0.09922104	-0.02577971	-0.2238718	0	12.14	4003	0	0	0	0	0.02	-0.05633346	1	10	0.04	1800	-4.276123	0	0
252511	5	4	-3	0.1022064	-0.03089734	-0.2236884	0	12.14	4004	0	0	0	0	0.02	-0.05863324	1	10	0.04	1800	-4.464203	0	0
252599	6	5	-3	0.1040523	-0.03293389	-0.2238716	0	12.14	4003	0	0	0	0	0.02	-0.06154116	1	10	0.04	1800	-4.489807	0	0
252701	10	1	-2	0.1034603	-0.03067404	-0.2244218	0	12.14	4004	0	0	0	0	0.02	-0.06552329	1	10	0.04	1800	-4.489807	0	0
252809	4	6	0	0.1067284	-0.03110176	-0.2244829	0	12.19	4003	0	0	0	0	0.02	-0.06841865	1	10	0.04	1800	-4.678406	0	0
252905	18	4	-1	0.1061216	-0.03629133	-0.2248497	0	12.19	4002	0	0	0	0	0.02	-0.07416044	1	10	0.04	1800	-4.489044	0	0
253064	14	3	3	0.1238738	-0.02653522	-0.2258891	0	12.19	4003	0	0	0	0	0.02	-0.08242412	1	10	0.04	1800	-4.506073	0	0
253132	12	0	4	0.1223465	-0.02982241	-0.2268061	0	12.19	4003	0	0	0	0	0.02	-0.08558647	1	10	0.04	1800	-4.711487	0	0
253216	14	1	-3	0.1216442	-0.02915308	-0.2261336	0	12.19	4003	0	0	0	0	0.02	-0.08386426	1	10	0.04	1800	-4.499542	0	0
253318	7	0	2	0.1205449	-0.02478839	-0.2259501	0	12.19	4002	0	0	0	0	0.02	-0.08145475	1	10	0.04	1800	-4.709595	0	0
253437	2	-3	-2	0.1113619	-0.01982209	-0.2253999	0	12.19	4004	0	0	0	0	0.02	-0.08610214	1	10	0.04	1800	-4.47821	0	0
253537	8	0	-2	0.1115991	-0.02483215	-0.2257057	0	12.19	4003	0	0	0	0	0.02	-0.0917023	1	10	0.04	1800	-4.497559	0	0
253627	7	-2	5	0.1106482	-0.02710213	-0.2254002	0	12.19	4002	0	0	0	0	0.02	-0.09268145	1	10	0.04	1800	-4.479492	0	0
253723	7	-1	1	0.1054369	-0.02675915	-0.2249111	0	12.19	4002	0	0	0	0	0.02	-0.09219421	1	10	0.04	1800	-4.677521	0	0
253824	8	0	0	0.1124397	-0.02384826	-0.2221596	0	12.14	4003	0	0	0	0	0.02	-0.09173607	1	10	0.04	1800	-4.473663	0	0
253938	10	0	0	0.115123	-0.02564861	-0.2217929	0	12.14	4004	0	0	0	0	0.02	-0.08917255	1	10	0.04	1800	-4.496338	0	0
254111	8	-1	-1	0.1168308	-0.0263687	-0.2226489	0	12.14	4003	0	0	0	0	0.02	-0.08501031	1	10	0.04	1800	-4.702728	0	0
254157	7	-6	0	0.1206995	-0.0224413	-0.2225267	0	12.14	4004	0	0	0	0	0.02	-0.08507446	1	10	0.04	1800	-4.702728	0	0
254221	10	0	-1	0.1211975	-0.01650936	-0.2235659	0	12.14	4003	0	0	0	0	0.02	-0.08185001	1	10	0.04	1800	-4.507446	0	0
254330	18	-8	0	0.1233446	-0.01507005	-0.2235048	0	12.14	4004	0	0	0	0	0.02	-0.07175216	1	10	0.04	1800	-4.495056	0	0
254432	8	4	4	0.1207565	-0.01412315	-0.2228324	0	12.14	4004	0	0	0	0	0.02	-0.07382713	1	10	0.04	1800	-4.50531	0	0
254580	13	0	-2	0.1219234	-0.02834257	-0.2216708	0	12.14	4003	0	0	0	0	0.02	-0.06959379	1	10	0.04	1800	-4.714569	0	0
254699	4	0	3	0.1325683	-0.02809914	-0.2195304	0	12.19	4002	0	0	0	0	0.02	-0.07098375	1	10	0.04	1800	-4.513977	0	0
254812	13	3	-1	0.1307282	-0.03169896	-0.2192245	0	12.19	4004	0	0	0	0	0.02	-0.07322646	1	10	0.04	1800	-4.717499	0	0
254848	17	1	-4	0.1355333	-0.03475042	-0.2200194	0	12.19	4002	0	0	0	0	0.02	-0.07621704	1	10	0.04	1800	-4.918549	0	0
254929	6	4	3	0.1364179	-0.03739238	-0.2213648	0	12.19	4003	0	0	0	0	0.02	-0.07855261	1	10	0.04	1800	-4.531555	0	0
255034	7	0	1	0.1392722	-0.03106218	-0.2216704	0	12.19	4004	0	0	0	0	0.02	-0.0800407	1	10	0.04	1800	-4.295929	0	0
255127	16	5	1	0.1404079	-0.03345043	-0.2208146	0	12.19	4004	0	0	0	0	0.02	-0.0795741	1	10	0.04	1800	-4.518768	0	0
255357	18	4	-4	0.1376043	-0.02754367	-0.2167796	0	12.19	4003	0	0	0	0	0.02	-0.09207174	1	10	0.04	1800	-4.535156	0	0
255459	6	-6	-3	0.1488976	-0.02813566	-0.2153733	0	12.19	4002	0	0	0	0	0.02	-0.1043215	1	10	0.04	1800	-4.538788	0	0
255590	13	-6	-1	0.146957	-0.03101448	-0.2142118	0	12.19	4004	0	0	0	0	0.02	-0.1023475	1	10	0.04	1800	-4.532623	0	0
255629	18	2	0	0.1517752	-0.02976566	-0.2142729	0	12.19	4003	0	0	0	0	0.02	-0.1020966	1	10	0.04	1800	-4.333679	0	0
255755	7	-2	-1	0.1549226	-0.02565555	-0.214701	0	12.19	4004	0	0	0	0	0.02	-0.1074366	1	10	0.04	1800	-4.574371	0	0
255934	15	-2	-5	0.1523176	-0.0281712	-0.2125611	0	12.19	4003	0	0	0	0	0.02	-0.1139458	1	10	0.04	1800	-4.737305	0	0
255996	16	-1	-1	0.1590272	-0.02652403	-0.2139673	0	12.19	4004	0	0	0	0	0.02	-0.1142944	1	10	0.04	1800	-4.556335	0	0
256055	9	-2	4	0.1545014	-0.02066506	-0.2143343	0	12.19	4004	0	0	0	0	0.02	-0.1100387	1	10	0.04	1800	-4.355469	0	0
256128	17	-4	-3	0.1575091	-0.01784787	-0.212928	0	12.19	4004	0	0	0	0	0.02	-0.109521	1	10	0.04	1800	-4.559052	0	0
256267	10	0	3	0.1600926	-0.02183974	-0.2112161	0	12.19	4002	0	0	0	0	0.02	-0.1125505	1	10	0.04	1800	-4.541779	0	0
256384	8	-1	-4	0.1578642	-0.01940429	-0.211461	0	12.19	4003	0	0	0	0	0.02	-0.1114432	1	10	0.04	1800	-4.547668	0	0
256520	13	3	4	0.1733817	-0.0268978	-0.2107276	0	12.19	4004	0	0	0	0	0.02	-0.1221356	1	10	0.04	1800	-4.54895	0	0
256595	4	-3	0	0.1655498	-0.02600387	-0.2111556	0	12.19	4003	0	0	0	0	0.02	-0.1338103	1	10	0.04	1800	-4.581207	0	0
256675	16	-3	-1	0.1594544	-0.02154847	-0.2112778	0	12.19	4002	0	0	0	0	0.02	-0.1398225	1	10	0.04	1800	-4.760101	0	0
256743	14	-2	2	0.1635479	-0.02212028	-0.2106666	0	12.19	4004	0	0	0	0	0.02	-0.1406453	1	10	0.04	1800	-4.760101	0	0
256822	10	1	-1	0.1621325	-0.02246659	-0.2093217	0	12.19	4004	0	0	0	0	0.02	-0.1405692	1	10	0.04	1800	-4.569641	0	0
256966	15	-2	-1	0.153658	-0.02185097	-0.209322	0	12.19	4003	0	0	0	0	0.02	-0.1247281	1	10	0.04	1800	-4.77005	0	0
257099	8	0	5	0.1493513	-0.02243154	-0.2079158	0	12.19	4002	0	0	0	0	0.02	-0.1170408	1	10	0.04	1800	-4.741486	0	0
257145	6	-6	3	0.1492254	-0.02147974	-0.208466	0	12.19	4003	0	0	0	0	0.02	-0.1171687	1	10	0.04	1800	-4.741486	0	0
257218	16	5	-4	0.145316	-0.02328174	-0.2063875	0	12.19	4002	0	0	0	0	0.02	-0.110715	1	10	0.04	1800	-4.737122	0	0
257432	10	-4	0	0.1454856	-0.03507933	-0.2046756	0	12.19	4004	0	0	0	0	0.02	-0.09328436	1	10	0.04	1800	-4.548676	0	0
257537	10	4	-3	0.1442301	-0.03152887	-0.204492	0	12.19	4003	0	0	0	0	0.02	-0.08581919	1	10	0.04	1800	-4.548035	0	0
257652	4	3	2	0.138438	-0.03500952	-0.2047978	0	12.19	4004	0	0	0	0	0.02	-0.07183734	1	10	0.04	1800	-4.724426	0	0
257747	13	-1	1	0.1387988	-0.03232074	-0.2023521	0	12.19	4004	0	0	0	0	0.02	-0.06512776	1	10	0.04	1800	-4.521118	0	0
257825	10	4	-1	0.1407879	-0.03610171	-0.2007013	0	12.19	4003	0	0	0	0	0.02	-0.06092423	1	10	0.04	1800	-4.746887	0	0
257935	13	0	0	0.1392019	-0.03676495	-0.2011904	0	12.19	4004	0	0	0	0	0.02	-0.05427114	1	10	0.04	1800	-4.520966	0	0
258019	13	1	5	0.1420538	-0.03703165	-0.2014961	0	12.19	4003	0	0	0	0	0.02	-0.048387	1	10	0.04	1800	-4.523895	0	0
258122	7	1	1	0.1307835	-0.03705887	-0.2007627	0	12.19	4003	0	0	0	0	0.02	-0.04485141	1	10	0.04	1800	-4.725403	0	0
258218	6	-1	-1	0.1258336	-0.03154846	-0.2010683	0	12.19	4003	0	0	0	0	0.02	-0.04055135	1	10	0.04	1800	-4.729034	0	0
258326	14	2	0	0.1287353	-0.0340762	-0.2025355	0	12.19	4002	0	0	0	0	0.02	-0.04099339	1	10	0.04	1800	-4.517609	0	0
258434	8	0	-2	0.128072	-0.029403	-0.2013129	0	12.19	4004	0	0	0	0	0.02	-0.0439469	1	10	0.04	1800	-4.504944	0	0
258531	13	4	-1	0.1257122	-0.02889137	-0.2007014	0	12.19	4004	0	0	0	0	0.02	-0.0450654	1	10	0.04	1800	-4.704834	0	0
258697	4	-4	2	0.1222194	-0.02564286	-0.200212	0	12.19	4003	0	0	0	0	0.02	-0.04110263	1	10	0.04	1800	-4.717438	0	0
258747	6	3	1	0.1205321	-0.01909852	-0.1993561	0	12.19	4002	0	0	0	0	0.02	-0.03743364	1	10	0.04	1800	-4.711823	0	0
258830	8	5	-5	0.1194492	-0.02093147	-0.2008232	0	12.19	4003	0	0	0	0	0.02	-0.0373154	1	10	0.04	1800	-4.510925	0	0
258932	2	-4	5	0.1203566	-0.01923136	-0.201557	0	12.19	4003	0	0	0	0	0.02	-0.03559859	1	10	0.04	1800	-4.699677	0	0
259033	4	1	5	0.1201876	-0.0217741	-0.2034521	0	12.19	4002	0	0	0	0	0.02	-0.03639391	1	10	0.04	1800	-4.488007	0	0
259274	2	0	-2	0.1228759	-0.01713596	-0.2054694	0	12.19	4003	0	0	0	0	0.02	-0.04501254	1	10	0.04	1800	-4.486755	0	0
259351	10	-1	1	0.1240006	-0.01347202	-0.2040633	0	12.19	4003	0	0	0	0	0.02	-0.05380463	1	10	0.04	1800	-4.701233	0	0
259453	8	-1	-3	0.1185407	-0.0135067	-0.2049806	0	12.19	4002	0	0	0	0	0.02	-0.05734552	1	10	0.04	1800	-4.698059	0	0
259555	9	-3	0	0.1149299	-0.01359992	-0.2059589	0	12.19	4003	0	0	0	0	0.02	-0.06139065	1	10	0.04	1800	-4.707184	0	0
259662	11	-2	0	0.1144989	-0.01154514	-0.2055308	0	12.19	4003	0	0	0	0	0.02	-0.06458405	1	10	0.04	1800	-4.701569	0	0
259778	9	-2	0	0.1208047	-0.01083881	-0.207059	0	12.19	4004	0	0	0	0	0.02	-0.06627974	1	10	0.04	1800	-4.484039	0	0
259862	2	-3	2	0.1206354	-0.01018228	-0.2062031	0	12.19	4002	0	0	0	0	0.02	-0.06359074	1	10	0.04	1800	-4.715729	0	0
259972	11	2	0	0.1214839	-0.01171055	-0.20602	0	12.19	4002	0	0	0	0	0.02	-0.05616246	1	10	0.04	1800	-4.299316	0	0
260065	2	3	0	0.121586	-0.01557746	-0.2065704	0	12.19	4002	0	0	0	0	0.02	-0.05346112	1	10	0.04	1800	-4.71875	0	0
260197	10	0	-2	0.11781	-0.01130864	-0.2057754	0	12.14	4002	0	0	0	0	0.02	-0.05856229	1	10	0.04	1800	-4.690887	0	0
260273	5	0	1	0.1178482	-0.01202287	-0.2062643	0	12.14	4004	0	0	0	0	0.02	-0.05639113	1	10	0.04	1800	-4.690887	0	0
260372	10	-4	-3	0.1141203	-0.01857211	-0.206081	0	12.14	4002	0	0	0	0	0.02	-0.05521817	1	10	0.04	1800	-4.495209	0	0
260494	13	-5	2	0.1154479	-0.02077018	-0.2072427	0	12.14	4004	0	0	0	0	0.02	-0.05663894	1	10	0.04	1800	-4.485748	0	0
260637	4	0	1	0.111481	-0.02113499	-0.2102382	0	12.14	4002	0	0	0	0	0.02	-0.05776469	1	10	0.04	1800	-4.70694	0	0
260709	15	0	0	0.1138885	-0.0201334	-0.2113388	0	12.14	4004	0	0	0	0	0.02	-0.06244015	1	10	0.04	1800	-4.702759	0	0
260776	7	-1	-4	0.1146597	-0.0189479	-0.2126837	0	12.14	4003	0	0	0	0	0.02	-0.06660569	1	10	0.04	1800	-4.463226	0	0
260968	17	0	0	0.1159483	-0.01884378	-0.2153739	0	12.14	4004	0	0	0	0	0.02	-0.0724314	1	10	0.04	1800	-4.515198	0	0
261047	14	-3	0	0.1205706	-0.02096195	-0.217636	0	12.14	4004	0	0	0	0	0.02	-0.07922176	1	10	0.04	1800	-4.713531	0	0
261120	2	-5	0	0.1226091	-0.01910544	-0.2195922	0	12.14	4003	0	0	0	0	0.02	-0.08483847	1	10	0.04	1800	-4.50705	0	0
261197	3	0	3	0.1151438	-0.01754656	-0.2207537	0	12.14	4002	0	0	0	0	0.02	-0.08564837	1	10	0.04	1800	-4.490387	0	0
261269	11	3	0	0.1088464	-0.02287891	-0.2225879	0	12.14	4003	0	0	0	0	0.02	-0.08740027	1	10	0.04	1800	-4.683105	0	0
261351	7	1	1	0.1093093	-0.02184956	-0.2236883	0	12.14	4002	0	0	0	0	0.02	-0.08793122	1	10	0.04	1800	-4.509918	0	0
261464	8	-1	-2	0.11442	-0.02322435	-0.2252778	0	12.14	4004	0	0	0	0	0.02	-0.08658542	1	10	0.04	1800	-4.504974	0	0
261564	11	0	-1	0.1084831	-0.02353177	-0.2258287	0	12.14	4004	0	0	0	0	0.02	-0.08830683	1	10	0.04	1800	-4.684082	0	0
261797	15	-2	-3	0.1036341	-0.02575016	-0.2300472	0	12.14	4002	0	0	0	0	0.02	-0.0930576	1	10	0.04	1800	-4.8974	0	0
261876	9	1	2	0.1033827	-0.02314201	-0.2314532	0	12.14	4002	0	0	0	0	0.02	-0.09204665	1	10	0.04	1800	-4.488129	0	0
261959	7	1	0	0.1035042	-0.02114839	-0.234082	0	12.14	4003	0	0	0	0	0.02	-0.08749231	1	10	0.04	1800	-4.466553	0	0
262069	11	0	-2	0.1040302	-0.02274797	-0.2346934	0	12.19	4003	0	0	0	0	0.02	-0.09050746	1	10	0.04	1800	-4.705597	0	0
262183	1	0	4	0.1043462	-0.0277583	-0.2357938	0	12.19	4004	0	0	0	0	0.02	-0.0979621	1	10	0.04	1800	-4.468872	0	0
262278	6	0	2	0.1032015	-0.02895212	-0.2359163	0	12.19	4004	0	0	0	0	0.02	-0.1008421	1	10	0.04	1800	-4.484406	0	0
262351	6	-3	-1	0.1084043	-0.02603562	-0.2377505	0	12.19	4002	0	0	0	0	0.02	-0.1074777	1	10	0.04	1800	-4.494415	0	0
262577	8	0	-4	0.09963975	-0.01485595	-0.2401347	0	12.19	4004	0	0	0	0	0.02	-0.1207693	1	10	0.04	1800	-4.685638	0	0
262652	6	3	0	0.1036048	-0.01368919	-0.2405627	0	12.19	4003	0	0	0	0	0.02	-0.1283083	1	10	0.04	1800	-4.673187	0	0
262752	0	1	0	0.1057594	-0.01225539	-0.2405014	0	12.19	4004	0	0	0	0	0.02	-0.1429269	1	10	0.04	1800	-4.478302	0	0
262862	15	2	1	0.1033869	-0.006724792	-0.2450867	0	12.19	4004	0	0	0	0	0.02	-0.1444078	1	10	0.04	1800	-4.686615	0	0
262963	7	5	0	0.1069309	-0.006836771	-0.2460038	0	12.14	4003	0	0	0	0	0.02	-0.1410971	1	10	0.04	1800	-4.687927	0	0
263061	9	-1	2	0.1033896	-0.007471992	-0.2469821	0	12.14	4003	0	0	0	0	0.02	-0.1344518	1	10	0.04	1800	-4.464874	0	0
263168	4	-1	2	0.09956796	-0.007781578	-0.2526065	0	12.14	4004	0	0	0	0	0.02	-0.1359666	1	10	0.04	1800	-4.685486	0	0
263261	8	-1	7	0.09866039	-0.01264929	-0.2551132	0	12.14	4004	0	0	0	0	0.02	-0.1375397	1	10	0.04	1800	-4.654907	0	0
263380	9	2	7	0.1004707	-0.01198785	-0.2560915	0	12.14	4003	0	0	0	0	0.02	-0.1388078	1	10	0.04	1800	-4.261688	0	0
263464	8	-1	3	0.1048545	-0.01409817	-0.2564586	0	12.14	4004	0	0	0	0	0.02	-0.1391553	1	10	0.04	1800	-4.482605	0	0
263627	15	0	-5	0.1054232	-0.01263917	-0.2606772	0	12.14	4003	0	0	0	0	0.02	-0.134057	1	10	0.04	1800	-4.69342	0	0
263687	10	-7	-1	0.1104753	-0.008202054	-0.2611052	0	12.14	4004	0	0	0	0	0.02	-0.130179	1	10	0.04	1800	-4.662964	0	0
263792	6	1	4	0.1098366	-0.005095935	-0.2631227	0	12.14	4003	0	0	0	0	0.02	-0.1275715	1	10	0.04	1800	-4.479095	0	0
263925	17	-1	-1	0.1022142	-0.00779384	-0.2681974	0	12.19	4004	0	0	0	0	0.02	-0.1262746	1	10	0.04	1800	-4.68338	0	0
264024	0	-2	2	0.1083714	-0.01032807	-0.2702761	0	12.19	4002	0	0	0	0	0.02	-0.1195633	1	10	0.04	1800	-4.68338	0	0
264063	3	1	1	0.1068817	-0.009360012	-0.2714374	0	12.19	4004	0	0	0	0	0.02	-0.1191449	1	10	0.04	1800	-4.488495	0	0
264164	7	0	3	0.1052206	-0.004209057	-0.273516	0	12.19	4004	0	0	0	0	0.02	-0.1211428	1	10	0.04	1800	-4.673096	0	0
264278	-1	1	-1	0.09608979	-0.01146193	-0.2766339	0	12.19	4004	0	0	0	0	0.02	-0.1208444	1	10	0.04	1800	-4.459198	0	0
264370	0	0	-3	0.09088199	-0.009442121	-0.2785904	0	12.19	4002	0	0	0	0	0.02	-0.1199994	1	10	0.04	1800	-4.464661	0	0
264486	5	0	1	0.08701774	-0.01330876	-0.2805469	0	12.19	4002	0	0	0	0	0.02	-0.1143018	1	10	0.04	1800	-4.656219	0	0
264574	4	-7	2	0.09188188	-0.01103129	-0.2825645	0	12.19	4003	0	0	0	0	0.02	-0.1108038	1	10	0.04	1800	-4.464172	0	0
264767	14	-3	-1	0.08712384	-0.01172926	-0.2859268	0	12.25	4004	0	0	0	0	0.02	-0.1108783	1	10	0.04	1800	-4.455841	0	0
264806	9	-1	3	0.09057423	-0.01175704	-0.2873941	0	12.25	4003	0	0	0	0	0.02	-0.109186	1	10	0.04	1800	-4.664093	0	0
264871	1	-1	4	0.0836852	-0.006733413	-0.2888004	0	12.25	4003	0	0	0	0	0.02	-0.1094593	1	10	0.04	1800	-4.660522	0	0
265007	11	-4	2	0.07811386	-0.00520736	-0.2890446	0	12.25	4002	0	0	0	0	0.02	-0.123313	1	10	0.04	1800	-4.430695	0	0
265087	2	0	0	0.0831218	-0.007174863	-0.2906953	0	12.25	4003	0	0	0	0	0.02	-0.129396	1	10	0.04	1800	-4.436951	0	0
265176	5	1	1	0.08256527	-0.01482629	-0.291062	0	12.25	4004	0	0	0	0	0.02	-0.1341895	1	10	0.04	1800	-4.457642	0	0
265337	7	-2	-2	0.07977507	-0.01847019	-0.2924067	0	12.25	4002	0	0	0	0	0.02	-0.1330722	1	10	0.04	1800	-4.434662	0	0
265495	-1	2	4	0.07524249	-0.02157981	-0.2948519	0	12.25	4003	0	0	0	0	0.02	-0.1274256	1	10	0.04	1800	-4.447784	0	0
265592	10	0	0	0.07371779	-0.01872251	-0.2978476	0	12.25	4003	0	0	0	0	0.02	-0.1212583	1	10	0.04	1800	-4.64502	0	0
265717	1	-1	3	0.07286114	-0.0182743	-0.3007819	0	12.19	4003	0	0	0	0	0.02	-0.1116578	1	10	0.04	1800	-4.442719	0	0
265797	4	0	2	0.06861548	-0.0147631	-0.3043276	0	12.19	4003	0	0	0	0	0.02	-0.1046828	1	10	0.04	1800	-4.627625	0	0
265910	7	-1	2	0.06735139	-0.01702062	-0.306162	0	12.19	4004	0	0	0	0	0.02	-0.0910145	1	10	0.04	1800	-4.415619	0	0
265999	1	5	1	0.06221268	-0.01641374	-0.3082408	0	12.19	4004	0	0	0	0	0.02	-0.0832743	1	10	0.04	1800	-4.427521	0	0
266109	12	-1	-1	0.05693785	-0.01584467	-0.3084241	0	12.19	4003	0	0	0	0	0.02	-0.06702598	1	10	0.04	1800	-4.403473	0	0
266202	1	0	2	0.05371001	-0.01133544	-0.3099524	0	12.19	4002	0	0	0	0	0.02	-0.05737204	1	10	0.04	1800	-4.61908	0	0
266446	1	3	7	0.05998345	-0.006152509	-0.3120307	0	12.19	4004	0	0	0	0	0.02	-0.02842171	1	10	0.04	1800	-4.415314	0	0
266586	7	-1	1	0.05895219	-0.00673072	-0.3136203	0	12.19	4003	0	0	0	0	0.02	-0.01823651	1	10	0.04	1800	-4.62738	0	0
266630	6	1	3	0.05629785	-0.008026347	-0.314843	0	12.19	4004	0	0	0	0	0.02	-0.01549335	1	10	0.04	1800	-4.62738	0	0
266765	1	0	2	0.05374353	0.0006315763	-0.3212622	0	12.19	4003	0	0	0	0	0.02	-0.01036768	1	10	0.04	1800	-4.395599	0	0
266920	9	-2	0	0.05196192	-0.006539187	-0.3234631	0	12.19	4003	0	0	0	0	0.02	-0.0122661	1	10	0.04	1800	-4.409515	0	0
267007	-2	2	7	0.05239507	0.001126545	-0.3262756	0	12.19	4004	0	0	0	0	0.02	-0.004204038	1	10	0.04	1800	-4.393066	0	0
267092	3	-1	1	0.05394188	-0.0002623998	-0.3284154	0	12.19	4002	0	0	0	0	0.02	0.003563485	1	10	0.04	1800	-4.399506	0	0
267213	5	5	-1	0.06532296	-0.0002103359	-0.33349	0	12.19	4003	0	0	0	0	0.02	0.0002123439	1	10	0.04	1800	-4.409332	0	0
267293	0	-1	2	0.05780609	-0.0002465939	-0.3358129	0	12.19	4004	0	0	0	0	0.02	-0.00503446	1	10	0.04	1800	-4.409698	0	0
267444	5	3	1	0.05894013	-0.002642148	-0.3434549	0	12.19	4002	0	0	0	0	0.02	0.0006185644	1	10	0.04	1800	-4.416321	0	0
267563	6	0	1	0.06214824	-0.003534381	-0.347062	0	12.19	4004	0	0	0	0	0.02	-0.001788283	1	10	0.04	1800	-4.625092	0	0
267628	2	-5	0	0.05988181	-0.003708101	-0.347979	0	12.19	4002	0	0	0	0	0.02	-0.004950181	1	10	0.04	1800	-4.420563	0	0
267718	3	-2	1	0.05632964	-0.006472608	-0.3509135	0	12.19	4002	0	0	0	0	0.02	-0.01563599	1	10	0.04	1800	-4.621582	0	0
267762	0	-2	1	0.05502683	-0.007453911	-0.3528086	0	12.19	4002	0	0	0	0	0.02	-0.01732823	1	10	0.04	1800	-4.209656	0	0
267852	3	-7	3	0.05089194	-0.01156348	-0.3540923	0	12.19	4003	0	0	0	0	0.02	-0.0254552	1	10	0.04	1800	-4.612213	0	0
267942	7	-1	0	0.05037162	-0.006752254	-0.3550093	0	12.19	4002	0	0	0	0	0.02	-0.0306701	1	10	0.04	1800	-4.618317	0	0
268045	-3	1	0	0.04490453	-0.004470737	-0.3578215	0	12.19	4004	0	0	0	0	0.02	-0.03412071	1	10	0.04	1800	-4.390778	0	0
268144	9	5	-1	0.04561303	-0.006146009	-0.3603893	0	12.19	4003	0	0	0	0	0.02	-0.03269549	1	10	0.04	1800	-4.379517	0	0
268248	1	2	1	0.04634852	-0.0111272	-0.3646078	0	12.19	4003	0	0	0	0	0.02	-0.02546998	1	10	0.04	1800	-4.397858	0	0
268378	-2	0	1	0.03813428	-0.01136812	-0.3653416	0	12.19	4004	0	0	0	0	0.02	-0.03496212	1	10	0.04	1800	-4.396729	0	0
268534	-7	-3	5	0.03411663	-0.008329849	-0.36956	0	12.19	4003	0	0	0	0	0.02	-0.0404583	1	10	0.04	1800	-4.352203	0	0
268700	4	5	1	0.02630656	-0.004637426	-0.3728001	0	12.19	4003	0	0	0	0	0.02	-0.05763415	1	10	0.04	1800	-4.561493	0	0
268776	4	1	-2	0.0250018	-0.004193253	-0.3769571	0	12.19	4002	0	0	0	0	0.02	-0.06210778	1	10	0.04	1800	-4.373535	0	0
268879	0	-5	7	0.0226929	-0.003999529	-0.3804418	0	12.19	4003	0	0	0	0	0.02	-0.06734629	1	10	0.04	1800	-4.759705	0	0
268971	2	29	-13	0.01921347	0.003589866	-0.3791579	0	12.19	4003	0	0	0	0	0.02	-0.06169151	1	10	0.04	1800	-4.371613	0	0
269060	0	-3	47	0.03320128	-0.002976568	-0.4162669	0	12.19	4003	0	0	0	0	0.02	-0.05215995	1	10	0.04	1800	-4.561737	0	0
269166	0	5	21	0.03852334	-0.006006904	-0.4501979	0	12.19	4004	0	0	0	0	0.02	-0.02827648	1	10	0.04	1800	-4.606354	0	0
269418	-2121	107	-1426	-1.636574	-0.5160859	0.4560818	0	12.14	4003	0	0	0	0	0.02	0.001384501	1	10	0.04	1800	-4.630219	0	0
269605	2048	-2983	-2315	0.9513796	9.970502	8.583896	0	12.14	4003	0	0	0	0	0.02	0.01108843	1	10	0.04	1800	-9.884644	0	0
269735	1059	980	-1736	4.270219	10.50789	13.18538	0	12.14	4002	0	0	0	0	0.02	0.008080208	1	10	0.04	1800	-13.5499	0	0
269756	1059	980	-1736	4.270219	10.50789	13.18538	0	12.14	4002	0	0	0	0	0.02	0.009586388	1	10	0.04	1800	-13.5499	0	0
269869	269	1935	-1941	5.743855	7.011889	17.38978	0	12.14	4003	0	0	0	0	0.02	0.01677923	1	10	0.04	1800	-14.59079	0	0
269959	-669	2797	-1203	4.857909	3.405908	19.91387	0	12.14	4002	0	0	0	0	0.02	0.03792875	1	10	0.04	1800	-14.28033	0	0
270125	-460	796	-1323	2.966643	1.23018	22.28156	0	12.14	4002	0	0	0	0	0.02	0.0820605	1	10	0.04	1800	-13.03574	0	0
270166	-1283	1074	-2208	1.992923	1.221101	24.24008	0	12.14	4003	0	0	0	0	0.02	0.1028044	1	10	0.04	1800	-13.62402	0	0
270265	-2456	637	-3787	-1.38461	0.09164578	29.16803	0	12.19	4004	0	0	0	0	0.02	0.1295712	1	10	0.04	1800	-14.47815	0	0
270469	1102	-1231	-8335	-2.046979	6.484775	49.48541	0	12.19	4003	0	0	0	0	0.02	0.2091864	1	10	0.04	1800	-28.22998	0	0
270535	2736	-4351	-7718	1.19509	9.551339	58.22641	0	12.19	4002	0	0	0	0	0.02	0.2370832	1	10	0.04	1800	-36.44534	0	0
270624	9	-3011	-6733	3.531926	13.21683	66.20882	0	12.19	4003	0	0	0	0	0.02	0.275712	1	10	0.04	1800	-46.9176	0	0
270670	-808	-1155	-3213	3.310521	16.01509	74.77485	0	12.19	4002	0	0	0	0	0.02	0.2851815	1	10	0.04	1800	-61.73599	0	0
270764	-268	1403	-49	2.916214	17.04464	76.44164	0	12.19	4003	0	0	0	0	0.02	0.3510679	1	10	0.04	1800	-62.6904	0	0
270864	142	2656	2677	0.7462605	14.55281	73.80742	0	12.19	4004	0	0	0	0	0.02	0.3770292	1	10	0.04	1800	-58.10104	0	0
270962	632	3150	3007	-0.7418177	11.01995	68.5864	0	12.19	4003	0	0	0	0	0.02	0.4173049	1	10	0.04	1800	-51.12653	0	0
271064	1198	-1431	2637	-0.4344532	9.285033	64.66548	0	12.19	4004	0	0	0	0	0.02	0.4484632	1	10	0.04	1800	-40.39389	0	0
271206	-2373	-2949	2227	-6.216075	13.24488	56.73244	0	12.25	4003	0	0	0	0	0.02	0.4712433	1	10	0.04	1800	-37.05737	0	0
271257	-2024	-3770	1548	-7.099496	14.76644	55.74191	0	12.25	4003	0	0	0	0	0.02	0.4899434	1	10	0.04	1800	-37.634	0	0
271365	-1451	-4347	212	-7.772063	20.34339	54.07333	0	12.25	4004	0	0	0	0	0.02	0.5042544	1	10	0.04	1800	-41.59622	0	0
271459	3046	-858	-3357	-2.927136	23.97633	57.63725	0	12.25	4002	0	0	0	0	0.02	0.5164804	1	10	0.04	1800	-55.55862	0	0
271653	-2889	3547	-6996	0.2598924	13.28562	73.43797	0	12.25	4003	0	0	0	0	0.02	0.5399674	1	10	0.04	1800	-71.25049	0	0
271695	395	3850	-6761	0.1522989	11.13792	77.23245	0	12.25	4004	0	0	0	0	0.02	0.5467988	1	10	0.04	1800	-78.90533	0	0
271776	-2170	2349	-4385	0.2496465	6.060581	87.01336	0	12.25	4003	0	0	0	0	0.02	0.5543079	1	10	0.04	1800	-85.46362	0	0
271845	-1703	2263	-3685	-1.68072	4.894043	91.78489	0	12.25	4003	0	0	0	0	0.02	0.5581903	1	10	0.04	1800	-90.57764	0	0
271942	-598	2823	-809	-3.577026	4.038455	96.44296	0	12.25	4003	0	0	0	0	0.02	0.5610206	1	10	0.04	1800	-88.75769	0	0
272042	1361	2321	-155	-2.865493	2.659073	96.9994	0	12.25	4003	0	0	0	0	0.02	0.5548298	1	10	0.04	1800	-83.83301	0	0
272144	29	-1500	1857	-1.12685	3.280258	95.63412	0	12.19	4003	0	0	0	0	0.02	0.5434969	1	10	0.04	1800	-77.892	0	0
272247	737	-346	3041	2.778136	7.600986	89.04062	0	12.19	4002	0	0	0	0	0.02	0.5353734	1	10	0.04	1800	-72.59653	0	0
272344	538	-4967	3837	2.705585	10.73913	85.27004	0	12.19	4002	0	0	0	0	0.02	0.5215192	1	10	0.04	1800	-67.28659	0	0
272456	957	-3582	3437	4.045353	17.55309	79.34254	0	12.19	4004	0	0	0	0	0.02	0.5172625	1	10	0.04	1800	-66.82712	0	0
272602	-721	-2084	1361	1.920133	19.79831	71.29848	0	12.19	4003	0	0	0	0	0.02	0.5143603	1	10	0.04	1800	-68.4213	0	0
272652	-686	-1636	435	1.503747	19.8723	70.84271	0	12.19	4003	0	0	0	0	0.02	0.5144917	1	10	0.04	1800	-71.70511	0	0
272775	-4451	1286	-2332	-0.3058454	14.82937	72.69992	0	12.19	4002	0	0	0	0	0.02	0.5157343	1	10	0.04	1800	-77.51334	0	0
272859	1991	5022	-2743	-1.144188	13.53828	74.21564	0	12.19	4002	0	0	0	0	0.02	0.5168757	1	10	0.04	1800	-77.51334	0	0
273008	-2683	3054	-505	-0.6185707	3.066209	79.14975	0	12.14	4003	0	0	0	0	0.02	0.5138102	1	10	0.04	1800	-76.42636	0	0
273075	-85	946	886	-1.894005	2.36978	78.92591	0	12.14	4003	0	0	0	0	0.02	0.5135991	1	10	0.04	1800	-71.22598	0	0
273157	633	-477	2083	-1.486245	3.610974	77.20512	0	12.14	4002	0	0	0	0	0.02	0.5137011	1	10	0.04	1800	-66.38193	0	0
273261	1220	1739	3513	-0.05963076	4.433928	70.92553	0	12.14	4003	0	0	0	0	0.02	0.5080231	1	10	0.04	1800	-54.05249	0	0
273420	904	202	4264	1.308441	4.069363	60.64878	0	12.14	4004	0	0	0	0	0.02	0.4996554	1	10	0.04	1800	-46.28848	0	0
273466	19	409	4282	2.008281	3.731302	58.27401	0	12.14	4003	0	0	0	0	0.02	0.4917328	1	10	0.04	1800	-46.28848	0	0
273627	2814	-3640	3416	1.854505	9.13954	48.47939	0	12.14	4002	0	0	0	0	0.02	0.479296	1	10	0.04	1800	-44.03281	0	0
273728	215	-1019	3887	4.731339	11.10346	42.24228	0	12.14	4004	0	0	0	0	0.02	0.4779204	1	10	0.04	1800	-43.76511	0	0
273781	-234	-719	3876	4.543217	11.106	40.10006	0	12.14	4002	0	0	0	0	0.02	0.4786586	1	10	0.04	1800	-41.87927	0	0
273858	1177	-145	2264	4.204577	11.1087	36.14873	0	12.14	4004	0	0	0	0	0.02	0.4817907	1	10	0.04	1800	-40.57092	0	0
273964	2512	730	1694	5.160503	9.28734	30.94615	0	12.19	4003	0	0	0	0	0.02	0.4990098	1	10	0.04	1800	-38.08847	0	0
274062	434	-375	114	5.584555	8.211279	29.66927	0	12.19	4002	0	0	0	0	0.02	0.5045796	1	10	0.04	1800	-35.34863	0	0
274178	-1358	1692	-915	2.916846	6.26139	30.70975	0	12.19	4003	0	0	0	0	0.02	0.5084473	1	10	0.04	1800	-31.92917	0	0
274279	-1462	1608	142	0.9455802	5.001698	31.21437	0	12.19	4003	0	0	0	0	0.02	0.5149102	1	10	0.04	1800	-30.48737	0	0
274362	-1691	1642	1899	-1.902091	3.144823	29.31427	0	12.19	4003	0	0	0	0	0.02	0.5229148	1	10	0.04	1800	-29.23535	0	0
274463	1057	1061	890	-2.414244	2.175667	25.69019	0	12.19	4004	0	0	0	0	0.02	0.544551	1	10	0.04	1800	-24.41455	0	0
274569	1476	368	501	-1.003569	2.813788	25.00152	0	12.19	4003	0	0	0	0	0.02	0.5569763	1	10	0.04	1800	-21.68677	0	0
274664	1330	125	2130	1.760051	4.353495	23.13484	0	12.19	4004	0	0	0	0	0.02	0.5611787	1	10	0.04	1800	-20.61722	0	0
274766	-281	-1427	3110	2.580827	5.784255	18.43396	0	12.19	4004	0	0	0	0	0.02	0.5581427	1	10	0.04	1800	-17.21671	0	0
274869	1426	-1037	2831	3.22291	9.542068	13.08046	0	12.19	4003	0	0	0	0	0.02	0.5494373	1	10	0.04	1800	-15.11304	0	0
274977	139	1621	2240	4.237692	5.105013	9.151652	0	12.19	4003	0	0	0	0	0.02	0.542686	1	10	0.04	1800	-13.08591	0	0
275078	-1175	619	1795	3.646673	2.312954	6.740149	0	12.19	4002	0	0	0	0	0.02	0.5209522	1	10	0.04	1800	-11.73914	0	0
275182	158	435	103	2.155709	0.3271675	5.510201	0	12.19	4004	0	0	0	0	0.02	0.5010988	1	10	0.04	1800	-11.22644	0	0
275302	-1122	-436	2297	2.571332	-0.174214	3.12978	0	12.19	4002	0	0	0	0	0.02	0.4630666	1	10	0.04	1800	-10.76236	0	0
275384	-769	-24	3966	1.477831	-0.2003925	-0.5699798	0	12.19	4004	0	0	0	0	0.02	0.4508758	1	10	0.04	1800	-8.763702	0	0
275481	-127	320	-107	1.928966	-0.6272741	-4.560175	0	12.19	4003	0	0	0	0	0.02	0.4331695	1	10	0.04	1800	-5.207367	0	0
275581	74	97	-959	1.708558	-0.969816	-4.318973	0	12.19	4004	0	0	0	0	0.02	0.4002195	1	10	0.04	1800	-3.525391	0	0
275698	-860	-1249	-3798	0.8653199	-0.2677847	0.8108708	0	12.19	4003	0	0	0	0	0.02	0.3830149	1	10	0.04	1800	-4.031586	0	0
275829	271	-38	414	1.164896	-0.7228628	2.520885	0	12.19	4003	0	0	0	0	0.02	0.3643242	1	10	0.04	1800	-7.133087	0	0
275892	-264	-39	93	1.135668	0.03063734	2.453454	0	12.19	4003	0	0	0	0	0.02	0.3487724	1	10	0.04	1800	-7.289886	0	0
275979	273	124	730	0.7243966	0.005570498	1.404443	0	12.19	4004	0	0	0	0	0.02	0.3422866	1	10	0.04	1800	-7.307495	0	0
276153	34	124	2	0.7149017	0.2456288	1.213984	0	12.19	4004	0	0	0	0	0.02	0.3191056	1	10	0.04	1800	-5.680969	0	0
276180	103	135	-53	0.7130426	0.1770615	1.24015	0	12.19	4002	0	0	0	0	0.02	0.3125806	1	10	0.04	1800	-5.680969	0	0
276273	98	-40	-31	0.6883486	0.09957538	1.300309	0	12.19	4002	0	0	0	0	0.02	0.3030142	1	10	0.04	1800	-5.36203	0	0
276374	25	152	-1	0.619486	0.3159983	1.312841	0	12.19	4003	0	0	0	0	0.02	0.2974812	1	10	0.04	1800	-5.050507	0	0
276488	-39	-33	10	0.6487784	0.2158572	1.318221	0	12.19	4004	0	0	0	0	0.02	0.3009193	1	10	0.04	1800	-5.057037	0	0
276597	21	19	-1	0.5255782	0.2882806	1.31602	0	12.19	4002	0	0	0	0	0.02	0.2958269	1	10	0.04	1800	-4.903198	0	0
276667	-16	-14	5	0.5215335	0.2965475	1.314064	0	12.25	4002	0	0	0	0	0.02	0.2899789	1	10	0.04	1800	-4.602264	0	0
276790	2	5	1	0.4526537	0.3720667	1.310578	0	12.25	4003	0	0	0	0	0.02	0.2786171	1	10	0.04	1800	-4.929443	0	0
276868	3	0	1	0.4058228	0.4013708	1.3096	0	12.25	4003	0	0	0	0	0.02	0.267264	1	10	0.04	1800	-4.88559	0	0
277000	-5	2	-4	0.362536	0.4398483	1.306666	0	12.25	4004	0	0	0	0	0.02	0.2500658	1	10	0.04	1800	-4.819427	0	0
277107	0	5	1	0.3320808	0.4608642	1.303914	0	12.25	4002	0	0	0	0	0.02	0.2414528	1	10	0.04	1800	-4.298645	0	0
277196	1	0	-1	0.30361	0.4872005	1.301286	0	12.25	4004	0	0	0	0	0.02	0.2303931	1	10	0.04	1800	-4.688141	0	0
277350	0	-3	2	0.259306	0.5177624	1.290831	0	12.25	4003	0	0	0	0	0.02	0.2112607	1	10	0.04	1800	-4.40686	0	0
277385	1	-8	-2	0.247698	0.5262745	1.290037	0	12.25	4004	0	0	0	0	0.02	0.2011268	1	10	0.04	1800	-4.374481	0	0
277482	-1	4	4	0.2224231	0.5513958	1.287346	0	12.25	4003	0	0	0	0	0.02	0.1927288	1	10	0.04	1800	-4.342468	0	0
277566	3	2	0	0.2050458	0.5599899	1.282089	0	12.19	4003	0	0	0	0	0.02	0.187573	1	10	0.04	1800	-4.313293	0	0
277672	1	2	2	0.1940003	0.5734659	1.276343	0	12.19	4004	0	0	0	0	0.02	0.1877181	1	10	0.04	1800	-4.286346	0	0
277732	2	-1	3	0.1857733	0.5847726	1.275181	0	12.19	4003	0	0	0	0	0.02	0.1889609	1	10	0.04	1800	-4.265808	0	0
277844	-5	145	-11	0.1860567	0.6737029	1.278727	0	12.19	4004	0	0	0	0	0.02	0.196023	1	10	0.04	1800	-4.276855	0	0
