time(ms)	gyro_x(deg/s)	gyro_y(deg/s)	gyro_z(deg/s)	orientation_roll(deg)	orientation_pitch(deg)	orientation_yaw(deg)	throttle	battery(V)	loop_time(uS)	pid_output_roll	pid_output_pitch	pid_output_yaw	pid_output_throttle	ultrasonic_alt	baro_alt	flight_mode	p_gain_altitude	i_gain_altitude	d_gain_altitude	compass_heading	latitude	longitude
184682	57	89	180	-51.24658	-32.63385	622.8276	0	12.19	4002	0	0	0	0	0.6904588	0.6403069	1	10	0.04	1800	-23.18741	-44.74001	-3.734015
184785	57	89	180	-51.24658	-32.63385	622.8276	0	12.19	4002	0	0	0	0	0.6904588	0.6403069	1	10	0.04	1800	-23.18741	-44.74001	-3.734015
184890	57	89	180	-51.24658	-32.63385	622.8276	0	12.19	4002	0	0	0	0	0.6904588	0.6403069	1	10	0.04	1800	-23.18741	-44.74001	-3.734015
184979	57	89	180	-51.24658	-32.63385	622.8276	0	12.19	4002	0	0	0	0	0.6904588	0.6403069	1	10	0.04	1800	-23.18741	-44.74001	-3.734015
185079	57	89	180	-51.24658	-32.63385	622.8276	0	12.19	4002	0	0	0	0	0.6904588	0.6403069	1	10	0.04	1800	-23.18741	-44.74001	-3.734015
185167	57	89	180	-51.24658	-32.63385	622.8276	0	12.19	4002	0	0	0	0	0.6904588	0.6403069	1	10	0.04	1800	-23.18741	-44.74001	-3.734015
185260	57	89	180	-51.24658	-32.63385	622.8276	0	12.19	4002	0	0	0	0	0.6904588	0.6403069	1	10	0.04	1800	-23.18741	-44.74001	-3.734015
185355	57	89	180	-51.24658	-32.63385	622.8276	0	12.19	4002	0	0	0	0	0.6904588	0.6403069	1	10	0.04	1800	-23.18741	-44.74001	-3.734015
185447	57	89	180	-51.24658	-32.63385	622.8276	0	12.19	4002	0	0	0	0	0.6904588	0.6403069	1	10	0.04	1800	-23.18741	-44.74001	-3.734015
185543	57	89	180	-51.24658	-32.63385	622.8276	0	12.19	4002	0	0	0	0	0.6904588	0.6403069	1	10	0.04	1800	-23.18741	-44.74001	-3.734015
185632	57	89	180	-51.24658	-32.63385	622.8276	0	12.19	4002	0	0	0	0	0.6904588	0.6403069	1	10	0.04	1800	-23.18741	-44.74001	-3.734015
185725	57	89	180	-51.24658	-32.63385	622.8276	0	12.19	4002	0	0	0	0	0.6904588	0.6403069	1	10	0.04	1800	-23.18741	-44.74001	-3.734015
185819	57	89	180	-51.24658	-32.63385	622.8276	0	12.19	4002	0	0	0	0	0.6904588	0.6403069	1	10	0.04	1800	-23.18741	-44.74001	-3.734015
185919	57	89	180	-51.24658	-32.63385	622.8276	0	12.19	4002	0	0	0	0	0.6904588	0.6403069	1	10	0.04	1800	-23.18741	-44.74001	-3.734015
186021	57	89	180	-51.24658	-32.63385	622.8276	0	12.19	4002	0	0	0	0	0.6904588	0.6403069	1	10	0.04	1800	-23.18741	-44.74001	-3.734015
186112	57	89	180	-51.24658	-32.63385	622.8276	0	12.19	4002	0	0	0	0	0.6904588	0.6403069	1	10	0.04	1800	-23.18741	-44.74001	-3.734015
186209	57	89	180	-51.24658	-32.63385	622.8276	0	12.19	4002	0	0	0	0	0.6904588	0.6403069	1	10	0.04	1800	-23.18741	-44.74001	-3.734015
186300	57	89	180	-51.24658	-32.63385	622.8276	0	12.19	4002	0	0	0	0	0.6904588	0.6403069	1	10	0.04	1800	-23.18741	-44.74001	-3.734015
186393	57	89	180	-51.24658	-32.63385	622.8276	0	12.19	4002	0	0	0	0	0.6904588	0.6403069	1	10	0.04	1800	-23.18741	-44.74001	-3.734015
186489	57	89	180	-51.24658	-32.63385	622.8276	0	12.19	4002	0	0	0	0	0.6904588	0.6403069	1	10	0.04	1800	-23.18741	-44.74001	-3.734015
186576	57	89	180	-51.24658	-32.63385	622.8276	0	12.19	4002	0	0	0	0	0.6904588	0.6403069	1	10	0.04	1800	-23.18741	-44.74001	-3.734015
186667	57	89	180	-51.24658	-32.63385	622.8276	0	12.19	4002	0	0	0	0	0.6904588	0.6403069	1	10	0.04	1800	-23.18741	-44.74001	-3.734015
186759	57	89	180	-51.24658	-32.63385	622.8276	0	12.19	4002	0	0	0	0	0.6904588	0.6403069	1	10	0.04	1800	-23.18741	-44.74001	-3.734015
186855	57	89	180	-51.24658	-32.63385	622.8276	0	12.19	4002	0	0	0	0	0.6904588	0.6403069	1	10	0.04	1800	-23.18741	-44.74001	-3.734015
186948	57	89	180	-51.24658	-32.63385	622.8276	0	12.19	4002	0	0	0	0	0.6904588	0.6403069	1	10	0.04	1800	-23.18741	-44.74001	-3.734015
187051	57	89	180	-51.24658	-32.63385	622.8276	0	12.19	4002	0	0	0	0	0.6904588	0.6403069	1	10	0.04	1800	-23.18741	-44.74001	-3.734015
187141	57	89	180	-51.24658	-32.63385	622.8276	0	12.19	4002	0	0	0	0	0.6904588	0.6403069	1	10	0.04	1800	-23.18741	-44.74001	-3.734015
187233	57	89	180	-51.24658	-32.63385	622.8276	0	12.19	4002	0	0	0	0	0.6904588	0.6403069	1	10	0.04	1800	-23.18741	-44.74001	-3.734015
187319	57	89	180	-51.24658	-32.63385	622.8276	0	12.19	4002	0	0	0	0	0.6904588	0.6403069	1	10	0.04	1800	-23.18741	-44.74001	-3.734015
187414	57	89	180	-51.24658	-32.63385	622.8276	0	12.19	4002	0	0	0	0	0.6904588	0.6403069	1	10	0.04	1800	-23.18741	-44.74001	-3.734015
187500	57	89	180	-51.24658	-32.63385	622.8276	0	12.19	4002	0	0	0	0	0.6904588	0.6403069	1	10	0.04	1800	-23.18741	-44.74001	-3.734015
187592	57	89	180	-51.24658	-32.63385	622.8276	0	12.19	4002	0	0	0	0	0.6904588	0.6403069	1	10	0.04	1800	-23.18741	-44.74001	-3.734015
187677	57	89	180	-51.24658	-32.63385	622.8276	0	12.19	4002	0	0	0	0	0.6904588	0.6403069	1	10	0.04	1800	-23.18741	-44.74001	-3.734015
187766	57	89	180	-51.24658	-32.63385	622.8276	0	12.19	4002	0	0	0	0	0.6904588	0.6403069	1	10	0.04	1800	-23.18741	-44.74001	-3.734015
187861	57	89	180	-51.24658	-32.63385	622.8276	0	12.19	4002	0	0	0	0	0.6904588	0.6403069	1	10	0.04	1800	-23.18741	-44.74001	-3.734015
187954	57	89	180	-51.24658	-32.63385	622.8276	0	12.19	4002	0	0	0	0	0.6904588	0.6403069	1	10	0.04	1800	-23.18741	-44.74001	-3.734015
188055	57	89	180	-51.24658	-32.63385	622.8276	0	12.19	4002	0	0	0	0	0.6904588	0.6403069	1	10	0.04	1800	-23.18741	-44.74001	-3.734015
188143	57	89	180	-51.24658	-32.63385	622.8276	0	12.19	4002	0	0	0	0	0.6904588	0.6403069	1	10	0.04	1800	-23.18741	-44.74001	-3.734015
188239	57	89	180	-51.24658	-32.63385	622.8276	0	12.19	4002	0	0	0	0	0.6904588	0.6403069	1	10	0.04	1800	-23.18741	-44.74001	-3.734015
188327	57	89	180	-51.24658	-32.63385	622.8276	0	12.19	4002	0	0	0	0	0.6904588	0.6403069	1	10	0.04	1800	-23.18741	-44.74001	-3.734015
188422	57	89	180	-51.24658	-32.63385	622.8276	0	12.19	4002	0	0	0	0	0.6904588	0.6403069	1	10	0.04	1800	-23.18741	-44.74001	-3.734015
188510	57	89	180	-51.24658	-32.63385	622.8276	0	12.19	4002	0	0	0	0	0.6904588	0.6403069	1	10	0.04	1800	-23.18741	-44.74001	-3.734015
188596	57	89	180	-51.24658	-32.63385	622.8276	0	12.19	4002	0	0	0	0	0.6904588	0.6403069	1	10	0.04	1800	-23.18741	-44.74001	-3.734015
188685	57	89	180	-51.24658	-32.63385	622.8276	0	12.19	4002	0	0	0	0	0.6904588	0.6403069	1	10	0.04	1800	-23.18741	-44.74001	-3.734015
188775	57	89	180	-51.24658	-32.63385	622.8276	0	12.19	4002	0	0	0	0	0.6904588	0.6403069	1	10	0.04	1800	-23.18741	-44.74001	-3.734015
188870	57	89	180	-51.24658	-32.63385	622.8276	0	12.19	4002	0	0	0	0	0.6904588	0.6403069	1	10	0.04	1800	-23.18741	-44.74001	-3.734015
188960	57	89	180	-51.24658	-32.63385	622.8276	0	12.19	4002	0	0	0	0	0.6904588	0.6403069	1	10	0.04	1800	-23.18741	-44.74001	-3.734015
189059	57	89	180	-51.24658	-32.63385	622.8276	0	12.19	4002	0	0	0	0	0.6904588	0.6403069	1	10	0.04	1800	-23.18741	-44.74001	-3.734015
189160	57	89	180	-51.24658	-32.63385	622.8276	0	12.19	4002	0	0	0	0	0.6904588	0.6403069	1	10	0.04	1800	-23.18741	-44.74001	-3.734015
189248	57	89	180	-51.24658	-32.63385	622.8276	0	12.19	4002	0	0	0	0	0.6904588	0.6403069	1	10	0.04	1800	-23.18741	-44.74001	-3.734015
189338	57	89	180	-51.24658	-32.63385	622.8276	0	12.19	4002	0	0	0	0	0.6904588	0.6403069	1	10	0.04	1800	-23.18741	-44.74001	-3.734015
189429	57	89	180	-51.24658	-32.63385	622.8276	0	12.19	4002	0	0	0	0	0.6904588	0.6403069	1	10	0.04	1800	-23.18741	-44.74001	-3.734015
189519	57	89	180	-51.24658	-32.63385	622.8276	0	12.19	4002	0	0	0	0	0.6904588	0.6403069	1	10	0.04	1800	-23.18741	-44.74001	-3.734015
189607	57	89	180	-51.24658	-32.63385	622.8276	0	12.19	4002	0	0	0	0	0.6904588	0.6403069	1	10	0.04	1800	-23.18741	-44.74001	-3.734015
189694	57	89	180	-51.24658	-32.63385	622.8276	0	12.19	4002	0	0	0	0	0.6904588	0.6403069	1	10	0.04	1800	-23.18741	-44.74001	-3.734015
189782	57	89	180	-51.24658	-32.63385	622.8276	0	12.19	4002	0	0	0	0	0.6904588	0.6403069	1	10	0.04	1800	-23.18741	-44.74001	-3.734015
189871	57	89	180	-51.24658	-32.63385	622.8276	0	12.19	4002	0	0	0	0	0.6904588	0.6403069	1	10	0.04	1800	-23.18741	-44.74001	-3.734015
189971	57	89	180	-51.24658	-32.63385	622.8276	0	12.19	4002	0	0	0	0	0.6904588	0.6403069	1	10	0.04	1800	-23.18741	-44.74001	-3.734015
190066	57	89	180	-51.24658	-32.63385	622.8276	0	12.19	4002	0	0	0	0	0.6904588	0.6403069	1	10	0.04	1800	-23.18741	-44.74001	-3.734015
190166	57	89	180	-51.24658	-32.63385	622.8276	0	12.19	4002	0	0	0	0	0.6904588	0.6403069	1	10	0.04	1800	-23.18741	-44.74001	-3.734015
190257	57	89	180	-51.24658	-32.63385	622.8276	0	12.19	4002	0	0	0	0	0.6904588	0.6403069	1	10	0.04	1800	-23.18741	-44.74001	-3.734015
190343	57	89	180	-51.24658	-32.63385	622.8276	0	12.19	4002	0	0	0	0	0.6904588	0.6403069	1	10	0.04	1800	-23.18741	-44.74001	-3.734015
190432	57	89	180	-51.24658	-32.63385	622.8276	0	12.19	4002	0	0	0	0	0.6904588	0.6403069	1	10	0.04	1800	-23.18741	-44.74001	-3.734015
190523	57	89	180	-51.24658	-32.63385	622.8276	0	12.19	4002	0	0	0	0	0.6904588	0.6403069	1	10	0.04	1800	-23.18741	-44.74001	-3.734015
190608	57	89	180	-51.24658	-32.63385	622.8276	0	12.19	4002	0	0	0	0	0.6904588	0.6403069	1	10	0.04	1800	-23.18741	-44.74001	-3.734015
190697	57	89	180	-51.24658	-32.63385	622.8276	0	12.19	4002	0	0	0	0	0.6904588	0.6403069	1	10	0.04	1800	-23.18741	-44.74001	-3.734015
190785	57	89	180	-51.24658	-32.63385	622.8276	0	12.19	4002	0	0	0	0	0.6904588	0.6403069	1	10	0.04	1800	-23.18741	-44.74001	-3.734015
191003	0	0	0	0	0	0	0	0	0	0	0	0	0	0	0	0	10	0.04	1800	0	0	0
191081	0	0	0	0	0	0	0	0	0	0	0	0	0	0	0	0	10	0.04	1800	0	0	0
191188	0	0	0	0	0	0	0	0	0	0	0	0	0	0	0	0	10	0.04	1800	0	0	0
191287	0	0	0	0	0	0	0	0	0	0	0	0	0	0	0	0	10	0.04	1800	0	0	0
191434	0	0	0	0	0	0	0	0	0	0	0	0	0	0	0	0	10	0.04	1800	0	0	0
191498	0	0	0	0	0	0	0	0	0	0	0	0	0	0	0	0	10	0.04	1800	0	0	0
191586	0	0	0	0	0	0	0	0	0	0	0	0	0	0	0	0	10	0.04	1800	0	0	0
191752	0	0	0	0	0	0	0	0	0	0	0	0	0	0	0	0	10	0.04	1800	0	0	0
191805	0	0	0	0	0	0	0	12.25	0	0	0	0	0	0	0	0	10	0.04	1800	0	0	0
191897	0	0	0	0	0	0	0	12.25	0	0	0	0	0	0	0	0	10	0.04	1800	0	0	0
192029	0	0	0	0	0	0	0	12.25	0	0	0	0	0	0	0	0	10	0.04	1800	0	0	0
192124	0	0	0	0	0	0	0	12.25	0	0	0	0	0	0	0	0	10	0.04	1800	0	0	0
192189	0	0	0	0	0	0	0	12.25	0	0	0	0	0	0	0	0	10	0.04	1800	0	0	0
192388	0	0	0	0	0	0	0	12.25	0	0	0	0	0	0	0	0	10	0.04	1800	0	0	0
192438	0	0	0	0	0	0	0	12.25	0	0	0	0	0	0	0	0	10	0.04	1800	0	0	0
192531	0	0	0	0	0	0	0	12.25	0	0	0	0	0	0	0	0	10	0.04	1800	0	0	0
192629	0	0	0	0	0	0	0	12.25	0	0	0	0	0	0	0	0	10	0.04	1800	0	0	0
192733	0	0	0	0	0	0	0	12.25	0	0	0	0	0	0	0	0	10	0.04	1800	0	0	0
192778	0	0	0	0	0	0	0	12.25	0	0	0	0	0	0	0	0	10	0.04	1800	0	0	0
192981	0	0	0	0	0	0	0	12.25	0	0	0	0	0	0	0	0	10	0.04	1800	0	0	0
193062	0	0	0	0	0	0	0	12.25	0	0	0	0	0	0	0	0	10	0.04	1800	0	0	0
193131	0	0	0	0	0	0	0	12.25	0	0	0	0	0	0	0	0	10	0.04	1800	0	0	0
193183	0	0	0	0	0	0	0	12.25	0	0	0	0	0	0	0	0	10	0.04	1800	0	0	0
193244	0	0	0	0	0	0	0	12.25	0	0	0	0	0	0	0	0	10	0.04	1800	0	0	0
193346	0	0	0	0	0	0	0	12.25	0	0	0	0	0	0	0	0	10	0.04	1800	0	0	0
193463	0	0	0	0	0	0	0	12.25	0	0	0	0	0	0	0	0	10	0.04	1800	0	0	0
193552	0	0	0	0	0	0	0	12.19	0	0	0	0	0	0	0	0	10	0.04	1800	0	0	0
193658	0	0	0	0	0	0	0	12.19	0	0	0	0	0	0	0	0	10	0.04	1800	0	0	0
193800	0	0	0	0	0	0	0	12.19	0	0	0	0	0	0	0	0	10	0.04	1800	0	0	0
193859	0	0	0	0	0	0	0	12.19	0	0	0	0	0	0	0	0	10	0.04	1800	0	0	0
193982	0	0	0	0	0	0	0	12.19	0	0	0	0	0	0	0	0	10	0.04	1800	0	0	0
194059	0	0	0	0	0	0	0	12.19	0	0	0	0	0	0	0	0	10	0.04	1800	0	0	0
194246	0	0	0	0	0	0	0	12.19	0	0	0	0	0	0	0	0	10	0.04	1800	0	0	0
194297	0	0	0	0	0	0	0	12.19	0	0	0	0	0	0	0	0	10	0.04	1800	0	0	0
194363	0	0	0	0	0	0	0	12.19	0	0	0	0	0	0	0	0	10	0.04	1800	0	0	0
194452	0	0	0	0	0	0	0	12.19	0	0	0	0	0	0	0	0	10	0.04	1800	0	0	0
194605	0	0	0	0	0	0	0	12.19	0	0	0	0	0	0	0	0	10	0.04	1800	0	0	0
194661	0	0	0	0	0	0	0	12.19	0	0	0	0	0	0	0	0	10	0.04	1800	0	0	0
194750	0	0	0	0	0	0	0	12.19	0	0	0	0	0	0	0	0	10	0.04	1800	0	0	0
194880	0	0	0	0	0	0	0	12.19	0	0	0	0	0	0	0	0	10	0.04	1800	0	0	0
194954	0	0	0	0	0	0	0	12.19	0	0	0	0	0	0	0	0	10	0.04	1800	0	0	0
195051	0	0	0	0	0	0	0	12.19	0	0	0	0	0	0	0	0	10	0.04	1800	0	0	0
195161	0	0	0	0	0	0	0	12.19	0	0	0	0	0	0	0	0	10	0.04	1800	0	0	0
195258	0	0	0	0	0	0	0	12.19	0	0	0	0	0	0	0	0	10	0.04	1800	0	0	0
195430	0	0	0	0	0	0	0	12.25	0	0	0	0	0	0	0	0	10	0.04	1800	0	0	0
195460	0	0	0	0	0	0	0	12.25	0	0	0	0	0	0	0	0	10	0.04	1800	0	0	0
195555	0	0	0	0	0	0	0	12.25	0	0	0	0	0	0	0	0	10	0.04	1800	0	0	0
195664	0	0	0	0	0	0	0	12.25	0	0	0	0	0	0	0	0	10	0.04	1800	0	0	0
195780	32	-15	-7	-0.05510687	0.08572988	0.006847558	0	12.25	4004	0	0	0	0	0.02	0.0139458	1	10	0.04	1800	-3.788208	0	0
195876	35	-13	-2	-0.08693356	0.1315335	0.01173828	0	12.25	4004	0	0	0	0	0.02	0.04331616	1	10	0.04	1800	-3.712524	0	0
195994	45	-15	-4	-0.1250239	0.1894906	0.01675173	0	12.25	4003	0	0	0	0	0.02	0.05472204	1	10	0.04	1800	-3.884521	0	0
196085	32	-16	1	-0.1592074	0.2412348	0.02317152	0	12.25	4004	0	0	0	0	0.02	0.05930632	1	10	0.04	1800	-3.593109	0	0
196171	37	-15	0	-0.1826015	0.2806026	0.02830735	0	12.25	4003	0	0	0	0	0.02	0.05680395	1	10	0.04	1800	-3.548309	0	0
196266	45	-13	-4	-0.2159759	0.3346606	0.03564311	0	12.25	4003	0	0	0	0	0.02	0.0508544	1	10	0.04	1800	-3.925629	0	0
196436	37	-17	-5	-0.2492398	0.3842019	0.04731988	0	12.19	4004	0	0	0	0	0.02	0.03644545	1	10	0.04	1800	-3.628784	0	0
196473	39	-11	-5	-0.2669827	0.4033855	0.05282225	0	12.19	4004	0	0	0	0	0.02	0.0305442	1	10	0.04	1800	-3.634064	0	0
196571	38	-11	-5	-0.2863308	0.4264552	0.06101449	0	12.19	4002	0	0	0	0	0.02	0.03094343	1	10	0.04	1800	-3.392517	0	0
196700	34	-11	-6	-0.3023684	0.4468255	0.07000149	0	12.19	4003	0	0	0	0	0.02	0.0360983	1	10	0.04	1800	-3.56308	0	0
196776	42	-17	-6	-0.3185841	0.4604729	0.07458647	0	12.19	4003	0	0	0	0	0.02	0.03733231	1	10	0.04	1800	-3.563263	0	0
196894	34	-18	-6	-0.3330354	0.4806348	0.08663125	0	12.19	4004	0	0	0	0	0.02	0.04354415	1	10	0.04	1800	-3.527893	0	0
196979	31	-16	-8	-0.3388757	0.4900856	0.09323436	0	12.19	4004	0	0	0	0	0.02	0.05047031	1	10	0.04	1800	-3.529663	0	0
197191	34	-13	-2	-0.3498281	0.5090916	0.1118196	0	12.19	4003	0	0	0	0	0.02	0.07772328	1	10	0.04	1800	-3.281281	0	0
197292	47	-20	-5	-0.3519001	0.5165503	0.118178	0	12.19	4003	0	0	0	0	0.02	0.09226514	1	10	0.04	1800	-3.476959	0	0
197429	22	-15	-5	-0.3531703	0.5311881	0.1324837	0	12.19	4004	0	0	0	0	0.02	0.10227	1	10	0.04	1800	-3.296448	0	0
197473	35	-13	-4	-0.3597538	0.534408	0.13713	0	12.19	4003	0	0	0	0	0.02	0.1074217	1	10	0.04	1800	-3.488525	0	0
197569	43	-14	-7	-0.3578244	0.5418358	0.1424486	0	12.19	4003	0	0	0	0	0.02	0.1093839	1	10	0.04	1800	-3.269623	0	0
197675	40	-17	-4	-0.3598583	0.5555325	0.1552868	0	12.19	4003	0	0	0	0	0.02	0.1101775	1	10	0.04	1800	-3.4646	0	0
197885	40	-13	-9	-0.364546	0.572148	0.1765616	0	12.19	4004	0	0	0	0	0.02	0.1227757	1	10	0.04	1800	-3.25296	0	0
198060	42	-7	-7	-0.375255	0.5767045	0.1936196	0	12.19	4003	0	0	0	0	0.02	0.1323131	1	10	0.04	1800	-3.252869	0	0
198082	45	-11	-8	-0.3723661	0.5781629	0.1971045	0	12.19	4003	0	0	0	0	0.02	0.1348128	1	10	0.04	1800	-3.023926	0	0
198259	38	-11	-5	-0.3680763	0.5896692	0.2144055	0	12.19	4003	0	0	0	0	0.02	0.1365582	1	10	0.04	1800	-3.445374	0	0
198325	39	-15	-3	-0.3698364	0.5906511	0.2208245	0	12.19	4003	0	0	0	0	0.02	0.1301119	1	10	0.04	1800	-3.658722	0	0
198449	33	-13	-7	-0.3619283	0.588941	0.2403265	0	12.19	4003	0	0	0	0	0.02	0.122382	1	10	0.04	1800	-3.451965	0	0
198529	37	-21	-4	-0.3649106	0.5892637	0.2460735	0	12.19	4002	0	0	0	0	0.02	0.1203231	1	10	0.04	1800	-3.248505	0	0
198600	47	-19	-3	-0.3672605	0.5925857	0.2564056	0	12.19	4003	0	0	0	0	0.02	0.1190216	1	10	0.04	1800	-3.247772	0	0
198690	37	-16	-9	-0.364265	0.5892777	0.264292	0	12.19	4004	0	0	0	0	0.02	0.1156105	1	10	0.04	1800	-3.453918	0	0
198741	33	-13	-3	-0.3650618	0.5951238	0.2718733	0	12.19	4003	0	0	0	0	0.02	0.1137552	1	10	0.04	1800	-3.476257	0	0
198855	47	-14	-3	-0.3593719	0.5954058	0.2827555	0	12.19	4002	0	0	0	0	0.02	0.1105678	1	10	0.04	1800	-3.463196	0	0
198960	36	-14	-9	-0.3567989	0.5982039	0.2930269	0	12.19	4004	0	0	0	0	0.02	0.107021	1	10	0.04	1800	-3.474792	0	0
199043	35	-19	-9	-0.3525528	0.5969198	0.3000576	0	12.19	4004	0	0	0	0	0.02	0.1086191	1	10	0.04	1800	-3.483765	0	0
199159	43	-21	-12	-0.3449803	0.5977678	0.3109389	0	12.19	4004	0	0	0	0	0.02	0.1137709	1	10	0.04	1800	-3.27771	0	0
199359	44	-13	-4	-0.3427154	0.6051984	0.3347811	0	12.19	4002	0	0	0	0	0.02	0.1183693	1	10	0.04	1800	-3.281097	0	0
199490	42	-15	-7	-0.3318614	0.6059145	0.3483538	0	12.19	4003	0	0	0	0	0.02	0.1287818	1	10	0.04	1800	-3.28653	0	0
199591	38	-20	-9	-0.3327469	0.6057187	0.3608868	0	12.19	4003	0	0	0	0	0.02	0.1359938	1	10	0.04	1800	-3.304749	0	0
199651	46	-15	-9	-0.3276679	0.6076369	0.365166	0	12.19	4003	0	0	0	0	0.02	0.1454031	1	10	0.04	1800	-3.744843	0	0
199752	39	-18	-8	-0.3322345	0.6061794	0.3750095	0	12.19	4004	0	0	0	0	0.02	0.1562963	1	10	0.04	1800	-3.292725	0	0
199852	45	-17	-3	-0.3346492	0.6015466	0.3814898	0	12.19	4003	0	0	0	0	0.02	0.1615047	1	10	0.04	1800	-3.298431	0	0
199972	49	-9	-8	-0.3301699	0.6017907	0.3972628	0	12.14	4002	0	0	0	0	0.02	0.1561001	1	10	0.04	1800	-3.532654	0	0
200089	35	-14	-7	-0.3316615	0.5994663	0.4063723	0	12.14	4003	0	0	0	0	0.02	0.1487351	1	10	0.04	1800	-3.514465	0	0
200249	48	-19	-6	-0.3373804	0.5992112	0.4226349	0	12.14	4003	0	0	0	0	0.02	0.131754	1	10	0.04	1800	-3.296814	0	0
200361	46	-15	-4	-0.3415722	0.6045964	0.4343732	0	12.14	4002	0	0	0	0	0.02	0.124031	1	10	0.04	1800	-3.282898	0	0
200446	51	-19	-10	-0.3396981	0.6075401	0.4489849	0	12.14	4003	0	0	0	0	0.02	0.1201931	1	10	0.04	1800	-3.271118	0	0
200546	39	-9	-8	-0.3328196	0.6122253	0.4558322	0	12.14	4003	0	0	0	0	0.02	0.1195223	1	10	0.04	1800	-3.29599	0	0
200647	43	-16	-9	-0.329817	0.6101993	0.4692218	0	12.14	4003	0	0	0	0	0.02	0.120112	1	10	0.04	1800	-3.30722	0	0
200736	47	-15	-13	-0.3301614	0.6095079	0.4776598	0	12.14	4004	0	0	0	0	0.02	0.1163614	1	10	0.04	1800	-3.292511	0	0
200841	40	-15	0	-0.3336419	0.6033449	0.4876256	0	12.14	4002	0	0	0	0	0.02	0.1199251	1	10	0.04	1800	-3.519989	0	0
200935	44	-18	-5	-0.3375978	0.6079319	0.5019926	0	12.19	4003	0	0	0	0	0.02	0.1369145	1	10	0.04	1800	-3.274445	0	0
201035	43	-15	-7	-0.3325416	0.6075619	0.5082899	0	12.19	4003	0	0	0	0	0.02	0.1446313	1	10	0.04	1800	-3.492493	0	0
201148	38	-18	-7	-0.3463684	0.6020619	0.5213734	0	12.19	4004	0	0	0	0	0.02	0.1627023	1	10	0.04	1800	-3.500275	0	0
201330	49	-10	-7	-0.3313288	0.6036105	0.5394704	0	12.19	4004	0	0	0	0	0.02	0.1728776	1	10	0.04	1800	-3.512634	0	0
201388	43	-15	-5	-0.3333728	0.6027123	0.549069	0	12.19	4003	0	0	0	0	0.02	0.1771437	1	10	0.04	1800	-3.301636	0	0
201514	51	-20	-11	-0.3314391	0.6043972	0.5570775	0	12.19	4003	0	0	0	0	0.02	0.1853743	1	10	0.04	1800	-3.511444	0	0
201566	38	-16	-9	-0.3294998	0.6081683	0.5650868	0	12.19	4004	0	0	0	0	0.02	0.1859007	1	10	0.04	1800	-3.511444	0	0
201620	44	-17	-3	-0.334879	0.6081298	0.5746852	0	12.19	4002	0	0	0	0	0.02	0.1860423	1	10	0.04	1800	-3.288269	0	0
201706	47	-17	-8	-0.3344047	0.6084689	0.5827557	0	12.19	4005	0	0	0	0	0.02	0.1814342	1	10	0.04	1800	-3.295715	0	0
201808	43	-9	-4	-0.3274286	0.6066915	0.5930267	0	12.19	4004	0	0	0	0	0.02	0.1735931	1	10	0.04	1800	-3.304352	0	0
201916	43	-16	-6	-0.334944	0.5997687	0.6040304	0	12.19	4004	0	0	0	0	0.02	0.1729708	1	10	0.04	1800	-3.308533	0	0
202034	47	-15	-5	-0.3349031	0.5957659	0.6126505	0	12.19	4002	0	0	0	0	0.02	0.1737324	1	10	0.04	1800	-3.302704	0	0
202123	39	-16	-5	-0.3306885	0.5975702	0.6225547	0	12.19	4003	0	0	0	0	0.02	0.1728961	1	10	0.04	1800	-3.2966	0	0
202204	43	-17	-5	-0.3318634	0.6019365	0.6301973	0	12.19	4010	0	0	0	0	0.02	0.1715587	1	10	0.04	1800	-3.294006	0	0
202348	40	-15	-4	-0.3245893	0.5983737	0.644747	0	12.19	4003	0	0	0	0	0.02	0.1595516	1	10	0.04	1800	-3.296295	0	0
202418	43	-15	-3	-0.324309	0.592139	0.6519609	0	12.19	4002	0	0	0	0	0.02	0.1584297	1	10	0.04	1800	-3.52713	0	0
202508	49	-21	-10	-0.3238568	0.5891179	0.6608875	0	12.19	4004	0	0	0	0	0.02	0.153287	1	10	0.04	1800	-3.515686	0	0
202613	38	-12	-9	-0.3236308	0.5867475	0.6707304	0	12.19	4004	0	0	0	0	0.02	0.1488716	1	10	0.04	1800	-3.513184	0	0
202717	45	-18	-10	-0.3295609	0.5883554	0.6805125	0	12.19	4003	0	0	0	0	0.02	0.1449037	1	10	0.04	1800	-3.519043	0	0
202906	40	-13	-3	-0.3194692	0.581642	0.6987316	0	12.19	4003	0	0	0	0	0.02	0.126357	1	10	0.04	1800	-3.551514	0	0
202955	39	-20	-8	-0.3224518	0.5814166	0.7016662	0	12.19	4003	0	0	0	0	0.02	0.1234823	1	10	0.04	1800	-3.551514	0	0
203018	43	-18	-7	-0.3222353	0.5818781	0.7085132	0	12.19	4004	0	0	0	0	0.02	0.1183008	1	10	0.04	1800	-3.723541	0	0
203109	40	-11	-2	-0.3244894	0.5772192	0.7170127	0	12.19	4004	0	0	0	0	0.02	0.1137419	1	10	0.04	1800	-3.302368	0	0
203238	41	-16	-8	-0.3255371	0.5802455	0.7299736	0	12.19	4003	0	0	0	0	0.02	0.1135672	1	10	0.04	1800	-3.317963	0	0
203347	48	-22	-13	-0.3157305	0.5883321	0.7436074	0	12.19	4003	0	0	0	0	0.02	0.1132482	1	10	0.04	1800	-3.534088	0	0
203406	41	-17	-8	-0.3143812	0.5878954	0.7471534	0	12.19	4003	0	0	0	0	0.02	0.1203682	1	10	0.04	1800	-3.534088	0	0
203509	44	-16	-7	-0.31731	0.5888166	0.7544897	0	12.19	4004	0	0	0	0	0.02	0.1297614	1	10	0.04	1800	-3.524048	0	0
203613	39	-16	-6	-0.3186831	0.5897057	0.7676952	0	12.19	4004	0	0	0	0	0.02	0.149029	1	10	0.04	1800	-3.524933	0	0
203846	49	-19	-5	-0.3063186	0.5925484	0.7865866	0	12.19	4002	0	0	0	0	0.02	0.1593768	1	10	0.04	1800	-3.339386	0	0
203932	43	-15	-9	-0.3011619	0.5924145	0.7960624	0	12.19	4003	0	0	0	0	0.02	0.1510356	1	10	0.04	1800	-3.329315	0	0
204016	42	-16	-8	-0.3063759	0.5868657	0.8047441	0	12.19	4002	0	0	0	0	0.02	0.1427928	1	10	0.04	1800	-3.323608	0	0
204116	53	-14	-6	-0.3046303	0.5909397	0.8129367	0	12.19	4004	0	0	0	0	0.02	0.1276348	1	10	0.04	1800	-3.326294	0	0
204219	43	-11	-12	-0.2988186	0.5927855	0.8186837	0	12.19	4003	0	0	0	0	0.02	0.1190771	1	10	0.04	1800	-3.560699	0	0
204370	46	-21	-5	-0.3042173	0.5908521	0.8340287	0	12.19	4002	0	0	0	0	0.02	0.1018198	1	10	0.04	1800	-3.557159	0	0
204472	42	-21	-9	-0.308941	0.5885351	0.8445441	0	12.19	4002	0	0	0	0	0.02	0.08871462	1	10	0.04	1800	-3.124603	0	0
204614	39	-14	-5	-0.309268	0.5911344	0.8563427	0	12.19	4003	0	0	0	0	0.02	0.08696511	1	10	0.04	1800	-3.339691	0	0
204672	47	-12	0	-0.3085097	0.5895148	0.8667967	0	12.19	4002	0	0	0	0	0.02	0.09083713	1	10	0.04	1800	-3.552917	0	0
204796	37	-13	-7	-0.3100805	0.5887805	0.8765787	0	12.19	4002	0	0	0	0	0.02	0.1031737	1	10	0.04	1800	-3.52179	0	0
204910	43	-11	-8	-0.3072157	0.5864981	0.8938204	0	12.19	4003	0	0	0	0	0.02	0.1091124	1	10	0.04	1800	-3.326538	0	0
205048	38	-14	-3	-0.3061256	0.5900928	0.9062309	0	12.19	4002	0	0	0	0	0.02	0.1199313	1	10	0.04	1800	-3.55304	0	0
205097	41	-17	-3	-0.3068786	0.5877944	0.9089822	0	12.19	4003	0	0	0	0	0.02	0.1222163	1	10	0.04	1800	-3.763672	0	0
205183	50	-18	-2	-0.2980164	0.5862681	0.9165637	0	12.19	4004	0	0	0	0	0.02	0.1211802	1	10	0.04	1800	-3.338928	0	0
205284	43	-9	-3	-0.3014806	0.5788916	0.9253062	0	12.19	4002	0	0	0	0	0.02	0.1162008	1	10	0.04	1800	-3.350403	0	0
205400	43	-13	-9	-0.3011932	0.5757282	0.9374117	0	12.19	4002	0	0	0	0	0.02	0.1108414	1	10	0.04	1800	-3.351929	0	0
205526	47	-14	-2	-0.2974876	0.5789975	0.9459711	0	12.19	4002	0	0	0	0	0.02	0.09750634	1	10	0.04	1800	-3.576599	0	0
205588	40	-14	-3	-0.2974402	0.579985	0.9515348	0	12.19	4003	0	0	0	0	0.02	0.09651849	1	10	0.04	1800	-3.36969	0	0
205746	54	-14	-9	-0.2939468	0.5886323	0.9697533	0	12.19	4002	0	0	0	0	0.02	0.09811474	1	10	0.04	1800	-3.570343	0	0
205821	44	-14	-5	-0.2932512	0.589653	0.97764	0	12.19	4002	0	0	0	0	0.02	0.1016842	1	10	0.04	1800	-3.361176	0	0
205916	53	-13	-6	-0.28811	0.5914802	0.9861386	0	12.19	4004	0	0	0	0	0.02	0.1133372	1	10	0.04	1800	-3.586761	0	0
206037	51	-14	-14	-0.2758572	0.5904809	0.9983662	0	12.19	4004	0	0	0	0	0.02	0.117613	1	10	0.04	1800	-3.37146	0	0
206159	51	-19	-11	-0.2688811	0.5860363	1.018356	0	12.19	4002	0	0	0	0	0.02	0.1261387	1	10	0.04	1800	-3.403595	0	0
206210	52	-19	-8	-0.2657105	0.5867695	1.022208	0	12.19	4002	0	0	0	0	0.02	0.1322605	1	10	0.04	1800	-3.385132	0	0
206292	48	-16	-9	-0.2640679	0.5921919	1.030706	0	12.19	4004	0	0	0	0	0.02	0.1353392	1	10	0.04	1800	-3.614746	0	0
206382	47	-14	-10	-0.271417	0.594501	1.04177	0	12.19	4002	0	0	0	0	0.02	0.1395629	1	10	0.04	1800	-3.604858	0	0
206589	46	-14	-1	-0.2712393	0.5960898	1.063779	0	12.19	4002	0	0	0	0	0.02	0.1546522	1	10	0.04	1800	-3.603302	0	0
206618	41	-17	-9	-0.2764847	0.5915733	1.07197	0	12.19	4003	0	0	0	0	0.02	0.1541879	1	10	0.04	1800	-3.582031	0	0
206690	46	-14	-4	-0.2760338	0.589417	1.076494	0	12.19	4002	0	0	0	0	0.02	0.145945	1	10	0.04	1800	-3.582031	0	0
206797	52	-24	-2	-0.2781221	0.5889668	1.08701	0	12.19	4003	0	0	0	0	0.02	0.125471	1	10	0.04	1800	-3.378448	0	0
206936	49	-19	-14	-0.2702676	0.590679	1.106757	0	12.19	4002	0	0	0	0	0.02	0.1086662	1	10	0.04	1800	-3.394287	0	0
207125	40	-16	-5	-0.2674953	0.5897423	1.124487	0	12.19	4002	0	0	0	0	0.02	0.09738701	1	10	0.04	1800	-3.188873	0	0
207223	49	-13	-10	-0.2720416	0.5927349	1.136654	0	12.19	4004	0	0	0	0	0.02	0.09436514	1	10	0.04	1800	-3.401428	0	0
207270	45	-14	-3	-0.2672476	0.5930252	1.144418	0	12.19	4003	0	0	0	0	0.02	0.09353725	1	10	0.04	1800	-3.59082	0	0
207368	49	-21	-7	-0.2690585	0.5973128	1.151876	0	12.19	4004	0	0	0	0	0.02	0.09258076	1	10	0.04	1800	-3.396454	0	0
207506	49	-21	-7	-0.2690585	0.5973128	1.151876	0	12.19	4004	0	0	0	0	0.02	0.09258076	1	10	0.04	1800	-3.396454	0	0
207668	49	-21	-7	-0.2690585	0.5973128	1.151876	0	12.19	4004	0	0	0	0	0.02	0.09258076	1	10	0.04	1800	-3.396454	0	0
207784	49	-21	-7	-0.2690585	0.5973128	1.151876	0	12.19	4004	0	0	0	0	0.02	0.09258076	1	10	0.04	1800	-3.396454	0	0
207948	49	-21	-7	-0.2690585	0.5973128	1.151876	0	12.19	4004	0	0	0	0	0.02	0.09258076	1	10	0.04	1800	-3.396454	0	0
207994	49	-21	-7	-0.2690585	0.5973128	1.151876	0	12.19	4004	0	0	0	0	0.02	0.09258076	1	10	0.04	1800	-3.396454	0	0
208078	49	-21	-7	-0.2690585	0.5973128	1.151876	0	12.19	4004	0	0	0	0	0.02	0.09258076	1	10	0.04	1800	-3.396454	0	0
208259	49	-21	-7	-0.2690585	0.5973128	1.151876	0	12.19	4004	0	0	0	0	0.02	0.09258076	1	10	0.04	1800	-3.396454	0	0
208340	49	-21	-7	-0.2690585	0.5973128	1.151876	0	12.19	4004	0	0	0	0	0.02	0.09258076	1	10	0.04	1800	-3.396454	0	0
208438	49	-21	-7	-0.2690585	0.5973128	1.151876	0	12.19	4004	0	0	0	0	0.02	0.09258076	1	10	0.04	1800	-3.396454	0	0
208550	49	-21	-7	-0.2690585	0.5973128	1.151876	0	12.19	4004	0	0	0	0	0.02	0.09258076	1	10	0.04	1800	-3.396454	0	0
208707	49	-21	-7	-0.2690585	0.5973128	1.151876	0	12.19	4004	0	0	0	0	0.02	0.09258076	1	10	0.04	1800	-3.396454	0	0
208766	49	-21	-7	-0.2690585	0.5973128	1.151876	0	12.19	4004	0	0	0	0	0.02	0.09258076	1	10	0.04	1800	-3.396454	0	0
208838	49	-21	-7	-0.2690585	0.5973128	1.151876	0	12.19	4004	0	0	0	0	0.02	0.09258076	1	10	0.04	1800	-3.396454	0	0
208931	49	-21	-7	-0.2690585	0.5973128	1.151876	0	12.19	4004	0	0	0	0	0.02	0.09258076	1	10	0.04	1800	-3.396454	0	0
209140	49	-21	-7	-0.2690585	0.5973128	1.151876	0	12.19	4004	0	0	0	0	0.02	0.09258076	1	10	0.04	1800	-3.396454	0	0
209287	49	-21	-7	-0.2690585	0.5973128	1.151876	0	12.19	4004	0	0	0	0	0.02	0.09258076	1	10	0.04	1800	-3.396454	0	0
209427	49	-21	-7	-0.2690585	0.5973128	1.151876	0	12.19	4004	0	0	0	0	0.02	0.09258076	1	10	0.04	1800	-3.396454	0	0
209512	49	-21	-7	-0.2690585	0.5973128	1.151876	0	12.19	4004	0	0	0	0	0.02	0.09258076	1	10	0.04	1800	-3.396454	0	0
209615	49	-21	-7	-0.2690585	0.5973128	1.151876	0	12.19	4004	0	0	0	0	0.02	0.09258076	1	10	0.04	1800	-3.396454	0	0
209735	49	-21	-7	-0.2690585	0.5973128	1.151876	0	12.19	4004	0	0	0	0	0.02	0.09258076	1	10	0.04	1800	-3.396454	0	0
209823	49	-21	-7	-0.2690585	0.5973128	1.151876	0	12.19	4004	0	0	0	0	0.02	0.09258076	1	10	0.04	1800	-3.396454	0	0
209931	49	-21	-7	-0.2690585	0.5973128	1.151876	0	12.19	4004	0	0	0	0	0.02	0.09258076	1	10	0.04	1800	-3.396454	0	0
210034	49	-21	-7	-0.2690585	0.5973128	1.151876	0	12.19	4004	0	0	0	0	0.02	0.09258076	1	10	0.04	1800	-3.396454	0	0
210161	49	-21	-7	-0.2690585	0.5973128	1.151876	0	12.19	4004	0	0	0	0	0.02	0.09258076	1	10	0.04	1800	-3.396454	0	0
210230	49	-21	-7	-0.2690585	0.5973128	1.151876	0	12.19	4004	0	0	0	0	0.02	0.09258076	1	10	0.04	1800	-3.396454	0	0
210353	49	-21	-7	-0.2690585	0.5973128	1.151876	0	12.19	4004	0	0	0	0	0.02	0.09258076	1	10	0.04	1800	-3.396454	0	0
210438	49	-21	-7	-0.2690585	0.5973128	1.151876	0	12.19	4004	0	0	0	0	0.02	0.09258076	1	10	0.04	1800	-3.396454	0	0
210528	49	-21	-7	-0.2690585	0.5973128	1.151876	0	12.19	4004	0	0	0	0	0.02	0.09258076	1	10	0.04	1800	-3.396454	0	0
210659	49	-21	-7	-0.2690585	0.5973128	1.151876	0	12.19	4004	0	0	0	0	0.02	0.09258076	1	10	0.04	1800	-3.396454	0	0
210777	49	-21	-7	-0.2690585	0.5973128	1.151876	0	12.19	4004	0	0	0	0	0.02	0.09258076	1	10	0.04	1800	-3.396454	0	0
210894	49	-21	-7	-0.2690585	0.5973128	1.151876	0	12.19	4004	0	0	0	0	0.02	0.09258076	1	10	0.04	1800	-3.396454	0	0
211005	49	-21	-7	-0.2690585	0.5973128	1.151876	0	12.19	4004	0	0	0	0	0.02	0.09258076	1	10	0.04	1800	-3.396454	0	0
211083	49	-21	-7	-0.2690585	0.5973128	1.151876	0	12.19	4004	0	0	0	0	0.02	0.09258076	1	10	0.04	1800	-3.396454	0	0
211252	49	-21	-7	-0.2690585	0.5973128	1.151876	0	12.19	4004	0	0	0	0	0.02	0.09258076	1	10	0.04	1800	-3.396454	0	0
211361	49	-21	-7	-0.2690585	0.5973128	1.151876	0	12.19	4004	0	0	0	0	0.02	0.09258076	1	10	0.04	1800	-3.396454	0	0
211544	49	-21	-7	-0.2690585	0.5973128	1.151876	0	12.19	4004	0	0	0	0	0.02	0.09258076	1	10	0.04	1800	-3.396454	0	0
211629	49	-21	-7	-0.2690585	0.5973128	1.151876	0	12.19	4004	0	0	0	0	0.02	0.09258076	1	10	0.04	1800	-3.396454	0	0
211696	49	-21	-7	-0.2690585	0.5973128	1.151876	0	12.19	4004	0	0	0	0	0.02	0.09258076	1	10	0.04	1800	-3.396454	0	0
211870	49	-21	-7	-0.2690585	0.5973128	1.151876	0	12.19	4004	0	0	0	0	0.02	0.09258076	1	10	0.04	1800	-3.396454	0	0
211933	49	-21	-7	-0.2690585	0.5973128	1.151876	0	12.19	4004	0	0	0	0	0.02	0.09258076	1	10	0.04	1800	-3.396454	0	0
212017	49	-21	-7	-0.2690585	0.5973128	1.151876	0	12.19	4004	0	0	0	0	0.02	0.09258076	1	10	0.04	1800	-3.396454	0	0
212171	49	-21	-7	-0.2690585	0.5973128	1.151876	0	12.19	4004	0	0	0	0	0.02	0.09258076	1	10	0.04	1800	-3.396454	0	0
212240	49	-21	-7	-0.2690585	0.5973128	1.151876	0	12.19	4004	0	0	0	0	0.02	0.09258076	1	10	0.04	1800	-3.396454	0	0
212356	49	-21	-7	-0.2690585	0.5973128	1.151876	0	12.19	4004	0	0	0	0	0.02	0.09258076	1	10	0.04	1800	-3.396454	0	0
212440	49	-21	-7	-0.2690585	0.5973128	1.151876	0	12.19	4004	0	0	0	0	0.02	0.09258076	1	10	0.04	1800	-3.396454	0	0
212532	49	-21	-7	-0.2690585	0.5973128	1.151876	0	12.19	4004	0	0	0	0	0.02	0.09258076	1	10	0.04	1800	-3.396454	0	0
212714	49	-21	-7	-0.2690585	0.5973128	1.151876	0	12.19	4004	0	0	0	0	0.02	0.09258076	1	10	0.04	1800	-3.396454	0	0
212748	49	-21	-7	-0.2690585	0.5973128	1.151876	0	12.19	4004	0	0	0	0	0.02	0.09258076	1	10	0.04	1800	-3.396454	0	0
212806	49	-21	-7	-0.2690585	0.5973128	1.151876	0	12.19	4004	0	0	0	0	0.02	0.09258076	1	10	0.04	1800	-3.396454	0	0
212908	49	-21	-7	-0.2690585	0.5973128	1.151876	0	12.19	4004	0	0	0	0	0.02	0.09258076	1	10	0.04	1800	-3.396454	0	0
213022	49	-21	-7	-0.2690585	0.5973128	1.151876	0	12.19	4004	0	0	0	0	0.02	0.09258076	1	10	0.04	1800	-3.396454	0	0
213123	49	-21	-7	-0.2690585	0.5973128	1.151876	0	12.19	4004	0	0	0	0	0.02	0.09258076	1	10	0.04	1800	-3.396454	0	0
213243	49	-21	-7	-0.2690585	0.5973128	1.151876	0	12.19	4004	0	0	0	0	0.02	0.09258076	1	10	0.04	1800	-3.396454	0	0
213388	49	-21	-7	-0.2690585	0.5973128	1.151876	0	12.19	4004	0	0	0	0	0.02	0.09258076	1	10	0.04	1800	-3.396454	0	0
213442	49	-21	-7	-0.2690585	0.5973128	1.151876	0	12.19	4004	0	0	0	0	0.02	0.09258076	1	10	0.04	1800	-3.396454	0	0
213555	49	-21	-7	-0.2690585	0.5973128	1.151876	0	12.25	4004	0	0	0	0	0.02	0.09258076	1	10	0.04	1800	-3.396454	0	0
213633	49	-21	-7	-0.2690585	0.5973128	1.151876	0	12.25	4004	0	0	0	0	0.02	0.09258076	1	10	0.04	1800	-3.396454	0	0
213679	49	-21	-7	-0.2690585	0.5973128	1.151876	0	12.25	4004	0	0	0	0	0.02	0.09258076	1	10	0.04	1800	-3.396454	0	0
213824	49	-21	-7	-0.2690585	0.5973128	1.151876	0	12.25	4004	0	0	0	0	0.02	0.09258076	1	10	0.04	1800	-3.396454	0	0
213878	49	-21	-7	-0.2690585	0.5973128	1.151876	0	12.25	4004	0	0	0	0	0.02	0.09258076	1	10	0.04	1800	-3.396454	0	0
213979	49	-21	-7	-0.2690585	0.5973128	1.151876	0	12.25	4004	0	0	0	0	0.02	0.09258076	1	10	0.04	1800	-3.396454	0	0
214098	49	-21	-7	-0.2690585	0.5973128	1.151876	0	12.25	4004	0	0	0	0	0.02	0.09258076	1	10	0.04	1800	-3.396454	0	0
214215	49	-21	-7	-0.2690585	0.5973128	1.151876	0	12.25	4004	0	0	0	0	0.02	0.09258076	1	10	0.04	1800	-3.396454	0	0
214291	49	-21	-7	-0.2690585	0.5973128	1.151876	0	12.25	4004	0	0	0	0	0.02	0.09258076	1	10	0.04	1800	-3.396454	0	0
214408	49	-21	-7	-0.2690585	0.5973128	1.151876	0	12.25	4004	0	0	0	0	0.02	0.09258076	1	10	0.04	1800	-3.396454	0	0
214483	49	-21	-7	-0.2690585	0.5973128	1.151876	0	12.19	4004	0	0	0	0	0.02	0.09258076	1	10	0.04	1800	-3.396454	0	0
214586	49	-21	-7	-0.2690585	0.5973128	1.151876	0	12.19	4004	0	0	0	0	0.02	0.09258076	1	10	0.04	1800	-3.396454	0	0
214689	49	-21	-7	-0.2690585	0.5973128	1.151876	0	12.19	4004	0	0	0	0	0.02	0.09258076	1	10	0.04	1800	-3.396454	0	0
214806	49	-21	-7	-0.2690585	0.5973128	1.151876	0	12.19	4004	0	0	0	0	0.02	0.09258076	1	10	0.04	1800	-3.396454	0	0
214943	49	-21	-7	-0.2690585	0.5973128	1.151876	0	12.19	4004	0	0	0	0	0.02	0.09258076	1	10	0.04	1800	-3.396454	0	0
214994	49	-21	-7	-0.2690585	0.5973128	1.151876	0	12.19	4004	0	0	0	0	0.02	0.09258076	1	10	0.04	1800	-3.396454	0	0
215136	49	-21	-7	-0.2690585	0.5973128	1.151876	0	12.19	4004	0	0	0	0	0.02	0.09258076	1	10	0.04	1800	-3.396454	0	0
215210	49	-21	-7	-0.2690585	0.5973128	1.151876	0	12.19	4004	0	0	0	0	0.02	0.09258076	1	10	0.04	1800	-3.396454	0	0
215336	49	-21	-7	-0.2690585	0.5973128	1.151876	0	12.19	4004	0	0	0	0	0.02	0.09258076	1	10	0.04	1800	-3.396454	0	0
