time(ms)	gyro_x(deg/s)	gyro_y(deg/s)	gyro_z(deg/s)	orientation_roll(deg)	orientation_pitch(deg)	orientation_yaw(deg)	throttle	battery(V)	loop_time(uS)	pid_output_roll	pid_output_pitch	pid_output_yaw	pid_output_throttle	ultrasonic_alt	baro_alt	flight_mode	p_gain_altitude	i_gain_altitude	d_gain_altitude	compass_heading	latitude	longitude
215575	6	2	2	0.5073901	-0.001780469	-0.2758162	0	12.19	4002	0	0	0	0	0.02	0.07713844	1	10	0.04	1800	-4.267883	0	0
215639	2	0	1	0.4665045	0.0003477467	-0.2766109	0	12.19	4003	0	0	0	0	0.02	0.06054671	1	10	0.04	1800	-4.567657	0	0
215708	-2	1	3	0.428764	-0.003547925	-0.2766721	0	12.19	4003	0	0	0	0	0.02	0.04539652	1	10	0.04	1800	-4.725769	0	0
215839	7	0	-1	0.3481478	-0.003907369	-0.2777729	0	12.19	4002	0	0	0	0	0.02	0.008169872	1	10	0.04	1800	-4.375336	0	0
215939	1	3	-5	0.3127296	-0.003828807	-0.2793015	0	12.19	4003	0	0	0	0	0.02	-0.001901688	1	10	0.04	1800	-4.547943	0	0
216058	6	-2	5	0.2614548	-0.008084447	-0.2794852	0	12.19	4004	0	0	0	0	0.02	-0.007709317	1	10	0.04	1800	-4.474945	0	0
216112	8	1	-1	0.2534775	-0.005789076	-0.2800354	0	12.19	4002	0	0	0	0	0.02	-0.00964032	1	10	0.04	1800	-4.440125	0	0
216214	1	1	2	0.2344441	-0.001897646	-0.2798519	0	12.19	4003	0	0	0	0	0.02	-0.0087178	1	10	0.04	1800	-4.187347	0	0
216317	2	-3	-2	0.2063761	0.001135029	-0.2824196	0	12.14	4002	0	0	0	0	0.02	-0.005636167	1	10	0.04	1800	-4.144562	0	0
216421	6	0	1	0.1898145	-0.002494429	-0.2832755	0	12.14	4003	0	0	0	0	0.02	0.004280462	1	10	0.04	1800	-3.914642	0	0
216523	0	3	4	0.1599245	0.001224748	-0.2849871	0	12.14	4003	0	0	0	0	0.02	0.003813431	1	10	0.04	1800	-4.302307	0	0
216627	1	1	2	0.1445187	0.001828565	-0.2854152	0	12.14	4004	0	0	0	0	0.02	0.00751741	1	10	0.04	1800	-4.261414	0	0
216735	5	1	-1	0.1333232	0.002715457	-0.2855376	0	12.14	4002	0	0	0	0	0.02	0.007488325	1	10	0.04	1800	-4.243378	0	0
216837	3	2	4	0.1213621	0.004072785	-0.2877997	0	12.14	4003	0	0	0	0	0.02	0.00510991	1	10	0.04	1800	-4.256989	0	0
216939	7	2	5	0.1121269	0.003285832	-0.2892058	0	12.14	4004	0	0	0	0	0.02	0.0051354	1	10	0.04	1800	-4.017395	0	0
217109	-1	-2	3	0.1052188	0.0007379749	-0.2955639	0	12.14	4003	0	0	0	0	0.02	0.001002783	1	10	0.04	1800	-3.980591	0	0
217177	0	1	3	0.1012978	0.001356874	-0.296542	0	12.14	4003	0	0	0	0	0.02	-0.003231134	1	10	0.04	1800	-3.996124	0	0
217248	11	5	-6	0.09655692	-0.002009167	-0.2970922	0	12.14	4004	0	0	0	0	0.02	-0.006427797	1	10	0.04	1800	-3.996124	0	0
217364	7	0	4	0.08571888	-0.006214209	-0.2974591	0	12.14	4003	0	0	0	0	0.02	-0.005584984	1	10	0.04	1800	-4.399963	0	0
217511	7	3	-1	0.06775988	-0.003547077	-0.2995988	0	12.14	4002	0	0	0	0	0.02	-0.005193884	1	10	0.04	1800	-3.953644	0	0
217601	3	0	0	0.06590448	-0.002983635	-0.2990486	0	12.14	4004	0	0	0	0	0.02	-0.005602965	1	10	0.04	1800	-4.151367	0	0
217729	7	0	-2	0.06015223	-0.002994958	-0.2991706	0	12.14	4003	0	0	0	0	0.02	-0.005612432	1	10	0.04	1800	-4.149109	0	0
217866	5	-4	-1	0.06232059	-0.002713992	-0.3018607	0	12.14	4003	0	0	0	0	0.02	-0.02338466	1	10	0.04	1800	-4.126038	0	0
217972	5	-1	-2	0.0553032	-0.00448452	-0.3032056	0	12.14	4003	0	0	0	0	0.02	-0.02789544	1	10	0.04	1800	-3.924042	0	0
218063	8	-3	0	0.06171143	-0.008053003	-0.3044279	0	12.14	4002	0	0	0	0	0.02	-0.03304921	1	10	0.04	1800	-4.143585	0	0
218227	3	-2	3	0.06225413	-0.01087552	-0.3046114	0	12.14	4002	0	0	0	0	0.02	-0.03941431	1	10	0.04	1800	-3.936188	0	0
218285	4	1	0	0.05833369	-0.01485347	-0.3054672	0	12.14	4003	0	0	0	0	0.02	-0.04421746	1	10	0.04	1800	-3.930298	0	0
218382	5	-1	-1	0.06752806	-0.02081388	-0.3063232	0	12.14	4003	0	0	0	0	0.02	-0.05297	1	10	0.04	1800	-3.920807	0	0
218576	9	0	0	0.06426992	-0.01879578	-0.3090135	0	12.14	4004	0	0	0	0	0.02	-0.05576024	1	10	0.04	1800	-3.921356	0	0
218651	0	3	4	0.06657568	-0.01356824	-0.3090747	0	12.14	4003	0	0	0	0	0.02	-0.05917576	1	10	0.04	1800	-4.154602	0	0
218726	-1	0	2	0.06238635	-0.01406118	-0.309258	0	12.14	4003	0	0	0	0	0.02	-0.06336844	1	10	0.04	1800	-3.942352	0	0
218894	4	3	1	0.06600231	-0.01222643	-0.310176	0	12.14	4003	0	0	0	0	0.02	-0.08228428	1	10	0.04	1800	-4.153809	0	0
218981	0	2	-1	0.06270764	-0.01031092	-0.3096868	0	12.14	4003	0	0	0	0	0.02	-0.09090121	1	10	0.04	1800	-3.942261	0	0
219066	4	4	0	0.05721276	-0.01958058	-0.3094421	0	12.14	4004	0	0	0	0	0.02	-0.09051003	1	10	0.04	1800	-4.128052	0	0
219168	-1	-1	-3	0.06538563	-0.02122303	-0.3106039	0	12.19	4003	0	0	0	0	0.02	-0.08856627	1	10	0.04	1800	-3.943176	0	0
219261	3	2	6	0.06488656	-0.02048038	-0.3138446	0	12.19	4002	0	0	0	0	0.02	-0.0847118	1	10	0.04	1800	-3.926758	0	0
219369	10	-2	3	0.06049395	-0.02267249	-0.3143336	0	12.19	4003	0	0	0	0	0.02	-0.08674219	1	10	0.04	1800	-4.149017	0	0
219463	6	-5	-1	0.0674481	-0.01781134	-0.3148839	0	12.19	4003	0	0	0	0	0.02	-0.0897764	1	10	0.04	1800	-3.950226	0	0
219567	0	0	-1	0.06769234	-0.01414919	-0.3159846	0	12.19	4002	0	0	0	0	0.02	-0.09019966	1	10	0.04	1800	-4.142883	0	0
219668	6	0	3	0.06680641	-0.01745546	-0.3170237	0	12.19	4002	0	0	0	0	0.02	-0.0901694	1	10	0.04	1800	-3.92807	0	0
219768	0	-7	3	0.0638328	-0.008363311	-0.3165343	0	12.19	4004	0	0	0	0	0.02	-0.0828585	1	10	0.04	1800	-3.928894	0	0
219872	3	0	1	0.06475566	-0.01064741	-0.3162897	0	12.19	4003	0	0	0	0	0.02	-0.06859295	1	10	0.04	1800	-4.149353	0	0
219977	4	2	2	0.06815492	-0.01266493	-0.3151891	0	12.19	4002	0	0	0	0	0.02	-0.05986557	1	10	0.04	1800	-3.927643	0	0
220091	-1	3	-3	0.06804467	-0.02280767	-0.3154949	0	12.14	4004	0	0	0	0	0.02	-0.05995816	1	10	0.04	1800	-3.953522	0	0
220178	9	-2	-2	0.06811809	-0.02524479	-0.3143333	0	12.14	4004	0	0	0	0	0.02	-0.06134914	1	10	0.04	1800	-4.14209	0	0
220276	0	-1	3	0.06687907	-0.02063552	-0.3139665	0	12.14	4002	0	0	0	0	0.02	-0.06043936	1	10	0.04	1800	-4.137939	0	0
220378	4	-1	1	0.06608884	-0.02121416	-0.3149447	0	12.14	4003	0	0	0	0	0.02	-0.05352798	1	10	0.04	1800	-3.942078	0	0
220487	13	2	-3	0.0700992	-0.02087616	-0.3147613	0	12.14	4002	0	0	0	0	0.02	-0.05354238	1	10	0.04	1800	-3.941803	0	0
220664	9	2	0	0.0649066	-0.01911279	-0.3140889	0	12.14	4004	0	0	0	0	0.02	-0.05326349	1	10	0.04	1800	-3.725281	0	0
220740	12	-3	-1	0.0669532	-0.01896276	-0.3132942	0	12.14	4004	0	0	0	0	0.02	-0.05133579	1	10	0.04	1800	-3.924713	0	0
220800	2	-3	1	0.06967837	-0.01748871	-0.3143336	0	12.14	4002	0	0	0	0	0.02	-0.04743717	1	10	0.04	1800	-3.957642	0	0
220878	4	2	-2	0.06559819	-0.01658285	-0.313172	0	12.14	4004	0	0	0	0	0.02	-0.04066298	1	10	0.04	1800	-3.929169	0	0
221121	3	2	1	0.08216079	-0.01858716	-0.3106043	0	12.19	4002	0	0	0	0	0.02	-0.05562642	1	10	0.04	1800	-3.962006	0	0
221319	4	2	-1	0.07713986	-0.01923338	-0.3096263	0	12.19	4003	0	0	0	0	0.02	-0.0623953	1	10	0.04	1800	-4.383545	0	0
221425	4	-3	2	0.07698385	-0.01548854	-0.3083421	0	12.19	4002	0	0	0	0	0.02	-0.05019487	1	10	0.04	1800	-3.955902	0	0
221489	9	-5	-1	0.08249139	-0.0173208	-0.3070583	0	12.19	4002	0	0	0	0	0.02	-0.04723876	1	10	0.04	1800	-4.173584	0	0
221584	6	2	0	0.08766504	-0.01413853	-0.3057744	0	12.19	4003	0	0	0	0	0.02	-0.03025502	1	10	0.04	1800	-4.182495	0	0
221756	17	3	5	0.08080044	-0.005660356	-0.3038181	0	12.19	4004	0	0	0	0	0.02	-0.0143539	1	10	0.04	1800	-3.95993	0	0
221839	3	6	2	0.08134091	-0.01284233	-0.3049795	0	12.19	4004	0	0	0	0	0.02	-0.01036378	1	10	0.04	1800	-3.951324	0	0
221891	1	0	4	0.07791674	-0.01896841	-0.305652	0	12.19	4004	0	0	0	0	0.02	-0.007381476	1	10	0.04	1800	-4.170563	0	0
221981	9	-2	0	0.0770346	-0.01416029	-0.3059577	0	12.19	4003	0	0	0	0	0.02	-0.007821366	1	10	0.04	1800	-3.946899	0	0
222193	0	1	3	0.08722048	-0.01254426	-0.3060798	0	12.19	4003	0	0	0	0	0.02	-0.01521536	1	10	0.04	1800	-3.973358	0	0
222308	9	-1	1	0.08096286	-0.01593949	-0.3052852	0	12.19	4002	0	0	0	0	0.02	-0.01199205	1	10	0.04	1800	-3.954498	0	0
222412	0	0	3	0.07392275	-0.0201928	-0.3065073	0	12.19	4002	0	0	0	0	0.02	-0.005946345	1	10	0.04	1800	-3.743561	0	0
222484	-1	3	-2	0.07358642	-0.01886392	-0.3060794	0	12.19	4003	0	0	0	0	0.02	-0.001273854	1	10	0.04	1800	-3.94696	0	0
222591	11	1	-1	0.06829549	-0.01657124	-0.3054681	0	12.19	4003	0	0	0	0	0.02	0.008058844	1	10	0.04	1800	-4.140137	0	0
222709	1	1	5	0.06539167	-0.01492985	-0.304123	0	12.19	4004	0	0	0	0	0.02	0.004403919	1	10	0.04	1800	-3.937378	0	0
222831	15	1	-3	0.07410853	-0.01678699	-0.3011882	0	12.19	4003	0	0	0	0	0.02	-0.001030469	1	10	0.04	1800	-3.950104	0	0
222922	7	3	0	0.08372276	-0.01510823	-0.3013718	0	12.19	4003	0	0	0	0	0.02	-0.008510172	1	10	0.04	1800	-3.950104	0	0
222992	5	3	1	0.08361924	-0.01513266	-0.298437	0	12.19	4002	0	0	0	0	0.02	-0.01047227	1	10	0.04	1800	-3.981323	0	0
223128	11	4	-1	0.08604915	-0.01407403	-0.2956861	0	12.19	4002	0	0	0	0	0.02	-0.0154208	1	10	0.04	1800	-3.952179	0	0
223209	10	3	2	0.0846262	-0.01558181	-0.2958694	0	12.19	4002	0	0	0	0	0.02	-0.01611823	1	10	0.04	1800	-4.377747	0	0
223286	3	1	0	0.08531018	-0.01927115	-0.2959916	0	12.19	4003	0	0	0	0	0.02	-0.01383316	1	10	0.04	1800	-3.967285	0	0
223510	6	3	3	0.09504502	-0.01917846	-0.291223	0	12.19	4010	0	0	0	0	0.02	-0.005253249	1	10	0.04	1800	-4.411194	0	0
223671	10	0	-2	0.09711513	-0.02466245	-0.290306	0	12.19	4004	0	0	0	0	0.02	-0.01085542	1	10	0.04	1800	-3.974884	0	0
223694	10	0	-1	0.09758724	-0.02410597	-0.290734	0	12.19	4002	0	0	0	0	0.02	-0.01321798	1	10	0.04	1800	-3.974884	0	0
223799	-2	-2	2	0.09587026	-0.02145174	-0.2874939	0	12.19	4003	0	0	0	0	0.02	-0.02110899	1	10	0.04	1800	-3.986145	0	0
223901	12	1	-2	0.0926512	-0.02315637	-0.2873718	0	12.19	4003	0	0	0	0	0.02	-0.0225439	1	10	0.04	1800	-4.180267	0	0
224073	2	1	-2	0.09351625	-0.02516339	-0.2862714	0	12.19	4002	0	0	0	0	0.02	-0.02295039	1	10	0.04	1800	-3.996887	0	0
224263	1	1	1	0.08896186	-0.02733847	-0.2841315	0	12.19	4008	0	0	0	0	0.02	-0.01736125	1	10	0.04	1800	-4.166473	0	0
224401	1	-3	-2	0.0857474	-0.01809778	-0.2813195	0	12.19	4004	0	0	0	0	0.02	-0.01287654	1	10	0.04	1800	-4.172729	0	0
224468	10	2	-2	0.09058582	-0.02156832	-0.27973	0	12.19	4003	0	0	0	0	0.02	-0.01265068	1	10	0.04	1800	-4.173096	0	0
224589	6	4	-1	0.08406801	-0.02262675	-0.2785072	0	12.19	4004	0	0	0	0	0.02	-0.00953682	1	10	0.04	1800	-3.969269	0	0
224624	2	0	-3	0.08281042	-0.02257068	-0.2775897	0	12.19	4003	0	0	0	0	0.02	-0.01360674	1	10	0.04	1800	-3.969269	0	0
224691	14	1	-2	0.08619476	-0.01785937	-0.2774063	0	12.19	4002	0	0	0	0	0.02	-0.01714408	1	10	0.04	1800	-3.956757	0	0
224784	1	-4	7	0.08641691	-0.01489303	-0.2770396	0	12.19	4003	0	0	0	0	0.02	-0.01694121	1	10	0.04	1800	-3.956604	0	0
224956	15	0	-2	0.07927284	-0.02224427	-0.2782012	0	12.19	4004	0	0	0	0	0.02	-0.02108421	1	10	0.04	1800	-4.179962	0	0
225066	2	2	-2	0.08872172	-0.01595497	-0.2775898	0	12.19	4004	0	0	0	0	0.02	-0.03279502	1	10	0.04	1800	-4.173065	0	0
225085	8	0	-1	0.08303969	-0.01931473	-0.2765506	0	12.19	4003	0	0	0	0	0.02	-0.03279502	1	10	0.04	1800	-4.184814	0	0
225197	3	3	-5	0.07737353	-0.02091987	-0.2762447	0	12.19	4004	0	0	0	0	0.02	-0.03768663	1	10	0.04	1800	-4.184814	0	0
225376	3	0	-5	0.07468574	-0.02580188	-0.2744798	0	12.19	4003	0	0	0	0	0.02	-0.03722053	1	10	0.04	1800	-4.156525	0	0
225453	-5	0	0	0.07331051	-0.02806983	-0.2743486	0	12.19	4004	0	0	0	0	0.02	-0.02720836	1	10	0.04	1800	-3.970032	0	0
225514	6	-1	3	0.07334051	-0.02678452	-0.2748377	0	12.19	4002	0	0	0	0	0.02	-0.01218713	1	10	0.04	1800	-4.166199	0	0
225648	7	0	-1	0.07649421	-0.02733192	-0.274104	0	12.19	4002	0	0	0	0	0.02	-0.003232559	1	10	0.04	1800	-3.725952	0	0
225702	5	1	3	0.07674953	-0.02319906	-0.2723921	0	12.19	4003	0	0	0	0	0.02	-0.0007589746	1	10	0.04	1800	-4.188141	0	0
225764	2	3	1	0.07608534	-0.02403179	-0.273248	0	12.19	4003	0	0	0	0	0.02	-0.003551005	1	10	0.04	1800	-4.191345	0	0
225850	4	-2	1	0.08094647	-0.02572995	-0.2735537	0	12.19	4004	0	0	0	0	0.02	-0.008014536	1	10	0.04	1800	-3.96109	0	0
225958	-1	0	-5	0.07842525	-0.02062688	-0.2723918	0	12.19	4004	0	0	0	0	0.02	-0.01433507	1	10	0.04	1800	-4.18222	0	0
226069	13	3	0	0.07577232	-0.01946584	-0.2700077	0	12.19	4004	0	0	0	0	0.02	-0.02371725	1	10	0.04	1800	-4.137085	0	0
226183	3	0	1	0.07739217	-0.02055858	-0.2679292	0	12.19	4003	0	0	0	0	0.02	-0.02175209	1	10	0.04	1800	-4.170746	0	0
226255	8	1	0	0.07329963	-0.0213425	-0.2670734	0	12.19	4002	0	0	0	0	0.02	-0.01830489	1	10	0.04	1800	-4.148956	0	0
226455	2	1	-1	0.08290297	-0.02254846	-0.2605927	0	12.14	4002	0	0	0	0	0.02	-0.01512827	1	10	0.04	1800	-3.953125	0	0
226546	7	0	0	0.08420772	-0.02241865	-0.2594922	0	12.14	4003	0	0	0	0	0.02	-0.01970288	1	10	0.04	1800	-3.9646	0	0
226623	4	2	6	0.0913858	-0.02642184	-0.2571079	0	12.14	4003	0	0	0	0	0.02	-0.02041377	1	10	0.04	1800	-4.186584	0	0
226704	2	1	0	0.08581264	-0.02621139	-0.257108	0	12.14	4004	0	0	0	0	0.02	-0.02432283	1	10	0.04	1800	-4.187408	0	0
226782	9	-4	0	0.08869701	-0.02350719	-0.2555795	0	12.14	4004	0	0	0	0	0.02	-0.02737536	1	10	0.04	1800	-4.175385	0	0
226833	7	-4	0	0.09212895	-0.02558642	-0.253012	0	12.14	4004	0	0	0	0	0.02	-0.0270983	1	10	0.04	1800	-3.975952	0	0
226888	0	0	0	0.08995935	-0.0262148	-0.2528899	0	12.14	4004	0	0	0	0	0.02	-0.02758346	1	10	0.04	1800	-4.184296	0	0
226999	11	0	-1	0.08696021	-0.02225945	-0.2498945	0	12.14	4004	0	0	0	0	0.02	-0.01905897	1	10	0.04	1800	-3.97818	0	0
227091	5	1	3	0.08677515	-0.01955242	-0.2489773	0	12.14	4003	0	0	0	0	0.02	-0.01239604	1	10	0.04	1800	-4.182648	0	0
227217	6	4	-4	0.08756401	-0.01874761	-0.2496496	0	12.14	4003	0	0	0	0	0.02	-0.0120657	1	10	0.04	1800	-4.178406	0	0
227319	7	3	-5	0.08346149	-0.01874193	-0.2470817	0	12.19	4003	0	0	0	0	0.02	-0.01006937	1	10	0.04	1800	-4.168793	0	0
227391	5	1	0	0.07776718	-0.01939948	-0.2453087	0	12.19	4003	0	0	0	0	0.02	-0.008690739	1	10	0.04	1800	-3.966156	0	0
227635	7	-1	-3	0.08219627	-0.01557909	-0.2431078	0	12.19	4002	0	0	0	0	0.02	-0.001170706	1	10	0.04	1800	-3.945587	0	0
227731	3	-4	4	0.0829528	-0.01408924	-0.2422519	0	12.19	4002	0	0	0	0	0.02	-0.003209963	1	10	0.04	1800	-3.945587	0	0
227800	8	-1	1	0.07962824	-0.01413544	-0.2425576	0	12.19	4004	0	0	0	0	0.02	-0.002335139	1	10	0.04	1800	-3.950867	0	0
227902	13	-7	0	0.08261266	-0.01823029	-0.2408459	0	12.19	4003	0	0	0	0	0.02	-0.005079661	1	10	0.04	1800	-4.159637	0	0
228005	2	0	3	0.08923929	-0.01408176	-0.2393173	0	12.19	4004	0	0	0	0	0.02	-0.01244247	1	10	0.04	1800	-3.947571	0	0
228113	14	-3	-2	0.09079803	-0.01304005	-0.2374221	0	12.19	4003	0	0	0	0	0.02	-0.0223765	1	10	0.04	1800	-3.959778	0	0
228239	8	-3	0	0.09774596	-0.01709597	-0.2358325	0	12.19	4003	0	0	0	0	0.02	-0.02660391	1	10	0.04	1800	-3.966217	0	0
228376	9	1	-1	0.09299685	-0.01589842	-0.2313085	0	12.19	4004	0	0	0	0	0.02	-0.02849318	1	10	0.04	1800	-3.986176	0	0
228491	2	-2	3	0.1039954	-0.02253271	-0.2284351	0	12.19	4003	0	0	0	0	0.02	-0.03398697	1	10	0.04	1800	-3.963837	0	0
228612	10	-1	1	0.1031246	-0.02791327	-0.2284961	0	12.19	4003	0	0	0	0	0.02	-0.03941445	1	10	0.04	1800	-3.98764	0	0
228645	12	0	-2	0.1034604	-0.02597541	-0.2283738	0	12.19	4004	0	0	0	0	0.02	-0.04311722	1	10	0.04	1800	-3.994934	0	0
228723	6	5	-4	0.1092844	-0.02759663	-0.226723	0	12.19	4003	0	0	0	0	0.02	-0.04405245	1	10	0.04	1800	-4.201813	0	0
228801	1	-1	1	0.1092146	-0.02920691	-0.2259894	0	12.19	4004	0	0	0	0	0.02	-0.04656652	1	10	0.04	1800	-3.983795	0	0
228931	11	6	-3	0.1069521	-0.03348584	-0.2202425	0	12.19	4003	0	0	0	0	0.02	-0.03828751	1	10	0.04	1800	-4.003784	0	0
228996	5	-2	1	0.1069203	-0.03016145	-0.2195087	0	12.19	4003	0	0	0	0	0.02	-0.03604758	1	10	0.04	1800	-3.987915	0	0
229171	15	0	0	0.1117015	-0.03165439	-0.2166963	0	12.19	4004	0	0	0	0	0.02	-0.01117978	1	10	0.04	1800	-4.021027	0	0
229208	13	0	-8	0.1170301	-0.031118	-0.2153513	0	12.19	4003	0	0	0	0	0.02	-0.005393859	1	10	0.04	1800	-3.99646	0	0
229310	4	-2	0	0.1121406	-0.03344606	-0.2124779	0	12.19	4004	0	0	0	0	0.02	0.002776094	1	10	0.04	1800	-4.22934	0	0
229418	11	-2	-3	0.1116163	-0.02944453	-0.2093603	0	12.19	4002	0	0	0	0	0.02	0.01550037	1	10	0.04	1800	-4.456604	0	0
229517	9	2	0	0.1244221	-0.03121955	-0.2056314	0	12.19	4003	0	0	0	0	0.02	0.02449576	1	10	0.04	1800	-4.000885	0	0
229612	10	-1	-4	0.1209843	-0.02601118	-0.2050811	0	12.19	4002	0	0	0	0	0.02	0.02963472	1	10	0.04	1800	-4.238373	0	0
229739	8	-1	-2	0.1201398	-0.02401516	-0.2048365	0	12.19	4003	0	0	0	0	0.02	0.02596753	1	10	0.04	1800	-4.235382	0	0
229885	10	1	-2	0.1263029	-0.02637638	-0.2013516	0	12.19	4002	0	0	0	0	0.02	0.01261175	1	10	0.04	1800	-4.015594	0	0
229932	14	2	-3	0.1271419	-0.02839444	-0.2009238	0	12.19	4003	0	0	0	0	0.02	0.006603574	1	10	0.04	1800	-4.015594	0	0
230003	12	0	-3	0.1271688	-0.01881866	-0.2002512	0	12.14	4002	0	0	0	0	0.02	0.004508128	1	10	0.04	1800	-4.247864	0	0
230108	12	-1	4	0.1337761	-0.02006406	-0.19805	0	12.14	4003	0	0	0	0	0.02	-0.0127072	1	10	0.04	1800	-4.03183	0	0
230287	14	4	-1	0.1371401	-0.0221615	-0.1971937	0	12.14	4003	0	0	0	0	0.02	-0.03248435	1	10	0.04	1800	-4.262024	0	0
230447	12	-1	0	0.1321541	-0.03036606	-0.1945649	0	12.14	4003	0	0	0	0	0.02	-0.05946617	1	10	0.04	1800	-4.059601	0	0
230583	10	2	-3	0.1372366	-0.03506621	-0.1916917	0	12.14	4002	0	0	0	0	0.02	-0.07151367	1	10	0.04	1800	-4.241211	0	0
230657	8	-1	0	0.1322885	-0.0415325	-0.1911415	0	12.14	4002	0	0	0	0	0.02	-0.07788674	1	10	0.04	1800	-4.027069	0	0
230712	11	-2	-2	0.1312979	-0.04197109	-0.1896743	0	12.14	4004	0	0	0	0	0.02	-0.07558378	1	10	0.04	1800	-4.027069	0	0
230814	10	2	-2	0.1284161	-0.04175927	-0.1893687	0	12.14	4003	0	0	0	0	0.02	-0.07306062	1	10	0.04	1800	-4.03241	0	0
230930	8	0	0	0.1232822	-0.04379337	-0.1880848	0	12.19	4009	0	0	0	0	0.02	-0.07049901	1	10	0.04	1800	-4.043579	0	0
231015	20	-3	3	0.1256434	-0.0420422	-0.1875954	0	12.19	4002	0	0	0	0	0.02	-0.06255414	1	10	0.04	1800	-4.021515	0	0
231116	3	0	3	0.1312125	-0.04006474	-0.1849052	0	12.19	4002	0	0	0	0	0.02	-0.05322415	1	10	0.04	1800	-4.018402	0	0
231237	11	0	-1	0.1317756	-0.04196293	-0.1841101	0	12.19	4004	0	0	0	0	0.02	-0.03761443	1	10	0.04	1800	-4.022247	0	0
231315	18	1	0	0.1338315	-0.03619641	-0.1830706	0	12.19	4003	0	0	0	0	0.02	-0.03085758	1	10	0.04	1800	-3.83374	0	0
231499	9	4	-3	0.1370585	-0.03838113	-0.1821535	0	12.19	4004	0	0	0	0	0.02	-0.01207676	1	10	0.04	1800	-4.244446	0	0
231554	17	2	-1	0.1379017	-0.03929611	-0.1792188	0	12.19	4004	0	0	0	0	0.02	-0.009739548	3	10	0.04	1800	-4.245087	0	0
231689	7	2	0	0.134418	-0.03548681	-0.1759174	0	12.19	4002	0	0	0	0	0.02	0.01224761	3	10	0.04	1800	-4.043091	0	0
231773	18	6	-6	0.1337402	-0.03801098	-0.173105	0	12.19	4003	0	0	0	0	0.02	0.02058051	3	10	0.04	1800	-4.028809	0	0
231827	18	-1	-4	0.1326932	-0.03361374	-0.1716376	0	12.19	4003	0	0	0	0	0.02	0.02632358	3	10	0.04	1800	-3.811768	0	0
231900	10	6	5	0.1381074	-0.03572723	-0.1707205	0	12.19	4003	0	0	0	0	0.02	0.03605231	3	10	0.04	1800	-4.033722	0	0
231975	13	0	-4	0.136717	-0.03611586	-0.1705982	0	12.19	4002	0	0	0	0	0.02	0.0415464	3	10	0.04	1800	-4.029999	0	0
232079	18	-1	-4	0.1309021	-0.03160791	-0.1670524	0	12.19	4002	0	0	0	0	0.02	0.04554206	3	10	0.04	1800	-4.276947	0	0
232189	5	2	1	0.1364997	-0.03570194	-0.1655245	0	12.19	4004	0	0	0	0	0.02	0.04444099	3	10	0.04	1800	-4.258423	0	0
232278	19	0	0	0.1320888	-0.03392893	-0.1622844	0	12.19	4003	0	0	0	0	0.02	0.03711277	3	10	0.04	1800	-4.240448	0	0
232417	11	-1	1	0.1414405	-0.03122455	-0.1614287	0	12.19	4002	-1	0	0	0	0.02	0.01323379	3	10	0.04	1800	-4.261169	0	0
232553	13	0	-3	0.1422595	-0.04011756	-0.1600839	0	12.19	4003	0	0	0	0	0.02	0.01062352	3	10	0.04	1800	-4.272461	0	0
232580	19	-4	-4	0.144419	-0.03916519	-0.1590447	0	12.19	4003	-1	0	0	0	0.02	0.01062352	3	10	0.04	1800	-4.272461	0	0
232662	20	-12	-15	0.1468395	-0.02712316	-0.1535414	0	12.19	4002	0	0	0	0	0.02	0.01259281	3	10	0.04	1800	-4.074402	0	0
232765	11	9	-57	0.1640226	-0.02675914	-0.1344623	0	12.14	4003	-2	-5	-1	0	0.02	0.01807687	3	10	0.04	1800	-4.463684	0	0
232908	-4	13	13	0.1425475	-0.03746482	-0.1216345	0	12.14	4004	0	0	0	0	0.02	0.03185371	3	10	0.04	1800	-4.254669	0	0
232996	23	6	-12	0.1489964	-0.02923323	-0.1257931	0	12.14	4002	0	0	0	0	0.02	0.0377579	3	10	0.04	1800	-4.770569	0	0
233150	20	17	16	0.1546718	-0.03255418	-0.1183955	0	12.14	4002	0	0	0	0	0.02	0.03097326	3	10	0.04	1800	-4.429077	0	0
233202	20	-1	1	0.1557758	-0.03096811	-0.1187616	0	12.14	4002	-3	2	-1	0	0.02	0.03019718	3	10	0.04	1800	-4.009399	0	0
233305	7	-15	15	0.1563099	-0.02921383	-0.1234695	0	12.14	4003	0	-2	-1	0	0.02	0.02687524	3	10	0.04	1800	-4.63797	0	0
233437	4	-12	-46	0.1445732	-0.02543644	-0.1196077	0	12.14	4004	2	1	0	0	0.02	0.02254162	3	10	0.04	1800	-4.633148	0	0
233527	6	22	-25	0.1480051	-0.01060135	-0.1181975	0	12.14	4002	-1	-2	0	0	0.02	0.009851998	3	10	0.04	1800	-4.410706	0	0
233620	-4	41	11	0.1000727	-0.001116244	-0.1219307	0	12.14	4004	6	-12	-1	0	0.02	0.005272683	3	10	0.04	1800	-3.809631	0	0
233701	-78	-20	51	0.1215571	-0.05464608	-0.1216413	0	12.14	4003	7	10	-9	0	0.02	-0.0002158267	3	10	0.04	1800	-4.067932	0	0
233808	95	-30	-74	0.1787513	-0.02108653	-0.1093414	0	12.14	4003	-7	4	-10	0	0.02	-0.01594506	3	10	0.04	1800	-4.090179	0	0
233915	-142	-81	21	0.1552257	-0.01318743	-0.1006591	0	12.14	4003	48	-24	-12	0	0.02	-0.02306143	3	10	0.04	1800	-4.500092	0	0
234058	45	47	-42	0.1746274	-0.034914	-0.1045826	0	12.14	4004	0	0	0	0	0.02	-0.02571979	3	10	0.04	1800	-4.174927	0	0
234131	13	23	-35	0.1574625	-0.01690087	-0.1089829	0	12.14	4002	0	0	0	0	0.02	-0.0248301	3	10	0.04	1800	-4.622253	0	0
234210	16	-45	-141	0.1623832	-0.02561569	-0.09724364	0	12.14	4003	0	0	0	0	0.02	-0.01554298	3	10	0.04	1800	-4.283905	0	0
234307	34	0	148	0.1572531	-0.008241506	-0.1195522	0	12.14	4002	0	0	0	0	0.02	-0.01031979	3	10	0.04	1800	-4.258118	0	0
234417	22	-21	-33	0.1632919	-0.01810723	-0.1139403	0	12.14	4003	0	0	0	0	0.02	0.002250163	3	10	0.04	1800	-4.018951	0	0
234565	1	0	21	0.1543025	-0.02308111	-0.111434	0	12.19	4004	0	0	0	0	0.02	0.01161041	3	10	0.04	1800	-4.272552	0	0
234650	3	5	0	0.1525053	-0.009837013	-0.113942	0	12.19	4003	0	0	0	0	0.02	0.01596418	3	10	0.04	1800	-5.017456	0	0
234733	27	9	26	0.1347286	-0.003649421	-0.1151633	0	12.19	4002	0	0	0	0	0.02	0.01671756	3	10	0.04	1800	-4.536896	0	0
234893	12	26	-18	0.1350838	-0.006356324	-0.1198688	0	12.19	4002	0	0	0	0	0.02	0.0115909	3	10	0.04	1800	-4.238312	0	0
234948	31	1	-32	0.1276322	0.001794939	-0.1122288	0	12.19	4003	0	0	0	0	0.02	0.005182316	3	10	0.04	1800	-4.607117	0	0
235012	-7	20	13	0.1251167	-0.01380105	-0.1134507	0	12.19	4003	0	0	0	0	0.02	-0.002472317	3	10	0.04	1800	-4.402557	0	0
235138	35	24	34	0.131074	-0.01723015	-0.114858	0	12.19	4004	0	0	0	0	0.02	-0.01441935	3	10	0.04	1800	-4.380646	0	0
235222	13	-2	-44	0.1357821	-0.007705207	-0.1128405	0	12.19	4003	0	0	0	0	0.02	-0.01743929	3	10	0.04	1800	-4.749481	0	0
235313	15	11	35	0.128029	-0.02297019	-0.1165683	0	12.19	4003	0	0	0	0	0.02	-0.01625841	3	10	0.04	1800	-4.575623	0	0
235366	14	-1	18	0.1293782	-0.02307343	-0.1170573	0	12.19	4004	0	0	0	0	0.02	-0.0138675	3	10	0.04	1800	-4.575623	0	0
235495	8	-1	-8	0.1338254	-0.0236489	-0.1159548	0	12.14	4004	0	0	0	0	0.02	-0.01789542	3	10	0.04	1800	-4.049103	0	0
235601	14	0	-5	0.1221826	-0.0130636	-0.1146713	0	12.14	4004	0	0	0	0	0.02	-0.02502558	3	10	0.04	1800	-4.762909	0	0
235726	15	0	5	0.126039	-0.01779902	-0.1165652	0	12.14	4003	0	0	0	0	0.02	-0.03703863	3	10	0.04	1800	-4.370453	0	0
235769	6	0	11	0.1273053	-0.01867517	-0.116626	0	12.14	4003	0	0	0	0	0.02	-0.03821929	3	10	0.04	1800	-4.374237	0	0
235898	10	1	0	0.1284183	-0.01300669	-0.1188272	0	12.14	4003	0	0	0	0	0.02	-0.03280256	3	10	0.04	1800	-4.600372	0	0
235994	10	1	0	0.1245558	-0.0170265	-0.1198666	0	12.14	4003	0	0	0	0	0.02	-0.02968575	3	10	0.04	1800	-4.378265	0	0
236055	-2	-6	-6	0.1237836	-0.01878776	-0.1200502	0	12.14	4002	0	0	0	0	0.02	-0.02668914	3	10	0.04	1800	-4.375153	0	0
236164	18	4	0	0.1196326	-0.0153722	-0.1204781	0	12.14	4003	0	0	0	0	0.02	-0.02685747	3	10	0.04	1800	-4.364563	0	0
236272	3	-5	-4	0.1221385	-0.02121854	-0.1197445	0	12.14	4003	0	0	0	0	0.02	-0.02694348	3	10	0.04	1800	-4.37085	0	0
236453	6	-1	-3	0.1205479	-0.02484217	-0.1193168	0	12.14	4003	0	0	0	0	0.02	-0.03359964	3	10	0.04	1800	-4.353149	0	0
236479	11	0	-4	0.1227063	-0.02355493	-0.119867	0	12.14	4002	0	0	0	0	0.02	-0.03626333	3	10	0.04	1800	-4.353149	0	0
236560	5	3	5	0.1242616	-0.02405511	-0.1191332	0	12.14	4002	0	0	0	0	0.02	-0.04029799	3	10	0.04	1800	-4.38739	0	0
236697	5	-1	-3	0.1246808	-0.02315238	-0.1183385	0	12.14	4003	0	0	0	0	0.02	-0.05383318	3	10	0.04	1800	-4.358887	0	0
236807	7	1	0	0.1298989	-0.02192919	-0.118644	0	12.14	4004	0	0	0	0	0.02	-0.05731653	3	10	0.04	1800	-4.358307	0	0
236925	5	1	1	0.1196063	-0.02159465	-0.1187053	0	12.14	4004	0	0	0	0	0.02	-0.05636169	3	10	0.04	1800	-4.562531	0	0
236974	16	0	0	0.1233913	-0.02287725	-0.1195002	0	12.14	4004	0	0	0	0	0.02	-0.05753812	3	10	0.04	1800	-4.562531	0	0
237087	6	0	0	0.1287887	-0.02567476	-0.1187052	0	12.14	4002	0	0	0	0	0.02	-0.05747233	3	10	0.04	1800	-4.390839	0	0
237150	10	0	0	0.1270548	-0.02390191	-0.1171153	0	12.14	4004	0	0	0	0	0.02	-0.05290712	3	10	0.04	1800	-4.393463	0	0
237255	13	-2	0	0.1254997	-0.01840889	-0.1165041	0	12.19	4002	0	0	0	0	0.02	-0.05077037	3	10	0.04	1800	-4.377197	0	0
237351	11	0	0	0.1335575	-0.01801832	-0.1158317	0	12.19	4003	0	0	0	0	0.02	-0.052417	3	10	0.04	1800	-4.381622	0	0
237452	16	0	3	0.130912	-0.01489468	-0.1171156	0	12.19	4003	0	0	0	0	0.02	-0.05407964	3	10	0.04	1800	-4.401245	0	0
237584	9	2	0	0.1373619	-0.01240837	-0.1174825	0	12.19	4004	0	0	0	0	0.02	-0.05628138	3	10	0.04	1800	-4.383759	0	0
237646	4	4	3	0.1378504	-0.007271564	-0.1171768	0	12.19	4004	0	0	0	0	0.02	-0.05661371	3	10	0.04	1800	-4.375061	0	0
237753	12	0	0	0.1319037	-0.01123307	-0.1166876	0	12.19	4004	0	0	0	0	0.02	-0.06137853	3	10	0.04	1800	-4.387421	0	0
237968	11	-3	0	0.1209562	-0.01617759	-0.1158314	0	12.19	4002	0	0	0	0	0.02	-0.07107884	3	10	0.04	1800	-4.372681	0	0
238058	17	0	-3	0.1277363	-0.01196915	-0.1154035	0	12.19	4002	0	0	0	0	0.02	-0.08340553	3	10	0.04	1800	-4.373749	0	0
238203	2	-1	1	0.126764	-0.009999262	-0.1140584	0	12.19	4003	0	0	0	0	0.02	-0.09897549	3	10	0.04	1800	-4.391602	0	0
238304	18	0	-5	0.1241884	-0.01086946	-0.1121022	0	12.19	4002	0	0	0	0	0.02	-0.1068522	3	10	0.04	1800	-4.374603	0	0
238357	17	-5	0	0.1246431	-0.01154888	-0.1122245	0	12.19	4002	0	0	0	0	0.02	-0.1133091	3	10	0.04	1800	-4.374603	0	0
238440	6	2	2	0.1223191	-0.01276809	-0.1127135	0	12.19	4003	0	0	0	0	0.02	-0.1190023	3	10	0.04	1800	-4.557037	0	0
238616	13	2	-1	0.1178642	-0.01781429	-0.1110016	0	12.19	4004	0	0	0	0	0.02	-0.1268395	3	10	0.04	1800	-4.336609	0	0
238661	7	3	0	0.1200072	-0.01558754	-0.1103291	0	12.19	4004	0	0	0	0	0.02	-0.1259876	3	10	0.04	1800	-4.570648	0	0
238743	9	-1	-2	0.1193026	-0.0148257	-0.1111851	0	12.19	4003	0	0	0	0	0.02	-0.1230458	3	10	0.04	1800	-4.366974	0	0
238857	15	-5	0	0.1264685	-0.01140384	-0.1087395	0	12.19	4002	0	0	0	0	0.02	-0.1251436	3	10	0.04	1800	-4.352722	0	0
239049	15	0	-2	0.1153519	-0.01599411	-0.1119185	0	12.19	4004	0	0	0	0	0.02	-0.1346942	3	10	0.04	1800	-4.367096	0	0
239105	10	-2	-3	0.1193695	-0.01556864	-0.1117349	0	12.19	4004	0	0	0	0	0.02	-0.1353318	3	10	0.04	1800	-4.362732	0	0
239152	4	-3	0	0.1161392	-0.02325042	-0.1124074	0	12.19	4002	0	0	0	0	0.02	-0.1348785	3	10	0.04	1800	-4.377625	0	0
239291	11	2	-2	0.1074616	-0.02693003	-0.1111236	0	12.19	4003	0	0	0	0	0.02	-0.1361708	3	10	0.04	1800	-4.350769	0	0
239354	9	-2	-2	0.1126767	-0.0298894	-0.1117961	0	12.19	4003	0	0	0	0	0.02	-0.1386309	3	10	0.04	1800	-4.345886	0	0
239555	12	0	1	0.1131501	-0.01790799	-0.111674	0	12.19	4003	0	0	0	0	0.02	-0.1384216	3	10	0.04	1800	-4.582642	0	0
239700	8	0	-1	0.1162731	-0.02518261	-0.1110632	0	12.19	4004	0	0	0	0	0.02	-0.1312998	3	10	0.04	1800	-4.583649	0	0
239741	6	-4	1	0.1193581	-0.01811526	-0.1108185	0	12.19	4003	1	0	0	0	0.02	-0.1300408	3	10	0.04	1800	-4.360443	0	0
239840	18	-8	-30	0.12075	-0.01688895	-0.1030531	0	12.19	4003	0	0	0	0	0.02	-0.1239994	3	10	0.04	1800	-4.351349	0	0
239992	13	26	93	0.1304169	-0.02164013	-0.1079411	0	12.14	4002	-3	5	0	0	0.02	-0.09912495	3	10	0.04	1800	-3.789856	0	0
240053	-4	31	85	0.1301496	-0.02055783	-0.1001804	0	12.14	4002	0	-1	-1	0	0.02	-0.08765294	3	10	0.04	1800	-3.789856	0	0
240178	4	43	171	0.1465248	-0.01685078	-0.1126584	0	12.14	4003	-4	-2	-1	0	0.02	-0.08387971	3	10	0.04	1800	-4.562531	0	0
240257	50	26	-37	0.1518055	-0.02986847	-0.1147385	0	12.14	4004	-7	-3	0	0	0.02	-0.08444029	3	10	0.04	1800	-4.288727	0	0
240340	-89	-49	-67	0.1322797	-0.03136777	-0.1155205	0	12.14	4004	16	0	0	0	0.02	-0.08570097	3	10	0.04	1800	-3.640259	0	0
240454	-56	-57	-57	0.1653505	-0.005760011	-0.114788	0	12.14	4002	0	-12	0	0	0.02	-0.08409912	3	10	0.04	1800	-4.467926	0	0
240558	-42	78	-26	0.1727053	-0.002931775	-0.1210943	0	12.14	4004	24	-3	-2	0	0.02	-0.08258614	3	10	0.04	1800	-4.286591	0	0
240643	-76	74	200	0.1685677	0.01096927	-0.1267846	0	12.14	4003	-3	13	1	0	0.02	-0.08132858	3	10	0.04	1800	-4.491821	0	0
240775	-140	-20	-45	0.1675799	-0.01578668	-0.1232977	0	12.14	4004	22	1	-1	0	0.02	-0.07320954	3	10	0.04	1800	-4.087311	0	0
240850	-30	21	-118	0.170254	0.0129587	-0.1207921	0	12.02	4002	11	1	2	0	0.02	-0.07045071	3	10	0.04	1800	-4.868835	0	0
240961	36	41	-2	0.2020161	0.01047746	-0.1255001	0	12.02	4003	0	0	0	0	0.02	-0.07218426	3	10	0.04	1800	-4.516693	0	0
241038	16	18	29	0.1976413	-0.01120079	-0.1222025	0	12.02	4004	0	0	0	0	0.02	-0.07796939	3	10	0.04	1800	-4.122101	0	0
241148	-25	-37	-49	0.186141	0.003621651	-0.1195187	0	12.02	4003	0	0	0	0	0.02	-0.08923838	3	10	0.04	1800	-4.099152	0	0
241243	11	3	11	0.1844915	0.02345414	-0.1245309	0	12.02	4004	0	0	0	0	0.02	-0.09463663	3	10	0.04	1800	-3.922607	0	0
241374	42	-3	16	0.1797421	0.0009190807	-0.1213484	0	12.02	4004	0	0	0	0	0.02	-0.08525001	3	10	0.04	1800	-4.066376	0	0
241481	-4	-12	10	0.1834797	-0.02090739	-0.124709	0	12.02	4002	0	0	0	0	0.02	-0.0755949	1	10	0.04	1800	-5.151245	0	0
241547	25	-15	-15	0.1799752	-0.01659852	-0.1200646	0	12.02	4003	0	0	0	0	0.02	-0.07285029	1	10	0.04	1800	-4.845245	0	0
241643	16	8	-19	0.1618619	-0.01412343	-0.1243435	0	12.02	4003	0	0	0	0	0.02	-0.06021451	1	10	0.04	1800	-4.595154	0	0
241811	-6	0	-34	0.1676315	-0.02504439	-0.1223889	0	12.19	4004	0	0	0	0	0.02	-0.05590668	1	10	0.04	1800	-5.049927	0	0
241845	14	20	0	0.1590905	-0.01952972	-0.1258117	0	12.19	4004	0	0	0	0	0.02	-0.05381477	1	10	0.04	1800	-4.411743	0	0
241942	-2	6	41	0.1477011	-0.03244921	-0.129356	0	12.19	4002	0	0	0	0	0.02	-0.05789967	1	10	0.04	1800	-4.378113	0	0
242069	5	13	41	0.1541655	-0.02239599	-0.1278898	0	12.19	4003	0	0	0	0	0.02	-0.06282446	1	10	0.04	1800	-4.377594	0	0
242141	-3	1	53	0.1435946	-0.01995623	-0.1281957	0	12.19	4002	0	0	0	0	0.02	-0.06857584	1	10	0.04	1800	-4.494019	0	0
242266	6	0	13	0.1393315	-0.03060563	-0.1289271	0	12.19	4004	0	0	0	0	0.02	-0.0692139	1	10	0.04	1800	-4.617676	0	0
242394	4	0	-5	0.1344769	-0.03606546	-0.1259336	0	12.19	4003	0	0	0	0	0.02	-0.06509049	1	10	0.04	1800	-3.599152	0	0
242468	5	0	7	0.1331302	-0.03384544	-0.1304586	0	12.19	4004	0	0	0	0	0.02	-0.06249252	1	10	0.04	1800	-4.027222	0	0
242588	12	-6	-7	0.1342311	-0.03400838	-0.1266658	0	12.19	4003	0	0	0	0	0.02	-0.06299175	1	10	0.04	1800	-4.157867	0	0
242661	4	-1	4	0.1238979	-0.02896619	-0.1299052	0	12.19	4004	0	0	0	0	0.02	-0.06214415	1	10	0.04	1800	-4.351318	0	0
242787	13	-1	-10	0.124576	-0.02094872	-0.1299662	0	12.19	4003	0	0	0	0	0.02	-0.06709508	1	10	0.04	1800	-4.722412	0	0
242873	6	1	14	0.1236889	-0.01759759	-0.131921	0	12.19	4003	0	0	0	0	0.02	-0.07184925	1	10	0.04	1800	-4.494965	0	0
242941	3	1	-3	0.1222867	-0.01805721	-0.1305149	0	12.19	4002	0	0	0	0	0.02	-0.07746048	1	10	0.04	1800	-4.491913	0	0
243031	10	-1	-4	0.116932	-0.02101086	-0.1317372	0	12.19	4003	0	0	0	0	0.02	-0.0778332	1	10	0.04	1800	-4.712341	0	0
243137	5	0	0	0.1235523	-0.02059726	-0.1321652	0	12.19	4004	0	0	0	0	0.02	-0.07340212	1	10	0.04	1800	-4.494019	0	0
243282	16	0	0	0.1134318	-0.0258837	-0.1317984	0	12.19	4003	0	0	0	0	0.02	-0.06754261	1	10	0.04	1800	-4.518768	0	0
243340	6	-5	0	0.1163637	-0.02524762	-0.1318596	0	12.19	4003	0	0	0	0	0.02	-0.05740802	1	10	0.04	1800	-4.518768	0	0
243429	5	4	5	0.1178621	-0.02957901	-0.1327767	0	12.19	4004	0	0	0	0	0.02	-0.0577194	1	10	0.04	1800	-4.503082	0	0
243534	14	-2	3	0.1086251	-0.03196204	-0.1343052	0	12.19	4004	0	0	0	0	0.02	-0.06489765	1	10	0.04	1800	-4.721832	0	0
243663	15	0	0	0.1123377	-0.03559958	-0.1342437	0	12.19	4004	0	0	0	0	0.02	-0.07022727	1	10	0.04	1800	-4.494232	0	0
243832	9	0	0	0.1053076	-0.03086197	-0.1352221	0	12.19	4004	0	0	0	0	0.02	-0.07960934	1	10	0.04	1800	-4.682465	0	0
243877	12	3	0	0.106886	-0.02959871	-0.1349164	0	12.19	4004	0	0	0	0	0.02	-0.08161362	1	10	0.04	1800	-4.675842	0	0
243935	6	3	0	0.1053487	-0.02840141	-0.1354056	0	12.19	4003	0	0	0	0	0.02	-0.08659526	1	10	0.04	1800	-4.676453	0	0
244024	6	-2	-2	0.1046866	-0.02921974	-0.1365671	0	12.19	4002	0	0	0	0	0.02	-0.08799899	1	10	0.04	1800	-4.485931	0	0
244136	13	-1	3	0.10391	-0.02884916	-0.139685	0	12.19	4003	0	0	0	0	0.02	-0.09107212	1	10	0.04	1800	-4.48584	0	0
244246	2	3	-4	0.102752	-0.02942039	-0.139991	0	12.19	4003	0	0	0	0	0.02	-0.09186515	1	10	0.04	1800	-4.469543	0	0
244330	15	2	1	0.1017816	-0.02346049	-0.1404188	0	12.19	4004	0	0	0	0	0.02	-0.09507656	1	10	0.04	1800	-4.503204	0	0
244457	7	4	2	0.1037696	-0.02213041	-0.1430476	0	12.19	4003	0	0	0	0	0.02	-0.100014	1	10	0.04	1800	-4.684723	0	0
244561	8	4	6	0.09927116	-0.0127932	-0.1465939	0	12.14	4003	0	0	0	0	0.02	-0.09483153	1	10	0.04	1800	-4.892151	0	0
244624	11	1	1	0.09957126	-0.01266443	-0.1471441	0	12.14	4003	0	0	0	0	0.02	-0.08351707	1	10	0.04	1800	-4.497528	0	0
244748	1	3	5	0.1089841	-0.01607576	-0.1494673	0	12.14	4004	0	0	0	0	0.02	-0.07211502	1	10	0.04	1800	-4.69577	0	0
244835	1	-1	-2	0.099693	-0.01145067	-0.1511791	0	12.14	4003	0	0	0	0	0.02	-0.05718124	1	10	0.04	1800	-4.484711	0	0
244919	10	-3	0	0.1027987	-0.0105664	-0.1504457	0	12.14	4002	0	0	0	0	0.02	-0.0515937	1	10	0.04	1800	-4.689941	0	0
245058	5	0	-1	0.0989858	-0.01726985	-0.1545419	0	12.14	4003	0	0	0	0	0.02	-0.04008954	1	10	0.04	1800	-4.468719	0	0
245122	6	-2	2	0.09927985	-0.01648507	-0.155826	0	12.14	4002	0	0	0	0	0.02	-0.02584242	1	10	0.04	1800	-4.476593	0	0
245271	6	-2	0	0.1138988	-0.01772011	-0.1546644	0	12.14	4003	0	0	0	0	0.02	-0.0232296	1	10	0.04	1800	-4.488525	0	0
245355	14	-5	3	0.1105677	-0.01926457	-0.1543591	0	12.14	4004	0	0	0	0	0.02	-0.02837599	1	10	0.04	1800	-4.699371	0	0
245423	9	-2	-3	0.1113128	-0.01749424	-0.155827	0	12.19	4002	0	0	0	0	0.02	-0.0337824	1	10	0.04	1800	-4.701447	0	0
245529	4	-1	1	0.1162698	-0.01988483	-0.1577222	0	12.19	4002	0	0	0	0	0.02	-0.04230344	1	10	0.04	1800	-4.702545	0	0
245612	5	0	5	0.1115173	-0.02333762	-0.1626743	0	12.19	4003	0	0	0	0	0.02	-0.03439721	1	10	0.04	1800	-4.483307	0	0
245759	8	-3	0	0.1071135	-0.02054217	-0.1626131	0	12.19	4002	0	0	0	0	0.02	-0.02149427	1	10	0.04	1800	-4.506622	0	0
245817	2	3	2	0.1014239	-0.02449213	-0.1630408	0	12.19	4003	0	0	0	0	0.02	-0.01643622	1	10	0.04	1800	-4.470795	0	0
246006	12	0	0	0.09846511	-0.03064576	-0.1640805	0	12.19	4002	0	0	0	0	0.02	-0.01311588	1	10	0.04	1800	-4.478546	0	0
246089	5	-1	1	0.09532699	-0.03298658	-0.1648752	0	12.19	4003	0	0	0	0	0.02	-0.01816188	1	10	0.04	1800	-4.682556	0	0
246144	8	-2	3	0.09336554	-0.02889685	-0.1659761	0	12.19	4003	0	0	0	0	0.02	-0.01985788	1	10	0.04	1800	-4.485809	0	0
246192	12	-4	0	0.08878057	-0.02943308	-0.1662818	0	12.19	4004	0	0	0	0	0.02	-0.02323798	1	10	0.04	1800	-4.658264	0	0
246295	-2	-3	2	0.08898359	-0.03085147	-0.1678712	0	12.14	4004	0	0	0	0	0.02	-0.029206	1	10	0.04	1800	-4.447632	0	0
246430	8	3	-1	0.08567861	-0.03236236	-0.1670765	0	12.14	4003	0	0	0	0	0.02	-0.02955052	1	10	0.04	1800	-4.441803	0	0
