time(ms)	gyro_x(deg/s)	gyro_y(deg/s)	gyro_z(deg/s)	orientation_roll(deg)	orientation_pitch(deg)	orientation_yaw(deg)	throttle	battery(V)	loop_time(uS)	pid_output_roll	pid_output_pitch	pid_output_yaw	pid_output_throttle	ultrasonic_alt	baro_alt	flight_mode	p_gain_altitude	i_gain_altitude	d_gain_altitude	compass_heading	latitude	longitude
30	22	-2	0	0.3760538	-0.002170016	-1.88715	0	12.42	4003	0	0	0	0	0.02	-0.1945746	1	10	0.04	1800	-2.189789	40.92381	-91.36201
139	26	0	-3	0.3752156	-0.00785106	-1.887089	0	12.42	4002	0	0	0	0	0.02	-0.1760152	1	10	0.04	1800	-1.959045	40.92383	-91.39077
242	27	-6	0	0.3714435	-0.003373708	-1.88874	0	12.42	4004	0	0	0	0	0.02	-0.1695103	1	10	0.04	1800	-2.177551	40.92384	-91.39359
400	30	-6	-5	0.3737895	-0.006089536	-1.888862	0	12.42	4004	0	0	0	0	0.02	-0.1545466	1	10	0.04	1800	-1.949829	40.92384	-91.39362
492	30	0	3	0.3765622	-0.01769215	-1.895404	0	12.42	4002	0	0	0	0	0.02	-0.1282201	1	10	0.04	1800	-2.172821	40.92383	-91.39362
619	27	-5	0	0.3882864	-0.02123671	-1.898644	0	12.42	4004	0	0	0	0	0.02	-0.1267114	1	10	0.04	1800	-1.968933	40.92383	-91.39362
671	36	-5	1	0.3901417	-0.02203339	-1.898522	0	12.42	4003	0	0	0	0	0.02	-0.1239792	1	10	0.04	1800	-1.972809	40.92383	-91.39362
773	30	-4	-2	0.3852187	-0.01898822	-1.901089	0	12.42	4003	0	0	0	0	0.02	-0.1152445	1	10	0.04	1800	-1.971283	40.92383	-91.39362
873	30	1	-1	0.3832525	-0.01656501	-1.90005	0	12.42	4002	0	0	0	0	0.02	-0.1111284	1	10	0.04	1800	-2.190277	40.92383	-91.39362
977	28	-2	1	0.3797444	-0.01384688	-1.900539	0	12.48	4002	0	0	0	0	0.02	-0.1138884	1	10	0.04	1800	-2.198578	40.92383	-91.39362
1092	26	-1	7	0.3805031	-0.0138339	-1.902251	0	12.48	4002	0	0	0	0	0.02	-0.1175679	1	10	0.04	1800	-2.183533	40.92383	-91.39362
1203	33	-5	-4	0.3869017	-0.01538192	-1.904757	0	12.48	4002	0	0	0	0	0.02	-0.1219535	1	10	0.04	1800	-1.9729	40.92383	-91.39362
1289	25	-5	5	0.3863457	-0.008361063	-1.906286	0	12.48	4004	0	0	0	0	0.02	-0.1355695	1	10	0.04	1800	-1.9729	40.92383	-91.39361
1394	30	-3	3	0.3878783	-0.009252538	-1.910321	0	12.48	4003	0	0	0	0	0.02	-0.1542391	1	10	0.04	1800	-2.194031	40.92383	-91.39361
1511	37	-2	0	0.3864177	-0.01298806	-1.912156	0	12.48	4004	0	0	0	0	0.02	-0.1632301	1	10	0.04	1800	-2.192596	40.92383	-91.39361
1600	28	-5	4	0.3914557	-0.009813572	-1.91399	0	12.48	4003	0	0	0	0	0.02	-0.1673065	1	10	0.04	1800	-1.970947	40.92383	-91.39361
1697	28	-3	3	0.3935473	-0.0120779	-1.915458	0	12.48	4002	0	0	0	0	0.02	-0.1648645	1	10	0.04	1800	-1.984039	40.92384	-91.39362
1809	30	-6	0	0.3980985	-0.01840718	-1.917292	0	12.48	4002	0	0	0	0	0.02	-0.1600646	1	10	0.04	1800	-1.997437	40.92383	-91.39361
1911	30	-2	5	0.3979923	-0.02212806	-1.919798	0	12.36	4002	0	0	0	0	0.02	-0.1531949	1	10	0.04	1800	-1.993774	40.92383	-91.39361
2007	33	-6	3	0.4009507	-0.0243855	-1.922122	0	12.36	4004	0	0	0	0	0.02	-0.1487918	1	10	0.04	1800	-1.99588	40.92383	-91.39361
2173	30	0	5	0.395645	-0.03157516	-1.926035	0	12.36	4004	0	0	0	0	0.02	-0.1578722	1	10	0.04	1800	-1.994385	40.92383	-91.39361
2296	35	-3	2	0.3949248	-0.03100086	-1.928481	0	12.36	4003	0	0	0	0	0.02	-0.1777653	1	10	0.04	1800	-2.209045	40.92383	-91.39361
2373	27	0	2	0.397278	-0.02813674	-1.929704	0	12.36	4003	0	0	0	0	0.02	-0.1896799	1	10	0.04	1800	-2.220673	40.92383	-91.39361
2448	28	1	0	0.3936851	-0.02250365	-1.934717	0	12.36	4002	0	0	0	0	0.02	-0.2038646	1	10	0.04	1800	-1.991058	40.92383	-91.39361
2491	32	-3	0	0.3939146	-0.02172346	-1.935145	0	12.36	4004	0	0	0	0	0.02	-0.2063309	1	10	0.04	1800	-1.991058	40.92383	-91.39361
2624	31	-4	4	0.3982992	-0.02413053	-1.93704	0	12.36	4004	0	0	0	0	0.02	-0.2105693	1	10	0.04	1800	-1.985901	40.92383	-91.39361
2694	30	-4	1	0.3971935	-0.01890137	-1.941075	0	12.36	4003	0	0	0	0	0.02	-0.2094937	1	10	0.04	1800	-1.988617	40.92383	-91.39361
2801	32	-1	2	0.4039601	-0.01401083	-1.94297	0	12.36	4002	0	0	0	0	0.02	-0.2008873	1	10	0.04	1800	-2.236969	40.92384	-91.39361
2904	30	-7	5	0.4025853	-0.01832359	-1.947555	0	12.42	4002	0	0	0	0	0.02	-0.1937026	1	10	0.04	1800	-2.001892	40.92384	-91.39361
3005	35	-1	0	0.3991302	-0.01602722	-1.949634	0	12.42	4004	0	0	0	0	0.02	-0.1939662	1	10	0.04	1800	-2.219635	40.92384	-91.39361
3251	25	-1	1	0.397522	-0.02970258	-1.953914	0	12.42	4002	0	0	0	0	0.02	-0.1985165	1	10	0.04	1800	-1.992493	40.92384	-91.39361
3399	25	-3	3	0.3962859	-0.03173793	-1.956971	0	12.42	4002	0	0	0	0	0.02	-0.2026013	1	10	0.04	1800	-1.985291	40.92384	-91.39361
3456	38	-10	0	0.3915502	-0.03066742	-1.956666	0	12.42	4002	0	0	0	0	0.02	-0.207682	1	10	0.04	1800	-1.988373	40.92384	-91.39361
3525	26	0	0	0.3905124	-0.03170547	-1.955748	0	12.42	4004	0	0	0	0	0.02	-0.2129591	1	10	0.04	1800	-1.981354	40.92384	-91.39361
3617	31	0	5	0.3951508	-0.02841089	-1.957888	0	12.42	4002	0	0	0	0	0.02	-0.2186992	1	10	0.04	1800	-1.755524	40.92384	-91.39361
3737	37	-7	0	0.3976372	-0.02631373	-1.961496	0	12.42	4003	0	0	0	0	0.02	-0.2231034	1	10	0.04	1800	-2.215027	40.92384	-91.39361
3815	35	0	1	0.4007379	-0.02230672	-1.963636	0	12.42	4003	0	0	0	0	0.02	-0.2245732	1	10	0.04	1800	-2.215027	40.92384	-91.39361
4004	33	-3	2	0.3989978	-0.02395425	-1.966937	0	12.42	4004	0	0	0	0	0.02	-0.2191136	1	10	0.04	1800	-2.214783	40.92384	-91.39361
4032	40	-3	0	0.399513	-0.0217619	-1.967488	0	12.42	4002	0	0	0	0	0.02	-0.2166698	1	10	0.04	1800	-2.214783	40.92384	-91.39361
4123	33	-6	1	0.3975921	-0.01678032	-1.969078	0	12.42	4004	0	0	0	0	0.02	-0.2103378	1	10	0.04	1800	-2.441803	40.92384	-91.39361
4218	28	-9	2	0.3929592	-0.01403735	-1.96975	0	12.42	4002	0	0	0	0	0.02	-0.1978838	1	10	0.04	1800	-1.986664	40.92384	-91.39361
4330	26	-3	0	0.3930986	-0.01252808	-1.972685	0	12.42	4003	0	0	0	0	0.02	-0.1925313	1	10	0.04	1800	-2.201691	40.92384	-91.39361
4431	20	-3	-1	0.3841079	-0.01103606	-1.973846	0	12.42	4004	0	0	0	0	0.02	-0.1764955	1	10	0.04	1800	-2.183502	40.92384	-91.39361
4537	30	0	2	0.3838889	-0.01257155	-1.97513	0	12.42	4002	0	0	0	0	0.02	-0.1726657	1	10	0.04	1800	-1.960815	40.92384	-91.39361
4643	36	-2	2	0.3842133	-0.01066336	-1.976537	0	12.42	4003	0	0	0	0	0.02	-0.1735821	1	10	0.04	1800	-2.190216	40.92384	-91.39361
4736	27	-4	2	0.3878115	-0.01664982	-1.978432	0	12.48	4003	0	0	0	0	0.02	-0.179268	1	10	0.04	1800	-2.195099	40.92384	-91.39361
4895	40	-3	1	0.3931625	-0.01311513	-1.982773	0	12.48	4004	0	0	0	0	0.02	-0.1935652	1	10	0.04	1800	-2.212036	40.92384	-91.39361
4959	30	-6	-1	0.3953963	-0.01407295	-1.98369	0	12.48	4003	0	0	0	0	0.02	-0.1984541	1	10	0.04	1800	-1.984344	40.92384	-91.39361
5052	36	0	3	0.3959686	-0.01323645	-1.986442	0	12.48	4004	0	0	0	0	0.02	-0.2001406	1	10	0.04	1800	-2.216919	40.92384	-91.39361
5142	39	1	3	0.3968728	-0.01703286	-1.98956	0	12.48	4004	0	0	0	0	0.02	-0.201614	1	10	0.04	1800	-2.219818	40.92384	-91.39362
5235	27	-2	2	0.3906769	-0.0166216	-1.991638	0	12.48	4004	0	0	0	0	0.02	-0.2038005	1	10	0.04	1800	-1.987701	40.92384	-91.39362
5412	34	-7	0	0.3925113	-0.02129037	-1.995857	0	12.48	4004	0	0	0	0	0.02	-0.2065952	1	10	0.04	1800	-1.975983	40.92384	-91.39362
5503	31	0	0	0.3900767	-0.02014063	-2.000381	0	12.48	4002	0	0	0	0	0.02	-0.2011708	1	10	0.04	1800	-2.201416	40.92384	-91.39361
5561	37	-6	4	0.3896332	-0.02189925	-2.000442	0	12.48	4003	0	0	0	0	0.02	-0.1952652	1	10	0.04	1800	-2.192047	40.92384	-91.39361
5612	29	-3	3	0.390848	-0.02239626	-2.001542	0	12.42	4002	0	0	0	0	0.02	-0.1916765	1	10	0.04	1800	-1.970642	40.92384	-91.39361
5722	30	-5	2	0.3913934	-0.0234751	-2.005393	0	12.42	4004	0	0	0	0	0.02	-0.1755221	1	10	0.04	1800	-1.975739	40.92384	-91.39361
5793	43	1	4	0.3963868	-0.02270458	-2.008327	0	12.42	4004	0	0	0	0	0.02	-0.1653427	1	10	0.04	1800	-1.977173	40.92384	-91.39361
5908	33	-2	-2	0.4012857	-0.02098244	-2.012118	0	12.42	4004	0	0	0	0	0.02	-0.1489133	1	10	0.04	1800	-2.222839	40.92384	-91.39362
6006	37	0	0	0.4004861	-0.01788982	-2.013891	0	12.42	4002	0	0	0	0	0.02	-0.1314555	1	10	0.04	1800	-1.99469	40.92384	-91.39362
6101	27	-4	-3	0.4022173	-0.02097245	-2.015419	0	12.42	4002	0	0	0	0	0.02	-0.1248231	1	10	0.04	1800	-2.001038	40.92384	-91.39362
6206	32	2	-1	0.3991629	-0.01387212	-2.018842	0	12.42	4004	0	0	0	0	0.02	-0.11787	1	10	0.04	1800	-1.992554	40.92384	-91.39362
6299	38	-6	0	0.4001348	-0.01277587	-2.020004	0	12.42	4002	0	0	0	0	0.02	-0.1184773	1	10	0.04	1800	-1.992554	40.92384	-91.39362
6417	28	1	3	0.39935	-0.01366744	-2.022449	0	12.42	4003	0	0	0	0	0.02	-0.1175897	1	10	0.04	1800	-1.772339	40.92384	-91.39362
6510	32	-2	1	0.398681	-0.0158142	-2.024405	0	12.42	4004	0	0	0	0	0.02	-0.1186611	1	10	0.04	1800	-1.998047	40.92384	-91.39362
6622	33	0	3	0.4027514	-0.01945201	-2.028257	0	12.42	4002	0	0	0	0	0.02	-0.1184742	1	10	0.04	1800	-1.995636	40.92384	-91.39361
6717	32	-4	1	0.3998834	-0.01849594	-2.030336	0	12.42	4002	0	0	0	0	0.02	-0.1172128	1	10	0.04	1800	-2.225464	40.92384	-91.39361
6826	28	-6	0	0.4011649	-0.02083197	-2.033392	0	12.42	4002	0	0	0	0	0.02	-0.1196104	1	10	0.04	1800	-2.220337	40.92384	-91.39361
6894	28	-5	5	0.3999625	-0.01878238	-2.033881	0	12.42	4002	0	0	0	0	0.02	-0.1165219	1	10	0.04	1800	-2.220337	40.92384	-91.39361
7004	37	-2	1	0.4049255	-0.01741094	-2.033759	0	12.42	4003	0	0	0	0	0.02	-0.1125837	1	10	0.04	1800	-1.998718	40.92384	-91.39361
7095	34	-3	2	0.4051287	-0.02152991	-2.036511	0	12.42	4002	0	0	0	0	0.02	-0.1139202	1	10	0.04	1800	-2.01178	40.92384	-91.39361
7204	33	0	5	0.4096138	-0.01872505	-2.038284	0	12.42	4004	0	0	0	0	0.02	-0.1222645	1	10	0.04	1800	-2.233429	40.92384	-91.39361
7300	25	0	1	0.4034082	-0.02023216	-2.040546	0	12.42	4002	0	0	0	0	0.02	-0.1316143	1	10	0.04	1800	-1.993011	40.92384	-91.39361
7403	41	-4	0	0.4067949	-0.02056818	-2.04568	0	12.42	4003	0	0	0	0	0.02	-0.1410461	1	10	0.04	1800	-2.00943	40.92384	-91.39361
7522	30	-2	3	0.4095997	-0.01932378	-2.047026	0	12.42	4002	0	0	0	0	0.02	-0.1492493	1	10	0.04	1800	-2.021423	40.92384	-91.39361
7616	31	-5	3	0.4101962	-0.01808245	-2.048493	0	12.42	4003	0	0	0	0	0.02	-0.159853	1	10	0.04	1800	-1.998291	40.92384	-91.39361
7762	32	0	3	0.4179041	-0.02026508	-2.049533	0	12.42	4004	0	0	0	0	0.02	-0.1781068	1	10	0.04	1800	-2.013702	40.92384	-91.39361
7812	23	3	0	0.4150755	-0.02307425	-2.049655	0	12.42	4002	0	0	0	0	0.02	-0.1847865	1	10	0.04	1800	-2.019287	40.92384	-91.39361
7915	38	-6	0	0.4192728	-0.02202714	-2.051122	0	12.42	4004	0	0	0	0	0.02	-0.1896559	1	10	0.04	1800	-2.025177	40.92384	-91.39361
8059	27	-5	2	0.4273445	-0.02166144	-2.050694	0	12.42	4003	0	0	0	0	0.02	-0.2065962	1	10	0.04	1800	-2.038818	40.92384	-91.39361
8118	34	0	0	0.4284355	-0.02849923	-2.051672	0	12.42	4004	0	0	0	0	0.02	-0.2093528	1	10	0.04	1800	-2.038818	40.92384	-91.39361
8222	32	-10	-2	0.4320891	-0.02634372	-2.054729	0	12.42	4004	0	0	0	0	0.02	-0.2063045	1	10	0.04	1800	-2.055481	40.92384	-91.39361
8352	34	-1	2	0.4308421	-0.02437811	-2.054729	0	12.42	4004	0	0	0	0	0.02	-0.208572	1	10	0.04	1800	-2.261139	40.92384	-91.39361
8426	33	-1	-5	0.4318593	-0.02720742	-2.055279	0	12.42	4003	0	0	0	0	0.02	-0.2162326	1	10	0.04	1800	-2.260376	40.92384	-91.39361
8593	37	-4	0	0.4385537	-0.0191064	-2.057663	0	12.42	4003	0	0	0	0	0.02	-0.2150401	1	10	0.04	1800	-2.275452	40.92384	-91.39361
8665	29	-2	3	0.432394	-0.0197744	-2.057969	0	12.42	4002	0	0	0	0	0.02	-0.2098858	1	10	0.04	1800	-2.046875	40.92384	-91.39361
8732	40	-2	3	0.4369743	-0.01865928	-2.058458	0	12.42	4003	0	0	0	0	0.02	-0.2091727	1	10	0.04	1800	-2.273468	40.92384	-91.39361
8873	29	1	4	0.4401171	-0.01474749	-2.061209	0	12.42	4003	0	0	0	0	0.02	-0.2092116	1	10	0.04	1800	-2.042328	40.92384	-91.39361
8960	29	-6	4	0.4424026	-0.007433956	-2.062126	0	12.42	4004	0	0	0	0	0.02	-0.2106946	1	10	0.04	1800	-2.28299	40.92384	-91.39361
9054	26	-4	0	0.4380507	-0.004770096	-2.062432	0	12.42	4003	0	0	0	0	0.02	-0.2096538	1	10	0.04	1800	-2.295563	40.92384	-91.39361
9219	38	-3	0	0.433016	-0.006424921	-2.06561	0	12.42	4002	0	0	0	0	0.02	-0.2108077	1	10	0.04	1800	-2.268341	40.92384	-91.39361
9260	37	-5	-3	0.430733	-0.009275555	-2.065182	0	12.42	4004	0	0	0	0	0.02	-0.2102094	1	10	0.04	1800	-2.047546	40.92384	-91.39361
9338	28	-4	3	0.4302112	-0.004208443	-2.066833	0	12.42	4004	0	0	0	0	0.02	-0.2127779	1	10	0.04	1800	-2.256989	40.92384	-91.39361
9460	30	-3	2	0.4247974	-0.009290709	-2.069034	0	12.42	4002	0	0	0	0	0.02	-0.2119716	1	10	0.04	1800	-2.039429	40.92384	-91.39361
9549	26	-6	0	0.4254612	-0.006188328	-2.06934	0	12.42	4002	0	0	0	0	0.02	-0.2179125	1	10	0.04	1800	-2.03244	40.92384	-91.39361
9648	32	-8	0	0.4262607	-0.008938169	-2.073375	0	12.42	4002	0	0	0	0	0.02	-0.2233591	1	10	0.04	1800	-2.029907	40.92384	-91.39361
9772	43	-5	1	0.4266119	-0.009752521	-2.076126	0	12.42	4004	0	0	0	0	0.02	-0.2298025	1	10	0.04	1800	-2.031189	40.92384	-91.39361
9849	39	-6	0	0.4247154	-0.01120963	-2.075882	0	12.42	4004	0	0	0	0	0.02	-0.2324754	1	10	0.04	1800	-2.035187	40.92384	-91.39361
10026	33	-8	0	0.4197073	-0.006972948	-2.078815	0	12.42	4002	0	0	0	0	0.02	-0.2453903	1	10	0.04	1800	-2.027252	40.92384	-91.39361
10073	31	-3	0	0.4191358	-0.001459021	-2.07906	0	12.42	4004	0	0	0	0	0.02	-0.2468831	1	10	0.04	1800	-2.021729	40.92384	-91.39361
10154	33	-4	6	0.4236912	-0.003734163	-2.079916	0	12.42	4004	0	0	0	0	0.02	-0.2495162	1	10	0.04	1800	-2.025452	40.92384	-91.39361
10313	39	-2	2	0.4152519	-0.01123194	-2.083277	0	12.42	4004	0	0	0	0	0.02	-0.2406761	1	10	0.04	1800	-2.242035	40.92384	-91.39361
10453	29	-5	2	0.4162159	-0.01450983	-2.084072	0	12.42	4003	0	0	0	0	0.02	-0.2253524	3	10	0.04	1800	-2.017212	40.92384	-91.39361
10530	28	-5	-1	0.4219169	-0.02377875	-2.085723	0	12.42	4003	0	0	0	0	0.02	-0.2128112	3	10	0.04	1800	-2.249298	40.92384	-91.39361
10569	30	-5	-2	0.4232123	-0.02314679	-2.085539	0	12.42	4003	0	0	0	0	0.02	-0.2021446	3	10	0.04	1800	-2.249298	40.92384	-91.39361
10635	40	-4	1	0.42484	-0.01969974	-2.086761	0	12.42	4004	0	0	0	0	0.02	-0.2005261	3	10	0.04	1800	-2.264374	40.92384	-91.39361
10783	39	-6	2	0.4299161	-0.02256211	-2.087373	0	12.42	4002	0	0	0	0	0.02	-0.1925421	3	10	0.04	1800	-2.044678	40.92384	-91.39361
10839	33	0	1	0.4300498	-0.01924646	-2.090247	0	12.42	4003	0	0	0	0	0.02	-0.1878765	3	10	0.04	1800	-2.051849	40.92384	-91.39361
10936	36	-3	-1	0.4281388	-0.02115208	-2.091042	0	12.42	4002	0	0	0	0	0.02	-0.1884948	3	10	0.04	1800	-2.03949	40.92384	-91.39361
11040	32	0	3	0.4290984	-0.0193325	-2.093365	0	12.42	4003	0	0	0	0	0.02	-0.1926509	3	10	0.04	1800	-2.027954	40.92384	-91.39361
11142	36	-1	4	0.429184	-0.0204981	-2.095077	0	12.42	4002	0	0	0	0	0.02	-0.2030572	3	10	0.04	1800	-2.039642	40.92384	-91.39361
11315	33	1	0	0.4354092	-0.02173792	-2.096362	0	12.42	4004	0	0	0	0	0.02	-0.2143251	3	10	0.04	1800	-2.057373	40.92384	-91.39361
11376	40	2	-3	0.4357115	-0.0183141	-2.097951	0	12.42	4003	0	0	0	0	0.02	-0.2171293	3	10	0.04	1800	-2.055481	40.92384	-91.39361
11442	29	-6	-1	0.4299172	-0.02070064	-2.097768	0	12.42	4004	0	0	0	0	0.02	-0.2200616	3	10	0.04	1800	-2.043274	40.92384	-91.39361
11549	34	-4	0	0.4277363	-0.0148817	-2.097646	0	12.42	4002	0	0	0	0	0.02	-0.2262907	3	10	0.04	1800	-2.262695	40.92384	-91.39361
11649	38	0	2	0.4270086	-0.005192201	-2.099113	0	12.42	4004	0	0	0	0	0.02	-0.2289422	3	10	0.04	1800	-2.036835	40.92384	-91.39361
11763	37	-2	1	0.4295523	0.00019623	-2.100214	0	12.42	4002	0	0	0	0	0.02	-0.2242884	3	10	0.04	1800	-2.249512	40.92384	-91.39361
11855	35	3	0	0.4261694	-0.004101455	-2.099908	0	12.42	4003	0	0	0	0	0.02	-0.2179019	3	10	0.04	1800	-2.266296	40.92384	-91.39361
12089	28	-2	0	0.422175	-0.0136089	-2.102781	0	12.48	4002	0	0	0	0	0.02	-0.1730835	3	10	0.04	1800	-2.263855	40.92384	-91.39361
12165	28	-5	3	0.4213695	-0.01048904	-2.105838	0	12.48	4004	0	0	0	0	0.02	-0.1450939	3	10	0.04	1800	-2.029724	40.92384	-91.3936
12307	35	-11	3	0.4230179	-0.01544326	-2.10761	0	12.48	4003	0	0	0	0	0.02	-0.1263356	3	10	0.04	1800	-2.473297	40.92384	-91.3936
12350	42	-6	2	0.4226386	-0.0166002	-2.107244	0	12.48	4002	0	0	0	0	0.02	-0.1249975	3	10	0.04	1800	-2.037567	40.92384	-91.3936
12454	37	0	3	0.4271592	-0.01603303	-2.108772	0	12.48	4004	0	0	0	0	0.02	-0.1247435	3	10	0.04	1800	-2.260651	40.92384	-91.3936
12545	31	-10	2	0.4279911	-0.01462939	-2.1092	0	12.48	4002	0	0	0	0	0.02	-0.1279033	3	10	0.04	1800	-2.036133	40.92384	-91.3936
12633	34	-4	0	0.4207545	-0.0157556	-2.109321	0	12.48	4002	0	0	0	0	0.02	-0.1278745	3	10	0.04	1800	-2.030792	40.92384	-91.3936
12731	38	-3	-3	0.409461	-0.0190926	-2.111155	0	12.48	4003	0	0	0	0	0.02	-0.1217845	3	10	0.04	1800	-2.02594	40.92384	-91.3936
12830	35	-4	1	0.4145629	-0.02095822	-2.11305	0	12.48	4003	-2	0	0	0	0.02	-0.1106297	3	10	0.04	1800	-2.23996	40.92384	-91.3936
12921	34	3	0	0.4066134	-0.02261705	-2.115373	0	12.48	4002	-2	0	0	0	0.02	-0.1054092	3	10	0.04	1800	-2.006348	40.92384	-91.3936
13041	30	-8	-28	0.4334614	-0.01793908	-2.13297	0	12.42	4003	-5	1	0	0	0.02	-0.09897196	3	10	0.04	1800	-1.826477	40.92384	-91.3936
13126	38	-49	17	0.4311751	-0.01867915	-2.126491	0	12.42	4004	-4	5	0	0	0.02	-0.08559691	3	10	0.04	1800	-2.090881	40.92384	-91.3936
13244	39	32	7	0.4456592	-0.01729652	-2.126492	0	12.42	4002	-3	-4	0	0	0.02	-0.07421356	3	10	0.04	1800	-2.2883	40.92384	-91.3936
13363	28	60	-43	0.4467121	-0.01380487	-2.122515	0	12.42	4002	-6	-4	1	0	0.02	-0.06437211	3	10	0.04	1800	-2.040558	40.92384	-91.3936
13435	44	45	-6	0.4704739	-0.02591671	-2.140122	0	12.42	4003	-2	-4	0	0	0.02	-0.0597539	3	10	0.04	1800	-1.860535	40.92384	-91.3936
13565	50	36	19	0.4712588	-0.02205999	-2.137549	0	12.42	4004	0	0	0	0	0.02	-0.05165218	3	10	0.04	1800	-3.143799	40.92384	-91.3936
13632	27	5	3	0.4513492	-0.02374922	-2.139137	0	12.42	4002	0	0	0	0	0.02	-0.04543075	3	10	0.04	1800	-2.479492	40.92384	-91.3936
13724	38	2	-6	0.4467038	-0.02104536	-2.143783	0	12.42	4002	0	0	0	0	0.02	-0.03995251	3	10	0.04	1800	-2.520844	40.92384	-91.3936
13830	39	-5	-46	0.4434052	-0.0242181	-2.144212	0	12.42	4002	0	0	0	0	0.02	-0.04113153	3	10	0.04	1800	-2.491455	40.92384	-91.3936
13936	34	24	20	0.4493611	-0.02009036	-2.145618	0	12.36	4003	0	0	0	0	0.02	-0.03985042	3	10	0.04	1800	-2.485168	40.92384	-91.3936
14036	28	-2	0	0.4408899	-0.01793306	-2.139324	0	12.36	4003	0	0	0	0	0.02	-0.04253927	3	10	0.04	1800	-2.512817	40.92384	-91.3936
14138	20	5	11	0.4530065	-0.02561658	-2.138163	0	12.36	4004	0	0	0	0	0.02	-0.05642128	3	10	0.04	1800	-2.278564	40.92384	-91.3936
14224	40	-49	-9	0.4423462	-0.0282349	-2.144399	0	12.36	4003	-3	3	1	0	0.02	-0.06513977	3	10	0.04	1800	-2.497894	40.92384	-91.3936
14334	59	7	-43	0.4513777	-0.02226049	-2.135168	0	12.36	4003	-5	-3	0	0	0.02	-0.07979099	3	10	0.04	1800	-2.534027	40.92385	-91.3936
14436	41	83	-50	0.4179436	-0.02369278	-2.147704	0	12.36	4002	-7	-10	0	0	0.02	-0.08538654	3	10	0.04	1800	-2.497925	40.92385	-91.3936
14522	14	28	-155	0.3904731	-0.008722695	-2.147028	0	12.36	4004	-2	-8	1	0	0.02	-0.08750368	3	10	0.04	1800	-2.4841	40.92385	-91.3936
14653	5	-104	-101	0.3538604	-0.00566544	-2.18022	0	12.36	4002	-6	-13	0	0	0.02	-0.08675992	3	10	0.04	1800	-2.71582	40.92385	-91.3936
14725	96	-31	-34	0.3419285	0.00252233	-2.185905	0	12.36	4003	-24	-3	0	0	0.02	-0.08702914	3	10	0.04	1800	-1.693298	40.92385	-91.3936
14830	82	-165	17	0.3739186	-0.00789187	-2.181078	0	12.42	4003	-16	-1	0	0	0.02	-0.08057581	3	10	0.04	1800	-2.467834	40.92385	-91.3936
14933	59	42	-24	0.314042	0.03926455	-2.201742	0	12.42	4004	-10	-15	0	0	0.02	-0.07336753	3	10	0.04	1800	-2.124847	40.92385	-91.3936
15115	-3	-52	99	0.2255312	0.05974781	-2.223104	0	12.42	4004	-44	5	2	0	0.02	-0.03464241	3	10	0.04	1800	-2.038055	40.92385	-91.3936
15161	-41	71	142	0.1422191	0.03718336	-2.249762	0	12.42	4003	-34	12	0	0	0.02	-0.02981251	3	10	0.04	1800	-1.758942	40.92385	-91.3936
15374	-81	-75	-128	0.0178976	0.07185291	-2.285364	0	12.42	4003	59	10	3	0	0.02	0.01392131	3	10	0.04	1800	-2.508636	40.92384	-91.3936
15566	54	113	11	-0.144834	0.05958865	-2.36075	0	12.42	4002	26	-4	5	0	0.02	0.0308221	3	10	0.04	1800	-1.597961	40.92384	-91.39359
15725	58	24	52	-0.224768	0.1317629	-2.397924	0	12.36	4002	27	3	5	0	0.02	0.03622253	3	10	0.04	1800	-1.233093	40.92384	-91.39359
15816	47	89	90	-0.2805271	0.1236347	-2.393207	0	12.36	4004	1	-4	5	0	0.02	0.03665634	3	10	0.04	1800	-0.5393372	40.92384	-91.39359
15921	59	6	94	-0.1503907	0.04687299	-2.375164	0	12.36	4003	-25	6	5	0	0.02	0.0368741	3	10	0.04	1800	-1.455444	40.92384	-91.39359
16049	-164	4	147	-0.05178821	0.01747548	-2.398267	0	12.36	4003	-18	14	7	0	0.02	0.04195501	3	10	0.04	1800	-1.309204	40.92384	-91.39359
16124	65	10	-193	-0.037281	0.007128122	-2.404008	0	12.36	4004	10	10	8	0	0.02	0.0405065	3	10	0.04	1800	-1.736511	40.92384	-91.39359
16311	-29	59	-24	-0.01097143	0.02189512	-2.44986	0	12.36	4003	7	-6	6	0	0.02	0.04923743	3	10	0.04	1800	-1.124695	40.92384	-91.39359
16368	-22	31	7	-0.06868827	0.03197208	-2.456402	0	12.36	4004	8	3	6	0	0.02	0.04824751	3	10	0.04	1800	-1.124695	40.92384	-91.39359
16415	50	5	130	-0.03946353	0.02722183	-2.475857	0	12.36	4004	-30	1	8	0	0.02	0.04489545	3	10	0.04	1800	-2.051636	40.92384	-91.39359
16561	80	39	125	-0.07881628	0.03849057	-2.499702	0	12.36	4003	-50	21	9	0	0.02	0.04308969	3	10	0.04	1800	-1.766266	40.92385	-91.39359
16622	-79	-111	-60	-0.0442079	0.08421928	-2.506732	0	12.42	4002	19	-8	9	0	0.02	0.04133892	3	10	0.04	1800	-1.704681	40.92385	-91.39359
16714	93	4	-74	0.002113749	0.06751958	-2.525259	0	12.42	4002	63	-5	9	0	0.02	0.02858343	3	10	0.04	1800	-1.601379	40.92385	-91.39359
16819	227	-58	238	0.01422871	0.06497074	-2.550445	0	12.42	4003	1	-30	10	0	0.02	0.01810888	3	10	0.04	1800	-1.604523	40.92385	-91.39359
16920	137	-62	-31	0.03479141	0.06066349	-2.566518	0	12.42	4002	-23	-3	8	0	0.02	0.006021639	3	10	0.04	1800	-1.591461	40.92385	-91.39359
17052	86	0	121	0.03926302	0.05910018	-2.596955	0	12.42	4004	-24	11	8	0	0.02	-0.005507112	3	10	0.04	1800	-1.694672	40.92385	-91.39359
17126	80	-54	-206	-0.02333539	0.08430261	-2.635783	0	12.42	4004	-10	2	16	0	0.02	-0.01382735	3	10	0.04	1800	-1.410431	40.92385	-91.39359
17308	192	-167	304	-0.09162172	0.06602673	-2.729499	0	12.42	4004	8	8	14	0	0.02	-0.006037612	3	10	0.04	1800	-1.483337	40.92385	-91.39359
17392	-136	-75	56	-0.1003003	-0.002054736	-2.80996	0	12.42	4003	-54	11	13	0	0.02	0.02349256	3	10	0.04	1800	-1.291534	40.92385	-91.39359
17449	10	-193	844	0.002798572	-0.02962742	-2.946737	0	12.42	4003	-16	47	19	0	0.02	0.04337928	3	10	0.04	1800	-1.845459	40.92385	-91.39359
17519	-422	-19	303	-0.01792303	-0.009808147	-3.283152	0	12.36	4004	-18	25	27	0	0.02	0.0544196	3	10	0.04	1800	-1.912537	40.92385	-91.39359
17599	73	233	92	-0.3310993	-0.3261237	-3.541251	0	12.36	4004	-41	-40	29	0	0.02	0.08356112	3	10	0.04	1800	-0.07290649	40.92385	-91.39359
17785	61	663	-1252	2.084592	-3.276173	-2.73243	0	12.36	4003	30	-219	8	0	0.02	0.1133064	3	10	0.04	1800	-1.703827	40.92385	-91.39359
17841	-424	1690	-3	0.8380132	-5.484044	-2.448389	0	12.36	4003	40	136	11	0	0.02	0.1373902	3	10	0.04	1800	-0.1715088	40.92385	-91.39359
17957	1409	4019	-53	0.3858	-8.979822	-2.166055	0	12.36	4002	-32	-365	-15	0	0.02	0.1646196	3	10	0.04	1800	-1.300323	40.92385	-91.39359
17994	1147	-261	-1651	0.4339883	-10.08311	-1.61039	0	12.36	4003	-67	-200	15	0	0.02	0.1922964	3	10	0.04	1800	-0.7762756	40.92385	-91.39359
18071	-1058	459	518	-0.4240497	-12.44963	-0.337227	0	12.36	4002	-92	-97	60	0	0.02	0.2215814	3	10	0.04	1800	-0.7356262	40.92385	-91.39359
18216	2320	-2253	-3833	-0.6579489	-8.192554	4.746398	0	12.36	4004	113	-42	28	0	0.02	0.2779559	3	10	0.04	1800	-1.454254	40.92385	-91.39359
18278	3776	-1148	-3905	3.252773	-4.440976	11.31981	0	12.36	4004	-66	153	-5	0	0.02	0.2994879	3	10	0.04	1800	-6.829224	40.92385	-91.39359
18387	2834	-2245	-2584	6.104284	-3.405542	15.4705	0	12.36	4003	9	-44	-17	0	0.02	0.3479055	3	10	0.04	1800	-9.281006	40.92385	-91.39359
18591	1284	-2480	-3504	11.21694	-1.447199	26.65029	0	11.4	4003	-50	65	-2	0	0.02	0.4404064	3	10	0.04	1800	-10.83585	40.92384	-91.39359
18765	-2055	-2610	-3233	8.579272	-0.1106724	35.4691	0	11.4	4002	7	-72	-12	0	0.02	0.5563275	3	10	0.04	1800	-10.71216	40.92384	-91.39359
18827	-1410	-4438	-2736	5.529289	2.913616	38.79562	0	11.4	4003	24	-58	-9	0	0.02	0.592788	3	10	0.04	1800	-10.71216	40.92384	-91.39359
18984	-75	-2653	-1719	2.573421	7.492793	45.2794	0	11.4	4004	-56	42	-20	0	0.02	0.6708401	3	10	0.04	1800	-19.33005	30.08868	-68.98586
19089	-2728	2910	-703	1.450074	5.667271	48.96498	0	11.4	4004	-11	232	2	0	0.02	0.7105775	3	10	0.04	1800	-30.43378	29.02575	-66.78766
19155	-3545	2405	-3587	-1.652312	1.224917	51.08485	0	11.4	4003	76	-144	-34	0	0.02	0.7426969	3	10	0.04	1800	-36.5947	39.85301	-89.17905
19274	-1738	3146	227	-6.496226	-3.525895	53.70185	0	11.63	4003	140	209	-3	0	0.02	0.7792504	3	10	0.04	1800	-52.94351	40.89492	-91.33379
19403	-1478	-3021	-653	-14.50402	-0.1038083	56.6474	0	11.63	4003	128	238	31	0	0.02	0.8253041	3	10	0.04	1800	-47.51718	40.92381	-91.39353
19645	-917	-1721	-1441	-11.0306	-1.104044	65.03876	0	11.63	4002	-86	-15	-31	0	0.02	0.8785856	3	10	0.04	1800	-81.75345	40.92383	-91.39358
19745	-2973	-2629	-623	-11.99757	1.629433	66.34348	0	11.63	4002	34	-46	-13	0	0.02	0.8931894	3	10	0.04	1800	-86.86569	40.92383	-91.39358
19806	-2467	-62	-269	-15.44947	3.846	68.00558	0	11.63	4003	0	-65	-3	0	0.02	0.9069362	3	10	0.04	1800	-96.19415	40.92383	-91.39358
19978	-599	1136	-1555	-16.01756	-0.6208959	71.22121	0	11.63	4004	120	38	14	0	0.02	0.9450248	3	10	0.04	1800	257.4466	40.92383	-91.39358
20037	973	-316	-2312	-14.24769	-1.47164	72.81293	0	11.63	4004	-57	-150	3	0	0.02	0.9504335	3	10	0.04	1800	251.9055	40.92383	-91.39358
20098	-137	-2344	-2403	-13.13384	-2.522547	74.7246	0	11.63	4008	-103	122	15	0	0.02	0.9531109	3	10	0.04	1800	250.2555	40.92383	-91.39358
20205	483	1357	-883	-10.63809	-1.52111	77.31479	0	10.09	4004	10	-148	-14	0	0.02	0.96013	3	10	0.04	1800	245.3279	40.92383	-91.39358
20369	-524	1033	-301	-7.191906	-5.711496	80.3534	0	10.09	4004	-77	-123	-6	0	0.02	0.9625233	3	10	0.04	1800	244.6154	40.92383	-91.39359
20431	-320	1605	-663	-7.094134	-6.940632	80.65538	0	10.09	4003	-6	-79	-1	0	0.02	0.9577004	3	10	0.04	1800	244.2556	40.92383	-91.39359
20525	591	-883	-1287	-6.552326	-6.643192	82.6196	0	10.09	4004	-4	86	-7	0	0.02	0.9572108	3	10	0.04	1800	239.9662	40.92383	-91.39359
20664	-1976	-299	-1431	-7.067568	-6.020537	84.43736	0	10.09	4003	21	-59	-24	0	0.02	0.9554341	3	10	0.04	1800	240.0094	40.92383	-91.39359
20691	-3018	159	-882	-9.602392	-6.108973	84.96746	0	10.09	4002	33	35	-17	0	0.02	0.9561241	3	10	0.04	1800	238.1438	40.92383	-91.39359
20796	-1151	-379	-451	-11.12038	-6.830154	85.99041	0	10.09	4003	8	-139	-19	0	0.02	0.9594834	3	10	0.04	1800	237.3548	40.92382	-91.39359
20936	0	189	-1982	-12.12218	-6.509282	87.02128	0	10.09	4004	-131	-23	-30	0	0.02	0.9665928	3	10	0.04	1800	240.6318	40.92382	-91.3936
20995	952	81	-820	-10.36482	-6.123531	87.82922	0	10.09	4003	-16	156	-18	0	0.02	0.9673122	3	10	0.04	1800	239.0256	40.92382	-91.3936
21097	1528	-1647	-529	-7.698375	-4.6891	88.48783	0	11.74	4002	-22	-102	-22	0	0.02	0.9649199	3	10	0.04	1800	240.0947	40.92382	-91.3936
21193	-1438	-363	84	-5.216875	-3.53241	88.94032	0	11.74	4002	74	-108	4	0	0.02	0.957773	3	10	0.04	1800	238.0773	40.92382	-91.3936
21299	-4935	1993	-886	-11.14758	-4.300827	89.36069	0	11.74	4002	-13	170	55	0	0.02	0.9399558	3	10	0.04	1800	239.948	40.92383	-91.39361
21404	-3765	5119	-974	-14.81181	-7.997281	92.34913	0	11.74	4004	49	-89	-10	0	0.02	0.9286826	3	10	0.04	1800	236.9017	40.92383	-91.39362
21503	-663	7323	422	-16.24354	-14.67918	94.64194	0	11.74	4002	34	84	-20	0	0.02	0.9148972	3	10	0.04	1800	236.8384	40.92383	-91.39362
21613	2946	173	104	-12.15593	-18.2927	95.43948	0	11.74	4003	93	96	-15	0	0.02	0.9076326	3	10	0.04	1800	241.5949	40.92383	-91.39362
21711	5225	-1460	-1811	-5.20062	-14.52092	96.15741	0	11.74	4004	-99	-238	0	0	0.02	0.9045734	3	10	0.04	1800	243.0703	40.92384	-91.39362
21792	4969	-1420	-466	3.465598	-12.44452	95.74563	0	11.74	4003	-11	-126	-5	0	0.02	0.9036963	3	10	0.04	1800	246.2163	40.92384	-91.39363
21903	3572	534	445	9.219152	-11.03829	95.60979	0	11.74	4002	23	0	13	0	0.02	0.901333	3	10	0.04	1800	247.1206	40.92384	-91.39363
21992	3121	803	-804	11.75123	-10.44497	95.60924	0	11.85	4002	50	-21	16	0	0.02	0.9022497	3	10	0.04	1800	248.11	40.92385	-91.39364
22104	1846	2883	-585	15.16074	-12.12688	95.91954	0	11.85	4004	0	-62	4	0	0.02	0.9010185	3	10	0.04	1800	248.4711	40.92385	-91.39364
22190	4295	2378	365	17.57932	-14.5607	96.22864	0	11.85	4002	-84	138	2	0	0.02	0.8969395	3	10	0.04	1800	246.7909	40.92386	-91.39364
22273	827	4671	70	18.1032	-17.81722	95.78756	0	11.85	4003	-84	86	30	0	0.02	0.882708	3	10	0.04	1800	252.0865	40.92386	-91.39364
22443	-3002	-3	-486	9.430641	-11.21596	97.39835	0	11.85	4003	-25	-351	-7	0	0.02	0.8631775	3	10	0.04	1800	257.4496	40.92386	-91.39365
22506	-2586	-2516	-272	5.678609	-9.030294	98.34809	0	11.85	4004	46	48	-26	0	0.02	0.856024	3	10	0.04	1800	255.0805	40.92386	-91.39365
22573	-4841	-4394	-555	1.110063	-5.829548	99.15292	0	11.85	4003	-9	-30	-46	0	0.02	0.8393856	3	10	0.04	1800	253.8726	40.92387	-91.39365
22663	-5051	-6907	246	-6.987113	4.36696	99.77897	0	11.85	4004	-4	-84	-30	0	0.02	0.8275439	3	10	0.04	1800	247.2595	40.92387	-91.39365
22761	-1194	189	1395	-11.61422	9.759586	98.67782	0	11.85	4003	-24	-40	-19	0	0.02	0.8155311	3	10	0.04	1800	236.1912	40.92385	-91.39365
22904	34	1307	1055	-11.17666	6.057361	97.67432	0	11.63	4004	70	53	30	0	0.02	0.8064368	3	10	0.04	1800	233.8745	40.92385	-91.39365
22963	462	-285	-747	-8.840583	1.601889	97.55333	0	11.63	4004	70	-301	-1	0	0.02	0.79724	3	10	0.04	1800	232.7881	40.92385	-91.39365
23085	-2027	1768	-1702	-10.05099	-2.635906	98.27904	0	11.63	4002	57	-121	-29	0	0.02	0.7780352	3	10	0.04	1800	229.0618	40.92385	-91.39365
23162	644	767	-2159	-9.902384	-5.275683	98.78679	0	11.63	4003	-63	-42	4	0	0.02	0.7704954	3	10	0.04	1800	233.9228	40.92385	-91.39365
23251	1069	3040	389	-5.444153	-10.81865	98.62669	0	11.63	4003	80	-25	-35	0	0.02	0.7558465	3	10	0.04	1800	239.6612	40.92385	-91.39365
23466	2391	-110	-19	4.144606	-11.43211	98.47084	0	11.63	4004	37	-62	-9	0	0.02	0.7510408	3	10	0.04	1800	244.9427	40.92386	-91.39365
23623	1733	-306	-62	7.667066	-11.30106	98.33702	0	11.63	4004	-126	-16	-4	0	0.02	0.751545	3	10	0.04	1800	245.5601	40.92386	-91.39366
23685	162	-1045	903	7.809723	-10.65042	98.26541	0	11.63	4003	-37	-60	-2	0	0.02	0.7459942	3	10	0.04	1800	245.5601	40.92386	-91.39366
23752	-1038	-2911	-550	3.769836	-7.946161	98.22796	0	12.02	4004	-41	-154	-18	0	0.02	0.7388869	3	10	0.04	1800	244.5718	40.92386	-91.39366
23855	-1417	-1641	120	1.773419	-5.197503	97.69213	0	12.02	4003	-25	133	25	0	0.02	0.7334625	3	10	0.04	1800	236.1997	40.92386	-91.39366
24049	388	-980	941	-2.213279	-7.270808	96.00349	0	12.02	4003	-47	-127	25	0	0.02	0.692485	3	10	0.04	1800	245.2281	40.92387	-91.39366
24085	-188	-3340	-851	-2.325055	-6.321263	96.03064	0	12.02	4003	-112	-142	45	0	0.02	0.6849137	3	10	0.04	1800	245.2281	40.92387	-91.39366
24159	-1851	-3929	-1471	-3.769561	-3.886915	95.98596	0	12.02	4003	6	-196	51	0	0.02	0.6581032	3	10	0.04	1800	243.8713	40.92387	-91.39366
24288	370	2159	1205	-7.497729	-2.142723	95.6735	0	12.02	4002	3	157	71	0	0.02	0.5814073	3	10	0.04	1800	239.0257	40.92387	-91.39366
24366	1451	113	973	-5.469284	-3.077402	95.63075	0	12.02	4004	-48	47	61	0	0.02	0.5650874	3	10	0.04	1800	240.8401	40.92387	-91.39367
24461	1717	-1113	-1806	-3.393675	-2.74777	96.87648	0	12.02	4004	27	-143	-7	0	0.02	0.5436147	3	10	0.04	1800	240.542	40.92387	-91.39367
24616	330	-2160	-2009	-2.888963	-2.239169	98.10203	0	12.02	4003	48	-62	0	0	0.02	0.4916655	3	10	0.04	1800	234.9829	40.92387	-91.39367
24648	-303	-768	-125	-2.754879	-1.900509	97.9185	0	12.02	4002	70	-48	4	0	0.02	0.4821871	3	10	0.04	1800	234.9829	40.92387	-91.39367
24732	675	764	-874	-3.588183	-4.418143	96.12704	0	11.34	4002	157	26	34	0	0.02	0.451039	3	10	0.04	1800	234.3419	40.92387	-91.39367
24885	347	148	422	-2.654608	-5.210358	96.82682	0	11.34	4005	-95	71	27	0	0.02	0.3929407	3	10	0.04	1800	235.5793	40.92387	-91.39367
24941	-824	785	-73	-3.334984	-5.457518	98.29316	0	11.34	4003	-5	180	8	0	0.02	0.3786581	3	10	0.04	1800	233.607	40.92387	-91.39367
25087	6628	-825	231	-3.505321	-6.722229	98.76112	0	11.34	4003	0	0	0	0	0.02	0.326126	3	10	0.04	1800	235.4654	40.92387	-91.39367
25246	-282	-959	-1085	-2.495758	-4.227066	104.9508	0	11.34	4002	0	0	0	0	0.02	0.2216479	3	10	0.04	1800	231.784	40.92387	-91.39368
25345	116	318	-180	-1.871598	-2.842768	104.7006	0	11.34	4003	0	0	0	0	0.02	0.1682438	3	10	0.04	1800	233.7932	40.92387	-91.39368
25446	38	58	-114	-1.569334	-2.648717	104.6677	0	11.34	4004	0	0	0	0	0.02	0.1191867	3	10	0.04	1800	237.7335	40.92387	-91.39368
25548	-21	-8	-39	-1.508866	-2.526582	104.6749	0	11.34	4004	0	0	0	0	0.02	0.05890148	3	10	0.04	1800	238.0083	40.92387	-91.39368
25743	-38	-12	71	-1.261107	-2.263515	104.6233	0	12.08	4002	0	0	0	0	0.02	-0.003466529	3	10	0.04	1800	237.6351	40.92387	-91.39368
25797	16	18	-60	-1.199113	-2.208617	104.618	0	12.08	4004	0	0	0	0	0.02	-0.01010039	3	10	0.04	1800	238.9412	40.92387	-91.39368
25846	-10	12	34	-1.172626	-2.205225	104.6062	0	12.08	4002	0	0	0	0	0.02	-0.02840589	3	10	0.04	1800	238.9412	40.92387	-91.39368
25949	-11	-15	23	-1.059037	-2.049911	104.5781	0	12.08	4004	0	0	0	0	0.02	-0.04921297	3	10	0.04	1800	239.4113	40.92387	-91.39368
26070	-12	11	-15	-0.9979108	-1.973525	104.5593	0	12.08	4003	0	0	0	0	0.02	-0.08166905	3	10	0.04	1800	239.5154	40.92387	-91.39368
26176	-8	-8	15	-0.9197081	-1.875633	104.5379	0	12.08	4003	0	0	0	0	0.02	-0.09749526	3	10	0.04	1800	239.4488	40.92387	-91.39367
26299	-12	13	87	-0.8706812	-1.8144	104.5253	0	12.08	4002	0	0	0	0	0.02	-0.140233	3	10	0.04	1800	240.2471	40.92387	-91.39367
26413	4	-27	-8	-0.8285052	-1.748394	104.5091	0	12.08	4003	0	0	0	0	0.02	-0.1663592	3	10	0.04	1800	240.6283	40.92385	-91.39367
26487	4	2	-16	-0.7747358	-1.686472	104.4878	0	12.19	4004	0	0	0	0	0.02	-0.1976525	3	10	0.04	1800	239.3451	40.92385	-91.39367
26543	-16	-1	-47	-0.7510752	-1.685844	104.4842	0	12.19	4003	0	0	0	0	0.02	-0.2053683	3	10	0.04	1800	240.9302	40.92385	-91.39367
26715	1	-10	38	-0.6936236	-1.619357	104.4584	0	12.19	4002	0	0	0	0	0.02	-0.2287086	3	10	0.04	1800	241.4224	40.92385	-91.39366
26928	-11	0	-2	-0.6256843	-1.553756	104.4191	0	12.19	4003	0	0	0	0	0.02	-0.2423399	3	10	0.04	1800	242.0236	40.92385	-91.39366
27016	-20	-3	7	-0.6011441	-1.534655	104.404	0	12.19	4003	0	0	0	0	0.02	-0.2517612	3	10	0.04	1800	242.0804	40.92385	-91.39366
27046	-13	-1	21	-0.5934927	-1.528953	104.3987	0	12.19	4004	0	0	0	0	0.02	-0.254416	3	10	0.04	1800	242.0804	40.92385	-91.39366
27126	-10	-5	13	-0.5823266	-1.512794	104.3871	0	12.19	4002	0	0	0	0	0.02	-0.2556013	3	10	0.04	1800	242.5718	40.92385	-91.39366
27276	-11	-4	10	-0.5597326	-1.487039	104.3616	0	12.19	4002	0	0	0	0	0.02	-0.2606237	3	10	0.04	1800	243.1267	40.92385	-91.39366
27440	-13	0	5	-0.5377014	-1.466176	104.3425	0	12.19	4003	0	0	0	0	0.02	-0.2602553	3	10	0.04	1800	243.0261	40.92385	-91.39366
27566	-17	0	10	-0.5163302	-1.447318	104.3165	0	12.19	4004	0	0	0	0	0.02	-0.2527612	3	10	0.04	1800	242.5099	40.92385	-91.39366
27622	-12	-3	12	-0.5112743	-1.446736	104.3115	0	12.19	4003	0	0	0	0	0.02	-0.2476121	3	10	0.04	1800	242.5099	40.92385	-91.39366
27732	-10	-3	9	-0.4909051	-1.435812	104.2909	0	12.19	4003	0	0	0	0	0.02	-0.2402661	3	10	0.04	1800	243.1545	40.92385	-91.39366
27825	-10	0	9	-0.4816085	-1.434819	104.2818	0	12.19	4002	0	0	0	0	0.02	-0.240047	3	10	0.04	1800	242.5706	40.92384	-91.39365
27923	-11	-2	8	-0.4758222	-1.431216	104.2672	0	12.19	4003	0	0	0	0	0.02	-0.2359908	3	10	0.04	1800	242.8951	40.92384	-91.39365
28059	-15	-1	8	-0.4636721	-1.418947	104.248	0	12.19	4002	0	0	0	0	0.02	-0.2260011	3	10	0.04	1800	242.9052	40.92384	-91.39365
28198	-10	-3	7	-0.4539669	-1.406496	104.2291	0	12.19	4004	0	0	0	0	0.02	-0.2302766	3	10	0.04	1800	243.3879	40.92384	-91.39365
28339	-13	0	9	-0.4391269	-1.403166	104.2026	0	12.19	4004	0	0	0	0	0.02	-0.2347162	3	10	0.04	1800	242.8438	40.92384	-91.39365
28443	-11	-5	12	-0.4361031	-1.399702	104.1933	0	12.19	4003	0	0	0	0	0.02	-0.2302233	3	10	0.04	1800	242.8494	40.92384	-91.39365
28523	-11	0	10	-0.4359742	-1.401142	104.1736	0	12.19	4003	0	0	0	0	0.02	-0.220392	3	10	0.04	1800	243.1425	40.92384	-91.39365
28708	-10	-2	9	-0.4354092	-1.395823	104.1552	0	12.19	4002	0	0	0	0	0.02	-0.207587	3	10	0.04	1800	242.7029	-42.42708	-6.100825
28734	-10	-2	6	-0.4350254	-1.393483	104.15	0	12.19	4004	0	0	0	0	0.02	-0.2066804	1	10	0.04	1800	243.1636	-44.04613	-4.444058
28823	-18	0	12	-0.4283933	-1.388147	104.1322	0	12.19	4004	0	0	0	0	0.02	-0.2008836	1	10	0.04	1800	242.8827	-44.67756	-3.797918
28919	-7	-2	12	-0.4287332	-1.388723	104.1226	0	12.19	4004	0	0	0	0	0.02	-0.1937926	1	10	0.04	1800	242.7197	-44.73832	-3.73574
29023	-11	-2	10	-0.4237125	-1.391011	104.1035	0	12.19	4004	0	0	0	0	0.02	-0.1972332	1	10	0.04	1800	242.8757	-44.73996	-3.734061
29127	-9	-4	7	-0.4206305	-1.389924	104.0898	0	12.19	4002	0	0	0	0	0.02	-0.2035301	1	10	0.04	1800	242.8814	-44.74001	-3.734016
29266	-9	-3	9	-0.4215313	-1.388569	104.0757	0	12.25	4003	0	0	0	0	0.02	-0.207962	1	10	0.04	1800	243.0229	-44.74001	-3.734015
29357	-15	-4	10	-0.4203959	-1.386412	104.0605	0	12.25	4002	0	0	0	0	0.02	-0.2086862	1	10	0.04	1800	242.8795	-44.74001	-3.734015
29421	-13	-4	8	-0.4213376	-1.387542	104.0529	0	12.25	4004	0	0	0	0	0.02	-0.2090606	1	10	0.04	1800	242.7305	-44.74001	-3.734015
29573	-17	0	9	-0.4199989	-1.380564	104.024	0	12.25	4004	0	0	0	0	0.02	-0.2245013	1	10	0.04	1800	242.8989	-44.74001	-3.734015
29623	-14	0	10	-0.420847	-1.381615	104.0184	0	12.25	4002	0	0	0	0	0.02	-0.2283999	1	10	0.04	1800	242.9057	-44.74001	-3.734015
29731	-12	-3	4	-0.4214869	-1.381634	104.004	0	12.25	4004	0	0	0	0	0.02	-0.2283989	1	10	0.04	1800	243.0508	-44.74001	-3.734015
29759	-12	-1	7	-0.4167821	-1.377475	103.9948	0	12.25	4003	0	0	0	0	0.02	-0.2291548	1	10	0.04	1800	243.203	-44.74001	-3.734015
29861	-12	-3	6	-0.4135203	-1.381472	103.9808	0	12.25	4003	0	0	0	0	0.02	-0.2336076	1	10	0.04	1800	243.2079	-44.74001	-3.734015
29964	-18	16	43	-0.3995106	-1.371325	103.9749	0	12.25	4003	0	0	0	0	0.02	-0.2315272	1	10	0.04	1800	242.9161	-44.74001	-3.734015
30063	-13	17	36	-0.4078538	-1.386307	103.8845	0	12.25	4004	0	0	0	0	0.02	-0.2287006	1	10	0.04	1800	243.0536	-44.74001	-3.734015
30168	-26	7	-17	-0.4343161	-1.402685	103.8148	0	12.31	4002	0	0	0	0	0.02	-0.223557	1	10	0.04	1800	242.4029	-44.74001	-3.734015
30291	-2236	277	-1198	-2.159057	-1.625292	104.2276	0	12.31	4004	0	0	0	0	0.02	-0.2124855	1	10	0.04	1800	243.854	-44.74001	-3.734015
30342	-963	-891	-1633	-3.1712	-1.515564	105.0481	0	12.31	4003	0	0	0	0	0.02	-0.2073114	1	10	0.04	1800	241.7386	-44.74001	-3.734015
30440	2074	-145	-507	-1.542893	0.6895182	106.9511	0	12.31	4002	0	0	0	0	0.02	-0.2014529	1	10	0.04	1800	238.2561	-44.74001	-3.734015
30570	-505	1831	-862	1.278076	-0.9498234	107.7131	0	12.31	4003	0	0	0	0	0.02	-0.1860971	1	10	0.04	1800	237.5063	-44.74001	-3.734015
30649	-577	3144	-1092	0.6954764	-3.289137	108.8185	0	12.31	4003	0	0	0	0	0.02	-0.1603766	1	10	0.04	1800	238.6233	-44.74001	-3.734015
30758	-1835	883	1443	0.4154157	-7.913047	109.0228	0	12.31	4003	0	0	0	0	0.02	-0.1426618	1	10	0.04	1800	245.6574	-44.74001	-3.734015
30848	-2318	76	2428	-1.222569	-7.199831	106.7882	0	12.31	4002	0	0	0	0	0.02	-0.1119997	1	10	0.04	1800	250.5361	-44.74001	-3.734015
30944	-2538	9	2987	-2.924564	-6.388372	101.6373	0	12.31	4004	0	0	0	0	0.02	-0.09771385	1	10	0.04	1800	258.3777	-44.74001	-3.734015
31106	-4426	-2160	1261	-12.40854	-1.882483	95.84229	0	12.31	4003	0	0	0	0	0.02	-0.03618226	1	10	0.04	1800	-90.43094	-44.74001	-3.734015
31264	3700	-1931	102	-12.57518	6.566432	95.14839	0	12.31	4004	0	0	0	0	0.02	0.02154863	1	10	0.04	1800	-87.33682	-44.74001	-3.734015
