time(ms)	gyro_x(deg/s)	gyro_y(deg/s)	gyro_z(deg/s)	orientation_roll(deg)	orientation_pitch(deg)	orientation_yaw(deg)	throttle	battery(V)	loop_time(uS)	pid_output_roll	pid_output_pitch	pid_output_yaw	pid_output_throttle	ultrasonic_alt	baro_alt	flight_mode	p_gain_altitude	i_gain_altitude	d_gain_altitude	compass_heading	latitude	longitude
308485	3	0	3	0.08754818	-0.009787428	0.2180696	0	12.19	4002	0	0	0	0	0.02	-0.07371346	1	10	0.04	1800	-4.157135	0	0
308632	15	-5	1	0.08169629	-0.01404769	0.223816	0	12.14	4003	0	0	0	0	0.02	-0.07456291	1	10	0.04	1800	-4.153748	0	0
308738	6	1	-7	0.08632874	-0.02013958	0.2288292	0	12.14	4004	0	0	0	0	0.02	-0.08007284	1	10	0.04	1800	-4.382172	0	0
308786	10	-2	-2	0.09007182	-0.01813838	0.2304187	0	12.14	4004	0	0	0	0	0.02	-0.08597148	1	10	0.04	1800	-4.386932	0	0
308923	9	-1	0	0.09618226	-0.01471692	0.2327417	0	12.14	4003	0	0	0	0	0.02	-0.09327362	1	10	0.04	1800	-4.173523	0	0
309077	8	-1	-4	0.09568451	-0.01611662	0.2375713	0	12.14	4004	0	0	0	0	0.02	-0.09083802	1	10	0.04	1800	-4.412262	0	0
309120	4	-1	-3	0.09661835	-0.01450046	0.2384884	0	12.14	4002	0	0	0	0	0.02	-0.08862296	1	10	0.04	1800	-4.412262	0	0
309185	2	-1	-2	0.09461387	-0.01392841	0.2390998	0	12.14	4004	0	0	0	0	0.02	-0.08230117	1	10	0.04	1800	-4.380554	0	0
309279	10	4	-4	0.1015708	-0.01551537	0.2428288	0	12.14	4002	0	0	0	0	0.02	-0.07548645	1	10	0.04	1800	-4.190582	0	0
309416	10	2	-1	0.09972343	-0.01763822	0.2453963	0	12.14	4004	0	0	0	0	0.02	-0.05403383	1	10	0.04	1800	-4.163696	0	0
309483	4	-1	0	0.1011118	-0.01469581	0.2475362	0	12.19	4002	0	0	0	0	0.02	-0.04575276	1	10	0.04	1800	-4.194092	0	0
309612	7	-2	1	0.1002081	-0.006258782	0.2506541	0	12.19	4002	0	0	0	0	0.02	-0.04060637	1	10	0.04	1800	-4.177155	0	0
309772	6	5	-2	0.1070338	-0.004950143	0.2546279	0	12.19	4002	0	0	0	0	0.02	-0.03135457	1	10	0.04	1800	-4.193451	0	0
309815	14	1	-3	0.1149536	-0.008665321	0.2598246	0	12.19	4003	0	0	0	0	0.02	-0.03039577	1	10	0.04	1800	-4.179871	0	0
309895	3	-3	-1	0.1181783	-0.007163543	0.2619034	0	12.19	4003	0	0	0	0	0.02	-0.02708449	1	10	0.04	1800	-4.198944	0	0
310099	9	-3	-5	0.1143577	-0.01933231	0.2687505	0	12.19	4004	0	0	0	0	0.02	-0.02773356	1	10	0.04	1800	-4.429718	0	0
310129	3	-10	0	0.1127612	-0.01919058	0.2694841	0	12.19	4003	0	0	0	0	0.02	-0.02900912	1	10	0.04	1800	-4.38913	0	0
310206	10	4	-5	0.1102071	-0.0152231	0.2722963	0	12.19	4003	0	0	0	0	0.02	-0.03968601	1	10	0.04	1800	-4.212006	0	0
310309	9	-1	-1	0.1087342	-0.02015978	0.2749861	0	12.19	4003	0	0	0	0	0.02	-0.04971122	1	10	0.04	1800	-4.212006	0	0
310433	6	-2	-3	0.1046282	-0.01419754	0.2808556	0	12.19	4002	0	0	0	0	0.02	-0.0546085	1	10	0.04	1800	-4.199677	0	0
310534	7	1	-3	0.1030619	-0.01255209	0.2822005	0	12.19	4002	0	0	0	0	0.02	-0.06902604	1	10	0.04	1800	-4.613007	0	0
310613	9	-3	1	0.1021431	-0.01113484	0.2823838	0	12.19	4004	0	0	0	0	0.02	-0.07282441	1	10	0.04	1800	-4.182709	0	0
310724	13	-6	0	0.109565	-0.01229611	0.2843402	0	12.19	4004	0	0	0	0	0.02	-0.07219708	1	10	0.04	1800	-4.189789	0	0
310815	8	-5	-1	0.1126678	-0.01035435	0.2842179	0	12.19	4004	0	0	0	0	0.02	-0.07218745	1	10	0.04	1800	-3.988892	0	0
311036	9	-3	-2	0.1163084	-0.00409884	0.2900259	0	12.19	4004	0	0	0	0	0.02	-0.07196328	1	10	0.04	1800	-4.447418	0	0
311172	2	1	-3	0.1125272	-0.01009932	0.2937553	0	12.19	4003	0	0	0	0	0.02	-0.06037514	1	10	0.04	1800	-4.205597	0	0
311226	2	-2	-5	0.1070041	-0.007352987	0.295467	0	12.19	4002	0	0	0	0	0.02	-0.05923265	1	10	0.04	1800	-4.206665	0	0
311329	7	-1	0	0.1003732	-0.004368676	0.2965065	0	12.19	4003	0	0	0	0	0.02	-0.05445992	1	10	0.04	1800	-4.198059	0	0
311471	7	-1	0	0.09986539	-0.005680275	0.2973626	0	12.19	4004	0	0	0	0	0.02	-0.04376279	1	10	0.04	1800	-4.159912	0	0
311530	16	-3	-4	0.09476873	-0.0113644	0.2991968	0	12.19	4003	0	0	0	0	0.02	-0.04311499	1	10	0.04	1800	-4.17334	0	0
311627	11	0	-2	0.09561685	-0.01368062	0.3012143	0	12.19	4002	0	0	0	0	0.02	-0.0377318	1	10	0.04	1800	-4.188141	0	0
311759	2	0	-1	0.09408175	-0.009917606	0.3021923	0	12.19	4004	0	0	0	0	0.02	-0.01955659	1	10	0.04	1800	-3.937195	0	0
311838	7	4	-5	0.09611449	-0.01226218	0.3047597	0	12.19	4004	0	0	0	0	0.02	-0.006627128	1	10	0.04	1800	-4.410095	0	0
312001	5	-2	-5	0.09801335	-0.009603372	0.3070827	0	12.19	4003	0	0	0	0	0.02	0.01456769	1	10	0.04	1800	-4.160095	0	0
312041	11	-2	-1	0.09868379	-0.009502729	0.3078775	0	12.19	4003	0	0	0	0	0.02	0.01938599	1	10	0.04	1800	-4.160095	0	0
312146	5	-2	-2	0.1023404	-0.008534358	0.3121573	0	12.19	4003	0	0	0	0	0.02	0.02591751	1	10	0.04	1800	-4.196045	0	0
312360	9	5	1	0.107078	-0.01019431	0.3160092	0	12.14	4003	0	0	0	0	0.02	0.03440224	1	10	0.04	1800	-4.194336	0	0
312506	13	-2	0	0.10869	-0.01498535	0.3215114	0	12.14	4003	0	0	0	0	0.02	0.03517337	1	10	0.04	1800	-4.433746	0	0
312551	9	3	0	0.1069596	-0.01564479	0.3223062	0	12.14	4003	0	0	0	0	0.02	0.03658195	1	10	0.04	1800	-4.433746	0	0
312663	8	-5	-2	0.1124435	-0.0153672	0.3273808	0	12.14	4004	0	0	0	0	0.02	0.03965877	1	10	0.04	1800	-4.400421	0	0
312762	11	0	-3	0.1230505	-0.01403496	0.3301321	0	12.14	4004	0	0	0	0	0.02	0.04445113	1	10	0.04	1800	-4.197815	0	0
312959	13	-2	0	0.1210897	-0.01799718	0.3348397	0	12.14	4004	0	0	0	0	0.02	0.04023243	1	10	0.04	1800	-4.212128	0	0
312990	8	2	0	0.1202307	-0.02023564	0.3373462	0	12.14	4002	0	0	0	0	0.02	0.03930138	1	10	0.04	1800	-4.212128	0	0
313065	11	-7	-1	0.1200256	-0.01857161	0.3406477	0	12.14	4004	0	0	0	0	0.02	0.03602365	1	10	0.04	1800	-4.466888	0	0
313173	16	1	-6	0.1329737	-0.01357532	0.3461495	0	12.14	4004	0	0	0	0	0.02	0.03319107	1	10	0.04	1800	-4.219086	0	0
313279	9	-1	0	0.1332953	-0.0105141	0.3482891	0	12.14	4003	0	0	0	0	0.02	0.03469193	1	10	0.04	1800	-4.247375	0	0
313499	7	-8	-4	0.1322467	-0.01358201	0.3559306	0	12.14	4004	0	0	0	0	0.02	0.02891904	1	10	0.04	1800	-4.250427	0	0
313592	13	3	-2	0.1353029	-0.01533491	0.3612495	0	12.14	4003	0	0	0	0	0.02	0.02966103	1	10	0.04	1800	-4.243805	0	0
313736	8	-4	-2	0.1411983	-0.02368187	0.3666293	0	12.14	4002	0	0	0	0	0.02	0.02785717	1	10	0.04	1800	-4.220734	0	0
313796	8	-4	-4	0.1394287	-0.02432136	0.371887	0	12.14	4004	0	0	0	0	0.02	0.02470588	1	10	0.04	1800	-4.260223	0	0
313902	16	0	-6	0.1384909	-0.03083524	0.3751881	0	12.14	4003	0	0	0	0	0.02	0.02321928	1	10	0.04	1800	-4.255341	0	0
314057	12	0	-2	0.1395076	-0.02827065	0.3820354	0	12.14	4002	0	0	0	0	0.02	0.02197829	1	10	0.04	1800	-4.240967	0	0
314119	15	0	-2	0.1418105	-0.0316691	0.3825244	0	12.14	4002	0	0	0	0	0.02	0.02728259	1	10	0.04	1800	-4.240967	0	0
314200	12	1	-3	0.146887	-0.03013113	0.3892495	0	12.19	4004	0	0	0	0	0.02	0.03389409	1	10	0.04	1800	-4.021179	0	0
314298	7	2	-3	0.145881	-0.02855768	0.3921839	0	12.19	4002	0	0	0	0	0.02	0.05584318	1	10	0.04	1800	-4.268921	0	0
314405	11	0	0	0.1476527	-0.03191521	0.3963413	0	12.19	4003	0	0	0	0	0.02	0.06719313	1	10	0.04	1800	-4.25058	0	0
314519	11	2	-3	0.1484642	-0.02855313	0.4018433	0	12.19	4004	0	0	0	0	0.02	0.0873537	1	10	0.04	1800	-4.03299	0	0
314633	12	-2	-4	0.1552594	-0.03261338	0.407957	0	12.19	4003	0	0	0	0	0.02	0.1043955	1	10	0.04	1800	-4.264526	0	0
314773	9	-1	-5	0.1518075	-0.03050779	0.4144375	0	12.19	4003	0	0	0	0	0.02	0.109552	1	10	0.04	1800	-4.054596	0	0
314881	13	-2	-7	0.1472629	-0.03211999	0.4212235	0	12.19	4003	0	0	0	0	0.02	0.1119087	1	10	0.04	1800	-4.478058	0	0
314913	9	-2	-4	0.1457324	-0.03226444	0.4230576	0	12.19	4004	0	0	0	0	0.02	0.1128606	1	10	0.04	1800	-4.031921	0	0
315058	11	0	-2	0.1418666	-0.032008	0.4276426	0	12.14	4004	0	0	0	0	0.02	0.1096532	1	10	0.04	1800	-4.225525	0	0
315141	7	-1	0	0.1462085	-0.03812337	0.4326566	0	12.14	4002	0	0	0	0	0.02	0.09746531	1	10	0.04	1800	-4.252655	0	0
315211	7	1	-4	0.1476626	-0.03740085	0.4354079	0	12.14	4003	0	0	0	0	0.02	0.08475016	1	10	0.04	1800	-4.274628	0	0
315404	8	2	-1	0.1510518	-0.03138657	0.445373	0	12.14	4003	0	0	0	0	0.02	0.06763132	1	10	0.04	1800	-4.257996	0	0
315501	4	2	-1	0.1488493	-0.03305861	0.44843	0	12.14	4002	0	0	0	0	0.02	0.05483805	1	10	0.04	1800	-4.260986	0	0
315648	7	-1	0	0.1536513	-0.03670559	0.4542989	0	12.14	4004	0	0	0	0	0.02	0.0238511	1	10	0.04	1800	-4.264709	0	0
315781	8	0	-4	0.1580103	-0.03737026	0.4610238	0	12.14	4003	0	0	0	0	0.02	0.002236192	1	10	0.04	1800	-4.27005	0	0
315842	4	0	-4	0.1638163	-0.0351616	0.4671371	0	12.14	4003	0	0	0	0	0.02	-0.009570339	1	10	0.04	1800	-4.265717	0	0
315964	15	-3	2	0.1558006	-0.03959473	0.4700105	0	12.19	4003	0	0	0	0	0.02	-0.02179681	1	10	0.04	1800	-4.051636	0	0
315992	9	4	0	0.1541945	-0.04184511	0.4701939	0	12.19	4003	0	0	0	0	0.02	-0.02511147	1	10	0.04	1800	-4.051636	0	0
316083	13	1	0	0.1475942	-0.04340776	0.4738621	0	12.19	4002	0	0	0	0	0.02	-0.03014891	1	10	0.04	1800	-4.064911	0	0
316262	11	-2	-5	0.1538412	-0.04417111	0.4821156	0	12.19	4002	0	0	0	0	0.02	-0.04438986	1	10	0.04	1800	-4.263641	0	0
316287	17	-4	-7	0.1578578	-0.04011663	0.484133	0	12.19	4003	0	0	0	0	0.02	-0.04476922	1	10	0.04	1800	-4.263641	0	0
316392	10	1	-4	0.1568704	-0.04211435	0.4911022	0	12.19	4003	0	0	0	0	0.02	-0.0447771	1	10	0.04	1800	-4.274994	0	0
316560	18	-1	-1	0.1610094	-0.04605282	0.4974601	0	12.19	4003	0	0	0	0	0.02	-0.04627401	1	10	0.04	1800	-4.487	0	0
316609	13	1	-3	0.1654496	-0.03811458	0.4986829	0	12.19	4004	0	0	0	0	0.02	-0.04909269	1	10	0.04	1800	-4.263702	0	0
316779	9	2	-3	0.1706593	-0.03028013	0.504858	0	12.19	4003	0	0	0	0	0.02	-0.0497105	1	10	0.04	1800	-4.49707	0	0
316798	9	2	-3	0.1706593	-0.03028013	0.504858	0	12.19	4003	0	0	0	0	0.02	-0.05080139	1	10	0.04	1800	-4.49707	0	0
316925	17	3	1	0.1727463	-0.02793391	0.511889	0	12.19	4004	0	0	0	0	0.02	-0.04823381	1	10	0.04	1800	-4.292145	0	0
317078	13	-3	-4	0.1737182	-0.02244147	0.5183086	0	12.19	4002	0	0	0	0	0.02	-0.03989002	1	10	0.04	1800	-4.277405	0	0
317141	11	0	-1	0.1763598	-0.02519084	0.5214264	0	12.19	4004	0	0	0	0	0.02	-0.03746381	1	10	0.04	1800	-4.299744	0	0
317208	6	4	2	0.1731436	-0.02052151	0.5245445	0	12.19	4004	0	0	0	0	0.02	-0.03755157	1	10	0.04	1800	-4.294281	0	0
317334	15	-7	-2	0.1764669	-0.0116977	0.5296806	0	12.19	4004	0	0	0	0	0.02	-0.03181728	1	10	0.04	1800	-4.307159	0	0
317460	8	-1	-7	0.1719163	-0.01244261	0.5337768	0	12.19	4004	0	0	0	0	0.02	-0.02435982	1	10	0.04	1800	-4.518921	0	0
317512	10	-2	-2	0.1705845	-0.01149802	0.5360998	0	12.19	4004	0	0	0	0	0.02	-0.02158738	1	10	0.04	1800	-4.518921	0	0
317615	17	1	-4	0.1780017	-0.00988377	0.5408686	0	12.19	4003	0	0	0	0	0.02	-0.01299666	1	10	0.04	1800	-4.723022	0	0
317715	5	-6	-2	0.1684723	-0.01308303	0.5467989	0	12.19	4004	0	0	0	0	0.02	-0.005517676	1	10	0.04	1800	-4.530273	0	0
317854	14	2	-1	0.1647649	-0.009975552	0.549367	0	12.19	4004	0	0	0	0	0.02	0.01224147	1	10	0.04	1800	-4.278198	0	0
317919	12	-2	-6	0.17386	-0.01035541	0.5526071	0	12.19	4004	0	0	0	0	0.02	0.01962135	1	10	0.04	1800	-4.278198	0	0
318041	7	-1	-6	0.1741522	-0.004674884	0.5584162	0	12.19	4003	0	0	0	0	0.02	0.02645851	1	10	0.04	1800	-4.294006	0	0
318127	17	0	-5	0.1732565	-0.008087901	0.5613509	0	12.19	4003	0	0	0	0	0.02	0.02764873	1	10	0.04	1800	-4.054291	0	0
318231	8	-2	-6	0.1638556	-0.007047082	0.5642247	0	12.19	4003	0	0	0	0	0.02	0.02931259	1	10	0.04	1800	-4.726105	0	0
318338	11	0	-5	0.1575443	-0.008877877	0.5669147	0	12.19	4004	0	0	0	0	0.02	0.0287659	1	10	0.04	1800	-4.051514	0	0
318437	13	1	-5	0.1583351	-0.006105945	0.570583	0	12.19	4003	0	0	0	0	0.02	0.03480982	1	10	0.04	1800	-4.269897	0	0
318548	11	1	-2	0.1654544	-0.00705126	0.5724782	0	12.19	4002	0	0	0	0	0.02	0.03722952	1	10	0.04	1800	-4.047699	0	0
318638	10	4	1	0.1650433	-0.004798942	0.5748016	0	12.19	4004	0	0	0	0	0.02	0.03683507	1	10	0.04	1800	-4.502625	0	0
318820	17	4	-1	0.1642325	-0.009898202	0.5795091	0	12.19	4004	0	0	0	0	0.02	0.03080492	1	10	0.04	1800	-4.274963	0	0
318867	7	2	-5	0.1634787	-0.008205481	0.5823216	0	12.19	4004	0	0	0	0	0.02	0.0283939	1	10	0.04	1800	-4.498932	0	0
318944	11	-5	0	0.1633048	-0.01039529	0.5826273	0	12.19	4003	0	0	0	0	0.02	0.01844196	1	10	0.04	1800	-4.499237	0	0
319114	20	-2	0	0.1609336	-0.01394196	0.5865404	0	12.19	4003	0	0	0	0	0.02	0.008246827	1	10	0.04	1800	-4.270813	0	0
319163	10	-1	-2	0.1590117	-0.01339959	0.5872741	0	12.19	4003	0	0	0	0	0.02	0.007587144	1	10	0.04	1800	-4.290436	0	0
319255	11	0	0	0.1622965	-0.01861667	0.5899028	0	12.19	4003	0	0	0	0	0.02	0.008850028	1	10	0.04	1800	-4.493683	0	0
319354	10	0	-4	0.1594303	-0.01909991	0.5925928	0	12.19	4004	0	0	0	0	0.02	0.01192029	1	10	0.04	1800	-4.05365	0	0
319454	18	0	-4	0.1653341	-0.01767027	0.5947327	0	12.19	4003	0	0	0	0	0.02	0.02412684	1	10	0.04	1800	-4.498352	0	0
319557	15	-2	1	0.1621336	-0.01945568	0.5960779	0	12.19	4003	0	0	0	0	0.02	0.03880747	1	10	0.04	1800	-4.294769	0	0
319658	11	-1	0	0.1578285	-0.02204625	0.5985842	0	12.19	4002	0	0	0	0	0.02	0.05396847	1	10	0.04	1800	-4.477539	0	0
319765	11	-3	0	0.1632321	-0.0197909	0.6004182	0	12.14	4003	0	0	0	0	0.02	0.06554466	1	10	0.04	1800	-4.273376	0	0
319927	11	-3	0	0.1632321	-0.0197909	0.6004182	0	12.14	4003	0	0	0	0	0.02	0.06554466	1	10	0.04	1800	-4.273376	0	0
320038	11	-3	0	0.1632321	-0.0197909	0.6004182	0	12.14	4003	0	0	0	0	0.02	0.06554466	1	10	0.04	1800	-4.273376	0	0
320067	11	-3	0	0.1632321	-0.0197909	0.6004182	0	12.14	4003	0	0	0	0	0.02	0.06554466	1	10	0.04	1800	-4.273376	0	0
320148	11	-3	0	0.1632321	-0.0197909	0.6004182	0	12.14	4003	0	0	0	0	0.02	0.06554466	1	10	0.04	1800	-4.273376	0	0
320249	11	-3	0	0.1632321	-0.0197909	0.6004182	0	12.14	4003	0	0	0	0	0.02	0.06554466	1	10	0.04	1800	-4.273376	0	0
320394	11	-3	0	0.1632321	-0.0197909	0.6004182	0	12.14	4003	0	0	0	0	0.02	0.06554466	1	10	0.04	1800	-4.273376	0	0
320444	11	-3	0	0.1632321	-0.0197909	0.6004182	0	12.14	4003	0	0	0	0	0.02	0.06554466	1	10	0.04	1800	-4.273376	0	0
320602	11	-3	0	0.1632321	-0.0197909	0.6004182	0	12.14	4003	0	0	0	0	0.02	0.06554466	1	10	0.04	1800	-4.273376	0	0
320721	11	-3	0	0.1632321	-0.0197909	0.6004182	0	12.14	4003	0	0	0	0	0.02	0.06554466	1	10	0.04	1800	-4.273376	0	0
320841	11	-3	0	0.1632321	-0.0197909	0.6004182	0	12.14	4003	0	0	0	0	0.02	0.06554466	1	10	0.04	1800	-4.273376	0	0
320977	11	-3	0	0.1632321	-0.0197909	0.6004182	0	12.14	4003	0	0	0	0	0.02	0.06554466	1	10	0.04	1800	-4.273376	0	0
321096	11	-3	0	0.1632321	-0.0197909	0.6004182	0	12.14	4003	0	0	0	0	0.02	0.06554466	1	10	0.04	1800	-4.273376	0	0
321164	11	-3	0	0.1632321	-0.0197909	0.6004182	0	12.14	4003	0	0	0	0	0.02	0.06554466	1	10	0.04	1800	-4.273376	0	0
321255	11	-3	0	0.1632321	-0.0197909	0.6004182	0	12.14	4003	0	0	0	0	0.02	0.06554466	1	10	0.04	1800	-4.273376	0	0
321324	11	-3	0	0.1632321	-0.0197909	0.6004182	0	12.14	4003	0	0	0	0	0.02	0.06554466	1	10	0.04	1800	-4.273376	0	0
321473	11	-3	0	0.1632321	-0.0197909	0.6004182	0	12.14	4003	0	0	0	0	0.02	0.06554466	1	10	0.04	1800	-4.273376	0	0
321525	11	-3	0	0.1632321	-0.0197909	0.6004182	0	12.14	4003	0	0	0	0	0.02	0.06554466	1	10	0.04	1800	-4.273376	0	0
321629	11	-3	0	0.1632321	-0.0197909	0.6004182	0	12.14	4003	0	0	0	0	0.02	0.06554466	1	10	0.04	1800	-4.273376	0	0
321806	11	-3	0	0.1632321	-0.0197909	0.6004182	0	12.14	4003	0	0	0	0	0.02	0.06554466	1	10	0.04	1800	-4.273376	0	0
321854	11	-3	0	0.1632321	-0.0197909	0.6004182	0	12.14	4003	0	0	0	0	0.02	0.06554466	1	10	0.04	1800	-4.273376	0	0
321938	11	-3	0	0.1632321	-0.0197909	0.6004182	0	12.14	4003	0	0	0	0	0.02	0.06554466	1	10	0.04	1800	-4.273376	0	0
322137	11	-3	0	0.1632321	-0.0197909	0.6004182	0	12.14	4003	0	0	0	0	0.02	0.06554466	1	10	0.04	1800	-4.273376	0	0
322208	11	-3	0	0.1632321	-0.0197909	0.6004182	0	12.14	4003	0	0	0	0	0.02	0.06554466	1	10	0.04	1800	-4.273376	0	0
322277	11	-3	0	0.1632321	-0.0197909	0.6004182	0	12.14	4003	0	0	0	0	0.02	0.06554466	1	10	0.04	1800	-4.273376	0	0
322372	11	-3	0	0.1632321	-0.0197909	0.6004182	0	12.14	4003	0	0	0	0	0.02	0.06554466	1	10	0.04	1800	-4.273376	0	0
322470	11	-3	0	0.1632321	-0.0197909	0.6004182	0	12.14	4003	0	0	0	0	0.02	0.06554466	1	10	0.04	1800	-4.273376	0	0
322534	11	-3	0	0.1632321	-0.0197909	0.6004182	0	12.14	4003	0	0	0	0	0.02	0.06554466	1	10	0.04	1800	-4.273376	0	0
322606	11	-3	0	0.1632321	-0.0197909	0.6004182	0	12.14	4003	0	0	0	0	0.02	0.06554466	1	10	0.04	1800	-4.273376	0	0
322709	11	-3	0	0.1632321	-0.0197909	0.6004182	0	12.14	4003	0	0	0	0	0.02	0.06554466	1	10	0.04	1800	-4.273376	0	0
322819	11	-3	0	0.1632321	-0.0197909	0.6004182	0	12.14	4003	0	0	0	0	0.02	0.06554466	1	10	0.04	1800	-4.273376	0	0
322918	11	-3	0	0.1632321	-0.0197909	0.6004182	0	12.14	4003	0	0	0	0	0.02	0.06554466	1	10	0.04	1800	-4.273376	0	0
323004	11	-3	0	0.1632321	-0.0197909	0.6004182	0	12.14	4003	0	0	0	0	0.02	0.06554466	1	10	0.04	1800	-4.273376	0	0
323106	11	-3	0	0.1632321	-0.0197909	0.6004182	0	12.14	4003	0	0	0	0	0.02	0.06554466	1	10	0.04	1800	-4.273376	0	0
323208	11	-3	0	0.1632321	-0.0197909	0.6004182	0	12.14	4003	0	0	0	0	0.02	0.06554466	1	10	0.04	1800	-4.273376	0	0
323304	11	-3	0	0.1632321	-0.0197909	0.6004182	0	12.19	4003	0	0	0	0	0.02	0.06554466	1	10	0.04	1800	-4.273376	0	0
323411	11	-3	0	0.1632321	-0.0197909	0.6004182	0	12.19	4003	0	0	0	0	0.02	0.06554466	1	10	0.04	1800	-4.273376	0	0
323550	11	-3	0	0.1632321	-0.0197909	0.6004182	0	12.19	4003	0	0	0	0	0.02	0.06554466	1	10	0.04	1800	-4.273376	0	0
323633	11	-3	0	0.1632321	-0.0197909	0.6004182	0	12.19	4003	0	0	0	0	0.02	0.06554466	1	10	0.04	1800	-4.273376	0	0
323702	11	-3	0	0.1632321	-0.0197909	0.6004182	0	12.19	4003	0	0	0	0	0.02	0.06554466	1	10	0.04	1800	-4.273376	0	0
323826	11	-3	0	0.1632321	-0.0197909	0.6004182	0	12.19	4003	0	0	0	0	0.02	0.06554466	1	10	0.04	1800	-4.273376	0	0
323909	11	-3	0	0.1632321	-0.0197909	0.6004182	0	12.19	4003	0	0	0	0	0.02	0.06554466	1	10	0.04	1800	-4.273376	0	0
324011	11	-3	0	0.1632321	-0.0197909	0.6004182	0	12.19	4003	0	0	0	0	0.02	0.06554466	1	10	0.04	1800	-4.273376	0	0
324111	11	-3	0	0.1632321	-0.0197909	0.6004182	0	12.19	4003	0	0	0	0	0.02	0.06554466	1	10	0.04	1800	-4.273376	0	0
324210	11	-3	0	0.1632321	-0.0197909	0.6004182	0	12.19	4003	0	0	0	0	0.02	0.06554466	1	10	0.04	1800	-4.273376	0	0
324313	11	-3	0	0.1632321	-0.0197909	0.6004182	0	12.19	4003	0	0	0	0	0.02	0.06554466	1	10	0.04	1800	-4.273376	0	0
324436	11	-3	0	0.1632321	-0.0197909	0.6004182	0	12.19	4003	0	0	0	0	0.02	0.06554466	1	10	0.04	1800	-4.273376	0	0
324573	11	-3	0	0.1632321	-0.0197909	0.6004182	0	12.19	4003	0	0	0	0	0.02	0.06554466	1	10	0.04	1800	-4.273376	0	0
324643	11	-3	0	0.1632321	-0.0197909	0.6004182	0	12.19	4003	0	0	0	0	0.02	0.06554466	1	10	0.04	1800	-4.273376	0	0
324712	11	-3	0	0.1632321	-0.0197909	0.6004182	0	12.19	4003	0	0	0	0	0.02	0.06554466	1	10	0.04	1800	-4.273376	0	0
324779	11	-3	0	0.1632321	-0.0197909	0.6004182	0	12.19	4003	0	0	0	0	0.02	0.06554466	1	10	0.04	1800	-4.273376	0	0
324881	11	-3	0	0.1632321	-0.0197909	0.6004182	0	12.19	4003	0	0	0	0	0.02	0.06554466	1	10	0.04	1800	-4.273376	0	0
325018	11	-3	0	0.1632321	-0.0197909	0.6004182	0	12.19	4003	0	0	0	0	0.02	0.06554466	1	10	0.04	1800	-4.273376	0	0
325102	11	-3	0	0.1632321	-0.0197909	0.6004182	0	12.19	4003	0	0	0	0	0.02	0.06554466	1	10	0.04	1800	-4.273376	0	0
325193	11	-3	0	0.1632321	-0.0197909	0.6004182	0	12.19	4003	0	0	0	0	0.02	0.06554466	1	10	0.04	1800	-4.273376	0	0
325284	11	-3	0	0.1632321	-0.0197909	0.6004182	0	12.19	4003	0	0	0	0	0.02	0.06554466	1	10	0.04	1800	-4.273376	0	0
325378	11	-3	0	0.1632321	-0.0197909	0.6004182	0	12.19	4003	0	0	0	0	0.02	0.06554466	1	10	0.04	1800	-4.273376	0	0
325480	11	-3	0	0.1632321	-0.0197909	0.6004182	0	12.19	4003	0	0	0	0	0.02	0.06554466	1	10	0.04	1800	-4.273376	0	0
325631	11	-3	0	0.1632321	-0.0197909	0.6004182	0	12.19	4003	0	0	0	0	0.02	0.06554466	1	10	0.04	1800	-4.273376	0	0
325679	11	-3	0	0.1632321	-0.0197909	0.6004182	0	12.19	4003	0	0	0	0	0.02	0.06554466	1	10	0.04	1800	-4.273376	0	0
325779	11	-3	0	0.1632321	-0.0197909	0.6004182	0	12.19	4003	0	0	0	0	0.02	0.06554466	1	10	0.04	1800	-4.273376	0	0
325887	11	-3	0	0.1632321	-0.0197909	0.6004182	0	12.19	4003	0	0	0	0	0.02	0.06554466	1	10	0.04	1800	-4.273376	0	0
325997	11	-3	0	0.1632321	-0.0197909	0.6004182	0	12.19	4003	0	0	0	0	0.02	0.06554466	1	10	0.04	1800	-4.273376	0	0
326091	11	-3	0	0.1632321	-0.0197909	0.6004182	0	12.14	4003	0	0	0	0	0.02	0.06554466	1	10	0.04	1800	-4.273376	0	0
326209	11	-3	0	0.1632321	-0.0197909	0.6004182	0	12.14	4003	0	0	0	0	0.02	0.06554466	1	10	0.04	1800	-4.273376	0	0
326301	11	-3	0	0.1632321	-0.0197909	0.6004182	0	12.14	4003	0	0	0	0	0.02	0.06554466	1	10	0.04	1800	-4.273376	0	0
326396	11	-3	0	0.1632321	-0.0197909	0.6004182	0	12.14	4003	0	0	0	0	0.02	0.06554466	1	10	0.04	1800	-4.273376	0	0
326494	11	-3	0	0.1632321	-0.0197909	0.6004182	0	12.14	4003	0	0	0	0	0.02	0.06554466	1	10	0.04	1800	-4.273376	0	0
326593	11	-3	0	0.1632321	-0.0197909	0.6004182	0	12.14	4003	0	0	0	0	0.02	0.06554466	1	10	0.04	1800	-4.273376	0	0
326728	11	-3	0	0.1632321	-0.0197909	0.6004182	0	12.14	4003	0	0	0	0	0.02	0.06554466	1	10	0.04	1800	-4.273376	0	0
326792	11	-3	0	0.1632321	-0.0197909	0.6004182	0	12.14	4003	0	0	0	0	0.02	0.06554466	1	10	0.04	1800	-4.273376	0	0
326895	11	-3	0	0.1632321	-0.0197909	0.6004182	0	12.14	4003	0	0	0	0	0.02	0.06554466	1	10	0.04	1800	-4.273376	0	0
327014	11	-3	0	0.1632321	-0.0197909	0.6004182	0	12.19	4003	0	0	0	0	0.02	0.06554466	1	10	0.04	1800	-4.273376	0	0
327131	11	-3	0	0.1632321	-0.0197909	0.6004182	0	12.19	4003	0	0	0	0	0.02	0.06554466	1	10	0.04	1800	-4.273376	0	0
327196	11	-3	0	0.1632321	-0.0197909	0.6004182	0	12.19	4003	0	0	0	0	0.02	0.06554466	1	10	0.04	1800	-4.273376	0	0
327328	11	-3	0	0.1632321	-0.0197909	0.6004182	0	12.19	4003	0	0	0	0	0.02	0.06554466	1	10	0.04	1800	-4.273376	0	0
327423	11	-3	0	0.1632321	-0.0197909	0.6004182	0	12.19	4003	0	0	0	0	0.02	0.06554466	1	10	0.04	1800	-4.273376	0	0
327515	11	-3	0	0.1632321	-0.0197909	0.6004182	0	12.19	4003	0	0	0	0	0.02	0.06554466	1	10	0.04	1800	-4.273376	0	0
327569	11	-3	0	0.1632321	-0.0197909	0.6004182	0	12.19	4003	0	0	0	0	0.02	0.06554466	1	10	0.04	1800	-4.273376	0	0
327668	11	-3	0	0.1632321	-0.0197909	0.6004182	0	12.19	4003	0	0	0	0	0.02	0.06554466	1	10	0.04	1800	-4.273376	0	0
327778	11	-3	0	0.1632321	-0.0197909	0.6004182	0	12.19	4003	0	0	0	0	0.02	0.06554466	1	10	0.04	1800	-4.273376	0	0
327867	11	-3	0	0.1632321	-0.0197909	0.6004182	0	12.14	4003	0	0	0	0	0.02	0.06554466	1	10	0.04	1800	-4.273376	0	0
327967	0	-3	1	-0.006465504	-0.1303305	-0.001406214	0	12.14	4003	0	0	0	0	0.02	0.04424733	1	10	0.04	1800	-4.281372	0	0
328135	1	-1	1	-0.003628544	-0.1101047	0.0006722902	0	12.14	4003	0	0	0	0	0.02	-0.005530797	1	10	0.04	1800	-4.473145	0	0
328211	4	0	1	-0.001635286	-0.1044065	0.002750824	0	12.14	4002	0	0	0	0	0.02	-0.02156228	1	10	0.04	1800	-4.013977	0	0
328271	2	2	-3	-0.001119336	-0.100033	0.004401496	0	12.14	4004	0	0	0	0	0.02	-0.03252445	1	10	0.04	1800	-4.030762	0	0
328372	-1	-3	1	0.007350458	-0.08913159	0.005501741	0	12.14	4004	0	0	0	0	0.02	-0.03490304	1	10	0.04	1800	-4.025177	0	0
328475	4	-1	1	0.004767514	-0.07640369	0.005563008	0	12.14	4002	0	0	0	0	0.02	-0.0392774	1	10	0.04	1800	-4.042542	0	0
328635	2	2	0	0.00900701	-0.06609645	0.008986719	0	12.14	4004	0	0	0	0	0.02	-0.0388465	1	10	0.04	1800	-3.820099	0	0
328712	7	-4	0	0.006547945	-0.06628557	0.01210481	0	12.14	4003	0	0	0	0	0.02	-0.03318602	1	10	0.04	1800	-4.024078	0	0
328772	4	-2	-4	0.009713221	-0.06179914	0.0133887	0	12.14	4004	0	0	0	0	0.02	-0.02038478	1	10	0.04	1800	-4.054474	0	0
328870	3	2	-1	0.009338562	-0.05967255	0.01522281	0	12.14	4002	0	0	0	0	0.02	-0.01204274	1	10	0.04	1800	-4.043823	0	0
328974	5	0	3	0.01617285	-0.05736822	0.01772962	0	12.14	4002	0	0	0	0	0.02	-0.002473445	1	10	0.04	1800	-4.065491	0	0
329108	5	3	-5	0.01379372	-0.05858538	0.01907467	0	12.14	4003	0	0	0	0	0.02	0.01093086	1	10	0.04	1800	-4.063019	0	0
329234	4	0	2	0.01646969	-0.05189817	0.01919654	0	12.14	4003	0	0	0	0	0.02	0.02067402	1	10	0.04	1800	-4.069275	0	0
329285	3	-4	-2	0.01553366	-0.04813392	0.01950225	0	12.14	4003	0	0	0	0	0.02	0.02435178	1	10	0.04	1800	-4.276276	0	0
329383	3	4	-3	0.02504762	-0.04782315	0.02200883	0	12.14	4002	0	0	0	0	0.02	0.03182202	1	10	0.04	1800	-4.06488	0	0
329480	0	-5	-2	0.02341287	-0.04710721	0.02359847	0	12.14	4002	0	0	0	0	0.02	0.03854085	1	10	0.04	1800	-4.079773	0	0
329632	4	2	-1	0.03125216	-0.04921503	0.02555493	0	12.14	4002	0	0	0	0	0.02	0.03494371	1	10	0.04	1800	-4.066772	0	0
329680	7	-4	-3	0.03439474	-0.04712432	0.02800042	0	12.14	4003	0	0	0	0	0.02	0.03437789	1	10	0.04	1800	-3.867188	0	0
329839	7	-5	-3	0.03534444	-0.04185413	0.03276919	0	12.14	4002	0	0	0	0	0.02	0.02463261	1	10	0.04	1800	-4.317932	0	0
329921	1	0	-1	0.03700994	-0.04013863	0.03399206	0	12.14	4003	0	0	0	0	0.02	0.01902941	1	10	0.04	1800	-4.081573	0	0
329972	7	-4	-2	0.03257408	-0.03702956	0.03668204	0	12.14	4003	0	0	0	0	0.02	0.01430935	1	10	0.04	1800	-4.083771	0	0
330074	1	3	-3	0.03217128	-0.0375365	0.03704886	0	12.14	4003	0	0	0	0	0.02	0.01233216	1	10	0.04	1800	-4.078857	0	0
330180	8	-1	1	0.04723486	-0.0396056	0.04022802	0	12.14	4003	0	0	0	0	0.02	0.02046043	1	10	0.04	1800	-4.311859	0	0
330364	0	1	-6	0.0413951	-0.03483637	0.04273439	0	12.14	4002	0	0	0	0	0.02	0.04348579	1	10	0.04	1800	-4.106964	0	0
330431	3	-2	0	0.04660009	-0.03685413	0.04481304	0	12.14	4004	0	0	0	0	0.02	0.0479398	1	10	0.04	1800	-4.089966	0	0
330515	7	0	1	0.04874208	-0.03903295	0.04621915	0	12.14	4003	0	0	0	0	0.02	0.04449033	1	10	0.04	1800	-4.113403	0	0
330596	11	-2	1	0.04872921	-0.03755485	0.04731982	0	12.14	4003	0	0	0	0	0.02	0.04273303	1	10	0.04	1800	-3.896729	0	0
330732	0	-3	-1	0.05057788	-0.03408447	0.05062144	0	12.14	4003	0	0	0	0	0.02	0.03990413	1	10	0.04	1800	-4.087067	0	0
330860	2	0	0	0.05208591	-0.03368316	0.05129357	0	12.14	4002	0	0	0	0	0.02	0.03707812	1	10	0.04	1800	-3.864685	0	0
330943	7	0	5	0.05613822	-0.03073435	0.05208824	0	12.14	4004	0	0	0	0	0.02	0.03087715	1	10	0.04	1800	-4.128296	0	0
331001	0	1	0	0.06083519	-0.0264762	0.05276062	0	12.14	4003	0	0	0	0	0.02	0.02624143	1	10	0.04	1800	-4.341248	0	0
331032	3	2	0	0.05757352	-0.03372537	0.05233272	0	12.14	4002	0	0	0	0	0.02	0.02430164	1	10	0.04	1800	-4.341248	0	0
331131	-2	-2	-3	0.05773212	-0.03204245	0.05355556	0	12.14	4004	0	0	0	0	0.02	0.01398728	1	10	0.04	1800	-4.355042	0	0
331268	-3	3	-1	0.05693991	-0.03263099	0.05661234	0	12.14	4004	0	0	0	0	0.02	0.003215916	1	10	0.04	1800	-4.338379	0	0
331371	6	0	-2	0.05232358	-0.03410726	0.05789623	0	12.14	4003	0	0	0	0	0.02	-0.0006520071	1	10	0.04	1800	-4.107025	0	0
331451	3	3	-1	0.05677925	-0.03761824	0.06003608	0	12.14	4003	0	0	0	0	0.02	-0.00243597	1	10	0.04	1800	-3.889709	0	0
331535	6	-2	-2	0.06037818	-0.03529922	0.06131992	0	12.19	4004	0	0	0	0	0.02	-0.007630574	1	10	0.04	1800	-4.337677	0	0
331656	4	5	-2	0.05804048	-0.03431468	0.06278696	0	12.19	4002	0	0	0	0	0.02	-0.007690998	1	10	0.04	1800	-4.09906	0	0
331767	3	3	-2	0.05562977	-0.03360681	0.06602727	0	12.19	4003	0	0	0	0	0.02	0.0008229095	1	10	0.04	1800	-4.334015	0	0
331866	3	2	1	0.05610387	-0.03005405	0.06596611	0	12.19	4004	0	0	0	0	0.02	0.01966507	1	10	0.04	1800	-4.334778	0	0
331943	0	8	-1	0.05524964	-0.02396828	0.06749463	0	12.19	4004	0	0	0	0	0.02	0.04372038	1	10	0.04	1800	-4.109344	0	0
332044	2	0	0	0.05543668	-0.02886323	0.06749467	0	12.19	4003	0	0	0	0	0.02	0.05962303	1	10	0.04	1800	-4.335388	0	0
332140	5	0	-2	0.0542044	-0.02797412	0.06920645	0	12.19	4002	0	0	0	0	0.02	0.06597964	1	10	0.04	1800	-4.348602	0	0
332314	4	0	0	0.05776846	-0.02402848	0.0715296	0	12.19	4004	0	0	0	0	0.02	0.08436663	1	10	0.04	1800	-4.347443	0	0
332430	3	0	-5	0.0602474	-0.02724073	0.07538099	0	12.14	4003	0	0	0	0	0.02	0.09339023	1	10	0.04	1800	-4.11438	0	0
332464	2	-4	-2	0.06217013	-0.03014399	0.07684819	0	12.14	4003	0	0	0	0	0.02	0.09364631	1	10	0.04	1800	-4.11438	0	0
332538	3	3	-8	0.05656656	-0.02739416	0.07849867	0	12.14	4003	0	0	0	0	0.02	0.09729151	1	10	0.04	1800	-4.139435	0	0
332647	8	4	0	0.05370767	-0.03537393	0.08124997	0	12.14	4002	0	0	0	0	0.02	0.1051616	1	10	0.04	1800	-4.104218	0	0
332777	7	-3	-5	0.0568701	-0.0365929	0.08271728	0	12.14	4003	0	0	0	0	0.02	0.1122112	1	10	0.04	1800	-4.097565	0	0
332870	-6	-6	-2	0.05765902	-0.03569538	0.08363421	0	12.14	4004	0	0	0	0	0.02	0.1131057	1	10	0.04	1800	-4.113525	0	0
332943	7	-2	-2	0.0567119	-0.03330334	0.08436796	0	12.14	4004	0	0	0	0	0.02	0.1144262	1	10	0.04	1800	-4.130371	0	0
333040	0	1	3	0.05654581	-0.03037206	0.08534615	0	12.14	4004	0	0	0	0	0.02	0.1138616	1	10	0.04	1800	-4.130463	0	0
333142	4	-2	-4	0.06228966	-0.03099416	0.08864751	0	12.14	4004	0	0	0	0	0.02	0.1065456	1	10	0.04	1800	-4.116608	0	0
333266	5	-5	3	0.06899203	-0.03178095	0.09170417	0	12.14	4004	0	0	0	0	0.02	0.1055672	1	10	0.04	1800	-4.13205	0	0
333452	6	-3	0	0.06275407	-0.03444182	0.09219317	0	12.14	4003	0	0	0	0	0.02	0.1061938	1	10	0.04	1800	-4.139832	0	0
333609	3	1	-1	0.06543188	-0.03531738	0.09469981	0	12.14	4002	0	0	0	0	0.02	0.1059651	1	10	0.04	1800	-4.107941	0	0
333690	3	1	-3	0.06363323	-0.03229113	0.09604476	0	12.14	4004	0	0	0	0	0.02	0.1006307	1	10	0.04	1800	-4.350708	0	0
333749	14	1	-2	0.0704013	-0.03131807	0.09738975	0	12.14	4002	0	0	0	0	0.02	0.09867574	1	10	0.04	1800	-4.1315	0	0
333918	1	0	-4	0.06802033	-0.03385538	0.103931	0	12.14	4003	0	0	0	0	0.02	0.07268509	1	10	0.04	1800	-4.369995	0	0
333979	11	0	-1	0.06833374	-0.02926912	0.1050929	0	12.14	4003	0	0	0	0	0.02	0.05881863	1	10	0.04	1800	-4.369995	0	0
334126	9	2	-7	0.0700818	-0.03293122	0.1093114	0	12.14	4003	0	0	0	0	0.02	0.04547746	1	10	0.04	1800	-4.130615	0	0
334166	0	3	-3	0.07407293	-0.02187883	0.1124906	0	12.14	4004	0	0	0	0	0.02	0.04458877	1	10	0.04	1800	-4.119995	0	0
334221	5	0	-2	0.0717425	-0.02337285	0.1124907	0	12.14	4004	0	0	0	0	0.02	0.04219826	1	10	0.04	1800	-4.139587	0	0
334386	3	7	1	0.07019775	-0.02858533	0.1179933	0	12.14	4003	0	0	0	0	0.02	0.02907565	1	10	0.04	1800	-4.151123	0	0
334443	7	2	-2	0.07115811	-0.02799051	0.1204387	0	12.14	4002	0	0	0	0	0.02	0.02038953	1	10	0.04	1800	-4.136688	0	0
334518	7	3	-1	0.07699819	-0.02792288	0.1211111	0	12.14	4003	0	0	0	0	0.02	0.01520221	1	10	0.04	1800	-4.13736	0	0
334758	6	1	0	0.08101231	-0.02420508	0.1283863	0	12.14	4003	0	0	0	0	0.02	0.02223273	1	10	0.04	1800	-4.390778	0	0
334926	7	-4	-1	0.08152651	-0.02395672	0.1319321	0	12.14	4003	0	0	0	0	0.02	0.02268006	1	10	0.04	1800	-4.134491	0	0
335017	1	-1	-1	0.08253731	-0.02353987	0.1355389	0	12.14	4003	0	0	0	0	0.02	0.02451086	1	10	0.04	1800	-3.927673	0	0
335119	10	-2	-5	0.08176766	-0.02061355	0.1400015	0	12.14	4004	0	0	0	0	0.02	0.02552804	1	10	0.04	1800	-4.154572	0	0
335328	10	-4	0	0.08627485	-0.02013637	0.1453204	0	12.14	4003	0	0	0	0	0.02	0.0306737	1	10	0.04	1800	-3.93277	0	0
335425	11	-1	4	0.08636319	-0.03091754	0.1488053	0	12.14	4003	0	0	0	0	0.02	0.03342864	1	10	0.04	1800	-4.160828	0	0
335526	6	5	1	0.09090581	-0.03047727	0.1493555	0	12.14	4003	0	0	0	0	0.02	0.03056281	1	10	0.04	1800	-4.159729	0	0
335686	-3	-1	-5	0.08439928	-0.03313057	0.1562028	0	12.14	4003	0	0	0	0	0.02	0.00167042	1	10	0.04	1800	-4.156433	0	0
335729	3	-4	-1	0.08551775	-0.03150207	0.1567529	0	12.14	4002	0	0	0	0	0.02	0.0005293329	1	10	0.04	1800	-4.362762	0	0
335831	0	0	0	0.09120855	-0.0353416	0.1581592	0	12.14	4004	0	0	0	0	0.02	0.0007355785	1	10	0.04	1800	-4.165375	0	0
335969	8	-3	-1	0.09508368	-0.02915139	0.1636	0	12.14	4003	0	0	0	0	0.02	-0.003811442	1	10	0.04	1800	-4.395966	0	0
336041	6	-1	-1	0.0910851	-0.02522118	0.1653118	0	12.19	4004	0	0	0	0	0.02	-0.008000073	1	10	0.04	1800	-4.395966	0	0
336142	5	3	-6	0.09413361	-0.02750611	0.1706914	0	12.19	4003	0	0	0	0	0.02	-0.01084137	1	10	0.04	1800	-4.171509	0	0
336167	6	-2	-4	0.09528561	-0.02570548	0.1719141	0	12.19	4003	0	0	0	0	0.02	-0.01243324	1	10	0.04	1800	-4.173676	0	0
336313	8	1	-1	0.08964346	-0.02064499	0.1739925	0	12.19	4004	0	0	0	0	0.02	-0.01825604	1	10	0.04	1800	-4.386169	0	0
336371	9	1	-5	0.09186615	-0.01760783	0.174665	0	12.19	4003	0	0	0	0	0.02	-0.02254573	1	10	0.04	1800	-4.386169	0	0
336533	0	-2	-2	0.09299652	-0.02887114	0.1786384	0	12.19	4002	0	0	0	0	0.02	-0.02398552	1	10	0.04	1800	-4.40976	0	0
336654	10	4	-7	0.08602574	-0.03698644	0.1842629	0	12.19	4003	0	0	0	0	0.02	-0.02751549	1	10	0.04	1800	-4.144714	0	0
336687	1	0	-5	0.08465045	-0.03752656	0.1853025	0	12.19	4003	0	0	0	0	0.02	-0.0271691	1	10	0.04	1800	-4.144714	0	0
336769	3	0	0	0.08399762	-0.0348884	0.187748	0	12.19	4003	0	0	0	0	0.02	-0.02591678	1	10	0.04	1800	-4.158722	0	0
336883	8	-1	2	0.08692438	-0.0427023	0.1919054	0	12.19	4003	0	0	0	0	0.02	-0.02425754	1	10	0.04	1800	-4.178619	0	0
336984	4	2	-8	0.08552336	-0.03660133	0.19539	0	12.19	4002	0	0	0	0	0.02	-0.0144012	1	10	0.04	1800	-4.382721	0	0
337055	9	0	-1	0.08632027	-0.03516013	0.1964904	0	12.19	4004	0	0	0	0	0.02	-0.01069386	1	10	0.04	1800	-4.382721	0	0
337195	9	3	-2	0.08751736	-0.03345703	0.2020538	0	12.19	4004	0	0	0	0	0.02	-0.002818936	1	10	0.04	1800	-4.160278	0	0
337297	2	0	-3	0.09085076	-0.0276113	0.2068224	0	12.19	4003	0	0	0	0	0.02	0.001503193	1	10	0.04	1800	-3.94577	0	0
337355	4	-3	0	0.09242418	-0.02705786	0.2104295	0	12.19	4003	0	0	0	0	0.02	0.003967716	1	10	0.04	1800	-4.167786	0	0
337451	4	-8	-3	0.09273301	-0.02924732	0.2127526	0	12.19	4004	0	0	0	0	0.02	0.01634498	1	10	0.04	1800	-4.390167	0	0
337556	3	-4	-8	0.08815902	-0.0257105	0.2179486	0	12.19	4003	0	0	0	0	0.02	0.01816104	1	10	0.04	1800	-4.179321	0	0
337662	8	1	-1	0.08388523	-0.02714328	0.2227169	0	12.19	4002	0	0	0	0	0.02	0.02497627	1	10	0.04	1800	-4.170685	0	0
337735	2	3	0	0.08515394	-0.02464183	0.2242454	0	12.19	4002	0	0	0	0	0.02	0.03574225	1	10	0.04	1800	-3.933899	0	0
337878	6	-1	0	0.08132183	-0.02149209	0.2301757	0	12.19	4002	0	0	0	0	0.02	0.04697369	1	10	0.04	1800	-4.159271	0	0
337938	7	-3	-3	0.07846678	-0.01820008	0.2311538	0	12.19	4002	0	0	0	0	0.02	0.05166968	1	10	0.04	1800	-4.356567	0	0
338035	7	-2	-3	0.08335102	-0.01510395	0.2348221	0	12.19	4003	0	0	0	0	0.02	0.05960757	1	10	0.04	1800	-4.145569	0	0
338183	11	0	-4	0.08463857	-0.01724327	0.2376339	0	12.19	4003	0	0	0	0	0.02	0.07264349	1	10	0.04	1800	-4.379486	0	0
338261	2	-3	-3	0.08306924	-0.01810864	0.2394681	0	12.19	4003	0	0	0	0	0.02	0.07460535	1	10	0.04	1800	-4.16861	0	0
338380	4	3	-5	0.08784568	-0.01500828	0.2432585	0	12.19	4004	0	0	0	0	0.02	0.08034225	1	10	0.04	1800	-4.145142	0	0
338462	4	1	0	0.09076449	-0.01660481	0.2448481	0	12.19	4004	0	0	0	0	0.02	0.07894392	1	10	0.04	1800	-4.164673	0	0
338562	4	7	0	0.09363579	-0.02343455	0.2467435	0	12.19	4003	0	0	0	0	0.02	0.08194868	1	10	0.04	1800	-4.165283	0	0
338666	5	-2	-1	0.09172097	-0.02282311	0.2490053	0	12.19	4003	0	0	0	0	0.02	0.08325757	1	10	0.04	1800	-4.169891	0	0
338796	9	1	-2	0.09446105	-0.02438445	0.2531625	0	12.08	4004	0	0	0	0	0.02	0.09218251	1	10	0.04	1800	-4.166931	0	0
338854	1	3	1	0.09625574	-0.02680376	0.2534683	0	12.08	4002	0	0	0	0	0.02	0.09595201	1	10	0.04	1800	-4.154907	0	0
338931	5	0	-3	0.0956664	-0.02823523	0.2548133	0	12.08	4004	0	0	0	0	0.02	0.09833309	1	10	0.04	1800	-4.174377	0	0
339035	10	3	0	0.09679349	-0.03091829	0.256953	0	12.08	4004	0	0	0	0	0.02	0.1053849	1	10	0.04	1800	-4.17746	0	0
339135	6	1	-6	0.09614393	-0.0373867	0.2614159	0	12.08	4004	0	0	0	0	0.02	0.1156941	1	10	0.04	1800	-4.383331	0	0
339277	11	3	2	0.1081423	-0.04440305	0.2674681	0	12.08	4002	0	0	0	0	0.02	0.1239192	1	10	0.04	1800	-4.412781	0	0
