time(ms)	gyro_x(deg/s)	gyro_y(deg/s)	gyro_z(deg/s)	orientation_roll(deg)	orientation_pitch(deg)	orientation_yaw(deg)	throttle	battery(V)	loop_time(uS)	pid_output_roll	pid_output_pitch	pid_output_yaw	pid_output_throttle	ultrasonic_alt	baro_alt	flight_mode	p_gain_altitude	i_gain_altitude	d_gain_altitude	compass_heading	latitude	longitude
155120	-139	8	548	-0.7576767	-0.133196	451.4203	0	12.14	4004	-3	20	40	60	0.6904588	0.103393	8	10	0.04	1800	-1.321167	40.92392	-91.39363
155242	-90	-104	417	-0.6561517	-0.2592221	451.3754	0	11.57	4003	30	32	55	66	0.6904588	0.1040725	8	10	0.04	1800	-1.855011	40.92392	-91.39363
155319	-67	133	-295	-0.7519796	-0.3315589	451.3749	0	11.57	4003	7	-4	57	59	0.6904588	0.1059468	8	10	0.04	1800	-1.855011	40.92392	-91.39363
155500	-78	-57	-37	-0.7030175	-0.2981551	451.3055	0	11.57	4002	-10	-25	57	70	0.6904588	0.1147336	8	10	0.04	1800	-1.599396	40.92392	-91.39363
155517	-78	-57	-37	-0.7030175	-0.2981551	451.3055	0	11.57	4002	-10	-25	57	70	0.6904588	0.1168447	8	10	0.04	1800	-1.599396	40.92392	-91.39363
155618	44	-21	-804	-0.7945729	-0.5417266	451.3016	0	11.57	4002	52	-29	68	68	0.6904588	0.1222368	8	10	0.04	1800	-1.554169	40.92392	-91.39363
155802	-44	-145	-845	-0.9277691	-0.4565455	451.2536	0	11.57	4002	13	-11	59	71	0.6904588	0.129392	8	10	0.04	1800	-1.338074	40.92392	-91.39363
155866	5	443	-526	-0.8442193	-0.5966818	451.2042	0	11.57	4003	-7	11	48	110	0.6904588	0.1313056	8	10	0.04	1800	-1.497284	40.92392	-91.39363
155922	-264	-281	563	-0.850447	-0.6232741	451.2017	0	11.57	4004	29	14	49	108	0.6904588	0.1338961	8	10	0.04	1800	-1.141998	40.92392	-91.39363
156191	153	-56	246	-0.968723	-1.054113	451.1431	0	12.08	4002	46	5	69	59	0.6904588	0.1540741	8	10	0.04	1800	-1.012848	40.92392	-91.39363
156277	76	80	-29	-0.9324884	-1.098017	451.0568	0	12.08	4003	61	26	66	58	0.6904588	0.1616707	8	10	0.04	1800	-0.9438477	40.92392	-91.39363
156389	-16	-78	435	-1.009902	-1.033928	450.9305	0	12.08	4004	50	15	62	104	0.6904588	0.1753593	8	10	0.04	1800	-0.3613586	40.92392	-91.39363
156441	-113	-265	889	-1.04542	-1.110089	450.9044	0	12.08	4004	51	46	59	74	0.6904588	0.1781288	8	10	0.04	1800	-0.3613586	40.92392	-91.39363
156544	99	-47	313	-0.9563603	-1.28088	450.8426	0	12.08	4003	67	-1	72	67	0.6904588	0.178593	8	10	0.04	1800	-1.264008	40.92392	-91.39363
156645	-169	81	-427	-0.9660157	-1.243881	450.8302	0	12.08	4004	55	-35	76	72	0.6904588	0.1779235	8	10	0.04	1800	-0.946106	40.92392	-91.39363
156787	46	-62	31	-1.104277	-1.119326	450.6362	0	12.08	4004	-109	-108	84	75	0.6904588	0.1688933	8	10	0.04	1800	-0.6295166	42.27113	54.0154
156874	-84	7	-1054	-1.218353	-1.103891	450.9821	0	12.08	4010	-61	-2	48	77	0.6904588	0.1687578	8	10	0.04	1800	-1.417694	40.96029	-46.66937
156947	-293	43	-786	-1.181462	-1.470652	451.7856	0	12.08	4004	-18	105	41	70	0.6904588	0.1691842	8	10	0.04	1800	-1.814636	39.57796	-87.36845
157046	-1023	-433	-321	-1.914112	-1.42932	453.2549	0	12.08	4003	-127	96	7	64	0.6904588	0.1726261	8	10	0.04	1800	-2.198883	40.88757	-91.28495
157228	-3399	-475	-307	-6.060295	-1.167932	456.3997	0	12.08	4004	-63	157	-82	66	0.6904588	0.1854097	8	10	0.04	1800	-5.03363	40.92389	-91.39355
157346	-191	14	133	-9.387354	-1.156481	455.9889	0	12.08	4003	-10	-16	-26	68	0.6904588	0.1896751	8	10	0.04	1800	-7.562958	40.92392	-91.39363
157384	1534	-257	356	-8.949069	-1.346033	455.3445	0	12.08	4004	-10	-16	-26	68	0.6904588	0.1896751	8	10	0.04	1800	-7.631134	40.92392	-91.39363
157451	2799	-818	-9	-5.907004	-1.059982	454.4378	0	12.08	4002	-92	-184	-20	66	0.6904588	0.1876442	8	10	0.04	1800	-7.631134	40.92392	-91.39363
157568	-4961	-6166	-527	-7.426596	7.398246	456.0937	0	12.08	4003	73	-65	-78	68	0.6904588	0.1854821	8	10	0.04	1800	-6.207855	40.92392	-91.39363
157656	-889	8112	-3315	-9.705012	4.135226	461.2001	0	12.08	4002	-32	81	-244	73	0.6904588	0.1817986	8	10	0.04	1800	-10.18182	40.92392	-91.39363
157807	-3992	-1571	1792	-10.28818	-13.85792	460.5803	0	12.08	4003	50	192	-170	72	0.6904588	0.1804946	8	10	0.04	1800	-16.06995	40.92392	-91.39363
157863	-3154	248	2713	-11.64624	-13.75668	459.2961	0	12.08	4003	136	-153	-107	65	0.6904588	0.1853201	8	10	0.04	1800	-16.06995	40.92392	-91.39363
158017	6825	5463	738	-15.51453	-11.51637	459.8387	0	11.91	4004	-207	42	-151	63	0.6904588	0.2112304	8	10	0.04	1800	-21.7561	40.92392	-91.39364
158067	8620	7733	1123	-10.29868	-15.01212	459.1697	0	11.91	4004	-96	151	-110	68	0.6904588	0.2269106	8	10	0.04	1800	-21.7561	40.92392	-91.39364
158188	3347	4643	1663	1.898432	-23.88414	456.5848	0	11.91	4002	-27	-24	-52	70	0.6904588	0.2377767	8	10	0.04	1800	-19.14392	40.92392	-91.39364
158272	-10660	-8213	-3468	-0.04040819	-18.08792	455.5186	0	11.91	4002	98	-221	28	116	0.6904588	0.2408723	8	10	0.04	1800	-12.10797	40.92392	-91.39364
158386	604	5513	-8443	-4.683284	-16.4379	461.5285	0	11.91	4002	-88	400	-329	134	0.6904588	0.2294145	8	10	0.04	1800	-14.14172	40.92381	-38.08812
158502	-45	5570	-465	-0.5727367	-25.26432	468.6107	0	11.91	4003	-8	15	-368	81	0.6904588	0.1948322	8	10	0.04	1800	-20.79541	41.1297	-15.85972
158592	-6126	7615	5387	-4.405158	-31.33754	465.2044	0	11.91	4004	80	226	-191	85	0.6904588	0.1798666	8	10	0.04	1800	-20.5166	38.64061	-84.55672
158703	-2366	15409	10661	-3.718402	-58.41167	446.8302	0	11.91	4003	-13	400	347	91	0.6904588	0.1533239	8	10	0.04	1800	-12.26755	40.86227	-91.20905
158856	930	18753	1010	9.17695	-95.03201	435.7605	0	11.91	4003	-30	400	400	84	0.6904588	0.134663	8	10	0.04	1800	14.34904	40.92377	-91.39319
158925	4518	31114	-141	15.12345	-127.945	434.8187	0	11.8	4004	-40	400	397	81	0.6904588	0.1115059	8	10	0.04	1800	24.91654	40.9239	-91.3936
159022	6481	19428	-4337	13.69153	-143.7529	437.8769	0	11.8	4003	27	400	240	98	0.6904588	0.09278465	8	10	0.04	1800	32.16476	40.92392	-91.39364
159104	-944	6733	659	0.3260913	-144.3029	442.1691	0	11.8	4004	-56	400	198	93	0.6904588	0.07504138	8	10	0.04	1800	-0.9503784	40.92392	-91.39364
159197	799	-5025	590	-1.772401	-117.7144	442.2236	0	11.8	4003	0	0	0	0	0.6904588	0.0444448	8	10	0.04	1800	-0.5157471	40.92392	-91.39364
159298	894	-758	1524	2.253095	-105.8838	440.8734	0	11.8	4003	0	0	0	0	0.6904588	0.007604911	8	10	0.04	1800	1.002552	40.92392	-91.39365
159534	-202	32	-49	2.423417	-78.10913	440.5701	0	11.8	4003	0	0	0	0	0.6904588	-0.05470508	3	10	0.04	1800	2.591644	40.92392	-91.39365
159640	-43	-6	21	2.432452	-64.88628	440.5626	0	11.8	4003	0	0	0	0	0.6904588	-0.07763437	1	10	0.04	1800	3.486033	40.92392	-91.39365
159714	-59	6	-4	2.477872	-59.10812	440.5285	0	11.8	4002	0	0	0	0	0.6904588	-0.07763437	1	10	0.04	1800	4.060116	40.92392	-91.39365
159817	-43	-1	0	2.48526	-51.36951	440.5097	0	11.8	4004	0	0	0	0	0.6904588	-0.1036854	1	10	0.04	1800	6.361312	40.92392	-91.39365
159918	-42	0	8	2.490162	-44.60697	440.4919	0	12.14	4002	0	0	0	0	0.6904588	-0.1197531	1	10	0.04	1800	8.474533	40.92392	-91.39365
160083	-29	-2	12	2.50062	-35.18382	440.4602	0	12.14	4004	0	0	0	0	0.6904588	-0.1423869	1	10	0.04	1800	20.39697	40.92392	-91.39364
160158	-27	2	9	2.499159	-31.97165	440.4482	0	12.14	4004	0	0	0	0	0.6904588	-0.149655	1	10	0.04	1800	48.62727	40.92392	-91.39364
160231	-40	-2	11	2.496196	-29.03511	440.4356	0	12.14	4003	0	0	0	0	0.6904588	-0.1533346	1	10	0.04	1800	127.5822	40.92392	-91.39364
160344	-35	-3	10	2.498415	-23.91043	440.4093	0	12.14	4004	0	0	0	0	0.6904588	-0.1656451	1	10	0.04	1800	164.8586	40.92392	-91.39364
160462	-35	0	11	2.500725	-20.62513	440.3889	0	12.14	4003	0	0	0	0	0.6904588	-0.1727474	1	10	0.04	1800	170.1711	40.92391	-91.39364
160526	-35	-1	8	2.500804	-17.76452	440.3729	0	12.14	4003	0	0	0	0	0.6904588	-0.1711396	1	10	0.04	1800	171.6294	40.92391	-91.39364
160624	-33	2	11	2.499134	-16.05569	440.3599	0	12.14	4003	0	0	0	0	0.6904588	-0.1584876	1	10	0.04	1800	172.57	40.92391	-91.39364
160724	-37	0	7	2.490084	-13.07016	440.3378	0	12.14	4003	0	0	0	0	0.6904588	-0.1552236	1	10	0.04	1800	173.8215	40.92391	-91.39364
160972	-36	-3	10	2.484069	-8.977617	440.3003	0	12.08	4003	0	0	0	0	0.6904588	-0.1298615	1	10	0.04	1800	174.7935	40.92392	-91.39365
161059	-25	-3	13	2.484233	-8.028383	440.289	0	12.08	4003	0	0	0	0	0.6904588	-0.122379	1	10	0.04	1800	175.0201	40.92392	-91.39365
161155	-26	-1	13	2.484321	-6.756314	440.2715	0	12.08	4002	0	0	0	0	0.6904588	-0.1171443	1	10	0.04	1800	175.3215	40.92392	-91.39365
161238	-28	7	6	2.481304	-5.642931	440.2552	0	12.08	4004	0	0	0	0	0.6904588	-0.1109508	1	10	0.04	1800	175.4631	40.92392	-91.39365
161348	-7	-9	22	2.485743	-4.975781	440.2326	0	12.08	4004	0	0	0	0	0.6904588	-0.1063891	1	10	0.04	1800	175.5676	40.92392	-91.39365
161485	-26	1	24	2.478034	-3.567082	440.2203	0	12.08	4003	0	0	0	0	0.6904588	-0.1094939	1	10	0.04	1800	176.0831	40.92392	-91.39365
161542	-27	-7	21	2.483802	-3.320966	440.206	0	12.08	4003	0	0	0	0	0.6904588	-0.1123219	1	10	0.04	1800	176.0111	40.92392	-91.39365
161645	-40	1	0	2.47232	-2.436011	440.1887	0	12.08	4004	0	0	0	0	0.6904588	-0.1090024	1	10	0.04	1800	176.1222	40.92392	-91.39365
161792	-30	-9	12	2.47281	-1.700163	440.165	0	12.14	4003	0	0	0	0	0.6904588	-0.1063328	1	10	0.04	1800	176.0316	40.92392	-91.39365
161841	-32	-2	9	2.47034	-1.537788	440.1599	0	12.14	4003	0	0	0	0	0.6904588	-0.1079688	1	10	0.04	1800	176.0316	40.92392	-91.39365
162056	-33	-4	13	2.465002	-0.5738192	440.1257	0	12.14	4003	0	0	0	0	0.6904588	-0.1063617	1	10	0.04	1800	176.3562	40.92392	-91.39365
162225	-21	-4	9	2.466972	-0.1377232	440.1059	0	12.14	4003	0	0	0	0	0.6904588	-0.09166023	1	10	0.04	1800	176.3804	40.92392	-91.39365
162280	-32	0	7	2.469695	0.1389823	440.0921	0	12.14	4004	0	0	0	0	0.6904588	-0.0893847	1	10	0.04	1800	176.2207	40.92392	-91.39365
162378	-24	-1	8	2.467643	0.3807493	440.0759	0	12.14	4004	0	0	0	0	0.6904588	-0.08223035	1	10	0.04	1800	176.2626	40.92392	-91.39365
162433	-31	7	10	2.473221	0.5247691	440.0664	0	12.14	4003	0	0	0	0	0.6904588	-0.07815541	1	10	0.04	1800	176.2599	40.92392	-91.39365
162537	-4	-5	26	2.473945	0.7195454	440.0489	0	12.14	4002	0	0	0	0	0.6904588	-0.07028159	1	10	0.04	1800	176.4821	40.92392	-91.39365
162639	-40	0	0	2.469464	0.8279556	440.0454	0	12.14	4003	0	0	0	0	0.6904588	-0.06483296	1	10	0.04	1800	176.4656	40.92392	-91.39365
162793	-32	0	11	2.4723	1.069596	440.0169	0	12.14	4003	0	0	0	0	0.6904588	-0.05787363	1	10	0.04	1800	176.5046	40.92392	-91.39365
162849	-35	0	2	2.471462	1.147467	440.0081	0	12.14	4004	0	0	0	0	0.6904588	-0.05636178	1	10	0.04	1800	177.0474	40.92392	-91.39365
163009	-30	-10	6	2.471373	1.321647	439.9834	0	12.14	4004	0	0	0	0	0.6904588	-0.04588678	1	10	0.04	1800	176.5084	40.92391	-91.39365
163062	-29	-1	15	2.471072	1.352959	439.9785	0	12.14	4003	0	0	0	0	0.6904588	-0.04472664	1	10	0.04	1800	176.298	40.92391	-91.39365
163151	-30	4	6	2.473123	1.440268	439.9673	0	12.14	4003	0	0	0	0	0.6904588	-0.04419236	1	10	0.04	1800	176.5027	40.92391	-91.39365
163250	-43	0	10	2.473278	1.490161	439.9595	0	12.14	4002	0	0	0	0	0.6904588	-0.04416183	1	10	0.04	1800	176.5429	40.92391	-91.39365
163444	-37	1	11	2.470066	1.628286	439.9253	0	12.14	4004	0	0	0	0	0.6904588	-0.04287827	1	10	0.04	1800	176.3623	40.92389	172.487
163503	-22	4	22	2.469712	1.644085	439.9185	0	12.14	4002	0	0	0	0	0.6904588	-0.03981458	1	10	0.04	1800	176.5648	40.92389	179.1504
163557	-9	-5	15	2.476786	1.699021	439.9011	0	12.14	4004	0	0	0	0	0.6904588	-0.02831052	1	10	0.04	1800	176.7257	40.92388	-10.09202
163647	-48	6	-37	2.464533	1.735806	439.8978	0	12.14	4004	0	0	0	0	0.6904588	-0.01917817	1	10	0.04	1800	176.9346	40.92387	-89.19849
163750	-17	1	-12	2.477016	1.766024	439.8705	0	12.14	4003	0	0	0	0	0.6904588	-0.008245805	1	10	0.04	1800	176.7204	-19.04084	-29.83434
163925	-27	6	-13	2.458709	1.823069	439.8537	0	12.14	4003	0	0	0	0	0.6904588	-0.004440018	1	10	0.04	1800	176.5779	-44.72127	-3.753042
163982	-32	8	-5	2.462838	1.844759	439.8383	0	12.14	4004	0	0	0	0	0.6904588	-0.004732016	1	10	0.04	1800	176.4201	-44.73832	-3.735727
164047	-37	-6	15	2.463141	1.858213	439.834	0	12.14	4004	0	0	0	0	0.6904588	-0.003015786	1	10	0.04	1800	176.3758	-44.73985	-3.734169
164141	-33	-4	1	2.45805	1.879802	439.8147	0	12.14	4003	0	0	0	0	0.6904588	-0.005633704	1	10	0.04	1800	176.7558	-44.74	-3.734019
164241	-30	-3	6	2.461725	1.890067	439.8065	0	12.14	4004	0	0	0	0	0.6904588	-0.01594204	1	10	0.04	1800	176.5907	-44.74001	-3.734015
164350	-26	-7	7	2.461814	1.902166	439.7955	0	12.14	4003	0	0	0	0	0.6904588	-0.02837059	1	10	0.04	1800	176.5675	-44.74001	-3.734015
164440	-33	-5	3	2.456396	1.917272	439.7788	0	12.14	4004	0	0	0	0	0.6904588	-0.03305374	1	10	0.04	1800	176.5756	-44.74001	-3.734015
164585	-25	6	11	2.454504	1.931487	439.7671	0	12.14	4003	0	0	0	0	0.6904588	-0.03524394	1	10	0.04	1800	176.5781	-44.74001	-3.734015
164638	-35	-1	14	2.455751	1.94649	439.7525	0	12.14	4003	0	0	0	0	0.6904588	-0.03699929	1	10	0.04	1800	176.5867	-44.74001	-3.734015
164745	-21	1	9	2.457946	1.954729	439.7449	0	12.14	4004	0	0	0	0	0.6904588	-0.03136918	1	10	0.04	1800	176.5838	-44.74001	-3.734015
164845	-33	-2	10	2.465478	1.962034	439.7301	0	12.14	4004	0	0	0	0	0.6904588	-0.03033323	1	10	0.04	1800	176.5752	-44.74001	-3.734015
165002	-27	-3	7	2.467203	1.97483	439.708	0	12.14	4004	0	0	0	0	0.6904588	-0.02317348	1	10	0.04	1800	176.5783	-44.74001	-3.734015
165078	-34	-3	8	2.467151	1.979411	439.6963	0	12.14	4002	0	0	0	0	0.6904588	-0.02222469	1	10	0.04	1800	176.7486	-44.74001	-3.734015
165153	-22	0	8	2.467555	1.979878	439.6905	0	12.14	4002	0	0	0	0	0.6904588	-0.02257401	1	10	0.04	1800	176.7539	-44.74001	-3.734015
165314	-26	-2	11	2.473717	1.988755	439.6692	0	12.14	4002	0	0	0	0	0.6904588	-0.04809275	1	10	0.04	1800	176.5671	-44.74001	-3.734015
165371	-25	0	9	2.472105	1.987537	439.6618	0	12.14	4002	0	0	0	0	0.6904588	-0.05319764	1	10	0.04	1800	176.7554	-44.74001	-3.734015
165456	-24	0	6	2.477916	1.993081	439.6531	0	12.19	4002	0	0	0	0	0.6904588	-0.05599628	1	10	0.04	1800	176.5624	-44.74001	-3.734015
165516	-28	-2	10	2.483821	1.994991	439.6408	0	12.19	4003	0	0	0	0	0.6904588	-0.0565886	1	10	0.04	1800	176.5663	-44.74001	-3.734015
165644	-33	1	6	2.4825	1.994941	439.6302	0	12.19	4003	0	0	0	0	0.6904588	-0.05694248	1	10	0.04	1800	176.7264	-44.74001	-3.734015
165719	-34	-2	4	2.484989	1.993698	439.6227	0	12.19	4004	0	0	0	0	0.6904588	-0.05307539	1	10	0.04	1800	176.7328	-44.74001	-3.734015
165884	-32	-4	6	2.486614	2.005597	439.6029	0	12.19	4004	0	0	0	0	0.6904588	-0.04418553	1	10	0.04	1800	176.7285	-44.74001	-3.734015
165968	-28	-6	8	2.480542	2.009374	439.5884	0	12.19	4003	0	0	0	0	0.6904588	-0.03696747	1	10	0.04	1800	176.3758	-44.74001	-3.734015
166032	-21	-1	6	2.481608	2.010861	439.5843	0	12.19	4004	0	0	0	0	0.6904588	-0.03252105	1	10	0.04	1800	176.7214	-44.74001	-3.734015
166129	-29	-1	3	2.485472	2.013413	439.5698	0	12.19	4003	0	0	0	0	0.6904588	-0.03133305	1	10	0.04	1800	176.5373	-44.74001	-3.734015
166227	4	-3	2	2.487038	2.01257	439.5636	0	12.19	4002	0	0	0	0	0.6904588	-0.02408237	1	10	0.04	1800	176.5347	-44.74001	-3.734015
166337	-14	-6	16	2.489857	2.021645	439.5409	0	12.19	4003	0	0	0	0	0.6904588	-0.02375333	1	10	0.04	1800	176.7333	-44.74001	-3.734015
166422	-30	-2	1	2.497352	2.026397	439.5337	0	12.19	4004	0	0	0	0	0.6904588	-0.02407728	1	10	0.04	1800	176.5464	-44.74001	-3.734015
166538	-18	0	5	2.49272	2.021221	439.524	0	12.19	4003	0	0	0	0	0.6904588	-0.02617573	1	10	0.04	1800	176.7204	-44.74001	-3.734015
166634	-19	-2	8	2.496838	2.02624	439.5071	0	12.19	4003	0	0	0	0	0.6904588	-0.02879576	1	10	0.04	1800	176.5396	-44.74001	-3.734015
166723	-20	-9	5	2.497177	2.020774	439.4972	0	12.19	4004	0	0	0	0	0.6904588	-0.02870047	1	10	0.04	1800	176.7274	-44.74001	-3.734015
166834	-455	427	221	2.401263	1.944706	439.4802	0	12.19	4003	0	0	0	0	0.6904588	-0.03242718	1	10	0.04	1800	176.5185	-44.74001	-3.734015
166912	492	-257	31	2.563362	1.917245	439.1964	0	12.19	4002	0	0	0	0	0.6904588	-0.03634414	1	10	0.04	1800	176.9807	-44.74001	-3.734015
167172	-581	809	-2820	3.369733	-0.6918381	446.6313	0	12.19	4002	0	0	0	0	0.6904588	-0.06074389	1	10	0.04	1800	174.37	-44.74001	-3.734015
167349	-12634	10540	-5711	-16.48629	-10.63401	462.2777	0	12.19	4002	0	0	0	0	0.6904588	-0.08094328	1	10	0.04	1800	159.828	-44.74001	-3.734015
167439	-11013	3527	-2880	-24.04809	-13.80819	466.7961	0	12.19	4003	0	0	0	0	0.6904588	-0.08288102	1	10	0.04	1800	150.3415	-44.74001	-3.734015
167575	-11127	-5514	1178	-30.82596	-1.367107	467.7734	0	12.19	4003	0	0	0	0	0.6904588	-0.08108693	1	10	0.04	1800	139.9736	-44.74001	-3.734015
167725	-11931	-2939	-2690	-34.21823	8.229091	468.3996	0	12.19	4002	0	0	0	0	0.6904588	-0.05362986	1	10	0.04	1800	140.7379	-44.74001	-3.734015
167874	-11584	-3094	-8152	-35.68619	21.85433	484.1293	0	12.19	4003	0	0	0	0	0.6904588	0.00416556	1	10	0.04	1800	124.2546	-44.74001	-3.734015
167905	-10678	-3482	-9781	-35.0716	25.2924	489.0747	0	12.19	4003	0	0	0	0	0.6904588	0.02547661	1	10	0.04	1800	124.2546	-44.74001	-3.734015
167994	-6232	-3183	-12851	-26.07454	35.41555	508.6944	0	12.19	4002	0	0	0	0	0.6904588	0.066857	1	10	0.04	1800	96.1465	-44.74001	-3.734015
168096	-4574	-2339	-9340	-13.59191	39.1543	528.1771	0	12.14	4002	0	0	0	0	0.6904588	0.1009718	1	10	0.04	1800	79.46226	-44.74001	-3.734015
168196	-1836	-2370	-4774	-6.224176	38.41828	539.101	0	12.14	4004	0	0	0	0	0.6904588	0.1487666	1	10	0.04	1800	65.19795	-44.74001	-3.734015
168301	-3132	-1209	-3063	-2.267107	35.20907	544.8344	0	12.14	4004	0	0	0	0	0.6904588	0.199429	1	10	0.04	1800	53.18939	-44.74001	-3.734015
168398	-710	-3931	-5333	-0.5716686	34.0016	549.336	0	12.14	4004	0	0	0	0	0.6904588	0.2573158	1	10	0.04	1800	50.60551	-44.74001	-3.734015
168618	6533	-4130	4523	17.36852	27.67705	552.3056	0	12.14	4003	0	0	0	0	0.6904588	0.3525625	1	10	0.04	1800	56.09666	-44.74001	-3.734015
168711	3222	-5136	322	27.15241	38.70459	546.3563	0	12.14	4004	0	0	0	0	0.6904588	0.4044654	1	10	0.04	1800	77.06785	-44.74001	-3.734015
168837	-1686	-1598	-1120	29.56211	40.48566	547.2748	0	12.14	4002	0	0	0	0	0.6904588	0.4402474	1	10	0.04	1800	80.7599	-44.74001	-3.734015
168930	-411	-903	-1404	29.31538	39.22238	549.0916	0	12.14	4004	0	0	0	0	0.6904588	0.4566108	1	10	0.04	1800	81.76882	-44.74001	-3.734015
169009	-124	-379	-999	30.15813	38.67588	550.6015	0	12.14	4003	0	0	0	0	0.6904588	0.4813485	1	10	0.04	1800	81.01862	-44.74001	-3.734015
169109	-125	591	-1494	31.18984	34.27391	551.6411	0	12.14	4003	0	0	0	0	0.6904588	0.4955686	1	10	0.04	1800	81.75481	-44.74001	-3.734015
169254	-1210	-750	-668	33.7542	29.33832	555.5984	0	12.14	4004	0	0	0	0	0.6904588	0.516647	1	10	0.04	1800	86.46076	-44.74001	-3.734015
169311	-321	962	-1231	34.55176	27.11082	556.673	0	12.14	4004	0	0	0	0	0.6904588	0.5313119	1	10	0.04	1800	88.06536	-44.74001	-3.734015
169414	-1399	140	-1258	33.45	22.70562	557.8981	0	12.14	4002	0	0	0	0	0.6904588	0.5654844	1	10	0.04	1800	92.19025	-44.74001	-3.734015
169516	-648	-587	-2092	33.56323	21.4418	560.1651	0	12.14	4002	0	0	0	0	0.6904588	0.5961148	1	10	0.04	1800	90.70567	-44.74001	-3.734015
169617	-2891	-898	-1859	31.12766	22.1312	562.9908	0	12.14	4002	0	0	0	0	0.6904588	0.6096698	1	10	0.04	1800	84.49302	-44.74001	-3.734015
169760	-5167	320	-5077	26.46704	18.93824	569.3564	0	12.14	4003	0	0	0	0	0.6904588	0.6286929	1	10	0.04	1800	80.72343	-44.74001	-3.734015
169812	-3404	-261	-3419	20.84096	13.50944	576.9812	0	12.14	4003	0	0	0	0	0.6904588	0.630078	1	10	0.04	1800	66.74253	-44.74001	-3.734015
169966	-606	-1041	-670	16.65129	13.07861	579.5181	0	12.19	4002	0	0	0	0	0.6904588	0.6383818	1	10	0.04	1800	66.92724	-44.74001	-3.734015
170019	-77	726	-259	16.3757	12.10636	580.1294	0	12.19	4004	0	0	0	0	0.6904588	0.6404129	1	10	0.04	1800	68.97414	-44.74001	-3.734015
170082	1318	1645	1237	16.15304	10.82563	579.4131	0	12.19	4003	0	0	0	0	0.6904588	0.6357056	1	10	0.04	1800	69.55243	-44.74001	-3.734015
170135	1206	-402	390	18.41744	10.05562	577.2866	0	12.19	4003	0	0	0	0	0.6904588	0.627345	1	10	0.04	1800	72.02716	-44.74001	-3.734015
170166	-2886	5	-2428	15.41098	10.93484	580.692	0	12.19	4003	0	0	0	0	0.6904588	0.6143019	1	10	0.04	1800	67.81661	-44.74001	-3.734015
170299	927	1789	-2199	13.87785	8.446329	584.5279	0	12.19	4004	0	0	0	0	0.6904588	0.613063	1	10	0.04	1800	65.1511	-44.74001	-3.734015
170326	-955	1101	790	16.17887	1.508186	585.4727	0	12.19	4002	0	0	0	0	0.6904588	0.6118124	1	10	0.04	1800	63.83706	-44.74001	-3.734015
170451	681	1111	-2072	15.05333	0.6041932	586.6995	0	12.19	4003	0	0	0	0	0.6904588	0.5990895	1	10	0.04	1800	65.84753	-44.74001	-3.734015
170552	-2060	2809	-1111	13.33424	-6.463745	591.1599	0	12.19	4004	0	0	0	0	0.6904588	0.5916808	1	10	0.04	1800	60.83631	-44.74001	-3.734015
170637	-1131	510	-786	11.99405	-8.749249	591.9453	0	12.19	4003	0	0	0	0	0.6904588	0.5734658	1	10	0.04	1800	56.98533	-44.74001	-3.734015
170792	-1082	-2705	-3528	8.62477	-5.882902	596.7106	0	12.14	4004	0	0	0	0	0.6904588	0.55541	1	10	0.04	1800	52.11046	-44.74001	-3.734015
170846	-2793	-311	-5630	4.970801	-5.387999	604.5569	0	12.14	4003	0	0	0	0	0.6904588	0.5491141	1	10	0.04	1800	50.05168	-44.74001	-3.734015
170926	-2470	-1940	-3751	0.801418	-4.988514	609.8605	0	12.14	4002	0	0	0	0	0.6904588	0.5439997	1	10	0.04	1800	44.80862	-44.74001	-3.734015
171029	-432	1026	2057	-2.337913	-2.379047	612.1063	0	12.14	4003	0	0	0	0	0.6904588	0.5366653	1	10	0.04	1800	43.66468	-44.74001	-3.734015
171130	138	3131	5442	-4.163347	-7.940323	604.1096	0	12.14	4002	0	0	0	0	0.6904588	0.5393099	1	10	0.04	1800	47.20988	-44.74001	-3.734015
171226	2884	-250	2864	-0.6873482	-11.47739	597.7231	0	12.14	4003	0	0	0	0	0.6904588	0.5422568	1	10	0.04	1800	51.43451	-44.74001	-3.734015
171327	2424	163	4396	2.494806	-11.14968	593.7391	0	12.14	4004	0	0	0	0	0.6904588	0.5515751	1	10	0.04	1800	55.22264	-44.74001	-3.734015
171428	3402	2881	6145	11.44003	-11.21456	582.1681	0	12.14	4003	0	0	0	0	0.6904588	0.5629488	1	10	0.04	1800	66.85008	-44.74001	-3.734015
171540	1590	4470	4299	20.78891	-17.20297	568.9906	0	12.14	4003	0	0	0	0	0.6904588	0.5760275	1	10	0.04	1800	84.34159	-44.74001	-3.734015
171712	-1056	-820	561	24.06166	-20.22488	564.5155	0	12.19	4003	0	0	0	0	0.6904588	0.6043012	1	10	0.04	1800	98.46897	-44.74001	-3.734015
171752	-375	-399	733	24.05729	-19.92615	564.2047	0	12.19	4003	0	0	0	0	0.6904588	0.6072919	1	10	0.04	1800	98.46897	-44.74001	-3.734015
171825	0	508	742	25.94975	-18.65026	562.0289	0	12.19	4002	0	0	0	0	0.6904588	0.6147003	1	10	0.04	1800	103.7094	-44.74001	-3.734015
171927	-783	-366	-2009	26.1573	-18.82594	563.3077	0	12.19	4002	0	0	0	0	0.6904588	0.6207565	1	10	0.04	1800	104.487	-44.74001	-3.734015
172060	-2119	231	-6201	19.70963	-23.35287	572.5061	0	12.19	4004	0	0	0	0	0.6904588	0.6370364	1	10	0.04	1800	95.34189	-44.74001	-3.734015
172141	-3008	-101	-6740	13.61921	-25.70103	579.6874	0	12.19	4002	0	0	0	0	0.6904588	0.6413574	1	10	0.04	1800	85.74207	-44.74001	-3.734015
172233	-3121	-1138	-10548	1.649441	-27.94883	593.6865	0	12.19	4002	0	0	0	0	0.6904588	0.6414332	1	10	0.04	1800	65.559	-44.74001	-3.734015
172335	-4272	-601	-9079	-13.78632	-24.46727	611.8851	0	12.19	4004	0	0	0	0	0.6904588	0.6466671	1	10	0.04	1800	51.01915	-44.74001	-3.734015
172459	-4017	1353	-1521	-25.06827	-22.21859	619.3011	0	12.19	4003	0	0	0	0	0.6904588	0.6500663	1	10	0.04	1800	40.54932	-44.74001	-3.734015
172576	-7336	3480	-1456	-30.8076	-24.8614	621.4087	0	12.19	4003	0	0	0	0	0.6904588	0.6587128	1	10	0.04	1800	31.94398	-44.74001	-3.734015
172637	-5562	3024	-1492	-35.12703	-25.65339	622.3765	0	12.19	4002	0	0	0	0	0.6904588	0.6638542	1	10	0.04	1800	31.94398	-44.74001	-3.734015
172746	-4930	8149	-59	-39.80483	-34.00271	623.0138	0	12.19	4004	0	0	0	0	0.6904588	0.6651535	1	10	0.04	1800	19.50251	-44.74001	-3.734015
172873	-3670	2387	3883	-43.56517	-46.4746	615.0929	0	12.19	4002	0	0	0	0	0.6904588	0.6540059	1	10	0.04	1800	11.24286	-44.74001	-3.734015
172950	-1923	5516	808	-43.98601	-52.81137	612.7296	0	12.19	4003	0	0	0	0	0.6904588	0.6481198	1	10	0.04	1800	4.961854	-44.74001	-3.734015
173039	-2786	-1252	-2240	-50.70222	-52.27782	615.506	0	12.19	4004	0	0	0	0	0.6904588	0.6397853	1	10	0.04	1800	-4.296844	-44.74001	-3.734015
173153	-2795	-181	-1793	-54.5948	-49.40411	618.0667	0	12.19	4004	0	0	0	0	0.6904588	0.6323878	1	10	0.04	1800	-4.10849	-44.74001	-3.734015
173237	10714	7878	4244	-42.65766	-59.2107	616.2618	0	12.19	4003	0	0	0	0	0.6904588	0.6274441	1	10	0.04	1800	-19.77307	-44.74001	-3.734015
173446	3714	-211	624	-46.67825	-37.03165	622.5841	0	12.14	4004	0	0	0	0	0.6904588	0.6419488	1	10	0.04	1800	-1.77359	-44.74001	-3.734015
173509	3665	-1531	721	-44.31263	-36.81446	622.187	0	12.14	4002	0	0	0	0	0.6904588	0.6438731	1	10	0.04	1800	-0.5221558	-44.74001	-3.734015
173641	4944	3085	-217	-33.30767	-35.58674	620.8362	0	12.14	4004	0	0	0	0	0.6904588	0.6437449	1	10	0.04	1800	4.915982	-44.74001	-3.734015
173745	-692	-1405	-3794	-33.01518	-34.51316	624.8499	0	12.14	4003	0	0	0	0	0.6904588	0.6366012	1	10	0.04	1800	4.051434	-44.74001	-3.734015
173894	861	1355	912	-35.29797	-32.38466	628.7419	0	12.14	4003	0	0	0	0	0.6904588	0.6257071	1	10	0.04	1800	1.646475	-44.74001	-3.734015
174002	-986	-105	223	-34.65538	-35.00802	627.2425	0	12.14	4002	0	0	0	0	0.6904588	0.6238366	1	10	0.04	1800	0.5962141	-44.74001	-3.734015
174064	-1128	-335	-135	-36.27486	-34.29057	627.4277	0	12.14	4004	0	0	0	0	0.6904588	0.6227082	1	10	0.04	1800	1.204586	-44.74001	-3.734015
174128	213	1056	703	-36.86999	-35.41496	626.7264	0	12.14	4004	0	0	0	0	0.6904588	0.6201299	1	10	0.04	1800	1.11132	-44.74001	-3.734015
174261	-221	-459	-593	-36.83352	-35.67519	626.7366	0	12.14	4002	0	0	0	0	0.6904588	0.6254348	1	10	0.04	1800	0.6757072	-44.74001	-3.734015
174342	65	-368	121	-37.35027	-34.35675	627.281	0	12.14	4002	0	0	0	0	0.6904588	0.6324682	1	10	0.04	1800	0.8513221	-44.74001	-3.734015
174427	-81	300	-383	-37.52571	-34.53217	627.3182	0	12.19	4002	0	0	0	0	0.6904588	0.6332528	1	10	0.04	1800	1.325099	-44.74001	-3.734015
174531	-1003	-688	-639	-38.57935	-33.82592	627.9544	0	12.19	4003	0	0	0	0	0.6904588	0.6356188	1	10	0.04	1800	0.9679917	-44.74001	-3.734015
174649	-468	-784	302	-41.09099	-32.20284	628.7374	0	12.19	4002	0	0	0	0	0.6904588	0.6460252	1	10	0.04	1800	1.519409	-44.74001	-3.734015
174744	-1237	-2650	394	-41.56408	-30.11481	628.1057	0	12.19	4004	0	0	0	0	0.6904588	0.6487111	1	10	0.04	1800	3.899526	-44.74001	-3.734015
174922	-2203	-1260	1382	-45.41142	-25.61887	625.1362	0	12.19	4002	0	0	0	0	0.6904588	0.6582403	1	10	0.04	1800	9.553514	-44.74001	-3.734015
174977	-2487	-449	1342	-46.42414	-25.81832	624.3877	0	12.19	4003	0	0	0	0	0.6904588	0.6653854	1	10	0.04	1800	11.7829	-44.74001	-3.734015
175091	-4277	2258	1309	-52.26021	-33.19543	620.1219	0	12.19	4003	0	0	0	0	0.6904588	0.6680339	1	10	0.04	1800	11.47494	-44.74001	-3.734015
175149	-6320	2020	768	-54.79579	-34.97647	619.5705	0	12.19	4003	0	0	0	0	0.6904588	0.672969	1	10	0.04	1800	7.992746	-44.74001	-3.734015
175216	-4794	3664	1181	-60.9196	-38.16928	618.6024	0	12.19	4003	0	0	0	0	0.6904588	0.6762091	1	10	0.04	1800	2.018015	-44.74001	-3.734015
175364	-1724	3544	-5301	-63.65791	-40.15585	625.6404	0	12.19	4002	0	0	0	0	0.6904588	0.6853893	1	10	0.04	1800	-15.81326	-44.74001	-3.734015
175458	477	5041	898	-66.84435	-40.92857	627.9183	0	12.19	4002	0	0	0	0	0.6904588	0.6899478	1	10	0.04	1800	-22.59601	38.61092	-89.02689
175537	1157	2247	117	-64.01791	-45.20395	627.0645	0	12.19	4002	0	0	0	0	0.6904588	0.6888461	1	10	0.04	1800	-35.13943	40.8614	-91.3298
175621	197	1157	610	-62.67174	-43.42809	628.0173	0	12.19	4004	0	0	0	0	0.6904588	0.6844954	1	10	0.04	1800	-38.60172	40.91819	-91.38795
175719	-68	1893	3461	-61.23167	-46.593	625.8649	0	12.19	4004	0	0	0	0	0.6904588	0.6764984	1	10	0.04	1800	-41.35559	40.92366	-91.39355
175821	1178	740	-753	-56.02568	-51.26011	623.566	0	12.19	4003	0	0	0	0	0.6904588	0.6702471	1	10	0.04	1800	-47.14954	40.92379	-91.39369
175956	-1933	1292	984	-55.73253	-50.7804	623.6881	0	12.19	4003	0	0	0	0	0.6904588	0.6694939	1	10	0.04	1800	-46.72397	40.9238	-91.3937
176103	674	-1353	252	-58.96979	-45.07331	626.7269	0	12.19	4003	0	0	0	0	0.6904588	0.6776268	1	10	0.04	1800	-47.79135	40.9238	-91.3937
176157	577	-1349	935	-57.48878	-42.70169	626.0581	0	12.19	4003	0	0	0	0	0.6904588	0.6780263	1	10	0.04	1800	-45.40045	40.9238	-91.3937
176211	730	1416	762	-55.97621	-42.96462	625.2564	0	12.19	4004	0	0	0	0	0.6904588	0.6804695	1	10	0.04	1800	-40.30594	40.9238	-91.3937
176299	-48	2951	2576	-53.5522	-48.11766	622.5199	0	12.19	4003	0	0	0	0	0.6904588	0.6841598	1	10	0.04	1800	-42.52313	40.9238	-91.3937
176501	1805	-51	-639	-50.11401	-47.39565	622.7379	0	12.19	4002	0	0	0	0	0.6904588	0.6774055	1	10	0.04	1800	-43.24817	40.9238	-91.3937
176604	919	514	272	-49.31951	-45.66963	623.7432	0	12.19	4003	0	0	0	0	0.6904588	0.6682717	1	10	0.04	1800	-41.96194	40.92379	-91.3937
176743	-204	-781	502	-48.86453	-44.34906	623.2158	0	12.19	4004	0	0	0	0	0.6904588	0.656792	1	10	0.04	1800	-40.76404	40.9238	87.5061
176813	532	-859	312	-48.82536	-42.93335	622.7366	0	12.19	4002	0	0	0	0	0.6904588	0.6518857	1	10	0.04	1800	-38.59653	40.9238	-36.36851
176886	715	-1032	-211	-48.69933	-40.34549	622.9804	0	12.19	4004	0	0	0	0	0.6904588	0.6436067	1	10	0.04	1800	-36.53519	40.92379	-86.44144
177053	136	-1416	-4	-49.05791	-36.09298	623.3261	0	12.19	4002	0	0	0	0	0.6904588	0.6391539	1	10	0.04	1800	-31.97842	-37.03026	-11.58327
177107	-161	-292	135	-49.68066	-35.22005	623.2502	0	12.19	4002	0	0	0	0	0.6904588	0.6392751	1	10	0.04	1800	-29.50024	-44.53184	-3.945945
177199	-135	220	66	-50.0262	-34.84777	622.9133	0	12.19	4003	0	0	0	0	0.6904588	0.6412777	1	10	0.04	1800	-27.61081	-44.72127	-3.753088
177293	-41	-1048	28	-50.28711	-34.22649	622.7372	0	12.19	4003	0	0	0	0	0.6904588	0.6463815	1	10	0.04	1800	-27.1893	-44.7395	-3.734529
177403	28	-856	-93	-50.32713	-33.52108	622.7788	0	12.19	4003	0	0	0	0	0.6904588	0.6510099	1	10	0.04	1800	-26.13275	-44.74	-3.734019
177504	149	-416	-218	-50.38729	-32.79548	622.8317	0	12.19	4002	0	0	0	0	0.6904588	0.6509365	1	10	0.04	1800	-24.48004	-44.74001	-3.734015
177707	-101	-52	-113	-51.02022	-32.55149	622.8733	0	12.19	4002	0	0	0	0	0.6904588	0.6475354	1	10	0.04	1800	-23.39978	-44.74001	-3.734015
177758	-129	-211	37	-51.23848	-32.46966	622.9147	0	12.19	4004	0	0	0	0	0.6904588	0.6403069	1	10	0.04	1800	-23.39978	-44.74001	-3.734015
177809	57	89	180	-51.24658	-32.63385	622.8276	0	12.19	4002	0	0	0	0	0.6904588	0.6403069	1	10	0.04	1800	-23.18741	-44.74001	-3.734015
177898	57	89	180	-51.24658	-32.63385	622.8276	0	12.19	4002	0	0	0	0	0.6904588	0.6403069	1	10	0.04	1800	-23.18741	-44.74001	-3.734015
177984	57	89	180	-51.24658	-32.63385	622.8276	0	12.19	4002	0	0	0	0	0.6904588	0.6403069	1	10	0.04	1800	-23.18741	-44.74001	-3.734015
178068	57	89	180	-51.24658	-32.63385	622.8276	0	12.19	4002	0	0	0	0	0.6904588	0.6403069	1	10	0.04	1800	-23.18741	-44.74001	-3.734015
178163	57	89	180	-51.24658	-32.63385	622.8276	0	12.19	4002	0	0	0	0	0.6904588	0.6403069	1	10	0.04	1800	-23.18741	-44.74001	-3.734015
178254	57	89	180	-51.24658	-32.63385	622.8276	0	12.19	4002	0	0	0	0	0.6904588	0.6403069	1	10	0.04	1800	-23.18741	-44.74001	-3.734015
178355	57	89	180	-51.24658	-32.63385	622.8276	0	12.19	4002	0	0	0	0	0.6904588	0.6403069	1	10	0.04	1800	-23.18741	-44.74001	-3.734015
178453	57	89	180	-51.24658	-32.63385	622.8276	0	12.19	4002	0	0	0	0	0.6904588	0.6403069	1	10	0.04	1800	-23.18741	-44.74001	-3.734015
178541	57	89	180	-51.24658	-32.63385	622.8276	0	12.19	4002	0	0	0	0	0.6904588	0.6403069	1	10	0.04	1800	-23.18741	-44.74001	-3.734015
178632	57	89	180	-51.24658	-32.63385	622.8276	0	12.19	4002	0	0	0	0	0.6904588	0.6403069	1	10	0.04	1800	-23.18741	-44.74001	-3.734015
178718	57	89	180	-51.24658	-32.63385	622.8276	0	12.19	4002	0	0	0	0	0.6904588	0.6403069	1	10	0.04	1800	-23.18741	-44.74001	-3.734015
178802	57	89	180	-51.24658	-32.63385	622.8276	0	12.19	4002	0	0	0	0	0.6904588	0.6403069	1	10	0.04	1800	-23.18741	-44.74001	-3.734015
178802	57	89	180	-51.24658	-32.63385	622.8276	0	12.19	4002	0	0	0	0	0.6904588	0.6403069	1	10	0.04	1800	-23.18741	-44.74001	-3.734015
178802	57	89	180	-51.24658	-32.63385	622.8276	0	12.19	4002	0	0	0	0	0.6904588	0.6403069	1	10	0.04	1800	-23.18741	-44.74001	-3.734015
178802	57	89	180	-51.24658	-32.63385	622.8276	0	12.19	4002	0	0	0	0	0.6904588	0.6403069	1	10	0.04	1800	-23.18741	-44.74001	-3.734015
178877	57	89	180	-51.24658	-32.63385	622.8276	0	12.19	4002	0	0	0	0	0.6904588	0.6403069	1	10	0.04	1800	-23.18741	-44.74001	-3.734015
178984	57	89	180	-51.24658	-32.63385	622.8276	0	12.19	4002	0	0	0	0	0.6904588	0.6403069	1	10	0.04	1800	-23.18741	-44.74001	-3.734015
179070	57	89	180	-51.24658	-32.63385	622.8276	0	12.19	4002	0	0	0	0	0.6904588	0.6403069	1	10	0.04	1800	-23.18741	-44.74001	-3.734015
179159	57	89	180	-51.24658	-32.63385	622.8276	0	12.19	4002	0	0	0	0	0.6904588	0.6403069	1	10	0.04	1800	-23.18741	-44.74001	-3.734015
179246	57	89	180	-51.24658	-32.63385	622.8276	0	12.19	4002	0	0	0	0	0.6904588	0.6403069	1	10	0.04	1800	-23.18741	-44.74001	-3.734015
179329	57	89	180	-51.24658	-32.63385	622.8276	0	12.19	4002	0	0	0	0	0.6904588	0.6403069	1	10	0.04	1800	-23.18741	-44.74001	-3.734015
179413	57	89	180	-51.24658	-32.63385	622.8276	0	12.19	4002	0	0	0	0	0.6904588	0.6403069	1	10	0.04	1800	-23.18741	-44.74001	-3.734015
179495	57	89	180	-51.24658	-32.63385	622.8276	0	12.19	4002	0	0	0	0	0.6904588	0.6403069	1	10	0.04	1800	-23.18741	-44.74001	-3.734015
179583	57	89	180	-51.24658	-32.63385	622.8276	0	12.19	4002	0	0	0	0	0.6904588	0.6403069	1	10	0.04	1800	-23.18741	-44.74001	-3.734015
179669	57	89	180	-51.24658	-32.63385	622.8276	0	12.19	4002	0	0	0	0	0.6904588	0.6403069	1	10	0.04	1800	-23.18741	-44.74001	-3.734015
179756	57	89	180	-51.24658	-32.63385	622.8276	0	12.19	4002	0	0	0	0	0.6904588	0.6403069	1	10	0.04	1800	-23.18741	-44.74001	-3.734015
179843	57	89	180	-51.24658	-32.63385	622.8276	0	12.19	4002	0	0	0	0	0.6904588	0.6403069	1	10	0.04	1800	-23.18741	-44.74001	-3.734015
179941	57	89	180	-51.24658	-32.63385	622.8276	0	12.19	4002	0	0	0	0	0.6904588	0.6403069	1	10	0.04	1800	-23.18741	-44.74001	-3.734015
180045	57	89	180	-51.24658	-32.63385	622.8276	0	12.19	4002	0	0	0	0	0.6904588	0.6403069	1	10	0.04	1800	-23.18741	-44.74001	-3.734015
180135	57	89	180	-51.24658	-32.63385	622.8276	0	12.19	4002	0	0	0	0	0.6904588	0.6403069	1	10	0.04	1800	-23.18741	-44.74001	-3.734015
180222	57	89	180	-51.24658	-32.63385	622.8276	0	12.19	4002	0	0	0	0	0.6904588	0.6403069	1	10	0.04	1800	-23.18741	-44.74001	-3.734015
180304	57	89	180	-51.24658	-32.63385	622.8276	0	12.19	4002	0	0	0	0	0.6904588	0.6403069	1	10	0.04	1800	-23.18741	-44.74001	-3.734015
180386	57	89	180	-51.24658	-32.63385	622.8276	0	12.19	4002	0	0	0	0	0.6904588	0.6403069	1	10	0.04	1800	-23.18741	-44.74001	-3.734015
180471	57	89	180	-51.24658	-32.63385	622.8276	0	12.19	4002	0	0	0	0	0.6904588	0.6403069	1	10	0.04	1800	-23.18741	-44.74001	-3.734015
180558	57	89	180	-51.24658	-32.63385	622.8276	0	12.19	4002	0	0	0	0	0.6904588	0.6403069	1	10	0.04	1800	-23.18741	-44.74001	-3.734015
180644	57	89	180	-51.24658	-32.63385	622.8276	0	12.19	4002	0	0	0	0	0.6904588	0.6403069	1	10	0.04	1800	-23.18741	-44.74001	-3.734015
180737	57	89	180	-51.24658	-32.63385	622.8276	0	12.19	4002	0	0	0	0	0.6904588	0.6403069	1	10	0.04	1800	-23.18741	-44.74001	-3.734015
180822	57	89	180	-51.24658	-32.63385	622.8276	0	12.19	4002	0	0	0	0	0.6904588	0.6403069	1	10	0.04	1800	-23.18741	-44.74001	-3.734015
180902	57	89	180	-51.24658	-32.63385	622.8276	0	12.19	4002	0	0	0	0	0.6904588	0.6403069	1	10	0.04	1800	-23.18741	-44.74001	-3.734015
181005	57	89	180	-51.24658	-32.63385	622.8276	0	12.19	4002	0	0	0	0	0.6904588	0.6403069	1	10	0.04	1800	-23.18741	-44.74001	-3.734015
181096	57	89	180	-51.24658	-32.63385	622.8276	0	12.19	4002	0	0	0	0	0.6904588	0.6403069	1	10	0.04	1800	-23.18741	-44.74001	-3.734015
181181	57	89	180	-51.24658	-32.63385	622.8276	0	12.19	4002	0	0	0	0	0.6904588	0.6403069	1	10	0.04	1800	-23.18741	-44.74001	-3.734015
181272	57	89	180	-51.24658	-32.63385	622.8276	0	12.19	4002	0	0	0	0	0.6904588	0.6403069	1	10	0.04	1800	-23.18741	-44.74001	-3.734015
181307	57	89	180	-51.24658	-32.63385	622.8276	0	12.19	4002	0	0	0	0	0.6904588	0.6403069	1	10	0.04	1800	-23.18741	-44.74001	-3.734015
181351	57	89	180	-51.24658	-32.63385	622.8276	0	12.19	4002	0	0	0	0	0.6904588	0.6403069	1	10	0.04	1800	-23.18741	-44.74001	-3.734015
181427	57	89	180	-51.24658	-32.63385	622.8276	0	12.19	4002	0	0	0	0	0.6904588	0.6403069	1	10	0.04	1800	-23.18741	-44.74001	-3.734015
181500	57	89	180	-51.24658	-32.63385	622.8276	0	12.19	4002	0	0	0	0	0.6904588	0.6403069	1	10	0.04	1800	-23.18741	-44.74001	-3.734015
181571	57	89	180	-51.24658	-32.63385	622.8276	0	12.19	4002	0	0	0	0	0.6904588	0.6403069	1	10	0.04	1800	-23.18741	-44.74001	-3.734015
181649	57	89	180	-51.24658	-32.63385	622.8276	0	12.19	4002	0	0	0	0	0.6904588	0.6403069	1	10	0.04	1800	-23.18741	-44.74001	-3.734015
181722	57	89	180	-51.24658	-32.63385	622.8276	0	12.19	4002	0	0	0	0	0.6904588	0.6403069	1	10	0.04	1800	-23.18741	-44.74001	-3.734015
181804	57	89	180	-51.24658	-32.63385	622.8276	0	12.19	4002	0	0	0	0	0.6904588	0.6403069	1	10	0.04	1800	-23.18741	-44.74001	-3.734015
181902	57	89	180	-51.24658	-32.63385	622.8276	0	12.19	4002	0	0	0	0	0.6904588	0.6403069	1	10	0.04	1800	-23.18741	-44.74001	-3.734015
181976	57	89	180	-51.24658	-32.63385	622.8276	0	12.19	4002	0	0	0	0	0.6904588	0.6403069	1	10	0.04	1800	-23.18741	-44.74001	-3.734015
182065	57	89	180	-51.24658	-32.63385	622.8276	0	12.19	4002	0	0	0	0	0.6904588	0.6403069	1	10	0.04	1800	-23.18741	-44.74001	-3.734015
182152	57	89	180	-51.24658	-32.63385	622.8276	0	12.19	4002	0	0	0	0	0.6904588	0.6403069	1	10	0.04	1800	-23.18741	-44.74001	-3.734015
182235	57	89	180	-51.24658	-32.63385	622.8276	0	12.19	4002	0	0	0	0	0.6904588	0.6403069	1	10	0.04	1800	-23.18741	-44.74001	-3.734015
182323	57	89	180	-51.24658	-32.63385	622.8276	0	12.19	4002	0	0	0	0	0.6904588	0.6403069	1	10	0.04	1800	-23.18741	-44.74001	-3.734015
182408	57	89	180	-51.24658	-32.63385	622.8276	0	12.19	4002	0	0	0	0	0.6904588	0.6403069	1	10	0.04	1800	-23.18741	-44.74001	-3.734015
182493	57	89	180	-51.24658	-32.63385	622.8276	0	12.19	4002	0	0	0	0	0.6904588	0.6403069	1	10	0.04	1800	-23.18741	-44.74001	-3.734015
182574	57	89	180	-51.24658	-32.63385	622.8276	0	12.19	4002	0	0	0	0	0.6904588	0.6403069	1	10	0.04	1800	-23.18741	-44.74001	-3.734015
182660	57	89	180	-51.24658	-32.63385	622.8276	0	12.19	4002	0	0	0	0	0.6904588	0.6403069	1	10	0.04	1800	-23.18741	-44.74001	-3.734015
182735	57	89	180	-51.24658	-32.63385	622.8276	0	12.19	4002	0	0	0	0	0.6904588	0.6403069	1	10	0.04	1800	-23.18741	-44.74001	-3.734015
182833	57	89	180	-51.24658	-32.63385	622.8276	0	12.19	4002	0	0	0	0	0.6904588	0.6403069	1	10	0.04	1800	-23.18741	-44.74001	-3.734015
182915	57	89	180	-51.24658	-32.63385	622.8276	0	12.19	4002	0	0	0	0	0.6904588	0.6403069	1	10	0.04	1800	-23.18741	-44.74001	-3.734015
183003	57	89	180	-51.24658	-32.63385	622.8276	0	12.19	4002	0	0	0	0	0.6904588	0.6403069	1	10	0.04	1800	-23.18741	-44.74001	-3.734015
183087	57	89	180	-51.24658	-32.63385	622.8276	0	12.19	4002	0	0	0	0	0.6904588	0.6403069	1	10	0.04	1800	-23.18741	-44.74001	-3.734015
183175	57	89	180	-51.24658	-32.63385	622.8276	0	12.19	4002	0	0	0	0	0.6904588	0.6403069	1	10	0.04	1800	-23.18741	-44.74001	-3.734015
183257	57	89	180	-51.24658	-32.63385	622.8276	0	12.19	4002	0	0	0	0	0.6904588	0.6403069	1	10	0.04	1800	-23.18741	-44.74001	-3.734015
183349	57	89	180	-51.24658	-32.63385	622.8276	0	12.19	4002	0	0	0	0	0.6904588	0.6403069	1	10	0.04	1800	-23.18741	-44.74001	-3.734015
183435	57	89	180	-51.24658	-32.63385	622.8276	0	12.19	4002	0	0	0	0	0.6904588	0.6403069	1	10	0.04	1800	-23.18741	-44.74001	-3.734015
183520	57	89	180	-51.24658	-32.63385	622.8276	0	12.19	4002	0	0	0	0	0.6904588	0.6403069	1	10	0.04	1800	-23.18741	-44.74001	-3.734015
183606	57	89	180	-51.24658	-32.63385	622.8276	0	12.19	4002	0	0	0	0	0.6904588	0.6403069	1	10	0.04	1800	-23.18741	-44.74001	-3.734015
183696	57	89	180	-51.24658	-32.63385	622.8276	0	12.19	4002	0	0	0	0	0.6904588	0.6403069	1	10	0.04	1800	-23.18741	-44.74001	-3.734015
183797	57	89	180	-51.24658	-32.63385	622.8276	0	12.19	4002	0	0	0	0	0.6904588	0.6403069	1	10	0.04	1800	-23.18741	-44.74001	-3.734015
183880	57	89	180	-51.24658	-32.63385	622.8276	0	12.19	4002	0	0	0	0	0.6904588	0.6403069	1	10	0.04	1800	-23.18741	-44.74001	-3.734015
183971	57	89	180	-51.24658	-32.63385	622.8276	0	12.19	4002	0	0	0	0	0.6904588	0.6403069	1	10	0.04	1800	-23.18741	-44.74001	-3.734015
184056	57	89	180	-51.24658	-32.63385	622.8276	0	12.19	4002	0	0	0	0	0.6904588	0.6403069	1	10	0.04	1800	-23.18741	-44.74001	-3.734015
184144	57	89	180	-51.24658	-32.63385	622.8276	0	12.19	4002	0	0	0	0	0.6904588	0.6403069	1	10	0.04	1800	-23.18741	-44.74001	-3.734015
184227	57	89	180	-51.24658	-32.63385	622.8276	0	12.19	4002	0	0	0	0	0.6904588	0.6403069	1	10	0.04	1800	-23.18741	-44.74001	-3.734015
184313	57	89	180	-51.24658	-32.63385	622.8276	0	12.19	4002	0	0	0	0	0.6904588	0.6403069	1	10	0.04	1800	-23.18741	-44.74001	-3.734015
184405	57	89	180	-51.24658	-32.63385	622.8276	0	12.19	4002	0	0	0	0	0.6904588	0.6403069	1	10	0.04	1800	-23.18741	-44.74001	-3.734015
184493	57	89	180	-51.24658	-32.63385	622.8276	0	12.19	4002	0	0	0	0	0.6904588	0.6403069	1	10	0.04	1800	-23.18741	-44.74001	-3.734015
