time(ms)	gyro_x(deg/s)	gyro_y(deg/s)	gyro_z(deg/s)	orientation_roll(deg)	orientation_pitch(deg)	orientation_yaw(deg)	throttle	battery(V)	loop_time(uS)	pid_output_roll	pid_output_pitch	pid_output_yaw	pid_output_throttle	ultrasonic_alt	baro_alt	flight_mode	p_gain_altitude	i_gain_altitude	d_gain_altitude	compass_heading	latitude	longitude
31506	4332	-5191	1006	-0.3771374	20.44417	95.85279	0	12.31	4002	0	0	0	0	0.02	0.1480818	1	10	0.04	1800	-97.4437	-44.74001	-3.734015
31566	4363	-391	1446	2.450383	22.54083	94.46226	0	12.31	4004	0	0	0	0	0.02	0.1943098	1	10	0.04	1800	257.4702	-44.74001	-3.734015
31678	3228	1197	1472	4.919252	20.96437	92.83083	0	12.31	4002	0	0	0	0	0.02	0.2482377	1	10	0.04	1800	257.2347	-44.74001	-3.734015
31807	-3012	-164	1274	1.597614	11.93389	86.30942	0	12.31	4003	0	0	0	0	0.02	0.2876405	1	10	0.04	1800	-97.45694	-44.74001	-3.734015
31881	-470	-1262	-346	0.02612201	12.00185	85.89883	0	12.25	4002	0	0	0	0	0.02	0.3047446	1	10	0.04	1800	-98.92645	-44.74001	-3.734015
31942	794	-724	-709	0.4123609	11.9613	86.2183	0	12.25	4003	0	0	0	0	0.02	0.3191525	1	10	0.04	1800	-98.92645	-44.74001	-3.734015
32078	-1520	1768	-1460	0.5278792	6.367497	88.80814	0	12.25	4002	0	0	0	0	0.02	0.3438935	1	10	0.04	1800	251.4492	-44.74001	-3.734015
32223	563	4929	-4825	-1.072406	0.9824845	94.92488	0	12.25	4004	0	0	0	0	0.02	0.3597791	1	10	0.04	1800	247.859	-44.74001	-3.734015
32268	358	5431	-6617	-0.6619602	-4.355211	101.4974	0	12.25	4002	0	0	0	0	0.02	0.3621434	1	10	0.04	1800	244.4865	-44.74001	-3.734015
32394	-2182	1684	-3567	-3.00593	-9.021485	110.1943	0	12.25	4003	0	0	0	0	0.02	0.3785139	1	10	0.04	1800	240.3507	-44.74001	-3.734015
32452	-4047	1364	-4241	-8.155474	-10.19521	116.0743	0	12.25	4003	0	0	0	0	0.02	0.3805429	1	10	0.04	1800	239.1356	-44.74001	-3.734015
32628	2000	3762	-1994	-10.81777	-14.7881	124.5288	0	12.25	4002	0	0	0	0	0.02	0.3684089	1	10	0.04	1800	231.5091	-44.74001	-3.734015
32707	518	-860	-1813	-10.05871	-14.85494	128.0621	0	12.25	4002	0	0	0	0	0.02	0.3629568	1	10	0.04	1800	231.0347	-44.74001	-3.734015
32813	2020	-2255	1218	-6.60049	-11.35301	128.1035	0	12.25	4004	0	0	0	0	0.02	0.360834	1	10	0.04	1800	229.689	-44.74001	-3.734015
32855	656	-2815	1285	-5.570835	-10.06805	127.3898	0	12.25	4004	0	0	0	0	0.02	0.3612981	1	10	0.04	1800	231.7102	-44.74001	-3.734015
32934	-463	-2703	1419	-5.102805	-6.762598	126.0204	0	12.25	4002	0	0	0	0	0.02	0.3620393	1	10	0.04	1800	232.1781	-44.74001	-3.734015
33037	2951	5220	3407	-0.08290789	-8.902699	120.8684	0	12.25	4003	0	0	0	0	0.02	0.3624357	1	10	0.04	1800	236.2406	-44.74001	-3.734015
33183	-2380	-1348	5749	2.321921	-9.711926	111.1758	0	12.25	4002	0	0	0	0	0.02	0.3538554	1	10	0.04	1800	252.623	-44.74001	-3.734015
33291	-932	-5559	4664	1.670072	-3.245995	98.56953	0	12.25	4004	0	0	0	0	0.02	0.3267888	1	10	0.04	1800	-94.32111	-44.74001	-3.734015
33353	-262	-4937	3670	1.760971	-0.9182745	96.31718	0	12.25	4004	0	0	0	0	0.02	0.3188409	1	10	0.04	1800	-94.026	-44.74001	-3.734015
33446	2525	-2202	2494	6.132062	3.547756	89.5015	0	12.25	4003	0	0	0	0	0.02	0.3103645	1	10	0.04	1800	-94.45068	-44.74001	-3.734015
33554	1863	-2262	1357	7.540434	5.059588	87.4055	0	12.25	4003	0	0	0	0	0.02	0.293287	1	10	0.04	1800	-96.62393	-44.74001	-3.734015
33720	1942	-555	-2207	8.808081	6.583806	85.46747	0	12.25	4004	0	0	0	0	0.02	0.2762576	1	10	0.04	1800	-99.38763	-44.74001	-3.734015
33804	-4865	1993	-5994	9.129227	4.277224	90.82517	0	12.25	4004	0	0	0	0	0.02	0.2622806	1	10	0.04	1800	254.9601	-44.74001	-3.734015
33856	-3757	3089	-5186	6.780747	2.379406	93.92465	0	12.25	4002	0	0	0	0	0.02	0.2594264	1	10	0.04	1800	248.2734	-44.74001	-3.734015
34025	-2216	-4	-1532	-0.2356775	-2.226875	104.0775	0	12.25	4002	0	0	0	0	0.02	0.2602166	1	10	0.04	1800	244.7437	-44.74001	-3.734015
34057	-2216	-4	-1532	-0.2356775	-2.226875	104.0775	0	12.25	4002	0	0	0	0	0.02	0.258049	1	10	0.04	1800	244.7437	-44.74001	-3.734015
34173	-1685	3458	468	-3.805732	-2.721814	105.0288	0	12.25	4003	0	0	0	0	0.02	0.2548469	1	10	0.04	1800	246.4933	38.61092	-89.02684
34307	692	-602	803	-1.953395	-7.118092	103.5321	0	12.25	4003	0	0	0	0	0.02	0.2469813	1	10	0.04	1800	256.7456	40.90511	-91.37448
34364	397	3040	1008	-1.431602	-8.245016	102.618	0	12.25	4003	0	0	0	0	0.02	0.236835	1	10	0.04	1800	258.3293	40.92216	-91.39192
34496	268	-2937	2523	1.421072	-6.586661	98.36733	0	12.25	4004	0	0	0	0	0.02	0.2262641	1	10	0.04	1800	-95.01218	40.92382	-91.39363
34638	1933	-1882	3440	4.498923	-3.486139	93.24374	0	12.25	4003	0	0	0	0	0.02	0.2153837	1	10	0.04	1800	-94.3295	40.92384	-91.39364
34679	1170	-1889	3220	5.260261	-2.578974	91.39099	0	12.31	4002	0	0	0	0	0.02	0.2118961	1	10	0.04	1800	-94.3295	40.92383	-91.39362
34782	76	-1158	1401	5.305127	1.233651	87.42633	0	12.31	4002	0	0	0	0	0.02	0.2037613	1	10	0.04	1800	-91.87598	40.92382	-91.39362
34877	-1044	-1071	2404	4.233512	3.286493	84.2293	0	12.31	4003	0	0	0	0	0.02	0.1983586	1	10	0.04	1800	-91.02863	40.92382	-91.39362
34969	-3085	-3559	1048	0.6981796	6.425813	81.06831	0	12.31	4004	0	0	0	0	0.02	0.1938368	1	10	0.04	1800	-88.30042	40.92382	-91.39362
35147	1931	145	1568	3.490326	4.97495	76.10439	0	12.31	4004	0	0	0	0	0.02	0.1930196	1	10	0.04	1800	-85.30124	40.92382	-91.39362
35233	2822	-740	1173	6.60592	7.411398	74.81468	0	12.31	4004	0	0	0	0	0.02	0.1965019	1	10	0.04	1800	-85.76138	40.92381	-91.39361
35319	2447	62	2651	9.120316	7.929077	72.65696	0	12.31	4003	0	0	0	0	0.02	0.206373	1	10	0.04	1800	-83.48972	40.92381	-91.39361
35441	3498	1399	3774	13.28505	7.443977	65.68436	0	12.31	4002	0	0	0	0	0.02	0.2312208	1	10	0.04	1800	-74.85968	40.92381	-91.39361
35538	674	-212	3530	16.06734	6.86626	59.36998	0	12.31	4003	0	0	0	0	0.02	0.2369434	1	10	0.04	1800	-68.11417	40.9238	-91.39361
35631	-1268	3125	2403	14.97082	6.680646	55.35832	0	12.31	4002	0	0	0	0	0.02	0.2434246	1	10	0.04	1800	-65.35355	40.92379	-91.3936
35718	-1198	631	-228	11.96143	1.826515	50.80243	0	12.31	4003	0	0	0	0	0.02	0.2507762	1	10	0.04	1800	-57.68695	40.92379	-91.3936
35836	-358	267	-1637	11.96923	1.2278	52.60906	0	12.31	4004	0	0	0	0	0.02	0.2589506	1	10	0.04	1800	-58.90753	40.9238	-91.3936
35910	-213	683	-1364	12.44237	-0.664628	55.22898	0	12.31	4004	0	0	0	0	0.02	0.2645846	1	10	0.04	1800	-62.78635	40.92381	-91.39361
35969	-1241	617	-323	11.55437	-0.905937	57.11818	0	12.31	4003	0	0	0	0	0.02	0.2666269	1	10	0.04	1800	-64.36627	40.92381	-91.39361
36028	-1535	866	450	10.80662	-1.257819	57.04126	0	12.31	4003	0	0	0	0	0.02	0.2679089	1	10	0.04	1800	-64.32886	40.92381	-91.39361
36123	-2644	-3936	-616	6.340224	1.160822	56.9412	0	12.31	4003	0	0	0	0	0.02	0.2637365	1	10	0.04	1800	-64.90146	40.92382	-91.39361
36217	-977	-3964	-853	3.922627	7.542271	58.24225	0	12.31	4003	0	0	0	0	0.02	0.2595063	1	10	0.04	1800	-67.36194	40.92382	-91.39361
36317	-434	-3056	1867	2.136529	12.1402	57.42033	0	12.31	4002	0	0	0	0	0.02	0.2576754	1	10	0.04	1800	-75.89722	40.92382	-91.39361
36443	-562	-578	1228	-0.8934571	18.93151	52.91591	0	12.31	4003	0	0	0	0	0.02	0.2603437	1	10	0.04	1800	-73.2915	40.92382	-91.39361
36613	-184	511	314	-0.8403184	17.64886	52.89385	0	12.31	4003	0	0	0	0	0.02	0.2668889	1	10	0.04	1800	-70.04694	40.92384	-91.39362
36703	-298	1642	885	-2.696974	16.18129	51.36102	0	12.31	4003	0	0	0	0	0.02	0.2752722	1	10	0.04	1800	-68.51019	40.92384	-91.39362
36755	6	1162	461	-2.946271	15.51202	51.00011	0	12.31	4004	0	0	0	0	0.02	0.2806366	1	10	0.04	1800	-65.59677	40.92384	-91.39362
36842	60	784	-208	-3.126163	14.62768	50.95382	0	12.31	4002	0	0	0	0	0.02	0.2902524	1	10	0.04	1800	-63.16849	40.92385	-91.39362
36930	224	288	416	-2.964685	13.93267	50.89695	0	12.31	4003	0	0	0	0	0.02	0.2943731	1	10	0.04	1800	-61.30289	40.92385	-91.39362
37027	127	-422	724	-2.983363	14.37603	50.23587	0	12.31	4004	0	0	0	0	0.02	0.3002794	1	10	0.04	1800	-59.71661	40.92385	-91.39362
37125	-279	-289	901	-3.87826	15.76856	48.5013	0	12.31	4003	0	0	0	0	0.02	0.305222	1	10	0.04	1800	-57.29556	40.92385	-91.39362
37283	305	585	1637	-4.181957	15.82229	45.87197	0	12.31	4003	0	0	0	0	0.02	0.3106714	1	10	0.04	1800	-53.50391	40.92385	-91.39362
37367	-652	2352	3926	-5.249073	14.06698	41.17918	0	12.31	4004	0	0	0	0	0.02	0.3124004	1	10	0.04	1800	-48.64624	40.92385	-91.39362
37451	-860	3497	5873	-8.802916	9.108345	33.01443	0	12.31	4004	0	0	0	0	0.02	0.3086389	1	10	0.04	1800	-43.15106	40.92385	-91.39362
37568	-147	3445	4552	-9.223633	2.675003	24.1083	0	12.31	4002	0	0	0	0	0.02	0.3073903	1	10	0.04	1800	-28.92551	40.92385	-91.39362
37659	78	373	5460	-10.10801	-0.440247	16.15231	0	12.31	4003	0	0	0	0	0.02	0.3023835	1	10	0.04	1800	-23.82132	40.92384	-91.39362
37853	49	-3465	3674	-10.63795	1.90706	2.402057	0	12.31	4002	0	0	0	0	0.02	0.2800734	1	10	0.04	1800	-10.89151	40.92384	-91.39362
38001	1580	-1429	1121	-7.191747	5.02791	-4.05222	0	12.31	4004	0	0	0	0	0.02	0.2614725	1	10	0.04	1800	-6.606842	40.92384	-91.39362
38082	928	-791	1009	-5.035224	4.467526	-5.143213	0	12.31	4004	0	0	0	0	0.02	0.2510205	1	10	0.04	1800	-5.959839	40.92384	-91.39362
38136	-251	483	1099	-4.568324	3.890961	-5.721928	0	12.31	4003	0	0	0	0	0.02	0.2361662	1	10	0.04	1800	-5.810638	40.92384	-91.39362
38221	-137	260	1	-3.645542	0.7326113	-8.586134	0	12.31	4002	0	0	0	0	0.02	0.2137378	1	10	0.04	1800	-5.613129	40.92384	-91.39362
38293	992	359	-1497	-2.697548	-0.2398309	-7.825973	0	12.36	4004	0	0	0	0	0.02	0.1976406	1	10	0.04	1800	-6.729523	40.92384	-91.39362
38401	-369	-76	-68	-0.4062324	-1.675538	-5.407269	0	12.36	4003	0	0	0	0	0.02	0.1750114	1	10	0.04	1800	-8.748169	40.92384	-91.39362
38515	-36	-50	-5	0.1235047	-2.288555	-4.35373	0	12.36	4004	0	0	0	0	0.02	0.1404992	1	10	0.04	1800	-8.356628	40.92385	-91.39362
38610	-51	-634	20	0.3153072	-2.29747	-4.41701	0	12.36	4002	0	0	0	0	0.02	0.1216994	1	10	0.04	1800	-8.628479	40.92385	-91.39362
38704	-110	65	13	0.3660517	-1.049987	-4.357531	0	12.36	4003	0	0	0	0	0.02	0.09206129	1	10	0.04	1800	-8.568939	40.92385	-91.39362
38793	54	55	1	0.1769711	-1.220513	-4.369024	0	12.36	4003	0	0	0	0	0.02	0.07316212	1	10	0.04	1800	-8.091553	40.92385	-91.39362
38927	-58	-51	8	0.2176306	-1.065167	-4.378805	0	12.36	4002	0	0	0	0	0.02	0.02907876	1	10	0.04	1800	-8.459747	40.92385	-91.39362
39008	6	28	4	0.1496264	-0.9515819	-4.383389	0	12.36	4003	0	0	0	0	0.02	-0.002516852	1	10	0.04	1800	-8.014465	40.92385	-91.39362
39093	-11	-16	4	0.1127309	-0.8477284	-4.396962	0	12.36	4003	0	0	0	0	0.02	-0.02235503	1	10	0.04	1800	-8.223907	40.92385	-91.39362
39195	-13	16	1	0.1111504	-0.7896553	-4.400507	0	12.31	4004	0	0	0	0	0.02	-0.049691	1	10	0.04	1800	-8.118866	40.92386	-91.39362
39300	-5	4	4	0.08676106	-0.6900437	-4.416098	0	12.31	4002	0	0	0	0	0.02	-0.07212832	1	10	0.04	1800	-8.106995	40.92386	-91.39362
39391	-9	-13	8	0.0677525	-0.658893	-4.426613	0	12.31	4004	0	0	0	0	0.02	-0.08231047	1	10	0.04	1800	-8.094299	40.92385	-91.39362
39501	-9	-8	8	0.05029224	-0.5794766	-4.439941	0	12.31	4003	0	0	0	0	0.02	-0.1074613	1	10	0.04	1800	-8.033691	40.92385	-91.39362
39595	-9	-9	2	0.05159959	-0.5417043	-4.445381	0	12.31	4002	0	0	0	0	0.02	-0.1186479	1	10	0.04	1800	-7.984161	40.92386	-91.39362
39706	-9	-6	1	0.03274987	-0.4869819	-4.457548	0	12.31	4003	0	0	0	0	0.02	-0.1264891	1	10	0.04	1800	-7.945984	40.92386	-91.39362
39797	-10	0	8	0.02300115	-0.4575954	-4.463784	0	12.31	4002	0	0	0	0	0.02	-0.1321689	1	10	0.04	1800	-7.927399	40.92386	-91.39362
39935	-9	6	6	0.01840684	-0.4206338	-4.475277	0	12.31	4002	0	0	0	0	0.02	-0.1333815	1	10	0.04	1800	-7.907227	40.92386	-91.39362
40029	-6	0	3	0.01023089	-0.3894454	-4.487015	0	12.31	4002	0	0	0	0	0.02	-0.1358391	1	10	0.04	1800	-7.852356	40.92386	-91.39362
40140	-7	-1	6	0.008671619	-0.3643007	-4.498509	0	12.31	4003	0	0	0	0	0.02	-0.1468584	1	10	0.04	1800	-7.654266	40.92387	-91.39361
40175	-5	-4	3	0.009191206	-0.3568739	-4.50071	0	12.31	4003	0	0	0	0	0.02	-0.1494485	1	10	0.04	1800	-7.654266	40.92387	-91.39361
40397	-5	-10	11	0.01371956	-0.3326086	-4.516604	0	12.31	4003	0	0	0	0	0.02	-0.1651951	1	10	0.04	1800	-7.877319	40.92387	-91.39362
40544	-7	-4	5	0.01246262	-0.306935	-4.531092	0	12.31	4004	0	0	0	0	0.02	-0.1758374	1	10	0.04	1800	-7.870331	40.92387	-91.39362
40606	-4	-3	6	0.008320894	-0.2968355	-4.53641	0	12.31	4003	0	0	0	0	0.02	-0.179865	1	10	0.04	1800	-7.670471	40.92386	-91.39362
40675	-3	-5	7	0.001206975	-0.2878854	-4.546132	0	12.31	4003	0	0	0	0	0.02	-0.1822025	1	10	0.04	1800	-7.889832	40.92386	-91.39362
40769	-50	-80	-9	-0.06010401	-0.3290236	-4.583729	0	12.31	4003	0	0	0	0	0.02	-0.1824573	1	10	0.04	1800	-7.956482	40.92386	-91.39362
40871	84	-45	164	-0.06108434	-0.2259109	-4.617301	0	12.31	4003	0	0	0	0	0.02	-0.1769631	1	10	0.04	1800	-7.717499	40.92386	-91.39362
40986	128	-97	2077	-0.4179991	-0.1724855	-5.525048	0	12.31	4002	0	0	0	0	0.02	-0.1628707	1	10	0.04	1800	-7.435883	40.92386	-91.39361
41087	-211	495	3041	0.1083457	-1.057148	-10.44654	0	12.31	4003	0	0	0	0	0.02	-0.1520169	1	10	0.04	1800	-6.058289	40.92386	-91.39361
41138	-150	-422	-912	0.05509043	-0.926257	-11.17188	0	12.31	4003	0	0	0	0	0.02	-0.1470198	1	10	0.04	1800	-3.932922	40.92386	-91.39361
41243	-64	-20	23	-0.1584933	-0.4251735	-10.34031	0	12.31	4003	0	0	0	0	0.02	-0.1415505	1	10	0.04	1800	-3.900024	40.92386	-91.39361
41353	31	-7	4	-0.02469913	-0.2412185	-10.30204	0	12.31	4003	0	0	0	0	0.02	-0.1380448	1	10	0.04	1800	-4.063782	40.92385	-91.39361
41436	-95	13	22	-0.02635124	-0.2595194	-10.32337	0	12.31	4004	0	0	0	0	0.02	-0.1395055	1	10	0.04	1800	-4.523956	40.92385	-91.39361
41541	20	-6	0	-0.0985094	-0.2703575	-10.32606	0	12.31	4003	0	0	0	0	0.02	-0.1432326	1	10	0.04	1800	-4.184204	40.92385	-91.39361
41645	9	-8	0	-0.1324121	-0.2832247	-10.33878	0	12.31	4002	0	0	0	0	0.02	-0.1601068	1	10	0.04	1800	-4.39801	40.92385	-91.39361
41749	-25	6	6	-0.09042455	-0.277681	-10.34599	0	12.31	4002	0	0	0	0	0.02	-0.1653069	1	10	0.04	1800	-4.12558	40.92385	-91.39361
41927	-17	-3	1	-0.1227576	-0.285658	-10.35895	0	12.31	4004	0	0	0	0	0.02	-0.1919389	1	10	0.04	1800	-4.31485	40.94611	44.37159
42008	0	-2	0	-0.1318418	-0.277929	-10.36341	0	12.31	4009	0	0	0	0	0.02	-0.2003545	1	10	0.04	1800	-4.263123	40.93117	-46.74462
42042	-5	-3	4	-0.1319335	-0.2768545	-10.36855	0	12.31	4003	0	0	0	0	0.02	-0.2007487	1	10	0.04	1800	-4.057159	40.92605	-77.99892
42144	3	-3	4	-0.1240308	-0.2812018	-10.37582	0	12.31	4002	0	0	0	0	0.02	-0.2150943	1	10	0.04	1800	-4.064117	40.92405	-90.1881
42248	1	-4	3	-0.1326854	-0.2830959	-10.38297	0	12.31	4003	0	0	0	0	0.02	-0.2215294	1	10	0.04	1800	-4.254456	40.92385	-91.36104
42353	0	-7	4	-0.1445191	-0.2810852	-10.39239	0	12.31	4003	0	0	0	0	0.02	-0.2265028	1	10	0.04	1800	-4.054596	40.92384	-91.3927
42528	-8	2	2	-0.1429076	-0.2824778	-10.40418	0	12.31	4002	0	0	0	0	0.02	-0.2114573	1	10	0.04	1800	-4.239532	40.92383	-91.39358
42663	0	-9	8	-0.1343454	-0.2813237	-10.41598	0	12.31	4002	0	0	0	0	0.02	-0.2048783	1	10	0.04	1800	-4.283813	40.92383	-91.39359
42773	-3	-1	2	-0.1318368	-0.2863175	-10.42576	0	12.31	4004	0	0	0	0	0.02	-0.197222	1	10	0.04	1800	-4.290894	40.92383	-91.39359
42857	-1	3	0	-0.1260158	-0.2815389	-10.42973	0	12.31	4004	0	0	0	0	0.02	-0.195853	1	10	0.04	1800	-4.285248	40.92382	-91.3936
42956	-3	-5	3	-0.1296594	-0.2912939	-10.4408	0	12.31	4002	0	0	0	0	0.02	-0.1929611	1	10	0.04	1800	-4.277985	40.92382	-91.39361
43111	-7	-5	6	-0.1316406	-0.2933811	-10.45082	0	12.31	4002	0	0	0	0	0.02	-0.1898781	1	10	0.04	1800	-4.039917	40.92382	-91.39361
43186	-3	-7	3	-0.1375661	-0.2929328	-10.45956	0	12.31	4003	0	0	0	0	0.02	-0.1879055	1	10	0.04	1800	-4.055847	40.92381	-91.39361
43302	-11	-4	4	-0.1422941	-0.2936636	-10.46482	0	12.31	4004	0	0	0	0	0.02	-0.1831726	1	10	0.04	1800	-4.261475	40.92381	-91.39361
43381	-6	-3	7	-0.1451997	-0.2932667	-10.47405	0	12.31	4003	0	0	0	0	0.02	-0.1681069	1	10	0.04	1800	-4.25769	40.92381	-91.39361
43447	-3	-3	4	-0.143077	-0.2934472	-10.47638	0	12.31	4003	0	0	0	0	0.02	-0.1559682	1	10	0.04	1800	-4.25769	40.92381	-91.39361
43605	-7	-1	1	-0.1411355	-0.2998209	-10.49331	0	12.31	4003	0	0	0	0	0.02	-0.1402395	1	10	0.04	1800	-4.268799	40.92381	-91.3936
43643	-1	2	10	-0.1416751	-0.2998244	-10.49667	0	12.31	4004	0	0	0	0	0.02	-0.1321668	1	10	0.04	1800	-4.268799	40.92381	-91.3936
43797	-6	-5	7	-0.1397495	-0.298997	-10.5089	0	12.31	4004	0	0	0	0	0.02	-0.1236024	1	10	0.04	1800	-4.279999	40.92381	89.25182
43861	-2	-2	3	-0.1386033	-0.3061169	-10.51495	0	12.31	4003	0	0	0	0	0.02	-0.1240992	1	10	0.04	1800	-4.269287	40.92381	90.59423
43939	-11	-4	5	-0.1376919	-0.3034043	-10.52198	0	12.31	4003	0	0	0	0	0.02	-0.1255425	1	10	0.04	1800	-4.049133	40.92381	-86.47993
44127	-5	2	2	-0.130078	-0.30423	-10.53311	0	12.31	4003	0	0	0	0	0.02	-0.1354417	1	10	0.04	1800	-4.059387	-13.29063	57.04042
44174	-2	1	5	-0.1317981	-0.3065436	-10.54124	0	12.31	4002	0	0	0	0	0.02	-0.1381913	1	10	0.04	1800	-4.285248	-13.60054	57.88638
44272	-1	0	1	-0.132165	-0.3047408	-10.55041	0	12.31	4003	0	0	0	0	0.02	-0.1521518	1	10	0.04	1800	-4.053558	36.00825	-77.93556
44343	2	0	4	-0.1382621	-0.3008483	-10.55279	0	12.31	4003	0	0	0	0	0.02	-0.1584285	1	10	0.04	1800	-4.052917	40.48141	-90.18237
44441	0	-5	6	-0.1444362	-0.3051281	-10.56617	0	12.31	4002	0	0	0	0	0.02	-0.1759756	1	10	0.04	1800	-4.251465	40.92022	-91.38379
44465	-4	3	5	-0.1408305	-0.3060127	-10.56923	0	12.31	4003	0	0	0	0	0.02	-0.1770454	1	10	0.04	1800	-4.230225	40.92371	-91.39333
44586	-1	-3	6	-0.1307302	-0.2946447	-10.58164	0	12.31	4003	0	0	0	0	0.02	-0.1818532	1	10	0.04	1800	-4.051941	40.9238	-91.3936
44607	-3	-5	-5	-0.1282544	-0.2959933	-10.58952	0	12.31	4003	0	0	0	0	0.02	-0.1836814	1	10	0.04	1800	-4.070343	40.92381	-91.3936
44627	3	2	1	-0.1268651	-0.3015973	-10.59355	0	12.31	4003	0	0	0	0	0.02	-0.1834739	1	10	0.04	1800	-4.048523	40.92381	-91.3936
44706	-7	-4	0	-0.1271058	-0.3004054	-10.59729	0	12.31	4002	0	0	0	0	0.02	-0.1906487	1	10	0.04	1800	-4.067261	40.92381	-91.3936
44791	-3	-3	1	-0.1283853	-0.2970369	-10.60162	0	12.31	4002	0	0	0	0	0.02	-0.1973689	1	10	0.04	1800	-4.061768	40.92381	-91.3936
44890	6	0	1	-0.1277743	-0.2986737	-10.61324	0	12.31	4003	0	0	0	0	0.02	-0.2102959	1	10	0.04	1800	-4.284332	40.92381	-91.3936
44995	-1	-8	4	-0.1317129	-0.2984444	-10.62106	0	12.31	4002	0	0	0	0	0.02	-0.2150063	1	10	0.04	1800	-4.281006	40.9238	-91.3936
45095	0	3	7	-0.1310932	-0.2974868	-10.62723	0	12.31	4003	0	0	0	0	0.02	-0.2143808	1	10	0.04	1800	-4.04071	40.92381	-91.3936
45212	2	-1	5	-0.1226661	-0.2974249	-10.63622	0	12.31	4003	0	0	0	0	0.02	-0.2169636	1	10	0.04	1800	-4.286987	40.92381	-91.3936
45298	5	1	6	-0.1219983	-0.2941369	-10.64178	0	12.31	4004	0	0	0	0	0.02	-0.2165525	1	10	0.04	1800	-4.309937	40.92381	-91.39359
45401	-3	-1	6	-0.1212353	-0.2933588	-10.64563	0	12.31	4003	0	0	0	0	0.02	-0.2117537	1	10	0.04	1800	-4.312805	40.92381	-91.39359
45506	-1	-5	0	-0.1180707	-0.2935868	-10.65241	0	12.31	4003	0	0	0	0	0.02	-0.2034068	1	10	0.04	1800	-4.073303	40.92381	-91.39359
45605	3	2	7	-0.1152567	-0.2925578	-10.66023	0	12.31	4004	0	0	0	0	0.02	-0.1992081	1	10	0.04	1800	-4.319244	40.92381	-91.39359
45703	-2	-1	4	-0.1060509	-0.2924205	-10.6727	0	12.31	4002	0	0	0	0	0.02	-0.1914725	1	10	0.04	1800	-4.111389	40.92381	-91.39359
45801	-5	0	4	-0.1084343	-0.2903043	-10.67918	0	12.31	4003	0	0	0	0	0.02	-0.1862618	1	10	0.04	1800	-4.111389	40.92381	-91.39359
45931	-1	1	1	-0.1077913	-0.2888789	-10.68774	0	12.31	4003	0	0	0	0	0.02	-0.1759712	1	10	0.04	1800	-4.08905	40.92381	-91.39359
46010	1	-2	0	-0.1126209	-0.2905433	-10.69355	0	12.31	4004	0	0	0	0	0.02	-0.1709296	1	10	0.04	1800	-4.33313	40.92381	-91.39359
46109	0	-4	5	-0.1092333	-0.2956796	-10.7043	0	12.31	4002	0	0	0	0	0.02	-0.1661392	1	10	0.04	1800	-4.312042	40.92381	-91.39359
46213	-3	-8	6	-0.1099169	-0.2934281	-10.71042	0	12.36	4003	0	0	0	0	0.02	-0.1644539	1	10	0.04	1800	-4.313385	40.92381	-91.39359
46350	4	-7	9	-0.1067832	-0.2939024	-10.7235	0	12.36	4003	0	0	0	0	0.02	-0.1632664	1	10	0.04	1800	-4.095734	40.92381	-91.39359
46515	-1	-8	1	-0.1000682	-0.2923752	-10.73578	0	12.36	4004	0	0	0	0	0.02	-0.1552397	1	10	0.04	1800	-4.107941	40.92382	-91.39359
46599	3	-4	0	-0.09550885	-0.2913422	-10.74238	0	12.36	4003	0	0	0	0	0.02	-0.1536592	1	10	0.04	1800	-4.106537	40.92382	-91.39359
46683	4	-2	4	-0.08842083	-0.2966449	-10.74935	0	12.36	4003	0	0	0	0	0.02	-0.1581039	1	10	0.04	1800	-4.365479	40.92382	-91.39359
46743	4	-4	2	-0.08960375	-0.2965062	-10.75497	0	12.36	4004	0	0	0	0	0.02	-0.163952	1	10	0.04	1800	-4.121429	40.92382	-91.39359
46817	-2	-2	3	-0.09002594	-0.2978134	-10.76017	0	12.36	4003	0	0	0	0	0.02	-0.1671732	1	10	0.04	1800	-4.366028	40.92382	-91.39359
46886	7	-1	3	-0.09257214	-0.2970524	-10.76573	0	12.36	4004	0	0	0	0	0.02	-0.1654171	1	10	0.04	1800	-4.340546	40.92382	-91.39359
47004	-5	-3	5	-0.0987822	-0.2937432	-10.77233	0	12.36	4002	0	0	0	0	0.02	-0.1670242	1	10	0.04	1800	-4.334839	40.92382	-91.39359
47086	0	1	4	-0.09695806	-0.2940347	-10.77893	0	12.36	4003	0	0	0	0	0.02	-0.172231	1	10	0.04	1800	-4.090546	40.92382	-91.39358
47165	0	-1	0	-0.09855645	-0.2995633	-10.7862	0	12.36	4003	0	0	0	0	0.02	-0.1798021	1	10	0.04	1800	-4.331818	40.92382	-91.39358
47251	-4	0	9	-0.0951362	-0.2984723	-10.79231	0	12.36	4003	0	0	0	0	0.02	-0.1832434	1	10	0.04	1800	-4.328705	40.92382	-91.39358
47359	0	4	0	-0.09587377	-0.2982033	-10.79518	0	12.36	4003	0	0	0	0	0.02	-0.17491	1	10	0.04	1800	-4.320709	40.92382	-91.39358
47499	0	0	6	-0.0992668	-0.2970109	-10.80478	0	12.36	4004	0	0	0	0	0.02	-0.1591237	1	10	0.04	1800	-4.348816	40.92382	-91.39358
47564	2	0	4	-0.09724221	-0.2987423	-10.80949	0	12.36	4003	0	0	0	0	0.02	-0.151317	1	10	0.04	1800	-4.094238	40.92382	-91.39358
47720	1	4	0	-0.0950011	-0.3038068	-10.82208	0	12.36	4003	0	0	0	0	0.02	-0.1345591	1	10	0.04	1800	-4.340515	40.92383	-91.39358
47900	0	0	6	-0.08976345	-0.3106855	-10.83283	0	12.36	4003	0	0	0	0	0.02	-0.1301734	1	10	0.04	1800	-4.345673	40.92383	-91.39358
47989	3	-3	0	-0.09455952	-0.3073249	-10.83742	0	12.31	4004	0	0	0	0	0.02	-0.1182389	1	10	0.04	1800	-4.341461	40.92383	-91.39358
48049	-1	-4	7	-0.0931681	-0.3079625	-10.84188	0	12.31	4002	0	0	0	0	0.02	-0.1137668	1	10	0.04	1800	-4.356995	40.92383	-91.39358
48155	6	-3	1	-0.08567294	-0.3070319	-10.84799	0	12.31	4004	0	0	0	0	0.02	-0.1123095	1	10	0.04	1800	-4.122986	40.92383	-91.39358
48326	-1	-6	1	-0.08522759	-0.3009233	-10.85514	0	12.31	4002	0	0	0	0	0.02	-0.1089796	1	10	0.04	1800	-4.145844	40.92383	-91.39358
48374	-2	1	0	-0.08266338	-0.3047607	-10.85672	0	12.31	4004	0	0	0	0	0.02	-0.1146304	1	10	0.04	1800	-4.353638	40.92383	-91.39358
48457	-1	-4	5	-0.08715463	-0.2995701	-10.86179	0	12.31	4002	0	0	0	0	0.02	-0.1230861	1	10	0.04	1800	-4.129639	40.92383	-91.39358
48554	3	0	6	-0.07771317	-0.3013923	-10.86534	0	12.31	4002	0	0	0	0	0.02	-0.142629	1	10	0.04	1800	-4.356598	40.92383	-91.39358
48647	1	-4	4	-0.08238137	-0.3012346	-10.87078	0	12.31	4002	0	0	0	0	0.02	-0.1479086	1	10	0.04	1800	-4.120636	40.92383	-91.39358
48743	8	-6	7	-0.079795	-0.3012957	-10.87897	0	12.31	4002	0	0	0	0	0.02	-0.1494229	1	10	0.04	1800	-4.38269	40.92383	-91.39358
48846	1	-2	1	-0.07396368	-0.3015272	-10.88129	0	12.31	4003	0	0	0	0	0.02	-0.1530255	1	10	0.04	1800	-4.367859	40.92383	-91.39358
49009	3	0	4	-0.07215422	-0.2989891	-10.89143	0	12.31	4004	0	0	0	0	0.02	-0.1529982	1	10	0.04	1800	-4.372253	40.92383	-91.39357
49052	6	-3	0	-0.07196739	-0.2988763	-10.89363	0	12.31	4004	0	0	0	0	0.02	-0.1549627	1	10	0.04	1800	-4.374451	40.92383	-91.39357
49159	3	-2	5	-0.06732314	-0.2962151	-10.90078	0	12.31	4003	0	0	0	0	0.02	-0.1590957	1	10	0.04	1800	-4.150146	40.92383	-91.39357
49274	3	-2	7	-0.06064946	-0.2939178	-10.90689	0	12.31	4003	0	0	0	0	0.02	-0.1571538	1	10	0.04	1800	-3.938324	40.92383	-91.39357
49409	0	-3	3	-0.05442087	-0.3001345	-10.91453	0	12.31	4003	0	0	0	0	0.02	-0.1525199	1	10	0.04	1800	-4.179016	40.92383	-91.39357
49524	4	-3	1	-0.05719053	-0.2986012	-10.91875	0	12.31	4003	0	0	0	0	0.02	-0.1521777	1	10	0.04	1800	-4.383881	40.92383	-91.39357
49616	7	-2	0	-0.05315298	-0.2954834	-10.924	0	12.31	4003	0	0	0	0	0.02	-0.1470564	1	10	0.04	1800	-4.171875	39.59932	-74.15688
49794	0	0	2	-0.05197414	-0.297855	-10.93201	0	12.42	4002	0	0	0	0	0.02	-0.1393272	1	10	0.04	1800	-4.406555	40.3566	-84.0118
49940	0	-1	5	-0.05324677	-0.3015247	-10.94087	0	12.42	4003	0	0	0	0	0.02	-0.1460847	1	10	0.04	1800	-4.158966	40.91924	-91.33378
49993	-2	-6	4	-0.05441143	-0.2991528	-10.94362	0	12.42	4003	0	0	0	0	0.02	-0.1495968	1	10	0.04	1800	-4.194366	40.92343	-91.38819
50070	5	1	4	-0.05633056	-0.2913563	-10.95198	0	12.42	4004	0	0	0	0	0.02	-0.1551757	1	10	0.04	1800	-4.179169	40.92383	-91.39342
50122	7	5	3	-0.05502089	-0.2912931	-10.95406	0	12.42	4002	0	0	0	0	0.02	-0.1543493	1	10	0.04	1800	-4.173523	40.92384	-91.39352
50224	2	-3	4	-0.05026364	-0.2982219	-10.96017	0	12.42	4002	0	0	0	0	0.02	-0.1483561	1	10	0.04	1800	-4.385468	40.92384	-91.39357
50327	1	1	7	-0.05181339	-0.2999244	-10.96934	0	12.42	4002	0	0	0	0	0.02	-0.1407064	1	10	0.04	1800	-4.405792	40.92384	-91.39357
50416	3	-5	4	-0.0497137	-0.2991178	-10.97295	0	12.42	4003	0	0	0	0	0.02	-0.1404958	1	10	0.04	1800	-4.180298	40.92384	-91.39357
50560	2	-1	2	-0.04925789	-0.2951258	-10.98199	0	12.42	4003	0	0	0	0	0.02	-0.1335182	1	10	0.04	1800	-4.409851	40.92384	-91.39357
50628	0	-4	0	-0.05259091	-0.2988108	-10.98346	0	12.42	4003	0	0	0	0	0.02	-0.1206585	1	10	0.04	1800	-4.409851	40.92384	-91.39357
50716	0	-5	7	-0.05846312	-0.2913484	-10.98767	0	12.36	4003	0	0	0	0	0.02	-0.1106177	1	10	0.04	1800	-3.951385	40.92385	-91.39357
50826	-7	-4	3	-0.05800236	-0.297141	-10.99592	0	12.36	4002	0	0	0	0	0.02	-0.1008407	1	10	0.04	1800	-4.384125	40.92385	-91.39357
50952	2	0	0	-0.05430168	-0.295105	-11.00142	0	12.36	4002	0	0	0	0	0.02	-0.07418697	1	10	0.04	1800	-4.394897	40.92385	-91.39357
51017	-2	5	7	-0.04789709	-0.2920091	-11.00527	0	12.36	4003	0	0	0	0	0.02	-0.07088929	1	10	0.04	1800	-4.427124	40.92384	-91.39357
51152	8	-1	3	-0.0443898	-0.2914118	-11.01083	0	12.36	4002	0	0	0	0	0.02	-0.06210767	1	10	0.04	1800	-4.415588	40.92384	-91.39357
51227	9	1	5	-0.0429594	-0.2970692	-11.01663	0	12.36	4003	0	0	0	0	0.02	-0.06430904	1	10	0.04	1800	-4.412201	40.92384	-91.39357
51338	6	3	-1	-0.03815643	-0.2926807	-11.02177	0	12.36	4003	0	0	0	0	0.02	-0.0687252	1	10	0.04	1800	-3.988007	40.92384	-91.39357
51493	6	-2	8	-0.02974742	-0.2928985	-11.03026	0	12.36	4004	0	0	0	0	0.02	-0.07116076	1	10	0.04	1800	-4.437836	40.92385	-91.39357
51691	5	-4	0	-0.03125296	-0.2848199	-11.0379	0	12.31	4004	0	0	0	0	0.02	-0.09138304	1	10	0.04	1800	-4.220581	40.92385	-91.39357
51838	8	-4	4	-0.03540105	-0.2876071	-11.0459	0	12.31	4004	0	0	0	0	0.02	-0.1109219	1	10	0.04	1800	-4.206604	40.92385	-91.39357
51886	2	-9	3	-0.02900729	-0.285769	-11.04914	0	12.31	4003	0	0	0	0	0.02	-0.1172816	1	10	0.04	1800	-4.206604	40.92385	-91.39357
51994	-3	0	0	-0.03131415	-0.2875262	-11.05727	0	12.31	4003	0	0	0	0	0.02	-0.129259	1	10	0.04	1800	-4.421051	40.92385	-91.39357
52097	3	-4	1	-0.02909858	-0.2823912	-11.06112	0	12.31	4004	0	0	0	0	0.02	-0.1521198	1	10	0.04	1800	-4.21109	40.92385	-91.39357
52157	7	0	-2	-0.02416571	-0.2847956	-11.06405	0	12.31	4004	0	0	0	0	0.02	-0.164628	1	10	0.04	1800	-4.21814	40.92385	-91.39357
52285	8	-3	3	-0.02071918	-0.286171	-11.07028	0	12.31	4002	0	0	0	0	0.02	-0.1819113	1	10	0.04	1800	-4.446136	40.92385	-91.39357
52314	0	2	4	-0.0216977	-0.2860558	-11.0723	0	12.31	4003	0	0	0	0	0.02	-0.1846114	1	10	0.04	1800	-4.451141	40.92385	-91.39357
52416	3	-6	4	-0.02362907	-0.2867801	-11.07981	0	12.31	4004	0	0	0	0	0.02	-0.1984469	1	10	0.04	1800	-4.224976	40.92385	-91.39357
52517	10	1	-1	-0.02153499	-0.2908158	-11.08317	0	12.31	4004	0	0	0	0	0.02	-0.2061953	1	10	0.04	1800	-4.224976	40.92385	-91.39357
52620	2	0	0	-0.02507118	-0.290302	-11.08764	0	12.31	4004	0	0	0	0	0.02	-0.2153422	1	10	0.04	1800	-4.24057	40.92385	-91.39357
52785	1	1	0	-0.02844752	-0.2965537	-11.09375	0	12.31	4002	0	0	0	0	0.02	-0.2211002	1	10	0.04	1800	-4.446106	40.92385	-91.39357
52870	2	0	4	-0.02561243	-0.2956288	-11.09778	0	12.31	4002	0	0	0	0	0.02	-0.2227195	1	10	0.04	1800	-4.238251	40.92385	-91.39357
52925	2	-1	2	-0.02716054	-0.2953537	-11.09998	0	12.31	4004	0	0	0	0	0.02	-0.2243053	1	10	0.04	1800	-4.425079	40.92385	-91.39357
53031	0	1	2	-0.03028183	-0.2967468	-11.1045	0	12.31	4004	0	0	0	0	0.02	-0.2251467	1	10	0.04	1800	-4.444885	40.92385	-91.39357
53215	5	-1	0	-0.03007414	-0.2948957	-11.11036	0	12.31	4003	0	0	0	0	0.02	-0.2275536	1	10	0.04	1800	-4.442047	40.92385	-91.39358
53268	8	-8	4	-0.029874	-0.2931253	-11.11311	0	12.31	4002	0	0	0	0	0.02	-0.2304237	1	10	0.04	1800	-4.19928	40.92385	-91.39358
53345	-3	0	2	-0.0254685	-0.2907362	-11.11849	0	12.31	4004	0	0	0	0	0.02	-0.229002	1	10	0.04	1800	-4.220337	40.92385	-91.39358
53430	7	-2	8	-0.02791847	-0.2941789	-11.12258	0	12.31	4002	0	0	0	0	0.02	-0.2082715	1	10	0.04	1800	-4.236328	40.92385	-91.39358
53531	9	0	3	-0.02392069	-0.2957662	-11.12784	0	12.31	4003	0	0	0	0	0.02	-0.2023759	1	10	0.04	1800	-4.440277	40.92385	-91.39358
53628	-2	-1	1	-0.02237922	-0.2929677	-11.13187	0	12.31	4002	0	0	0	0	0.02	-0.1887191	1	10	0.04	1800	-4.452148	40.92385	-91.39358
53803	0	-4	2	-0.01255343	-0.2963071	-11.13969	0	12.31	4003	0	0	0	0	0.02	-0.1798432	1	10	0.04	1800	-4.460144	40.92385	-91.39358
53900	9	-2	4	-0.008799406	-0.2951465	-11.14372	0	12.31	4004	0	0	0	0	0.02	-0.1782383	1	10	0.04	1800	-4.491425	40.92385	-91.39358
53991	3	-1	2	-0.008012134	-0.2902618	-11.1477	0	12.31	4004	0	0	0	0	0.02	-0.17233	1	10	0.04	1800	-4.250885	40.92385	-91.39358
54024	7	0	-2	-0.009655312	-0.2911312	-11.15375	0	12.31	4003	0	0	0	0	0.02	-0.1597167	1	10	0.04	1800	-4.470703	40.92385	-91.39357
54105	6	-7	10	-0.009521127	-0.2904967	-11.15882	0	12.31	4004	0	0	0	0	0.02	-0.1560946	1	10	0.04	1800	-4.468231	40.92385	-91.39357
54192	5	-1	5	-0.007816907	-0.2885745	-11.16499	0	12.31	4004	0	0	0	0	0.02	-0.1508396	1	10	0.04	1800	-4.249603	40.92386	-91.39358
54248	14	-2	4	-0.0009399949	-0.2868319	-11.1708	0	12.31	4002	0	0	0	0	0.02	-0.1492868	1	10	0.04	1800	-4.477051	40.92386	-91.39358
54349	10	0	5	0.005635888	-0.288568	-11.17605	0	12.31	4002	0	0	0	0	0.02	-0.1471885	1	10	0.04	1800	-4.492096	40.92386	-91.39358
54384	5	-4	0	0.008571745	-0.290359	-11.17703	0	12.31	4003	0	0	0	0	0.02	-0.1481812	1	10	0.04	1800	-4.492096	40.92386	-91.39358
54501	5	0	5	0.01286358	-0.3009299	-11.18332	0	12.31	4002	0	0	0	0	0.02	-0.1586535	1	10	0.04	1800	-4.062592	40.92386	-91.39357
54586	4	-2	0	0.01881152	-0.2998762	-11.18711	0	12.31	4004	0	0	0	0	0.02	-0.1672715	1	10	0.04	1800	-4.310211	40.92386	-91.39357
54718	13	0	-1	0.02678224	-0.2982642	-11.19524	0	12.31	4003	0	0	0	0	0.02	-0.192587	1	10	0.04	1800	-4.51059	40.92386	-91.39357
54767	10	0	2	0.02576669	-0.297795	-11.1964	0	12.31	4002	0	0	0	0	0.02	-0.2021269	1	10	0.04	1800	-4.51059	40.92386	-91.39357
54869	15	0	0	0.02248498	-0.3019938	-11.2005	0	12.31	4003	0	0	0	0	0.02	-0.216873	1	10	0.04	1800	-4.527435	40.92386	-91.39358
55027	15	-5	1	0.0303823	-0.3044359	-11.2082	0	12.36	4003	0	0	0	0	0.02	-0.2228202	1	10	0.04	1800	-4.543518	40.92386	-91.39358
55092	2	-5	8	0.02742228	-0.3072608	-11.21247	0	12.36	4002	0	0	0	0	0.02	-0.2214777	1	10	0.04	1800	-4.309692	40.92386	-91.39358
55216	6	-7	0	0.04146294	-0.3022824	-11.2217	0	12.36	4003	0	0	0	0	0.02	-0.2202877	1	10	0.04	1800	-4.54895	40.92386	-91.39358
55287	4	-1	2	0.04001482	-0.3001585	-11.22359	0	12.36	4004	0	0	0	0	0.02	-0.2248142	1	10	0.04	1800	-4.345734	40.92386	-91.39358
55382	11	-3	4	0.04270761	-0.3009643	-11.22927	0	12.36	4004	0	0	0	0	0.02	-0.2303814	1	10	0.04	1800	-4.346832	40.92386	-91.39358
55473	4	-2	0	0.04701282	-0.2995278	-11.23343	0	12.36	4002	0	0	0	0	0.02	-0.2437167	1	10	0.04	1800	-4.352936	40.92386	-91.39358
55537	12	-3	4	0.05088732	-0.3010901	-11.23495	0	12.36	4003	0	0	0	0	0.02	-0.2616824	1	10	0.04	1800	-4.346283	40.92386	-91.39358
55645	7	-1	4	0.0395129	-0.2997033	-11.23892	0	12.36	4003	0	0	0	0	0.02	-0.2693177	1	10	0.04	1800	-4.549683	40.92386	-91.39358
55787	12	0	6	0.03976805	-0.2961068	-11.24369	0	12.36	4004	0	0	0	0	0.02	-0.285399	1	10	0.04	1800	-4.547974	40.92386	-91.39358
55874	10	-4	4	0.04165395	-0.294143	-11.2465	0	12.36	4004	0	0	0	0	0.02	-0.2914253	1	10	0.04	1800	-4.32251	40.92386	-91.39358
55947	13	-6	3	0.04163086	-0.3021102	-11.25206	0	12.36	4004	0	0	0	0	0.02	-0.2940199	1	10	0.04	1800	-4.551483	40.92386	-91.39358
56024	14	0	9	0.04543071	-0.3035821	-11.25444	0	12.36	4003	0	0	0	0	0.02	-0.295714	1	10	0.04	1800	-4.312988	40.92386	-91.39358
56257	8	0	2	0.04440479	-0.3018045	-11.26507	0	12.36	4003	0	0	0	0	0.02	-0.2919978	1	10	0.04	1800	-4.355011	40.92386	-91.39358
56334	11	-7	2	0.0386613	-0.3002354	-11.26752	0	12.36	4003	0	0	0	0	0.02	-0.2875086	1	10	0.04	1800	-4.330902	40.92386	-91.39358
56445	7	-6	2	0.04091666	-0.2978089	-11.27081	0	12.36	4003	0	0	0	0	0.02	-0.2706587	1	10	0.04	1800	-4.553253	40.92386	-91.39358
56543	14	-1	2	0.04605718	-0.2969943	-11.2732	0	12.36	4003	0	0	0	0	0.02	-0.2633625	1	10	0.04	1800	-4.555359	40.92386	-91.39358
56634	7	-3	0	0.05225356	-0.2997757	-11.27729	0	12.36	4004	0	0	0	0	0.02	-0.2471221	1	10	0.04	1800	-4.567535	40.92386	-91.39358
56732	2	2	3	0.05076151	-0.2971981	-11.28016	0	12.36	4003	0	0	0	0	0.02	-0.2438102	1	10	0.04	1800	-4.592834	40.92386	-91.39358
56898	14	-1	3	0.05131337	-0.2964683	-11.28352	0	12.31	4004	0	0	0	0	0.02	-0.2393017	1	10	0.04	1800	-4.344727	40.92386	-91.39358
56949	19	-9	7	0.0511143	-0.2929135	-11.28511	0	12.31	4004	0	0	0	0	0.02	-0.239123	1	10	0.04	1800	-4.343414	40.92386	-91.39358
57034	10	2	1	0.06061901	-0.3032396	-11.28914	0	12.31	4004	0	0	0	0	0.02	-0.2357064	1	10	0.04	1800	-4.357422	40.92387	-91.39358
57195	7	2	2	0.05974506	-0.2994386	-11.29116	0	12.31	4002	0	0	0	0	0.02	-0.2319317	1	10	0.04	1800	-4.581787	40.92387	-91.39358
57239	13	-4	2	0.06056498	-0.3067249	-11.29433	0	12.31	4004	0	0	0	0	0.02	-0.2314367	1	10	0.04	1800	-4.583252	40.92387	-91.39358
57360	10	-3	0	0.0633939	-0.2997729	-11.29848	0	12.31	4003	0	0	0	0	0.02	-0.2211714	1	10	0.04	1800	-4.568634	40.92387	-91.39358
57438	9	-2	1	0.0673364	-0.2994688	-11.30038	0	12.31	4003	0	0	0	0	0.02	-0.2177271	1	10	0.04	1800	-4.371277	40.92387	-91.39358
57651	6	-2	1	0.06630532	-0.2934407	-11.30856	0	12.31	4002	0	0	0	0	0.02	-0.2325451	1	10	0.04	1800	-4.590576	40.92387	-91.39358
57745	3	-3	1	0.07002153	-0.2912781	-11.31082	0	12.31	4003	0	0	0	0	0.02	-0.2392719	1	10	0.04	1800	-4.579224	40.92386	-91.39358
57902	7	-3	7	0.0687726	-0.2914067	-11.31602	0	12.31	4003	0	0	0	0	0.02	-0.2392851	1	10	0.04	1800	-4.574249	40.92386	-91.39358
57999	13	-1	8	0.07241374	-0.2850823	-11.32048	0	12.31	4004	0	0	0	0	0.02	-0.2392985	1	10	0.04	1800	-4.597076	40.92386	-91.39358
58044	17	-5	2	0.07352621	-0.2839376	-11.32244	0	12.31	4003	0	0	0	0	0.02	-0.2386441	1	10	0.04	1800	-4.597076	40.92386	-91.39358
58193	3	-7	1	0.0766948	-0.2910514	-11.32775	0	12.31	4002	0	0	0	0	0.02	-0.227201	1	10	0.04	1800	-4.605042	40.92386	-91.39358
58319	12	-1	4	0.07827155	-0.2951615	-11.33362	0	12.31	4004	0	0	0	0	0.02	-0.212663	1	10	0.04	1800	-4.385254	40.92386	-91.39359
58366	4	-6	3	0.07622787	-0.295453	-11.33539	0	12.31	4002	0	0	0	0	0.02	-0.2101341	1	10	0.04	1800	-4.385254	40.92386	-91.39359
58447	19	-6	3	0.08014499	-0.2981731	-11.33918	0	12.31	4003	0	0	0	0	0.02	-0.2045218	1	10	0.04	1800	-4.609985	40.92386	-91.39359
58573	13	-5	0	0.08705334	-0.3017385	-11.34364	0	12.31	4003	0	0	0	0	0.02	-0.1961942	1	10	0.04	1800	-4.604462	40.92386	-91.39359
58651	14	-4	1	0.09166508	-0.3026003	-11.34712	0	12.31	4002	0	0	0	0	0.02	-0.1923988	1	10	0.04	1800	-4.410736	40.92386	-91.39359
58806	11	-2	5	0.08332812	-0.3013496	-11.35812	0	12.31	4004	0	0	0	0	0.02	-0.1752886	1	10	0.04	1800	-4.613983	40.92386	-91.39359
58876	16	-4	2	0.08380389	-0.3009816	-11.36222	0	12.31	4002	0	0	0	0	0.02	-0.1706527	1	10	0.04	1800	-4.620544	40.92386	-91.39359
58966	24	-3	3	0.0822967	-0.3041275	-11.36344	0	12.31	4003	0	0	0	0	0.02	-0.1666628	1	10	0.04	1800	-4.619263	40.92386	-91.39359
59104	19	-1	2	0.08334368	-0.3002675	-11.36802	0	12.31	4004	0	0	0	0	0.02	-0.1692068	1	10	0.04	1800	-4.183258	40.92386	-91.39359
59199	15	-1	3	0.08533821	-0.3010098	-11.36857	0	12.31	4004	0	0	0	0	0.02	-0.1667294	1	10	0.04	1800	-4.638031	40.92386	-91.39359
59253	12	-3	3	0.08458502	-0.3061818	-11.37187	0	12.31	4003	0	0	0	0	0.02	-0.1662166	1	10	0.04	1800	-4.640808	40.92386	-91.39359
59348	8	-1	7	0.08303508	-0.3050135	-11.37328	0	12.31	4002	0	0	0	0	0.02	-0.1652886	1	10	0.04	1800	-4.618561	40.92386	-91.39359
59450	15	-1	4	0.08733468	-0.2984502	-11.3792	0	12.31	4003	0	0	0	0	0.02	-0.1613954	1	10	0.04	1800	-4.626617	40.92386	-91.39359
59612	4	-4	4	0.08600186	-0.2948891	-11.38605	0	12.31	4002	0	0	0	0	0.02	-0.1651546	1	10	0.04	1800	-4.605652	40.92386	-91.39359
59704	16	-2	2	0.09084338	-0.2919742	-11.39088	0	12.31	4003	0	0	0	0	0.02	-0.1656501	1	10	0.04	1800	-4.627228	40.92386	-91.39359
59763	10	-3	3	0.08923659	-0.2948981	-11.39265	0	12.31	4004	0	0	0	0	0.02	-0.1675409	1	10	0.04	1800	-4.627228	40.92386	-91.39359
59854	13	0	1	0.08377512	-0.2997092	-11.39821	0	12.31	4003	0	0	0	0	0.02	-0.1667538	1	10	0.04	1800	-4.620728	40.92386	-91.39359
59941	17	-5	4	0.0835657	-0.3008179	-11.39949	0	12.31	4004	0	0	0	0	0.02	-0.1668711	1	10	0.04	1800	-4.599945	40.92386	-91.39359
60110	13	-5	4	0.08681755	-0.295793	-11.40541	0	12.31	4002	0	0	0	0	0.02	-0.1818553	1	10	0.04	1800	-4.412048	40.92386	-91.39359
60206	19	-3	2	0.09181388	-0.2996162	-11.40895	0	12.31	4002	0	0	0	0	0.02	-0.1865575	1	10	0.04	1800	-4.405396	40.92386	-91.39359
60242	19	6	1	0.09555436	-0.2976128	-11.41011	0	12.31	4002	0	0	0	0	0.02	-0.1879464	1	10	0.04	1800	-4.405396	40.92386	-91.39359
60378	12	-4	3	0.100241	-0.3050654	-11.41433	0	12.31	4004	0	0	0	0	0.02	-0.1936252	1	10	0.04	1800	-4.42099	40.92386	-91.39359
60458	18	-10	2	0.1027869	-0.3053288	-11.41683	0	12.31	4003	0	0	0	0	0.02	-0.1886187	1	10	0.04	1800	-4.427155	40.92386	-91.39359
60552	14	-4	2	0.1054056	-0.3101986	-11.423	0	12.36	4003	0	0	0	0	0.02	-0.1834921	1	10	0.04	1800	-4.439545	40.92386	-91.39359
60706	8	-3	5	0.1044969	-0.305219	-11.42661	0	12.36	4004	0	0	0	0	0.02	-0.1778806	1	10	0.04	1800	-4.650238	40.92386	-91.39359
60809	9	-1	0	0.1005618	-0.306879	-11.43052	0	12.36	4002	0	0	0	0	0.02	-0.1719287	1	10	0.04	1800	-4.648621	40.92386	-91.39359
60926	11	-1	2	0.1091358	-0.313605	-11.43534	0	12.36	4002	0	0	0	0	0.02	-0.1676017	3	10	0.04	1800	-4.656616	40.92386	-91.39359
60962	17	1	5	0.1099736	-0.3166039	-11.4384	0	12.36	4004	0	0	0	0	0.02	-0.1649584	3	10	0.04	1800	-4.658112	40.92386	-91.39359
61036	14	-6	7	0.1086206	-0.3164293	-11.43944	0	12.36	4004	0	0	0	0	0.02	-0.1647419	3	10	0.04	1800	-4.662018	40.92386	-91.39359
61139	13	0	4	0.1144726	-0.3165093	-11.44182	0	12.36	4002	0	0	0	0	0.02	-0.1646125	3	10	0.04	1800	-4.430847	40.92386	-91.39359
61242	17	-6	5	0.119948	-0.3126044	-11.44603	0	12.36	4003	0	0	0	0	0.02	-0.1636729	3	10	0.04	1800	-4.673767	40.92386	-91.39359
61402	12	-3	5	0.1221384	-0.3223802	-11.45159	0	12.36	4004	0	0	0	0	0.02	-0.1632495	3	10	0.04	1800	-4.453491	40.92386	-91.39359
61444	15	0	4	0.1219082	-0.3235521	-11.45275	0	12.31	4002	0	0	0	0	0.02	-0.1622768	3	10	0.04	1800	-4.453491	40.92386	-91.39359
61585	12	-1	-1	0.1295831	-0.3236858	-11.45984	0	12.31	4003	0	0	0	0	0.02	-0.1508802	3	10	0.04	1800	-4.676147	40.92386	-91.39359
