time(ms)	gyro_x(deg/s)	gyro_y(deg/s)	gyro_z(deg/s)	orientation_roll(deg)	orientation_pitch(deg)	orientation_yaw(deg)	throttle	battery(V)	loop_time(uS)	pid_output_roll	pid_output_pitch	pid_output_yaw	pid_output_throttle	ultrasonic_alt	baro_alt	flight_mode	p_gain_altitude	i_gain_altitude	d_gain_altitude
455477	1432	-4017	-417	-4.058186	6.124379	34.61178	0	10.43	4002	5	-130	-11	0	1.09074	0.2027333	3	10	0	200
455598	509	-1449	-432	-1.66209	6.22174	34.75541	0	10.43	4003	13	-95	-19	0	1.09074	0.217302	3	10	0	200
455683	-441	-3432	354	-1.593083	9.288547	34.87973	0	10.43	4003	-44	86	-14	0	1.09074	0.2280918	3	10	0	200
455861	650	880	-1152	-3.799857	2.113252	32.91897	0	10.43	4004	-30	279	49	0	1.09074	0.2357466	3	10	0	200
455892	765	1893	-1144	-3.29535	0.4469362	32.9239	0	10.43	4002	-92	-94	34	0	1.09074	0.2315437	3	10	0	200
455999	395	1366	216	-2.464084	-2.356139	33.34303	0	10.43	4003	114	-192	-11	0	1.09074	0.2208199	3	10	0	200
456209	923	1837	-831	-0.99874	-9.44556	35.31699	0	10.21	4004	64	-133	-48	0	1.09074	0.1900265	3	10	0	200
456240	2197	2141	-1180	-0.08484031	-10.48035	35.79992	0	10.21	4003	-44	82	-57	0	1.09074	0.1859698	3	10	0	200
456322	-798	999	61	1.424274	-13.35217	36.4241	0	10.21	4002	-44	33	-64	0	1.09074	0.1730279	3	10	0	200
456428	-169	-2733	963	-0.7792643	-8.868991	35.86893	0	10.21	4002	16	-55	-37	0	1.09074	0.1518146	3	10	0	200
456530	285	-1130	35	-0.1227642	-5.061416	34.62754	0	10.21	4004	-47	-55	-8	0	1.09074	0.1343662	3	10	0	200
456606	-332	-1240	963	-0.2180755	-4.317665	34.16719	0	10.21	4002	3	-87	15	0	1.09074	0.1129555	3	10	0	200
456743	-1424	-405	1053	-2.199432	-2.548265	30.10315	0	10.21	4003	59	-32	111	0	1.09074	0.04300932	3	10	0	200
456815	-1907	580	690	-3.846738	-3.082986	29.12321	0	10.21	4004	0	0	0	0	1.09074	0.02089903	3	10	0	200
456946	24006	-8300	-5206	-4.279223	-2.989515	28.13629	0	10.21	4004	0	0	0	0	1.09074	-0.03724483	3	10	0	200
457038	4282	-90	-3331	-2.937299	-1.761781	29.79271	0	10.21	4003	0	0	0	0	1.09074	-0.086169	3	10	0	200
457174	-48	52	-74	-2.468262	-0.1603948	30.54531	0	11	4003	0	0	0	0	1.09074	-0.1390249	1	10	0	200
457265	-119	0	201	-2.319824	-0.1212099	30.51267	0	11	4002	0	0	0	0	1.09074	-0.1683013	1	10	0	200
457372	-42	24	193	-2.150441	-0.06290048	30.49537	0	11	4004	0	0	0	0	1.09074	-0.2401215	1	10	0	200
457426	-104	0	-20	-2.075877	-0.0307587	30.48895	0	11	4004	0	0	0	0	1.09074	-0.25148	1	10	0	200
457531	-79	0	-4	-1.970267	0.00679655	30.46645	0	11	4004	0	0	0	0	1.09074	-0.2879094	1	10	0	200
457669	-71	-8	13	-1.858498	0.04056964	30.43955	0	11	4003	0	0	0	0	1.09074	-0.3165809	1	10	0	200
457765	-94	-33	-7	-1.804598	0.0526527	30.42537	0	11	4002	0	0	0	0	1.09074	-0.3364194	1	10	0	200
457844	-74	-13	25	-1.738112	0.1009031	30.39699	0	11	4004	0	0	0	0	1.09074	-0.3499328	1	10	0	200
457943	-92	-20	-5	-1.725205	0.09931741	30.39057	0	11	4004	0	0	0	0	1.09074	-0.3523346	1	10	0	200
458049	-80	6	12	-1.656396	0.1427966	30.35927	0	11	4002	0	0	0	0	1.09074	-0.3596911	1	10	0	200
458191	-88	-12	24	-1.603489	0.1581286	30.33707	0	11	4003	0	0	0	0	1.09074	-0.3609722	1	10	0	200
458247	-68	2	45	-1.587938	0.1623415	30.32289	0	11	4004	0	0	0	0	1.09074	-0.365363	1	10	0	200
458369	-85	3	-34	-1.547502	0.1800119	30.29807	0	11	4003	0	0	0	0	1.09074	-0.3748838	1	10	0	200
458445	-70	18	-1	-1.528766	0.1822121	30.28272	0	11	4003	0	0	0	0	1.09074	-0.3902056	1	10	0	200
458546	-80	4	7	-1.486014	0.1916026	30.26542	0	11	4004	0	0	0	0	1.09074	-0.4095032	1	10	0	200
458650	-75	1	33	-1.456906	0.1870345	30.24494	0	11	4004	0	0	0	0	1.09074	-0.4225725	1	10	0	200
458757	-81	0	10	-1.43319	0.1944855	30.22476	0	11	4004	0	0	0	0	1.09074	-0.4266897	1	10	0	200
458858	-76	5	17	-1.42202	0.2017862	30.2052	0	11	4004	0	0	0	0	1.09074	-0.4256143	1	10	0	200
458986	-81	4	3	-1.398594	0.2076425	30.18233	0	10.94	4002	0	0	0	0	1.09074	-0.4299459	1	10	0	200
459066	-80	0	13	-1.383443	0.2051331	30.16814	0	10.94	4004	0	0	0	0	1.09074	-0.4364612	1	10	0	200
459191	-86	0	11	-1.358932	0.210296	30.14264	0	10.94	4003	0	0	0	0	1.09074	-0.4419098	1	10	0	200
459513	-79	-2	17	-1.317503	0.2219985	30.07726	0	10.94	4003	0	0	0	0	1.09074	-0.4850087	1	10	0	200
459647	-76	-1	14	-1.299911	0.2255401	30.05299	0	10.94	4002	0	0	0	0	1.09074	-0.5071875	1	10	0	200
459744	-78	3	8	-1.286518	0.2253651	30.03409	0	10.94	4002	0	0	0	0	1.09074	-0.524331	1	10	0	200
459873	-79	3	12	-1.28708	0.2221033	30.015	0	11.06	4003	0	0	0	0	1.09074	-0.5411766	1	10	0	200
459968	-81	0	10	-1.280431	0.222931	29.99671	0	11.06	4003	0	0	0	0	1.09074	-0.5451683	1	10	0	200
460016	-81	7	12	-1.276021	0.2202025	29.98289	0	11.06	4002	0	0	0	0	1.09074	-0.5475069	1	10	0	200
460075	-76	7	13	-1.268877	0.2181454	29.96955	0	11.06	4007	0	0	0	0	1.09074	-0.5524443	1	10	0	200
460196	-77	-1	11	-1.263641	0.2234409	29.95108	0	11.06	4004	0	0	0	0	1.09074	-0.5412406	1	10	0	200
460350	-78	1	7	-1.257056	0.2205666	29.92259	0	11.06	4004	0	0	0	0	1.09074	-0.525458	1	10	0	200
460417	-74	-6	12	-1.254418	0.2201933	29.9095	0	11.06	4004	0	0	0	0	1.09074	-0.5188608	1	10	0	200
460482	-73	-1	10	-1.244287	0.2177414	29.89862	0	11.06	4004	0	0	0	0	1.09074	-0.5168234	1	10	0	200
460587	-77	2	13	-1.247332	0.2174552	29.87972	0	11.06	4003	0	0	0	0	1.09074	-0.5236981	1	10	0	200
460795	-70	-1	9	-1.22375	0.2171192	29.84683	0	11.06	4002	0	0	0	0	1.09074	-0.5361455	1	10	0	200
460926	-75	-2	12	-1.215168	0.2158209	29.81606	0	11.06	4003	0	0	0	0	1.09074	-0.5420094	1	10	0	200
460991	-72	0	13	-1.208649	0.2192696	29.80468	0	11.06	4004	0	0	0	0	1.09074	-0.5426903	1	10	0	200
461094	-74	-1	11	-1.209593	0.2200946	29.79319	0	11.06	4004	0	0	0	0	1.09074	-0.546662	1	10	0	200
461200	-75	-4	7	-1.207332	0.2184815	29.7784	0	11.06	4002	0	0	0	0	1.09074	-0.552676	1	10	0	200
461327	-72	6	12	-1.208102	0.2155878	29.75773	0	11.06	4003	0	0	0	0	1.09074	-0.5477582	1	10	0	200
461392	-69	-5	8	-1.204475	0.2117682	29.74716	0	11.06	4004	0	0	0	0	1.09074	-0.5417637	1	10	0	200
461534	-72	2	5	-1.200348	0.2112156	29.72655	0	11.06	4004	0	0	0	0	1.09074	-0.5447074	1	10	0	200
461605	-69	-1	7	-1.19743	0.207089	29.71115	0	11.06	4003	0	0	0	0	1.09074	-0.5503657	1	10	0	200
461727	-71	4	8	-1.19666	0.209213	29.69703	0	10.94	4003	0	0	0	0	1.09074	-0.5495095	1	10	0	200
461795	-68	4	3	-1.193639	0.2111778	29.68822	0	10.94	4004	0	0	0	0	1.09074	-0.5465388	1	10	0	200
461927	-82	2	5	-1.204404	0.2096001	29.6678	0	10.94	4003	0	0	0	0	1.09074	-0.5457146	1	10	0	200
462007	-75	5	10	-1.201685	0.2094851	29.65594	0	10.94	4003	0	0	0	0	1.09074	-0.5469003	1	10	0	200
462187	-75	-2	6	-1.197124	0.2173646	29.62439	0	10.94	4003	0	0	0	0	1.09074	-0.5391678	1	10	0	200
462244	-71	-1	9	-1.196931	0.2252257	29.61492	0	10.94	4003	0	0	0	0	1.09074	-0.5340909	1	10	0	200
462393	-69	-5	9	-1.188155	0.2312667	29.58826	0	10.94	4002	0	0	0	0	1.09074	-0.5264665	1	10	0	200
462424	-71	-4	8	-1.184522	0.2283647	29.58288	0	10.94	4003	0	0	0	0	1.09074	-0.5260003	1	10	0	200
462530	-76	4	10	-1.180594	0.2390018	29.56735	0	10.94	4003	0	0	0	0	1.09074	-0.5238037	1	10	0	200
462615	-75	-1	10	-1.184056	0.2345119	29.5556	0	11.06	4002	0	0	0	0	1.09074	-0.5106677	1	10	0	200
462742	-75	-6	4	-1.184496	0.2360492	29.53659	0	11.06	4004	0	0	0	0	1.09074	-0.5087283	1	10	0	200
462815	-73	0	9	-1.182614	0.2325618	29.52547	0	11.06	4003	0	0	0	0	1.09074	-0.5068669	1	10	0	200
462965	-72	-3	14	-1.177399	0.2407504	29.50535	0	11.06	4002	0	0	0	0	1.09074	-0.4883042	1	10	0	200
463012	-64	2	8	-1.177789	0.2404061	29.49509	0	11.06	4002	0	0	0	0	1.09074	-0.488205	1	10	0	200
463144	-73	-2	6	-1.178242	0.2424183	29.48061	0	11.06	4004	0	0	0	0	1.09074	-0.4886901	1	10	0	200
463325	-75	0	10	-1.180561	0.2397309	29.45194	0	11.06	4003	0	0	0	0	1.09074	-0.4853531	1	10	0	200
463424	-71	0	10	-1.181846	0.2333136	29.43604	0	11.06	4004	0	0	0	0	1.09074	-0.4990469	1	10	0	200
463508	-61	3	9	-1.173921	0.2350521	29.42162	0	11.06	4003	0	0	0	0	1.09074	-0.4966261	1	10	0	200
463608	-76	1	4	-1.177663	0.2292479	29.40591	0	11	4004	0	0	0	0	1.09074	-0.4884239	1	10	0	200
463712	-73	-2	10	-1.167767	0.2248831	29.38921	0	11	4003	0	0	0	0	1.09074	-0.4817451	1	10	0	200
463838	-73	-5	5	-1.166704	0.2253012	29.37002	0	11	4003	0	0	0	0	1.09074	-0.4798276	1	10	0	200
463952	-66	2	10	-1.1666	0.2219083	29.35419	0	11	4002	0	0	0	0	1.09074	-0.4894595	1	10	0	200
464010	-76	0	7	-1.164554	0.2203387	29.34551	0	11	4004	0	0	0	0	1.09074	-0.4910079	1	10	0	200
464152	-77	-4	10	-1.167472	0.2178658	29.32491	0	11	4004	0	0	0	0	1.09074	-0.4891555	1	10	0	200
464245	-64	-1	7	-1.162976	0.2204725	29.31098	0	11	4002	0	0	0	0	1.09074	-0.4839122	1	10	0	200
464314	-70	0	9	-1.162845	0.2257666	29.30022	0	11	4004	0	0	0	0	1.09074	-0.4814067	1	10	0	200
464399	-74	3	7	-1.163828	0.2266743	29.28641	0	11	4002	0	0	0	0	1.09074	-0.4795801	1	10	0	200
464531	-76	0	8	-1.168584	0.2215808	29.26618	0	11	4003	0	0	0	0	1.09074	-0.4696832	1	10	0	200
464583	-75	-3	8	-1.164471	0.2233634	29.25689	0	11	4003	0	0	0	0	1.09074	-0.4674464	1	10	0	200
464781	-68	3	7	-1.162722	0.2227876	29.22847	0	11	4004	0	0	0	0	1.09074	-0.4644284	1	10	0	200
464863	-65	-3	10	-1.16077	0.2217317	29.21709	0	11	4004	0	0	0	0	1.09074	-0.4695024	1	10	0	200
464940	-72	0	8	-1.155491	0.2257392	29.20243	0	11	4003	0	0	0	0	1.09074	-0.4717013	1	10	0	200
465139	-63	-4	7	-1.152971	0.2293747	29.17241	0	11	4002	0	0	0	0	1.09074	-0.4691569	1	10	0	200
465206	-59	-1	7	-1.151202	0.2277047	29.15835	0	11	4002	0	0	0	0	1.09074	-0.4632043	1	10	0	200
465322	-80	-5	7	-1.142237	0.2278557	29.14131	0	11.11	4008	0	0	0	0	1.09074	-0.4659532	1	10	0	200
465408	-66	-1	9	-1.139945	0.2269195	29.12756	0	11.11	4002	0	0	0	0	1.09074	-0.469085	1	10	0	200
465568	-68	0	2	-1.131807	0.2219264	29.10458	0	11.11	4004	0	0	0	0	1.09074	-0.4842081	1	10	0	200
465750	-66	2	11	-1.128796	0.2217515	29.0816	0	11.11	4002	0	0	0	0	1.09074	-0.4964415	1	10	0	200
465836	-71	0	7	-1.130976	0.2229943	29.06791	0	11.11	4003	0	0	0	0	1.09074	-0.4980064	1	10	0	200
465930	-70	2	9	-1.134206	0.2171708	29.05428	0	11.11	4003	0	0	0	0	1.09074	-0.497789	1	10	0	200
466041	-70	1	5	-1.136823	0.2158627	29.04139	0	11.11	4003	0	0	0	0	1.09074	-0.4985511	1	10	0	200
466125	-68	-6	4	-1.136185	0.209763	29.02874	0	11.11	4003	0	0	0	0	1.09074	-0.4930001	1	10	0	200
466306	-69	3	9	-1.129868	0.2075216	29.00399	0	11.06	4004	0	0	0	0	1.09074	-0.4835933	1	10	0	200
466334	-58	-5	10	-1.126032	0.2064482	28.99959	0	11.06	4002	0	0	0	0	1.09074	-0.4832516	1	10	0	200
466445	-65	2	10	-1.123289	0.2076598	28.98823	0	11.06	4002	0	0	0	0	1.09074	-0.4849478	1	10	0	200
466531	-56	0	7	-1.120278	0.2121681	28.97882	0	11.06	4002	0	0	0	0	1.09074	-0.4846492	1	10	0	200
466731	-72	5	4	-1.117983	0.2214803	28.94325	0	11.06	4004	0	0	0	0	1.09074	-0.4925019	1	10	0	200
466762	-67	-2	11	-1.115006	0.2255232	28.93867	0	11.06	4002	0	0	0	0	1.09074	-0.4945765	1	10	0	200
466842	-64	0	9	-1.107143	0.2234247	28.92296	0	11.06	4002	0	0	0	0	1.09074	-0.4988712	1	10	0	200
466956	-59	0	8	-1.111032	0.2243965	28.91117	0	11.06	4002	0	0	0	0	1.09074	-0.5020808	1	10	0	200
467033	-66	-2	9	-1.108769	0.2241055	28.90163	0	11.06	4003	0	0	0	0	1.09074	-0.5031751	1	10	0	200
467144	-68	3	7	-1.106127	0.2227908	28.8891	0	11	4002	0	0	0	0	1.09074	-0.5000815	1	10	0	200
467265	-64	0	7	-1.112445	0.22667	28.86819	0	11	4003	0	0	0	0	1.09074	-0.4891496	1	10	0	200
467344	-64	2	6	-1.108829	0.2257987	28.85877	0	11	4003	0	0	0	0	1.09074	-0.4931621	1	10	0	200
467479	-63	0	6	-1.101774	0.223614	28.83971	0	11	4004	0	0	0	0	1.09074	-0.5120006	1	10	0	200
467645	-62	3	2	-1.107013	0.2186832	28.82168	0	11	4003	0	0	0	0	1.09074	-0.5100856	1	10	0	200
467692	-60	0	8	-1.103596	0.2143837	28.81178	0	11	4002	0	0	0	0	1.09074	-0.509043	1	10	0	200
467776	-66	-7	7	-1.09469	0.2201033	28.79198	0	11	4002	0	0	0	0	1.09074	-0.5079181	1	10	0	200
467843	-68	0	9	-1.095977	0.2169159	28.78342	0	11	4004	0	0	0	0	1.09074	-0.5095024	1	10	0	200
467951	-62	1	9	-1.089653	0.2176699	28.76838	0	11	4003	0	0	0	0	1.09074	-0.5081162	1	10	0	200
468058	-55	6	4	-1.088047	0.2203379	28.75647	0	11	4004	0	0	0	0	1.09074	-0.4997953	1	10	0	200
468154	-65	1	8	-1.091609	0.2221443	28.744	0	11	4004	0	0	0	0	1.09074	-0.4978627	1	10	0	200
468270	-64	0	12	-1.086369	0.2170781	28.72652	0	11	4003	0	0	0	0	1.09074	-0.5042092	1	10	0	200
468339	-63	-3	10	-1.080307	0.2204081	28.7184	0	11	4002	0	0	0	0	1.09074	-0.5047311	1	10	0	200
468435	-60	-3	7	-1.074608	0.2200169	28.70422	0	11	4004	0	0	0	0	1.09074	-0.5023991	1	10	0	200
468514	-54	2	6	-1.074259	0.220533	28.69524	0	11	4004	0	0	0	0	1.09074	-0.4923545	1	10	0	200
468622	-62	2	11	-1.075704	0.2210041	28.67696	0	11	4003	0	0	0	0	1.09074	-0.4897111	1	10	0	200
468764	-60	0	2	-1.071789	0.2212509	28.66071	0	11	4002	0	0	0	0	1.09074	-0.4979597	1	10	0	200
468949	-66	2	10	-1.057514	0.2227495	28.64269	0	11	4002	0	0	0	0	1.09074	-0.497975	1	10	0	200
469069	-68	2	10	-1.057553	0.2184464	28.6271	0	11.11	4002	0	0	0	0	1.09074	-0.5009753	1	10	0	200
469111	-58	3	4	-1.054908	0.2200886	28.61873	0	11.11	4003	0	0	0	0	1.09074	-0.5040548	1	10	0	200
469215	-66	0	5	-1.05846	0.2262822	28.60602	0	11.11	4003	0	0	0	0	1.09074	-0.5052612	1	10	0	200
469366	-66	0	8	-1.058356	0.2149351	28.58744	0	11.11	4004	0	0	0	0	1.09074	-0.5115674	1	10	0	200
469442	-65	0	7	-1.054392	0.2133382	28.57821	0	11.11	4004	0	0	0	0	1.09074	-0.5244272	1	10	0	200
469648	-56	-5	10	-1.078566	0.21534	28.55055	0	11.11	4003	0	0	0	0	1.09074	-0.5370175	1	10	0	200
469766	-60	1	6	-1.072719	0.2164966	28.5351	0	11.11	4003	0	0	0	0	1.09074	-0.5541694	1	10	0	200
469852	-64	8	6	-1.095681	0.2172085	28.52477	0	11.06	4003	0	0	0	0	1.09074	-0.5541694	1	10	0	1400
469937	-51	0	12	-1.089984	0.2144256	28.51573	0	11.06	4004	0	0	0	0	1.09074	-0.5567497	1	10	0	1400
470136	-57	-1	15	-1.086904	0.2156818	28.48939	0	11.06	4004	0	0	0	0	1.09074	-0.5636886	1	10	0	1400
470263	-66	1	9	-1.074837	0.2136337	28.4735	0	11.06	4002	0	0	0	0	1.09074	-0.5718948	1	10	0	1400
470392	-52	1	8	-1.07008	0.2075504	28.46097	0	11.06	4004	0	0	0	0	1.09074	-0.5798413	1	10	0	1400
470468	-62	-3	9	-1.05125	0.206913	28.44827	0	11.06	4003	0	0	0	0	1.09074	-0.5782042	1	10	0	1400
470578	-52	-2	4	-1.045519	0.2087444	28.4322	0	11.06	4004	0	0	0	0	1.09074	-0.5698192	1	10	0	1400
470673	-60	-2	8	-1.040371	0.206906	28.41985	0	11.06	4003	0	0	0	0	1.09074	-0.5633437	1	10	0	1400
470747	-50	6	8	-1.040822	0.2024565	28.4102	0	11.06	4002	0	0	0	0	1.09074	-0.5582836	1	10	0	1400
470815	-68	-3	4	-1.036542	0.2062297	28.40207	0	11	4003	0	0	0	0	1.09074	-0.5553096	1	10	0	1400
470935	-56	2	11	-1.0291	0.202966	28.38606	0	11	4003	0	0	0	0	1.09074	-0.5495816	1	10	0	1400
471038	-60	4	6	-1.027609	0.203456	28.37372	0	11	4003	0	0	0	0	1.09074	-0.5398555	1	10	0	1400
471111	-65	0	11	-1.024467	0.2075222	28.36737	0	11	4004	0	0	0	0	1.09074	-0.5279686	1	10	0	1400
471226	-56	-1	8	-1.015859	0.2130377	28.35516	0	11	4002	0	0	0	0	1.09074	-0.5220082	1	10	0	1400
471391	-52	6	8	-1.008971	0.2120202	28.33353	0	11	4004	0	0	0	0	1.09074	-0.5290644	1	10	0	1400
471458	-60	0	8	-1.013127	0.2141629	28.32144	0	11	4003	0	0	0	0	1.09074	-0.5340534	1	10	0	1400
471559	-62	-5	5	-1.006343	0.2099493	28.31075	0	11	4004	0	0	0	0	1.09074	-0.5451977	1	10	0	1400
471683	-64	1	10	-1.004158	0.2112622	28.29577	0	11.06	4003	0	0	0	0	1.09074	-0.5592593	1	10	0	1400
471714	-62	2	4	-1.010757	0.206579	28.28337	0	11.06	4002	0	0	0	0	1.09074	-0.5630342	1	10	0	1400
471783	-55	5	8	-1.010596	0.2098905	28.27555	0	11.06	4003	0	0	0	0	1.09074	-0.5717581	1	10	0	1400
471894	-53	2	5	-1.00597	0.2074124	28.26389	0	11.06	4004	0	0	0	0	1.09074	-0.5669239	1	10	0	1400
471981	-70	0	10	-1.002368	0.2063207	28.25117	0	11.06	4004	0	0	0	0	1.09074	-0.565627	1	10	0	1400
472087	-63	5	5	-1.003832	0.2007066	28.23877	0	11.06	4008	0	0	0	0	1.09074	-0.5651538	1	10	0	1400
472179	-68	0	12	-1.009711	0.2076547	28.22582	0	11.06	4003	0	0	0	0	1.09074	-0.5667157	1	10	0	1400
472269	-53	2	5	-1.001298	0.2068555	28.21495	0	11.06	4002	0	0	0	0	1.09074	-0.5657477	1	10	0	1400
472361	-55	1	7	-1.000653	0.2086112	28.20621	0	11.06	4002	0	0	0	0	1.09074	-0.5630485	1	10	0	1400
472470	-61	3	11	-0.9839891	0.2103257	28.18873	0	11.06	4004	0	0	0	0	1.09074	-0.549989	1	10	0	1400
472565	-61	-1	2	-0.9809191	0.2047662	28.18152	0	11.06	4004	0	0	0	0	1.09074	-0.5455937	1	10	0	1400
472667	-56	-2	4	-0.9773415	0.208929	28.17212	0	11.06	4002	0	0	0	0	1.09074	-0.5487866	1	10	0	1400
472839	-55	-1	4	-0.9814827	0.2168276	28.15545	0	11.06	4004	0	0	0	0	1.09074	-0.5374718	3	10	0	1400
472877	-55	-2	6	-0.9782098	0.2119988	28.14915	0	11.06	4003	0	0	0	0	1.09074	-0.5326733	3	10	0	1400
472975	-62	7	6	-0.9820556	0.2143482	28.13736	0	11.06	4004	0	0	0	0	1.09074	-0.52182	3	10	0	1400
473076	-59	0	4	-0.9868487	0.210772	28.12453	0	11.06	4004	0	0	0	0	1.09074	-0.5163746	3	10	0	1400
473192	-55	-1	7	-0.9857329	0.2142615	28.11176	0	11.06	4003	0	0	0	0	1.09074	-0.5149199	3	10	0	1400
473271	-59	0	3	-0.9825803	0.219786	28.10541	0	11.06	4003	0	0	0	0	1.09074	-0.4994045	3	10	0	1400
473373	-45	0	4	-0.9775555	0.222948	28.09392	0	11.06	4004	0	0	0	0	1.09074	-0.4840947	3	10	0	1400
473506	-50	-7	6	-0.966881	0.2232302	28.07829	0	11.11	4004	0	0	0	0	1.09074	-0.4579734	3	10	0	1400
473605	-47	4	6	-0.965007	0.2199656	28.06803	0	11.11	4003	0	0	0	0	1.09074	-0.4523663	3	10	0	1400
473698	-51	6	9	-0.9569538	0.2181389	28.0582	0	11.11	4004	0	0	0	0	1.09074	-0.4605229	3	10	0	1400
473783	-51	-1	7	-0.9509735	0.21623	28.05093	0	11.11	4003	0	0	0	0	1.09074	-0.4780452	3	10	0	1400
473953	-60	-2	8	-0.9522566	0.2061521	28.03603	0	11.11	4002	0	0	0	0	1.09074	-0.4904624	3	10	0	1400
474026	-57	-3	11	-0.9492223	0.2008443	28.02418	0	11.11	4002	0	0	0	0	1.09074	-0.496836	3	10	0	1400
474074	-62	-3	6	-0.9516206	0.2032524	28.02063	0	11.11	4004	0	0	0	0	1.09074	-0.4999365	3	10	0	1400
474236	-52	0	12	-0.9536686	0.2093468	28.00451	0	11.11	4002	0	0	0	0	1.09074	-0.4960684	3	10	0	1400
474285	-51	1	6	-0.9527153	0.2091032	28.00085	0	11.11	4002	0	0	0	0	1.09074	-0.5023066	3	10	0	1400
474403	-57	-2	3	-0.9430101	0.2042155	27.98803	0	11.11	4003	0	0	0	0	1.09074	-0.5126973	3	10	0	1400
474505	-45	-1	7	-0.9463729	0.2098494	27.97844	0	11.11	4004	0	0	0	0	1.09074	-0.5145183	3	10	0	1400
474581	-67	-5	6	-0.94214	0.2079688	27.9713	0	11.11	4003	0	0	0	0	1.09074	-0.5107107	3	10	0	1400
474685	-37	-4	7	-0.9407921	0.2135276	27.96245	0	11.11	4004	0	0	0	0	1.09074	-0.5051531	3	10	0	1400
474795	-51	2	3	-0.9375299	0.2110755	27.95476	0	11.11	4004	0	0	0	0	1.09074	-0.5001317	3	10	0	1400
474915	-59	0	12	-0.9377715	0.2048717	27.94346	0	11.11	4002	5	0	0	0	1.09074	-0.5056161	3	10	0	1400
475079	-63	8	52	-0.9504336	0.2024539	27.91865	0	11.11	4002	4	3	0	0	1.09074	-0.5112393	3	10	0	1400
475144	-44	-25	-79	-0.9422594	0.1980994	27.91724	0	11.11	4002	10	7	1	0	1.09074	-0.5151704	3	10	0	1400
475209	-92	-16	-13	-0.9330876	0.188774	27.91645	0	11.11	4003	12	5	1	0	1.09074	-0.5251674	3	10	0	1400
475297	-89	59	43	-0.9340963	0.174099	27.88709	0	11.11	4002	2	6	0	0	1.09074	-0.533188	3	10	0	1400
475381	-74	-35	-73	-0.9031959	0.1994245	27.88346	0	11.11	4004	-3	1	1	0	1.09074	-0.5308062	3	10	0	1400
475543	-1	-8	47	-0.8765533	0.1670563	27.87068	0	11.11	4002	12	5	0	0	1.09074	-0.5252029	3	10	0	1400
475649	61	30	14	-0.8762563	0.1862534	27.86163	0	11.11	4003	-7	-9	2	0	1.09074	-0.5017394	3	10	0	1400
475683	-86	140	-148	-0.8507712	0.1642553	27.86481	0	11.11	4002	10	-15	3	0	1.09074	-0.4920635	3	10	0	1400
475817	-25	75	-46	-0.8330719	0.1590204	27.8467	0	11.11	4002	29	-6	1	0	1.09074	-0.4823653	3	10	0	1400
475946	-74	-130	-92	-0.8285671	0.1248123	27.82647	0	11.11	4004	3	10	2	0	1.09074	-0.4794266	3	10	0	1400
476053	48	94	-21	-0.8162112	0.104933	27.7951	0	11.11	4004	-38	-6	5	0	1.09074	-0.4569263	3	10	0	1400
476102	-120	54	171	-0.9687799	0.1445953	27.79729	0	11.11	4003	33	23	7	0	1.09074	-0.454281	3	10	0	1400
476225	314	-583	-270	-1.151745	0.2532395	27.77232	0	11.11	4003	11	7	0	0	1.09074	-0.4388973	3	10	0	1400
476299	645	-2238	132	-0.9931163	1.204643	27.91701	0	10.72	4003	-24	-4	-6	0	1.09074	-0.4349158	3	10	0	1400
476408	253	1044	595	0.1353597	0.9874061	28.24907	0	10.72	4003	28	5	-29	0	1.09074	-0.4235329	3	10	0	1400
476548	-107	2146	-232	-1.126069	-2.116709	27.67607	0	10.72	4004	82	-8	5	0	1.09074	-0.3853151	3	10	0	1400
476614	74	4283	1221	-0.9312189	-3.822217	27.74743	0	10.72	4003	-28	-220	2	0	1.09074	-0.360257	3	10	0	1400
476688	-1326	1886	-2215	-2.304796	-8.856974	27.69552	0	10.72	4004	4	-366	-10	0	1.09074	-0.3203087	3	10	0	1400
476867	-1047	1015	-1499	-5.749988	-17.05372	27.72801	0	10.72	4003	69	-177	-14	0	1.09074	-0.238968	3	10	0	1400
476959	715	2922	994	-7.035509	-18.26558	29.17459	0	10.72	4002	-98	249	-26	0	1.09074	-0.1904037	3	10	0	1400
477036	-1712	3152	640	-7.270514	-22.3623	29.65335	0	10.72	4003	9	-96	-25	0	1.09074	-0.1673318	3	10	0	1400
477147	578	-2894	1125	-7.7023	-21.87471	28.24264	0	10.43	4004	-28	44	0	0	1.09074	-0.09904797	3	10	0	1400
477181	221	-7555	-514	-7.003735	-18.46885	28.01808	0	10.43	4003	60	-386	-9	0	1.09074	-0.07699338	3	10	0	1400
477265	1596	-481	1229	-3.399295	-10.65356	27.80351	0	10.43	4002	-73	208	18	0	1.09074	-0.04066164	3	10	0	1400
477370	-909	-1460	-231	-3.752061	-9.62189	27.65718	0	10.43	4004	28	-268	5	0	1.09074	0.01284019	3	10	0	1400
477537	-1564	-7181	-794	-3.911937	1.616743	28.57602	0	10.43	4004	-75	27	-12	0	1.09074	0.1352752	3	10	0	1400
477604	-1378	-7252	-1703	-4.297609	4.417908	28.69602	0	10.43	4003	82	-400	-23	0	1.09074	0.1839322	3	10	0	1400
477776	276	-1931	1047	-6.214984	6.445401	27.42734	0	10.43	4002	65	-142	13	0	1.09074	0.3116995	3	10	0	1400
477809	658	-2293	649	-5.828374	7.512079	27.52697	0	10.43	4004	-109	30	29	0	1.09074	0.3288435	3	10	0	1400
477889	33	2065	1609	-5.404738	8.005998	27.44867	0	10.43	4004	33	282	22	0	1.09074	0.4072829	3	10	0	1400
477981	1086	2906	1916	-5.182583	2.410876	27.41215	0	10.43	4003	-94	-75	30	0	1.09074	0.4613929	3	10	0	1400
478132	1173	1093	-2053	-3.05203	-2.497066	28.22211	0	10.77	4004	-41	-208	-34	0	1.09074	0.530382	3	10	0	1400
478216	-883	-1458	17	-2.665854	-4.13203	28.39723	0	10.77	4002	107	-138	-6	0	1.09074	0.5735118	3	10	0	1400
478289	1045	-2699	-77	-2.379991	-2.537054	28.54819	0	10.77	4003	-90	68	-18	0	1.09074	0.5952439	3	10	0	1400
478402	832	561	-821	-1.611886	-1.891751	28.35281	0	10.77	4002	-64	168	-14	0	1.09074	0.631366	3	10	0	1400
478517	-606	-2085	-259	-1.867092	-3.455184	28.05276	0	10.77	4004	-70	90	-2	0	1.09074	0.6584367	3	10	0	1400
478591	-35	2632	2061	-2.233586	-2.064009	28.14102	0	10.77	4002	19	-372	-10	0	1.09074	0.6671949	3	10	0	1400
478680	-184	4244	-1766	-3.371475	-6.111843	27.85156	0	10.77	4004	-47	-160	-15	0	1.09074	0.6850961	3	10	0	1400
478833	-1721	-2000	-310	-6.230731	-11.01639	28.1191	0	10.77	4004	14	12	-3	0	1.09074	0.6919861	3	10	0	1400
478916	-255	-660	73	-7.219938	-8.205561	28.52476	0	10.77	4004	26	-116	-44	0	1.09074	0.6871765	3	10	0	1400
478977	-105	825	-1162	-6.184662	-8.002297	28.39816	0	10.72	4004	39	-39	-28	0	1.09074	0.6777433	3	10	0	1400
479115	-1581	-781	-1502	-7.996023	-9.869667	27.846	0	10.72	4002	95	-74	-19	0	1.09074	0.6564643	3	10	0	1400
479196	-1974	-296	1096	-9.816898	-8.019094	28.20642	0	10.72	4003	26	-176	5	0	1.09074	0.6453328	3	10	0	1400
479314	486	118	604	-10.68431	-6.963463	28.33978	0	10.72	4002	-5	282	-10	0	1.09074	0.6374344	3	10	0	1400
479399	1020	-90	-1175	-8.961927	-7.49218	28.15988	0	10.72	4004	-104	265	13	0	1.09074	0.6386794	3	10	0	1400
479474	-661	1444	674	-8.257791	-7.869589	28.07549	0	10.72	4002	5	353	2	0	1.09074	0.6365028	3	10	0	1400
479577	-1543	-60	1907	-9.926535	-6.80705	27.83211	0	10.72	4004	11	212	14	29	1.09074	0.6308641	5	10	0	1400
479742	-727	-860	774	-10.60291	-2.751856	27.13055	0	10.72	4003	-54	-73	38	29	1.072999	0.6295044	5	10	0	1400
479785	374	-334	638	-10.0253	-2.011056	27.17521	0	10.72	4004	73	190	9	29	1.069834	0.6301977	5	10	0	1400
479886	-5	978	1328	-8.607507	-1.891054	27.27569	0	10.72	4003	39	-265	-6	28	1.091414	0.631256	5	10	0	1400
480002	2904	1809	-565	-4.026559	-4.848417	27.19721	0	9.07	4002	19	112	9	29	1.134176	0.6375296	5	10	0	1400
480093	1975	-223	1251	-0.4029421	-3.772671	27.91189	0	9.07	4003	7	-85	-31	29	1.05269	0.6537297	5	10	0	1400
480238	-8	1956	288	1.737694	-2.68834	27.84511	0	9.07	4003	9	-179	-8	29	0.8827425	0.6794075	5	10	0	1400
480406	-79	822	-1309	1.249381	-8.21483	27.55006	0	9.07	4004	53	-334	1	28	0.9039046	0.7261941	5	10	0	1400
480583	220	239	359	0.3514891	-10.62586	27.5901	0	9.07	4004	96	5	-2	27	0.9512996	0.7994413	5	10	0	1400
480620	-303	1620	1716	0.3217702	-10.22536	27.44126	0	9.07	4003	38	236	7	27	0.9478192	0.8123332	5	10	0	1400
480694	-41	-2674	-807	-0.2375642	-8.468185	27.29792	0	9.07	4004	-89	-25	23	26	0.8696731	0.8537271	5	10	0	1400
480799	286	-896	322	-0.9178033	-6.280334	26.78905	0	9.07	4003	-41	70	26	25	0.922401	0.9249056	5	10	0	1400
480896	-2196	3097	157	-1.830146	-7.576186	27.31082	0	9.75	4004	-78	-34	17	24	0.9367019	1.016695	5	10	0	1400
481000	-3150	517	-987	-5.580958	-9.246826	27.66423	0	9.75	4004	-22	-207	16	21	0.8262399	1.186712	5	10	0	1400
481103	-1494	-622	600	-9.230513	-9.456015	27.8959	0	9.75	4003	38	-342	-6	19	0.7787253	1.256733	5	10	0	1400
481221	-1948	1466	-2068	-11.30325	-10.71887	27.77082	0	9.75	4003	-62	190	29	18	0.8240982	1.35901	5	10	0	1400
481363	779	3749	404	-9.83802	-14.0337	27.59811	0	9.75	4003	59	236	0	16	0.7590491	1.422846	5	10	0	1400
481498	2283	-4398	-1778	-5.715587	-14.24806	27.68554	0	9.75	4003	-63	-116	2	8	0.8912296	1.691548	5	10	0	1400
481521	2283	-4398	-1778	-5.715587	-14.24806	27.68554	0	9.75	4003	26	-25	17	7	0.9299427	1.73415	5	10	0	1400
481654	673	-1608	-483	-4.437996	-4.657331	27.88391	0	9.75	4004	-106	-176	15	5	0.9498393	2.061803	5	10	0	1400
481786	2212	-463	-1141	-1.794706	-5.344285	27.53336	0	10.72	4002	-65	118	11	-24	1.061363	2.129921	5	10	0	1400
481864	656	-3101	-2333	-0.8775266	-4.182964	28.23243	0	10.72	4003	57	209	-2	0	1.076264	2.285184	5	10	0	1400
481917	125	4193	2108	-0.8417071	-5.306914	28.29321	0	10.72	4004	24	-373	-22	0	1.078216	2.464971	5	10	0	1400
481988	-252	1349	-1016	-1.809	-9.589087	27.92524	0	10.72	4003	49	-278	-14	-1	1.06911	2.610937	5	10	0	1400
482104	709	89	191	-2.077491	-9.382354	28.17884	0	10.72	4004	-45	151	-27	-3	1.068439	2.811799	5	10	0	1400
482244	739	-3250	-935	-3.207954	-4.839538	28.89375	0	10.72	4002	25	-164	-15	-5	0.9534699	3.067049	5	10	0	1400
482339	844	1610	1580	-1.96903	-3.001702	28.60572	0	10.72	4009	-71	200	-17	-7	0.964274	3.228947	5	10	0	1400
482394	901	819	-969	-1.887886	-3.722434	28.54562	0	10.72	4003	15	98	-31	-194	0.9731179	3.403715	5	10	0	1400
482555	-1549	-3404	-855	-2.654611	-0.436896	28.9077	0	10.72	4003	20	100	-37	-16	0.9405547	3.534167	5	10	0	1400
482614	-3818	-938	-194	-5.404754	0.6763645	28.07172	0	10.72	4003	-15	26	-18	-18	0.9600964	3.691789	5	10	0	1400
482705	-2764	-1232	-128	-9.460853	-0.4710179	27.31978	0	10.89	4004	5	-236	18	-202	0.9441875	3.730412	5	10	0	1400
482857	-317	-1226	-1490	-12.04265	-0.2628801	27.87228	0	10.89	4002	-146	108	19	-25	0.9660292	4.089057	5	10	0	1400
482932	-1834	840	-1137	-12.64733	-1.140798	28.29053	0	10.89	4004	36	59	-30	-25	0.948211	4.144804	5	10	0	1400
483042	-2319	2144	282	-13.74271	-4.838778	28.26007	0	10.89	4004	0	-102	0	-58	1.048656	4.340958	5	10	0	1400
483144	3641	-2582	-264	-10.65148	-1.51352	28.20363	0	10.89	4002	-113	129	0	-32	1.046095	4.493859	5	10	0	1400
483338	60	696	-304	-4.994506	-2.675251	27.96711	0	10.89	4002	59	1	-12	-36	1.126121	4.751743	5	10	0	1400
483458	730	-2879	44	-4.399522	-0.4653098	28.12981	0	10.89	4004	-23	-71	1	-39	1.106323	4.951491	5	10	0	1400
483554	207	-989	-1313	-3.432843	1.764287	28.257	0	10.89	4004	9	-23	-27	-40	1.113464	5.001863	5	10	0	1400
483677	500	2041	-560	-2.430086	-2.752708	28.05486	0	10.26	4002	11	-92	-24	-68	1.12751	5.129872	5	10	0	1400
483795	-422	-2130	396	-1.486567	-4.032376	28.44999	0	10.26	4003	2	-51	-7	-43	1.150729	5.226078	5	10	0	1400
483870	-630	-826	226	-2.0946	-2.445252	28.23291	0	10.26	4003	-38	35	0	-44	1.13112	5.284913	5	10	0	1400
483925	110	1063	771	-2.848899	-2.756658	27.95254	0	10.26	4004	-10	15	4	-45	1.13122	5.323198	5	10	0	1400
484100	-482	2294	-279	-2.275792	-12.71462	27.96952	0	10.26	4002	-88	59	12	-46	1.173833	5.434178	5	10	0	1400
484168	-1174	196	113	-2.833225	-12.78919	28.15712	0	10.26	4003	21	-36	-8	-47	1.170212	5.463621	5	10	0	1400
484228	485	-1587	-517	-2.583533	-9.034768	28.60113	0	10.26	4003	-16	-40	-17	-58	1.157661	5.512982	5	10	0	1400
484281	915	-1130	218	-1.171231	-6.693519	28.49231	0	10.26	4004	22	-103	-8	-48	1.174267	5.531845	5	10	0	1400
484320	-163	-1523	160	-0.8820354	-4.80868	28.22472	0	10.26	4003	31	-40	-3	-48	1.146738	5.538513	5	10	0	1400
484383	56	870	93	-0.7800388	-3.411541	27.84754	0	10.94	4004	-50	-9	5	-48	1.168551	5.535066	5	10	0	1400
484416	-468	1095	-59	-0.673915	-5.067293	27.65715	0	10.94	4004	14	-19	-3	-48	1.172066	5.515975	5	10	0	1400
484466	-2244	-40	736	-2.380282	-5.155304	27.74432	0	10.94	4004	0	-3	0	-48	1.128135	5.495003	5	10	0	1400
484562	-2311	1309	-412	-6.61859	-5.373974	28.23772	0	10.94	4004	-17	-1	-13	-47	1.117706	5.470479	5	10	0	1400
484649	-2568	1676	0	-8.663167	-6.593037	28.38241	0	10.94	4003	23	-31	-6	-26	1.119083	5.421217	5	10	0	1400
484830	-92	1015	-7	-11.89176	-8.573573	28.22365	0	10.94	4003	-22	-33	-10	-44	1.076906	5.256222	5	10	0	1400
484909	2145	-589	75	-8.412373	-7.878233	28.58131	0	10.94	4002	-93	-9	-17	-41	1.057181	5.112421	5	10	0	1400
484960	1122	-181	244	-6.302081	-6.706382	28.48103	0	10.94	4003	-18	-20	-7	-17	1.113152	5.066668	5	10	0	1400
485035	1011	-53	649	-4.89891	-6.483027	28.3328	0	10.94	4004	-36	-28	-13	-40	1.127241	5.006757	5	10	0	1400
485167	168	-2252	-463	-2.576248	-3.952918	28.82176	0	10.49	4003	62	-99	-17	-36	1.095235	4.785068	5	10	0	1400
485240	1366	-3315	199	-1.737689	-0.6124137	28.7508	0	10.49	4003	-59	-161	-19	-35	1.090838	4.747266	5	10	0	1400
485348	-1102	1250	377	-2.164235	-0.171306	28.47884	0	10.49	4003	82	-186	-9	-34	0.9850217	4.657513	5	10	0	1400
485447	-307	-876	-354	-2.232291	-1.885438	29.97116	0	10.49	4003	-43	-16	-61	-31	0.9847823	4.432528	5	10	0	1400
485574	458	1259	668	-4.125037	-2.470314	29.93183	0	10.49	4002	-46	-48	-29	2	1.058946	4.15006	5	10	0	1400
485639	3598	2863	1678	-0.1823884	-4.738334	27.89814	0	10.49	4004	-14	-56	6	-23	1.089491	3.981213	5	10	0	1400
485742	-1547	2755	1175	-1.707905	-7.969294	26.25012	0	10.49	4004	36	-25	52	-20	1.071332	3.772001	5	10	0	1400
485839	-818	2787	-1630	-1.119628	-12.92631	26.86914	0	10.49	4004	9	-61	15	-9	1.152627	3.453137	5	10	0	1400
485958	516	-2485	-687	-1.869492	-11.91517	27.62763	0	10.49	4002	-29	-43	12	-4	1.069813	2.993275	5	10	0	1400
486067	2845	-1687	-2080	0.3017549	-8.250983	28.52571	0	10.04	4003	-50	-110	-30	-2	1.058753	2.808828	5	10	0	1400
486146	-335	-2762	-1783	1.689614	-7.495093	30.16129	0	10.04	4003	119	-124	-84	-1	1.046972	2.629585	5	10	0	1400
486281	2764	18	489	-1.523657	-3.269865	32.35219	0	10.04	4004	-73	-96	-103	0	1.087927	2.555856	5	10	0	1400
486361	-155	-197	1375	0.4542524	-3.006648	31.75576	0	10.04	4004	0	33	-71	1	1.097799	2.360227	5	10	0	1400
