time(ms)	gyro_x(deg/s)	gyro_y(deg/s)	gyro_z(deg/s)	orientation_roll(deg)	orientation_pitch(deg)	orientation_yaw(deg)	throttle	battery(V)	loop_time(uS)	pid_output_roll	pid_output_pitch	pid_output_yaw	pid_output_throttle	ultrasonic_alt	baro_alt	flight_mode	p_gain_altitude	i_gain_altitude	d_gain_altitude
242812	892	2832	-647	-0.8255203	-5.911129	-25.68969	0	10.94	4004	-8	21	-17	0	1.394295	1.804713	3	7	0	2600
242885	93	1735	-297	0.4522267	-8.86102	-25.42255	0	10.94	4002	-22	-11	-9	0	1.394295	1.841499	3	7	0	2600
242983	-19	-1953	629	-0.7575763	-6.38622	-25.4826	0	10.94	4003	-76	3	0	0	1.394295	1.867697	3	7	0	2600
243129	821	3317	432	0.2800693	-7.726283	-25.94306	0	10.94	4003	-24	144	-8	0	1.394295	1.899143	3	7	0	2600
243247	189	1037	10	0.00932157	-11.71918	-25.35228	0	11.11	4004	25	-127	-18	0	1.394295	1.908932	3	7	0	2600
243396	-299	3761	-397	1.456657	-16.20107	-24.51789	0	11.11	4003	-7	198	-25	0	1.394295	1.928756	3	7	0	2600
243527	-77	-2167	-748	-1.426039	-17.82405	-25.39124	0	11.11	4004	111	-271	-23	0	1.394295	1.921791	3	7	0	2600
243632	643	-4155	-2394	-1.059012	-12.90119	-25.13464	0	11.11	4003	-76	-112	-17	0	1.394295	1.910756	3	7	0	2600
243715	-1429	-1628	-1512	-1.696554	-10.48181	-25.46935	0	11.11	4002	113	-79	-17	0	1.394295	1.903099	3	7	0	2600
243856	-463	829	-639	-1.455652	-6.964243	-25.63326	0	11.11	4004	-64	213	20	0	1.394295	1.883444	3	7	0	2600
243903	-894	2310	2229	-1.621501	-7.342269	-26.26707	0	11.11	4007	-82	-128	43	0	1.394295	1.87746	3	7	0	2600
244022	2653	2079	125	-0.2780228	-9.052837	-26.44379	0	11.11	4003	21	-87	-12	0	1.394295	1.848382	3	7	0	2600
244111	-1232	-532	-566	1.856904	-8.264418	-25.39307	0	11.11	4003	-1	157	-5	0	1.394295	1.833792	3	7	0	2600
244224	1864	2613	334	2.680024	-9.101671	-24.29422	0	11.29	4003	-131	-29	-19	0	1.394295	1.832058	3	7	0	2600
244369	760	4430	613	4.082736	-14.66432	-25.11825	0	11.29	4003	-43	238	-10	0	1.394295	1.832382	3	7	0	2600
244425	-853	2260	1033	3.562062	-16.46539	-25.31708	0	11.29	4004	-93	130	-6	0	1.394295	1.83371	3	7	0	2600
244571	-465	1804	573	1.307379	-15.7208	-24.62169	0	11.29	4003	-76	155	-11	0	1.394295	1.819176	3	7	0	2600
244627	-189	426	-2116	0.5768273	-16.28565	-24.46992	0	11.29	4003	35	-337	-54	0	1.394295	1.809816	3	7	0	2600
244772	-1726	-122	-972	-3.483316	-20.12311	-24.77327	0	11.29	4003	-115	332	-9	0	1.394295	1.807548	3	7	0	2600
244918	323	-2590	-359	-1.964845	-19.72982	-25.33014	0	11.29	4003	19	107	-30	0	1.394295	1.81466	3	7	0	2600
245064	-787	-3368	-262	-3.12714	-10.50118	-25.91613	0	11.29	4003	142	-36	-21	0	1.394295	1.823738	3	7	0	2600
245152	343	-96	1266	-1.727548	-7.410124	-26.27232	0	9.92	4003	101	-281	-15	2	1.339243	1.827456	5	7	0	2600
245248	1056	-1992	726	-2.467737	-4.894362	-26.43289	0	9.92	4003	-43	-314	-4	4	1.152288	1.838933	5	7	0	2600
245376	-908	-3023	-1643	-1.541457	-1.392479	-25.8381	0	9.92	4003	95	-254	-26	4	1.002978	1.877865	5	7	0	2600
245449	-3191	-905	-1446	-2.634673	-1.680883	-25.76598	0	9.92	4004	-115	-139	18	-14	1.019067	1.916005	5	7	0	2600
245550	-1463	226	1600	-6.511393	-2.244467	-26.57846	0	9.92	4003	132	-85	10	3	0.8717406	1.929512	5	7	0	2600
245648	147	1423	1729	-5.877295	-2.401593	-26.90191	0	9.92	4002	-49	-83	27	3	0.8960594	1.987491	5	7	0	2600
245753	-1676	-409	-1038	-6.674687	-4.607929	-26.05718	0	9.92	4004	40	-91	-6	3	0.9320862	2.021325	5	7	0	2600
245880	-1112	-805	1044	-7.347979	-3.116426	-25.30438	0	9.92	4004	-45	237	10	2	0.7743959	2.081616	5	7	0	2600
246085	-462	1518	1780	-6.213618	-4.271245	-26.87535	0	10.89	4002	54	-201	18	2	0.6790832	2.177221	5	7	0	2600
246245	22	-1673	-2133	-3.821959	-3.704335	-26.18581	0	10.89	4002	60	-154	-5	1	0.7860174	2.284614	5	7	0	2600
246288	-986	34	70	-4.449539	-3.57828	-25.47395	0	10.89	4004	-110	22	5	1	0.8053765	2.309739	5	7	0	2600
246385	1412	1314	-89	-4.013031	-3.779106	-24.54906	0	10.89	4003	-109	20	-26	1	0.8382784	2.349658	5	7	0	2600
246486	-1205	-2165	-1861	-3.617847	-5.67323	-24.34959	0	10.89	4004	182	-169	-66	0	0.9386714	2.425306	5	7	0	2600
246674	1444	1614	94	-3.184629	-4.168845	-25.86494	0	10.89	4002	-78	153	20	0	0.7805861	2.55038	5	7	0	2600
246758	408	435	761	-1.42458	-6.47967	-26.33719	0	10.89	4003	17	196	2	-42	0.7631361	2.721132	5	7	0	2600
246810	-182	-618	860	-1.722315	-4.974823	-25.87245	0	10.89	4002	25	-397	-17	-1	0.804722	2.769828	5	7	0	2600
246879	-524	1383	-138	-2.31129	-4.243435	-24.81143	0	10.89	4002	2	-16	-33	-2	0.8485838	2.842391	5	7	0	2600
247051	1253	1831	1402	-2.073663	-7.830285	-25.16446	0	11.17	4003	-126	290	-1	-54	0.9410284	2.943643	5	7	0	2600
247153	274	5007	1723	-1.147034	-13.05678	-25.76237	0	11.17	4002	-128	231	24	-3	0.9135587	3.041168	5	7	0	2600
247231	-237	3217	-479	-0.777028	-17.07988	-25.89059	0	11.17	4004	107	-112	-23	-4	1.033242	3.116931	5	7	0	2600
247323	41	-2854	-491	-1.759618	-17.33065	-25.00356	0	11.17	4002	-14	-253	-34	-4	1.002653	3.172297	5	7	0	2600
247385	-1307	-3488	-715	-2.359028	-11.42697	-24.39536	0	11.17	4003	-84	266	-27	-40	0.9928601	3.352361	5	7	0	2600
247490	-1658	-4192	-1017	-3.403074	-9.196019	-24.63646	0	11.17	4003	70	-381	-44	-6	1.003369	3.441757	5	7	0	2600
247596	-356	-1753	-730	-3.950119	-7.438263	-24.64754	0	11.17	4003	-136	-14	2	-12	0.9999127	3.61206	5	7	0	2600
247768	2764	-538	767	-2.02325	-6.478098	-25.59015	0	11.17	4003	-173	102	8	-13	0.9525782	3.737962	5	7	0	2600
247849	-94	726	-346	-0.7099221	-6.328064	-25.34586	0	11.17	4004	108	-28	-37	-14	0.9868448	3.795128	5	7	0	2600
247934	-1431	741	1692	-2.202761	-7.521795	-25.30771	0	11.29	4004	-8	-233	-9	-14	1.009765	3.856849	5	7	0	2600
248042	-506	-883	-1085	-3.820413	-7.337821	-25.16171	0	11.29	4004	-46	-333	-30	-69	1.023977	3.898788	5	7	0	2600
248141	-1919	-2044	-1351	-4.489619	-7.717998	-24.91978	0	11.29	4004	120	-293	-34	-17	0.9200708	4.064498	5	7	0	2600
248207	-1384	-2885	-1164	-6.213296	-6.571084	-24.71263	0	11.29	4004	104	-306	-49	-17	0.8657567	4.12407	5	7	0	2600
248352	-1006	3079	594	-7.650633	-7.331104	-24.38403	0	11.29	4004	23	279	-46	-70	0.9040233	4.223136	5	7	0	2600
248488	993	4062	1578	-7.83794	-12.78527	-24.01219	0	11.29	4002	-83	352	-25	-20	0.8216069	4.343154	5	7	0	2600
248604	364	-468	-1101	-8.207169	-15.20128	-25.56001	0	11.29	4004	122	-225	-10	-21	0.8948663	4.443223	5	7	0	2600
248625	364	-468	-1101	-8.207169	-15.20128	-25.56001	0	11.29	4004	27	-267	-17	-73	0.9228572	4.482601	5	7	0	2600
248754	1079	2966	161	-3.118112	-18.72089	-25.09697	0	11.29	4004	-24	172	-27	-22	1.026077	4.557789	5	7	0	2600
248821	-263	-1142	-577	-3.847849	-19.18712	-24.74353	0	11.29	4002	28	-38	-23	-23	1.043446	4.619905	5	7	0	2600
248925	473	-2700	443	-3.538997	-15.58684	-24.35671	0	11.29	4004	7	49	-29	-25	1.042659	4.783173	5	7	0	2600
249093	616	-3371	261	-1.56669	-4.048516	-26.04983	0	11.29	4002	-12	-38	0	-26	0.9458596	4.839255	5	7	0	2600
249176	745	-1606	-25	-0.889324	-2.308896	-26.01522	0	11.29	4002	-37	56	9	-27	1.050588	4.943141	5	7	0	2600
249230	998	817	-468	0.03904737	-3.918033	-25.77517	0	11.29	4003	-82	149	0	-27	1.063212	4.955605	5	7	0	2600
249358	-1462	-1196	213	0.4105962	-4.457181	-24.99749	0	11.29	4004	18	-52	-22	-28	1.064358	5.027682	5	7	0	2600
249519	279	4599	853	-0.3149467	-7.958526	-25.81104	0	11.29	4002	-19	64	9	-29	0.9937661	5.098465	5	7	0	2600
249593	-337	3330	291	-0.3733421	-12.01909	-26.35686	0	11.29	4003	-28	-27	11	-29	1.016979	5.127213	5	7	0	2600
249670	386	259	71	-1.451726	-12.45299	-26.02307	0	11.29	4003	-8	-112	1	-29	1.008379	5.145123	5	7	0	2600
249730	451	1409	-146	-1.163748	-12.12546	-25.45696	0	11.29	4003	11	-88	-22	-29	1.02681	5.161249	5	7	0	2600
249865	-531	1480	-457	-1.194432	-13.97482	-25.23694	0	10.83	4002	33	-78	-11	-29	1.038675	5.167964	5	7	0	2600
249937	14	434	-220	-1.603748	-13.67009	-25.44612	0	10.83	4002	-35	18	-4	-11	0.9847004	5.157744	5	7	0	2600
250045	956	-876	574	-1.127961	-12.04209	-25.78684	0	10.83	4002	-129	8	0	-29	0.9717942	5.125679	5	7	0	2600
250173	-63	-1803	-80	-0.314456	-7.577541	-25.80563	0	10.83	4002	-74	-10	-3	-28	0.9689703	5.060553	5	7	0	2600
250251	268	-1239	-278	-0.06735882	-6.150802	-25.67629	0	10.83	4003	-59	75	0	-28	1.025213	5.035286	5	7	0	2600
250394	846	178	663	0.670264	-4.024674	-26.78201	0	10.83	4003	-110	133	28	-27	0.9877415	4.935215	5	7	0	2600
250487	867	287	1212	1.914124	-4.80161	-27.27304	0	10.83	4004	-58	-108	44	-26	1.008402	4.881774	5	7	0	2600
250553	114	629	1951	1.964082	-5.255146	-27.75019	0	10.83	4004	60	74	42	18	1.028543	4.831961	5	7	0	2600
250738	-709	3	-366	-0.2526362	-8.975154	-29.00009	0	10.6	4003	-164	-66	92	-23	0.916072	4.596304	5	7	0	2600
250803	-1664	1822	833	-2.293778	-9.729816	-28.59244	0	10.6	4003	59	95	54	-23	0.8920637	4.437715	5	7	0	2600
250923	-484	255	-1459	-5.182835	-10.83685	-26.6875	0	10.6	4002	191	-179	2	-20	0.7890372	4.352075	5	7	0	2600
251017	-710	-466	-1089	-5.505505	-10.47978	-26.50573	0	10.6	4002	44	295	23	-18	0.7450213	4.183385	5	7	0	2600
251099	1671	-3664	780	-4.49393	-9.153005	-27.04122	0	10.6	4002	-111	-163	56	-16	0.7561688	3.979696	5	7	0	2600
251154	1651	-2387	2093	-2.26335	-5.167281	-28.31105	0	10.6	4004	-106	97	104	-14	0.7730247	3.957634	5	7	0	2600
251336	1918	-1503	-2402	-2.123656	-4.800341	-28.16718	0	10.6	4004	-27	82	58	-12	0.7473426	3.569465	5	7	0	2600
251359	1918	-1503	-2402	-2.123656	-4.800341	-28.16718	0	10.6	4004	45	-285	30	-11	0.7729701	3.434695	5	7	0	2600
251472	-34	1712	147	-1.61638	-4.828574	-25.80031	0	10.6	4004	-10	-320	-22	-5	0.8030965	3.254777	5	7	0	2600
251575	82	-1857	-2015	-1.383706	-6.343901	-25.45622	0	10.6	4003	84	-230	-14	-3	0.7754183	3.063806	5	7	0	2600
251729	-351	603	-921	-1.632686	-7.325931	-25.32451	0	11.57	4003	-46	-159	-6	-1	0.8326975	2.600183	5	7	0	2600
251853	842	1924	1027	-0.4015168	-11.0354	-24.55797	0	11.57	4002	-76	-46	-21	48	0.8685319	2.39018	5	7	0	2600
251872	842	1924	1027	-0.4015168	-11.0354	-24.55797	0	11.57	4002	-90	95	-31	0	0.8685319	2.39018	5	7	0	2600
251998	-710	969	152	-0.5195142	-13.46458	-23.55634	0	11.57	4003	78	-89	-65	2	0.9461887	2.060169	5	7	0	2600
252086	-62	-2117	832	-0.4401371	-11.63743	-23.66867	0	11.57	4003	88	-96	-43	4	0.9086137	2.007222	5	7	0	2600
252240	418	-2318	-127	-0.4191523	-5.625105	-25.13602	0	11.57	4004	4	-42	-13	5	0.8704662	1.646089	5	7	0	2600
252294	513	-780	536	0.05918505	-4.237946	-25.11082	0	11.57	4004	-41	53	-13	6	0.8834727	1.609421	5	7	0	2600
252367	937	1948	-22	0.4643759	-5.196917	-25.11308	0	11.57	4003	-82	218	-2	12	0.9275582	1.422492	5	7	0	2600
252452	3420	-99	-924	0.7404434	-4.518166	-24.38079	0	11.57	4003	21	-47	-49	334	0.9016694	1.261904	5	7	0	2600
252608	-1769	-2891	-1647	0.4886299	-1.568333	-25.16778	0	10.83	4003	115	-76	-21	14	0.9575962	1.170267	5	7	0	2600
252705	-1078	792	1491	-0.7998558	-1.283415	-24.94059	0	10.83	4004	148	-228	-39	15	0.7919702	1.097915	5	7	0	2600
252757	-1859	-1260	-1666	-1.131757	-1.526659	-24.69227	0	10.83	4002	181	-185	-58	59	0.8254862	1.027799	5	7	0	2600
252889	-473	3107	737	-0.4749794	-6.297862	-24.60062	0	10.83	4004	-34	-8	-11	17	0.8192952	0.9662474	5	7	0	2600
252972	-470	1327	468	-0.9588643	-8.072452	-23.85575	0	10.83	4004	-98	95	-47	17	0.8194952	0.9209677	5	7	0	2600
253093	-74	947	-1409	-2.559772	-9.584201	-23.70048	0	10.83	4003	-171	-180	-49	31	0.891033	0.8686774	5	7	0	2600
253173	-3712	1484	3	-5.599065	-12.36165	-25.72269	0	10.83	4003	55	-41	-3	18	0.8889321	0.8596184	5	7	0	2600
253278	1882	-252	1942	-5.203187	-8.725863	-26.47585	0	10.83	4003	7	-147	9	18	0.8428182	0.8461638	5	7	0	2600
253394	292	1782	745	-3.646385	-8.997019	-26.72816	0	10.83	4003	-189	-27	-5	18	0.8587914	0.8489944	5	7	0	2600
253475	-1477	1314	-336	-4.767995	-9.449709	-25.87608	0	10.32	4003	73	-62	-26	18	0.8903037	0.8691357	5	7	0	2600
253611	1185	1170	-1374	-2.196712	-15.15394	-25.52774	0	10.32	4003	231	-400	-23	17	0.9599929	0.9223954	5	7	0	2600
253672	-2358	-1327	-345	-3.209853	-15.30926	-25.38733	0	10.32	4004	35	109	-12	17	0.9799963	0.9349498	5	7	0	2600
253857	1766	-1027	1042	-3.171612	-7.385668	-25.55111	0	10.32	4005	-4	-7	-27	16	0.9489742	1.086417	5	7	0	2600
253889	1821	-1231	98	-2.165908	-6.140358	-25.24992	0	10.32	4004	2	147	-13	15	0.9482989	1.107905	5	7	0	2600
254011	1709	2290	1943	0.2994041	-8.267219	-25.5454	0	10.32	4003	25	-129	-19	13	0.9409923	1.29022	5	7	0	2600
254092	1048	2282	1278	1.953701	-8.907895	-25.35882	0	10.32	4004	43	-74	-27	6	0.9304727	1.350258	5	7	0	2600
254230	841	-721	1844	6.216226	-6.336011	-24.39158	0	10.32	4003	72	8	-35	5	0.8133033	1.591468	5	7	0	2600
254293	-509	-722	407	4.673635	-5.160027	-24.19529	0	10.32	4003	88	-173	-59	5	0.7209479	1.747517	5	7	0	2600
254397	-2822	-4388	-2561	1.642904	-4.421902	-24.09312	0	10.49	4004	-27	271	-39	-325	0.8503488	1.934371	5	7	0	2600
254500	-541	-1930	1549	-2.402072	1.27487	-23.27165	0	10.49	4004	95	-311	-78	3	0.9600193	2.023604	5	7	0	2600
254623	922	2946	1540	-1.408378	-2.324912	-25.69203	0	10.49	4004	-211	237	25	2	0.9784342	2.20113	5	7	0	2600
254711	4735	1564	-283	1.087396	-4.70173	-24.97787	0	10.49	4003	-57	-38	-43	-49	1.104332	2.272467	5	7	0	2600
254821	-301	-824	424	0.184371	-7.110029	-23.53755	0	10.49	4003	-65	256	-28	0	1.019036	2.457012	5	7	0	2600
254927	2387	1742	-711	0.4424887	-7.974082	-24.28601	0	10.49	4004	-254	103	-13	0	1.024715	2.573146	5	7	0	2600
255024	885	2523	-173	2.606845	-11.42497	-24.78156	0	10.49	4003	16	142	-15	-45	0.8276075	2.743898	5	7	0	2600
255111	-1404	-359	-1705	0.9394395	-14.07417	-25.24112	0	10.49	4003	-69	153	-1	-1	0.9174867	2.799072	5	7	0	2600
255276	598	3811	100	1.209046	-17.9194	-24.352	0	10.49	4003	93	-286	-59	-3	0.9834479	3.020477	5	7	0	2600
255318	79	1941	84	1.295328	-20.31161	-23.99113	0	10.32	4002	-48	-29	-27	-4	0.9271283	3.16992	5	7	0	2600
255415	-2150	-6038	-1216	-4.535161	-14.66282	-23.17471	0	10.32	4003	-122	-160	-63	-6	0.8617689	3.379614	5	7	0	2600
255544	812	982	1437	-3.090302	-7.738719	-23.73821	0	10.32	4004	6	-34	-38	-12	0.8501029	3.468666	5	7	0	2600
255617	-626	-674	947	-2.291448	-8.681298	-25.07405	0	10.32	4003	-111	171	3	-51	0.8253237	3.607138	5	7	0	2600
255715	1452	-330	-786	-0.9381641	-8.185505	-25.25236	0	10.32	4004	-217	0	-9	-13	0.8455065	3.692974	5	7	0	2600
255819	-3005	-2812	-1168	-0.9275575	-8.092446	-24.76932	0	10.32	4004	-124	3	-30	-14	0.8723085	3.778152	5	7	0	2600
255932	1152	323	-698	-3.459247	-4.731743	-22.70777	0	10.32	4004	61	-188	-78	-16	0.7661734	3.963518	5	7	0	2600
256036	-421	-594	-1603	-0.6376503	-10.38941	-23.58833	0	10.32	4003	123	-376	-76	-18	0.8621046	4.15727	5	7	0	2600
256159	-1429	-610	1120	-2.867232	-10.85964	-23.11276	0	10.32	4002	-104	127	-47	-20	0.8125976	4.38068	5	7	0	2600
256225	-2185	-2980	-652	-4.689243	-7.553884	-22.91248	0	10.32	4004	-123	-146	-79	-22	0.777352	4.521288	5	7	0	2600
256438	12	589	583	-3.695259	-4.765328	-24.8347	0	11.29	4003	-13	-47	-31	-25	0.8591494	4.792722	5	7	0	2600
256550	-267	-1065	397	-3.654336	-4.122503	-24.65887	0	11.29	4004	-274	183	-26	-27	0.8443503	4.969032	5	7	0	2600
256642	300	622	1458	-3.045903	-3.467003	-23.59791	0	11.29	4004	24	-71	-43	-30	0.8447633	5.140064	5	7	0	2600
256770	1017	-690	1367	-1.568429	-4.11215	-25.78948	0	11.29	4003	-22	-47	22	-32	0.9060427	5.367241	5	7	0	2600
256836	228	-1454	548	-1.071269	-2.732193	-26.75737	0	11.29	4002	22	-125	19	0	0.95065	5.426449	3	7	0	2600
257000	1013	664	-1526	0.4798179	-4.034936	-25.70185	0	11.29	4003	121	-272	-45	0	1.016049	5.751436	3	7	0	2600
257078	-1116	401	-3656	-0.05784531	-7.55539	-22.87683	0	11.29	4003	27	4	-91	0	1.049861	5.808339	3	7	0	2600
257170	-1146	1929	310	-0.8987544	-8.79006	-21.30064	0	11.29	4002	-199	350	-103	0	1.074511	5.885164	3	7	0	2600
257282	-2236	-1428	-34	-5.420019	-9.727064	-21.45666	0	10.89	4004	82	-87	-127	0	1.09248	6.05938	3	7	0	2600
257358	-261	-349	2399	-5.676836	-8.989362	-23.36894	0	10.89	4002	31	-92	-32	0	1.101664	6.105728	3	7	0	2600
257452	-860	-457	1976	-5.283344	-7.859789	-27.1681	0	10.89	4006	-44	-81	43	0	1.112275	6.204869	3	7	0	2600
257551	-894	586	254	-7.120501	-7.428536	-28.67419	0	10.89	4003	57	-89	72	0	1.12001	6.289134	3	7	0	2600
257633	-468	1441	-1509	-8.539256	-8.081297	-27.6809	0	10.89	4004	-6	-6	19	0	1.125649	6.35904	3	7	0	2600
257731	-1513	1511	-781	-9.862038	-9.336441	-25.4115	0	10.89	4004	33	-5	-27	0	1.12976	6.430211	3	7	0	2600
257878	-1555	996	97	-13.84919	-10.0645	-24.9831	0	10.89	4002	52	-17	-8	0	1.134288	6.499975	3	7	0	2600
257965	-1548	1414	761	-14.52974	-10.54417	-25.91684	0	10.89	4004	96	-53	9	0	1.134941	6.518209	3	7	0	2600
258122	2127	472	-208	-13.96904	-11.52786	-26.30641	0	10.94	4003	8	18	5	0	1.137695	6.547786	3	7	0	2600
258197	1589	-1276	-787	-9.561098	-9.32526	-25.56292	0	10.94	4002	30	-30	-9	0	1.138288	6.543577	3	7	0	2600
258247	880	-1256	-332	-8.985759	-8.033994	-25.29422	0	10.94	4003	72	-8	-22	0	1.138769	6.536421	3	7	0	2600
258347	471	602	326	-8.830561	-5.978868	-24.80491	0	10.94	4004	2	-13	-29	0	1.139158	6.522652	3	7	0	2600
258485	1919	-973	238	-6.248747	-5.177171	-24.47548	0	10.94	4003	-65	133	-37	0	1.139729	6.504727	3	7	0	2600
258548	3349	1774	906	-4.705451	-5.199573	-24.03446	0	10.94	4004	-89	312	-46	0	1.139936	6.479528	3	7	0	2600
258732	1953	-543	-688	-3.245355	-6.927657	-22.9625	0	10.94	4004	-121	59	-69	0	1.140297	6.395593	3	7	0	2600
258844	411	1981	1488	-1.100237	-6.709611	-22.50377	0	10.94	4003	52	-177	-78	0	1.140476	6.305496	3	7	0	2600
258927	293	-2923	314	-2.856244	-6.165081	-24.06619	0	10.94	4003	49	80	-39	0	1.140541	6.136672	3	7	0	2600
259084	-142	-1080	534	1.874689	-1.807098	-25.33732	0	10.55	4004	63	1	-4	0	1.140654	5.904041	3	7	0	2600
259175	1192	1359	839	2.914462	-1.383602	-24.90294	0	10.55	4002	-65	103	-12	0	1.140699	5.606321	3	7	0	2600
259287	2044	2239	441	2.601039	-2.945363	-24.49323	0	10.55	4004	-151	400	-38	0	1.140731	5.390076	3	7	0	2600
259422	-2046	-2611	-198	5.088787	-5.104077	-23.14281	0	10.55	4003	-33	60	-40	0	1.140755	5.060319	3	7	0	2600
259473	-1009	-4086	19	0.9492266	1.291847	-24.20536	0	10.55	4002	-19	-164	-40	0	1.140772	4.750659	3	7	0	2600
259578	-1512	-1256	-358	-0.2541311	3.796393	-23.90014	0	10.55	4004	-2	-24	-45	0	1.140784	4.430031	3	7	0	2600
259702	-969	-1644	1092	-2.392432	5.867987	-24.02277	0	10.55	4003	-83	-54	-28	0	1.140796	4.21315	3	7	0	2600
259888	1914	4905	3534	-7.231966	0.9627039	-27.97746	0	10.55	4002	-236	384	103	0	1.140805	3.754468	3	7	0	2600
259912	402	2507	-116	-6.48573	-1.368431	-28.55115	0	10.55	4003	123	-162	56	0	1.140806	3.611036	3	7	0	2600
260034	226	1984	248	-4.30296	-3.762333	-28.75911	0	9.58	4004	88	135	69	0	1.14081	3.42507	3	7	0	2600
260114	1158	2585	-644	-3.620235	-4.28738	-27.51098	0	9.58	4003	65	0	21	0	1.140812	3.236863	3	7	0	2600
260187	-2520	-1410	-1142	-4.485894	-4.607272	-26.40027	0	9.58	4003	20	-70	10	0	1.140813	3.181843	3	7	0	2600
260311	2155	4672	229	-5.122915	-4.432479	-25.2972	0	9.58	4004	-14	284	-22	0	1.140815	2.851412	3	7	0	2600
260450	718	4165	-892	-1.031247	-10.68562	-24.53875	0	9.58	4003	-38	103	-53	0	1.140816	2.651875	3	7	0	2600
260583	-3291	-6164	-1953	-1.565511	-8.565217	-23.10476	0	9.58	4003	270	-400	-87	0	1.140817	2.430896	3	7	0	2600
260637	-414	-314	1240	-3.665825	-4.973852	-23.05186	0	9.58	4003	63	-91	-72	0	1.140817	2.39664	3	7	0	2600
260765	2062	4701	-1940	-2.605369	-10.75276	-23.2004	0	9.58	4004	-47	400	-59	0	1.140817	2.214444	3	7	0	2600
260836	2674	5677	169	-0.1081653	-16.07266	-21.73239	0	9.58	4004	-138	227	-95	0	1.140817	2.163124	3	7	0	2600
260945	-2791	-1061	2289	0.6244939	-15.25557	-22.8953	0	11	4004	92	-190	-14	0	1.140817	2.064209	3	7	0	2600
261015	-651	-1889	2436	-2.987576	-9.928842	-25.51328	0	11	4004	-86	122	29	0	1.140817	1.9629	3	7	0	2600
261079	-1148	57	1653	-3.947535	-8.376556	-26.68732	0	11	4003	91	-19	33	0	1.140817	1.899681	3	7	0	2600
261195	3543	4593	-142	-3.050125	-10.68417	-25.65102	0	11	4002	-44	-171	-11	0	1.140817	1.826369	3	7	0	2600
261272	1792	3111	-4238	-2.582207	-12.63278	-24.16174	0	11	4004	-46	-144	-96	0	1.140817	1.770293	3	7	0	2600
261388	-3047	-1945	1907	-6.713476	-12.45993	-23.07847	0	11	4004	70	-180	-65	0	1.140817	1.670746	3	7	0	2600
261495	-1299	-1619	1303	-7.778915	-9.303146	-26.3905	0	11	4002	3	-105	43	0	1.140817	1.606799	3	7	0	2600
261575	36	-816	226	-7.671555	-8.29085	-27.49667	0	11	4003	-74	87	51	0	1.140817	1.559769	3	7	0	2600
261768	1349	-90	-321	-4.613534	-2.892468	-24.68155	0	11	4003	-61	64	-27	0	1.140817	1.43762	3	7	0	2600
261842	-665	-3730	-457	-4.134252	-0.8970948	-24.05964	0	10.21	4004	-106	19	-39	0	1.140817	1.399856	3	7	0	2600
261961	845	-777	935	-2.19564	3.384428	-25.76179	0	10.21	4004	-15	-49	-2	0	1.140817	1.324237	3	7	0	2600
262001	42	-1690	104	-1.964235	3.566018	-26.22521	0	10.21	4003	-26	-205	20	0	1.140817	1.310942	3	7	0	2600
262138	2438	1585	-446	-1.400774	2.657381	-26.35085	0	10.21	4002	-130	269	13	0	1.140817	1.231943	3	7	0	2600
262173	3111	2640	-187	-0.0608807	1.118574	-26.36887	0	10.21	4002	63	-138	6	0	1.140817	1.231943	3	7	0	2600
262249	487	1202	-499	0.6473068	-2.726934	-25.90289	0	10.21	4003	-50	327	-22	0	1.140817	1.192075	3	7	0	2600
262389	-706	-656	-3309	0.6214708	-4.381537	-22.25911	0	10.21	4004	183	-270	-138	0	1.140817	1.136918	3	7	0	2600
262491	102	447	-365	1.22752	-6.944132	-20.12077	0	10.21	4003	4	-43	-140	0	1.140817	1.101328	3	7	0	2600
262595	-863	-2474	1667	-0.6212033	-4.125603	-22.54325	0	10.21	4003	107	-302	-55	0	1.140817	1.073005	3	7	0	2600
262658	-996	-16	-303	-0.8852457	-5.130517	-24.19789	0	10.21	4004	95	-289	-41	0	1.140817	1.049825	3	7	0	2600
262774	-5302	-801	-878	-4.4835	-11.65272	-25.22404	0	9.3	4004	-35	273	2	0	1.140817	0.9939527	3	7	0	2600
262926	-308	-2853	-1011	-9.398141	-4.340535	-22.33506	0	9.3	4004	-129	124	-83	0	1.140817	0.9331957	3	7	0	2600
263029	455	784	624	-7.614721	-3.008036	-21.88128	0	9.3	4002	-92	349	-77	0	1.140817	0.8728937	3	7	0	2600
263054	1320	1179	1673	-6.948875	-3.577595	-22.48782	0	9.3	4003	-163	0	-55	0	1.140817	0.8650004	3	7	0	2600
263222	-89	-2717	1176	-4.398458	0.4950438	-25.85812	0	9.3	4004	-25	-50	15	0	1.140817	0.8237402	3	7	0	2600
263255	614	-1138	1804	-4.494205	1.264724	-26.49002	0	9.3	4002	-34	9	40	0	1.140817	0.8169042	3	7	0	2600
263371	1569	5058	-185	-0.990505	-3.203109	-25.81369	0	9.3	4002	-178	297	21	0	1.140817	0.800316	3	7	0	2600
263490	1747	4320	-1476	-0.5824924	-12.33198	-24.0303	0	9.3	4004	-185	128	-39	0	1.140817	0.7572743	3	7	0	2600
263550	-234	3830	-14	-0.8311971	-17.90955	-23.05009	0	9.3	4004	122	109	-89	0	1.140817	0.7525624	3	7	0	2600
263648	-1783	2269	2967	-2.099723	-18.01168	-23.57037	0	11.23	4003	38	209	-50	0	1.140817	0.7420349	3	7	0	2600
263757	539	1529	948	-1.476312	-18.83388	-25.05615	0	11.23	4003	-7	167	0	0	1.140817	0.7340141	3	7	0	2600
263887	4634	-1766	-138	4.173804	-13.77492	-26.22659	0	11.23	4004	81	-110	16	0	1.140817	0.7288376	3	7	0	2600
263972	4469	-1504	-102	8.818914	-10.7933	-26.26027	0	11.23	4004	-55	-79	7	0	1.140817	0.7098511	3	7	0	2600
264090	-111	-493	-305	10.1651	-5.864848	-26.20287	0	11.23	4003	-26	-90	10	0	1.140817	0.6902446	3	7	0	2600
264258	-1306	-291	-222	4.638708	-4.224823	-26.26475	0	11.23	4004	4	-98	0	0	1.140817	0.6608556	3	7	0	2600
264291	-229	1334	-864	3.395559	-4.931754	-25.90205	0	11.23	4003	-34	66	5	0	1.140817	0.6519387	3	7	0	2600
264475	5150	8524	-3953	-7.420616	0.3787661	-23.37111	0	11.23	4004	0	0	0	0	1.140817	0.6143262	3	7	0	2600
264543	-910	-1342	-936	-4.428289	-3.180671	-21.65949	0	11.34	4004	0	0	0	0	1.140817	0.5848944	3	7	0	2600
264634	904	1752	965	-5.215295	-1.577638	-22.43504	0	11.34	4003	0	0	0	0	1.140817	0.5366592	3	7	0	2600
264667	395	195	1623	-5.112463	-0.7111277	-23.79755	0	11.34	4002	0	0	0	0	1.140817	0.5157086	3	7	0	2600
264795	-183	-49	-126	-4.611157	0.2246796	-24.26841	0	11.34	4003	0	0	0	0	1.140817	0.4712628	3	7	0	2600
264865	-78	9	147	-4.170777	0.2261824	-24.24903	0	11.34	4002	0	0	0	0	1.140817	0.4405467	3	7	0	2600
264974	-87	32	132	-3.570064	0.1133353	-24.27777	0	11.34	4004	0	0	0	0	1.140817	0.3839284	3	7	0	2600
265069	-73	13	25	-3.317225	0.07679178	-24.28957	0	11.34	4003	0	0	0	0	1.140817	0.3483205	3	7	0	2600
265248	-30	11	24	-2.630281	-0.03690152	-24.327	0	11.34	4004	0	0	0	0	1.140817	0.3045677	1	7	0	2600
265355	-52	0	37	-2.357092	-0.08503112	-24.34491	0	11.34	4002	0	0	0	0	1.140817	0.2730764	1	7	0	2600
265380	-71	-30	38	-2.266889	-0.09918356	-24.35121	0	11.34	4002	0	0	0	0	1.140817	0.2651352	1	7	0	2600
265492	-60	30	9	-2.020427	-0.1371573	-24.36845	0	11.4	4004	0	0	0	0	1.140817	0.2406254	1	7	0	2600
265602	-75	-24	83	-1.817721	-0.1770504	-24.38899	0	11.4	4002	0	0	0	0	1.140817	0.2284327	1	7	0	2600
265690	-58	16	32	-1.634317	-0.2119579	-24.40189	0	11.4	4003	0	0	0	0	1.140817	0.2242146	1	7	0	2600
265853	-46	6	11	-1.399897	-0.2712789	-24.42843	0	11.4	4004	0	0	0	0	1.140817	0.2150637	1	7	0	2600
265971	-44	-1	51	-1.223397	-0.29254	-24.45251	0	11.4	4004	0	0	0	0	1.140817	0.2193648	1	7	0	2600
266020	-34	22	14	-1.184619	-0.3006772	-24.45459	0	11.4	4003	0	0	0	0	1.140817	0.2194929	1	7	0	2600
266092	-60	0	36	-1.115385	-0.3168286	-24.46548	0	11.4	4004	0	0	0	0	1.140817	0.2176861	1	7	0	2600
266273	-52	-13	6	-0.9198881	-0.3423798	-24.49152	0	11.4	4003	0	0	0	0	1.140817	0.2123377	1	7	0	2600
266346	-61	-6	13	-0.8710835	-0.3477746	-24.50106	0	11.4	4002	0	0	0	0	1.140817	0.2067406	1	7	0	2600
266441	-49	-5	2	-0.7953675	-0.3607056	-24.51597	0	11.46	4002	0	0	0	0	1.140817	0.2020016	1	7	0	2600
266513	-41	-2	6	-0.7222707	-0.3732198	-24.53199	0	11.46	4004	0	0	0	0	1.140817	0.2062229	1	7	0	2600
266582	-57	3	6	-0.668217	-0.383234	-24.54629	0	11.46	4003	0	0	0	0	1.140817	0.2147648	1	7	0	2600
266682	-52	4	11	-0.6201376	-0.3965773	-24.559	0	11.46	4002	0	0	0	0	1.140817	0.2204335	1	7	0	2600
266746	-54	2	3	-0.5948644	-0.4006226	-24.56841	0	11.46	4002	0	0	0	0	1.140817	0.2253997	1	7	0	2600
266870	-49	2	10	-0.5412471	-0.4070392	-24.58718	0	11.46	4002	0	0	0	0	1.140817	0.2383815	1	7	0	2600
266942	-50	-4	10	-0.5214753	-0.4117096	-24.59598	0	11.46	4003	0	0	0	0	1.140817	0.2367758	1	7	0	2600
267079	-52	1	7	-0.4810181	-0.428608	-24.61204	0	11.46	4004	0	0	0	0	1.140817	0.2364651	1	7	0	2600
267166	-57	0	9	-0.4533627	-0.4347968	-24.62585	0	11.46	4003	0	0	0	0	1.140817	0.235799	1	7	0	2600
267234	-45	-2	8	-0.4344279	-0.4364858	-24.63495	0	11.46	4003	0	0	0	0	1.140817	0.2319849	1	7	0	2600
267335	-50	6	12	-0.4202614	-0.4356552	-24.6468	0	11.4	4004	0	0	0	0	1.140817	0.2242065	1	7	0	2600
267480	-63	-5	5	-0.3974746	-0.4342893	-24.66355	0	11.4	4004	0	0	0	0	1.140817	0.2179241	1	7	0	2600
292486	-10	1	4	0.1280469	-0.5032493	-26.15857	0	11.57	4003	0	0	0	0	1.140817	-0.05776182	3	3	0	2600
292579	-19	4	3	0.1318588	-0.5096815	-26.16132	0	11.57	4004	0	0	0	0	1.140817	-0.06449386	3	3	0	2600
292712	-6	4	0	0.1379342	-0.5143887	-26.16364	0	11.57	4002	0	0	0	0	1.140817	-0.06921611	3	3	0	2600
292790	-24	6	-3	0.1534627	-0.5106209	-26.16858	0	11.57	4003	0	0	0	0	1.140817	-0.06927574	3	3	0	2600
292972	-20	-1	0	0.160489	-0.5097964	-26.17157	0	11.57	4003	0	0	0	0	1.140817	-0.08772387	3	3	0	2600
293091	-5	-4	3	0.1705489	-0.514245	-26.17408	0	11.57	4003	0	0	0	0	1.140817	-0.09472647	3	3	0	2600
293143	-8	3	1	0.1699641	-0.5141361	-26.17414	0	11.57	4003	0	1	0	0	1.140817	-0.08369186	3	3	0	2600
293235	-18	-5	0	0.1731237	-0.5088089	-26.17719	0	11.57	4003	0	1	0	0	1.140817	-0.07685054	3	3	0	2600
293400	-55	-24	-9	0.1524736	-0.4966773	-26.19883	0	11.57	4002	0	-5	0	0	1.140817	-0.05788215	3	3	0	2600
293474	-47	140	102	0.1399537	-0.4947571	-26.18056	0	11.57	4004	3	3	0	0	1.140817	-0.04311648	3	3	0	2600
293563	-38	-9	13	0.1345466	-0.4962512	-26.18526	0	11.57	4004	-2	2	0	0	1.140817	-0.02627573	3	3	0	2600
293694	66	-25	-144	0.1525918	-0.4908212	-26.17713	0	11.57	4003	-5	8	0	0	1.140817	-0.005742976	3	3	0	2600
293785	78	18	163	0.1531529	-0.4848616	-26.19334	0	11.57	4002	-19	-2	1	0	1.140817	0.01412189	3	3	0	2600
293873	-60	-94	24	0.03469414	-0.3910744	-26.1904	0	11.57	4003	-2	-7	1	0	1.140817	0.02875156	3	3	0	2600
293940	-146	-59	0	0.04207323	-0.3945023	-26.20403	0	11.57	4002	-3	13	0	0	1.140817	0.03455738	3	3	0	2600
294045	-16	-28	-54	0.05397138	-0.3864311	-26.22084	0	11.57	4004	25	-9	1	0	1.140817	0.04715082	3	3	0	2600
294195	21	-64	146	0.01403128	-0.4342937	-26.27072	0	11.57	4002	5	-16	3	0	1.140817	0.07626829	3	3	0	2600
294248	-195	-133	184	0.1346436	-0.3304678	-26.28979	0	11.57	4003	0	-11	6	0	1.140817	0.09634938	3	3	0	2600
294355	-19	-277	436	0.01190417	-0.1003573	-26.41646	0	11.57	4003	6	14	1	0	1.140817	0.1200949	3	3	0	2600
294441	-308	-926	-158	0.07828183	0.4670183	-26.3947	0	11.57	4003	-48	-31	10	0	1.140817	0.1369098	3	3	0	2600
294549	3217	4955	240	2.956468	-2.702231	-25.7354	0	11.57	4004	12	-108	-21	0	1.140817	0.1652858	3	3	0	2600
294723	-925	3024	1684	3.171067	-10.45713	-25.55107	0	11.57	4003	-119	345	12	0	1.140817	0.220762	3	3	0	2600
294809	-1791	1667	146	-0.05490948	-13.62988	-26.19194	0	11.57	4003	119	-236	-11	0	1.140817	0.2466637	3	3	0	2600
294860	-1577	-881	-2578	-1.580272	-14.9872	-26.17804	0	11.34	4002	-86	166	7	0	1.140817	0.2750912	3	3	0	2600
294967	-3961	-2443	-3602	-4.51905	-14.67835	-25.04066	0	11.34	4004	65	-46	-40	0	1.140817	0.3108565	3	3	0	2600
295057	-4145	-4871	-2533	-8.668169	-11.49441	-22.9857	0	11.34	4003	-23	-52	-80	0	1.140817	0.3657469	3	3	0	2600
295162	3562	-887	286	-6.577698	-9.278941	-22.41149	0	11.34	4004	-55	82	-76	0	1.140817	0.4553158	3	3	0	2600
295253	907	-2245	2507	-1.405739	-6.977533	-25.05846	0	11.34	4004	20	-60	0	0	1.140817	0.5112929	3	3	0	2600
295425	835	494	-10	-0.3632092	-3.510745	-27.36471	0	11.34	4002	-231	174	53	0	1.140817	0.6326422	3	3	0	2600
295549	-365	774	-1278	-1.232432	-3.750679	-23.79341	0	11.34	4003	137	-295	-97	0	1.140817	0.7329013	3	3	0	2600
295635	686	87	-1625	-1.470952	-10.07595	-21.54582	0	11.34	4002	114	-391	-135	0	1.140817	0.7809589	3	3	0	2600
295700	-510	-1497	-934	-1.536109	-10.16815	-20.52667	0	11.34	4006	137	-181	-140	0	1.140817	0.8156248	3	3	0	2600
295798	-396	-2811	-384	-3.755542	-7.161348	-20.55609	0	10.43	4004	-18	-148	-138	0	1.140817	0.8722829	3	3	0	2600
295863	1095	523	3689	-3.241893	-6.856043	-22.8406	0	10.43	4002	-33	80	-90	0	1.140817	0.9069605	3	3	0	2600
295942	4550	3557	2066	-0.1983675	-8.134143	-23.94213	0	10.43	4002	-244	295	-20	0	1.140817	0.9306898	3	3	0	2600
296069	1540	639	-1194	2.076492	-12.2377	-25.38347	0	10.43	4003	-115	97	-1	0	1.140817	1.004759	3	3	0	2600
296197	2465	788	470	5.438407	-12.90634	-24.76127	0	10.43	4004	-249	400	-41	0	1.140817	1.08664	3	3	0	2600
296301	-3109	-2972	-21	1.971801	-10.55238	-20.89748	0	10.43	4003	-17	-52	-121	0	1.140817	1.151593	3	3	0	2600
296359	-5389	-6967	-2649	-0.4134382	-7.808108	-19.95023	0	10.43	4002	248	-400	-192	0	1.140817	1.20099	3	3	0	2600
296493	679	1326	4038	-1.436856	-5.705925	-23.45974	0	10.43	4004	-158	-41	3	0	1.140817	1.334342	3	3	0	2600
296661	1676	-1998	779	-0.1804019	-0.6174203	-29.06551	0	11.06	4003	-210	213	77	0	1.140817	1.416746	3	3	0	2600
296779	115	278	-1880	1.692976	-0.8517642	-25.80987	0	11.06	4003	57	-59	-82	0	1.140817	1.511557	3	3	0	2600
296859	-1635	-1588	-3721	0.4306939	-1.791206	-21.13485	0	11.06	4003	152	-271	-165	0	1.140817	1.557627	3	3	0	2600
296938	-1845	-755	1341	-3.139135	-2.43094	-19.21925	0	11.06	4003	-18	43	-167	0	1.140817	1.615653	3	3	0	2600
297028	-1153	-3357	1747	-4.397058	-1.106559	-20.52348	0	11.06	4002	-19	-145	-84	0	1.140817	1.656022	3	3	0	2600
297145	1012	1104	3208	-4.684392	-0.2589101	-26.01729	0	11.06	4003	-138	3	72	0	1.140817	1.735034	3	3	0	2600
297241	2698	6342	-874	0.5444415	-11.38386	-29.05466	0	11.06	4002	-21	12	59	0	1.140817	1.767907	3	3	0	2600
297337	1887	3266	-4150	1.323987	-18.21301	-24.53329	0	11.06	4004	33	-277	-94	0	1.140817	1.806171	3	3	0	2600
297437	-1999	241	-1504	0.09121312	-21.51577	-21.83833	0	11.06	4002	151	-291	-123	0	1.140817	1.836418	3	3	0	2600
297612	2187	1640	-239	1.323646	-19.4606	-23.91623	0	10.04	4003	-38	184	-55	0	1.140817	1.865232	3	3	0	2600
297647	453	-1273	-567	1.731259	-20.0947	-24.10258	0	10.04	4002	-63	109	-25	0	1.140817	1.871749	3	3	0	2600
297731	-1438	-5969	1052	-0.4826206	-12.41443	-25.00996	0	10.04	4003	-59	330	-9	0	1.140817	1.881007	3	3	0	2600
297830	375	-337	2663	-0.7491289	-7.736729	-27.13451	0	10.04	4003	26	161	66	0	1.140817	1.89709	3	3	0	2600
298004	-2356	-2862	-1472	-4.092157	-6.717776	-28.1115	0	10.04	4003	-33	-161	40	0	1.140817	1.948972	3	3	0	2600
298088	-1480	2447	1129	-6.610261	-5.431547	-25.96054	0	10.04	4002	-32	-212	-13	0	1.140817	1.96498	3	3	0	2600
298134	-1626	-762	-2809	-7.204978	-6.413714	-25.40198	0	10.04	4002	105	-320	-47	0	1.140817	1.974859	3	3	0	2600
298223	876	3159	1567	-7.234668	-8.413076	-23.80085	0	10.04	4002	-252	351	-54	0	1.140817	1.989173	3	3	0	2600
298374	-4671	-2374	-1343	-14.71944	-6.727859	-20.22689	0	10.04	4003	131	-400	-151	0	1.140817	2.029612	3	3	0	2600
298464	3167	49	236	-13.00167	-6.886024	-21.49368	0	11.34	4003	-164	400	-88	0	1.140817	2.050771	3	3	0	2600
298501	4097	825	2676	-10.41098	-7.487438	-22.47149	0	11.34	4004	-40	-219	-44	0	1.140817	2.088057	3	3	0	2600
