time(ms)	gyro_x(deg/s)	gyro_y(deg/s)	gyro_z(deg/s)	orientation_roll(deg)	orientation_pitch(deg)	orientation_yaw(deg)	throttle	battery(V)	loop_time(uS)	pid_output_roll	pid_output_pitch	pid_output_yaw	pid_output_throttle	ultrasonic_alt	baro_alt	flight_mode	p_gain_altitude	i_gain_altitude	d_gain_altitude
330046	-1976	-2419	-2376	-3.155083	-5.704515	-23.88237	0	11	4003	288	-400	-64	-23	0.8748854	7.298363	5	3	0	2600
330177	-1155	-1738	-1089	-3.547867	-4.462338	-22.20853	0	11	4002	147	-228	-88	-23	0.9403535	7.297381	5	3	0	2600
330278	-36	-4660	-1835	-3.892872	-3.143726	-21.33623	0	11	4004	116	-389	-103	-17	0.9762813	7.288759	5	3	0	2600
330358	-3074	-668	-315	-4.624287	-1.300549	-21.57768	0	11	4004	142	-122	-116	-22	1.025568	7.281742	5	3	0	2600
330526	-546	3007	1891	-8.471785	-4.655522	-23.89483	0	11	4003	-166	117	-9	-22	0.9532601	7.253775	5	3	0	2600
330714	-404	690	-368	-6.617537	-4.598328	-21.34323	0	11	4005	-128	56	-85	-22	0.9908277	7.260937	5	3	0	2600
330804	2229	5924	2872	-5.564008	-10.13599	-22.20031	0	9.92	4002	-281	301	-38	-22	0.9755351	7.27022	5	3	0	2600
330914	4053	7869	-437	0.4892688	-20.84713	-23.10843	0	9.92	4003	43	-162	-58	-22	0.8816693	7.280634	5	3	0	2600
330982	113	3684	284	3.073639	-26.96936	-23.6465	0	9.92	4002	-55	89	-20	-25	0.8920662	7.286102	5	3	0	2600
331106	-129	-5253	-468	0.954538	-21.88519	-24.41656	0	9.92	4003	-114	-20	8	-23	0.9227067	7.3078	5	3	0	2600
331195	1945	677	1625	2.393654	-13.48869	-25.40425	0	9.92	4004	-157	302	20	-23	0.9493542	7.321116	5	3	0	2600
331307	1856	5606	-42	4.940701	-19.66235	-23.77877	0	9.92	4003	-299	400	-42	-23	1.000033	7.337015	5	3	0	2600
331404	1826	162	-1134	4.537383	-21.68985	-20.86891	0	9.92	4002	222	-381	-136	-23	1.00306	7.349629	5	3	0	2600
331513	-1758	-3810	-544	1.890992	-16.91614	-19.43818	0	9.92	4007	204	-387	-141	-23	0.7961231	7.373013	5	3	0	2600
331610	1581	869	1313	2.635842	-14.07444	-18.61072	0	9.92	4003	-2	-331	-175	-33	0.8394338	7.388534	5	3	0	2600
331721	-2736	-4883	711	2.524484	-11.77934	-21.97754	0	10.43	4003	23	97	-63	-23	0.7836702	7.40343	5	3	0	2600
331809	-981	-4844	-340	1.249071	-7.445211	-24.13527	0	10.43	4002	2	-91	0	-23	0.795633	7.440857	5	3	0	2600
331944	550	-519	-1303	2.598485	-5.627244	-25.75532	0	10.43	4003	154	7	-30	-24	0.8241841	7.467845	5	3	0	2600
332028	-452	1436	-77	2.336204	-6.325603	-24.2044	0	10.43	4004	66	-299	-38	-24	0.8044721	7.525042	5	3	0	2600
332087	-1371	-3071	-3102	0.4243721	-5.878583	-22.4055	0	10.43	4004	-101	18	-120	-24	0.8079006	7.571928	5	3	0	2600
332233	-1673	-1396	-550	-7.064241	-0.367453	-19.2318	0	10.43	4003	51	-154	-143	-54	0.8220476	7.621665	5	3	0	2600
332368	2808	3007	3150	-2.131144	-3.9639	-23.65302	0	10.43	4004	-210	62	-21	-24	0.8121379	7.680828	5	3	0	2600
332456	-1042	-149	1352	-1.949209	-5.625415	-26.87889	0	10.43	4004	-37	6	66	-25	0.8590865	7.722053	5	3	0	2600
332501	2684	1370	-155	-1.457483	-5.917404	-27.22268	0	10.43	4003	-196	228	78	-25	0.8976868	7.728198	5	3	0	2600
332606	847	1137	-2570	1.599774	-8.389428	-25.92585	0	10.43	4002	134	-106	-22	-25	0.9858992	7.752317	5	3	0	2600
332821	-1063	-623	-618	-0.5405953	-12.11792	-22.14127	0	10.38	4003	14	-94	-73	-25	1.086973	7.803889	5	3	0	2600
332870	588	-451	1584	-0.6986902	-10.61339	-23.46067	0	10.38	4003	-30	39	-41	-25	1.088687	7.808308	5	3	0	2600
332966	-756	-1048	712	-0.4932262	-9.151919	-25.47182	0	10.38	4002	-7	-89	45	-25	1.086352	7.83069	5	3	0	2600
333034	318	-470	1581	-0.5945627	-7.262524	-27.04201	0	10.38	4002	-149	159	62	-25	1.092713	7.836221	5	3	0	2600
333170	223	325	-401	1.497223	-8.078115	-24.33118	0	10.38	4003	-271	155	-28	-25	1.105609	7.823671	5	3	0	2600
333300	-219	-1643	-630	-1.657342	-6.969273	-22.20616	0	10.38	4006	45	-53	-84	-25	1.012686	7.803586	5	3	0	2600
333346	382	-1287	-649	-1.117678	-6.790969	-22.34354	0	10.38	4003	116	-221	-78	-25	1.012686	7.803586	5	3	0	2600
333484	232	881	762	0.725865	-8.724672	-23.638	0	10.38	4005	29	-77	-13	-25	1.00858	7.724082	5	3	0	2600
333546	-34	-2293	269	0.1975035	-5.419964	-25.3059	0	10.38	4004	-41	-121	9	12	1.0049	7.682839	5	3	0	2600
333646	1034	-993	1207	0.6320906	-1.970279	-26.33201	0	11.11	4003	-104	-48	41	-24	1.030138	7.641417	5	3	0	2600
333765	-115	1047	-763	1.261497	-3.187702	-26.39631	0	11.11	4003	-58	47	24	-24	0.9756348	7.559848	5	3	0	2600
333850	-260	277	-763	0.647167	-3.479702	-25.76827	0	11.11	4003	-8	7	21	14	0.9971035	7.532392	5	3	0	2600
333965	-1176	-993	-109	-1.71408	-1.801441	-25.53174	0	11.11	4004	13	-78	0	-23	1.01393	7.454518	5	3	0	2600
334084	498	759	-228	-2.3289	-1.344343	-25.35546	0	11.11	4004	-34	-29	5	-23	0.9927236	7.325665	5	3	0	2600
334165	-321	1223	346	-2.308078	-2.268842	-25.39472	0	11.11	4002	1	-18	5	12	0.9914699	7.168793	5	3	0	2600
334282	985	3037	-695	-2.5156	-6.239386	-25.03588	0	11.11	4002	-32	-14	-9	-22	0.9448655	7.092495	5	3	0	2600
334397	-828	1208	-914	-0.5526274	-7.779449	-23.96375	0	11.11	4002	47	-66	-37	-21	1.046167	6.897376	5	3	0	2600
334500	-128	788	-553	-2.71921	-8.2028	-23.15063	0	11.17	4007	8	-17	-55	-20	1.067877	6.843676	5	3	0	2600
334646	-1715	763	846	-3.701543	-8.176462	-22.49616	0	11.17	4004	90	-30	-74	-20	1.081264	6.68858	5	3	0	2600
334667	-1715	763	846	-3.701543	-8.176462	-22.49616	0	11.17	4004	102	-30	-52	-20	1.08499	6.672975	5	3	0	2600
334820	2099	3270	1891	-2.357516	-9.551291	-25.03647	0	11.17	4002	-212	321	12	308	1.113205	6.465727	5	3	0	2600
334934	4982	6585	-408	2.029056	-17.05504	-22.56692	0	11.17	4002	-119	288	-87	-18	1.113335	6.281826	5	3	0	2600
334979	3279	4844	827	3.754764	-19.60325	-22.08441	0	11.17	4002	-45	261	-63	-18	1.0833	6.11882	5	3	0	2600
335089	-125	-3317	908	-3.044304	-12.84571	-23.65761	0	11.17	4003	-123	144	-29	0	1.065331	5.939662	3	3	0	2600
335176	4930	1819	990	1.086187	-11.24125	-23.24138	0	11.17	4004	162	-157	-71	0	1.048708	5.441938	3	3	0	2600
335362	-4293	-5971	2753	5.729272	-12.05759	-25.23886	0	11.17	4004	317	-269	31	0	1.035721	4.958658	3	3	0	2600
335456	933	336	1619	0.5108442	-3.757576	-28.46064	0	9.41	4003	-139	151	108	0	1.032163	4.792199	3	3	0	2600
335589	1807	5071	-1028	1.609404	-7.866963	-28.11049	0	9.41	4004	-41	76	34	0	1.026947	4.332603	3	3	0	2600
335688	-2201	763	-2037	0.579564	-11.24307	-25.07216	0	9.41	4002	-183	97	-16	0	1.02425	4.033772	3	3	0	2600
335827	-3397	-2290	-456	-8.422887	-10.14911	-23.43696	0	9.41	4002	-54	-97	-41	0	1.021755	3.709231	3	3	0	2600
335887	-3444	1155	2045	-10.26361	-9.226744	-24.23559	0	9.41	4003	149	-245	-44	0	1.02085	3.537892	3	3	0	2600
336047	-2213	284	732	-14.02314	-9.291275	-26.20434	0	9.41	4003	20	102	19	0	1.019271	3.181523	3	3	0	2600
336118	-1023	622	570	-14.37005	-8.893121	-26.16265	0	9.41	4002	0	-99	13	0	1.018654	2.979053	3	3	0	2600
336195	-2232	-1866	-296	-17.34368	-7.54073	-25.02785	0	9.41	4003	65	-183	-16	0	1.018339	2.80845	3	3	0	2600
336269	-2628	-1160	67	-18.33791	-5.342679	-24.4561	0	9.41	4002	84	-148	-28	0	1.018084	2.750277	3	3	0	2600
336415	3995	4017	2023	-10.88278	-7.692771	-25.83225	0	10.66	4003	53	232	23	0	1.017709	2.649981	3	3	0	2600
336480	1441	-1705	-1563	-7.686566	-10.53588	-26.56401	0	10.66	4004	-67	-192	41	0	1.017574	2.595288	3	3	0	2600
336561	5129	2542	355	-3.24829	-10.56285	-26.23397	0	10.66	4002	69	-270	6	0	1.017417	2.528362	3	3	0	2600
336683	4865	109	598	2.193544	-9.744037	-25.20479	0	10.66	4004	-101	343	-18	0	1.017302	2.46948	3	3	0	2600
336776	-268	-3476	-1202	5.214838	-6.046261	-24.5019	0	10.66	4002	-19	148	-13	0	1.017219	2.415401	3	3	0	2600
336865	-853	-1269	1370	3.8849	-3.455829	-24.33227	0	10.66	4003	-125	177	0	0	1.017158	2.396487	3	3	0	2600
337016	1178	-360	-721	5.451962	-2.095366	-22.91508	0	10.66	4004	74	-252	-66	0	1.017092	2.391953	3	3	0	2600
337133	-1356	-2826	-214	3.704941	-2.691676	-23.52261	0	10.66	4003	64	-32	-63	0	1.017065	2.399624	3	3	0	2600
337254	683	-1153	1666	2.627771	0.8698447	-23.02543	0	10.66	4004	317	-400	-73	0	1.017046	2.431122	3	3	0	2600
337287	-1326	-3164	-501	2.265489	1.141759	-23.1053	0	10.89	4003	317	-400	-73	0	1.017036	2.452335	3	3	0	2600
337401	-1634	-619	1418	-1.089941	4.419101	-22.88962	0	10.89	4004	72	-103	-50	0	1.017022	2.53157	3	3	0	2600
337538	-1490	591	752	-2.368613	-0.3090352	-25.3361	0	10.89	4004	-67	138	7	0	1.017013	2.628985	3	3	0	2600
337682	85	26	-592	-6.426161	2.365611	-24.07127	0	10.89	4003	100	-170	-32	0	1.017007	2.830964	3	3	0	2600
337778	10	2045	-812	-3.952134	-3.566144	-23.92524	0	10.89	4003	-26	18	-42	0	1.017003	2.89293	3	3	0	2600
337883	-314	-538	-1291	-5.567288	-4.313185	-21.66208	0	10.89	4003	-115	88	-89	0	1.017001	2.950347	3	3	0	2600
338052	-756	1599	-13	-6.220145	-8.542077	-21.28368	0	10.89	4003	70	-113	-86	0	1.016999	3.170201	3	3	0	2600
338103	-313	1425	2150	-6.085589	-9.53965	-22.19949	0	10.89	4003	0	19	-32	0	1.016998	3.210926	3	3	0	2600
338236	844	391	1237	-5.103388	-9.502648	-27.17552	0	9.92	4004	-138	31	67	0	1.016997	3.29427	3	3	0	2600
338288	355	845	-1487	-4.663683	-10.19568	-27.0287	0	9.92	4005	-49	60	45	0	1.016997	3.351339	3	3	0	2600
338408	2519	2628	-877	-2.799227	-12.24652	-24.47034	0	9.92	4003	-23	-13	-81	0	1.016996	3.474777	3	3	0	2600
338527	491	286	-1815	-2.369069	-13.23382	-20.68196	0	9.92	4002	-193	400	-101	0	1.016996	3.563538	3	3	0	2600
338661	1007	901	1909	-0.4580843	-12.15841	-20.38281	0	9.92	4004	-190	400	-107	0	1.016995	3.673503	3	3	0	2600
338747	-871	443	1261	0.8039705	-13.38014	-22.3833	0	9.92	4004	51	-233	-40	0	1.016995	3.719899	3	3	0	2600
338825	94	-1403	1600	0.801511	-13.1244	-24.53908	0	9.92	4004	63	-265	5	0	1.016995	3.778627	3	3	0	2600
338891	293	-1577	1259	1.076442	-10.89559	-25.7201	0	9.92	4003	1	-144	30	0	1.016995	3.809311	3	3	0	2600
339076	-182	1255	-3451	-1.318638	-20.26704	-24.93439	0	9.92	4002	207	-325	-20	0	1.016995	3.939223	3	3	0	2600
339146	-137	-542	-2220	-0.4099993	-20.93837	-23.18479	0	9.87	4003	179	-226	-87	0	1.016995	3.982429	3	3	0	2600
339264	2049	-520	-1451	0.9263369	-18.90687	-21.29608	0	9.87	4004	-143	184	-94	0	1.016995	4.055368	3	3	0	2600
339283	2049	-520	-1451	0.9263369	-18.90687	-21.29608	0	9.87	4004	-39	-226	-105	0	1.016995	4.087085	3	3	0	2600
339438	-1294	-3359	13	0.4902896	-12.85217	-24.77555	0	9.87	4002	65	-400	-15	0	1.016995	4.197427	3	3	0	2600
339489	1372	837	2150	0.9644914	-11.74501	-25.4139	0	9.87	4003	185	-324	-3	0	1.016995	4.209572	3	3	0	2600
339607	-840	1676	-1481	0.259859	-16.769	-24.85805	0	9.87	4003	-29	164	1	0	1.016995	4.294665	3	3	0	2600
339828	-457	-4171	-478	0.3165992	-15.50102	-21.21576	0	9.87	4003	136	-285	-114	0	1.016995	4.443172	3	3	0	2600
339990	-220	-313	2154	-1.33735	-7.089845	-21.6743	0	9.87	4003	31	2	-75	0	1.016995	4.56279	3	3	0	2600
340035	1874	287	1880	-1.075903	-6.906612	-22.90904	0	9.87	4002	149	-71	-75	0	1.016995	4.62548	3	3	0	2600
340119	-637	-5129	-360	0.6196881	-4.974263	-23.43205	0	10.09	4008	199	-159	-53	0	1.016995	4.796205	3	3	0	2600
340282	317	-4316	-827	0.2565514	4.179045	-23.73761	0	10.09	4003	29	148	-48	0	1.016995	4.896507	3	3	0	2600
340340	505	-2847	-568	0.27559	6.093405	-23.59817	0	10.09	4002	116	-71	-57	0	1.016995	4.95746	3	3	0	2600
340420	1331	-696	1099	1.328733	7.519534	-23.18792	0	10.09	4004	-170	310	-28	0	1.016995	5.019426	3	3	0	2600
340538	1272	-734	-88	2.333199	7.996667	-22.87041	0	10.09	4002	-82	98	-65	0	1.016995	5.125064	3	3	0	2600
340636	-563	-1761	-1170	3.720416	8.15267	-22.14281	0	10.09	4003	78	-334	-99	0	1.016995	5.216906	3	3	0	2600
340715	-2806	-970	-395	-0.4065278	7.585696	-21.93244	0	10.09	4004	127	-355	-88	0	1.016995	5.260598	3	3	0	2600
340882	933	1007	1640	-0.9114435	1.767974	-22.71477	0	10.09	4003	-44	63	-52	0	1.016995	5.360731	3	3	0	2600
341022	454	-851	1745	-0.0191856	2.428655	-26.9913	0	10.43	4004	-5	0	56	0	1.016995	5.441403	3	3	0	2600
341138	509	-1757	-2642	0.521886	3.418603	-27.14898	0	10.43	4004	44	-378	8	0	1.016995	5.489161	3	3	0	2600
341236	2196	618	-1767	1.590357	2.762298	-26.39408	0	10.43	4003	259	-370	-94	0	1.016995	5.538673	3	3	0	2600
341340	-3473	-2288	-1315	-0.2384768	-0.3491594	-20.54333	0	10.43	4004	-45	-176	-119	0	1.016995	5.549593	3	3	0	2600
341407	-555	-792	1656	-2.727763	2.082625	-21.11403	0	10.43	4002	-36	68	-69	0	1.016995	5.545995	3	3	0	2600
341506	1169	3353	3054	-1.626608	0.1833187	-25.51392	0	10.43	4002	-3	-11	60	0	1.016995	5.512379	3	3	0	2600
341641	644	4512	-643	-1.924548	-6.178602	-28.36817	0	10.43	4003	-54	28	86	0	1.016995	5.436829	3	3	0	2600
341693	445	5048	-2061	-1.452718	-8.302206	-27.68863	0	10.43	4002	11	31	38	0	1.016995	5.423686	3	3	0	2600
341854	231	6997	-385	-3.95325	-21.98696	-24.17879	0	10.43	4004	0	32	-27	0	1.016995	5.313922	3	3	0	2600
342003	1286	4212	701	-3.039736	-29.07432	-23.75157	0	11.06	4002	-20	-50	-31	0	1.016995	5.204818	3	3	0	2600
342056	1372	3484	1136	-0.9624468	-30.09411	-24.81009	0	11.06	4003	-91	52	13	0	1.016995	5.18871	3	3	0	2600
342108	1610	3060	529	0.7513682	-30.62912	-25.83209	0	11.06	4003	-17	-91	18	0	1.016995	5.138849	3	3	0	2600
342247	2214	-1056	-1154	4.31174	-27.68406	-25.45564	0	11.06	4002	17	-57	7	0	1.016995	5.156009	3	3	0	2600
342309	2582	-3184	-500	6.260908	-22.90274	-25.15426	0	11.06	4003	58	-67	-15	0	1.016995	5.19061	3	3	0	2600
342436	3863	-1707	-304	11.04738	-15.26225	-25.31362	0	11.06	4003	-54	-26	8	0	1.016995	5.266129	3	3	0	2600
342512	4470	170	-190	14.85851	-13.91547	-25.57973	0	11.06	4003	-41	59	21	0	1.016995	5.286738	3	3	0	2600
342607	4728	2645	272	23.65963	-16.26331	-25.39171	0	11.06	4003	-106	-82	-1	0	1.016995	5.296708	3	3	0	2600
342760	1969	3158	1479	25.89997	-18.32066	-26.77649	0	11.06	4002	-32	104	62	0	1.016995	5.279222	3	3	0	2600
342816	-428	3126	543	25.48219	-19.92426	-27.89964	0	10.43	4003	-30	-93	52	0	1.016995	5.244884	3	3	0	2600
342920	-4811	3467	-1955	16.31547	-23.33199	-28.02424	0	10.43	4002	196	-332	59	0	1.016995	5.053273	3	3	0	2600
343043	-9082	-671	-961	1.390081	-25.35655	-24.83497	0	10.43	4004	211	-140	-15	0	1.016995	4.855295	3	3	0	2600
343110	-6345	-3764	-334	-6.274379	-22.15251	-23.56287	0	10.43	4002	0	-165	-57	0	1.016995	4.693346	3	3	0	2600
343251	-3460	-330	987	-16.47756	-9.599277	-24.0506	0	10.43	4002	-143	67	-29	0	1.016995	4.369552	3	3	0	2600
343352	-2171	-1946	475	-17.40099	-6.436366	-24.65317	0	10.43	4002	111	-83	-16	0	1.016995	4.17175	3	3	0	2600
343405	-2171	-1946	475	-17.40099	-6.436366	-24.65317	0	10.43	4002	31	-9	29	0	1.016995	4.154766	3	3	0	2600
343561	-702	-1480	280	-9.184835	1.64966	-27.12573	0	10.43	4003	-74	242	39	0	1.016995	3.644531	3	3	0	2600
343640	-5155	-2043	-1044	-12.31251	3.241606	-26.49855	0	10.43	4003	-24	44	27	0	1.016995	3.456593	3	3	0	2600
343695	-2164	-4442	-1196	-15.22886	5.897347	-25.74813	0	10.43	4004	-49	95	-7	0	1.016995	3.312539	3	3	0	2600
343795	-1902	-1587	959	-14.53695	9.003362	-24.85289	0	10.15	4003	-77	236	-4	0	1.016995	2.965505	3	3	0	2600
343892	-8044	-6177	-672	-20.03855	11.39394	-23.70134	0	10.15	4002	217	-200	-87	0	1.016995	2.932132	3	3	0	2600
343998	1424	-1217	-61	-23.20843	18.23818	-22.13712	0	10.15	4003	-114	35	-66	0	1.016995	2.736367	3	3	0	2600
344115	2769	5531	2320	-14.74512	7.492239	-24.97574	0	10.15	4003	103	-131	5	0	1.016995	2.615892	3	3	0	2600
344205	3995	1538	18	-7.558	0.6521006	-26.15756	0	10.15	4004	-122	164	26	0	1.016995	2.552984	3	3	0	2600
344313	-697	-2789	-1853	-4.930357	1.371033	-24.68597	0	10.15	4002	46	-129	-30	0	1.016995	2.370535	3	3	0	2600
344485	183	-3180	-1582	-2.895141	-0.5132434	-22.97893	0	10.15	4004	14	-241	-65	0	1.016995	2.211143	3	3	0	2600
344541	150	-1326	233	-2.899636	0.248057	-22.83296	0	10.15	4004	-129	292	-45	0	1.016995	2.177997	3	3	0	2600
344612	-473	-1414	601	-3.074899	1.680553	-21.89328	0	10.15	4004	-85	-34	-81	0	1.016995	2.127765	3	3	0	2600
344714	-309	773	1456	-4.828668	2.708944	-23.22052	0	10.55	4004	-240	255	-24	0	1.016995	2.051991	3	3	0	2600
344795	-2575	-5258	-2513	-4.681937	2.561385	-22.93574	0	10.55	4002	284	-400	-98	0	1.016995	2.00724	3	3	0	2600
344912	1209	-1844	-359	-4.979123	7.359004	-21.30546	0	10.55	4004	137	-162	-85	0	1.016995	1.983477	3	3	0	2600
345033	2655	1526	2217	-1.076018	3.268271	-23.82912	0	10.55	4003	6	-28	-17	0	1.016995	1.984831	3	3	0	2600
345144	689	-811	1965	-0.3117292	5.4879	-26.2851	0	10.55	4004	-40	59	35	0	1.016995	1.98371	3	3	0	2600
345209	459	-485	-1745	0.6534363	4.634299	-26.3536	0	10.55	4003	8	78	37	0	1.016995	1.977857	3	3	0	2600
345338	-1544	3346	606	-0.3011444	0.3432589	-25.33776	0	10.55	4002	22	110	0	0	1.016995	1.977031	3	3	0	2600
345418	-2687	-482	110	-4.751377	-0.5057484	-24.86795	0	10.55	4003	69	-54	-14	0	1.016995	1.975089	3	3	0	2600
345500	-2619	76	568	-8.720442	0.7046512	-25.5583	0	10.55	4003	-7	-3	9	0	1.016995	1.966219	3	3	0	2600
345623	-318	2190	-527	-9.824321	-1.736366	-26.34769	0	10.38	4002	101	-102	12	0	1.016995	1.941461	3	3	0	2600
345720	4975	5565	-1540	-4.097602	-8.121843	-25.05381	0	10.38	4002	-226	333	1	0	1.016995	1.919842	3	3	0	2600
345789	234	3755	113	-1.386363	-12.93174	-24.44218	0	10.38	4004	-161	340	-10	0	1.016995	1.895311	3	3	0	2600
345943	4209	1805	251	4.445601	-16.14502	-24.41436	0	10.38	4003	-258	172	-2	0	1.016995	1.812558	3	3	0	2600
346056	1441	-295	-1884	11.46104	-20.74167	-25.20057	0	10.38	4002	-377	400	23	0	1.016995	1.769218	3	3	0	2600
346165	971	-311	20	11.31378	-19.07782	-24.45997	0	10.38	4004	155	-312	-38	0	1.016995	1.732788	3	3	0	2600
346236	-1300	-2849	421	9.199355	-15.60363	-23.10411	0	10.38	4004	-99	163	-57	0	1.016995	1.699255	3	3	0	2600
346301	-3159	-5314	-1974	5.701508	-10.94547	-22.55853	0	10.38	4004	163	-326	-84	0	1.016995	1.670018	3	3	0	2600
346391	-1392	1370	1718	1.606516	-7.140167	-22.9954	0	10.38	4004	26	-254	-75	0	1.016995	1.630335	3	3	0	2600
346527	-1292	2328	-59	0.05700807	-12.12293	-25.43883	0	10.66	4002	40	-204	22	0	1.016995	1.583596	3	3	0	2600
346609	136	-180	-2551	0.3198914	-15.88378	-25.62631	0	10.66	4004	-195	253	26	0	1.016995	1.553534	3	3	0	2600
346763	334	7104	465	0.3532406	-23.81879	-24.17181	0	10.66	4004	56	53	-55	0	1.016995	1.504979	3	3	0	2600
346791	-1130	3028	-2092	0.3299904	-26.38418	-23.61332	0	10.66	4003	260	-328	-75	0	1.016995	1.504979	3	3	0	2600
346952	-672	1629	1412	-2.798625	-27.8744	-21.86901	0	10.66	4004	-302	400	-55	0	1.016995	1.44416	3	3	0	2600
347103	1271	-4920	1080	-0.2801397	-20.73009	-25.15753	0	10.66	4003	101	-131	0	0	1.016995	1.404812	3	3	0	2600
347187	1663	-8830	-960	3.646603	-9.140676	-26.27355	0	10.66	4002	-222	121	34	0	1.016995	1.397585	3	3	0	2600
347305	153	-2578	-834	3.393863	2.100473	-24.60367	0	10.66	4004	30	-74	-9	0	1.016995	1.419138	3	3	0	2600
347426	-1989	-1840	-1840	3.383586	0.6979789	-25.07256	0	10.83	4007	161	-286	-44	0	1.016995	1.448385	3	3	0	2600
347470	196	717	-1143	2.837747	0.4628531	-24.60462	0	10.83	4004	34	-163	-32	0	1.016995	1.465919	3	3	0	2600
347572	-495	3317	-242	3.304215	-4.447878	-24.54674	0	10.83	4004	45	124	-30	0	1.016995	1.484813	3	3	0	2600
347723	1328	2335	-1406	5.660268	-16.12466	-22.93872	0	10.83	4004	-30	-255	-73	0	1.016995	1.495398	3	3	0	2600
347856	-566	-364	1991	0.9177985	-13.41838	-25.4191	0	10.83	4004	-147	74	20	0	1.016995	1.496441	3	3	0	2600
347916	1271	367	-937	1.69378	-12.59257	-25.2569	0	10.83	4004	-252	390	17	0	1.016995	1.493379	3	3	0	2600
347979	2311	3910	1189	2.442513	-13.1967	-24.89865	0	10.83	4004	-44	-2	-23	0	1.016995	1.491483	3	3	0	2600
348194	-3839	-7561	-314	-2.228582	-9.293954	-20.78445	0	10.83	4004	52	-130	-100	0	1.016995	1.447663	3	3	0	2600
348274	-1303	-5158	1441	-5.263593	-0.6389723	-23.13569	0	10.83	4002	19	-264	-31	0	1.016995	1.431198	3	3	0	2600
348436	-1093	-1140	908	-5.526227	7.947534	-25.49089	0	10.26	4004	-84	172	31	0	1.016995	1.387502	3	3	0	2600
348486	-874	-1822	-2245	-5.86202	7.772738	-25.06643	0	10.26	4004	57	-275	-21	0	1.016995	1.361948	3	3	0	2600
348599	-856	2486	38	-6.625656	2.774737	-22.74344	0	10.26	4002	-98	128	-57	0	1.016995	1.311842	3	3	0	2600
348736	-2899	4630	869	-8.185156	-5.624312	-20.05301	0	10.26	4003	-76	87	-122	0	1.016995	1.220576	3	3	0	2600
348790	-2525	1370	-164	-11.26612	-8.897302	-20.10971	0	10.26	4003	102	-227	-134	0	1.016995	1.18244	3	3	0	2600
348882	-3642	137	428	-12.09437	-10.24455	-20.2287	0	10.26	4002	10	-33	-112	0	1.016995	1.142413	3	3	0	2600
349053	1547	-2523	-984	-9.703312	-8.428115	-20.3784	0	10.26	4002	287	-400	-143	0	1.016995	1.027184	3	3	0	2600
349085	1793	1848	916	-8.558261	-8.386688	-20.4118	0	10.26	4003	287	-400	-143	0	1.016995	1.013967	3	3	0	2600
349241	3624	5161	1869	-4.549625	-4.51615	-17.67193	0	9.87	4003	126	-400	-207	0	1.016995	0.9452122	3	3	0	2600
349294	5857	4879	-924	-1.983903	-7.15449	-17.82836	0	9.87	4002	-147	132	-193	0	1.016995	0.9241344	3	3	0	2600
349430	3851	2773	3475	9.454652	-13.53324	-20.76043	0	9.87	4002	-70	226	-63	0	1.016995	0.8974818	3	3	0	2600
349505	2486	619	2380	14.11255	-13.61807	-24.23462	0	9.87	4002	-9	85	-18	0	1.016995	0.8871431	3	3	0	2600
349611	-214	-28	302	13.80017	-10.7821	-26.60718	0	9.87	4004	-35	-31	48	0	1.016995	0.8669165	3	3	0	2600
349797	-680	2378	-1747	11.08932	-14.12175	-25.3877	0	9.87	4004	-18	-37	-1	0	1.016995	0.8535852	3	3	0	2600
349917	-1267	-3016	-305	5.590485	-10.35913	-24.26359	0	9.87	4002	45	-44	-33	0	1.016995	0.8609409	3	3	0	2600
350040	-4210	-2643	-238	-0.5329586	-5.866004	-24.63834	0	9.87	4002	111	-216	-25	0	1.016995	0.8497046	3	3	0	2600
350138	-274	3527	1117	-2.988029	-6.481226	-24.29503	0	9.87	4003	17	107	-55	0	1.016995	0.8415222	3	3	0	2600
350229	-2221	1056	-861	-5.186367	-8.22647	-22.16471	0	10.77	4002	197	-158	-102	0	1.016995	0.8342975	3	3	0	2600
350326	-666	-1716	-1188	-6.994331	-10.39582	-21.30683	0	10.77	4002	-29	46	-93	0	1.016995	0.828577	3	3	0	2600
350454	-401	738	2053	-6.961962	-10.10494	-23.20769	0	10.77	4002	28	-80	-47	0	1.016995	0.8010984	3	3	0	2600
350533	-2499	-6187	-1281	-7.442428	-8.959308	-23.7127	0	10.77	4002	-186	400	-19	0	1.016995	0.7913194	3	3	0	2600
350629	2301	-3943	-1606	-4.382072	-3.162289	-21.91764	0	10.77	4003	-229	283	-78	0	1.016995	0.7759091	3	3	0	2600
350787	-1917	-5243	-1444	-2.795311	3.943394	-21.28564	0	10.77	4003	-117	-49	-82	0	1.016995	0.7657411	3	3	0	2600
350851	270	412	2007	-3.247328	4.715003	-22.40662	0	10.77	4003	-175	151	-28	0	1.016995	0.7673802	3	3	0	2600
350911	-1783	-1966	686	-3.035102	3.403984	-23.11418	0	10.77	4004	-189	274	-29	0	1.016995	0.7710038	3	3	0	2600
351016	-4267	-5834	-561	-8.703795	9.883224	-22.30965	0	10.77	4004	118	-321	-74	0	1.016995	0.76886	3	3	0	2600
351119	-321	5451	2660	-12.2249	6.223615	-24.32795	0	10.32	4003	-182	372	-12	0	1.016995	0.7583681	3	3	0	2600
351211	-559	1068	-1775	-11.92124	-0.9210333	-23.6594	0	10.32	4003	166	-220	-55	0	1.016995	0.7550075	3	3	0	2600
351364	2964	-438	1251	-7.888669	0.07924078	-23.21712	0	10.32	4003	64	-343	-51	0	1.016995	0.7612763	3	3	0	2600
351468	2615	3373	-1721	-2.736539	-3.257984	-21.89499	0	10.32	4004	-201	221	-65	0	1.016995	0.7605199	3	3	0	2600
351583	4841	7527	1236	1.746481	-13.68319	-22.55721	0	10.32	4002	-205	176	-63	0	1.016995	0.7556167	3	3	0	2600
351674	539	447	429	4.475188	-16.41543	-22.76477	0	10.32	4003	59	-105	-65	0	1.016995	0.7507223	3	3	0	2600
351729	1711	2096	-872	6.78478	-18.44286	-23.69961	0	10.32	4002	-123	186	-27	0	1.016995	0.7469978	3	3	0	2600
351814	705	1872	-714	8.20053	-20.71739	-24.4231	0	10.32	4004	130	-279	-33	0	1.016995	0.7435647	3	3	0	2600
351951	2700	4918	61	9.419124	-24.0128	-23.31768	0	10.32	4004	-163	359	-48	0	1.016995	0.7062274	3	3	0	2600
352004	-1471	-268	-2899	8.990695	-27.3118	-22.50284	0	9.64	4004	297	-400	-112	0	1.016995	0.700667	3	3	0	2600
352104	-1655	336	2087	6.687449	-25.35358	-21.42812	0	9.64	4003	-176	277	-65	0	1.016995	0.6865553	3	3	0	2600
352252	-524	-2181	1705	1.590702	-17.87668	-24.4398	0	9.64	4003	72	0	-18	0	1.016995	0.6692954	3	3	0	2600
352411	-3616	-2906	646	-3.720466	-10.61967	-25.90232	0	9.64	4002	137	-46	6	0	1.016995	0.6372095	3	3	0	2600
352479	-1241	-2826	-1188	-5.934233	-7.532339	-25.65581	0	9.64	4004	17	-256	4	0	1.016995	0.6257703	3	3	0	2600
352583	2926	2442	-587	-2.555319	-9.235821	-25.22714	0	9.64	4002	-25	20	-20	0	1.016995	0.6190855	3	3	0	2600
352643	731	-397	-932	-1.35149	-9.979897	-24.95231	0	9.64	4003	-85	41	-13	0	1.016995	0.6185174	3	3	0	2600
352687	632	-1190	860	-1.510198	-6.510769	-24.49953	0	9.64	4003	-163	164	3	0	1.016995	0.6188025	3	3	0	2600
352830	1103	-285	-1402	-0.4760497	-6.221947	-23.49981	0	9.64	4002	125	-249	-81	0	1.016995	0.6302489	3	3	0	2600
352927	3532	2615	1168	5.122922	-10.40764	-22.45088	0	10.26	4002	-115	96	-41	0	1.016995	0.6368492	3	3	0	2600
352999	-892	-1907	1558	6.840446	-11.00304	-23.93334	0	10.26	4003	-36	-106	32	0	1.016995	0.6332669	3	3	0	2600
353110	-82	-671	1560	5.138017	-6.899101	-27.10862	0	10.26	4004	-23	-134	74	0	1.016995	0.6323444	3	3	0	2600
353205	-610	392	-2137	2.869948	-4.92987	-27.17576	0	10.26	4002	73	-158	43	0	1.016995	0.6113123	3	3	0	2600
353298	-355	2489	-3557	3.142663	-7.275897	-24.08967	0	10.26	4003	-26	-169	-86	0	1.016995	0.5966588	3	3	0	2600
353477	-3025	-658	2605	-10.42575	-7.222375	-23.77482	0	10.26	4004	234	-244	-53	0	1.016995	0.5777178	3	3	0	2600
353530	-2960	-2044	943	-11.34984	-6.240578	-24.63017	0	10.26	4004	-140	-21	35	0	1.016995	0.566788	3	3	0	2600
353665	-718	2908	1551	-12.35454	-9.332086	-27.68296	0	10.26	4004	-170	209	84	0	1.016995	0.5449142	3	3	0	2600
353709	-2405	776	215	-12.83666	-9.899457	-27.53208	0	10.26	4002	144	-227	25	0	1.016995	0.5308114	3	3	0	2600
353861	4298	2517	-1925	-9.279747	-12.93435	-25.57823	0	10.89	4002	80	-81	-3	0	1.016995	0.5077119	3	3	0	2600
353967	7807	4415	-870	0.591879	-17.74413	-23.40723	0	10.89	4002	-116	157	-55	0	1.016995	0.4871815	3	3	0	2600
354007	6214	2810	-1559	3.833021	-19.56597	-22.73319	0	10.89	4004	217	-276	-86	0	1.016995	0.4664224	3	3	0	2600
354117	5965	2331	-92	11.16207	-22.3422	-21.05761	0	10.89	4002	-292	388	-102	0	1.016995	0.4349892	3	3	0	2600
354261	-1835	16674	19865	-6.07176	-24.48253	-11.02939	0	10.89	4004	0	0	0	0	1.016995	0.4108018	3	3	0	2600
354352	-8628	18205	21391	7.839859	-48.30521	-45.34698	0	10.89	4002	0	0	0	0	1.016995	0.3650009	3	3	0	2600
354411	-21829	16925	6891	-6.559982	-63.30473	-51.88047	0	10.89	4004	0	0	0	0	1.016995	0.323747	3	3	0	2600
354544	-4417	10206	2376	-19.12336	-81.31547	-57.93128	0	10.89	4002	0	0	0	0	1.016995	0.2411899	3	3	0	2600
354609	-1777	13737	1630	-18.20933	-87.58159	-58.79944	0	10.89	4003	0	0	0	0	1.016995	0.1736268	3	3	0	2600
354706	692	13601	1307	-14.28094	-105.2174	-61.12207	0	10.89	4004	0	0	0	0	1.016995	0.08350068	3	3	0	2600
354866	-512	5685	790	-20.87839	-98.55518	-50.19087	0	11.11	4003	0	0	0	0	1.016995	-0.0003816997	3	3	0	2600
354910	-2404	3601	-4426	-21.79464	-98.66217	-49.49991	0	11.11	4003	0	0	0	0	1.016995	-0.04490333	3	3	0	2600
355000	1098	6510	-3500	-26.90874	-98.12447	-44.83157	0	11.11	4003	0	0	0	0	1.016995	-0.08405241	3	3	0	2600
355140	-267	430	1206	-36.83429	-87.69462	-37.12535	0	11.11	4003	0	0	0	0	1.016995	-0.1576299	3	3	0	2600
355206	-674	-2132	1019	-32.50159	-82.3912	-39.13052	0	11.11	4002	0	0	0	0	1.016995	-0.1747344	3	3	0	2600
355354	120	849	-551	-28.65609	-74.17191	-39.77501	0	11.11	4004	0	0	0	0	1.016995	-0.2141034	3	3	0	2600
355424	566	2068	-1240	-27.95265	-71.86316	-38.79496	0	11.11	4003	0	0	0	0	1.016995	-0.2482817	3	3	0	2600
355531	-321	-975	761	-26.65444	-66.29088	-38.6062	0	11.11	4002	0	0	0	0	1.016995	-0.2787014	3	3	0	2600
355636	38	588	-614	-24.96339	-62.22446	-38.53008	0	11.11	4004	0	0	0	0	1.016995	-0.3016422	3	3	0	2600
355723	-99	111	-147	-23.6626	-58.08087	-38.60949	0	11.11	4003	0	0	0	0	1.016995	-0.3131521	3	3	0	2600
355870	-95	137	-132	-22.1583	-53.68099	-38.55373	0	11.11	4003	0	0	0	0	1.016995	-0.319719	3	3	0	2600
355909	-115	1	30	-21.45449	-51.69128	-38.6282	0	11.11	4003	0	0	0	0	1.016995	-0.3210994	3	3	0	2600
356054	-100	65	-92	-20.29052	-48.32639	-38.61397	0	11.11	4002	0	0	0	0	1.016995	-0.3297071	3	3	0	2600
356113	-120	-13	29	-19.75824	-46.8073	-38.66692	0	11.11	4004	0	0	0	0	1.016995	-0.3359008	3	3	0	2600
356277	-118	-25	49	-18.68026	-43.64322	-38.67651	0	11.11	4003	0	0	0	0	1.016995	-0.3458748	3	3	0	2600
356353	-114	-20	43	-18.12636	-42.05408	-38.7058	0	11.11	4004	0	0	0	0	1.016995	-0.3512367	3	3	0	2600
356460	-124	-18	36	-17.64321	-40.66291	-38.73075	0	11.11	4004	0	0	0	0	1.016995	-0.3563368	3	3	0	2600
356550	-105	20	-5	-17.34958	-39.84658	-38.74677	0	11.11	4003	0	0	0	0	1.016995	-0.3591029	3	3	0	2600
356657	-115	-10	30	-16.84991	-38.39126	-38.78339	0	11.17	4004	0	0	0	0	1.016995	-0.3681251	3	3	0	2600
356755	-112	7	3	-16.6279	-37.76857	-38.79452	0	11.17	4002	0	0	0	0	1.016995	-0.3841428	3	3	0	2600
356832	-105	1	13	-16.33038	-36.92088	-38.81737	0	11.17	4003	0	0	0	0	1.016995	-0.3977938	3	3	0	2600
356970	-117	-4	21	-15.99511	-35.95487	-38.85449	0	11.17	4003	0	0	0	0	1.016995	-0.4194473	3	3	0	2600
357069	-114	8	16	-15.78855	-35.34121	-38.87812	0	11.17	4003	0	0	0	0	1.016995	-0.4292964	3	3	0	2600
357140	-111	-6	25	-15.66342	-34.97515	-38.89149	0	11.17	4004	0	0	0	0	1.016995	-0.4382689	3	3	0	2600
357313	-116	1	10	-15.3945	-34.18926	-38.92912	0	11.17	4003	0	0	0	0	1.016995	-0.4477008	3	3	0	2600
357357	-112	-3	17	-15.34958	-34.0483	-38.93773	0	11.17	4002	0	0	0	0	1.016995	-0.4406937	3	3	0	2600
357425	-105	-1	10	-15.25597	-33.7957	-38.95037	0	11.17	4004	0	0	0	0	1.016995	-0.4368106	3	3	0	2600
357571	-110	-2	9	-15.06736	-33.24345	-38.98958	0	11.17	4003	0	0	0	0	0.6672507	-0.4128336	5	3	0	2600
357652	-107	5	13	-14.97116	-32.96038	-39.01058	0	11.17	4003	0	0	0	0	0.4864257	-0.395562	5	3	0	2600
357760	-110	2	10	-14.88357	-32.71994	-39.03121	0	11.17	4004	0	0	0	0	0.3546043	-0.3716566	5	3	0	2600
357902	-111	-1	18	-14.79293	-32.44096	-39.0574	0	11.17	4003	0	0	0	0	0.2093903	-0.3499224	1	3	0	2600
357964	-112	1	15	-14.75176	-32.32244	-39.07316	0	11.17	4002	0	0	0	0	0.1696062	-0.3491481	1	3	0	2600
358056	-106	0	14	-14.69525	-32.17064	-39.09477	0	11.17	4003	0	0	0	0	0.137381	-0.3496577	1	3	0	2600
358131	-112	2	13	-14.66037	-32.077	-39.10875	0	11.17	4002	0	0	0	0	0.1001507	-0.343539	1	3	0	2600
358231	-115	0	6	-14.61754	-31.94697	-39.12865	0	11.17	4004	0	0	0	0	0.07300989	-0.3410254	1	3	0	2600
358429	-106	4	14	-14.5476	-31.73998	-39.16918	0	11.06	4003	0	0	0	0	0.04311161	-0.3488834	1	3	0	2600
358482	-111	-3	8	-14.53609	-31.70932	-39.17559	0	11.06	4003	0	0	0	0	0.0349204	-0.3533765	1	3	0	2600
358597	-106	1	10	-14.49838	-31.59911	-39.20275	0	11.06	4003	0	0	0	0	0.02545697	-0.3713354	1	3	0	2600
358688	-107	2	13	-14.47426	-31.53218	-39.22161	0	11.06	4003	0	0	0	0	0.02	-0.3773313	1	3	0	2600
358739	-111	-4	16	-14.46861	-31.50907	-39.22778	0	11.06	4003	0	0	0	0	0.02	-0.374836	1	3	0	2600
358869	-113	0	17	-14.4399	-31.43691	-39.25488	0	11.06	4002	0	0	0	0	0.02	-0.3666574	1	3	0	2600
359022	-112	4	18	-14.41674	-31.37801	-39.28376	0	11.06	4003	0	0	0	0	0.02	-0.3500357	1	3	0	2600
359110	-108	0	12	-14.39774	-31.32805	-39.31098	0	11.06	4003	0	0	0	0	0.02	-0.344795	1	3	0	2600
359136	-108	0	12	-14.39774	-31.32805	-39.31098	0	11.06	4003	0	0	0	0	0.02	-0.3428954	1	3	0	2600
359229	-99	-1	9	-14.37851	-31.28299	-39.33576	0	11.06	4003	0	0	0	0	0.02	-0.3392069	1	3	0	2600
359389	-108	-6	12	-14.36844	-31.24462	-39.3603	0	11.23	4002	0	0	0	0	0.02	-0.347255	1	3	0	2600
359437	-104	0	11	-14.363	-31.23796	-39.36658	0	11.23	4003	0	0	0	0	0.02	-0.3457784	1	3	0	2600
359596	-107	1	11	-14.35019	-31.20335	-39.39919	0	11.23	4003	0	0	0	0	0.02	-0.3478901	1	3	0	2600
359687	-103	1	13	-14.3393	-31.18447	-39.41811	0	11.23	4002	0	0	0	0	0.02	-0.3517649	1	3	0	2600
359756	-99	0	17	-14.33367	-31.17724	-39.43141	0	11.23	4004	0	0	0	0	0.02	-0.3547885	1	3	0	2600
359860	-109	-3	8	-14.32806	-31.16205	-39.45186	0	11.23	4003	0	0	0	0	0.02	-0.3600706	1	3	0	2600
359939	-107	6	14	-14.31627	-31.15693	-39.46425	0	11.23	4003	0	0	0	0	0.02	-0.3644181	1	3	0	2600
360043	-111	0	12	-14.31041	-31.147	-39.48207	0	11.23	4003	0	0	0	0	0.02	-0.3770244	1	3	0	2600
360186	-108	2	14	-14.2994	-31.14322	-39.50808	0	11.23	4002	0	0	0	0	0.02	-0.3834409	1	3	0	2600
360252	-100	3	13	-14.2961	-31.14135	-39.5212	0	11.23	4002	0	0	0	0	0.02	-0.3865629	1	3	0	2600
360350	-100	1	14	-14.29683	-31.12358	-39.54806	0	11.11	4002	0	0	0	0	0.02	-0.3948646	1	3	0	2600
360455	-109	4	14	-14.28868	-31.11967	-39.56759	0	11.11	4003	0	0	0	0	0.02	-0.4055572	1	3	0	2600
360568	-112	1	11	-14.28531	-31.11181	-39.5856	0	11.11	4004	0	0	0	0	0.02	-0.424169	1	3	0	2600
360657	-102	1	8	-14.28034	-31.104	-39.60471	0	11.11	4004	0	0	0	0	0.02	-0.4277102	1	3	0	2600
360796	-113	4	10	-14.28274	-31.09632	-39.63016	0	11.11	4004	0	0	0	0	0.02	-0.4221354	1	3	0	2600
360880	-107	1	13	-14.27372	-31.09421	-39.65097	0	11.11	4003	0	0	0	0	0.02	-0.4201029	1	3	0	2600
361047	-112	3	8	-14.26885	-31.0988	-39.68155	0	11.11	4004	0	0	0	0	0.02	-0.412291	1	3	0	2600
