time(ms)	gyro_x(deg/s)	gyro_y(deg/s)	gyro_z(deg/s)	orientation_roll(deg)	orientation_pitch(deg)	orientation_yaw(deg)	throttle	battery(V)	loop_time(uS)	pid_output_roll	pid_output_pitch	pid_output_yaw	pid_output_throttle	ultrasonic_alt	baro_alt	flight_mode	p_gain_altitude	i_gain_altitude	d_gain_altitude
423888	-56	0	1	-1.163525	0.4994035	34.43271	0	11.11	4003	0	0	0	0	0.02	-0.4844097	1	3	0	200
423947	-43	3	2	-1.160539	0.4974261	34.42984	0	11.11	4002	0	0	0	0	0.02	-0.4757139	1	3	0	200
424053	-56	0	3	-1.162082	0.4997625	34.42252	0	11.11	4004	0	0	0	0	0.02	-0.4633735	1	3	0	200
424168	-44	0	4	-1.158153	0.5085588	34.41422	0	11.11	4002	0	0	0	0	0.02	-0.4560617	1	3	0	200
424239	-61	-2	3	-1.16293	0.5066735	34.41037	0	11.11	4004	0	0	0	0	0.02	-0.4541779	1	3	0	200
424452	-51	2	2	-1.16489	0.5034677	34.39792	0	11.11	4004	0	0	0	0	0.02	-0.4395284	1	3	0	200
424544	-57	-2	4	-1.167507	0.5057948	34.39139	0	11.11	4003	0	0	0	0	0.02	-0.4354119	1	3	0	200
424739	-55	-2	8	-1.162358	0.5064448	34.3779	0	11.17	4004	0	0	0	0	0.02	-0.454233	1	3	0	200
424809	-53	-1	4	-1.163035	0.5032388	34.37369	0	11.17	4002	0	0	0	0	0.02	-0.469051	1	3	0	200
424850	-51	-1	9	-1.159652	0.5036989	34.37057	0	11.17	4002	0	0	0	0	0.02	-0.4789597	1	3	0	200
424938	-40	11	0	-1.154014	0.5022613	34.36453	0	11.17	4003	0	0	0	0	0.02	-0.4956678	1	3	0	200
425034	-55	-2	6	-1.154294	0.5033548	34.35831	0	11.17	4003	0	0	0	0	0.02	-0.5087494	1	3	0	200
425186	-60	0	6	-1.15175	0.4960887	34.34567	0	11.17	4004	0	0	0	0	0.02	-0.5144457	1	3	0	200
425242	-48	-4	1	-1.147364	0.49503	34.34335	0	11.17	4002	0	0	0	0	0.02	-0.5198324	1	3	0	200
425346	-44	-1	5	-1.153304	0.4979485	34.3345	0	11.17	4002	0	0	0	0	0.02	-0.5383554	1	3	0	200
425501	-50	0	4	-1.151264	0.4936591	34.32193	0	11.17	4002	0	0	0	0	0.02	-0.5447556	1	3	0	200
425553	-52	-5	4	-1.147794	0.4896457	34.31967	0	11.17	4003	0	0	0	0	0.02	-0.5443507	1	3	0	200
425664	-57	1	0	-1.151347	0.4902695	34.31418	0	11.17	4003	0	0	0	0	0.02	-0.541867	1	3	0	200
425811	-45	3	7	-1.138371	0.4920854	34.30405	0	11.17	4003	0	0	0	0	0.02	-0.5353429	1	3	0	200
425880	-49	7	5	-1.134165	0.4926554	34.30032	0	11.17	4003	0	0	0	0	0.02	-0.5349801	1	3	0	200
426008	-57	5	7	-1.128358	0.4914532	34.29221	0	11.17	4004	0	0	0	0	0.02	-0.5316064	1	3	0	200
426076	-46	3	5	-1.128044	0.4952885	34.28818	0	11.17	4003	0	0	0	0	0.02	-0.5270801	1	3	0	200
426279	-43	3	3	-1.123808	0.4977162	34.2756	0	11.17	4003	0	0	0	0	0.02	-0.5076796	1	3	0	200
426387	-49	-1	7	-1.129442	0.4977923	34.2681	0	11.17	4003	0	0	0	0	0.02	-0.4925695	1	3	0	200
426549	-48	2	4	-1.11851	0.4873101	34.25912	0	11.17	4003	0	0	0	0	0.02	-0.4820139	1	3	0	200
426575	-58	-3	7	-1.119531	0.4808799	34.25644	0	11.17	4004	0	0	0	0	0.02	-0.4792111	1	3	0	200
426673	-55	3	4	-1.124253	0.4780937	34.25003	0	11.17	4003	0	0	0	0	0.02	-0.475848	1	3	0	200
426782	-47	3	2	-1.120903	0.4786063	34.24277	0	11.17	4003	0	0	0	0	0.02	-0.4644037	1	3	0	200
426906	-57	-4	3	-1.117015	0.4788879	34.23325	0	11.17	4003	0	0	0	0	0.02	-0.4605162	1	3	0	200
426983	-52	0	3	-1.121692	0.4808692	34.22885	0	11.17	4003	0	0	0	0	0.02	-0.4580439	1	3	0	200
427095	-54	1	2	-1.123784	0.4808256	34.21982	0	11.17	4004	0	0	0	0	0.02	-0.4469525	1	3	0	200
427190	-50	7	5	-1.122826	0.4778796	34.21561	0	11.17	4003	0	0	0	0	0.02	-0.4447543	1	3	0	200
427341	-44	0	0	-1.109218	0.4836971	34.20578	0	11.17	4003	0	0	0	0	0.02	-0.4578217	1	3	0	200
427400	-57	-2	4	-1.109226	0.4863795	34.20169	0	11.17	4004	0	0	0	0	0.02	-0.4578477	1	3	0	200
427525	-39	1	4	-1.116212	0.4860799	34.19504	0	11.17	4003	0	0	0	0	0.02	-0.4546633	1	3	0	200
427653	-49	-3	1	-1.114622	0.4888	34.19022	0	11.17	4002	0	0	0	0	0.02	-0.4450484	1	3	0	200
427717	-37	-2	7	-1.113528	0.4914369	34.18552	0	11.17	4004	0	0	0	0	0.02	-0.444176	1	3	0	200
427804	-46	5	1	-1.113775	0.4895822	34.18124	0	11.17	4003	0	0	0	0	0.02	-0.4405802	1	3	0	200
427921	-45	-3	4	-1.110354	0.4942252	34.17239	0	11.17	4003	0	0	0	0	0.02	-0.4269207	1	3	0	200
428017	-40	1	3	-1.114965	0.4955944	34.16727	0	11.17	4002	0	0	0	0	0.02	-0.4183448	1	3	0	200
428218	-62	-3	5	-1.113777	0.4940164	34.15585	0	11.17	4004	0	0	0	0	0.02	-0.4143203	1	3	0	200
428250	-53	-1	3	-1.115624	0.4919673	34.15421	0	11.17	4003	0	0	0	0	0.02	-0.4143554	1	3	0	200
428334	-49	0	1	-1.112911	0.4906625	34.14725	0	11.17	4002	0	0	0	0	0.02	-0.4099679	1	3	0	200
428418	-59	3	5	-1.115252	0.4804023	34.14432	0	11.17	4004	0	0	0	0	0.02	-0.4088796	1	3	0	200
428602	-48	1	0	-1.11179	0.4818738	34.13553	0	11.17	4004	0	0	0	0	0.02	-0.4229857	1	3	0	200
428662	-41	5	4	-1.111075	0.4772167	34.13333	0	11.17	4004	0	0	0	0	0.02	-0.4236988	1	3	0	200
428792	-45	1	5	-1.116793	0.4765283	34.12619	0	11.17	4004	0	0	0	0	0.02	-0.4241833	1	3	0	200
428848	-44	6	-2	-1.114739	0.4748795	34.12363	0	11.17	4002	0	0	0	0	0.02	-0.4242912	1	3	0	200
428922	-44	-4	6	-1.10623	0.4707272	34.11984	0	11.17	4004	0	0	0	0	0.02	-0.4235821	1	3	0	200
429087	-39	4	4	-1.098413	0.466866	34.11118	0	11.17	4003	0	0	0	0	0.02	-0.4361998	1	3	0	200
429188	-51	0	2	-1.098009	0.4685764	34.10727	0	11.17	4002	0	0	0	0	0.02	-0.4363542	1	3	0	200
429214	-51	0	3	-1.097844	0.4709366	34.10275	0	11.17	4004	0	0	0	0	0.02	-0.4299435	1	3	0	200
429308	-52	-1	0	-1.095544	0.4706416	34.10153	0	11.17	4002	0	0	0	0	0.02	-0.4279404	1	3	0	200
429436	-47	-1	5	-1.087209	0.4654584	34.09097	0	11.17	4004	0	0	0	0	0.02	-0.4190579	1	3	0	200
429560	-41	0	0	-1.075784	0.4634785	34.08585	0	11.17	4004	0	0	0	0	0.02	-0.4026079	1	3	0	200
429658	-31	0	2	-1.060939	0.4682114	34.08133	0	11.17	4002	0	0	0	0	0.02	-0.4056324	1	3	0	200
429724	-49	-4	6	-1.060542	0.468271	34.08047	0	11.17	4004	0	0	0	0	0.02	-0.4136142	1	3	0	200
429819	-45	3	1	-1.052512	0.4712677	34.07553	0	11.17	4003	0	0	0	0	0.02	-0.4310402	1	3	0	200
430060	-47	6	2	-1.051356	0.4636028	34.05997	0	11.17	4004	0	0	0	0	0.02	-0.4385094	1	3	0	200
430136	-49	4	2	-1.043546	0.4701874	34.05594	0	11.17	4004	0	0	0	0	0.02	-0.4280931	1	3	0	200
430233	-42	0	2	-1.042521	0.4770309	34.05173	0	11.17	4002	0	0	0	0	0.02	-0.4190816	1	3	0	200
430330	-45	0	4	-1.057466	0.477579	34.04765	0	11.17	4003	0	0	0	0	0.02	-0.4115084	1	3	0	200
430434	-48	7	7	-1.080495	0.4756599	34.04305	0	11.17	4002	0	0	0	0	0.02	-0.4115084	1	10	0	200
430534	-34	0	3	-1.074303	0.4718049	34.03749	0	11.17	4002	0	0	0	0	0.02	-0.4099617	1	10	0	200
430696	-47	4	4	-1.056526	0.4729604	34.03115	0	11.17	4002	0	0	0	0	0.02	-0.433371	1	10	0	200
430839	-45	0	0	-1.057963	0.4820017	34.02327	0	11.17	4003	0	0	0	0	0.02	-0.4584703	1	10	0	200
430900	-53	0	8	-1.06802	0.4832524	34.01821	0	11.17	4003	0	0	0	0	0.02	-0.4633529	1	10	0	200
430974	-31	0	1	-1.063277	0.4823484	34.01479	0	11.17	4004	0	0	0	0	0.02	-0.4621507	1	10	0	200
431069	-48	6	4	-1.06134	0.4777917	34.00869	0	11.17	4004	0	0	0	0	0.02	-0.4599043	1	10	0	200
431123	-41	0	11	-1.060245	0.4789754	34.00594	0	11.17	4002	0	0	0	0	0.02	-0.4592888	1	10	0	200
431297	-33	0	4	-1.050004	0.4871018	33.99629	0	11.11	4003	0	0	0	0	0.02	-0.4592887	1	10	0	200
431343	-38	-2	3	-1.045213	0.4854241	33.99287	0	11.11	4004	0	0	0	0	0.02	-0.4648021	1	10	0	200
431418	-56	0	3	-1.04709	0.4834553	33.98817	0	11.11	4003	0	0	0	0	0.02	-0.4738537	1	10	0	200
431529	-40	0	-1	-1.052751	0.4919734	33.98152	0	11.11	4003	0	0	0	0	0.02	-0.4883238	1	10	0	200
431657	-45	0	4	-1.03374	0.5012703	33.97359	0	11.11	4003	0	0	0	0	0.02	-0.4856876	1	10	0	200
431844	-46	6	2	-1.029495	0.4917489	33.96461	0	11.11	4003	0	0	0	0	0.02	-0.4575345	1	10	0	200
431939	-51	0	5	-1.031878	0.5015518	33.95985	0	11.11	4003	0	0	0	0	0.02	-0.4477633	1	10	0	200
432024	-39	4	1	-1.037511	0.5007519	33.95363	0	11.23	4003	0	0	0	0	0.02	-0.4486019	1	10	0	200
432125	-46	-2	3	-1.032642	0.4904595	33.94765	0	11.23	4003	0	0	0	0	0.02	-0.4548019	1	10	0	200
432252	-38	-3	1	-1.035148	0.4913243	33.94154	0	11.23	4002	0	0	0	0	0.02	-0.4623831	1	10	0	200
432357	-42	0	0	-1.026495	0.4934087	33.93501	0	11.23	4004	0	0	0	0	0.02	-0.457534	1	10	0	200
432476	-35	0	4	-1.006508	0.4977148	33.92751	0	11.23	4004	0	0	0	0	0.02	-0.4601845	1	10	0	200
432521	-38	6	6	-1.007295	0.502298	33.92598	0	11.23	4004	0	0	0	0	0.02	-0.4648481	1	10	0	200
432659	-37	3	9	-1.003297	0.5135761	33.91829	0	11.23	4003	0	0	0	0	0.02	-0.4716028	3	10	0	200
432726	-31	-3	6	-1.011117	0.5079402	33.91457	0	11.23	4004	0	0	0	0	0.02	-0.4735452	3	10	0	200
432886	-32	-2	3	-1.026284	0.4960632	33.90364	0	11.23	4004	0	0	0	0	0.02	-0.4700574	3	10	0	200
432960	-37	0	2	-1.013313	0.5097892	33.90089	0	11.23	4004	0	0	0	0	0.02	-0.469334	3	10	0	200
433074	-34	-4	2	-1.019375	0.4956527	33.89418	0	11.17	4003	0	0	0	0	0.02	-0.4730209	3	10	0	200
433176	-42	3	9	-1.008324	0.5068513	33.88777	0	11.17	4004	4	-1	0	0	0.02	-0.4805411	3	10	0	200
433258	-51	8	55	-0.9952594	0.5066801	33.88111	0	11.17	4007	5	-2	0	0	0.02	-0.4869149	3	10	0	200
433347	-51	-33	88	-0.9905306	0.494541	33.8758	0	11.17	4002	5	-3	0	0	0.02	-0.4953558	3	10	0	200
433446	-113	-30	115	-0.9794515	0.4879782	33.8574	0	11.17	4002	-6	0	0	0	0.02	-0.4993365	3	10	0	200
433572	63	22	82	-0.9138717	0.4421942	33.85123	0	11.17	4004	-13	0	1	0	0.02	-0.4961193	3	10	0	200
433676	142	-28	-10	-0.9492888	0.5034359	33.82873	0	11.17	4004	-16	-28	3	0	0.02	-0.4874309	3	10	0	200
433758	-26	-60	71	-0.9467719	0.4918168	33.8094	0	11.17	4003	0	0	0	0	0.02	-0.4855747	3	10	0	200
433860	-88	51	-32	-0.9705356	0.4722624	33.82029	0	11.17	4004	0	0	0	0	0.02	-0.4921413	3	10	0	200
434017	34	62	172	-0.971905	0.4684618	33.82011	0	11.23	4003	0	0	0	0	0.02	-0.4997383	3	10	0	200
434119	-29	-13	-23	-0.9936005	0.4746885	33.81136	0	11.23	4002	0	0	0	0	0.02	-0.5070229	3	10	0	200
434257	-28	-13	10	-0.9918722	0.4644836	33.80715	0	11.23	4002	0	0	0	0	0.02	-0.5173498	3	10	0	200
434359	-36	11	8	-0.986158	0.4688048	33.7992	0	11.23	4004	0	0	0	0	0.02	-0.5273253	3	10	0	200
434544	-32	15	9	-0.9923448	0.4713904	33.78655	0	11.23	4004	0	0	0	0	0.02	-0.5397171	3	10	0	200
434569	-32	15	9	-0.9923448	0.4713904	33.78655	0	11.23	4004	0	0	0	0	0.02	-0.5478352	3	10	0	200
434673	-37	0	-40	-0.9878781	0.4721623	33.78118	0	11.23	4002	0	0	0	0	0.02	-0.5636265	3	10	0	200
434774	-47	12	10	-0.990925	0.4888465	33.77518	0	11.23	4003	0	0	0	0	0.02	-0.5706412	3	10	0	200
434875	-42	-10	-19	-0.9879701	0.4860974	33.7695	0	11.11	4003	0	0	0	0	0.02	-0.5800324	3	10	0	200
435018	-55	-12	11	-0.9872748	0.48081	33.76162	0	11.11	4004	0	0	0	0	0.02	-0.5845354	3	10	0	200
435093	-40	3	0	-0.9922269	0.4806961	33.75624	0	11.11	4003	0	0	0	0	0.02	-0.5881822	3	10	0	200
435357	-36	3	-1	-0.9928991	0.4750233	33.73387	0	11.11	4003	0	0	0	0	0.02	-0.5957219	3	10	0	200
435413	-21	5	7	-0.9909245	0.4776956	33.73058	0	11.11	4003	0	0	0	0	0.02	-0.5939666	3	10	0	200
435506	-34	0	-1	-0.9714235	0.4794005	33.72227	0	11.11	4002	0	0	0	0	0.02	-0.592033	3	10	0	200
435596	-37	0	4	-0.9723687	0.4751827	33.71696	0	11.11	4002	0	0	0	0	0.02	-0.5922471	3	10	0	200
435693	-43	0	0	-0.9648346	0.4690328	33.71086	0	11.11	4003	0	0	0	0	0.02	-0.5835089	3	10	0	200
435839	-39	1	3	-0.9841452	0.4550324	33.69969	0	11.11	4003	0	0	0	0	0.02	-0.5579037	3	10	0	200
435905	-42	-2	0	-0.9717103	0.4638274	33.69756	0	11.11	4003	0	0	0	0	0.02	-0.550761	3	10	0	200
435983	-27	-3	1	-0.9548488	0.4679685	33.69426	0	11.11	4002	3	-1	0	0	0.02	-0.5390573	3	10	0	200
436083	-36	1	-34	-0.9425742	0.4758011	33.68938	0	11.11	4003	6	-4	0	0	0.02	-0.5352112	3	10	0	200
436147	1	24	1	-0.9216027	0.4843634	33.68864	0	11.11	4004	5	-2	0	0	0.02	-0.5366272	3	10	0	200
436246	-94	4	72	-0.936412	0.4727805	33.6865	0	11.11	4003	2	-5	0	0	0.02	-0.5367143	3	10	0	200
436451	-57	-84	165	-0.964066	0.5346681	33.64836	0	11.11	4002	13	-8	1	0	0.02	-0.5320131	3	10	0	200
436588	-91	52	-8	-0.9474316	0.579844	33.63852	0	11.11	4004	9	-17	2	0	0.02	-0.5225971	3	10	0	200
436646	-31	23	-22	-0.9292969	0.5369402	33.63058	0	11.11	4004	25	-41	3	0	0.02	-0.5150174	3	10	0	200
436770	-302	-85	48	-0.9714757	0.4606743	33.61767	0	11.11	4003	-40	2	2	0	0.02	-0.4899476	3	10	0	200
436854	149	88	-2	-0.9316681	0.4692799	33.62251	0	11.11	4004	-19	-4	2	0	0.02	-0.4818971	3	10	0	200
436972	-310	59	-110	-1.009942	0.4633567	33.61303	0	11.11	4003	28	1	1	0	0.02	-0.4607012	3	10	0	200
437050	-207	86	25	-0.9950579	0.4703776	33.60403	0	11.11	4002	25	-4	1	0	0.02	-0.4554662	3	10	0	200
437214	9	-2	-8	-1.016193	0.4627196	33.59499	0	11.11	4004	-28	33	2	0	0.02	-0.4392825	3	10	0	200
437293	-119	-150	51	-1.053341	0.4765368	33.59169	0	11.11	4003	31	-21	1	0	0.02	-0.4330551	3	10	0	200
437407	-40	28	-96	-1.056181	0.4509458	33.59645	0	11.11	4003	18	4	3	0	0.02	-0.4312607	3	10	0	200
437459	-24	-112	63	-1.104215	0.5132523	33.58704	0	11.11	4004	11	-18	5	0	0.02	-0.4315735	3	10	0	200
437556	-15	60	75	-1.128978	0.4752694	33.58179	0	11.11	4003	13	6	4	0	0.02	-0.4364459	3	10	0	200
437735	19	5	190	-1.168664	0.494209	33.5593	0	11.11	4003	5	-8	5	0	0.02	-0.4563593	3	10	0	200
437791	-154	35	-52	-1.12908	0.4823502	33.56094	0	11.11	4003	24	-3	3	0	0.02	-0.4580003	3	10	0	200
437819	-87	-23	149	-1.085584	0.4966764	33.54418	0	11.11	4003	56	9	4	0	0.02	-0.4600237	3	10	0	200
437896	65	43	34	-1.081059	0.4784954	33.54466	0	11.11	4003	35	-4	5	0	0.02	-0.4578185	3	10	0	200
437998	-183	-109	174	-1.103534	0.462835	33.51277	0	11.11	4004	37	-6	4	0	0.02	-0.4521992	3	10	0	200
438100	100	96	-261	-1.091141	0.4754516	33.50384	0	11.11	4002	18	14	2	0	0.02	-0.4379922	3	10	0	200
438204	-65	-134	299	-1.147626	0.5453327	33.47089	0	11.11	4005	57	-3	5	0	0.02	-0.4142368	3	10	0	200
438346	-131	-87	279	-1.223905	0.4963204	33.38015	0	11.11	4003	35	0	3	0	0.02	-0.4013145	3	10	0	200
438472	2384	-573	980	-0.2142796	1.225907	33.4576	0	11	4004	-115	-13	22	0	0.02	-0.3866251	3	10	0	200
438547	1377	3907	0	2.689207	-2.497709	33.17924	0	11	4003	-98	85	26	0	0.02	-0.3666649	3	10	0	200
438622	-1509	2916	102	1.457039	-6.808975	33.03643	0	11	4003	50	-193	3	0	0.02	-0.3549494	3	10	0	200
438796	-1542	-746	-1988	-1.038573	-13.584	33.49017	0	11	4002	-17	-66	28	0	0.02	-0.3091002	3	10	0	200
438836	-1754	-677	-2360	-1.85761	-13.6851	33.69891	0	11	4004	36	-356	-27	0	0.02	-0.2845978	3	10	0	200
438964	-2478	1513	-2039	-6.238569	-14.07317	33.66037	0	11	4002	79	68	-11	0	0.02	-0.2541409	3	10	0	200
439147	-1052	1315	518	-9.486849	-16.92256	34.51234	0	11	4004	98	-188	-26	0	0.02	-0.1823452	3	10	0	200
439253	-630	-1106	-437	-10.34625	-14.85336	34.96558	0	11	4003	-27	-69	-36	0	0.02	-0.09422028	3	10	0	200
439329	-1296	-3942	662	-10.27924	-12.55919	34.65574	0	11	4003	70	-142	-15	0	0.02	-0.03344399	3	10	0	200
439442	2877	-1074	1120	-5.726732	-5.474391	33.70997	0	11	4002	-91	-6	5	0	0.02	0.02034402	3	10	0	200
439539	2145	574	-1813	-3.423978	-6.711203	33.90089	0	11	4002	-57	-175	-7	0	0.02	0.0639253	3	10	0	200
439647	-406	-2465	-506	-1.909971	-8.698612	34.07816	0	11	4003	74	-131	-15	0	0.02	0.1460541	3	10	0	200
439758	1538	-3012	364	-0.2845629	-0.6934769	34.30399	0	11	4002	-7	-125	-6	0	0.02	0.1884334	3	10	0	200
439887	-372	-2893	-456	0.08845627	1.619279	34.50478	0	11	4004	45	-159	-29	0	0.02	0.2593193	3	10	0	200
439944	-134	-4524	79	-0.4029502	4.743051	34.57075	0	11	4003	-21	-41	-22	0	0.02	0.2850681	3	10	0	200
440084	419	-1275	278	-0.7460986	10.91609	34.13596	0	11	4004	54	-22	-17	0	0.02	0.3507144	3	10	0	200
440189	210	4190	2234	-1.236981	6.17909	33.58992	0	11	4002	-133	295	29	0	0.02	0.3919693	3	10	0	200
440302	-159	85	-1454	-1.572704	0.6744746	34.14306	0	10.38	4003	50	63	-21	0	0.02	0.4124957	3	10	0	200
440409	390	-1115	-1170	-2.672673	-0.2535888	34.20211	0	10.38	4002	-32	-329	-9	0	0.02	0.4249451	3	10	0	200
440521	-1219	4408	84	-2.412736	-2.164911	33.41546	0	10.38	4004	12	21	20	0	0.02	0.4407018	3	10	0	200
440536	-1219	4408	84	-2.412736	-2.164911	33.41546	0	10.38	4004	-50	210	49	0	0.02	0.4407018	3	10	0	200
440659	1417	1026	858	-3.580041	-6.730264	33.06229	0	10.38	4004	59	48	-15	0	0.02	0.4340122	3	10	0	200
440768	-460	544	-293	-3.401767	-6.134266	34.7051	0	10.38	4002	56	146	-29	0	0.02	0.433295	3	10	0	200
440873	823	-468	469	-4.236997	-7.350711	34.73367	0	10.38	4004	-9	-107	-19	0	0.02	0.4230594	3	10	0	200
440976	1701	1222	719	-2.776747	-4.636545	34.87974	0	10.38	4002	-101	203	-17	0	0.02	0.4108612	3	10	0	200
441078	1134	1115	-304	-1.200418	-6.964334	35.2278	0	10.38	4002	-157	187	-10	0	0.02	0.40512	3	10	0	200
441199	-134	-695	934	-1.020781	-5.349641	35.39193	0	10.38	4003	-93	147	-25	0	0.02	0.4026827	3	10	0	200
441318	536	1603	153	-1.984924	-5.113191	34.5196	0	10.55	4004	-77	173	0	0	0.02	0.3927454	3	10	0	200
441460	-2114	718	-948	-2.683802	-12.08394	34.19762	0	10.55	4004	73	-30	-18	0	0.02	0.3791923	3	10	0	200
441524	-1919	-511	-1708	-4.994009	-12.00301	34.62138	0	10.55	4004	103	-35	-53	0	0.02	0.3739665	3	10	0	200
441578	634	2545	685	-5.306914	-12.71712	34.76114	0	10.55	4004	-55	268	-23	0	0.02	0.3658922	3	10	0	200
441742	-575	-632	-1399	-5.2586	-20.15133	34.0308	0	10.55	4003	67	-102	-25	0	0.02	0.3364166	3	10	0	200
441790	-417	-2687	-1468	-5.439809	-19.52725	34.44046	0	10.55	4003	115	-368	-41	0	0.02	0.3362188	3	10	0	200
441880	184	-1393	323	-3.999361	-15.49222	34.80922	0	10.55	4004	-18	147	-17	0	0.02	0.3409938	3	10	0	200
442050	975	152	1501	-4.674287	-10.88355	33.02801	0	10.55	4002	-37	-285	23	0	0.02	0.3387681	3	10	0	200
442083	315	-1693	-2322	-4.811269	-10.23409	33.15487	0	10.55	4004	-58	220	25	0	0.02	0.3366903	3	10	0	200
442168	-1531	984	-808	-5.115416	-9.962722	33.08233	0	10.55	4004	30	47	-8	0	0.02	0.3297868	3	10	0	200
442287	-1625	-3087	-1190	-6.557476	-9.247818	33.01724	0	10.55	4004	-52	-104	28	0	0.02	0.3235979	3	10	0	200
442366	-3473	-1470	-94	-9.131247	-6.93478	33.21207	0	10.55	4002	0	42	33	0	0.02	0.3238662	3	10	0	200
442521	-634	289	1863	-13.56404	-3.242205	33.32948	0	10.55	4004	-89	226	33	0	0.02	0.3222785	3	10	0	200
442573	-1454	-622	818	-14.01281	-3.976303	33.06724	0	10.55	4002	77	-171	-8	0	0.02	0.3249509	3	10	0	200
442677	-1539	-2137	-1653	-15.04373	-3.082022	33.08501	0	10.55	4002	-60	-64	22	34	0.0757955	0.3335459	5	10	0	200
442843	1928	408	-425	-12.68203	-1.527296	33.30341	0	10.55	4003	-114	76	13	33	0.4664113	0.3621849	5	10	0	200
442898	3207	922	-529	-10.84453	-2.005023	33.54085	0	10.55	4003	-59	-103	8	34	0.6275898	0.3713378	5	10	0	200
442977	355	219	645	-7.846083	-3.158165	33.72425	0	10.55	4004	-18	-176	17	33	0.709061	0.3788314	5	10	0	200
443081	696	1432	1158	-5.5565	-6.286922	33.23614	0	10.26	4004	-64	-31	13	33	0.7869344	0.3860247	5	10	0	200
443228	-385	-2784	-2277	-2.907679	-3.212643	34.04389	0	10.26	4004	-29	374	2	33	0.6503078	0.4073367	5	10	0	200
443295	-331	-1408	520	-2.849288	-2.025596	33.99966	0	10.26	4004	29	-37	-17	33	0.6174042	0.4235176	5	10	0	200
443443	-820	-1489	-818	-1.92565	-2.999687	33.40471	0	10.26	4003	49	100	0	32	0.7510553	0.461132	5	10	0	200
443559	-212	440	-847	-2.099586	-2.935961	33.50457	0	10.26	4002	108	-99	-13	31	0.8315672	0.5134237	5	10	0	200
443646	518	-1837	1042	-2.95452	-2.909277	33.64505	0	10.26	4004	-48	-39	22	31	0.8823611	0.5701897	5	10	0	200
443698	727	-287	-745	-2.11371	-0.9012524	34.16698	0	10.26	4004	29	-102	-24	29	0.9270467	0.616447	5	10	0	200
443855	549	-346	-771	-2.554402	-1.020066	33.55038	0	10.26	4002	-6	34	-12	28	0.9687416	0.7350371	5	10	0	200
443897	411	1934	1276	-1.999005	-1.298602	33.42941	0	10.26	4002	-61	-71	24	27	0.8718674	0.7540116	5	10	0	200
443996	-582	3241	1161	-2.074833	-3.540924	33.13845	0	10.26	4003	42	229	20	26	0.9251399	0.8385549	5	10	0	200
444163	985	537	-811	-1.779815	-5.035498	33.06939	0	9.53	4004	41	159	26	21	1.153589	0.9201978	5	10	0	200
444252	448	-1038	-1115	-2.707855	-6.103215	33.19107	0	9.53	4003	-97	-49	16	23	1.056796	1.030002	5	10	0	200
444301	1352	315	1167	-2.221143	-4.8646	33.96268	0	9.53	4002	3	152	-1	22	0.9994792	1.065477	5	10	0	200
444413	-731	1466	-1069	-1.185617	-5.637661	34.08887	0	9.53	4003	23	97	-17	22	0.897541	1.116609	5	10	0	200
444564	232	2900	1055	-2.072699	-9.446564	33.66615	0	9.53	4004	-28	-164	2	20	0.8567911	1.210619	5	10	0	200
444744	1083	1874	1453	-0.9312948	-11.72146	34.69337	0	9.53	4004	-74	315	-20	14	0.8602417	1.359547	5	10	0	200
444846	-358	-833	-661	-1.945867	-10.90484	34.89833	0	9.53	4004	36	-204	-23	16	0.9795939	1.429369	5	10	0	200
444945	-887	-1755	1414	-2.67778	-9.730703	34.31688	0	9.53	4004	32	-306	7	16	0.88513	1.516568	5	10	0	200
445039	-2118	2138	1437	-4.880587	-9.372967	33.5733	0	10.49	4003	-97	287	17	9	0.8638828	1.553961	5	10	0	200
445167	-1678	-73	-935	-9.294407	-8.715387	33.52587	0	10.49	4003	109	308	6	8	0.8503364	1.671085	5	10	0	200
445290	-967	2389	1995	-10.65619	-10.36633	33.30942	0	10.49	4004	43	322	-6	6	0.866658	1.796796	5	10	0	200
445452	-170	-1758	-2060	-11.8733	-10.59844	34.20895	0	10.49	4003	44	218	-10	4	0.9819438	2.129627	5	10	0	200
445665	-641	3144	2378	-9.649277	-7.004692	33.99045	0	10.49	4004	17	-1	-12	1	1.046397	2.391273	5	10	0	200
445745	-898	280	-240	-10.79231	-8.019675	33.56303	0	10.49	4003	18	127	-10	0	1.035792	2.553385	5	10	0	200
445842	1173	-352	1682	-9.203938	-5.061079	34.11309	0	10.49	4004	-75	196	16	-2	0.9849732	2.773443	5	10	0	200
446013	386	-1274	-745	-5.943586	-4.457088	33.71159	0	9.98	4002	63	-280	-8	-9	0.8730879	3.008626	5	10	0	200
446050	444	-1307	-837	-5.916051	-4.506013	33.49221	0	9.98	4004	-75	66	31	-31	0.891526	3.13656	5	10	0	200
446150	1155	-2153	-1296	-4.404831	-3.94824	32.99597	0	9.98	4002	-82	-40	37	-7	0.9299898	3.3304	5	10	0	200
446260	621	-1027	1451	-3.574208	-0.7900957	33.23876	0	9.98	4002	-36	152	7	-8	0.8594105	3.416834	5	10	0	200
446418	-14	-3363	-2730	-2.897001	0.7010077	33.86293	0	9.98	4003	86	-346	-40	-18	0.9538443	3.625245	5	10	0	200
446473	-113	-1132	-216	-2.650928	1.864497	34.27601	0	9.98	4004	-36	206	2	-20	0.8735279	3.790848	5	10	0	200
446537	-423	-3857	-1004	-2.935406	2.474333	34.3786	0	9.98	4004	101	-382	-23	-21	0.8240816	3.845178	5	10	0	200
446664	276	-50	2167	-3.00888	5.411378	34.1495	0	9.98	4003	-12	223	3	-27	0.9119586	4.032198	5	10	0	200
446746	-591	2281	2511	-3.860584	4.064746	33.7612	0	9.98	4002	-153	190	27	-25	0.9757312	4.098348	5	10	0	200
446904	-2507	888	-1785	-9.758566	-3.422377	33.75353	0	10.26	4004	-3	-249	-11	-27	0.9330972	4.238335	5	10	0	200
446954	-1395	1945	369	-10.86119	-5.474215	33.64603	0	10.26	4003	32	75	-16	-32	0.9470779	4.361648	5	10	0	200
447103	171	-127	-987	-9.067192	-7.296278	33.86414	0	10.26	4002	62	37	-20	-31	0.9237022	4.4515	5	10	0	200
447184	1145	-3073	-899	-7.534564	-5.544846	34.34153	0	10.26	4004	26	-131	-33	-32	0.8378028	4.54697	5	10	0	200
447254	326	-1288	-510	-5.980939	-2.295065	34.22646	0	10.26	4004	0	43	-24	-35	0.8731595	4.692191	5	10	0	200
447362	1662	661	-344	-4.635559	-3.233079	33.84766	0	10.26	4003	-69	134	-13	-36	0.933287	4.778215	5	10	0	200
447462	2475	-271	-2345	-2.634144	-4.358176	34.23529	0	10.26	4004	21	-205	-49	-38	0.9536535	4.951363	5	10	0	200
447582	-2767	-2483	477	-2.522189	-5.053663	34.39298	0	10.26	4003	46	-121	-7	-40	1.06074	5.046372	5	10	0	200
447692	-602	-1100	551	-5.484293	-1.627992	33.91762	0	10.26	4004	-29	-158	-1	-43	1.0159	5.230164	5	10	0	200
447794	-829	-395	-439	-5.879357	-4.938288	34.13279	0	10.55	4003	56	-139	-13	-44	1.054351	5.305283	5	10	0	200
447872	-870	-399	304	-6.334944	-5.198741	34.22429	0	10.55	4004	-61	74	-13	-45	1.0365	5.368089	5	10	0	200
447976	-725	1480	-237	-6.358525	-5.711043	34.41746	0	10.55	4009	-16	-23	-10	-51	1.079271	5.449075	5	10	0	200
448099	-1831	-1094	367	-8.947544	-5.923876	33.96919	0	10.55	4003	-62	-34	-7	-48	1.154312	5.552728	5	10	0	200
448235	420	4502	144	-10.40515	-9.648598	33.75867	0	10.55	4004	-97	89	-1	-51	1.277375	5.633189	5	10	0	200
448332	-94	1722	-72	-9.422744	-14.08716	33.79065	0	10.55	4004	2	-65	-4	-50	1.151637	5.651507	5	10	0	200
448385	582	132	-52	-8.838696	-13.88754	33.91667	0	10.55	4004	10	-87	0	-50	1.155056	5.661779	5	10	0	200
448463	552	398	171	-7.703963	-13.28006	34.02384	0	10.55	4002	-54	-71	-7	-50	1.185587	5.669404	5	10	0	200
448568	1280	-1482	-288	-6.061788	-11.89589	34.14856	0	10.55	4003	36	-35	-12	-50	1.260484	5.672117	5	10	0	200
448662	192	-1990	-105	-4.696073	-6.752687	34.32281	0	10.66	4004	-63	-7	-17	-50	1.321419	5.666827	5	10	0	200
448765	1644	-129	-258	-3.360828	-5.342731	34.24886	0	10.66	4003	-51	-26	-10	-50	1.191972	5.65591	5	10	0	200
448892	-330	-663	231	-2.568295	-3.571423	33.97041	0	10.66	4004	-7	-68	-3	-48	1.215132	5.623975	5	10	0	200
448990	-776	-801	109	-3.218159	-2.56879	33.90539	0	10.66	4004	18	-64	3	-49	1.241771	5.575872	5	10	0	200
449114	-2169	-1266	170	-6.627946	0.4991857	34.02097	0	10.66	4002	-68	-49	-11	-48	1.275576	5.488526	5	10	0	200
449230	-26	2	-1002	-7.991566	1.20246	34.20293	0	10.66	4003	52	-27	-23	-44	1.282289	5.293354	5	10	0	200
449287	694	1105	-700	-7.048656	0.5615264	34.91761	0	10.66	4003	-39	-12	-27	-44	1.273722	5.247052	5	10	0	200
449447	-847	1025	238	-5.177662	-1.088005	35.96329	0	10.66	4002	22	-123	-47	-42	1.168835	5.146206	5	10	0	200
449594	817	6768	796	-4.415898	-9.195887	34.24907	0	10.66	4004	-11	61	19	-40	1.170646	5.065709	5	10	0	200
449645	1096	3664	-56	-2.177483	-13.78446	33.01841	0	10.55	4003	-43	42	19	-38	1.151165	4.915738	5	10	0	200
449758	1658	-1982	-764	-2.414201	-12.6618	33.68682	0	10.55	4002	-140	129	0	-35	1.103316	4.706935	5	10	0	200
449825	3119	2204	336	0.5527963	-12.55349	33.55175	0	10.55	4004	-113	213	-2	-34	1.137161	4.67585	5	10	0	200
449915	790	-768	-48	2.883281	-12.24845	33.47415	0	10.55	4003	39	-89	2	-33	1.194144	4.593617	5	10	0	200
450004	-2122	1297	70	0.3230655	-8.441947	33.94413	0	10.55	4002	103	-37	-5	0	1.166121	4.512739	3	10	0	200
450120	-1268	-1372	-815	-3.812654	-9.45151	34.11374	0	10.55	4004	1	-4	-23	0	1.140198	4.196862	3	10	0	200
450225	3523	3104	597	0.237594	-8.068754	34.85876	0	10.55	4003	0	148	-35	0	1.126795	3.872744	3	10	0	200
450312	2008	3144	1854	1.187487	-10.23778	33.53959	0	10.55	4003	-50	134	15	0	1.123189	3.854233	3	10	0	200
450403	-739	-738	-179	1.769348	-10.25597	32.5906	0	10.55	4003	9	56	40	0	1.11203	3.382854	3	10	0	200
450508	253	-1010	-626	0.3479644	-9.510243	32.99632	0	10.55	4003	68	-5	24	0	1.10626	2.921343	3	10	0	200
450634	606	-1150	-415	-0.9486883	-5.900624	33.37349	0	9.13	4003	36	-20	8	0	1.100923	2.424772	3	10	0	200
450814	-858	-389	-15	-1.714981	-4.089774	33.30817	0	9.13	4003	-20	-11	16	0	1.096753	1.937043	3	10	0	200
450869	-99	-1340	-1057	-1.722285	-3.569265	33.46308	0	9.13	4004	-76	32	27	0	1.09561	1.881021	3	10	0	200
450933	-1048	-1138	-385	-2.509952	-1.649114	33.67264	0	9.13	4003	63	46	18	0	1.094685	1.721471	3	10	0	200
451025	-2474	-2114	-1091	-4.075482	-0.5656904	33.80002	0	9.13	4003	48	-157	-8	0	1.093616	1.545263	3	10	0	200
451143	-1514	-1501	-1805	-10.15711	1.453664	34.20449	0	9.13	4002	43	284	-2	0	1.092836	1.485017	3	10	0	200
451225	-1592	1567	-1163	-11.15263	-0.976962	34.04089	0	9.13	4003	65	-80	-11	0	1.092438	1.433912	3	10	0	200
451332	2665	-215	-881	-9.232755	-1.062647	34.4295	0	9.13	4002	-11	-221	-25	0	1.091978	1.359013	3	10	0	200
451477	753	-121	701	-5.35679	-0.474813	34.25074	0	10.26	4003	-31	67	5	0	1.091552	1.293758	3	10	0	200
451546	1125	-410	-2227	-4.891662	-0.7540811	34.54794	0	10.26	4003	17	-272	-26	0	1.091398	1.267961	3	10	0	200
451640	572	-1129	-1	-3.919236	-2.605405	34.36918	0	10.26	4004	38	-140	-7	0	1.09122	1.248475	3	10	0	200
451774	1033	-3687	308	-1.156969	3.104891	34.81624	0	10.26	4002	-72	-19	-24	0	1.091055	1.234756	3	10	0	200
451879	-87	-1905	440	-0.9618552	5.847878	34.53806	0	10.26	4004	-57	23	-5	0	1.090969	1.241734	3	10	0	200
452008	257	-3567	-269	-1.084315	9.835976	34.48098	0	10.26	4004	-98	63	-8	0	1.090876	1.269454	3	10	0	200
452099	1338	-1117	-746	0.2243355	11.3856	34.53473	0	10.26	4003	-38	11	-13	0	1.09085	1.281178	3	10	0	200
452167	-232	-1842	-6	0.4727709	11.74162	34.43564	0	10.26	4004	7	-53	-5	0	1.090829	1.298789	3	10	0	200
452276	90	-1982	-975	-0.6494478	13.37184	34.48814	0	10.26	4003	-48	66	-10	0	1.090798	1.333214	3	10	0	200
452410	407	-857	400	-0.2193953	11.17518	34.53468	0	10.66	4003	-65	-35	-11	0	1.090778	1.361013	3	10	0	200
452502	898	-1516	-618	0.1651704	10.87572	34.78971	0	10.66	4004	40	-146	-23	0	1.090768	1.381963	3	10	0	200
452551	-351	922	-1046	0.7808863	8.887555	35.02142	0	10.66	4003	62	-36	-36	0	1.090765	1.383529	3	10	0	200
452634	-47	841	-863	-0.4198774	6.565855	35.17514	0	10.66	4003	-36	43	-33	0	1.09076	1.382953	3	10	0	200
452737	-152	2460	1396	-0.8622444	2.218223	34.51074	0	10.66	4004	-6	-31	14	0	1.090755	1.370153	3	10	0	200
452998	-3207	2729	1268	-3.858944	-4.149453	33.38973	0	10.66	4003	-86	207	15	0	1.090746	1.260451	3	10	0	200
453127	-2130	2575	-608	-8.63055	-6.38585	34.3628	0	10.66	4002	4	108	-19	0	1.090744	1.153018	3	10	0	200
453197	654	-1929	-678	-8.251534	-5.768141	35.68851	0	10.66	4003	-62	174	-53	0	1.090743	1.055232	3	10	0	200
453251	654	-1929	-678	-8.251534	-5.768141	35.68851	0	10.66	4003	-14	-26	-40	0	1.090742	1.022969	3	10	0	200
453351	16	1838	27	-8.834688	-6.185534	35.20094	0	10.83	4003	-76	63	-24	0	1.090742	0.955957	3	10	0	200
453453	652	48	603	-7.442868	-6.187756	34.47802	0	10.83	4004	32	-100	-4	0	1.090742	0.8624765	3	10	0	200
453591	360	5603	-31	-3.230656	-11.03058	33.56734	0	10.83	4003	-52	99	23	0	1.090741	0.7746956	3	10	0	200
453681	-368	4130	-749	-3.2924	-16.78624	33.48319	0	10.83	4003	82	-30	17	0	1.090741	0.7317331	3	10	0	200
453808	647	3852	-443	-3.571168	-20.40454	34.4941	0	10.83	4003	-54	-10	-16	0	1.09074	0.6577464	3	10	0	200
453863	262	4217	-233	-3.064781	-21.45605	34.6585	0	10.83	4004	48	-24	-17	0	1.09074	0.6195778	3	10	0	200
453940	-1299	5310	-498	-4.127884	-25.75618	34.61176	0	10.83	4002	50	7	-8	0	1.09074	0.5960327	3	10	0	200
454100	-300	1866	-481	-3.729799	-30.26357	35.14423	0	10.83	4004	-3	-38	-5	0	1.09074	0.539614	3	10	0	200
454147	-300	1866	-481	-3.729799	-30.26357	35.14423	0	10.83	4004	-100	392	6	0	1.09074	0.5100923	3	10	0	200
454261	898	-1340	-450	-2.555466	-32.90356	33.81809	0	10.21	4003	93	16	3	0	1.09074	0.4766708	3	10	0	200
454358	937	-5692	-1570	-1.065191	-19.55352	35.37568	0	10.21	4003	-13	43	-20	0	1.09074	0.4263899	3	10	0	200
454476	250	-5546	4	-1.226156	-8.062499	35.63884	0	10.21	4004	42	-18	-58	0	1.09074	0.3732302	3	10	0	200
454602	186	-7517	-1567	0.1622427	4.50487	34.51583	0	10.21	4003	7	-378	1	0	1.09074	0.2828942	3	10	0	200
454687	1290	1052	999	-0.007469705	6.817304	33.61955	0	10.21	4003	-70	332	24	0	1.09074	0.250531	3	10	0	200
454764	-221	-1445	-286	-0.3260285	5.430706	33.53916	0	10.21	4003	21	116	34	0	1.09074	0.2111135	3	10	0	200
454953	-3401	693	-626	-3.926884	-0.8654879	34.29931	0	10.21	4004	77	-287	-19	0	1.09074	0.1656967	3	10	0	200
454972	-3401	693	-626	-3.926884	-0.8654879	34.29931	0	10.21	4004	76	-247	-12	0	1.09074	0.1639509	3	10	0	200
455060	-3538	2420	608	-7.679825	-2.025882	35.03089	0	10.21	4002	-23	98	-38	0	1.09074	0.1679858	3	10	0	200
455169	-275	399	111	-11.76622	-4.177047	35.19345	0	10.43	4003	-2	85	-20	0	1.09074	0.1715964	3	10	0	200
455288	2487	-2167	-637	-9.128326	-2.253585	34.37213	0	10.43	4004	42	-187	-12	0	1.09074	0.1734154	3	10	0	200
