time(ms)	gyro_x(deg/s)	gyro_y(deg/s)	gyro_z(deg/s)	orientation_roll(deg)	orientation_pitch(deg)	orientation_yaw(deg)	throttle	battery(V)	loop_time(uS)	pid_output_roll	pid_output_pitch	pid_output_yaw	pid_output_throttle	ultrasonic_alt	baro_alt	flight_mode	p_gain_altitude	i_gain_altitude	d_gain_altitude
31254	54	-6	0	0.5970052	-0.07681093	0.297379	0	12.53	4003	0	0	0	0	0.02	-0.05055462	1	15	0	1200
31326	54	-6	0	0.5970052	-0.07681093	0.297379	0	12.53	4003	0	0	0	0	0.02	-0.05055462	1	15	0	1200
31480	54	-6	0	0.5970052	-0.07681093	0.297379	0	12.53	4003	0	0	0	0	0.02	-0.05055462	1	15	0	1200
31534	54	-6	0	0.5970052	-0.07681093	0.297379	0	12.53	4003	0	0	0	0	0.02	-0.05055462	1	15	0	1200
31681	54	-6	0	0.5970052	-0.07681093	0.297379	0	12.53	4003	0	0	0	0	0.02	-0.05055462	1	15	0	1200
31744	54	-6	0	0.5970052	-0.07681093	0.297379	0	12.53	4003	0	0	0	0	0.02	-0.05055462	1	15	0	1200
31873	54	-6	0	0.5970052	-0.07681093	0.297379	0	12.53	4003	0	0	0	0	0.02	-0.05055462	1	15	0	1200
31943	54	-6	0	0.5970052	-0.07681093	0.297379	0	12.53	4003	0	0	0	0	0.02	-0.05055462	1	15	0	1200
32103	54	-6	0	0.5970052	-0.07681093	0.297379	0	12.48	4003	0	0	0	0	0.02	-0.05055462	1	15	0	1200
32210	54	-6	0	0.5970052	-0.07681093	0.297379	0	12.48	4003	0	0	0	0	0.02	-0.05055462	1	15	0	1200
32306	54	-6	0	0.5970052	-0.07681093	0.297379	0	12.48	4003	0	0	0	0	0.02	-0.05055462	1	15	0	1200
32365	54	-6	0	0.5970052	-0.07681093	0.297379	0	12.48	4003	0	0	0	0	0.02	-0.05055462	1	15	0	1200
32463	54	-6	0	0.5970052	-0.07681093	0.297379	0	12.48	4003	0	0	0	0	0.02	-0.05055462	1	15	0	1200
32573	54	-6	0	0.5970052	-0.07681093	0.297379	0	12.48	4003	0	0	0	0	0.02	-0.05055462	1	15	0	1200
32698	54	-6	0	0.5970052	-0.07681093	0.297379	0	12.48	4003	0	0	0	0	0.02	-0.05055462	1	15	0	1200
32785	54	-6	0	0.5970052	-0.07681093	0.297379	0	12.48	4003	0	0	0	0	0.02	-0.05055462	1	15	0	1200
32886	54	-6	0	0.5970052	-0.07681093	0.297379	0	12.48	4003	0	0	0	0	0.02	-0.05055462	1	15	0	1200
33021	54	-6	0	0.5970052	-0.07681093	0.297379	0	12.59	4003	0	0	0	0	0.02	-0.05055462	1	15	0	1200
33099	54	-6	0	0.5970052	-0.07681093	0.297379	0	12.59	4003	0	0	0	0	0.02	-0.05055462	1	15	0	1200
33240	54	-6	0	0.5970052	-0.07681093	0.297379	0	12.59	4003	0	0	0	0	0.02	-0.05055462	1	15	0	1200
33336	54	-6	0	0.5970052	-0.07681093	0.297379	0	12.59	4003	0	0	0	0	0.02	-0.05055462	1	15	0	1200
33380	54	-6	0	0.5970052	-0.07681093	0.297379	0	12.59	4003	0	0	0	0	0.02	-0.05055462	1	15	0	1200
33462	54	-6	0	0.5970052	-0.07681093	0.297379	0	12.59	4003	0	0	0	0	0.02	-0.05055462	1	15	0	1200
33606	54	-6	0	0.5970052	-0.07681093	0.297379	0	12.59	4003	0	0	0	0	0.02	-0.05055462	1	15	0	1200
33686	54	-6	0	0.5970052	-0.07681093	0.297379	0	12.59	4003	0	0	0	0	0.02	-0.05055462	1	15	0	1200
33769	54	-6	0	0.5970052	-0.07681093	0.297379	0	12.59	4003	0	0	0	0	0.02	-0.05055462	1	15	0	1200
33874	54	-6	0	0.5970052	-0.07681093	0.297379	0	12.59	4003	0	0	0	0	0.02	-0.05055462	1	15	0	1200
33999	54	-6	0	0.5970052	-0.07681093	0.297379	0	12.59	4003	0	0	0	0	0.02	-0.05055462	1	15	0	1200
34111	54	-6	0	0.5970052	-0.07681093	0.297379	0	12.59	4003	0	0	0	0	0.02	-0.05055462	1	15	0	1200
34260	54	-6	0	0.5970052	-0.07681093	0.297379	0	12.59	4003	0	0	0	0	0.02	-0.05055462	1	15	0	1200
34339	54	-6	0	0.5970052	-0.07681093	0.297379	0	12.59	4003	0	0	0	0	0.02	-0.05055462	1	15	0	1200
34383	54	-6	0	0.5970052	-0.07681093	0.297379	0	12.59	4003	0	0	0	0	0.02	-0.05055462	1	15	0	1200
34522	54	-6	0	0.5970052	-0.07681093	0.297379	0	12.59	4003	0	0	0	0	0.02	-0.05055462	1	15	0	1200
34593	54	-6	0	0.5970052	-0.07681093	0.297379	0	12.59	4003	0	0	0	0	0.02	-0.05055462	1	15	0	1200
34697	54	-6	0	0.5970052	-0.07681093	0.297379	0	12.59	4003	0	0	0	0	0.02	-0.05055462	1	15	0	1200
34794	54	-6	0	0.5970052	-0.07681093	0.297379	0	12.59	4003	0	0	0	0	0.02	-0.05055462	1	15	0	1200
34911	54	-6	0	0.5970052	-0.07681093	0.297379	0	12.59	4003	0	0	0	0	0.02	-0.05055462	1	15	0	1200
35035	54	-6	0	0.5970052	-0.07681093	0.297379	0	12.59	4003	0	0	0	0	0.02	-0.05055462	1	15	0	1200
35123	54	-6	0	0.5970052	-0.07681093	0.297379	0	12.59	4003	0	0	0	0	0.02	-0.05055462	1	15	0	1200
35189	54	-6	0	0.5970052	-0.07681093	0.297379	0	12.59	4003	0	0	0	0	0.02	-0.05055462	1	15	0	1200
35330	54	-6	0	0.5970052	-0.07681093	0.297379	0	12.59	4003	0	0	0	0	0.02	-0.05055462	1	15	0	1200
35469	5	0	0	1.946841	-0.004382927	0.137871	0	12.59	4003	0	0	0	0	0.02	-0.0485572	1	15	0	1200
35548	14	-1	-1	1.721711	-0.007354196	0.1395216	0	12.59	4003	0	0	0	0	0.02	-0.02153668	1	15	0	1200
35601	18	1	-1	1.655547	-0.01051847	0.1401943	0	12.59	4002	0	0	0	0	0.02	-0.002028213	1	15	0	1200
35732	11	5	0	1.405323	-0.01106969	0.1412337	0	12.59	4004	0	0	0	0	0.02	0.01704494	1	15	0	1200
35884	13	2	-4	1.161059	-0.02217888	0.1431903	0	12.59	4004	0	0	0	0	0.02	0.03293443	1	15	0	1200
36003	18	-6	1	0.9838788	-0.0166838	0.1453915	0	12.59	4003	0	0	0	0	0.02	0.03211581	1	15	0	1200
36062	17	-5	-4	0.9471045	-0.01671971	0.1457583	0	12.59	4003	0	0	0	0	0.02	0.03032295	1	15	0	1200
36155	3	0	-1	0.8530238	-0.02084514	0.1475311	0	12.59	4002	0	0	0	0	0.02	0.03254945	1	15	0	1200
36210	20	1	-4	0.7942232	-0.02257935	0.1494875	0	12.59	4004	0	0	0	0	0.02	0.03592639	1	15	0	1200
36312	17	-8	0	0.716527	-0.01838936	0.1500988	0	12.59	4003	0	0	0	0	0.02	0.03206884	1	15	0	1200
36425	12	3	-2	0.6614321	-0.01958782	0.1500989	0	12.59	4002	0	0	0	0	0.02	0.02773778	1	15	0	1200
36644	18	-5	-1	0.5518822	-0.02014397	0.1523609	0	12.59	4004	0	0	0	0	0.02	0.0255372	1	15	0	1200
36840	18	-4	0	0.4531022	-0.02032503	0.1562738	0	12.48	4004	0	0	0	0	0.02	0.00712163	1	15	0	1200
36999	2	-5	3	0.4098456	-0.02177412	0.1581079	0	12.48	4003	0	0	0	0	0.02	0.01545157	1	15	0	1200
37052	16	1	-2	0.3940957	-0.02214497	0.1584137	0	12.48	4003	0	0	0	0	0.02	0.01632684	1	15	0	1200
37122	18	0	-1	0.3735	-0.01832548	0.1593924	0	12.48	4004	0	0	0	0	0.02	0.01504707	1	15	0	1200
37240	16	-2	2	0.3576458	-0.0202972	0.1618377	0	12.48	4004	0	0	0	0	0.02	0.008792484	1	15	0	1200
37335	27	0	-5	0.3384139	-0.02107025	0.1638554	0	12.48	4003	0	0	0	0	0.02	0.004592396	1	15	0	1200
37424	21	6	-5	0.3345562	-0.02631613	0.1670346	0	12.48	4003	0	0	0	0	0.02	0.007380806	1	15	0	1200
37538	5	0	-3	0.3194237	-0.03285123	0.1677681	0	12.48	4002	0	0	0	0	0.02	0.02311596	3	15	0	1200
37704	20	-2	-1	0.2976643	-0.02943265	0.171008	0	12.48	4002	0	0	0	0	0.02	0.03105689	3	15	0	1200
37823	14	0	0	0.2898939	-0.03016131	0.1760214	0	12.48	4004	0	0	0	0	0.02	0.03697819	3	15	0	1200
37857	20	0	-1	0.2845419	-0.02793016	0.1763272	0	12.48	4002	0	0	0	0	0.02	0.03636598	3	15	0	1200
37939	18	-4	0	0.2831083	-0.03259471	0.178039	0	12.48	4003	0	0	0	0	0.02	0.03487939	3	15	0	1200
38032	10	-6	0	0.269207	-0.03196324	0.1802399	0	12.48	4002	0	0	0	0	0.02	0.03561162	3	15	0	1200
38165	16	-3	0	0.2633633	-0.02928814	0.1814626	0	12.48	4004	0	0	0	0	0.02	0.03586685	3	15	0	1200
38240	15	1	-1	0.2674753	-0.03426836	0.1851311	0	12.48	4003	0	0	0	0	0.02	0.03068396	3	15	0	1200
38344	16	-4	-1	0.2576869	-0.03402834	0.1873323	0	12.48	4003	0	0	0	0	0.02	0.01047819	3	15	0	1200
38508	17	-4	-1	0.250585	-0.02460111	0.1917957	0	12.48	4002	0	0	0	0	0.02	0.003853676	3	15	0	1200
38653	24	1	-3	0.2455771	-0.02480053	0.1960756	0	12.65	4004	0	0	0	0	0.02	-0.004970638	3	15	0	1200
38747	14	0	0	0.2395078	-0.02408021	0.1976649	0	12.65	4003	0	0	0	0	0.02	-0.01844724	3	15	0	1200
38861	15	6	0	0.2285241	-0.0161969	0.1987661	0	12.65	4004	0	0	0	0	0.02	-0.03254777	3	15	0	1200
38975	18	-1	0	0.2332879	-0.02125707	0.2016398	0	12.65	4002	0	0	0	0	0.02	-0.03485985	3	15	0	1200
39071	18	-8	-3	0.2409274	-0.014852	0.2056139	0	12.65	4003	0	0	0	0	0.02	-0.03101891	3	15	0	1200
39172	13	0	0	0.2311525	-0.01370851	0.208426	0	12.65	4004	0	0	0	0	0.02	-0.03149534	3	15	0	1200
39293	21	-8	-2	0.2409021	-0.01492012	0.209282	0	12.65	4003	0	0	0	0	0.02	-0.04151894	3	15	0	1200
39390	23	0	-2	0.2333509	-0.01738597	0.2114221	0	12.65	4004	0	0	0	0	0.02	-0.04829954	3	15	0	1200
39466	24	3	-5	0.2361075	-0.02233257	0.2135617	0	12.65	4004	0	0	0	0	0.02	-0.05451794	3	15	0	1200
39570	22	-5	0	0.2409495	-0.02426124	0.215518	0	12.48	4003	0	0	0	0	0.02	-0.06671094	3	15	0	1200
39709	16	-5	-2	0.2411874	-0.03481731	0.2206537	0	12.48	4003	0	0	0	0	0.02	-0.06491909	3	15	0	1200
39793	23	0	0	0.2430723	-0.02927694	0.2229769	0	12.48	4002	0	0	0	0	0.02	-0.05419861	3	15	0	1200
39899	14	3	-3	0.2396285	-0.03185624	0.2260952	0	12.48	4004	0	0	0	0	0.02	-0.04266834	3	15	0	1200
39997	23	-2	0	0.2416591	-0.03162057	0.2275625	0	12.48	4002	0	0	0	0	0.03555549	-0.0343059	5	15	0	1200
40091	23	-3	-2	0.2478693	-0.03534285	0.2303747	0	12.48	4004	0	0	0	0	0.04722933	-0.02661503	5	15	0	1200
40234	34	-2	-3	0.2564494	-0.03642512	0.2357552	0	12.48	4003	0	0	0	0	0.06930099	-0.007446449	5	15	0	1200
40280	24	-1	-1	0.2611606	-0.03132658	0.2385679	0	12.48	4003	0	0	0	0	0.0725237	0.001062225	5	15	0	1200
40430	25	1	-2	0.2592968	-0.02925393	0.2413803	0	12.48	4004	0	0	0	0	0.08249827	0.02760807	5	15	0	1200
40530	21	-1	-3	0.2618091	-0.0267485	0.2449259	0	12.59	4002	0	0	0	0	0.08988621	0.02889681	5	15	0	1200
40585	23	-3	-7	0.26671	-0.02425869	0.2467604	0	12.59	4003	0	0	0	0	0.09366223	0.02441262	3	15	0	1200
40690	18	0	-1	0.2632402	-0.02421433	0.2490222	0	12.59	4003	0	0	0	0	0.09802473	0.006421714	3	15	0	1200
40866	25	-2	-3	0.278717	-0.02824703	0.252385	0	12.59	4003	0	0	0	0	0.1028304	-0.001674767	3	15	0	1200
40906	21	-4	4	0.2794802	-0.02792493	0.2548916	0	12.59	4002	0	0	0	0	0.1035234	-0.001283749	3	15	0	1200
41000	16	2	-5	0.2701131	-0.02844764	0.2575816	0	12.59	4003	0	0	0	0	0.1052135	1.384563E-05	3	15	0	1200
41110	20	-2	0	0.2754152	-0.03284067	0.2604559	0	12.59	4004	0	0	0	0	0.1067771	-0.005459832	3	15	0	1200
41206	23	-4	-3	0.2807847	-0.03556858	0.2632684	0	12.59	4004	0	0	0	0	0.1073438	-0.005393228	3	15	0	1200
41305	17	-2	-4	0.2747727	-0.0311573	0.2677926	0	12.59	4003	0	0	0	0	0.1079986	-0.003975003	3	15	0	1200
41460	15	1	0	0.2699727	-0.03652358	0.2722568	0	12.53	4002	0	0	0	0	0.1087199	-0.01383762	3	15	0	1200
41509	38	-18	-12	0.2771308	-0.03789961	0.2842996	0	12.53	4003	-2	-2	-1	0	0.1088239	-0.01513063	3	15	0	1200
41615	33	30	32	0.2797821	-0.03450051	0.281615	0	12.53	4002	-3	2	0	0	0.1090776	-0.01581628	3	15	0	1200
41717	43	27	51	0.2703559	-0.02139429	0.2800825	0	12.53	4003	-2	5	-1	0	0.1092625	-0.01608285	3	15	0	1200
41848	63	-8	-98	0.2861162	-0.01441168	0.3038151	0	12.53	4003	-3	-3	0	0	0.1094336	-0.01030929	3	15	0	1200
41933	74	27	-14	0.3062691	-0.03465145	0.3015562	0	12.53	4004	-15	4	0	0	0.1095221	-0.001648971	3	15	0	1200
42054	38	28	-109	0.3074204	-0.04480318	0.3021076	0	12.53	4004	-9	2	0	0	0.1095866	0.01042602	3	15	0	1200
42130	-19	-40	-28	0.2853294	-0.03061314	0.3166586	0	12.53	4003	0	0	0	0	0.1096336	0.01724513	3	15	0	1200
42234	-17	-20	7	0.2906736	-0.01167285	0.3173967	0	12.53	4003	0	0	0	0	0.1096576	0.02533088	3	15	0	1200
42311	10	15	27	0.292801	-0.02781194	0.3104874	0	12.53	4003	0	0	0	0	0.1096853	0.04189144	3	15	0	1200
42451	-9	19	-16	0.2915669	-0.02182305	0.3165441	0	12.53	4002	-3	7	0	0	0.109711	0.04543439	3	15	0	1200
42525	43	13	-34	0.2792667	-0.01915393	0.3132342	0	12.53	4004	0	1	1	0	0.1097203	0.0450181	3	15	0	1200
42624	116	24	-72	0.3112925	-0.04283652	0.3226461	0	12.53	4002	0	-2	0	0	0.1097311	0.04277449	3	15	0	1200
42729	-146	-210	114	0.2973498	-0.03097104	0.3208736	0	12.53	4003	45	-42	2	0	0.1097389	0.04141191	3	15	0	1200
42860	282	129	-162	0.3796461	-0.06932307	0.3340246	0	12.53	4003	17	-4	0	0	0.1097462	0.04756951	3	15	0	1200
42936	150	-30	-26	0.4032915	-0.06171495	0.3276721	0	12.53	4002	57	0	-2	0	0.1097488	0.04414356	3	15	0	1200
43086	108	-59	-17	0.4431764	-0.07043742	0.3267722	0	12.53	4002	-9	0	1	0	0.1097534	0.03694136	3	15	0	1200
43183	81	-131	134	0.4544539	-0.0677758	0.3272027	0	12.53	4004	-9	13	-1	0	0.1097552	0.02965943	3	15	0	1200
43371	103	-46	-96	0.5046121	-0.05799103	0.3597224	0	12.53	4003	-37	-30	0	0	0.1097574	0.03722484	3	15	0	1200
43503	-81	39	106	0.444966	-0.09551304	0.3362452	0	12.53	4003	29	6	-2	0	0.1097583	0.04920574	3	15	0	1200
43554	-43	-28	24	0.4739943	-0.07305998	0.3075021	0	12.53	4004	-8	25	1	0	0.1097585	0.05362405	3	15	0	1200
43642	-245	-38	-358	0.2972651	0.03343109	0.3253919	0	12.53	4003	-44	11	1	0	0.1097589	0.05941945	3	15	0	1200
43757	96	-351	208	0.2133543	0.1657734	0.3362662	0	12.53	4003	-36	-9	-7	0	0.1097592	0.07736214	3	15	0	1200
43844	1044	-740	920	0.3621537	1.445504	0.3776977	0	12.53	4004	-112	132	6	0	0.1097594	0.09061807	3	15	0	1200
44017	1084	4286	774	-0.1458722	-6.322807	0.3915759	0	12.53	4002	-83	312	11	0	0.1097596	0.1301151	3	15	0	1200
44083	-1120	3070	-341	-0.144106	-9.543647	0.4024636	0	12.53	4003	-20	400	21	0	0.1097597	0.1558072	3	15	0	1200
44147	-2688	-723	-1679	-1.927729	-12.76354	-0.08783671	0	12.53	4002	60	-208	12	0	0.1097598	0.1812213	3	15	0	1200
44302	627	1053	1364	-2.164129	-7.153676	1.163048	0	12.31	4003	-39	242	0	0	0.1097599	0.2425998	3	15	0	1200
44372	-232	-1615	430	-2.346123	-6.801096	0.4343649	0	12.31	4004	-31	-59	5	0	0.1097599	0.2893988	3	15	0	1200
44533	756	-1263	-106	-0.0379199	-0.1248632	0.3748766	0	12.31	4004	18	-72	-9	0	0.1097599	0.348713	3	15	0	1200
44620	3345	616	-125	1.456899	-0.2802022	0.7635409	0	12.31	4002	-51	13	-21	0	0.1097599	0.3884053	3	15	0	1200
44696	2611	-1230	603	6.771202	-0.5173215	0.7536839	0	12.31	4002	-41	-38	-12	0	0.10976	0.4230111	3	15	0	1200
44743	1409	-1026	-379	7.342103	-0.03531526	0.6062	0	12.31	4002	28	-50	-10	0	0.10976	0.4540817	3	15	0	1200
44925	-1295	727	655	3.39372	-2.084491	-0.2029562	0	12.31	4002	-71	-41	18	0	0.10976	0.5323583	3	15	0	1200
44990	-305	2174	-87	1.020696	-5.829913	0.2374826	0	12.31	4002	2	-65	-1	0	0.10976	0.5393413	3	15	0	1200
45103	-922	1875	243	0.2673105	-10.19949	0.5721889	0	12.14	4003	-7	-72	-3	0	0.10976	0.5476362	3	15	0	1200
45190	-1027	1194	-818	-1.27043	-12.3753	0.1174206	0	12.14	4003	-34	-222	-5	0	0.10976	0.5521504	3	15	0	1200
45283	3	4442	1376	-1.066168	-16.41191	-0.752664	0	12.14	4003	24	137	34	0	0.10976	0.5564545	3	15	0	1200
45344	903	2253	2501	-0.6758674	-17.37817	-0.9105872	0	12.14	4004	-18	-121	31	0	0.10976	0.5614892	3	15	0	1200
45444	587	-2369	-2032	-2.215566	-14.4078	-0.1988343	0	12.14	4003	-33	171	11	0	0.10976	0.5591249	3	15	0	1200
45547	-1155	-3203	846	-1.666776	-8.6722	-0.0451102	0	12.14	4002	64	-127	10	0	0.10976	0.5589814	3	15	0	1200
45650	1513	-2469	-1452	0.2700031	-3.552605	0.7455499	0	12.14	4003	-33	143	-3	0	0.10976	0.5561956	3	15	0	1200
45789	53	-838	1913	-0.5251455	-1.340123	-0.01954674	0	12.14	4003	-74	-231	-4	0	0.10976	0.5567254	3	15	0	1200
45858	38	-1945	80	-0.4053616	-0.5409626	0.1354649	0	12.14	4002	-129	107	18	0	0.10976	0.5544931	3	15	0	1200
45967	726	1980	-929	-0.09719062	-0.8467031	0.3724121	0	12.14	4004	-36	-3	-8	0	0.10976	0.5471012	3	15	0	1200
46072	340	-1378	-120	1.085449	-2.543094	0.744219	0	10.55	4003	-16	57	7	0	0.10976	0.5276556	3	15	0	1200
46215	-814	254	580	-0.2902821	-1.094916	-0.5546747	0	10.55	4003	65	-105	22	0	0.10976	0.4944381	3	15	0	1200
46277	-691	-157	355	-0.48318	-1.258822	-0.7270368	0	10.55	4003	116	-57	22	0	0.10976	0.484541	3	15	0	1200
46362	-126	-858	-1576	0.05881615	-1.413098	-0.05263855	0	10.55	4004	37	11	12	0	0.10976	0.479485	3	15	0	1200
46531	12	4194	1287	-0.9195926	-7.38875	0.2969776	0	10.55	4002	-19	-158	4	0	0.10976	0.4915316	3	15	0	1200
46571	197	1290	-1428	-0.8992317	-8.964135	0.4607365	0	10.55	4002	-36	362	4	0	0.10976	0.5000188	3	15	0	1200
46742	-439	392	-672	-1.515441	-8.386328	0.3793291	0	10.55	4004	-86	181	19	0	0.10976	0.5550194	3	15	0	1200
46795	484	2162	1435	-1.214538	-8.714223	0.227377	0	10.55	4002	-39	157	17	0	0.10976	0.5736607	3	15	0	1200
46968	-2679	-2651	-894	-1.139157	-8.59236	-0.2511621	0	10.55	4004	134	-289	1	0	0.10976	0.5994412	3	15	0	1200
47050	1719	-2003	-1358	-0.7418141	-6.77574	0.1480692	0	11.34	4003	-58	148	4	0	0.10976	0.6385888	3	15	0	1200
47249	-198	2493	2217	0.6064225	-6.413249	0.1226034	0	11.34	4004	83	77	-2	0	0.10976	0.7275938	3	15	0	1200
47357	-307	-3516	78	1.006923	-4.803534	-0.09553112	0	11.34	4002	-99	131	25	0	0.10976	0.8032909	3	15	0	1200
47380	-803	-1844	676	0.7517141	-3.608262	0.1301764	0	11.34	4003	80	-27	-18	0	0.10976	0.8176121	3	15	0	1200
47528	-642	720	163	1.236538	-4.239443	0.4045148	0	11.34	4002	72	96	-12	0	0.10976	0.9356648	3	15	0	1200
47671	761	1673	-729	1.529631	-5.042614	0.1750132	0	11.34	4003	-112	-116	3	0	0.10976	1.032895	3	15	0	1200
47710	452	335	613	2.105704	-6.589838	0.1345808	0	11.34	4003	-146	119	15	0	0.10976	1.049656	3	15	0	1200
47795	95	-1212	986	2.000954	-4.577897	0.7610766	0	11.34	4002	56	86	-13	0	0.10976	1.098851	3	15	0	1200
47885	402	-433	-84	0.5480191	-3.873777	0.8780893	0	12.36	4002	-50	84	-16	0	0.10976	1.162191	3	15	0	1200
47989	639	-2318	606	0.7777781	-0.8336634	0.8692312	0	12.36	4003	-32	-35	-18	0	0.10976	1.229481	3	15	0	1200
48097	179	-860	232	0.7280445	2.431862	0.7132922	0	12.36	4004	12	-78	-10	0	0.10976	1.281433	3	15	0	1200
48232	-290	-634	-251	0.06855009	1.968315	0.3481092	0	12.36	4003	68	-106	10	0	0.10976	1.343786	3	15	0	1200
48354	629	489	-923	-0.2661685	1.349656	0.4829055	0	12.36	4004	-8	46	-8	0	0.10976	1.393565	3	15	0	1200
48468	284	-720	432	-0.9908795	0.4297201	0.5586783	0	12.36	4003	-15	-3	-11	0	0.10976	1.445878	3	15	0	1200
48492	284	-720	432	-0.9908795	0.4297201	0.5586783	0	12.36	4003	7	-97	-3	0	0.10976	1.452479	3	15	0	1200
48607	549	507	422	-0.6591396	0.4323718	0.5317434	0	12.36	4002	-75	50	-11	0	0.10976	1.472896	3	15	0	1200
48703	-278	191	41	-0.3992619	-0.2411661	0.5333216	0	12.36	4004	20	-75	1	0	0.10976	1.474105	3	15	0	1200
48863	-839	982	-311	-1.295708	-1.815017	0.292338	0	11.68	4003	-11	76	-6	0	0.10976	1.46089	3	15	0	1200
48918	188	418	185	-2.058291	-3.320448	0.5136099	0	11.68	4004	9	-58	-4	0	0.10976	1.457403	3	15	0	1200
49014	959	3448	1135	-1.52743	-4.994983	0.9612684	0	11.68	4002	-76	98	-1	0	0.10976	1.432149	3	15	0	1200
49143	211	2780	-646	-1.312738	-10.78625	0.9641929	0	11.68	4003	-53	213	-18	0	0.10976	1.401014	3	15	0	1200
49243	-855	2104	-202	-1.929834	-13.13048	1.220451	0	11.68	4003	-66	158	-23	0	0.10976	1.366228	3	15	0	1200
49378	-3048	-2028	-658	-2.724679	-13.76463	0.6366245	0	11.68	4003	126	-156	-5	0	0.10976	1.346801	3	15	0	1200
49446	-931	-151	1646	-5.140094	-10.83231	0.05038612	0	11.68	4003	-120	193	32	0	0.10976	1.323674	3	15	0	1200
49533	3237	223	-968	-2.596523	-10.21892	0.984533	0	11.68	4004	-124	211	3	0	0.10976	1.310766	3	15	0	1200
49630	-1285	504	-298	-1.516998	-10.17592	1.548497	0	11.68	4002	15	155	-34	0	0.10976	1.287511	3	15	0	1200
49737	1126	-2593	416	-1.702653	-7.359444	1.187789	0	12.25	4004	-5	-113	-17	0	0.10976	1.258418	3	15	0	1200
49808	930	-1447	-7	-1.210749	-3.724044	0.5865683	0	12.25	4003	-46	76	6	0	0.10976	1.245115	3	15	0	1200
49952	1000	1652	-321	0.03742271	-5.057816	0.00943828	0	12.25	4003	-33	16	3	0	0.10976	1.17311	3	15	0	1200
50038	627	1991	-493	0.4348387	-7.689594	0.5594923	0	12.25	4004	3	-19	0	0	0.10976	1.146382	3	15	0	1200
50115	-471	2120	-1	-0.2685459	-10.79066	0.7481093	0	12.25	4002	-60	63	-3	0	0.10976	1.117095	3	15	0	1200
50217	-1873	1946	335	-2.291646	-12.61595	0.6501908	0	12.25	4005	-80	21	-7	0	0.10976	1.058226	3	15	0	1200
50322	-613	3866	206	-2.653109	-16.03035	0.5374637	0	12.25	4004	-128	-47	2	0	0.10976	1.01465	3	15	0	1200
50427	-48	1979	883	-3.406449	-19.78625	1.39877	0	12.25	4003	38	155	-51	0	0.10976	0.9484378	3	15	0	1200
50559	240	-1730	2200	-3.929139	-16.32938	1.161525	0	12.25	4002	-51	400	-4	0	0.10976	0.8829229	3	15	0	1200
50681	26	-621	1099	-3.267394	-6.078332	0.4618169	0	12.25	4002	-38	237	12	0	0.10976	0.835244	3	15	0	1200
50781	630	-2026	-1316	-0.4294893	-5.270515	0.09821612	0	12.08	4004	-59	-124	14	0	0.10976	0.8228956	3	15	0	1200
50841	218	-1903	-1125	0.5529352	-5.729976	-0.2045209	0	12.08	4004	-59	-124	14	0	0.10976	0.7997307	3	15	0	1200
50946	1603	892	-1010	1.897943	-5.711478	0.7919763	0	12.08	4003	-113	-30	-26	0	0.10976	0.7659547	3	15	0	1200
51095	-699	-1403	2125	0.08841057	-2.383425	1.077487	0	12.08	4003	-13	-27	-5	0	0.10976	0.7392368	3	15	0	1200
51208	1382	2936	2164	0.6862646	-2.839555	-0.1499911	0	12.08	4004	-72	182	30	0	0.10976	0.728778	3	15	0	1200
51299	370	-1505	1023	0.2279314	-4.89437	-0.3522458	0	12.08	4002	109	-300	-1	0	0.10976	0.7064274	3	15	0	1200
51392	882	-227	637	0.6417776	-1.993688	0.6495497	0	12.08	4003	-33	134	-9	0	0.10976	0.6987827	3	15	0	1200
51453	504	2223	1521	0.7707071	-3.683986	0.7479868	0	12.08	4004	-12	-105	-17	0	0.10976	0.6880789	3	15	0	1200
51586	2588	-1127	582	2.217764	-4.020895	1.057794	0	12.08	4003	14	65	-23	0	0.10976	0.6838103	3	15	0	1200
51765	-265	-709	1141	-0.3914301	-1.667915	0.9773505	0	11.85	4004	97	-129	-31	0	0.10976	0.7149788	3	15	0	1200
51865	-1023	-2727	-968	-1.614297	-0.9249569	0.8225235	0	11.85	4002	102	96	-24	0	0.10976	0.7322952	3	15	0	1200
51972	1521	662	-179	-0.9265081	-0.7622989	0.9918386	0	11.85	4002	-77	91	5	0	0.10976	0.7513649	3	15	0	1200
52167	-423	-1265	504	-2.375944	-4.58018	1.581141	0	11.85	4002	-1	5	-29	0	0.10976	0.7745719	3	15	0	1200
52241	-1854	593	2018	-3.72128	-3.207714	1.064463	0	11.85	4003	7	-44	11	0	0.10976	0.7882497	3	15	0	1200
52390	1575	-423	-386	-3.828626	-5.579909	-0.403636	0	11.85	4002	-35	-206	8	0	0.10976	0.7932405	3	15	0	1200
52482	490	2278	-778	-2.016257	-7.982342	0.5608153	0	11.85	4003	-57	204	-8	0	0.10976	0.8033108	3	15	0	1200
52624	-484	-1257	-68	-2.590541	-7.793217	1.195466	0	11.74	4003	55	-102	-22	0	0.10976	0.8107154	3	15	0	1200
52757	843	-255	-1614	-3.277912	-5.407995	0.7336335	0	11.74	4002	-87	113	23	0	0.10976	0.8186217	3	15	0	1200
52809	-782	3391	40	-2.048565	-10.04579	-0.1412391	0	11.74	4004	-42	134	13	0	0.10976	0.8261324	3	15	0	1200
52899	-390	-2081	-1714	-3.047185	-9.900549	0.1287815	0	11.74	4004	129	-210	-10	0	0.10976	0.8297131	3	15	0	1200
53075	-463	-1380	996	-2.387009	-7.91203	1.294363	0	11.74	4003	-103	229	-22	0	0.10976	0.8219851	3	15	0	1200
53129	264	712	1237	-2.537001	-7.413095	1.683407	0	11.74	4004	-64	43	-10	0	0.10976	0.8243122	3	15	0	1200
53269	-1169	-1331	45	-3.921353	-7.313715	0.4641857	0	11.74	4002	28	-121	-4	0	0.10976	0.8475798	3	15	0	1200
53347	-854	-803	-1171	-3.917327	-7.097242	0.4025651	0	11.74	4003	71	-183	-13	0	0.10976	0.8612791	3	15	0	1200
53395	-2195	-856	-168	-5.02935	-6.961411	0.2666823	0	11.74	4004	-63	-82	1	0	0.10976	0.8646142	3	15	0	1200
53565	-971	-519	-1120	-8.372802	-5.266867	-0.02846251	0	11.11	4004	38	48	8	0	0.10976	0.906398	3	15	0	1200
53763	-1767	363	-265	-8.792264	-6.578032	0.03700539	0	11.11	4004	-64	-129	-2	0	0.10976	0.9495143	3	15	0	1200
53860	549	808	1206	-8.555428	-6.771102	0.3167293	0	11.11	4002	-99	194	7	0	0.10976	0.9777188	3	15	0	1200
53989	1437	1265	120	-5.748647	-5.402047	1.239501	0	11.11	4003	-9	-6	-23	0	0.10976	1.027242	3	15	0	1200
54021	-298	569	-144	-5.687284	-5.920501	1.092915	0	11.11	4003	96	54	-20	0	0.10976	1.037784	3	15	0	1200
54123	2582	4678	1187	-1.986338	-8.998799	0.5320899	0	11.11	4003	-42	233	14	0	0.10976	1.091089	3	15	0	1200
54192	1504	1836	-796	-0.3435821	-10.91102	0.4820979	0	11.11	4004	-81	18	-9	0	0.10976	1.141109	3	15	0	1200
54311	827	-2659	-1551	1.170745	-5.332085	1.088208	0	11.11	4003	-78	-34	-4	0	0.10976	1.199466	3	15	0	1200
54469	391	-582	-12	1.82096	-4.441774	0.690797	0	11.57	4004	-52	24	-2	0	0.10976	1.329271	3	15	0	1200
54554	1588	696	-36	2.382137	-4.052584	0.5978088	0	11.57	4002	64	-48	-8	0	0.10976	1.364169	3	15	0	1200
54615	1345	905	132	3.794676	-5.382481	0.3737027	0	11.57	4004	-13	105	4	0	0.10976	1.414663	3	15	0	1200
54694	893	-2233	-811	3.765112	-4.238805	0.628154	0	11.57	4002	-3	-119	-14	0	0.10976	1.484968	3	15	0	1200
54799	-691	1619	-883	2.157664	-3.906096	0.4785321	0	11.57	4002	84	76	-14	0	0.10976	1.538355	3	15	0	1200
54921	450	1706	396	0.3305941	-8.14303	0.7255708	0	11.57	4003	-71	227	-5	0	0.10976	1.641907	3	15	0	1200
55002	668	-2123	-1201	0.9666345	-8.448991	1.508083	0	11.57	4002	33	-120	-46	0	0.10976	1.698108	3	15	0	1200
55169	372	-1920	102	-0.7997196	-4.405766	0.9277745	0	11.57	4003	26	-179	-14	0	0.10976	1.772675	3	15	0	1200
55329	644	138	1116	-1.570659	-1.741821	0.1128384	0	11.68	4003	-31	177	11	0	0.10976	1.862086	3	15	0	1200
55431	-362	534	-902	-0.08392204	-3.952753	0.7166408	0	11.68	4004	38	-226	-18	0	0.10976	1.930388	3	15	0	1200
55609	205	-585	1691	-1.278736	-3.731365	1.253488	0	11.68	4002	-46	36	-1	0	0.10976	1.97339	3	15	0	1200
55706	525	-1955	50	-1.638196	-2.676017	0.76831	0	11.68	4004	13	-129	-17	0	0.10976	1.997834	3	15	0	1200
55869	-300	1325	-328	-3.198838	-2.040392	0.3603097	0	11.68	4002	10	-174	-4	0	0.10976	2.028615	3	15	0	1200
55916	-1194	1492	-662	-3.483324	-3.540224	0.2649008	0	11.68	4002	98	-144	-2	0	0.10976	2.034891	3	15	0	1200
56058	-113	1479	-783	-2.267948	-7.069048	1.06882	0	11.68	4004	42	-114	-29	0	0.10976	2.07148	3	15	0	1200
56138	-988	187	-1059	-2.959228	-7.783791	1.33496	0	11.68	4003	32	-41	-37	0	0.10976	2.088625	3	15	0	1200
56247	-537	-87	-506	-3.392248	-6.962283	1.167793	0	11.68	4003	14	-56	-17	0	0.10976	2.105262	3	15	0	1200
56332	-541	-2634	342	-3.827856	-4.421701	0.9204203	0	11.74	4004	57	-178	-11	0	0.10976	2.12684	3	15	0	1200
56415	-1736	-515	537	-6.107541	-2.955392	0.5157799	0	11.74	4004	2	21	2	0	0.10976	2.140005	3	15	0	1200
56581	1701	-254	628	-5.013198	-0.0684407	0.6355188	0	11.74	4003	11	-82	-2	0	0.10976	2.151628	3	15	0	1200
56642	683	446	189	-3.82877	-0.7444085	0.3215078	0	11.74	4003	55	-143	2	0	0.10976	2.143539	3	15	0	1200
56726	618	221	842	-2.270751	-1.143446	0.1501241	0	11.74	4002	-26	26	-4	0	0.10976	2.133905	3	15	0	1200
56832	877	2092	702	0.01050815	-3.310349	-0.07007112	0	11.74	4003	29	150	11	0	0.10976	2.117632	3	15	0	1200
56939	-218	-155	-645	-0.2410112	-3.50897	0.4776465	0	11.74	4003	-80	160	8	0	0.10976	2.085736	3	15	0	1200
57071	-183	2513	1791	-0.3299167	-4.886084	0.4883606	0	11.74	4002	-34	313	17	0	0.10976	2.03533	3	15	0	1200
57140	-543	92	-1515	-1.975032	-6.274172	0.3180818	0	11.74	4002	-7	-189	-18	0	0.10976	2.022636	3	15	0	1200
57289	-1349	303	-690	-1.043155	-6.62808	0.8048345	0	11.23	4003	110	113	-15	0	0.10976	1.982777	3	15	0	1200
57366	2089	-2156	-2329	-1.745379	-7.696298	0.2279329	0	11.23	4002	-134	-101	-7	0	0.10976	1.93464	3	15	0	1200
57459	-598	2128	1339	1.795899	-9.759946	0.9070084	0	11.23	4003	-2	165	-11	0	0.10976	1.910732	3	15	0	1200
57567	106	600	-320	-1.775673	-7.632218	1.115449	0	11.23	4002	-95	123	-19	0	0.10976	1.878459	3	15	0	1200
57650	677	2278	182	-0.8033138	-9.513952	0.9648856	0	11.23	4002	-158	251	-12	0	0.10976	1.848504	3	15	0	1200
57775	-655	1663	-1212	-1.101048	-12.96886	0.9318177	0	11.23	4002	-27	163	-13	0	0.10976	1.836098	3	15	0	1200
57850	-72	1110	-1458	-1.969868	-14.95604	0.8109342	0	11.23	4003	-129	-101	-12	0	0.10976	1.827978	3	15	0	1200
57995	-931	-587	769	-2.816667	-11.94946	1.326161	0	11.23	4003	46	178	-30	0	0.10976	1.816324	3	15	0	1200
58064	346	451	663	-2.750366	-10.2745	1.483365	0	11.23	4004	63	126	-27	0	0.10976	1.810351	3	15	0	1200
58177	1262	-704	913	-2.343203	-8.430531	0.7103121	0	11.97	4003	-34	-99	-8	0	0.10976	1.826524	3	15	0	1200
58291	-118	-577	1019	-2.096342	-7.228298	0.2980192	0	11.97	4004	-26	-189	11	9	0.4208737	1.859597	5	15	0	1200
58368	-59	292	-1295	-1.993507	-7.245416	0.7012224	0	11.97	4003	-47	147	2	9	0.4357815	1.871532	5	15	0	1200
58457	336	-1835	-530	-2.472371	-6.868616	0.5924118	0	11.97	4004	-25	-134	7	9	0.5332432	1.887134	5	15	0	1200
58648	851	5687	965	-0.6938284	-10.7828	-0.002952501	0	11.97	4003	-151	134	15	8	0.7661549	1.954947	5	15	0	1200
58761	-814	-2719	-1583	-0.9333441	-11.61364	1.214007	0	11.97	4002	34	145	-26	-5	0.841011	1.994967	5	15	0	1200
58777	-814	-2719	-1583	-0.9333441	-11.61364	1.214007	0	11.97	4002	-124	100	-7	7	0.841011	1.994967	5	15	0	1200
58869	-405	1357	453	-0.8339678	-10.29747	1.170564	0	11.97	4003	-104	237	-1	6	0.7559959	2.067356	5	15	0	1200
58985	-943	-3803	-789	-2.054662	-8.561847	0.5331824	0	11.97	4004	-46	-50	-2	5	0.8406696	2.110904	5	15	0	1200
59134	-537	-1519	-625	-3.483776	-0.4892684	0.8478408	0	11.8	4002	-195	94	4	4	0.8429244	2.187205	5	15	0	1200
59182	45	440	1350	-3.413087	-0.2053067	0.7138228	0	11.8	4004	-53	-72	-12	4	0.8669856	2.197698	5	15	0	1200
59276	-219	330	1238	-3.807565	-0.936298	0.1553673	0	11.8	4003	14	-161	3	3	0.952851	2.275178	5	15	0	1200
59404	-476	-1774	-1883	-5.275873	-0.2674093	0.6458305	0	11.8	4003	-1	182	10	-19	0.9579076	2.342405	5	15	0	1200
59451	573	558	1592	-4.967757	-0.3872402	0.533869	0	11.8	4004	36	185	-7	1	0.9175196	2.398953	5	15	0	1200
59587	204	4413	-288	-3.22035	-8.415768	0.4397495	0	11.8	4002	3	-56	-13	0	0.8948412	2.500424	5	15	0	1200
59708	2067	2008	1504	-1.141263	-10.87568	0.7211192	0	11.8	4002	-36	245	0	-1	0.9482462	2.621478	5	15	0	1200
59797	1463	1604	1677	1.010392	-12.4712	0.5593315	0	11.8	4004	-72	-30	13	-4	1.008752	2.686397	5	15	0	1200
59858	296	470	-929	1.615245	-13.26617	0.3692359	0	11.8	4003	28	145	-5	-5	1.037182	2.836489	5	15	0	1200
59962	23	1412	-741	2.720065	-14.55002	0.3376508	0	11.8	4004	99	55	-7	-6	0.9859511	2.907087	5	15	0	1200
60077	867	885	240	0.2888054	-14.14415	0.5744575	0	11.63	4004	55	17	-13	-7	0.9108561	3.008455	5	15	0	1200
60170	640	-2956	246	0.7793757	-11.85267	0.6500318	0	11.63	4003	-97	-148	-2	-9	0.969732	3.091431	5	15	0	1200
60307	-216	687	-1540	-0.04341722	-10.57078	0.05463721	0	11.63	4003	134	-265	-11	-34	0.9765362	3.286567	5	15	0	1200
60410	-71	785	-1618	0.1326613	-14.07873	0.7958306	0	11.63	4003	-1	-136	-41	-13	0.9304082	3.38348	5	15	0	1200
60485	1222	2143	-158	0.7534552	-15.36339	1.419438	0	11.63	4004	-11	108	-36	-14	0.8996766	3.445928	5	15	0	1200
60650	487	-4262	75	1.48764	-13.11536	0.9166994	0	11.63	4002	60	-75	-13	-44	0.9660325	3.666644	5	15	0	1200
60721	1203	-3080	-786	2.521984	-6.499618	0.8106296	0	11.63	4003	-44	-31	-21	-28	1.021766	3.720646	5	15	0	1200
60798	877	-908	-677	3.070613	-5.636639	0.5019908	0	11.63	4004	-29	-245	-12	-30	1.058103	3.76798	5	15	0	1200
60917	-362	1257	38	3.851917	-7.196521	0.1553557	0	11.34	4003	-79	181	8	-32	0.9544118	3.849513	5	15	0	1200
60982	-1333	-547	111	1.613532	-7.016991	0.4148496	0	11.34	4004	27	106	-7	-33	0.8875121	3.895214	5	15	0	1200
61087	87	-2847	-892	-0.04344375	-5.804188	0.4338919	0	11.34	4004	-21	-139	-2	-34	0.970008	3.96257	5	15	0	1200
61183	605	457	1506	0.09909769	-4.163203	0.2279772	0	11.34	4002	-76	254	21	-36	0.9922953	4.001005	5	15	0	1200
61278	-316	160	-1257	0.8572795	-5.527722	0.5626637	0	11.34	4003	17	-200	-19	-54	0.9767265	4.054669	5	15	0	1200
61433	-715	-692	1175	-2.0247	-5.367076	0.8140748	0	11.34	4003	-70	17	-1	-39	0.8928438	4.134791	5	15	0	1200
61567	-2005	856	51	-5.153258	-4.170397	0.7100456	0	11.34	4002	-98	202	-1	-56	0.909551	4.218	5	15	0	1200
61642	-1859	-145	-88	-7.184324	-4.537658	0.8883415	0	11.34	4004	-6	142	-17	-42	0.9638634	4.27821	5	15	0	1200
61712	-871	-1481	-1269	-7.954009	-4.634116	1.125553	0	11.34	4003	26	-166	-27	-43	1.007929	4.308052	5	15	0	1200
61828	2254	826	475	-5.503326	-4.003062	1.146969	0	12.08	4004	-82	-174	-25	-44	1.04924	4.348241	5	15	0	1200
61903	-628	621	952	-4.446957	-5.868198	0.6966897	0	12.08	4003	47	-128	-3	-52	0.9591095	4.372368	5	15	0	1200
61980	-218	-1640	485	-4.933437	-5.535207	0.4215418	0	12.08	4004	-2	-88	6	-45	0.9182428	4.389803	5	15	0	1200
62085	1086	-1908	-93	-3.722018	-1.900716	0.3886304	0	12.08	4002	-71	53	-1	-46	0.9724131	4.417853	5	15	0	1200
62180	-86	-150	-736	-2.815812	-4.050389	0.5865298	0	12.08	4004	40	-171	-5	-47	1.180505	4.458325	5	15	0	1200
62337	486	501	-1359	-2.8831	-4.18896	1.052308	0	12.08	4004	20	-62	-24	-47	1.225629	4.485219	5	15	0	1200
62439	-472	1078	47	-2.133488	-7.718616	1.041175	0	12.08	4003	5	-166	-20	-47	1.093425	4.482158	5	15	0	1200
62497	-374	-468	-242	-2.628915	-7.475777	0.9504905	0	12.08	4003	25	-105	-13	-47	1.108631	4.475272	5	15	0	1200
62584	-237	3544	315	-3.126501	-8.544568	0.4047099	0	12.08	4004	-24	95	14	-46	1.156635	4.440871	5	15	0	1200
