time(ms)	gyro_x(deg/s)	gyro_y(deg/s)	gyro_z(deg/s)	orientation_roll(deg)	orientation_pitch(deg)	orientation_yaw(deg)	throttle	battery(V)	loop_time(uS)	pid_output_roll	pid_output_pitch	pid_output_yaw	pid_output_throttle	ultrasonic_alt	baro_alt	flight_mode	p_gain_altitude	i_gain_altitude	d_gain_altitude
486579	1775	1286	2388	-1.455064	-0.9918326	27.9032	0	10.04	4004	-17	212	49	27	0.9811597	1.757731	5	10	0	1400
486696	1302	-11622	-3167	-0.3359376	15.82477	27.38433	0	10.04	4004	-38	-182	-22	17	0.8252219	1.399005	5	10	0	1400
486853	-166	7369	1423	0.4732984	3.051981	29.31833	0	10.04	4002	-105	12	-13	22	0.7877163	1.086542	5	10	0	1400
486921	603	2789	-1724	-0.5009667	-5.594789	29.39526	0	10.04	4002	21	-394	-38	23	0.8625854	1.011217	5	10	0	1400
487024	378	1067	-59	-0.7958349	-9.436072	29.41661	0	9.81	4003	-45	38	-14	24	0.8988532	0.941542	5	10	0	1400
487062	378	1067	-59	-0.7958349	-9.436072	29.41661	0	9.81	4003	-173	42	7	25	0.8573309	0.9072455	5	10	0	1400
487183	-867	-1766	1476	-2.039358	-6.843461	27.76664	0	9.81	4004	-87	258	28	47	0.8027059	0.8451881	5	10	0	1400
487311	-1717	4043	-545	-1.297369	-9.457848	26.97656	0	9.81	4004	93	146	34	27	0.8750346	0.7833257	5	10	0	1400
487413	1416	3164	-293	-3.007476	-15.93648	26.67674	0	9.81	4004	-26	286	33	27	0.965147	0.7680267	5	10	0	1400
487541	-1142	-799	-726	-2.225838	-15.7332	28.1918	0	9.81	4003	8	-45	-17	27	0.7977689	0.7797292	5	10	0	1400
487597	-1304	2468	204	-4.645489	-14.68154	29.17138	0	9.81	4003	24	179	-40	27	0.8953916	0.7858281	5	10	0	1400
487716	-1985	3460	335	-6.486241	-15.79188	28.77422	0	9.81	4002	53	-78	-44	26	1.018314	0.8416422	5	10	0	1400
487783	-1740	-296	-1633	-8.162292	-16.5912	28.78347	0	9.81	4002	12	-279	-22	2	0.9430527	0.8724894	5	10	0	1400
487959	894	4278	-419	-4.12504	-21.88017	28.20993	0	10.04	4004	-99	179	-4	22	0.8064321	1.117389	5	10	0	1400
488025	-1149	493	-2319	-3.839806	-24.58183	28.30704	0	10.04	4003	-38	312	0	21	0.7779351	1.167209	5	10	0	1400
488078	-711	1263	276	-4.351239	-24.78222	28.19065	0	10.04	4003	-18	295	-2	20	0.7757823	1.208618	5	10	0	1400
488195	1437	-4769	-1875	-5.74128	-21.60933	28.44806	0	10.04	4004	-39	112	5	17	0.8196788	1.38325	5	10	0	1400
488302	1618	-7017	-2484	-4.27431	-15.20606	29.31956	0	10.04	4003	52	-259	-52	8	0.9449678	1.604404	5	10	0	1400
488433	106	508	-390	-2.997741	-7.009537	28.92751	0	10.04	4004	70	356	-5	7	0.9814046	1.786711	5	10	0	1400
488506	-981	2237	728	-2.952823	-9.213292	28.41773	0	10.04	4002	-36	265	1	5	0.9499772	1.949465	5	10	0	1400
488695	938	-1001	1021	-3.49255	-6.575733	28.51431	0	10.04	4003	43	122	-21	1	0.984051	2.322618	5	10	0	1400
488772	-7	-1365	-1593	-2.950563	-6.206134	28.34141	0	10.04	4002	-47	1	4	-22	0.8059028	2.51623	5	10	0	1400
488885	-1522	-2114	-1573	-2.596128	-5.417332	29.18173	0	9.58	4004	-167	309	-8	-2	0.7569774	2.710851	5	10	0	1400
488905	-1522	-2114	-1573	-2.596128	-5.417332	29.18173	0	9.58	4004	232	-185	-61	-2	0.756088	2.750513	5	10	0	1400
489023	530	-1751	-323	-2.643207	-3.20649	28.99699	0	9.58	4003	-114	118	-11	-4	0.7961488	2.932777	5	10	0	1400
489108	1440	-967	622	-2.163396	-2.790819	28.62643	0	9.58	4003	54	356	-11	-35	0.7955639	3.094007	5	10	0	1400
489261	1332	-1979	1288	-0.987859	-2.258831	28.00366	0	9.58	4004	-70	26	0	-9	0.8827727	3.467561	5	10	0	1400
489377	415	-470	10	-1.455175	0.7204985	28.50384	0	9.58	4004	-83	67	5	-47	0.9077137	3.646987	5	10	0	1400
489416	-81	1603	2022	-1.359681	0.1432806	28.23967	0	9.58	4004	18	166	-9	-21	0.8768988	3.684063	5	10	0	1400
489521	-2268	-1084	-588	-3.378426	-2.048976	27.97461	0	9.58	4002	70	-124	-19	-24	0.8245506	3.873108	5	10	0	1400
489626	-1370	-1050	397	-5.337948	-1.996334	28.2077	0	9.58	4004	-48	-35	2	-27	0.8370243	4.202381	5	10	0	1400
489693	-1855	-1282	620	-6.711232	-1.011922	28.49909	0	9.58	4002	-51	214	-20	-204	0.8420903	4.220792	5	10	0	1400
489792	-2360	-2897	-1482	-9.6016	0.6674277	28.77138	0	10.09	4003	297	-339	-34	-30	0.8934864	4.418369	5	10	0	1400
489910	1276	296	-965	-8.88863	-0.7634776	28.9207	0	10.09	4004	40	-91	-39	-33	0.7140454	4.632746	5	10	0	1400
490085	598	1895	787	-3.063848	-5.084239	29.0411	0	10.09	4003	5	-171	-34	-39	0.7603167	4.845953	5	10	0	1400
490161	-701	-1793	738	-1.424521	-6.740067	29.13637	0	10.09	4003	-128	245	-20	-40	0.7565936	5.043081	5	10	0	1400
490226	-734	-2397	1320	-2.607627	-4.429892	28.90442	0	10.09	4003	-45	111	-22	-42	0.7996112	5.211398	5	10	0	1400
490351	1447	2593	-493	-0.6070908	-7.064903	28.75227	0	10.09	4003	22	71	-18	-229	0.9550935	5.420652	5	10	0	1400
490400	-494	524	-126	0.1649671	-10.15172	28.43877	0	10.09	4003	-112	105	-11	-46	0.9785709	5.448395	5	10	0	1400
490497	-858	-4664	774	-1.251822	-6.651964	28.56905	0	10.09	4004	-1	-115	-5	-47	1.045592	5.515941	5	10	0	1400
490637	808	188	432	-1.299071	-1.628028	27.80567	0	10.09	4004	16	-100	5	-51	0.9360659	5.72612	5	10	0	1400
490744	252	-1775	-659	-1.36915	-1.096391	27.50243	0	10.66	4004	25	-94	-3	-53	1.100425	5.817906	5	10	0	1400
490803	746	-285	-941	-0.476001	-1.29458	27.90472	0	10.66	4003	7	-80	-6	-53	1.123535	5.853123	5	10	0	1400
490925	-600	778	-1220	-0.2136011	-3.497725	28.34135	0	10.66	4002	24	-50	-21	-55	1.14712	5.933532	5	10	0	1400
491063	191	3735	98	-0.4080502	-9.654482	28.28437	0	10.66	4004	80	-149	-14	-57	1.168958	6.130138	5	10	0	1400
491134	626	3153	89	0.05449511	-12.94684	27.96326	0	10.66	4003	-33	-35	3	-59	1.079186	6.175565	5	10	0	1400
491288	-459	1742	358	-1.642266	-13.61007	27.59746	0	10.66	4003	-72	17	7	-78	1.130397	6.287424	5	10	0	1400
491354	-49	1688	-235	-2.309182	-14.91251	27.76637	0	10.66	4002	35	-78	1	-61	1.158771	6.323186	5	10	0	1400
491466	665	-2494	291	-2.139088	-11.89388	28.01883	0	10.66	4003	-28	-19	-8	-61	1.160506	6.363611	5	10	0	1400
491553	-324	-2872	354	-1.844203	-7.633116	27.91861	0	10.66	4003	1	-51	0	-62	1.172645	6.394216	5	10	0	1400
491621	-3554	215	252	-5.267371	-5.31461	27.50297	0	10.26	4003	19	-33	14	-62	1.218438	6.431349	5	10	0	1400
491715	873	-18	-470	-8.197478	-4.27278	27.86717	0	10.26	4003	4	-27	-3	-63	1.172343	6.438012	5	10	0	1400
491777	361	-165	49	-7.111792	-3.94045	28.10026	0	10.26	4004	-32	-60	-7	-63	1.160732	6.431876	5	10	0	1400
491918	845	61	136	-4.97029	-2.10504	28.03397	0	10.26	4012	21	-62	2	-62	1.160589	6.390402	5	10	0	1400
492048	310	567	851	-4.238328	-2.528332	27.81242	0	10.26	4004	-72	-1	4	-60	1.150263	6.309389	5	10	0	1400
492107	402	471	-296	-4.024603	-3.042278	27.54216	0	10.26	4002	46	8	15	-60	1.123965	6.256873	5	10	0	1400
492163	1322	-369	65	-3.604651	-3.063539	27.57384	0	10.26	4003	-5	-47	12	-59	1.112753	6.237391	5	10	0	1400
492277	220	-1671	-398	-1.506033	-1.131842	28.27315	0	10.26	4002	-10	-44	-22	0	1.171357	6.127892	3	10	0	1400
492481	0	4373	524	-3.853107	-4.514321	26.92689	0	10.26	4004	74	-215	9	0	1.223745	5.878815	3	10	0	1400
492650	-1376	-166	601	-6.111846	-7.622774	27.18814	0	10.72	4002	-62	123	24	0	1.244179	5.540146	3	10	0	1400
492683	-1779	1681	1127	-6.998582	-7.727317	27.22899	0	10.72	4003	-93	221	21	0	1.251586	5.486294	3	10	0	1400
492804	2348	-61	-418	-4.686914	-7.698669	27.52909	0	10.72	4002	-83	-188	7	0	1.260143	5.300808	3	10	0	1400
492891	-2110	353	-1011	-4.029074	-10.59151	27.79483	0	10.72	4003	45	246	7	0	1.266382	5.097046	3	10	0	1400
493069	628	-2330	-1984	-4.408242	-14.48753	27.95342	0	10.72	4004	116	-140	-9	0	1.273254	4.756639	3	10	0	1400
493100	-22	-3520	-749	-3.766229	-12.94447	28.06782	0	10.72	4003	134	-239	-14	0	1.274245	4.737045	3	10	0	1400
493189	1475	-2493	1302	-3.541791	-9.012202	27.97626	0	10.72	4003	-9	-37	15	0	1.276661	4.557242	3	10	0	1400
493311	108	-1679	1890	-1.797974	-4.740078	26.4174	0	10.72	4003	-108	89	55	0	1.278423	4.357486	3	10	0	1400
493398	1312	203	889	-2.331597	-1.918987	25.56381	0	10.72	4003	-142	-53	37	0	1.279324	4.188075	3	10	0	1400
493563	-228	2708	-98	-3.204839	-4.074964	30.86443	0	9.75	4003	-90	-81	-74	0	1.281123	3.702539	3	10	0	1400
493664	-762	703	1013	-3.390168	-6.238043	31.27135	0	9.75	4003	-42	43	-92	0	1.281676	3.49637	3	10	0	1400
493766	-1600	1272	1735	-4.923247	-8.877212	28.20696	0	9.75	4002	-29	136	-8	0	1.282079	3.322881	3	10	0	1400
493874	-1085	-1479	662	-5.257508	-9.285515	25.65747	0	9.75	4003	72	-101	62	0	1.282373	2.997598	3	10	0	1400
493909	-1206	-2043	-95	-5.594033	-8.211815	25.28813	0	9.75	4003	116	-180	62	0	1.282452	2.981311	3	10	0	1400
494010	-1609	-507	-2601	-7.366783	-6.275581	26.31508	0	9.75	4003	91	-303	17	0	1.282644	2.786366	3	10	0	1400
494096	-3489	-21	-1779	-11.72942	-7.092164	28.87054	0	9.75	4004	23	-63	-56	0	1.282823	2.471278	3	10	0	1400
494256	1053	569	905	-12.3747	-6.744197	28.9007	0	9.75	4003	63	-229	-25	0	1.28294	2.255179	3	10	0	1400
494384	1690	-612	1423	-7.404395	-4.868397	27.78812	0	9.24	4002	-96	70	11	0	1.283016	2.053527	3	10	0	1400
494419	2018	641	944	-6.171186	-4.077481	27.70549	0	9.24	4004	-170	400	22	0	1.283031	2.020393	3	10	0	1400
494493	1743	2288	340	-4.906913	-4.940649	27.62835	0	9.24	4003	-46	37	-15	0	1.283067	1.839063	3	10	0	1400
494655	1927	-2626	-1178	-2.636075	-4.312109	28.22218	0	9.24	4004	45	-157	-11	0	1.2831	1.723367	3	10	0	1400
494703	814	-1545	1532	-1.454866	-1.31493	28.01266	0	9.24	4003	64	-271	-14	0	1.283112	1.552859	3	10	0	1400
494802	-934	2083	2451	0.5943012	1.697747	27.69316	0	9.24	4004	71	79	9	0	1.283126	1.486144	3	10	0	1400
494996	2069	-544	-505	-0.2449288	-2.66205	26.94679	0	9.24	4004	48	-142	16	0	1.283141	1.344466	3	10	0	1400
495026	61	-1607	-1510	0.6914971	-1.873579	27.33024	0	9.24	4003	93	-194	-16	0	1.283143	1.217776	3	10	0	1400
495101	42	-944	-38	0.5976268	-0.8833969	27.52684	0	9.24	4003	-44	-97	-3	0	1.283149	1.142755	3	10	0	1400
495211	744	7148	1527	-1.184216	-8.851264	27.73461	0	9.24	4005	-77	206	-4	0	1.283152	1.070292	3	10	0	1400
495319	1624	3877	48	-0.8093433	-19.0984	28.69941	0	10.09	4003	43	-223	-53	0	1.283155	1.00067	3	10	0	1400
495437	1624	1601	-1002	0.06125408	-23.52949	29.24613	0	10.09	4003	121	-222	-54	0	1.283158	0.9076352	3	10	0	1400
495531	2549	-494	-404	5.130929	-23.83619	29.41921	0	10.09	4003	81	-176	-42	0	1.283159	0.8705044	3	10	0	1400
495604	525	-2205	-622	6.549494	-21.81494	29.14603	0	10.09	4004	146	-199	-36	0	1.28316	0.8281956	3	10	0	1400
495724	-497	-1384	-349	7.484416	-16.66395	28.38006	0	10.09	4002	13	8	-21	0	1.283161	0.7947785	3	10	0	1400
495809	-3075	-4442	-1797	4.38112	-12.59423	28.61893	0	10.09	4003	1	-172	-41	0	1.283161	0.7706673	3	10	0	1400
495904	-5097	-1695	1006	-6.536837	-4.410679	28.5832	0	10.09	4004	144	-120	-43	0	1.283162	0.7175747	3	10	0	1400
496034	-4046	-2558	-889	-10.91263	-1.298355	27.86253	0	10.09	4004	82	-302	15	0	1.283162	0.6792415	3	10	0	1400
496100	-4547	-992	320	-14.48314	-0.571703	27.20913	0	10.09	4004	52	-33	-2	0	1.283162	0.6745524	3	10	0	1400
496267	3069	-274	-1689	-15.79064	0.3995722	28.99909	0	8.9	4004	-52	-142	-34	0	1.283162	0.6587749	3	10	0	1400
496311	4070	1236	813	-12.89663	0.1096118	29.17121	0	8.9	4004	94	-32	-28	0	1.283162	0.6610126	3	10	0	1400
496411	1842	-990	-1050	-10.14431	-0.9943008	28.81973	0	8.9	4003	-16	-81	-40	0	1.283162	0.683347	3	10	0	1400
496522	1657	610	772	-1.207067	-1.578759	28.48622	0	8.9	4004	124	-135	-37	0	1.283162	0.7157989	3	10	0	1400
496682	2077	1060	2088	2.426439	-0.7619666	28.43553	0	8.9	4004	-179	305	19	0	1.283162	0.7517794	3	10	0	1400
496799	-28	91	318	4.115625	-2.662318	28.19396	0	8.9	4004	-82	212	0	0	1.283162	0.7739117	3	10	0	1400
496847	-595	-74	-147	3.271093	-2.274628	28.68216	0	8.9	4002	91	-71	-32	0	1.283162	0.7764407	3	10	0	1400
496950	-1189	-103	243	1.708125	-2.646582	28.58081	0	8.9	4004	-14	208	-26	0	1.283162	0.7984202	3	10	0	1400
497002	-223	-86	1443	0.1413901	-2.393743	28.50803	0	8.9	4003	4	-77	-12	0	1.283162	0.8117322	3	10	0	1400
497102	149	614	-294	0.04847017	-3.420607	28.5671	0	10.77	4002	119	-159	-41	0	1.283162	0.8446179	3	10	0	1400
497215	-1047	-1325	-378	-1.057291	-3.494525	28.42162	0	10.77	4004	-91	53	3	0	1.283162	0.8930617	3	10	0	1400
497304	-56	620	1280	-1.728758	-5.269886	28.24528	0	10.77	4003	-73	121	1	0	1.283162	0.9178588	3	10	0	1400
497420	275	-2432	-646	-3.276897	-3.120256	28.64448	0	10.77	4004	32	-91	-32	0	1.283162	0.9817213	3	10	0	1400
497502	-1113	-1156	436	-2.207253	-1.662438	28.62198	0	10.77	4003	43	-63	-16	0	1.283162	0.9944295	3	10	0	1400
497585	-972	-2372	100	-3.712802	0.2991078	28.1582	0	10.77	4003	-9	-95	-3	0	1.283162	1.038939	3	10	0	1400
497763	-1517	-315	-51	-4.583328	2.339204	27.59303	0	10.77	4003	-40	-34	12	0	1.283162	1.091224	3	10	0	1400
497798	-2236	112	-772	-5.539499	2.27655	27.73623	0	10.77	4004	-71	-139	9	0	1.283162	1.096004	3	10	0	1400
497921	-3545	1511	-376	-10.66205	0.1510586	27.94614	0	10.77	4004	47	-82	-2	0	1.283162	1.117855	3	10	0	1400
498016	-1737	696	69	-13.06091	-1.595202	28.1555	0	10.32	4004	-46	-35	-2	0	1.283162	1.123088	3	10	0	1400
498079	-1713	243	611	-14.1539	-2.04096	28.07064	0	10.32	4002	-50	-7	-1	0	1.283162	1.121202	3	10	0	1400
498244	2426	350	-115	-10.54932	-3.107987	27.822	0	10.32	4004	-111	44	0	0	1.283162	1.08935	3	10	0	1400
498323	2652	960	-100	-7.312165	-3.723976	27.80843	0	10.32	4002	165	14	4	0	1.283162	1.064858	3	10	0	1400
498469	2099	2238	-84	2.369627	-8.760219	28.02405	0	10.32	4004	60	-110	-2	0	1.283162	1.01627	3	10	0	1400
498541	2360	919	-907	6.010434	-11.19517	28.57859	0	10.32	4003	152	-135	-32	0	1.283162	0.9720642	3	10	0	1400
498633	2314	707	-177	9.433322	-14.92668	28.60076	0	10.32	4004	-86	144	-11	0	1.283162	0.9014798	3	10	0	1400
498688	1489	2296	1162	9.916675	-14.51093	28.71058	0	10.32	4004	90	-104	-27	0	1.283162	0.8665473	3	10	0	1400
498770	2485	2822	604	11.61389	-14.28139	28.90482	0	10.32	4003	79	9	-20	0	1.283162	0.8081875	3	10	0	1400
498870	85	1645	1138	12.83174	-16.04304	29.03142	0	10.32	4003	-145	-45	-9	0	1.283162	0.6268528	3	10	0	1400
498995	-4407	-2129	461	6.515552	-13.77176	28.82582	0	10.49	4002	0	0	0	0	1.283162	0.5181683	3	10	0	1400
499066	-4672	-4399	338	-2.018368	-6.069961	28.90609	0	10.49	4004	0	0	0	0	1.283162	0.4592311	3	10	0	1400
499167	4597	5555	4714	3.892678	-5.626689	23.67241	0	10.49	4003	0	0	0	0	1.283162	0.3753722	3	10	0	1400
499330	-880	-4107	4196	1.581341	1.04613	4.568676	0	10.49	4004	0	0	0	0	1.283162	0.1771544	3	10	0	1400
499425	1286	3311	1317	2.028492	2.930282	0.276835	0	10.49	4003	0	0	0	0	1.283162	0.1077749	3	10	0	1400
499468	-771	-982	116	1.8232	3.533191	-0.2709841	0	10.49	4003	0	0	0	0	1.283162	0.05369668	3	10	0	1400
499599	19	265	-41	1.453404	2.989913	-0.1194706	0	10.49	4003	0	0	0	0	1.283162	-0.05437691	1	10	0	1400
499676	108	365	94	1.462175	2.6634	-0.1323666	0	10.49	4002	0	0	0	0	1.283162	-0.09131981	1	10	0	1400
499833	-115	-1	-93	0.6302471	2.107872	-0.1710677	0	10.77	4003	0	0	0	0	1.283162	-0.19384	1	10	0	1400
499926	-175	-102	-26	0.1514359	2.097787	-0.1865401	0	10.77	4002	0	0	0	0	1.283162	-0.2637187	1	10	0	1400
499982	-51	70	82	-0.06771343	1.979902	-0.2070835	0	10.77	4002	0	0	0	0	1.283162	-0.2854512	1	10	0	1400
500108	-103	-14	29	-0.289191	1.766727	-0.2315979	0	10.77	4003	0	0	0	0	1.283162	-0.3381985	1	10	0	1400
500181	-127	-6	75	-0.5860153	1.712802	-0.2545844	0	10.77	4002	0	0	0	0	1.283162	-0.3669779	1	10	0	1400
500326	-119	-31	33	-0.9243186	1.530763	-0.2994611	0	10.77	4002	0	0	0	0	1.283162	-0.4097089	1	10	0	1400
500378	-73	41	12	-0.9677492	1.492768	-0.3061869	0	10.77	4004	0	0	0	0	1.283162	-0.4277398	1	10	0	1400
500496	-78	39	11	-1.16807	1.364962	-0.3379823	0	10.77	4003	0	0	0	0	1.283162	-0.4471965	1	10	0	1400
500591	-97	-2	14	-1.309882	1.294369	-0.3601775	0	10.77	4003	0	0	0	0	1.283162	-0.4605274	1	10	0	1400
500672	-93	17	3	-1.389765	1.253197	-0.3761953	0	10.77	4002	0	0	0	0	1.283162	-0.4730127	1	10	0	1400
500784	-95	5	9	-1.492641	1.190461	-0.3991217	0	10.83	4004	0	0	0	0	1.283162	-0.4980939	1	10	0	1400
500875	-96	8	10	-1.585796	1.136987	-0.4200305	0	10.83	4002	0	0	0	0	1.283162	-0.5093692	1	10	0	1400
501017	-103	2	14	-1.686165	1.073045	-0.4518221	0	10.83	4004	0	0	0	0	1.283162	-0.5364626	1	10	0	1400
501083	-93	-3	11	-1.727159	1.049562	-0.4665566	0	10.83	4004	0	0	0	0	1.283162	-0.5496588	1	10	0	1400
501191	-94	2	14	-1.791385	1.013191	-0.489729	0	10.83	4003	0	0	0	0	1.283162	-0.5626152	1	10	0	1400
501328	-94	2	14	-1.853165	0.9769303	-0.5218258	0	10.83	4003	0	0	0	0	1.283162	-0.5727377	1	10	0	1400
501424	-91	4	9	-1.890944	0.949149	-0.5438956	0	10.83	4002	0	0	0	0	1.283162	-0.5823765	1	10	0	1400
501476	-94	1	15	-1.914016	0.9343117	-0.5591815	0	10.83	4002	0	0	0	0	1.283162	-0.5839446	1	10	0	1400
501571	-100	0	17	-1.949268	0.9104324	-0.5818045	0	10.83	4002	0	0	0	0	1.283162	-0.5884086	1	10	0	1400
501702	-88	0	7	-1.984178	0.8830099	-0.6113331	0	10.83	4002	0	0	0	0	1.283162	-0.5900464	1	10	0	1400
501785	-94	0	11	-1.99785	0.8763374	-0.626495	0	10.83	4003	0	0	0	0	1.283162	-0.5954047	1	10	0	1400
501882	-91	4	11	-2.019495	0.8684421	-0.6454489	0	10.83	4003	0	0	0	0	1.283162	-0.5981309	1	10	0	1400
501978	-98	2	17	-2.048802	0.8581442	-0.673817	0	10.83	4003	0	0	0	0	1.283162	-0.5972129	1	10	0	1400
502112	-95	5	8	-2.072634	0.8434448	-0.6955193	0	10.83	4004	0	0	0	0	1.283162	-0.5928087	1	10	0	1400
502195	-95	0	19	-2.081614	0.8398191	-0.7158178	0	10.83	4003	0	0	0	0	1.283162	-0.5952274	1	10	0	1400
502266	-95	1	16	-2.09285	0.8306206	-0.7310408	0	10.83	4003	0	0	0	0	1.283162	-0.6005281	1	10	0	1400
502366	-93	-1	17	-2.09623	0.8216413	-0.7600213	0	10.83	4003	0	0	0	0	1.283162	-0.5955755	1	10	0	1400
502499	-94	2	13	-2.107064	0.8097942	-0.7869832	0	10.83	4003	0	0	0	0	1.283162	-0.591727	1	10	0	1400
502557	-90	-7	6	-2.107032	0.8025917	-0.7988439	0	10.83	4004	0	0	0	0	1.283162	-0.5915425	1	10	0	1400
502759	-93	8	11	-2.117591	0.7861554	-0.8379741	0	10.83	4002	0	0	0	0	1.283162	-0.5817364	1	10	0	1400
502912	-91	4	7	-2.120709	0.7726299	-0.8624281	0	10.83	4003	0	0	0	0	1.283162	-0.5656344	1	10	0	1400
502955	-84	0	7	-2.118742	0.7735093	-0.8680521	0	10.83	4002	0	0	0	0	1.283162	-0.563132	1	10	0	1400
503055	-91	-5	13	-2.121405	0.7769024	-0.8870653	0	10.83	4003	0	0	0	0	1.283162	-0.5627105	1	10	0	1400
503164	-90	2	7	-2.114685	0.7786145	-0.9105437	0	10.83	4002	0	0	0	0	1.283162	-0.5664257	1	10	0	1400
503260	-93	-2	10	-2.117225	0.7751278	-0.9282124	0	10.83	4004	0	0	0	0	1.283162	-0.5698871	1	10	0	1400
503360	-90	4	13	-2.124879	0.7629371	-0.9471666	0	10.83	4004	0	0	0	0	1.283162	-0.5705895	1	10	0	1400
503461	-84	6	5	-2.115292	0.7615411	-0.9603143	0	10.83	4002	0	0	0	0	1.283162	-0.5693281	1	10	0	1400
503586	-97	4	10	-2.123572	0.7686806	-0.9916167	0	10.89	4004	0	0	0	0	1.283162	-0.5774875	1	10	0	1400
503715	-93	8	10	-2.127008	0.7646981	-1.014667	0	10.89	4002	0	0	0	0	1.283162	-0.583238	1	10	0	1400
503764	-84	6	12	-2.12936	0.7593915	-1.026894	0	10.89	4003	0	0	0	0	1.283162	-0.584232	1	10	0	1400
503854	138	278	108	-2.033483	0.6285888	-1.053731	0	10.89	4004	0	0	0	0	1.283162	-0.5790239	1	10	0	1400
503967	129	353	99	-2.07236	0.6919816	-1.060456	0	10.89	4003	0	0	0	0	1.283162	-0.5689226	1	10	0	1400
504031	-71	-37	-36	-1.983894	0.5377734	-1.098969	0	10.89	4004	0	0	0	0	1.283162	-0.5670826	1	10	0	1400
504208	171	-53	143	-1.86875	0.547514	-1.152335	0	10.89	4002	0	0	0	0	1.283162	-0.5563528	1	10	0	1400
504333	-1790	-557	-943	0.1821101	4.170341	-0.1563361	0	10.89	4003	0	0	0	0	1.283162	-0.5470155	1	10	0	1400
504365	-1763	-288	-250	-0.4075962	4.410292	0.1057308	0	10.94	4003	0	0	0	0	1.283162	-0.5452989	1	10	0	1400
504472	-994	-4794	-6293	0.7670519	7.75163	4.975006	0	10.94	4003	0	0	0	0	1.283162	-0.5456917	1	10	0	1400
504522	1094	-7329	-7932	2.611982	14.72326	12.93129	0	10.94	4002	0	0	0	0	1.283162	-0.551127	1	10	0	1400
504623	-4573	-11771	-6139	3.04313	31.27518	24.12332	0	10.94	4003	0	0	0	0	1.283162	-0.5594536	1	10	0	1400
504724	-1160	-14573	-641	1.955293	54.8637	29.68382	0	10.94	4004	0	0	0	0	1.283162	-0.5613276	1	10	0	1400
504825	632	-9505	1699	-1.23309	72.87726	28.29929	0	10.94	4004	0	0	0	0	1.283162	-0.5469043	1	10	0	1400
504920	154	-7786	-1042	-3.612175	88.24316	26.62934	0	10.94	4004	0	0	0	0	1.283162	-0.5169722	1	10	0	1400
505046	-490	-4495	-20	-2.752356	97.99221	28.0022	0	10.94	4004	0	0	0	0	1.283162	-0.4598411	1	10	0	1400
505098	714	-3124	354	-2.254084	98.93204	27.97971	0	10.94	4003	0	0	0	0	1.283162	-0.4248459	1	10	0	1400
505234	341	-892	-658	-1.231983	96.33694	28.04879	0	10.89	4003	0	0	0	0	1.283162	-0.3591222	1	10	0	1400
505295	238	-1013	-1177	1.14136	94.02053	29.29077	0	10.89	4003	0	0	0	0	1.283162	-0.2950946	1	10	0	1400
505429	-70	-792	-1541	5.437332	88.64118	32.20129	0	10.89	4003	0	0	0	0	1.283162	-0.22007	1	10	0	1400
505465	459	-457	-846	7.966757	85.80807	33.63184	0	10.89	4003	0	0	0	0	1.283162	-0.2101594	1	10	0	1400
505593	448	246	-808	10.96041	81.79048	34.97949	0	10.89	4004	0	0	0	0	1.283162	-0.1677244	1	10	0	1400
505678	778	2306	463	12.38654	75.04259	35.04758	0	10.89	4002	0	0	0	0	1.283162	-0.1508195	1	10	0	1400
505841	1262	6542	794	13.21564	61.00462	34.2051	0	10.89	4004	0	0	0	0	1.283162	-0.1261735	1	10	0	1400
505892	2366	9766	1459	13.75327	55.65931	33.57733	0	10.89	4003	0	0	0	0	1.283162	-0.1155881	1	10	0	1400
505972	1878	19428	3305	15.11948	31.74735	29.88323	0	10.89	4002	0	0	0	0	1.283162	-0.1032818	1	10	0	1400
506073	2926	15334	4069	16.91239	7.58226	23.2795	0	10.89	4003	0	0	0	0	1.283162	-0.08426309	1	10	0	1400
506228	3328	6813	1086	16.28354	-9.313001	16.76226	0	10.89	4006	0	0	0	0	1.283162	-0.08061922	1	10	0	1400
506284	3536	5143	366	17.4561	-11.81851	16.38624	0	10.89	4002	0	0	0	0	1.283162	-0.0921266	1	10	0	1400
506419	-959	495	-3597	16.37493	-16.0179	21.85155	0	10.89	4003	0	0	0	0	1.283162	-0.111775	1	10	0	1400
506445	-2293	1372	-3767	14.02006	-16.42093	23.90113	0	10.89	4003	0	0	0	0	1.283162	-0.1254509	1	10	0	1400
506578	2146	-761	-56	9.277031	-14.54854	29.32386	0	10.89	4003	0	0	0	0	1.283162	-0.1847069	1	10	0	1400
506687	-1053	2773	2694	10.8334	-12.89424	28.15683	0	10.89	4003	0	0	0	0	1.283162	-0.2261774	1	10	0	1400
506795	-3515	534	632	6.607123	-13.12078	24.58042	0	10.89	4004	0	0	0	0	1.283162	-0.269352	1	10	0	1400
506849	110	318	-229	4.471893	-13.29905	23.43329	0	10.89	4003	0	0	0	0	1.283162	-0.2979043	1	10	0	1400
506952	-128	2	58	3.79791	-11.6255	23.38543	0	10.89	4003	0	0	0	0	1.283162	-0.3381663	1	10	0	1400
507065	-103	3	-10	3.124393	-10.11362	23.3669	0	10.94	4004	0	0	0	0	1.283162	-0.382163	1	10	0	1400
507132	-97	3	33	2.552227	-8.807063	23.3488	0	10.94	4003	0	0	0	0	1.283162	-0.4021427	1	10	0	1400
507295	-91	0	7	1.891445	-7.309716	23.32667	0	10.94	4004	0	0	0	0	1.283162	-0.4444681	1	10	0	1400
507374	-90	1	17	1.61284	-6.654307	23.31456	0	10.94	4004	0	0	0	0	1.283162	-0.4621795	1	10	0	1400
507425	-85	1	11	1.352822	-6.061138	23.30392	0	10.94	4002	0	0	0	0	1.283162	-0.4728706	1	10	0	1400
507545	-89	1	8	0.8898402	-5.022036	23.28222	0	10.94	4002	0	0	0	0	1.283162	-0.5059855	1	10	0	1400
507622	-82	0	15	0.6911697	-4.568643	23.27036	0	10.94	4003	0	0	0	0	1.283162	-0.5199994	1	10	0	1400
507726	-83	5	7	0.4294592	-3.964669	23.25606	0	10.94	4003	0	0	0	0	1.283162	-0.53307	1	10	0	1400
507840	-86	-3	12	0.1265354	-3.276592	23.23251	0	10.94	4004	0	0	0	0	1.283162	-0.5258799	1	10	0	1400
508009	-84	0	13	-0.1764061	-2.566548	23.20248	0	10.83	4003	0	0	0	0	1.283162	-0.5239361	1	10	0	1400
508040	-89	0	11	-0.2337673	-2.443007	23.19581	0	10.83	4003	0	0	0	0	1.283162	-0.5222939	1	10	0	1400
508135	-89	0	10	-0.3361754	-2.205892	23.1837	0	10.83	4003	0	0	0	0	1.283162	-0.5184779	1	10	0	1400
508274	-81	2	13	-0.5514434	-1.715827	23.15379	0	10.83	4002	0	0	0	0	1.283162	-0.5185123	1	10	0	1400
508351	-82	5	11	-0.62014	-1.544748	23.1431	0	10.83	4003	0	0	0	0	1.283162	-0.5123071	1	10	0	1400
508437	-92	5	12	-0.7162783	-1.317304	23.12567	0	10.83	4004	0	0	0	0	1.283162	-0.5132012	1	10	0	1400
508526	-82	1	9	-0.7712629	-1.186924	23.11361	0	10.83	4003	0	0	0	0	1.283162	-0.5219086	1	10	0	1400
508633	-75	3	10	-0.8462084	-1.007129	23.0982	0	10.83	4004	0	0	0	0	1.283162	-0.527383	1	10	0	1400
508783	-85	7	11	-0.9567671	-0.7550567	23.0702	0	10.83	4003	0	0	0	0	1.283162	-0.5338538	1	10	0	1400
508838	-78	-3	12	-0.9749703	-0.7131282	23.06482	0	10.83	4002	0	0	0	0	1.283162	-0.5339062	1	10	0	1400
508977	-88	0	13	-1.041779	-0.5586392	23.04195	0	10.89	4002	0	0	0	0	1.283162	-0.5315023	1	10	0	1400
509131	-85	-3	10	-1.121739	-0.3634816	23.00697	0	10.89	4009	0	0	0	0	1.283162	-0.5355783	1	10	0	1400
509199	-81	-2	9	-1.142292	-0.3147598	22.9962	0	10.89	4003	0	0	0	0	1.283162	-0.5375093	1	10	0	1400
509328	-81	-2	8	-1.181408	-0.2243681	22.97584	0	10.89	4004	0	0	0	0	1.283162	-0.5427704	1	10	0	1400
509436	-92	2	8	-1.205269	-0.1668553	22.96038	0	10.89	4003	0	0	0	0	1.283162	-0.5362825	1	10	0	1400
509545	-85	1	13	-1.233937	-0.09700216	22.93899	0	10.89	4002	0	0	0	0	1.283162	-0.5239193	1	10	0	1400
509629	-89	3	11	-1.246449	-0.0670469	22.92743	0	10.89	4002	0	0	0	0	1.283162	-0.5186262	1	10	0	1400
509724	-89	2	12	-1.257028	-0.03911135	22.91734	0	10.89	4004	0	0	0	0	1.283162	-0.5181385	1	10	0	1400
509808	-81	3	7	-1.271144	0.00437477	22.89766	0	10.89	4004	0	0	0	0	1.283162	-0.5198869	1	10	0	1400
509907	-84	-4	12	-1.285808	0.0359666	22.88225	0	10.89	4003	0	0	0	0	1.283162	-0.5207996	1	10	0	1400
510010	-77	1	7	-1.298904	0.0702925	22.86924	0	10.89	4003	0	0	0	0	1.283162	-0.5149257	1	10	0	1400
510136	-78	2	10	-1.304788	0.0889239	22.85548	0	10.89	4003	0	0	0	0	1.283162	-0.5022798	1	10	0	1400
510231	-82	2	14	-1.308976	0.1073896	22.83996	0	10.89	4004	0	0	0	0	1.283162	-0.508262	1	10	0	1400
510311	-74	0	9	-1.313132	0.1216831	22.82969	0	10.89	4002	0	0	0	0	1.283162	-0.5148968	1	10	0	1400
510435	-84	8	6	-1.315279	0.1475542	22.80432	0	10.89	4003	0	0	0	0	1.283162	-0.5120259	1	10	0	1400
510543	-86	5	9	-1.316046	0.1542365	22.79087	0	10.89	4004	0	0	0	0	1.283162	-0.5178117	1	10	0	1400
510608	-78	-3	10	-1.321518	0.1683522	22.77363	0	10.89	4004	0	0	0	0	1.283162	-0.5262993	1	10	0	1400
510799	-87	3	14	-1.327633	0.1800404	22.74513	0	10.89	4004	0	0	0	0	1.283162	-0.5379025	1	10	0	1400
510861	-70	1	4	-1.327992	0.1830369	22.73596	0	10.89	4004	0	0	0	0	1.283162	-0.5482486	1	10	0	1400
510932	-78	6	10	-1.322589	0.1839721	22.72569	0	10.89	4002	0	0	0	0	1.283162	-0.5682788	1	10	0	1400
511039	-77	-4	3	-1.316644	0.1901334	22.7057	0	10.89	4003	0	0	0	0	1.283162	-0.5840436	1	10	0	1400
511101	-88	2	9	-1.315549	0.1939434	22.7013	0	10.89	4004	0	0	0	0	1.283162	-0.5928102	1	10	0	1400
511199	-81	4	11	-1.316498	0.1985396	22.68002	0	10.89	4004	0	0	0	0	1.283162	-0.6178029	1	10	0	1400
511342	-77	5	9	-1.316725	0.2041459	22.66046	0	10.89	4003	0	0	0	0	1.283162	-0.6373048	1	10	0	1400
511365	-79	3	11	-1.32053	0.2110492	22.64884	0	10.89	4003	0	0	0	0	1.283162	-0.6395118	1	10	0	1400
511473	-70	-1	13	-1.312591	0.2136749	22.63466	0	10.89	4003	0	0	0	0	1.283162	-0.6504771	1	10	0	1400
511600	-82	-4	10	-1.309074	0.2187218	22.61937	0	10.89	4003	0	0	0	0	1.283162	-0.6607918	1	10	0	1400
511732	-82	7	9	-1.3093	0.2174872	22.59597	0	10.89	4004	0	0	0	0	1.283162	-0.6560363	1	10	0	1400
511782	-77	5	7	-1.312036	0.2157594	22.58998	0	10.89	4003	0	0	0	0	1.283162	-0.6506718	1	10	0	1400
511844	-83	3	9	-1.316728	0.2145281	22.58075	0	10.89	4002	0	0	0	0	1.283162	-0.6478121	1	10	0	1400
511971	-80	3	6	-1.319137	0.2138537	22.55729	0	10.89	4002	0	0	0	0	1.283162	-0.6420541	1	10	0	1400
512100	-79	0	7	-1.315712	0.2071639	22.53564	0	10.89	4004	0	0	0	0	1.283162	-0.6399059	1	10	0	1400
512134	-80	2	7	-1.316591	0.2069647	22.53008	0	10.89	4003	0	0	0	0	1.283162	-0.6399059	1	10	0	1400
512238	-75	7	9	-1.318195	0.2104049	22.51614	0	10.89	4004	0	0	0	0	1.283162	-0.6163397	1	10	0	1400
512365	-74	-6	7	-1.31309	0.2141226	22.49334	0	10.89	4004	0	0	0	0	1.283162	-0.5912391	1	10	0	1400
512513	-77	-1	11	-1.311146	0.2158881	22.47366	0	10.89	4004	0	0	0	0	1.283162	-0.5707539	1	10	0	1400
512598	-80	-6	6	-1.315686	0.2138442	22.45856	0	10.89	4004	0	0	0	0	1.283162	-0.5650188	1	10	0	1400
512724	-76	-2	10	-1.304568	0.213149	22.43906	0	10.89	4004	0	0	0	0	1.283162	-0.5534483	1	10	0	1400
512844	-81	-3	6	-1.300161	0.2195994	22.41974	0	10.89	4003	0	0	0	0	1.283162	-0.5438957	1	10	0	1400
513047	-75	6	8	-1.299149	0.2188272	22.39029	0	10.89	4002	0	0	0	0	1.283162	-0.5255963	1	10	0	1400
513118	-78	-5	11	-1.295352	0.222112	22.37793	0	10.89	4002	0	0	0	0	1.283162	-0.5239806	1	10	0	1400
513212	-85	2	13	-1.295934	0.2244913	22.36308	0	10.89	4003	0	0	0	0	1.283162	-0.5271561	1	10	0	1400
513334	-70	4	8	-1.295461	0.223909	22.34186	0	10.83	4003	0	0	0	0	1.283162	-0.5306628	1	10	0	1400
513479	-71	3	6	-1.285865	0.2194407	22.325	0	10.83	4004	0	0	0	0	1.283162	-0.5372626	1	10	0	1400
513608	-81	0	11	-1.289775	0.2252517	22.30421	0	10.83	4004	0	0	0	0	1.283162	-0.5491953	1	10	0	1400
513808	-76	0	9	-1.287779	0.2296095	22.28031	0	10.83	4004	0	0	0	0	1.283162	-0.562036	1	10	0	1400
514047	-77	0	10	-1.291791	0.2251709	22.24791	0	10.83	4003	0	0	0	0	1.283162	-0.5667318	1	10	0	1400
514175	-74	10	17	-1.283688	0.2226741	22.22853	0	10.83	4004	0	0	0	0	1.283162	-0.5598681	1	10	0	1400
514237	-80	0	9	-1.283476	0.2251376	22.21937	0	10.94	4003	0	0	0	0	1.283162	-0.5559208	1	10	0	1400
514382	-73	3	4	-1.28275	0.2194559	22.19859	0	10.94	4002	0	0	0	0	1.283162	-0.5398915	1	10	0	1400
514433	-77	4	2	-1.277954	0.2234275	22.19071	0	10.94	4004	0	0	0	0	1.283162	-0.5413489	1	10	0	1400
514542	-77	0	4	-1.275845	0.2134341	22.17868	0	10.94	4003	0	0	0	0	1.283162	-0.5448905	1	10	0	1400
514660	-77	3	6	-1.268195	0.2127041	22.16634	0	10.94	4004	0	0	0	0	1.283162	-0.553917	1	10	0	1400
514886	-76	1	7	-1.271567	0.2123906	22.14055	0	10.94	4002	0	0	0	0	1.283162	-0.5606349	1	10	0	1400
514973	-73	3	9	-1.274196	0.2166486	22.12766	0	10.94	4004	0	0	0	0	1.283162	-0.5581303	1	10	0	1400
515094	-76	6	7	-1.263405	0.2114841	22.11031	0	10.94	4004	0	0	0	0	1.283162	-0.5542058	1	10	0	1400
515198	-73	-3	4	-1.258379	0.2124406	22.09895	0	10.89	4004	0	0	0	0	1.283162	-0.5572991	1	10	0	1400
515251	-72	2	8	-1.249934	0.2093961	22.09058	0	10.89	4003	0	0	0	0	1.283162	-0.557301	1	10	0	1400
515358	-66	-7	7	-1.24547	0.2098137	22.07885	0	10.89	4002	0	0	0	0	1.283162	-0.5433426	1	10	0	1400
515500	-78	0	2	-1.235455	0.2097846	22.06408	0	10.89	4003	0	0	0	0	1.283162	-0.536972	1	10	0	1400
515601	-71	2	6	-1.231323	0.209867	22.05112	0	10.89	4004	0	0	0	0	1.283162	-0.5438403	1	10	0	1400
515744	-69	0	7	-1.224881	0.2084869	22.03029	0	10.89	4002	0	0	0	0	1.283162	-0.5523916	1	10	0	1400
515833	-71	2	7	-1.224782	0.212177	22.01832	0	10.89	4002	0	0	0	0	1.283162	-0.5638241	1	10	0	1400
515928	-72	-6	10	-1.22287	0.2180127	22.00604	0	10.89	4004	0	0	0	0	1.283162	-0.5710061	1	10	0	1400
516106	-68	0	8	-1.220463	0.2222399	21.98294	0	10.94	4003	0	0	0	0	1.283162	-0.5654686	1	10	0	1400
516168	-65	11	8	-1.218582	0.2190489	21.9731	0	10.94	4003	0	0	0	0	1.283162	-0.5640563	1	10	0	1400
516299	-63	2	8	-1.213815	0.2233037	21.95538	0	10.94	4004	0	0	0	0	1.283162	-0.5653942	1	10	0	1400
516361	-75	1	4	-1.21208	0.2224352	21.9464	0	10.94	4003	0	0	0	0	1.283162	-0.5706223	1	10	0	1400
516417	-70	4	8	-1.210274	0.2199965	21.93852	0	10.94	4002	0	0	0	0	1.283162	-0.5723047	1	10	0	1400
516509	-74	0	11	-1.210646	0.2225846	21.93027	0	10.94	4003	0	0	0	0	1.283162	-0.58166	1	10	0	1400
516600	-67	5	6	-1.20266	0.2254266	21.91279	0	10.94	4003	0	0	0	0	1.283162	-0.5865393	1	10	0	1400
516693	-73	-1	7	-1.20524	0.2186426	21.89824	0	10.94	4004	0	0	0	0	1.283162	-0.582907	1	10	0	1400
516796	-68	0	9	-1.203246	0.2112801	21.88564	0	10.94	4003	0	0	0	0	1.283162	-0.5781776	1	10	0	1400
516937	-64	1	4	-1.199433	0.2170843	21.86903	0	10.94	4003	0	0	0	0	1.283162	-0.5739349	1	10	0	1400
517045	-78	-1	11	-1.201039	0.2172781	21.85436	0	10.94	4004	0	0	0	0	1.283162	-0.558198	1	10	0	1400
517144	-80	-3	12	-1.205415	0.2214519	21.84293	0	10.94	4004	0	0	0	0	1.283162	-0.5516896	1	10	0	1400
517264	-77	2	9	-1.202957	0.2115007	21.83089	0	10.94	4003	0	0	0	0	1.283162	-0.5398909	1	10	0	1400
