time(ms)	gyro_x(deg/s)	gyro_y(deg/s)	gyro_z(deg/s)	orientation_roll(deg)	orientation_pitch(deg)	orientation_yaw(deg)	throttle	battery(V)	loop_time(uS)	pid_output_roll	pid_output_pitch	pid_output_yaw	pid_output_throttle	ultrasonic_alt	baro_alt	flight_mode	p_gain_altitude	i_gain_altitude	d_gain_altitude
517385	-71	4	9	-1.202985	0.2051091	21.81353	0	10.94	4003	0	0	0	0	1.283162	-0.534193	1	10	0	1400
517508	-64	3	10	-1.198966	0.2109395	21.79319	0	10.94	4004	0	0	0	0	1.283162	-0.5313585	1	10	0	1400
517650	-69	3	9	-1.194404	0.2151063	21.77547	0	10.94	4002	0	0	0	0	1.283162	-0.5202098	1	10	0	1400
517757	-71	0	10	-1.196841	0.2140322	21.76184	0	10.94	4004	0	0	0	0	1.283162	-0.5130318	1	10	0	1400
517864	-69	1	9	-1.196319	0.2116779	21.74686	0	10.94	4003	0	0	0	0	1.283162	-0.5029979	1	10	0	1400
517912	-67	2	9	-1.196321	0.2119643	21.74234	0	10.94	4002	0	0	0	0	1.283162	-0.5016984	1	10	0	1400
518066	-70	4	15	-1.188311	0.2084672	21.71739	0	10.94	4004	0	0	0	0	1.283162	-0.5002139	1	10	0	1400
518114	-68	1	12	-1.189	0.2113471	21.71324	0	10.94	4004	0	0	0	0	1.283162	-0.5014944	1	10	0	1400
518314	-63	4	8	-1.18576	0.2063256	21.68794	0	10.94	4002	0	0	0	0	1.283162	-0.5148846	1	10	0	1400
518477	-65	3	11	-1.190118	0.2021245	21.66979	0	10.94	4002	0	0	0	0	1.283162	-0.5199612	1	10	0	1400
518588	-66	0	9	-1.186291	0.199447	21.64974	0	10.94	4004	0	0	0	0	1.283162	-0.5283752	1	10	0	1400
518667	-69	1	5	-1.182548	0.200654	21.64032	0	10.94	4003	0	0	0	0	1.283162	-0.5284123	1	10	0	1400
518720	-69	5	5	-1.179448	0.1999297	21.63133	0	10.94	4004	0	0	0	0	1.283162	-0.5256812	1	10	0	1400
518824	-69	0	8	-1.176007	0.1979601	21.6138	0	10.94	4004	0	0	0	0	1.283162	-0.5195432	1	10	0	1400
518989	-64	-4	9	-1.169015	0.1969946	21.59663	0	10.94	4003	0	0	0	0	1.283162	-0.5065082	1	10	0	1400
519040	-68	4	10	-1.169061	0.1952215	21.58839	0	10.94	4002	0	0	0	0	1.283162	-0.5046653	1	10	0	1400
519143	-68	-2	7	-1.165273	0.1935699	21.57617	0	10.94	4004	0	0	0	0	1.283162	-0.50319	1	10	0	1400
519224	-59	1	9	-1.169801	0.1898407	21.56804	0	10.94	4004	0	0	0	0	1.283162	-0.5108296	1	10	0	1400
519331	-68	2	8	-1.165215	0.1938832	21.55626	0	10.94	4003	0	0	0	0	1.283162	-0.5288761	1	10	0	1400
519463	-62	3	9	-1.15681	0.1914303	21.53865	0	10.94	4002	0	0	0	0	1.283162	-0.5426747	1	10	0	1400
519566	-58	-3	-1	-1.14959	0.1873961	21.52833	0	10.94	4004	0	0	0	0	1.283162	-0.5621057	1	10	0	1400
519663	-58	0	4	-1.14641	0.1868973	21.5177	0	10.94	4003	0	0	0	0	1.283162	-0.569471	1	10	0	1400
519770	-64	-2	11	-1.132762	0.1872255	21.50701	0	10.83	4002	0	0	0	0	1.283162	-0.5729976	1	10	0	1400
519838	-65	-1	6	-1.13418	0.1871522	21.49968	0	10.83	4004	0	0	0	0	1.283162	-0.5748577	1	10	0	1400
519984	-60	0	5	-1.124023	0.1886557	21.48281	0	10.83	4004	0	0	0	0	1.283162	-0.5783899	1	10	0	1400
520071	-59	-4	8	-1.127618	0.1922716	21.47108	0	10.83	4004	0	0	0	0	1.283162	-0.5710687	1	10	0	1400
520140	-66	5	6	-1.120614	0.1986508	21.46045	0	10.83	4003	0	0	0	0	1.283162	-0.5668578	1	10	0	1400
520248	-64	0	5	-1.12881	0.2000359	21.44897	0	10.83	4003	0	0	0	0	1.283162	-0.5663012	1	10	0	1400
520341	-59	0	8	-1.120814	0.1998902	21.44103	0	10.83	4003	0	0	0	0	1.283162	-0.5728556	1	10	0	1400
520444	-66	-5	7	-1.11499	0.2035979	21.4304	0	10.83	4002	0	0	0	0	1.283162	-0.5720486	1	10	0	1400
520564	-65	0	7	-1.114246	0.208443	21.41178	0	10.83	4002	0	0	0	0	1.283162	-0.5652517	1	10	0	1400
520647	-63	5	9	-1.109233	0.2087504	21.40346	0	10.83	4002	0	0	0	0	1.283162	-0.5595356	1	10	0	1400
520792	-66	0	11	-1.10852	0.2076397	21.3882	0	10.94	4003	0	0	0	0	1.283162	-0.5379785	1	10	0	1400
520953	-55	-4	7	-1.107427	0.2075581	21.36914	0	10.94	4002	0	0	0	0	1.283162	-0.530217	1	10	0	1400
521084	-55	-1	1	-1.104055	0.2073227	21.35337	0	10.94	4004	0	0	0	0	1.283162	-0.5282707	1	10	0	1400
521211	-58	0	4	-1.108106	0.2055774	21.34018	0	10.94	4004	0	0	0	0	1.283162	-0.5174903	1	10	0	1400
521295	-63	4	7	-1.102079	0.2067158	21.32827	0	10.94	4003	0	0	0	0	1.283162	-0.514312	1	10	0	1400
521335	-62	-1	13	-1.102952	0.2072162	21.32497	0	10.94	4002	0	0	0	0	1.283162	-0.5150613	1	10	0	1400
521458	-59	3	7	-1.099497	0.1973687	21.31037	0	10.94	4004	0	0	0	0	1.283162	-0.5212024	1	10	0	1400
521608	-55	3	11	-1.092455	0.1996144	21.29301	0	10.89	4003	0	0	0	0	1.283162	-0.528399	1	10	0	1400
521730	-54	6	10	-1.094492	0.1985179	21.28024	0	10.89	4002	0	0	0	0	1.283162	-0.5374753	1	10	0	1400
521786	-60	-3	7	-1.092674	0.1975603	21.27205	0	10.89	4004	0	0	0	0	1.283162	-0.5434062	1	10	0	1400
521877	-59	3	7	-1.087407	0.2014626	21.26167	0	10.89	4002	0	0	0	0	1.283162	-0.5403852	1	10	0	1400
522006	-63	7	6	-1.081671	0.1991497	21.24102	0	10.89	4003	0	0	0	0	1.283162	-0.5207359	1	10	0	1400
522112	-60	0	9	-1.079826	0.1936955	21.23051	0	10.89	4004	0	0	0	0	1.283162	-0.5145347	1	10	0	1400
522201	-62	1	9	-1.078641	0.190083	21.21994	0	10.89	4004	0	0	0	0	1.283162	-0.5167558	1	10	0	1400
522267	-51	-2	6	-1.068392	0.1938654	21.21212	0	10.89	4003	0	0	0	0	1.283162	-0.5181241	1	10	0	1400
522328	-53	1	9	-1.067619	0.2010748	21.20314	0	10.89	4002	0	0	0	0	1.283162	-0.5159318	1	10	0	1400
522392	-58	2	12	-1.06024	0.1959802	21.19416	0	10.89	4002	0	0	0	0	1.283162	-0.5131089	1	10	0	1400
522522	-50	1	2	-1.057141	0.1967325	21.18	0	10.94	4004	0	0	0	0	1.283162	-0.5095637	1	10	0	1400
522637	-64	4	6	-1.047129	0.2028284	21.16943	0	10.94	4003	0	0	0	0	1.283162	-0.5080625	1	10	0	1400
522720	-51	5	4	-1.053145	0.201063	21.15508	0	10.94	4002	0	0	0	0	1.283162	-0.511851	1	10	0	1400
522805	-58	3	5	-1.05354	0.2007566	21.14805	0	10.94	4002	0	0	0	0	1.283162	-0.5214376	1	10	0	1400
522885	-65	1	3	-1.052882	0.1956628	21.13718	0	10.94	4002	0	0	0	0	1.283162	-0.5234012	1	10	0	1400
523067	-60	-1	2	-1.058805	0.1958501	21.11819	0	10.94	4003	0	0	0	0	1.283162	-0.5305241	1	10	0	1400
523161	-62	-2	10	-1.063137	0.1960166	21.10713	0	10.94	4003	0	0	0	0	1.283162	-0.532477	1	10	0	1400
523182	-62	-2	10	-1.063137	0.1960166	21.10713	0	10.94	4003	0	0	0	0	1.283162	-0.5324066	1	10	0	1400
523281	-55	6	7	-1.054298	0.1933839	21.09559	0	10.94	4004	0	0	0	0	1.283162	-0.532147	1	10	0	1400
523477	-54	-2	5	-1.051563	0.1996199	21.07275	0	10.89	4002	0	0	0	0	1.283162	-0.5350179	1	10	0	1400
523508	-60	-5	7	-1.050072	0.1985174	21.06548	0	10.89	4003	0	0	0	0	1.283162	-0.5344013	1	10	0	1400
523610	-55	5	5	-1.049166	0.1987236	21.05241	0	10.89	4003	0	0	0	0	1.283162	-0.5413336	1	10	0	1400
523701	-63	-3	0	-1.045764	0.1954398	21.04544	0	10.89	4003	0	0	0	0	1.283162	-0.5545694	1	10	0	1400
523815	-50	5	10	-1.041448	0.1916733	21.03262	0	10.89	4003	0	0	0	0	1.283162	-0.5690845	1	10	0	1400
523916	-55	4	9	-1.038004	0.1922348	21.02309	0	10.89	4004	0	0	0	0	1.283162	-0.5856142	1	10	0	1400
524005	-56	1	2	-1.033563	0.193944	21.01612	0	10.89	4004	0	0	0	0	1.283162	-0.5946516	1	10	0	1400
524128	-54	0	9	-1.027792	0.1844782	21.00159	0	10.89	4003	0	0	0	0	1.283162	-0.5980113	1	10	0	1400
524230	-59	1	6	-1.02831	0.1862981	20.99175	0	10.89	4003	0	0	0	0	1.283162	-0.6056393	1	10	0	1400
524347	-62	-2	5	-1.023535	0.1900148	20.97643	0	10.89	4004	0	0	0	0	1.283162	-0.6047848	1	10	0	1400
524493	-55	1	6	-1.017854	0.1915228	20.96311	0	10.89	4002	0	0	0	0	1.283162	-0.6086881	1	10	0	1400
524723	-59	-6	4	-1.016462	0.1928804	20.941	0	10.89	4004	0	0	0	0	1.283162	-0.6284907	1	10	0	1400
524821	-46	1	9	-1.018387	0.1943162	20.92738	0	10.89	4003	0	0	0	0	1.283162	-0.6348344	1	10	0	1400
524977	-66	2	2	-1.033327	0.190123	20.91663	0	10.89	4003	0	0	0	0	1.283162	-0.6343447	1	10	0	1400
525015	-50	-2	3	-1.023876	0.1912675	20.91199	0	10.89	4003	0	0	0	0	1.283162	-0.6344078	1	10	0	1400
525172	-48	1	3	-1.041667	0.1906032	20.90039	0	10.89	4003	0	0	0	0	1.283162	-0.6352921	1	4	0	500
525281	-54	2	10	-1.031125	0.1931979	20.88592	0	10.89	4002	0	0	0	0	1.283162	-0.6307155	1	4	0	500
525338	-50	0	4	-1.020287	0.1882793	20.88012	0	10.89	4003	0	0	0	0	1.283162	-0.6286613	1	4	0	500
525412	-54	0	5	-1.012891	0.1835226	20.87242	0	10.89	4003	0	0	0	0	1.283162	-0.6276569	1	4	0	500
525509	-58	0	8	-1.01594	0.1806189	20.86259	0	10.89	4004	0	0	0	0	1.283162	-0.6284648	1	4	0	500
525708	-53	-5	5	-0.9989483	0.1840736	20.84311	0	10.89	4003	0	0	0	0	1.283162	-0.6395072	1	4	0	500
525769	-60	-1	6	-0.9954329	0.1869047	20.8359	0	10.89	4004	0	0	0	0	1.283162	-0.6451318	1	4	0	500
525864	-54	0	10	-0.9977559	0.1908542	20.82955	0	10.89	4002	0	0	0	0	1.283162	-0.6491717	1	4	0	500
525932	-52	3	3	-0.9859074	0.1903286	20.82424	0	10.89	4003	0	0	0	0	1.283162	-0.6474706	1	4	0	500
526060	-58	0	7	-0.9757231	0.1962728	20.81209	0	10.89	4004	0	0	0	0	1.283162	-0.6518775	1	4	0	500
526121	-51	0	6	-0.9774028	0.1951663	20.8058	0	10.89	4004	0	0	0	0	1.283162	-0.653273	1	4	0	500
526231	-49	-4	7	-0.9703292	0.196606	20.79602	0	10.89	4004	0	0	0	0	1.283162	-0.6440277	1	4	0	500
526358	-50	1	0	-0.9654745	0.2020854	20.78345	0	10.89	4004	0	0	0	0	1.283162	-0.6214018	1	4	0	500
526484	-54	1	8	-0.9621151	0.19781	20.7678	0	10.89	4004	0	0	0	0	1.283162	-0.6128365	1	4	0	500
526531	-61	-1	7	-0.962251	0.1981846	20.76396	0	10.89	4004	0	0	0	0	1.283162	-0.6101706	1	4	0	500
526676	-55	5	6	-0.9582696	0.1891343	20.75089	0	10.89	4003	0	0	0	0	1.283162	-0.5940281	1	4	0	500
526780	-49	1	4	-0.9511873	0.1834035	20.74142	0	10.89	4003	0	0	0	0	1.283162	-0.5857983	1	4	0	500
526866	-53	-1	4	-0.9547688	0.1861753	20.73208	0	10.89	4003	0	0	0	0	1.283162	-0.5829952	1	4	0	500
526938	-48	4	9	-0.9579079	0.1810431	20.72224	0	10.89	4004	0	0	0	0	1.283162	-0.5818335	1	4	0	500
527095	-53	9	10	-0.9549704	0.1839965	20.70831	0	10.83	4004	0	0	0	0	1.283162	-0.5834001	1	4	0	500
527163	-51	3	3	-0.9517421	0.1789446	20.69958	0	10.83	4002	0	0	0	0	1.283162	-0.5836062	1	4	0	500
527234	-44	-3	6	-0.9496267	0.1803841	20.69102	0	10.83	4003	0	0	0	0	1.283162	-0.582303	1	4	0	500
527386	-57	-2	5	-0.9497354	0.1815934	20.67642	0	10.83	4002	0	0	0	0	1.283162	-0.575248	1	4	0	500
527442	-43	-2	5	-0.9519487	0.1835209	20.66983	0	10.83	4004	0	0	0	0	1.283162	-0.5731606	1	4	0	500
527618	-51	-1	5	-0.9481794	0.1779513	20.65169	0	10.83	4004	0	0	0	0	1.283162	-0.5478167	3	4	0	500
527663	-41	1	0	-0.9488987	0.1773813	20.64894	0	10.83	4002	0	0	0	0	1.283162	-0.5465953	3	4	0	500
527791	-50	6	6	-0.9411386	0.1782908	20.63429	0	10.83	4002	0	0	0	0	1.283162	-0.5417248	3	4	0	500
527860	-44	1	5	-0.9367517	0.1770719	20.62781	0	10.83	4002	0	0	0	0	1.283162	-0.5398339	3	4	0	500
527998	-43	1	7	-0.9305664	0.1756085	20.61499	0	10.89	4004	0	0	0	0	1.283162	-0.5351533	3	4	0	500
528058	-57	-1	7	-0.9284863	0.1780586	20.60735	0	10.89	4002	0	0	0	0	1.283162	-0.533163	3	4	0	500
528228	-51	0	5	-0.9195641	0.1800161	20.59575	0	10.89	4003	0	0	0	0	1.283162	-0.5308015	3	4	0	500
528265	-60	0	2	-0.9224609	0.1794937	20.59202	0	10.89	4002	0	0	0	0	1.283162	-0.5326158	3	4	0	500
528451	-46	-1	6	-0.9397395	0.187298	20.56912	0	10.89	4003	0	0	0	0	1.283162	-0.5251313	3	4	0	500
528512	-54	-2	4	-0.9424491	0.1872048	20.56241	0	10.89	4004	0	0	0	0	1.283162	-0.5239197	3	4	0	500
528578	-43	4	4	-0.9402748	0.1851854	20.56046	0	10.89	4004	3	0	0	0	1.283162	-0.5223566	3	4	0	500
528711	-48	3	20	-0.932506	0.182024	20.54439	0	10.89	4003	5	-4	0	0	1.283162	-0.5171727	3	4	0	500
528773	-65	23	28	-0.9167762	0.1777367	20.54017	0	10.89	4003	5	3	0	0	1.283162	-0.5156435	3	4	0	500
528937	-44	17	0	-0.8952686	0.1601985	20.5066	0	10.83	4003	3	-1	1	0	1.283162	-0.5014039	3	4	0	500
528981	-81	-30	-10	-0.8986619	0.1554439	20.50562	0	10.83	4004	21	2	0	0	1.283162	-0.4976176	3	4	0	500
529103	-111	10	87	-0.8911012	0.1781273	20.48563	0	10.83	4004	3	-2	2	0	1.283162	-0.4949861	3	4	0	500
529207	-37	-19	37	-0.8856607	0.1726908	20.47849	0	10.83	4003	14	-8	2	0	1.283162	-0.5007158	3	4	0	500
529353	-64	3	-40	-0.8639136	0.1698785	20.46254	0	10.83	4004	21	-8	3	0	1.283162	-0.510644	3	4	0	500
529410	-100	16	0	-0.8944503	0.1651383	20.45624	0	10.83	4003	6	1	1	0	1.283162	-0.5123095	3	4	0	500
529489	-81	-8	59	-0.8967353	0.1701557	20.44561	0	10.83	4004	20	-7	2	0	1.283162	-0.5163784	3	4	0	500
529594	17	-26	-83	-0.8887793	0.1765747	20.43987	0	10.83	4004	11	-5	2	0	1.283162	-0.5178202	3	4	0	500
529696	-91	8	120	-0.9058291	0.1760999	20.42592	0	10.83	4003	30	-8	3	0	1.283162	-0.530614	3	4	0	500
529840	-25	-62	-47	-0.9066818	0.186296	20.42134	0	10.83	4002	29	-20	3	0	1.283162	-0.5448641	3	4	0	500
529906	-142	165	-53	-0.9663743	0.1777041	20.41449	0	10.66	4003	-14	7	4	0	1.283162	-0.5468534	3	4	0	500
530013	-107	-96	40	-0.9323096	0.1496223	20.38196	0	10.66	4004	-10	-17	4	0	1.283162	-0.5387866	3	4	0	500
530135	-272	42	65	-0.9355739	0.1285202	20.36912	0	10.66	4002	36	18	7	0	1.283162	-0.5145469	3	4	0	500
530237	-42	-168	77	-0.8846714	0.1283168	20.35271	0	10.66	4003	19	-13	4	0	1.283162	-0.4930813	3	4	0	500
530338	36	-52	-414	-0.9405151	0.1769065	20.35902	0	10.66	4004	37	2	5	0	1.283162	-0.4713827	3	4	0	500
530424	-308	-138	542	-1.012691	0.1772555	20.2878	0	10.66	4004	-4	1	3	0	1.283162	-0.4585646	3	4	0	500
530547	-227	-724	344	-1.16222	0.261699	20.23508	0	10.66	4003	42	-54	16	0	1.283162	-0.4378311	3	4	0	500
530662	2345	1365	1494	0.8135152	0.4318828	20.23053	0	10.66	4003	-21	-179	5	0	1.283162	-0.406994	3	4	0	500
530727	-955	-67	-1904	0.7973958	-0.6198816	20.45774	0	10.66	4003	31	101	-2	0	1.283162	-0.3987461	3	4	0	500
530859	201	2964	1459	-0.5461583	-5.596013	20.19376	0	10.38	4002	24	-103	-3	0	1.283162	-0.3701261	3	4	0	500
530966	-1288	2682	-1532	-2.020322	-9.275723	19.99114	0	10.38	4002	-120	175	41	0	1.283162	-0.3357032	3	4	0	500
531109	-853	2442	-1987	-3.969579	-17.53504	20.49321	0	10.38	4002	-110	-82	16	0	1.283162	-0.3092288	3	4	0	500
531147	-76	3292	1131	-4.255927	-18.49567	20.61393	0	10.38	4003	-150	137	11	0	1.283162	-0.3049261	3	4	0	500
531255	-2081	8	792	-6.642865	-18.58073	20.81056	0	10.38	4003	-96	0	2	0	1.283162	-0.2754066	3	4	0	500
531404	1285	-82	-166	-6.073879	-16.61055	21.5081	0	10.38	4004	-12	-61	-27	0	1.283162	-0.2183192	3	4	0	500
531473	-42	-4590	660	-5.114851	-11.88674	21.51458	0	10.38	4004	45	-104	-32	0	1.283162	-0.1915905	3	4	0	500
531621	1988	699	2088	-2.352223	-4.49658	20.3573	0	10.38	4007	-177	150	23	0	1.283162	-0.1333041	3	4	0	500
531660	1012	1556	682	-1.564071	-5.521552	20.23116	0	10.38	4003	-65	214	20	0	1.283162	-0.1212379	3	4	0	500
531769	284	-2290	-2423	-0.3168972	-7.260422	20.7927	0	9.87	4004	-3	-247	-24	0	1.283162	-0.07058463	3	4	0	500
531880	281	-1938	74	0.3114819	-5.026654	21.97931	0	9.87	4003	-105	154	-31	0	1.283162	0.01301131	3	4	0	500
532012	655	-653	-503	-1.075171	-3.170897	21.81989	0	9.87	4002	-85	-144	-21	0	1.283162	0.06914648	3	4	0	500
532060	-1130	79	175	-0.7150228	-5.161389	20.9935	0	9.87	4002	-141	244	-7	0	1.283162	0.1008707	3	4	0	500
532164	-1166	-2707	1748	-3.76608	-3.855196	20.3704	0	9.87	4003	104	-321	-1	0	1.283162	0.1345707	3	4	0	500
532266	1551	378	1147	-3.706467	-0.6862714	20.74682	0	9.87	4002	67	-53	-17	0	1.283162	0.1574773	3	4	0	500
532386	-492	205	-1557	-2.6149	-3.834373	20.65451	0	9.87	4003	93	-222	-26	0	1.283162	0.1807252	3	4	0	500
532548	270	-368	1153	-2.238392	-3.218764	20.98569	0	9.87	4003	-101	195	-8	0	1.283162	0.2134316	3	4	0	500
532637	940	2036	1310	-1.68607	-2.664682	21.22633	0	9.87	4002	89	-266	-31	0	1.283162	0.2260747	3	4	0	500
532718	1712	2386	1277	-0.6291893	-5.268377	20.85131	0	9.64	4004	-165	118	13	0	1.283162	0.2371233	3	4	0	500
532781	-376	-1842	-1301	-0.2910644	-5.552894	21.04567	0	9.64	4002	78	-113	-31	0	1.283162	0.2404852	3	4	0	500
532908	-220	-578	1447	-1.100471	-6.096578	20.99196	0	9.64	4004	-65	38	-3	0	1.283162	0.2410791	3	4	0	500
532982	-826	-3069	-1133	-1.656697	-4.097528	21.02714	0	9.64	4004	96	-341	-23	0	1.283162	0.2407033	3	4	0	500
533087	-579	2988	1700	-2.844221	-5.69267	20.45753	0	9.64	4004	-61	76	30	0	1.283162	0.2377856	3	4	0	500
533315	115	-462	-86	-3.86742	-13.90924	21.1621	0	9.64	4004	-6	-97	-21	0	1.283162	0.2347947	3	4	0	500
533412	284	89	160	-4.514975	-12.11125	21.48331	0	9.64	4003	107	-189	-39	0	1.283162	0.242349	3	4	0	500
533564	548	-1678	-1091	-1.916788	-14.15447	21.57838	0	9.64	4002	116	-182	-44	0	1.283162	0.2482082	3	4	0	500
533620	640	-2847	-604	-1.597143	-12.5317	21.60675	0	9.64	4002	-43	5	-23	0	1.283162	0.2459444	3	4	0	500
533734	-525	-3116	-210	-2.512686	-5.454122	20.64498	0	10.09	4003	81	-192	0	0	1.283162	0.2322235	3	4	0	500
533803	703	-971	926	-2.527794	-5.037491	20.38721	0	10.09	4002	52	-169	7	0	1.283162	0.2243907	3	4	0	500
533906	604	-417	-346	-2.316511	-4.952962	20.24214	0	10.09	4002	-108	124	6	14	1.283162	0.2117127	3	4	0	500
534103	514	1123	-1869	-0.3998704	-4.778123	21.52876	0	10.09	4002	-108	258	-22	14	1.201132	0.1889695	5	4	0	500
534180	-1580	231	408	-1.402831	-7.322867	21.14795	0	10.09	4002	85	-202	-15	14	1.175927	0.1715344	5	4	0	500
534257	-1358	735	-423	-2.988657	-7.772379	20.93745	0	10.09	4003	4	-32	-14	14	1.067522	0.1633485	5	4	0	500
534315	-801	883	967	-4.721479	-7.672495	20.64644	0	10.09	4004	-56	21	9	15	1.078385	0.1565707	5	4	0	500
534412	-1102	-385	-141	-5.923193	-9.286874	20.57806	0	10.09	4003	25	-93	7	15	1.098361	0.1419543	5	4	0	500
534560	1215	-1694	-861	-3.173369	-6.069365	21.0295	0	9.87	4003	-2	-40	-16	15	1.026126	0.1073906	5	4	0	500
534625	149	-659	-848	-2.821928	-5.422472	20.8541	0	9.87	4003	-45	20	-17	20	1.062711	0.08120162	5	4	0	500
534775	1188	1769	251	-1.110049	-7.100121	21.08866	0	9.87	4004	-119	202	-20	15	1.151586	0.02723566	5	4	0	500
534822	-2989	1322	2782	-0.4070206	-6.387468	20.64658	0	9.87	4003	331	197	103	15	1.101049	0.01040385	5	4	0	500
534923	1285	-3187	-535	0.3046764	-2.842015	17.24999	0	9.87	4003	-15	-180	72	16	0.9907532	-0.02953882	5	4	0	500
535041	-1487	-393	4	0.685502	1.394578	17.28838	0	9.87	4004	60	-58	58	16	0.9450383	-0.1024077	5	4	0	500
535189	-1254	537	-1975	-7.114919	-3.396546	21.13029	0	9.87	4003	-30	-250	-33	17	1.057535	-0.1905286	5	4	0	500
535287	-293	0	-1406	-6.55403	-5.316098	23.59255	0	9.87	4004	-59	17	-78	17	0.964889	-0.2252102	5	4	0	500
535325	-2508	1352	67	-7.030992	-6.366428	23.781	0	9.87	4003	52	-234	-80	17	0.9704769	-0.2388326	5	4	0	500
535433	-1906	767	1349	-10.46718	-8.520714	22.48109	0	9.87	4003	32	-71	-32	17	0.9432994	-0.2564679	5	4	0	500
535536	-324	1735	684	-10.15592	-9.76467	20.76826	0	9.58	4003	22	-46	6	17	0.8375985	-0.2718309	5	4	0	500
535652	-1591	673	-863	-11.77515	-10.01429	20.38362	0	9.58	4003	45	-215	-13	17	0.9640491	-0.2773807	5	4	0	500
535758	1955	3675	-1402	-9.419518	-13.4327	21.73923	0	9.58	4003	-26	208	-50	17	0.9906721	-0.2648084	5	4	0	500
535938	2809	1693	133	-5.867225	-19.04414	22.17366	0	9.58	4003	-96	176	-31	17	1.030373	-0.2228617	5	4	0	500
535972	1449	2222	1021	-3.670581	-18.80341	21.99176	0	9.58	4004	-104	180	-24	17	1.011576	-0.2169261	5	4	0	500
536063	-870	-5188	167	-3.790457	-15.71089	21.32796	0	9.58	4003	38	-49	-20	17	0.9794344	-0.1979353	5	4	0	500
536155	1199	-4766	-907	-2.537148	-9.975799	21.25725	0	9.58	4002	117	-271	-26	17	0.9659103	-0.1683541	5	4	0	500
536258	591	-27	-266	-0.5281674	-6.570571	21.7389	0	9.58	4002	-21	71	-25	16	1.006507	-0.1456777	5	4	0	500
536379	1318	-126	415	-2.079788	-2.368595	21.35257	0	9.58	4003	-94	131	-12	16	1.020664	-0.08859028	5	4	0	500
536459	646	624	-147	-1.720573	-2.649762	21.33605	0	10.04	4003	-122	203	-23	16	1.047208	-0.06223755	5	4	0	500
536560	456	1146	162	-0.6351095	-4.401403	21.56808	0	10.04	4003	-69	31	-34	11	0.9795305	-0.02491231	5	4	0	500
536657	206	-1371	771	0.0388377	-3.337218	21.21794	0	10.04	4002	-45	-11	-10	15	0.9991432	0.02355024	5	4	0	500
536797	-33	1421	-454	0.3227596	-3.106885	21.02137	0	10.04	4004	-14	6	-14	15	0.9238039	0.05195821	5	4	0	500
536932	-2562	768	-175	-2.315399	-8.070792	22.61686	0	10.04	4002	40	-91	-59	15	1.040914	0.05336425	5	4	0	500
536990	-2728	-765	55	-3.5309	-7.970571	22.92699	0	10.04	4004	0	-114	-67	15	1.072734	0.04973873	5	4	0	500
537114	-702	129	1498	-4.063003	-5.107038	22.64293	0	10.04	4003	40	-31	-21	15	1.149347	0.0460919	5	4	0	500
537163	-2266	-2865	-607	-3.939205	-2.038586	22.70491	0	10.04	4003	262	-323	-56	16	1.133334	0.04158318	5	4	0	500
537325	40	428	670	-3.162255	-1.708149	22.26606	0	10.04	4003	-1	3	-25	15	1.067217	0.02205046	5	4	0	500
537518	2497	1627	1482	-2.613661	-3.783461	19.36323	0	10.49	4004	-148	11	49	19	1.047081	-0.008486885	5	4	0	500
537633	-1047	1586	-807	-0.849184	-10.69462	20.7907	0	10.49	4003	-100	148	-20	16	1.143771	-0.04827451	5	4	0	500
537685	-10	1402	-390	-1.070041	-10.90879	21.32388	0	10.49	4005	-84	120	-22	16	1.063311	-0.0627771	5	4	0	500
537830	-936	-918	1346	-0.5584673	-9.928226	20.5671	0	10.49	4004	-60	17	16	16	1.136487	-0.07018521	5	4	0	500
537886	879	-1117	429	-0.531688	-8.677606	19.74944	0	10.49	4003	14	-115	23	16	1.142957	-0.07309376	5	4	0	500
538025	-10	-1074	454	-0.05939219	-6.802667	19.47382	0	10.49	4003	27	-193	18	16	1.17107	-0.08684279	5	4	0	500
538093	-461	-1790	125	-0.7681021	-6.000091	19.71597	0	10.49	4003	-99	82	24	16	1.184276	-0.08903144	5	4	0	500
538210	-2930	-87	85	-6.108033	-2.631789	20.57486	0	10.49	4004	-43	118	2	16	1.215164	-0.09081355	5	4	0	500
538314	349	1865	298	-9.121053	-4.409384	20.37886	0	9.87	4003	-135	50	16	16	1.259619	-0.09118808	5	4	0	500
538395	2048	2293	781	-7.228025	-6.858493	20.6032	0	9.87	4004	-96	224	4	16	1.286077	-0.1006935	5	4	0	500
538478	-800	-2966	-684	-5.534368	-7.253063	21.2409	0	9.87	4002	30	-79	-15	17	1.266168	-0.1076407	5	4	0	500
538596	148	-262	-580	-3.523186	-6.092836	21.83219	0	9.87	4002	73	-179	-51	16	1.238735	-0.1273271	5	4	0	500
538724	-434	-3258	533	-3.255002	-5.376981	21.16792	0	9.87	4003	8	-139	-7	17	1.126418	-0.1513783	5	4	0	500
538805	-3	-1201	1482	-4.364455	-1.721328	20.55583	0	9.87	4002	-36	112	18	17	1.142498	-0.1753277	5	4	0	500
539003	151	1062	-90	-2.63105	-3.298198	20.10104	0	9.87	4008	3	-144	18	17	1.143459	-0.2090984	5	4	0	500
539094	-438	665	-1786	-3.233571	-5.462104	21.69968	0	9.87	4008	-124	119	-25	17	1.037148	-0.2116138	5	4	0	500
539211	-560	3108	718	-2.913933	-9.068114	22.28833	0	10.38	4004	-103	53	-33	17	1.144368	-0.214929	5	4	0	500
539314	192	1967	771	-3.088775	-11.562	21.77214	0	10.38	4003	-74	21	-16	17	1.15942	-0.2119579	5	4	0	500
539407	-162	-1138	604	-2.858181	-8.880977	20.78336	0	10.38	4004	-38	11	10	18	1.160904	-0.2127404	5	4	0	500
539510	-1590	-475	17	-3.470948	-8.702711	20.14043	0	10.38	4003	23	-84	12	17	0.9703808	-0.2242249	5	4	0	500
539636	-1028	2029	-618	-4.975258	-9.80068	20.74524	0	10.38	4002	29	-46	-5	17	0.9177889	-0.2379252	5	4	0	500
539711	-1503	706	138	-6.359231	-10.19548	20.9959	0	10.38	4003	13	-128	-9	18	0.9664207	-0.2449677	5	4	0	500
539814	-1290	1191	197	-7.105338	-10.48905	21.01176	0	10.38	4004	-19	14	-9	17	1.056348	-0.2543713	5	4	0	500
539935	262	935	-74	-7.676934	-11.66674	20.65217	0	10.38	4002	61	-116	1	17	0.9829665	-0.2700213	5	4	0	500
540011	1578	1092	1039	-7.045538	-11.53623	20.49768	0	10.38	4002	-144	0	15	17	0.8148304	-0.2812521	5	4	0	500
540187	-116	2540	875	-0.9368178	-8.074472	19.74341	0	9.53	4002	-116	-67	48	17	0.9106594	-0.2910225	5	4	0	500
540247	205	2066	-721	-0.1197365	-12.0852	19.13758	0	9.53	4002	66	-133	49	17	0.8195934	-0.2922772	5	4	0	500
540384	1645	-1141	-1618	0.1725578	-10.7905	20.31547	0	9.53	4004	-71	147	28	16	0.817373	-0.2833422	5	4	0	500
540439	885	643	991	0.8950508	-10.26063	20.58739	0	9.53	4002	-49	196	16	17	0.8669015	-0.2789204	5	4	0	500
540535	-42	2488	1360	-0.1816292	-10.85282	20.89869	0	9.53	4004	-159	300	11	17	0.8673961	-0.2724494	5	4	0	500
540757	-860	-2498	218	-0.1783267	-9.621672	20.72021	0	9.53	4004	55	31	-1	17	0.9991962	-0.2437722	5	4	0	500
540905	-2715	-3016	-1861	-3.657965	-8.028014	19.6728	0	9.53	4004	68	-296	-9	0	0.7885382	-0.2181726	3	4	0	500
540974	877	-1067	-636	-3.459544	-6.091901	20.04138	0	9.53	4004	-54	77	16	0	0.7483971	-0.197434	3	4	0	500
541028	-770	-2216	-173	-2.656431	-4.913149	20.00788	0	9.53	4004	20	13	20	0	0.7312843	-0.17844	3	4	0	500
541230	836	-1463	1458	-5.700378	0.6643608	20.36687	0	9.7	4003	-118	116	21	0	0.659119	-0.1400068	3	4	0	500
541265	425	-898	-280	-5.333193	1.164458	20.53453	0	9.7	4003	-46	239	-8	0	0.6435675	-0.1357106	3	4	0	500
541351	-1530	-3669	-550	-4.903966	3.039995	21.25251	0	9.7	4004	41	-46	-31	0	0.6309708	-0.1317143	3	4	0	500
541434	-3501	-6066	-101	-7.442079	7.129978	21.25206	0	9.7	4003	0	-95	-21	0	0.6164176	-0.1235175	3	4	0	500
541536	-1490	-608	1324	-11.53908	12.14862	20.46135	0	9.7	4004	-41	-167	-5	0	0.6089793	-0.1230039	3	4	0	500
541638	1789	5652	2366	-8.954418	8.194759	19.96903	0	9.7	4002	46	-330	25	0	0.6003858	-0.1279072	3	4	0	500
541750	314	-1115	-1968	-7.761106	-1.437728	18.65063	0	9.7	4004	-117	153	56	0	0.592436	-0.123635	3	4	0	500
541831	-89	1693	-451	-6.177309	-2.041291	19.79729	0	9.7	4003	108	61	-21	0	0.5895543	-0.1185177	3	4	0	500
541950	1128	661	-2112	-6.17917	-4.111807	21.29899	0	9.7	4004	-59	-347	-20	0	0.5853294	-0.1123649	3	4	0	500
542031	1136	2319	-209	-2.378449	-9.235042	22.43269	0	9.3	4002	-82	323	-42	0	0.583145	-0.1054815	3	4	0	500
542172	-212	720	461	-0.9598052	-12.45779	22.65772	0	9.3	4003	-6	16	-48	0	0.5811242	-0.08468154	3	4	0	500
542252	307	479	853	-0.5723464	-12.41192	22.04123	0	9.3	4002	-82	4	-20	0	0.5803917	-0.07194489	3	4	0	500
542351	4	-1628	898	-0.4766057	-9.932956	20.56289	0	9.3	4003	39	-80	0	0	0.5795454	-0.05201225	3	4	0	500
542478	228	-1711	-109	-0.3441945	-5.898057	19.84167	0	9.3	4004	34	-225	15	0	0.5787626	-0.01231065	3	4	0	500
542614	-1021	-328	-241	-1.749035	-4.788701	20.11278	0	9.3	4003	58	-143	2	0	0.5783578	0.003984774	3	4	0	500
542710	1035	4154	-50	-2.033856	-7.387556	20.42452	0	9.3	4002	-97	139	3	0	0.5780627	0.01311992	3	4	0	500
542808	-1001	1606	-846	-2.868955	-11.22525	20.89606	0	9.3	4003	32	-18	-24	0	0.5778475	0.01568634	3	4	0	500
542889	695	2639	-194	-2.270165	-13.04827	21.14081	0	9.3	4002	-46	121	-13	0	0.5776907	0.01506326	3	4	0	500
542963	-1117	2210	129	-2.813442	-14.67151	21.12188	0	10.04	4002	10	-103	-16	0	0.5775764	0.01049295	3	4	0	500
543056	21	606	-238	-3.982604	-16.07356	21.32018	0	10.04	4003	-15	23	-19	0	0.5774931	0.006158659	3	4	0	500
543202	976	-1794	135	-2.535136	-12.31571	21.16429	0	10.04	4002	19	-77	-5	0	0.577416	-0.0009265509	3	4	0	500
543295	-1577	2694	1532	-3.56389	-6.478054	19.59276	0	10.04	4003	-400	-105	36	0	0.5773761	-0.010983	3	4	0	500
543348	3407	-573	735	-1.844525	-7.987248	18.23946	0	10.04	4004	-5	-111	52	0	0.5773654	-0.01834409	3	4	0	500
543512	1138	-3546	-2832	2.828563	-0.6832325	20.32467	0	10.04	4003	-29	-23	-8	0	0.5773259	-0.04163621	3	4	0	500
543557	912	-1952	-1604	3.163698	-0.1961897	21.0111	0	10.04	4003	67	-281	-29	0	0.5773202	-0.04268461	3	4	0	500
543662	-855	-1085	-96	2.262247	0.6178856	22.10775	0	10.04	4004	0	-80	-37	0	0.5773063	-0.02591326	3	4	0	500
543793	-122	-1416	328	-0.07156208	3.151941	20.8208	0	10.04	4003	-20	-77	-11	0	0.5772935	-0.002802381	3	4	0	500
543870	135	-1372	1179	-0.07014766	3.407258	20.38228	0	10.04	4005	-21	-3	7	0	0.5772888	-4.22488E-05	3	4	0	500
544038	7240	-2261	1079	2.589346	1.81599	12.8253	0	8.16	4002	0	0	0	0	0.5772807	-0.02525871	3	4	0	500
544100	3177	1642	2974	7.693994	1.700739	10.77524	0	8.16	4004	0	0	0	0	0.5772784	-0.03777728	3	4	0	500
544177	-4676	5135	7270	7.163587	-0.283119	4.519147	0	8.16	4004	0	0	0	0	0.5772759	-0.05693139	3	4	0	500
544275	-370	2379	7251	-2.758257	-8.376553	-9.087739	0	8.16	4003	0	0	0	0	0.5772746	-0.08041859	3	4	0	500
544449	177	326	-167	-2.235714	-4.169664	-21.06153	0	8.16	4002	0	0	0	0	0.5772722	-0.1525626	1	4	0	500
544506	-65	-98	185	-2.062997	-3.911446	-21.05182	0	8.16	4004	0	0	0	0	0.5772716	-0.1797239	1	4	0	500
544585	-67	31	57	-1.96553	-3.676716	-21.05598	0	8.16	4002	0	0	0	0	0.5772711	-0.2026787	1	4	0	500
544729	-102	6	75	-1.791032	-3.141233	-21.09596	0	8.16	4003	0	0	0	0	0.5772703	-0.2434987	1	4	0	500
544807	-65	23	43	-1.711455	-2.915429	-21.1047	0	8.16	4002	0	0	0	0	0.57727	-0.2758708	1	4	0	500
544887	-90	-14	-10	-1.63036	-2.630045	-21.13057	0	10.32	4004	0	0	0	0	0.5772698	-0.298048	1	4	0	500
544988	-82	31	-27	-1.544671	-2.347268	-21.15257	0	10.32	4003	0	0	0	0	0.5772696	-0.3176614	1	4	0	500
545189	-105	4	10	-1.389635	-1.931593	-21.19586	0	10.32	4003	0	0	0	0	0.5772693	-0.3548889	1	4	0	500
545261	-103	19	30	-1.346527	-1.809282	-21.21077	0	10.32	4004	0	0	0	0	0.5772692	-0.3680345	1	4	0	500
545340	-94	15	46	-1.302295	-1.662895	-21.2307	0	10.32	4004	0	0	0	0	0.5772692	-0.3845528	1	4	0	500
545386	-86	0	25	-1.267787	-1.567741	-21.2469	0	10.32	4002	0	0	0	0	0.5772692	-0.3875103	1	4	0	500
545546	-84	19	-14	-1.213745	-1.396931	-21.27656	0	10.32	4002	0	0	0	0	0.5772692	-0.419367	1	4	0	500
545591	-91	-3	22	-1.187774	-1.324934	-21.29092	0	10.32	4002	0	0	0	0	0.5772692	-0.4240288	1	4	0	500
545693	-80	-6	18	-1.154769	-1.228375	-21.31098	0	10.32	4003	0	0	0	0	0.5772692	-0.441013	1	4	0	500
545868	-70	4	-10	-1.116145	-1.113369	-21.33513	0	10.32	4004	0	0	0	0	0.5772692	-0.4601691	1	4	0	500
545964	-76	2	19	-1.088718	-1.044245	-21.3572	0	10.32	4004	0	0	0	0	0.5772692	-0.466886	1	4	0	500
546014	-81	4	14	-1.076259	-0.9953414	-21.372	0	10.32	4004	0	0	0	0	0.5772692	-0.469325	1	4	0	500
546128	-75	1	9	-1.05652	-0.9383972	-21.39241	0	10.32	4002	0	0	0	0	0.5772692	-0.4840535	1	4	0	500
546232	-81	0	14	-1.033302	-0.8858308	-21.41259	0	10.32	4002	0	0	0	0	0.5772692	-0.4890925	1	4	0	500
546371	-82	1	12	-0.9989768	-0.8172206	-21.4458	0	10.32	4003	0	0	0	0	0.5772692	-0.4987073	1	4	0	500
546481	-77	2	16	-0.9951337	-0.7836542	-21.46678	0	10.32	4003	0	0	0	0	0.5772692	-0.5027366	1	4	0	500
546519	-80	6	15	-0.9856977	-0.7640518	-21.48219	0	10.32	4003	0	0	0	0	0.5772692	-0.5050917	1	4	0	500
546728	-84	3	14	-0.9607518	-0.7217125	-21.51253	0	10.32	4003	0	0	0	0	0.5772692	-0.495508	1	4	0	500
546877	-72	0	10	-0.9350627	-0.6847082	-21.54788	0	10.32	4003	0	0	0	0	0.5772692	-0.4908057	1	4	0	500
546965	-76	-3	12	-0.9297616	-0.6770711	-21.56189	0	10.32	4002	0	0	0	0	0.5772692	-0.4946545	1	4	0	500
547022	-77	0	7	-0.9309349	-0.6615123	-21.57528	0	10.32	4004	0	0	0	0	0.5772692	-0.4924569	1	4	0	500
547196	-79	-3	12	-0.9194648	-0.6362491	-21.60953	0	10.32	4004	0	0	0	0	0.5772692	-0.4940159	1	4	0	500
547283	-80	1	9	-0.9169316	-0.6285377	-21.62996	0	10.32	4003	0	0	0	0	0.5772692	-0.4966673	1	4	0	500
547364	-78	0	7	-0.9132193	-0.6231142	-21.64238	0	10.32	4002	0	0	0	0	0.5772692	-0.4965551	1	4	0	500
547407	-81	-2	11	-0.9118496	-0.6189459	-21.65485	0	10.32	4002	0	0	0	0	0.5772692	-0.4965551	1	4	0	500
547515	-83	0	12	-0.9144645	-0.6044372	-21.67999	0	10.32	4002	0	0	0	0	0.5772692	-0.5019642	1	4	0	500
547615	-76	-4	10	-0.9143161	-0.6006979	-21.69106	0	10.26	4011	0	0	0	0	0.5772692	-0.4995535	1	4	0	500
547771	-83	4	12	-0.9137459	-0.5853516	-21.72109	0	10.26	4004	0	0	0	0	0.5772692	-0.5021648	1	4	0	500
547898	-82	-1	16	-0.9075047	-0.5924304	-21.73913	0	10.26	4003	0	0	0	0	0.5772692	-0.5073717	1	4	0	500
547984	-78	5	10	-0.8996485	-0.5866238	-21.75828	0	10.26	4004	0	0	0	0	0.5772692	-0.5136405	1	4	0	500
548100	-74	3	5	-0.9018403	-0.5888239	-21.77717	0	10.26	4002	0	0	0	0	0.5772692	-0.5218529	1	4	0	500
548153	-79	6	19	-0.89785	-0.5834024	-21.79571	0	10.26	4004	0	0	0	0	0.5772692	-0.5179633	1	4	0	500
548279	-77	0	11	-0.8908675	-0.58182	-21.81547	0	10.26	4004	0	0	0	0	0.5772692	-0.5065971	1	4	0	500
548334	-79	4	12	-0.8828824	-0.5842937	-21.8269	0	10.26	4004	0	0	0	0	0.5772692	-0.499814	1	4	0	500
548414	-70	2	12	-0.8811358	-0.5804642	-21.84618	0	10.26	4002	0	0	0	0	0.5772692	-0.4981293	1	4	0	500
548518	-83	1	12	-0.8792428	-0.576342	-21.86617	0	10.38	4003	0	0	0	0	0.5772692	-0.5015097	1	4	0	500
548582	-79	9	10	-0.8802416	-0.5714093	-21.88268	0	10.38	4003	0	0	0	0	0.5772692	-0.5043394	1	4	0	500
