time(ms)	gyro_x(deg/s)	gyro_y(deg/s)	gyro_z(deg/s)	orientation_roll(deg)	orientation_pitch(deg)	orientation_yaw(deg)	throttle	battery(V)	loop_time(uS)	pid_output_roll	pid_output_pitch	pid_output_yaw	pid_output_throttle	ultrasonic_alt	baro_alt	flight_mode	p_gain_altitude	i_gain_altitude	d_gain_altitude
298782	1768	-243	-2470	-1.631112	-15.79578	-23.79542	0	11.34	4002	-99	375	-54	0	1.140817	2.272366	3	3	0	2600
298856	4173	-688	-3178	1.053293	-15.9586	-22.42589	0	11.34	4004	-189	192	-71	0	1.140817	2.291417	3	3	0	2600
298954	-430	2532	1972	4.422175	-18.23324	-22.99041	0	11.34	4002	85	2	-89	0	1.140817	2.437532	3	3	0	2600
299066	1803	-1454	1254	4.495565	-16.17812	-25.95281	0	11.34	4002	19	-29	-4	0	1.140817	2.482576	3	3	0	2600
299217	1004	-59	66	9.546437	-15.33677	-27.83412	0	11.34	4003	-38	24	40	0	1.140817	2.57138	3	3	0	2600
299259	-1779	-3271	-1202	7.419372	-12.65589	-27.27225	0	11.34	4004	-27	-46	29	0	1.140817	2.608225	3	3	0	2600
299325	-1199	-3945	-797	5.995717	-10.25563	-26.66226	0	11.34	4004	-35	37	1	0	1.140817	2.64506	3	3	0	2600
299459	-1322	185	192	2.260182	-5.717436	-24.90627	0	11.11	4002	-194	235	-19	0	1.140817	2.711574	3	3	0	2600
299546	1778	2070	755	1.57874	-7.542367	-24.17152	0	11.11	4003	-20	-151	-54	0	1.140817	2.735973	3	3	0	2600
299657	-4296	-3479	292	-3.665838	-3.862339	-23.03053	0	11.11	4002	199	-184	-106	0	1.140817	2.760665	3	3	0	2600
299776	1661	2531	1428	-4.062028	-3.925132	-24.3764	0	11.11	4002	-8	-56	-27	0	1.140817	2.798495	3	3	0	2600
299882	1286	4059	1513	1.315159	-10.74424	-27.01431	0	11.11	4004	-16	29	7	0	1.140817	2.841231	3	3	0	2600
299930	-755	4907	834	0.9077143	-12.62471	-27.05249	0	11.11	4004	-16	29	7	0	1.140817	2.847727	3	3	0	2600
300105	2161	1741	1801	-1.926434	-10.65673	-24.13054	0	11.11	4002	-146	326	-36	0	1.140817	2.866798	3	3	0	2600
300129	229	-785	-1122	-1.308309	-11.64777	-24.35648	0	11.11	4003	-146	326	-36	0	1.140817	2.869495	3	3	0	2600
300246	1072	1595	1410	0.3051026	-14.57884	-25.15689	0	11.11	4003	-194	322	-6	0	1.140817	2.878426	3	3	0	2600
300365	-1121	-581	1032	-0.8782947	-13.08931	-25.6765	0	11.06	4003	-19	107	-8	0	1.140817	2.890413	3	3	0	2600
300444	-1266	-2148	-62	-3.424268	-10.0988	-25.92576	0	11.06	4002	194	-309	-28	0	1.140817	2.913789	3	3	0	2600
300559	-1979	-4475	-2466	-5.063197	-7.275398	-24.16755	0	11.06	4003	247	-395	-84	0	1.140817	2.938002	3	3	0	2600
300654	117	2561	1613	-7.122871	-6.936594	-24.01421	0	11.06	4004	69	-137	-75	0	1.140817	2.967775	3	3	0	2600
300747	-1107	-460	-232	-6.866875	-9.247687	-24.16915	0	11.06	4004	59	-73	-69	0	1.140817	2.999517	3	3	0	2600
300872	1922	984	-48	-5.818107	-9.28009	-23.83013	0	11.06	4002	104	-354	-60	0	1.140817	3.028264	3	3	0	2600
300967	2128	1842	858	-0.8172995	-12.34627	-23.73602	0	11.06	4002	-191	262	-56	0	1.140817	3.042352	3	3	0	2600
301068	771	1886	2699	1.022447	-12.03605	-23.85138	0	11.06	4002	-12	-71	-58	0	1.140817	3.088937	3	3	0	2600
301237	2312	254	2479	-0.05584348	-10.32565	-23.7695	0	10.83	4003	-58	-122	-69	0	1.140817	3.16712	3	3	0	2600
301316	38	1693	1128	1.064527	-10.75644	-24.64806	0	10.83	4004	8	-16	-62	0	1.140817	3.212083	3	3	0	2600
301388	-1286	1648	-285	0.5754349	-11.94194	-24.72812	0	10.83	4003	108	-154	-56	0	1.140817	3.273652	3	3	0	2600
301452	-2295	-459	-1883	-0.7109967	-13.72421	-24.27612	0	10.83	4004	190	-340	-71	0	1.140817	3.305647	3	3	0	2600
301562	-2972	-1971	-627	-5.202749	-13.63991	-23.79052	0	10.83	4004	81	-321	-83	0	1.140817	3.366632	3	3	0	2600
301661	-1461	2467	2504	-9.220717	-11.39065	-22.90269	0	10.83	4002	-121	254	-68	0	1.140817	3.420299	3	3	0	2600
301755	-1010	787	-506	-10.39861	-15.70323	-23.33882	0	10.83	4003	152	-242	-95	0	1.140817	3.480266	3	3	0	2600
301912	2273	-757	516	-6.706958	-19.88102	-24.58872	0	10.83	4002	-66	67	-42	0	1.140817	3.588489	3	3	0	2600
302126	2593	1460	165	-3.843918	-8.93717	-24.86604	0	10.83	4003	123	-127	-38	0	1.140817	3.804645	3	3	0	2600
302242	814	2004	69	3.727068	-18.05012	-25.2108	0	10.94	4003	23	-33	-36	0	1.140817	3.859737	3	3	0	2600
302261	-1250	-2357	-578	3.41393	-17.77798	-24.88097	0	10.94	4002	23	-33	-36	0	1.140817	3.89936	3	3	0	2600
302366	-1006	-3428	-2316	2.120481	-13.07476	-24.0252	0	10.94	4004	125	-400	-75	0	1.140817	4.08038	3	3	0	2600
302504	-2209	-3702	-290	-1.37661	-9.135175	-22.78494	0	10.94	4003	-8	-284	-75	0	1.140817	4.192475	3	3	0	2600
302621	354	944	-1011	-2.520038	-7.53128	-23.53256	0	10.94	4004	0	-238	-55	0	1.140817	4.275155	3	3	0	2600
302729	854	4625	642	-1.13769	-11.5814	-23.6758	0	10.94	4004	-207	327	-48	0	1.140817	4.453891	3	3	0	2600
302790	1681	163	-1107	-0.04426602	-14.19744	-23.07528	0	10.94	4003	-82	331	-70	0	1.140817	4.499082	3	3	0	2600
302909	-1165	-327	2905	-1.756799	-9.990003	-22.21634	0	10.94	4003	-66	-14	-76	0	1.140817	4.579976	3	3	0	2600
303070	-2153	-2780	-988	-1.821747	-9.79326	-23.17623	0	10.83	4002	63	90	-96	0	1.140817	4.71422	3	3	0	2600
303131	-261	470	2237	-3.59879	-7.976242	-23.11532	0	10.83	4002	-163	198	-38	0	1.140817	4.775939	3	3	0	2600
303172	2189	-1626	72	-3.588507	-7.082859	-23.66261	0	10.83	4003	-151	180	-62	0	1.140817	4.796455	3	3	0	2600
303267	1103	786	-207	-1.605028	-7.188505	-24.23831	0	10.83	4004	75	-213	-62	0	1.140817	4.900727	3	3	0	2600
303382	-337	2386	948	-0.2726873	-10.21704	-24.75303	0	10.83	4004	-89	275	-21	0	1.140817	4.981042	3	3	0	2600
303475	1740	-3	455	-0.8601735	-12.2622	-23.92101	0	10.83	4003	-21	207	-52	0	1.140817	5.086276	3	3	0	2600
303623	-908	-7413	1597	0.9784356	-3.058875	-25.03177	0	10.83	4002	45	-83	-8	0	1.140817	5.300858	3	3	0	2600
303683	185	-7210	341	0.4575968	4.137906	-26.00969	0	10.83	4003	24	-135	-2	0	1.140817	5.34998	3	3	0	2600
303783	-29	-2309	566	2.643966	7.884699	-25.20421	0	10.83	4003	-138	245	-20	0	1.140817	5.398598	3	3	0	2600
303887	-1882	-4227	-829	-1.879652	13.77669	-22.51718	0	10.83	4002	22	-371	-114	0	1.140817	5.460179	3	3	0	2600
303991	598	4409	-771	-1.900874	9.058515	-23.62615	0	10.83	4003	0	-225	-49	0	1.140817	5.531127	3	3	0	2600
304134	1525	8439	1200	1.201765	-12.71535	-25.06683	0	11.17	4003	3	-8	-25	0	1.140817	5.599908	3	3	0	2600
304197	2458	3649	-3565	1.709553	-18.38232	-22.8432	0	11.17	4003	-66	61	-95	0	1.140817	5.61979	3	3	0	2600
304302	-3491	810	39	0.9936498	-21.56357	-21.66916	0	11.17	4003	93	-61	-119	0	1.140817	5.654695	3	3	0	2600
304406	-1828	-5340	1325	-2.647555	-14.76426	-23.3556	0	11.17	4003	154	-359	-65	0	1.140817	5.700837	3	3	0	2600
304511	934	-3436	-1377	-2.390639	-8.010643	-24.95788	0	11.17	4003	93	-97	-44	0	1.140817	5.729802	3	3	0	2600
304611	-1894	1398	188	-1.277908	-7.391037	-24.93053	0	11.17	4002	191	-194	-104	0	1.140817	5.768254	3	3	0	2600
304706	-2746	-3666	-556	-4.659461	-2.671435	-21.21164	0	11.17	4004	149	-208	-148	0	1.140817	5.785153	3	3	0	2600
304810	-1047	-1760	1198	-8.549994	2.595498	-20.3162	0	11.17	4003	0	-32	-127	0	1.140817	5.793407	3	3	0	2600
304920	1929	2583	1576	-6.660929	-0.6086946	-22.47026	0	11.17	4004	29	-73	-57	0	1.140817	5.805847	3	3	0	2600
305075	1530	628	828	0.5445237	-4.142741	-28.20339	0	10.72	4004	13	-94	58	0	1.140817	5.815868	3	3	0	2600
305124	1777	2283	491	1.212565	-4.507902	-28.35297	0	10.72	4003	-59	80	58	0	1.140817	5.816632	3	3	0	2600
305226	254	4709	-437	2.544207	-10.83438	-27.25247	0	10.72	4003	42	61	9	0	1.140817	5.823912	3	3	0	2600
305337	-386	1946	-779	1.126132	-13.40588	-25.83205	0	10.72	4003	33	-31	-16	0	1.140817	5.80279	3	3	0	2600
305431	62	3032	395	0.5310091	-15.14646	-25.46104	0	10.72	4003	30	-12	-5	0	1.140817	5.785631	3	3	0	2600
305543	109	2028	338	0.3581548	-16.11269	-26.21616	0	10.72	4004	-22	-105	0	0	1.140817	5.748507	3	3	0	2600
305648	2227	98	-962	1.00046	-16.21885	-26.03022	0	10.72	4002	-68	-4	-9	0	1.140817	5.692518	3	3	0	2600
305764	-548	-71	-110	2.707197	-13.90166	-25.71932	0	10.72	4004	42	-6	-7	0	1.140817	5.627831	3	3	0	2600
305915	589	-2351	436	0.7903022	-7.783117	-26.4862	0	11.34	4003	-10	-132	6	0	1.140817	5.533943	3	3	0	2600
305962	204	-1928	254	0.8044199	-6.279203	-26.55891	0	11.34	4004	-26	-57	9	0	1.140817	5.375218	3	3	0	2600
306105	-36	-994	-7	-0.350241	-3.270716	-26.23352	0	11.34	4002	-16	-96	-1	0	1.140817	5.277621	3	3	0	2600
306158	-253	-1342	-259	-0.389566	-1.431142	-26.05725	0	11.34	4004	-48	-112	-5	0	1.140817	5.255575	3	3	0	2600
306255	1166	-156	397	-0.4028269	-0.4650922	-26.18938	0	11.34	4003	-4	18	7	0	1.140817	5.090675	3	3	0	2600
306411	1277	-805	-23	1.934622	-0.7003937	-26.42289	0	11.34	4003	-86	162	3	0	1.140817	5.032657	3	3	0	2600
306493	-2030	5193	1748	0.8752888	-4.795555	-25.94342	0	11.34	4003	90	-235	-19	0	1.140817	4.984782	3	3	0	2600
306667	4093	4521	1910	1.974458	-9.434389	-25.66824	0	11.34	4003	-103	49	-23	0	1.140817	4.535726	3	3	0	2600
306733	935	3886	775	2.59235	-10.82972	-25.68701	0	11.34	4004	66	-234	-14	0	1.140817	4.38133	3	3	0	2600
306887	-1302	-1519	470	0.7489194	-7.953277	-24.65833	0	10.55	4003	-38	41	-32	0	1.140817	3.859257	3	3	0	2600
306965	164	-495	-711	0.3653619	-6.635165	-24.76779	0	10.55	4003	86	-196	-43	0	1.140817	3.411468	3	3	0	2600
307074	-1066	-532	1839	1.64612	-5.811291	-25.21115	0	10.55	4003	6	7	-36	0	1.140817	3.196586	3	3	0	2600
307205	542	-2210	-257	-0.01595672	-3.258992	-27.04663	0	10.55	4004	-141	-33	38	0	1.140817	2.71396	3	3	0	2600
307286	-1660	910	39	0.3078792	-1.645032	-27.44067	0	10.55	4004	55	117	27	0	1.140817	2.55227	3	3	0	2600
307446	-1548	-1154	-928	-5.116317	-0.01426829	-25.96588	0	10.55	4003	-163	215	-7	0	1.140817	2.456557	3	3	0	2600
307515	-708	-1047	-1535	-5.822008	0.7700263	-24.79428	0	10.55	4004	-71	103	-36	0	1.140817	2.273982	3	3	0	2600
307588	-5211	-659	-1489	-8.371235	-0.4049841	-24.77203	0	10.55	4003	163	-333	-53	0	1.140817	2.230622	3	3	0	2600
307723	-3375	-567	295	-13.67101	-0.5154318	-23.49666	0	10.55	4004	-21	183	-62	0	1.140817	2.148759	3	3	0	2600
307841	-2124	-714	-320	-21.65607	-0.4524366	-23.89367	0	10.32	4003	98	-103	-71	0	1.140817	2.059704	3	3	0	2600
307899	1969	1611	-1631	-19.14035	-2.852754	-23.28074	0	10.32	4003	-183	400	-70	0	1.140817	2.01044	3	3	0	2600
308069	-4018	616	1487	-22.48176	-4.615447	-23.93641	0	10.32	4004	28	400	-55	0	1.140817	1.944026	3	3	0	2600
308179	4948	-7612	-1681	-18.94478	-0.6852385	-23.68565	0	10.32	4003	-167	-235	-48	0	1.140817	1.895128	3	3	0	2600
308275	2723	5420	3497	-11.42899	-0.7617345	-25.35154	0	10.32	4002	-7	206	-20	0	1.140817	1.848771	3	3	0	2600
308309	3821	4562	1610	-9.477667	-2.938312	-25.73995	0	10.32	4003	-39	221	13	0	1.140817	1.837283	3	3	0	2600
308402	3491	304	-271	-2.770824	-7.077376	-25.65872	0	10.32	4004	158	-299	-64	0	1.140817	1.828376	3	3	0	2600
308505	1478	-4259	421	-0.1136241	-0.9337013	-23.14777	0	10.32	4003	-113	175	-74	0	1.140817	1.853743	3	3	0	2600
308669	4863	5113	1915	5.169949	-3.715769	-22.57488	0	10.32	4004	-227	374	-74	0	1.140817	1.914595	3	3	0	2600
308767	-467	352	1567	7.415367	-7.624248	-25.26695	0	10.66	4008	-58	27	-22	0	1.140817	1.945746	3	3	0	2600
308820	-1514	-1758	2095	6.284959	-6.662654	-26.39568	0	10.66	4003	16	-87	37	0	1.140817	1.972892	3	3	0	2600
308907	-197	255	-534	3.20583	-4.029786	-28.21712	0	10.66	4004	99	-191	43	0	1.140817	2.000304	3	3	0	2600
309025	219	4154	-882	1.390154	-8.377098	-27.65555	0	10.66	4004	-49	254	-6	0	1.140817	2.042134	3	3	0	2600
309172	-871	2630	-1652	0.3488772	-18.03155	-23.83217	0	10.66	4003	66	-132	-67	0	1.140817	2.073389	3	3	0	2600
309217	782	645	707	-0.1602385	-18.80347	-24.13387	0	10.66	4002	-46	16	-27	0	1.140817	2.078322	3	3	0	2600
309409	2938	262	-2707	6.147013	-21.34175	-26.46341	0	10.66	4003	-229	400	15	0	1.140817	2.122203	3	3	0	2600
309472	2687	1587	-719	7.501764	-21.31833	-25.24182	0	10.66	4002	50	14	-52	0	1.140817	2.133046	3	3	0	2600
309631	-536	-4051	-1067	2.398803	-12.58191	-24.5256	0	10.66	4003	38	-272	-45	0	1.140817	2.161575	3	3	0	2600
309720	-135	300	1709	2.419045	-11.49252	-25.45159	0	10.43	4002	-203	283	6	0	1.140817	2.165175	3	3	0	2600
309857	-176	-3288	-1378	-1.765851	-4.894207	-24.98089	0	10.43	4004	49	51	-40	0	1.140817	2.177265	3	3	0	2600
309917	1309	-1085	206	-1.595112	-3.728877	-24.73762	0	10.43	4003	116	85	-38	0	1.140817	2.176745	3	3	0	2600
310030	853	-2388	-1165	-0.4966176	-5.066861	-24.86475	0	10.43	4002	-159	20	-21	0	1.140817	2.170225	3	3	0	2600
310157	-1998	-1133	-99	-0.09132166	-3.412669	-25.37629	0	10.43	4003	7	181	3	0	1.140817	2.164758	3	3	0	2600
310231	805	-1112	-1433	0.2218032	-5.035716	-26.4175	0	10.43	4003	64	-219	1	0	1.140817	2.158855	3	3	0	2600
310418	-460	-500	1610	1.366081	-1.991109	-25.90132	0	10.43	4002	74	219	0	0	1.140817	2.167653	3	3	0	2600
310459	-820	364	-678	0.2460604	-1.99359	-26.13227	0	10.43	4002	-110	80	21	0	1.140817	2.171716	3	3	0	2600
310539	1030	2023	1664	-0.1899803	-2.803868	-26.24502	0	10.43	4003	-188	390	8	0	1.140817	2.175761	3	3	0	2600
310642	1213	50	781	-0.2048354	-2.314326	-25.78398	0	11.06	4004	87	-393	-55	0	1.140817	2.200493	3	3	0	2600
310771	700	1840	1989	0.08662203	-0.1419619	-24.83857	0	11.06	4003	-73	247	-6	0	1.140817	2.225996	3	3	0	2600
310863	-1551	-2702	-801	-0.1055619	-2.107166	-26.12082	0	11.06	4003	77	-122	-12	0	1.140817	2.247793	3	3	0	2600
311056	-1198	-251	-1345	-1.054853	-2.663441	-27.12451	0	11.06	4004	32	-24	0	0	1.140817	2.329268	3	3	0	2600
311107	2167	660	-1037	1.090763	-4.382195	-26.39917	0	11.06	4002	-83	48	10	0	1.140817	2.363719	3	3	0	2600
311238	-1518	-4027	-2296	0.02354691	-2.198282	-23.9592	0	11.06	4003	-92	98	-43	0	1.140817	2.430134	3	3	0	2600
311292	-441	-2145	-453	-0.5115552	-1.165894	-23.65267	0	11.06	4003	-213	36	-64	0	1.140817	2.477518	3	3	0	2600
311347	1921	944	-993	0.6726111	-2.174909	-23.05209	0	11.06	4004	108	-221	-76	0	1.140817	2.493139	3	3	0	2600
311454	-1583	-87	927	0.9650744	-5.436921	-24.85344	0	11.06	4003	8	43	-22	0	1.140817	2.583015	3	3	0	2600
311586	-296	655	-96	-0.7476588	-0.725229	-27.49902	0	11	4004	-76	-91	30	0	1.140817	2.720019	3	3	0	2600
311656	-3210	1689	-503	-2.722757	-1.661833	-27.52191	0	11	4002	18	-8	32	0	1.140817	2.776129	3	3	0	2600
311781	-2885	1570	-899	-7.929355	-4.292202	-26.54627	0	11	4004	-3	-68	18	0	1.140817	2.848888	3	3	0	2600
311933	-2856	2391	-106	-10.65451	-7.164812	-25.03868	0	11	4003	9	-22	-22	0	1.140817	2.946057	3	3	0	2600
312022	-1631	2182	-657	-13.59854	-9.31706	-24.53201	0	11	4003	41	-48	-27	0	1.140817	2.987645	3	3	0	2600
312133	724	5583	1094	-11.78595	-13.79234	-24.52111	0	11	4003	17	123	-12	0	1.140817	3.060608	3	3	0	2600
312164	1755	5411	-411	-10.93869	-16.32194	-24.49494	0	11	4004	-103	237	-13	0	1.140817	3.08536	3	3	0	2600
312265	921	-737	49	-6.51549	-16.84697	-23.6144	0	11	4004	44	-49	-48	0	1.140817	3.124069	3	3	0	2600
312434	-509	-3476	-280	-4.764677	-9.85042	-24.29593	0	11	4003	64	-66	-26	0	1.140817	3.154794	3	3	0	2600
312536	2901	2312	445	-2.266894	-7.864347	-24.62423	0	10.32	4003	-156	321	-5	0	1.140817	3.146838	3	3	0	2600
312606	286	1758	96	-1.119654	-9.701376	-23.71059	0	10.32	4003	-84	185	-40	0	1.140817	3.132413	3	3	0	2600
312687	-1709	295	-530	-0.925689	-7.202483	-22.60055	0	10.32	4002	-59	51	-46	0	1.140817	3.127064	3	3	0	2600
312819	-1552	-4454	146	-4.667813	-4.952861	-21.84278	0	10.32	4004	85	-104	-98	0	1.140817	3.095406	3	3	0	2600
312936	443	5	159	-2.472234	-1.524419	-23.92212	0	10.32	4004	31	-193	-19	0	1.140817	3.06274	3	3	0	2600
312984	2694	1729	26	-1.371184	-1.935518	-24.18647	0	10.32	4004	-129	176	-10	0	1.140817	3.049402	3	3	0	2600
313095	790	3541	1065	1.618803	-8.779893	-25.08212	0	10.32	4003	79	-95	-24	0	1.140817	3.044944	3	3	0	2600
313185	-3382	-841	-3417	-0.06160891	-10.74405	-24.12272	0	10.32	4004	-54	-50	-46	0	1.140817	3.047575	3	3	0	2600
313394	-2155	-1242	-383	-5.851183	-10.83535	-22.58885	0	10.26	4003	209	-290	-71	0	1.140817	3.083031	3	3	0	2600
313491	2815	839	430	-3.392946	-13.40808	-24.41628	0	10.26	4004	256	-400	-27	0	1.140817	3.139847	3	3	0	2600
313578	294	-2971	-509	-1.520849	-11.2733	-24.63923	0	10.26	4003	-53	28	9	0	1.140817	3.177038	3	3	0	2600
313666	2363	-1618	918	0.6338037	-7.531379	-24.81595	0	10.26	4003	-242	334	17	0	1.140817	3.230638	3	3	0	2600
313804	3070	479	1141	5.649766	-5.989928	-24.53822	0	10.26	4003	-70	33	-44	0	1.140817	3.272362	3	3	0	2600
313917	36	-1398	-1326	8.118941	-7.02531	-23.77769	0	10.26	4002	73	-251	-46	0	1.140817	3.346753	3	3	0	2600
314039	-2621	-4276	-1645	1.942822	-4.377943	-23.64564	0	10.26	4009	303	-400	-67	0	1.140817	3.403705	3	3	0	2600
314105	-2471	-2704	-1867	-1.110247	-2.618936	-22.84603	0	10.26	4004	-7	-80	-63	0	1.140817	3.490526	3	3	0	2600
314178	-2815	-940	-1680	-2.82169	-2.032167	-23.01899	0	10.26	4004	142	-371	-61	0	1.140817	3.546659	3	3	0	2600
314267	242	2290	1950	-4.596328	-4.397788	-23.41089	0	10.94	4004	-190	235	-54	0	1.140817	3.600186	3	3	0	2600
314391	3845	2887	1791	-2.545603	-8.248937	-23.34097	0	10.94	4003	3	-134	-53	0	1.140817	3.687843	3	3	0	2600
314519	-143	2927	2138	0.2742662	-10.25002	-23.51025	0	10.94	4003	-160	300	-13	0	1.140817	3.801308	3	3	0	2600
314568	-2304	-514	221	-2.670364	-8.62651	-21.50004	0	10.94	4002	76	-131	-100	0	1.140817	3.865747	3	3	0	2600
314682	-1697	-898	11	-4.536839	-8.301373	-22.58524	0	10.94	4004	248	-400	-70	0	1.140817	4.036075	3	3	0	2600
314787	-1293	1329	2074	-6.523537	-8.028203	-22.63055	0	10.94	4002	126	127	-73	0	1.140817	4.105638	3	3	0	2600
314879	2956	3896	2376	-5.705971	-11.30505	-23.88477	0	10.94	4004	186	-383	-44	0	1.140817	4.207582	3	3	0	2600
315004	303	-1950	-161	-4.168583	-8.769693	-23.30037	0	10.94	4002	100	-122	-58	0	1.140817	4.40199	3	3	0	2600
315169	-85	4526	-243	-2.0618	-13.52905	-22.73844	0	10.94	4003	143	-115	-119	0	1.140817	4.524406	3	3	0	2600
315202	-313	2634	-1106	-2.412136	-14.72011	-21.49667	0	10.38	4003	79	-27	-133	0	1.140817	4.666981	3	3	0	2600
315315	122	-212	1734	-1.821373	-16.07607	-20.95227	0	10.38	4003	111	-159	-119	0	1.140817	4.739162	3	3	0	2600
315385	682	-1962	2268	-0.9275911	-14.21128	-23.04453	0	10.38	4002	-5	-138	-8	0	1.140817	4.79437	3	3	0	2600
315478	1786	-1152	759	1.091117	-10.77711	-26.27084	0	10.38	4002	78	-72	21	0	1.140817	4.870512	3	3	0	2600
315623	540	-2324	-2144	2.57113	-7.357542	-26.57387	0	10.38	4004	107	-273	-1	0	1.140817	4.973611	3	3	0	2600
315682	-302	-2347	-3011	2.982325	-7.096464	-25.88415	0	10.38	4003	132	-278	-21	0	1.140817	5.1236	3	3	0	2600
315805	-2907	-1176	-1958	0.3847362	-8.786702	-21.36445	0	10.38	4003	60	-135	-126	0	1.140817	5.215665	3	3	0	2600
315934	-4876	-6220	-2107	-3.436554	-6.869132	-20.45899	0	10.38	4003	-89	168	-99	0	1.140817	5.311132	3	3	0	2600
315978	-4583	-6812	-1489	-7.511036	-2.448292	-20.25504	0	10.38	4002	1	-336	-112	0	1.140817	5.36975	3	3	0	2600
316083	3261	3979	2886	-3.014599	-1.987051	-23.68017	0	10.43	4002	-105	44	4	0	1.140817	5.451483	3	3	0	2600
316253	1447	-2439	-1321	-1.4947	-5.264619	-26.872	0	10.43	4003	-129	165	42	0	1.140817	5.58087	3	3	0	2600
316362	1455	2988	53	3.014078	-7.98961	-23.82063	0	10.43	4004	-143	211	-25	0	1.140817	5.652014	3	3	0	2600
316407	1294	3102	-578	3.560331	-9.717037	-23.02035	0	10.43	4003	-153	239	-61	0	1.140817	5.69285	3	3	0	2600
316536	-602	-943	1215	4.823808	-12.39327	-22.06865	0	10.43	4003	49	-101	-55	0	1.140817	5.753999	3	3	0	2600
316578	-1512	-1931	2239	3.818429	-11.08841	-22.82737	0	10.43	4004	69	-69	-36	0	1.140817	5.761423	3	3	0	2600
316747	-615	344	680	1.790997	-6.535113	-26.83519	0	10.43	4004	-27	-89	59	0	1.140817	5.785937	3	3	0	2600
316819	-1229	-303	-1137	-0.8759428	-5.751642	-26.66726	0	10.43	4003	31	-46	30	0	1.140817	5.783074	3	3	0	2600
316862	-869	1970	270	-1.347887	-6.264764	-26.31512	0	10.43	4004	-2	-117	24	0	1.140817	5.780572	3	3	0	2600
317042	-2328	-1389	785	-6.401275	-6.886463	-24.77289	0	10.83	4002	32	-57	-16	0	1.140817	5.754043	3	3	0	2600
317148	342	1921	442	-7.724165	-6.823966	-25.37615	0	10.83	4002	42	-73	3	0	1.140817	5.72682	3	3	0	2600
317168	822	1946	-630	-6.818209	-8.378007	-25.53993	0	10.83	4003	75	-117	-1	0	1.140817	5.72682	3	3	0	2600
317262	-1410	-1359	-1587	-5.595705	-9.727654	-24.9243	0	10.83	4003	-19	31	-3	0	1.140817	5.704316	3	3	0	2600
317428	2193	195	678	-4.870602	-6.848835	-24.03849	0	10.83	4003	166	-238	-64	0	1.140817	5.6254	3	3	0	2600
317520	2481	3812	365	-3.740775	-7.160657	-23.43699	0	10.83	4002	-49	376	-47	0	1.140817	5.560783	3	3	0	2600
317606	244	121	306	-0.8104857	-10.75847	-24.21822	0	10.83	4003	-155	-22	-12	0	1.140817	5.463036	3	3	0	2600
317663	-2441	-3769	844	-1.694219	-7.706035	-25.30956	0	10.83	4003	127	-272	0	0	1.140817	5.442197	3	3	0	2600
317766	-1824	696	-2510	-6.029593	-6.437279	-24.99481	0	10.83	4003	-52	-36	-21	0	1.140817	5.312948	3	3	0	2600
317880	38	538	-130	-5.944009	-11.47794	-22.27812	0	10.72	4002	-295	294	-50	0	1.140817	5.11087	3	3	0	2600
317939	-4112	-2488	-100	-8.453945	-9.30948	-21.7776	0	10.72	4004	19	-21	-75	0	1.140817	5.058131	3	3	0	2600
318085	-565	2536	2787	-11.95749	-8.498497	-23.98863	0	10.72	4002	-11	196	9	0	1.140817	4.954535	3	3	0	2600
318197	5269	2615	-68	-5.030591	-15.01285	-24.98708	0	10.72	4004	-257	359	-15	0	1.140817	4.78864	3	3	0	2600
318232	3953	-458	-2902	-2.426134	-15.19291	-23.91104	0	10.72	4004	71	-23	-89	0	1.140817	4.738541	3	3	0	2600
318333	-3370	-4775	-993	-4.069195	-8.300618	-19.7215	0	10.72	4003	59	-244	-132	0	1.140817	4.68515	3	3	0	2600
318439	2912	2618	524	-4.150867	-5.837181	-19.75896	0	10.72	4004	82	-38	-125	0	1.140817	4.61646	3	3	0	2600
318571	613	-1290	736	2.949811	-10.36717	-24.75665	0	10.72	4004	-160	282	11	0	1.140817	4.362335	3	3	0	2600
318622	-1471	-2993	619	2.548421	-9.019382	-25.41797	0	10.72	4003	2	-46	6	0	1.140817	4.342933	3	3	0	2600
318718	952	-848	571	0.8475828	-4.424483	-25.77416	0	10.72	4004	66	-23	-5	0	1.140817	4.161538	3	3	0	2600
318845	-191	1713	267	1.205092	-4.783864	-24.02567	0	10.94	4002	-61	400	-38	0	1.140817	3.938427	3	3	0	2600
318920	543	1726	-61	1.357597	-6.814147	-23.55651	0	10.94	4003	-127	400	-45	0	1.140817	3.894431	3	3	0	2600
319012	-194	-2723	-1717	1.776707	-5.808251	-22.57536	0	10.94	4002	-52	61	-63	0	1.140817	3.812406	3	3	0	2600
319177	-2798	-2442	-1230	-2.321525	-6.339025	-23.55502	0	10.94	4003	155	-271	-41	0	1.140817	3.603743	3	3	0	2600
319206	-897	-2966	-275	-3.432088	-5.372409	-23.34789	0	10.94	4002	175	-280	-68	0	1.140817	3.547285	3	3	0	2600
319332	-1673	207	-782	-4.39232	-2.830155	-23.61788	0	10.94	4002	238	-185	-57	0	1.140817	3.351859	3	3	0	2600
319408	-1618	457	102	-5.271844	-5.01489	-23.94442	0	10.94	4004	62	-368	-56	0	1.140817	3.2856	3	3	0	2600
319512	-869	3445	377	-9.616765	-5.47613	-22.9812	0	10.94	4002	-30	-123	-68	0	1.140817	3.194524	3	3	0	2600
319719	-1010	-1293	1888	-7.921218	-9.959913	-24.81057	0	10.6	4003	-44	-103	-6	-1	1.145465	3.060558	5	3	0	2600
319739	-1732	-652	42	-8.545198	-9.044872	-25.34551	0	10.6	4004	22	-49	14	-1	1.030919	3.042461	5	3	0	2600
319826	-138	495	1239	-8.714709	-8.815408	-25.81787	0	10.6	4002	-93	137	28	-1	1.025732	2.993748	5	3	0	2600
319991	1697	-322	-1339	-6.339955	-10.20242	-23.73166	0	10.6	4003	39	-42	-57	-1	1.085624	2.870277	5	3	0	2600
320051	-154	-2263	-222	-5.056482	-8.136349	-23.32844	0	10.6	4004	61	-186	-46	0	1.085624	2.870277	5	3	0	2600
320139	624	-826	1409	-3.527567	-5.341215	-24.56031	0	10.6	4004	-54	-54	-18	0	1.131593	2.767633	5	3	0	2600
320274	337	-1478	634	-3.241827	-3.204743	-26.32759	0	10.6	4003	40	-62	30	42	1.155565	2.69469	5	3	0	2600
320429	-4	-291	49	-2.714586	0.2326555	-25.55932	0	10.6	4002	-20	-71	3	0	1.127891	2.57631	5	3	0	2600
320464	-1304	-670	-1765	-2.964661	0.7236962	-25.06197	0	10.6	4003	101	-3	-4	0	1.105517	2.563599	5	3	0	2600
320598	1183	2824	556	-3.157624	-1.406436	-24.24384	0	10.6	4004	7	-192	-21	54	1.160451	2.488381	5	3	0	2600
320669	-443	4180	957	-2.513705	-5.59206	-25.04118	0	10.43	4003	42	-32	13	0	1.0246	2.291709	5	3	0	2600
320754	1271	2729	-1572	-2.968304	-10.97536	-25.42553	0	10.43	4003	-24	86	6	0	1.02996	2.241788	5	3	0	2600
320858	1602	306	-858	-1.091285	-11.96375	-24.66865	0	10.43	4004	-58	0	-30	1	1.046615	2.158314	5	3	0	2600
320958	1501	-1023	1061	-2.237509	-6.869987	-24.44333	0	10.43	4002	-104	82	-9	1	1.047914	1.945734	5	3	0	2600
321063	277	-1197	-274	-1.324491	-4.508321	-24.6224	0	10.43	4003	-75	-84	-12	2	1.067577	1.77604	5	3	0	2600
321178	311	-109	998	-1.009773	-3.13126	-25.12895	0	10.43	4003	-25	41	0	2	1.043916	1.600544	5	3	0	2600
321291	291	-828	454	-1.201948	-1.14949	-25.04447	0	10.43	4004	-52	37	0	5	1.015415	1.386237	5	3	0	2600
321364	977	-159	-350	-0.4958611	0.04769671	-24.51624	0	10.43	4004	30	16	-20	5	0.9269986	1.330877	5	3	0	2600
321560	-6010	31715	-2807	-1.081524	5.612931	-24.14331	0	9.24	4004	-25	227	-61	349	0.9405135	1.098647	5	3	0	2600
321673	692	-4485	-784	-3.247843	-0.6874912	-22.25025	0	9.24	4003	137	-388	-80	8	0.7484767	0.7496739	5	3	0	2600
321756	1962	3022	2985	0.0858042	-2.096541	-24.30739	0	9.24	4004	20	257	1	8	0.7866122	0.7004735	5	3	0	2600
321876	626	1698	922	1.295048	-3.88682	-26.471	0	9.24	4003	-21	224	35	9	0.8156176	0.6247237	5	3	0	2600
321935	830	1700	964	1.661434	-4.270639	-26.63841	0	9.24	4002	-35	283	44	9	0.8220043	0.5878438	5	3	0	2600
322076	-39	-1619	-457	1.061445	-3.095877	-25.12838	0	9.24	4004	-12	-17	-12	9	0.7825469	0.5480663	5	3	0	2600
322127	-849	194	549	0.3568827	-1.958392	-24.69138	0	9.24	4004	28	-303	-22	9	0.809799	0.5449331	5	3	0	2600
322235	1319	743	1557	0.1578091	-2.747127	-25.02585	0	9.24	4004	-201	295	16	9	0.9297063	0.5474489	5	3	0	2600
322405	-1609	-887	-667	-3.084866	-2.008381	-24.55778	0	9.24	4004	-28	99	-11	9	0.8872848	0.6126314	5	3	0	2600
322489	-2517	-1645	-1073	-4.43085	-2.656063	-25.08859	0	11.11	4003	97	-212	-2	8	0.9589486	0.6694279	5	3	0	2600
322604	-312	3106	45	-5.538895	-4.475793	-24.87428	0	11.11	4004	-154	-6	-2	8	1.020899	0.7562221	5	3	0	2600
322638	-1083	271	-1680	-5.14457	-6.005544	-24.69208	0	11.11	4004	68	-169	-37	8	1.029598	0.7751857	5	3	0	2600
322748	-1036	-1018	-615	-5.507866	-7.057944	-22.73567	0	11.11	4004	131	-62	-83	7	0.9198887	0.8539343	5	3	0	2600
322827	-2316	-3307	-797	-9.257351	-3.486224	-20.98655	0	11.11	4004	111	-298	-117	6	0.9368564	1.069362	5	3	0	2600
322915	1316	-3163	-132	-9.054399	-1.120163	-21.93413	0	11.11	4002	65	-128	-69	6	0.9942478	1.120091	5	3	0	2600
323018	3112	2014	1254	-6.390463	0.4934345	-22.00979	0	11.11	4003	100	-77	-103	6	1.009199	1.193014	5	3	0	2600
323169	-1516	-1188	-351	-1.690593	-4.02018	-22.98401	0	11.11	4003	48	-95	-59	5	1.060223	1.418739	5	3	0	2600
323288	-1037	-3490	-1347	-3.752981	-0.9272715	-22.29981	0	11.11	4004	-134	-22	-68	2	1.07242	1.600497	5	3	0	2600
323321	1615	658	2238	-3.292881	0.2721554	-22.27816	0	11.11	4004	-181	149	-38	2	1.069394	1.649293	5	3	0	2600
323432	4732	3819	633	-0.8682568	-2.314362	-21.85454	0	10.15	4004	55	-64	-106	-52	1.075365	1.727934	5	3	0	2600
323541	-1653	-1079	-89	1.4017	-7.321012	-22.22298	0	10.15	4003	113	-339	-75	1	1.063179	1.940727	5	3	0	2600
323616	-2153	-4525	1363	-0.7057839	-4.96026	-23.39959	0	10.15	4002	25	-277	-12	1	1.048545	1.979005	5	3	0	2600
323744	2506	3784	2474	0.07894734	-4.584002	-25.70135	0	10.15	4002	-310	400	34	0	1.060572	2.189411	5	3	0	2600
323858	430	-39	-461	1.416636	-6.653714	-24.61327	0	10.15	4004	36	11	-21	0	1.083248	2.250486	5	3	0	2600
323964	-32	-1691	-609	-2.643902	-2.313103	-22.03628	0	10.15	4003	138	-330	-92	0	1.105525	2.460275	5	3	0	2600
324040	-1267	-826	-548	-3.474694	-0.3214916	-21.20876	0	10.15	4002	239	-285	-69	0	1.089421	2.521817	5	3	0	2600
324115	-708	-376	1058	-3.977377	-2.907821	-22.83929	0	10.15	4002	-22	-73	-25	0	1.065994	2.690206	5	3	0	2600
324301	1064	2997	149	3.159597	-7.947265	-25.31928	0	10.77	4004	-47	277	-5	-1	0.9749364	2.945903	5	3	0	2600
324374	697	2087	-1714	2.842303	-11.22936	-24.43545	0	10.77	4002	-291	333	4	-1	0.9460654	2.99791	5	3	0	2600
324449	1194	4294	-1313	3.017338	-13.4424	-24.10199	0	10.77	4003	-152	219	-19	-1	0.9119679	3.055743	5	3	0	2600
324508	-2143	2068	-1569	1.653851	-19.08933	-22.86012	0	10.77	4003	-201	285	-38	-2	0.8473907	3.211764	5	3	0	2600
324713	981	4956	1916	0.5141987	-22.01159	-20.96142	0	10.77	4003	-139	284	-79	-2	0.9554746	3.357271	5	3	0	2600
324879	3032	-154	995	5.978136	-24.04441	-24.2914	0	10.77	4007	38	-1	-16	-5	0.9196065	3.593137	5	3	0	2600
325029	2213	1653	-1278	11.31356	-23.52213	-23.69446	0	10.77	4004	110	-202	-52	-5	1.000522	3.836769	5	3	0	2600
325134	-1410	311	115	10.18161	-21.05908	-24.35676	0	10.77	4003	99	-90	-28	-6	1.003698	3.900199	5	3	0	2600
325211	-334	900	25	8.161557	-20.65098	-25.19471	0	9.75	4002	12	9	3	-6	1.037767	3.955335	5	3	0	2600
325387	-1334	425	-2630	9.09982	-25.3631	-23.74421	0	9.75	4004	155	-182	-56	-7	1.013534	4.087751	5	3	0	2600
325422	-2215	-6489	-508	6.390602	-20.99614	-22.48261	0	9.75	4004	5	-118	-83	-7	1.015639	4.147424	5	3	0	2600
325601	-1874	-162	-114	0.9518972	-9.774399	-22.04352	0	9.75	4002	0	61	-47	-39	1.113028	4.388626	5	3	0	2600
325675	-4739	-373	1359	-3.86979	-12.53892	-24.24021	0	9.75	4004	95	-98	-29	-9	1.124266	4.426684	5	3	0	2600
325790	-1135	-1117	49	-8.576323	-6.702194	-25.07004	0	9.75	4004	8	-58	-12	-9	1.11008	4.522965	5	3	0	2600
325826	-2689	-2142	-1587	-9.014952	-6.702863	-25.06438	0	9.75	4003	162	-400	-19	-9	1.104441	4.540939	5	3	0	2600
325995	-1888	-1390	-1639	-13.49822	-6.913202	-23.57435	0	9.75	4003	134	-177	-54	-10	1.052738	4.779821	5	3	0	2600
326063	3030	1990	-382	-10.90353	-7.857996	-22.86684	0	9.75	4002	-154	338	-46	-11	1.057808	4.820087	5	3	0	2600
326178	1983	1323	1897	-3.740106	-9.646784	-22.77483	0	10.55	4004	-39	118	-34	-68	1.063982	4.946165	5	3	0	2600
326199	390	-712	584	-2.797242	-9.637835	-23.39232	0	10.55	4003	-44	-92	-22	-12	1.045255	5.068727	5	3	0	2600
326343	-70	-3371	-639	-1.774073	-4.33714	-26.33609	0	10.55	4003	94	-157	20	-12	1.070873	5.142409	5	3	0	2600
326454	3853	2777	-1239	0.9199032	-4.521482	-25.09292	0	10.55	4003	28	-33	-45	-13	1.069673	5.217341	5	3	0	2600
326556	661	-462	-2331	4.276257	-7.455768	-22.25802	0	10.55	4003	-236	314	-73	-13	1.022004	5.296467	5	3	0	2600
326607	-1044	-461	912	2.753591	-7.036007	-21.56055	0	10.55	4003	-236	314	-73	-13	1.014518	5.356873	5	3	0	2600
326810	-1767	-3229	1228	-5.258147	3.596544	-21.47439	0	10.55	4004	238	-400	-118	-14	0.9157134	5.518978	5	3	0	2600
327010	2025	4041	1503	-0.5568002	-2.079609	-24.80796	0	10.55	4003	87	-203	-29	-15	0.9056386	5.682023	5	3	0	2600
327134	-3285	1382	1518	-3.58625	-4.82484	-24.2354	0	10.94	4003	-9	-89	-23	-57	0.9404867	5.801391	5	3	0	2600
327257	1960	8153	1858	-3.343565	-10.76849	-23.70931	0	10.94	4002	-229	400	-13	-16	0.9379814	5.867898	5	3	0	2600
327318	2057	8701	-772	-0.7616516	-20.04129	-23.97816	0	10.94	4002	-229	400	-13	-16	0.9324654	5.912708	5	3	0	2600
327451	-184	-722	-1182	1.788266	-27.88094	-22.79494	0	10.94	4004	144	-113	-101	-16	0.8856171	5.976677	5	3	0	2600
327564	-326	-5528	-926	-1.437221	-16.58067	-20.95068	0	10.94	4003	194	-149	-121	-16	0.9329326	6.047152	5	3	0	2600
327673	-182	-1420	-163	1.045755	-14.19331	-22.93085	0	10.94	4004	-264	351	-24	-17	0.8928049	6.13436	5	3	0	2600
327742	1995	-2244	-107	2.45255	-11.15193	-21.56426	0	10.94	4003	109	-85	-107	-63	0.918841	6.14917	5	3	0	2600
327889	2571	2618	2126	3.644742	-8.566215	-23.02906	0	10.94	4003	-279	400	-20	-18	0.9737667	6.265113	5	3	0	2600
327972	-1180	-414	-2709	4.154395	-10.94771	-23.22268	0	10.89	4003	15	81	-91	-18	0.9604088	6.316924	5	3	0	2600
328041	-543	-503	1006	1.841666	-8.642234	-21.01277	0	10.89	4002	-12	314	-104	-18	0.9791905	6.383799	5	3	0	2600
328119	1608	532	2521	1.985601	-7.661292	-21.40775	0	10.89	4003	0	231	-69	-18	0.9784026	6.450097	5	3	0	2600
328264	137	-3151	-1993	4.322088	-7.171169	-22.26059	0	10.89	4004	-38	-173	-86	-19	0.8050445	6.55163	5	3	0	2600
328327	1546	1565	-307	5.378301	-8.393139	-21.88136	0	10.89	4003	191	-350	-93	-19	0.7245401	6.587286	5	3	0	2600
328468	1625	3500	2000	8.833416	-14.46931	-20.62237	0	10.89	4003	-108	43	-99	-20	0.8227427	6.683626	5	3	0	2600
328520	-367	1302	1340	8.193244	-14.79057	-20.93944	0	10.89	4004	21	0	-48	-20	0.8814507	6.782119	5	3	0	2600
328686	-334	-204	696	5.948209	-10.61099	-27.24024	0	10.89	4003	-50	-118	63	-21	1.00348	6.879942	5	3	0	2600
328753	-2450	-1165	-428	3.716416	-9.926742	-27.88692	0	10.89	4003	-58	-33	64	-21	0.9315446	6.934958	5	3	0	2600
328836	-1060	-2942	-3520	2.389558	-9.398522	-26.62118	0	10.89	4002	143	-400	-19	-21	0.9574905	6.984556	5	3	0	2600
328977	-1064	-1036	-1889	2.753537	-13.05223	-21.49025	0	10.77	4003	102	-108	-113	-21	1.070044	7.079779	5	3	0	2600
329138	-518	-1050	2096	0.8453186	-11.75079	-23.11623	0	10.77	4002	-156	-70	-44	-22	1.105762	7.171069	5	3	0	2600
329233	-930	-698	2337	-0.01688594	-8.446151	-26.1573	0	10.77	4003	98	-87	39	-22	1.107096	7.208425	5	3	0	2600
329386	-498	1630	-301	-0.9169933	-9.738289	-26.1937	0	10.77	4003	-111	243	-21	-22	1.110627	7.27284	5	3	0	2600
329447	-2509	1334	-1398	-4.927344	-11.84711	-22.44135	0	10.77	4002	10	9	-136	-22	1.114343	7.287178	5	3	0	2600
329600	-2803	800	-85	-10.25478	-10.03843	-19.10891	0	10.77	4002	-45	43	-141	-23	0.9786348	7.304233	5	3	0	2600
329728	1531	-372	3074	-10.07259	-10.0735	-21.05443	0	10.77	4003	-227	358	-53	-23	0.8323823	7.305242	5	3	0	2600
329765	696	-3188	2080	-8.964774	-8.889803	-21.96745	0	10.77	4004	15	-13	-42	-23	0.7704206	7.301544	5	3	0	2600
329900	1560	-1892	-4	-4.705899	-5.019271	-23.98749	0	11	4002	165	-360	-25	-23	0.8510923	7.296151	5	3	0	2600
