time(ms)	gyro_x(deg/s)	gyro_y(deg/s)	gyro_z(deg/s)	orientation_roll(deg)	orientation_pitch(deg)	orientation_yaw(deg)	throttle	battery(V)	loop_time(uS)	pid_output_roll	pid_output_pitch	pid_output_yaw	pid_output_throttle	ultrasonic_alt	baro_alt	flight_mode	p_gain_altitude	i_gain_altitude	d_gain_altitude
94605	-12	2	5	0.1575526	0.09004356	-8.493193	0	12.19	4002	0	0	0	0	0.9398203	-0.1793664	1	7	0	2000
94694	-4	3	4	0.1651122	0.09332618	-8.496676	0	12.19	4002	0	0	0	0	0.9398203	-0.1875094	1	7	0	2000
94780	-22	-3	-1	0.1667285	0.09477901	-8.49851	0	12.19	4003	0	0	0	0	0.9398203	-0.1947571	1	7	0	2000
94959	-19	0	2	0.1691256	0.08539028	-8.506699	0	12.14	4004	0	0	0	0	0.9398203	-0.1995044	1	7	0	2000
94991	-11	4	-1	0.1726215	0.08535372	-8.507982	0	12.14	4003	0	0	0	0	0.9398203	-0.1957918	1	7	0	2000
95095	-15	2	4	0.1676068	0.08762905	-8.512628	0	12.14	4003	0	0	0	0	0.9398203	-0.1881261	1	7	0	2000
95210	-7	1	1	0.1684885	0.09626081	-8.516477	0	12.14	4004	0	0	0	0	0.9398203	-0.1727352	3	7	0	2000
95296	-8	0	5	0.1639085	0.09182096	-8.518799	0	12.14	4003	0	0	0	0	0.9398203	-0.1638162	3	7	0	2000
95409	-14	4	2	0.1739498	0.09147795	-8.522221	0	12.14	4003	0	0	0	0	0.9398203	-0.1525805	3	7	0	2000
95506	-13	0	0	0.1761602	0.08654553	-8.524483	0	12.14	4004	0	0	0	0	0.9398203	-0.1438532	3	7	0	2000
95589	-22	-3	5	0.1795754	0.07736755	-8.528272	0	12.14	4009	0	0	0	0	0.9398203	-0.1355915	3	7	0	2000
95696	-12	1	2	0.1854113	0.08010007	-8.53463	0	12.14	4002	0	0	0	0	0.9398203	-0.1265336	3	7	0	2000
95815	-16	0	4	0.180336	0.07698014	-8.538297	0	12.14	4002	0	0	0	0	0.9398203	-0.1313855	3	7	0	2000
95996	94	-97	171	0.2090198	0.0944091	-8.540011	0	12.14	4003	-8	-16	3	0	0.9398203	-0.1264813	3	7	0	2000
96037	-10	12	72	0.2416545	0.08325411	-8.530968	0	12.14	4004	31	-6	1	0	0.9398203	-0.125443	3	7	0	2000
96140	-242	-82	-4	0.1639829	0.06379794	-8.578105	0	12.14	4002	-21	-23	1	0	0.9398203	-0.1223368	3	7	0	2000
96208	-297	-172	86	0.1592647	0.07500198	-8.600471	0	12.14	4003	12	-10	0	0	0.9398203	-0.1217446	3	7	0	2000
96314	-81	-154	166	0.08266122	0.2670685	-8.631936	0	12.14	4003	42	-14	3	0	0.9398203	-0.1133021	3	7	0	2000
96449	27	94	-489	0.1197792	0.1484388	-8.654062	0	12.14	4003	22	-6	8	0	0.9398203	-0.0750139	3	7	0	2000
96524	-62	21	-575	0.08194504	0.1091691	-8.693163	0	12.14	4002	-9	11	4	0	0.9398203	-0.06070255	3	7	0	2000
96697	360	315	-301	0.09191736	0.04370182	-8.707058	0	12.14	4003	-4	-1	4	0	0.9398203	-0.01267464	3	7	0	2000
96747	-250	-7	208	0.0248499	0.008252817	-8.716795	0	12.08	4003	-29	28	5	0	0.9398203	-0.004770751	3	7	0	2000
96841	185	173	-112	0.08632761	0.03785349	-8.704079	0	12.08	4004	-76	58	-3	0	0.9398203	0.01519692	3	7	0	2000
96937	212	195	-206	0.03278834	0.07481359	-8.685472	0	12.08	4003	-34	-2	1	0	0.9398203	0.05096903	3	7	0	2000
97065	-111	-202	121	-0.006765037	0.09665584	-8.699554	0	12.08	4002	-30	2	4	0	0.9398203	0.07135405	3	7	0	2000
97134	119	101	88	0.06152567	0.1102073	-8.706716	0	12.08	4002	-29	-3	1	0	0.9398203	0.08186109	3	7	0	2000
97286	-109	45	376	-0.04965364	0.1267566	-8.707061	0	12.08	4004	-36	44	-1	0	0.9398203	0.09994942	3	7	0	2000
97379	5	-9	-403	-0.01175148	-0.0004929052	-8.695909	0	12.08	4002	12	-8	6	0	0.9398203	0.1170313	3	7	0	2000
97446	-185	-96	91	-0.1311505	0.05743751	-8.725773	0	12.08	4003	39	-52	17	0	0.9398203	0.1271903	3	7	0	2000
97548	-105	-1158	-618	-0.1462965	0.516566	-8.518992	0	12.08	4004	6	-48	2	0	0.9398203	0.1363033	3	7	0	2000
97723	1099	-339	-753	0.9439967	0.7664917	-8.493692	0	11.97	4003	20	99	17	0	0.9398203	0.1558703	3	7	0	2000
97779	16	-1052	-451	1.627469	0.2280619	-8.454382	0	11.97	4003	-5	-18	6	0	0.9398203	0.1735683	3	7	0	2000
97956	-1076	3465	957	-0.911158	-5.541838	-9.325951	0	11.97	4003	6	-37	12	0	0.9398203	0.2247251	3	7	0	2000
98131	-1145	3162	-769	-2.25159	-10.76275	-8.662025	0	11.97	4003	-3	58	9	0	0.9398203	0.3449893	3	7	0	2000
98197	-819	4137	1034	-2.595074	-13.76379	-8.441259	0	11.97	4004	-103	199	10	0	0.9398203	0.3868174	3	7	0	2000
98286	1572	2234	476	-2.144796	-16.0217	-7.790531	0	11.97	4004	-118	141	-7	0	0.9398203	0.4429715	3	7	0	2000
98352	585	-328	-379	-1.177342	-15.85099	-7.553983	0	11.97	4003	15	-113	-25	0	0.9398203	0.4844007	3	7	0	2000
98527	246	-2616	751	-0.8212413	-9.050081	-8.211917	0	11.97	4002	-1	3	-8	0	0.9398203	0.606823	3	7	0	2000
98616	-14	-2651	651	-0.9098623	-5.943649	-8.604777	0	11.91	4004	30	-166	7	0	0.9398203	0.6614925	3	7	0	2000
98756	866	-663	-204	-0.1179216	-2.390456	-8.502325	0	11.91	4003	14	-124	-2	0	0.9398203	0.7797103	3	7	0	2000
98850	-223	-157	242	-0.2351305	-2.744355	-8.357364	0	11.91	4002	11	-74	-1	0	0.9398203	0.8261236	3	7	0	2000
98992	-81	-1828	176	-1.121604	-0.2036981	-8.128815	0	11.91	4003	-13	-27	-9	0	0.9398203	0.9216141	3	7	0	2000
99104	989	967	487	-0.329704	1.034968	-8.140124	0	11.91	4004	-45	21	-9	0	0.9398203	1.012947	3	7	0	2000
99244	-1624	-32	261	-0.4632856	-1.537641	-8.466311	0	11.91	4003	-50	47	-1	0	0.9398203	1.081303	3	7	0	2000
99310	-2303	-1685	97	-2.866963	-1.388306	-8.543599	0	11.91	4004	71	-206	-1	0	0.9398203	1.120556	3	7	0	2000
99394	-96	2351	145	-3.687906	-2.142037	-7.730608	0	11.91	4003	-122	169	1	0	0.9398203	1.200875	3	7	0	2000
99455	134	2457	435	-3.491907	-3.735249	-8.071845	0	11.91	4004	-33	64	12	0	0.9398203	1.217816	3	7	0	2000
99538	-944	1052	1126	-1.721409	-7.374046	-8.404914	0	10.04	4004	-106	-147	1	0	0.9398203	1.236913	3	7	0	2000
99674	471	2392	-412	-2.004034	-6.645014	-8.827202	0	10.04	4004	89	194	-1	0	0.9398203	1.283861	3	7	0	2000
99746	-643	1148	-470	-2.558921	-9.32667	-9.139741	0	10.04	4004	123	-400	3	0	0.9398203	1.303392	3	7	0	2000
99851	1692	-5979	-557	-1.157719	-3.929369	-9.24614	0	10.04	4004	-112	-288	27	0	0.9398203	1.320879	3	7	0	2000
100030	277	-1729	-1004	-0.6923056	-3.949332	-8.757915	0	10.04	4002	-41	30	7	0	0.9398203	1.362675	3	7	0	2000
100064	40	-2164	-862	-0.5189546	-2.620862	-8.312545	0	10.04	4003	-2	-106	-25	0	0.9398203	1.383136	3	7	0	2000
100142	961	-1430	-1186	0.831615	-0.538464	-7.735086	0	10.04	4002	-71	-48	-14	0	0.9398203	1.411631	3	7	0	2000
100260	-1209	1713	1389	1.902382	-1.943067	-8.116728	0	10.04	4004	76	250	2	0	0.9398203	1.456855	3	7	0	2000
100349	1261	1626	-443	1.478382	-4.199552	-8.126961	0	10.04	4003	-46	59	0	0	0.9398203	1.509842	3	7	0	2000
100460	-2087	-1893	-988	0.5601945	-3.417347	-8.604027	0	10.89	4004	-28	-165	17	0	0.9398203	1.560849	3	7	0	2000
100555	234	-891	-958	-0.6798809	-5.010898	-9.127466	0	10.89	4004	-10	-250	-2	0	0.9398203	1.610152	3	7	0	2000
100683	27	5	-2464	-1.780765	-8.715755	-8.784122	0	10.89	4003	132	-230	-27	0	0.9398203	1.693367	3	7	0	2000
100796	195	-62	819	-1.268149	-9.369971	-7.78684	0	10.89	4002	-10	-339	-30	0	0.9398203	1.754732	3	7	0	2000
100843	-398	-523	1358	-1.040864	-9.141186	-7.753397	0	10.89	4003	-40	255	-2	0	0.9398203	1.78972	3	7	0	2000
100984	-949	-1299	-1301	-0.6559926	-9.361558	-8.65433	0	10.89	4003	182	-189	-8	0	0.9398203	2.016792	3	7	0	2000
101112	440	-2670	-1256	-0.2506512	-6.688683	-8.098056	0	10.89	4002	90	-286	-27	0	0.9398203	2.105743	3	7	0	2000
101158	87	-80	686	0.3159864	-5.635015	-8.190414	0	10.89	4004	-2	-93	-1	0	0.9398203	2.14256	3	7	0	2000
101270	686	-109	974	1.946864	-5.79212	-7.447747	0	10.89	4003	-108	-102	-20	0	0.9398203	2.224071	3	7	0	2000
101339	-843	-2484	-1019	0.9710997	-3.996464	-7.144678	0	10.94	4002	57	1	-47	0	0.9398203	2.387716	3	7	0	2000
101571	-638	-1428	50	1.078067	-8.04542	-7.666926	0	10.94	4003	19	-104	-19	0	0.9398203	2.598583	3	7	0	2000
101689	496	-960	35	-0.3277448	-2.227592	-8.331649	0	10.94	4003	24	-112	-10	0	0.9398203	2.703863	3	7	0	2000
101856	-69	-1405	-911	-0.430596	-1.072794	-8.941008	0	10.94	4002	13	-32	9	0	0.9398203	2.860246	3	7	0	2000
101961	-331	-1648	-764	-0.8482689	1.269654	-8.306144	0	10.94	4003	-15	-127	-3	0	0.9398203	2.925054	3	7	0	2000
102048	-5	-205	433	-1.071711	1.419543	-8.044147	0	10.94	4004	25	-10	-8	0	0.9398203	2.98005	3	7	0	2000
102171	159	-219	-61	-0.7584336	-0.07874475	-8.004187	0	10.94	4004	22	-126	-5	0	0.9398203	3.052027	3	7	0	2000
102305	-791	111	-212	-0.8311304	-0.750775	-8.311556	0	11.63	4002	57	-94	-3	0	0.9398203	3.128239	3	7	0	2000
102398	-573	2749	-217	-1.410372	-3.975884	-8.456533	0	11.63	4003	27	-40	1	0	0.9398203	3.176535	3	7	0	2000
102510	-688	18	673	-2.92028	-5.50268	-8.545147	0	11.63	4003	-11	-102	2	0	0.9398203	3.21747	3	7	0	2000
102569	434	179	-903	-2.667985	-5.300727	-8.311383	0	11.63	4003	-19	-67	5	0	0.9398203	3.230847	3	7	0	2000
102712	-254	1991	-644	-3.955729	-6.687037	-8.08826	0	11.63	4003	-17	-2	-9	0	0.9398203	3.235805	3	7	0	2000
102761	-102	1520	-210	-3.888584	-7.283354	-7.998401	0	11.63	4002	-37	-21	-19	0	0.9398203	3.236384	3	7	0	2000
102852	442	-68	-376	-3.571768	-7.284896	-7.847586	0	11.63	4003	-29	-8	-23	0	0.9398203	3.23548	3	7	0	2000
102985	279	199	-228	-1.41541	-5.727395	-8.411685	0	11.63	4002	23	-44	-4	0	0.9398203	3.20623	3	7	0	2000
103061	-324	925	-145	-1.530649	-6.02349	-8.679751	0	11.63	4003	-37	35	4	0	0.9398203	3.18573	3	7	0	2000
103161	505	674	-12	-1.565858	-5.610941	-8.564513	0	11.63	4003	-55	77	0	0	0.9398203	3.139643	3	7	0	2000
103290	-882	697	785	-1.698635	-5.12086	-8.242549	0	11.17	4004	-79	-6	2	0	0.9398203	3.054914	3	7	0	2000
103368	-1644	2103	-694	-2.561841	-6.730256	-8.656949	0	11.17	4004	75	-204	-10	0	0.9398203	2.999288	3	7	0	2000
103507	-259	809	-1015	-3.303683	-11.69727	-8.303456	0	11.17	4002	-33	-24	-29	0	0.9398203	2.866408	3	7	0	2000
103578	-671	1239	-726	-3.618281	-13.07472	-7.295498	0	11.17	4003	35	163	-46	0	0.9398203	2.827713	3	7	0	2000
103687	-79	710	-1640	-4.650306	-13.30877	-6.912708	0	11.17	4004	-41	14	-34	0	0.9398203	2.642864	3	7	0	2000
103772	2643	-2842	78	-2.822557	-12.4439	-7.394331	0	11.17	4003	-37	-167	-2	0	0.9398203	2.583013	3	7	0	2000
103871	-917	-2268	468	-1.532858	-8.963716	-8.411736	0	11.17	4004	-112	3	22	0	0.9398203	2.530868	3	7	0	2000
103980	-45	-3304	-2922	-2.129875	-6.200717	-7.950269	0	11.17	4002	6	-400	-42	0	0.9398203	2.405749	3	7	0	2000
104099	-1943	146	-1559	-1.405099	-6.291563	-8.029292	0	11.17	4003	111	130	-23	0	0.9398203	2.320303	3	7	0	2000
104202	-214	-1417	-282	-0.5173588	-8.895547	-7.685445	0	11.23	4002	-39	28	-24	0	0.9398203	2.25086	3	7	0	2000
104277	-500	711	1783	-1.283453	-7.368725	-7.630402	0	11.23	4002	-141	224	-3	0	0.9398203	2.206725	3	7	0	2000
104387	-634	3644	0	-3.41556	-10.66321	-7.379455	0	11.23	4004	48	-16	-63	0	0.9398203	2.122619	3	7	0	2000
104483	-954	2120	1350	-3.480035	-11.48505	-6.935153	0	11.23	4003	29	160	-22	0	0.9398203	2.065702	3	7	0	2000
104574	-1460	-2216	64	-6.750688	-10.02666	-7.00631	0	11.23	4002	73	155	-38	0	0.9398203	2.024277	3	7	0	2000
104695	968	-2184	-1233	-5.883336	-8.366971	-7.779749	0	11.23	4003	-104	-173	3	0	0.9398203	1.956709	3	7	0	2000
104775	686	-871	-448	-2.560729	-9.291579	-8.707746	0	11.23	4004	81	-153	3	0	0.9398203	1.942195	3	7	0	2000
104939	-116	-1240	-1859	-1.218225	-5.130861	-8.249029	0	11.23	4003	-32	-235	-21	0	0.9398203	1.936522	3	7	0	2000
105021	1056	1847	-277	-0.8797727	-8.707843	-8.677092	0	11.23	4004	-90	105	14	0	0.9398203	1.942445	3	7	0	2000
105218	-36	-3340	-646	0.3012622	-7.395048	-8.464802	0	11.8	4003	2	-210	-15	0	0.9398203	1.985106	3	7	0	2000
105323	263	970	851	1.204463	-4.353332	-8.378825	0	11.8	4004	-68	122	6	0	0.9398203	2.013847	3	7	0	2000
105342	1028	1807	400	1.396284	-5.304559	-8.415072	0	11.8	4003	-68	122	6	0	0.9398203	2.019055	3	7	0	2000
105443	1211	-1849	-632	2.691306	-5.584979	-8.028232	0	11.8	4004	54	-100	-6	0	0.9398203	2.023961	3	7	0	2000
105574	1174	171	1134	4.900247	-3.852395	-7.734596	0	11.8	4004	-38	-23	-6	0	0.9398203	2.051222	3	7	0	2000
105644	-1212	-2083	-323	2.762378	-2.421195	-8.406715	0	11.8	4002	-26	-35	2	0	0.9398203	2.070707	3	7	0	2000
105804	16	2884	-201	3.738125	-4.379841	-7.992268	0	11.8	4004	47	25	-33	0	0.9398203	2.088993	3	7	0	2000
105865	-975	104	-833	3.412853	-5.531122	-7.867919	0	11.8	4002	55	-118	-28	0	0.9398203	2.091518	3	7	0	2000
105954	244	-1841	-825	1.313977	-3.033769	-7.982384	0	11.23	4004	16	-307	-18	0	0.9398203	2.092124	3	7	0	2000
106028	-636	1989	1319	0.6825496	-3.768597	-8.304698	0	11.23	4002	-78	278	14	0	0.9398203	2.099681	3	7	0	2000
106138	-1195	1465	1508	-1.217924	-6.991706	-8.259801	0	11.23	4004	-19	179	5	0	0.9398203	2.099962	3	7	0	2000
106247	797	-1805	40	-2.251917	-1.869651	-8.074045	0	11.23	4004	-51	64	2	0	0.9398203	2.102207	3	7	0	2000
106379	-609	-382	-1175	-2.259872	-4.509918	-8.780393	0	11.23	4004	46	-110	-15	0	0.9398203	2.09304	3	7	0	2000
106443	462	-2512	-1809	-1.983198	-4.490021	-8.321405	0	11.23	4004	12	-147	-13	0	0.9398203	2.090408	3	7	0	2000
106545	-1409	661	184	-1.057727	-3.934888	-8.113736	0	11.23	4004	70	196	-11	0	0.9398203	2.080325	3	7	0	2000
106637	1244	-133	-690	-0.8845735	-6.655567	-7.921389	0	11.23	4004	77	-2	-23	0	0.9398203	2.075942	3	7	0	2000
106787	194	875	162	0.7887534	-6.944296	-7.183579	0	11.23	4004	27	52	-50	0	0.9398203	2.064468	3	7	0	2000
106845	28	819	1765	1.558206	-7.010726	-6.996308	0	10.77	4003	-63	245	-25	0	0.9398203	2.057218	3	7	0	2000
107077	-124	-564	520	0.15823	-6.597786	-9.155753	0	10.77	4002	-141	-50	31	8	0.9879637	2.031268	5	7	0	2000
107190	-182	-2207	147	0.1140785	-2.465301	-9.166446	0	10.77	4004	107	-7	-3	3	0.896816	2.002601	5	7	0	2000
107299	-1368	2019	-1106	-2.480923	-1.957441	-8.835455	0	10.77	4004	-28	-31	-4	3	0.8708465	1.985163	5	7	0	2000
107366	-2655	1267	-94	-4.756445	-4.262403	-8.586902	0	10.77	4004	-153	185	-3	7	0.8614513	1.981601	5	7	0	2000
107476	-2967	618	-1708	-8.630955	-5.028406	-7.438908	0	10.77	4002	-123	-6	-22	3	0.875429	1.975135	5	7	0	2000
107600	-3110	1127	272	-9.723274	-8.921349	-8.095256	0	10.77	4003	130	-183	-7	3	0.9620889	1.981869	5	7	0	2000
107680	236	-134	-539	-11.3454	-8.16127	-7.974346	0	10.77	4004	-100	-14	0	3	1.032477	1.984815	5	7	0	2000
107830	100	2774	625	-9.304871	-13.40282	-8.18416	0	11.23	4004	-143	135	3	3	0.9921702	2.012467	5	7	0	2000
107889	-691	4668	1568	-9.165312	-15.99216	-8.040903	0	11.23	4003	-1	-14	-25	3	1.007584	2.016576	5	7	0	2000
108008	1530	-2362	-2286	-8.293776	-16.47596	-8.11172	0	11.23	4004	57	-38	-26	3	0.9685652	2.044995	5	7	0	2000
108082	1813	-1906	-1172	-4.58998	-15.39312	-7.950725	0	11.23	4002	116	-233	-29	3	0.9951679	2.075537	5	7	0	2000
108272	1080	-298	533	-1.240964	-10.73055	-7.891575	0	11.23	4004	94	-195	-12	2	1.094595	2.136394	5	7	0	2000
108306	36	308	417	-1.160923	-10.59356	-8.114284	0	11.23	4004	-75	97	-4	-28	1.139026	2.175348	5	7	0	2000
108380	626	-1579	463	-0.03019272	-9.498068	-8.125495	0	11.23	4004	-58	112	-6	2	1.122748	2.228345	5	7	0	2000
108498	895	-2017	12	0.6630403	-3.923642	-8.646304	0	11.23	4002	-57	65	10	1	1.147801	2.301977	5	7	0	2000
108577	1100	4321	1283	0.7625868	-5.188904	-8.484275	0	11.23	4003	-44	-193	-7	0	1.15498	2.361562	5	7	0	2000
108787	1314	-680	-71	2.226956	-7.250821	-6.220525	0	11.63	4004	33	-214	-53	0	1.14229	2.481899	5	7	0	2000
108907	-1247	-3182	616	1.017219	-4.033507	-7.773695	0	11.63	4004	30	-107	-9	0	1.141903	2.534834	5	7	0	2000
108992	165	-1350	1296	-0.1046276	0.242344	-8.786071	0	11.63	4004	-62	86	14	-28	1.135821	2.589785	5	7	0	2000
109081	1823	1923	-255	0.3302798	-0.01791103	-8.701875	0	11.63	4003	-142	139	15	0	1.109725	2.628911	5	7	0	2000
109192	-170	529	395	1.190407	-5.700285	-7.128581	0	11.63	4003	-44	131	-35	-1	0.9508462	2.707276	5	7	0	2000
109283	-1295	-3286	-744	-1.673923	-2.189446	-6.586025	0	11.63	4002	47	-56	-55	-1	0.9880487	2.738431	5	7	0	2000
109377	539	1874	544	-0.6819029	-3.156856	-7.537496	0	11.63	4003	62	-50	-33	-1	1.017551	2.779025	5	7	0	2000
109512	837	-1053	419	0.1845653	-3.161113	-8.771818	0	11.63	4003	-7	-9	6	-2	1.031415	2.832652	5	7	0	2000
109610	108	-335	901	0.3724015	-1.87931	-8.955081	0	11.63	4003	23	25	20	-10	1.049676	2.855913	5	7	0	2000
109759	1179	1316	10	-0.5704016	-3.275394	-8.543932	0	12.02	4003	-12	-40	-6	-2	1.011368	2.872228	5	7	0	2000
109859	1090	510	44	0.3697043	-2.559838	-8.215514	0	12.02	4003	-12	-80	-16	-2	1.110303	2.890162	5	7	0	2000
109920	1348	905	-57	1.033986	-3.78995	-8.234177	0	12.02	4002	27	-71	-2	-2	1.136187	2.898488	5	7	0	2000
110005	1292	1450	128	2.248879	-5.413365	-8.377176	0	12.02	4002	65	-116	-5	-2	1.146256	2.906813	5	7	0	2000
110057	503	1790	279	3.014379	-7.028425	-8.451462	0	12.02	4003	-34	36	1	-2	1.197489	2.911732	5	7	0	2000
110226	-240	1520	384	2.910739	-10.87731	-8.520122	0	12.02	4002	74	-70	3	-2	1.085728	2.872206	5	7	0	2000
110300	-929	-903	-508	1.88269	-10.13237	-8.52177	0	12.02	4002	-34	-13	-3	-2	1.083725	2.861699	5	7	0	2000
110360	-999	-581	423	0.7236255	-7.982047	-8.370481	0	12.02	4002	-13	-71	-2	-2	1.129347	2.80174	5	7	0	2000
110536	-744	-798	530	-2.673165	-5.214614	-8.613309	0	11.51	4002	23	-83	4	-1	1.116892	2.72601	5	7	0	2000
110583	1170	277	156	-2.645888	-4.092044	-8.433938	0	11.51	4004	-108	81	-1	-1	1.136818	2.670369	5	7	0	2000
110700	91	375	-125	-1.026101	-4.82158	-7.895133	0	11.51	4004	-40	27	-17	0	1.104683	2.562532	5	7	0	2000
110767	-723	-1319	25	-1.172255	-4.431205	-7.882116	0	11.51	4003	10	-39	-15	0	1.0948	2.525972	5	7	0	2000
110923	152	-101	-374	-0.9457166	-4.228827	-8.283772	0	11.51	4003	-68	-82	-6	1	1.149399	2.273684	5	7	0	2000
110947	152	-101	-374	-0.9457166	-4.228827	-8.283772	0	11.51	4003	-45	34	-2	1	1.161609	2.25921	5	7	0	2000
111076	-1298	-1129	-431	-2.950914	-1.684591	-8.373674	0	11.51	4004	-67	-18	-7	2	1.166659	2.187034	5	7	0	2000
111172	-2117	1249	-1133	-5.669672	-1.213694	-6.839026	0	11.51	4002	28	13	-58	2	1.145477	2.106687	5	7	0	2000
111250	-4089	16	-853	-8.626934	-1.686964	-5.437031	0	11.51	4003	42	43	-96	3	1.15554	2.048047	5	7	0	2000
111356	407	-2161	-1864	-10.2958	-0.8372812	-3.679157	0	11.51	4004	53	-309	-132	3	1.088807	1.970402	5	7	0	2000
111533	-166	2048	813	-5.386014	-5.791749	-5.484406	0	11.57	4002	40	-235	-56	4	0.9775339	1.836864	5	7	0	2000
111595	0	1891	1443	-4.776779	-7.733974	-7.100031	0	11.57	4004	-18	34	-25	5	0.9888663	1.673577	5	7	0	2000
111647	-2541	903	914	-5.751839	-8.178097	-8.394085	0	11.57	4004	-2	13	-1	6	1.018389	1.622861	5	7	0	2000
111775	1616	-3257	-684	-5.315946	-8.858146	-9.033381	0	11.57	4004	13	-307	24	12	1.009273	1.431287	5	7	0	2000
111919	25	-3280	-404	-3.994081	-4.93554	-10.09692	0	11.57	4002	-196	-400	19	15	1.026037	1.093758	5	7	0	2000
111979	-390	944	784	0.1733943	-0.8604233	-10.41321	0	11.57	4003	-65	-1	54	16	0.9633853	1.039474	5	7	0	2000
112111	724	101	-841	0.007200533	-3.58562	-10.25002	0	11.57	4002	-39	-166	-9	18	0.8799062	0.8496543	5	7	0	2000
112257	-208	-804	-1519	-1.498153	-2.392799	-8.353927	0	11.57	4004	-62	304	5	19	0.9370583	0.7056875	5	7	0	2000
112292	503	2453	2013	-1.382948	-3.090424	-8.570298	0	11.57	4004	101	-377	-19	20	0.9579487	0.6916445	5	7	0	2000
112407	-757	-1176	-1139	-0.204332	-5.42459	-8.639166	0	11.74	4003	80	-396	-13	20	0.7610937	0.6421536	5	7	0	2000
112450	-178	1243	-1102	-0.675903	-6.941889	-8.860217	0	11.74	4004	-1	400	32	20	0.7145852	0.6319864	5	7	0	2000
112553	-10	-1177	-1834	-0.4315422	-7.689606	-8.86187	0	11.74	4002	177	-400	-16	21	0.6539387	0.6245834	5	7	0	2000
112656	600	176	-883	0.9473674	-5.619381	-7.267854	0	11.74	4002	-6	224	-40	13	0.6347802	0.6286312	5	7	0	2000
112778	137	-2042	-1121	2.042976	-5.915937	-7.056797	0	11.74	4004	23	198	-31	20	0.6488709	0.6628647	5	7	0	2000
112859	1694	-3232	-1153	3.994811	-4.480167	-6.708744	0	11.74	4004	64	-283	-55	20	0.6488219	0.691712	5	7	0	2000
112967	-1210	-1518	487	3.535472	-3.96646	-8.147628	0	11.74	4002	-135	-99	10	-9	0.7317663	0.7496305	5	7	0	2000
113041	-751	806	102	0.9390256	-1.802163	-8.9784	0	11.74	4003	-23	31	21	18	0.760666	0.8240828	5	7	0	2000
113129	-32	-29	-719	1.124191	-3.921786	-9.180574	0	11.74	4002	96	-114	8	18	0.7731339	0.8680548	5	7	0	2000
113232	-1595	747	901	0.3007721	-4.603545	-8.948959	0	11.74	4002	107	-262	-37	17	0.8344797	0.9295352	5	7	0	2000
113336	-122	1969	-792	-2.158348	-6.538042	-8.020604	0	10.83	4003	-58	134	8	16	0.8933296	1.001359	5	7	0	2000
113460	115	5554	1483	-1.655795	-12.29698	-8.02801	0	10.83	4003	76	306	-12	15	0.8755327	1.114167	5	7	0	2000
113548	-69	1807	-1283	-3.050155	-16.41647	-8.367032	0	10.83	4003	-24	-185	-7	13	0.7884282	1.272159	5	7	0	2000
113646	1120	-274	322	-2.374954	-17.29821	-8.799288	0	10.83	4002	180	-112	-15	-21	0.7879054	1.337373	5	7	0	2000
113801	-538	4934	251	-0.4117895	-20.24924	-9.916121	0	10.83	4003	-13	-227	41	11	0.755034	1.623597	5	7	0	2000
113929	2435	-1243	-203	1.623447	-20.69484	-8.72954	0	10.83	4002	-20	117	-1	-38	0.6396099	1.719141	5	7	0	2000
113961	-281	-2076	-1304	2.0177	-18.98723	-8.130351	0	10.83	4004	106	31	-39	4	0.6565283	1.861482	5	7	0	2000
114021	-2125	-5771	-1895	-0.2269007	-14.49358	-7.291301	0	10.83	4002	-41	-243	-35	4	0.6854588	1.923436	5	7	0	2000
114174	592	644	1063	0.3013696	-5.807791	-7.524391	0	11.8	4003	63	58	-41	2	0.6604685	2.122029	5	7	0	2000
114227	-206	567	774	0.5925267	-6.529708	-8.087749	0	11.8	4004	11	63	4	-24	0.7373323	2.27686	5	7	0	2000
114404	-1014	-69	1448	0.2465933	-2.283955	-8.831484	0	11.8	4003	-28	198	18	0	0.7345959	2.38571	5	7	0	2000
114485	509	1611	947	-0.1753738	-1.452022	-8.646731	0	11.8	4002	91	61	-17	0	0.6238623	2.587228	5	7	0	2000
114554	-390	-359	-248	-2.137704	-3.290889	-8.21093	0	11.8	4004	54	-259	-12	-41	0.6352211	2.626402	5	7	0	2000
114654	203	365	345	-2.023742	-1.967041	-7.632883	0	11.8	4002	-170	148	0	-2	0.740836	2.830456	5	7	0	2000
114713	3280	3240	1376	0.9546849	-4.14707	-8.099727	0	11.8	4004	-141	227	10	-2	0.7227271	2.880385	5	7	0	2000
114825	2281	1159	928	5.976102	-7.018348	-8.007122	0	11.8	4004	-169	243	-6	-32	0.6773016	2.940573	5	7	0	2000
114947	480	-1185	320	6.692423	-6.783781	-7.193416	0	11.8	4004	18	-6	-19	-4	0.603989	3.152365	5	7	0	2000
115088	-24	1486	675	3.389983	-6.436986	-7.360705	0	11.06	4002	143	-277	-43	-6	0.7644859	3.357825	5	7	0	2000
115118	-257	1688	-213	2.812581	-7.487125	-7.234322	0	11.06	4003	-90	58	-13	-6	0.7942301	3.375514	5	7	0	2000
115211	-3457	-4104	511	1.240047	-5.992473	-7.489333	0	11.06	4003	38	-180	-35	-11	0.8377756	3.567917	5	7	0	2000
115417	-1600	2639	662	-7.767584	-3.563952	-7.974019	0	11.06	4004	94	-285	-28	-13	0.9255425	3.733252	5	7	0	2000
115530	-1274	-1530	313	-8.204352	-3.616886	-8.228088	0	11.06	4002	-20	-8	3	-15	0.9177213	3.898497	5	7	0	2000
115639	-1107	-551	-1684	-8.492499	-3.679707	-8.054509	0	11.06	4003	3	252	-16	-16	1.007115	4.006328	5	7	0	2000
115767	-63	128	1040	-10.36757	-5.764544	-8.387572	0	11.06	4004	-80	-22	3	-44	1.015574	4.091227	5	7	0	2000
115864	1892	-349	-1522	-7.463235	-6.243021	-8.037066	0	11.06	4002	36	-296	-21	-19	1.063244	4.272967	5	7	0	2000
115924	1217	3139	-371	-4.976036	-8.971519	-8.051485	0	11.06	4004	-130	399	11	-20	1.081111	4.329895	5	7	0	2000
116128	1023	-1854	444	-3.038095	-11.6815	-7.94296	0	10.72	4003	-77	12	-17	-23	0.9222718	4.597766	5	7	0	2000
116176	708	-3103	-571	-1.636043	-9.102584	-7.984618	0	10.72	4004	0	-118	-15	-23	0.9559256	4.641173	5	7	0	2000
116240	363	-2313	385	-1.549049	-6.151597	-8.152783	0	10.72	4004	8	-57	-11	-25	1.013474	4.794756	5	7	0	2000
116328	1304	-1692	-437	-0.6974681	-4.411287	-7.956254	0	10.72	4002	-50	85	-20	-26	1.007456	4.863097	5	7	0	2000
116443	-119	1345	-244	-0.03532818	-5.848344	-7.763471	0	10.72	4004	31	-195	-24	-68	0.9358649	4.939372	5	7	0	2000
116551	-471	-151	1217	-0.9905716	-6.707767	-7.341346	0	10.72	4002	-48	27	-17	-28	0.9928015	5.039005	5	7	0	2000
116634	-222	-3970	-571	-0.3099242	-4.139527	-7.75882	0	10.72	4004	83	-220	-22	-29	0.9981389	5.111286	5	7	0	2000
116726	1403	-863	308	0.4789863	-2.253488	-7.841916	0	10.72	4002	-13	-186	-14	-68	1.032881	5.185992	5	7	0	2000
116836	-635	-203	257	0.6088951	-2.460192	-7.930549	0	10.72	4003	-44	-24	-14	0	1.077934	5.263156	3	7	0	2000
116981	381	-886	-1175	-0.7127035	-0.8666923	-7.815517	0	11.51	4003	-1	-34	-24	0	1.119613	5.354613	3	7	0	2000
117076	-921	1924	33	-0.8278375	-2.46231	-7.832385	0	11.51	4003	5	28	-21	0	1.141161	5.404379	3	7	0	2000
117129	-2510	781	963	-2.801357	-3.852827	-7.856632	0	11.51	4002	20	-88	-7	0	1.146958	5.430074	3	7	0	2000
117250	-670	1434	516	-6.263201	-4.055619	-7.791395	0	11.51	4002	0	-34	-22	0	1.164899	5.497619	3	7	0	2000
117319	-957	2939	-240	-6.898296	-7.598502	-8.085038	0	11.51	4003	57	-36	-2	0	1.174175	5.518887	3	7	0	2000
117422	-1245	2360	784	-8.313932	-10.82824	-8.54964	0	11.51	4003	20	-35	2	0	1.180938	5.542316	3	7	0	2000
117525	-500	2107	-49	-8.5403	-13.33314	-8.783831	0	11.51	4002	31	-30	13	0	1.185867	5.549281	3	7	0	2000
117720	-932	1474	-163	-10.25222	-15.00376	-8.643401	0	11.51	4004	51	-42	0	0	1.192081	5.533121	3	7	0	2000
117806	859	936	530	-9.651987	-15.05771	-8.213091	0	11.51	4003	-6	-5	-11	0	1.19342	5.514245	3	7	0	2000
117888	2687	-3182	408	-6.218541	-11.20142	-7.94646	0	11	4004	-99	-55	-21	0	1.194967	5.482297	3	7	0	2000
117991	28	-2095	495	-4.017331	-7.423136	-8.235866	0	11	4002	16	-26	-5	0	1.196095	5.455719	3	7	0	2000
118023	-578	-2368	-241	-4.794423	-5.794299	-8.756598	0	11	4003	46	-190	0	0	1.196671	5.442024	3	7	0	2000
118136	3292	4314	-1328	0.04058558	-6.25562	-7.829449	0	11	4008	-64	195	-40	0	1.197337	5.415665	3	7	0	2000
118209	-2308	2357	-202	-0.840493	-10.15756	-7.017519	0	11	4004	-49	166	-44	0	1.197822	5.368478	3	7	0	2000
118352	-207	-1945	-213	-0.4869079	-6.658461	-6.365222	0	11	4004	13	-122	-52	0	1.198271	5.25642	3	7	0	2000
118454	2728	-2052	251	-0.06388418	-4.844509	-7.396452	0	11	4003	-69	28	-16	0	1.198503	5.038319	3	7	0	2000
118507	737	-1493	957	1.748845	-3.496332	-8.389543	0	11	4002	-41	-12	5	0	1.198566	4.909849	3	7	0	2000
118653	-3494	421	-1819	0.6701779	-1.808469	-7.217162	0	11	4004	52	15	-57	0	1.198796	4.681283	3	7	0	2000
118744	-970	-318	107	-3.268137	-1.376901	-5.435209	0	10.6	4004	-126	3	-67	0	1.198859	4.515665	3	7	0	2000
118828	-3336	1279	632	-4.866444	-3.975273	-7.26743	0	10.6	4002	-43	295	-22	0	1.198932	4.321486	3	7	0	2000
118972	-672	-1114	-623	-8.071086	-4.150939	-8.947147	0	10.6	4003	-28	160	12	0	1.199	3.974834	3	7	0	2000
119053	21	2625	608	-7.946829	-5.889462	-9.198978	0	10.6	4004	-13	69	27	0	1.199024	3.92167	3	7	0	2000
119103	2007	-681	1096	-6.780027	-6.367814	-9.738093	0	10.6	4003	59	-111	8	0	1.199044	3.76328	3	7	0	2000
119238	611	2445	1305	-3.638942	-5.553627	-8.978445	0	10.6	4002	50	-80	-10	0	1.199073	3.570696	3	7	0	2000
119369	926	-1504	-1259	-1.83626	-6.297915	-8.695629	0	10.6	4002	24	-297	-1	0	1.199095	3.339265	3	7	0	2000
119434	525	1143	2622	-2.355611	-6.147151	-9.622415	0	10.6	4003	115	14	19	0	1.199102	3.296117	3	7	0	2000
119515	1479	1561	1330	-1.433889	-5.339602	-10.32218	0	10.6	4004	-82	321	67	0	1.199107	3.238396	3	7	0	2000
119638	1557	-96	-1138	-0.5031266	-4.21845	-9.313166	0	11.51	4003	-115	58	30	0	1.199114	3.021402	3	7	0	2000
119795	2528	1438	1217	2.021696	-1.013548	-7.872716	0	11.51	4002	-99	381	0	0	1.19912	2.697025	3	7	0	2000
119904	4126	3135	477	5.326561	-4.52094	-7.082029	0	11.51	4003	-218	209	-21	0	1.199121	2.533542	3	7	0	2000
120006	787	-1881	-1418	8.55719	-7.12477	-6.540933	0	11.51	4003	68	-400	-61	0	1.199123	2.344908	3	7	0	2000
120126	-2050	-2878	1565	5.728446	-2.115376	-7.210837	0	11.51	4002	-16	75	-29	0	1.199125	2.141339	3	7	0	2000
120234	-3980	-319	945	0.1382482	-1.037607	-8.446031	0	11.51	4002	-89	194	15	0	1.199126	1.92979	3	7	0	2000
120306	-2477	48	-5	-2.847825	-1.659512	-8.598647	0	11.51	4002	113	-197	-15	0	1.199126	1.898798	3	7	0	2000
120401	-3318	-2139	-200	-5.717438	-1.494624	-8.431005	0	11.51	4004	68	-89	-20	0	1.199127	1.811142	3	7	0	2000
120515	221	2468	1335	-9.556166	-1.08477	-8.195632	0	11.51	4004	-55	250	14	0	1.199127	1.732891	3	7	0	2000
120604	1676	4844	11	-8.919236	-7.473355	-8.552652	0	10.94	4003	-98	313	10	0	1.199127	1.629964	3	7	0	2000
120713	1123	2427	-233	-5.37011	-12.4631	-8.123501	0	10.94	4004	27	25	-8	0	1.199127	1.545508	3	7	0	2000
120820	811	-138	-364	-4.437636	-11.15598	-7.766037	0	10.94	4004	43	-54	-18	0	1.199127	1.458476	3	7	0	2000
120917	283	80	-318	-2.415973	-11.3123	-7.987484	0	10.94	4003	44	25	-14	0	1.199127	1.328727	3	7	0	2000
121061	1196	2781	1244	-0.4189625	-7.00936	-8.185168	0	10.94	4002	-100	32	3	0	1.199127	1.232994	3	7	0	2000
121102	165	2788	425	-0.4870463	-8.202421	-8.187747	0	10.94	4002	18	40	-7	0	1.199127	1.19284	3	7	0	2000
121266	370	2390	151	-0.365681	-12.23933	-7.63765	0	10.94	4002	-56	132	-29	0	1.199127	0.969715	3	7	0	2000
121365	3355	2704	-529	1.335946	-13.33478	-6.301371	0	10.94	4002	-30	8	-68	0	1.199127	0.8994049	3	7	0	2000
121450	-846	1491	2175	2.137721	-14.29854	-6.542692	0	10.94	4003	-76	-21	-49	0	1.199127	0.8442453	3	7	0	2000
121553	-1331	2540	2196	0.3738845	-12.17183	-8.576006	0	10.49	4003	-19	170	8	0	1.199127	0.7640848	3	7	0	2000
121644	-2488	-1617	818	-0.7959244	-11.67199	-9.810794	0	10.49	4003	-116	375	60	0	1.199127	0.7098119	3	7	0	2000
121775	-4332	-1973	-1044	-4.660624	-7.771504	-9.136063	0	10.49	4003	-131	17	5	0	1.199127	0.6562091	3	7	0	2000
121836	-3035	-2060	-72	-11.36644	-4.963903	-7.732552	0	10.49	4004	-85	271	-20	0	1.199127	0.6095867	3	7	0	2000
121923	236	1086	-1249	-13.08494	-4.046989	-7.228144	0	10.49	4003	-30	348	-12	0	1.199127	0.5633991	3	7	0	2000
122011	3924	425	-968	-8.665459	-5.605371	-7.533152	0	10.49	4002	21	-49	-34	0	1.199127	0.5325942	3	7	0	2000
122180	3093	-817	-1154	0.4322262	-3.994477	-7.427667	0	10.49	4003	118	-110	-41	0	1.199127	0.5023808	3	7	0	2000
122280	4314	1885	-261	6.756454	-6.986235	-7.79551	0	10.49	4003	37	-41	-15	0	1.199127	0.4690333	3	7	0	2000
122344	3242	-2188	-101	10.07887	-6.610377	-8.083441	0	10.49	4003	7	-76	-11	0	1.199127	0.4407713	3	7	0	2000
122413	1890	-2134	-62	12.51834	-2.191408	-8.4258	0	11.34	4003	32	-134	4	0	1.199127	0.4125502	3	7	0	2000
122571	-2473	-468	341	9.69531	-0.7008845	-8.718537	0	11.34	4004	-14	5	5	0	1.199127	0.3678054	3	7	0	2000
122667	-1605	-710	120	6.349197	-0.4001871	-8.678487	0	11.34	4003	-19	-52	0	0	1.199127	0.3352554	3	7	0	2000
122711	-3505	-733	105	3.481802	0.1552516	-8.557531	0	11.34	4002	27	-90	9	0	1.199127	0.310568	3	7	0	2000
122809	4647	-6343	415	-0.7233731	0.994493	-9.401386	0	11.34	4003	0	0	0	0	1.199127	0.2708212	3	7	0	2000
122944	-5975	3528	75	0.7096423	7.191778	-10.10936	0	11.34	4002	0	0	0	0	1.199127	0.2034697	3	7	0	2000
123002	2971	23059	-1250	-5.212451	-1.841361	-9.877728	0	11.34	4004	0	0	0	0	1.199127	0.1572055	3	7	0	2000
123114	153	133	-906	-4.085234	-4.194687	-9.985789	0	11.34	4004	0	0	0	0	1.199127	0.08387151	3	7	0	2000
123248	-56	-21	46	-3.204518	-3.62054	-9.943363	0	11.34	4004	0	0	0	0	1.199127	0.02506438	1	7	0	2000
123348	-117	-45	22	-2.962999	-3.299887	-9.961523	0	11.68	4002	0	0	0	0	1.199127	-0.03172911	1	7	0	2000
123411	-84	-21	50	-2.765972	-3.007999	-9.980782	0	11.68	4003	0	0	0	0	1.199127	-0.06514432	1	7	0	2000
123501	-59	-29	-2	-2.506319	-2.607648	-9.98696	0	11.68	4003	0	0	0	0	1.199127	-0.0962397	1	7	0	2000
123652	-81	-8	-4	-2.135055	-2.065433	-10.01294	0	11.68	4003	0	0	0	0	1.199127	-0.1488386	1	7	0	2000
123762	-41	-8	9	-1.872092	-1.700506	-10.03593	0	11.68	4003	0	0	0	0	1.199127	-0.1639009	1	7	0	2000
123820	-47	-1	-22	-1.814683	-1.624113	-10.03777	0	11.68	4003	0	0	0	0	1.199127	-0.177165	1	7	0	2000
123984	-63	-8	-30	-1.589405	-1.26099	-10.06821	0	11.68	4002	0	0	0	0	1.199127	-0.2013169	1	7	0	2000
124057	-73	-2	-36	-1.467092	-1.086854	-10.0857	0	11.68	4003	0	0	0	0	1.199127	-0.2165755	1	7	0	2000
124208	-72	2	13	-1.342669	-0.8858044	-10.10832	0	11.8	4002	0	0	0	0	1.199127	-0.2435164	1	7	0	2000
124387	-60	-20	-19	-1.17211	-0.6424673	-10.14127	0	11.8	4002	0	0	0	0	1.199127	-0.2531952	1	7	0	2000
124458	-74	-1	9	-1.127162	-0.5769625	-10.15105	0	11.8	4003	0	0	0	0	1.199127	-0.2587143	1	7	0	2000
124492	-56	11	3	-1.104872	-0.541813	-10.15619	0	11.8	4002	0	0	0	0	1.199127	-0.2561591	1	7	0	2000
124566	-61	12	24	-1.04003	-0.4565951	-10.17214	0	11.8	4003	0	0	0	0	1.199127	-0.2506295	1	7	0	2000
124693	-58	7	-5	-0.983709	-0.3890544	-10.18908	0	11.8	4002	0	0	0	0	1.199127	-0.2506638	1	7	0	2000
124790	-68	0	11	-0.9367847	-0.319353	-10.20547	0	11.8	4003	0	0	0	0	1.199127	-0.2565262	1	7	0	2000
124931	-64	5	9	-0.881237	-0.2515132	-10.22619	0	11.8	4002	0	0	0	0	1.199127	-0.2661036	1	7	0	2000
125085	-61	1	7	-0.8212604	-0.1862473	-10.25059	0	11.8	4003	0	0	0	0	1.199127	-0.2710241	1	7	0	2000
125168	-60	0	4	-0.7893152	-0.147286	-10.26208	0	11.8	4003	0	0	0	0	1.199127	-0.268937	1	7	0	2000
125270	-70	-1	14	-0.7656074	-0.1103051	-10.27718	0	11.8	4004	0	0	0	0	1.199127	-0.2714593	1	7	0	2000
125386	-61	4	9	-0.74748	-0.07925315	-10.29118	0	11.8	4003	0	0	0	0	1.199127	-0.2794094	1	7	0	2000
125480	-63	1	7	-0.7173243	-0.04718162	-10.30836	0	11.8	4003	0	0	0	0	1.199127	-0.2843994	1	7	0	2000
125584	-55	0	10	-0.7006142	-0.02437066	-10.3231	0	11.8	4004	0	0	0	0	1.199127	-0.2894744	1	7	0	2000
