time(ms)	gyro_x(deg/s)	gyro_y(deg/s)	gyro_z(deg/s)	orientation_roll(deg)	orientation_pitch(deg)	orientation_yaw(deg)	throttle	battery(V)	loop_time(uS)	pid_output_roll	pid_output_pitch	pid_output_yaw	pid_output_throttle	ultrasonic_alt	baro_alt	flight_mode	p_gain_altitude	i_gain_altitude	d_gain_altitude
392930	1858	-134	1146	-8.798105	-4.202693	-72.88931	0	10.55	4004	0	201	-20	0	0.02	1.369663	3	3	0	200
393040	1584	-968	17	-5.170563	-6.334313	-72.79309	0	10.55	4003	-57	-146	-19	0	0.02	1.469274	3	3	0	200
393135	1261	-851	915	-4.093169	-5.015516	-72.46828	0	10.55	4003	-57	-46	-21	0	0.02	1.527313	3	3	0	200
393320	-938	-2029	473	-2.746132	-3.884566	-72.68982	0	10.55	4004	68	-145	-12	0	0.02	1.670032	3	3	0	200
393414	1154	-3151	536	-2.528675	-0.1365716	-73.26025	0	10.55	4004	108	-147	-8	0	0.02	1.716166	3	3	0	200
393549	427	1267	851	-0.3959754	-0.154745	-73.71334	0	10.66	4003	-45	-53	3	0	0.02	1.80468	3	3	0	200
393654	-366	-1031	-359	-1.48295	-0.3403473	-73.77026	0	10.66	4003	-17	7	-1	0	0.02	1.86605	3	3	0	200
393777	-485	126	19	-0.9329859	-0.9190766	-73.62141	0	10.66	4002	27	-9	-2	1	0.1795716	1.918193	5	3	0	200
393870	-544	-107	-674	-1.658441	-1.520198	-73.59006	0	10.66	4003	59	-103	-7	1	0.4952834	1.937755	5	3	0	200
393966	-2672	1188	42	-3.264992	-3.08915	-73.18695	0	10.66	4002	118	-187	-17	1	0.5631011	1.933117	5	3	0	200
394018	-39	5300	-687	-6.711617	-8.504772	-73.12939	0	10.66	4003	76	-25	-18	1	0.6219018	1.929053	5	3	0	200
394123	-300	2093	-197	-6.557169	-13.71392	-73.10138	0	10.66	4002	-52	-3	-12	1	0.722451	1.912546	5	3	0	200
394244	143	-1446	209	-6.820872	-12.40665	-73.15167	0	10.66	4004	-40	-42	-11	3	0.8344589	1.875016	5	3	0	200
394391	332	-1894	733	-4.362634	-7.030884	-73.47508	0	10.66	4003	40	-62	2	2	0.9470797	1.823709	5	3	0	200
394460	341	-1010	540	-4.338468	-4.738813	-73.62228	0	10.55	4003	-20	-30	6	2	0.9841163	1.786209	5	3	0	200
394577	185	-235	-403	-3.432087	-2.950513	-73.64449	0	10.55	4003	-26	-16	-11	6	1.043022	1.663386	5	3	0	200
394623	373	519	148	-3.443407	-3.117435	-73.38025	0	10.55	4003	-14	-10	-10	2	1.040282	1.627203	5	3	0	200
394728	330	1013	-650	-2.949865	-3.869746	-73.13857	0	10.55	4010	84	-33	-11	2	1.025791	1.54631	5	3	0	200
394831	-516	-121	-270	-3.366046	-3.810018	-72.89563	0	10.55	4004	-20	-12	-31	5	1.052502	1.376512	5	3	0	200
394958	-278	288	-366	-2.682532	-1.80837	-71.61719	0	10.55	4003	-7	-81	-51	5	1.078109	1.314312	5	3	0	200
395064	-111	1488	276	-0.7223897	-3.20161	-72.29764	0	10.55	4003	5	-15	-22	6	1.058201	1.102757	5	3	0	200
395135	-1330	-259	16	-1.645629	-3.498527	-73.0228	0	10.55	4003	-25	-18	-4	7	0.9673484	0.9414412	5	3	0	200
395236	63	-338	941	-1.602024	-2.914104	-74.15268	0	10.55	4003	28	-36	14	11	1.009635	0.7430457	5	3	0	200
395358	5209	-9837	-9708	1.640128	3.959846	-74.18953	0	10.15	4002	-29	285	-109	9	1.069149	0.5279636	5	3	0	200
395469	-5084	64	-5243	5.96807	3.556003	-62.74487	0	10.15	4004	99	-84	-325	9	0.982977	0.4475123	5	3	0	200
395541	-3978	-1931	3837	-2.442704	4.547394	-62.58274	0	10.15	4002	64	-137	-283	14	1.031475	0.3840159	5	3	0	200
395666	2064	2072	5318	-4.854194	3.058452	-71.05104	0	10.15	4003	-32	159	17	10	1.067433	0.3049811	5	3	0	200
395776	529	1770	982	-1.092779	-2.33203	-76.53667	0	10.15	4002	-131	-2	63	11	0.9544057	0.1946312	5	3	0	200
395932	195	1352	-1504	0.1976319	-5.663086	-72.02357	0	10.15	4003	-120	108	-64	11	0.9344702	0.1267161	5	3	0	200
395967	264	319	-595	0.2580784	-6.770551	-70.30244	0	10.15	4002	-27	44	-95	11	0.939327	0.1098669	5	3	0	200
396040	-909	-1708	1082	-0.2864379	-5.814984	-70.45901	0	10.15	4003	43	-153	-55	11	0.9709844	0.09180363	5	3	0	200
396166	1515	-610	1301	-0.5683689	-2.478479	-73.29829	0	10.15	4003	-64	-27	2	11	0.9850431	0.09167765	5	3	0	200
396293	1765	3464	1135	2.628518	-5.294116	-73.88151	0	10.77	4003	-73	59	14	11	1.071049	0.1069127	5	3	0	200
396350	-2396	924	-1469	0.8163693	-7.526084	-73.10453	0	10.77	4003	53	-175	-41	11	0.9639444	0.1092643	5	3	0	200
396474	-5270	-832	-250	-6.902669	-6.525265	-71.66602	0	10.77	4003	-12	12	-49	10	0.9519943	0.1273195	5	3	0	200
396551	481	-171	335	-11.26548	-5.306924	-71.8447	0	10.77	4003	211	-181	-53	11	0.9882207	0.133977	5	3	0	200
396648	1967	1838	1241	-8.376456	-7.054572	-72.25417	0	10.77	4003	-48	100	-18	11	1.053775	0.1388303	5	3	0	200
396793	-1136	-1194	79	-6.054273	-6.463999	-73.66576	0	10.77	4002	-81	22	8	10	1.115249	0.1480943	5	3	0	200
396867	-3872	-1479	-439	-8.552948	-5.265215	-73.84486	0	10.77	4003	78	-107	-4	11	0.994078	0.1521333	5	3	0	200
396948	-3002	67	-241	-11.51647	-4.901484	-73.40147	0	10.77	4004	45	-96	-23	11	1.016741	0.1528268	5	3	0	200
397111	3049	342	-341	-12.68086	-3.043328	-71.90301	0	10.77	4004	-19	1	-35	11	1.052582	0.1399799	5	3	0	200
397195	1297	-138	862	-8.00746	-3.114516	-73.01956	0	10.83	4003	44	28	-12	11	1.064128	0.1286943	5	3	0	200
397282	974	-1317	645	-6.259509	-2.037256	-74.00449	0	10.83	4004	-4	-59	19	11	1.048851	0.1201388	5	3	0	200
397411	1660	-2492	-1416	-3.679675	0.3883956	-74.66483	0	10.83	4003	234	-191	28	11	0.9221418	0.09958328	5	3	0	200
397455	3197	-1520	-2310	-2.185045	0.5473279	-74.27414	0	10.83	4002	43	-104	3	12	0.9518642	0.09073635	5	3	0	200
397560	1512	1953	-1074	5.097089	-4.893523	-72.19197	0	10.83	4002	-149	18	-46	11	1.05989	0.05374698	5	3	0	200
397704	-1446	-6535	-1678	0.5867286	2.617902	-73.15333	0	10.83	4003	68	-205	-81	13	0.9771515	-0.01132035	5	3	0	200
397809	287	5341	385	0.7016602	0.4408629	-71.29189	0	10.83	4004	-8	175	-48	12	0.9994752	-0.0425067	5	3	0	200
397867	88	515	665	0.9939008	-3.828413	-71.78676	0	10.83	4004	107	-179	-32	12	1.011341	-0.0658143	5	3	0	200
398050	451	-1231	293	-1.094605	0.002555569	-73.75739	0	10.83	4002	-38	-144	0	13	1.020744	-0.09413424	5	3	0	200
398101	1424	2465	1000	-0.01427082	-0.7990451	-73.57234	0	10.83	4002	-63	-69	2	12	1.034173	-0.1040281	5	3	0	200
398173	290	1649	631	-0.3379715	-2.740375	-72.7474	0	10.83	4002	-65	-18	-11	12	1.061344	-0.1163232	5	3	0	200
398279	-440	-1019	292	-0.9595685	-2.703541	-72.38976	0	10.83	4003	14	-30	-29	12	0.9882138	-0.1197568	5	3	0	200
398394	965	218	41	-0.5024446	-2.040815	-72.96482	0	10.83	4003	-37	-21	-15	12	1.084045	-0.1181874	5	3	0	200
398481	-805	-737	316	-0.5655596	-1.452029	-73.31783	0	10.83	4002	-3	-63	-10	12	1.151391	-0.1181757	5	3	0	200
398556	-332	-575	9	-1.15622	-0.9939527	-73.45452	0	10.83	4003	36	-63	-6	12	1.171019	-0.1169832	5	3	0	200
398660	-189	12	518	-1.49045	-1.048787	-73.45094	0	10.83	4003	-3	-97	-7	12	1.145339	-0.1142162	5	3	0	200
398820	-2259	2163	76	-2.400217	-4.358684	-73.74465	0	10.83	4002	34	-36	10	12	1.154075	-0.1081163	5	3	0	200
398923	7056	-23958	-32747	-6.473207	5.050465	-62.72684	0	10.83	4003	-162	-400	-173	12	1.036661	-0.1104626	5	3	0	200
399021	-9930	-18639	-9372	6.802295	48.34975	-37.23224	0	9.36	4002	26	-400	-400	13	0.8310295	-0.1419415	5	3	0	200
399071	-9930	-18639	-9372	6.802295	48.34975	-37.23224	0	9.36	4002	120	-400	-400	12	0.8059278	-0.1478398	5	3	0	200
399176	-6091	-610	8199	-17.26524	50.56996	-45.54353	0	9.36	4004	400	-400	19	12	0.6998216	-0.1529284	5	3	0	200
399323	23783	-27204	-21058	76.15358	87.89488	25.55651	0	9.36	4003	-331	-400	-400	13	0.7096371	-0.1672623	5	3	0	200
399422	-10987	-22668	-10625	127.5953	51.80778	57.81143	0	9.36	4004	0	0	0	0	0.8962365	-0.1875605	5	3	0	200
399543	-2230	-30071	-6136	111.6183	43.71721	83.50613	0	9.36	4002	0	0	0	0	1.308959	-0.2210626	5	3	0	200
399583	362	-31434	-5088	107.2092	51.56156	86.41591	0	9.36	4004	0	0	0	0	1.40005	-0.2364064	5	3	0	200
399710	3874	4454	-2982	119.7704	42.46849	104.0846	0	9.36	4003	0	0	0	0	1.263926	-0.291331	5	3	0	200
399771	-330	7798	862	115.8395	36.5971	104.2846	0	9.36	4003	0	0	0	0	1.263345	-0.3270185	5	3	0	200
399930	-440	442	69	95.20536	27.00023	103.8376	0	9.36	4003	0	0	0	0	0.8288807	-0.3880525	1	3	0	200
400033	-149	79	17	79.16063	22.38576	103.8046	0	11.06	4003	0	0	0	0	0.604254	-0.4210675	1	3	0	200
400076	-52	-50	6	75.58419	21.34778	103.7986	0	11.06	4002	0	0	0	0	0.5438286	-0.4232731	1	3	0	200
400231	-90	3	19	59.99076	16.87105	103.7602	0	11.06	4003	0	0	0	0	0.2890128	-0.4143952	1	3	0	200
400286	-94	0	16	54.67284	15.33422	103.747	0	11.06	4003	0	0	0	0	0.2601115	-0.4120048	1	3	0	200
400403	-85	2	13	47.53955	13.2743	103.7252	0	11.06	4004	0	0	0	0	0.1896213	-0.4008831	1	3	0	200
400506	-82	-2	14	41.31255	11.47809	103.701	0	11.06	4003	0	0	0	0	0.1382339	-0.4048459	1	3	0	200
400710	-88	1	9	31.133	8.517685	103.661	0	11.06	4003	0	0	0	0	0.07346319	-0.4138505	1	3	0	200
400802	-85	-3	13	26.98862	7.697773	103.6472	0	11.06	4003	0	0	0	0	0.05355467	-0.4252625	1	3	0	200
400945	-91	0	14	23.36591	6.273651	103.6172	0	11.17	4002	0	0	0	0	0.03513722	-0.4601362	1	3	0	200
401030	-90	-1	6	20.19532	5.352373	103.5974	0	11.17	4003	0	0	0	0	0.02846115	-0.4855934	1	3	0	200
401105	-95	-4	16	18.31285	4.805785	103.5832	0	11.17	4003	0	0	0	0	0.02074818	-0.5206602	1	3	0	200
401263	-89	5	14	14.28621	3.6316	103.5504	0	11.17	4004	0	0	0	0	0.02	-0.5373251	1	3	0	200
401343	-76	-3	17	12.908	3.227178	103.537	0	11.17	4003	0	0	0	0	0.02	-0.5393497	1	3	0	200
401416	-87	2	10	11.65842	2.85516	103.525	0	11.17	4003	0	0	0	0	0.02	-0.5411122	1	3	0	200
401559	-92	0	9	9.465462	2.218616	103.4999	0	11.17	4003	0	0	0	0	0.02	-0.5470342	1	3	0	200
401649	-81	0	7	8.066392	1.805881	103.4823	0	11.17	4003	0	0	0	0	0.02	-0.5480658	1	3	0	200
401723	-88	-5	9	7.232889	1.560528	103.4712	0	11.17	4003	0	0	0	0	0.02	-0.5515833	1	3	0	200
401841	-80	0	9	5.766119	1.128164	103.4485	0	11.06	4002	0	0	0	0	0.02	-0.5601295	1	3	0	200
401998	-82	4	17	4.280872	0.6849682	103.4208	0	11.06	4002	0	0	0	0	0.02	-0.5619533	1	3	0	200
402077	-79	3	10	3.77199	0.5336805	103.4069	0	11.06	4002	0	0	0	0	0.02	-0.5448022	1	3	0	200
402206	-78	7	9	2.883388	0.2759163	103.3833	0	11.06	4003	0	0	0	0	0.02	-0.5402782	1	3	0	200
402293	-74	-2	10	2.315866	0.1116438	103.3663	0	11.06	4004	0	0	0	0	0.02	-0.5423277	1	3	0	200
402347	-81	1	7	2.145031	0.05977279	103.3614	0	11.06	4003	0	0	0	0	0.02	-0.5428994	1	3	0	200
402458	-79	0	9	1.672246	-0.07906176	103.3448	0	11.06	4004	0	0	0	0	0.02	-0.542367	1	3	0	200
402537	-78	4	11	1.258072	-0.2041217	103.3299	0	11.06	4002	0	0	0	0	0.02	-0.5420918	1	3	0	200
402666	-81	4	7	0.7853115	-0.3477184	103.3062	0	11.06	4004	0	0	0	0	0.02	-0.5389261	1	3	0	200
402734	-83	-1	12	0.4785987	-0.4371245	103.2875	0	11.06	4003	0	0	0	0	0.02	-0.5286351	1	3	0	200
402837	-73	0	15	0.2943794	-0.4928772	103.2779	0	11.11	4002	0	0	0	0	0.02	-0.5178521	1	3	0	200
402955	-84	0	11	-0.02012139	-0.587487	103.2565	0	11.11	4004	0	0	0	0	0.02	-0.5165834	1	3	0	200
403109	-83	-1	11	-0.2781256	-0.6689787	103.2325	0	11.11	4003	0	0	0	0	0.02	-0.534004	1	3	0	200
403171	-76	0	8	-0.3924871	-0.7032397	103.2209	0	11.11	4003	0	0	0	0	0.02	-0.5444368	1	3	0	200
403299	-81	4	15	-0.605514	-0.7639939	103.198	0	11.11	4004	0	0	0	0	0.02	-0.5514829	1	3	0	200
403375	-82	5	12	-0.6956741	-0.7868562	103.1863	0	11.11	4004	0	0	0	0	0.02	-0.5484413	1	3	0	200
403474	-84	3	9	-0.8115195	-0.8225499	103.1705	0	11.11	4004	0	0	0	0	0.02	-0.5406551	1	3	0	200
403575	-84	0	8	-0.9229471	-0.854894	103.1562	0	11.11	4004	0	0	0	0	0.02	-0.5400061	1	3	0	200
403647	-81	7	8	-0.9800854	-0.8789196	103.1459	0	11.11	4004	0	0	0	0	0.02	-0.5400574	1	3	0	200
403856	-91	-2	10	-1.139424	-0.9205528	103.1166	0	11.23	4004	0	0	0	0	0.02	-0.5353299	1	3	0	200
403921	-82	0	9	-1.180505	-0.9350584	103.1064	0	11.23	4003	0	0	0	0	0.02	-0.5366602	1	3	0	200
404011	-80	-1	9	-1.235605	-0.956287	103.0905	0	11.23	4003	0	0	0	0	0.02	-0.5418097	1	3	0	200
404062	-80	0	8	-1.26773	-0.9674088	103.0792	0	11.23	4003	0	0	0	0	0.02	-0.5445362	1	3	0	200
404163	-83	1	12	-1.299321	-0.9778887	103.0699	0	11.23	4003	0	0	0	0	0.02	-0.5544546	1	3	0	200
404288	-94	-1	11	-1.364345	-0.9975853	103.0422	0	11.23	4002	0	0	0	0	0.02	-0.5823081	1	3	0	200
404481	-75	4	7	-1.428911	-1.015699	103.0166	0	11.23	4004	0	0	0	0	0.02	-0.6120775	1	3	0	200
404585	-72	0	8	-1.457154	-1.029359	102.9962	0	11.23	4003	0	0	0	0	0.02	-0.6096957	1	3	0	200
404664	-72	-5	11	-1.472057	-1.037147	102.9879	0	11.06	4003	0	0	0	0	0.02	-0.6027283	1	3	0	200
404767	-88	-1	11	-1.493913	-1.044676	102.972	0	11.06	4004	0	0	0	0	0.02	-0.5905277	1	3	0	200
404871	-82	-1	10	-1.509492	-1.051767	102.963	0	11.06	4003	0	0	0	0	0.02	-0.5679259	1	3	0	200
404989	-74	-2	11	-1.527425	-1.053861	102.9408	0	11.06	4004	0	0	0	0	0.02	-0.5501386	1	3	0	200
405106	-77	2	11	-1.547065	-1.047683	102.9182	0	11.06	4002	0	0	0	0	0.02	-0.5430298	1	3	0	200
405178	-82	0	9	-1.556044	-1.05191	102.9072	0	11.06	4003	0	0	0	0	0.02	-0.5487259	1	3	0	200
405304	-80	0	7	-1.567096	-1.060939	102.8857	0	11.06	4004	0	0	0	0	0.02	-0.5488355	1	3	0	200
405420	-80	1	8	-1.579887	-1.058958	102.8645	0	11.06	4003	0	0	0	0	0.02	-0.5533646	1	3	0	200
405527	-88	0	10	-1.581652	-1.060556	102.8503	0	11.06	4006	0	0	0	0	0.02	-0.5603026	1	3	0	200
405620	-73	-1	8	-1.588745	-1.063672	102.8346	0	11.11	4003	0	0	0	0	0.02	-0.5702626	1	3	0	200
405714	-84	0	7	-1.596071	-1.063718	102.8255	0	11.11	4004	0	0	0	0	0.02	-0.5806274	1	3	0	200
405806	-92	4	7	-1.601197	-1.069726	102.8095	0	11.11	4003	0	0	0	0	0.02	-0.5816917	1	3	0	200
405936	-69	4	5	-1.605213	-1.068847	102.7849	0	11.11	4002	0	0	0	0	0.02	-0.5707518	1	3	0	200
406133	-88	-1	7	-1.613127	-1.079381	102.7533	0	11.11	4002	0	0	0	0	0.02	-0.5706551	1	3	0	200
406196	-88	-2	10	-1.618897	-1.081008	102.7435	0	11.11	4003	0	0	0	0	0.02	-0.5718101	1	3	0	200
406317	-85	4	12	-1.624887	-1.07978	102.728	0	11.11	4002	0	0	0	0	0.02	-0.5691735	1	3	0	200
406423	-77	1	9	-1.628869	-1.081887	102.7137	0	11.11	4004	0	0	0	0	0.02	-0.5733364	1	3	0	200
406516	-78	2	8	-1.633258	-1.083006	102.6968	0	11.11	4003	0	0	0	0	0.02	-0.5714999	1	3	0	200
406576	-77	3	12	-1.635798	-1.079405	102.6853	0	11.11	4002	0	0	0	0	0.02	-0.573993	1	3	0	200
406650	-75	0	14	-1.632406	-1.082335	102.6746	0	11.11	4004	0	0	0	0	0.02	-0.5735669	1	3	0	200
406762	-79	3	8	-1.634299	-1.082281	102.6596	0	11.11	4004	0	0	0	0	0.02	-0.5648814	1	3	0	200
406902	-89	11	10	-1.631959	-1.078131	102.6398	0	11.11	4004	0	0	0	0	0.02	-0.5657495	1	3	0	200
407021	-78	1	9	-1.634799	-1.083254	102.6199	0	11.11	4003	0	0	0	0	0.02	-0.545175	1	3	0	200
407152	-79	0	9	-1.631361	-1.081454	102.6014	0	11.11	4004	0	0	0	0	0.02	-0.5359765	1	3	0	200
407284	-76	1	8	-1.630348	-1.080282	102.5776	0	11.11	4003	0	0	0	0	0.02	-0.5285349	1	3	0	200
407346	-86	0	9	-1.631996	-1.079871	102.5701	0	11.11	4004	0	0	0	0	0.02	-0.5268837	1	3	0	200
407443	-70	-2	5	-1.630333	-1.081548	102.5551	0	11.11	4002	0	0	0	0	0.02	-0.5159681	1	3	0	200
407550	-62	3	13	-1.631194	-1.082133	102.5413	0	11.11	4002	0	0	0	0	0.02	-0.5144922	1	3	0	200
407711	-87	5	6	-1.630111	-1.088474	102.5207	0	11.11	4004	0	0	0	0	0.02	-0.5187766	1	3	0	200
407761	-74	0	6	-1.624327	-1.087006	102.5101	0	11.11	4003	0	0	0	0	0.02	-0.5219188	1	3	0	200
407842	-75	2	7	-1.620461	-1.081948	102.4991	0	11.11	4003	0	0	0	0	0.02	-0.5271494	1	3	0	200
407951	-74	1	7	-1.627383	-1.079469	102.4754	0	11.11	4004	0	0	0	0	0.02	-0.5318252	1	3	0	200
408043	-76	6	11	-1.620048	-1.081637	102.465	0	11.11	4003	0	0	0	0	0.02	-0.5340068	1	3	0	200
408150	-74	-3	8	-1.621517	-1.083513	102.4459	0	11.11	4003	0	0	0	0	0.02	-0.5374697	1	3	0	200
408261	-76	2	7	-1.611499	-1.079377	102.4319	0	11.06	4003	0	0	0	0	0.02	-0.5393988	1	3	0	200
408370	-79	2	5	-1.616016	-1.074082	102.42	0	11.06	4002	0	0	0	0	0.02	-0.5353504	1	3	0	200
408452	-75	4	4	-1.613591	-1.07578	102.4109	0	11.06	4003	0	0	0	0	0.02	-0.5338536	1	3	0	200
408586	-81	-1	9	-1.618537	-1.075282	102.391	0	11.06	4004	0	0	0	0	0.02	-0.5328071	1	3	0	200
408696	-70	3	7	-1.618854	-1.071003	102.3786	0	11.06	4004	0	0	0	0	0.02	-0.5357472	1	3	0	200
408836	-71	0	0	-1.615017	-1.068601	102.3594	0	11.06	4002	0	0	0	0	0.02	-0.5364122	1	3	0	200
408910	-72	4	8	-1.619817	-1.074163	102.351	0	11.06	4002	0	0	0	0	0.02	-0.545417	1	3	0	200
408965	-79	2	10	-1.617211	-1.076738	102.3414	0	11.06	4003	0	0	0	0	0.02	-0.5466194	1	3	0	200
409037	-73	0	6	-1.621423	-1.079036	102.3332	0	11.06	4004	0	0	0	0	0.02	-0.5558942	1	3	0	200
409118	-66	2	11	-1.61246	-1.078468	102.3192	0	11.06	4003	0	0	0	0	0.02	-0.5599356	1	3	0	200
409278	-406	236	-40	-1.593318	-1.061902	102.303	0	11.11	4004	0	0	0	0	0.02	-0.5588646	1	3	0	200
409343	2	-121	13	-1.783222	-1.155156	102.3277	0	11.11	4004	0	0	0	0	0.02	-0.5542998	1	3	0	200
409449	-47	529	-185	-1.373073	-1.094011	102.2509	0	11.11	4003	0	0	0	0	0.02	-0.5476075	1	3	0	200
409576	-956	2394	-217	-2.115834	-3.678388	102.5622	0	11.11	4004	0	0	0	0	0.02	-0.5342843	1	3	0	200
409671	587	2369	336	-2.17846	-7.773886	102.7935	0	11.11	4004	0	0	0	0	0.02	-0.5127506	1	3	0	200
409725	1178	2005	206	-1.530239	-9.177317	102.6361	0	11.11	4003	0	0	0	0	0.02	-0.5009784	1	3	0	200
409852	1481	-74	-3031	2.369799	-11.98148	105.8405	0	11.11	4002	0	0	0	0	0.02	-0.4811046	1	3	0	200
409953	739	-150	-2748	3.701469	-12.61784	111.0518	0	11.11	4004	0	0	0	0	0.02	-0.4694546	1	3	0	200
410035	118	-441	256	3.8424	-12.23912	112.8699	0	11.11	4004	0	0	0	0	0.02	-0.459455	1	3	0	200
410187	2595	-1001	788	7.385748	-10.89669	111.8254	0	11.17	4004	0	0	0	0	0.02	-0.4281507	1	3	0	200
410230	3166	-5919	335	11.44716	-7.734595	110.9412	0	11.17	4004	0	0	0	0	0.02	-0.3939178	1	3	0	200
410339	4759	-5907	-6429	26.35423	4.984631	119.7444	0	11.17	4003	0	0	0	0	0.02	-0.34239	1	3	0	200
410452	12839	-3482	-5734	41.58319	7.883587	129.8075	0	11.17	4003	0	0	0	0	0.02	-0.2891047	1	3	0	200
410593	-2732	-10707	-2983	53.96307	9.11411	143.8353	0	11.17	4004	0	0	0	0	0.02	-0.2466302	1	3	0	200
410626	-2969	-5423	-317	51.73622	16.35282	145.1136	0	11.17	4004	0	0	0	0	0.02	-0.2078047	1	3	0	200
410706	-323	-5997	-2103	50.18247	17.19289	145.3589	0	11.17	4003	0	0	0	0	0.02	-0.1666218	1	3	0	200
410809	384	-8366	-4203	51.14914	22.50718	148.3457	0	11.17	4005	0	0	0	0	0.02	-0.1271111	1	3	0	200
410902	-2058	-5291	-1792	54.5543	25.74632	157.6377	0	11.17	4002	0	0	0	0	0.02	-0.08804145	1	3	0	200
411003	-2107	-4769	-3039	52.7155	28.80516	160.678	0	11.29	4002	0	0	0	0	0.02	-0.05439549	1	3	0	200
411098	-998	-5461	-825	55.78199	30.35771	164.6922	0	11.29	4002	0	0	0	0	0.02	-0.0142837	1	3	0	200
411202	-2173	-2568	-4273	55.76504	32.88846	168.2188	0	11.29	4003	0	0	0	0	0.02	0.01687347	1	3	0	200
411322	903	-3632	-4938	61.66276	28.35446	177.9062	0	11.29	4002	0	0	0	0	0.02	0.06167992	1	3	0	200
411410	-1477	-1537	2602	60.25885	32.40139	178.6828	0	11.29	4003	0	0	0	0	0.02	0.08218314	1	3	0	200
411544	-3786	-1515	4123	52.67982	39.27059	172.8255	0	11.29	4002	0	0	0	0	0.02	0.1176326	1	3	0	200
411653	-181	-2143	3852	37.3488	45.16124	163.2182	0	11.29	4003	0	0	0	0	0.02	0.1306989	1	3	0	200
411763	-2465	-303	10198	27.12976	51.71304	152.0711	0	11.29	4003	0	0	0	0	0.02	0.1482483	1	3	0	200
411843	-1527	-195	13013	14.59237	55.60328	138.744	0	11.29	4002	0	0	0	0	0.02	0.1591755	1	3	0	200
411909	-3270	470	12609	-1.16808	57.12921	124.5491	0	11.17	4003	0	0	0	0	0.02	0.1700448	1	3	0	200
412033	-3167	-334	16344	-34.40567	43.46972	92.76496	0	11.17	4004	0	0	0	0	0.02	0.1838534	1	3	0	200
412171	-897	-1201	12527	-55.2403	18.87862	59.06879	0	11.17	4004	0	0	0	0	0.02	0.1956307	1	3	0	200
412218	-5228	-2816	7281	-62.39804	14.02806	52.82152	0	11.17	4002	0	0	0	0	0.02	0.2066702	1	3	0	200
412322	-447	377	2138	-66.86572	6.042127	41.68109	0	11.17	4003	0	0	0	0	0.02	0.2174558	1	3	0	200
412432	-781	3257	4933	-68.16959	-3.958599	36.07579	0	11.17	4004	0	0	0	0	0.02	0.2258424	1	3	0	200
412592	-1393	2653	2846	-68.67241	-20.66134	27.19447	0	11.17	4003	0	0	0	0	0.02	0.2364685	1	3	0	200
412631	414	1845	2212	-68.49886	-23.24894	25.80856	0	11.17	4004	0	0	0	0	0.02	0.238693	1	3	0	200
412764	-104	-2823	-2797	-70.69537	-17.57082	27.97245	0	11.17	4003	0	0	0	0	0.02	0.2436899	1	3	0	200
412877	-1047	1097	1697	-72.86058	-7.726836	29.7346	0	11.17	4002	0	0	0	0	0.02	0.2469004	1	3	0	200
412948	1167	-683	2905	-72.27383	-11.92412	26.79691	0	11.17	4002	0	0	0	0	0.02	0.248155	1	3	0	200
413118	2082	2596	2238	-69.80707	-8.968582	23.17457	0	11.17	4004	0	0	0	0	0.02	0.2499156	1	3	0	200
413205	-605	-130	-1156	-69.73795	-15.44615	21.68144	0	11.17	4004	0	0	0	0	0.02	0.2480929	1	3	0	200
413253	-1126	-1438	-2129	-70.1978	-13.20205	22.70513	0	11.17	4002	0	0	0	0	0.02	0.2464132	1	3	0	200
413420	-681	65	458	-71.77139	-13.63188	23.30726	0	11.17	4003	0	0	0	0	0.02	0.2438077	1	3	0	200
413475	214	-128	-273	-74.7987	-12.92204	25.08391	0	11.17	4002	0	0	0	0	0.02	0.2381976	1	3	0	200
413506	-795	1304	-898	-75.68204	-11.7022	26.24549	0	11.17	4002	0	0	0	0	0.02	0.2388797	1	3	0	200
413625	-19	-204	-1043	-76.7403	-13.39856	26.19935	0	11.17	4004	0	0	0	0	0.02	0.2395025	1	3	0	200
413701	1778	2706	302	-74.29494	-13.90794	26.7382	0	11.17	4003	0	0	0	0	0.02	0.2370492	1	3	0	200
413821	1397	5073	-353	-71.11439	-19.40954	26.28724	0	11.17	4004	0	0	0	0	0.02	0.243904	1	3	0	200
413876	1412	6445	-1030	-69.99705	-23.73495	27.16529	0	11.17	4003	0	0	0	0	0.02	0.2559428	1	3	0	200
413993	2299	6728	861	-67.50304	-34.07689	27.05533	0	11.17	4003	0	0	0	0	0.02	0.2736695	1	3	0	200
414116	2576	5052	-427	-61.49962	-40.08801	26.16193	0	11.17	4004	0	0	0	0	0.02	0.2920569	1	3	0	200
414199	1177	2517	-2013	-61.1317	-39.88127	27.71864	0	11.17	4004	0	0	0	0	0.02	0.2983438	1	3	0	200
414284	-2559	2867	-2637	-65.46572	-36.4751	31.8244	0	11.17	4002	0	0	0	0	0.02	0.3054388	1	3	0	200
414478	-2242	1392	-1665	-72.02177	-28.62628	39.373	0	11.17	4003	0	0	0	0	0.02	0.3018394	1	3	0	200
414510	-652	1840	-1298	-73.31223	-27.70635	40.19603	0	11.17	4003	0	0	0	0	0.02	0.2989798	1	3	0	200
414675	-2042	882	1582	-78.34485	-28.98006	40.65685	0	11.17	4002	0	0	0	0	0.02	0.2966761	1	3	0	200
414753	-748	1072	2394	-77.62576	-32.25822	38.10203	0	11.17	4002	0	0	0	0	0.02	0.2961041	1	3	0	200
414793	-165	-235	2594	-76.6609	-33.72384	36.7458	0	11.17	4004	0	0	0	0	0.02	0.2936821	1	3	0	200
414911	304	-461	3626	-70.37716	-40.12545	28.82994	0	11.17	4004	0	0	0	0	0.02	0.2874902	1	3	0	200
415048	6273	-3086	1437	-59.21669	-39.25115	24.63092	0	11.17	4002	0	0	0	0	0.02	0.2775432	1	3	0	200
415181	1574	-3809	-3541	-53.35314	-30.11755	26.86413	0	11.17	4004	0	0	0	0	0.02	0.2776285	1	3	0	200
415306	2650	-8799	-560	-50.7929	-10.5909	31.60593	0	11.17	4003	0	0	0	0	0.02	0.2762805	1	3	0	200
415405	4520	-12985	1713	-44.68775	7.08656	30.5022	0	11.17	4004	0	0	0	0	0.02	0.2705094	1	3	0	200
415567	3532	-3492	-1724	-33.09417	30.45538	29.04263	0	11.11	4002	0	0	0	0	0.02	0.2347111	1	3	0	200
415643	2882	-451	-2170	-28.38781	32.12335	31.39713	0	11.11	4002	0	0	0	0	0.02	0.2213474	1	3	0	200
415770	868	1569	-1835	-21.98608	28.79073	35.00281	0	11.11	4002	0	0	0	0	0.02	0.170915	1	3	0	200
415857	2729	3275	-544	-17.70602	24.87796	38.10827	0	11.11	4004	0	0	0	0	0.02	0.1271394	1	3	0	200
415930	578	4567	3052	-16.54289	18.69421	36.56241	0	11.11	4004	0	0	0	0	0.02	0.1081158	1	3	0	200
416004	4763	1527	5875	-12.82021	10.39105	28.42657	0	11.11	4004	0	0	0	0	0.02	0.05669393	1	3	0	200
416125	-91	446	-3074	-7.754408	3.583614	23.63069	0	11.11	4004	0	0	0	0	0.02	0.002753056	1	3	0	200
416215	863	-1093	-4808	-6.797016	5.49404	28.37339	0	11.11	4003	0	0	0	0	0.02	-0.02170553	1	3	0	200
416310	825	2265	-2588	-6.216697	2.679424	33.95753	0	11.11	4003	0	0	0	0	0.02	-0.04825914	1	3	0	200
416414	2047	2333	-1090	-1.557496	4.300773	34.75042	0	11.11	4002	0	0	0	0	0.02	-0.09278871	1	3	0	200
416517	45	141	40	-1.234619	3.561268	34.99419	0	11.23	4004	0	0	0	0	0.02	-0.1241143	1	3	0	200
416621	-100	-59	7	-1.206743	3.19002	34.98233	0	11.23	4003	0	0	0	0	0.02	-0.1524504	1	3	0	200
416773	-75	-1	7	-1.235459	2.749267	34.9769	0	11.23	4003	0	0	0	0	0.02	-0.2172638	1	3	0	200
416879	-54	3	12	-1.249764	2.379312	34.96585	0	11.23	4004	0	0	0	0	0.02	-0.2466917	1	3	0	200
416903	-56	-4	8	-1.253833	2.295944	34.96347	0	11.23	4002	0	0	0	0	0.02	-0.2627839	1	3	0	200
416999	-63	4	5	-1.263055	2.070767	34.95688	0	11.23	4002	0	0	0	0	0.02	-0.2971387	1	3	0	200
417103	-73	5	7	-1.268431	1.872193	34.94736	0	11.23	4003	0	0	0	0	0.02	-0.3458995	1	3	0	200
417233	-57	-1	5	-1.275587	1.693226	34.93967	0	11.23	4003	0	0	0	0	0.02	-0.3942843	1	3	0	200
417308	-59	1	1	-1.280337	1.545942	34.93185	0	11.23	4003	0	0	0	0	0.02	-0.4213533	1	3	0	200
417409	-59	-3	4	-1.281623	1.414083	34.92294	0	11.23	4003	0	0	0	0	0.02	-0.4535892	1	3	0	200
417513	-58	4	2	-1.285195	1.304003	34.91458	0	11.23	4002	0	0	0	0	0.02	-0.4619702	1	3	0	200
417646	-61	-4	3	-1.283998	1.173379	34.90604	0	11.23	4004	0	0	0	0	0.02	-0.4859471	1	3	0	200
417718	-61	1	7	-1.280605	1.098043	34.897	0	11.23	4003	0	0	0	0	0.02	-0.4911986	1	3	0	200
417823	-54	0	0	-1.277908	1.023148	34.89041	0	11.23	4004	0	0	0	0	0.02	-0.4924531	1	3	0	200
417925	-67	0	8	-1.281066	0.9584141	34.88217	0	11.23	4002	0	0	0	0	0.02	-0.4869439	1	3	0	200
418084	-65	5	8	-1.28145	0.8850572	34.8732	0	11.23	4002	0	0	0	0	0.02	-0.4659411	1	3	0	200
418157	-57	-1	4	-1.279996	0.8523315	34.86697	0	11.23	4002	0	0	0	0	0.02	-0.4471623	1	3	0	200
418223	-59	4	0	-1.271908	0.8262667	34.86166	0	11.23	4003	0	0	0	0	0.02	-0.439041	1	3	0	200
418342	-57	4	5	-1.276186	0.7713471	34.84964	0	11.17	4003	0	0	0	0	0.02	-0.4348797	1	3	0	200
418417	-66	2	11	-1.272461	0.7502387	34.84561	0	11.17	4004	0	0	0	0	0.02	-0.4426052	1	3	0	200
418521	-71	0	4	-1.279265	0.7187076	34.83603	0	11.17	4004	0	0	0	0	0.02	-0.4518823	1	3	0	200
418623	-66	2	1	-1.285624	0.6932228	34.82901	0	11.17	4004	0	0	0	0	0.02	-0.4525519	1	3	0	200
418741	-65	0	5	-1.284441	0.6701802	34.82169	0	11.17	4004	0	0	0	0	0.02	-0.457834	1	3	0	200
418869	-56	-4	4	-1.287259	0.636278	34.80869	0	11.17	4002	0	0	0	0	0.02	-0.4598909	1	3	0	200
418919	-66	2	6	-1.286846	0.6311665	34.8038	0	11.17	4004	0	0	0	0	0.02	-0.4592214	1	3	0	200
419034	-65	4	7	-1.293479	0.6129917	34.79666	0	11.17	4003	0	0	0	0	0.02	-0.4571418	1	3	0	200
419187	-57	-3	13	-1.282998	0.5958416	34.78598	0	11.17	4003	0	0	0	0	0.02	-0.4584888	1	3	0	200
419236	-68	-3	0	-1.282911	0.5858397	34.78049	0	11.17	4003	0	0	0	0	0.02	-0.4580857	1	3	0	200
419392	-59	2	6	-1.276109	0.5763368	34.77432	0	11.17	4003	0	0	0	0	0.02	-0.4536487	1	3	0	200
419410	-59	0	3	-1.26709	0.5687693	34.76456	0	11.17	4002	0	0	0	0	0.02	-0.4513872	1	3	0	200
419466	-66	2	0	-1.264862	0.5583889	34.75656	0	11.17	4003	0	0	0	0	0.02	-0.4499488	1	3	0	200
419591	-55	0	4	-1.267473	0.556909	34.74716	0	11.17	4003	0	0	0	0	0.02	-0.4582784	1	3	0	200
419653	-68	3	9	-1.267826	0.5547005	34.74179	0	11.17	4004	0	0	0	0	0.02	-0.4675072	1	3	0	200
419747	-63	0	2	-1.26843	0.5540138	34.73618	0	11.17	4002	0	0	0	0	0.02	-0.4678977	1	3	0	200
419871	-57	1	9	-1.269492	0.5468964	34.72592	0	11.17	4003	0	0	0	0	0.02	-0.4605575	1	3	0	200
419952	-62	3	4	-1.262668	0.5393203	34.7178	0	11.17	4004	0	0	0	0	0.02	-0.4561776	1	3	0	200
420068	-56	4	8	-1.264127	0.5262265	34.70877	0	11.17	4003	0	0	0	0	0.02	-0.4491416	1	3	0	200
420171	-66	-5	4	-1.261823	0.528632	34.70114	0	11.17	4002	0	0	0	0	0.02	-0.4454405	1	3	0	200
420249	-53	0	6	-1.266936	0.5284142	34.6929	0	11.17	4004	0	0	0	0	0.02	-0.4491353	1	3	0	200
420354	-47	-2	5	-1.26127	0.5310397	34.68393	0	11.17	4004	0	0	0	0	0.02	-0.4543782	1	3	0	200
420446	-61	-2	6	-1.262186	0.5318897	34.67746	0	11.17	4003	0	0	0	0	0.02	-0.4622604	1	3	0	200
420551	-52	-1	1	-1.250876	0.5245194	34.67154	0	11.17	4002	0	0	0	0	0.02	-0.4656874	1	3	0	200
420656	-63	-6	6	-1.25034	0.5240569	34.66452	0	11.17	4004	0	0	0	0	0.02	-0.46281	1	3	0	200
420788	-59	6	-1	-1.249223	0.5194885	34.65262	0	11.17	4002	0	0	0	0	0.02	-0.4637131	1	3	0	200
420860	-52	1	3	-1.251549	0.5168378	34.64761	0	11.17	4002	0	0	0	0	0.02	-0.4663959	1	3	0	200
421010	-55	5	1	-1.248911	0.5138081	34.63742	0	11.23	4002	0	0	0	0	0.02	-0.48074	1	3	0	200
421068	-53	3	7	-1.242567	0.5158189	34.63193	0	11.23	4004	0	0	0	0	0.02	-0.4828022	1	3	0	200
421179	-46	2	5	-1.23544	0.5169572	34.6235	0	11.23	4003	0	0	0	0	0.02	-0.491296	1	3	0	200
421330	-53	3	3	-1.233551	0.5192842	34.61313	0	11.23	4003	0	0	0	0	0.02	-0.5093859	1	3	0	200
421384	-58	-5	8	-1.229142	0.51888	34.60788	0	11.23	4004	0	0	0	0	0.02	-0.5152768	1	3	0	200
421494	-55	2	6	-1.222759	0.5127409	34.60013	0	11.23	4003	0	0	0	0	0.02	-0.5123535	1	3	0	200
421565	-51	6	4	-1.215986	0.5066908	34.59402	0	11.23	4004	0	0	0	0	0.02	-0.5097448	1	3	0	200
421735	-57	1	4	-1.211288	0.5118112	34.58365	0	11.23	4003	0	0	0	0	0.02	-0.5273618	1	3	0	200
421795	-48	-4	5	-1.205065	0.5101942	34.57858	0	11.23	4003	0	0	0	0	0.02	-0.5332154	1	3	0	200
421855	-56	0	6	-1.20589	0.5125239	34.57553	0	11.23	4004	0	0	0	0	0.02	-0.5381655	1	3	0	200
422012	-56	3	3	-1.202929	0.5185571	34.56503	0	11.23	4003	0	0	0	0	0.02	-0.5520602	1	3	0	200
422064	-49	1	10	-1.206783	0.5176523	34.56271	0	11.23	4002	0	0	0	0	0.02	-0.561364	1	3	0	200
422238	-54	-2	4	-1.201483	0.5184467	34.55136	0	11.23	4003	0	0	0	0	0.02	-0.56273	1	3	0	200
422308	-41	0	2	-1.201648	0.5186359	34.54544	0	11.23	4002	0	0	0	0	0.02	-0.5643953	1	3	0	200
422523	-53	5	2	-1.190632	0.5135734	34.5267	0	11.23	4004	0	0	0	0	0.02	-0.5693126	1	3	0	200
422640	-46	4	10	-1.186849	0.5170383	34.51877	0	11.23	4003	0	0	0	0	0.02	-0.5836617	1	3	0	200
422694	-52	-5	5	-1.188545	0.5147336	34.51285	0	11.23	4002	0	0	0	0	0.02	-0.5844163	1	3	0	200
422799	-56	3	4	-1.194793	0.5130873	34.50742	0	11.23	4004	0	0	0	0	0.02	-0.5756944	1	3	0	200
422859	-52	-2	1	-1.193858	0.5071909	34.50327	0	11.23	4004	0	0	0	0	0.02	-0.5727229	1	3	0	200
422989	-55	0	4	-1.201093	0.5099131	34.49435	0	11.23	4004	0	0	0	0	0.02	-0.5592813	1	3	0	200
423146	-52	-3	1	-1.198119	0.5100082	34.48288	0	11.23	4003	0	0	0	0	0.02	-0.55406	1	3	0	200
423219	-49	-1	6	-1.187318	0.5080431	34.47665	0	11.23	4004	0	0	0	0	0.02	-0.5580934	1	3	0	200
423335	-55	2	6	-1.189398	0.5028336	34.46933	0	11.23	4003	0	0	0	0	0.02	-0.5510538	1	3	0	200
423400	-55	3	5	-1.190216	0.5040547	34.46432	0	11.23	4004	0	0	0	0	0.02	-0.5515665	1	3	0	200
423567	-43	4	0	-1.180852	0.4988456	34.45169	0	11.23	4003	0	0	0	0	0.02	-0.5344234	1	3	0	200
423679	-54	4	8	-1.165951	0.5010946	34.44107	0	11.23	4002	0	0	0	0	0.02	-0.5126213	1	3	0	200
