time(ms)	gyro_x(deg/s)	gyro_y(deg/s)	gyro_z(deg/s)	orientation_roll(deg)	orientation_pitch(deg)	orientation_yaw(deg)	throttle	battery(V)	loop_time(uS)	pid_output_roll	pid_output_pitch	pid_output_yaw	pid_output_throttle	ultrasonic_alt	baro_alt	flight_mode	p_gain_altitude	i_gain_altitude	d_gain_altitude
125	39	-4	-3	0.4243223	-0.05548143	0.4218558	0	12.53	4003	0	0	0	0	0.02	0.1210823	1	0	0	0
206	32	3	-1	0.4242358	-0.0623905	0.4242401	0	12.53	4002	0	0	0	0	0.02	0.1157384	1	0	0	0
325	33	0	0	0.4358024	-0.06375857	0.4276635	0	12.53	4003	0	0	0	0	0.02	0.1061372	1	0	0	0
480	51	-4	-3	0.4395209	-0.06767339	0.4311485	0	12.53	4004	0	0	0	0	0.02	0.09439543	1	0	0	0
556	39	-4	-3	0.4385252	-0.06845358	0.4341443	0	12.53	4004	0	0	0	0	0.02	0.08879387	1	0	0	0
646	38	-6	0	0.4369723	-0.06694932	0.4367734	0	12.53	4002	0	0	0	0	0.02	0.08633003	1	0	0	0
770	36	0	-3	0.433813	-0.0671568	0.4414195	0	12.53	4002	0	0	0	0	0.02	0.08718652	1	0	0	0
891	39	5	-6	0.4372203	-0.06780223	0.4469835	0	12.53	4003	0	0	0	0	0.02	0.09684878	1	0	0	0
1050	49	0	-2	0.4498166	-0.06107343	0.4519971	0	12.59	4003	0	0	0	0	0.02	0.1048574	1	0	0	0
1218	39	0	0	0.4573798	-0.06151028	0.4570104	0	12.59	4004	0	0	0	0	0.02	0.107004	1	0	0	0
1273	48	4	-1	0.4661021	-0.06378003	0.4594559	0	12.59	4004	0	0	0	0	0.02	0.1040679	1	0	0	0
1343	42	3	-5	0.4712878	-0.06557045	0.4619624	0	12.59	4004	0	0	0	0	0.02	0.1014097	1	0	0	0
1415	37	-3	-5	0.4734344	-0.0628448	0.4645302	0	12.59	4002	0	0	0	0	0.02	0.101621	1	0	0	0
1563	41	0	1	0.4897906	-0.06342159	0.4719887	0	12.59	4003	0	0	0	0	0.02	0.1011387	1	0	0	0
1674	31	0	-1	0.4956931	-0.06052963	0.4778581	0	12.59	4003	0	0	0	0	0.02	0.09765272	1	0	0	0
1759	54	1	-4	0.5010087	-0.06235179	0.4806097	0	12.59	4002	0	0	0	0	0.02	0.09415875	1	0	0	0
1834	44	2	-4	0.5027713	-0.06114369	0.4839727	0	12.59	4004	0	0	0	0	0.02	0.1027723	1	0	0	0
2005	38	-1	0	0.4964478	-0.05697084	0.4900258	0	12.53	4002	0	0	0	0	0.02	0.1114864	1	0	0	0
2059	44	0	-4	0.4998049	-0.05572407	0.4933278	0	12.53	4003	0	0	0	0	0.02	0.1120956	1	0	0	0
2143	44	1	0	0.5031806	-0.05351935	0.4953455	0	12.53	4004	0	0	0	0	0.02	0.1105455	1	0	0	0
2284	51	3	-1	0.5101372	-0.06486796	0.4993807	0	12.53	4004	0	0	0	0	0.02	0.113023	1	0	0	0
2429	38	5	-4	0.5175574	-0.06714872	0.5050057	0	12.53	4003	0	0	0	0	0.02	0.1116743	1	0	0	0
2515	37	-1	-3	0.5100821	-0.0687702	0.5081847	0	12.53	4004	0	0	0	0	0.02	0.1031607	1	0	0	0
2591	53	4	0	0.5203919	-0.06893902	0.5136875	0	12.53	4002	0	0	0	0	0.02	0.1016851	1	0	0	0
2710	49	-3	-3	0.5204541	-0.06887802	0.5171722	0	12.53	4002	0	0	0	0	0.02	0.1014977	1	0	0	0
2763	40	-2	1	0.5259541	-0.06346881	0.5202903	0	12.53	4002	0	0	0	0	0.02	0.1010667	1	0	0	0
2938	33	-1	-2	0.5365164	-0.06733204	0.5265267	0	12.59	4002	0	0	0	0	0.02	0.0927802	1	0	0	0
3122	52	-5	-1	0.545707	-0.06839637	0.5331303	0	12.59	4004	0	0	0	0	0.02	0.08729789	1	0	0	0
3197	44	-5	2	0.5475861	-0.06908825	0.5374712	0	12.59	4004	0	0	0	0	0.02	0.08814639	1	0	0	0
3282	46	-2	0	0.5528516	-0.07082538	0.5385717	0	12.59	4003	0	0	0	0	0.02	0.08979867	1	0	0	0
3397	50	0	-3	0.5578462	-0.07529286	0.547559	0	12.59	4002	0	0	0	0	0.02	0.08878981	1	0	0	0
3429	50	0	-3	0.5578462	-0.07529286	0.547559	0	12.59	4002	0	0	0	0	0.02	0.08878981	1	0	0	0
3647	42	0	-1	0.5753771	-0.07593934	0.5555074	0	12.59	4003	0	0	0	0	0.02	0.07910798	1	0	0	0
3817	42	-1	-7	0.5781503	-0.07715153	0.5627833	0	12.59	4003	0	0	0	0	0.02	0.08553128	1	0	0	0
3892	45	-1	-7	0.5795873	-0.07190891	0.5674908	0	12.59	4003	0	0	0	0	0.02	0.08491393	1	0	0	0
3990	47	-1	1	0.5842879	-0.07672261	0.5725653	0	12.59	4003	0	0	0	0	0.02	0.08358527	1	0	0	0
4047	60	2	-1	0.5851527	-0.07540799	0.5762949	0	12.59	4002	0	0	0	0	0.02	0.07999606	1	0	0	0
4187	46	2	-9	0.5895363	-0.07523435	0.5847316	0	12.59	4002	0	0	0	0	0.02	0.06491186	1	0	0	0
4324	53	-1	-4	0.5941837	-0.07909068	0.5893783	0	12.59	4004	0	0	0	0	0.02	0.06325152	1	0	0	0
4386	53	-1	2	0.6068789	-0.0776177	0.593719	0	12.59	4003	0	0	0	0	0.02	0.0719256	1	0	0	0
4505	45	0	0	0.6081595	-0.07764948	0.5992216	0	12.59	4003	0	0	0	0	0.02	0.09351533	1	0	0	0
4598	48	-1	-8	0.617546	-0.07317486	0.6049685	0	12.65	4002	0	0	0	0	0.02	0.1024691	1	0	0	0
4685	61	-1	-1	0.6275322	-0.07821959	0.6110822	0	12.65	4004	0	0	0	0	0.02	0.1090845	1	0	0	0
4742	40	-3	1	0.6302272	-0.07907126	0.6151786	0	12.65	4003	0	0	0	0	0.02	0.1111339	1	0	0	0
4876	45	-4	-2	0.6366456	-0.07455548	0.6231264	0	12.65	4003	0	0	0	0	0.02	0.1018898	1	0	0	0
4915	57	1	-4	0.6393315	-0.07310186	0.6249605	0	12.65	4002	0	0	0	0	0.02	0.09727334	1	0	0	0
4980	48	-2	-4	0.6377667	-0.07232752	0.6293011	0	12.65	4002	0	0	0	0	0.02	0.09698395	1	0	0	0
5107	57	0	-8	0.6421347	-0.08039417	0.6359045	0	12.65	4003	0	0	0	0	0.02	0.0963527	1	0	0	0
5253	57	0	-8	0.6421347	-0.08039417	0.6359045	0	12.65	4003	0	0	0	0	0.02	0.0963527	1	0	0	0
5390	57	0	-8	0.6421347	-0.08039417	0.6359045	0	12.65	4003	0	0	0	0	0.02	0.0963527	1	0	0	0
5509	57	0	-8	0.6421347	-0.08039417	0.6359045	0	12.53	4003	0	0	0	0	0.02	0.0963527	1	0	0	0
5584	57	0	-8	0.6421347	-0.08039417	0.6359045	0	12.53	4003	0	0	0	0	0.02	0.0963527	1	0	0	0
5773	57	0	-8	0.6421347	-0.08039417	0.6359045	0	12.53	4003	0	0	0	0	0.02	0.0963527	1	0	0	0
5830	57	0	-8	0.6421347	-0.08039417	0.6359045	0	12.53	4003	0	0	0	0	0.02	0.0963527	1	0	0	0
5912	57	0	-8	0.6421347	-0.08039417	0.6359045	0	12.53	4003	0	0	0	0	0.02	0.0963527	1	0	0	0
5995	57	0	-8	0.6421347	-0.08039417	0.6359045	0	12.53	4003	0	0	0	0	0.02	0.0963527	1	0	0	0
6117	57	0	-8	0.6421347	-0.08039417	0.6359045	0	12.53	4003	0	0	0	0	0.02	0.0963527	1	0	0	0
6188	57	0	-8	0.6421347	-0.08039417	0.6359045	0	12.53	4003	0	0	0	0	0.02	0.0963527	1	0	0	0
6336	57	0	-8	0.6421347	-0.08039417	0.6359045	0	12.53	4003	0	0	0	0	0.02	0.0963527	1	0	0	0
6423	57	0	-8	0.6421347	-0.08039417	0.6359045	0	12.59	4003	0	0	0	0	0.02	0.0963527	1	0	0	0
6523	57	0	-8	0.6421347	-0.08039417	0.6359045	0	12.59	4003	0	0	0	0	0.02	0.0963527	1	0	0	0
6617	57	0	-8	0.6421347	-0.08039417	0.6359045	0	12.59	4003	0	0	0	0	0.02	0.0963527	1	0	0	0
6693	57	0	-8	0.6421347	-0.08039417	0.6359045	0	12.59	4003	0	0	0	0	0.02	0.0963527	1	0	0	0
6774	57	0	-8	0.6421347	-0.08039417	0.6359045	0	12.59	4003	0	0	0	0	0.02	0.0963527	1	0	0	0
6888	57	0	-8	0.6421347	-0.08039417	0.6359045	0	12.59	4003	0	0	0	0	0.02	0.0963527	1	0	0	0
6972	57	0	-8	0.6421347	-0.08039417	0.6359045	0	12.59	4003	0	0	0	0	0.02	0.0963527	1	0	0	0
7158	57	0	-8	0.6421347	-0.08039417	0.6359045	0	12.59	4003	0	0	0	0	0.02	0.0963527	1	0	0	0
7215	57	0	-8	0.6421347	-0.08039417	0.6359045	0	12.59	4003	0	0	0	0	0.02	0.0963527	1	0	0	0
7317	57	0	-8	0.6421347	-0.08039417	0.6359045	0	12.59	4003	0	0	0	0	0.02	0.0963527	1	0	0	0
7421	57	0	-8	0.6421347	-0.08039417	0.6359045	0	12.59	4003	0	0	0	0	0.02	0.0963527	1	0	0	0
7469	57	0	-8	0.6421347	-0.08039417	0.6359045	0	12.59	4003	0	0	0	0	0.02	0.0963527	1	0	0	0
7605	57	0	-8	0.6421347	-0.08039417	0.6359045	0	12.59	4003	0	0	0	0	0.02	0.0963527	1	0	0	0
7700	57	0	-8	0.6421347	-0.08039417	0.6359045	0	12.59	4003	0	0	0	0	0.02	0.0963527	1	0	0	0
7769	57	0	-8	0.6421347	-0.08039417	0.6359045	0	12.59	4003	0	0	0	0	0.02	0.0963527	1	0	0	0
7898	57	0	-8	0.6421347	-0.08039417	0.6359045	0	12.59	4003	0	0	0	0	0.02	0.0963527	1	0	0	0
7971	57	0	-8	0.6421347	-0.08039417	0.6359045	0	12.59	4003	0	0	0	0	0.02	0.0963527	1	0	0	0
8094	57	0	-8	0.6421347	-0.08039417	0.6359045	0	12.59	4003	0	0	0	0	0.02	0.0963527	1	0	0	0
8222	57	0	-8	0.6421347	-0.08039417	0.6359045	0	12.59	4003	0	0	0	0	0.02	0.0963527	1	0	0	0
8294	57	0	-8	0.6421347	-0.08039417	0.6359045	0	12.59	4003	0	0	0	0	0.02	0.0963527	1	0	0	0
8380	57	0	-8	0.6421347	-0.08039417	0.6359045	0	12.59	4003	0	0	0	0	0.02	0.0963527	1	0	0	0
8529	57	0	-8	0.6421347	-0.08039417	0.6359045	0	12.59	4003	0	0	0	0	0.02	0.0963527	1	0	0	0
8597	57	0	-8	0.6421347	-0.08039417	0.6359045	0	12.59	4003	0	0	0	0	0.02	0.0963527	1	0	0	0
8729	57	0	-8	0.6421347	-0.08039417	0.6359045	0	12.59	4003	0	0	0	0	0.02	0.0963527	1	0	0	0
8848	57	0	-8	0.6421347	-0.08039417	0.6359045	0	12.59	4003	0	0	0	0	0.02	0.0963527	1	0	0	0
8905	57	0	-8	0.6421347	-0.08039417	0.6359045	0	12.59	4003	0	0	0	0	0.02	0.0963527	1	0	0	0
9013	57	0	-8	0.6421347	-0.08039417	0.6359045	0	12.59	4003	0	0	0	0	0.02	0.0963527	1	0	0	0
9083	57	0	-8	0.6421347	-0.08039417	0.6359045	0	12.59	4003	0	0	0	0	0.02	0.0963527	1	0	0	0
9234	57	0	-8	0.6421347	-0.08039417	0.6359045	0	12.53	4003	0	0	0	0	0.02	0.0963527	1	0	0	0
9360	57	0	-8	0.6421347	-0.08039417	0.6359045	0	12.53	4003	0	0	0	0	0.02	0.0963527	1	0	0	0
9420	57	0	-8	0.6421347	-0.08039417	0.6359045	0	12.53	4003	0	0	0	0	0.02	0.0963527	1	0	0	0
9532	57	0	-8	0.6421347	-0.08039417	0.6359045	0	12.53	4003	0	0	0	0	0.02	0.0963527	1	0	0	0
9561	57	0	-8	0.6421347	-0.08039417	0.6359045	0	12.53	4003	0	0	0	0	0.02	0.0963527	1	0	0	0
9669	57	0	-8	0.6421347	-0.08039417	0.6359045	0	12.53	4003	0	0	0	0	0.02	0.0963527	1	0	0	0
9785	57	0	-8	0.6421347	-0.08039417	0.6359045	0	12.53	4003	0	0	0	0	0.02	0.0963527	1	0	0	0
9847	57	0	-8	0.6421347	-0.08039417	0.6359045	0	12.53	4003	0	0	0	0	0.02	0.0963527	1	0	0	0
9936	57	0	-8	0.6421347	-0.08039417	0.6359045	0	12.53	4003	0	0	0	0	0.02	0.0963527	1	0	0	0
10066	57	0	-8	0.6421347	-0.08039417	0.6359045	0	12.65	4003	0	0	0	0	0.02	0.0963527	1	0	0	0
10114	57	0	-8	0.6421347	-0.08039417	0.6359045	0	12.65	4003	0	0	0	0	0.02	0.0963527	1	0	0	0
10275	57	0	-8	0.6421347	-0.08039417	0.6359045	0	12.65	4003	0	0	0	0	0.02	0.0963527	1	0	0	0
10317	57	0	-8	0.6421347	-0.08039417	0.6359045	0	12.65	4003	0	0	0	0	0.02	0.0963527	1	0	0	0
10391	57	0	-8	0.6421347	-0.08039417	0.6359045	0	12.65	4003	0	0	0	0	0.02	0.0963527	1	0	0	0
10461	57	0	-8	0.6421347	-0.08039417	0.6359045	0	12.65	4003	0	0	0	0	0.02	0.0963527	1	0	0	0
10594	57	0	-8	0.6421347	-0.08039417	0.6359045	0	12.65	4003	0	0	0	0	0.02	0.0963527	1	0	0	0
10710	57	0	-8	0.6421347	-0.08039417	0.6359045	0	12.65	4003	0	0	0	0	0.02	0.0963527	1	0	0	0
10767	57	0	-8	0.6421347	-0.08039417	0.6359045	0	12.65	4003	0	0	0	0	0.02	0.0963527	1	0	0	0
10988	57	0	-8	0.6421347	-0.08039417	0.6359045	0	12.53	4003	0	0	0	0	0.02	0.0963527	1	0	0	0
11140	57	0	-8	0.6421347	-0.08039417	0.6359045	0	12.53	4003	0	0	0	0	0.02	0.0963527	1	0	0	0
11174	57	0	-8	0.6421347	-0.08039417	0.6359045	0	12.53	4003	0	0	0	0	0.02	0.0963527	1	0	0	0
11290	57	0	-8	0.6421347	-0.08039417	0.6359045	0	12.53	4003	0	0	0	0	0.02	0.0963527	1	0	0	0
11399	57	0	-8	0.6421347	-0.08039417	0.6359045	0	12.53	4003	0	0	0	0	0.02	0.0963527	1	0	0	0
11475	57	0	-8	0.6421347	-0.08039417	0.6359045	0	12.53	4003	0	0	0	0	0.02	0.0963527	1	0	0	0
11577	57	0	-8	0.6421347	-0.08039417	0.6359045	0	12.53	4003	0	0	0	0	0.02	0.0963527	1	0	0	0
11713	57	0	-8	0.6421347	-0.08039417	0.6359045	0	12.53	4003	0	0	0	0	0.02	0.0963527	1	0	0	0
11776	57	0	-8	0.6421347	-0.08039417	0.6359045	0	12.59	4003	0	0	0	0	0.02	0.0963527	1	0	0	0
11890	57	0	-8	0.6421347	-0.08039417	0.6359045	0	12.59	4003	0	0	0	0	0.02	0.0963527	1	0	0	0
12026	57	0	-8	0.6421347	-0.08039417	0.6359045	0	12.59	4003	0	0	0	0	0.02	0.0963527	1	0	0	0
12118	57	0	-8	0.6421347	-0.08039417	0.6359045	0	12.59	4003	0	0	0	0	0.02	0.0963527	1	0	0	0
12164	57	0	-8	0.6421347	-0.08039417	0.6359045	0	12.59	4003	0	0	0	0	0.02	0.0963527	1	0	0	0
12268	57	0	-8	0.6421347	-0.08039417	0.6359045	0	12.59	4003	0	0	0	0	0.02	0.0963527	1	0	0	0
12403	57	0	-8	0.6421347	-0.08039417	0.6359045	0	12.59	4003	0	0	0	0	0.02	0.0963527	1	0	0	0
12471	57	0	-8	0.6421347	-0.08039417	0.6359045	0	12.59	4003	0	0	0	0	0.02	0.0963527	1	0	0	0
12613	57	0	-8	0.6421347	-0.08039417	0.6359045	0	12.59	4003	0	0	0	0	0.02	0.0963527	1	0	0	0
12684	57	0	-8	0.6421347	-0.08039417	0.6359045	0	12.59	4003	0	0	0	0	0.02	0.0963527	1	0	0	0
12805	57	0	-8	0.6421347	-0.08039417	0.6359045	0	12.53	4003	0	0	0	0	0.02	0.0963527	1	0	0	0
12861	57	0	-8	0.6421347	-0.08039417	0.6359045	0	12.53	4003	0	0	0	0	0.02	0.0963527	1	0	0	0
12965	57	0	-8	0.6421347	-0.08039417	0.6359045	0	12.53	4003	0	0	0	0	0.02	0.0963527	1	0	0	0
13068	57	0	-8	0.6421347	-0.08039417	0.6359045	0	12.53	4003	0	0	0	0	0.02	0.0963527	1	0	0	0
13169	57	0	-8	0.6421347	-0.08039417	0.6359045	0	12.53	4003	0	0	0	0	0.02	0.0963527	1	0	0	0
13306	12	0	0	1.380095	0.6164212	-0.0001223664	0	12.53	4002	0	0	0	0	0.02	0.08743819	1	0	0	0
13386	11	-6	0	1.272307	0.5666558	0.0006723512	0	12.53	4003	0	0	0	0	0.02	0.07820545	1	0	0	0
13500	27	-2	-5	1.099585	0.4746092	0.002445695	0	12.53	4004	0	0	0	0	0.02	0.08090157	1	0	0	0
13616	20	5	1	0.9873765	0.4137591	0.002629145	0	12.53	4004	0	0	0	0	0.02	0.08457576	1	0	0	0
13723	22	-2	0	0.8918346	0.3618034	0.003179221	0	12.53	4003	0	0	0	0	0.02	0.0844543	1	0	0	0
13774	18	1	0	0.830175	0.328763	0.003851786	0	12.53	4003	0	0	0	0	0.02	0.08323161	1	0	0	0
13995	14	3	-3	0.685166	0.2381875	0.004401831	0	12.53	4003	0	0	0	0	0.02	0.07487114	1	0	0	0
14129	18	0	0	0.5866362	0.1825186	0.00739719	0	12.53	4003	0	0	0	0	0.02	0.07743293	1	0	0	0
14191	26	3	0	0.5563903	0.1631082	0.008619876	0	12.53	4003	0	0	0	0	0.02	0.08275355	1	0	0	0
14314	21	4	0	0.5218734	0.1367804	0.008741877	0	12.53	4002	0	0	0	0	0.02	0.09529871	1	0	0	0
14387	10	1	-2	0.4846083	0.1170371	0.01149278	0	12.53	4003	0	0	0	0	0.02	0.09885653	1	0	0	0
14524	25	5	0	0.4556444	0.0971018	0.01075902	0	12.53	4003	0	0	0	0	0.02	0.1008666	1	0	0	0
14692	11	0	2	0.4051718	0.06702831	0.009597293	0	12.48	4002	0	0	0	0	0.02	0.09718151	1	0	0	0
14751	24	0	-1	0.3916431	0.05643977	0.008802421	0	12.48	4004	0	0	0	0	0.02	0.09526638	1	0	0	0
14840	18	4	7	0.3786492	0.04349422	0.008741261	0	12.48	4002	0	0	0	0	0.02	0.09608694	1	0	0	0
14891	10	-3	-3	0.373711	0.03926365	0.009352679	0	12.48	4003	0	0	0	0	0.02	0.09436045	1	0	0	0
15026	18	0	-1	0.3468598	0.02238322	0.01167622	0	12.48	4004	0	0	0	0	0.02	0.08622243	1	0	0	0
15093	14	-1	1	0.3425029	0.0188087	0.01259334	0	12.48	4002	0	0	0	0	0.02	0.07543824	1	0	0	0
15230	21	-2	0	0.3247081	0.01406273	0.01259345	0	12.48	4003	0	0	0	0	0.02	0.06729171	1	0	0	0
15306	19	-2	-2	0.3341554	0.01086934	0.01271612	0	12.48	4003	0	0	0	0	0.02	0.06310417	1	0	0	0
15412	32	6	-4	0.325323	0.006910951	0.01271612	0	12.48	4003	0	0	0	0	0.02	0.05906106	1	0	0	0
15564	30	-2	-3	0.3139125	-0.00284537	0.01412267	0	12.53	4002	0	0	0	0	0.02	0.05736936	1	0	0	0
15598	16	-1	1	0.3138727	-0.006574992	0.01448943	0	12.53	4003	0	0	0	0	0.02	0.05557148	1	0	0	0
15703	21	0	1	0.3104704	-0.01482588	0.01534534	0	12.53	4003	0	0	0	0	0.02	0.05113639	1	0	0	0
15808	28	0	0	0.3110392	-0.01556794	0.01656799	0	12.53	4003	0	0	0	0	0.02	0.04275827	1	0	0	0
15979	21	1	3	0.3174257	-0.02417588	0.015223	0	12.53	4004	0	0	0	0	0.02	0.02979073	1	0	0	0
16019	24	7	-1	0.3077225	-0.02548509	0.01467267	0	12.53	4003	0	0	0	0	0.02	0.02744223	1	0	0	0
16108	24	0	-2	0.3049545	-0.0278502	0.01601793	0	12.53	4006	0	0	0	0	0.02	0.02056789	1	0	0	0
16213	20	1	0	0.2957209	-0.02613956	0.01601789	0	12.53	4002	0	0	0	0	0.02	0.0141344	1	0	0	0
16353	29	7	0	0.2986508	-0.02794509	0.01785218	0	12.53	4002	0	0	0	0	0.02	0.01191563	1	0	0	0
16472	22	-1	1	0.3008696	-0.02877466	0.01944195	0	12.48	4004	0	0	0	0	0.02	0.003968802	1	0	0	0
16528	22	4	-1	0.297684	-0.03261655	0.01895275	0	12.48	4003	0	0	0	0	0.02	0.00186026	1	0	0	0
16643	18	-2	0	0.3056662	-0.02917096	0.02164299	0	12.48	4004	0	0	0	0	0.02	0.007737573	1	0	0	0
16726	25	-2	-2	0.3034353	-0.03118895	0.02249898	0	12.48	4002	0	0	0	0	0.02	0.009215241	1	0	0	0
16848	26	-4	-3	0.3059039	-0.03391738	0.02537246	0	12.48	4003	0	0	0	0	0.02	0.001327419	1	0	0	0
16948	16	0	1	0.3117957	-0.02962709	0.02671767	0	12.48	4002	0	0	0	0	0.02	-0.000135472	1	0	0	0
17096	23	1	-2	0.3161016	-0.03142438	0.02849086	0	12.48	4003	0	0	0	0	0.02	0.00936056	1	0	0	0
17156	29	1	-1	0.3198853	-0.03390703	0.02940813	0	12.48	4003	0	0	0	0	0.02	0.01542079	1	0	0	0
17276	32	0	-1	0.3226543	-0.03110528	0.03240403	0	12.48	4003	0	0	0	0	0.02	0.02413591	1	0	0	0
17407	33	-5	-1	0.3329357	-0.03089357	0.03594991	0	12.53	4003	0	0	0	0	0.02	0.03688415	1	0	0	0
17462	28	4	-1	0.3370412	-0.03681855	0.03650018	0	12.53	4003	0	0	0	0	0.02	0.04109599	1	0	0	0
17524	18	-2	-1	0.3282611	-0.03734506	0.03723394	0	12.53	4002	0	0	0	0	0.02	0.04032496	1	0	0	0
17625	24	1	-4	0.3274755	-0.03509353	0.03778428	0	12.53	4004	0	0	0	0	0.02	0.04011696	1	0	0	0
17744	32	-6	2	0.3308069	-0.03088065	0.038946	0	12.53	4002	0	0	0	0	0.02	0.04338625	1	0	0	0
17841	25	-3	-1	0.3321197	-0.02761319	0.04041329	0	12.53	4003	0	0	0	0	0.02	0.04697587	1	0	0	0
17956	31	0	-1	0.3363435	-0.02984946	0.04169696	0	12.53	4004	0	0	0	0	0.02	0.04405141	1	0	0	0
18061	32	-1	0	0.3341589	-0.03354048	0.04365344	0	12.53	4004	0	0	0	0	0.02	0.03753655	1	0	0	0
18137	38	-4	-3	0.3365741	-0.0325505	0.04499853	0	12.53	4003	0	0	0	0	0.02	0.04046454	1	0	0	0
18232	23	8	0	0.3434187	-0.03333761	0.04756603	0	12.53	4003	0	0	0	0	0.02	0.0471024	1	0	0	0
18356	25	0	-2	0.3412296	-0.04264319	0.04909424	0	12.53	4002	0	0	0	0	0.02	0.04956881	1	0	0	0
18453	27	0	0	0.3422138	-0.03737703	0.05147855	0	12.53	4004	0	0	0	0	0.02	0.04687208	1	0	0	0
18537	32	0	0	0.3449918	-0.03984385	0.05410823	0	12.53	4004	0	0	0	0	0.02	0.04697069	1	0	0	0
18642	24	5	0	0.3470102	-0.04542692	0.05520856	0	12.53	4004	0	0	0	0	0.02	0.06642544	1	0	0	0
18792	30	-1	-2	0.3595413	-0.04654728	0.0588161	0	12.53	4003	0	0	0	0	0.02	0.06593314	1	0	0	0
18863	25	1	-1	0.3612346	-0.04455052	0.06040579	0	12.53	4003	0	0	0	0	0.02	0.05513843	1	0	0	0
18948	34	-2	-1	0.3614244	-0.04432356	0.061384	0	12.53	4004	0	0	0	0	0.02	0.0433833	1	0	0	0
19082	25	3	0	0.3689975	-0.04387432	0.06309607	0	12.53	4003	0	0	0	0	0.02	0.03109254	1	0	0	0
19188	36	-7	-1	0.3690977	-0.04539787	0.06529687	0	12.59	4004	0	0	0	0	0.02	0.003173062	1	0	0	0
19248	35	1	1	0.3805043	-0.04466898	0.06645935	0	12.59	4003	0	0	0	0	0.02	-0.00198128	1	0	0	0
19400	22	0	1	0.3795111	-0.04836795	0.0673765	0	12.59	4003	0	0	0	0	0.02	-0.03039656	1	0	0	0
19450	33	-1	-3	0.378811	-0.04511185	0.0682933	0	12.59	4002	0	0	0	0	0.02	-0.0344544	1	0	0	0
19583	22	-2	-1	0.3843312	-0.04670528	0.07177807	0	12.59	4004	0	0	0	0	0.02	-0.03652543	1	0	0	0
19658	40	3	0	0.3893785	-0.04898141	0.0733675	0	12.59	4002	0	0	0	0	0.02	-0.04074279	1	0	0	0
19769	33	-5	0	0.3952485	-0.05549802	0.07446817	0	12.59	4003	0	0	0	0	0.02	-0.03215615	1	0	0	0
19873	26	1	-3	0.3902378	-0.05691494	0.07440718	0	12.59	4003	0	0	0	0	0.02	-0.0283005	1	0	0	0
20023	31	0	-2	0.3909312	-0.06284351	0.07960424	0	12.59	4003	0	0	0	0	0.02	-0.03995573	1	0	0	0
20070	43	-3	4	0.3950908	-0.05912916	0.08003213	0	12.59	4004	0	0	0	0	0.02	-0.042164	1	0	0	0
20176	26	0	0	0.3943121	-0.05773087	0.0814995	0	12.53	4003	0	0	0	0	0.02	-0.04944202	1	0	0	0
20349	35	0	-1	0.3991849	-0.06425427	0.08553437	0	12.53	4004	0	0	0	0	0.02	-0.04364844	1	0	0	0
20396	33	-2	-2	0.4055349	-0.06159599	0.08608453	0	12.53	4003	0	0	0	0	0.02	-0.04358429	1	0	0	0
20499	27	-4	-4	0.4081124	-0.05232019	0.08706261	0	12.53	4002	0	0	0	0	0.02	-0.03671883	1	0	0	0
20584	33	1	-1	0.412825	-0.04500129	0.09121992	0	12.53	4003	0	0	0	0	0.02	-0.03397506	1	0	0	0
20698	34	0	-4	0.41914	-0.04572475	0.09586679	0	12.53	4002	0	0	0	0	0.02	-0.01693491	1	0	0	0
20797	45	-1	-3	0.4314089	-0.04477476	0.09929092	0	12.53	4004	0	0	0	0	0.02	-0.0158971	1	0	0	0
20871	41	0	0	0.4372929	-0.03978191	0.100697	0	12.53	4003	0	0	0	0	0.02	-0.01815326	1	0	0	0
21020	32	-2	-6	0.4280246	-0.04719513	0.1052208	0	12.53	4004	0	0	0	0	0.02	-0.01373621	1	0	0	0
21092	29	-4	-4	0.429061	-0.04960646	0.1077887	0	12.59	4003	0	0	0	0	0.02	-0.01079627	1	0	0	0
21242	44	-5	1	0.4313724	-0.04145743	0.1146361	0	12.59	4002	0	0	0	0	0.02	-0.01062258	1	0	0	0
21333	46	0	0	0.4421711	-0.02974825	0.1161647	0	12.59	4004	0	0	0	0	0.02	-0.01316582	1	0	0	0
21429	34	-2	3	0.4554772	-0.02883071	0.1172039	0	12.59	4003	0	0	0	0	0.02	-0.01156744	1	0	0	0
21520	34	-3	-1	0.4521129	-0.03289383	0.1207499	0	12.59	4004	0	0	0	0	0.02	-0.01071244	1	0	0	0
21595	42	1	-2	0.459835	-0.032401	0.1235623	0	12.59	4004	0	0	0	0	0.02	-0.01739169	1	0	0	0
21692	41	-1	-2	0.4646774	-0.03723424	0.1264966	0	12.59	4004	0	0	0	0	0.02	-0.02490224	1	0	0	0
21800	44	-4	-3	0.4664904	-0.03907897	0.1291254	0	12.59	4004	0	0	0	0	0.02	-0.02813092	1	0	0	0
21895	31	-2	-3	0.4794277	-0.03572224	0.1324881	0	12.59	4003	0	0	0	0	0.02	-0.02381939	1	0	0	0
22113	42	3	-7	0.4914572	-0.05083893	0.1378682	0	12.48	4003	0	0	0	0	0.02	-0.03464941	1	0	0	0
22313	35	5	-2	0.4925235	-0.04340383	0.1430037	0	12.48	4003	0	0	0	0	0.02	-0.05291453	1	0	0	0
22350	46	-4	-7	0.497831	-0.04446594	0.143921	0	12.48	4004	0	0	0	0	0.02	-0.05895366	1	0	0	0
22430	42	0	-2	0.494018	-0.04942919	0.1444707	0	12.48	4003	0	0	0	0	0.02	-0.06557754	1	0	0	0
22514	27	5	6	0.4966228	-0.04780252	0.1463659	0	12.48	4004	0	0	0	0	0.02	-0.07140419	1	0	0	0
22600	39	1	0	0.487328	-0.05586524	0.1465493	0	12.48	4003	0	0	0	0	0.02	-0.07457196	1	0	0	0
22747	43	-8	0	0.4933865	-0.0624599	0.1492395	0	12.48	4003	0	0	0	0	0.02	-0.07075828	1	0	0	0
22868	40	-1	3	0.5072969	-0.06150086	0.1504621	0	12.48	4003	0	0	0	0	0.02	-0.06810618	1	0	0	0
22960	48	-5	0	0.5122108	-0.06433964	0.1523573	0	12.59	4003	0	0	0	0	0.02	-0.05799976	1	0	0	0
23015	41	-1	0	0.515314	-0.05850233	0.1533968	0	12.59	4004	0	0	0	0	0.02	-0.04420299	1	0	0	0
23121	44	2	-2	0.4988803	-0.07391218	0.1566984	0	12.59	4003	0	0	0	0	0.02	-0.03045551	1	0	0	0
23210	36	1	-3	0.5059432	-0.06896555	0.1588385	0	12.59	4002	0	0	0	0	0.02	-0.01485576	1	0	0	0
23315	41	0	0	0.5117724	-0.07781001	0.161773	0	12.59	4003	0	0	0	0	0.02	-0.007149861	1	0	0	0
23418	41	0	-1	0.5182125	-0.08378639	0.1656859	0	12.59	4003	0	0	0	0	0.02	-0.007206416	1	0	0	0
23520	46	1	1	0.5209407	-0.08973743	0.1679482	0	12.59	4004	0	0	0	0	0.02	-0.001785884	1	0	0	0
23661	47	3	-4	0.5141185	-0.08234229	0.1723499	0	12.59	4004	0	0	0	0	0.02	-0.001989814	1	0	0	0
23751	37	1	-2	0.5085787	-0.08501002	0.1739395	0	12.59	4003	0	0	0	0	0.02	-0.006710903	1	0	0	0
23829	46	2	1	0.5134766	-0.08116666	0.1759572	0	12.53	4003	0	0	0	0	0.02	-0.01307622	1	0	0	0
23966	42	-2	2	0.5350462	-0.08500709	0.1804203	0	12.53	4004	0	0	0	0	0.02	-0.01379692	1	0	0	0
24019	36	3	0	0.5344289	-0.08934976	0.1810317	0	12.53	4004	0	0	0	0	0.02	-0.01208077	1	0	0	0
24153	42	-6	-4	0.5406411	-0.0750863	0.1832938	0	12.53	4003	0	0	0	0	0.02	0.001966087	1	0	0	0
24266	34	0	0	0.5627131	-0.05931941	0.1860447	0	12.53	4003	0	0	0	0	0.02	0.001928134	1	0	0	0
24401	46	-5	-3	0.5682089	-0.06381586	0.1903852	0	12.53	4003	0	0	0	0	0.02	-0.001531361	1	0	0	0
24444	36	-1	-4	0.5795971	-0.05674574	0.1938087	0	12.53	4004	0	0	0	0	0.02	-0.002209788	1	0	0	0
24514	39	0	-2	0.5653408	-0.05854444	0.1979669	0	12.53	4004	0	0	0	0	0.02	-0.005685227	1	0	0	0
24625	46	0	0	0.5588813	-0.05384656	0.2017577	0	12.53	4003	0	0	0	0	0.02	-0.01615025	1	0	0	0
24722	36	0	-6	0.5556512	-0.05206447	0.2056103	0	12.53	4003	0	0	0	0	0.02	-0.0250336	1	0	0	0
24825	40	-4	2	0.5556697	-0.04555371	0.2092784	0	12.53	4003	0	0	0	0	0.02	-0.02702722	1	0	0	0
24959	45	-2	-5	0.5578218	-0.05303814	0.2122742	0	12.53	4003	0	0	0	0	0.02	-0.02060821	1	0	0	0
25053	43	-2	-4	0.5646681	-0.05863567	0.2164928	0	12.53	4004	0	0	0	0	0.02	-0.01955511	1	0	0	0
25139	40	-1	-5	0.5647084	-0.06610203	0.2197334	0	12.53	4004	0	0	0	0	0.02	-0.02987707	1	0	0	0
25241	43	-6	-3	0.5665987	-0.08441455	0.222913	0	12.53	4003	0	0	0	0	0.02	-0.0234478	1	0	0	0
25334	34	-5	0	0.5634285	-0.08584131	0.2281096	0	12.53	4003	0	0	0	0	0.02	-0.01967189	1	0	0	0
25451	46	-4	-1	0.5608194	-0.08933959	0.2314724	0	12.53	4002	0	0	0	0	0.02	-0.02100429	1	0	0	0
25511	38	-1	-4	0.5622924	-0.08849403	0.2331231	0	12.53	4003	0	0	0	0	0.02	-0.02436912	1	0	0	0
25640	41	0	-2	0.5649499	-0.09306807	0.2374028	0	12.53	4003	0	0	0	0	0.02	-0.02154248	1	0	0	0
25833	46	-1	0	0.5848575	-0.07513896	0.2461457	0	12.53	4004	0	0	0	0	0.02	-0.0324223	1	15	0	1200
25932	52	7	-5	0.5681477	-0.07420109	0.2542772	0	12.53	4002	0	0	0	0	0.02	-0.04244841	1	15	0	1200
26012	41	-3	-2	0.5718822	-0.07497434	0.2571507	0	12.53	4003	0	0	0	0	0.02	-0.0381234	1	15	0	1200
26148	44	-6	-3	0.5718396	-0.07444705	0.2621633	0	12.53	4004	0	0	0	0	0.02	-0.02606522	1	15	0	1200
26311	38	5	-1	0.5722624	-0.07904912	0.269806	0	12.53	4004	0	0	0	0	0.02	-0.006936489	1	15	0	1200
26415	53	-9	-5	0.5733399	-0.07370348	0.2753693	0	12.53	4002	0	0	0	0	0.02	0.008082099	1	15	0	1200
26509	48	3	0	0.5688794	-0.07547088	0.2798935	0	12.53	4004	0	0	0	0	0.02	0.005285326	1	15	0	1200
26602	46	-2	1	0.5741464	-0.0723111	0.2812383	0	12.53	4003	0	0	0	0	0.02	0.0006171021	1	15	0	1200
26746	45	0	-5	0.5715826	-0.07800788	0.284784	0	12.53	4003	0	0	0	0	0.02	-0.005978916	1	15	0	1200
26840	38	0	0	0.5794961	-0.08029816	0.2881473	0	12.53	4002	0	0	0	0	0.02	-0.01999668	1	15	0	1200
26901	48	2	-1	0.5899644	-0.08104251	0.2902871	0	12.53	4003	0	0	0	0	0.02	-0.03246584	1	15	0	1200
27009	42	0	-6	0.5991431	-0.07902532	0.2960337	0	12.53	4002	0	0	0	0	0.02	-0.04622689	1	15	0	1200
27096	54	-6	0	0.5970052	-0.07681093	0.297379	0	12.53	4003	0	0	0	0	0.02	-0.05055462	1	15	0	1200
27229	54	-6	0	0.5970052	-0.07681093	0.297379	0	12.53	4003	0	0	0	0	0.02	-0.05055462	1	15	0	1200
27330	54	-6	0	0.5970052	-0.07681093	0.297379	0	12.53	4003	0	0	0	0	0.02	-0.05055462	1	15	0	1200
27403	54	-6	0	0.5970052	-0.07681093	0.297379	0	12.53	4003	0	0	0	0	0.02	-0.05055462	1	15	0	1200
27505	54	-6	0	0.5970052	-0.07681093	0.297379	0	12.53	4003	0	0	0	0	0.02	-0.05055462	1	15	0	1200
27666	54	-6	0	0.5970052	-0.07681093	0.297379	0	12.53	4003	0	0	0	0	0.02	-0.05055462	1	15	0	1200
27825	54	-6	0	0.5970052	-0.07681093	0.297379	0	12.53	4003	0	0	0	0	0.02	-0.05055462	1	15	0	1200
27914	54	-6	0	0.5970052	-0.07681093	0.297379	0	12.53	4003	0	0	0	0	0.02	-0.05055462	1	15	0	1200
28011	54	-6	0	0.5970052	-0.07681093	0.297379	0	12.53	4003	0	0	0	0	0.02	-0.05055462	1	15	0	1200
28132	54	-6	0	0.5970052	-0.07681093	0.297379	0	12.53	4003	0	0	0	0	0.02	-0.05055462	1	15	0	1200
28259	54	-6	0	0.5970052	-0.07681093	0.297379	0	12.53	4003	0	0	0	0	0.02	-0.05055462	1	15	0	1200
28310	54	-6	0	0.5970052	-0.07681093	0.297379	0	12.53	4003	0	0	0	0	0.02	-0.05055462	1	15	0	1200
28415	54	-6	0	0.5970052	-0.07681093	0.297379	0	12.65	4003	0	0	0	0	0.02	-0.05055462	1	15	0	1200
28519	54	-6	0	0.5970052	-0.07681093	0.297379	0	12.65	4003	0	0	0	0	0.02	-0.05055462	1	15	0	1200
28665	54	-6	0	0.5970052	-0.07681093	0.297379	0	12.65	4003	0	0	0	0	0.02	-0.05055462	1	15	0	1200
28756	54	-6	0	0.5970052	-0.07681093	0.297379	0	12.65	4003	0	0	0	0	0.02	-0.05055462	1	15	0	1200
28805	54	-6	0	0.5970052	-0.07681093	0.297379	0	12.65	4003	0	0	0	0	0.02	-0.05055462	1	15	0	1200
28946	54	-6	0	0.5970052	-0.07681093	0.297379	0	12.65	4003	0	0	0	0	0.02	-0.05055462	1	15	0	1200
29011	54	-6	0	0.5970052	-0.07681093	0.297379	0	12.65	4003	0	0	0	0	0.02	-0.05055462	1	15	0	1200
29113	54	-6	0	0.5970052	-0.07681093	0.297379	0	12.65	4003	0	0	0	0	0.02	-0.05055462	1	15	0	1200
29259	54	-6	0	0.5970052	-0.07681093	0.297379	0	12.65	4003	0	0	0	0	0.02	-0.05055462	1	15	0	1200
29309	54	-6	0	0.5970052	-0.07681093	0.297379	0	12.59	4003	0	0	0	0	0.02	-0.05055462	1	15	0	1200
29441	54	-6	0	0.5970052	-0.07681093	0.297379	0	12.59	4003	0	0	0	0	0.02	-0.05055462	1	15	0	1200
29515	54	-6	0	0.5970052	-0.07681093	0.297379	0	12.59	4003	0	0	0	0	0.02	-0.05055462	1	15	0	1200
29619	54	-6	0	0.5970052	-0.07681093	0.297379	0	12.59	4003	0	0	0	0	0.02	-0.05055462	1	15	0	1200
29729	54	-6	0	0.5970052	-0.07681093	0.297379	0	12.59	4003	0	0	0	0	0.02	-0.05055462	1	15	0	1200
29822	54	-6	0	0.5970052	-0.07681093	0.297379	0	12.59	4003	0	0	0	0	0.02	-0.05055462	1	15	0	1200
29965	54	-6	0	0.5970052	-0.07681093	0.297379	0	12.59	4003	0	0	0	0	0.02	-0.05055462	1	15	0	1200
30028	54	-6	0	0.5970052	-0.07681093	0.297379	0	12.59	4003	0	0	0	0	0.02	-0.05055462	1	15	0	1200
30161	54	-6	0	0.5970052	-0.07681093	0.297379	0	12.59	4003	0	0	0	0	0.02	-0.05055462	1	15	0	1200
30249	54	-6	0	0.5970052	-0.07681093	0.297379	0	12.59	4003	0	0	0	0	0.02	-0.05055462	1	15	0	1200
30342	54	-6	0	0.5970052	-0.07681093	0.297379	0	12.48	4003	0	0	0	0	0.02	-0.05055462	1	15	0	1200
30443	54	-6	0	0.5970052	-0.07681093	0.297379	0	12.48	4003	0	0	0	0	0.02	-0.05055462	1	15	0	1200
30592	54	-6	0	0.5970052	-0.07681093	0.297379	0	12.48	4003	0	0	0	0	0.02	-0.05055462	1	15	0	1200
30690	54	-6	0	0.5970052	-0.07681093	0.297379	0	12.48	4003	0	0	0	0	0.02	-0.05055462	1	15	0	1200
30765	54	-6	0	0.5970052	-0.07681093	0.297379	0	12.48	4003	0	0	0	0	0.02	-0.05055462	1	15	0	1200
30838	54	-6	0	0.5970052	-0.07681093	0.297379	0	12.48	4003	0	0	0	0	0.02	-0.05055462	1	15	0	1200
30939	54	-6	0	0.5970052	-0.07681093	0.297379	0	12.48	4003	0	0	0	0	0.02	-0.05055462	1	15	0	1200
31040	54	-6	0	0.5970052	-0.07681093	0.297379	0	12.48	4003	0	0	0	0	0.02	-0.05055462	1	15	0	1200
