time(ms)	gyro_x(deg/s)	gyro_y(deg/s)	gyro_z(deg/s)	orientation_roll(deg)	orientation_pitch(deg)	orientation_yaw(deg)	throttle	battery(V)	loop_time(uS)	pid_output_roll	pid_output_pitch	pid_output_yaw	pid_output_throttle	ultrasonic_alt	baro_alt	flight_mode	p_gain_altitude	i_gain_altitude	d_gain_altitude
544407	-2159	-5613	-3084	-4.467656	-21.50777	-8.609681	0	11.51	4003	0	0	0	0	0.02	0.1437008	1	5	0.001	0
544612	550	-13	-3540	-1.417862	-11.39763	5.777948	0	11.51	4002	0	0	0	0	0.02	0.1423589	1	5	0.001	0
544787	-453	-486	-1634	-1.353931	-3.649295	11.70321	0	11.51	4002	0	0	0	0	0.02	0.135749	1	5	0.001	0
544880	-303	-55	-3221	-1.526462	-3.521133	14.71338	0	11.51	4004	0	0	0	0	0.02	0.1382415	1	5	0.001	0
544977	-812	225	-3807	-1.464067	-3.508289	23.02859	0	11.51	4004	0	0	0	0	0.02	0.147763	1	5	0.001	0
545057	174	-99	-1215	-1.810764	-2.215749	27.07695	0	11.51	4002	0	0	0	0	0.02	0.1606639	1	5	0.001	0
545113	-9	-9	-31	-1.900824	-1.850818	27.55226	0	11.51	4002	0	0	0	0	0.02	0.1614285	1	5	0.001	0
545306	15	21	-18	-1.504702	-1.451068	27.55574	0	11.51	4002	0	0	0	0	0.02	0.1619429	1	5	0.001	0
545451	13	-8	-5	-1.305701	-1.221167	27.54652	0	11.51	4004	0	0	0	0	0.02	0.1676704	1	5	0.001	0
545556	-10	-1	7	-1.179748	-1.076172	27.5426	0	11.51	4003	0	0	0	0	0.02	0.166249	1	5	0.001	0
545658	4	-3	0	-1.066694	-0.9499436	27.53845	0	11.51	4002	0	0	0	0	0.02	0.1697333	1	5	0.001	0
545744	-5	1	7	-0.968453	-0.8442578	27.53222	0	11.51	4002	0	0	0	0	0.02	0.1683827	1	5	0.001	0
545859	1	-3	4	-0.8582663	-0.7278498	27.52618	0	11.51	4003	0	0	0	0	0.02	0.1626109	1	5	0.001	0
545892	0	0	1	-0.8329119	-0.6952116	27.52435	0	11.51	4004	0	0	0	0	0.02	0.1568206	1	5	0.001	0
546058	-1	-2	3	-0.7158923	-0.5770562	27.51745	0	11.63	4003	0	0	0	0	0.02	0.1472167	1	5	0.001	0
546091	1	1	4	-0.694828	-0.55549	27.51543	0	11.63	4004	0	0	0	0	0.02	0.1472625	1	5	0.001	0
546177	1	-3	1	-0.6580573	-0.5180653	27.5133	0	11.63	4002	0	0	0	0	0.02	0.1439067	1	5	0.001	0
546419	1	-7	1	-0.5560331	-0.402843	27.50194	0	11.63	4004	0	0	0	0	0.02	0.15428	1	5	0.001	0
546581	-2	3	3	-0.5030391	-0.3377103	27.4962	0	11.63	4004	0	0	0	0	0.02	0.1578947	1	5	0.001	0
546648	5	-1	6	-0.4841788	-0.3182985	27.49138	0	11.63	4004	0	0	0	0	0.02	0.1618205	1	5	0.001	0
546768	2	1	2	-0.4548031	-0.2827046	27.48693	0	11.63	4004	0	0	0	0	0.02	0.1601878	1	5	0.001	0
546786	2	1	2	-0.4548031	-0.2827046	27.48693	0	11.63	4004	0	0	0	0	0.02	0.1534245	1	5	0.001	0
546875	13	-1	-3	-0.4262385	-0.2582369	27.48406	0	11.63	4003	0	0	0	0	0.02	0.1500599	1	5	0.001	0
546975	2	6	0	-0.3959598	-0.2225281	27.47813	0	11.57	4003	0	0	0	0	0.02	0.1428325	1	5	0.001	0
547083	-2	-1	3	-0.3755597	-0.2006281	27.47691	0	11.57	4002	0	0	0	0	0.02	0.1366092	1	5	0.001	0
547251	6	-6	5	-0.3550127	-0.1812324	27.47276	0	11.57	4003	0	0	0	0	0.02	0.1448093	1	5	0.001	0
547334	6	3	3	-0.3374018	-0.1763988	27.46721	0	11.57	4004	0	0	0	0	0.02	0.1485047	1	5	0.001	0
547387	-1	-11	2	-0.3337925	-0.1745935	27.46526	0	11.57	4003	0	0	0	0	0.02	0.1491775	1	5	0.001	0
547582	4	-3	4	-0.309111	-0.1461582	27.46098	0	11.57	4002	0	0	0	0	0.02	0.1455154	1	5	0.001	0
547633	-4	-16	0	-0.3052883	-0.1409644	27.45909	0	11.57	4004	0	0	0	0	0.02	0.1392373	1	5	0.001	0
547761	8	-4	-3	-0.2931688	-0.1301867	27.45494	0	11.57	4002	0	0	0	0	0.02	0.1265519	1	5	0.001	0
547821	7	3	1	-0.2844808	-0.1268998	27.4547	0	11.57	4004	0	0	0	0	0.02	0.1254671	1	5	0.001	0
547891	1	-5	5	-0.2869039	-0.1197649	27.45311	0	11.63	4004	0	0	0	0	0.02	0.1252617	1	5	0.001	0
548021	2	-1	1	-0.2887056	-0.1115939	27.44957	0	11.63	4004	0	0	0	0	0.02	0.1265459	1	5	0.001	0
548132	-2	-6	3	-0.2849795	-0.1093549	27.44743	0	11.63	4004	0	0	0	0	0.02	0.1274088	1	5	0.001	0
548207	16	-5	0	-0.2831919	-0.1076457	27.4467	0	11.63	4004	0	0	0	0	0.02	0.1247691	1	5	0.001	0
548300	20	-5	3	-0.2778281	-0.1098222	27.44511	0	11.63	4004	0	0	0	0	0.02	0.1261285	1	5	0.001	0
548450	7	0	6	-0.2730823	-0.1045547	27.44255	0	11.63	4004	0	0	0	0	0.02	0.1223959	1	5	0.001	0
548556	4	0	1	-0.2786151	-0.1012523	27.4409	0	11.63	4002	0	0	0	0	0.02	0.1225413	1	5	0.001	0
548601	8	2	1	-0.2719061	-0.1021181	27.43773	0	11.63	4004	0	0	0	0	0.02	0.1207467	1	5	0.001	0
548727	-5	4	0	-0.2765142	-0.1028733	27.43596	0	11.63	4004	0	0	0	0	0.02	0.126156	1	5	0.001	0
548864	15	-1	1	-0.2653017	-0.105867	27.43064	0	11.63	4004	0	0	0	0	0.02	0.1444155	1	5	0.001	0
548927	-4	-2	1	-0.2610712	-0.1018308	27.42894	0	11.63	4003	0	0	0	0	0.02	0.1507592	1	5	0.001	0
549017	11	-4	4	-0.2684082	-0.0945909	27.42607	0	11.63	4004	0	0	0	0	0.02	0.1564916	1	5	0.001	0
549209	5	2	1	-0.250572	-0.09029175	27.41923	0	11.63	4004	0	0	0	0	0.02	0.1761694	1	5	0.001	0
549244	6	2	5	-0.2502689	-0.09178642	27.41844	0	11.63	4002	0	0	0	0	0.02	0.176888	1	5	0.001	0
549353	7	-8	-1	-0.2440558	-0.0928819	27.41514	0	11.63	4003	0	0	0	0	0.02	0.183161	1	5	0.001	0
549418	3	2	2	-0.2407293	-0.09399439	27.41392	0	11.63	4003	0	0	0	0	0.02	0.1869428	1	5	0.001	0
549514	4	-2	-1	-0.242799	-0.09861986	27.4138	0	11.63	4003	0	0	0	0	0.02	0.1885752	1	5	0.001	0
549665	6	-8	0	-0.2427266	-0.09668576	27.40977	0	11.63	4003	0	0	0	0	0.02	0.1931278	1	5	0.001	0
549737	4	-4	2	-0.2369898	-0.09435716	27.40775	0	11.63	4003	0	0	0	0	0.02	0.196038	1	5	0.001	0
549806	11	-1	1	-0.2394892	-0.100354	27.40708	0	11.63	4003	0	0	0	0	0.02	0.1944121	1	5	0.001	0
549976	2	3	0	-0.2400419	-0.091145	27.40379	0	11.63	4003	0	0	0	0	0.02	0.1978155	1	5	0.001	0
550066	5	-4	-1	-0.2443042	-0.09070403	27.40079	0	11.63	4004	0	0	0	0	0.02	0.2033068	1	5	0.001	0
550115	0	-4	0	-0.2360489	-0.09004931	27.40079	0	11.63	4002	0	0	0	0	0.02	0.2037371	1	5	0.001	0
550293	3	-3	0	-0.2292447	-0.09945482	27.39829	0	11.63	4010	0	0	0	0	0.02	0.1904064	1	5	0.001	0
550367	6	0	0	-0.2276241	-0.09952877	27.39603	0	11.63	4002	0	0	0	0	0.02	0.1809732	1	5	0.001	0
550495	2	6	-2	-0.2239187	-0.101756	27.39176	0	11.63	4003	0	0	0	0	0.02	0.184206	1	5	0.001	0
550672	5	-3	-3	-0.2269589	-0.1037856	27.3931	0	11.57	4002	0	0	0	0	0.02	0.1725116	1	5	0.001	0
550796	5	-3	4	-0.2282161	-0.1051564	27.38981	0	11.57	4003	0	0	0	0	0.02	0.1742857	1	5	0.001	0
550929	7	0	0	-0.2247646	-0.1048335	27.38633	0	11.57	4004	0	0	0	0	0.02	0.1802143	1	5	0.001	0
550995	12	-8	0	-0.226375	-0.1024214	27.38663	0	11.57	4002	0	0	0	0	0.02	0.1813959	1	5	0.001	0
551099	7	-1	-2	-0.2237725	-0.0951038	27.38565	0	11.57	4002	0	0	0	0	0.02	0.1780365	1	5	0.001	0
551196	2	-4	0	-0.2179265	-0.101167	27.3837	0	11.57	4003	0	0	0	0	0.02	0.1692473	1	5	0.001	0
551311	9	-6	-3	-0.2039357	-0.1068845	27.38169	0	11.57	4003	0	0	0	0	0.02	0.1583934	1	5	0.001	0
551493	8	1	3	-0.2094854	-0.1071645	27.37522	0	11.57	4004	0	0	0	0	0.02	0.1467995	1	5	0.001	0
551535	6	-6	3	-0.2132622	-0.1053514	27.37198	0	11.74	4004	0	0	0	0	0.02	0.1463148	1	5	0.001	0
551641	13	2	1	-0.2167247	-0.101829	27.36838	0	11.74	4003	0	0	0	0	0.02	0.1538982	1	5	0.001	0
551718	16	-1	1	-0.2181676	-0.1036694	27.36826	0	11.74	4002	0	0	0	0	0.02	0.1575881	1	5	0.001	0
551828	8	-2	3	-0.2187812	-0.1104131	27.36416	0	11.74	4003	0	0	0	0	0.02	0.1627547	1	5	0.001	0
551901	6	0	1	-0.2171496	-0.1095732	27.36184	0	11.74	4003	0	0	0	0	0.02	0.1653785	1	5	0.001	0
552088	-2	-1	1	-0.2053997	-0.1085194	27.35916	0	11.74	4002	0	0	0	0	0.02	0.1825191	1	5	0.001	0
552148	11	1	5	-0.2024354	-0.1041976	27.35855	0	11.74	4004	0	0	0	0	0.02	0.1928355	1	5	0.001	0
552249	10	0	0	-0.1959023	-0.1089541	27.3583	0	11.74	4002	0	0	0	0	0.02	0.2054923	1	5	0.001	0
552363	3	0	4	-0.1972194	-0.1062528	27.35818	0	11.74	4004	0	0	0	0	0.02	0.2031804	1	5	0.001	0
552438	14	1	-1	-0.1931055	-0.1045973	27.35739	0	11.68	4004	0	0	0	0	0.02	0.201108	1	5	0.001	0
552530	5	1	-2	-0.1943024	-0.09729535	27.35556	0	11.68	4003	0	0	0	0	0.02	0.2019911	1	5	0.001	0
552623	7	-2	-1	-0.1901668	-0.1013997	27.35592	0	11.68	4003	0	0	0	0	0.02	0.1916836	1	5	0.001	0
552687	9	-5	0	-0.1912211	-0.1011683	27.35403	0	11.68	4003	0	0	0	0	0.02	0.1870914	1	5	0.001	0
552783	5	-5	-2	-0.2011005	-0.11153	27.35391	0	11.68	4002	0	0	0	0	0.02	0.1835065	1	5	0.001	0
552948	6	-16	-1	-0.2049688	-0.1125287	27.35263	0	11.68	4003	0	0	0	0	0.02	0.1917949	1	5	0.001	0
552983	15	-7	1	-0.1990612	-0.1110034	27.35238	0	11.68	4004	0	0	0	0	0.02	0.1920347	1	5	0.001	0
553086	17	-4	0	-0.1929556	-0.1085602	27.35257	0	11.68	4003	0	0	0	0	0.02	0.1918875	1	5	0.001	0
553205	0	2	4	-0.2015314	-0.1088578	27.35037	0	11.68	4003	0	0	0	0	0.02	0.1842104	1	5	0.001	0
553299	7	1	4	-0.2058898	-0.1067612	27.34707	0	11.68	4003	0	0	0	0	0.02	0.181141	1	5	0.001	0
553400	9	0	3	-0.2104742	-0.1068918	27.34457	0	11.63	4003	0	0	0	0	0.02	0.1817554	1	5	0.001	0
553509	13	3	0	-0.2070509	-0.1006277	27.3425	0	11.63	4004	0	0	0	0	0.02	0.1760413	1	5	0.001	0
553742	8	15	4	-0.1945435	-0.1038149	27.33749	0	11.63	4002	0	0	0	0	0.02	0.1501051	1	5	0.001	0
553837	2	4	-2	-0.1909171	-0.1017024	27.33566	0	11.63	4004	0	0	0	0	0.02	0.1344305	1	5	0.001	0
553928	3	5	4	-0.1929252	-0.1026376	27.33383	0	11.63	4002	0	0	0	0	0.02	0.1220341	1	5	0.001	0
554063	12	-12	0	-0.1963051	-0.1001752	27.33169	0	11.63	4002	0	0	0	0	0.02	0.1121417	1	5	0.001	0
554122	13	2	3	-0.1950868	-0.09679345	27.32974	0	11.63	4004	0	0	0	0	0.02	0.1115138	1	5	0.001	0
554202	8	7	0	-0.1878849	-0.1067258	27.33053	0	11.63	4003	0	0	0	0	0.02	0.1071754	1	5	0.001	0
554406	11	-4	2	-0.1706812	-0.1103376	27.32889	0	11.63	4003	0	0	0	0	0.02	0.1066901	1	5	0.001	0
554487	15	-7	3	-0.1679026	-0.1106066	27.3276	0	11.63	4004	0	0	0	0	0.02	0.1133927	1	5	0.001	0
554586	14	-4	0	-0.163324	-0.1068208	27.324	0	11.63	4003	0	0	0	0	0.02	0.118815	1	5	0.001	0
554629	6	0	4	-0.1623841	-0.1089795	27.32193	0	11.63	4002	0	0	0	0	0.02	0.120935	1	5	0.001	0
554685	7	2	-1	-0.1630567	-0.1086147	27.32046	0	11.63	4003	0	0	0	0	0.02	0.1196437	1	5	0.001	0
554794	15	-3	0	-0.1647539	-0.1059801	27.31912	0	11.63	4003	0	0	0	0	0.02	0.1085871	1	5	0.001	0
554959	10	0	-1	-0.1485408	-0.1020763	27.31772	0	11.63	4003	0	0	0	0	0.02	0.1060722	1	5	0.001	0
555015	7	-7	2	-0.1454363	-0.1001864	27.31869	0	11.63	4005	0	0	0	0	0.02	0.10499	1	5	0.001	0
555083	16	-1	-3	-0.1470493	-0.09902768	27.31943	0	11.63	4002	0	0	0	0	0.02	0.1027329	1	5	0.001	0
555254	7	0	1	-0.1443986	-0.1031627	27.3182	0	11.68	4003	0	0	0	0	0.02	0.1072797	1	5	0.001	0
555303	9	-9	7	-0.1422845	-0.1022057	27.31656	0	11.68	4003	0	0	0	0	0.02	0.113396	1	5	0.001	0
555424	14	-6	1	-0.13459	-0.0991661	27.31662	0	11.68	4003	0	0	0	0	0.02	0.1261916	1	5	0.001	0
555495	15	-1	2	-0.1367025	-0.09913738	27.31601	0	11.68	4002	0	0	0	0	0.02	0.1278743	1	5	0.001	0
555625	10	-2	4	-0.1292908	-0.1018513	27.31466	0	11.68	4003	0	0	0	0	0.02	0.1433951	1	5	0.001	0
555704	14	-3	-1	-0.1323526	-0.1010367	27.31387	0	11.68	4003	0	0	0	0	0.02	0.1494951	1	5	0.001	0
555799	10	-2	3	-0.1317573	-0.09856478	27.31351	0	11.68	4004	0	0	0	0	0.02	0.148004	1	5	0.001	0
555951	24	-4	-1	-0.1322177	-0.1054871	27.31198	0	11.68	4002	0	0	0	0	0.02	0.1400936	1	5	0.001	0
556001	14	0	6	-0.1334282	-0.104286	27.31137	0	11.68	4002	0	0	0	0	0.02	0.1379649	1	5	0.001	0
556104	10	1	0	-0.1306274	-0.1034574	27.30917	0	11.63	4004	0	0	0	0	0.02	0.1369403	1	5	0.001	0
556257	16	2	-1	-0.1300533	-0.09732064	27.31082	0	11.63	4002	0	0	0	0	0.02	0.1402398	1	5	0.001	0
556338	10	1	-1	-0.1289601	-0.096829	27.31064	0	11.63	4003	0	0	0	0	0.02	0.1415577	1	5	0.001	0
556409	15	6	0	-0.1355686	-0.09718502	27.31131	0	11.63	4002	0	0	0	0	0.02	0.1436864	1	5	0.001	0
556493	17	-3	-1	-0.1340121	-0.0973954	27.31222	0	11.63	4002	0	0	0	0	0.02	0.1452453	1	5	0.001	0
556613	8	-3	-1	-0.1242786	-0.09385992	27.31277	0	11.63	4002	0	0	0	0	0.02	0.1570908	1	5	0.001	0
556741	19	0	-2	-0.1234813	-0.09245934	27.31149	0	11.63	4003	0	0	0	0	0.02	0.176128	1	5	0.001	0
556802	16	-3	1	-0.1241023	-0.09634544	27.31088	0	11.63	4003	0	0	0	0	0.02	0.1799438	1	5	0.001	0
556890	8	0	0	-0.1290044	-0.09170708	27.31015	0	11.63	4003	0	0	0	0	0.02	0.187854	1	5	0.001	0
556997	18	-6	-1	-0.1341625	-0.09087319	27.30697	0	11.63	4002	0	0	0	0	0.02	0.2026015	1	5	0.001	0
557108	19	2	-1	-0.1243847	-0.0860392	27.30844	0	11.63	4003	0	0	0	0	0.02	0.2061909	1	5	0.001	0
557201	16	-9	0	-0.1255876	-0.08762296	27.30765	0	11.63	4002	0	0	0	0	0.02	0.2137592	1	5	0.001	0
557394	7	8	-1	-0.1200369	-0.08902535	27.30722	0	11.63	4003	0	0	0	0	0.02	0.2117837	1	5	0.001	0
557445	15	-1	1	-0.1206508	-0.09140766	27.30642	0	11.63	4003	0	0	0	0	0.02	0.2071828	1	5	0.001	0
557532	13	0	0	-0.1281208	-0.09982216	27.30758	0	11.63	4004	0	0	0	0	0.02	0.2038286	1	5	0.001	0
557613	20	1	-2	-0.1279125	-0.1050221	27.30795	0	11.63	4002	0	0	0	0	0.02	0.2068587	1	5	0.001	0
557758	12	5	2	-0.1208493	-0.1023008	27.30593	0	11.63	4003	0	0	0	0	0.02	0.2197091	1	5	0.001	0
557812	12	-1	0	-0.119851	-0.09971784	27.30502	0	11.63	4003	0	0	0	0	0.02	0.2195166	1	5	0.001	0
557891	11	0	-1	-0.1252485	-0.09823102	27.30514	0	11.63	4003	0	0	0	0	0.02	0.2156861	1	5	0.001	0
557981	21	0	1	-0.1273034	-0.1011342	27.30526	0	11.63	4004	0	0	0	0	0.02	0.2123639	1	5	0.001	0
558108	8	3	0	-0.1187978	-0.1060252	27.3049	0	11.63	4002	0	0	0	0	0.02	0.205503	1	5	0.001	0
558233	14	2	1	-0.1188458	-0.1032679	27.30526	0	11.63	4003	0	0	0	0	0.02	0.2075088	1	5	0.001	0
558299	33	1	3	-0.1133607	-0.102918	27.30435	0	11.63	4003	0	0	0	0	0.02	0.2064196	1	5	0.001	0
558412	11	-6	3	-0.1090853	-0.09971475	27.30484	0	11.63	4003	0	0	0	0	0.02	0.1985451	1	5	0.001	0
558534	25	-5	-6	-0.1011862	-0.1029601	27.30417	0	11.63	4003	0	0	0	0	0.02	0.1872159	1	5	0.001	0
558597	15	0	0	-0.09909177	-0.1019884	27.30527	0	11.63	4004	0	0	0	0	0.02	0.1876967	1	5	0.001	0
558731	14	-2	-5	-0.09817771	-0.1051277	27.30496	0	11.63	4004	0	0	0	0	0.02	0.1863051	1	5	0.001	0
558849	19	-5	0	-0.08982528	-0.1018031	27.30765	0	11.63	4003	0	0	0	0	0.02	0.191237	1	5	0.001	0
558929	13	0	0	-0.0889027	-0.1044066	27.30685	0	11.68	4002	0	0	0	0	0.02	0.1993282	1	5	0.001	0
559001	5	3	4	-0.09171569	-0.1068073	27.30716	0	11.68	4003	0	0	0	0	0.02	0.1968524	1	5	0.001	0
559111	17	5	-4	-0.09748963	-0.1082548	27.30801	0	11.68	4003	0	0	0	0	0.02	0.1902112	1	5	0.001	0
559207	20	-6	6	-0.09531663	-0.1111544	27.30667	0	11.68	4004	0	0	0	0	0.02	0.1804624	1	5	0.001	0
559339	27	-3	3	-0.09280238	-0.1159305	27.30685	0	11.68	4004	0	0	0	0	0.02	0.1676203	1	5	0.001	0
559449	12	-5	2	-0.08554912	-0.1176038	27.30606	0	11.68	4003	0	0	0	0	0.02	0.1596784	1	5	0.001	0
559504	20	3	3	-0.08312967	-0.1207285	27.30575	0	11.68	4004	0	0	0	0	0.02	0.158652	1	5	0.001	0
559616	21	2	0	-0.07684594	-0.1216351	27.3052	0	11.68	4002	0	0	0	0	0.02	0.1396954	1	5	0.001	0
559695	14	-2	1	-0.07571546	-0.1195143	27.30465	0	11.68	4002	0	0	0	0	0.02	0.1292797	1	5	0.001	0
559858	26	-3	-3	-0.06576369	-0.1209291	27.30569	0	11.63	4004	0	0	0	0	0.02	0.1166364	1	5	0.001	0
559920	18	-3	2	-0.06629842	-0.1171311	27.30465	0	11.63	4003	0	0	0	0	0.02	0.1143548	1	5	0.001	0
560138	21	8	1	-0.07168747	-0.1202099	27.30398	0	11.63	4002	0	0	0	0	0.02	0.09458421	1	5	0.001	0
560289	15	2	0	-0.07585666	-0.1186523	27.30581	0	11.63	4002	0	0	0	0	0.02	0.09059882	1	5	0.001	0
560390	26	-5	1	-0.07260354	-0.1156531	27.30514	0	11.63	4003	0	0	0	0	0.02	0.08448261	1	5	0.001	0
560472	28	1	1	-0.06475052	-0.1262702	27.30655	0	11.63	4004	0	0	0	0	0.02	0.07800902	1	5	0.001	0
560624	28	0	0	-0.06012119	-0.1279816	27.30899	0	11.63	4002	0	0	0	0	0.02	0.06121309	1	5	0.001	0
560698	20	-2	-5	-0.05489344	-0.1252401	27.31052	0	11.68	4002	0	0	0	0	0.02	0.0556672	1	5	0.001	0
560772	17	-1	1	-0.05291222	-0.1240871	27.31143	0	11.68	4003	0	0	0	0	0.02	0.0569693	1	5	0.001	0
561004	17	0	-1	-0.03689382	-0.1208812	27.31534	0	11.68	4003	0	0	0	0	0.02	0.05203422	1	5	0.001	0
561100	26	-5	0	-0.03234631	-0.1192069	27.31784	0	11.68	4004	0	0	0	0	0.02	0.05072997	1	5	0.001	0
561197	29	-2	-6	-0.02742641	-0.1209985	27.31827	0	11.68	4002	0	0	0	0	0.02	0.05385303	1	5	0.001	0
561337	24	-1	-1	-0.01814807	-0.1138034	27.32193	0	11.68	4004	0	0	0	0	0.02	0.05575997	1	5	0.001	0
561434	20	2	-5	-0.02493332	-0.1167707	27.32395	0	11.68	4004	0	0	0	0	0.02	0.04943985	1	5	0.001	0
561494	31	-3	1	-0.01762295	-0.1123917	27.32517	0	11.68	4003	0	0	0	0	0.02	0.04541918	1	5	0.001	0
561695	25	-17	-1	-0.01493555	-0.1160193	27.3295	0	11.68	4002	0	0	0	0	0.02	0.04676796	1	5	0.001	0
561879	20	-6	-3	-0.01038936	-0.1141605	27.33298	0	11.68	4003	0	0	0	0	0.02	0.0603785	1	5	0.001	0
561966	22	-6	-5	-0.01383866	-0.1137945	27.33683	0	11.68	4002	0	0	0	0	0.02	0.08331174	1	5	0.001	0
562031	19	-3	2	-0.01972824	-0.1107265	27.33952	0	11.68	4004	0	0	0	0	0.02	0.09101009	1	5	0.001	0
562143	30	-3	-3	-0.01380263	-0.1110018	27.34104	0	11.68	4003	0	0	0	0	0.02	0.0928277	1	5	0.001	0
562167	28	1	-1	-0.01426256	-0.1110613	27.34098	0	11.68	4002	0	0	0	0	0.02	0.09225983	1	5	0.001	0
562266	28	3	-2	-0.01066617	-0.1076778	27.34354	0	11.68	4004	0	0	0	0	0.02	0.09102476	1	5	0.001	0
562400	17	3	0	-0.006011869	-0.1007122	27.34629	0	11.68	4004	0	0	0	0	0.02	0.09260839	1	5	0.001	0
562557	19	-1	-2	-0.0114807	-0.1052709	27.35069	0	11.68	4004	0	0	0	0	0.02	0.08630662	1	5	0.001	0
562665	17	-4	3	-0.01474852	-0.1121384	27.35215	0	11.68	4002	0	0	0	0	0.02	0.09266143	1	5	0.001	0
562817	30	-2	5	-0.01418833	-0.111643	27.35386	0	11.68	4003	0	0	0	0	0.02	0.09497707	1	5	0.001	0
562881	31	0	-1	-0.01520167	-0.1078484	27.35594	0	11.68	4003	0	0	0	0	0.02	0.09044407	1	5	0.001	0
563025	35	0	0	0.0003096922	-0.1087016	27.35844	0	11.68	4002	0	0	0	0	0.02	0.07872877	1	5	0.001	0
563057	19	-3	0	-0.004493358	-0.1082983	27.35991	0	11.68	4002	0	0	0	0	0.02	0.07720874	1	5	0.001	0
563210	29	-1	-2	-0.001816252	-0.1150637	27.36259	0	11.68	4002	0	0	0	0	0.02	0.0695415	1	5	0.001	0
563266	14	0	-1	0.003480895	-0.1125357	27.364	0	11.68	4004	0	0	0	0	0.02	0.06522757	1	5	0.001	0
563448	22	-4	0	-0.004967214	-0.112643	27.36589	0	11.63	4004	0	0	0	0	0.02	0.0545385	1	5	0.001	0
563548	31	0	1	0.009314542	-0.119325	27.36857	0	11.63	4004	0	0	0	0	0.02	0.04780515	1	5	0.001	0
563623	35	-4	-5	0.0125079	-0.1269674	27.36906	0	11.63	4004	0	0	0	0	0.02	0.0418338	1	5	0.001	0
563737	22	-2	0	0.01899002	-0.1329383	27.37126	0	11.63	4002	0	0	0	0	0.02	0.03348114	1	5	0.001	0
563855	26	3	1	0.01628677	-0.1414039	27.37212	0	11.63	4004	0	0	0	0	0.02	0.02385484	1	5	0.001	0
563998	28	0	1	0.01655813	-0.1350731	27.37474	0	11.63	4004	0	0	0	0	0.02	0.02369046	1	5	0.001	0
564059	24	0	5	0.01592421	-0.1334206	27.37462	0	11.63	4002	0	0	0	0	0.02	0.02221247	1	5	0.001	0
564133	14	-1	0	0.02089362	-0.135535	27.3748	0	11.63	4002	0	0	0	0	0.02	0.01803385	1	5	0.001	0
564237	37	-1	-1	0.02159722	-0.1398163	27.37584	0	11.63	4004	0	0	0	0	0.02	0.01338175	1	5	0.001	0
564353	23	-2	0	0.02625268	-0.1404568	27.37743	0	11.74	4003	0	0	0	0	0.02	0.008941671	1	5	0.001	0
564481	27	0	5	0.02337374	-0.138966	27.37663	0	11.74	4002	0	0	0	0	0.02	0.01769133	1	5	0.001	0
564504	34	-5	-1	0.02545127	-0.13488	27.37682	0	11.74	4002	0	0	0	0	0.02	0.01838039	1	5	0.001	0
564630	22	-5	-2	0.03065061	-0.1365101	27.37798	0	11.74	4004	0	0	0	0	0.02	0.02759601	1	5	0.001	0
564705	26	-1	-6	0.02503619	-0.1294046	27.37779	0	11.74	4004	0	0	0	0	0.02	0.03987319	1	5	0.001	0
564783	29	-5	1	0.03007045	-0.1290549	27.37877	0	11.74	4002	0	0	0	0	0.02	0.05056997	1	5	0.001	0
564890	18	-3	-7	0.03541659	-0.1306976	27.37981	0	11.74	4003	0	0	0	0	0.02	0.06577168	1	5	0.001	0
564987	28	0	-3	0.03505797	-0.1315937	27.38176	0	11.74	4003	0	0	0	0	0.02	0.08393171	1	5	0.001	0
565089	22	-8	0	0.03567987	-0.1281878	27.38329	0	11.74	4003	0	0	0	0	0.02	0.09963267	1	5	0.001	0
565237	26	-4	0	0.02697224	-0.1239659	27.3842	0	11.57	4002	0	0	0	0	0.02	0.1117105	1	5	0.001	0
565298	34	-7	-3	0.02572948	-0.122939	27.38487	0	11.57	4004	0	0	0	0	0.02	0.1191206	1	5	0.001	0
565454	25	0	1	0.03219858	-0.1277499	27.38841	0	11.57	4002	0	0	0	0	0.02	0.1251113	1	5	0.001	0
565526	33	0	0	0.03845585	-0.1296022	27.39074	0	11.57	4002	0	0	0	0	0.02	0.1263843	1	5	0.001	0
565595	40	-7	-1	0.04783627	-0.1316925	27.39202	0	11.57	4003	0	0	0	0	0.02	0.1210991	1	5	0.001	0
565759	21	0	-4	0.05403363	-0.1268948	27.39421	0	11.57	4003	0	0	0	0	0.02	0.1026161	1	5	0.001	0
565833	27	0	2	0.05712448	-0.1237603	27.39653	0	11.57	4004	0	0	0	0	0.02	0.1004293	1	5	0.001	0
565948	26	-10	-2	0.06044412	-0.1268901	27.398	0	11.57	4004	0	0	0	0	0.02	0.1018664	1	5	0.001	0
566063	31	4	-2	0.06184531	-0.1314746	27.39873	0	11.57	4004	0	0	0	0	0.02	0.1060869	1	5	0.001	0
566145	36	3	-6	0.06757104	-0.1301627	27.40245	0	11.74	4004	0	0	0	0	0.02	0.1132535	1	5	0.001	0
566198	30	-5	-3	0.06601146	-0.1302553	27.40526	0	11.74	4003	0	0	0	0	0.02	0.1166817	1	5	0.001	0
566284	30	0	-2	0.06203435	-0.1285237	27.40679	0	11.74	4002	0	0	0	0	0.02	0.1211237	1	5	0.001	0
566405	32	-7	-2	0.06544863	-0.1296275	27.41417	0	11.74	4002	0	0	0	0	0.02	0.1251357	1	5	0.001	0
566494	25	-2	0	0.06771699	-0.1328727	27.41759	0	11.74	4003	0	0	0	0	0.02	0.1270686	1	5	0.001	0
566595	51	-4	-4	0.07783688	-0.1265965	27.4193	0	11.74	4002	0	0	0	0	0.02	0.1254179	1	5	0.001	0
566690	24	-1	1	0.08530766	-0.1347492	27.42205	0	11.74	4003	0	0	0	0	0.02	0.1198405	1	5	0.001	0
566788	33	-9	-3	0.09268349	-0.1347583	27.42797	0	11.74	4002	0	0	0	0	0.02	0.1150004	1	5	0.001	0
566922	36	3	-2	0.09839493	-0.1352196	27.4301	0	11.74	4004	0	0	0	0	0.02	0.1206678	1	5	0.001	0
567020	20	-4	-5	0.09820584	-0.1322457	27.43511	0	11.57	4004	0	0	0	0	0.02	0.1200284	1	5	0.001	0
567071	31	-2	-1	0.09611025	-0.1291846	27.4359	0	11.57	4004	0	0	0	0	0.02	0.1199294	1	5	0.001	0
567156	41	2	1	0.09946731	-0.1264927	27.43834	0	11.57	4004	0	0	0	0	0.02	0.1200797	1	5	0.001	0
567295	32	-1	-2	0.1024369	-0.1255727	27.44286	0	11.57	4003	0	0	0	0	0.02	0.1309962	1	5	0.001	0
567405	24	-1	-1	0.101456	-0.1299683	27.44555	0	11.57	4002	0	0	0	0	0.02	0.1403703	1	5	0.001	0
567468	16	0	-1	0.1052756	-0.1269591	27.44726	0	11.57	4003	0	0	0	0	0.02	0.1446664	1	5	0.001	0
567550	37	0	-4	0.10307	-0.1262936	27.45202	0	11.57	4002	0	0	0	0	0.02	0.1485284	1	5	0.001	0
567671	37	7	0	0.1020951	-0.1341442	27.4569	0	11.57	4002	0	0	0	0	0.02	0.1509569	1	5	0.001	0
567796	37	-1	-4	0.1095885	-0.1354299	27.46142	0	11.57	4004	0	0	0	0	0.02	0.1458333	1	5	0.001	0
567849	32	-7	-9	0.1146349	-0.130572	27.46484	0	11.68	4004	0	0	0	0	0.02	0.1439342	1	5	0.001	0
567938	38	20	0	0.1184359	-0.1307418	27.466	0	11.68	4004	0	0	0	0	0.02	0.1442031	1	5	0.001	0
568042	28	-8	-4	0.1203222	-0.1379017	27.4688	0	11.68	4004	0	0	0	0	0.02	0.1448378	1	5	0.001	0
568237	29	2	-2	0.1245967	-0.14001	27.47588	0	11.68	4002	0	0	0	0	0.02	0.1404376	1	5	0.001	0
568317	33	-6	-6	0.1256439	-0.1374269	27.47894	0	11.68	4004	0	0	0	0	0.02	0.1467959	1	5	0.001	0
568369	23	-5	0	0.1197353	-0.1352078	27.4793	0	11.68	4004	0	0	0	0	0.02	0.147351	1	5	0.001	0
568447	32	2	-3	0.122527	-0.1367791	27.48406	0	11.68	4002	0	0	0	0	0.02	0.1435013	1	5	0.001	0
568614	26	-4	-1	0.1276059	-0.1271582	27.49096	0	11.68	4003	0	0	0	0	0.02	0.1393884	1	5	0.001	0
568679	35	-7	-1	0.1273783	-0.1274836	27.4934	0	11.68	4004	0	0	0	0	0.02	0.1357012	1	5	0.001	0
568926	42	3	-1	0.1424401	-0.1299085	27.4978	0	11.63	4004	0	0	0	0	0.02	0.141182	1	5	0.001	0
568988	34	-9	-2	0.1453344	-0.1354145	27.50231	0	11.63	4003	0	0	0	0	0.02	0.1413578	1	5	0.001	0
569207	40	-1	-1	0.1468173	-0.1343039	27.50719	0	11.63	4004	0	0	0	0	0.02	0.1386709	1	5	0.001	0
569363	30	-4	-4	0.1476334	-0.1377287	27.51012	0	11.63	4002	0	0	0	0	0.02	0.1337213	1	5	0.001	0
569443	35	0	-6	0.1479473	-0.1386424	27.51391	0	11.63	4003	0	0	0	0	0.02	0.1240706	1	5	0.001	0
569617	33	3	-1	0.1515489	-0.1329294	27.51671	0	11.63	4004	0	0	0	0	0.02	0.1164853	1	5	0.001	0
569660	36	-10	1	0.1568404	-0.1312775	27.51818	0	11.63	4004	0	0	0	0	0.02	0.1139372	1	5	0.001	0
569758	27	4	-4	0.1542745	-0.1340252	27.52074	0	11.63	4003	0	0	0	0	0.02	0.1112806	1	5	0.001	0
569975	30	0	-1	0.159755	-0.1227649	27.5252	0	11.63	4002	0	0	0	0	0.02	0.0795903	1	5	0.001	0
570078	29	0	-4	0.1622991	-0.1173344	27.5263	0	11.63	4002	0	0	0	0	0.02	0.0792588	1	5	0.001	0
570111	34	4	-3	0.1623795	-0.1145932	27.52685	0	11.63	4003	0	0	0	0	0.02	0.07774711	1	5	0.001	0
570269	42	-5	-5	0.1721377	-0.1189398	27.52856	0	11.63	4004	0	0	0	0	0.02	0.06612028	1	5	0.001	0
570472	49	0	-2	0.1640393	-0.1298957	27.53246	0	11.63	4003	0	0	0	0	0.02	0.05570034	1	5	0.001	0
570567	36	-1	0	0.1716825	-0.1298164	27.53393	0	11.68	4004	0	0	0	0	0.02	0.05143109	1	5	0.001	0
570715	46	-4	-3	0.1691294	-0.1322861	27.53661	0	11.68	4004	0	0	0	0	0.02	0.04841561	1	5	0.001	0
570875	42	-9	2	0.1661605	-0.1333308	27.54107	0	11.68	4003	0	0	0	0	0.02	0.04974177	1	5	0.001	0
570927	41	3	-1	0.1705925	-0.1372046	27.54082	0	11.68	4002	0	0	0	0	0.02	0.04989364	1	5	0.001	0
571034	51	0	2	0.1817037	-0.1406497	27.5451	0	11.68	4002	0	0	0	0	0.02	0.05814506	1	5	0.001	0
571130	34	5	-3	0.1829904	-0.1419063	27.54559	0	11.68	4004	0	0	0	0	0.02	0.06436865	1	5	0.001	0
571206	40	-2	1	0.1984443	-0.1420456	27.54778	0	11.68	4003	0	0	0	0	0.02	0.0711721	1	5	0.001	0
571260	43	0	-4	0.1967495	-0.1413101	27.54931	0	11.68	4004	0	0	0	0	0.02	0.08107588	1	5	0.001	0
571421	46	-4	-2	0.2031729	-0.1344543	27.55309	0	11.68	4002	0	0	0	0	0.02	0.08972201	1	5	0.001	0
571574	36	-6	4	0.2049318	-0.1388444	27.55597	0	11.68	4003	0	0	0	0	0.02	0.1013052	1	5	0.001	0
571703	35	3	0	0.2015296	-0.1405807	27.56	0	11.68	4003	0	0	0	0	0.02	0.09743477	1	5	0.001	0
571844	41	-4	-5	0.2108772	-0.1454925	27.56213	0	11.68	4003	0	0	0	0	0.02	0.09247374	1	5	0.001	0
571976	47	0	-4	0.2119535	-0.1454389	27.56555	0	11.68	4003	0	0	0	0	0.02	0.09310551	1	5	0.001	0
572008	39	-3	0	0.2139028	-0.1402963	27.56647	0	11.68	4002	0	0	0	0	0.02	0.0942274	1	5	0.001	0
572090	45	1	-4	0.2160697	-0.1430816	27.56909	0	11.68	4003	0	0	0	0	0.02	0.09638109	1	5	0.001	0
572259	36	0	0	0.2256533	-0.145694	27.57404	0	11.68	4003	0	0	0	0	0.02	0.09583162	1	5	0.001	0
572307	36	-2	-3	0.2272787	-0.1436255	27.57636	0	11.68	4003	0	0	0	0	0.02	0.1041156	1	5	0.001	0
572395	38	3	2	0.2227945	-0.1390095	27.58014	0	11.68	4002	0	0	0	0	0.02	0.1070722	1	5	0.001	0
572550	39	0	-1	0.2226724	-0.1394759	27.58442	0	11.68	4004	0	0	0	0	0.02	0.1060428	1	5	0.001	0
572590	39	0	-1	0.2243898	-0.1411342	27.58484	0	11.68	4004	0	0	0	0	0.02	0.1064642	1	5	0.001	0
572704	50	-2	-3	0.2274119	-0.1449112	27.5879	0	11.68	4003	0	0	0	0	0.02	0.112374	1	5	0.001	0
572940	28	-7	-1	0.2388686	-0.1394633	27.59406	0	11.68	4004	0	0	0	0	0.02	0.117138	1	5	0.001	0
573023	52	-2	-8	0.2435083	-0.1448784	27.59809	0	11.68	4003	0	0	0	0	0.02	0.1213457	1	5	0.001	0
573191	39	1	0	0.2454378	-0.1378233	27.60402	0	11.68	4003	0	0	0	0	0.02	0.1207845	1	5	0.001	0
573241	51	7	-1	0.2574334	-0.1323616	27.6067	0	11.63	4004	0	0	0	0	0.02	0.1232796	1	5	0.001	0
573312	51	-1	-3	0.2681843	-0.136234	27.60896	0	11.63	4003	0	0	0	0	0.02	0.1225804	1	5	0.001	0
573545	47	-10	-1	0.2731949	-0.1353393	27.61714	0	11.63	4004	0	0	0	0	0.02	0.1091736	1	5	0.001	0
573638	42	0	2	0.2820914	-0.139145	27.61952	0	11.63	4006	0	0	0	0	0.02	0.1024606	1	5	0.001	0
573801	47	1	-5	0.2768496	-0.1423632	27.62617	0	11.63	4003	0	0	0	0	0.02	0.1064483	1	5	0.001	0
573886	40	-1	-1	0.2745037	-0.1423285	27.63033	0	11.63	4003	0	0	0	0	0.02	0.1062189	1	5	0.001	0
573948	39	1	0	0.2633851	-0.1447094	27.63295	0	11.63	4003	0	0	0	0	0.02	0.104176	1	5	0.001	0
573984	37	-3	-3	0.2590615	-0.1432269	27.63338	0	11.63	4002	0	0	0	0	0.02	0.1051723	1	5	0.001	0
574093	48	0	0	0.267502	-0.1442366	27.63985	0	11.63	4004	0	0	0	0	0.02	0.1160088	1	5	0.001	0
574276	47	0	0	0.2696195	-0.1433426	27.64363	0	11.74	4003	0	0	0	0	0.02	0.1365899	1	5	0.001	0
574348	49	-1	-3	0.2703694	-0.1460209	27.64662	0	11.74	4003	0	0	0	0	0.02	0.1357041	1	5	0.001	0
574415	40	0	-1	0.2717319	-0.1461274	27.64857	0	11.74	4002	0	0	0	0	0.02	0.132961	1	5	0.001	0
574604	40	0	-4	0.2688456	-0.1444285	27.65328	0	11.74	4003	0	0	0	0	0.02	0.1269183	1	5	0.001	0
574713	42	3	-1	0.2670352	-0.1463049	27.65663	0	11.74	4004	0	0	0	0	0.02	0.1277816	1	5	0.001	0
574847	43	-5	-3	0.2662224	-0.1486618	27.66231	0	11.74	4003	0	0	0	0	0.02	0.1163426	1	5	0.001	0
574946	38	0	-1	0.2772488	-0.1530118	27.66573	0	11.74	4003	0	0	0	0	0.02	0.1118869	1	5	0.001	0
575123	47	-3	-6	0.2774287	-0.1534945	27.67019	0	11.63	4003	0	0	0	0	0.02	0.09797648	1	5	0.001	0
575334	45	-2	-4	0.2943135	-0.1500074	27.68166	0	11.63	4004	0	0	0	0	0.02	0.09981345	1	5	0.001	0
575438	51	18	-3	0.3099442	-0.1490405	27.68612	0	11.63	4002	0	0	0	0	0.02	0.1052702	1	5	0.001	0
575581	49	-2	-1	0.3052981	-0.149098	27.69173	0	11.63	4003	0	0	0	0	0.02	0.1033568	1	5	0.001	0
575632	48	3	-6	0.3049612	-0.1527209	27.69442	0	11.63	4003	0	0	0	0	0.02	0.09495459	1	5	0.001	0
575707	46	-2	-5	0.305408	-0.1552154	27.69729	0	11.63	4004	0	0	0	0	0.02	0.08198821	1	5	0.001	0
575767	40	-1	-1	0.3063833	-0.1574463	27.70132	0	11.63	4003	0	0	0	0	0.02	0.07805666	1	5	0.001	0
575928	42	-2	-6	0.3021449	-0.1621048	27.70626	0	11.63	4002	0	0	0	0	0.02	0.06349482	1	5	0.001	0
576007	40	-2	1	0.2947919	-0.1582981	27.71194	0	11.63	4002	0	0	0	0	0.02	0.0635622	1	5	0.001	0
576086	45	5	-9	0.2982651	-0.1556707	27.71474	0	11.63	4003	0	0	0	0	0.02	0.06393948	1	5	0.001	0
576198	43	-7	-4	0.3033981	-0.1547228	27.72207	0	11.63	4004	0	0	0	0	0.02	0.06475022	1	5	0.001	0
576278	35	1	0	0.3024026	-0.1548138	27.72494	0	11.63	4002	0	0	0	0	0.02	0.06989913	1	5	0.001	0
576364	44	-5	-1	0.2987671	-0.1529838	27.72915	0	11.63	4004	0	0	0	0	0.02	0.07539266	1	5	0.001	0
576500	59	-3	0	0.3093088	-0.1442284	27.73434	0	11.63	4003	0	0	0	0	0.02	0.07941996	1	5	0.001	0
