time(ms)	gyro_x(deg/s)	gyro_y(deg/s)	gyro_z(deg/s)	orientation_roll(deg)	orientation_pitch(deg)	orientation_yaw(deg)	throttle	battery(V)	loop_time(uS)	pid_output_roll	pid_output_pitch	pid_output_yaw	pid_output_throttle	ultrasonic_alt	baro_alt	flight_mode	p_gain_altitude	i_gain_altitude	d_gain_altitude
704919	-1208	-2864	-1739	17.50407	4.776444	-53.65882	0	11.51	4003	0	0	0	0	0.02	0.3134069	1	3	0.001	0
705030	-2199	-2364	-725	14.96198	9.283531	-52.11217	0	11.51	4002	0	0	0	0	0.02	0.3231672	1	3	0.001	0
705085	-3556	-661	182	11.79754	11.17253	-51.57141	0	11.51	4003	0	0	0	0	0.02	0.3217112	1	3	0.001	0
705279	-2312	1912	2620	-3.405942	10.72282	-60.54278	0	11.51	4004	0	0	0	0	0.02	0.316219	1	3	0.001	0
705355	-2262	862	2684	-6.308655	8.927039	-63.33258	0	11.51	4003	0	0	0	0	0.02	0.3162329	1	3	0.001	0
705531	-1735	876	3036	-12.15436	5.504208	-71.32919	0	11.51	4002	0	0	0	0	0.02	0.3096678	1	3	0.001	0
705603	-476	199	3330	-13.74295	3.859781	-74.84447	0	11.51	4003	0	0	0	0	0.02	0.3059634	1	3	0.001	0
705729	-1956	-1523	1893	-17.02589	3.312224	-80.27999	0	11.51	4004	0	0	0	0	0.02	0.2984875	1	3	0.001	0
705819	-1787	-1876	1875	-19.38866	4.687418	-82.50029	0	11.51	4002	0	0	0	0	0.02	0.2958258	1	3	0.001	0
705938	-7	672	691	-22.68104	3.488287	-85.14928	0	11.51	4004	0	0	0	0	0.02	0.2879851	1	3	0.001	0
706016	794	1431	-551	-22.36539	2.079571	-85.30711	0	11.51	4003	0	0	0	0	0.02	0.2809397	1	3	0.001	0
706108	1670	1726	-2317	-21.03594	0.7149388	-83.6942	0	11.51	4002	0	0	0	0	0.02	0.2728819	1	3	0.001	0
706211	3315	898	-4925	-16.79525	0.781879	-77.55951	0	11.51	4004	0	0	0	0	0.02	0.2691256	1	3	0.001	0
706314	4337	1708	-7046	-9.447159	0.311089	-67.28155	0	11.57	4002	0	0	0	0	0.02	0.263613	1	3	0.001	0
706429	1734	443	-4996	-2.037592	-0.2044755	-53.24712	0	11.57	4004	0	0	0	0	0.02	0.265613	1	3	0.001	0
706535	107	425	-2824	-0.4339954	-0.6620901	-45.08284	0	11.57	4003	0	0	0	0	0.02	0.2602579	1	3	0.001	0
706669	180	-206	-2952	-0.618158	-0.1661583	-40.40097	0	11.57	4004	0	0	0	0	0.02	0.2467555	1	3	0.001	0
706744	-1016	-94	-4810	-0.7179155	0.3350785	-36.72403	0	11.57	4003	0	0	0	0	0.02	0.2417126	1	3	0.001	0
706879	40	1540	-3760	-1.632194	-0.8671144	-26.44901	0	11.57	4002	0	0	0	0	0.02	0.2379958	1	3	0.001	0
706932	-471	1081	-2073	-2.16608	-2.175887	-23.36244	0	11.57	4004	0	0	0	0	0.02	0.2362232	1	3	0.001	0
707034	-800	516	-2015	-2.638173	-2.429446	-20.27996	0	11.57	4002	0	0	0	0	0.02	0.2197072	1	3	0.001	0
707136	-333	1390	-1347	-2.839867	-3.065057	-17.50808	0	11.57	4003	0	0	0	0	0.02	0.2063204	1	3	0.001	0
707350	174	258	218	-2.32148	-4.055789	-16.85899	0	11.57	4003	0	0	0	0	0.02	0.1712267	1	3	0.001	0
707476	1627	-431	-601	0.8442314	-2.586047	-14.95154	0	11.57	4003	0	0	0	0	0.02	0.1542532	1	3	0.001	0
707543	1627	-431	-601	0.8442314	-2.586047	-14.95154	0	11.57	4003	0	0	0	0	0.02	0.1473336	1	3	0.001	0
707683	-838	-209	852	1.328541	-1.17643	-15.98501	0	11.57	4003	0	0	0	0	0.02	0.1336296	1	3	0.001	0
707750	-608	422	505	0.6660855	-1.418793	-16.77853	0	11.57	4004	0	0	0	0	0.02	0.1285332	1	3	0.001	0
707898	580	-275	-1075	1.216437	-1.583618	-15.98338	0	11.57	4003	0	0	0	0	0.02	0.1094245	1	3	0.001	0
708016	-48	442	-900	1.856576	-1.870682	-13.6278	0	11.57	4004	0	0	0	0	0.02	0.1064924	1	3	0.001	0
708071	-96	283	-682	1.836689	-2.032796	-13.19341	0	11.57	4003	0	0	0	0	0.02	0.1057882	1	3	0.001	0
708218	-77	65	-6	1.610507	-1.789353	-12.67655	0	11.57	4004	0	0	0	0	0.02	0.1037922	1	3	0.001	0
708306	235	-181	-389	1.918017	-1.590222	-12.30792	0	11.57	4004	0	0	0	0	0.02	0.1022544	1	3	0.001	0
708366	-107	-213	-359	1.983644	-1.286196	-11.85697	0	11.57	4002	0	0	0	0	0.02	0.1023985	1	3	0.001	0
708468	-409	-223	319	1.421679	-0.7622244	-11.81589	0	11.57	4004	0	0	0	0	0.02	0.1033357	1	3	0.001	0
708586	-217	-352	440	0.9689813	-0.1897949	-12.52316	0	11.57	4002	0	0	0	0	0.02	0.1022481	1	3	0.001	0
708674	-25	-50	314	0.9696662	-0.007492376	-13.16595	0	11.57	4003	0	0	0	0	0.02	0.1011465	3	3	0.001	0
708789	9	-56	440	1.044164	-0.0005475858	-13.68818	0	11.57	4003	0	0	0	0	0.02	0.09313112	3	3	0.001	0
708896	-319	68	1368	0.8052365	0.0562471	-15.16165	0	11.57	4003	0	0	0	0	0.02	0.08862479	3	3	0.001	0
708969	-619	-603	1720	0.1903508	0.5459778	-16.93338	0	11.57	4004	0	0	0	0	0.02	0.08748129	3	3	0.001	0
709072	-190	-341	1232	-0.4972976	1.150807	-19.43287	0	11.57	4003	0	0	0	0	0.02	0.08868138	3	3	0.001	0
709178	176	-417	460	-0.3336433	1.608331	-20.82632	0	11.51	4003	0	0	0	0	0.02	0.0968524	3	3	0.001	0
709282	318	-85	149	0.3467147	1.687029	-21.25209	0	11.51	4002	0	0	0	0	0.02	0.1052215	3	3	0.001	0
709383	-58	216	368	0.5801802	1.422077	-21.60923	0	11.51	4004	0	0	0	0	0.02	0.1107125	3	3	0.001	0
709512	-51	301	-130	0.2470277	0.6412647	-22.26073	0	11.51	4004	0	0	0	0	0.02	0.1141195	3	3	0.001	0
709602	52	259	-438	0.37485	0.2404798	-21.23442	0	11.51	4003	0	0	0	0	0.02	0.1076937	3	3	0.001	0
709718	-141	46	65	0.3117142	0.1108921	-20.98609	0	11.51	4002	0	0	0	0	0.02	0.1030527	3	3	0.001	0
709821	-321	-251	123	-0.1531242	0.4558516	-21.18835	0	11.51	4004	0	0	0	0	0.02	0.1017309	6	3	0.001	0
709905	-101	-82	-89	-0.2554497	0.6582018	-21.21709	0	11.51	4004	0	0	0	0	0.02	0.0997898	6	3	0.001	0
710002	82	-212	-264	-0.01029139	0.9567426	-20.8925	0	11.51	4004	0	0	0	0	0.02	0.09947288	6	3	0.001	0
710123	-104	234	-155	0.2950684	0.1625658	-20.36559	0	11.57	4002	0	0	0	0	0.02	0.0954598	6	3	0.001	0
710223	-586	-1296	447	-0.3772915	1.541489	-20.71878	0	11.57	4003	0	0	0	0	0.02	0.08849133	6	3	0.001	0
710308	-19	34	190	-0.4130582	2.126926	-21.1736	0	11.57	4003	0	0	0	0	0.02	0.08901042	6	3	0.001	0
710416	468	-46	-429	-0.1507986	2.206547	-20.76257	0	11.57	4003	0	0	0	0	0.02	0.09079464	6	3	0.001	0
710513	302	16	769	0.5499774	2.234804	-20.69697	0	11.57	4003	0	0	0	0	0.02	0.09082768	6	3	0.001	0
710606	-1072	322	1831	-0.2345741	1.5812	-23.2888	0	11.57	4004	0	0	0	0	0.02	0.08898535	6	3	0.001	0
710699	290	19	727	-0.7976265	1.377443	-26.31915	0	11.57	4003	0	0	0	0	0.02	0.09077819	6	3	0.001	0
710833	80	-38	268	-0.7612243	1.208995	-26.77081	0	11.57	4004	0	0	0	0	0.02	0.08863306	6	3	0.001	0
710908	-152	40	421	-0.8412279	1.281558	-27.62096	0	11.57	4003	0	0	0	0	0.02	0.08426315	6	3	0.001	0
711015	-217	356	156	-1.125449	0.6487237	-28.17089	0	11.51	4004	0	0	0	0	0.02	0.07726812	6	3	0.001	0
711113	-175	288	85	-1.291919	0.2603118	-28.28979	0	11.51	4002	0	0	0	0	0.02	0.07664382	6	3	0.001	0
711228	-119	114	18	-1.577073	0.01516878	-28.49956	0	11.51	4003	0	0	0	0	0.02	0.08127742	6	3	0.001	0
711389	-124	-157	-162	-1.63439	0.2112025	-28.30691	0	11.51	4003	0	0	0	0	0.02	0.08472267	6	3	0.001	0
711472	-321	-160	-103	-1.838348	0.4230611	-28.15328	0	11.51	4002	0	0	0	0	0.02	0.08798145	6	3	0.001	0
711524	-267	-76	21	-2.086991	0.4870293	-28.12039	0	11.51	4002	0	0	0	0	0.02	0.08916271	6	3	0.001	0
711639	-486	-318	-142	-2.351992	0.7731822	-28.04996	0	11.51	4004	0	0	0	0	0.02	0.08875632	6	3	0.001	0
711755	-602	-232	173	-3.037578	0.89286	-28.21021	0	11.51	4003	0	0	0	0	0.02	0.08871571	6	3	0.001	0
711819	-332	299	442	-3.553346	0.974503	-28.59797	0	11.51	4004	0	0	0	0	0.02	0.08676039	6	3	0.001	0
711971	355	-828	232	-3.469483	1.361054	-29.05622	0	11.51	4003	0	0	0	0	0.02	0.07800178	6	3	0.001	0
712064	-324	155	677	-3.789042	1.959175	-29.87346	0	11.51	4003	13	8	27	3	0.02	0.07674221	6	3	0.001	0
712189	9	-293	-228	-3.773908	1.611256	-30.69361	0	11.51	4002	16	-13	38	0	0.02	0.07888243	6	3	0.001	0
712299	541	407	-223	-3.102869	1.641965	-30.26375	0	11.51	4002	9	0	22	0	0.02	0.08350958	6	3	0.001	0
712353	-21	9	68	-2.883553	1.376017	-30.19613	0	11.51	4002	15	-7	23	0	0.02	0.08643741	6	3	0.001	0
712424	94	-128	347	-2.790087	1.467571	-30.45775	0	11.51	4002	12	-11	31	2	0.02	0.09419443	6	3	0.001	0
712569	229	149	-469	-2.445056	1.320015	-30.06379	0	11.51	4004	15	-8	13	0	0.02	0.09637709	6	3	0.001	0
712616	84	93	-329	-2.366028	1.32327	-29.83617	0	11.51	4003	20	-19	10	3	0.02	0.09739261	6	3	0.001	0
712730	-164	-45	239	-2.605786	1.584944	-30.11054	0	11.51	4003	0	0	0	0	0.02	0.1052304	6	3	0.001	0
712872	-5	55	-43	-2.650736	1.63097	-30.1707	0	11.51	4004	0	0	0	0	0.02	0.1131134	6	3	0.001	0
712946	-19	-24	68	-2.695432	1.601333	-30.17688	0	11.51	4003	3	-3	1	3	0.02	0.1138886	6	3	0.001	0
713104	28	144	157	-2.574739	1.429101	-30.36035	0	11.51	4002	8	-1	4	1	0.02	0.1119959	6	3	0.001	0
713185	89	73	36	-2.553051	1.193808	-30.53996	0	11.51	4003	9	1	9	-1	0.02	0.1078942	6	3	0.001	0
713232	25	92	-58	-2.531009	1.157145	-30.53061	0	11.51	4002	11	-1	7	0	0.02	0.1032632	6	3	0.001	0
713293	115	55	-88	-2.422735	1.068206	-30.45284	0	11.51	4003	12	-3	5	0	0.02	0.1000507	6	3	0.001	0
713402	117	67	-21	-2.282812	0.9723569	-30.34842	0	11.51	4002	9	-5	4	-2	0.02	0.08942921	6	3	0.001	0
713546	-2	-155	20	-2.215086	1.081511	-30.35662	0	11.51	4003	13	-6	5	2	0.02	0.0805245	6	3	0.001	0
713619	-81	107	-44	-2.247632	1.015477	-30.33436	0	11.51	4003	17	-3	4	0	0.02	0.07847032	6	3	0.001	0
713731	-120	38	15	-2.328669	0.9366702	-30.28473	0	11.51	4003	18	-6	3	0	0.02	0.07737536	6	3	0.001	0
713898	-60	-90	46	-2.286576	1.072594	-30.4748	0	11.51	4002	21	-7	7	1	0.02	0.08021071	6	3	0.001	0
713994	-5	37	-37	-2.160403	0.9788789	-30.28802	0	11.51	4004	19	-5	2	0	0.02	0.08137442	6	3	0.001	0
714097	-31	-24	78	-2.19355	0.977249	-30.33026	0	11.51	4004	22	-6	4	-3	0.02	0.08766153	6	3	0.001	0
714218	19	19	-40	-2.232558	1.075629	-30.30569	0	11.51	4002	21	-7	2	-3	0.02	0.09199817	6	3	0.001	0
714306	-84	-190	180	-2.281379	0.9754444	-30.46202	0	11.51	4002	30	-12	7	0	0.02	0.0933741	6	3	0.001	0
714413	50	112	-204	-2.226812	1.131304	-30.54143	0	11.51	4004	26	-8	10	1	0.02	0.09731951	6	3	0.001	0
714509	103	92	-168	-2.067642	1.010744	-30.26563	0	11.51	4004	29	-8	0	2	0.02	0.09892772	6	3	0.001	0
714613	-29	71	239	-2.046763	0.8705705	-30.43093	0	11.51	4003	29	-10	10	2	0.02	0.1001329	6	3	0.001	0
714818	-46	93	50	-1.982663	0.788969	-30.42879	0	11.51	4004	32	-13	19	1	0.02	0.1074561	6	3	0.001	0
714976	123	-59	-243	-1.841146	0.8059667	-30.37932	0	11.51	4002	29	-18	29	1	0.02	0.1065145	6	3	0.001	0
715028	21	40	-60	-1.758911	0.8594753	-30.17012	0	11.51	4002	26	-14	24	3	0.02	0.1042658	6	3	0.001	0
715115	-254	72	74	-1.896368	0.7624499	-30.25639	0	11.51	4002	36	-14	29	-1	0.02	0.1030989	6	3	0.001	0
715269	192	-73	-29	-1.561738	0.9046434	-30.29002	0	11.51	4003	34	-20	34	13	0.02	0.1069603	6	3	0.001	0
715318	102	-24	36	-1.455125	0.9064165	-30.2998	0	11.51	4002	25	-8	44	1	0.02	0.1100438	6	3	0.001	0
715560	53	14	-46	-1.259417	0.4858873	-30.14029	0	11.51	4004	35	-15	92	0	0.02	0.1107518	6	3	0.001	0
715679	121	4	-118	-1.103615	0.5259184	-30.00249	0	11.51	4003	35	-14	148	0	0.02	0.1047411	6	3	0.001	0
715789	345	89	-618	-0.6041427	0.5081283	-29.53773	0	11.51	4004	46	-29	202	-1	0.02	0.09875866	6	3	0.001	0
715829	288	45	-656	0.06028041	0.3378013	-28.3683	0	11.51	4003	-1	8	201	23	0.02	0.09821019	6	3	0.001	0
715921	-296	16	-172	0.08975269	0.3548901	-28.08408	0	11.51	4004	58	6	263	-22	0.02	0.0993847	6	3	0.001	0
716037	-812	-277	1013	-0.932633	0.5620858	-28.82453	0	11.51	4002	0	0	0	0	0.02	0.1034622	6	3	0.001	0
716148	208	47	420	-1.118261	0.401603	-29.96473	0	11.51	4002	1	-12	16	2	0.02	0.1083434	6	3	0.001	0
716233	-122	-456	-113	-1.142119	0.7023792	-30.03443	0	11.51	4003	13	-16	11	7	0.02	0.1064741	6	3	0.001	0
716330	-227	277	211	-1.292919	0.7991173	-30.10546	0	11.51	4003	11	6	20	-2	0.02	0.1068324	6	3	0.001	0
716440	191	-24	172	-1.667193	0.638399	-30.61306	0	11.51	4004	3	-9	31	-3	0.02	0.1105502	6	3	0.001	0
716648	-124	162	151	-1.722657	0.9099282	-30.77086	0	11.57	4003	8	0	5	-1	0.02	0.1106494	6	3	0.001	0
716800	-39	139	-124	-1.652447	0.7867001	-30.66332	0	11.57	4004	7	-6	0	6	0.02	0.1083592	6	3	0.001	0
716848	-101	99	-49	-1.682852	0.7297894	-30.62345	0	11.57	4003	7	0	0	1	0.02	0.1046964	6	3	0.001	0
716949	-18	-16	-153	-1.72186	0.7139473	-30.54984	0	11.57	4004	7	-2	8	3	0.02	0.1003781	6	3	0.001	0
717066	64	217	59	-1.55759	0.5653981	-30.40139	0	11.57	4003	6	3	6	0	0.02	0.09996232	6	3	0.001	0
717141	149	239	126	-1.370733	0.4682538	-30.48907	0	11.57	4004	9	6	16	-18	0.02	0.100397	6	3	0.001	0
717265	247	-263	-145	-0.8300124	1.468876	-30.57351	0	11.57	4003	5	-15	26	-32	0.02	0.09942342	6	3	0.001	0
717373	1914	826	530	0.3366924	0.1402197	-30.47737	0	11.57	4004	-32	9	35	-96	0.02	0.09981371	6	3	0.001	0
717476	1605	1679	404	3.92379	-1.799494	-31.14241	0	11.57	4003	-43	69	72	-40	0.02	0.1088289	6	3	0.001	0
717546	-1784	318	1790	3.857563	-4.461276	-33.36614	0	11.57	4002	19	33	131	38	0.02	0.1122319	6	3	0.001	0
717649	-265	-1765	244	2.258092	-1.629047	-35.15325	0	11.57	4004	-17	-24	191	75	0.02	0.1184648	6	3	0.001	0
717839	-685	-295	-352	-0.34613	-0.9952872	-33.66518	0	11.57	4002	38	26	160	23	0.02	0.1528852	6	3	0.001	0
717928	-130	-329	78	-1.183257	-0.9819704	-33.27242	0	11.57	4003	-26	0	166	39	0.02	0.16378	6	3	0.001	0
717983	401	965	-363	-0.525704	-1.685671	-33.16837	0	11.57	4004	14	54	164	-8	0.02	0.1883066	6	3	0.001	0
718085	-141	559	408	-0.1595375	-3.090899	-33.46334	0	11.57	4002	17	-17	189	112	0.02	0.2080569	6	3	0.001	0
718262	-712	148	-169	-1.857113	-2.01621	-31.49581	0	11.57	4003	0	25	160	49	0.02	0.2450348	6	3	0.001	0
718483	1196	331	-1350	-1.825026	-2.922977	-29.83492	0	11.17	4004	-34	-10	207	-129	0.02	0.2650537	6	3	0.001	0
718579	1296	69	1446	2.646368	-2.982553	-30.54499	0	11.17	4002	-24	-8	353	-171	0.02	0.2643117	6	3	0.001	0
718620	1296	69	1446	2.646368	-2.982553	-30.54499	0	11.17	4002	-44	23	390	-155	0.02	0.2639275	6	3	0.001	0
718761	1598	-1878	-373	4.44649	0.2778777	-33.20623	0	11.17	4003	-137	136	400	-39	0.02	0.2761204	6	3	0.001	0
718833	1896	-1638	-3323	6.489717	2.70532	-30.90024	0	11.17	4003	-82	-155	365	166	0.02	0.2839103	6	3	0.001	0
719001	-1191	-553	-1237	7.034194	7.039351	-27.67463	0	11.17	4004	-10	-34	384	266	0.02	0.3167483	6	3	0.001	0
719055	-836	697	-1834	6.109562	6.539902	-25.84067	0	11.17	4004	-86	-3	382	-11	0.02	0.3325817	6	3	0.001	0
719138	-2298	1364	-1705	3.883745	4.22657	-24.63027	0	11.17	4004	-58	-43	391	-97	0.02	0.3481769	6	3	0.001	0
719252	-262	416	-1398	1.622454	0.9809657	-22.57001	0	11.11	4004	11	96	381	104	0.02	0.3586985	6	3	0.001	0
719334	775	516	532	2.169088	0.478161	-20.71976	0	11.11	4002	-34	174	400	-96	0.02	0.3631635	6	3	0.001	0
719471	1796	-466	-365	5.175312	-3.010795	-20.15788	0	11.11	4003	-86	11	391	-127	0.02	0.372248	6	3	0.001	0
719615	-70	1581	1234	3.994419	-4.288358	-17.2704	0	11.11	4003	86	-274	363	188	0.02	0.3791004	6	3	0.001	0
719678	502	618	916	3.911116	-5.610256	-17.12425	0	11.11	4003	-93	153	400	-81	0.02	0.3820249	6	3	0.001	0
719741	-504	-1539	-1719	4.194108	-4.379153	-16.87509	0	11.11	4002	0	0	0	0	0.02	0.3832442	6	3	0.001	0
719830	-704	-421	1884	3.867296	-3.287397	-17.94508	0	11.11	4003	0	0	0	0	0.02	0.3825515	6	3	0.001	0
719933	-121	-592	682	3.652649	-3.468788	-21.0915	0	11.11	4003	0	0	0	0	0.02	0.3758196	6	3	0.001	0
720051	888	-100	-1717	5.276092	-2.900205	-19.52057	0	11.11	4003	0	0	0	0	0.02	0.3603074	6	3	0.001	0
720202	-278	84	522	7.26483	-3.615567	-19.19362	0	11.57	4002	0	0	0	0	0.02	0.3284723	6	3	0.001	0
720262	310	663	640	7.6148	-4.089419	-19.82676	0	11.57	4003	0	0	0	0	0.02	0.3165371	6	3	0.001	0
720382	-73	351	409	8.140853	-4.619453	-20.5308	0	11.57	4002	0	0	0	0	0.02	0.297446	6	3	0.001	0
720434	28	130	521	8.483271	-4.693768	-21.07988	0	11.57	4003	0	0	0	0	0.02	0.2837299	6	3	0.001	0
720526	-182	79	410	8.591614	-4.633292	-21.61191	0	11.57	4002	0	0	0	0	0.02	0.2663826	6	3	0.001	0
720638	256	-488	-41	8.931537	-4.054596	-21.92286	0	11.57	4004	0	0	0	0	0.02	0.2420069	6	3	0.001	0
720724	-87	85	114	9.410505	-3.888318	-21.88369	0	11.57	4004	0	0	0	0	0.02	0.2288829	6	3	0.001	0
720848	-71	96	210	9.349581	-3.981406	-22.14211	0	11.57	4003	-29	17	3	-2	0.02	0.2017684	6	3	0.001	0
720927	69	-204	-154	9.440598	-3.861713	-22.11685	0	11.57	4003	-35	3	-3	-1	0.02	0.1863093	6	3	0.001	0
721210	-616	53	134	9.083155	-3.503841	-21.84147	0	11.51	4002	-37	6	-3	8	0.02	0.1315356	6	3	0.001	0
721396	-459	-139	134	8.516409	-2.605631	-22.219	0	11.51	4002	-39	8	4	0	0.02	0.09829272	6	3	0.001	0
721469	-1205	-39	961	7.357571	-2.202772	-23.13037	0	11.51	4002	-27	21	26	1	0.02	0.09625191	6	3	0.001	0
721571	-1730	-332	1896	4.587965	-1.52115	-25.5281	0	11.51	4004	-10	14	116	0	0.02	0.09551676	6	3	0.001	0
721601	-1529	-177	1832	3.696775	-1.293274	-26.53151	0	11.51	4003	-3	22	138	-12	0.02	0.09551801	6	3	0.001	0
721711	-754	-111	249	1.416044	-1.06447	-28.00772	0	11.51	4002	-21	22	150	7	0.02	0.1069454	6	3	0.001	0
721797	-320	-57	244	0.8455862	-0.9762037	-28.17401	0	11.51	4003	-15	10	149	-11	0.02	0.116914	6	3	0.001	0
721928	-778	-51	954	-0.5171705	-0.588066	-29.3356	0	11.46	4004	0	19	194	15	0.02	0.134648	6	3	0.001	0
722004	171	-119	7	-1.087068	-0.6756389	-30.06598	0	11.46	4002	-20	4	200	10	0.02	0.1426392	6	3	0.001	0
722105	50	-169	-238	-0.6592192	-0.5681353	-29.53264	0	11.46	4003	0	-3	181	-1	0.02	0.1541376	6	3	0.001	0
722270	-130	59	124	-0.8812657	-0.6398818	-29.89239	0	11.46	4004	-1	15	195	-8	0.02	0.161362	6	3	0.001	0
722329	-166	-88	21	-0.9858068	-0.6783648	-29.94882	0	11.46	4002	-10	7	193	-11	0.02	0.166897	6	3	0.001	0
722435	-180	110	109	-1.241658	-0.851716	-30.01717	0	11.46	4003	15	3	199	0	0.02	0.1677285	6	3	0.001	0
722510	-57	130	-33	-1.493644	-0.9443899	-30.32757	0	11.46	4004	-15	35	204	17	0.02	0.1636413	6	3	0.001	0
722611	133	-2	-80	-1.414828	-0.9492789	-30.37978	0	11.46	4002	-31	22	203	-4	0.02	0.1590304	6	3	0.001	0
722715	5	-411	206	-1.419917	-0.6593629	-30.71247	0	11.46	4002	-23	25	215	1	0.02	0.1573164	6	3	0.001	0
722829	-201	-223	-72	-1.602843	-0.3328708	-30.91667	0	11.46	4002	-16	10	218	7	0.02	0.1525096	6	3	0.001	0
722915	-187	-156	87	-1.949791	-0.2603956	-30.7777	0	11.46	4004	9	11	215	-3	0.02	0.1466558	6	3	0.001	0
723037	-18	132	196	-1.790469	-0.5157828	-30.73945	0	11.46	4003	-22	16	216	29	0.02	0.1389576	6	3	0.001	0
723219	10	476	-153	-1.841939	-1.176488	-30.72291	0	11.46	4002	-3	36	210	45	0.02	0.1365376	6	3	0.001	0
723303	-105	270	-21	-2.059136	-1.906282	-30.87082	0	11.46	4003	0	45	220	22	0.02	0.1404272	6	3	0.001	0
723371	435	649	-98	-1.544206	-2.840026	-30.95787	0	11.46	4002	0	33	223	-2	0.02	0.1428365	6	3	0.001	0
723425	408	316	-34	-1.326444	-3.13482	-30.96172	0	11.46	4003	-31	36	219	29	0.02	0.1464833	6	3	0.001	0
723514	237	120	213	-0.7434019	-3.843677	-31.36312	0	11.46	4003	13	22	240	-3	0.02	0.1495205	6	3	0.001	0
723580	256	368	64	-0.5025504	-3.963135	-31.86814	0	11.46	4003	-3	22	246	9	0.02	0.1550609	6	3	0.001	0
723679	237	121	-17	-0.2725293	-4.264159	-31.83304	0	11.46	4002	-21	37	238	14	0.02	0.1642365	6	3	0.001	0
723933	-223	-250	-24	-0.0214113	-4.126748	-31.58348	0	11.29	4004	18	36	233	24	0.02	0.1771234	6	3	0.001	0
724072	-626	102	63	-0.1450472	-3.650461	-31.09972	0	11.29	4004	20	40	219	-19	0.02	0.1824971	6	3	0.001	0
724130	-273	1137	-218	-0.3944923	-4.792653	-31.22971	0	11.29	4004	-24	126	230	-16	0.02	0.1857681	6	3	0.001	0
724223	735	-345	62	-0.1308659	-4.994993	-31.08359	0	11.29	4004	-6	11	217	12	0.02	0.19432	6	3	0.001	0
724283	634	-1162	-113	0.8066399	-4.09752	-30.92194	0	11.29	4004	-1	44	219	-25	0.02	0.1956023	6	3	0.001	0
724383	-173	-214	253	0.7577482	-3.75113	-31.09358	0	11.29	4004	-17	67	232	-65	0.02	0.2002182	6	3	0.001	0
724542	299	-461	1419	0.6119195	-1.226922	-33.43346	0	11.29	4004	-18	33	286	-51	0.02	0.197482	6	3	0.001	0
724605	256	-1227	516	0.3875734	-0.04219135	-34.2024	0	11.29	4004	6	4	301	13	0.02	0.1904407	6	3	0.001	0
724751	-639	275	830	0.1803386	0.6100745	-35.18945	0	11.4	4003	5	53	329	-31	0.02	0.1845966	6	3	0.001	0
724820	-605	-134	435	-0.3495441	0.4829237	-35.66378	0	11.4	4004	1	51	345	-46	0.02	0.1846257	6	3	0.001	0
724897	-715	197	103	-0.8841661	0.2641822	-36.17028	0	11.4	4004	19	41	357	-83	0.02	0.1861506	6	3	0.001	0
724987	368	410	1251	-1.021019	-0.510804	-37.37618	0	11.4	4004	16	45	398	-127	0.02	0.1871711	6	3	0.001	0
725173	-3667	-631	808	-3.51766	-2.198858	-43.40977	0	11.4	4003	89	37	400	-97	0.02	0.2108875	6	3	0.001	0
725245	-424	-3194	-6972	-5.07647	0.2170134	-38.74637	0	11.4	4003	101	-330	155	367	0.02	0.2281476	6	3	0.001	0
725300	5169	-4881	-7339	-1.182854	4.292603	-31.70406	0	11.4	4003	-184	247	105	45	0.02	0.2545047	6	3	0.001	0
725426	2510	-755	-767	10.81788	12.03029	-24.71302	0	11.4	4003	-196	123	-50	80	0.02	0.3069243	6	3	0.001	0
725512	-773	2608	1295	9.253518	10.3569	-25.77207	0	11.4	4003	-25	42	-21	146	0.02	0.3706902	6	3	0.001	0
725562	-841	2826	287	8.168462	8.810406	-26.59604	0	11.46	4004	-21	47	-19	47	0.02	0.3811386	6	3	0.001	0
725706	-1003	2327	1553	4.802915	2.709655	-29.11213	0	11.46	4002	-14	36	64	42	0.02	0.4319568	6	3	0.001	0
725756	-599	-67	-321	3.910979	2.289015	-29.64752	0	11.46	4004	-27	16	48	66	0.02	0.4380879	6	3	0.001	0
725883	-2234	580	1292	2.983152	2.267853	-31.25251	0	11.46	4002	24	19	97	52	0.02	0.4687181	6	3	0.001	0
725967	-668	2070	-147	0.928717	1.021909	-32.36712	0	11.46	4004	-15	127	122	139	0.02	0.4832031	6	3	0.001	0
726126	-608	-939	-675	-1.023404	0.999893	-32.48157	0	11.46	4004	7	-33	133	-277	0.02	0.4798932	6	3	0.001	0
726199	50	1342	-2696	-3.039095	1.031723	-29.75445	0	11.46	4002	-91	76	17	-177	0.02	0.4692326	6	3	0.001	0
726327	421	141	821	1.054398	-2.936192	-27.66846	0	11.46	4002	-16	27	3	4	0.02	0.4496285	6	3	0.001	0
726363	796	998	1495	1.442131	-3.308692	-28.40203	0	11.46	4004	-26	50	46	9	0.02	0.4369658	6	3	0.001	0
726445	-160	-1459	410	1.415813	-2.710434	-29.3437	0	11.46	4004	-33	12	54	0	0.02	0.4147899	6	3	0.001	0
726563	-192	768	-36	1.739734	-2.15276	-29.28343	0	11.46	4002	-28	61	43	-9	0.02	0.3950764	6	3	0.001	0
726621	-561	-175	232	1.224464	-2.229027	-29.51568	0	11.46	4004	-7	33	52	-4	0.02	0.3804196	6	3	0.001	0
726724	32	-235	128	0.9490962	-2.096555	-29.77962	0	11.46	4002	-25	32	58	-12	0.02	0.3621525	6	3	0.001	0
726893	287	560	1318	1.073047	-2.025653	-30.45213	0	11.46	4003	-31	47	100	-165	0.02	0.3405252	6	3	0.001	0
726957	1367	-2225	1875	2.22986	-0.6136154	-33.01166	0	11.46	4004	-60	-16	142	-217	0.02	0.3279089	6	3	0.001	0
727033	-1465	-1023	838	1.766084	1.193884	-34.97638	0	11.46	4003	22	32	191	167	0.02	0.3123414	6	3	0.001	0
727126	-473	-1976	-921	-0.3411466	3.971026	-33.19563	0	11.46	4003	-26	-63	122	145	0.02	0.2956167	6	3	0.001	0
727249	-1306	199	-330	0.7282781	5.673211	-32.45457	0	11.46	4003	3	33	123	22	0.02	0.2931225	6	3	0.001	0
727347	-135	755	269	0.6981556	4.48229	-32.72439	0	11.4	4003	-22	36	138	54	0.02	0.2974251	6	3	0.001	0
727407	-936	1460	-256	0.1683445	3.804887	-32.85565	0	11.4	4003	11	24	137	102	0.02	0.2989007	6	3	0.001	0
727524	665	44	901	-0.4123037	3.735708	-30.51028	0	11.4	4002	-127	13	101	-37	0.02	0.3010096	6	3	0.001	0
727618	-2448	12	-919	1.477817	3.061238	-32.54771	0	11.4	4003	36	-37	105	-190	0.02	0.2979947	6	3	0.001	0
727703	2826	1459	-314	2.294594	3.632718	-29.71515	0	11.4	4003	-103	11	46	-120	0.02	0.2913934	6	3	0.001	0
727829	-13	-232	2065	2.874042	0.4329708	-31.67697	0	11.4	4002	-82	-15	141	-155	0.02	0.277299	6	3	0.001	0
727923	1306	498	-1417	5.546073	3.593023	-32.20711	0	11.4	4003	-65	-9	93	265	0.02	0.2692696	6	3	0.001	0
728015	-429	-1158	1359	4.322875	9.048718	-30.69059	0	11.4	4003	-50	-75	72	220	0.02	0.270878	6	3	0.001	0
728133	-1094	1584	-167	1.730544	7.053371	-32.46099	0	11.4	4004	-51	-13	121	-30	0.02	0.2749216	6	3	0.001	0
728239	-285	1404	-882	2.477843	5.677436	-31.3856	0	11.4	4003	-24	50	80	176	0.02	0.2831733	6	3	0.001	0
728311	-3555	2642	-3016	0.9192258	6.504925	-29.40329	0	11.4	4003	36	-8	-9	357	0.02	0.2926627	6	3	0.001	0
728414	1194	-1289	1282	4.298103	4.073439	-28.97834	0	11.4	4003	-87	-39	49	-401	0.02	0.2965941	6	3	0.001	0
728520	1121	2468	-1369	2.547893	6.375609	-25.89655	0	11.4	4004	-65	45	-52	-98	0.02	0.2957405	6	3	0.001	0
728619	961	1037	535	4.375828	3.28708	-25.71667	0	11.4	4004	-23	-6	-31	-186	0.02	0.2901697	6	3	0.001	0
728772	1503	-3769	-1140	4.336896	5.212333	-30.61504	0	11.4	4003	-82	-130	92	146	0.02	0.2800786	6	3	0.001	0
728838	-585	-814	58	4.061754	9.297862	-29.20074	0	11.4	4004	-29	-75	51	183	0.02	0.2751759	6	3	0.001	0
728919	-1908	392	1718	2.385725	11.11917	-30.55447	0	11.4	4002	-9	-40	99	163	0.02	0.2736709	6	3	0.001	0
729035	-1553	1085	-3434	3.066485	8.329146	-27.54122	0	11.4	4006	-9	-39	-12	288	0.02	0.2774328	6	3	0.001	0
729180	-665	1434	-2192	5.731375	2.838764	-24.82848	0	11.51	4002	-60	43	-65	-410	0.02	0.2847161	6	3	0.001	0
729227	-1598	-973	-3323	4.886397	2.514555	-23.24146	0	11.51	4003	-39	-74	-159	-174	0.02	0.2851013	6	3	0.001	0
729359	175	-731	1784	5.547785	1.113648	-24.17723	0	11.51	4003	-72	-67	-50	-147	0.02	0.2800389	6	3	0.001	0
729479	412	-1158	1414	5.228017	2.607372	-28.84346	0	11.51	4002	-67	-46	52	174	0.02	0.2761194	6	3	0.001	0
729595	-1193	-1610	1147	2.920448	6.549071	-29.78906	0	11.51	4003	-23	-99	59	101	0.02	0.2810136	6	3	0.001	0
729670	-1113	-1534	127	1.963129	8.068944	-30.57203	0	11.51	4004	-51	-133	68	55	0.02	0.2919429	6	3	0.001	0
729717	128	1046	-858	1.535772	7.688769	-29.61276	0	11.51	4004	-62	1	48	96	0.02	0.2963909	6	3	0.001	0
729883	-2927	4477	-4090	1.274981	4.175536	-29.317	0	11.51	4006	-25	78	15	429	0.02	0.3179303	6	3	0.001	0
729936	-5211	-203	-3681	-1.757974	-0.1731944	-25.21466	0	11.51	4002	-19	-30	-88	-106	0.02	0.3272533	6	3	0.001	0
730034	-4033	-712	-3133	-2.127478	1.603193	-25.35479	0	11.51	4004	71	-6	-121	-312	0.02	0.331762	6	3	0.001	0
730325	1292	-1148	1218	-1.703744	4.521522	-24.25675	0	11.46	4002	-63	-84	-62	7	0.02	0.3256246	6	3	0.001	0
730403	219	-437	526	-1.537615	5.27253	-25.32847	0	11.46	4004	-48	-71	-51	20	0.02	0.3184228	6	3	0.001	0
730496	590	133	308	-0.5852017	4.564798	-25.97535	0	11.46	4004	-56	-77	-35	4	0.02	0.306425	6	3	0.001	0
730531	656	-269	433	-0.3199466	4.585527	-26.1872	0	11.46	4003	-60	-91	-30	13	0.02	0.3046491	6	3	0.001	0
730646	1102	-694	362	1.017525	5.249104	-27.07973	0	11.46	4002	-67	-101	-2	18	0.02	0.2979965	6	3	0.001	0
730756	315	-224	320	1.726258	6.254137	-27.74285	0	11.46	4004	-62	-99	11	15	0.02	0.2846053	6	3	0.001	0
730882	76	-232	450	1.940768	7.115516	-28.49396	0	11.46	4004	-55	-112	33	14	0.02	0.2784893	6	3	0.001	0
730943	-166	-183	537	1.739947	7.157966	-28.98241	0	11.46	4002	-63	-110	39	-3	0.02	0.2772866	6	3	0.001	0
731042	759	-553	406	2.078	7.554108	-29.86781	0	11.4	4002	-81	-131	62	-7	0.02	0.2798051	6	3	0.001	0
731173	-112	-852	459	2.915919	9.258365	-30.88517	0	11.4	4004	-69	-144	91	30	0.02	0.2977887	6	3	0.001	0
731245	-435	-570	224	2.648744	9.636415	-31.04616	0	11.4	4004	-83	-132	98	91	0.02	0.3028167	6	3	0.001	0
731436	-1985	6117	300	1.485586	5.143178	-30.00847	0	11.4	4003	-54	4	60	324	0.02	0.3173262	6	3	0.001	0
731518	-2346	-818	-2559	-3.180718	1.023506	-26.2752	0	11.4	4002	4	-131	-48	144	0.02	0.3322199	6	3	0.001	0
731597	2394	204	2129	-1.368668	0.9370339	-27.99119	0	11.4	4003	80	-87	27	-391	0.02	0.3424914	6	3	0.001	0
731740	1219	786	804	-1.651683	4.030396	-23.5969	0	11.4	4004	-84	-18	-78	-70	0.02	0.3464296	6	3	0.001	0
731886	588	-1650	1292	-1.034556	5.563728	-26.48792	0	11.4	4003	-49	-135	-7	-30	0.02	0.3337881	6	3	0.001	0
731917	-327	-1004	501	-1.068859	5.907931	-26.93836	0	11.46	4004	-33	-153	-6	-28	0.02	0.3304932	6	3	0.001	0
732020	42	-1083	311	-1.185689	6.845802	-27.47631	0	11.46	4002	-37	-184	6	-5	0.02	0.3194084	6	3	0.001	0
732153	464	-1285	1018	-0.6627347	9.014439	-28.60375	0	11.46	4004	-78	-196	47	20	0.02	0.3241014	6	3	0.001	0
732250	880	-724	1035	0.5876052	11.25851	-31.34873	0	11.46	4004	-64	-174	102	31	0.02	0.3355224	6	3	0.001	0
732322	873	394	561	1.047045	11.4411	-32.01928	0	11.46	4003	-99	-160	123	88	0.02	0.3458378	6	3	0.001	0
732423	711	1796	66	2.490079	9.042594	-32.55109	0	11.46	4002	-61	-161	121	183	0.02	0.3703577	6	3	0.001	0
732543	-1497	3091	852	1.390709	4.996105	-32.55524	0	11.46	4002	50	-203	131	418	0.02	0.3991613	6	3	0.001	0
732673	-1761	2663	-4126	0.06765305	-6.421093	-28.21869	0	11.46	4003	-63	-124	-27	-89	0.02	0.42715	6	3	0.001	0
732801	-1494	-3405	-4212	-1.4827	-6.972172	-26.32557	0	11.51	4004	16	-205	-105	-248	0.02	0.4426889	6	3	0.001	0
732884	2240	204	674	-1.410704	-2.86122	-22.23614	0	11.51	4004	-58	-87	-116	-31	0.02	0.4457147	6	3	0.001	0
732942	-385	-985	-263	-1.349998	-3.229926	-22.74894	0	11.51	4004	-37	-90	-113	-8	0.02	0.444997	6	3	0.001	0
733004	125	-1035	303	-1.660492	-1.849614	-22.80884	0	11.51	4002	-55	-141	-115	25	0.02	0.4436333	6	3	0.001	0
733151	-341	-281	120	-2.682342	-2.368232	-22.90648	0	11.51	4002	-39	-106	-113	0	0.02	0.4341268	6	3	0.001	0
733210	-639	1180	-82	-3.155925	-3.137661	-22.91852	0	11.51	4003	-25	-85	-113	9	0.02	0.4238387	6	3	0.001	0
733313	275	552	-51	-2.96366	-4.899177	-23.16654	0	11.51	4004	-27	-84	-109	27	0.02	0.4016714	6	3	0.001	0
733411	258	648	332	-3.131731	-5.69739	-23.06883	0	11.51	4002	-43	-67	-109	5	0.02	0.382961	6	3	0.001	0
733529	-481	332	3	-3.030525	-6.163675	-23.48955	0	11.51	4002	-33	-86	-98	-1	0.02	0.362269	6	3	0.001	0
733613	155	111	109	-2.935311	-6.345019	-23.73329	0	11.51	4002	-40	-81	-92	7	0.02	0.3332907	6	3	0.001	0
733750	321	46	588	-2.725961	-6.370089	-24.34741	0	11.51	4004	-33	-69	-75	2	0.02	0.3051951	6	3	0.001	0
733816	-136	-266	331	-2.716238	-6.342078	-24.88558	0	11.51	4004	-42	-78	-61	-1	0.02	0.2901548	6	3	0.001	0
733920	355	-62	-55	-2.709186	-6.003099	-25.00432	0	11.51	4004	-42	-61	-60	8	0.02	0.2688215	6	3	0.001	0
734038	-80	-263	-120	-2.59112	-5.616086	-24.78153	0	11.51	4004	-40	-63	-66	1	0.02	0.2466699	6	3	0.001	0
734126	160	-264	97	-2.225941	-5.243111	-24.93291	0	11.51	4003	-23	-72	-62	-3	0.02	0.2309574	6	3	0.001	0
734236	200	-354	35	-1.889956	-4.635226	-25.04132	0	11.51	4003	-31	-79	-59	4	0.02	0.2225104	6	3	0.001	0
734363	-253	-10	-116	-2.119025	-4.539197	-24.99932	0	11.51	4004	-28	-59	-62	0	0.02	0.215565	6	3	0.001	0
734443	-85	19	-37	-2.101982	-4.645482	-24.92807	0	11.51	4003	-32	-62	-63	8	0.02	0.208793	6	3	0.001	0
734542	21	-158	-2	-2.04609	-4.419931	-24.83747	0	11.51	4004	-22	-69	-65	4	0.02	0.1996697	6	3	0.001	0
734672	672	337	901	-1.743903	-4.098954	-24.72973	0	11.46	4004	-40	-48	-62	-90	0.02	0.1937345	6	3	0.001	0
734722	1660	193	1011	-1.203526	-4.074679	-25.62056	0	11.46	4002	-65	-75	-34	-196	0.02	0.1934434	6	3	0.001	0
734827	3499	-1936	-1133	1.070271	-0.7597094	-23.81865	0	11.46	4003	-149	-89	-99	-325	0.02	0.1915939	6	3	0.001	0
735020	-3286	-1542	2713	8.496719	3.352051	-29.61969	0	11.46	4002	0	-118	63	308	0.02	0.1898512	6	3	0.001	0
735092	-4580	-1807	360	7.309583	6.877611	-31.36907	0	11.46	4004	29	-140	99	228	0.02	0.1936606	6	3	0.001	0
735158	-2463	-214	-485	3.029714	8.681296	-31.00101	0	11.46	4003	-61	-103	72	79	0.02	0.2012971	6	3	0.001	0
735292	1212	891	-1214	4.540545	7.55361	-28.88573	0	11.46	4003	-48	-101	15	17	0.02	0.2333145	6	3	0.001	0
735325	1212	891	-1214	4.540545	7.55361	-28.88573	0	11.46	4003	-48	-101	15	17	0.02	0.2382569	6	3	0.001	0
735427	421	133	709	4.721764	6.178133	-28.21764	0	11.46	4004	-76	-100	30	-6	0.02	0.2764944	6	3	0.001	0
735573	547	277	200	5.383943	5.859163	-28.62728	0	11.46	4003	-81	-119	31	35	0.02	0.3104929	6	3	0.001	0
735653	278	1196	705	5.693582	5.115448	-29.2968	0	11.46	4003	-99	-81	60	175	0.02	0.3204403	6	3	0.001	0
735716	1172	3860	1089	7.443334	3.482592	-30.5318	0	11.46	4004	-129	-41	92	275	0.02	0.334303	6	3	0.001	0
735819	625	7832	300	14.23059	-4.345559	-30.7198	0	11.46	4003	-154	70	85	220	0.02	0.354847	6	3	0.001	0
736036	-1285	-6864	-2016	7.948967	-2.618251	-30.46567	0	11.46	4003	-134	-185	39	-218	0.02	0.3645665	6	3	0.001	0
736151	1467	-633	-2408	10.45042	-0.8902157	-24.34252	0	11.46	4004	-161	-98	-93	-53	0.02	0.3426011	6	3	0.001	0
736318	-893	135	1313	8.028561	-0.2038188	-25.16892	0	11.46	4004	-102	-97	-36	0	0.02	0.2958109	6	3	0.001	0
