time(ms)	gyro_x(deg/s)	gyro_y(deg/s)	gyro_z(deg/s)	orientation_roll(deg)	orientation_pitch(deg)	orientation_yaw(deg)	throttle	battery(V)	loop_time(uS)	pid_output_roll	pid_output_pitch	pid_output_yaw	pid_output_throttle	ultrasonic_alt	baro_alt	flight_mode	p_gain_altitude	i_gain_altitude	d_gain_altitude
480746	-497	672	181	2.936264	9.197278	-6.763029	0	11.8	4002	0	0	0	0	0.02	0.0486965	1	20	0	0
480829	-497	672	181	2.936264	9.197278	-6.763029	0	11.8	4002	0	0	0	0	0.02	0.0486965	1	20	0	0
480920	-497	672	181	2.936264	9.197278	-6.763029	0	11.8	4002	0	0	0	0	0.02	0.0486965	1	20	0	0
481141	-497	672	181	2.936264	9.197278	-6.763029	0	11.8	4002	0	0	0	0	0.02	0.0486965	1	20	0	0
481245	-497	672	181	2.936264	9.197278	-6.763029	0	11.8	4002	0	0	0	0	0.02	0.0486965	1	20	0	0
481334	5	0	5	1.637839	0.2433753	0.1353709	0	11.8	4003	0	0	0	0	0.02	0.0405351	1	20	0	0
481469	21	0	0	1.399105	0.1818439	0.13372	0	11.8	4004	0	0	0	0	0.02	0.03697981	1	20	0	0
481555	20	-4	-3	1.298549	0.1644857	0.1353706	0	11.8	4004	0	0	0	0	0.02	0.03541992	1	20	0	0
481685	8	2	5	1.121232	0.1360966	0.1362877	0	11.85	4003	0	0	0	0	0.02	0.03087994	1	20	0	0
481754	16	-3	-2	1.035251	0.1211914	0.1351262	0	11.85	4003	0	0	0	0	0.02	0.02403016	1	20	0	0
481850	15	0	2	0.9246989	0.1038634	0.1376941	0	11.85	4004	0	0	0	0	0.02	0.02486255	1	20	0	0
482004	17	-6	5	0.8035724	0.09092518	0.1362268	0	11.85	4003	0	0	0	0	0.02	0.03750259	1	20	0	0
482059	21	3	0	0.7446405	0.07504942	0.1373272	0	11.85	4002	0	0	0	0	0.02	0.04011971	1	20	0	0
482229	10	0	2	0.6418036	0.05820791	0.1369603	0	11.85	4003	0	0	0	0	0.02	0.05433132	1	20	0	0
482334	27	-2	-2	0.5896809	0.05999807	0.1388555	0	11.85	4003	0	0	0	0	0.02	0.06948926	1	20	0	0
482410	20	0	3	0.5672884	0.06092072	0.1411183	0	11.85	4002	0	0	0	0	0.02	0.07924937	1	20	0	0
482462	18	1	3	0.5358571	0.05061558	0.1444809	0	11.85	4003	0	0	0	0	0.02	0.0793179	1	20	0	0
482562	24	-4	0	0.5009367	0.03502436	0.1451532	0	11.85	4003	0	0	0	0	0.02	0.08027165	1	20	0	0
482769	28	-3	-2	0.4607597	0.0164702	0.1465599	0	11.85	4004	0	0	0	0	0.02	0.06584164	1	20	0	0
482849	19	3	-2	0.4307517	0.003207015	0.1488832	0	11.85	4003	0	0	0	0	0.02	0.05801357	1	20	0	0
483058	23	-6	-4	0.390383	-0.01786346	0.1535302	0	11.85	4004	0	0	0	0	0.02	0.0455114	1	20	0	0
483147	15	0	-8	0.3706411	-0.02997816	0.154692	0	11.85	4002	0	0	0	0	0.02	0.038494	1	20	0	0
483253	26	0	0	0.3562752	-0.03216129	0.1563428	0	11.85	4003	0	0	0	0	0.02	0.03713777	1	20	0	0
483296	20	0	4	0.343151	-0.04143219	0.1571992	0	11.85	4003	0	0	0	0	0.02	0.03874961	1	20	0	0
483416	20	-2	-2	0.3283441	-0.03853009	0.1603784	0	11.85	4004	0	0	0	0	0.02	0.05088842	1	20	0	0
483491	16	5	3	0.3184437	-0.03891385	0.1634966	0	11.8	4003	0	0	0	0	0.02	0.05457699	1	20	0	0
483618	13	-1	0	0.3129565	-0.04640499	0.1664925	0	11.8	4002	0	0	0	0	0.02	0.05533133	1	20	0	0
483686	16	-9	0	0.305237	-0.04578598	0.1681432	0	11.8	4003	0	0	0	0	0.02	0.05643137	1	20	0	0
483785	23	0	0	0.305969	-0.03838536	0.1708944	0	11.8	4002	0	0	0	0	0.02	0.05466918	1	20	0	0
483938	15	-4	0	0.2995492	-0.03177252	0.1743792	0	11.8	4004	0	0	0	0	0.02	0.04514668	1	20	0	0
484062	22	-5	-3	0.2880027	-0.0211335	0.1805542	0	11.8	4003	0	0	0	0	0.02	0.04457844	1	20	0	0
484203	26	-3	-1	0.2891577	-0.01262603	0.18141	0	11.8	4003	0	0	0	0	0.02	0.04430155	1	20	0	0
484306	26	-2	0	0.2946501	-0.003220486	0.1842834	0	11.8	4003	0	0	0	0	0.02	0.03131968	1	20	0	0
484398	27	-1	-4	0.2934595	-0.01541654	0.1854449	0	11.85	4003	0	0	0	0	0.02	0.02346543	1	20	0	0
484497	25	0	-2	0.2895038	-0.01189112	0.1884407	0	11.85	4004	0	0	0	0	0.02	0.01532978	1	20	0	0
484606	21	6	0	0.2996209	-0.01785307	0.1907025	0	11.85	4002	0	0	0	0	0.02	0.003633279	1	20	0	0
484705	24	-1	2	0.3084623	-0.01151111	0.1940042	0	11.85	4002	0	0	0	0	0.02	-0.004078222	1	20	0	0
484809	27	0	1	0.3099367	-0.01293714	0.1941265	0	11.85	4002	0	0	0	0	0.02	-0.01177169	1	20	0	0
484924	25	-8	-5	0.312549	-0.02262284	0.1939434	0	11.85	4004	0	0	0	0	0.02	-0.01632033	1	20	0	0
485018	23	0	-3	0.3071371	-0.01841601	0.1989567	0	11.85	4004	0	0	0	0	0.02	-0.02192367	1	20	0	0
485122	19	-5	-1	0.3168444	-0.01669637	0.2022581	0	11.85	4003	0	0	0	0	0.02	-0.03496433	1	20	0	0
485225	19	-3	-1	0.312696	-0.02489125	0.2021361	0	11.85	4004	0	0	0	0	0.02	-0.04857806	1	20	0	0
485347	32	-3	-5	0.3171297	-0.01780789	0.205621	0	11.85	4003	0	0	0	0	0.02	-0.05386605	1	20	0	0
485433	15	-3	0	0.3064051	-0.02089886	0.2084334	0	11.85	4002	0	0	0	0	0.02	-0.05384469	1	20	0	0
485536	24	-5	-1	0.3089802	-0.02336036	0.2095954	0	11.85	4002	0	0	0	0	0.02	-0.055142	1	20	0	0
485638	31	0	-2	0.297032	-0.02352929	0.2119798	0	11.85	4003	0	0	0	0	0.02	-0.05946644	1	20	0	0
485761	25	-10	-6	0.2970804	-0.02827864	0.2152203	0	11.85	4004	0	0	0	0	0.02	-0.06427369	1	20	0	0
485837	15	-5	-2	0.2974008	-0.03734891	0.2154038	0	11.85	4002	0	0	0	0	0.02	-0.06711092	1	20	0	0
485980	35	-6	0	0.3068256	-0.03691784	0.2212729	0	11.85	4003	0	0	0	0	0.02	-0.06906953	1	20	0	0
486040	25	2	0	0.306867	-0.03183977	0.2212729	0	11.85	4003	0	0	0	0	0.02	-0.07493443	1	20	0	0
486150	27	-6	-3	0.3167145	-0.02800523	0.2266529	0	11.85	4003	0	0	0	0	0.02	-0.08388283	1	20	0	0
486256	22	-3	1	0.3243194	-0.02919217	0.229771	0	11.85	4004	0	0	0	0	0.02	-0.08575051	1	20	0	0
486389	29	-4	0	0.3314736	-0.03756147	0.2319107	0	11.8	4002	0	0	0	0	0.02	-0.07957885	1	20	0	0
486490	29	-1	2	0.3365225	-0.04754472	0.2341117	0	11.8	4002	0	0	0	0	0.02	-0.08452586	1	20	0	0
486601	37	-1	-1	0.3403813	-0.04593782	0.2353344	0	11.8	4004	0	0	0	0	0.02	-0.08367115	1	20	0	0
486733	31	-4	-1	0.3401145	-0.05071475	0.2381468	0	11.8	4004	0	0	0	0	0.02	-0.07405476	1	20	0	0
486846	21	-3	-1	0.3499072	-0.04590406	0.2429156	0	11.8	4002	0	0	0	0	0.02	-0.067669	1	20	0	0
486909	28	1	1	0.3467738	-0.04431783	0.2449946	0	11.8	4002	0	0	0	0	0.02	-0.06706367	1	20	0	0
486975	34	2	-6	0.3516131	-0.03623555	0.2461563	0	11.8	4003	0	0	0	0	0.02	-0.06335227	1	20	0	0
487069	17	0	-1	0.3583573	-0.03398521	0.249213	0	11.8	4002	0	0	0	0	0.02	-0.05490734	1	20	0	0
487176	35	-5	-3	0.3616892	-0.02931817	0.2534316	0	11.8	4004	0	0	0	0	0.02	-0.0427142	1	20	0	0
487275	27	6	-1	0.3597598	-0.03408212	0.2596674	0	11.91	4004	0	0	0	0	0.02	-0.04040468	1	20	0	0
487397	36	1	-1	0.3711595	-0.03372936	0.2625408	0	11.91	4004	0	0	0	0	0.02	-0.03446265	1	20	0	0
487496	30	3	-4	0.3713806	-0.03717812	0.2655365	0	11.91	4003	0	0	0	0	0.02	-0.01983037	1	20	0	0
487657	21	-1	0	0.3731789	-0.02924553	0.271589	0	11.91	4002	0	0	0	0	0.02	-0.01673521	1	20	0	0
487733	21	0	-4	0.3744448	-0.03524895	0.2751966	0	11.91	4003	0	0	0	0	0.02	-0.01332265	1	20	0	0
487785	42	-10	-2	0.3823467	-0.0358817	0.2770306	0	11.91	4002	0	0	0	0	0.02	-0.008191311	1	20	0	0
487899	26	0	-2	0.3804478	-0.03493742	0.282288	0	11.91	4003	0	0	0	0	0.02	-0.004768498	1	20	0	0
487992	37	-11	-4	0.3872857	-0.03541754	0.2843667	0	11.91	4004	0	0	0	0	0.02	-0.00598199	1	20	0	0
488057	40	0	0	0.3932499	-0.03001533	0.2868122	0	11.91	4002	0	0	0	0	0.02	-0.01152493	1	20	0	0
488171	33	1	-7	0.3837387	-0.02525259	0.2920699	0	11.85	4003	0	0	0	0	0.02	-0.01923984	1	20	0	0
488268	34	-8	0	0.3891624	-0.0256214	0.2950049	0	11.85	4003	0	0	0	0	0.02	-0.02112188	1	20	0	0
488348	30	-1	-1	0.3936276	-0.02706715	0.2978173	0	11.85	4004	0	0	0	0	0.02	-0.0243676	1	20	0	0
488445	34	-5	0	0.393823	-0.02537306	0.2986121	0	11.85	4002	0	0	0	0	0.02	-0.02499831	1	20	0	0
488540	36	-5	-3	0.3944024	-0.02856306	0.3019745	0	11.85	4002	0	0	0	0	0.02	-0.01831553	1	20	0	0
488642	18	-8	-1	0.3965662	-0.0273227	0.3046648	0	11.85	4004	0	0	0	0	0.02	-0.01170433	1	20	0	0
488743	39	0	0	0.4011031	-0.03805892	0.3096781	0	11.85	4002	0	0	0	0	0.02	-0.01051261	1	20	0	0
488844	29	2	2	0.40291	-0.04061573	0.312002	0	11.85	4004	0	0	0	0	0.02	-0.01784936	1	20	0	0
488971	43	5	-11	0.4132382	-0.0496229	0.3178104	0	11.85	4004	0	0	0	0	0.02	-0.03686208	1	20	0	0
489026	29	-1	1	0.4100407	-0.04631944	0.3188498	0	11.85	4004	0	0	0	0	0.02	-0.04430417	1	20	0	0
489128	35	-3	0	0.412064	-0.0452514	0.3231911	0	11.85	4002	0	0	0	0	0.02	-0.05616033	1	20	0	0
489269	33	2	-2	0.4118764	-0.05205193	0.3271042	0	11.85	4003	0	0	0	0	0.02	-0.06580698	1	20	0	0
489331	19	-7	-1	0.4130793	-0.0486946	0.3274711	0	11.85	4004	0	0	0	0	0.02	-0.06651013	1	20	0	0
489458	33	-7	-3	0.423965	-0.05093062	0.3336462	0	11.85	4004	0	0	0	0	0.02	-0.06552332	1	20	0	0
489527	38	-4	-2	0.4315258	-0.05121212	0.3371309	0	11.85	4004	0	0	0	0	0.02	-0.0674128	1	20	0	0
489668	32	2	0	0.4369253	-0.04554974	0.3406767	0	11.85	4002	0	0	0	0	0.02	-0.06599065	1	20	0	0
489743	37	-8	-1	0.4360484	-0.04583076	0.3421441	0	11.85	4004	0	0	0	0	0.02	-0.06381153	1	20	0	0
489848	41	-1	0	0.4366748	-0.04940933	0.3435504	0	11.85	4002	0	0	0	0	0.02	-0.06024341	1	20	0	0
489955	31	-2	1	0.4396327	-0.05273941	0.3452624	0	11.85	4004	0	0	0	0	0.02	-0.04369069	1	20	0	0
490033	38	-9	-5	0.4447247	-0.05206203	0.3479529	0	11.85	4002	0	0	0	0	0.02	-0.03734426	1	20	0	0
490134	39	3	2	0.4426437	-0.04976937	0.3505206	0	11.85	4004	0	0	0	0	0.02	-0.03326609	1	20	0	0
490234	26	-2	-3	0.4449351	-0.04555895	0.3525994	0	11.85	4003	0	0	0	0	0.02	-0.03592165	1	20	0	0
490355	41	4	0	0.4510685	-0.0348411	0.3576128	0	11.85	4004	0	0	0	0	0.02	-0.04055633	1	20	0	0
490460	38	8	-4	0.4491885	-0.03866443	0.3590799	0	11.85	4002	0	0	0	0	0.02	-0.0399742	1	20	0	0
490531	37	-10	1	0.4529097	-0.041151	0.3617092	0	11.85	4002	0	0	0	0	0.02	-0.03776199	1	20	0	0
490636	41	-2	0	0.4656526	-0.0442687	0.362626	0	11.85	4003	0	0	0	0	0.02	-0.0406582	1	20	0	0
490770	49	0	3	0.4741833	-0.03773006	0.3655	0	11.85	4003	0	0	0	0	0.02	-0.03984145	1	20	0	0
490883	32	2	0	0.4802559	-0.03942957	0.3669676	0	11.8	4004	0	0	0	0	0.02	-0.03431818	1	20	0	0
490991	35	1	-5	0.4921869	-0.0417881	0.3706973	0	11.8	4004	0	0	0	0	0.02	-0.03487883	1	20	0	0
491129	42	-2	-5	0.4939268	-0.04153961	0.377606	0	11.8	4002	0	0	0	0	0.02	-0.02944398	1	20	0	0
491183	42	0	-5	0.4937415	-0.04150385	0.3809684	0	11.8	4002	0	0	0	0	0.02	-0.0287292	1	20	0	0
491276	51	-1	-3	0.5019426	-0.0434889	0.3875101	0	11.8	4002	0	0	0	0	0.02	-0.02735908	1	20	0	0
491349	40	-4	4	0.5017803	-0.04468495	0.3892834	0	11.8	4003	0	0	0	0	0.02	-0.02923367	1	20	0	0
491479	43	0	-7	0.5010812	-0.04644052	0.3975991	0	11.8	4002	0	0	0	0	0.02	-0.03989526	1	20	0	0
491611	41	-3	-2	0.5015413	-0.04949336	0.4029792	0	11.8	4003	0	0	0	0	0.02	-0.05471865	1	20	0	0
491637	41	-3	-2	0.5025857	-0.05001368	0.4042019	0	11.8	4002	0	0	0	0	0.02	-0.05528799	1	20	0	0
491741	42	-5	-5	0.5108281	-0.04667167	0.4074424	0	11.8	4003	0	0	0	0	0.02	-0.05223822	1	20	0	0
491845	35	-1	-3	0.5032954	-0.0486768	0.4103768	0	11.85	4004	0	0	0	0	0.02	-0.0449815	1	20	0	0
492016	53	-10	-3	0.5064149	-0.05256107	0.4176521	0	11.85	4002	0	0	0	0	0.02	-0.03656451	1	20	0	0
492156	37	-9	-3	0.5192155	-0.05525231	0.4222985	0	11.85	4003	0	0	0	0	0.02	-0.04988645	1	20	0	0
492246	38	0	-5	0.5115972	-0.05880865	0.4246826	0	11.85	4004	0	0	0	0	0.02	-0.05470702	1	20	0	0
492392	35	-5	-1	0.5105861	-0.05775659	0.431469	0	11.85	4003	0	0	0	0	0.02	-0.06210201	1	20	0	0
492453	41	-1	0	0.5190945	-0.05497429	0.4342203	0	11.85	4003	0	0	0	0	0.02	-0.06339601	1	20	0	0
492600	43	9	-9	0.5248792	-0.05301267	0.4402114	0	11.85	4002	0	0	0	0	0.02	-0.06465346	1	20	0	0
492651	27	-2	-3	0.5215377	-0.05368203	0.4441856	0	11.85	4002	0	0	0	0	0.02	-0.06546839	1	20	0	0
492784	50	2	5	0.531166	-0.0602862	0.4490773	0	11.85	4003	0	0	0	0	0.02	-0.07206025	1	20	0	0
492927	41	-1	1	0.5260504	-0.06036555	0.4559248	0	11.85	4003	0	0	0	0	0.02	-0.07087961	1	20	0	0
492987	48	1	-6	0.5239961	-0.05768895	0.4583703	0	11.85	4003	0	0	0	0	0.02	-0.07044844	1	20	0	0
493233	48	5	-3	0.5247163	-0.05511218	0.4693144	0	11.85	4003	0	0	0	0	0.02	-0.06224149	1	20	0	0
493316	42	-4	-5	0.520505	-0.05361122	0.4728608	0	11.85	4004	0	0	0	0	0.02	-0.0556415	1	20	0	0
493407	53	-6	-1	0.5272141	-0.05087257	0.4781799	0	11.85	4003	0	0	0	0	0.02	-0.034468	1	20	0	0
493452	39	0	0	0.5279165	-0.04789734	0.4803808	0	11.85	4003	0	0	0	0	0.02	-0.02790102	1	20	0	0
493521	35	0	-3	0.5261115	-0.04761711	0.4826435	0	11.85	4004	0	0	0	0	0.02	-0.0215078	1	20	0	0
493643	46	0	-2	0.5387128	-0.05323449	0.4879624	0	11.85	4002	0	0	0	0	0.02	-0.007387553	1	20	0	0
493701	37	-3	-4	0.5450764	-0.0494732	0.4915085	0	11.85	4004	0	0	0	0	0.02	-0.004220036	1	20	0	0
493845	43	0	-4	0.5479183	-0.05173922	0.4943822	0	11.85	4003	0	0	0	0	0.02	-0.009342221	1	20	0	0
494004	48	-5	-1	0.5572459	-0.04975647	0.5012302	0	11.85	4003	0	0	0	0	0.02	-0.0134856	1	20	0	0
494059	55	-4	-2	0.557713	-0.04754693	0.5038595	0	11.85	4002	0	0	0	0	0.02	-0.01386837	1	20	0	0
494191	44	-4	-5	0.5657877	-0.05259837	0.509912	0	11.85	4002	0	0	0	0	0.02	-0.0090518	1	20	0	0
494242	46	-1	0	0.557821	-0.05457255	0.5106453	0	11.85	4002	0	0	0	0	0.02	-0.004731803	1	20	0	0
494305	47	-4	0	0.5562443	-0.04938366	0.5126631	0	11.85	4002	0	0	0	0	0.02	-0.0003886386	1	20	0	0
494425	48	2	-2	0.5638539	-0.0474241	0.5172484	0	11.85	4003	0	0	0	0	0.02	0.004527682	1	20	0	0
494533	43	0	0	0.5662433	-0.04692104	0.5217117	0	11.85	4004	0	0	0	0	0.02	0.01165558	1	20	0	0
494588	51	4	-7	0.567245	-0.04516071	0.52538	0	11.85	4003	0	0	0	0	0.02	0.01124533	1	20	0	0
494721	53	-3	-1	0.559631	-0.04759851	0.5290485	0	11.85	4002	0	0	0	0	0.02	0.01600621	1	20	0	0
494792	38	-1	-11	0.5614498	-0.04393203	0.5329616	0	11.85	4003	0	0	0	0	0.02	0.009597903	1	20	0	0
494907	47	-8	-4	0.5682163	-0.05420392	0.5388317	0	11.85	4003	0	0	0	0	0.02	0.0008710272	1	20	0	0
494998	42	3	-1	0.5689922	-0.05711513	0.5409716	0	11.85	4003	0	0	0	0	0.02	0.001245828	1	20	0	0
495094	48	-5	2	0.5644732	-0.05526156	0.5425614	0	11.85	4003	0	0	0	0	0.02	0.005031896	1	20	0	0
495193	34	4	-1	0.5686661	-0.05337895	0.5447017	0	11.85	4003	0	0	0	0	0.02	0.004844191	1	20	0	0
495325	44	-1	-4	0.5640125	-0.06428476	0.545619	0	11.85	4002	0	0	0	0	0.02	0.007853076	1	20	0	0
495398	44	-2	-3	0.5592942	-0.06367093	0.5481865	0	11.85	4002	0	0	0	0	0.02	0.007856139	1	20	0	0
495471	43	-5	-4	0.5643126	-0.05621355	0.551428	0	11.85	4004	0	0	0	0	0.02	0.008451683	1	20	0	0
495574	52	1	-7	0.5661548	-0.05019289	0.5571749	0	11.85	4003	0	0	0	0	0.02	0.01437463	1	20	0	0
495702	51	-1	-3	0.5711965	-0.04894951	0.560293	0	11.85	4003	0	0	0	0	0.02	0.01243757	1	20	0	0
495821	51	-1	-3	0.5711965	-0.04894951	0.560293	0	11.85	4003	0	0	0	0	0.02	0.01243757	1	20	0	0
495913	51	-1	-3	0.5711965	-0.04894951	0.560293	0	11.85	4003	0	0	0	0	0.02	0.01243757	1	20	0	0
496059	51	-1	-3	0.5711965	-0.04894951	0.560293	0	11.85	4003	0	0	0	0	0.02	0.01243757	1	20	0	0
496137	51	-1	-3	0.5711965	-0.04894951	0.560293	0	11.85	4003	0	0	0	0	0.02	0.01243757	1	20	0	0
496218	51	-1	-3	0.5711965	-0.04894951	0.560293	0	11.85	4003	0	0	0	0	0.02	0.01243757	1	20	0	0
496359	51	-1	-3	0.5711965	-0.04894951	0.560293	0	11.91	4003	0	0	0	0	0.02	0.01243757	1	20	0	0
496496	51	-1	-3	0.5711965	-0.04894951	0.560293	0	11.91	4003	0	0	0	0	0.02	0.01243757	1	20	0	0
496665	51	-1	-3	0.5711965	-0.04894951	0.560293	0	11.91	4003	0	0	0	0	0.02	0.01243757	1	20	0	0
496818	51	-1	-3	0.5711965	-0.04894951	0.560293	0	11.91	4003	0	0	0	0	0.02	0.01243757	1	20	0	0
496910	51	-1	-3	0.5711965	-0.04894951	0.560293	0	11.91	4003	0	0	0	0	0.02	0.01243757	1	20	0	0
496961	51	-1	-3	0.5711965	-0.04894951	0.560293	0	11.91	4003	0	0	0	0	0.02	0.01243757	1	20	0	0
497047	51	-1	-3	0.5711965	-0.04894951	0.560293	0	11.91	4003	0	0	0	0	0.02	0.01243757	1	20	0	0
497151	51	-1	-3	0.5711965	-0.04894951	0.560293	0	11.8	4003	0	0	0	0	0.02	0.01243757	1	20	0	0
497207	51	-1	-3	0.5711965	-0.04894951	0.560293	0	11.8	4003	0	0	0	0	0.02	0.01243757	1	20	0	0
497353	51	-1	-3	0.5711965	-0.04894951	0.560293	0	11.8	4003	0	0	0	0	0.02	0.01243757	1	20	0	0
497403	51	-1	-3	0.5711965	-0.04894951	0.560293	0	11.8	4003	0	0	0	0	0.02	0.01243757	1	20	0	0
497559	51	-1	-3	0.5711965	-0.04894951	0.560293	0	11.8	4003	0	0	0	0	0.02	0.01243757	1	20	0	0
497629	51	-1	-3	0.5711965	-0.04894951	0.560293	0	11.8	4003	0	0	0	0	0.02	0.01243757	1	20	0	0
497751	51	-1	-3	0.5711965	-0.04894951	0.560293	0	11.8	4003	0	0	0	0	0.02	0.01243757	1	20	0	0
497832	51	-1	-3	0.5711965	-0.04894951	0.560293	0	11.8	4003	0	0	0	0	0.02	0.01243757	1	20	0	0
497909	51	-1	-3	0.5711965	-0.04894951	0.560293	0	11.8	4003	0	0	0	0	0.02	0.01243757	1	20	0	0
498063	51	-1	-3	0.5711965	-0.04894951	0.560293	0	11.91	4003	0	0	0	0	0.02	0.01243757	1	20	0	0
498146	51	-1	-3	0.5711965	-0.04894951	0.560293	0	11.91	4003	0	0	0	0	0.02	0.01243757	1	20	0	0
498198	51	-1	-3	0.5711965	-0.04894951	0.560293	0	11.91	4003	0	0	0	0	0.02	0.01243757	1	20	0	0
498358	51	-1	-3	0.5711965	-0.04894951	0.560293	0	11.91	4003	0	0	0	0	0.02	0.01243757	1	20	0	0
498459	51	-1	-3	0.5711965	-0.04894951	0.560293	0	11.91	4003	0	0	0	0	0.02	0.01243757	1	20	0	0
498532	51	-1	-3	0.5711965	-0.04894951	0.560293	0	11.91	4003	0	0	0	0	0.02	0.01243757	1	20	0	0
498590	51	-1	-3	0.5711965	-0.04894951	0.560293	0	11.91	4003	0	0	0	0	0.02	0.01243757	1	20	0	0
498693	51	-1	-3	0.5711965	-0.04894951	0.560293	0	11.91	4003	0	0	0	0	0.02	0.01243757	1	20	0	0
498843	51	-1	-3	0.5711965	-0.04894951	0.560293	0	11.91	4003	0	0	0	0	0.02	0.01243757	1	20	0	0
498970	51	-1	-3	0.5711965	-0.04894951	0.560293	0	11.85	4003	0	0	0	0	0.02	0.01243757	1	20	0	0
499051	51	-1	-3	0.5711965	-0.04894951	0.560293	0	11.85	4003	0	0	0	0	0.02	0.01243757	1	20	0	0
499109	51	-1	-3	0.5711965	-0.04894951	0.560293	0	11.85	4003	0	0	0	0	0.02	0.01243757	1	20	0	0
499220	51	-1	-3	0.5711965	-0.04894951	0.560293	0	11.85	4003	0	0	0	0	0.02	0.01243757	1	20	0	0
499321	51	-1	-3	0.5711965	-0.04894951	0.560293	0	11.85	4003	0	0	0	0	0.02	0.01243757	1	20	0	0
499412	51	-1	-3	0.5711965	-0.04894951	0.560293	0	11.85	4003	0	0	0	0	0.02	0.01243757	1	20	0	0
499513	51	-1	-3	0.5711965	-0.04894951	0.560293	0	11.85	4003	0	0	0	0	0.02	0.01243757	1	20	0	0
499676	51	-1	-3	0.5711965	-0.04894951	0.560293	0	11.85	4003	0	0	0	0	0.02	0.01243757	1	20	0	0
499764	51	-1	-3	0.5711965	-0.04894951	0.560293	0	11.85	4003	0	0	0	0	0.02	0.01243757	1	20	0	0
499854	51	-1	-3	0.5711965	-0.04894951	0.560293	0	11.85	4003	0	0	0	0	0.02	0.01243757	1	20	0	0
499930	51	-1	-3	0.5711965	-0.04894951	0.560293	0	11.85	4003	0	0	0	0	0.02	0.01243757	1	20	0	0
500073	51	-1	-3	0.5711965	-0.04894951	0.560293	0	11.85	4003	0	0	0	0	0.02	0.01243757	1	20	0	0
500143	51	-1	-3	0.5711965	-0.04894951	0.560293	0	11.85	4003	0	0	0	0	0.02	0.01243757	1	20	0	0
500338	51	-1	-3	0.5711965	-0.04894951	0.560293	0	11.85	4003	0	0	0	0	0.02	0.01243757	1	20	0	0
500458	51	-1	-3	0.5711965	-0.04894951	0.560293	0	11.85	4003	0	0	0	0	0.02	0.01243757	1	20	0	0
500572	51	-1	-3	0.5711965	-0.04894951	0.560293	0	11.85	4003	0	0	0	0	0.02	0.01243757	1	20	0	0
500632	51	-1	-3	0.5711965	-0.04894951	0.560293	0	11.85	4003	0	0	0	0	0.02	0.01243757	1	20	0	0
500734	51	-1	-3	0.5711965	-0.04894951	0.560293	0	11.85	4003	0	0	0	0	0.02	0.01243757	1	20	0	0
500837	51	-1	-3	0.5711965	-0.04894951	0.560293	0	11.97	4003	0	0	0	0	0.02	0.01243757	1	20	0	0
500937	51	-1	-3	0.5711965	-0.04894951	0.560293	0	11.97	4003	0	0	0	0	0.02	0.01243757	1	20	0	0
501042	51	-1	-3	0.5711965	-0.04894951	0.560293	0	11.97	4003	0	0	0	0	0.02	0.01243757	1	20	0	0
501169	51	-1	-3	0.5711965	-0.04894951	0.560293	0	11.97	4003	0	0	0	0	0.02	0.01243757	1	20	0	0
501238	51	-1	-3	0.5711965	-0.04894951	0.560293	0	11.97	4003	0	0	0	0	0.02	0.01243757	1	20	0	0
501339	51	-1	-3	0.5711965	-0.04894951	0.560293	0	11.97	4003	0	0	0	0	0.02	0.01243757	1	20	0	0
501453	51	-1	-3	0.5711965	-0.04894951	0.560293	0	11.97	4003	0	0	0	0	0.02	0.01243757	1	20	0	0
501537	51	-1	-3	0.5711965	-0.04894951	0.560293	0	11.97	4003	0	0	0	0	0.02	0.01243757	1	20	0	0
501629	51	-1	-3	0.5711965	-0.04894951	0.560293	0	11.97	4003	0	0	0	0	0.02	0.01243757	1	20	0	0
501769	51	-1	-3	0.5711965	-0.04894951	0.560293	0	11.8	4003	0	0	0	0	0.02	0.01243757	1	20	0	0
501833	51	-1	-3	0.5711965	-0.04894951	0.560293	0	11.8	4003	0	0	0	0	0.02	0.01243757	1	20	0	0
501971	51	-1	-3	0.5711965	-0.04894951	0.560293	0	11.8	4003	0	0	0	0	0.02	0.01243757	1	20	0	0
502115	51	-1	-3	0.5711965	-0.04894951	0.560293	0	11.8	4003	0	0	0	0	0.02	0.01243757	1	20	0	0
502153	51	-1	-3	0.5711965	-0.04894951	0.560293	0	11.8	4003	0	0	0	0	0.02	0.01243757	1	20	0	0
502258	51	-1	-3	0.5711965	-0.04894951	0.560293	0	11.8	4003	0	0	0	0	0.02	0.01243757	1	20	0	0
502368	51	-1	-3	0.5711965	-0.04894951	0.560293	0	11.8	4003	0	0	0	0	0.02	0.01243757	1	20	0	0
502476	51	-1	-3	0.5711965	-0.04894951	0.560293	0	11.8	4003	0	0	0	0	0.02	0.01243757	1	20	0	0
502573	51	-1	-3	0.5711965	-0.04894951	0.560293	0	11.8	4003	0	0	0	0	0.02	0.01243757	1	20	0	0
502651	51	-1	-3	0.5711965	-0.04894951	0.560293	0	11.85	4003	0	0	0	0	0.02	0.01243757	1	20	0	0
502795	51	-1	-3	0.5711965	-0.04894951	0.560293	0	11.85	4003	0	0	0	0	0.02	0.01243757	1	20	0	0
502914	51	-1	-3	0.5711965	-0.04894951	0.560293	0	11.85	4003	0	0	0	0	0.02	0.01243757	1	20	0	0
503003	51	-1	-3	0.5711965	-0.04894951	0.560293	0	11.85	4003	0	0	0	0	0.02	0.01243757	1	20	0	0
503081	51	-1	-3	0.5711965	-0.04894951	0.560293	0	11.85	4003	0	0	0	0	0.02	0.01243757	1	20	0	0
503159	51	-1	-3	0.5711965	-0.04894951	0.560293	0	11.85	4003	0	0	0	0	0.02	0.01243757	1	20	0	0
503221	51	-1	-3	0.5711965	-0.04894951	0.560293	0	11.85	4003	0	0	0	0	0.02	0.01243757	1	20	0	0
503322	51	-1	-3	0.5711965	-0.04894951	0.560293	0	11.85	4003	0	0	0	0	0.02	0.01243757	1	20	0	0
503409	51	-1	-3	0.5711965	-0.04894951	0.560293	0	11.85	4003	0	0	0	0	0.02	0.01243757	1	20	0	0
503486	51	-1	-3	0.5711965	-0.04894951	0.560293	0	11.85	4003	0	0	0	0	0.02	0.01243757	1	20	0	0
503557	51	-1	-3	0.5711965	-0.04894951	0.560293	0	11.85	4003	0	0	0	0	0.02	0.01243757	1	20	0	0
503718	51	-1	-3	0.5711965	-0.04894951	0.560293	0	11.85	4003	0	0	0	0	0.02	0.01243757	1	20	0	0
503874	1	0	2	2.612759	-0.3641749	-0.1374392	0	11.85	4003	0	0	0	0	0.02	0.005247686	1	20	0	0
504062	8	-1	1	2.106313	-0.2950195	-0.1372561	0	11.85	4004	0	0	0	0	0.02	-0.01437276	1	20	0	0
504117	8	3	-5	1.939836	-0.2726907	-0.1375617	0	11.85	4004	0	0	0	0	0.02	-0.01909415	1	20	0	0
504154	6	-6	3	1.855308	-0.2616969	-0.1375619	0	11.85	4004	0	0	0	0	0.02	-0.02098417	1	20	0	0
504326	18	-3	1	1.516871	-0.2062583	-0.138112	0	11.85	4004	0	0	0	0	0.02	-0.01226827	1	20	0	0
504485	20	6	2	1.19201	-0.1680237	-0.1359109	0	11.91	4003	0	0	0	0	0.02	0.00720216	1	20	0	0
504580	18	-3	-5	1.066668	-0.1434812	-0.1355439	0	11.91	4003	0	0	0	0	0.02	0.01994884	1	20	0	0
504793	14	-4	-1	0.8536537	-0.1136489	-0.1355439	0	11.91	4003	0	0	0	0	0.02	0.008483164	1	20	0	0
504927	9	-5	0	0.7416692	-0.0961164	-0.1355438	0	11.91	4004	0	0	0	0	0.02	0.000692684	1	20	0	0
504978	-4	-2	-5	0.6845258	-0.08879363	-0.1356048	0	11.91	4004	0	0	0	0	0.02	-0.002559166	1	20	0	0
505063	12	2	-5	0.6376349	-0.08032789	-0.1337707	0	11.91	4004	0	0	0	0	0.02	-0.004929765	1	20	0	0
505197	-3	0	-4	0.5586569	-0.06849762	-0.1309582	0	11.91	4004	0	0	0	0	0.02	-0.005288762	1	20	0	0
505276	28	10	-1	0.5243388	-0.0625558	-0.1301635	0	11.91	4004	0	0	0	0	0.02	-0.00691964	1	20	0	0
505400	23	0	-1	0.4761687	-0.05444762	-0.1301024	0	11.8	4003	0	0	0	0	0.02	-0.006239826	1	20	0	0
505477	13	-4	1	0.4538029	-0.05170224	-0.1301631	0	11.8	4002	0	0	0	0	0.02	-0.006639879	1	20	0	0
505581	2	-3	-3	0.4245448	-0.04851995	-0.1275951	0	11.8	4003	0	0	0	0	0.02	-0.001272084	1	20	0	0
505699	0	4	-3	0.3939748	-0.03838081	-0.1252111	0	11.8	4003	0	0	0	0	0.02	0.002094815	1	20	0	0
505841	21	0	-5	0.3516946	-0.0427632	-0.1225819	0	11.8	4004	0	0	0	0	0.02	0.01160938	1	20	0	0
505973	14	1	4	0.3240989	-0.0395849	-0.1211758	0	11.8	4003	0	0	0	0	0.02	0.02294283	1	20	0	0
506043	18	0	-1	0.3066758	-0.03338262	-0.1211758	0	11.8	4004	0	0	0	0	0.02	0.02668333	1	20	0	0
506143	4	5	-1	0.2864672	-0.03188437	-0.1183021	0	11.8	4004	0	0	0	0	0.02	0.04362167	1	20	0	0
506192	19	1	4	0.277677	-0.03637236	-0.1175687	0	11.8	4003	0	0	0	0	0.02	0.05117213	1	20	0	0
506269	10	3	-4	0.2538174	-0.03378143	-0.1126776	0	11.8	4003	0	0	0	0	0.02	0.05495191	1	20	0	0
506362	26	0	0	0.2441424	-0.03268445	-0.1100487	0	11.8	4002	0	0	0	0	0.02	0.05835758	1	20	0	0
506466	5	2	2	0.2295069	-0.03668121	-0.1085812	0	11.8	4003	0	0	0	0	0.02	0.07080968	1	20	0	0
506619	18	-4	-2	0.2210881	-0.03306424	-0.1064413	0	11.8	4003	0	0	0	0	0.02	0.06589617	1	20	0	0
506673	21	1	-3	0.2198648	-0.03280749	-0.1059523	0	11.8	4003	0	0	0	0	0.02	0.06320329	1	20	0	0
506842	15	-3	1	0.2287146	-0.0305953	-0.09983777	0	11.8	4002	0	0	0	0	0.02	0.04683897	1	20	0	0
506897	-1	1	-2	0.2254839	-0.03298033	-0.0986151	0	11.8	4003	0	0	0	0	0.02	0.04461296	1	20	0	0
506997	18	2	0	0.2321803	-0.02991127	-0.09531402	0	11.8	4004	0	0	0	0	0.02	0.03955926	1	20	0	0
507082	19	-2	-2	0.2320033	-0.03205989	-0.09543639	0	11.8	4004	0	0	0	0	0.02	0.03497925	1	20	0	0
507245	25	0	-1	0.2348149	-0.03110957	-0.09568088	0	11.8	4002	0	0	0	0	0.02	0.03699523	1	20	0	0
507293	25	0	0	0.2293169	-0.028711	-0.09445816	0	11.8	4003	0	0	0	0	0.02	0.03656481	1	20	0	0
507421	26	1	-1	0.2291655	-0.03030919	-0.08981132	0	11.8	4003	0	0	0	0	0.02	0.03938461	1	20	0	0
507581	18	-2	0	0.228401	-0.03007306	-0.08418618	0	11.8	4004	0	0	0	0	0.02	0.05619488	1	20	0	0
507639	13	2	-3	0.2258313	-0.02809719	-0.08259658	0	11.8	4004	0	0	0	0	0.02	0.06147284	1	20	0	0
507745	18	-8	-4	0.2314565	-0.0229442	-0.08253558	0	11.8	4003	0	0	0	0	0.02	0.06247591	1	20	0	0
507797	20	3	0	0.2385204	-0.02475659	-0.08161843	0	11.8	4003	0	0	0	0	0.02	0.05522058	1	20	0	0
507904	12	-2	-1	0.2349291	-0.03146255	-0.07727733	0	11.8	4009	0	0	0	0	0.02	0.04635569	1	20	0	0
507978	1	-6	-5	0.229278	-0.03108383	-0.07660393	0	11.8	4003	0	0	0	0	0.02	0.04354144	1	20	0	0
508152	21	1	-1	0.2258201	-0.03831071	-0.07324149	0	11.85	4003	0	0	0	0	0.02	0.04438555	1	20	0	0
508206	16	0	-1	0.2256485	-0.03809432	-0.07201888	0	11.85	4003	0	0	0	0	0.02	0.04368135	1	20	0	0
508363	6	0	4	0.2260897	-0.04414099	-0.06663815	0	11.85	4003	0	0	0	0	0.02	0.04315673	1	20	0	0
508439	14	7	-7	0.2286531	-0.04768702	-0.06241958	0	11.85	4002	0	0	0	0	0.02	0.04535282	1	20	0	0
508517	20	-2	-6	0.2341995	-0.04742763	-0.0605244	0	11.85	4004	0	0	0	0	0.02	0.04551022	1	20	0	0
508588	10	0	0	0.2265114	-0.04254726	-0.05789538	0	11.85	4003	0	0	0	0	0.02	0.04264017	1	20	0	0
508697	18	8	-4	0.229945	-0.04269026	-0.05324909	0	11.85	4003	0	0	0	0	0.02	0.04723911	1	20	0	0
508786	20	0	-5	0.232339	-0.04122718	-0.05141483	0	11.85	4003	0	0	0	0	0.02	0.04729376	1	20	0	0
508934	26	2	2	0.2332585	-0.03389509	-0.04817458	0	11.85	4002	0	0	0	0	0.02	0.04479655	1	20	0	0
509024	13	0	-2	0.2365334	-0.02577531	-0.0454234	0	11.8	4003	0	0	0	0	0.02	0.04584504	1	20	0	0
509130	22	-9	-2	0.2463094	-0.02961664	-0.04487288	0	11.8	4004	0	0	0	0	0.02	0.04493868	1	20	0	0
509232	7	0	-3	0.2508895	-0.02889551	-0.04108216	0	11.8	4004	0	0	0	0	0.02	0.0385214	1	20	0	0
509295	22	-1	-2	0.2534798	-0.03507827	-0.03857573	0	11.8	4003	0	0	0	0	0.02	0.02823192	1	20	0	0
509396	20	-1	0	0.2581974	-0.03788348	-0.03478513	0	11.8	4003	0	0	0	0	0.02	0.01860404	1	20	0	0
509601	21	0	-5	0.2653012	-0.03755052	-0.03013834	0	11.8	4004	0	0	0	0	0.02	0.01070253	1	20	0	0
509766	31	0	-1	0.2802443	-0.03278907	-0.0221907	0	11.8	4003	0	0	0	0	0.02	0.002104878	1	20	0	0
509807	23	0	0	0.281827	-0.03086819	-0.02219063	0	11.8	4004	0	0	0	0	0.02	0.0004833323	1	20	0	0
509881	27	-2	-1	0.2964076	-0.02503777	-0.0184611	0	11.8	4003	0	0	0	0	0.02	-0.004912543	1	20	0	0
510012	23	-3	0	0.2950307	-0.02882688	-0.01589326	0	11.85	4002	0	0	0	0	0.02	-0.0109173	1	20	0	0
510185	24	-1	-6	0.3008651	-0.02249791	-0.0078831	0	11.85	4004	0	0	0	0	0.02	-0.001997687	1	20	0	0
510248	23	3	-1	0.3016217	-0.02158039	-0.004948473	0	11.85	4002	0	0	0	0	0.02	-0.002076638	1	20	0	0
510312	26	-3	2	0.3020561	-0.0236838	-0.002136457	0	11.85	4003	0	0	0	0	0.02	-0.0002795646	1	20	0	0
510379	27	-2	-3	0.3043404	-0.0170229	0.0006760318	0	11.85	4002	0	0	0	0	0.02	0.00180339	1	20	0	0
510612	28	-4	-3	0.3079715	-0.01952161	0.00929765	0	11.85	4003	0	0	0	0	0.02	0.01886825	1	20	0	0
510734	28	-2	-2	0.3127885	-0.02288689	0.01742906	0	11.85	4003	0	0	0	0	0.02	0.032746	1	20	0	0
510826	26	-1	0	0.3146298	-0.02892031	0.02079168	0	11.85	4004	0	0	0	0	0.02	0.0463626	1	20	0	0
510881	30	2	-3	0.3095757	-0.02473375	0.02409347	0	11.85	4003	0	0	0	0	0.02	0.04764399	1	20	0	0
511038	29	-2	-1	0.3254593	-0.02670092	0.0302077	0	11.85	4004	0	0	0	0	0.02	0.03727286	1	20	0	0
511212	29	5	-7	0.3358969	-0.03192651	0.03693274	0	11.85	4003	0	0	0	0	0.02	0.0282599	1	20	0	0
511361	24	2	-7	0.337224	-0.03748755	0.0462868	0	11.85	4004	0	0	0	0	0.02	0.01870516	1	20	0	0
511444	22	3	0	0.3390456	-0.03136373	0.04909927	0	11.85	4004	0	0	0	0	0.02	0.01830765	1	20	0	0
511507	22	0	-1	0.336328	-0.02993033	0.05087239	0	11.85	4002	0	0	0	0	0.02	0.0214526	1	20	0	0
511654	33	0	-2	0.3288148	-0.03727705	0.05869804	0	11.85	4004	0	0	0	0	0.02	0.03610862	1	20	0	0
511769	38	3	-9	0.3328424	-0.03167718	0.06468947	0	11.85	4004	0	0	0	0	0.02	0.05094904	1	20	0	0
511845	32	0	-5	0.3347918	-0.03096372	0.06811291	0	11.85	4003	0	0	0	0	0.02	0.05708394	1	20	0	0
511940	27	-7	-8	0.3320304	-0.03826376	0.07123065	0	11.85	4002	0	0	0	0	0.02	0.06842477	1	20	0	0
512042	19	-3	0	0.3331856	-0.04083903	0.07569382	0	11.85	4004	0	0	0	0	0.02	0.08185338	1	20	0	0
