time(ms)	gyro_x(deg/s)	gyro_y(deg/s)	gyro_z(deg/s)	orientation_roll(deg)	orientation_pitch(deg)	orientation_yaw(deg)	throttle	battery(V)	loop_time(uS)	pid_output_roll	pid_output_pitch	pid_output_yaw	pid_output_throttle	ultrasonic_alt	baro_alt	flight_mode	p_gain_altitude	i_gain_altitude	d_gain_altitude
736468	-651	944	-349	3.455757	0.1381732	-25.5056	0	11.51	4002	-103	-76	-60	-5	0.02	0.2607218	6	3	0.001	0
736600	-729	-509	812	1.712083	-0.3236757	-26.18673	0	11.51	4003	-79	-89	-21	16	0.02	0.2392027	6	3	0.001	0
736630	-863	-103	158	1.169808	-0.2068758	-26.42842	0	11.51	4002	-86	-71	-25	14	0.02	0.236757	6	3	0.001	0
736729	-10	193	-698	0.4291564	-0.9782144	-25.65073	0	11.51	4004	-93	-94	-56	6	0.02	0.2263885	6	3	0.001	0
736821	-216	168	532	0.1201696	-0.3554496	-25.25348	0	11.51	4002	-95	-75	-53	13	0.02	0.2166561	6	3	0.001	0
736936	122	453	23	-0.4314747	-0.929956	-25.76229	0	11.51	4002	-103	-78	-41	1	0.02	0.2044158	6	3	0.001	0
737053	622	61	-577	-0.05797074	-1.41922	-25.30402	0	11.51	4004	-112	-84	-62	-8	0.02	0.1833637	6	3	0.001	0
737115	1037	-60	-948	0.5507657	-1.382333	-24.58442	0	11.51	4003	0	0	0	0	0.02	0.1789269	6	3	0.001	0
737220	928	-463	-1628	2.16665	-0.5768189	-22.20888	0	11.51	4004	0	0	0	0	0.02	0.1748299	6	3	0.001	0
737390	432	-934	-1129	3.87276	1.729035	-18.72841	0	11.51	4004	0	0	0	0	0.02	0.1736881	6	3	0.001	0
737612	435	-28	-1087	6.149412	1.584278	-14.65367	0	11.46	4004	0	0	0	0	0.02	0.1570399	6	3	0.001	0
737696	-57	83	-478	6.368228	1.246419	-13.33998	0	11.46	4003	0	0	0	0	0.02	0.1516461	6	3	0.001	0
737790	158	57	-63	6.547578	1.620407	-12.89473	0	11.46	4003	0	0	0	0	0.02	0.1474267	6	3	0.001	0
737849	-134	-31	-63	6.558395	1.751266	-12.87131	0	11.46	4002	0	0	0	0	0.02	0.1469146	6	3	0.001	0
737975	-42	-147	-306	6.486859	2.087871	-12.47825	0	11.46	4003	0	0	0	0	0.02	0.1369987	6	3	0.001	0
738035	20	-74	-97	6.635004	2.1675	-12.26499	0	11.46	4003	0	0	0	0	0.02	0.1360829	6	3	0.001	0
738135	382	-66	-168	7.051653	2.543365	-11.98693	0	11.46	4011	0	0	0	0	0.02	0.1363685	3	3	0.001	0
738253	-11	-14	174	7.245348	2.888318	-12.07223	0	11.46	4003	0	0	0	0	0.02	0.1350773	3	3	0.001	0
738353	293	-296	-465	7.329108	3.102511	-11.7717	0	11.51	4004	0	0	0	0	0.02	0.1330323	3	3	0.001	0
738465	-312	172	182	7.520614	3.4073	-11.29851	0	11.51	4004	0	0	0	0	0.02	0.1314906	3	3	0.001	0
738543	-937	301	335	6.717678	3.136313	-11.67469	0	11.51	4003	0	0	0	0	0.02	0.1301928	3	3	0.001	0
738647	-214	-30	-708	6.107014	2.823665	-11.55881	0	11.51	4004	0	0	0	0	0.02	0.1252722	3	3	0.001	0
738742	354	-145	-94	6.771951	3.096855	-10.20693	0	11.51	4002	0	0	0	0	0.02	0.1218401	3	3	0.001	0
738853	-492	204	1870	4.986872	3.796326	-12.78762	0	11.51	4002	0	-6	79	0	0.02	0.1194464	3	3	0.001	0
738952	-53	263	286	3.925447	3.581832	-14.63328	0	11.51	4003	-14	-4	96	0	0.02	0.1211404	3	3	0.001	0
739057	486	593	-446	4.140604	2.810456	-14.06347	0	11.51	4004	-26	5	75	0	0.02	0.1203233	3	3	0.001	0
739169	-813	361	824	3.902502	2.045413	-14.66017	0	11.51	4004	20	0	113	0	0.02	0.1142657	3	3	0.001	0
739313	-158	-74	386	2.785736	1.614811	-17.23539	0	11.11	4002	-18	-2	163	0	0.02	0.1171665	3	3	0.001	0
739406	-1454	289	450	1.066464	0.7983652	-17.34446	0	11.11	4003	58	6	166	0	0.02	0.1218571	3	3	0.001	0
739488	-1050	905	1274	-1.653414	-0.2681426	-18.74856	0	11.11	4007	69	22	202	0	0.02	0.1298792	3	3	0.001	0
739568	152	423	1067	-2.307753	-1.253285	-19.83796	0	11.11	4003	-14	2	225	0	0.02	0.1365111	3	3	0.001	0
739672	-125	-903	-2386	-1.633292	-1.485779	-19.03724	0	11.11	4003	114	-83	188	0	0.02	0.145218	3	3	0.001	0
739845	-1291	-1841	2896	-3.318591	-3.383105	-22.44502	0	11.11	4004	0	0	0	0	0.02	0.1684705	3	3	0.001	0
739934	-1004	-63	1008	-4.407008	-2.262552	-24.56977	0	11.11	4002	0	0	0	0	0.02	0.1878562	3	3	0.001	0
739979	-296	1057	787	-4.715843	-2.728073	-25.04817	0	11.11	4003	0	0	0	0	0.02	0.1947884	3	3	0.001	0
740117	-859	-724	1279	-6.149935	-3.442159	-28.79206	0	11.11	4002	0	0	0	0	0.02	0.1963633	3	3	0.001	0
740184	145	64	-56	-6.223856	-3.223235	-29.47368	0	11.11	4003	0	0	0	0	0.02	0.1930919	3	3	0.001	0
740318	-411	205	612	-5.5989	-2.812384	-29.28136	0	11.46	4004	0	0	0	0	0.02	0.1865904	3	3	0.001	0
740429	-440	-367	2394	-5.949259	-2.803308	-32.0159	0	11.46	4003	0	0	0	0	0.02	0.18023	3	3	0.001	0
740537	-62	-614	1867	-6.661489	-2.156648	-36.00271	0	11.46	4004	0	0	0	0	0.02	0.1754006	3	3	0.001	0
740623	2037	45	-886	-4.905087	-1.823927	-36.6815	0	11.46	4003	0	0	0	0	0.02	0.1727364	3	3	0.001	0
740772	449	1205	-742	-3.400081	-3.955115	-33.34917	0	11.46	4003	0	0	0	0	0.02	0.1707177	3	3	0.001	0
740805	92	1033	-82	-3.227918	-4.560311	-33.14914	0	11.46	4003	0	0	0	0	0.02	0.169783	3	3	0.001	0
740883	-130	120	741	-3.310423	-5.361385	-34.09439	0	11.46	4002	0	0	0	0	0.02	0.1660894	3	3	0.001	0
741035	435	-148	-837	-3.099176	-5.305941	-33.58036	0	11.46	4003	0	0	0	0	0.02	0.1604276	3	3	0.001	0
741081	-15	-491	-635	-2.919102	-4.768925	-32.7007	0	11.46	4003	0	0	0	0	0.02	0.1594413	3	3	0.001	0
741189	-31	225	-14	-2.752862	-4.705843	-32.19527	0	11.46	4003	0	0	0	0	0.02	0.1583021	3	3	0.001	0
741337	117	186	-342	-2.601262	-4.960901	-31.94864	0	11.46	4003	0	0	0	0	0.02	0.1528345	3	3	0.001	0
741426	120	-181	-321	-2.341482	-5.10811	-31.43043	0	11.46	4002	7	11	-16	0	0.02	0.1503027	3	3	0.001	0
741498	-26	114	-266	-2.336458	-4.994294	-31.08653	0	11.46	4003	7	19	-23	0	0.02	0.1475666	3	3	0.001	0
741612	-311	145	410	-2.511027	-5.047149	-31.22902	0	11.46	4002	18	18	-12	0	0.02	0.1376635	3	3	0.001	0
741748	-13	-72	-238	-2.607216	-4.963056	-31.03749	0	11.46	4002	14	28	-26	0	0.02	0.123173	3	3	0.001	0
741837	87	-715	146	-2.532064	-4.474932	-31.12516	0	11.46	4002	6	-1	-19	0	0.02	0.1085012	3	3	0.001	0
741964	255	-639	-210	-1.839042	-2.857516	-30.74149	0	11.46	4003	6	-4	-35	0	0.02	0.09765521	3	3	0.001	0
742019	106	-726	-74	-1.550436	-2.341975	-30.51159	0	11.46	4004	32	17	-39	0	0.02	0.0942459	3	3	0.001	0
742270	387	-106	-529	-1.519161	-2.68704	-30.82086	0	11.4	4002	0	21	-84	0	0.02	0.106736	3	3	0.001	0
742336	165	207	-15	-1.288521	-2.758864	-30.39309	0	11.4	4002	27	43	-111	0	0.02	0.1109396	3	3	0.001	0
742458	-12	-442	215	-1.279394	-2.346498	-30.72294	0	11.4	4004	19	16	-119	0	0.02	0.1160435	3	3	0.001	0
742533	358	27	-282	-0.9973463	-2.119497	-30.57841	0	11.4	4003	21	34	-132	0	0.02	0.1170742	3	3	0.001	0
742653	-208	159	515	-0.6911299	-2.113158	-30.76948	0	11.4	4003	3	26	-122	0	0.02	0.1124705	3	3	0.001	0
742734	-359	199	-337	-1.041744	-2.321982	-30.99842	0	11.4	4003	39	39	-121	0	0.02	0.1119252	3	3	0.001	0
742842	-383	-63	-1481	-1.44466	-2.378653	-29.87368	0	11.4	4002	0	0	0	0	0.02	0.1116413	3	3	0.001	0
743001	-643	168	226	-2.092615	-2.711466	-28.14375	0	11.4	4003	18	12	6	0	0.02	0.1205289	3	3	0.001	0
743212	-113	-105	-26	-2.455341	-2.137569	-28.39457	0	11.4	4002	20	12	4	0	0.02	0.1316454	3	3	0.001	0
743330	-36	-324	149	-2.592056	-1.747105	-28.8367	0	11.4	4003	9	-4	21	0	0.02	0.1340217	3	3	0.001	0
743384	-44	-76	-72	-2.574999	-1.644636	-28.93197	0	11.4	4004	15	6	19	0	0.02	0.1343643	3	3	0.001	0
743447	-13	48	202	-2.621154	-1.750704	-28.96236	0	11.4	4003	11	11	23	0	0.02	0.1406217	3	3	0.001	0
743573	366	-521	-223	-2.778879	-1.591659	-29.17011	0	11.4	4004	13	7	23	0	0.02	0.1412849	3	3	0.001	0
743657	-228	-68	-42	-2.849131	-1.284292	-28.79175	0	11.4	4003	29	20	16	0	0.02	0.1440789	3	3	0.001	0
743790	169	-180	-99	-2.566959	-1.060274	-28.51	0	11.4	4003	20	-1	7	0	0.02	0.1547754	3	3	0.001	0
743892	-214	-70	496	-2.56547	-0.7109658	-29.03823	0	11.4	4004	42	-2	24	0	0.02	0.1584872	3	3	0.001	0
744005	7	-165	20	-2.741668	-0.7066914	-29.48735	0	11.46	4004	20	-10	33	0	0.02	0.155634	3	3	0.001	0
744051	117	-162	-136	-2.702958	-0.6718045	-29.46962	0	11.46	4002	19	0	30	0	0.02	0.1509459	3	3	0.001	0
744190	-192	41	91	-2.840867	-0.8907869	-29.15204	0	11.46	4002	29	21	28	0	0.02	0.1554658	3	3	0.001	0
744254	-152	120	135	-3.079866	-0.9022623	-29.22132	0	11.46	4002	47	18	27	0	0.02	0.1571705	3	3	0.001	0
744402	-287	-220	-40	-3.298692	-0.3658709	-29.12637	0	11.46	4002	52	2	24	0	0.02	0.1613095	3	3	0.001	0
744482	124	-395	-143	-2.922184	0.2912084	-28.99236	0	11.46	4002	39	-22	19	0	0.02	0.161861	3	3	0.001	0
744566	264	-293	-99	-2.537183	0.6566218	-28.80772	0	11.46	4004	57	3	15	0	0.02	0.1603902	3	3	0.001	0
744724	-476	580	210	-3.249622	-0.09932516	-29.46671	0	11.46	4004	68	13	33	0	0.02	0.16008	3	3	0.001	0
744838	113	-166	-292	-3.351196	-0.3369432	-29.31399	0	11.46	4003	36	4	31	0	0.02	0.1556525	3	3	0.001	0
744892	-99	-166	326	-3.461145	-0.1278654	-29.6173	0	11.51	4002	58	9	38	0	0.02	0.1532969	3	3	0.001	0
745014	72	99	-314	-3.36985	-0.4746687	-29.74216	0	11.51	4004	43	-3	34	0	0.02	0.1506035	3	3	0.001	0
745178	-173	93	328	-3.029753	-1.059418	-29.82201	0	11.51	4002	56	27	46	-27	0.02	0.147454	6	3	0.001	0
745253	81	-9	-56	-2.932773	-1.191435	-29.98903	0	11.51	4003	73	-6	45	1	0.02	0.1476744	6	3	0.001	0
745337	-232	-44	-34	-2.815566	-1.264437	-29.82776	0	11.51	4003	95	20	44	2	0.02	0.149372	6	3	0.001	0
745391	-118	-9	-26	-2.810441	-1.316261	-29.9062	0	11.51	4002	94	-6	43	28	0.02	0.1490322	6	3	0.001	0
745485	-171	166	134	-2.88513	-1.36241	-29.95616	0	11.51	4002	43	26	45	-18	0.02	0.1468444	6	3	0.001	0
745568	5	132	233	-2.851676	-1.391293	-30.03503	0	11.51	4003	50	46	48	-34	0.02	0.1493197	6	3	0.001	0
745698	210	-134	-273	-2.771971	-1.229531	-30.0695	0	11.51	4003	40	27	44	-17	0.02	0.1523957	6	3	0.001	0
745755	-174	-231	3	-2.608173	-1.032685	-29.95745	0	11.51	4002	87	8	44	25	0.02	0.1550765	6	3	0.001	0
745920	-31	51	57	-2.670718	-1.040541	-30.14886	0	11.51	4004	77	36	51	0	0.02	0.1589856	3	3	0.001	0
745973	-117	288	366	-2.724971	-1.321766	-30.10957	0	11.51	4010	76	37	46	0	0.02	0.1585425	3	3	0.001	0
746097	224	-193	-370	-2.521235	-1.286204	-30.09862	0	11.51	4002	22	12	45	0	0.02	0.1630279	3	3	0.001	0
746167	177	71	53	-2.273359	-1.326803	-30.00558	0	11.51	4003	93	30	49	0	0.02	0.1682307	3	3	0.001	0
746272	-55	207	361	-2.367946	-1.730552	-30.31983	0	11.51	4003	30	0	63	0	0.02	0.1690038	3	3	0.001	0
746375	-257	-39	-28	-2.610076	-1.79962	-30.71288	0	11.51	4003	67	-4	62	0	0.02	0.1701095	3	3	0.001	0
746503	120	-309	92	-2.320444	-1.194486	-30.38564	0	11.51	4003	49	35	53	0	0.02	0.1774592	3	3	0.001	0
746636	131	-119	-190	-2.098196	-0.616711	-30.15633	0	11.51	4002	47	29	49	0	0.02	0.1814751	3	3	0.001	0
746694	-145	-73	87	-2.093735	-0.5585868	-30.11513	0	11.51	4003	82	-17	48	0	0.02	0.1816787	3	3	0.001	0
746818	-209	257	531	-2.220556	-0.778079	-30.3518	0	11.29	4002	0	0	0	0	0.02	0.181037	3	3	0.001	0
746892	-593	133	608	-2.757432	-1.066982	-30.90586	0	11.29	4002	0	0	0	0	0.02	0.180638	3	3	0.001	0
747001	-153	395	51	-3.174547	-1.658917	-31.33249	0	11.29	4003	0	0	0	0	0.02	0.1808981	3	3	0.001	0
747133	-361	395	381	-3.843755	-2.402633	-31.44945	0	11.29	4002	0	0	0	0	0.02	0.1726736	3	3	0.001	0
747222	-347	94	365	-4.148719	-2.576319	-31.80692	0	11.29	4003	16	7	9	0	0.02	0.1670002	3	3	0.001	0
747305	67	-221	-163	-4.199593	-2.543895	-32.05233	0	11.29	4003	11	0	-1	0	0.02	0.1639941	3	3	0.001	0
747400	137	-171	54	-3.860815	-2.256669	-31.75895	0	11.29	4002	13	6	1	0	0.02	0.1552399	3	3	0.001	0
747566	161	-128	-165	-3.551569	-1.798869	-31.70461	0	11.29	4003	16	10	-3	0	0.02	0.1425753	3	3	0.001	0
747625	111	-198	141	-3.432775	-1.599063	-31.71317	0	11.29	4004	1	-2	1	0	0.02	0.1382509	3	3	0.001	0
747710	-34	-27	-172	-3.38305	-1.497813	-31.78685	0	11.51	4003	20	8	0	0	0.02	0.1323906	3	3	0.001	0
747851	-129	-3	-20	-3.21007	-1.437095	-31.44019	0	11.51	4003	3	1	-9	0	0.02	0.1249375	3	3	0.001	0
747988	-9	30	74	-3.198184	-1.590868	-31.59598	0	11.51	4002	27	11	-3	0	0.02	0.1198194	3	3	0.001	0
748062	32	-30	-190	-3.186676	-1.611621	-31.52769	0	11.51	4003	16	11	-5	0	0.02	0.1202409	3	3	0.001	0
748148	-91	-70	-13	-3.177083	-1.489681	-31.505	0	11.51	4003	26	6	-4	0	0.02	0.1273374	3	3	0.001	0
748243	-23	-133	-60	-3.106111	-1.292754	-31.57133	0	11.51	4003	31	-8	-4	0	0.02	0.1302436	3	3	0.001	0
748378	66	-54	43	-3.157904	-1.301732	-31.64474	0	11.51	4003	29	23	-1	0	0.02	0.135934	3	3	0.001	0
748452	75	-22	-19	-3.097851	-1.444072	-31.62751	0	11.51	4003	37	20	-5	0	0.02	0.1363382	3	3	0.001	0
748537	-58	22	-88	-3.034014	-1.659788	-31.60158	0	11.51	4003	35	19	-5	0	0.02	0.1386514	3	3	0.001	0
748640	-97	255	84	-3.181383	-1.790865	-31.5175	0	11.4	4004	55	40	-9	0	0.02	0.1426863	3	3	0.001	0
748802	226	237	-182	-3.391848	-2.406754	-31.0271	0	11.4	4003	40	25	-25	0	0.02	0.1338414	3	3	0.001	0
748861	87	-388	-174	-3.067032	-2.11257	-30.65815	0	11.4	4002	45	15	-28	0	0.02	0.1276708	3	3	0.001	0
749003	-10	19	60	-2.390368	-1.457619	-30.50059	0	11.4	4002	42	27	-34	0	0.02	0.1241998	3	3	0.001	0
749033	-132	98	281	-2.471543	-1.47977	-30.61602	0	11.4	4003	56	32	-28	0	0.02	0.1246659	3	3	0.001	0
749171	423	-781	45	-2.060274	-1.000748	-30.92562	0	11.4	4002	33	-8	-19	0	0.02	0.1246135	3	3	0.001	0
749269	-200	114	209	-1.673469	-0.4764709	-30.9719	0	11.4	4002	46	13	-18	0	0.02	0.1261649	3	3	0.001	0
749414	618	-565	7	-1.445268	0.3594493	-30.99345	0	11.4	4003	39	4	-17	0	0.02	0.1236519	3	3	0.001	0
749554	404	-1387	276	-0.15395	2.425126	-31.94248	0	11.46	4003	28	-18	7	0	0.02	0.1248986	3	3	0.001	0
749676	600	-375	-118	0.8961126	3.709105	-32.09275	0	11.46	4002	15	-3	6	0	0.02	0.1298791	3	3	0.001	0
749758	143	-213	18	1.455582	4.153823	-32.21319	0	11.46	4002	20	-26	12	0	0.02	0.1357064	3	3	0.001	0
749853	-457	924	315	1.376822	3.739661	-32.54433	0	11.46	4004	48	76	25	0	0.02	0.1470991	3	3	0.001	0
749957	-1269	1637	24	-0.4604706	1.07505	-32.82869	0	11.46	4004	42	14	25	0	0.02	0.1542914	3	3	0.001	0
750076	944	-1681	-364	-0.4863417	1.071108	-32.42592	0	11.46	4004	7	-70	12	0	0.02	0.1702977	3	3	0.001	0
750169	1379	-2132	460	1.198636	3.301188	-32.54404	0	11.46	4002	4	-68	27	0	0.02	0.182394	3	3	0.001	0
750260	1415	-2543	433	4.135031	8.164079	-33.32401	0	11.46	4002	21	-25	47	0	0.02	0.1913531	3	3	0.001	0
750374	-1027	1816	-157	3.57422	6.395783	-33.87983	0	11.46	4002	49	8	55	0	0.02	0.2114816	3	3	0.001	0
750484	-3453	3984	960	-0.3417979	0.7086476	-34.90969	0	11.46	4002	127	16	106	0	0.02	0.2148771	3	3	0.001	0
750552	-3475	3097	1119	-3.963724	-3.03051	-36.63755	0	11.46	4003	143	63	142	0	0.02	0.2182506	3	3	0.001	0
750733	5495	-5947	-1883	-4.094753	-2.860839	-37.6452	0	11.46	4003	-90	-171	120	0	0.02	0.2255473	3	3	0.001	0
750798	4983	-5957	-2585	2.538908	4.392958	-35.39512	0	11.46	4004	-22	-78	47	0	0.02	0.2315831	3	3	0.001	0
750859	1418	-559	-2140	6.242527	7.241675	-32.64318	0	11.46	4003	71	70	-4	0	0.02	0.2350144	3	3	0.001	0
751046	126	500	-760	-3.870884	-4.651415	-39.07482	0	11.46	4003	66	40	186	0	0.02	0.2286479	3	3	0.001	0
751120	4779	-2633	-3048	-1.004644	-2.947143	-36.8152	0	11.46	4003	-76	-80	65	0	0.02	0.2249613	3	3	0.001	0
751183	1230	-1910	-4016	2.884178	0.08625958	-32.49723	0	11.46	4002	64	-19	-46	0	0.02	0.2224429	3	3	0.001	0
751260	246	1283	3561	1.511264	-0.7375235	-30.80647	0	11.46	4004	32	59	14	0	0.02	0.2222986	3	3	0.001	0
751479	2739	1333	1275	-1.434928	-2.980706	-32.1755	0	11.17	4003	-1	62	5	0	0.02	0.2220463	3	3	0.001	0
751588	-1545	-970	-942	4.062336	-2.533388	-33.67217	0	11.17	4003	148	-1	22	0	0.02	0.2121647	3	3	0.001	0
751676	2118	1569	620	0.2617609	-2.705014	-32.14682	0	11.17	4003	-79	56	18	0	0.02	0.211286	3	3	0.001	0
751745	-8	-584	-460	2.716099	-3.086484	-32.4381	0	11.17	4003	137	-18	3	0	0.02	0.2094799	3	3	0.001	0
751848	1606	528	-171	-0.7296865	-2.407528	-30.61804	0	11.17	4002	-19	73	-40	0	0.02	0.2072178	3	3	0.001	0
751972	-657	-890	290	1.376534	-2.235107	-30.64697	0	11.17	4004	49	7	-23	0	0.02	0.2070089	3	3	0.001	0
752175	-305	-81	249	0.4456406	-1.992892	-32.88904	0	11.17	4004	52	34	26	0	0.02	0.2014326	3	3	0.001	0
752265	-187	-344	-99	0.4513136	-1.934454	-32.92889	0	11.46	4004	29	-6	29	0	0.02	0.1916414	3	3	0.001	0
752353	-235	-35	-183	0.1712732	-1.805036	-32.86463	0	11.46	4003	26	-11	25	0	0.02	0.1839407	3	3	0.001	0
752459	-269	243	-160	0.05824775	-1.817447	-32.64629	0	11.46	4004	21	24	16	-37	0.02	0.1780274	6	3	0.001	0
752559	-58	-14	-218	-0.04517355	-1.966203	-32.36207	0	11.46	4002	26	21	14	-7	0.02	0.1753834	6	3	0.001	0
752667	255	-91	67	-0.1196921	-1.729238	-32.43262	0	11.46	4004	59	36	16	39	0.02	0.1731085	6	3	0.001	0
752810	22	-1	-350	0.01831218	-1.634919	-32.11023	0	11.46	4002	12	7	5	-17	0.02	0.1703169	6	3	0.001	0
752892	-5	137	150	0.2098635	-1.774441	-31.87833	0	11.46	4003	61	32	2	-4	0.02	0.1733332	6	3	0.001	0
752978	63	-128	387	0.1213428	-1.897777	-32.28338	0	11.46	4002	27	4	14	-24	0.02	0.1750794	6	3	0.001	0
753060	-256	-85	392	-0.05237888	-1.631182	-32.62446	0	11.46	4002	47	16	25	-19	0.02	0.1733811	6	3	0.001	0
753293	-98	-171	81	-0.3060272	-0.3561957	-32.7257	0	11.29	4002	41	-5	22	-34	0.02	0.1606442	6	3	0.001	0
753433	-473	-351	218	-1.155349	-0.01006656	-33.18808	0	11.29	4004	33	24	40	12	0.02	0.1585456	6	3	0.001	0
753563	-11	-478	428	-1.300429	1.117596	-33.66521	0	11.29	4004	45	9	46	-46	0.02	0.1615939	6	3	0.001	0
753628	15	-776	583	-1.310126	1.734561	-34.45884	0	11.29	4003	70	12	68	-48	0.02	0.1634203	6	3	0.001	0
753723	413	1265	1511	-1.391162	1.418247	-35.71874	0	11.29	4002	48	48	97	-147	0.02	0.1679755	6	3	0.001	0
753763	396	1140	2122	-1.230272	0.5427251	-36.78139	0	11.29	4003	48	-5	164	-210	0.02	0.169462	6	3	0.001	0
753935	-198	173	-4145	-4.584899	-2.531094	-38.9599	0	11.29	4003	87	10	173	141	0.02	0.1909548	6	3	0.001	0
753990	1199	-1495	-6298	-4.190936	-2.432727	-36.16195	0	11.29	4004	83	-191	0	379	0.02	0.2083614	6	3	0.001	0
754089	4941	-7848	-6157	2.373507	6.975935	-26.46351	0	11.29	4002	-93	-174	-214	138	0.02	0.2458128	6	3	0.001	0
754291	1020	195	1207	15.36722	11.72312	-21.87155	0	10.6	4002	-53	30	-232	39	0.02	0.3336834	6	3	0.001	0
754383	-1896	3670	1090	14.64876	9.560189	-23.43013	0	10.6	4003	-30	40	-197	5	0.02	0.3804708	6	3	0.001	0
754504	-1734	155	-95	10.70493	6.322315	-24.03508	0	10.6	4003	12	-35	-196	-4	0.02	0.4380026	6	3	0.001	0
754573	-1723	-456	180	7.75952	6.794525	-23.87441	0	10.6	4004	17	-54	-199	-40	0.02	0.4597976	6	3	0.001	0
754670	-1192	577	487	5.579542	6.818398	-24.53827	0	10.6	4004	-20	-33	-179	-6	0.02	0.4812248	6	3	0.001	0
754774	-346	170	55	4.483851	6.695626	-24.93574	0	10.6	4003	7	-43	-170	29	0.02	0.4988365	6	3	0.001	0
754950	-313	443	702	3.378989	5.853557	-25.6708	0	10.6	4003	-13	-26	-142	2	0.02	0.5199397	6	3	0.001	0
755006	-383	436	380	3.177605	5.432304	-26.33464	0	10.6	4004	-9	-56	-127	-10	0.02	0.523901	6	3	0.001	0
755147	-738	137	261	2.057351	4.724117	-26.79826	0	11.23	4002	16	-27	-112	14	0.02	0.5337804	6	3	0.001	0
755197	-544	315	589	0.8480247	4.394224	-27.55846	0	11.23	4003	0	-44	-97	39	0.02	0.535486	6	3	0.001	0
755296	-287	1271	395	0.0043321	3.467184	-28.45683	0	11.23	4004	14	-21	-74	129	0.02	0.5452832	6	3	0.001	0
755446	-236	1730	1965	-1.06994	1.986685	-31.44707	0	11.23	4004	12	7	25	126	0.02	0.5639067	6	3	0.001	0
755491	1283	1185	977	-0.3076818	0.9703972	-32.97927	0	11.23	4003	-32	-34	35	106	0.02	0.5727322	6	3	0.001	0
755635	623	1520	1682	2.040172	-0.2639626	-34.88821	0	11.23	4003	-2	45	81	157	0.02	0.5862085	6	3	0.001	0
755754	11	1547	325	2.396342	-2.517494	-36.05864	0	11.23	4004	48	-5	114	134	0.02	0.5974366	6	3	0.001	0
755822	-1899	-2809	-705	1.11085	-2.616561	-35.91473	0	11.23	4003	8	-143	90	-144	0.02	0.599999	6	3	0.001	0
755882	-868	-3338	-1919	-0.0191916	1.11533	-34.66303	0	11.23	4004	17	-40	40	-321	0.02	0.5988043	6	3	0.001	0
756030	3425	3665	-1075	0.4598223	-0.7619815	-28.79428	0	11.4	4003	-84	56	-82	-63	0.02	0.5878786	6	3	0.001	0
756085	970	762	465	2.702211	-3.332118	-28.78786	0	11.4	4004	18	-17	-63	0	0.02	0.5758148	6	3	0.001	0
756271	-863	-509	-616	0.9707431	-1.496499	-31.39283	0	11.4	4003	8	-45	-23	-10	0.02	0.5347593	6	3	0.001	0
756336	-589	-159	-470	0.1363983	-0.4781353	-30.22871	0	11.4	4003	11	-17	-43	-3	0.02	0.5175921	6	3	0.001	0
756395	-271	43	295	-0.2253592	-0.7754147	-30.15859	0	11.4	4003	5	-22	-41	19	0.02	0.5005447	6	3	0.001	0
756473	-168	-133	174	-0.1628778	-0.6472911	-30.42978	0	11.4	4003	27	4	-32	17	0.02	0.4835508	6	3	0.001	0
756576	-150	-243	171	-0.3489327	-0.6056762	-30.76683	0	11.4	4002	0	-39	-21	-7	0.02	0.4622197	6	3	0.001	0
756732	103	743	1050	-0.7362125	-1.185925	-31.58549	0	11.4	4002	11	1	-5	-90	0.02	0.4287954	6	3	0.001	0
756942	-191	607	2896	-0.6121046	1.646654	-39.81487	0	11.4	4002	-9	-63	214	-160	0.02	0.3835057	6	3	0.001	0
757058	-1580	-563	-1161	-0.4918102	2.076203	-38.34711	0	11.4	4004	19	-39	159	-39	0.02	0.3645854	6	3	0.001	0
757090	-794	981	-707	-0.4294317	1.493271	-37.81658	0	11.4	4003	4	-34	146	90	0.02	0.3670586	6	3	0.001	0
757159	-1882	-934	-2708	-0.9116184	1.4929	-36.93036	0	11.4	4003	120	-255	73	374	0.02	0.3734802	6	3	0.001	0
757282	1287	169	-1517	0.6911523	6.752007	-30.80974	0	11.4	4003	-23	-137	-24	78	0.02	0.4191035	6	3	0.001	0
757437	-688	1158	461	-1.525605	4.009271	-31.65196	0	11.4	4002	61	-108	1	236	0.02	0.4966979	6	3	0.001	0
757453	306	333	-56	-1.892565	4.228761	-31.83338	0	11.4	4004	-13	-41	1	236	0.02	0.4966979	6	3	0.001	0
757579	678	-398	-923	-1.374881	5.773829	-29.82778	0	11.4	4004	10	-66	-50	31	0.02	0.5650199	6	3	0.001	0
757717	-956	1716	396	-2.003426	4.034879	-31.12053	0	11.4	4003	64	-61	-19	-45	0.02	0.6205037	6	3	0.001	0
757839	228	-31	-260	-2.332861	3.205848	-30.37753	0	11.46	4004	27	-87	-39	-6	0.02	0.6552473	6	3	0.001	0
757901	-425	-648	279	-2.088487	4.428437	-30.33137	0	11.46	4004	49	-60	-33	-21	0.02	0.6707737	6	3	0.001	0
758060	725	862	132	-1.528896	3.847723	-30.49525	0	11.46	4004	-30	-18	-32	-8	0.02	0.7015917	6	3	0.001	0
758188	-34	-216	278	-1.409345	3.723286	-30.60404	0	11.46	4003	16	-38	-25	6	0.02	0.720166	6	3	0.001	0
758268	281	414	-13	-1.345414	3.31239	-30.74988	0	11.46	4003	49	-59	-26	-6	0.02	0.7261793	6	3	0.001	0
758337	123	296	182	-0.8567004	2.933151	-30.88859	0	11.46	4003	18	-93	-23	19	0.02	0.7289571	6	3	0.001	0
758439	116	1162	-13	-0.8557603	2.306808	-30.94075	0	11.46	4004	47	-77	-19	94	0.02	0.7309271	6	3	0.001	0
758531	942	2338	-277	-0.1903041	1.491646	-30.80742	0	11.46	4002	26	-44	-24	63	0.02	0.731904	6	3	0.001	0
758753	-314	-713	-862	5.237604	-3.78128	-31.35276	0	11.23	4003	19	-22	-13	53	0.02	0.7341604	6	3	0.001	0
758843	-1141	-970	-726	5.102748	-4.059423	-30.47582	0	11.23	4004	-12	-105	-34	-123	0.02	0.7288046	6	3	0.001	0
758946	-1708	-4280	-2411	2.617266	-1.035983	-28.4859	0	11.23	4003	56	-137	-119	-245	0.02	0.7111	6	3	0.001	0
759123	409	1713	-405	-0.198575	0.8575417	-24.23835	0	11.23	4004	-3	-30	-195	-63	0.02	0.6766072	6	3	0.001	0
759195	745	115	788	0.1916998	-0.4891292	-24.39474	0	11.23	4003	-1	-57	-183	-3	0.02	0.6500388	6	3	0.001	0
759251	600	-232	808	0.2538744	-0.1739635	-24.85375	0	11.23	4004	-8	-75	-159	-27	0.02	0.6208032	6	3	0.001	0
759355	71	-685	-166	0.1477077	0.8538619	-25.34307	0	11.23	4004	10	-88	-166	-21	0.02	0.5781013	6	3	0.001	0
759527	-12	-289	258	0.02186854	1.095714	-24.46645	0	11.23	4003	42	-55	-176	18	0.02	0.5028728	6	3	0.001	0
759563	-618	-649	654	-0.1975499	1.352924	-24.72281	0	11.23	4004	31	-78	-166	22	0.02	0.4950821	6	3	0.001	0
759667	-441	76	474	-0.6725609	1.634827	-26.20292	0	11.11	4002	34	-57	-129	34	0.02	0.4674896	6	3	0.001	0
759770	224	454	-326	-0.4984245	0.9742315	-26.44841	0	11.11	4004	23	-56	-136	14	0.02	0.4397896	6	3	0.001	0
759880	-85	77	301	-0.04366083	0.5909559	-26.17682	0	11.11	4002	5	-79	-136	1	0.02	0.4095603	6	3	0.001	0
760033	-45	58	9	-0.1310433	0.3719993	-26.52229	0	11.11	4003	3	-63	-131	-4	0.02	0.3765957	6	3	0.001	0
760166	75	166	188	0.1213719	0.1284839	-26.58818	0	11.11	4003	8	-66	-127	-3	0.02	0.3588035	6	3	0.001	0
760305	0	56	132	0.1651233	0.2547918	-26.66675	0	11.11	4004	1	-71	-125	1	0.02	0.3390316	6	3	0.001	0
760370	135	248	71	0.4223096	-0.08357492	-26.85366	0	11.11	4004	-3	-57	-115	-7	0.02	0.3339889	6	3	0.001	0
760474	-79	168	-25	0.3755248	-0.3798064	-27.11985	0	11.11	4003	15	-43	-117	28	0.02	0.3214023	6	3	0.001	0
760628	-159	0	86	0.5206944	-0.5289034	-27.25901	0	10.83	4002	24	-45	-113	-16	0.02	0.3106733	6	3	0.001	0
760700	64	178	44	0.4950834	-0.643785	-27.27943	0	10.83	4003	3	-65	-111	-14	0.02	0.307039	6	3	0.001	0
760784	-9	-22	26	0.5314725	-0.7462149	-27.19664	0	10.83	4002	8	-58	-114	17	0.02	0.3002144	6	3	0.001	0
761007	-22	3	-31	0.3028088	-0.848508	-27.4116	0	10.83	4004	8	-59	-109	1	0.02	0.2819853	6	3	0.001	0
761121	51	47	110	0.4722369	-0.9287772	-27.38446	0	10.83	4003	11	-66	-107	-5	0.02	0.270951	6	3	0.001	0
761196	-73	-80	18	0.3366376	-0.7297642	-27.45728	0	10.83	4004	16	-57	-107	25	0.02	0.2678298	6	3	0.001	0
761315	-32	5	78	0.5598451	-0.6668707	-27.45447	0	10.83	4004	0	-67	-106	-29	0.02	0.2637424	6	3	0.001	0
761460	97	1000	651	0.1478475	-1.205283	-27.91129	0	10.83	4003	19	-28	-94	-58	0.02	0.253609	6	3	0.001	0
761503	88	172	222	0.1031168	-1.390418	-28.15937	0	11.46	4004	3	-81	-89	-151	0.02	0.2523302	6	3	0.001	0
761636	137	-1899	1694	0.1650597	1.888168	-29.93237	0	11.46	4002	28	-109	-44	-166	0.02	0.2517761	6	3	0.001	0
761750	-254	340	1824	0.6539288	1.276102	-33.80258	0	11.46	4002	12	-39	59	-151	0.02	0.2521077	6	3	0.001	0
761862	-1834	784	-887	-1.420261	0.01637747	-35.914	0	11.46	4004	-7	-44	83	166	0.02	0.2607681	6	3	0.001	0
761910	944	697	-1245	-0.6205028	-0.8396891	-35.29043	0	11.46	4002	-14	-55	67	189	0.02	0.2699271	6	3	0.001	0
762079	1776	507	-1318	5.914045	-0.5240365	-30.40023	0	11.46	4004	-107	-6	-53	70	0.02	0.3497982	6	3	0.001	0
762120	805	-869	83	6.23082	1.399269	-29.57505	0	11.46	4004	19	-81	-52	257	0.02	0.3617013	6	3	0.001	0
762219	-950	-92	-64	5.617526	2.928664	-29.8202	0	11.46	4003	12	-93	-47	56	0.02	0.4049929	6	3	0.001	0
762322	287	411	178	3.993984	4.751657	-30.09239	0	11.46	4004	-8	-66	-42	85	0.02	0.4462906	6	3	0.001	0
762559	-700	461	-62	2.277178	3.095522	-29.41465	0	11.46	4009	-11	-49	-59	-12	0.02	0.5336601	6	3	0.001	0
762645	-67	-150	-292	1.966627	2.622999	-29.08575	0	11.46	4003	0	-82	-73	-8	0.02	0.5814434	6	3	0.001	0
762737	-176	-185	295	2.463967	3.144487	-28.76723	0	11.46	4004	-16	-76	-69	-2	0.02	0.5992522	6	3	0.001	0
762888	-413	319	-181	1.688707	2.369342	-29.47616	0	11.46	4003	-20	-87	-60	-1	0.02	0.6183801	6	3	0.001	0
762965	-85	-396	-659	1.664694	2.610615	-28.79364	0	11.46	4003	-4	-106	-77	16	0.02	0.6297029	6	3	0.001	0
763111	-148	-203	186	1.436193	2.934801	-28.75933	0	11.46	4003	-21	-92	-73	9	0.02	0.656927	6	3	0.001	0
763156	-328	25	-120	1.340784	2.932817	-28.76643	0	11.46	4004	7	-77	-77	7	0.02	0.6668316	6	3	0.001	0
763256	-199	-101	31	1.18471	2.680576	-28.45514	0	11.46	4003	8	-88	-85	26	0.02	0.6855014	6	3	0.001	0
763392	-23	371	9	0.9349962	2.603969	-28.59943	0	11.46	4003	6	-80	-77	13	0.02	0.7069944	6	3	0.001	0
763452	-66	412	221	0.9075665	2.274952	-28.77556	0	11.46	4003	10	-76	-72	-1	0.02	0.7149273	6	3	0.001	0
763610	-167	449	258	1.141635	1.93581	-29.29311	0	11.46	4004	35	-57	-53	119	0.02	0.7357969	6	3	0.001	0
763720	-757	2306	1702	1.189114	-0.7269385	-30.53152	0	11.46	4002	-31	5	0	176	0.02	0.7501823	6	3	0.001	0
763829	3819	522	-146	6.706367	-2.337742	-33.84942	0	11.46	4003	-151	-78	61	95	0.02	0.7551696	6	3	0.001	0
763911	909	470	-2501	8.331282	-3.573481	-32.12704	0	11.46	4002	-42	-101	-33	114	0.02	0.7550223	6	3	0.001	0
763959	-1077	-197	-803	7.734952	-4.270373	-30.22062	0	11.46	4004	-1	-9	-46	27	0.02	0.7505443	6	3	0.001	0
764153	-2412	-2990	-1859	4.413098	-3.24755	-28.87379	0	11.46	4004	36	-94	-100	-65	0.02	0.7121665	6	3	0.001	0
764171	-3126	-2439	-1231	3.058418	-2.250854	-28.07414	0	11.46	4002	38	-130	-111	-99	0.02	0.7121665	6	3	0.001	0
764286	-2741	-1082	-1053	-1.881345	0.4219948	-26.53255	0	11.46	4004	50	-93	-149	-146	0.02	0.6636247	6	3	0.001	0
764370	178	542	-394	-3.790272	1.041793	-24.94881	0	11.4	4002	2	-51	-174	-118	0.02	0.6341916	6	3	0.001	0
764520	-50	-708	1244	-4.016068	0.9639311	-26.24508	0	11.4	4002	12	-90	-118	-15	0.02	0.5755039	6	3	0.001	0
764570	-232	-669	1225	-4.222273	1.44213	-26.91239	0	11.4	4004	0	-103	-95	20	0.02	0.5136212	6	3	0.001	0
764743	0	-317	-815	-2.923787	1.700295	-27.14224	0	11.4	4003	4	-93	-124	9	0.02	0.4321209	6	3	0.001	0
764779	138	-564	-725	-2.994661	1.983406	-26.47058	0	11.4	4004	24	-63	-132	-25	0.02	0.4224995	6	3	0.001	0
764904	742	140	177	-2.26231	2.096013	-25.97429	0	11.4	4002	-7	-110	-139	0	0.02	0.3720294	6	3	0.001	0
764982	-18	504	291	-1.62316	1.488234	-26.43652	0	11.4	4004	16	-72	-126	27	0.02	0.3520241	6	3	0.001	0
765112	118	-17	-349	-1.324268	1.483104	-26.5262	0	11.4	4002	9	-76	-137	33	0.02	0.3287638	6	3	0.001	0
765197	-59	7	-108	-1.107575	1.228261	-26.23337	0	11.4	4003	15	-77	-137	0	0.02	0.3185005	3	3	0.001	0
765280	-309	363	-441	-1.224059	0.9179136	-26.15211	0	11.46	4002	0	0	0	0	0.02	0.3062592	1	3	0.001	0
765383	-438	-1284	-589	-1.101247	1.648007	-25.39326	0	11.46	4002	0	0	0	0	0.02	0.3017113	1	3	0.001	0
765522	-989	710	833	-3.302219	2.114774	-25.62253	0	11.46	4003	0	0	0	0	0.02	0.2949414	1	3	0.001	0
765604	-94	-261	534	-4.041546	1.694651	-26.74936	0	11.46	4008	0	0	0	0	0.02	0.2875898	1	3	0.001	0
765694	533	-413	501	-3.487228	2.249538	-27.39297	0	11.46	4002	0	0	0	0	0.02	0.2772923	1	3	0.001	0
765808	132	-1567	-140	-2.94878	4.030684	-27.63904	0	11.46	4003	0	0	0	0	0.02	0.2583438	1	3	0.001	0
765901	-200	4359	305	-1.621987	3.078347	-27.8549	0	11.46	4004	0	0	0	0	0.02	0.2427994	1	3	0.001	0
766053	1145	342	109	-1.49675	1.025084	-26.65207	0	11.46	4002	0	0	0	0	0.02	0.22414	1	3	0.001	0
766223	555	-3937	2835	3.259976	10.46651	-27.73159	0	11.4	4004	0	0	0	0	0.02	0.2022671	1	3	0.001	0
766328	-1571	-4958	5622	-0.5362965	19.71757	-39.15162	0	11.4	4003	0	0	0	0	0.02	0.1992921	1	3	0.001	0
766431	-1499	-5524	4323	-2.805146	27.39422	-47.47548	0	11.4	4002	0	0	0	0	0.02	0.2067043	1	3	0.001	0
766494	1410	-5437	6155	-3.946034	31.96522	-53.02767	0	11.4	4003	0	0	0	0	0.02	0.2147908	1	3	0.001	0
766608	5532	-6527	7737	-2.539269	41.24585	-65.37868	0	11.4	4002	0	0	0	0	0.02	0.2583735	1	3	0.001	0
766705	4589	-2629	8142	-4.496003	49.02544	-78.58449	0	11.4	4004	0	0	0	0	0.02	0.2848588	1	3	0.001	0
766825	8795	-704	7851	-6.935476	50.75206	-95.34464	0	11.4	4002	0	0	0	0	0.02	0.338399	1	3	0.001	0
766885	10641	506	8017	-4.551926	48.19304	-104.2718	0	11.4	4002	0	0	0	0	0.02	0.3671055	1	3	0.001	0
767062	8279	3863	4795	7.69524	33.93697	-121.4848	0	11.46	4002	0	0	0	0	0.02	0.4222234	1	3	0.001	0
767109	6388	3401	4520	9.787782	31.23847	-124.0217	0	11.46	4004	0	0	0	0	0.02	0.4289598	1	3	0.001	0
767218	-4207	11280	2755	3.837239	14.57481	-133.2607	0	11.46	4003	0	0	0	0	0.02	0.4653041	1	3	0.001	0
767350	-3951	6878	-396	-8.823503	-1.682412	-134.69	0	11.46	4003	0	0	0	0	0.02	0.4765935	1	3	0.001	0
767412	5826	-1061	-1053	-4.927683	-4.38482	-133.0363	0	11.46	4004	0	0	0	0	0.02	0.4796039	1	3	0.001	0
767526	4389	-562	-1759	0.6350471	-4.431231	-128.9277	0	11.46	4004	0	0	0	0	0.02	0.4765711	1	3	0.001	0
767602	6285	-270	-832	5.674583	-6.652359	-127.0504	0	11.46	4002	0	0	0	0	0.02	0.4697628	1	3	0.001	0
767734	440	-2654	4568	16.14107	-4.808974	-132.645	0	11.46	4004	0	0	0	0	0.02	0.4575702	1	3	0.001	0
767851	-648	79	2637	15.14372	-2.503612	-134.0226	0	11.46	4003	0	0	0	0	0.02	0.4458391	1	3	0.001	0
767884	669	1362	5907	15.70284	-2.472901	-136.5202	0	11.46	4004	0	0	0	0	0.02	0.4410963	1	3	0.001	0
767986	-1725	238	-941	14.27959	-1.290133	-142.428	0	11.46	4004	0	0	0	0	0.02	0.4356169	1	3	0.001	0
768129	-1008	-558	-650	11.544	-0.2622035	-137.4712	0	11.46	4003	0	0	0	0	0.02	0.4287104	1	3	0.001	0
768211	-557	645	-394	10.50979	-1.095288	-136.7657	0	11.46	4003	0	0	0	0	0.02	0.4255026	1	3	0.001	0
