time(ms)	gyro_x(deg/s)	gyro_y(deg/s)	gyro_z(deg/s)	orientation_roll(deg)	orientation_pitch(deg)	orientation_yaw(deg)	throttle	battery(V)	loop_time(uS)	pid_output_roll	pid_output_pitch	pid_output_yaw	pid_output_throttle	ultrasonic_alt	baro_alt	flight_mode	p_gain_altitude	i_gain_altitude	d_gain_altitude
512348	45	-2	1	0.3469838	-0.04290328	0.08847206	0	11.85	4004	0	0	0	0	0.02	0.07412256	1	20	0	0
512511	32	-4	0	0.3596962	-0.04522378	0.09397452	0	11.85	4003	0	0	0	0	0.02	0.05743224	1	20	0	0
512633	27	1	-2	0.3620586	-0.04778359	0.09917121	0	11.85	4004	0	0	0	0	0.02	0.05224157	1	20	0	0
512700	41	-2	-1	0.3651639	-0.04885926	0.1019835	0	11.85	4003	0	0	0	0	0.02	0.0469887	1	20	0	0
512839	28	5	-5	0.3655403	-0.04795223	0.1082809	0	11.85	4002	0	0	0	0	0.02	0.0383322	1	20	0	0
513065	20	-2	2	0.3654313	-0.04362984	0.1132941	0	11.85	4003	0	0	0	0	0.02	0.03037538	1	20	0	0
513155	24	-5	-2	0.3694204	-0.04337269	0.1183684	0	11.85	4004	0	0	0	0	0.02	0.02910084	1	20	0	0
513262	24	-5	-6	0.376413	-0.04180291	0.1239933	0	11.85	4002	0	0	0	0	0.02	0.03684509	1	20	0	0
513405	33	0	0	0.3816881	-0.03909648	0.1318194	0	11.85	4002	0	0	0	0	0.02	0.05014081	1	20	0	0
513465	41	0	-9	0.376576	-0.03848974	0.1346931	0	11.85	4003	0	0	0	0	0.02	0.05016122	1	20	0	0
513571	42	-6	-3	0.3876171	-0.042842	0.1394612	0	11.8	4002	0	0	0	0	0.02	0.05188676	1	20	0	0
513757	36	-5	0	0.3993599	-0.04361897	0.1457586	0	11.8	4002	0	0	0	0	0.02	0.06904749	1	20	0	0
513842	38	-5	-1	0.4043868	-0.04335872	0.1499158	0	11.8	4004	0	0	0	0	0.02	0.07412108	1	20	0	0
513975	34	-9	-2	0.4196514	-0.04560117	0.1552958	0	11.8	4002	0	0	0	0	0.02	0.06813437	1	20	0	0
514047	29	0	-7	0.4170068	-0.04660246	0.1576189	0	11.8	4003	0	0	0	0	0.02	0.06169354	1	20	0	0
514156	35	-6	0	0.423291	-0.0484031	0.1636107	0	11.8	4003	0	0	0	0	0.02	0.06065678	1	20	0	0
514190	32	-1	-2	0.4289798	-0.047371	0.1639774	0	11.8	4002	0	0	0	0	0.02	0.06027958	1	20	0	0
514305	31	5	-7	0.4269497	-0.04701613	0.1682571	0	11.8	4003	0	0	0	0	0.02	0.06068574	1	20	0	0
514377	29	0	0	0.4287373	-0.04667072	0.1711915	0	11.8	4003	0	0	0	0	0.02	0.06472544	1	20	0	0
514471	28	-6	-5	0.4265527	-0.04951457	0.1776721	0	11.8	4004	0	0	0	0	0.02	0.06563089	1	20	0	0
514575	35	-9	-2	0.4367811	-0.05028959	0.1841527	0	11.85	4003	0	0	0	0	0.02	0.05912802	1	20	0	0
514759	40	-7	-6	0.4469712	-0.04903198	0.1929568	0	11.85	4004	0	0	0	0	0.02	0.04484307	1	20	0	0
514784	25	-8	-8	0.4504211	-0.04609345	0.1954021	0	11.85	4002	0	0	0	0	0.02	0.04337909	1	20	0	0
514924	23	2	-6	0.4458339	-0.04611721	0.1987037	0	11.85	4003	0	0	0	0	0.02	0.03489744	1	20	0	0
515038	24	0	0	0.4352506	-0.03851696	0.2061625	0	11.85	4003	0	0	0	0	0.02	0.02939533	1	20	0	0
515095	24	2	1	0.4369482	-0.03999208	0.2092194	0	11.85	4003	0	0	0	0	0.02	0.02476064	1	20	0	0
515198	38	-7	2	0.4389326	-0.04158069	0.2121542	0	11.85	4002	0	0	0	0	0.02	0.02011947	1	20	0	0
515350	38	-3	-3	0.4349557	-0.03863123	0.2201634	0	11.85	4004	0	0	0	0	0.02	0.02906918	1	20	0	0
515423	31	2	2	0.4391699	-0.04263259	0.2236482	0	11.85	4002	0	0	0	0	0.02	0.03192916	1	20	0	0
515517	44	-2	-3	0.4457766	-0.04417043	0.2271946	0	11.85	4009	0	0	0	0	0.02	0.0372373	1	20	0	0
515630	24	2	-4	0.4406883	-0.04834451	0.2310463	0	11.85	4002	0	0	0	0	0.02	0.03458383	1	20	0	0
515762	43	0	1	0.4449559	-0.05055974	0.236366	0	11.85	4002	0	0	0	0	0.02	0.02563559	1	20	0	0
515840	34	-5	0	0.4383003	-0.04805053	0.2375277	0	11.85	4004	0	0	0	0	0.02	0.02596072	1	20	0	0
515974	30	4	-5	0.4437056	-0.04524382	0.2424797	0	11.85	4003	0	0	0	0	0.02	0.02514004	1	20	0	0
516028	31	-3	-10	0.4442101	-0.04963963	0.2454755	0	11.85	4002	0	0	0	0	0.02	0.0250531	1	20	0	0
516107	51	2	-7	0.4407349	-0.0516219	0.2512226	0	11.85	4003	0	0	0	0	0.02	0.01732954	1	20	0	0
516211	30	0	-6	0.4448439	-0.05071008	0.2563581	0	11.85	4003	0	0	0	0	0.02	0.009123795	1	20	0	0
516370	32	4	-1	0.4458236	-0.05459053	0.2627165	0	11.85	4004	0	0	0	0	0.02	0.00851065	1	20	0	0
516442	33	2	-1	0.4459861	-0.05572014	0.2673019	0	11.8	4003	0	0	0	0	0.02	0.01193968	1	20	0	0
516563	34	-5	0	0.4549009	-0.05824388	0.2723151	0	11.8	4003	0	0	0	0	0.02	0.0242084	1	20	0	0
516634	44	-1	-4	0.463715	-0.06101775	0.2742715	0	11.8	4004	0	0	0	0	0.02	0.02502683	1	20	0	0
516745	40	1	-1	0.4624602	-0.05511897	0.2764112	0	11.8	4003	0	0	0	0	0.02	0.02015109	1	20	0	0
516861	35	-9	-2	0.4707556	-0.05254204	0.2806295	0	11.8	4002	0	0	0	0	0.02	0.01863303	1	20	0	0
516984	37	-3	1	0.4784298	-0.04349319	0.2880886	0	11.8	4002	0	0	0	0	0.02	0.02633585	1	20	0	0
517079	41	-3	-1	0.4884961	-0.03694503	0.2918793	0	11.8	4004	0	0	0	0	0.02	0.04069068	1	20	0	0
517134	36	-6	0	0.4840529	-0.04401757	0.2935912	0	11.8	4003	0	0	0	0	0.02	0.05062087	1	20	0	0
517287	49	1	-5	0.4808082	-0.05464661	0.3000112	0	11.8	4002	0	0	0	0	0.02	0.06236733	1	20	0	0
517357	24	0	-3	0.480205	-0.06183266	0.3020287	0	11.85	4002	0	0	0	0	0.02	0.06845132	1	20	0	0
517497	30	-1	-1	0.464943	-0.05577809	0.3084485	0	11.85	4004	0	0	0	0	0.02	0.07822648	1	20	0	0
517683	45	-6	1	0.4678594	-0.04952522	0.3101605	0	11.85	4003	0	0	0	0	0.02	0.06891394	1	20	0	0
517814	39	6	-1	0.4727088	-0.05288415	0.31713	0	11.85	4003	0	0	0	0	0.02	0.06379747	1	20	0	0
517890	39	2	-5	0.4749916	-0.0553198	0.3217152	0	11.85	4002	0	0	0	0	0.02	0.05685026	1	20	0	0
518041	25	-14	-2	0.4792338	-0.06116667	0.3243444	0	11.85	4004	0	0	0	0	0.02	0.04184619	1	20	0	0
518132	44	-5	-2	0.4789983	-0.0623936	0.3280127	0	11.85	4004	0	0	0	0	0.02	0.04563756	1	20	0	0
518200	42	0	-1	0.4888505	-0.06306157	0.3302139	0	11.85	4003	0	0	0	0	0.02	0.04849043	1	20	0	0
518253	37	-6	-4	0.4905531	-0.05942982	0.3325982	0	11.8	4002	0	0	0	0	0.02	0.04901672	1	20	0	0
518376	39	3	-6	0.4940653	-0.06131725	0.3346157	0	11.8	4002	0	0	0	0	0.02	0.04944302	1	20	0	0
518433	39	0	-2	0.5099742	-0.0639215	0.3411494	0	11.8	4002	0	0	0	0	0.02	0.04923519	1	20	0	0
518661	47	-4	-8	0.5250539	-0.06258009	0.3492812	0	11.8	4004	0	0	0	0	0.02	0.06427083	1	5	0.001	0
518878	35	1	-8	0.5189205	-0.0673695	0.3538054	0	11.8	4004	0	0	0	0	0.02	0.06715352	1	5	0.001	0
519011	45	-1	-2	0.5132173	-0.0677335	0.3606529	0	11.8	4004	0	0	0	0	0.02	0.05477572	1	5	0.001	0
519057	31	-3	-7	0.5193469	-0.06914251	0.3610195	0	11.8	4003	0	0	0	0	0.02	0.05386236	1	5	0.001	0
519162	38	0	4	0.5174804	-0.06830897	0.3634041	0	11.8	4003	0	0	0	0	0.02	0.05337091	1	5	0.001	0
519324	35	1	-1	0.5221036	-0.064758	0.3683563	0	11.85	4003	0	0	0	0	0.02	0.06115401	1	5	0.001	0
519432	44	-4	-5	0.5268346	-0.06417513	0.3764261	0	11.85	4003	0	0	0	0	0.02	0.07870341	1	5	0.001	0
519462	54	4	1	0.5296162	-0.06242764	0.3787495	0	11.85	4003	0	0	0	0	0.02	0.08134729	1	5	0.001	0
519621	35	-7	-9	0.5334182	-0.06028106	0.3877376	0	11.85	4004	0	0	0	0	0.02	0.08077741	1	5	0.001	0
519670	33	-6	-9	0.5377614	-0.05856168	0.3911001	0	11.85	4003	0	0	0	0	0.02	0.07810193	1	5	0.001	0
519762	39	-4	-5	0.5390247	-0.06400766	0.3949516	0	11.85	4003	0	0	0	0	0.02	0.07772928	1	5	0.001	0
519866	44	-5	-2	0.5468915	-0.06379714	0.3991093	0	11.85	4003	0	0	0	0	0.02	0.08241791	1	5	0.001	0
520045	47	-1	-2	0.5500282	-0.06876227	0.4076073	0	11.85	4004	0	0	0	0	0.02	0.08228846	1	5	0.001	0
520139	44	0	0	0.5512894	-0.06610437	0.4142103	0	11.85	4004	0	0	0	0	0.02	0.07812785	1	5	0.001	0
520173	44	0	0	0.5512894	-0.06610437	0.4142103	0	11.85	4004	0	0	0	0	0.02	0.07623433	1	5	0.001	0
520278	44	0	-5	0.5421255	-0.06756947	0.4217916	0	11.85	4002	0	0	0	0	0.02	0.07699546	1	5	0.001	0
520392	38	-3	-6	0.5447521	-0.06224766	0.4268046	0	11.85	4003	0	0	0	0	0.02	0.07381286	1	5	0.001	0
520489	53	-3	0	0.5448185	-0.06793083	0.4307786	0	11.85	4002	0	0	0	0	0.02	0.0654892	1	5	0.001	0
520592	46	-5	0	0.5415371	-0.06396563	0.4356692	0	11.85	4003	0	0	0	0	0.02	0.05460979	1	5	0.001	0
520748	39	-10	-7	0.5439773	-0.06443842	0.4452066	0	11.85	4004	0	0	0	0	0.02	0.04885214	1	5	0.001	0
520800	52	0	2	0.5482525	-0.06479044	0.4483251	0	11.85	4004	0	0	0	0	0.02	0.04790705	1	5	0.001	0
520901	37	-3	-5	0.5538813	-0.06026172	0.4528496	0	11.85	4004	0	0	0	0	0.02	0.05531293	1	5	0.001	0
521014	40	-4	-2	0.5518873	-0.06261455	0.4584131	0	11.85	4003	0	0	0	0	0.02	0.06184546	3	5	0.001	0
521112	43	-1	-1	0.5518081	-0.06377442	0.4634883	0	11.8	4002	0	0	0	0	0.02	0.0573433	3	5	0.001	0
521200	44	6	-8	0.5620166	-0.07150494	0.4681357	0	11.8	4004	0	0	0	0	0.02	0.05246781	3	5	0.001	0
521312	38	-1	-2	0.5587713	-0.07176858	0.4735763	0	11.8	4004	0	0	0	0	0.02	0.05039973	3	5	0.001	0
521408	46	-5	-7	0.5550704	-0.06919401	0.4793848	0	11.8	4003	0	0	0	0	0.02	0.04086616	3	5	0.001	0
521508	37	0	1	0.5552642	-0.06767616	0.4828086	0	11.8	4004	0	0	0	0	0.02	0.03250459	3	5	0.001	0
521627	44	-4	-4	0.5578746	-0.07029241	0.4891061	0	11.8	4002	0	0	0	0	0.02	0.03907992	3	5	0.001	0
521719	50	-2	1	0.5669402	-0.07316949	0.4952804	0	11.8	4004	0	0	0	0	0.02	0.04381173	3	5	0.001	0
521851	43	-5	-3	0.5697985	-0.07246528	0.4999264	0	11.8	4003	-3	0	0	0	0.02	0.04584599	3	5	0.001	0
521927	39	1	0	0.5759647	-0.07336265	0.5056736	0	11.8	4003	-3	0	0	0	0.02	0.04237703	3	5	0.001	0
522053	65	0	-7	0.5499516	-0.05600353	0.5137465	0	11.85	4002	-12	10	0	0	0.02	0.03815496	3	5	0.001	0
522120	46	44	29	0.5730832	-0.0467473	0.5232218	0	11.85	4002	2	-13	0	0	0.02	0.03937927	3	5	0.001	0
522255	-147	-158	-185	0.6179764	-0.003100473	0.5366994	0	11.85	4003	-9	11	0	0	0.02	0.04580802	3	5	0.001	0
522327	64	-15	24	0.6062058	-0.0566002	0.5337682	0	11.85	4003	-4	4	-2	0	0.02	0.04495836	3	5	0.001	0
522453	80	8	62	0.5579115	-0.1001759	0.5378543	0	11.85	4004	0	0	0	0	0.02	0.04849621	3	5	0.001	0
522609	61	16	-18	0.5644266	-0.1006634	0.5623612	0	11.85	4002	0	0	0	0	0.02	0.03649613	3	5	0.001	0
522721	66	-34	16	0.5728374	-0.08823486	0.5664601	0	11.85	4004	0	0	0	0	0.02	0.03415395	3	5	0.001	0
522763	50	-15	-24	0.5763465	-0.09032834	0.5664007	0	11.85	4002	1	5	0	0	0.02	0.03439016	3	5	0.001	0
522878	0	-18	-55	0.5742017	-0.08925776	0.5709275	0	11.85	4002	-10	9	0	0	0.02	0.03380485	3	5	0.001	0
522973	81	95	-143	0.5711578	-0.1017817	0.5825398	0	11.85	4002	-8	2	-1	0	0.02	0.0377646	3	5	0.001	0
523035	-44	-169	42	0.5689067	-0.06839525	0.5753876	0	11.85	4002	-5	14	0	0	0.02	0.03496423	3	5	0.001	0
523154	-269	-327	-23	0.4585546	0.02838456	0.5838284	0	11.85	4004	4	1	-1	0	0.02	0.02854436	3	5	0.001	0
523369	140	2	83	0.3221405	0.2354262	0.5737398	0	11.85	4003	3	-16	0	0	0.02	0.03049126	3	5	0.001	0
523487	-35	-1	66	0.2969407	0.3113517	0.5796738	0	11.85	4003	-14	11	-3	0	0.02	0.03381221	3	5	0.001	0
523559	91	117	-52	0.2664517	0.277025	0.5922045	0	11.85	4003	4	10	-1	0	0.02	0.04042647	3	5	0.001	0
523648	116	-2	125	0.2787648	0.2469232	0.6013198	0	11.85	4003	-12	8	-2	0	0.02	0.05226049	3	5	0.001	0
523795	-48	73	-29	0.3048109	0.2206196	0.6145848	0	11.8	4003	9	-3	-2	0	0.02	0.07432055	3	5	0.001	0
523881	82	-14	-91	0.3196441	0.2014119	0.616971	0	11.8	4004	1	4	-2	0	0.02	0.08304168	3	5	0.001	0
523933	45	113	-43	0.30335	0.2484456	0.6240097	0	11.8	4003	-29	33	-3	0	0.02	0.08379025	3	5	0.001	0
524074	59	-115	-14	0.3403919	0.2301162	0.6227903	0	11.8	4003	-55	-22	0	0	0.02	0.08220224	3	5	0.001	0
524287	-146	-973	-131	0.1732038	0.5320082	0.6643268	0	11.8	4004	45	-104	-6	0	0.02	0.09045966	3	5	0.001	0
524436	-2348	-115	-541	-0.8006814	0.4259626	0.4710557	0	11.8	4004	4	-309	6	0	0.02	0.1137714	3	5	0.001	0
524468	1389	5872	1056	-0.8425397	-2.839472	0.1602228	0	11.8	4002	40	13	0	0	0.02	0.1191658	3	5	0.001	0
524541	-477	4408	369	0.09108274	-8.207678	-0.1370708	0	11.8	4002	-14	238	21	0	0.02	0.1328693	3	5	0.001	0
524643	-327	2182	-2184	-1.030305	-14.42765	0.4725382	0	11.8	4006	-32	325	0	0	0.02	0.1605328	3	5	0.001	0
524789	46	-496	-1321	-2.208192	-15.62518	1.023452	0	11.29	4003	56	377	-13	0	0.02	0.2031251	3	5	0.001	0
524850	1162	-6214	-80	-1.842189	-10.13131	0.7654954	0	11.29	4004	120	-166	-25	0	0.02	0.2321847	3	5	0.001	0
524982	-698	-2066	836	-1.749706	-3.129553	0.5813293	0	11.29	4002	89	95	8	0	0.02	0.2820924	3	5	0.001	0
525057	1908	-1785	-514	-1.578947	-3.272195	-0.9914398	0	11.29	4002	50	-71	25	0	0.02	0.3040108	3	5	0.001	0
525240	-1014	-3749	-1472	3.98721	-4.185734	0.08862428	0	11.29	4003	74	-92	13	0	0.02	0.3522952	3	5	0.001	0
525290	-124	-4132	-2599	3.525863	-2.963295	0.8264464	0	11.29	4004	47	-302	-32	0	0.02	0.3705404	3	5	0.001	0
525374	-574	-591	424	2.32869	-1.867001	1.341093	0	11.29	4002	9	-76	0	0	0.02	0.3900538	3	5	0.001	0
525499	1283	162	498	1.33073	-2.340258	1.059919	0	11.29	4002	-12	80	-16	0	0.02	0.4242933	3	5	0.001	0
525638	-431	-1912	697	0.517697	0.2614441	0.9170079	0	11.29	4003	-74	80	5	0	0.02	0.459189	3	5	0.001	0
525753	-1285	4179	-558	-0.3015572	-4.711827	0.3232105	0	11.57	4002	18	-249	-2	0	0.02	0.4763452	3	5	0.001	0
525797	-2294	3239	-70	-1.132834	-7.157124	0.0006997688	0	11.57	4004	89	-87	9	0	0.02	0.4820954	3	5	0.001	0
525860	41	-338	-2362	-3.29689	-9.326719	0.4503222	0	11.57	4004	-138	-285	-11	0	0.02	0.4850931	3	5	0.001	0
525966	-2416	3935	783	-4.448562	-12.22716	0.3905317	0	11.57	4004	117	42	-1	0	0.02	0.4958494	3	5	0.001	0
526079	1241	-350	-333	-5.517693	-13.4846	0.4359605	0	11.57	4003	-14	216	0	0	0.02	0.50397	3	5	0.001	0
526174	572	-1613	604	-3.564394	-11.04	0.04856659	0	11.57	4004	-133	0	32	0	0.02	0.5166203	3	5	0.001	0
526275	75	-2551	-1612	-3.20571	-9.074776	-0.1467593	0	11.57	4003	53	-246	-4	0	0.02	0.5327204	3	5	0.001	0
526411	-481	-541	-29	-2.214422	-6.097421	0.4758539	0	11.57	4004	69	186	-2	0	0.02	0.5465418	3	5	0.001	0
526495	419	-42	-773	-1.475324	-5.301202	1.275591	0	11.57	4002	4	265	-9	0	0.02	0.5489494	3	5	0.001	0
526570	842	-1504	-1134	-0.6672019	-6.10208	1.747808	0	11.57	4002	24	-269	-47	0	0.02	0.5508707	3	5	0.001	0
526674	768	-1526	450	-1.601622	-5.599424	1.386567	0	10.83	4003	-91	-250	-11	0	0.02	0.5480321	3	5	0.001	0
526806	458	-605	-637	0.5585877	-5.666932	0.07343672	0	10.83	4003	-5	-314	8	0	0.02	0.5515933	3	5	0.001	0
526881	-646	1504	579	0.3207532	-6.369889	-0.4764342	0	10.83	4002	-4	109	24	0	0.02	0.5638081	3	5	0.001	0
527028	218	-618	-171	0.6512764	-7.686419	0.1505824	0	10.83	4004	-97	15	14	0	0.02	0.5670275	3	5	0.001	0
527157	-535	-4400	-1713	-1.276794	-3.227056	1.744597	0	10.83	4002	0	-289	-37	0	0.02	0.5646224	3	5	0.001	0
527249	-306	3329	1551	-1.189718	-3.326355	1.274372	0	10.83	4004	32	168	2	0	0.02	0.5660733	3	5	0.001	0
527299	460	844	799	-0.8141184	-4.946377	0.6495535	0	10.83	4002	-19	246	2	0	0.02	0.5691168	3	5	0.001	0
527376	614	-2420	-1040	0.1802998	-4.658674	0.5592226	0	10.83	4004	79	-53	-13	0	0.02	0.5699227	3	5	0.001	0
527490	-564	-4246	-610	0.5056483	-1.624248	0.9249442	0	10.83	4004	-58	-112	0	0	0.02	0.5718097	3	5	0.001	0
527602	2903	5760	966	2.109049	-4.121476	0.9736115	0	11.51	4004	-1	201	-15	1	0.02	0.5722662	6	5	0.001	0
527717	2481	6217	-1264	8.337066	-16.96586	0.7847923	0	11.51	4003	-163	136	-9	-221	0.02	0.5733495	6	5	0.001	0
527782	-3088	3362	1051	6.700009	-20.61046	1.156942	0	11.51	4003	-14	159	-3	-249	0.02	0.5770311	6	5	0.001	0
527891	111	2213	-534	-0.1291093	-21.61024	1.499344	0	11.51	4002	-171	118	-33	-280	0.02	0.5861395	6	5	0.001	0
528058	-5484	-6857	162	-7.373058	-12.56879	2.000746	0	11.51	4004	21	-47	-33	78	0.02	0.5913907	6	5	0.001	0
528098	-2391	-7273	-464	-8.847732	-9.561209	1.744408	0	11.51	4003	144	-273	-28	323	0.02	0.5964225	6	5	0.001	0
528256	3173	-243	47	-3.453321	-9.235653	-0.5115663	0	11.51	4003	-181	277	36	-375	0.02	0.6203426	6	5	0.001	0
528296	3078	-108	825	-1.722038	-8.969151	-0.5907292	0	11.51	4004	0	207	29	66	0.02	0.6250077	6	5	0.001	0
528373	-1675	-3512	631	-0.4667742	-6.565052	-0.7349326	0	11.51	4003	17	178	44	-299	0.02	0.6275398	6	5	0.001	0
528495	4	919	51	-6.328165	-5.57794	-1.847542	0	10.66	4003	-12	272	62	79	0.02	0.6461762	6	5	0.001	0
528673	3002	-2729	-1508	-0.2925058	-0.4899811	-0.009155907	0	10.66	4003	-102	102	25	-288	0.02	0.6702524	6	5	0.001	0
528709	2669	-3567	-1613	1.107211	0.2916708	0.3365152	0	10.66	4004	-54	63	-52	-244	0.02	0.6851816	6	5	0.001	0
528781	3321	2703	-633	4.98157	-0.5303159	2.191475	0	10.66	4002	-38	90	-54	-185	0.02	0.6903552	6	5	0.001	0
528939	-2818	4143	1967	-0.4516487	-2.926775	1.151542	0	10.66	4002	4	-8	10	186	0.02	0.7361234	6	5	0.001	0
529076	-1223	-2498	-1021	-1.479372	-6.795945	-0.9670205	0	10.66	4003	-15	-138	29	287	0.02	0.7688085	6	5	0.001	0
529141	-3455	35	1307	-3.956821	-4.86411	-1.514604	0	10.66	4003	-50	50	67	-259	0.02	0.798857	6	5	0.001	0
529198	-1307	-868	967	-4.875252	-3.972229	-1.55103	0	10.66	4003	18	47	46	132	0.02	0.8309731	6	5	0.001	0
529351	510	-2820	-1306	-2.283507	0.004270675	-0.5282287	0	10.66	4003	-24	-172	15	0	0.02	0.896419	6	5	0.001	0
529439	-436	-1853	-195	-2.31341	1.943406	0.3054547	0	11.06	4003	-110	-147	2	0	0.02	0.9290083	3	5	0.001	0
529491	-1549	-2242	-1743	-3.650493	2.359983	0.9737347	0	11.06	4004	26	348	-2	0	0.02	0.961533	3	5	0.001	0
529624	615	-932	63	-1.831745	1.850626	1.293327	0	11.06	4002	68	174	-15	0	0.02	1.021863	3	5	0.001	0
529689	491	-317	-60	-0.8085619	1.465278	1.365269	0	11.06	4003	-37	226	-19	0	0.02	1.060783	3	5	0.001	0
529863	-353	-2945	-125	-2.560699	4.728139	1.296936	0	11.06	4002	62	-127	-23	0	0.02	1.163398	3	5	0.001	0
529899	29	-1930	271	-2.543505	5.7857	1.247588	0	11.06	4003	-12	-38	-6	0	0.02	1.196175	3	5	0.001	0
530037	808	-251	154	-1.041872	4.782482	0.4993685	0	11.06	4004	-12	-74	1	0	0.02	1.277426	3	5	0.001	0
530120	698	-533	75	0.3431135	3.812083	0.3379982	0	11.06	4002	-13	-19	-2	0	0.02	1.365994	3	5	0.001	0
530286	535	3387	570	2.620503	-1.142499	0.4649352	0	11.06	4003	31	-24	13	0	0.02	1.460974	3	5	0.001	0
530348	-530	1975	-527	1.753638	-4.011688	0.3477889	0	11.29	4003	-34	24	-4	0	0.02	1.49809	3	5	0.001	0
530437	-116	2915	-196	1.357078	-7.555264	0.6480988	0	11.29	4004	5	-25	-2	0	0.02	1.527558	3	5	0.001	0
530518	-408	861	-95	0.8039303	-8.812712	0.5441161	0	11.29	4004	-9	-24	-8	0	0.02	1.560475	3	5	0.001	0
530656	-345	333	-321	0.1338401	-8.70541	0.6371065	0	11.29	4004	41	44	-1	0	0.02	1.587244	3	5	0.001	0
530715	-1049	-1056	44	-1.011456	-7.652087	0.6038865	0	11.29	4004	-98	-19	-13	0	0.02	1.602279	3	5	0.001	0
530858	1380	652	78	-0.132768	-5.318954	0.7540973	0	11.29	4004	34	-34	0	0	0.02	1.598888	3	5	0.001	0
530944	796	2283	167	1.318027	-7.008744	0.2855705	0	11.29	4004	11	-3	7	0	0.02	1.580778	3	5	0.001	0
531099	-1411	1089	3	2.462028	-9.483027	0.5022024	0	11.29	4002	14	18	-12	0	0.02	1.538782	3	5	0.001	0
531133	-1503	139	-477	1.524872	-9.785928	0.7152386	0	11.29	4003	6	-137	-17	0	0.02	1.506886	3	5	0.001	0
531245	-1054	664	298	-1.183693	-8.799555	1.113132	0	10.6	4004	-7	52	-12	0	0.02	1.445181	3	5	0.001	0
531393	1437	1950	121	-1.619475	-11.48694	0.2551094	0	10.6	4002	-20	393	19	0	0.02	1.33852	3	5	0.001	0
531493	1574	1119	-52	-0.789156	-13.57425	-0.1976278	0	10.6	4003	-56	183	30	0	0.02	1.25103	3	5	0.001	0
531568	-572	1528	190	-0.9045094	-14.44404	-0.3711047	0	10.6	4003	93	125	20	0	0.02	1.193305	3	5	0.001	0
531642	1383	-4289	-1557	-0.6223727	-12.42911	0.3785218	0	10.6	4003	-88	-201	-1	0	0.02	1.136731	3	5	0.001	0
531788	-318	3960	-86	-1.670034	-13.6214	-0.8787685	0	10.6	4003	175	-32	31	0	0.02	1.015479	3	5	0.001	0
531832	-575	2620	-692	-1.674007	-15.49664	-0.9307063	0	10.6	4003	-115	132	42	0	0.02	1.001876	3	5	0.001	0
531935	-1544	-4345	-2206	-1.810441	-14.31719	0.11611	0	10.6	4003	-13	-198	19	0	0.02	0.9501603	3	5	0.001	0
532077	-1929	1588	359	-5.319271	-10.84935	0.2780544	0	10.6	4004	118	64	7	0	0.02	0.8883559	3	5	0.001	0
532178	1876	4486	1531	-3.354236	-13.91863	-0.2651709	0	10.83	4003	-149	211	49	0	0.02	0.8678769	3	5	0.001	0
532244	1769	2568	-550	-1.578583	-17.2642	-0.769054	0	10.83	4003	-65	-69	41	0	0.02	0.8625264	3	5	0.001	0
532361	2881	-1876	-1312	3.286048	-18.20765	0.3882352	0	10.83	4003	35	237	3	0	0.02	0.8683597	3	5	0.001	0
532476	-317	-2444	-916	4.295429	-17.2821	1.003659	0	10.83	4003	110	-224	-17	0	0.02	0.8829893	3	5	0.001	0
532550	3657	-2457	-1011	5.32888	-14.79616	1.796397	0	10.83	4002	-119	-2	-23	0	0.02	0.8946763	3	5	0.001	0
532643	-2364	-6934	-916	4.481644	-6.879178	2.147473	0	10.83	4004	55	-163	-37	0	0.02	0.9092093	3	5	0.001	0
532786	-1210	-3961	139	2.172303	1.379855	0.9753132	0	10.83	4002	117	-202	-13	0	0.02	0.9397451	3	5	0.001	0
532899	-1448	-778	65	0.8585566	1.883926	-0.4405773	0	10.83	4004	-42	168	53	0	0.02	0.9649864	3	5	0.001	0
532963	667	1139	544	1.429193	0.4949515	-0.5616024	0	10.83	4003	-60	-181	18	0	0.02	0.9924262	3	5	0.001	0
533054	91	-1740	-1593	2.025228	0.1939624	0.3846539	0	10.83	4009	-127	-46	13	0	0.02	1.023617	3	5	0.001	0
533248	-594	-2337	-595	0.1498856	-1.409976	0.5188111	0	11.06	4003	68	-291	-6	0	0.02	1.063421	3	5	0.001	0
533329	-1717	-170	-1994	-1.253806	-1.779329	0.6659354	0	11.06	4004	78	308	6	0	0.02	1.085015	3	5	0.001	0
533407	-3065	1400	683	-2.47922	-4.191769	0.3273225	0	11.06	4003	85	258	14	0	0.02	1.110966	3	5	0.001	0
533494	2780	-1687	-1584	-1.364945	-4.800406	0.6515579	0	11.06	4003	39	225	1	0	0.02	1.12792	3	5	0.001	0
533535	2263	-964	465	0.2559815	-4.373381	0.6302357	0	11.06	4003	-75	-108	8	0	0.02	1.131879	3	5	0.001	0
533664	-591	-2172	-732	0.918645	-4.019192	0.5627495	0	11.06	4004	-53	-145	0	0	0.02	1.156977	3	5	0.001	0
533758	691	-2027	-403	1.516322	-1.557081	1.191907	0	11.06	4003	-4	55	-8	0	0.02	1.173795	3	5	0.001	0
533845	126	2341	1618	1.873388	-2.196464	1.017703	0	11.06	4004	-77	128	19	0	0.02	1.181588	3	5	0.001	0
533939	-1158	209	327	0.8700778	-3.982574	0.6006885	0	11.06	4004	8	167	7	0	0.02	1.195023	3	5	0.001	0
534042	-1002	1284	926	1.496772	-5.193324	0.4980986	0	10.77	4002	-117	269	19	0	0.02	1.200558	3	5	0.001	0
534145	-1072	108	-1024	-0.3698127	-8.583426	0.2818606	0	10.77	4003	41	-288	2	0	0.02	1.205204	3	5	0.001	0
534364	340	1027	1383	-2.352615	-9.36089	1.236014	0	10.77	4004	-141	74	4	0	0.02	1.20486	3	5	0.001	0
534464	-56	3699	1194	-2.269032	-11.69512	0.4467056	0	10.77	4004	46	40	8	216	0.02	1.205191	6	5	0.001	0
534567	2287	2500	-470	-0.01947543	-16.83597	-0.2783043	0	10.77	4003	-124	-63	16	33	0.02	1.19463	6	5	0.001	0
534663	203	905	-466	1.943478	-18.47169	0.07229253	0	10.77	4002	99	262	17	-125	0.02	1.180166	6	5	0.001	0
534771	3053	-2880	-1241	2.851543	-15.46827	1.270871	0	10.77	4003	-43	-110	-45	395	0.02	1.169666	6	5	0.001	0
534854	-1137	3322	1708	4.018325	-11.73861	1.040575	0	10.77	4004	-115	191	2	-441	0.02	1.170994	6	5	0.001	0
535043	1050	-664	-1161	1.320535	-13.59196	-0.3090328	0	9.53	4004	-108	-115	9	-27	0.02	1.192113	6	5	0.001	0
535118	-426	-2459	-1218	1.565717	-9.928459	1.402641	0	9.53	4003	-104	-177	-25	-219	0.02	1.220985	6	5	0.001	0
535284	6597	-6069	-2736	6.094704	-2.872523	3.656107	0	9.53	4004	-328	-122	-95	-236	0.02	1.269481	6	5	0.001	0
535352	-1756	2438	1867	10.48079	-0.9031284	3.568373	0	9.53	4002	-124	290	-61	-366	0.02	1.285064	6	5	0.001	0
535439	-5550	3354	1961	5.19238	-4.111137	1.416527	0	9.53	4003	21	13	24	31	0.02	1.306608	6	5	0.001	0
535611	-4676	-752	-889	-11.03899	-22.16977	-4.544243	0	9.53	4004	83	243	103	134	0.02	1.352938	6	5	0.001	0
535660	-245	-10992	-3518	-13.23714	-19.08752	-3.448788	0	9.53	4004	-46	-107	63	-465	0.02	1.369839	6	5	0.001	0
535849	-769	-1443	1085	-9.699501	3.933607	2.426351	0	10.66	4004	-94	133	-34	0	0.02	1.43278	3	5	0.001	0
535886	-929	-581	899	-10.05237	4.004292	2.489687	0	10.66	4003	-60	218	-38	0	0.02	1.457315	3	5	0.001	0
535963	-456	-1679	720	-9.934947	3.893676	2.028677	0	10.66	4002	71	-129	-16	0	0.02	1.498393	3	5	0.001	0
536189	812	-3648	-618	-6.759259	10.56773	-0.09168153	0	10.66	4004	17	-202	13	0	0.02	1.630654	3	5	0.001	0
536323	670	1820	-593	-3.424441	8.056369	0.7346451	0	10.66	4004	-24	98	-10	0	0.02	1.719963	3	5	0.001	0
536480	-894	-2031	364	-1.898867	3.642329	1.818979	0	10.66	4003	23	-106	-29	0	0.02	1.795743	3	5	0.001	0
536566	-378	-522	417	-2.638966	4.433087	1.401812	0	10.66	4002	9	-100	-4	0	0.02	1.837082	3	5	0.001	0
536672	341	2429	-15	-1.508657	-1.373757	0.3874103	0	10.66	4004	77	-32	3	0	0.02	1.879471	3	5	0.001	0
536763	-67	2146	455	-1.257378	-5.916342	-0.07318886	0	10.15	4003	2	-183	22	0	0.02	1.903083	3	5	0.001	0
536894	589	557	364	-3.835697	-8.051693	-0.2885847	0	10.15	4002	-128	-19	27	0	0.02	1.933482	3	5	0.001	0
536968	421	572	-968	-4.185154	-7.824469	-0.2115768	0	10.15	4004	-60	169	29	0	0.02	1.93429	3	5	0.001	0
537102	131	-967	-1390	-4.41607	-10.73134	-0.2498867	0	10.15	4003	19	380	28	0	0.02	1.934016	3	5	0.001	0
537234	263	354	-1011	-0.6866373	-12.26922	0.2931689	0	10.15	4002	79	-310	0	0	0.02	1.91519	3	5	0.001	0
537268	-582	3050	631	-0.9534935	-12.80433	0.3323123	0	10.15	4004	-46	45	25	0	0.02	1.904553	3	5	0.001	0
537481	551	-22	-262	2.480626	-14.83839	1.678793	0	10.15	4004	-14	-105	-31	0	0.02	1.851286	3	5	0.001	0
537569	837	983	115	2.509063	-14.5854	1.744629	0	10.15	4003	0	113	-24	0	0.02	1.825183	3	5	0.001	0
537673	-174	29	181	2.638478	-14.73878	0.6599881	0	10.15	4002	98	-61	23	0	0.02	1.78557	3	5	0.001	0
537854	1733	886	-167	5.504742	-13.03794	0.6035238	0	11.29	4003	-50	-16	4	0	0.02	1.715418	3	5	0.001	0
537969	1768	1129	-482	6.14848	-12.66905	0.8364722	0	11.29	4003	-45	69	-7	0	0.02	1.67313	3	5	0.001	0
538003	2190	1055	454	6.694259	-12.87244	0.905357	0	11.29	4003	-45	69	-7	0	0.02	1.64502	3	5	0.001	0
538095	600	782	200	7.929706	-14.0307	0.7548131	0	11.29	4003	57	22	0	0	0.02	1.576815	3	5	0.001	0
538338	-946	2754	1354	3.221378	-10.49425	1.068241	0	11.29	4002	117	-106	-36	0	0.02	1.244416	3	5	0.001	0
538460	-2451	-4546	-820	-0.03468823	-4.566027	1.49608	0	11.29	4003	106	-195	-44	0	0.02	1.170185	3	5	0.001	0
538536	-3171	-378	555	-5.375778	-0.9411089	1.385845	0	11.29	4003	41	77	-22	0	0.02	1.1161	3	5	0.001	0
538650	-1015	-1707	-665	-6.89851	0.4039818	0.8437415	0	10.72	4002	-57	248	10	0	0.02	1.02854	3	5	0.001	0
538686	-2128	3119	2121	-7.559359	-0.2459501	0.2026447	0	10.72	4002	36	-339	3	0	0.02	1.0149	3	5	0.001	0
538750	-177	392	1976	-8.739304	-1.427472	-0.8948048	0	10.72	4003	32	26	50	0	0.02	0.975808	3	5	0.001	0
539017	-476	-1072	-564	-3.880467	-0.5081631	-0.3787369	0	10.72	4003	62	21	27	0	0.02	0.8591015	3	5	0.001	0
539091	-10	-393	183	-3.564595	-0.5317408	-0.4909643	0	10.72	4003	138	-94	28	0	0.02	0.8263184	3	5	0.001	0
539171	2599	717	-587	-1.923721	-0.6893609	-0.4411707	0	10.72	4002	-132	51	36	0	0.02	0.7828153	3	5	0.001	0
539303	1437	2593	690	0.5266047	-3.738994	-0.1266716	0	10.72	4004	61	97	0	0	0.02	0.7340202	3	5	0.001	0
539379	197	1646	748	1.619196	-5.364607	0.262774	0	10.72	4003	-38	289	10	0	0.02	0.7129737	3	5	0.001	0
539528	-1233	-653	-333	0.7168216	-5.802274	1.411614	0	11.17	4004	8	-262	-30	0	0.02	0.6980496	3	5	0.001	0
539592	-792	293	441	-0.3576177	-5.913468	1.46948	0	11.17	4003	-109	19	-14	0	0.02	0.6859681	3	5	0.001	0
539693	-3512	-2201	-221	-2.980933	-4.892917	1.16368	0	11.17	4003	31	-7	-17	0	0.02	0.6713908	3	5	0.001	0
539806	-1371	-1844	170	-7.986418	0.8566867	1.870491	0	11.17	4004	99	43	-29	0	0.02	0.6499066	3	5	0.001	0
539896	912	-981	-495	-7.075602	1.775429	2.155894	0	11.17	4004	-50	25	-38	0	0.02	0.6223003	3	5	0.001	0
540063	-789	785	422	-3.06107	-2.642975	1.219594	0	11.17	4002	4	-32	-10	0	0.02	0.590261	3	5	0.001	0
540131	-191	-1330	-251	-3.160734	-2.293966	1.083984	0	11.17	4003	-50	40	-6	0	0.02	0.5850637	3	5	0.001	0
540216	-273	-242	1020	-2.848499	-1.420956	1.036515	0	11.17	4003	-117	-31	1	0	0.02	0.5805706	3	5	0.001	0
540338	-1785	1330	564	-5.014701	-4.161403	0.4244454	0	11.17	4004	-14	9	9	0	0.02	0.5629205	3	5	0.001	0
540445	317	2043	-397	-4.975751	-4.208772	1.053918	0	11.17	4002	-28	123	-11	0	0.02	0.5481622	3	5	0.001	0
540497	1654	3107	-1180	-3.619222	-7.575965	1.468172	0	10.43	4004	-40	-176	-26	0	0.02	0.5451462	3	5	0.001	0
540638	-1201	771	-599	-2.76408	-12.55504	1.158501	0	10.43	4002	94	-56	-15	0	0.02	0.5093364	3	5	0.001	0
540754	3091	3658	659	2.47991	-13.46407	1.381834	0	10.43	4002	7	-262	-19	0	0.02	0.4983906	3	5	0.001	0
540830	1580	3688	1224	4.760545	-15.06241	1.20488	0	10.43	4003	52	204	-4	0	0.02	0.4929517	3	5	0.001	0
540909	1496	-452	-265	6.38341	-16.01449	0.9867213	0	10.43	4002	59	-237	-13	0	0.02	0.480258	3	5	0.001	0
541011	960	1409	952	6.755554	-15.38318	0.0624449	0	10.43	4004	-158	63	30	0	0.02	0.4683292	3	5	0.001	0
541173	2533	1001	-335	9.360757	-17.33961	-0.6339812	0	10.43	4003	-117	226	47	0	0.02	0.4576341	3	5	0.001	0
541265	-1674	-300	-222	8.640567	-15.13699	-0.4753129	0	10.43	4003	16	-315	15	0	0.02	0.4469672	3	5	0.001	0
541376	-1285	-3235	-1242	5.809811	-11.81386	0.7320203	0	11.11	4002	32	124	-1	0	0.02	0.439393	3	5	0.001	0
541433	-870	-3134	634	4.216905	-6.954732	1.39349	0	11.11	4003	-25	51	-7	0	0.02	0.4304828	3	5	0.001	0
541559	-295	-519	180	3.271764	-5.254683	1.161611	0	11.11	4006	0	0	0	0	0.02	0.4301741	3	5	0.001	0
541628	630	684	366	3.077193	-4.974879	0.5988232	0	11.11	4004	0	0	0	0	0.02	0.4305119	3	5	0.001	0
541771	-22	-4715	3830	1.162583	-0.1590544	-0.9667945	0	11.11	4004	0	0	0	0	0.02	0.4027736	3	5	0.001	0
541825	428	433	2489	0.6911803	-2.838285	-3.711804	0	11.11	4003	0	0	0	0	0.02	0.3958922	3	5	0.001	0
542022	-829	10012	-1060	0.9611003	-49.02971	-11.25801	0	11.11	4002	0	0	0	0	0.02	0.3428515	3	5	0.001	0
542069	-430	6622	25	0.4474317	-54.2277	-11.0837	0	11.11	4002	0	0	0	0	0.02	0.3194867	3	5	0.001	0
542123	-39	-260	-27	0.04006021	-59.08012	-11.07495	0	11.11	4002	0	0	0	0	0.02	0.3108327	3	5	0.001	0
542220	275	-5984	500	0.3918892	-54.03264	-11.54058	0	11.11	4004	0	0	0	0	0.02	0.2720611	3	5	0.001	0
542347	75	-9887	-563	0.4693006	-41.8932	-11.39919	0	11.51	4004	0	0	0	0	0.02	0.2368313	3	5	0.001	0
542475	964	-395	-120	1.060724	-18.29105	-8.65713	0	11.51	4004	0	0	0	0	0.02	0.2037229	3	5	0.001	0
542568	-368	5427	523	0.2307483	-24.1014	-9.198513	0	11.51	4004	0	0	0	0	0.02	0.1817829	3	5	0.001	0
542618	-368	5427	523	0.2307483	-24.1014	-9.198513	0	11.51	4004	0	0	0	0	0.02	0.1703607	3	5	0.001	0
542764	-139	348	63	-0.2562423	-31.65077	-10.67087	0	11.51	4003	0	0	0	0	0.02	0.1652557	1	5	0.001	0
542826	-71	103	-6	-0.4317951	-31.81034	-10.68836	0	11.51	4002	0	0	0	0	0.02	0.1594902	1	5	0.001	0
542930	6	-43	16	-0.4975192	-31.74559	-10.69942	0	11.51	4004	0	0	0	0	0.02	0.1545142	1	5	0.001	0
543068	-10	-4	2	-0.6459208	-31.71107	-10.7158	0	11.51	4004	0	0	0	0	0.02	0.152457	1	5	0.001	0
543138	-4	5	22	-0.7095904	-31.69232	-10.72613	0	11.51	4004	0	0	0	0	0.02	0.1592575	1	5	0.001	0
543243	-4	7	0	-0.7884575	-31.65319	-10.735	0	11.51	4004	0	0	0	0	0.02	0.1648019	1	5	0.001	0
543345	-17	-2	27	-0.8558567	-31.63248	-10.74619	0	11.51	4004	0	0	0	0	0.02	0.1584904	1	5	0.001	0
543448	-2	0	13	-0.9135198	-31.61101	-10.75444	0	11.51	4004	0	0	0	0	0.02	0.1562718	1	5	0.001	0
543652	0	-2	5	-1.000318	-31.57603	-10.77328	0	11.51	4004	0	0	0	0	0.02	0.1543587	1	5	0.001	0
543755	-1	-2	-4	-1.035058	-31.56479	-10.77817	0	11.51	4002	0	0	0	0	0.02	0.1476997	1	5	0.001	0
543921	-6	0	1	-1.086627	-31.55164	-10.79119	0	11.51	4002	0	0	0	0	0.02	0.1530499	1	5	0.001	0
544009	67	-136	-18	-1.235983	-31.27957	-10.64752	0	11.51	4002	0	0	0	0	0.02	0.1508689	1	5	0.001	0
544132	57	-858	-302	-0.948101	-31.40274	-10.73989	0	11.51	4004	0	0	0	0	0.02	0.1450482	1	5	0.001	0
544188	732	-2012	-671	-0.6951868	-29.59576	-10.06173	0	11.51	4004	0	0	0	0	0.02	0.1456075	1	5	0.001	0
