time(ms)	gyro_x(deg/s)	gyro_y(deg/s)	gyro_z(deg/s)	orientation_roll(deg)	orientation_pitch(deg)	orientation_yaw(deg)	throttle	battery(V)	loop_time(uS)	pid_output_roll	pid_output_pitch	pid_output_yaw	pid_output_throttle	ultrasonic_alt	baro_alt	flight_mode	p_gain_altitude	i_gain_altitude	d_gain_altitude	compass_heading	latitude	longitude
585990	28	-5	-22	0.1339239	-0.01117188	-0.04267294	0	11.11	20054	0	0	5	5	0.02	-0.1324712	3	10	0.03	2000	-1.567047	40.92393	-91.39365
586066	-10	-15	53	0.130867	-0.003190366	-0.03760203	0	11.11	20054	0	0	5	5	0.02	-0.1328841	3	10	0.03	2000	-1.348541	40.92393	-91.39365
586167	68	6	-27	0.1309675	-0.02333915	-0.06040192	0	11.11	20054	0	0	5	5	0.02	-0.1315093	3	10	0.03	2000	-0.9136047	40.92393	-91.39365
586199	14	-13	-154	0.1205434	0.0013783	-0.03459458	0	11.11	20054	0	0	5	5	0.02	-0.1308545	3	10	0.03	2000	-0.9136047	40.92393	-91.39365
586380	15	-16	78	0.1595235	-0.0199619	-0.05616525	0	11.11	20054	0	0	5	5	0.02	-0.1297493	3	10	0.03	2000	-0.2626953	40.92393	-91.39365
586430	14	-42	-9	0.1700419	-0.03898761	-0.04198029	0	11.11	20054	0	0	5	5	0.02	-0.1302369	3	10	0.03	2000	0.2132964	40.92393	-91.39365
586498	57	20	-80	0.1822165	-0.05048624	-0.04381888	0	11.11	20054	0	0	5	5	0.02	-0.1334158	3	10	0.03	2000	-0.7355042	40.92393	-91.39365
586677	-5	-13	-58	0.1639401	-0.04067519	-0.04039494	0	11.11	20054	0	0	5	5	0.02	-0.1493283	3	10	0.03	2000	0.1857904	40.92393	-91.39365
586744	-67	-59	-100	0.1529112	0.002807179	-0.04791727	0	11.11	20054	0	0	5	5	0.02	-0.1523943	3	10	0.03	2000	-0.271698	40.92393	-91.39365
586798	-219	-318	208	-0.1242601	0.3637719	-0.05408886	0	11.11	20054	0	0	5	5	0.02	-0.153288	3	10	0.03	2000	-0.3975525	40.92393	-91.39365
586936	-30	82	-93	-0.09395207	0.3490858	-0.04131792	0	11.11	20054	0	0	5	5	0.02	-0.150249	3	10	0.03	2000	-1.479187	40.92393	-91.39365
587004	108	-2	22	-0.1397772	0.3431277	-0.04706031	0	11.11	20054	0	0	5	5	0.02	-0.1489193	3	10	0.03	2000	-1.048309	40.92393	-91.39365
587115	126	205	-184	-0.1900559	0.3832607	-0.03691737	0	11.11	20054	0	0	5	5	0.02	-0.1424365	3	10	0.03	2000	-0.6551514	40.92393	-91.39365
587209	-113	-8	87	-0.2071314	0.4386576	-0.04553901	0	11.11	20054	0	0	5	5	0.02	-0.1347221	3	10	0.03	2000	-0.8178406	40.92393	-91.39365
587417	72	-129	75	-0.2611235	0.435773	-0.0273282	0	11	20054	0	0	5	5	0.02	-0.1119163	3	10	0.03	2000	-0.5003357	40.92393	-91.39365
587468	54	-77	-68	-0.2143663	0.4047823	-0.02378483	0	11	20054	0	0	5	5	0.02	-0.09881031	3	10	0.03	2000	-0.5003357	40.92393	-91.39365
587579	14	-87	178	-0.237265	0.453695	-0.03093481	0	11	20054	0	0	5	5	0.02	-0.08391177	3	10	0.03	2000	-0.35672	40.92393	-91.39365
587632	19	-49	88	-0.2249761	0.4073924	-0.03368142	0	11	20054	0	0	5	5	0.02	-0.08039921	3	10	0.03	2000	-0.7789917	40.92393	-91.39365
587778	-57	130	-162	-0.2731071	0.3671983	-0.021504	0	11	20054	0	0	5	5	0.02	-0.05008095	3	10	0.03	2000	-0.5028381	40.92393	-91.39365
587822	21	154	-200	-0.2707732	0.4023746	-0.0444373	0	11	20054	0	0	5	5	0.02	-0.0452166	3	10	0.03	2000	0.1628512	40.92393	-91.39365
587962	-101	-66	145	-0.2702577	0.4352134	-0.05279524	0	11	20054	0	0	5	5	0.02	-0.03540073	3	10	0.03	2000	-0.4880066	40.92393	-91.39365
588013	19	17	-16	-0.2867541	0.4527749	-0.05582852	0	11	20054	0	0	5	5	0.02	-0.03412346	3	10	0.03	2000	-1.413208	40.92393	-91.39365
588162	-23	-100	227	-0.1775367	0.4510468	-0.07543188	0	11	20054	0	0	5	5	0.02	-0.03518544	3	10	0.03	2000	-0.3577576	40.92393	-91.39365
588249	116	-29	302	-0.1583454	0.503335	-0.09271006	0	10.94	20054	0	0	5	5	0.02	-0.03248899	3	10	0.03	2000	-0.9319153	40.92393	-91.39365
588337	-203	-20	-315	-0.2460864	0.4844136	-0.09356785	0	10.94	20054	0	0	5	5	0.02	-0.02773803	3	10	0.03	2000	-0.8444214	40.92393	-91.39365
588436	-310	-101	565	-0.2751904	0.4288526	-0.1094629	0	10.94	20054	0	0	5	5	0.02	-0.0199163	3	10	0.03	2000	-0.5848083	40.92393	-91.39365
588592	187	169	490	-0.2596697	0.3372879	-0.1240864	0	10.94	20054	0	0	5	5	0.0230764	-0.02045102	6	10	0.03	2000	-0.7195129	40.92393	-91.39365
588681	-45	-32	-268	-0.1680351	0.2084485	-0.1625601	0	10.94	20054	0	0	5	5	0.03090559	-0.01947895	6	10	0.03	2000	-0.8796082	40.92393	-91.39365
588816	-79	102	405	-0.3955756	0.520802	-0.2254075	0	10.94	20054	0	0	5	5	0.0379064	-0.01226158	6	10	0.03	2000	-0.749054	40.92393	-91.39365
588886	-65	-113	-553	-0.3665979	0.4533479	-0.1369929	0	10.94	20054	0	0	5	5	0.03542729	-0.008051206	6	10	0.03	2000	-0.8830872	40.92393	-91.39365
588996	177	23	-138	-0.4502896	0.5083141	-0.1908181	0	10.94	20054	0	0	5	5	0.03754345	0.003475107	6	10	0.03	2000	-0.08126831	40.92393	-91.39365
589034	-138	-89	-325	-0.4562556	0.5240705	-0.1999857	0	10.94	20054	0	0	5	5	0.03754345	0.003475107	6	10	0.03	2000	-0.4799194	40.92393	-91.39365
589144	35	55	109	-0.5739664	0.3380046	-0.2262416	0	10.83	20054	0	0	5	5	0.04247398	0.01085717	6	10	0.03	2000	-0.3488159	40.92393	-91.39365
589296	-309	-92	468	-0.6122522	0.3739484	-0.2793181	0	10.83	20054	0	0	5	5	0.04559798	0.0105786	6	10	0.03	2000	-0.2476501	40.92393	-91.39365
589339	-73	108	915	-0.5819632	0.3436008	-0.2445915	0	10.83	20054	0	0	5	5	0.04690537	0.008322757	6	10	0.03	2000	0.4761594	40.92393	-91.39365
589482	116	-195	116	-0.511663	0.1476465	-0.1750573	0	10.83	20054	0	0	5	5	0.04841582	0.006812886	6	10	0.03	2000	-0.317749	40.92393	-91.39365
589547	-105	-26	-977	-0.6660427	-0.08452899	0.04411142	0	10.83	20054	0	0	5	5	0.04918783	0.004871292	6	10	0.03	2000	-0.9487915	40.92393	-91.39365
589697	174	433	503	-0.3644618	-0.4205392	0.4401404	0	10.83	20054	0	0	5	5	0.0503984	-0.001534781	6	10	0.03	2000	-0.6012573	40.92393	-91.39365
589802	-282	-533	-1434	-0.4831938	-0.05037723	1.947815	0	10.83	20054	0	0	5	5	0.05072763	-0.005676485	6	10	0.03	2000	-1.029541	40.92393	-91.39365
589898	623	153	-1270	-0.5285769	-0.2162899	2.897266	0	10.83	20054	0	0	5	5	0.05000175	-0.001835473	6	10	0.03	2000	-2.716827	40.92393	-91.39365
589972	496	-383	-252	0.097137	-0.1136288	3.107456	0	10.83	20054	0	0	5	5	0.04859279	0.00818023	6	10	0.03	2000	-2.799225	40.92393	-91.39365
590099	1122	-92	1416	1.056505	0.8028171	1.6997	0	10.04	20054	0	0	5	5	0.04948634	0.01489698	6	10	0.03	2000	-0.4505615	40.92393	-91.39365
590187	26	-779	630	1.318929	0.6355317	0.1498054	0	10.04	20054	0	0	5	5	0.05135834	0.0157929	6	10	0.03	2000	1.517534	40.92393	-91.39365
590273	1311	-207	150	1.335732	0.606747	-0.9130571	0	10.04	20054	0	0	5	5	0.0503607	0.02107538	6	10	0.03	2000	3.561833	40.92393	-91.39365
590401	-2107	-1491	-1660	0.4524046	-4.840781	-0.2042936	0	10.04	20054	0	0	5	5	0.05669785	0.02588057	6	10	0.03	2000	7.361348	40.92393	-91.39365
590551	-2875	-64	-310	-1.448692	-3.623116	0.9386042	0	10.04	20054	0	0	5	5	0.08180879	0.04689585	6	10	0.03	2000	6.914986	40.92393	-91.39365
590604	-4758	262	-91	-4.878758	-3.945668	0.9275316	0	10.04	20054	0	0	5	5	0.1020969	0.05085304	6	10	0.03	2000	6.291621	40.92393	-91.39365
590717	2151	-776	-300	-7.150737	-4.694183	1.033812	0	10.04	20054	0	0	5	5	0.2097323	0.08050391	6	10	0.03	2000	3.468714	40.92393	-91.39365
590788	2215	-2875	80	-4.28079	-3.163803	0.9172358	0	10.04	23989	-130	156	5	5	0.1887591	0.08361418	8	10	0.03	2000	3.860311	40.92393	-91.39365
590863	1997	-4109	-378	-1.862084	1.736327	0.6803253	0	10.04	20023	-109	130	5	5	0.1528948	0.09341935	8	10	0.03	2000	5.442007	40.92393	-91.39365
590944	2302	713	-190	1.152512	2.465953	0.5646975	0	10.04	20033	-104	125	5	5	0.1114603	0.1091651	8	10	0.03	2000	7.030437	40.92393	-91.39365
591067	526	-964	595	3.798883	4.242569	1.378225	0	9.81	20052	-93	120	5	5	0.08125457	0.1318178	8	10	0.03	2000	9.047069	40.92393	-91.39365
591171	1251	1096	-758	4.454734	4.693177	2.114051	0	9.81	20027	-83	110	5	5	0.05331113	0.1514377	8	10	0.03	2000	10.19902	40.92393	-91.39365
591301	-1037	602	-120	4.182181	0.2297438	2.127501	0	9.81	20034	-68	95	5	5	0.03886382	0.1708439	8	10	0.03	2000	14.33142	40.92393	-91.39365
591401	-1884	-254	896	-0.3395341	2.160643	1.819933	0	9.81	20030	37	-9	5	5	0.02549855	0.2052317	8	10	0.03	2000	15.76669	40.92393	-91.39365
591449	-3210	3826	1924	-3.055455	0.5493224	0.7948815	0	9.81	20023	38	-10	5	5	0.02294869	0.2137338	8	10	0.03	2000	14.65416	40.92393	-91.39365
591572	-788	-209	-518	-5.495791	-6.719271	0.5495867	0	9.81	20032	49	-15	5	5	0.02	0.2813931	8	10	0.03	2000	11.67943	40.92393	-91.39364
591731	1215	1272	-272	-4.675327	-5.877069	1.575758	0	9.81	20032	60	-16	5	5	0.02	0.364287	8	10	0.03	2000	8.680262	40.92393	-91.39364
591843	1802	1486	-548	-3.728716	-6.906137	2.188066	0	9.81	20033	56	-16	5	5	0.02	0.4529668	8	10	0.03	2000	5.482883	40.92393	-91.39364
591859	1802	1486	-548	-3.728716	-6.906137	2.188066	0	9.81	20033	56	-16	5	5	0.02	0.4957149	8	10	0.03	2000	5.482883	40.92393	-91.39364
591948	-2004	-2353	686	-2.449119	-4.997932	2.275742	0	9.58	20033	77	-21	5	5	0.02	0.5619971	8	10	0.03	2000	4.608391	40.92393	-91.39363
592104	-574	-800	1175	-6.088532	-1.311027	0.251417	0	9.58	20056	78	-16	5	5	0.02	0.7816407	8	10	0.03	2000	5.785598	40.92393	-91.39363
592144	-1007	841	1503	-6.181159	-1.122121	-0.1947191	0	9.58	20011	79	-16	5	5	0.02	0.8388515	8	10	0.03	2000	5.785598	40.92393	-91.39363
592267	26	-1328	-372	-7.094565	-1.95296	-0.3030964	0	9.58	20059	85	-16	5	5	0.02	1.052315	8	10	0.03	2000	5.367376	40.92393	-91.39363
592392	-1762	-655	-208	-4.547374	-2.875947	1.08728	0	9.58	20009	65	-12	5	5	0.02	1.10229	8	10	0.03	2000	4.706409	40.92393	-91.39362
592501	-266	-2475	-355	-6.411016	-0.01912938	1.700779	0	9.58	20034	87	-12	5	5	0.02	1.291839	8	10	0.03	2000	2.349528	40.92393	-91.39362
592571	-787	-230	765	-7.222659	1.194932	0.7510026	0	9.58	20032	67	-7	5	5	0.02	1.367476	8	10	0.03	2000	1.878999	40.92393	-91.39362
592709	-197	503	558	-5.58857	-1.118205	0.5068965	0	9.58	20031	68	-12	5	5	0.02	1.49154	8	10	0.03	2000	0.2340622	40.92393	-91.39362
592820	-962	197	812	-6.60427	-0.9522648	0.541711	0	10.72	20072	84	-17	5	5	0.02	1.565412	8	10	0.03	2000	-1.126038	40.92393	-91.39362
592880	-459	1108	448	-7.460875	-1.212746	0.4800881	0	10.72	20030	84	-17	5	5	0.02	1.622731	8	10	0.03	2000	0.1066241	40.92393	-91.39362
592935	-195	151	-99	-7.629592	-1.974823	0.4439138	0	10.72	20055	64	-12	5	5	0.02	1.660327	8	10	0.03	2000	0.5329307	40.92393	-91.39362
593128	-788	17	-56	-7.70806	-2.326287	0.3247385	0	10.72	20051	55	-18	5	5	0.02	1.805219	8	10	0.03	2000	-2.250305	40.92393	-91.39362
593210	1652	-502	-595	-6.617914	-2.065084	1.042781	0	10.72	20006	66	-23	5	5	0.02	1.857768	8	10	0.03	2000	-3.788818	40.92393	-91.39362
593273	559	176	-233	-4.820128	-1.663895	1.300894	0	10.72	20031	66	-23	5	5	0.02	1.926647	8	10	0.03	2000	-4.532227	40.92393	-91.39362
593386	-1316	827	-439	-6.868128	-1.717602	0.4582081	0	10.72	20044	74	-28	5	5	0.02	2.017051	8	10	0.03	2000	-4.903748	40.92393	-91.39362
593419	-694	1586	955	-7.306077	-2.290888	0.235981	0	10.72	20034	46	-19	5	5	0.02	2.030277	8	10	0.03	2000	-4.903748	40.92393	-91.39362
593553	725	-1225	333	-6.719156	-1.490995	0.5739073	0	10.72	20032	52	-29	5	5	0.02	2.101507	8	10	0.03	2000	-6.320496	40.92392	-91.39361
593678	239	83	-818	-6.122529	-0.247482	1.860053	0	10.38	20005	47	-30	5	5	0.02	2.159142	8	10	0.03	2000	-5.538452	40.92392	-91.39361
593780	-782	-66	-467	-5.514226	-5.528969	1.796686	0	10.38	20033	37	-25	5	5	0.02	2.181433	8	10	0.03	2000	-7.780884	40.92392	-91.39361
593829	257	-1038	-871	-4.810419	-4.621483	2.157452	0	10.38	20029	37	-36	5	5	0.02	2.200757	8	10	0.03	2000	-8.645691	40.92392	-91.39361
594013	344	-88	741	-4.959759	-2.142187	2.073567	0	10.38	20007	22	-36	5	5	0.02	2.217412	8	10	0.03	2000	-8.581512	40.92392	-91.39361
594085	410	1518	948	-4.380573	-2.818789	1.747365	0	10.38	20009	17	-26	5	5	0.02	2.214919	8	10	0.03	2000	-8.581512	40.92392	-91.39361
594124	596	171	-960	-4.15805	-3.168572	1.837948	0	10.38	23991	17	-26	5	5	0.02	2.213655	8	10	0.03	2000	-9.974274	40.92392	-91.39361
594243	-391	496	-841	-2.19623	-4.11249	2.763626	0	10.38	20007	17	-37	5	5	0.02	2.204709	8	10	0.03	2000	-9.845367	40.92392	-91.39361
594370	763	1190	270	-2.308572	-4.321118	2.827383	0	10.38	20013	6	-37	5	5	0.02	2.185632	8	10	0.03	2000	-9.85614	40.92392	-91.39362
594480	1306	491	-204	0.2689763	-5.35594	3.115212	0	10.38	20052	6	-27	5	5	0.02	2.155181	8	10	0.03	2000	-10.59619	40.92392	-91.39362
594637	-758	-612	244	-1.017725	-3.422119	2.468532	0	10.21	20030	0	-33	5	5	0.02	2.110883	8	10	0.03	2000	-8.714447	40.92391	-91.39362
594753	1018	1368	-236	-0.9841058	-4.141632	1.760422	0	10.21	20008	-9	-44	5	5	0.02	2.097389	8	10	0.03	2000	-8.680695	40.92391	-91.39362
594881	141	-452	920	-1.545491	-2.692591	1.278111	0	10.21	20054	-20	-39	5	5	0.02	2.072587	8	10	0.03	2000	-5.682007	40.92391	-91.39362
594934	800	352	-291	-1.179966	-2.874563	1.176387	0	10.21	20033	-20	-39	5	5	0.02	2.052767	8	10	0.03	2000	-5.682007	40.92391	-91.39362
595023	321	-731	-128	-0.5717012	-3.671638	0.7931669	0	10.21	20032	-15	-34	5	5	0.02	2.037798	8	10	0.03	2000	-5.005402	40.92391	-91.39362
595128	1000	-433	-496	-0.1134121	-2.754241	0.635572	0	10.21	20031	-26	-40	5	5	0.02	2.023557	8	10	0.03	2000	-2.39975	40.92391	-91.39362
595251	-515	-443	-73	0.56443	-2.085317	1.022089	0	10.21	20065	-32	-48	5	5	0.02	2.011134	8	10	0.03	2000	-1.260193	40.92391	-91.39362
595379	28	337	319	0.8915239	-2.907897	1.561929	0	10.21	20012	-17	-30	5	5	0.02	2.003574	8	10	0.03	2000	-0.09140015	40.92391	-91.39362
595425	804	1200	-312	1.785588	-4.582532	1.781788	0	9.92	20041	-28	-30	5	5	0.02	1.999933	8	10	0.03	2000	-1.094299	40.92391	-91.39362
595536	-490	-818	685	1.412592	-4.650599	1.284946	0	9.92	20029	-18	-25	5	5	0.02	1.993449	8	10	0.03	2000	0.7402592	40.92391	-91.39362
595607	563	393	-440	2.166767	-5.061985	1.363849	0	9.92	20036	-34	-31	5	5	0.02	1.987775	8	10	0.03	2000	1.38236	40.92391	-91.39362
595700	-1180	-1127	446	2.055333	-4.938366	1.357928	0	9.92	20031	-24	-26	5	5	0.02	1.976774	8	10	0.03	2000	3.321658	40.92391	-91.39362
595782	-530	-3042	-881	0.3041807	-2.115828	1.490026	0	9.92	20077	-35	-37	5	5	0.02	1.970905	8	10	0.03	2000	4.722869	40.92391	-91.39362
595875	1334	1527	721	0.3101784	-5.002301	1.279031	0	9.92	24034	-29	-31	5	5	0.02	1.966627	8	10	0.03	2000	4.561074	40.92391	-91.39362
596004	-645	-2365	-694	0.4608738	-4.620993	1.486427	0	9.92	20078	-25	-21	5	5	0.02	1.952037	8	10	0.03	2000	8.001194	40.92391	-91.39362
596111	302	144	874	-0.2823754	-2.134276	1.686639	0	9.92	20024	-15	-21	5	5	0.02	1.94728	8	10	0.03	2000	9.338449	40.92391	-91.39362
596159	-996	-742	809	-0.3512481	-2.071497	1.546087	0	9.92	20053	-15	-21	5	5	0.02	1.946742	8	10	0.03	2000	9.338449	40.92391	-91.39362
596356	1324	1869	51	-1.001884	-1.327977	1.000385	0	10.38	20031	0	-22	5	5	0.02	1.946077	8	10	0.03	2000	11.17725	40.9239	-91.39362
596463	-1099	-1420	-53	-1.321045	-3.404778	1.166218	0	10.38	20056	5	-17	5	5	0.02	1.947667	8	10	0.03	2000	12.09214	40.9239	-91.39362
596574	738	959	-163	-0.6379058	-2.423496	1.156152	0	10.38	20031	15	-17	5	5	0.02	1.946835	8	10	0.03	2000	11.78366	40.9239	-91.39362
596666	-1033	615	139	-0.5464855	-3.362703	0.8716173	0	10.38	20049	20	-17	5	5	0.02	1.940577	8	10	0.03	2000	12.07079	40.9239	-91.39362
596792	308	-121	-132	-1.444861	-2.678725	0.7354126	0	10.38	20061	20	-17	5	5	0.02	1.934899	8	10	0.03	2000	12.7937	40.9239	-91.39362
596857	-609	902	790	-1.749913	-3.198534	0.6708786	0	10.38	20032	31	-17	5	5	0.02	1.93908	8	10	0.03	2000	14.36161	40.9239	-91.39362
596959	196	112	418	-1.30873	-4.368938	0.9821498	0	10.38	20026	31	-12	5	5	0.02	1.948033	8	10	0.03	2000	12.9605	40.9239	-91.39362
597101	-1083	-1088	632	-2.927137	-1.808006	1.236949	0	10.38	20010	47	-12	5	5	0.02	1.965378	8	10	0.03	2000	15.6171	40.9239	-91.39362
597194	47	544	870	-4.032405	-0.0816302	0.8816475	0	10.38	20033	58	-12	5	5	0.02	1.978857	8	10	0.03	2000	14.57877	40.9239	-91.39362
597322	-113	166	-390	-3.838297	-2.13819	0.948696	0	10.43	20034	54	-12	5	5	0.02	1.994612	8	10	0.03	2000	15.13794	40.9239	-91.39362
597433	-1740	-718	227	-4.791417	-1.580693	0.847577	0	10.43	20033	75	-12	5	5	0.02	2.027945	8	10	0.03	2000	14.29823	40.9239	-91.39362
597539	-562	-1226	-626	-5.862458	-0.4899991	0.890704	0	10.43	20057	65	-12	5	5	0.02	2.03401	8	10	0.03	2000	14.00068	40.9239	-91.39362
597604	-674	160	-444	-6.148447	-0.3252762	0.5688681	0	10.43	20034	87	-12	5	5	0.02	2.043689	8	10	0.03	2000	14.10503	40.9239	-91.39361
597694	-1537	-137	-563	-7.616256	-1.46912	0.09579106	0	10.43	20033	72	-12	5	5	0.02	2.048272	8	10	0.03	2000	13.84501	40.9239	-91.39361
597801	-544	72	213	-7.616263	-2.457974	0.02170991	0	10.43	20053	94	-17	5	5	0.02	2.052512	8	10	0.03	2000	12.91786	40.9239	-91.39361
597861	-83	-797	-1109	-7.516743	-2.723639	0.5389929	0	10.43	20073	78	-17	5	5	0.02	2.053144	8	10	0.03	2000	11.53055	40.9239	-91.39361
597952	-742	-275	-150	-7.091025	-1.764245	1.079929	0	10.43	20041	100	-22	5	5	0.02	2.056473	8	10	0.03	2000	9.971326	40.9239	-91.3936
598134	1305	418	-165	-8.396512	-2.500627	0.4029206	0	9.64	20008	80	-22	5	5	0.02	2.047153	8	10	0.03	2000	6.898499	40.9239	-91.3936
598200	481	-40	-744	-6.523876	-2.196001	0.6290628	0	9.64	20001	80	-22	5	5	0.02	2.035454	8	10	0.03	2000	5.927282	40.9239	-91.3936
598333	-906	313	285	-7.02466	-1.515756	0.3612114	0	9.64	20017	109	-28	5	5	0.02	1.999608	8	10	0.03	2000	5.097303	40.9239	-91.39359
598465	-210	1677	691	-6.906288	-3.070902	0.189761	0	9.64	20002	89	-23	5	5	0.02	1.975764	8	10	0.03	2000	2.764213	40.9239	-91.39359
598500	-649	-963	-285	-6.412824	-3.096916	0.1141392	0	9.64	20063	110	-28	5	5	0.02	1.968881	8	10	0.03	2000	0.5144087	40.9239	-91.39359
598597	-830	3	448	-6.941979	-2.988089	-0.2586324	0	9.64	20022	90	-23	5	5	0.02	1.90715	8	10	0.03	2000	-0.1553345	40.9239	-91.39359
598761	226	503	-632	-6.979188	-2.443082	0.189172	0	9.64	20031	106	-29	5	5	0.02	1.832208	8	10	0.03	2000	-3.541962	40.9239	-91.39359
598890	-1446	917	-1797	-7.356106	-2.81992	0.6053873	0	9.64	20027	123	-34	5	5	0.02	1.764172	8	10	0.03	2000	-6.200928	40.9239	-91.39358
599005	688	-1002	-33	-7.336541	-3.708067	0.6025919	0	9.64	20031	94	-34	5	5	0.02	1.711139	8	10	0.03	2000	-6.057861	40.9239	-91.39358
599145	211	295	941	-6.123703	-3.13016	0.4501521	0	9.92	20010	74	-29	5	5	0.02	1.662557	8	10	0.03	2000	-6.950653	40.9239	-91.39358
599269	-1216	517	136	-6.756304	-2.456968	-0.1047258	0	9.92	20031	85	-29	5	5	0.02	1.625426	8	10	0.03	2000	-8.787811	40.9239	-91.39358
599358	325	478	-578	-6.545132	-3.442394	0.07617122	0	9.92	20046	70	-24	5	5	0.02	1.619196	8	10	0.03	2000	-9.603271	40.9239	-91.39358
599436	-62	-199	-1675	-6.883613	-3.384668	0.2518351	0	9.92	20058	75	-30	5	5	0.02	1.612783	8	10	0.03	2000	-9.684052	40.9239	-91.39358
599547	1179	2106	427	-5.652703	-3.603655	0.4598391	0	9.92	20023	65	-25	5	5	0.02	1.609232	8	10	0.03	2000	-11.18796	40.9239	-91.39358
599700	-1199	65	240	-5.607487	-5.70946	0.5755175	0	9.92	20036	45	-25	5	5	0.02	1.604467	8	10	0.03	2000	-12.50723	40.9239	-91.39358
599811	-12	-366	581	-5.603	-4.304639	1.153837	0	9.92	24017	35	-25	5	5	0.02	1.616868	8	10	0.03	2000	-14.53778	40.9239	-91.39358
599862	-857	2	343	-6.098921	-3.882097	0.9911468	0	9.92	20032	35	-25	5	5	0.02	1.625281	8	10	0.03	2000	-13.75729	40.9239	-91.39358
599941	473	484	491	-5.434012	-3.592713	0.7034493	0	9.92	20018	30	-25	5	5	0.02	1.640737	8	10	0.03	2000	-13.87311	40.9239	-91.39358
600047	1153	-471	-1104	-5.558532	-2.88126	1.299553	0	9.92	20027	25	-20	5	5	0.02	1.662332	8	10	0.03	2000	-13.62054	40.9239	-91.39358
600145	1034	474	695	-3.751206	-2.511835	2.160879	0	9.92	20034	8	-26	5	5	0.02	1.692537	8	10	0.03	2000	-13.11227	40.92389	-91.39358
600277	237	-210	1470	-3.458169	-1.974872	1.611868	0	9.92	20054	-6	-26	5	5	0.02	1.725981	8	10	0.03	2000	-11.20062	40.92389	-91.39358
600356	711	310	701	-3.884472	-3.065203	0.4300791	0	9.92	20030	-7	-26	5	5	0.02	1.752609	8	10	0.03	2000	-10.47351	40.92389	-91.39358
600456	1355	-562	-152	-3.451522	-2.797726	-0.34492	0	9.92	20016	-2	-21	5	5	0.02	1.79232	8	10	0.03	2000	-9.20575	40.92389	-91.39358
600529	1774	152	-418	-2.060613	-0.9250522	0.5731522	0	9.92	20032	-23	-21	5	5	0.02	1.822518	8	10	0.03	2000	-5.729095	40.92389	-91.39359
600688	667	-1165	-293	-1.27026	-0.7345188	1.051936	0	9.92	20031	-34	-21	5	5	0.02	1.880059	8	10	0.03	2000	-4.174072	40.92389	-91.39359
600800	817	-14	-884	-1.815796	-0.6360019	1.044023	0	9.92	20031	-19	-16	5	5	0.02	1.914495	8	10	0.03	2000	-3.109467	40.92389	-91.39359
600824	817	116	-133	-1.432875	-1.338603	1.032099	0	9.92	20007	-35	-21	5	5	0.02	1.923741	8	10	0.03	2000	-3.109467	40.92389	-91.39359
600986	760	727	286	-0.7648851	-3.336217	0.5216776	0	10.72	20033	-56	-25	5	5	0.02	1.940387	8	10	0.03	2000	0.2599574	40.92389	-91.39359
601029	911	-442	-85	-0.5225895	-3.310677	0.4606063	0	10.72	20032	-47	-21	5	5	0.02	1.941261	8	10	0.03	2000	0.7612233	40.92389	-91.39359
601172	791	-426	-284	0.8472295	-2.218052	0.6756389	0	10.72	20032	-27	-21	5	5	0.02	1.931279	8	10	0.03	2000	2.915504	40.92389	-91.39359
601252	-857	1227	-38	-0.04937505	-3.337879	0.8784856	0	10.72	20056	-43	-26	5	5	0.02	1.913603	8	10	0.03	2000	5.519166	40.92389	-91.3936
601362	-801	292	363	-0.9631937	-4.627879	0.7958479	0	10.72	20031	-39	-37	5	5	0.02	1.88761	8	10	0.03	2000	6.038702	40.92389	-91.3936
601458	-281	878	-807	-2.442797	-4.909813	0.6579031	0	10.72	20033	-24	-32	5	5	0.02	1.849459	8	10	0.03	2000	7.773413	40.92389	-91.3936
601513	-715	57	-322	-2.934797	-5.085164	0.7399598	0	10.72	20058	-24	-32	5	5	0.02	1.833138	8	10	0.03	2000	6.714212	40.92389	-91.3936
601648	924	737	-664	-3.830298	-3.141761	1.422416	0	10.72	24006	-15	-38	5	5	0.02	1.771817	8	10	0.03	2000	6.167018	40.92389	-91.3936
601823	946	1497	-81	-1.504198	-4.410604	1.912158	0	9.75	20008	-26	-48	5	5	0.02	1.697395	8	10	0.03	2000	7.601649	40.92389	-91.39361
601923	848	500	4	-0.752667	-5.208912	1.482731	0	9.75	20029	-22	-49	5	5	0.02	1.659529	8	10	0.03	2000	8.287186	40.92389	-91.39361
602044	-143	-862	529	-0.9321173	-4.407487	1.082834	0	9.75	20009	-12	-39	5	5	0.02	1.600624	8	10	0.03	2000	11.51916	40.92389	-91.39361
602102	-2003	-719	-797	-2.648134	-3.338364	1.125061	0	9.75	20032	-12	-39	5	5	0.02	1.581925	8	10	0.03	2000	11.51916	40.92389	-91.39361
602237	-2182	1577	322	-6.54086	-4.544638	1.545053	0	9.75	20032	-2	-34	5	5	0.02	1.528016	8	10	0.03	2000	13.32984	40.92389	-91.39361
602357	-1379	-518	298	-9.752122	-4.511668	1.60082	0	9.75	20030	-12	-50	5	5	0.02	1.477971	8	10	0.03	2000	10.09694	40.92389	-91.39361
602433	-1381	1131	54	-11.76037	-5.143111	1.930732	0	9.75	20032	-2	-40	5	5	0.02	1.439824	8	10	0.03	2000	8.179207	40.92389	-91.39361
602587	-1659	-488	108	-15.7851	-4.447559	1.401921	0	9.75	20035	7	-40	5	5	0.02	1.401312	8	10	0.03	2000	7.130183	40.92388	-91.39361
602688	-3761	-1385	1397	-19.38049	-2.102065	1.182175	0	9.98	20009	0	0	5	5	0.02	1.382355	3	10	0.03	2000	6.540486	40.92388	-91.39361
602800	-896	-1890	490	-21.7002	0.4742811	0.4187441	0	9.98	20009	0	0	5	5	0.02	1.377189	3	10	0.03	2000	4.303537	40.92388	-91.39361
602841	-223	-1289	658	-20.89148	1.145403	0.1748686	0	9.98	20009	0	0	5	5	0.02	1.369277	3	10	0.03	2000	3.124195	40.92388	-91.39361
602920	676	82	-109	-18.77522	1.614365	0.05040547	0	9.98	20009	0	0	5	5	0.02	1.364424	3	10	0.03	2000	0.6263881	40.92388	-91.39361
603015	3403	574	-338	-14.83734	0.7057628	0.6343725	0	9.98	20009	0	0	5	5	0.02	1.361234	3	10	0.03	2000	-2.515259	40.92388	-91.39362
603140	534	2879	-340	-7.401581	-4.366584	1.236453	0	9.98	20009	0	0	5	5	0.02	1.362234	3	10	0.03	2000	-6.525604	40.92388	-91.39362
603215	-433	5136	16	-9.373775	-7.71523	1.337287	0	9.98	20009	0	0	5	5	0.02	1.360127	3	10	0.03	2000	-4.571777	40.92388	-91.39362
603316	-536	5824	547	-9.869755	-14.18647	2.151152	0	9.98	20009	0	0	5	5	0.02	1.356176	3	10	0.03	2000	-7.501953	40.92388	-91.39362
603474	-2063	1027	701	-12.18539	-15.38716	3.652953	0	9.98	20009	0	0	5	5	0.02	1.355842	3	10	0.03	2000	-10.40784	40.92388	-91.39362
603572	-574	367	1342	-14.53363	-14.41776	0.7777398	0	10.32	20009	0	0	5	5	0.02	1.349798	3	10	0.03	2000	-10.90909	40.92388	-91.39362
603624	-745	706	1548	-14.41335	-14.78196	0.1483559	0	10.32	20009	0	0	5	5	0.02	1.346196	3	10	0.03	2000	-10.90909	40.92388	-91.39362
603760	4252	2906	-1048	-10.34138	-16.76727	0.1328996	0	10.32	20009	0	0	5	5	0.02	1.340612	3	10	0.03	2000	-11.59204	40.92388	-91.39362
603829	2896	2833	-39	-8.545064	-17.92569	0.3501659	0	10.32	20009	0	0	5	5	0.02	1.334681	3	10	0.03	2000	-11.99393	40.92388	-91.39362
603994	2053	-2880	-900	-0.905731	-13.48716	3.015061	0	10.32	20009	0	0	5	5	0.02	1.352367	3	10	0.03	2000	-11.6868	40.92388	-91.39362
604086	776	-1558	-108	1.634611	-9.999026	2.961947	0	10.32	20009	0	0	5	5	0.02	1.361803	3	10	0.03	2000	-9.725616	40.92388	-91.39362
604214	-304	-2529	496	-0.4019765	-6.793051	1.640588	0	10.32	20009	0	0	5	5	0.02	1.413408	3	10	0.03	2000	-7.616425	40.92388	-91.39363
604228	-92	-2800	946	-0.3548285	-5.237869	1.36319	0	10.32	20009	0	0	5	5	0.02	1.413408	3	10	0.03	2000	-7.616425	40.92388	-91.39363
604350	1245	-436	-432	-1.40174	-3.251156	0.5456656	0	10.32	20009	0	0	5	5	0.02	1.448445	3	10	0.03	2000	-6.147125	40.92389	-91.39364
604472	333	-416	-52	-1.26925	-3.458693	0.6873451	0	9.98	20009	0	0	5	5	0.02	1.501024	3	10	0.03	2000	-4.000092	40.92389	-91.39364
604602	1807	-2958	-1010	-1.407778	-0.7281596	1.771047	0	9.98	20009	0	0	5	5	0.02	1.549555	3	10	0.03	2000	-4.523804	40.92389	-91.39364
604651	1156	-4476	407	1.843983	2.885182	2.298661	0	9.98	20009	0	0	5	5	0.02	1.555746	3	10	0.03	2000	-3.874725	40.9239	-91.39365
604797	-1679	-5539	976	-0.03511111	9.993699	1.053463	0	9.98	20009	0	0	5	5	0.02	1.58901	3	10	0.03	2000	-0.3338013	40.9239	-91.39365
604865	1143	-2091	1638	-1.113435	13.93216	-0.3336145	0	9.98	20009	0	0	5	5	0.02	1.597218	3	10	0.03	2000	1.588915	40.92391	-91.39365
604987	-945	855	-318	-0.5110092	12.01674	-0.3136857	0	9.98	20009	0	0	5	5	0.02	1.614725	3	10	0.03	2000	5.461212	40.92391	-91.39365
605008	-945	855	-318	-0.5110092	12.01674	-0.3136857	0	9.98	20009	0	0	5	5	0.02	1.625684	3	10	0.03	2000	5.461212	40.92391	-91.39365
605164	608	909	152	-1.648876	4.148933	0.1808512	0	9.98	20009	0	0	5	5	0.02	1.671862	3	10	0.03	2000	8.048972	40.92391	-91.39365
605293	-6	9	437	-0.1533284	1.199555	0.2205334	0	9.98	20009	0	0	5	5	0.02	1.677056	3	10	0.03	2000	8.20731	40.92392	-91.39365
605361	-227	-1222	-375	-1.68987	1.65133	0.5072192	0	9.98	20009	0	0	5	5	0.02	1.659504	3	10	0.03	2000	12.36315	40.92392	-91.39365
605526	1112	421	-312	-0.8695556	0.641363	0.5911082	0	10.21	20009	0	0	5	5	0.02	1.571762	3	10	0.03	2000	16.16355	40.92392	-91.39365
605638	864	-365	147	-2.125939	1.448112	0.5056214	0	10.21	20009	0	0	5	5	0.02	1.507607	3	10	0.03	2000	22.84258	40.92393	-91.39365
605689	758	137	127	-0.9832001	1.364478	0.7067405	0	10.21	20009	0	0	5	5	0.02	1.478802	3	10	0.03	2000	25.54432	40.92393	-91.39365
605869	-1787	5	243	-2.515931	-0.8202043	0.5766075	0	10.21	20009	0	0	5	5	0.02	1.339679	3	10	0.03	2000	22.96171	40.92393	-91.39365
605938	-5363	81	54	-6.985357	-0.996175	0.5997952	0	10.21	20009	0	0	5	5	0.02	1.186523	3	10	0.03	2000	26.26682	40.92393	-91.39365
606052	-4640	2506	-130	-14.46426	-3.04625	0.5213065	0	10.21	20009	0	0	5	5	0.02	1.107476	3	10	0.03	2000	26.69929	40.92393	-91.39365
606138	-2055	1991	-307	-18.31293	-7.664371	0.09716164	0	10.21	20009	0	0	5	5	0.02	0.923076	3	10	0.03	2000	14.76517	40.92393	-91.39365
606193	24406	26275	5131	-13.70254	-13.5331	-0.8560281	0	10.21	20009	0	0	5	5	0.02	0.9054777	3	10	0.03	2000	5.651488	40.92393	-91.39365
606318	4949	-2104	2223	-4.005889	-1.618818	0.5366029	0	10.83	20009	0	0	5	5	0.02	0.8344648	3	10	0.03	2000	6.929238	40.92393	-91.39365
606436	-2980	4509	-588	0.8165457	-11.08541	0.1263538	0	10.83	20009	0	0	5	5	0.02	0.5871114	3	10	0.03	2000	1.635192	40.92393	-91.39365
606586	1105	-1699	-146	-0.1697563	-11.44537	0.6306636	0	10.83	20009	0	0	5	5	0.02	0.4381329	3	10	0.03	2000	-2.095886	40.92393	-91.39365
606622	-310	344	4	0.8086934	-9.546199	0.6394122	0	10.83	20009	0	0	5	5	0.02	0.3916398	3	10	0.03	2000	-1.614288	40.92393	-91.39365
606749	9	-38	123	0.9638191	-8.652475	0.6134814	0	10.83	20009	0	0	5	5	0.02	0.2842291	3	10	0.03	2000	-2.600952	40.92393	-91.39365
606810	-114	-41	35	1.262076	-7.671474	0.6028418	0	10.83	20009	0	0	5	5	0.02	0.2483902	3	10	0.03	2000	-3.193176	40.92393	-91.39365
606900	-44	-10	-31	1.424061	-7.069334	0.5942821	0	10.83	20009	0	0	5	5	0.02	0.159487	3	10	0.03	2000	-4.08313	40.92393	-91.39365
607044	-46	-11	-54	1.729353	-6.033624	0.5669548	0	10.83	20009	0	0	5	5	0.02	0.07772892	3	10	0.03	2000	-3.946381	40.92393	-91.39366
607157	-74	15	-31	1.98236	-5.143295	0.5408476	0	10.83	20009	0	0	5	5	0.02	0.001782397	3	10	0.03	2000	-4.316681	40.92393	-91.39366
607224	-81	-15	47	2.112889	-4.778272	0.5273368	0	10.83	20009	0	0	5	5	0.02	-0.03638636	3	10	0.03	2000	-4.003418	40.92393	-91.39366
607297	-79	19	34	2.171617	-4.603734	0.5181056	0	10.83	20009	0	0	5	5	0.02	-0.08028612	3	10	0.03	2000	-4.850952	40.92393	-91.39366
607415	-50	-3	11	2.347183	-3.962203	0.4982946	0	10.83	20009	0	0	5	5	0.02	-0.1317902	3	10	0.03	2000	-4.870331	40.92393	-91.39366
607533	-87	1	-5	2.544397	-3.307762	0.4669916	0	10.83	20009	0	0	5	5	0.02	-0.1716125	3	10	0.03	2000	-4.791443	40.92393	-91.39366
607664	-62	4	2	2.639165	-2.976931	0.4461417	0	10.83	20009	0	0	5	5	0.02	-0.2315167	3	10	0.03	2000	-6.108154	40.92394	-91.39366
607789	-64	-8	41	2.773603	-2.529905	0.4133124	0	10.83	20009	0	0	5	5	0.02	-0.260597	3	10	0.03	2000	-5.631378	40.92394	-91.39366
607847	-56	0	17	2.798507	-2.450703	0.4081774	0	10.83	20009	0	0	5	5	0.02	-0.2850397	3	10	0.03	2000	-5.631378	40.92394	-91.39366
607924	-54	-7	-4	2.861166	-2.239489	0.3908755	0	10.83	20009	0	0	5	5	0.02	-0.3012045	3	10	0.03	2000	-5.661316	40.92394	-91.39366
607980	-63	-2	-1	2.877277	-2.169102	0.3859842	0	10.83	20009	0	0	5	5	0.02	-0.3131334	3	10	0.03	2000	-5.661316	40.92394	-91.39366
608086	-66	8	25	2.944804	-1.940335	0.3593879	0	10.83	20009	0	0	5	5	0.02	-0.3261245	3	10	0.03	2000	-5.714325	40.92394	-91.39366
608185	-61	-3	20	2.980286	-1.838994	0.3463044	0	10.94	20009	0	0	5	5	0.02	-0.3319261	3	10	0.03	2000	-5.7565	40.92394	-91.39366
608288	-67	2	10	3.034563	-1.662196	0.3220929	0	10.94	20009	0	0	5	5	0.02	-0.3405685	3	10	0.03	2000	-6.089996	40.92394	-91.39366
608440	-58	6	14	3.0783	-1.516091	0.2999596	0	10.94	20009	0	0	5	5	0.02	-0.354127	3	10	0.03	2000	-6.118042	40.92394	-91.39366
608534	-53	0	11	3.109966	-1.421191	0.2844906	0	10.94	20009	0	0	5	5	0.02	-0.3584617	3	10	0.03	2000	-6.157867	40.92394	-91.39366
608630	-57	-1	12	3.137493	-1.332906	0.2685338	0	10.94	20009	0	0	5	5	0.02	-0.3613404	3	10	0.03	2000	-6.174988	40.92394	-91.39366
608688	-58	0	9	3.153857	-1.287349	0.2585071	0	10.94	20009	0	0	5	5	0.02	-0.3599175	3	10	0.03	2000	-6.261383	40.92394	-91.39366
608888	-58	0	7	3.198693	-1.157718	0.2275711	0	10.94	20009	0	0	5	5	0.02	-0.3421461	3	10	0.03	2000	-6.038025	40.92394	-91.39366
608932	-56	2	6	3.203202	-1.140899	0.2229856	0	10.94	20009	0	0	5	5	0.02	-0.3365418	3	10	0.03	2000	-6.038025	40.92394	-91.39366
609013	-57	5	7	3.2172	-1.107412	0.2152213	0	10.94	20009	0	0	5	5	0.02	-0.3330837	3	10	0.03	2000	-6.537994	40.92394	-91.39366
609188	-54	0	13	3.245463	-1.031064	0.1880159	0	10.89	20009	0	0	5	5	0.02	-0.3162973	3	10	0.03	2000	-6.303101	40.92394	-91.39366
609234	-58	0	13	3.249881	-1.020663	0.1818409	0	10.89	20009	0	0	5	5	0.02	-0.3092953	3	10	0.03	2000	-6.303101	40.92394	-91.39366
609319	-57	2	12	3.25764	-0.9938993	0.1729148	0	10.89	20009	0	0	5	5	0.02	-0.3020933	3	10	0.03	2000	-6.126312	40.92394	-91.39366
609383	-59	-4	14	3.26367	-0.9638981	0.1587924	0	10.89	20009	0	0	5	5	0.02	-0.2992737	3	10	0.03	2000	-6.348022	40.92394	-91.39366
609509	-54	7	8	3.276285	-0.9380338	0.1447312	0	10.89	20009	0	0	5	5	0.02	-0.2989343	3	10	0.03	2000	-6.593994	40.92394	-91.39366
609637	-63	4	9	3.284936	-0.9013084	0.1213155	0	10.89	20009	0	0	5	5	0.02	-0.303146	3	10	0.03	2000	-6.593475	40.92394	-91.39366
609699	-55	5	4	3.290898	-0.8921422	0.1126347	0	10.89	20009	0	0	5	5	0.02	-0.3051835	3	10	0.03	2000	-6.588196	40.92394	-91.39366
609776	-60	4	6	3.298671	-0.8849675	0.1045646	0	10.89	20009	0	0	5	5	0.02	-0.3046273	3	10	0.03	2000	-6.367889	40.92394	-91.39366
609880	-58	0	3	3.30651	-0.8643943	0.091359	0	10.89	20009	0	0	5	5	0.02	-0.3044775	3	10	0.03	2000	-6.401367	40.92394	-91.39366
610039	-62	-2	7	3.316464	-0.8426167	0.06788181	0	10.94	20009	0	0	5	5	0.02	-0.3064648	3	10	0.03	2000	-6.411743	40.92394	-91.39366
610103	-49	4	6	3.318413	-0.8399654	0.0642136	0	10.94	20009	0	0	5	5	0.02	-0.3102776	3	10	0.03	2000	-6.373718	40.92394	-91.39366
610225	-52	-7	12	3.318633	-0.8329014	0.04642279	0	10.94	20009	0	0	5	5	0.02	-0.3195716	3	10	0.03	2000	-6.643585	40.92394	-91.39366
610352	-57	-1	5	3.320766	-0.8207639	0.0277149	0	10.94	20009	0	0	5	5	0.02	-0.3246062	3	10	0.03	2000	-6.62793	40.92394	-91.39366
610474	-50	4	9	3.320565	-0.8101505	0.008945895	0	10.94	20009	0	0	5	5	0.02	-0.3296165	3	10	0.03	2000	-6.412445	40.92394	-91.39366
610514	-60	-3	8	3.318515	-0.8066403	0.005521299	0	10.94	20009	0	0	5	5	0.02	-0.3276843	3	10	0.03	2000	-6.643402	40.92394	-91.39366
610639	-51	-3	14	3.324472	-0.8047729	-0.01037627	0	10.94	20009	0	0	5	5	0.02	-0.3250589	3	10	0.03	2000	-6.674561	40.92394	-91.39366
610729	-45	-10	5	3.325938	-0.8004579	-0.02449875	0	10.94	20009	0	0	5	5	0.02	-0.3205145	3	10	0.03	2000	-6.430969	40.92394	-91.39366
610791	-55	12	6	3.329525	-0.8019173	-0.03159034	0	10.94	20009	0	0	5	5	0.02	-0.3264902	3	10	0.03	2000	-6.634949	40.92394	-91.39366
610876	-57	2	6	3.332277	-0.8055778	-0.04296285	0	10.89	20009	0	0	5	5	0.02	-0.3295524	3	10	0.03	2000	-6.418121	40.92394	-91.39366
610973	-49	1	9	3.331443	-0.805172	-0.05476248	0	10.89	20009	0	0	5	5	0.02	-0.3353508	3	10	0.03	2000	-6.161469	40.92394	-91.39366
611074	-52	0	8	3.331965	-0.7928885	-0.06766257	0	10.89	20009	0	0	5	5	0.02	-0.3386857	3	10	0.03	2000	-6.440948	40.92394	-91.39366
611173	-46	-34	10	3.332057	-0.7877518	-0.0827022	0	10.89	20009	0	0	5	5	0.02	-0.343663	3	10	0.03	2000	-6.415619	40.92394	-91.39366
611313	-49	4	9	3.332939	-0.7622614	-0.1047125	0	10.89	20009	0	0	5	5	0.02	-0.3403596	3	10	0.03	2000	-6.654144	40.92394	-91.39366
611409	-53	-2	4	3.326782	-0.7609171	-0.1137609	0	10.89	20009	0	0	5	5	0.02	-0.346356	3	10	0.03	2000	-6.621338	40.92394	-91.39366
611504	-54	2	5	3.325828	-0.7487538	-0.131063	0	10.89	20009	0	0	5	5	0.02	-0.3508313	3	10	0.03	2000	-6.39798	40.92394	-91.39366
611613	-55	0	4	3.332059	-0.7499837	-0.1405396	0	10.89	20009	0	0	5	5	0.02	-0.3595756	3	10	0.03	2000	-6.198822	40.92394	-91.39366
611675	-54	4	12	3.333462	-0.7482381	-0.149955	0	10.89	20009	0	0	5	5	0.02	-0.3620038	3	10	0.03	2000	-6.422668	40.92394	-91.39366
611787	-54	5	8	3.330211	-0.7451158	-0.164873	0	10.94	20009	0	0	5	5	0.02	-0.3702257	3	10	0.03	2000	-6.649384	40.92394	-91.39366
611923	-1752	1246	524	2.345406	-2.022597	-0.2887611	0	10.94	20009	0	0	5	5	0.02	-0.3556938	3	10	0.03	2000	-6.764496	40.92394	-91.39366
611992	-764	1311	545	0.3162444	-2.515836	-0.96714	0	10.94	20009	0	0	5	5	0.02	-0.3423143	3	10	0.03	2000	-4.165619	40.92394	-91.39366
612083	-4766	-3830	-41	-2.593561	-0.6487706	-1.488398	0	10.94	20009	0	0	5	5	0.02	-0.3224382	3	10	0.03	2000	-4.228607	40.92394	-91.39366
612224	6	-8888	-1212	-7.098564	11.58337	-1.101789	0	10.94	20009	0	0	5	5	0.02	-0.2856602	3	10	0.03	2000	-3.621002	40.92394	-91.39366
612306	2061	-4955	-2542	-6.188988	22.32027	2.2259	0	10.94	20009	0	0	5	5	0.02	-0.2478439	3	10	0.03	2000	-2.857056	40.92394	-91.39366
612359	1404	-3033	-1575	-3.792419	26.13448	4.64468	0	10.94	20009	0	0	5	5	0.02	-0.2410424	3	10	0.03	2000	-4.519806	40.92394	-91.39366
612484	-1082	-3106	787	-4.830884	30.24491	5.350739	0	10.94	20009	0	0	5	5	0.02	-0.2110578	3	10	0.03	2000	-2.884827	40.92394	-91.39366
612611	-3318	4629	1416	-11.32416	27.13991	2.270176	0	10.94	20009	0	0	5	5	0.02	-0.1404684	3	10	0.03	2000	4.2823	40.92394	-91.39366
612716	354	6667	2459	-13.57989	18.03499	-0.6668459	0	11	20009	0	0	5	5	0.02	-0.1016613	3	10	0.03	2000	2.197663	40.92394	-91.39366
612784	2795	4726	3739	-9.600084	10.47939	-5.701818	0	11	20009	0	0	5	5	0.02	-0.08294629	3	10	0.03	2000	-0.3605347	40.92394	-91.39366
612869	2401	5481	3417	-6.453605	5.34583	-9.96988	0	11	20009	0	0	5	5	0.02	-0.05613025	3	10	0.03	2000	1.617925	40.92394	-91.39366
612995	1587	298	-2297	1.259125	0.4010465	-10.29582	0	11	20009	0	0	5	5	0.02	-0.01079267	3	10	0.03	2000	1.745411	40.92393	-91.39365
613135	-466	-239	-238	2.281768	3.135151	-5.15876	0	11	20009	0	0	5	5	0.02	0.0137127	3	10	0.03	2000	-3.637634	40.92393	-91.39365
613185	1169	-353	1029	3.043802	3.582561	-6.029875	0	11	20009	0	0	5	5	0.02	0.01500409	3	10	0.03	2000	-3.22818	40.92393	-91.39365
613309	-1798	1994	328	1.260069	1.459988	-7.85067	0	11	20009	0	0	5	5	0.02	0.0179655	3	10	0.03	2000	-1.42453	40.92393	-91.39366
613391	243	3	262	0.277669	0.5350268	-7.405583	0	11	20009	0	0	5	5	0.02	0.01895838	3	10	0.03	2000	-1.747955	40.92393	-91.39366
613476	-62	-139	24	0.2340605	0.6368166	-7.488664	0	11	20009	0	0	5	5	0.02	0.0125558	3	10	0.03	2000	-3.092896	40.92393	-91.39366
613602	-37	-9	985	-0.2612712	1.539575	-8.572289	0	10.94	20009	0	0	5	5	0.02	-0.004518554	3	10	0.03	2000	-3.071442	40.92393	-91.39365
613691	281	250	-44	-0.5555217	1.336693	-9.358127	0	10.94	20009	0	0	5	5	0.02	-0.01804377	3	10	0.03	2000	-1.334564	40.92393	-91.39365
613851	-187	-241	1	-0.2579398	0.6283397	-9.414255	0	10.94	20009	0	0	5	5	0.02	-0.01830444	3	10	0.03	2000	-1.259186	40.92393	-91.39365
613966	-45	23	31	-0.3571248	0.5365667	-9.440548	0	10.94	20009	0	0	5	5	0.02	-0.01464432	3	10	0.03	2000	-1.213928	40.92393	-91.39365
613995	-28	-2	41	-0.3900246	0.523778	-9.440976	0	10.94	20009	0	0	5	5	0.02	-0.01511089	3	10	0.03	2000	-1.251984	40.92393	-91.39365
614133	-58	0	-1	-0.4481611	0.4089545	-9.466962	0	10.94	20009	0	0	5	5	0.02	-0.02160746	3	10	0.03	2000	-1.13385	40.92393	-91.39365
614176	-58	-12	0	-0.4627993	0.3911166	-9.473197	0	10.94	20009	0	0	5	5	0.02	-0.02100769	3	10	0.03	2000	-1.13385	40.92393	-91.39365
614276	-44	9	10	-0.5218723	0.2976023	-9.493495	0	10.94	20009	0	0	5	5	0.02	-0.01954485	3	10	0.03	2000	-1.027039	40.92393	-91.39365
614411	-53	-7	0	-0.5655543	0.2376293	-9.505293	0	10.94	20009	0	0	5	5	0.02	-0.01145991	3	10	0.03	2000	-0.7121887	40.92393	-91.39365
614480	-45	13	7	-0.5855191	0.20339	-9.510182	0	10.94	20009	0	0	5	5	0.02	-0.003559589	3	10	0.03	2000	-0.9139404	40.92393	-91.39365
614645	-50	0	8	-0.6086321	0.1119781	-9.527237	0	10.94	20009	0	0	5	5	0.02	0.003737146	3	10	0.03	2000	-0.6533813	40.92393	-91.39365
614760	-53	2	10	-0.636677	0.06901609	-9.545273	0	10.94	20009	0	0	5	5	0.02	0.00292857	3	10	0.03	2000	-0.6072388	40.92393	-91.39366
614842	-53	1	8	-0.6468638	0.04945916	-9.55371	0	10.94	20009	0	0	5	5	0.02	-0.001162848	3	10	0.03	2000	-0.5912476	40.92393	-91.39366
614879	-46	2	5	-0.6482559	0.04146307	-9.558723	0	10.94	20009	0	0	5	5	0.02	-0.003717614	3	10	0.03	2000	-0.5912476	40.92393	-91.39365
614981	-55	3	17	-0.6697178	-0.00346277	-9.575722	0	10.94	20009	0	0	5	5	0.02	-0.01746948	3	10	0.03	2000	-0.553009	40.92393	-91.39365
615162	-47	0	13	-0.6964024	-0.04368475	-9.603049	0	10.94	20009	0	0	5	5	0.02	-0.02831793	3	10	0.03	2000	-0.5133057	40.92393	-91.39365
615193	-44	4	11	-0.7013431	-0.04944371	-9.608123	0	10.94	20009	0	0	5	5	0.02	-0.03992169	3	10	0.03	2000	-0.5133057	40.92393	-91.39365
615280	-50	1	8	-0.7047063	-0.05543884	-9.616988	0	10.94	20009	0	0	5	5	0.02	-0.04803123	3	10	0.03	2000	-0.7261963	40.92393	-91.39365
615428	-53	0	4	-0.725117	-0.07096075	-9.637897	0	10.94	20009	0	0	5	5	0.02	-0.06597584	3	10	0.03	2000	-0.4822693	40.92392	-91.39365
615613	-58	-14	6	-0.7498607	-0.08298617	-9.663634	0	10.94	20009	0	0	5	5	0.02	-0.086807	3	10	0.03	2000	-0.6578979	40.92392	-91.39365
615726	-50	-1	11	-0.7534511	-0.08649018	-9.678735	0	10.94	20009	0	0	5	5	0.02	-0.08673781	3	10	0.03	2000	-0.6458435	40.92392	-91.39365
615775	-51	0	3	-0.7553005	-0.09173374	-9.689434	0	10.94	20009	0	0	5	5	0.02	-0.08454619	3	10	0.03	2000	-0.414093	40.92392	-91.39365
615925	-50	-2	12	-0.769495	-0.09016866	-9.707227	0	10.94	20009	0	0	5	5	0.02	-0.08596244	3	10	0.03	2000	-0.6327209	40.92392	-91.39365
615983	-335	-408	262	-0.9573507	0.1609884	-9.726967	0	10.94	20009	0	0	5	5	0.02	-0.08887648	3	10	0.03	2000	-0.6182861	40.92392	-91.39365
616108	92	291	-9	-0.8945936	0.1860043	-9.679276	0	10.94	20009	0	0	5	5	0.02	-0.08902859	3	10	0.03	2000	-0.4439392	40.92392	-91.39365
616187	26	125	27	-0.8572194	0.07512716	-9.722684	0	10.94	20009	0	0	5	5	0.02	-0.08728737	3	10	0.03	2000	-0.4552612	40.92392	-91.39365
616291	77	173	-69	-0.8612569	0.06538188	-9.742417	0	10.94	20009	0	0	5	5	0.02	-0.0834994	3	10	0.03	2000	-0.43927	40.92392	-91.39365
616490	20	109	25	-0.7714359	-0.0546628	-9.761368	0	10.89	20009	0	0	5	5	0.02	-0.07104687	3	10	0.03	2000	-0.5857849	40.92392	-91.39365
