time(ms)	gyro_x(deg/s)	gyro_y(deg/s)	gyro_z(deg/s)	orientation_roll(deg)	orientation_pitch(deg)	orientation_yaw(deg)	throttle	battery(V)	loop_time(uS)	pid_output_roll	pid_output_pitch	pid_output_yaw	pid_output_throttle	ultrasonic_alt	baro_alt	flight_mode	p_gain_altitude	i_gain_altitude	d_gain_altitude	compass_heading	latitude	longitude
308151	-217	-2136	498	-6.022445	-1.708996	0.6926063	0	10.89	20028	0	0	5	5	0.02	0.6652035	3	10	0.03	2000	-5.408813	40.9239	-91.39362
308224	2003	-252	-581	-4.504256	-1.439775	0.1764271	0	10.89	20028	0	0	5	5	0.02	0.665769	3	10	0.03	2000	-6.760284	40.9239	-91.39362
308410	-227	-2320	-59	-4.482049	1.986272	0.1677602	0	10.89	20028	0	0	5	5	0.02	0.6559548	3	10	0.03	2000	-5.215546	40.92391	-91.39362
308456	777	-628	484	-3.954675	2.885257	-0.003023114	0	10.89	20028	0	0	5	5	0.02	0.6535451	3	10	0.03	2000	-4.502289	40.92391	-91.39362
308585	-71	-104	-69	-3.593239	1.825083	-0.129822	0	10.89	20028	0	0	5	5	0.02	0.6419157	3	10	0.03	2000	-2.800903	40.92391	-91.39362
308666	974	511	616	-2.344293	1.209444	0.2799845	0	10.89	20028	0	0	5	5	0.02	0.6342895	3	10	0.03	2000	-3.019135	40.92391	-91.39362
308745	1764	-22	-1332	-1.635178	0.5745305	0.6814185	0	10.83	20028	0	0	5	5	0.02	0.6111178	3	10	0.03	2000	-1.940552	40.92391	-91.39362
308882	139	-324	358	4.774904	-0.03128311	0.7693689	0	10.83	20028	0	0	5	5	0.02	0.588999	3	10	0.03	2000	-1.307587	40.92392	-91.39363
308993	-2112	-1005	873	2.291511	0.9992245	-0.05500341	0	10.83	20028	0	0	5	5	0.02	0.5677354	3	10	0.03	2000	0.01590033	40.92392	-91.39364
309054	180	-766	-44	-1.19018	1.841844	-1.094118	0	10.83	20028	0	0	5	5	0.02	0.5549119	3	10	0.03	2000	5.329376	40.92392	-91.39364
309188	76	1027	89	-0.3810076	1.642878	-0.907628	0	10.83	20028	0	0	5	5	0.02	0.5140812	3	10	0.03	2000	9.252588	40.92392	-91.39364
309247	-360	1644	-6	-0.6903454	0.9386393	-0.8578582	0	10.83	20028	0	0	5	5	0.02	0.5067897	3	10	0.03	2000	9.252588	40.92392	-91.39364
309376	-2443	7758	917	-7.206113	-11.13571	-0.497112	0	10.83	20028	0	0	5	5	0.02	0.4379764	3	10	0.03	2000	11.28015	40.92392	-91.39364
309488	5158	-2921	495	-4.076901	-13.93607	-1.271322	0	10.83	20028	0	0	5	5	0.02	0.395624	3	10	0.03	2000	9.968892	40.92392	-91.39364
309546	-638	-1941	472	-4.27812	-1.392718	-1.416244	0	10.83	20028	0	0	5	5	0.02	0.3843544	3	10	0.03	2000	8.839683	40.92393	-91.39365
309650	-174	-172	17	-2.999613	-1.713342	-1.55353	0	11.29	20028	0	0	5	5	0.02	0.3066001	3	10	0.03	2000	8.080952	40.92393	-91.39365
309773	-161	-219	37	-2.753602	-0.5259625	-1.52761	0	11.29	20028	0	0	5	5	0.02	0.2470651	3	10	0.03	2000	6.507911	40.92393	-91.39365
309848	-124	-94	-28	-2.556614	-0.1723496	-1.53892	0	11.29	20028	0	0	5	5	0.02	0.2003718	1	10	0.03	2000	5.768842	40.92393	-91.39365
309997	-96	-23	67	-2.068352	0.5487178	-1.56772	0	11.29	20028	0	0	5	5	0.02	0.0858304	1	10	0.03	2000	4.422614	40.92393	-91.39365
310047	-76	5	6	-1.966853	0.6666294	-1.574753	0	11.29	20028	0	0	5	5	0.02	0.01866961	1	10	0.03	2000	4.422614	40.92393	-91.39365
310218	-92	3	13	-1.578116	1.199126	-1.599515	0	11.29	20028	0	0	5	5	0.02	-0.0315001	1	10	0.03	2000	3.867357	40.92393	-91.39365
310308	-89	4	50	-1.453859	1.380515	-1.612968	0	11.29	20028	0	0	5	5	0.02	-0.06470522	1	10	0.03	2000	4.484879	40.92393	-91.39365
310391	-76	-7	7	-1.318425	1.544017	-1.623053	0	11.29	20028	0	0	5	5	0.02	-0.08738014	1	10	0.03	2000	3.366343	40.92393	-91.39365
310488	-65	4	-63	-1.109308	1.822475	-1.643839	0	11.29	20028	0	0	5	5	0.02	-0.1189356	1	10	0.03	2000	3.048426	40.92393	-91.39365
310619	-75	12	10	-0.9319918	2.067972	-1.67062	0	11.29	20028	0	0	5	5	0.02	-0.144826	1	10	0.03	2000	3.203659	40.92393	-91.39365
310690	-83	-1	17	-0.846401	2.164071	-1.681869	0	11.29	20028	0	0	5	5	0.02	-0.153983	1	10	0.03	2000	3.093562	40.92393	-91.39365
310762	-69	2	28	-0.7911291	2.265972	-1.691041	0	11.29	20028	0	0	5	5	0.02	-0.1607216	1	10	0.03	2000	2.771816	40.92393	-91.39365
310882	-74	3	-27	-0.6977646	2.38941	-1.707244	0	11.29	20028	0	0	5	5	0.02	-0.1778612	1	10	0.03	2000	2.12669	40.92393	-91.39365
310972	-63	-6	25	-0.5878434	2.535324	-1.733595	0	11.29	20028	0	0	5	5	0.02	-0.2105718	1	10	0.03	2000	1.933095	40.92393	-91.39365
311099	-60	8	5	-0.5146437	2.633668	-1.745457	0	11.29	20028	0	0	5	5	0.02	-0.2301704	1	10	0.03	2000	2.234006	40.92393	-91.39365
311174	-74	3	7	-0.4523475	2.707387	-1.765387	0	11.29	20028	0	0	5	5	0.02	-0.2448746	1	10	0.03	2000	1.931118	40.92393	-91.39365
311303	-71	4	12	-0.4009587	2.783438	-1.780977	0	11.29	20028	0	0	5	5	0.02	-0.2701054	1	10	0.03	2000	2.050124	40.92393	-91.39365
311376	-66	-3	13	-0.3673443	2.824901	-1.792104	0	11.29	20028	0	0	5	5	0.02	-0.2832708	1	10	0.03	2000	2.050124	40.92393	-91.39365
311460	-71	-4	8	-0.3157053	2.898922	-1.813809	0	11.29	20028	0	0	5	5	0.02	-0.2929045	1	10	0.03	2000	1.942055	40.92393	-91.39365
311619	-66	5	5	-0.2584841	2.96581	-1.83374	0	11.29	20028	0	0	5	5	0.02	-0.3268773	1	10	0.03	2000	1.851111	40.92393	-91.39365
311750	-66	1	13	-0.2013501	3.018108	-1.853303	0	11.29	20028	0	0	5	5	0.02	-0.3411383	1	10	0.03	2000	1.73777	40.92393	-91.39365
311783	-73	0	7	-0.1927345	3.029273	-1.858194	0	11.29	20028	0	0	5	5	0.02	-0.3419713	1	10	0.03	2000	1.47703	40.92393	-91.39365
311853	-73	5	6	-0.1785067	3.049756	-1.865836	0	11.29	20028	0	0	5	5	0.02	-0.344373	1	10	0.03	2000	1.209056	40.92393	-91.39365
311982	-72	2	5	-0.1490404	3.083167	-1.884117	0	11.29	20028	0	0	5	5	0.02	-0.3516873	1	10	0.03	2000	1.883625	40.92393	-91.39365
312082	-65	-2	9	-0.1315778	3.110013	-1.898057	0	11.29	20028	0	0	5	5	0.02	-0.3504712	1	10	0.03	2000	1.844387	40.92393	-91.39365
312200	-68	0	10	-0.1120598	3.141045	-1.917559	0	11.29	20028	0	0	5	5	0.02	-0.360787	1	10	0.03	2000	1.56146	40.92393	-91.39365
312299	-67	4	7	-0.09648469	3.156755	-1.932476	0	11.29	20028	0	0	5	5	0.02	-0.3695386	1	10	0.03	2000	1.3221	40.92393	-91.39365
312377	-71	-6	9	-0.08796374	3.169568	-1.942074	0	11.29	20028	0	0	5	5	0.02	-0.3770825	1	10	0.03	2000	1.534852	40.92393	-91.39365
312472	-64	-8	12	-0.07934631	3.180336	-1.955526	0	11.29	20028	0	0	5	5	0.02	-0.3831436	1	10	0.03	2000	1.510442	40.92393	-91.39365
312606	-76	0	2	-0.07040546	3.194646	-1.972889	0	11.29	20028	0	0	5	5	0.02	-0.380816	1	10	0.03	2000	1.276265	40.92393	-91.39365
312703	-68	6	8	-0.06054528	3.202092	-1.986522	0	11.29	20028	0	0	5	5	0.02	-0.373385	1	10	0.03	2000	1.466546	40.92393	-91.39365
312744	-70	-2	6	-0.05569033	3.209029	-1.993798	0	11.29	20028	0	0	5	5	0.02	-0.371619	1	10	0.03	2000	1.704608	40.92393	-91.39365
312883	-69	-2	8	-0.0494647	3.230935	-2.01318	0	11.29	20028	0	0	5	5	0.02	-0.3514254	1	10	0.03	2000	1.466116	40.92393	-91.39365
312940	-62	5	9	-0.03998244	3.23832	-2.021128	0	11.29	20028	0	0	5	5	0.02	-0.3465897	1	10	0.03	2000	1.44716	40.92393	-91.39365
313040	-68	-1	9	-0.02922595	3.243042	-2.0336	0	11.29	20028	0	0	5	5	0.02	-0.3461251	1	10	0.03	2000	1.203916	40.92393	-91.39365
313204	-68	5	9	-0.02038937	3.258656	-2.055548	0	11.29	20028	0	0	5	5	0.02	-0.3547564	1	10	0.03	2000	1.173538	40.92393	-91.39365
313257	-75	0	3	-0.02256897	3.257931	-2.062274	0	11.29	20028	0	0	5	5	0.02	-0.3541643	1	10	0.03	2000	1.181534	40.92393	-91.39365
313362	-68	7	6	-0.01931571	3.268948	-2.073156	0	11.34	20028	0	0	5	5	0.02	-0.351059	1	10	0.03	2000	1.174955	40.92393	-91.39365
313441	-64	2	11	-0.009593814	3.275473	-2.084406	0	11.34	20028	0	0	5	5	0.02	-0.3494535	1	10	0.03	2000	1.388986	40.92393	-91.39365
313597	-64	0	3	-0.004572241	3.282194	-2.096511	0	11.34	20028	0	0	5	5	0.02	-0.3419216	1	10	0.03	2000	1.382202	40.92393	-91.39365
313674	-65	2	8	0.009274316	3.279579	-2.113937	0	11.34	20028	0	0	5	5	0.02	-0.3356897	1	10	0.03	2000	1.13567	40.92393	-91.39365
313730	-64	7	14	0.01151547	3.278653	-2.118339	0	11.34	20028	0	0	5	5	0.02	-0.3203449	1	10	0.03	2000	1.13567	40.92393	-91.39365
313878	-66	-2	6	0.004608343	3.27601	-2.134662	0	11.34	20028	0	0	5	5	0.02	-0.3087335	1	10	0.03	2000	1.370861	40.92393	-91.39365
314015	7	205	80	0.03066853	3.328246	-2.180274	0	11.34	20028	0	0	5	5	0.02	-0.2908404	1	10	0.03	2000	1.129352	40.92393	-91.39365
314102	-577	-683	-104	0.4120642	2.574546	-2.219826	0	11.34	20028	0	0	5	5	0.02	-0.282596	1	10	0.03	2000	1.312446	40.92393	-91.39365
314184	-4270	-1432	664	-1.450724	3.736228	-2.615154	0	11.34	20028	0	0	5	5	0.02	-0.2749119	1	10	0.03	2000	1.098539	40.92393	-91.39365
314259	1960	-343	-1477	-1.921082	7.00053	-1.746711	0	11.34	20028	0	0	5	5	0.02	-0.2600137	1	10	0.03	2000	1.225297	40.92393	-91.39365
314328	2118	934	-1646	2.414737	6.275536	1.035119	0	11.34	20028	0	0	5	5	0.02	-0.2413253	1	10	0.03	2000	-0.8504639	40.92393	-91.39365
314438	-1101	736	-174	3.994018	4.326489	2.421462	0	11.34	20028	0	0	5	5	0.02	-0.2225618	1	10	0.03	2000	-2.448944	40.92393	-91.39365
314480	-1615	662	-200	3.457586	4.263113	2.544731	0	11.34	20028	0	0	5	5	0.02	-0.2179756	1	10	0.03	2000	-2.448944	40.92393	-91.39365
314566	-1618	-1075	-1008	1.572473	3.8266	3.28476	0	11.34	20028	0	0	5	5	0.02	-0.2025667	1	10	0.03	2000	-3.388794	40.92393	-91.39365
314697	-1769	-3139	-1146	-0.919365	8.974757	5.41675	0	11.34	20028	0	0	5	5	0.02	-0.1207391	1	10	0.03	2000	-7.372284	40.92393	-91.39365
314804	-408	-1999	-774	-1.139347	12.83989	7.059017	0	11.34	20028	0	0	5	5	0.02	-0.07065524	1	10	0.03	2000	-8.466949	40.92393	-91.39365
314934	2608	-1852	668	3.048286	14.03909	6.457599	0	11.34	20028	0	0	5	5	0.02	0.00769078	1	10	0.03	2000	-7.456726	40.92393	-91.39365
314990	2027	-750	1494	3.659592	14.09298	5.836222	0	11.34	20028	0	0	5	5	0.02	0.04448719	1	10	0.03	2000	-7.456726	40.92393	-91.39365
315122	-1901	1732	2513	-1.573459	7.587253	-1.659167	0	11.29	20028	0	0	5	5	0.02	0.1021305	1	10	0.03	2000	1.60808	40.92393	-91.39365
315230	1959	1464	-2448	-2.142089	3.683462	-1.380531	0	11.29	20028	0	0	5	5	0.02	0.1338931	1	10	0.03	2000	5.552869	40.92393	-91.39365
315307	-1494	-73	372	-1.661937	1.644024	1.729922	0	11.29	20028	0	0	5	5	0.02	0.150415	1	10	0.03	2000	3.651176	40.92393	-91.39365
315435	-50	-45	2324	-2.77912	-0.6199389	-2.069443	0	11.29	20028	0	0	5	5	0.02	0.1559814	1	10	0.03	2000	5.029936	40.92393	-91.39365
315505	-210	-636	-223	-2.250035	-1.321471	-2.094604	0	11.29	20028	0	0	5	5	0.02	0.1347584	1	10	0.03	2000	4.312961	40.92393	-91.39365
315565	-53	1	-80	-2.252503	-0.9304636	-2.00333	0	11.29	20028	0	0	5	5	0.02	0.1307156	1	10	0.03	2000	4.077569	40.92393	-91.39365
315722	-75	-41	11	-1.960897	-0.6658129	-1.917484	0	11.29	20028	0	0	5	5	0.02	0.1106771	1	10	0.03	2000	3.741772	40.92393	-91.39365
315752	-75	-41	11	-1.960897	-0.6658129	-1.917484	0	11.29	20028	0	0	5	5	0.02	0.1086724	1	10	0.03	2000	3.741772	40.92393	-91.39365
315822	-63	-22	6	-1.862963	-0.5512269	-1.921825	0	11.29	20028	0	0	5	5	0.02	0.09737423	1	10	0.03	2000	3.779152	40.92393	-91.39365
315925	-65	1	1	-1.683102	-0.3555363	-1.932585	0	11.34	20028	0	0	5	5	0.02	0.08312965	1	10	0.03	2000	2.986472	40.92393	-91.39365
316028	-57	4	8	-1.568545	-0.226283	-1.942061	0	11.34	20028	0	0	5	5	0.02	0.04295336	1	10	0.03	2000	3.157773	40.92393	-91.39365
316199	-58	-4	7	-1.406494	-0.04486381	-1.958813	0	11.34	20028	0	0	5	5	0.02	-0.008918807	1	10	0.03	2000	2.679729	40.92393	-91.39365
316285	-59	5	9	-1.352844	0.0209917	-1.967679	0	11.34	20028	0	0	5	5	0.02	-0.02991819	1	10	0.03	2000	2.817966	40.92393	-91.39365
316432	-58	3	11	-1.241908	0.1285546	-1.982596	0	11.34	20028	0	0	5	5	0.02	-0.05550963	1	10	0.03	2000	2.427077	40.92393	-91.39365
316633	-61	5	9	-1.139311	0.2488202	-2.000327	0	11.34	20028	0	0	5	5	0.02	-0.08137154	1	10	0.03	2000	2.020785	40.92393	-91.39365
316727	-59	-1	7	-1.107737	0.2808586	-2.003934	0	11.34	20028	0	0	5	5	0.02	-0.08452141	1	10	0.03	2000	1.963365	40.92393	-91.39365
316847	-63	-2	5	-1.030958	0.3486552	-2.018791	0	11.4	20028	0	0	5	5	0.02	-0.084396	1	10	0.03	2000	1.860993	40.92393	-91.39365
316971	-56	-1	0	-1.005771	0.3706965	-2.024599	0	11.4	20028	0	0	5	5	0.02	-0.081456	1	10	0.03	2000	1.809211	40.92393	-91.39365
317087	-59	-6	6	-0.9696129	0.4058579	-2.037073	0	11.4	20028	0	0	5	5	0.02	-0.07341839	1	10	0.03	2000	1.958334	40.92393	-91.39365
317167	-58	4	11	-0.9448113	0.4307046	-2.044654	0	11.4	20028	0	0	5	5	0.02	-0.05726971	1	10	0.03	2000	1.907594	40.92393	-91.39365
317233	-64	7	3	-0.9266807	0.4449418	-2.050829	0	11.4	20028	0	0	5	5	0.02	-0.05503814	1	10	0.03	2000	1.874861	40.92393	-91.39365
317340	-60	4	7	-0.911383	0.4598091	-2.055842	0	11.4	20028	0	0	5	5	0.02	-0.05075415	1	10	0.03	2000	1.845594	40.92393	-91.39365
317466	-61	0	5	-0.8807185	0.4874071	-2.070332	0	11.4	20028	0	0	5	5	0.02	-0.04973309	1	10	0.03	2000	2.028165	40.92393	-91.39365
317541	-58	-1	7	-0.8667511	0.506907	-2.078157	0	11.4	20028	0	0	5	5	0.02	-0.04999219	1	10	0.03	2000	1.795737	40.92393	-91.39365
317647	-63	1	6	-0.8500557	0.5183449	-2.086779	0	11.4	20028	0	0	5	5	0.02	-0.05788758	1	10	0.03	2000	1.762969	40.92393	-91.39365
317741	-55	3	3	-0.8388699	0.5277885	-2.091242	0	11.4	20028	0	0	5	5	0.02	-0.06387045	1	10	0.03	2000	1.510377	40.92393	-91.39365
317837	-47	-4	11	-0.8122997	0.5407994	-2.103592	0	11.34	20028	0	0	5	5	0.02	-0.07035415	1	10	0.03	2000	1.693838	40.92393	-91.39365
317984	-60	-1	7	-0.8022899	0.5457962	-2.111968	0	11.34	20028	0	0	5	5	0.02	-0.07993918	1	10	0.03	2000	1.671122	40.92393	-91.39365
318090	-64	7	6	-0.7881982	0.551397	-2.124073	0	11.34	20028	0	0	5	5	0.02	-0.1065131	1	10	0.03	2000	1.638258	40.92393	-91.39365
318131	-61	-2	11	-0.7882285	0.555478	-2.12927	0	11.34	20028	0	0	5	5	0.02	-0.1104438	1	10	0.03	2000	1.880072	40.92393	-91.39365
318282	-51	-2	6	-0.7694656	0.5689958	-2.143698	0	11.34	20028	0	0	5	5	0.02	-0.129012	1	10	0.03	2000	1.632876	40.92393	-91.39365
318381	-54	8	4	-0.7605404	0.5736334	-2.150667	0	11.34	20028	0	0	5	5	0.02	-0.1386686	1	10	0.03	2000	1.40212	40.92393	-91.39365
318470	-65	1	7	-0.7564557	0.5761912	-2.157699	0	11.34	20028	0	0	5	5	0.02	-0.1425476	1	10	0.03	2000	1.594652	40.92393	-91.39365
318518	-63	-2	8	-0.7553893	0.5798401	-2.1599	0	11.34	20028	0	0	5	5	0.02	-0.1439472	1	10	0.03	2000	1.594652	40.92393	-91.39365
318634	-52	0	2	-0.7506995	0.5838169	-2.169253	0	11.34	20028	0	0	5	5	0.02	-0.1562155	1	10	0.03	2000	1.371885	40.92393	-91.39365
318740	-59	3	5	-0.7442191	0.5853516	-2.178302	0	11.34	20028	0	0	5	5	0.02	-0.1580977	1	10	0.03	2000	1.592664	40.92393	-91.39365
318822	-50	0	7	-0.7350425	0.5911914	-2.187166	0	11.34	20028	0	0	5	5	0.02	-0.1562307	1	10	0.03	2000	1.352535	40.92393	-91.39365
318981	-55	-2	2	-0.7239084	0.5929552	-2.199945	0	11.34	20028	0	0	5	5	0.02	-0.1559409	1	10	0.03	2000	1.563272	40.92393	-91.39365
319024	-57	-2	5	-0.7190528	0.5935595	-2.202574	0	11.34	20028	0	0	5	5	0.02	-0.155426	1	10	0.03	2000	1.32738	40.92393	-91.39365
319117	-57	1	6	-0.7149861	0.5879065	-2.210399	0	11.34	20028	0	0	5	5	0.02	-0.1539733	1	10	0.03	2000	1.53698	40.92393	-91.39365
319226	-45	1	5	-0.7080743	0.5852842	-2.216146	0	11.34	20028	0	0	5	5	0.02	-0.1566891	1	10	0.03	2000	1.53739	40.92393	-91.39365
319321	-56	-5	6	-0.7027129	0.5926498	-2.226172	0	11.34	20028	0	0	5	5	0.02	-0.1593639	1	10	0.03	2000	1.296575	40.92393	-91.39365
319423	-58	-3	5	-0.7002881	0.5980498	-2.230574	0	11.34	20028	0	0	5	5	0.02	-0.1587261	1	10	0.03	2000	1.510913	40.92393	-91.39365
319527	-59	-2	0	-0.6963158	0.6030464	-2.240112	0	11.34	20028	0	0	5	5	0.02	-0.1582589	1	10	0.03	2000	1.733422	40.92393	-91.39365
319631	-52	2	7	-0.7006278	0.5951598	-2.250016	0	11.34	20028	0	0	5	5	0.02	-0.1605164	1	10	0.03	2000	1.504762	40.92393	-91.39365
319759	-55	-1	9	-0.6894156	0.5945261	-2.261265	0	11.34	20028	0	0	5	5	0.02	-0.1653626	1	10	0.03	2000	1.283159	40.92393	-91.39365
319874	-51	-1	5	-0.6925018	0.593213	-2.269029	0	11.34	20028	0	0	5	5	0.02	-0.1607569	1	10	0.03	2000	1.501219	40.92393	-91.39365
319961	-52	6	3	-0.6891885	0.5926878	-2.274532	0	11.34	20028	0	0	5	5	0.02	-0.1542687	1	10	0.03	2000	1.498093	40.92393	-91.39365
320035	-50	-2	2	-0.6892408	0.5947912	-2.278933	0	11.34	20028	0	0	5	5	0.02	-0.1436284	1	10	0.03	2000	1.506326	40.92393	-91.39365
320137	-48	3	0	-0.6879015	0.5926772	-2.286453	0	11.34	20028	0	0	5	5	0.02	-0.1374906	1	10	0.03	2000	1.046468	40.92393	-91.39365
320302	-44	4	4	-0.6718139	0.5914694	-2.304735	0	11.34	20028	0	0	5	5	0.02	-0.1199431	1	10	0.03	2000	1.480378	40.92393	-91.39365
320348	-49	-2	2	-0.6713585	0.5928812	-2.308159	0	11.34	20028	0	0	5	5	0.02	-0.118971	1	10	0.03	2000	1.476442	40.92393	-91.39365
320485	-49	2	3	-0.6675644	0.594417	-2.319469	0	11.46	20028	0	0	5	5	0.02	-0.1155709	1	10	0.03	2000	1.467464	40.92393	-91.39365
320579	-49	-1	5	-0.6668742	0.5981568	-2.32436	0	11.46	20028	0	0	5	5	0.02	-0.1073768	1	10	0.03	2000	1.476081	40.92393	-91.39365
320619	-55	-2	8	-0.6640226	0.5956892	-2.326684	0	11.46	20028	0	0	5	5	0.02	-0.1056579	1	10	0.03	2000	1.476081	40.92393	-91.39365
320817	-49	5	8	-0.6521943	0.5954295	-2.342519	0	11.46	20028	0	0	5	5	0.02	-0.09391051	1	10	0.03	2000	1.436582	40.92393	-91.39365
320863	-53	0	3	-0.6514839	0.5955519	-2.345086	0	11.46	20028	0	0	5	5	0.02	-0.09351906	1	10	0.03	2000	1.221051	40.92393	-91.39365
320921	-45	4	6	-0.6503693	0.5946744	-2.35224	0	11.46	20028	0	0	5	5	0.02	-0.09335218	1	10	0.03	2000	1.440179	40.92393	-91.39365
321051	-53	-3	2	-0.6444137	0.5947199	-2.358231	0	11.46	20028	0	0	5	5	0.02	-0.09868599	1	10	0.03	2000	1.655676	40.92393	-91.39365
321120	-55	-1	8	-0.6442137	0.5957615	-2.362572	0	11.46	20028	0	0	5	5	0.02	-0.09945883	1	10	0.03	2000	1.209971	40.92393	-91.39365
321212	-48	-2	3	-0.6339221	0.5962172	-2.371741	0	11.46	20028	0	0	5	5	0.02	-0.09699655	1	10	0.03	2000	1.425261	40.92393	-91.39365
321263	-43	3	3	-0.6285464	0.5954824	-2.37437	0	11.46	20028	0	0	5	5	0.02	-0.09296162	1	10	0.03	2000	1.638796	40.92393	-91.39365
321285	-52	-3	5	-0.6258984	0.5967566	-2.378955	0	11.4	20028	0	0	5	5	0.02	-0.07904173	1	10	0.03	2000	1.17872	40.92393	-91.39365
321378	-42	-1	1	-0.6221337	0.597727	-2.384029	0	11.4	20028	0	0	5	5	0.02	-0.06893708	1	10	0.03	2000	1.408347	40.92393	-91.39365
321486	-51	0	5	-0.6124203	0.6090961	-2.392711	0	11.4	20028	0	0	5	5	0.02	-0.06510998	1	10	0.03	2000	1.383019	40.92393	-91.39365
321580	-43	0	0	-0.6073987	0.6041548	-2.396318	0	11.4	20028	0	0	5	5	0.02	-0.0700622	1	10	0.03	2000	1.382984	40.92393	-91.39365
321684	-45	-1	1	-0.6048551	0.6025609	-2.398641	0	11.4	20028	0	0	5	5	0.02	-0.07389236	1	10	0.03	2000	1.152562	40.92393	-91.39365
321874	-44	5	8	-0.5886381	0.5990192	-2.413192	0	11.4	20028	0	0	5	5	0.02	-0.08952611	1	10	0.03	2000	1.145807	40.92393	-91.39365
321904	-50	1	8	-0.5887957	0.5970348	-2.415515	0	11.4	20028	0	0	5	5	0.02	-0.0930528	1	10	0.03	2000	1.121476	40.92393	-91.39365
321980	-47	1	7	-0.5948865	0.5962813	-2.422363	0	11.4	20028	0	0	5	5	0.02	-0.1021041	1	10	0.03	2000	1.800843	40.92393	-91.39365
322075	-43	-5	2	-0.5926111	0.5961065	-2.429455	0	11.4	20028	0	0	5	5	0.02	-0.1092848	1	10	0.03	2000	1.576216	40.92393	-91.39365
322174	-48	6	7	-0.5876416	0.6017223	-2.438015	0	11.46	20028	0	0	5	5	0.02	-0.1123415	1	10	0.03	2000	1.348537	40.92393	-91.39365
322336	-46	1	2	-0.5829051	0.594277	-2.445475	0	11.46	20028	0	0	5	5	0.02	-0.1158743	1	10	0.03	2000	1.338314	40.92393	-91.39365
322377	-46	4	2	-0.5817423	0.5931366	-2.449632	0	11.46	20028	0	0	5	5	0.02	-0.1170062	1	10	0.03	2000	1.33236	40.92393	-91.39365
322477	-42	-2	3	-0.5772333	0.5944279	-2.456969	0	11.46	20028	0	0	5	5	0.02	-0.1135448	1	10	0.03	2000	1.105826	40.92393	-91.39365
322582	-45	5	-4	-0.5771624	0.5907934	-2.462288	0	11.46	20028	0	0	5	5	0.02	-0.114895	1	10	0.03	2000	1.326434	40.92393	-91.39365
322788	-46	5	0	-0.5722618	0.5848321	-2.475739	0	11.46	20028	0	0	5	5	0.02	-0.1140087	1	10	0.03	2000	1.543139	40.92393	-91.39365
322910	-45	1	4	-0.5645922	0.5815499	-2.482158	0	11.46	20028	0	0	5	5	0.02	-0.1159671	1	10	0.03	2000	1.310958	40.92393	-91.39365
322989	-47	-1	3	-0.5618458	0.5748916	-2.488944	0	11.46	20028	0	0	5	5	0.02	-0.117834	1	10	0.03	2000	1.532045	40.92393	-91.39365
323091	-44	0	3	-0.5555094	0.5755264	-2.495853	0	11.46	20028	0	0	5	5	0.02	-0.1251383	1	10	0.03	2000	1.300302	40.92393	-91.39365
323191	-43	0	6	-0.5553737	0.5794204	-2.501233	0	11.34	20028	0	0	5	5	0.02	-0.1257236	1	10	0.03	2000	1.297508	40.92393	-91.39365
323295	-40	3	0	-0.5487421	0.5792062	-2.507408	0	11.34	20028	0	0	5	5	0.02	-0.123595	1	10	0.03	2000	1.280231	40.92393	-91.39365
323397	-44	-2	2	-0.5519525	0.5797907	-2.511993	0	11.34	20028	0	0	5	5	0.02	-0.1069217	1	10	0.03	2000	1.289279	40.92393	-91.39365
323551	-40	1	2	-0.5435437	0.5891623	-2.519452	0	11.34	20028	0	0	5	5	0.02	-0.09513247	1	10	0.03	2000	1.5037	40.92393	-91.39365
323696	-38	2	6	-0.5425242	0.587768	-2.533331	0	11.34	20028	0	0	5	5	0.02	-0.08699293	1	10	0.03	2000	1.275797	40.92393	-91.39365
323731	-39	1	0	-0.5400658	0.5880197	-2.536205	0	11.34	20028	0	0	5	5	0.02	-0.08159758	1	10	0.03	2000	1.05047	40.92393	-91.39365
323872	-46	-4	1	-0.5318063	0.5898778	-2.545437	0	11.34	20028	0	0	5	5	0.02	-0.06441904	1	10	0.03	2000	1.261767	40.92393	-91.39365
323929	-44	2	1	-0.5316457	0.5903913	-2.551185	0	11.34	20028	0	0	5	5	0.02	-0.05812334	1	10	0.03	2000	1.483302	40.92393	-91.39365
324000	-43	-6	-4	-0.5292363	0.5907658	-2.552958	0	11.34	20028	0	0	5	5	0.02	-0.05740168	1	10	0.03	2000	1.473008	40.92393	-91.39365
324108	-38	0	5	-0.5282775	0.5831152	-2.561761	0	11.46	20028	0	0	5	5	0.02	-0.05678522	1	10	0.03	2000	1.03735	40.92393	-91.39365
324182	-41	0	9	-0.5241949	0.5864285	-2.56549	0	11.46	20028	0	0	5	5	0.02	-0.05499864	1	10	0.03	2000	1.024469	40.92393	-91.39365
324280	-39	-2	4	-0.5229409	0.5864462	-2.571176	0	11.46	20028	0	0	5	5	0.02	-0.05788418	1	10	0.03	2000	1.024539	40.92393	-91.39365
324385	-34	0	2	-0.5234976	0.5806649	-2.575761	0	11.46	20028	0	0	5	5	0.02	-0.06057929	1	10	0.03	2000	1.251996	40.92393	-91.39365
324491	-43	-2	4	-0.5250145	0.5910295	-2.579673	0	11.46	20028	0	0	5	5	0.02	-0.05881683	1	10	0.03	2000	1.026872	40.92393	-91.39365
324576	-44	2	2	-0.5245247	0.5878206	-2.584687	0	11.46	20028	0	0	5	5	0.02	-0.05711433	1	10	0.03	2000	1.252793	40.92393	-91.39365
324676	-32	3	1	-0.5187304	0.5867258	-2.589333	0	11.46	20028	0	0	5	5	0.02	-0.05423143	1	10	0.03	2000	1.463845	40.92393	-91.39365
324810	-41	-5	4	-0.5100079	0.5871699	-2.595508	0	11.46	20028	0	0	5	5	0.02	-0.04117718	1	10	0.03	2000	1.454579	40.92393	-91.39365
324904	-38	-2	3	-0.5054687	0.5822694	-2.599421	0	11.4	20028	0	0	5	5	0.02	-0.04001508	1	10	0.03	2000	1.229655	40.92393	-91.39365
324958	-43	-1	4	-0.5071706	0.5877219	-2.603822	0	11.4	20028	0	0	5	5	0.02	-0.03863599	1	10	0.03	2000	1.220398	40.92393	-91.39365
325074	-34	5	5	-0.5024636	0.5912744	-2.61116	0	11.4	20028	0	0	5	5	0.02	-0.0368762	1	10	0.03	2000	1.218029	40.92393	-91.39365
325212	-32	4	0	-0.4983241	0.596413	-2.61709	0	11.4	20028	0	0	5	5	0.02	-0.03748689	1	10	0.03	2000	1.430883	40.92393	-91.39365
325266	-36	-2	7	-0.5011156	0.5929365	-2.619658	0	11.4	20028	0	0	5	5	0.02	-0.03702237	1	10	0.03	2000	1.219074	40.92393	-91.39365
325354	-33	9	6	-0.5008698	0.5971663	-2.624243	0	11.4	20028	0	0	5	5	0.02	-0.03776703	1	10	0.03	2000	1.213959	40.92393	-91.39365
325493	-39	2	1	-0.4943148	0.5828245	-2.631701	0	11.4	20028	0	0	5	5	0.02	-0.03553888	1	10	0.03	2000	1.209777	40.92393	-91.39365
325622	-38	3	2	-0.4896613	0.5877466	-2.635736	0	11.4	20028	0	0	5	5	0.02	-0.03287932	1	10	0.03	2000	1.202903	40.92393	-91.39365
325791	-40	4	4	-0.4863148	0.5806918	-2.646986	0	11.4	20028	0	0	5	5	0.02	-0.03417204	1	10	0.03	2000	1.192646	40.92393	-91.39365
325915	-36	2	0	-0.4821091	0.5784984	-2.65261	0	11.34	20028	0	0	5	5	0.02	-0.04251253	1	10	0.03	2000	1.189942	40.92393	-91.39365
326064	-35	0	7	-0.4760469	0.5759756	-2.659457	0	11.34	20028	0	0	5	5	0.02	-0.04991598	1	10	0.03	2000	1.402159	40.92393	-91.39365
326208	-34	6	6	-0.4740808	0.577459	-2.665937	0	11.34	20028	0	0	5	5	0.02	-0.06130978	1	10	0.03	2000	1.16504	40.92393	-91.39365
326365	-32	2	1	-0.4662718	0.5745176	-2.675657	0	11.34	20028	0	0	5	5	0.02	-0.06917892	1	10	0.03	2000	1.159417	40.92393	-91.39365
326556	-36	7	1	-0.4730259	0.5721416	-2.684462	0	11.34	20028	0	0	5	5	0.02	-0.06899258	1	10	0.03	2000	1.391096	40.92393	-91.39365
326593	-38	2	4	-0.4662393	0.5765637	-2.687214	0	11.34	20028	0	0	5	5	0.02	-0.06351831	1	10	0.03	2000	1.160715	40.92393	-91.39365
326729	-38	5	8	-0.4647228	0.5689646	-2.691615	0	11.34	20028	0	0	5	5	0.02	-0.05338953	1	10	0.03	2000	0.9300853	40.92393	-91.39365
326881	-35	-4	1	-0.4522216	0.5699866	-2.700357	0	11.4	20028	0	0	5	5	0.02	-0.04979179	1	10	0.03	2000	1.144989	40.92393	-91.39365
327047	-28	2	8	-0.4472946	0.5706829	-2.708305	0	11.4	20028	0	0	5	5	0.02	-0.05234431	1	10	0.03	2000	1.13581	40.92393	-91.39365
327126	-39	1	3	-0.4455501	0.5642664	-2.713562	0	11.4	20028	0	0	5	5	0.02	-0.04844091	1	10	0.03	2000	1.127007	40.92393	-91.39365
327250	-32	3	0	-0.4376609	0.5602378	-2.719187	0	11.4	20028	0	0	5	5	0.02	-0.0258109	1	10	0.03	2000	1.115285	40.92393	-91.39365
327363	-32	1	5	-0.4300103	0.5565636	-2.725606	0	11.4	20028	0	0	5	5	0.02	-0.007835888	1	10	0.03	2000	1.108805	40.92393	-91.39365
327435	-33	-1	1	-0.4333355	0.5600889	-2.730253	0	11.4	20028	0	0	5	5	0.02	0.004744028	1	10	0.03	2000	1.103647	40.92393	-91.39365
327535	-34	-3	2	-0.4325697	0.5583956	-2.733616	0	11.4	20028	0	0	5	5	0.02	0.01855302	1	10	0.03	2000	0.6652032	40.92393	-91.39365
327709	-24	0	1	-0.4214853	0.5657739	-2.738568	0	11.46	20028	0	0	5	5	0.02	0.03778536	1	10	0.03	2000	1.092169	40.92393	-91.39365
327760	-30	-1	6	-0.4118576	0.573514	-2.743948	0	11.46	20028	0	0	5	5	0.02	0.04476543	1	10	0.03	2000	0.8647916	40.92393	-91.39365
327900	-35	3	-1	-0.4053262	0.5727519	-2.749268	0	11.46	20028	0	0	5	5	0.02	0.04315851	1	10	0.03	2000	1.28286	40.92393	-91.39365
327943	-31	-3	3	-0.4015341	0.5768702	-2.752936	0	11.46	20028	0	0	5	5	0.02	0.04138349	1	10	0.03	2000	1.053626	40.92393	-91.39365
328059	-34	0	7	-0.40591	0.5794387	-2.755871	0	11.46	20028	0	0	5	5	0.02	0.0394815	1	10	0.03	2000	1.058466	40.92393	-91.39365
328221	-29	0	5	-0.4063692	0.5774378	-2.763269	0	11.46	20028	0	0	5	5	0.02	0.04047157	1	10	0.03	2000	1.067922	40.92393	-91.39365
328319	-37	0	4	-0.4020838	0.5751223	-2.766632	0	11.46	20028	0	0	5	5	0.02	0.03904365	1	10	0.03	2000	0.8379916	40.92393	-91.39365
328434	-35	0	9	-0.3953279	0.5815116	-2.772684	0	11.46	20028	0	0	5	5	0.02	0.03090109	1	10	0.03	2000	1.051688	40.92393	-91.39365
328560	-25	-9	2	-0.3817403	0.5822912	-2.775435	0	11.4	20028	0	0	5	5	0.02	0.01940928	1	10	0.03	2000	0.8248004	40.92393	-91.39365
328650	-27	8	3	-0.373076	0.5846369	-2.78002	0	11.4	20028	0	0	5	5	0.02	0.01658387	1	10	0.03	2000	1.015835	40.92393	-91.39365
328749	-32	-1	7	-0.3712171	0.5848567	-2.784422	0	11.4	20028	0	0	5	5	0.02	0.00545516	1	10	0.03	2000	0.7910307	40.92393	-91.39365
328805	-27	3	5	-0.369202	0.5773662	-2.788213	0	11.4	20028	0	0	5	5	0.02	0.0003030027	1	10	0.03	2000	1.012271	40.92393	-91.39365
328905	-23	1	3	-0.3616172	0.5781119	-2.793042	0	11.4	20028	0	0	5	5	0.02	0.002710517	1	10	0.03	2000	0.7726863	40.92393	-91.39365
329044	-28	-3	0	-0.3624195	0.579113	-2.799767	0	11.4	20028	0	0	5	5	0.02	0.01863278	1	10	0.03	2000	0.9988124	40.92393	-91.39365
329121	-25	6	6	-0.3565331	0.5736189	-2.802946	0	11.4	20028	0	0	5	5	0.02	0.02287273	1	10	0.03	2000	0.9974289	40.92393	-91.39365
329190	-32	5	2	-0.3524812	0.5753	-2.805942	0	11.4	20028	0	0	5	5	0.02	0.02592736	1	10	0.03	2000	0.9894707	40.92393	-91.39365
329329	-27	0	2	-0.3505228	0.5694783	-2.810772	0	11.4	20028	0	0	5	5	0.02	0.02126113	1	10	0.03	2000	0.9821554	40.92393	-91.39365
329404	-27	-1	3	-0.349641	0.5725284	-2.813768	0	11.4	20028	0	0	5	5	0.02	0.01674281	1	10	0.03	2000	0.9770541	40.92393	-91.39365
329527	-33	-4	1	-0.3432218	0.5742562	-2.81768	0	11.34	20028	0	0	5	5	0.02	0.01429821	1	10	0.03	2000	0.9688039	40.92393	-91.39365
329690	-23	0	4	-0.3314988	0.56716	-2.822571	0	11.34	20028	0	0	5	5	0.02	0.02357361	1	10	0.03	2000	0.9535175	40.92393	-91.39365
329828	-29	4	1	-0.3334734	0.5634302	-2.825321	0	11.34	20028	0	0	5	5	0.02	0.03118868	1	10	0.03	2000	0.9529179	40.92393	-91.39365
329941	-25	-1	5	-0.3351106	0.5632945	-2.830396	0	11.34	20028	0	0	5	5	0.02	0.03997818	1	10	0.03	2000	0.9605736	40.92393	-91.39365
329993	-28	1	2	-0.3282375	0.5616264	-2.834736	0	11.34	20028	0	0	5	5	0.02	0.04035963	1	10	0.03	2000	0.9520178	40.92393	-91.39365
330065	-20	7	4	-0.3171931	0.5604418	-2.837121	0	11.34	20028	0	0	5	5	0.02	0.04052439	1	10	0.03	2000	0.7149779	40.92393	-91.39365
330222	-21	1	0	-0.3158098	0.5500289	-2.840116	0	11.34	20028	0	0	5	5	0.02	0.03289272	1	10	0.03	2000	0.9351065	40.92393	-91.39365
330276	-26	0	3	-0.3155553	0.5467772	-2.841278	0	11.34	20028	0	0	5	5	0.02	0.0287008	1	10	0.03	2000	0.9254761	40.92393	-91.39365
330364	-26	3	1	-0.3207512	0.55203	-2.845068	0	11.46	20028	0	0	5	5	0.02	0.01899977	1	10	0.03	2000	0.7090728	40.92393	-91.39365
330555	-37	4	5	-0.3224897	0.5500354	-2.84941	0	11.46	20028	0	0	5	5	0.02	0.02421359	1	10	0.03	2000	0.9392682	40.92393	-91.39365
330660	-25	1	6	-0.3219096	0.5545219	-2.854484	0	11.46	20028	0	0	5	5	0.02	0.02820766	1	10	0.03	2000	1.163046	40.92393	-91.39365
330743	-22	0	3	-0.322642	0.5560583	-2.857358	0	11.46	20028	0	0	5	5	0.02	0.0357658	1	10	0.03	2000	0.9411126	40.92393	-91.39365
330840	-20	2	3	-0.3194844	0.5537301	-2.860781	0	11.46	20028	0	0	5	5	0.02	0.04018251	1	10	0.03	2000	0.9363579	40.92393	-91.39365
330887	-27	0	2	-0.3241934	0.5498419	-2.865795	0	11.46	20028	0	0	5	5	0.02	0.04143693	1	10	0.03	2000	0.9385825	40.92393	-91.39365
330965	-20	1	2	-0.3296648	0.5533627	-2.867079	0	11.46	20028	0	0	5	5	0.02	0.04620791	1	10	0.03	2000	0.9385825	40.92393	-91.39365
331088	-25	0	2	-0.3255546	0.5519717	-2.873498	0	11.46	20028	0	0	5	5	0.02	0.04821026	1	10	0.03	2000	0.9505647	40.92393	-91.39365
331215	-27	-1	2	-0.3214297	0.5627682	-2.876677	0	11.46	20028	0	0	5	5	0.02	0.05256665	1	10	0.03	2000	0.9423281	40.92393	-91.39365
331285	-25	5	-1	-0.3214034	0.5601571	-2.879489	0	11.46	20028	0	0	5	5	0.02	0.05649573	1	10	0.03	2000	0.9406215	40.92393	-91.39365
331449	-21	-2	2	-0.318712	0.5614768	-2.887192	0	11.46	20028	0	0	5	5	0.02	0.06079686	1	10	0.03	2000	0.936641	40.92393	-91.39365
331562	-21	0	1	-0.3185746	0.5543732	-2.889638	0	11.46	20028	0	0	5	5	0.02	0.05627052	1	10	0.03	2000	0.9298258	40.92393	-91.39365
331656	-27	4	1	-0.3170379	0.5522809	-2.893612	0	11.46	20028	0	0	5	5	0.02	0.04780117	1	10	0.03	2000	0.7077413	40.92393	-91.39365
331763	-23	0	0	-0.3172969	0.5540134	-2.896363	0	11.46	20028	0	0	5	5	0.02	0.04334746	1	10	0.03	2000	0.9346066	40.92393	-91.39365
331839	-23	8	5	-0.3161971	0.5508705	-2.898502	0	11.46	20028	0	0	5	5	0.02	0.04222344	1	10	0.03	2000	0.932081	40.92393	-91.39365
332002	-24	-1	2	-0.3165883	0.5537786	-2.904922	0	11.46	20028	0	0	5	5	0.02	0.04518412	1	10	0.03	2000	0.9239326	40.92393	-91.39365
332076	-22	0	5	-0.3172109	0.5529025	-2.90908	0	11.46	20028	0	0	5	5	0.02	0.04797945	1	10	0.03	2000	0.9368927	40.92393	-91.39365
332169	-20	-2	0	-0.3106571	0.552118	-2.912626	0	11.46	20028	0	0	5	5	0.02	0.04755911	1	10	0.03	2000	0.9265198	40.92393	-91.39365
332218	-20	-3	0	-0.3095823	0.5525979	-2.914888	0	11.46	20028	0	0	5	5	0.02	0.0474149	1	10	0.03	2000	0.9214229	40.92393	-91.39365
332349	-19	0	1	-0.2994476	0.5588663	-2.921979	0	11.46	20028	0	0	5	5	0.02	0.04517624	1	10	0.03	2000	0.687218	40.92393	-91.39365
332434	-24	0	3	-0.3033578	0.5546374	-2.925402	0	11.46	20028	0	0	5	5	0.02	0.04424123	1	10	0.03	2000	0.9092917	40.92393	-91.39365
332571	-21	0	1	-0.298554	0.562746	-2.932188	0	11.46	20028	0	0	5	5	0.02	0.04655062	1	10	0.03	2000	0.9033312	40.92393	-91.39365
332737	-23	0	0	-0.2943201	0.5593407	-2.934695	0	11.46	20028	0	0	5	5	0.02	0.04912366	1	10	0.03	2000	1.126555	40.92393	-91.39365
332811	-20	-2	1	-0.2868667	0.556503	-2.936468	0	11.46	20028	0	0	5	5	0.02	0.04988752	1	10	0.03	2000	0.8902645	40.92393	-91.39365
332942	-23	-2	2	-0.2926084	0.556881	-2.938914	0	11.4	20028	0	0	5	5	0.02	0.05013932	1	10	0.03	2000	0.8936052	40.92393	-91.39365
333008	-21	4	-1	-0.287775	0.5536106	-2.940443	0	11.4	20028	0	0	5	5	0.02	0.04611493	1	10	0.03	2000	0.8907994	40.92393	-91.39365
333082	-20	-7	1	-0.2890924	0.5495552	-2.94142	0	11.4	20028	0	0	5	5	0.02	0.04168679	1	10	0.03	2000	1.113804	40.92393	-91.39365
333136	-18	5	0	-0.2821818	0.5505421	-2.941787	0	11.4	20028	0	0	5	5	0.02	0.04012393	1	10	0.03	2000	1.110262	40.92393	-91.39365
333226	-19	-2	3	-0.2812346	0.5596854	-2.943376	0	11.4	20028	0	0	5	5	0.02	0.03059965	1	10	0.03	2000	0.4292739	40.92393	-91.39365
333330	-16	-3	-2	-0.2816151	0.5596341	-2.943375	0	11.4	20028	0	0	5	5	0.02	0.02869938	1	10	0.03	2000	0.8762517	40.92393	-91.39365
333469	-16	-1	3	-0.2685431	0.5592278	-2.94906	0	11.4	20028	0	0	5	5	0.02	0.03614191	1	10	0.03	2000	0.8614864	40.92393	-91.39365
333563	-15	7	2	-0.2682422	0.5625267	-2.951505	0	11.4	20028	0	0	5	5	0.02	0.04497311	1	10	0.03	2000	0.8552583	40.92393	-91.39365
333637	-28	-1	-3	-0.2616795	0.5593938	-2.955969	0	11.4	20028	0	0	5	5	0.02	0.06216015	1	10	0.03	2000	0.8497412	40.92393	-91.39365
333738	-15	0	4	-0.2577218	0.5575057	-2.957986	0	11.4	20028	0	0	5	5	0.02	0.07320648	1	10	0.03	2000	1.074941	40.92393	-91.39365
333842	-19	2	-3	-0.2529705	0.559682	-2.960615	0	11.4	20028	0	0	5	5	0.02	0.08156275	1	10	0.03	2000	0.8395833	40.92393	-91.39365
334012	-27	2	4	-0.2455746	0.5556371	-2.963917	0	11.4	20028	0	0	5	5	0.02	0.08713613	1	10	0.03	2000	0.5942591	40.92393	-91.39365
334099	-16	1	4	-0.2458645	0.5553251	-2.966117	0	11.4	20028	0	0	5	5	0.02	0.08745301	1	10	0.03	2000	0.8246857	40.92393	-91.39365
334204	-16	0	-3	-0.244913	0.5542544	-2.96844	0	11.4	20028	0	0	5	5	0.02	0.08099907	1	10	0.03	2000	0.8210797	40.92393	-91.39365
334396	-18	-1	2	-0.2339129	0.5534068	-2.976816	0	11.4	20028	0	0	5	5	0.02	0.07166456	1	10	0.03	2000	0.8052427	40.92393	-91.39365
334513	-11	0	0	-0.2246046	0.5480924	-2.977795	0	11.4	20028	0	0	5	5	0.02	0.06852421	1	10	0.03	2000	0.7926126	40.92393	-91.39365
334535	-11	0	0	-0.2246046	0.5480924	-2.977795	0	11.4	20028	0	0	5	5	0.02	0.06911388	1	10	0.03	2000	0.7926126	40.92393	-91.39365
334738	-15	-5	-2	-0.2217894	0.547264	-2.984519	0	11.4	20028	0	0	5	5	0.02	0.07000541	1	10	0.03	2000	0.7919497	40.92393	-91.39365
334817	-20	-3	1	-0.2132781	0.5411361	-2.986721	0	11.34	20028	0	0	5	5	0.02	0.07028159	1	10	0.03	2000	0.5501752	40.92393	-91.39365
334899	-14	5	-3	-0.2084379	0.5439791	-2.98831	0	11.34	20028	0	0	5	5	0.02	0.07133543	1	10	0.03	2000	0.7728561	40.92393	-91.39365
334974	-18	1	4	-0.2025461	0.5437413	-2.989777	0	11.34	20028	0	0	5	5	0.02	0.07234633	1	10	0.03	2000	0.539606	40.92393	-91.39365
335104	-17	-7	-4	-0.2114403	0.5437042	-2.991183	0	11.34	20028	0	0	5	5	0.02	0.0776972	1	10	0.03	2000	0.7734355	40.92393	-91.39365
335147	-16	2	2	-0.2111474	0.5415383	-2.991856	0	11.34	20028	0	0	5	5	0.02	0.07823741	1	10	0.03	2000	0.3229159	40.92393	-91.39365
335230	-17	1	0	-0.2116971	0.5333602	-2.991917	0	11.34	20028	0	0	5	5	0.02	0.07553427	1	10	0.03	2000	0.7685042	40.92393	-91.39365
335333	-12	5	8	-0.2048458	0.5400319	-2.995646	0	11.34	20028	0	0	5	5	0.02	0.07474168	1	10	0.03	2000	0.7670957	40.92393	-91.39365
335400	-15	-4	6	-0.2005448	0.5370889	-2.996808	0	11.34	20028	0	0	5	5	0.02	0.07075776	1	10	0.03	2000	0.5337753	40.92393	-91.39365
335509	-15	7	0	-0.1971227	0.5385167	-2.998946	0	11.34	20028	0	0	5	5	0.02	0.06913194	1	10	0.03	2000	0.974286	40.92393	-91.39365
335592	-16	0	0	-0.1955848	0.5405707	-3.001147	0	11.34	20028	0	0	5	5	0.02	0.07448989	1	10	0.03	2000	0.7478648	40.92393	-91.39365
335687	-17	5	0	-0.1932715	0.5377668	-3.001208	0	11.4	20028	0	0	5	5	0.02	0.08374518	1	10	0.03	2000	0.5240892	40.92393	-91.39365
335880	-14	1	-5	-0.2051332	0.5433634	-3.005785	0	11.4	20028	0	0	5	5	0.02	0.1023256	1	10	0.03	2000	0.7649559	40.92393	-91.39365
335960	-13	-3	2	-0.2053097	0.5416212	-3.006824	0	11.4	20028	0	0	5	5	0.02	0.1054048	1	10	0.03	2000	0.5378704	40.92393	-91.39365
336059	-13	-3	0	-0.2031987	0.5442109	-3.007375	0	11.4	20028	0	0	5	5	0.02	0.1119679	1	10	0.03	2000	0.5352718	40.92393	-91.39365
336115	-17	3	5	-0.195237	0.5405217	-3.006213	0	11.4	20028	0	0	5	5	0.02	0.1143288	1	10	0.03	2000	0.9751108	40.92393	-91.39365
336181	-11	-8	1	-0.1903154	0.5399395	-3.00554	0	11.4	20028	0	0	5	5	0.02	0.1140573	1	10	0.03	2000	0.9751108	40.92393	-91.39365
336287	-12	0	6	-0.1822388	0.5453728	-3.008107	0	11.4	20028	0	0	5	5	0.02	0.1083597	1	10	0.03	2000	0.7330022	40.92393	-91.39365
336414	-14	2	3	-0.1749256	0.5495058	-3.009391	0	11.4	20028	0	0	5	5	0.02	0.1013068	1	10	0.03	2000	0.7217758	40.92393	-91.39365
336523	-13	1	4	-0.1573834	0.5439167	-3.008657	0	11.4	20028	0	0	5	5	0.02	0.1017909	1	10	0.03	2000	0.6954824	40.92393	-91.39365
336624	-10	-1	1	-0.1495312	0.5363771	-3.00878	0	11.4	20028	0	0	5	5	0.02	0.09254617	1	10	0.03	2000	0.4579144	40.92394	-91.39365
336647	-10	-1	1	-0.1495312	0.5363771	-3.00878	0	11.4	20028	0	0	5	5	0.02	0.09060585	1	10	0.03	2000	0.4579144	40.92394	-91.39365
336810	-9	0	4	-0.1419242	0.5324511	-3.011653	0	11.4	20028	0	0	5	5	0.02	0.08390432	1	10	0.03	2000	0.8964683	40.92394	-91.39365
336886	-9	-1	2	-0.1352487	0.5329401	-3.011959	0	11.4	20028	0	0	5	5	0.02	0.0810563	1	10	0.03	2000	0.4388809	40.92394	-91.39365
337041	-6	0	0	-0.1353712	0.5317121	-3.013793	0	11.4	20028	0	0	5	5	0.02	0.07628611	1	10	0.03	2000	0.6607695	40.92394	-91.39365
337088	-6	5	0	-0.135777	0.532352	-3.013548	0	11.4	20028	0	0	5	5	0.02	0.06996831	1	10	0.03	2000	0.6556553	40.92394	-91.39365
337143	-7	1	0	-0.1333729	0.5339274	-3.013854	0	11.4	20028	0	0	5	5	0.02	0.06164111	1	10	0.03	2000	0.6556553	40.92394	-91.39365
337259	-15	0	1	-0.1283952	0.5411702	-3.015015	0	11.4	20028	0	0	5	5	0.02	0.05295786	1	10	0.03	2000	0.4166845	40.92394	-91.39365
337436	-3	-1	0	-0.1242228	0.5402927	-3.015933	0	11.4	20028	0	0	5	5	0.02	0.04946297	1	10	0.03	2000	0.6396345	40.92394	-91.39365
337484	-15	1	4	-0.1305395	0.5200904	-3.017767	0	11.34	20028	0	0	5	5	0.02	0.05270489	1	10	0.03	2000	0.6450045	40.92394	-91.39365
337547	-8	-4	0	-0.1303551	0.5243496	-3.018439	0	11.34	20028	0	0	5	5	0.02	0.05814471	1	10	0.03	2000	0.6450045	40.92394	-91.39365
337688	-9	1	-1	-0.1161388	0.5216637	-3.019967	0	11.34	20028	0	0	5	5	0.02	0.06414902	1	10	0.03	2000	0.6302207	40.92394	-91.39365
337794	-7	-1	2	-0.1162483	0.5157973	-3.021312	0	11.34	20028	0	0	5	5	0.02	0.06653836	1	10	0.03	2000	0.6305049	40.92394	-91.39365
337908	-7	1	2	-0.09992975	0.5183142	-3.024491	0	11.34	20028	0	0	5	5	0.02	0.05906873	1	10	0.03	2000	0.3726821	40.92394	-91.39365
338001	0	-1	-2	-0.08889721	0.5231757	-3.026265	0	11.34	20028	0	0	5	5	0.02	0.05576941	1	10	0.03	2000	0.5877033	40.92394	-91.39365
338064	-8	-2	0	-0.0775931	0.5277604	-3.027121	0	11.34	20028	0	0	5	5	0.02	0.05646761	1	10	0.03	2000	0.57132	40.92394	-91.39365
338180	-12	1	-4	-0.07526367	0.5292779	-3.028405	0	11.34	20028	0	0	5	5	0.02	0.05849135	1	10	0.03	2000	0.5553405	40.92394	-91.39365
338298	-7	2	3	-0.07689518	0.5202478	-3.032012	0	11.34	20028	0	0	5	5	0.02	0.05962628	1	10	0.03	2000	0.5663284	40.92394	-91.39365
338360	-8	0	3	-0.07356443	0.5263335	-3.032195	0	11.46	20028	0	0	5	5	0.02	0.05977557	1	10	0.03	2000	0.5663284	40.92394	-91.39365
338468	-7	-2	1	-0.06142598	0.5425467	-3.034701	0	11.46	20028	0	0	5	5	0.02	0.05378543	1	10	0.03	2000	0.3298191	40.92394	-91.39365
338583	-8	2	2	-0.07037404	0.5393586	-3.036963	0	11.46	20028	0	0	5	5	0.02	0.0542748	1	10	0.03	2000	0.5555717	40.92394	-91.39365
338713	-12	1	-1	-0.07043268	0.5370088	-3.038064	0	11.46	20028	0	0	5	5	0.02	0.0545842	1	10	0.03	2000	0.5538297	40.92394	-91.39365
338770	-6	4	-2	-0.06724816	0.5399629	-3.038431	0	11.46	20028	0	0	5	5	0.02	0.0574298	1	10	0.03	2000	0.549124	40.92394	-91.39365
