time(ms)	gyro_x(deg/s)	gyro_y(deg/s)	gyro_z(deg/s)	orientation_roll(deg)	orientation_pitch(deg)	orientation_yaw(deg)	throttle	battery(V)	loop_time(uS)	pid_output_roll	pid_output_pitch	pid_output_yaw	pid_output_throttle	ultrasonic_alt	baro_alt	flight_mode	p_gain_altitude	i_gain_altitude	d_gain_altitude	compass_heading	latitude	longitude
616642	-36	15	-2	-0.783411	-0.05658969	-9.774208	0	10.89	20009	0	0	5	5	0.02	-0.07271344	3	10	0.03	2000	-0.6244812	40.92392	-91.39365
616786	-48	-2	5	-0.7787108	-0.08064256	-9.792975	0	10.89	20009	0	0	5	5	0.02	-0.08548293	3	10	0.03	2000	-0.6126404	40.92392	-91.39365
616889	-54	-9	5	-0.7739127	-0.0929379	-9.799028	0	10.89	20009	0	0	5	5	0.02	-0.100836	3	10	0.03	2000	-0.6215515	40.92392	-91.39365
616996	-42	6	4	-0.7680622	-0.09931016	-9.812661	0	10.89	20009	0	0	5	5	0.02	-0.1231381	3	10	0.03	2000	-0.6194458	40.92392	-91.39365
617027	-52	-6	5	-0.7718386	-0.1032471	-9.816023	0	10.89	20009	0	0	5	5	0.02	-0.1272973	3	10	0.03	2000	-0.6194458	40.92392	-91.39365
617110	-46	6	9	-0.7691753	-0.102179	-9.822443	0	10.89	20009	0	0	5	5	0.02	-0.1328217	3	10	0.03	2000	-0.6157837	40.92392	-91.39365
617276	-46	5	1	-0.7711037	-0.09778439	-9.830204	0	10.89	20009	0	0	5	5	0.02	-0.1436433	3	10	0.03	2000	-0.6150818	40.92392	-91.39365
617365	-42	13	1	-0.7605502	-0.1016451	-9.835093	0	10.94	20009	0	0	5	5	0.02	-0.1434549	3	10	0.03	2000	-0.6271667	40.92392	-91.39365
617505	595	-1827	716	0.4269429	-2.338987	-11.30585	0	10.94	20009	0	0	5	5	0.02	-0.1386808	3	10	0.03	2000	0.02591611	40.92392	-91.39365
617558	-1944	-2529	576	-0.1654984	-0.05222089	-11.82202	0	10.94	20009	0	0	5	5	0.02	-0.136165	3	10	0.03	2000	0.02591611	40.92392	-91.39365
617637	1172	2040	367	-0.3494987	-0.03119024	-11.86519	0	10.94	20009	0	0	5	5	0.02	-0.1312583	3	10	0.03	2000	0.7717037	40.92392	-91.39365
617810	424	631	-105	-0.408076	-0.1315674	-11.87399	0	10.94	20009	0	0	5	5	0.02	-0.1159718	3	10	0.03	2000	0.5852498	40.92392	-91.39365
617911	64	136	54	-0.1902483	-0.5372044	-11.87503	0	10.94	20009	0	0	5	5	0.02	-0.1021296	3	10	0.03	2000	0.7100681	40.92392	-91.39365
617933	64	136	54	-0.2415351	-0.4339649	-11.89111	0	10.94	20009	0	0	5	5	0.02	-0.09860688	3	10	0.03	2000	0.6602408	40.92392	-91.39365
618093	-54	-36	4	-0.2399805	-0.5192012	-11.89587	0	10.94	20009	0	0	5	5	0.02	-0.09073283	3	10	0.03	2000	0.5819096	40.92392	-91.39365
618134	-51	16	-2	-0.2464891	-0.5024858	-11.89905	0	10.94	20009	0	0	5	5	0.02	-0.09053215	3	10	0.03	2000	0.5819096	40.92392	-91.39365
618306	-48	-4	0	-0.2601772	-0.5721632	-11.92277	0	10.89	20009	0	0	5	5	0.02	-0.09878693	3	10	0.03	2000	0.8707902	40.92392	-91.39365
618396	-31	3	12	-0.2666055	-0.5839563	-11.92876	0	10.89	20009	0	0	5	5	0.02	-0.1124751	3	10	0.03	2000	0.6387166	40.92392	-91.39365
618506	-42	5	13	-0.2789914	-0.6101442	-11.94043	0	10.89	20009	0	0	5	5	0.02	-0.121183	3	10	0.03	2000	0.8926923	40.92392	-91.39365
618618	-42	6	9	-0.2905424	-0.6230726	-11.94887	0	10.89	20009	0	0	5	5	0.02	-0.1332318	3	10	0.03	2000	0.6730981	40.92392	-91.39365
618670	-45	-3	9	-0.2929587	-0.6325862	-11.95602	0	10.89	20009	0	0	5	5	0.02	-0.1378854	1	10	0.03	2000	0.6850058	40.92392	-91.39365
618744	-39	0	4	-0.2937031	-0.639831	-11.95926	0	10.89	20009	0	0	5	5	0.02	-0.1444082	1	10	0.03	2000	0.9200706	40.92392	-91.39365
618892	-47	3	9	-0.2994098	-0.656799	-11.97754	0	10.89	20009	0	0	5	5	0.02	-0.1632453	1	10	0.03	2000	0.6895827	40.92392	-91.39365
618962	-45	5	2	-0.3009184	-0.6674706	-11.98482	0	10.89	20009	0	0	5	5	0.02	-0.1744142	1	10	0.03	2000	0.4690438	40.92392	-91.39365
619055	-43	-1	5	-0.3041081	-0.6815618	-11.99705	0	10.89	20009	0	0	5	5	0.02	-0.1834209	1	10	0.03	2000	0.7047069	40.92392	-91.39365
619196	-45	1	8	-0.3062359	-0.6825336	-12.00744	0	11	20009	0	0	5	5	0.02	-0.1916393	1	10	0.03	2000	0.9330181	40.92392	-91.39365
619260	-48	8	8	-0.3040783	-0.6898592	-12.01692	0	11	20009	0	0	5	5	0.02	-0.1910681	1	10	0.03	2000	0.703808	40.92392	-91.39365
619364	-44	-2	6	-0.3037095	-0.6918336	-12.02426	0	11	20009	0	0	5	5	0.02	-0.1858631	1	10	0.03	2000	0.7081059	40.92392	-91.39365
619514	-46	3	6	-0.3052986	-0.6967243	-12.03917	0	11	20009	0	0	5	5	0.02	-0.1779126	1	10	0.03	2000	0.481411	40.92393	-91.39365
619571	-43	4	-4	-0.3042704	-0.6988004	-12.0484	0	11	20009	0	0	5	5	0.02	-0.1690257	1	10	0.03	2000	0.9424101	40.92393	-91.39365
619706	-45	2	5	-0.3032641	-0.7058343	-12.05586	0	11	20009	0	0	5	5	0.02	-0.1511625	3	10	0.03	2000	0.7074738	40.92393	-91.39365
619801	-45	0	7	-0.3041885	-0.7068421	-12.06326	0	11	20009	0	0	5	5	0.02	-0.127849	3	10	0.03	2000	0.7042328	40.92393	-91.39365
619951	-45	-1	12	-0.310555	-0.7131276	-12.08246	0	11	20009	0	0	5	5	0.02	-0.1186832	3	10	0.03	2000	0.9416977	40.92393	-91.39365
620068	-46	-2	0	-0.3103246	-0.7153123	-12.09346	0	11	20009	0	0	5	5	0.02	-0.1140966	3	10	0.03	2000	0.9529291	40.92393	-91.39365
620153	-43	-3	9	-0.3134372	-0.7223176	-12.09939	0	11	20009	0	0	5	5	0.02	-0.1123043	3	10	0.03	2000	0.9585628	40.92393	-91.39365
620217	-42	2	8	-0.3065498	-0.7243853	-12.10569	0	11	20009	0	0	5	5	0.02	-0.1031493	3	10	0.03	2000	0.7098336	40.92393	-91.39365
620322	-44	2	6	-0.2939614	-0.7348685	-12.11987	0	11	20009	0	0	5	5	0.02	-0.09498554	3	10	0.03	2000	0.7034274	40.92392	-91.39365
620378	-45	6	9	-0.2947441	-0.732643	-12.12305	0	11	20009	0	0	5	5	0.02	-0.08938286	3	10	0.03	2000	0.692982	40.92392	-91.39365
620480	-48	-3	4	-0.2986547	-0.736111	-12.13418	0	11	20009	0	0	5	5	0.02	-0.07384904	3	10	0.03	2000	0.697437	40.92393	-91.39365
620578	-36	2	7	-0.2945995	-0.7367461	-12.1417	0	11	20009	0	0	5	5	0.02	-0.06361958	3	10	0.03	2000	0.696085	40.92393	-91.39365
620668	-49	5	5	-0.2889475	-0.7432011	-12.15178	0	11	20009	0	0	5	5	0.02	-0.05394045	3	10	0.03	2000	0.6868767	40.92393	-91.39365
620827	-36	4	7	-0.2839051	-0.7436957	-12.16603	0	11	20009	0	0	5	5	0.02	-0.04275296	3	10	0.03	2000	0.6803635	40.92393	-91.39365
620902	-44	0	9	-0.282069	-0.7468405	-12.173	0	11	20009	0	0	5	5	0.02	-0.0419239	3	10	0.03	2000	0.9002066	40.92393	-91.39365
621005	-43	0	8	-0.2755407	-0.7509279	-12.18345	0	10.94	20009	0	0	5	5	0.02	-0.04494496	3	10	0.03	2000	0.9037409	40.92393	-91.39365
621077	-42	3	7	-0.2755979	-0.7529768	-12.18963	0	10.94	20009	0	0	5	5	0.02	-0.04574249	3	10	0.03	2000	0.8911291	40.92393	-91.39365
621191	-41	3	8	-0.2712814	-0.7495176	-12.20289	0	10.94	20009	0	0	5	5	0.02	-0.05129181	3	10	0.03	2000	0.660389	40.92393	-91.39365
621306	-41	2	9	-0.2708812	-0.7497602	-12.21231	0	10.94	20009	0	0	5	5	0.02	-0.05931541	3	10	0.03	2000	0.6562241	40.92393	-91.39365
621378	-44	-2	6	-0.270984	-0.7512314	-12.22289	0	10.94	20009	0	0	5	5	0.02	-0.06562646	3	10	0.03	2000	0.6545463	40.92393	-91.39365
621543	-39	3	2	-0.266708	-0.7484905	-12.23463	0	10.94	20009	0	0	5	5	0.02	-0.08234835	3	10	0.03	2000	0.6479867	40.92393	-91.39365
621603	-50	-2	6	-0.2632326	-0.7507674	-12.24453	0	10.94	20009	0	0	5	5	0.02	-0.08799634	3	10	0.03	2000	0.8769006	40.92393	-91.39365
621738	-38	0	3	-0.2618538	-0.7490965	-12.25377	0	10.94	20009	0	0	5	5	0.02	-0.09566074	3	10	0.03	2000	0.8754538	40.92393	-91.39365
621846	-38	1	4	-0.2724532	-0.7453256	-12.26672	0	10.94	20009	0	0	5	5	0.02	-0.09614956	3	10	0.03	2000	0.8794364	40.92393	-91.39365
621885	-37	7	2	-0.2740604	-0.7456558	-12.26997	0	10.94	20009	0	0	5	5	0.02	-0.09476736	3	10	0.03	2000	0.6603673	40.92393	-91.39365
622012	-36	0	6	-0.2682183	-0.7496793	-12.28372	0	10.94	20009	0	0	5	5	0.02	-0.09404008	3	10	0.03	2000	0.8847274	40.92393	-91.39365
622117	-39	0	7	-0.2599978	-0.7469684	-12.29369	0	10.94	20009	0	0	5	5	0.02	-0.09110747	3	10	0.03	2000	0.8712955	40.92393	-91.39365
622183	-38	0	6	-0.2598393	-0.7458252	-12.30054	0	10.94	20009	0	0	5	5	0.02	-0.09136189	3	10	0.03	2000	0.6398799	40.92393	-91.39365
622331	-36	4	2	-0.2548744	-0.7443951	-12.31429	0	10.94	20009	0	0	5	5	0.02	-0.09265065	3	10	0.03	2000	0.6456535	40.92393	-91.39365
622428	-26	-8	-3	-0.251874	-0.7446918	-12.32163	0	10.94	20009	0	0	5	5	0.02	-0.09583079	3	10	0.03	2000	0.8611822	40.92393	-91.39365
622521	-22	23	41	-0.2548077	-0.7422416	-12.33624	0	10.94	20009	0	0	5	5	0.02	-0.09718605	3	10	0.03	2000	0.3942846	40.92393	-91.39365
622580	-20	47	-1	-0.2279434	-0.7410012	-12.35484	0	10.94	20009	0	0	5	5	0.02	-0.097137	3	10	0.03	2000	1.294003	40.92393	-91.39365
622738	1	30	-66	-0.2285703	-0.7659542	-12.35508	0	10.94	20009	0	0	5	5	0.02	-0.09439576	3	10	0.03	2000	0.5846738	40.92393	-91.39365
622825	-70	-31	73	-0.2268969	-0.8059505	-12.37837	0	10.94	20009	0	0	5	5	0.02	-0.08914262	3	10	0.03	2000	1.040187	40.92393	-91.39365
622888	-31	-72	53	-0.2179914	-0.7687851	-12.37739	0	11	20009	0	0	5	5	0.02	-0.08973642	3	10	0.03	2000	1.262138	40.92393	-91.39365
623037	-129	-116	-45	-0.2031147	-0.7638457	-12.38251	0	11	20009	0	0	5	5	0.02	-0.1010169	3	10	0.03	2000	0.5540087	40.92392	-91.39365
623146	-273	-286	81	-0.2842066	-0.6064194	-12.40055	0	11	20009	0	0	5	5	0.02	-0.1124571	3	10	0.03	2000	0.5984834	40.92392	-91.39365
623206	-351	-296	-69	-0.3951599	-0.4821464	-12.39655	0	11	20009	0	0	5	5	0.02	-0.125559	3	10	0.03	2000	0.5984834	40.92392	-91.39365
623335	-28	-186	22	-0.4806586	-0.3800999	-12.41496	0	11	20009	0	0	5	5	0.02	-0.140014	3	10	0.03	2000	0.3010051	40.92392	-91.39365
623396	-111	-198	7	-0.5160561	-0.3451627	-12.42248	0	11	20009	0	0	5	5	0.02	-0.1409804	3	10	0.03	2000	0.3010051	40.92392	-91.39365
623511	27	217	4	-0.5653587	-0.3531711	-12.45135	0	11	20009	0	0	5	5	0.02	-0.1418208	3	10	0.03	2000	0.7538686	40.92392	-91.39365
623612	-177	-14	241	-0.5844043	-0.308455	-12.46504	0	11	20009	0	0	5	5	0.02	-0.1431382	3	10	0.03	2000	0.8430033	40.92393	-91.39365
623755	78	-141	-8	-0.6009805	-0.3274703	-12.4688	0	11	20009	0	0	5	5	0.02	-0.1437865	3	10	0.03	2000	0.9907474	40.92392	-91.39365
623960	-164	-138	-109	-0.7317193	-0.2991294	-12.49081	0	10.77	20009	0	0	5	5	0.02	-0.1391412	3	10	0.03	2000	0.660427	40.92392	-91.39365
624110	-231	-99	22	-0.6854662	-0.2886241	-12.51868	0	10.77	20009	0	0	5	5	0.02	-0.1396787	3	10	0.03	2000	0.8118743	40.92392	-91.39365
624207	88	-59	237	-0.6163577	-0.3038169	-12.5377	0	10.77	20009	0	0	5	5	0.02	-0.1352257	3	10	0.03	2000	0.3851596	40.92392	-91.39365
624356	-65	-48	-14	-0.7777495	-0.1708902	-12.54471	0	10.77	20009	0	0	5	5	0.02	-0.1280954	3	10	0.03	2000	1.238385	40.92393	-91.39365
624469	-259	-139	246	-0.8201475	-0.2236376	-12.58212	0	10.77	20009	0	0	5	5	0.02	-0.1260906	3	10	0.03	2000	1.116061	40.92393	-91.39365
624601	-56	-175	247	-0.9950558	-0.3020971	-12.57628	0	10.77	20009	0	0	5	5	0.02	-0.1211225	3	10	0.03	2000	1.43374	40.92393	-91.39365
624646	-252	-130	427	-1.024845	-0.2457109	-12.58823	0	10.77	20009	0	0	5	5	0.02	-0.1204982	3	10	0.03	2000	1.134046	40.92393	-91.39365
624719	-185	68	-60	-1.218795	-0.4255388	-12.57069	0	10.38	20009	0	0	5	5	0.02	-0.1195868	3	10	0.03	2000	0.8224295	40.92393	-91.39365
624822	-92	28	153	-1.214019	-0.3921521	-12.5582	0	10.38	20009	0	0	5	5	0.02	-0.1138831	3	10	0.03	2000	1.457363	40.92393	-91.39365
624948	-272	-226	325	-1.209946	-0.2667418	-12.44724	0	10.38	20009	0	0	5	5	0.02	-0.1094828	3	10	0.03	2000	1.445161	40.92393	-91.39365
625018	122	288	-1049	-1.193413	-0.5531341	-11.97923	0	10.38	20009	0	0	5	5	0.02	-0.09982959	3	10	0.03	2000	1.40923	40.92393	-91.39365
625184	-68	-62	113	-0.9912385	-1.904687	-10.73138	0	10.38	20009	0	0	5	5	0.02	-0.08073007	3	10	0.03	2000	0.4554544	40.92393	-91.39365
625222	100	203	-422	-1.089906	-1.60315	-10.75048	0	10.38	20009	0	0	5	5	0.02	-0.07682119	3	10	0.03	2000	0.3721176	40.92393	-91.39365
625346	-112	-343	-215	-1.133861	-1.580406	-10.73267	0	10.38	20009	0	0	5	5	0.02	-0.04826012	3	10	0.03	2000	0.4752666	40.92393	-91.39365
625435	349	154	-450	-1.171544	-1.44334	-10.80369	0	10.38	20009	0	0	5	5	0.02356421	-0.03741278	6	10	0.03	2000	0.4752666	40.92393	-91.39365
625554	176	155	-541	-1.029156	-1.60822	-10.81883	0	10.38	20009	0	0	5	5	0.02839887	-0.02745763	6	10	0.03	2000	0.2187676	40.92393	-91.39365
625637	141	54	-645	-0.952572	-1.554929	-10.8436	0	10.26	20009	0	0	5	5	0.03091266	-0.02081498	6	10	0.03	2000	0.4352704	40.92393	-91.39365
625752	-21	22	585	-0.99481	-1.624281	-10.87739	0	10.26	20009	0	0	5	5	0.03526185	-0.004264954	6	10	0.03	2000	0.5965693	40.92393	-91.39365
625808	271	-65	-509	-0.9907357	-1.528494	-10.80791	0	10.26	20009	0	0	5	5	0.0334402	0.009129571	6	10	0.03	2000	-0.4880981	40.92393	-91.39365
625925	57	-481	-622	-0.9739229	-0.5859969	-9.708938	0	10.26	20009	0	0	5	5	0.02923547	0.01865698	6	10	0.03	2000	-0.6156921	40.92393	-91.39365
626015	241	-442	-252	-0.8751534	-0.02885581	-8.364858	0	10.26	20009	0	0	5	5	0.02809171	0.02738676	6	10	0.03	2000	-0.996521	40.92393	-91.39365
626097	646	-538	-130	-0.533935	0.8707398	-7.757757	0	10.26	20009	0	0	5	5	0.02692211	0.03501815	6	10	0.03	2000	-1.457184	40.92393	-91.39365
626214	1403	-1336	1166	1.137658	2.277089	-8.438	0	10.26	20009	0	0	5	5	0.0321416	0.04599925	6	10	0.03	2000	-1.685791	40.92393	-91.39365
626353	-621	530	346	1.643827	-0.01449324	-11.85549	0	10.26	20009	0	0	5	5	0.04156328	0.05535996	6	10	0.03	2000	4.242833	40.92393	-91.39365
626456	-161	1043	87	0.8882158	-1.155719	-12.46842	0	10.26	20009	0	0	5	5	0.05054487	0.06528458	6	10	0.03	2000	5.494147	40.92393	-91.39365
626549	-2506	2744	253	-3.254709	-6.597049	-12.31199	0	10.26	20009	0	0	5	5	0.05344258	0.06706386	6	10	0.03	2000	6.532502	40.92393	-91.39365
626625	-828	125	-469	-4.90225	-7.3116	-11.37021	0	10.26	20009	0	0	5	5	0.05554045	0.06228606	6	10	0.03	2000	6.532502	40.92393	-91.39365
626732	-1043	497	-113	-6.184819	-8.363744	-10.05706	0	10.26	20009	0	0	5	5	0.06752162	0.06994933	6	10	0.03	2000	3.083397	40.92393	-91.39365
626812	177	-1139	640	-6.347629	-7.460255	-10.61597	0	10.26	20009	0	0	5	5	0.08774742	0.08210588	6	10	0.03	2000	2.261158	40.92393	-91.39365
626914	2160	-265	-71	-4.710822	-5.836704	-10.57412	0	10.26	20009	0	0	5	5	0.1270339	0.1002344	6	10	0.03	2000	1.097689	40.92393	-91.39365
627044	-123	-1718	372	-2.447556	-4.633081	-10.95925	0	10.26	20009	0	0	5	5	0.1819188	0.1172398	6	10	0.03	2000	1.392523	40.92393	-91.39365
627119	787	-2740	1517	-1.927982	-1.421968	-11.13611	0	10.26	20009	0	0	5	5	0.2114164	0.1298676	6	10	0.03	2000	2.21575	40.92393	-91.39365
627270	5642	-2977	-843	4.015062	-1.428855	-12.59307	0	10.26	20027	-219	240	5	5	0.1248392	0.1670513	8	10	0.03	2000	1.724994	40.92393	-91.39365
627378	2363	-6279	-623	9.589101	7.871816	-12.04178	0	10.26	24009	-220	240	5	5	0.09100781	0.1871656	8	10	0.03	2000	6.104815	40.92393	-91.39365
627562	-844	-1295	59	11.07246	14.80809	-11.19858	0	8.96	20033	-204	265	5	5	0.0537392	0.2243181	8	10	0.03	2000	16.50718	40.92393	-91.39364
627670	-1295	1006	33	7.586432	11.44689	-12.05522	0	8.96	20065	-231	300	5	5	0.03525829	0.264459	8	10	0.03	2000	25.36393	40.92393	-91.39364
627745	-1615	1648	461	6.220733	9.092113	-12.09692	0	8.96	20047	-198	265	5	5	0.02570329	0.2992165	8	10	0.03	2000	27.14549	40.92393	-91.39364
627828	-2897	3542	926	4.272647	7.093424	-12.17961	0	8.96	20053	17	-10	5	5	0.02081967	0.3233395	8	10	0.03	2000	26.17453	40.92392	-91.39364
627959	-3584	4648	-127	-6.193141	-7.97995	-11.27227	0	8.96	20032	27	-10	5	5	0.02	0.3674076	8	10	0.03	2000	17.53484	40.92392	-91.39364
628033	-4562	1871	-12	-10.61128	-11.64147	-11.1951	0	8.96	20027	33	-32	5	5	0.02	0.3929097	8	10	0.03	2000	12.73132	40.92392	-91.39363
628136	-127	6283	501	-11.65274	-15.56971	-10.92908	0	8.96	20042	33	-32	5	5	0.02	0.4387579	8	10	0.03	2000	8.785568	40.92392	-91.39363
628219	-565	104	-21	-11.79752	-17.61501	-10.70824	0	8.96	20038	60	-48	5	5	0.02	0.4863473	8	10	0.03	2000	4.74499	40.92392	-91.39363
628397	-213	35	847	-6.675289	-9.815159	-10.61858	0	9.81	20038	77	-59	5	5	0.02	0.5756615	8	10	0.03	2000	2.044196	40.92391	-91.39362
628476	-593	-1921	395	-6.153733	-8.066323	-10.98425	0	9.81	20031	67	-49	5	5	0.02	0.6170489	8	10	0.03	2000	1.37848	40.92391	-91.39362
628549	183	620	379	-5.901681	-6.286124	-11.22853	0	9.81	20053	88	-65	5	5	0.02	0.6770839	8	10	0.03	2000	1.37848	40.92391	-91.39362
628618	-754	622	-138	-5.045364	-5.642967	-11.46755	0	9.81	20019	88	-65	5	5	0.02	0.7289939	8	10	0.03	2000	-0.4202271	40.92391	-91.39362
628765	-90	197	-103	-5.702389	-4.104428	-11.3159	0	9.81	20051	95	-66	5	5	0.02	0.8445153	8	10	0.03	2000	-1.478851	40.92391	-91.39362
628831	-762	-524	-1240	-6.927023	-3.651833	-10.71615	0	9.81	20054	70	-51	5	5	0.02	0.9072203	8	10	0.03	2000	-2.073425	40.92391	-91.39362
628948	-1340	-476	253	-7.550586	-3.390113	-10.59911	0	9.81	24016	86	-62	5	5	0.02	0.9881974	8	10	0.03	2000	-3.105103	40.92391	-91.39362
629047	1860	2315	-330	-6.072466	-5.627529	-10.04028	0	9.81	20005	61	-47	5	5	0.02	1.068551	8	10	0.03	2000	-4.256256	40.92391	-91.39362
629157	-1615	-1436	771	-5.80573	-5.072424	-11.03434	0	9.81	20035	77	-58	5	5	0.02	1.199665	8	10	0.03	2000	-4.025055	40.9239	-91.39362
629219	-1046	-1157	261	-6.566464	-4.301494	-11.46149	0	9.81	20009	57	-43	5	5	0.02	1.244024	8	10	0.03	2000	-4.025055	40.9239	-91.39362
629414	152	-680	-532	-5.475741	-4.855858	-11.33193	0	10.66	20033	58	-39	5	5	0.02	1.462791	8	10	0.03	2000	-6.628906	40.9239	-91.39361
629434	956	1545	679	-5.188682	-5.008278	-11.1736	0	10.66	20007	58	-39	5	5	0.02	1.476778	8	10	0.03	2000	-7.117737	40.9239	-91.39361
629597	-935	-2451	165	-7.302817	-5.450818	-11.31919	0	10.66	20053	49	-34	5	5	0.02	1.579616	8	10	0.03	2000	-6.603821	40.9239	-91.39361
629647	-134	-1010	-174	-7.437209	-4.594612	-11.44285	0	10.66	20004	49	-34	5	5	0.02	1.609416	8	10	0.03	2000	-6.85965	40.9239	-91.39361
629735	1106	368	-4	-6.318971	-5.227798	-11.8236	0	10.66	20061	49	-34	5	5	0.02	1.672967	8	10	0.03	2000	-7.012085	40.9239	-91.39361
629865	-693	-2679	-564	-4.296793	-4.713915	-11.02516	0	10.66	20027	55	-35	5	5	0.02	1.749868	8	10	0.03	2000	-6.662628	40.9239	-91.39361
629960	-51	722	37	-5.073703	-2.632521	-10.63796	0	10.66	20032	66	-42	5	5	0.02	1.798273	8	10	0.03	2000	-6.503204	40.9239	-91.39361
630082	122	-221	205	-4.388441	-2.533746	-10.97538	0	10.66	20035	46	-25	5	5	0.02	1.930644	8	10	0.03	2000	-6.900787	40.9239	-91.3936
630145	-409	-154	698	-4.861922	-2.679632	-11.35726	0	10.66	20024	41	-20	5	5	0.02	1.948311	8	10	0.03	2000	-6.115814	40.9239	-91.3936
630277	-1024	18	-343	-4.108048	-4.531303	-11.66168	0	10.32	20038	41	-25	5	5	0.02	2.060543	8	10	0.03	2000	-7.763489	40.9239	-91.3936
630346	-705	-2119	-813	-5.468704	-3.736642	-11.36558	0	10.32	20055	41	-25	5	5	0.02	2.090655	8	10	0.03	2000	-8.389526	40.9239	-91.3936
630500	-336	686	239	-5.259194	-2.239507	-10.47771	0	10.32	20029	21	-21	5	5	0.02	2.198907	8	10	0.03	2000	-6.856232	40.9239	-91.3936
630598	-537	575	253	-5.163658	-3.438201	-11.02634	0	10.32	20030	15	-21	5	5	0.02	2.235903	8	10	0.03	2000	-6.242096	40.9239	-91.39361
630647	-686	-202	670	-5.138206	-4.040005	-11.33941	0	10.32	20053	10	-21	5	5	0.02	2.248738	8	10	0.03	2000	-7.572998	40.9239	-91.39361
630760	1825	571	285	-2.745662	-4.063563	-11.10097	0	10.32	20030	5	-26	5	5	0.02	2.325531	8	10	0.03	2000	-8.061218	40.9239	-91.39361
630867	-1256	-2316	-67	-3.290291	-2.219714	-10.96754	0	10.32	20037	5	-21	5	5	0.02	2.369473	8	10	0.03	2000	-7.450714	40.9239	-91.39361
630939	100	685	984	-3.362578	-2.074198	-11.03612	0	10.32	20009	0	-21	5	5	0.02	2.420678	8	10	0.03	2000	-6.88736	40.9239	-91.39361
631067	2044	48	-725	-1.848415	-3.930775	-10.96486	0	10.32	20002	0	-16	5	5	0.02	2.452731	8	10	0.03	2000	-7.677582	40.9239	-91.39361
631257	1130	332	-1016	-1.036865	-3.411005	-10.93633	0	9.87	20028	-6	-22	5	5	0.02	2.484214	8	10	0.03	2000	-4.498016	40.9239	-91.39361
631357	663	774	438	0.4359163	-5.699121	-10.67929	0	9.87	20033	-16	-22	5	5	0.02	2.484412	8	10	0.03	2000	-4.598541	40.9239	-91.39362
631451	317	-308	755	0.3384371	-6.327026	-10.70119	0	9.87	20079	-11	-17	5	5	0.02	2.477936	8	10	0.03	2000	-1.969574	40.9239	-91.39362
631560	366	-715	-239	-0.7980363	-4.013317	-10.96397	0	9.87	20077	-22	-22	5	5	0.02	2.461201	8	10	0.03	2000	0.4100949	40.92389	-91.39362
631675	700	-1368	-145	-0.3634734	-3.372017	-11.25338	0	9.87	20007	-28	-27	5	5	0.02	2.435503	8	10	0.03	2000	1.229412	40.92389	-91.39362
631773	908	302	-64	-0.05835953	-2.42861	-11.38548	0	9.87	20033	-18	-22	5	5	0.02	2.414818	8	10	0.03	2000	3.41974	40.92389	-91.39362
631890	-32	351	455	0.5521041	-3.642702	-10.77492	0	9.87	20032	-18	-28	5	5	0.02	2.394296	8	10	0.03	2000	5.475741	40.92389	-91.39362
631991	-144	163	461	-0.9276516	-3.344044	-10.82262	0	9.87	20012	-8	-28	5	5	0.02	2.365455	8	10	0.03	2000	6.329488	40.92389	-91.39362
632120	-335	116	919	-0.5634004	-4.258211	-11.37428	0	10.43	20037	-19	-28	5	5	0.02	2.329088	8	10	0.03	2000	7.142998	40.92389	-91.39362
632213	2055	907	456	1.034458	-2.272599	-11.16542	0	10.43	20053	-9	-28	5	5	0.02	2.280052	8	10	0.03	2000	8.837625	40.92389	-91.39362
632309	-1201	130	-240	-0.3077564	-2.662769	-11.13881	0	10.43	20031	-9	-28	5	5	0.02	2.255347	8	10	0.03	2000	10.15864	40.92389	-91.39362
632365	1149	1303	123	-0.234568	-3.022848	-10.86044	0	10.43	20039	0	-23	5	5	0.02	2.241045	8	10	0.03	2000	11.56068	40.92389	-91.39362
632440	5	1852	744	-0.346573	-4.346237	-10.91353	0	10.43	20035	6	-34	5	5	0.02	2.214656	8	10	0.03	2000	11.367	40.92389	-91.39362
632606	-2894	-942	-145	-3.066496	-2.274921	-11.66518	0	10.43	20009	6	-40	5	5	0.02	2.162357	8	10	0.03	2000	12.19145	40.92389	-91.39362
632686	-3120	844	-469	-6.173344	-3.225011	-11.55927	0	10.43	20018	16	-40	5	5	0.02	2.141317	8	10	0.03	2000	11.94602	40.92389	-91.39362
632829	-2502	129	-126	-12.87964	-5.640207	-11.7592	0	10.43	20026	27	-51	5	5	0.02	2.108687	8	10	0.03	2000	9.045479	40.92389	-91.39362
632903	-1286	-216	-724	-13.41073	-5.582632	-11.45237	0	10.43	20055	27	-46	5	5	0.02	2.090539	8	10	0.03	2000	5.515813	40.92389	-91.39362
632957	-513	1457	-542	-13.56248	-5.66378	-11.1075	0	10.43	20006	37	-51	5	5	0.02	2.083972	8	10	0.03	2000	3.426026	40.92389	-91.39362
633039	129	1920	-1301	-13.35715	-6.699943	-10.41188	0	10.32	20032	32	-41	5	5	0.02	2.072721	8	10	0.03	2000	0.3796108	40.92389	-91.39362
633140	1558	-1447	164	-8.478313	-7.301455	-10.82779	0	10.32	20033	38	-52	5	5	0.02	2.055201	8	10	0.03	2000	-2.877441	40.92388	-91.39362
633265	556	-487	-553	-5.69814	-6.62723	-11.09396	0	10.32	20010	38	-42	5	5	0.02	2.03151	8	10	0.03	2000	-3.502625	40.92388	-91.39362
633345	-681	-186	55	-4.34296	-5.787598	-10.73311	0	10.32	20037	38	-53	5	5	0.02	2.02506	8	10	0.03	2000	-3.861664	40.92388	-91.39362
633475	1401	-536	-633	-5.032651	-4.75175	-10.91443	0	10.32	20008	28	-43	5	5	0.02	2.016205	8	10	0.03	2000	-3.855225	40.92388	-91.39362
633598	-363	100	-591	-3.457414	-4.947786	-10.7428	0	10.32	20031	28	-48	5	5	0.02	2.01254	8	10	0.03	2000	-5.772827	40.92388	-91.39362
633677	-782	-482	1233	-4.281719	-4.781765	-11.13677	0	10.32	20032	23	-54	5	5	0.02	2.012201	8	10	0.03	2000	-4.372711	40.92388	-91.39362
633755	1982	34	-780	-3.849212	-4.333336	-10.97226	0	10.32	20030	23	-54	5	5	0.02	2.016006	8	10	0.03	2000	-5.010773	40.92388	-91.39361
633855	-829	-205	-411	-2.305137	-6.042998	-10.78246	0	10.32	20033	18	-44	5	5	0.02	2.027618	8	10	0.03	2000	-2.8396	40.92388	-91.39361
634051	1038	1033	-532	-2.583611	-5.546659	-10.94886	0	9.98	20034	18	-34	5	5	0.02	2.040544	8	10	0.03	2000	-3.02121	40.92388	-91.39361
634098	750	-192	-120	-1.622726	-5.200907	-10.51513	0	9.98	20050	13	-44	5	5	0.02	2.042448	8	10	0.03	2000	-3.03183	40.92387	-91.39362
634232	-28	-554	-644	-2.290663	-4.918204	-10.53549	0	9.98	20005	13	-40	5	5	0.02	2.058979	8	10	0.03	2000	-3.543335	40.92387	-91.39362
634266	489	757	149	-2.203552	-5.008099	-10.56872	0	9.98	20032	13	-40	5	5	0.02	2.063199	8	10	0.03	2000	-3.543335	40.92387	-91.39362
634356	-730	-1405	-473	-2.589062	-4.730433	-11.04799	0	9.98	20029	8	-30	5	5	0.02	2.082117	8	10	0.03	2000	-3.502655	40.92387	-91.39362
634455	954	-1046	-742	-2.311975	-3.834856	-11.10644	0	9.98	20032	2	-35	5	5	0.02	2.098241	8	10	0.03	2000	-4.497467	40.92387	-91.39362
634555	20	-549	-28	-1.083073	-3.922791	-11.00417	0	9.98	20057	2	-35	5	5	0.02	2.108171	8	10	0.03	2000	-2.990051	40.92387	-91.39362
634690	-874	-383	-149	-2.055298	-4.870059	-10.989	0	9.98	20029	2	-40	5	5	0.02	2.119	8	10	0.03	2000	-2.441711	40.92387	-91.39362
634758	-249	-956	-530	-1.732398	-4.829925	-10.55712	0	9.98	20028	7	-30	5	5	0.02	2.122018	8	10	0.03	2000	-1.986084	40.92387	-91.39362
634965	527	1518	1025	-2.016046	-5.10154	-10.30621	0	10.38	20004	13	-41	5	5	0.02	2.125685	8	10	0.03	2000	-1.615784	40.92387	-91.39362
635000	513	847	1408	-1.852743	-5.793231	-10.26882	0	10.38	20038	13	-41	5	5	0.02	2.124729	8	10	0.03	2000	-1.687256	40.92387	-91.39362
635149	130	309	770	-2.36961	-4.969426	-10.68471	0	10.38	20042	18	-36	5	5	0.02	2.108409	8	10	0.03	2000	-0.697113	40.92387	-91.39362
635180	-501	1693	640	-2.568163	-5.28853	-10.80172	0	10.38	20029	18	-42	5	5	0.02	2.106499	8	10	0.03	2000	0.4942673	40.92387	-91.39362
635318	-1835	788	-122	-6.068948	-9.112401	-11.11376	0	10.38	20025	18	-37	5	5	0.02	2.09807	8	10	0.03	2000	-1.855103	40.92387	-91.39362
635391	-2045	214	-598	-7.75186	-9.635608	-10.90207	0	10.38	20056	18	-42	5	5	0.02	2.092593	8	10	0.03	2000	-0.178772	40.92387	-91.39362
635520	-375	3388	-304	-9.685923	-13.76257	-10.50078	0	10.38	20064	15	-51	5	5	0.02	2.084613	8	10	0.03	2000	-1.513641	40.92387	-91.39362
635634	-1453	2958	523	-9.996968	-15.98722	-10.69434	0	10.38	20032	13	-37	5	5	0.02	2.076083	8	10	0.03	2000	-5.520172	40.92387	-91.39362
635688	2356	-506	1062	-8.265501	-17.22917	-10.57717	0	10.38	20027	13	-37	5	5	0.02	2.073297	8	10	0.03	2000	-7.051208	40.92387	-91.39362
635771	198	-3065	224	-6.488739	-12.91847	-10.82028	0	10.04	20028	18	-43	5	5	0.02	2.061513	8	10	0.03	2000	-7.051117	40.92387	-91.39361
635881	892	-1485	-877	-6.205968	-9.245407	-10.81215	0	10.04	20036	18	-38	5	5	0.02	2.057745	8	10	0.03	2000	-6.561951	40.92387	-91.39361
636039	139	-1033	722	-4.03052	-7.423713	-11.13518	0	10.04	20058	18	-33	5	5	0.02	2.064157	8	10	0.03	2000	-5.330811	40.92387	-91.39361
636077	377	-1007	1045	-4.140527	-6.444781	-11.23127	0	10.04	20029	18	-33	5	5	0.02	2.066527	8	10	0.03	2000	-5.330811	40.92387	-91.39361
636195	-182	-1265	298	-2.901883	-4.251846	-10.97032	0	10.04	20030	13	-22	5	5	0.02	2.070317	8	10	0.03	2000	-4.681335	40.92387	-91.39362
636284	402	249	1100	-3.036733	-2.948953	-10.86742	0	10.04	20006	13	-17	5	5	0.02	2.074492	8	10	0.03	2000	-4.327087	40.92387	-91.39362
636433	-588	-588	-574	-2.348492	-3.801708	-10.81024	0	10.04	24044	8	-12	5	5	0.02	2.081007	8	10	0.03	2000	-4.328705	40.92387	-91.39362
636553	-28	-1532	858	-2.990915	-2.297484	-10.96061	0	10.04	20051	-2	3	5	5	0.02	2.088448	8	10	0.03	2000	-2.738739	40.92387	-91.39362
636677	-63	-575	554	-2.230906	-1.243878	-11.63046	0	9.64	20018	-8	9	5	5	0.02	2.092587	8	10	0.03	2000	-1.438751	40.92387	-91.39362
636751	1336	278	-109	-1.801665	-1.472334	-11.64477	0	9.64	20050	-8	9	5	5	0.02	2.096586	8	10	0.03	2000	-1.098785	40.92387	-91.39362
636865	385	-759	-880	-1.490633	-2.506415	-11.14017	0	9.64	20030	-3	15	5	5	0.02	2.103122	8	10	0.03	2000	0.06466422	40.92387	-91.39362
636885	1359	-849	-1458	-1.049847	-2.450745	-10.97288	0	9.64	20054	-3	15	5	5	0.02	2.103793	8	10	0.03	2000	0.06466422	40.92387	-91.39362
637066	445	-1857	-886	-2.042311	-1.387551	-11.22194	0	9.64	20059	-3	20	5	5	0.02	2.092248	8	10	0.03	2000	1.4804	40.92388	-91.39362
637128	31	899	1080	-1.130819	-0.8429151	-11.30382	0	9.64	20031	6	5	5	5	0.02	2.088611	8	10	0.03	2000	4.375509	40.92388	-91.39362
637195	152	-894	-969	-1.456943	-1.193326	-11.0928	0	9.64	20032	7	11	5	5	0.02	2.067817	8	10	0.03	2000	4.560879	40.92388	-91.39362
637379	314	738	-376	-2.127186	-1.046631	-11.05935	0	9.64	20024	12	6	5	5	0.02	2.028816	8	10	0.03	2000	5.082792	40.92388	-91.39362
637484	-59	-945	1067	-1.624068	-0.5451456	-10.87313	0	9.64	20032	12	-3	5	5	0.02	2.012311	8	10	0.03	2000	5.961997	40.92388	-91.39362
637600	-541	2523	1280	-1.61508	-1.387182	-11.01855	0	10.09	20030	17	1	5	5	0.02	1.964719	8	10	0.03	2000	7.748602	40.92388	-91.39362
637678	-3514	4102	-457	-4.205025	-6.15694	-11.5246	0	10.09	20050	17	-8	5	5	0.02	1.938084	8	10	0.03	2000	7.696827	40.92388	-91.39362
637803	-533	2462	-182	-6.938886	-12.18457	-11.52304	0	10.09	20009	22	-8	5	5	0.02	1.87845	8	10	0.03	2000	4.280621	40.92388	-91.39362
637870	-784	3699	616	-7.143544	-13.11673	-11.47534	0	10.09	20029	22	-13	5	5	0.02	1.855299	8	10	0.03	2000	2.921102	40.92388	-91.39362
637985	-940	2097	-1146	-9.313625	-18.88492	-10.74503	0	10.09	20040	27	-16	5	5	0.02	1.823246	8	10	0.03	2000	-0.116394	40.92388	-91.39362
638128	-949	818	510	-10.40538	-21.41736	-10.66713	0	10.09	20030	22	-13	5	5	0.02	1.801311	8	10	0.03	2000	-2.639465	40.92388	-91.39362
638182	22	1150	-528	-9.97832	-21.3745	-10.59196	0	10.09	20054	22	-13	5	5	0.02	1.792956	8	10	0.03	2000	-4.176758	40.92388	-91.39362
638352	-219	-501	-701	-10.3126	-20.41105	-11.14353	0	10.09	20053	23	-7	5	5	0.02	1.779037	8	10	0.03	2000	-5.41214	40.92388	-91.39362
638417	-373	415	-560	-10.12632	-19.78183	-11.30941	0	10.09	20008	18	-7	5	5	0.02	1.776998	8	10	0.03	2000	-4.762451	40.92388	-91.39362
638533	1629	-2515	-59	-7.319837	-18.15803	-11.36586	0	9.3	20026	18	3	5	5	0.02	1.782938	8	10	0.03	2000	-6.00943	40.92389	-91.39362
638648	-865	-4716	10	-5.245757	-9.061765	-10.71469	0	9.3	20032	18	19	5	5	0.02	1.80078	8	10	0.03	2000	-4.798157	40.92389	-91.39362
638703	913	-2701	309	-5.064483	-5.50318	-10.80825	0	9.3	20010	18	19	5	5	0.02	1.816435	8	10	0.03	2000	-4.479645	40.92389	-91.39362
638790	379	-648	1266	-4.199878	-3.790455	-11.28449	0	9.3	20055	18	19	5	5	0.02	1.83421	8	10	0.03	2000	-4.307068	40.92389	-91.39362
638921	1341	-465	307	-3.111601	-2.272604	-11.7002	0	9.3	20031	13	36	5	5	0.02	1.852249	8	10	0.03	2000	-3.464294	40.92389	-91.39362
639042	-204	-124	352	-3.686763	-1.519178	-11.97295	0	9.3	20016	18	58	5	5	0.02	1.874305	8	10	0.03	2000	-2.418945	40.9239	-91.39361
639139	197	-2605	-270	-3.177231	-0.1250327	-11.6989	0	9.3	20055	18	48	5	5	0.02	1.896813	8	10	0.03	2000	-2.256409	40.9239	-91.39361
639283	896	-928	-1015	-3.25779	1.71625	-11.29163	0	9.3	20040	18	60	5	5	0.02	1.922574	8	10	0.03	2000	-2.100647	40.9239	-91.39361
639427	-1170	-2350	157	-3.697299	1.198763	-11.22797	0	8.85	20012	24	87	5	5	0.02	1.937047	8	10	0.03	2000	-1.620605	40.92391	-91.39361
639583	-270	-615	671	-3.346514	1.913843	-11.73427	0	8.85	20057	29	89	5	5	0.02	1.964809	8	10	0.03	2000	-0.318634	40.92391	-91.39361
639699	-234	-1465	-358	-3.075939	2.06089	-11.3098	0	8.85	20009	24	69	5	5	0.02	1.960422	8	10	0.03	2000	0.1948292	40.92391	-91.39361
639769	880	-1088	-138	-2.97345	2.862762	-11.01324	0	8.85	20034	24	90	5	5	0.02	1.948987	8	10	0.03	2000	0.5406271	40.92391	-91.39361
639903	693	226	-166	-2.915003	2.188412	-11.40327	0	8.85	20042	24	87	5	5	0.02	1.928285	8	10	0.03	2000	2.847556	40.92391	-91.39361
640021	86	-966	-93	-3.206343	1.89404	-11.39374	0	8.85	20031	19	62	5	5	0.02	1.874937	8	10	0.03	2000	3.688295	40.92392	-91.39361
640054	16	-240	9	-3.096701	1.870773	-11.37526	0	8.85	20031	19	62	5	5	0.02	1.856569	8	10	0.03	2000	4.666787	40.92392	-91.39361
640236	148	-599	-1389	-2.846387	-0.0274468	-11.34637	0	8.85	20077	19	69	5	5	0.02	1.799719	8	10	0.03	2000	9.684969	40.92392	-91.39361
640282	-20	158	198	-2.778584	-0.156553	-11.15788	0	8.85	20009	19	69	5	5	0.02	1.742373	8	10	0.03	2000	9.684969	40.92393	-91.39361
640425	-1631	-2235	814	-4.314753	2.099011	-10.69917	0	9.58	20015	19	49	5	5	0.02	1.662113	8	10	0.03	2000	9.439583	40.92393	-91.39361
640495	360	-207	35	-3.782891	2.002682	-11.30789	0	9.58	20021	25	35	5	5	0.02	1.635579	8	10	0.03	2000	12.55463	40.92393	-91.39361
640581	158	331	781	-3.012624	1.505282	-11.82274	0	9.58	20014	25	35	5	5	0.02	1.578759	8	10	0.03	2000	9.162469	40.92393	-91.39361
640688	-575	-1035	-1266	-2.473959	-0.7232081	-11.65227	0	9.58	20044	30	35	5	5	0.02	1.48963	8	10	0.03	2000	11.70236	40.92393	-91.39361
640785	-59	640	5	-2.848054	-0.4524886	-11.0088	0	9.58	20032	25	20	5	5	0.02	1.436177	8	10	0.03	2000	18.265	40.92393	-91.39361
640833	-118	37	-409	-2.850394	-0.7911783	-10.91285	0	9.58	24006	37	17	5	5	0.02	1.41746	8	10	0.03	2000	18.265	40.92393	-91.3936
641000	-790	-807	877	-2.729742	-1.962404	-11.51032	0	9.58	20055	36	-5	5	5	0.02	1.267717	8	10	0.03	2000	16.71009	40.92392	-91.3936
641069	921	255	-269	-2.534109	-1.870066	-11.73167	0	9.58	20015	36	-5	5	5	0.02	1.222927	8	10	0.03	2000	16.71009	40.92392	-91.3936
641145	-1265	824	-525	-2.671264	-2.871222	-11.79048	0	9.58	20011	31	-10	5	5	0.02	1.197251	8	10	0.03	2000	16.66586	40.92392	-91.3936
641321	-1388	2584	144	-5.347825	-9.865057	-11.43775	0	9.7	20032	37	-21	5	5	0.02	1.1095	8	10	0.03	2000	17.31929	40.92392	-91.3936
641403	-946	3181	-806	-7.582088	-13.31533	-11.19684	0	9.7	20009	37	-48	5	5	0.02	1.087577	8	10	0.03	2000	10.60101	40.92392	-91.3936
641452	-715	2453	-463	-7.755429	-15.09023	-10.97712	0	9.7	20002	37	-48	5	5	0.02	1.073978	8	10	0.03	2000	7.013713	40.92392	-91.3936
641641	-771	2690	102	-10.84719	-18.04934	-10.67774	0	9.7	20050	27	-60	5	5	0.02	1.024684	8	10	0.03	2000	0.6784713	40.92391	-91.3936
641694	203	3684	-1118	-10.72389	-19.83807	-10.0639	0	9.7	20039	27	-60	5	5	0.02	1.011336	8	10	0.03	2000	0.6784713	40.92391	-91.3936
641846	-1983	3265	1321	-10.66496	-24.78829	-10.00222	0	9.7	20034	0	0	5	5	0.02	0.9977164	3	10	0.03	2000	-4.490967	40.92391	-91.3936
641916	-1988	-3073	263	-12.11478	-21.32838	-11.07171	0	9.7	20034	0	0	5	5	0.02	0.9901056	3	10	0.03	2000	-7.506744	40.9239	-91.3936
641996	-1557	-3215	436	-13.66893	-16.24848	-11.71419	0	9.7	20034	0	0	5	5	0.02	0.966486	3	10	0.03	2000	-5.650177	40.9239	-91.3936
642035	288	-1302	-440	-13.0232	-13.12313	-11.96753	0	9.7	20034	0	0	5	5	0.02	0.966486	3	10	0.03	2000	-5.650177	40.9239	-91.3936
642213	-2470	-4116	-757	-15.07257	-6.146765	-11.53872	0	8.68	20034	0	0	5	5	0.02	0.9303102	3	10	0.03	2000	-6.449524	40.9239	-91.3936
642301	-3610	-1026	430	-17.47726	-2.505141	-11.69785	0	8.68	20034	0	0	5	5	0.02	0.9207608	3	10	0.03	2000	-7.713989	40.9239	-91.3936
642357	-2742	136	-978	-20.04325	-2.367905	-11.69366	0	8.68	20034	0	0	5	5	0.02	0.913368	3	10	0.03	2000	-10.21786	40.9239	-91.3936
642479	-1773	1559	-538	-21.6305	-4.654187	-11.21415	0	8.68	20034	0	0	5	5	0.02	0.8910117	3	10	0.03	2000	-16.43192	40.9239	-91.3936
642561	-1071	986	-845	-22.30637	-6.161892	-11.06271	0	8.68	20034	0	0	5	5	0.02	0.8786354	3	10	0.03	2000	-19.72562	40.9239	-91.3936
642658	3590	445	92	-16.19286	-7.470005	-11.05705	0	8.68	20034	0	0	5	5	0.02	0.8679933	3	10	0.03	2000	-23.10785	40.9239	-91.3936
642777	6404	945	904	-6.612263	-5.151878	-12.13942	0	8.68	20034	0	0	5	5	0.02	0.8577417	3	10	0.03	2000	-23.33151	40.9239	-91.3936
642860	4473	-2411	-1114	2.636589	-4.072972	-12.0105	0	8.68	20034	0	0	5	5	0.02	0.8586631	3	10	0.03	2000	-19.16803	40.9239	-91.3936
642944	1820	-1595	27	5.235305	-1.280962	-11.16773	0	8.68	20034	0	0	5	5	0.02	0.8759726	3	10	0.03	2000	-19.16803	40.9239	-91.3936
643055	38	-595	-179	3.504689	-0.8206614	-10.82617	0	9.47	20034	0	0	5	5	0.02	0.8827153	3	10	0.03	2000	-16.62338	40.9239	-91.39361
643216	105	1831	285	1.205244	0.2287863	-10.97414	0	9.47	20034	0	0	5	5	0.02	0.8817939	3	10	0.03	2000	-14.54349	40.9239	-91.39362
643254	105	1831	285	1.205244	0.2287863	-10.97414	0	9.47	20034	0	0	5	5	0.02	0.8739793	3	10	0.03	2000	-14.54349	40.9239	-91.39362
643369	1065	-23	842	-1.333629	-1.237272	-11.49481	0	9.47	20034	0	0	5	5	0.02	0.8672921	3	10	0.03	2000	-11.87674	40.9239	-91.39362
643461	1896	1696	-398	2.024759	-3.506461	-11.53691	0	9.47	20034	0	0	5	5	0.02	0.8557968	3	10	0.03	2000	-7.683716	40.9239	-91.39362
643571	1926	-68	-588	0.7614223	-3.301057	-10.69369	0	9.47	20034	0	0	5	5	0.02	0.8536478	3	10	0.03	2000	-5.721466	40.9239	-91.39362
643682	5709	-688	-1347	5.513591	-3.088838	-9.58673	0	9.47	20034	0	0	5	5	0.02	0.8443351	3	10	0.03	2000	-4.667053	40.9239	-91.39362
643802	3164	-61	512	10.84886	-3.097268	-10.38762	0	9.47	20034	0	0	5	5	0.02	0.8244129	3	10	0.03	2000	-2.967255	40.9239	-91.39363
643953	660	493	229	11.07197	-2.884752	-12.08137	0	9.47	20034	0	0	5	5	0.02	0.8037106	3	10	0.03	2000	10.43678	40.9239	-91.39363
644024	-2787	4404	328	8.012157	-5.28341	-12.49247	0	9.75	20034	0	0	5	5	0.02	0.7906805	3	10	0.03	2000	12.85198	40.9239	-91.39363
644075	-3422	4392	-173	5.387881	-7.669778	-12.55688	0	9.75	20034	0	0	5	5	0.02	0.7864366	3	10	0.03	2000	12.85198	40.9239	-91.39363
644263	-583	-3257	-658	-7.743562	-10.39904	-11.47856	0	9.75	20034	0	0	5	5	0.02	0.7381803	3	10	0.03	2000	12.50515	40.9239	-91.39364
644317	1530	-3109	-656	-8.188106	-6.356165	-10.47717	0	9.75	20034	0	0	5	5	0.02	0.7252085	3	10	0.03	2000	9.504015	40.92391	-91.39365
644385	1953	-2657	-114	-3.959033	-2.270298	-10.52904	0	9.75	20034	0	0	5	5	0.02	0.7024986	3	10	0.03	2000	9.612402	40.92391	-91.39365
644512	2880	-3007	220	-0.4193319	0.3210248	-11.67839	0	9.75	20034	0	0	5	5	0.02	0.6631351	3	10	0.03	2000	11.75786	40.92391	-91.39365
644637	-1560	2153	162	0.7016485	2.341798	-12.19929	0	9.75	20034	0	0	5	5	0.02	0.6021319	3	10	0.03	2000	17.0053	40.92391	-91.39365
644705	-5810	52	-578	-3.068322	-2.159971	-11.59899	0	9.75	20034	0	0	5	5	0.02	0.5714014	3	10	0.03	2000	16.14722	40.92391	-91.39365
644753	-10302	-2044	-29	-11.77628	-0.7419628	-11.15622	0	9.75	20034	0	0	5	5	0.02	0.5084062	3	10	0.03	2000	16.44938	40.92391	-91.39365
644797	-7550	-2986	-204	-20.44459	0.4021433	-11.14766	0	9.75	20034	0	0	5	5	0.02	0.4963145	3	10	0.03	2000	16.44938	40.92391	-91.39365
644955	6353	2487	618	-16.70282	-0.5424211	-12.22443	0	8.96	20034	0	0	5	5	0.02	0.4124756	3	10	0.03	2000	6.253532	40.92391	-91.39365
645008	9291	4459	656	-11.76548	-2.898661	-12.55976	0	8.96	20034	0	0	5	5	0.02	0.3815085	3	10	0.03	2000	2.089516	40.92392	-91.39364
645117	711	-1090	1715	-0.5970486	-10.57705	-24.18533	0	8.96	20034	0	0	5	5	0.02	0.3144288	3	10	0.03	2000	10.4791	40.92392	-91.39364
645217	-64	-305	-246	-3.175214	-4.401229	-23.88426	0	8.96	20034	0	0	5	5	0.02	0.2661782	3	10	0.03	2000	8.313492	40.92392	-91.39364
645297	-80	-48	-145	-3.22175	-4.090227	-23.82936	0	8.96	20034	0	0	5	5	0.02	0.2149755	3	10	0.03	2000	7.602356	40.92392	-91.39364
645385	-110	-62	91	-3.098252	-3.621468	-23.85071	0	8.96	20034	0	0	5	5	0.02	0.1260099	3	10	0.03	2000	8.083666	40.92392	-91.39364
645533	-57	-6	15	-2.850431	-2.95008	-23.89938	0	8.96	20034	0	0	5	5	0.02	0.05095348	1	10	0.03	2000	7.007423	40.92392	-91.39364
645584	-109	5	20	-2.819764	-2.845429	-23.90801	0	8.96	20034	0	0	5	5	0.02	0.03667997	1	10	0.03	2000	7.007423	40.92392	-91.39364
645691	-129	1	55	-2.656591	-2.454241	-23.95044	0	8.96	20034	0	0	5	5	0.02	-0.03222467	1	10	0.03	2000	7.080642	40.92392	-91.39364
645835	-85	3	-13	-2.568341	-2.182998	-23.96908	0	9.87	20034	0	0	5	5	0.02	-0.07749553	1	10	0.03	2000	6.752944	40.92392	-91.39364
645888	-125	13	0	-2.514704	-2.021271	-23.9876	0	9.87	20034	0	0	5	5	0.02	-0.09662674	1	10	0.03	2000	6.790208	40.92392	-91.39364
646015	-95	-3	-21	-2.450729	-1.802867	-24.01296	0	9.87	20034	0	0	5	5	0.02	-0.1392824	1	10	0.03	2000	6.621139	40.92392	-91.39364
646202	-113	-9	-1	-2.335816	-1.449878	-24.06475	0	9.87	20034	0	0	5	5	0.02	-0.181344	1	10	0.03	2000	6.186027	40.92392	-91.39364
646236	-101	23	-1	-2.318772	-1.402293	-24.07582	0	9.87	20034	0	0	5	5	0.02	-0.1854547	1	10	0.03	2000	6.186027	40.92392	-91.39364
646377	-88	-9	-5	-2.257108	-1.237966	-24.11232	0	9.87	20034	0	0	5	5	0.02	-0.2085704	1	10	0.03	2000	5.932508	40.92392	-91.39364
646450	-94	17	30	-2.212136	-1.130877	-24.13903	0	9.87	20034	0	0	5	5	0.02	-0.2193788	1	10	0.03	2000	6.229517	40.92392	-91.39364
646567	-96	-15	53	-2.159312	-1.001621	-24.17626	0	9.87	20034	0	0	5	5	0.02	-0.2208263	1	10	0.03	2000	5.235566	40.92392	-91.39364
646601	-99	9	40	-2.149908	-0.9763741	-24.18531	0	9.87	20034	0	0	5	5	0.02	-0.2214139	1	10	0.03	2000	5.235566	40.92392	-91.39364
646708	-107	-8	7	-2.133151	-0.8931777	-24.2069	0	9.92	20034	0	0	5	5	0.02	-0.2247386	1	10	0.03	2000	5.850971	40.92392	-91.39364
646813	-100	4	0	-2.097639	-0.8002138	-24.24426	0	9.92	20034	0	0	5	5	0.02	-0.2361009	1	10	0.03	2000	6.021076	40.92392	-91.39364
646900	-95	-1	17	-2.077393	-0.7568448	-24.26461	0	9.92	20034	0	0	5	5	0.02	-0.2463289	1	10	0.03	2000	6.219504	40.92392	-91.39364
647019	-94	6	16	-2.041032	-0.6917364	-24.30222	0	9.92	20034	0	0	5	5	0.02	-0.2629535	1	10	0.03	2000	6.390849	40.92392	-91.39364
647115	-101	2	14	-2.027114	-0.660952	-24.3208	0	9.92	20034	0	0	5	5	0.02	-0.2808728	1	10	0.03	2000	6.134646	40.92392	-91.39364
647174	-96	5	18	-2.016166	-0.6380832	-24.33957	0	9.92	20034	0	0	5	5	0.02	-0.2896929	1	10	0.03	2000	6.313165	40.92392	-91.39364
647301	-96	4	15	-2.002086	-0.5917974	-24.37345	0	9.92	20034	0	0	5	5	0.02	-0.3026959	1	10	0.03	2000	6.290339	40.92392	-91.39364
