time(ms)	gyro_x(deg/s)	gyro_y(deg/s)	gyro_z(deg/s)	orientation_roll(deg)	orientation_pitch(deg)	orientation_yaw(deg)	throttle	battery(V)	loop_time(uS)	pid_output_roll	pid_output_pitch	pid_output_yaw	pid_output_throttle	ultrasonic_alt	baro_alt	flight_mode	p_gain_altitude	i_gain_altitude	d_gain_altitude	compass_heading	latitude	longitude
277377	-1505	4398	-305	-5.448906	-9.925869	0.2471255	0	10.72	20014	100	-65	5	5	0.02	2.581629	8	10	0.03	2000	20.6964	40.92392	-91.39365
277478	-1188	3522	421	-5.65402	-13.13158	0.5683513	0	10.72	20030	88	-53	5	5	0.02	2.562252	8	10	0.03	2000	15.29334	40.92392	-91.39365
277668	1549	-617	-355	-6.010871	-10.07845	0.6338928	0	10.72	20023	97	-54	5	5	0.02	2.527359	8	10	0.03	2000	7.175216	40.92392	-91.39365
277717	-60	188	-842	-5.472431	-9.166431	0.9388472	0	10.72	20064	97	-54	5	5	0.02	2.511029	8	10	0.03	2000	7.175216	40.92392	-91.39365
277834	39	597	263	-6.173707	-8.359093	0.47255	0	10.72	20030	67	-42	5	5	0.02	2.471769	8	10	0.03	2000	3.595186	40.92392	-91.39365
277944	-1927	236	979	-3.800003	-8.218921	-0.1176289	0	9.81	20007	111	-64	5	5	0.02	2.449477	8	10	0.03	2000	0.9292406	40.92391	-91.39363
278011	-2247	-1084	-1012	-6.296204	-5.954601	0.07972133	0	9.81	20013	111	-64	5	5	0.02	2.424837	8	10	0.03	2000	0.7868303	40.92391	-91.39363
278125	140	2087	-868	-5.357329	-4.21109	0.7335551	0	9.81	20027	137	-84	5	5	0.02	2.368129	8	10	0.03	2000	-3.370453	40.92391	-91.39363
278197	-2144	-491	1030	-5.545575	-6.17283	1.037032	0	9.81	20029	107	-72	5	5	0.02	2.305355	8	10	0.03	2000	-4.960754	40.92391	-91.39363
278371	48	497	-693	-6.769695	-5.869673	0.3623543	0	9.81	20033	127	-85	5	5	0.02	2.17461	8	10	0.03	2000	-7.772278	40.9239	-91.39362
278430	-344	-1010	-59	-5.984126	-6.326927	0.7960305	0	9.81	20052	127	-85	5	5	0.02	2.133098	8	10	0.03	2000	-9.3591	40.9239	-91.39362
278529	741	324	-394	-5.779623	-5.139728	0.7449757	0	9.81	20029	134	-98	5	5	0.02	2.029811	8	10	0.03	2000	-9.3591	40.9239	-91.39362
278657	1447	-187	46	-3.599673	-3.605712	1.099045	0	9.81	20053	81	-69	5	5	0.02	1.951495	8	10	0.03	2000	-10.55048	40.9239	-91.39362
278708	272	459	619	-2.175345	-3.186229	1.008945	0	9.81	20054	81	-69	5	5	0.02	1.912145	8	10	0.03	2000	-10.23709	40.9239	-91.39362
278870	-295	-883	-597	-4.16017	-2.850955	0.2275378	0	10.49	20031	64	-44	5	5	0.02	1.772949	8	10	0.03	2000	-11.1153	40.9239	-91.39362
279018	3046	-506	-492	0.2004701	-2.039153	-0.167641	0	10.49	20057	46	-26	5	5	0.02	1.658848	8	10	0.03	2000	-12.19537	40.9239	-91.39362
279117	2199	162	-192	3.337933	-1.971968	0.09205674	0	10.49	20032	40	-14	5	5	0.02	1.562717	8	10	0.03	2000	-11.32202	40.9239	-91.39362
279243	-687	-1142	96	4.769747	-1.43772	0.3993997	0	10.49	20029	33	0	5	5	0.02	1.520266	8	10	0.03	2000	-9.449738	40.92391	-91.39362
279326	-1404	-477	183	4.703755	-1.078644	0.7824255	0	10.49	20030	21	5	5	5	0.02	1.47858	8	10	0.03	2000	-9.680603	40.92391	-91.39362
279536	1191	-295	-72	3.547786	3.978146	0.2665027	0	10.49	20020	-17	45	5	5	0.02	1.387693	8	10	0.03	2000	-9.212463	40.92391	-91.39362
279608	-810	-699	-375	1.428927	4.338658	0.4025591	0	10.49	20006	-17	45	5	5	0.02	1.370557	8	10	0.03	2000	-7.577087	40.92391	-91.39363
279759	428	-1257	786	0.3688859	2.773188	1.075325	0	10.49	20027	-17	39	5	5	0.02	1.364936	8	10	0.03	2000	-6.103668	40.92391	-91.39363
279922	1081	1256	694	1.268339	1.919093	0.7167679	0	11.57	20052	-44	67	5	5	0.02	1.372256	8	10	0.03	2000	-5.158112	40.92392	-91.39363
279972	1228	-1100	-241	2.431495	1.569999	0.558825	0	11.57	20034	-45	67	5	5	0.02	1.377852	8	10	0.03	2000	-4.081177	40.92392	-91.39363
280029	1192	-471	-591	3.096253	2.718931	0.6387354	0	11.57	20008	-33	55	5	5	0.02	1.388748	8	10	0.03	2000	-3.983124	40.92392	-91.39363
280128	562	312	-757	3.295405	2.136466	0.9967493	0	11.57	20010	-46	75	5	5	0.02	1.410764	8	10	0.03	2000	-2.907898	40.92392	-91.39364
280274	-256	-199	258	1.890832	2.522672	1.250622	0	11.57	20034	-41	58	5	5	0.02	1.467782	8	10	0.03	2000	1.335974	40.92392	-91.39364
280429	477	-20	-128	2.523599	1.639977	1.262939	0	11.57	20054	-29	40	5	5	0.02	1.514652	8	10	0.03	2000	2.056809	40.92392	-91.39364
280454	-23	-503	674	1.922952	1.462605	1.37968	0	11.57	20044	-42	54	5	5	0.02	1.521588	8	10	0.03	2000	4.843987	40.92392	-91.39364
280528	962	64	81	1.68461	1.492126	1.640385	0	11.57	20054	-25	36	5	5	0.02	1.543372	8	10	0.03	2000	6.12229	40.92393	-91.39364
280671	-535	-894	-604	0.813127	0.8011496	1.572977	0	11.57	20031	-31	42	5	5	0.02	1.590062	8	10	0.03	2000	7.384441	40.92393	-91.39364
280812	-1090	-494	-126	0.09787829	0.01064035	0.7743439	0	10.94	20041	-19	24	5	5	0.02	1.649941	8	10	0.03	2000	11.07787	40.92393	-91.39364
280844	-1259	-87	845	-0.3647287	-0.5428706	0.6667621	0	10.94	20029	-19	31	5	5	0.02	1.658	8	10	0.03	2000	11.77625	40.92393	-91.39364
280997	-694	1249	-70	-1.236856	-4.284801	1.405065	0	10.94	20058	-14	19	5	5	0.02	1.718734	8	10	0.03	2000	14.96355	40.92393	-91.39364
281084	529	-178	330	-1.856975	-5.162658	1.890985	0	10.94	20031	-14	19	5	5	0.02	1.735448	8	10	0.03	2000	14.59848	40.92393	-91.39365
281122	273	-513	597	-1.786253	-4.428406	1.8942	0	10.94	20031	-14	19	5	5	0.02	1.74421	8	10	0.03	2000	14.08291	40.92393	-91.39365
281226	-2915	219	992	-4.032681	-3.943236	0.7666141	0	10.94	23992	-2	7	5	5	0.02	1.798965	8	10	0.03	2000	14.04228	40.92393	-91.39365
281329	-618	197	-348	-6.83022	-4.393182	0.1340463	0	10.94	20012	3	1	5	5	0.02	1.825584	8	10	0.03	2000	13.13612	40.92393	-91.39365
281497	-635	191	-335	-7.104217	-4.425594	0.5409138	0	10.94	20027	3	-4	5	5	0.02	1.886393	8	10	0.03	2000	8.856797	40.92393	-91.39365
281561	1293	925	1002	-5.604805	-4.756824	0.5549269	0	10.94	20031	3	-4	5	5	0.02	1.91255	8	10	0.03	2000	6.10936	40.92393	-91.39365
281649	648	-432	123	-4.189916	-3.685301	0.5836192	0	10.6	20037	9	-11	5	5	0.02	1.952979	8	10	0.03	2000	5.200878	40.92393	-91.39365
281772	-419	987	480	-2.325898	-3.390845	0.5737532	0	10.6	20005	16	-24	5	5	0.02	1.97218	8	10	0.03	2000	5.068656	40.92393	-91.39364
281830	281	1290	-1410	-2.605324	-3.847105	0.4709292	0	10.6	20009	16	-24	5	5	0.02	1.998355	8	10	0.03	2000	4.414108	40.92393	-91.39364
281967	-467	-723	-812	-1.231856	-6.69783	1.028133	0	10.6	20037	16	-31	5	5	0.02	2.018091	8	10	0.03	2000	4.404769	40.92392	-91.39364
282035	-714	-153	1515	-1.222229	-5.327263	1.097798	0	10.6	20024	16	-31	5	5	0.02	2.029989	8	10	0.03	2000	3.198951	40.92392	-91.39364
282178	454	1387	232	-1.361525	-9.042986	1.309277	0	10.6	20060	16	-44	5	5	0.02	2.055094	8	10	0.03	2000	5.562779	40.92392	-91.39364
282280	-1295	117	526	-1.47872	-9.339782	0.9722244	0	10.6	20048	16	-51	5	5	0.02	2.072378	8	10	0.03	2000	2.544014	40.92392	-91.39364
282454	-561	-1641	-937	-0.938859	-7.760132	-0.2102623	0	10.6	20053	10	-39	5	5	0.02	2.096029	8	10	0.03	2000	3.538286	40.92392	-91.39364
282616	-136	887	325	-0.2387093	-7.114474	1.848136	0	11.06	20016	10	-47	5	5	0.02	2.12684	8	10	0.03	2000	3.604683	40.92392	-91.39364
282676	-1431	-849	1324	-1.324392	-6.402236	1.539615	0	11.06	20025	17	-53	5	5	0.02	2.137369	8	10	0.03	2000	1.613629	40.92392	-91.39364
282755	1570	-323	1378	-1.631784	-3.997063	0.2747006	0	11.06	23993	20	-49	5	5	0.02	2.149807	8	10	0.03	2000	2.499727	40.92392	-91.39364
282825	1116	381	-446	-0.5776563	-4.367531	0.2335959	0	11.06	20031	17	-41	5	5	0.02	2.166608	8	10	0.03	2000	2.688549	40.92392	-91.39364
282984	-1858	-874	1077	-1.506886	-5.127027	0.8841671	0	11.06	20026	17	-43	5	5	0.02	2.176544	8	10	0.03	2000	2.470043	40.92391	-91.39364
283057	-1957	-1708	47	-2.736439	-3.699562	0.1082185	0	11.06	20032	17	-43	5	5	0.02	2.182853	8	10	0.03	2000	1.788368	40.92391	-91.39364
283122	-702	-666	-752	-3.144387	-3.579692	-0.1337576	0	11.06	20032	17	-43	5	5	0.02	2.189742	8	10	0.03	2000	1.788368	40.92391	-91.39364
283226	1497	614	-1092	-1.727839	-4.923001	0.6242076	0	11.06	20044	23	-50	5	5	0.02	2.195748	8	10	0.03	2000	1.663228	40.92391	-91.39364
283333	115	1384	-478	-0.8808565	-5.349935	1.348443	0	11.06	20021	17	-44	5	5	0.02	2.191132	8	10	0.03	2000	0.3702303	40.92391	-91.39364
283455	400	-1272	-511	-2.091542	-4.348697	0.9497951	0	10.43	20030	24	-51	5	5	0.02	2.171349	8	10	0.03	2000	0.4599182	40.92391	-91.39364
283538	529	-1088	-934	-1.938594	-2.71429	0.4541721	0	10.43	20033	29	-47	5	5	0.02	2.158151	8	10	0.03	2000	0.4599182	40.92391	-91.39364
283660	71	1192	1307	-0.6553328	-4.473299	1.08149	0	10.43	20027	24	-46	5	5	0.02	2.145911	8	10	0.03	2000	1.194947	40.92391	-91.39364
283772	-665	-1128	71	-3.124249	-2.774804	1.029492	0	10.43	20009	30	-52	5	5	0.02	2.137498	8	10	0.03	2000	1.946913	40.92391	-91.39364
283829	1443	535	332	-3.013604	-2.300318	0.8461797	0	10.43	20033	31	-52	5	5	0.02	2.131581	8	10	0.03	2000	1.946913	40.92391	-91.39364
283987	7	-349	265	-1.258697	-6.653817	0.610397	0	10.43	20024	25	-41	5	5	0.02	2.123055	8	10	0.03	2000	1.91174	40.92391	-91.39364
284034	-1150	-664	35	-1.908323	-5.159309	0.5632505	0	10.43	20033	25	-41	5	5	0.02	2.124017	8	10	0.03	2000	1.766463	40.92391	-91.39364
284145	1033	-517	-613	-3.133818	-3.33798	0.6266506	0	10.43	20034	25	-42	5	5	0.02	2.125777	8	10	0.03	2000	1.337702	40.92391	-91.39364
284280	-261	99	-1134	-2.66716	-3.789637	1.267632	0	10.43	20029	25	-36	5	5	0.02	2.126119	8	10	0.03	2000	0.4047467	40.92391	-91.39364
284400	1614	725	-440	-1.857413	-4.312181	1.342111	0	10.21	20032	32	-36	5	5	0.02	2.122896	8	10	0.03	2000	0.8668517	40.92391	-91.39363
284473	-53	-510	511	-0.5556055	-4.555511	1.822514	0	10.21	20028	26	-30	5	5	0.02	2.125352	8	10	0.03	2000	0.6032449	40.92391	-91.39363
284547	-1454	-943	2139	-3.062975	-3.705814	1.389726	0	10.21	20012	32	-30	5	5	0.02	2.131254	8	10	0.03	2000	2.058312	40.92391	-91.39363
284680	219	-1185	-213	-3.310231	-3.719626	0.7833956	0	10.21	20032	32	-24	5	5	0.02	2.135581	8	10	0.03	2000	3.048303	40.92391	-91.39363
284700	-406	1239	935	-1.628731	-4.281913	1.373689	0	10.21	20054	32	-24	5	5	0.02	2.144771	8	10	0.03	2000	1.677079	40.92391	-91.39363
284739	-898	587	243	-2.156435	-4.383115	1.368776	0	10.21	20033	26	-18	5	5	0.02	2.147751	8	10	0.03	2000	2.05569	40.92391	-91.39363
284852	216	245	27	-2.648569	-3.488141	1.514242	0	10.21	20031	27	-18	5	5	0.02	2.164207	8	10	0.03	2000	2.207992	40.92391	-91.39363
284907	-1140	-366	193	-3.042892	-3.506397	1.451697	0	10.21	20007	27	-18	5	5	0.02	2.174895	8	10	0.03	2000	1.308394	40.92391	-91.39363
285030	-219	-98	-1076	-2.950367	-2.754458	0.6857136	0	10.21	20030	21	-18	5	5	0.02	2.200914	8	10	0.03	2000	-0.3073425	40.92391	-91.39363
285102	1110	769	10	-2.14774	-4.090346	0.7320642	0	10.21	20055	28	-18	5	5	0.02	2.208624	8	10	0.03	2000	0.5510103	40.92391	-91.39363
285203	-80	-803	-976	-1.655882	-3.400226	0.8967955	0	11.17	20009	28	-18	5	5	0.02	2.232731	8	10	0.03	2000	1.527991	40.92391	-91.39363
285333	-226	624	1159	-3.239682	-1.922293	1.677912	0	11.17	20054	34	-18	5	5	0.02	2.252107	8	10	0.03	2000	0.2865771	40.92391	-91.39363
285462	-523	-242	587	-2.703817	-3.288337	0.8934152	0	11.17	20033	35	-18	5	5	0.02	2.284646	8	10	0.03	2000	-0.06213379	40.92391	-91.39363
285547	-1292	-1463	-706	-4.552581	-0.8297768	-0.08903585	0	11.17	20032	35	-18	5	5	0.02	2.323492	8	10	0.03	2000	1.633413	40.92391	-91.39363
285610	1050	1242	267	-4.515034	-0.7802311	-0.1626124	0	11.17	20038	35	-18	5	5	0.02	2.335724	8	10	0.03	2000	2.079372	40.92391	-91.39363
285774	-806	831	-128	-3.214347	-3.081253	0.3739329	0	11.17	20056	35	-18	5	5	0.02	2.365975	8	10	0.03	2000	0.5469422	40.92391	-91.39363
285794	-1683	12	362	-3.739155	-3.386225	0.07703255	0	11.17	20031	36	-18	5	5	0.02	2.402649	8	10	0.03	2000	0.5469422	40.92391	-91.39363
285861	938	-990	-1447	-3.946952	-2.83966	-0.04437393	0	11.17	20033	30	-18	5	5	0.02	2.424169	8	10	0.03	2000	-1.861115	40.92391	-91.39363
285910	-533	184	-45	-2.885395	-2.757383	0.3569153	0	11.17	20038	30	-24	5	5	0.02	2.443205	8	10	0.03	2000	-0.7353516	40.92391	-91.39363
286039	-35	-364	-1021	-3.367031	-2.942476	-0.02038552	0	11.06	20008	24	-24	5	5	0.02	2.482846	8	10	0.03	2000	-1.900574	40.92391	-91.39363
286106	-23	-1346	-1125	-3.419413	-2.710595	-0.01562931	0	11.06	20030	24	-31	5	5	0.02	2.497915	8	10	0.03	2000	-1.900574	40.9239	-91.39363
286262	1360	2576	-615	-3.171496	-2.407555	0.1554793	0	11.06	20012	24	-31	5	5	0.02	2.520207	8	10	0.03	2000	-1.622772	40.9239	-91.39363
286363	737	2471	-1254	-1.884228	-5.743754	0.4755314	0	11.06	20032	24	-38	5	5	0.02	2.526348	8	10	0.03	2000	-1.455414	40.9239	-91.39363
286412	321	-610	69	-2.18703	-5.757175	0.6266787	0	11.06	20034	18	-38	5	5	0.02	2.527165	8	10	0.03	2000	-2.203064	40.9239	-91.39363
286580	-397	-505	936	-2.771921	-4.303595	0.06496959	0	11.06	20058	18	-38	5	5	0.02	2.521363	8	10	0.03	2000	-1.060944	40.9239	-91.39363
286743	-171	1157	-611	-2.257526	-3.951561	0.8775889	0	11.06	20054	18	-45	5	5	0.02	2.503691	8	10	0.03	2000	-0.07516479	40.9239	-91.39363
286895	-314	-114	1207	-1.685324	-4.525344	0.1107977	0	11.06	20056	18	-46	5	5	0.02	2.489166	8	10	0.03	2000	0.8391181	40.9239	-91.39363
286955	237	368	-127	-1.603532	-5.425013	0.5214211	0	11.17	20029	18	-40	5	5	0.02	2.485119	8	10	0.03	2000	-0.2497253	40.9239	-91.39363
287042	2102	2129	565	-0.4735517	-6.919848	1.329792	0	11.17	20008	18	-53	5	5	0.02	2.47711	8	10	0.03	2000	-0.4182434	40.9239	-91.39363
287119	1169	469	1219	-0.513579	-6.680243	1.610945	0	11.17	20006	18	-47	5	5	0.02	2.464555	8	10	0.03	2000	0.9919069	40.9239	-91.39363
287231	-68	-553	-927	-2.622399	-3.285399	0.8635074	0	11.17	20014	18	-54	5	5	0.02	2.439871	8	10	0.03	2000	2.280961	40.9239	-91.39363
287335	-1139	16	-483	-1.87123	-4.276031	0.6425056	0	11.17	20029	18	-48	5	5	0.02	2.392248	8	10	0.03	2000	2.414734	40.9239	-91.39363
287480	687	227	702	-1.37894	-3.893885	0.4990659	0	11.17	20037	18	-54	5	5	0.02	2.357581	8	10	0.03	2000	2.671288	40.9239	-91.39363
287563	-188	1224	-1678	-1.724227	-4.327296	1.336627	0	11.17	20035	18	-48	5	5	0.02	2.347824	8	10	0.03	2000	2.645445	40.9239	-91.39363
287634	-820	723	283	-2.844499	-4.250711	1.691603	0	11.17	20050	18	-55	5	5	0.02	2.34102	8	10	0.03	2000	2.444899	40.9239	-91.39363
287718	1082	-347	166	-2.853892	-3.959525	1.361561	0	11.17	20057	18	-43	5	5	0.02	2.335575	8	10	0.03	2000	2.578756	40.9239	-91.39363
287853	-288	371	-703	-1.444879	-6.042745	0.9923046	0	10.89	20030	18	-37	5	5	0.02	2.335236	8	10	0.03	2000	3.089661	40.9239	-91.39363
287932	-915	-1945	1201	-1.948809	-4.363055	0.490603	0	10.89	20022	18	-43	5	5	0.02	2.335969	8	10	0.03	2000	4.513097	40.9239	-91.39363
288026	681	-109	-1124	-3.110729	-2.107598	0.4954364	0	10.89	20028	18	-38	5	5	0.02	2.338185	8	10	0.03	2000	6.11331	40.92389	-91.39363
288172	-1565	-1390	69	-2.914341	-3.217349	0.7063952	0	10.89	20030	24	-38	5	5	0.02	2.353418	8	10	0.03	2000	5.210132	40.92389	-91.39362
288271	335	776	-1129	-3.135378	-3.532121	0.8008049	0	10.89	20030	24	-32	5	5	0.02	2.379439	8	10	0.03	2000	4.80976	40.92389	-91.39362
288324	892	1009	-311	-2.41466	-3.997231	1.170838	0	10.89	20033	31	-32	5	5	0.02	2.393851	8	10	0.03	2000	4.80976	40.92389	-91.39362
288505	408	612	-957	-4.540628	-2.432567	0.2052962	0	10.89	20030	31	-32	5	5	0.02	2.421182	8	10	0.03	2000	4.580561	40.92389	-91.39362
288537	1090	1805	-485	-3.881097	-3.296503	-0.04457841	0	10.89	20011	31	-32	5	5	0.02	2.421182	8	10	0.03	2000	4.580561	40.92389	-91.39362
288626	129	-90	-422	-2.754627	-4.589518	0.04311002	0	10.89	20056	31	-26	5	5	0.02	2.444946	8	10	0.03	2000	4.24323	40.92389	-91.39362
288725	297	-151	-969	-2.065603	-4.314987	0.3056006	0	10.89	20034	44	-26	5	5	0.02	2.452551	8	10	0.03	2000	3.152979	40.92389	-91.39362
288838	-1369	-729	-1036	-2.388144	-4.565331	0.6164861	0	11.06	20029	38	-26	5	5	0.02	2.470143	8	10	0.03	2000	4.701009	40.92389	-91.39362
288929	-1469	-31	483	-3.41141	-4.367651	0.5409944	0	11.06	20035	45	-26	5	5	0.02	2.485153	8	10	0.03	2000	2.878248	40.92389	-91.39362
289031	285	-541	55	-3.72445	-3.728304	0.1354579	0	11.06	20041	39	-26	5	5	0.02	2.495974	8	10	0.03	2000	2.699198	40.92389	-91.39362
289165	-970	-1420	422	-3.741296	-2.176873	0.3670618	0	11.06	20032	46	-26	5	5	0.02	2.511022	8	10	0.03	2000	1.346859	40.92389	-91.39362
289221	825	472	1301	-4.087707	-1.242886	0.5349289	0	11.06	20039	52	-26	5	5	0.02	2.511314	8	10	0.03	2000	0.02380759	40.92389	-91.39362
289321	-204	855	592	-2.934823	-2.920847	0.6813369	0	11.06	20046	40	-26	5	5	0.02	2.509022	8	10	0.03	2000	0.2091068	40.92389	-91.39362
289425	-283	100	-284	-3.71511	-4.769899	0.3089637	0	11.06	20033	40	-26	5	5	0.02	2.509398	8	10	0.03	2000	-2.3078	40.92389	-91.39362
289531	1498	896	-669	-2.589045	-5.213295	0.841103	0	11.06	20032	34	-26	5	5	0.02	2.508396	8	10	0.03	2000	-2.989532	40.92389	-91.39362
289697	-994	-788	-1003	-3.369807	-4.852762	0.2669795	0	10.77	20029	35	-26	5	5	0.02	2.503671	8	10	0.03	2000	-3.98877	40.92389	-91.39362
289813	-730	-1536	-192	-3.042685	-3.948783	-0.43093	0	10.77	20053	29	-26	5	5	0.02	2.494006	8	10	0.03	2000	-3.001221	40.92389	-91.39362
289831	-730	-1536	-192	-3.042685	-3.948783	-0.43093	0	10.77	20053	29	-26	5	5	0.02	2.494006	8	10	0.03	2000	-3.001221	40.92389	-91.39362
289923	-18	-66	215	-2.608881	-2.981037	0.1296859	0	10.77	20007	29	-26	5	5	0.02	2.47945	8	10	0.03	2000	-3.710052	40.92389	-91.39362
290027	-361	-269	490	-2.883414	-2.656857	0.2448556	0	10.77	20035	29	-19	5	5	0.02	2.467034	8	10	0.03	2000	-3.578613	40.9239	-91.39362
290140	326	-622	4	-3.267214	-2.956071	-0.03453735	0	10.77	20029	29	-25	5	5	0.02	2.440312	8	10	0.03	2000	-3.336365	40.9239	-91.39362
290304	91	-686	-107	-1.940407	-3.395017	0.5977744	0	10.77	20034	23	-26	5	5	0.02	2.405783	8	10	0.03	2000	-2.595795	40.92389	-91.39362
290459	268	448	344	-2.301183	-1.641562	0.4372539	0	10.77	20031	23	-26	5	5	0.02	2.373278	8	10	0.03	2000	-2.828552	40.92389	-91.39362
290542	-195	345	-1313	-3.07164	-1.937204	0.1366152	0	10.77	20034	23	-26	5	5	0.02	2.363532	8	10	0.03	2000	-1.348877	40.92389	-91.39362
290702	195	1429	1206	-1.113027	-3.024062	-0.1560251	0	10.32	20053	23	-32	5	5	0.02	2.34548	8	10	0.03	2000	-2.192474	40.92389	-91.39362
290789	-1507	366	-1020	-2.417624	-4.175232	-0.3518346	0	10.32	20020	23	-32	5	5	0.02	2.320285	8	10	0.03	2000	-0.954834	40.92389	-91.39362
290839	-846	-717	-1247	-2.994465	-4.511718	-0.3506432	0	10.32	20058	23	-32	5	5	0.02	2.305547	8	10	0.03	2000	-0.954834	40.92389	-91.39362
290940	-966	-353	-863	-1.605451	-4.112855	0.2704368	0	10.32	20039	23	-39	5	5	0.02	2.295154	8	10	0.03	2000	-2.00238	40.92389	-91.39362
291043	-842	-1416	1441	-2.96128	-2.907794	0.1676544	0	10.32	20028	23	-39	5	5	0.02	2.256692	8	10	0.03	2000	-1.087402	40.92389	-91.39362
291252	-1161	-637	-1970	-1.355097	-6.947714	1.866706	0	10.32	20060	16	-46	5	5	0.02	2.191113	8	10	0.03	2000	-1.327515	40.92389	-91.39362
291301	-1929	-2353	529	-2.91572	-5.137773	1.433741	0	10.32	20054	16	-46	5	5	0.02	2.173769	8	10	0.03	2000	-0.7740479	40.92389	-91.39362
291467	2091	2163	1780	-3.446471	-3.146416	0.7566249	0	10.32	20032	10	-46	5	5	0.02	2.111477	8	10	0.03	2000	-0.1174927	40.92389	-91.39362
291622	-3205	-2296	408	-2.606042	-4.585287	1.89431	0	10.89	20033	10	-40	5	5	0.02	2.06916	8	10	0.03	2000	0.3272178	40.92389	-91.39362
291705	-877	-456	1788	-4.503444	-1.886435	1.402465	0	10.89	20040	3	-47	5	5	0.02	2.043056	8	10	0.03	2000	1.037179	40.92389	-91.39362
291792	624	682	-364	-1.474182	-3.955407	0.7940451	0	10.89	20030	9	-41	5	5	0.02	2.010627	8	10	0.03	2000	0.6789293	40.92389	-91.39362
291914	-441	12	1645	-1.271153	-4.379684	0.7286651	0	10.89	20034	9	-41	5	5	0.02	1.977166	8	10	0.03	2000	1.715739	40.92389	-91.39362
292009	330	-1650	-820	-1.236751	-5.360271	1.52183	0	10.89	20038	9	-41	5	5	0.02	1.965091	8	10	0.03	2000	1.481332	40.92389	-91.39362
292070	-469	69	1343	-0.6486154	-4.463721	1.580649	0	10.89	20057	9	-47	5	5	0.02	1.952696	8	10	0.03	2000	0.701224	40.92389	-91.39362
292206	0	-711	-394	-1.857344	-3.037449	1.553617	0	10.89	20033	8	-48	5	5	0.02	1.926287	8	10	0.03	2000	1.681173	40.92389	-91.39362
292314	309	666	-156	-0.8725183	-3.462149	1.10424	0	10.89	20030	14	-42	5	5	0.02	1.904397	8	10	0.03	2000	1.474491	40.92389	-91.39362
292408	-691	-1344	-234	-1.462903	-2.937009	0.9997175	0	10.89	20032	14	-42	5	5	0.02	1.899537	8	10	0.03	2000	2.250715	40.92389	-91.39362
292489	-587	1405	875	-1.932644	-2.403347	1.140593	0	10.43	20035	14	-42	5	5	0.02	1.904987	8	10	0.03	2000	2.500672	40.92389	-91.39362
292602	420	-212	357	-3.182138	-3.449301	0.6729237	0	10.43	20032	14	-42	5	5	0.02	1.920815	8	10	0.03	2000	3.135884	40.92389	-91.39362
292621	420	-212	357	-3.182138	-3.449301	0.6729237	0	10.43	20032	14	-36	5	5	0.02	1.92742	8	10	0.03	2000	3.135884	40.92389	-91.39362
292715	353	1770	950	-2.675706	-4.35072	0.510102	0	10.43	20005	14	-36	5	5	0.02	1.936855	8	10	0.03	2000	3.563046	40.92389	-91.39362
292818	-828	-686	446	-2.457305	-4.786129	0.4540046	0	10.43	20049	20	-30	5	5	0.02	1.95373	8	10	0.03	2000	4.632834	40.92389	-91.39362
292947	818	387	-909	-2.022244	-4.005047	0.7462931	0	10.43	20032	27	-37	5	5	0.02	1.95968	8	10	0.03	2000	4.676544	40.92389	-91.39362
293084	-859	-781	574	-3.149383	-3.034535	0.6657017	0	10.43	20007	27	-37	5	5	0.02	1.969311	8	10	0.03	2000	4.270785	40.92389	-91.39362
293130	76	-583	160	-3.275099	-2.853993	0.9058692	0	10.43	20035	27	-37	5	5	0.02	1.974904	8	10	0.03	2000	4.270785	40.92389	-91.39362
293283	812	1266	895	-2.560899	-4.465589	1.247105	0	10.43	20032	34	-37	5	5	0.02	1.984589	8	10	0.03	2000	4.405699	40.92389	-91.39362
293392	115	-43	-919	-1.363983	-6.64394	1.83257	0	10.38	20033	34	-37	5	5	0.02	1.989204	8	10	0.03	2000	5.020674	40.92389	-91.39362
293452	-1614	-1635	1661	-1.519551	-6.773831	1.515015	0	10.38	20056	34	-37	5	5	0.02	1.992516	8	10	0.03	2000	3.954829	40.92389	-91.39362
293546	182	-261	558	-2.25669	-5.12169	0.847275	0	10.38	20038	28	-31	5	5	0.02	1.997497	8	10	0.03	2000	4.777298	40.92389	-91.39362
293620	-183	-89	-411	-2.027417	-5.38438	0.786857	0	10.38	24010	41	-29	5	5	0.02	2.001461	8	10	0.03	2000	4.785329	40.92389	-91.39362
293806	-676	-360	568	-1.985329	-4.2788	1.553628	0	10.38	20046	41	-24	5	5	0.02	2.020772	8	10	0.03	2000	5.048974	40.92389	-91.39362
293879	-1691	-1610	909	-3.524724	-2.870394	1.206753	0	10.38	20009	41	-24	5	5	0.02	2.025177	8	10	0.03	2000	6.077746	40.92389	-91.39362
293926	1188	902	473	-4.017545	-2.090237	0.766869	0	10.38	20033	35	-24	5	5	0.02	2.028226	8	10	0.03	2000	3.87026	40.92389	-91.39362
294024	1273	-13	263	-2.767007	-2.139437	1.082924	0	10.38	20027	42	-17	5	5	0.02	2.040342	8	10	0.03	2000	4.098595	40.92389	-91.39362
294126	83	-213	1011	-3.996045	-0.8873136	1.10112	0	10.38	20030	48	-17	5	5	0.02	2.046833	8	10	0.03	2000	2.628865	40.92389	-91.39362
294241	-565	887	1009	-3.863915	-1.793099	0.8400921	0	10.6	20018	42	-23	5	5	0.02	2.052859	8	10	0.03	2000	1.032512	40.92389	-91.39362
294379	-387	779	-73	-2.902733	-4.374978	0.6666071	0	10.6	20032	43	-23	5	5	0.02	2.047795	8	10	0.03	2000	2.095004	40.92389	-91.39362
294478	1206	1418	-224	-3.104262	-5.04157	0.6935334	0	10.6	20087	51	-28	5	5	0.02	2.029254	8	10	0.03	2000	2.928831	40.92389	-91.39362
294541	-919	-1047	-662	-2.291441	-5.252413	1.033108	0	10.6	20031	56	-23	5	5	0.02	2.017277	8	10	0.03	2000	1.512229	40.92389	-91.39362
294641	-718	-316	-184	-3.190301	-5.045223	0.9320573	0	10.6	20010	50	-29	5	5	0.02	1.996335	8	10	0.03	2000	0.7824824	40.92389	-91.39362
294725	-518	-562	-73	-4.122694	-4.228047	0.1434208	0	10.6	20027	50	-23	5	5	0.02	1.974338	8	10	0.03	2000	0.08256041	40.92389	-91.39362
294805	-364	-720	-860	-4.144254	-4.01231	0.04275751	0	10.6	20032	44	-23	5	5	0.02	1.95453	8	10	0.03	2000	-0.4437866	40.92389	-91.39362
294928	-1432	-1465	359	-3.595115	-3.39905	0.8258364	0	10.6	20031	44	-23	5	5	0.02	1.909847	8	10	0.03	2000	-1.692932	40.92389	-91.39362
295011	305	-425	478	-4.301927	-2.49789	1.264744	0	10.6	20045	38	-23	5	5	0.02	1.886788	8	10	0.03	2000	-1.96051	40.92389	-91.39362
295111	-620	92	-647	-3.278847	-3.475891	1.525312	0	10.6	20055	52	-23	5	5	0.02	1.861921	8	10	0.03	2000	-2.927734	40.92389	-91.39362
295205	-1332	-2476	552	-3.894674	-3.518628	0.895415	0	10.55	20012	40	-23	5	5	0.02	1.839324	8	10	0.03	2000	-4.203613	40.92389	-91.39362
295315	-180	-404	-262	-3.707151	-4.047681	0.7521346	0	10.55	20058	47	-27	5	5	0.02	1.828656	8	10	0.03	2000	-3.904144	40.92389	-91.39362
295478	-873	-2083	-797	-4.62	-3.553474	1.023625	0	10.55	20032	40	-35	5	5	0.02	1.812574	8	10	0.03	2000	-5.223938	40.92389	-91.39362
295570	107	85	-709	-4.501884	-2.934103	1.349563	0	10.55	20027	39	-35	5	5	0.02	1.810264	8	10	0.03	2000	-6.265564	40.92389	-91.39362
295669	357	944	1339	-3.593092	-4.375613	1.271846	0	10.55	20055	39	-35	5	5	0.02	1.811989	8	10	0.03	2000	-5.626923	40.92389	-91.39362
295716	509	503	-480	-3.236328	-4.963767	1.372505	0	10.55	20055	28	-35	5	5	0.02	1.814638	8	10	0.03	2000	-6.402771	40.92389	-91.39362
295912	1441	483	-555	-1.58157	-4.806859	0.9469213	0	10.55	20031	28	-42	5	5	0.02	1.823313	8	10	0.03	2000	-6.327271	40.92389	-91.39362
295992	-812	201	-29	-0.9023259	-5.149837	1.119512	0	10.55	20030	27	-42	5	5	0.02	1.8271	8	10	0.03	2000	-4.968689	40.92389	-91.39362
296071	-1902	-1739	1010	-2.627485	-4.262177	0.7183986	0	10.55	20008	27	-42	5	5	0.02	1.831867	8	10	0.03	2000	-7.241974	40.92389	-91.39362
296180	174	990	1507	-3.723381	-2.489876	0.564685	0	10.66	20034	14	-43	5	5	0.02	1.828835	8	10	0.03	2000	-8.036255	40.92389	-91.39362
296267	354	581	-233	-2.57549	-4.170235	0.5026421	0	10.66	20032	14	-43	5	5	0.02	1.826706	8	10	0.03	2000	-5.31781	40.92389	-91.39362
296306	119	-142	705	-2.628799	-4.013481	0.1789822	0	10.66	20034	14	-43	5	5	0.02	1.825601	8	10	0.03	2000	-5.31781	40.92389	-91.39362
296410	1469	898	-327	-2.353242	-2.580317	0.01202735	0	10.66	20011	8	-56	5	5	0.02	1.823387	8	10	0.03	2000	-5.674652	40.92389	-91.39362
296591	-1130	-113	-81	-1.460811	-4.145042	0.2038003	0	10.66	20035	-5	-57	5	5	0.02	1.829735	8	10	0.03	2000	-5.747528	40.92389	-91.39362
296645	-471	-410	498	-1.796799	-4.339323	0.2418175	0	10.66	20055	-5	-57	5	5	0.02	1.835985	8	10	0.03	2000	-6.210968	40.92389	-91.39362
296721	1122	243	947	-1.71936	-4.038711	0.7582706	0	10.66	20037	-11	-63	5	5	0.02	1.844558	8	10	0.03	2000	-5.76889	40.92389	-91.39362
296799	-1075	617	1169	-0.4045091	-6.774464	1.219105	0	10.66	20029	0	-57	5	5	0.02	1.859492	8	10	0.03	2000	-4.496948	40.92388	-91.39362
296873	504	-274	237	-0.959117	-6.370744	0.5002753	0	10.66	20029	-13	-71	5	5	0.02	1.872443	8	10	0.03	2000	-4.292236	40.92388	-91.39362
296990	1440	1726	633	0.2308542	-6.729147	-0.008306932	0	10.43	20028	-7	-59	5	5	0.02	1.891761	8	10	0.03	2000	-3.030304	40.92388	-91.39362
297079	-1025	-794	363	0.2820375	-6.969682	0.1803914	0	10.43	24019	-13	-65	5	5	0.02	1.896348	8	10	0.03	2000	-0.9953918	40.92388	-91.39362
297244	948	1748	-1659	-0.5177788	-5.034069	1.304123	0	10.43	20037	-15	-73	5	5	0.02	1.895598	8	10	0.03	2000	-0.9031372	40.92388	-91.39362
297267	948	1748	-1659	-0.5177788	-5.034069	1.304123	0	10.43	20037	-15	-73	5	5	0.02	1.895454	8	10	0.03	2000	-0.9031372	40.92388	-91.39362
297384	-10	-175	1656	-0.1786775	-5.210034	0.01784644	0	10.43	20057	-15	-73	5	5	0.02	1.891688	8	10	0.03	2000	1.063083	40.92388	-91.39362
297580	-443	-102	-825	1.021831	-6.553695	-0.1760817	0	10.43	20053	-3	-61	5	5	0.02	1.886105	8	10	0.03	2000	3.89506	40.92388	-91.39362
297654	62	1274	-1063	0.9071026	-6.517848	0.7261764	0	10.43	20052	-10	-68	5	5	0.02	1.882194	8	10	0.03	2000	4.517159	40.92387	-91.39362
297724	-157	-503	-257	0.3864669	-5.108153	0.9158884	0	10.43	20011	-4	-62	5	5	0.02	1.87532	8	10	0.03	2000	4.390181	40.92387	-91.39362
297839	-278	885	734	0.3979364	-4.979469	0.01724539	0	10.43	20038	-4	-75	5	5	0.02	1.878146	8	10	0.03	2000	5.350713	40.92387	-91.39362
297908	526	980	1766	-0.238173	-5.51117	-0.3134989	0	10.21	20054	7	-63	5	5	0.02	1.881009	8	10	0.03	2000	6.149351	40.92387	-91.39362
297966	-1065	-191	1324	-1.2729	-5.311214	-0.005079545	0	10.21	20009	7	-63	5	5	0.02	1.882149	8	10	0.03	2000	7.237177	40.92387	-91.39362
298098	1766	1014	-463	-1.304178	-5.597589	0.7682161	0	10.21	20060	16	-69	5	5	0.02	1.881846	8	10	0.03	2000	8.337085	40.92387	-91.39362
298202	-1129	-1134	-1340	-2.66582	-4.368956	0.6645746	0	10.21	20028	13	-57	5	5	0.02	1.881418	8	10	0.03	2000	6.748911	40.92387	-91.39362
298275	461	1185	563	-3.022311	-4.851768	0.1856965	0	10.21	20007	19	-51	5	5	0.02	1.875268	8	10	0.03	2000	7.434009	40.92387	-91.39362
298386	1250	744	-1562	-1.610396	-6.42916	0.795328	0	10.21	20028	26	-51	5	5	0.02	1.875304	8	10	0.03	2000	6.819877	40.92387	-91.39362
298589	368	-117	458	-1.834667	-6.069105	1.516311	0	10.21	20052	32	-33	5	5	0.02	1.894173	8	10	0.03	2000	6.739005	40.92387	-91.39362
298643	11	-464	-146	-0.9673769	-6.728882	1.125342	0	10.21	20031	32	-33	5	5	0.02	1.904856	8	10	0.03	2000	5.784997	40.92387	-91.39362
298714	243	-288	818	-1.429791	-5.934129	0.4279561	0	10.21	20053	39	-26	5	5	0.02	1.913822	8	10	0.03	2000	6.964257	40.92387	-91.39362
298790	-86	-1065	-889	-1.389049	-5.760698	0.4763916	0	11.06	20043	39	-26	5	5	0.02	1.926093	8	10	0.03	2000	8.177763	40.92387	-91.39362
298909	-770	519	396	0.08914208	-6.282756	1.436448	0	11.06	20053	52	-26	5	5	0.02	1.949294	8	10	0.03	2000	6.493258	40.92387	-91.39362
299015	-2497	-2120	2274	-3.690029	-2.969154	0.8176302	0	11.06	20035	46	-26	5	5	0.02	1.967212	8	10	0.03	2000	6.313326	40.92387	-91.39362
299136	613	757	222	-5.419863	-0.5915435	-0.1217749	0	11.06	20045	54	-19	5	5	0.02	1.981219	8	10	0.03	2000	7.444098	40.92388	-91.39362
299196	-751	625	-828	-5.268039	-2.180624	0.0005372167	0	11.06	20033	54	-19	5	5	0.02	1.985023	8	10	0.03	2000	6.604085	40.92388	-91.39362
299274	1169	184	-567	-4.870957	-2.513789	0.5474272	0	11.06	20046	67	-5	5	5	0.02	1.994576	8	10	0.03	2000	5.947323	40.92388	-91.39362
299437	-414	473	-351	-5.768004	-1.631119	0.3301694	0	11.06	20053	74	1	5	5	0.02	2.008785	8	10	0.03	2000	4.483248	40.92388	-91.39362
299530	-333	-507	926	-5.18735	-2.278498	0.5401369	0	11.06	20059	74	1	5	5	0.02	2.011352	8	10	0.03	2000	2.823497	40.92388	-91.39362
299669	361	-275	555	-5.34325	-1.885696	1.543516	0	11.06	20038	76	14	5	5	0.02	2.008977	8	10	0.03	2000	0.7985037	40.92389	-91.39362
299723	-525	-483	765	-5.413351	-1.623371	1.49441	0	10.77	20051	63	2	5	5	0.02	1.998429	8	10	0.03	2000	0.7985037	40.92389	-91.39362
299801	102	-859	-572	-5.333239	-1.888119	1.344356	0	10.77	20023	70	16	5	5	0.02	1.979197	8	10	0.03	2000	1.513376	40.92389	-91.39362
299927	-676	-101	-880	-4.778441	-3.966713	1.218561	0	10.77	20032	58	4	5	5	0.02	1.954658	8	10	0.03	2000	-0.4801636	40.92389	-91.39362
299976	-871	-689	717	-5.061671	-3.817459	1.109568	0	10.77	20037	71	10	5	5	0.02	1.940418	8	10	0.03	2000	-0.4801636	40.92389	-91.39362
300100	686	835	888	-5.516716	-2.409321	0.73169	0	10.77	20032	59	-1	5	5	0.02	1.910315	8	10	0.03	2000	-3.036957	40.92389	-91.39362
300212	-662	-833	700	-5.529168	-1.900223	0.688936	0	10.77	20034	66	12	5	5	0.02	1.881725	8	10	0.03	2000	-3.223877	40.92389	-91.39362
300277	756	667	-798	-5.071237	-1.292617	1.098148	0	10.77	20037	54	0	5	5	0.02	1.873128	8	10	0.03	2000	-3.347351	40.92389	-91.39362
300385	456	543	-930	-4.170039	-2.23136	1.246521	0	10.77	20010	54	6	5	5	0.02	1.810364	8	10	0.03	2000	-6.319366	40.92389	-91.39362
300534	59	1194	-563	-3.324718	-3.840171	1.523708	0	10.77	20028	48	1	5	5	0.02	1.726054	8	10	0.03	2000	-7.966064	40.92389	-91.39362
300619	-825	-663	627	-2.575493	-4.977705	1.721961	0	10.77	20036	48	1	5	5	0.02	1.692598	8	10	0.03	2000	-7.921967	40.92389	-91.39362
300717	-1075	-1714	1985	-1.76157	-5.126554	1.20501	0	10.77	20042	36	-4	5	5	0.02	1.661768	8	10	0.03	2000	-8.218109	40.92389	-91.39362
300786	213	-706	801	-1.72265	-3.291619	1.237642	0	10.77	20032	36	-4	5	5	0.02	1.62389	8	10	0.03	2000	-8.552002	40.92389	-91.39362
300949	-20	540	233	-1.87401	-2.118102	0.9046427	0	10.77	20025	23	-16	5	5	0.02	1.559626	8	10	0.03	2000	-8.83725	40.92389	-91.39362
301061	-1000	-2283	-760	-3.367096	-0.5565384	0.7177052	0	10.77	20034	23	-22	5	5	0.02	1.536158	8	10	0.03	2000	-10.08145	40.92389	-91.39362
301109	230	146	-1143	-2.793025	-0.3853474	0.7430801	0	10.77	20061	17	-22	5	5	0.02	1.528687	8	10	0.03	2000	-9.663818	40.92389	-91.39362
301203	243	301	-404	-2.172002	-2.582071	0.8749923	0	10.77	20055	17	-28	5	5	0.02	1.51505	8	10	0.03	2000	-12.09869	40.92389	-91.39362
301314	1013	704	-718	-0.9541497	-3.405916	2.043262	0	10.77	20054	10	-28	5	5	0.02	1.510936	8	10	0.03	2000	-9.624298	40.92389	-91.39362
301390	-1656	-1092	453	-1.175437	-3.073362	1.742596	0	10.77	20054	10	-28	5	5	0.02	1.508944	8	10	0.03	2000	-8.95108	40.92389	-91.39362
301590	1317	981	1031	-1.376077	-1.567734	-0.1675619	0	11.11	20033	9	-35	5	5	0.02	1.514853	8	10	0.03	2000	-10.08594	40.92389	-91.39362
301628	-41	-145	878	-1.765204	-3.021939	0.3747332	0	11.11	20015	9	-41	5	5	0.02	1.523209	8	10	0.03	2000	-7.962036	40.92389	-91.39362
301703	471	1030	934	-1.876887	-3.992529	1.016569	0	11.11	20011	-3	-48	5	5	0.02	1.536571	8	10	0.03	2000	-8.497406	40.92389	-91.39362
301731	131	-88	-1136	-0.5005845	-5.859758	2.092449	0	11.11	20053	-4	-48	5	5	0.02	1.54545	8	10	0.03	2000	-5.694702	40.92389	-91.39362
301846	-139	791	1080	-1.988337	-3.333318	1.099483	0	11.11	20037	-11	-61	5	5	0.02	1.561004	8	10	0.03	2000	-3.575592	40.92389	-91.39362
301962	652	442	701	-2.617806	-3.984493	-0.2272132	0	11.11	20053	-5	-55	5	5	0.02	1.566625	8	10	0.03	2000	-4.350861	40.92389	-91.39362
302069	2529	1723	136	-1.231326	-4.881517	0.185985	0	11.11	20032	-18	-69	5	5	0.02	1.572512	8	10	0.03	2000	0.3326545	40.92389	-91.39362
302124	2529	1723	136	-1.231326	-4.881517	0.185985	0	11.11	20032	-12	-63	5	5	0.02	1.57743	8	10	0.03	2000	0.3326545	40.92389	-91.39362
302198	-507	-241	-564	-2.2423	-4.101667	1.088057	0	11.11	20004	-25	-76	5	5	0.02	1.581841	8	10	0.03	2000	1.289409	40.92388	-91.39362
302375	959	818	685	-0.7384284	-4.536177	0.6877554	0	10.89	20035	-20	-83	5	5	0.02	1.58823	8	10	0.03	2000	1.075794	40.92388	-91.39362
302469	999	1183	226	0.4640523	-5.994552	0.3020286	0	10.89	20048	-8	-71	5	5	0.02	1.60304	8	10	0.03	2000	3.564584	40.92388	-91.39362
302566	1004	758	677	1.010149	-6.443278	0.6622513	0	10.89	20031	-21	-85	5	5	0.02	1.625667	8	10	0.03	2000	3.426205	40.92388	-91.39362
302644	66	907	123	1.460886	-6.603092	0.8492112	0	10.89	20009	-9	-73	5	5	0.02	1.636584	8	10	0.03	2000	3.538718	40.92388	-91.39362
302694	-436	-646	-462	0.1313443	-6.082685	0.3127597	0	10.89	20055	-9	-73	5	5	0.02	1.640235	8	10	0.03	2000	5.305573	40.92388	-91.39362
302819	114	338	-1281	-0.298531	-5.541314	0.102335	0	10.89	20052	-4	-81	5	5	0.02	1.67344	8	10	0.03	2000	6.304066	40.92387	-91.39362
302892	-959	1760	-765	-0.3729188	-8.349203	0.5251694	0	10.89	20008	-4	-81	5	5	0.02	1.692545	8	10	0.03	2000	6.887028	40.92387	-91.39362
303001	336	-932	282	-0.8287963	-7.406356	0.9871228	0	10.89	20031	-5	-82	5	5	0.02	1.736235	8	10	0.03	2000	7.892548	40.92387	-91.39362
303103	729	2788	-852	-1.214165	-7.498349	1.068741	0	10.89	20039	-5	-88	5	5	0.02	1.768401	8	10	0.03	2000	7.542417	40.92387	-91.39362
303274	-217	-2110	-449	-1.853819	-5.649867	1.017439	0	11.06	20030	6	-90	5	5	0.02	1.835817	8	10	0.03	2000	7.707285	40.92387	-91.39362
303378	1002	3052	1024	-1.212675	-6.450167	0.9487725	0	11.06	20038	6	-90	5	5	0.02	1.873538	8	10	0.03	2000	7.128377	40.92387	-91.39362
303448	-685	-2272	890	-1.019441	-7.127197	1.225677	0	11.06	20018	12	-72	5	5	0.02	1.911959	8	10	0.03	2000	7.886823	40.92387	-91.39362
303505	-731	-1347	-141	-1.541335	-4.797948	1.080777	0	11.06	20025	12	-72	5	5	0.02	1.923149	8	10	0.03	2000	7.82414	40.92387	-91.39362
303650	-1489	739	1301	-0.6913523	-6.723517	0.6351908	0	11.06	20013	32	-66	5	5	0.02	1.948309	8	10	0.03	2000	7.394403	40.92387	-91.39362
303750	-169	-1028	-1828	-2.216374	-6.046664	0.2179812	0	11.06	20007	32	-61	5	5	0.02	1.967274	8	10	0.03	2000	7.655044	40.92387	-91.39362
303792	442	-392	-1032	-2.595432	-5.775834	0.1906238	0	11.06	20009	32	-60	5	5	0.02	1.969561	8	10	0.03	2000	7.655044	40.92387	-91.39362
303998	-634	-445	1276	-3.488874	-4.969718	0.4058277	0	11.06	20030	52	-42	5	5	0.02	1.977957	8	10	0.03	2000	8.895769	40.92387	-91.39362
304081	-349	1386	1145	-2.919912	-6.391583	1.093432	0	11.06	20014	52	-42	5	5	0.02	1.973684	8	10	0.03	2000	8.953382	40.92387	-91.39362
304138	-134	-1253	-752	-4.462211	-6.331626	1.352916	0	11.06	20005	52	-42	5	5	0.02	1.958295	8	10	0.03	2000	7.191923	40.92387	-91.39362
304186	-134	-1253	-752	-4.462211	-6.331626	1.352916	0	11.06	20005	65	-42	5	5	0.02	1.947341	8	10	0.03	2000	7.191923	40.92387	-91.39362
304308	1068	329	897	-4.670768	-4.743189	1.199836	0	11.06	20056	53	-36	5	5	0.02	1.919182	8	10	0.03	2000	8.050559	40.92387	-91.39362
304387	-1586	-1802	-474	-5.345766	-4.269867	1.186156	0	11.06	20038	66	-29	5	5	0.02	1.910703	8	10	0.03	2000	8.050559	40.92387	-91.39362
304533	825	1323	-673	-5.464499	-3.28268	1.123515	0	11.06	20008	74	-16	5	5	0.02	1.894136	8	10	0.03	2000	6.30999	40.92387	-91.39362
304651	-1699	-1625	-559	-5.035829	-4.595279	0.8729805	0	11.06	20031	62	-22	5	5	0.02	1.873835	8	10	0.03	2000	6.282783	40.92387	-91.39362
304734	-1136	-1108	-107	-4.891872	-3.358139	0.5957767	0	11.06	20010	75	-15	5	5	0.02	1.868137	8	10	0.03	2000	5.79164	40.92387	-91.39362
304770	-1136	-1108	-107	-4.891872	-2.999322	0.4865172	0	11.06	20010	75	-15	5	5	0.02	1.868137	8	10	0.03	2000	6.256196	40.92387	-91.39362
304906	-1112	-41	179	-4.635919	-2.937967	1.234961	0	11.06	20060	76	-2	5	5	0.02	1.844481	8	10	0.03	2000	3.959482	40.92387	-91.39362
305007	232	-320	603	-5.803973	-1.351813	0.8998458	0	11.06	24040	64	-8	5	5	0.02	1.829533	8	10	0.03	2000	3.416526	40.92387	-91.39362
305078	662	1179	-686	-5.176265	-1.616024	0.849887	0	11.06	20028	84	4	5	5	0.02	1.810373	8	10	0.03	2000	3.416526	40.92388	-91.39362
305232	334	134	1111	-5.222031	-2.584699	0.6724426	0	11.06	20035	79	6	5	5	0.02	1.746071	8	10	0.03	2000	0.001485023	40.92388	-91.39361
305401	-1208	-239	642	-4.876759	-2.032185	1.364316	0	11.06	20009	67	0	5	5	0.02	1.708373	8	10	0.03	2000	-0.3094177	40.92388	-91.39361
305581	-549	195	427	-5.350036	-2.115835	0.8092202	0	11.06	20032	68	1	5	5	0.02	1.635022	8	10	0.03	2000	-1.99353	40.92388	-91.39361
305780	-391	-1678	-430	-6.747108	-0.325789	1.081201	0	11.06	20032	63	16	5	5	0.02	1.571006	8	10	0.03	2000	-2.102478	40.92389	-91.39361
305943	1048	490	-73	-5.804592	0.1024653	0.885581	0	10.6	20018	57	4	5	5	0.02	1.505459	8	10	0.03	2000	-2.891937	40.92389	-91.39361
306011	85	-293	585	-5.017348	-0.5584518	0.9400122	0	10.6	20045	64	10	5	5	0.02	1.482051	8	10	0.03	2000	-4.116211	40.92389	-91.39361
306078	-1197	-1515	-590	-5.590308	-0.2517704	0.5756417	0	10.6	20052	64	10	5	5	0.02	1.452842	8	10	0.03	2000	-4.451477	40.92389	-91.39361
306183	430	-260	-320	-5.802608	0.05461732	0.4586729	0	10.6	20008	0	0	5	5	0.02	1.42338	8	10	0.03	2000	-3.988312	40.92389	-91.39361
306289	1158	222	24	-3.920115	-1.707005	0.2420307	0	10.6	20028	0	0	5	5	0.02	1.399805	3	10	0.03	2000	-5.472382	40.92389	-91.39361
306446	63	-1435	192	-2.305808	0.4491056	0.03634768	0	10.6	20028	0	0	5	5	0.02	1.367607	3	10	0.03	2000	-5.795227	40.92389	-91.39361
306500	27	109	-638	-2.804948	0.8007329	0.01495549	0	10.6	20028	0	0	5	5	0.02	1.348795	3	10	0.03	2000	-6.173767	40.92389	-91.39361
306635	1384	1158	820	-1.817234	-0.9611641	-0.006204769	0	10.6	20028	0	0	5	5	0.02	1.323481	3	10	0.03	2000	-5.022369	40.92389	-91.39361
306695	562	806	-54	-1.373753	-1.388595	0.3902988	0	10.6	20028	0	0	5	5	0.02	1.301143	3	10	0.03	2000	-3.976807	40.92389	-91.39361
306782	921	127	-878	-1.25248	-0.6432931	0.4977694	0	10.6	20028	0	0	5	5	0.02	1.262565	3	10	0.03	2000	-2.96344	40.92389	-91.39361
306894	-1324	3625	1410	-0.8540722	-3.935158	0.2395228	0	10.49	20028	0	0	5	5	0.02	1.205074	3	10	0.03	2000	-3.036346	40.92389	-91.39361
307029	-1129	2739	18	-4.992365	-10.66923	-0.549693	0	10.49	20028	0	0	5	5	0.02	1.135576	3	10	0.03	2000	-2.384491	40.92389	-91.39361
307091	-1000	2702	979	-5.665284	-11.50454	-0.5032892	0	10.49	20028	0	0	5	5	0.02	1.088204	3	10	0.03	2000	-4.292084	40.92389	-91.39361
307195	1736	1696	227	-6.428625	-13.02509	0.5306802	0	10.49	20028	0	0	5	5	0.02	1.022925	3	10	0.03	2000	-5.368439	40.92389	-91.39361
307298	1369	110	-890	-3.020741	-13.35724	1.162857	0	10.49	20028	0	0	5	5	0.02	0.957678	3	10	0.03	2000	-6.734619	40.92389	-91.39362
307452	1521	-353	905	-1.149728	-10.09898	1.115186	0	10.49	20028	0	0	5	5	0.02	0.864952	3	10	0.03	2000	-6.587799	40.92389	-91.39362
307506	-838	307	-75	-0.6096796	-10.2811	0.8414005	0	10.49	20028	0	0	5	5	0.02	0.7992285	3	10	0.03	2000	-6.587799	40.92389	-91.39362
307658	-524	-425	-674	-2.79278	-10.27259	1.224203	0	10.49	20028	0	0	5	5	0.02	0.7652346	3	10	0.03	2000	-5.302338	40.9239	-91.39362
307732	-2959	-2079	484	-6.365562	-7.300629	2.023311	0	10.49	20028	0	0	5	5	0.02	0.7325994	3	10	0.03	2000	-5.989716	40.9239	-91.39362
307814	-2324	-1454	-209	-9.113162	-4.657667	2.156295	0	10.89	20028	0	0	5	5	0.02	0.6935458	3	10	0.03	2000	-6.34494	40.9239	-91.39362
307928	3091	2092	1567	-7.647972	-4.911404	1.515589	0	10.89	20028	0	0	5	5	0.02	0.6644452	3	10	0.03	2000	-8.069458	40.9239	-91.39362
