time(ms)	gyro_x(deg/s)	gyro_y(deg/s)	gyro_z(deg/s)	orientation_roll(deg)	orientation_pitch(deg)	orientation_yaw(deg)	throttle	battery(V)	loop_time(uS)	pid_output_roll	pid_output_pitch	pid_output_yaw	pid_output_throttle	ultrasonic_alt	baro_alt	flight_mode	p_gain_altitude	i_gain_altitude	d_gain_altitude	compass_heading	latitude	longitude
246490	15	-8	-2	0.155733	-0.009047643	-0.8965092	0	11.74	20026	0	0	5	5	0.02	-0.1110055	1	10	0.03	2000	-2.330841	40.92393	-91.39365
246608	15	4	2	0.1576574	-0.008570414	-0.8941856	0	11.74	20026	0	0	5	5	0.02	-0.1089048	1	10	0.03	2000	-2.324982	40.92393	-91.39365
246698	13	2	-4	0.1593687	-0.01617326	-0.8897831	0	11.74	20026	0	0	5	5	0.02	-0.1101239	1	10	0.03	2000	-2.085541	40.92393	-91.39365
246804	10	2	-2	0.1570796	-0.01792476	-0.8873987	0	11.74	20026	0	0	5	5	0.02	-0.1169021	1	10	0.03	2000	-2.307709	40.92393	-91.39365
246917	13	0	-2	0.1533157	-0.01489645	-0.8847083	0	11.74	20026	0	0	5	5	0.02	-0.1193176	1	10	0.03	2000	-2.088379	40.92393	-91.39365
247048	8	-1	-1	0.1512386	-0.0136487	-0.8830576	0	11.74	20026	0	0	5	5	0.02	-0.1203446	1	10	0.03	2000	-2.075378	40.92393	-91.39365
247191	12	2	-3	0.1455028	-0.006759866	-0.8783497	0	11.74	20026	0	0	5	5	0.02	-0.1242391	1	10	0.03	2000	-2.088989	40.92393	-91.39365
247275	12	3	-2	0.1472831	-0.009814561	-0.8762097	0	11.74	20026	0	0	5	5	0.02	-0.1172866	1	10	0.03	2000	-2.07959	40.92393	-91.39365
247365	8	-2	-2	0.1521076	-0.008347164	-0.8765766	0	11.74	20026	0	0	5	5	0.02	-0.1168102	1	10	0.03	2000	-2.070068	40.92393	-91.39365
247445	18	2	1	0.1571729	-0.005290231	-0.8751092	0	11.74	20026	0	0	5	5	0.02	-0.1170863	1	10	0.03	2000	-2.312347	40.92393	-91.39365
247559	17	0	0	0.1590789	-0.004563022	-0.8743147	0	11.74	20026	0	0	5	5	0.02	-0.1218523	1	10	0.03	2000	-2.093842	40.92393	-91.39365
247679	11	1	-2	0.1682068	-0.005043719	-0.8694234	0	11.74	20026	0	0	5	5	0.02	-0.1245085	1	10	0.03	2000	-2.111664	40.92393	-91.39365
247796	17	-6	3	0.1709055	-0.00264482	-0.8666109	0	11.74	20026	0	0	5	5	0.02	-0.1247806	1	10	0.03	2000	-2.347137	40.92393	-91.39365
247865	13	-6	-2	0.1737769	-0.002994487	-0.8635537	0	11.68	20026	0	0	5	5	0.02	-0.1218823	1	10	0.03	2000	-2.576141	40.92393	-91.39365
247980	21	-3	-4	0.1712313	-0.005947993	-0.8601299	0	11.68	20026	0	0	5	5	0.02	-0.1167541	1	10	0.03	2000	-2.349915	40.92393	-91.39365
248071	14	-6	-2	0.1697697	-0.003087035	-0.857317	0	11.68	20026	0	0	5	5	0.02	-0.1180164	1	10	0.03	2000	-2.116028	40.92393	-91.39365
248177	15	0	-1	0.1689189	-0.002480406	-0.8519977	0	11.68	20026	0	0	5	5	0.02	-0.1252298	1	10	0.03	2000	-2.115204	40.92393	-91.39365
248220	15	1	-4	0.1665402	-0.005751128	-0.8504081	0	11.68	20026	0	0	5	5	0.02	-0.1345822	1	10	0.03	2000	-2.332397	40.92393	-91.39365
248324	15	-4	-1	0.1688408	0.002384349	-0.8480234	0	11.68	20026	0	0	5	5	0.02	-0.1346986	1	10	0.03	2000	-2.344055	40.92393	-91.39365
248524	11	-4	-7	0.1720748	-0.007334542	-0.8425204	0	11.68	20026	0	0	5	5	0.02	-0.1488926	1	10	0.03	2000	-2.360229	40.92393	-91.39365
248560	17	-2	-2	0.1709795	-0.006245925	-0.84142	0	11.68	20026	0	0	5	5	0.02	-0.1507936	1	10	0.03	2000	-2.360229	40.92393	-91.39365
248667	21	-5	0	0.1774032	-0.009727916	-0.838057	0	11.68	20026	0	0	5	5	0.02	-0.1529134	1	10	0.03	2000	-2.110718	40.92393	-91.39365
248776	12	-5	0	0.1798683	-0.009007518	-0.8366506	0	11.68	20026	0	0	5	5	0.02	-0.1577968	1	10	0.03	2000	-2.126556	40.92393	-91.39365
248865	17	0	-4	0.1864856	-0.009010973	-0.8338995	0	11.68	20026	0	0	5	5	0.02	-0.1631991	1	10	0.03	2000	-2.136658	40.92393	-91.39365
248932	11	-1	-1	0.1938131	-0.01103385	-0.8326766	0	11.68	20026	0	0	5	5	0.02	-0.1728072	1	10	0.03	2000	-2.150604	40.92393	-91.39365
249099	20	1	-1	0.1948554	-0.01206728	-0.8289477	0	11.68	20026	0	0	5	5	0.02	-0.1899192	1	10	0.03	2000	-2.143341	40.92393	-91.39365
249126	20	1	-1	0.1948554	-0.01206728	-0.8289477	0	11.68	20026	0	0	5	5	0.02	-0.1935221	1	10	0.03	2000	-2.143341	40.92393	-91.39365
249231	16	0	-3	0.2005519	-0.01195755	-0.8255854	0	11.68	20026	0	0	5	5	0.02	-0.194152	1	10	0.03	2000	-2.389191	40.92393	-91.39365
249467	18	-7	-2	0.2104116	-0.01432544	-0.8194101	0	11.68	20026	0	0	5	5	0.02	-0.1808244	1	10	0.03	2000	-2.636841	40.92393	-91.39365
249566	21	-2	-7	0.2110963	-0.01281262	-0.8147025	0	11.68	20026	0	0	5	5	0.02	-0.1787487	1	10	0.03	2000	-2.168427	40.92393	-91.39365
249705	18	0	2	0.2029328	-0.02426152	-0.8090165	0	11.68	20026	0	0	5	5	0.02	-0.1790118	1	10	0.03	2000	-2.156555	40.92393	-91.39365
249774	22	0	-2	0.1969526	-0.02118406	-0.8062652	0	11.63	20026	0	0	5	5	0.02	-0.178943	1	10	0.03	2000	-2.387054	40.92393	-91.39365
249838	16	2	-1	0.20741	-0.02389416	-0.8040643	0	11.63	20026	0	0	5	5	0.02	-0.1788384	1	10	0.03	2000	-2.167236	40.92393	-91.39365
249975	13	1	0	0.2155379	-0.02304051	-0.8014352	0	11.63	20026	0	0	5	5	0.02	-0.180156	1	10	0.03	2000	-2.176392	40.92393	-91.39365
250038	22	1	0	0.2165814	-0.02818196	-0.8003346	0	11.63	20026	0	0	5	5	0.02	-0.1789352	1	10	0.03	2000	-2.418274	40.92393	-91.39365
250168	19	0	-1	0.2193417	-0.02821937	-0.7948321	0	11.63	20026	0	0	5	5	0.02	-0.1776078	1	10	0.03	2000	-2.200775	40.92393	-91.39365
250249	18	-1	0	0.2211088	-0.02741076	-0.7947099	0	11.63	20026	0	0	5	5	0.02	-0.1795204	1	10	0.03	2000	-2.412079	40.92393	-91.39365
250348	19	-7	0	0.2269518	-0.02642048	-0.7910416	0	11.63	20026	0	0	5	5	0.02	-0.1800974	1	10	0.03	2000	-2.204193	40.92393	-91.39365
250451	20	2	-2	0.2344567	-0.02445123	-0.7891465	0	11.63	20026	0	0	5	5	0.02	-0.177299	1	10	0.03	2000	-2.431396	40.92393	-91.39365
250554	21	-4	0	0.2343577	-0.02214108	-0.7869453	0	11.63	20026	0	0	5	5	0.02	-0.175265	1	10	0.03	2000	-2.21637	40.92393	-91.39365
250684	21	-3	5	0.2406316	-0.03122484	-0.7827882	0	11.68	20026	0	0	5	5	0.02	-0.1734011	1	10	0.03	2000	-2.441803	40.92393	-91.39365
250748	21	0	-2	0.2399444	-0.0249942	-0.7789363	0	11.68	20026	0	0	5	5	0.02	-0.1709724	1	10	0.03	2000	-2.228912	40.92393	-91.39365
250849	17	0	0	0.2361215	-0.02103018	-0.7780192	0	11.68	20026	0	0	5	5	0.02	-0.1667749	1	10	0.03	2000	-2.223175	40.92393	-91.39365
250984	17	-4	0	0.2320996	-0.02274152	-0.7735562	0	11.68	20026	0	0	5	5	0.02	-0.1665919	1	10	0.03	2000	-2.440735	40.92393	-91.39365
251122	16	-8	-2	0.2283095	-0.02410073	-0.7692766	0	11.68	20026	0	0	5	5	0.02	-0.1664716	1	10	0.03	2000	-2.438202	40.92393	-91.39365
251167	21	-5	0	0.2298411	-0.01893575	-0.7662808	0	11.68	20026	0	0	5	5	0.02	-0.1670989	1	10	0.03	2000	-2.450348	40.92393	-91.39365
251266	20	0	0	0.2332085	-0.01498746	-0.7641408	0	11.68	20026	0	0	5	5	0.02	-0.1664268	1	10	0.03	2000	-2.443573	40.92393	-91.39365
251440	23	-6	0	0.2333618	-0.01614726	-0.7574767	0	11.68	20026	0	0	5	5	0.02	-0.155955	1	10	0.03	2000	-2.218018	40.92393	-91.39365
251465	21	4	5	0.2345637	-0.01577829	-0.7580271	0	11.68	20026	0	0	5	5	0.02	-0.1517498	1	10	0.03	2000	-2.432343	40.92393	-91.39365
251564	19	0	-1	0.2353712	-0.01758164	-0.7528301	0	11.68	20026	0	0	5	5	0.02	-0.1445883	1	10	0.03	2000	-2.200806	40.92393	-91.39365
251670	23	7	0	0.233591	-0.01538946	-0.749773	0	11.68	20026	0	0	5	5	0.02	-0.1383672	1	10	0.03	2000	-2.44397	40.92393	-91.39365
251781	25	5	-3	0.2411542	-0.02253816	-0.746716	0	11.68	20026	0	0	5	5	0.02	-0.136688	1	10	0.03	2000	-2.212708	40.92393	-91.39365
251870	23	-4	-3	0.2481524	-0.03038794	-0.7410915	0	11.68	20026	0	0	5	5	0.02	-0.1404539	1	10	0.03	2000	-2.219086	40.92393	-91.39365
251972	12	-1	-4	0.2412824	-0.0309138	-0.739441	0	11.68	20026	0	0	5	5	0.02	-0.1552519	1	10	0.03	2000	-2.230408	40.92393	-91.39365
252074	17	0	-3	0.2435473	-0.02686521	-0.7376068	0	11.68	20026	0	0	5	5	0.02	-0.170536	1	10	0.03	2000	-2.225983	40.92393	-91.39365
252218	20	-2	-2	0.2500166	-0.02414891	-0.7312484	0	11.68	20026	0	0	5	5	0.02	-0.1878587	1	10	0.03	2000	-2.231354	40.92393	-91.39365
252279	15	4	-4	0.2566711	-0.02482154	-0.7302091	0	11.68	20026	0	0	5	5	0.02	-0.1909559	1	10	0.03	2000	-2.231354	40.92393	-91.39365
252430	26	-1	0	0.2591553	-0.02566468	-0.7229332	0	11.68	20026	0	0	5	5	0.02	-0.194722	1	10	0.03	2000	-2.471252	40.92393	-91.39365
252485	14	0	-1	0.2599882	-0.02652377	-0.7223829	0	11.68	20026	0	0	5	5	0.02	-0.1968497	1	10	0.03	2000	-2.475647	40.92393	-91.39365
252587	28	-5	-4	0.2528264	-0.02819938	-0.7187757	0	11.63	20026	0	0	5	5	0.02	-0.1963981	1	10	0.03	2000	-2.242218	40.92393	-91.39365
252716	16	0	3	0.2540966	-0.0280163	-0.7133343	0	11.63	20026	0	0	5	5	0.02	-0.1905772	1	10	0.03	2000	-2.468353	40.92393	-91.39365
252812	20	-5	-1	0.2587145	-0.02366386	-0.707709	0	11.63	20026	0	0	5	5	0.02	-0.1943484	1	10	0.03	2000	-2.242157	40.92393	-91.39365
252932	21	-2	-4	0.2566031	-0.02061649	-0.7045296	0	11.63	20026	0	0	5	5	0.02	-0.2095748	1	10	0.03	2000	-2.472076	40.92393	-91.39365
252992	17	0	-6	0.2564432	-0.02169378	-0.7023898	0	11.63	20026	0	0	5	5	0.02	-0.2153465	1	10	0.03	2000	-2.472076	40.92393	-91.39365
253178	17	-3	0	0.2615702	-0.01948748	-0.6937081	0	11.63	20026	0	0	5	5	0.02	-0.2130363	1	10	0.03	2000	-2.489746	40.92393	-91.39365
253266	19	2	-2	0.2635142	-0.01764179	-0.6918129	0	11.63	20026	0	0	5	5	0.02	-0.2102803	1	10	0.03	2000	-2.492676	40.92393	-91.39365
253325	22	-3	-4	0.2612689	-0.01550443	-0.6875944	0	11.63	20026	0	0	5	5	0.02	-0.2070308	1	10	0.03	2000	-2.259583	40.92393	-91.39365
253398	24	-4	-1	0.2652865	-0.02118115	-0.6827643	0	11.63	20026	0	0	5	5	0.02	-0.2052378	1	10	0.03	2000	-2.490204	40.92393	-91.39365
253517	22	0	0	0.2644513	-0.01852339	-0.6773229	0	11.63	20026	0	0	5	5	0.02	-0.2047211	1	10	0.03	2000	-2.485413	40.92393	-91.39365
253693	24	0	0	0.2675205	-0.02167071	-0.667785	0	11.63	20026	0	0	5	5	0.02	-0.1900573	1	10	0.03	2000	-2.260132	40.92393	-91.39365
253722	24	0	0	0.2675205	-0.02167071	-0.667785	0	11.63	20026	0	0	5	5	0.02	-0.1900573	1	10	0.03	2000	-2.260132	40.92393	-91.39365
253810	21	-1	-3	0.2710859	-0.02254852	-0.6633219	0	11.63	20026	0	0	5	5	0.02	-0.1838039	1	10	0.03	2000	-2.273987	40.92393	-91.39365
253908	24	-3	0	0.2776795	-0.0178156	-0.6602649	0	11.63	20026	0	0	5	5	0.02	-0.1812465	1	10	0.03	2000	-2.504425	40.92393	-91.39365
254035	28	0	0	0.2800756	-0.01688631	-0.6576969	0	11.63	20026	0	0	5	5	0.02	-0.171408	1	10	0.03	2000	-2.518738	40.92393	-91.39365
254151	31	-3	-7	0.2823893	-0.01700405	-0.6510934	0	11.63	20026	0	0	5	5	0.02	-0.1725087	1	10	0.03	2000	-2.2789	40.92393	-91.39365
254211	23	2	-1	0.2825033	-0.01448628	-0.6510323	0	11.63	20026	0	0	5	5	0.02	-0.1741232	1	10	0.03	2000	-2.289246	40.92393	-91.39365
254312	23	-1	-1	0.2891802	-0.01380892	-0.6464465	0	11.63	20026	0	0	5	5	0.02	-0.1846666	1	10	0.03	2000	-2.2995	40.92393	-91.39365
254412	21	-1	-4	0.2980198	-0.0142113	-0.6424114	0	11.68	20026	0	0	5	5	0.02	-0.1927653	1	10	0.03	2000	-2.537689	40.92393	-91.39365
254513	22	2	-2	0.2978377	-0.0165876	-0.6403327	0	11.68	20026	0	0	5	5	0.02	-0.2016247	1	10	0.03	2000	-2.542725	40.92393	-91.39365
254622	25	2	0	0.308161	-0.02178071	-0.636848	0	11.68	20026	0	0	5	5	0.02	-0.2069033	1	10	0.03	2000	-2.326538	40.92393	-91.39365
254733	25	0	-4	0.3058625	-0.03121327	-0.6296337	0	11.68	20026	0	0	5	5	0.02	-0.2016364	1	10	0.03	2000	-2.559387	40.92393	-91.39365
254827	22	0	-1	0.3020389	-0.03127101	-0.6254154	0	11.68	20026	0	0	5	5	0.02	-0.1994429	1	10	0.03	2000	-2.561401	40.92393	-91.39365
254934	23	1	-5	0.2990882	-0.02841345	-0.622114	0	11.68	20026	0	0	5	5	0.02	-0.1993691	1	10	0.03	2000	-2.561401	40.92393	-91.39365
255037	22	3	-3	0.2988375	-0.02967069	-0.6164892	0	11.68	20026	0	0	5	5	0.02	-0.2039465	1	10	0.03	2000	-2.543976	40.92393	-91.39365
255155	24	1	0	0.2976963	-0.02971496	-0.6111093	0	11.68	20026	0	0	5	5	0.02	-0.2101221	1	10	0.03	2000	-2.304535	40.92393	-91.39365
255268	18	-2	-1	0.2983065	-0.02792816	-0.6108036	0	11.68	20026	0	0	5	5	0.02	-0.2169066	1	10	0.03	2000	-2.549286	40.92393	-91.39365
255299	25	1	-4	0.2965194	-0.02814416	-0.6086025	0	11.68	20026	0	0	5	5	0.02	-0.2193548	1	10	0.03	2000	-2.314728	40.92393	-91.39365
255375	20	-4	-3	0.2876906	-0.02555835	-0.6069518	0	11.68	20026	0	0	5	5	0.02	-0.2164592	1	10	0.03	2000	-2.521057	40.92393	-91.39365
255504	18	-5	0	0.2872947	-0.02515427	-0.6040169	0	11.68	20026	0	0	5	5	0.02	-0.2042312	1	10	0.03	2000	-2.756165	40.92393	-91.39365
255580	26	-2	-4	0.2809691	-0.02394509	-0.6034666	0	11.68	20026	0	0	5	5	0.02	-0.199123	1	10	0.03	2000	-2.524323	40.92393	-91.39365
255677	19	-2	0	0.2807548	-0.02679217	-0.6010209	0	11.68	20026	0	0	5	5	0.02	-0.1987215	1	10	0.03	2000	-2.300049	40.92393	-91.39365
255858	23	-6	-5	0.2705457	-0.03065429	-0.5933779	0	11.68	20026	0	0	5	5	0.02	-0.2085657	1	10	0.03	2000	-2.278198	40.92393	-91.39365
255892	23	-6	-5	0.2705457	-0.03065429	-0.5933779	0	11.68	20026	0	0	5	5	0.02	-0.209985	1	10	0.03	2000	-2.271637	40.92393	-91.39365
255989	22	-2	-4	0.2669571	-0.02388567	-0.5887927	0	11.68	20026	0	0	5	5	0.02	-0.2129805	1	10	0.03	2000	-2.498749	40.92393	-91.39365
256085	19	-1	-2	0.2631662	-0.01788615	-0.5853692	0	11.68	20026	0	0	5	5	0.02	-0.218292	1	10	0.03	2000	-2.252594	40.92393	-91.39365
256187	25	0	-2	0.2585215	-0.01743844	-0.5824956	0	11.74	20026	0	0	5	5	0.02	-0.2203955	1	10	0.03	2000	-2.483185	40.92393	-91.39365
256295	11	-1	-4	0.2574289	-0.01139256	-0.5796221	0	11.74	20026	0	0	5	5	0.02	-0.224211	1	10	0.03	2000	-2.480133	40.92393	-91.39365
256411	18	2	0	0.2558516	-0.01170204	-0.5750366	0	11.74	20026	0	0	5	5	0.02	-0.224647	1	10	0.03	2000	-2.247528	40.92393	-91.39365
256509	25	-2	1	0.259702	-0.02114218	-0.572102	0	11.74	20026	0	0	5	5	0.02	-0.2236154	1	10	0.03	2000	-2.483948	40.92393	-91.39365
256618	26	-4	0	0.2570852	-0.02249976	-0.5681279	0	11.74	20026	0	0	5	5	0.02	-0.2225734	1	10	0.03	2000	-2.715912	40.92393	-91.39365
256745	24	-3	-4	0.2546451	-0.02785606	-0.5651926	0	11.74	20026	0	0	5	5	0.02	-0.2272149	1	10	0.03	2000	-2.259247	40.92393	-91.39365
256855	25	1	6	0.254505	-0.02332265	-0.5620129	0	11.74	20026	0	0	5	5	0.02	-0.2315599	1	10	0.03	2000	-2.467438	40.92393	-91.39365
256949	11	0	-3	0.253651	-0.02653042	-0.5597508	0	11.74	20026	0	0	5	5	0.02	-0.2354586	1	10	0.03	2000	-2.248535	40.92393	-91.39365
257092	24	6	0	0.2502543	-0.02563848	-0.5522918	0	11.68	20026	0	0	5	5	0.02	-0.2414126	1	10	0.03	2000	-2.242432	40.92393	-91.39365
257250	21	0	-5	0.2486359	-0.02898168	-0.5461165	0	11.68	20026	0	0	5	5	0.02	-0.2397839	1	10	0.03	2000	-2.465118	40.92393	-91.39365
257299	24	-4	0	0.2517036	-0.02403136	-0.5457497	0	11.68	20026	0	0	5	5	0.02	-0.2371643	1	10	0.03	2000	-2.241302	40.92393	-91.39365
257359	18	1	-3	0.2480788	-0.02202143	-0.5444046	0	11.68	20026	0	0	5	5	0.02	-0.2327557	1	10	0.03	2000	-2.241302	40.92393	-91.39365
257448	24	-4	0	0.2531573	-0.02288165	-0.5433653	0	11.68	20026	0	0	5	5	0.02	-0.2326648	1	10	0.03	2000	-2.482849	40.92393	-91.39365
257569	20	0	-3	0.2494086	-0.01738562	-0.5395137	0	11.68	20026	0	0	5	5	0.02	-0.2314498	1	10	0.03	2000	-2.237915	40.92393	-91.39365
257675	27	-2	0	0.2518353	-0.01999558	-0.5368236	0	11.68	20026	0	0	5	5	0.02	-0.2296417	1	10	0.03	2000	-2.241241	40.92393	-91.39365
257758	18	0	0	0.2515976	-0.01598447	-0.5344393	0	11.68	20026	0	0	5	5	0.02	-0.2261633	1	10	0.03	2000	-2.474945	40.92393	-91.39365
257844	12	-1	-2	0.2552466	-0.01421921	-0.5330331	0	11.68	20026	0	0	5	5	0.02	-0.2216418	1	10	0.03	2000	-2.238953	40.92393	-91.39365
257966	21	0	0	0.2559516	-0.01616658	-0.5314435	0	11.68	20026	0	0	5	5	0.02	-0.2033869	1	10	0.03	2000	-2.248596	40.92393	-91.39365
258063	21	-1	2	0.2504112	-0.01282879	-0.5293034	0	11.68	20026	0	0	5	5	0.02	-0.1991581	1	10	0.03	2000	-2.462616	40.92393	-91.39365
258172	24	-8	-4	0.2579847	-0.01172614	-0.5258796	0	11.68	20026	0	0	5	5	0.02	-0.1987825	1	10	0.03	2000	-2.250061	40.92393	-91.39365
258253	22	0	-1	0.2621006	-0.01191265	-0.5241677	0	11.68	20026	0	0	5	5	0.02	-0.2076512	1	10	0.03	2000	-2.49649	40.92393	-91.39365
258338	22	2	0	0.2595558	-0.01336581	-0.5241066	0	11.68	20026	0	0	5	5	0.02	-0.2096048	3	10	0.03	2000	-2.475647	40.92393	-91.39365
258448	25	1	3	0.2617263	-0.01430827	-0.5192766	0	11.68	20026	0	0	5	5	0.02	-0.2116254	3	10	0.03	2000	-2.482361	40.92393	-91.39365
258507	28	-4	-4	0.2617994	-0.01644806	-0.5187876	0	11.68	20026	0	0	5	5	0.02	-0.2123116	3	10	0.03	2000	-2.478607	40.92393	-91.39365
258607	16	-8	-1	0.2703399	-0.01549213	-0.5145688	0	11.68	20026	0	0	5	5	0.02	-0.2090582	3	10	0.03	2000	-2.270447	40.92393	-91.39365
258714	19	10	11	0.2649435	-0.01661294	-0.5135291	0	11.68	20026	0	0	5	5	0.02	-0.2091316	3	10	0.03	2000	-2.26123	40.92393	-91.39365
258803	22	22	41	0.2672927	-0.02147319	-0.5108396	0	11.68	20026	0	0	5	5	0.02	-0.2120684	3	10	0.03	2000	-2.279938	40.92393	-91.39365
258918	18	0	-25	0.2547695	-0.02860424	-0.5080873	0	11.68	20026	0	0	5	5	0.02	-0.2139552	3	10	0.03	2000	-2.285004	40.92393	-91.39365
259056	21	-23	-34	0.253777	-0.03678871	-0.503618	0	11.68	20026	0	0	5	5	0.02	-0.2030475	3	10	0.03	2000	-3.157013	40.92393	-91.39365
259109	10	-33	-61	0.2543436	-0.02615461	-0.49243	0	11.68	20026	0	0	5	5	0.02	-0.2024433	3	10	0.03	2000	-3.157013	40.92393	-91.39365
259224	27	-6	-36	0.2654754	-0.02510066	-0.4923666	0	11.68	20026	0	0	5	5	0.02	-0.2010685	3	10	0.03	2000	-2.911987	40.92393	-91.39365
259302	9	1	41	0.2675813	-0.02993237	-0.5036786	0	11.68	20026	0	0	5	5	0.02	-0.1956821	3	10	0.03	2000	-3.108368	40.92393	-91.39365
259479	9	-6	-35	0.2620426	-0.03856138	-0.4967754	0	11.68	20026	0	0	5	5	0.02	-0.1817012	3	10	0.03	2000	-3.087555	40.92393	-91.39365
259590	26	10	0	0.2747284	-0.04470038	-0.4987362	0	11.68	20026	0	0	5	5	0.02	-0.1714207	3	10	0.03	2000	-3.126862	40.92393	-91.39365
259645	11	0	25	0.266372	-0.04517276	-0.4972686	0	11.68	20026	0	0	5	5	0.02	-0.1690007	3	10	0.03	2000	-2.898468	40.92393	-91.39365
259719	11	-10	-15	0.2678242	-0.0364057	-0.4961687	0	11.68	20026	0	0	5	5	0.02	-0.1578743	3	10	0.03	2000	-2.917542	40.92393	-91.39365
259857	31	0	7	0.2640257	-0.02692383	-0.4953115	0	11.74	20026	0	0	5	5	0.02	-0.1448658	3	10	0.03	2000	-3.312775	40.92393	-91.39365
259980	18	-20	-14	0.2578834	-0.02989408	-0.4919498	0	11.74	20026	0	0	5	5	0.02	-0.1330723	3	10	0.03	2000	-3.083984	40.92393	-91.39365
260041	10	-14	-24	0.262676	-0.03248354	-0.4907887	0	11.74	20026	0	0	5	5	0.02	-0.1319031	3	10	0.03	2000	-3.081635	40.92393	-91.39365
260115	36	8	-25	0.2512792	-0.04154859	-0.4955567	0	11.74	20026	0	0	5	5	0.02	-0.1348751	3	10	0.03	2000	-3.098602	40.92393	-91.39365
260182	31	2	-40	0.2557233	-0.03280535	-0.4833912	0	11.74	20026	0	0	5	5	0.02	-0.136512	3	10	0.03	2000	-3.128418	40.92393	-91.39365
260312	35	8	-16	0.2184375	-0.0345243	-0.4805026	0	11.74	20026	0	0	5	5	0.02	-0.1322609	3	10	0.03	2000	-2.864227	40.92393	-91.39365
260426	41	-27	-29	0.2455882	-0.05962387	-0.4901655	0	11.74	20026	0	0	5	5	0.02	-0.1238376	3	10	0.03	2000	-3.029816	40.92393	-91.39365
260469	26	15	17	0.2234337	-0.03375585	-0.4922412	0	11.74	20026	0	0	5	5	0.02	-0.1187148	3	10	0.03	2000	-2.856171	40.92393	-91.39365
260560	72	101	4	0.2374702	-0.008852222	-0.4943227	0	11.74	20026	0	0	5	5	0.02	-0.1140832	3	10	0.03	2000	-2.506195	40.92393	-91.39365
260663	-13	-25	30	0.2013869	0.003389131	-0.4981782	0	11.63	20026	0	0	5	5	0.02	-0.1064707	3	10	0.03	2000	-3.109711	40.92393	-91.39365
260772	184	140	48	0.1635029	0.00330925	-0.5080663	0	11.63	20026	0	0	5	5	0.02	-0.1037229	3	10	0.03	2000	-2.331268	40.92393	-91.39365
260863	24	-90	-129	0.1559883	-0.03235065	-0.503907	0	11.63	20026	0	0	5	5	0.02	-0.1016361	3	10	0.03	2000	-3.220184	40.92393	-91.39365
260983	-147	-57	-44	0.1678505	-0.0467085	-0.4917316	0	11.63	20026	0	0	5	5	0.02	-0.1008661	3	10	0.03	2000	-2.076935	40.92393	-91.39365
261048	-232	-123	-57	0.1858851	-0.06747097	-0.4984542	0	11.63	20026	0	0	5	5	0.02	-0.09970068	3	10	0.03	2000	-2.076935	40.92393	-91.39365
261176	71	158	-40	0.1238314	-0.08339421	-0.498641	0	11.63	20026	0	0	5	5	0.02	-0.1064335	3	10	0.03	2000	-3.209595	40.92393	-91.39365
261290	0	182	-163	0.1367601	-0.1038767	-0.4954031	0	11.63	20026	0	0	5	5	0.02	-0.1105172	3	10	0.03	2000	-2.93811	40.92393	-91.39365
261403	107	103	-187	0.1564307	-0.120918	-0.4880135	0	11.63	20026	0	0	5	5	0.02	-0.1145959	3	10	0.03	2000	-2.331573	40.92393	-91.39365
261470	73	-15	-132	0.1719866	-0.07602744	-0.4900922	0	11.63	20026	0	0	5	5	0.02	-0.1193342	3	10	0.03	2000	-2.501617	40.92393	-91.39365
261556	-58	-109	126	0.1992252	-0.1209835	-0.4892292	0	11.74	20026	0	0	5	5	0.02	-0.1269392	3	10	0.03	2000	-3.177216	40.92393	-91.39365
261709	58	-222	114	0.1784767	-0.092523	-0.4885016	0	11.74	20026	0	0	5	5	0.02	-0.1418628	3	10	0.03	2000	-2.146057	40.92393	-91.39365
261841	90	62	8	0.1441011	-0.05184232	-0.4856982	0	11.74	20026	0	0	5	5	0.02	-0.1795057	3	10	0.03	2000	-2.718475	40.92393	-91.39365
261997	219	78	-18	0.107312	-0.08049282	-0.4847237	0	11.74	20026	0	0	5	5	0.02	-0.2049831	3	10	0.03	2000	-2.188721	40.92393	-91.39365
262148	-22	71	-158	0.08714227	-0.007767309	-0.4863732	0	11.74	20026	0	0	5	5	0.02	-0.225147	3	10	0.03	2000	-3.193237	40.92393	-91.39365
262289	50	275	-164	0.1076019	-0.08862194	-0.4754261	0	11.74	20026	0	0	5	5	0.02	-0.2312687	3	10	0.03	2000	-2.703552	40.92393	-91.39365
262362	-65	-52	82	0.1051117	-0.07449649	-0.495114	0	11.74	20026	0	0	5	5	0.02	-0.2270887	3	10	0.03	2000	-2.004028	40.92393	-91.39365
262448	-3	-152	52	0.1119605	-0.07130148	-0.4963342	0	11.63	20026	0	0	5	5	0.02	-0.2241879	3	10	0.03	2000	-3.110229	40.92393	-91.39365
262597	9	-283	61	0.1259026	-0.1377932	-0.4861271	0	11.63	20026	0	0	5	5	0.02	-0.2211708	3	10	0.03	2000	-2.471405	40.92393	-91.39365
262663	94	148	8	0.1136759	-0.1329764	-0.4899739	0	11.63	20026	0	0	5	5	0.02	-0.2244703	3	10	0.03	2000	-3.151886	40.92393	-91.39365
262788	0	-207	67	0.1406495	-0.106837	-0.4814751	0	11.63	20026	0	0	5	5	0.02	-0.2253365	3	10	0.03	2000	-2.718903	40.92393	-91.39365
262847	97	-63	-17	0.1593186	-0.1085418	-0.4845294	0	11.63	20026	0	0	5	5	0.02	-0.2271707	3	10	0.03	2000	-2.750214	40.92393	-91.39365
263041	292	232	-40	0.1014992	-0.01985591	-0.4843499	0	11.63	20026	0	0	5	5	0.02	-0.2203466	3	10	0.03	2000	-2.8797	40.92393	-91.39365
263087	99	-6	-5	0.1048601	-0.07077055	-0.4846011	0	11.63	20026	0	0	5	5	0.02	-0.2163103	3	10	0.03	2000	-2.891327	40.92393	-91.39365
263159	125	93	-176	0.08982625	-0.02942787	-0.4855169	0	11.63	20026	0	0	5	5	0.023145	-0.2023913	6	10	0.03	2000	-2.451935	40.92393	-91.39365
263254	80	159	-62	0.1511547	-0.07099303	-0.4828823	0	11.63	20026	0	0	5	5	0.02852295	-0.1916404	6	10	0.03	2000	-2.4487	40.92393	-91.39365
263345	-126	-263	12	0.1534141	-0.06121522	-0.4859481	0	11.74	20026	0	0	5	5	0.03614362	-0.1756972	6	10	0.03	2000	-2.948242	40.92393	-91.39365
263470	-77	-54	-136	0.1560348	-0.05397874	-0.4987184	0	11.74	20026	0	0	5	5	0.04029165	-0.166431	6	10	0.03	2000	-3.048981	40.92393	-91.39365
263544	81	92	142	0.08404803	-0.1417953	-0.5125407	0	11.74	20026	0	0	5	5	0.04241174	-0.1593191	6	10	0.03	2000	-2.961792	40.92393	-91.39365
263687	139	6	-125	0.05298939	-0.1979577	-0.5024602	0	11.74	20026	0	0	5	5	0.0453927	-0.1405287	6	10	0.03	2000	-3.079437	40.92393	-91.39365
263741	-172	-148	269	-0.01599246	-0.1864422	-0.5041056	0	11.74	20026	0	0	5	5	0.04527812	-0.1381106	6	10	0.03	2000	-2.516815	40.92393	-91.39365
263898	49	-83	74	-0.09467659	-0.2322782	-0.5316705	0	11.74	20026	0	0	5	5	0.04780557	-0.1381137	6	10	0.03	2000	-2.260651	40.92393	-91.39365
263955	-62	-147	-6	-0.08141847	-0.2165484	-0.5368035	0	11.74	20026	0	0	5	5	0.04810699	-0.1403286	6	10	0.03	2000	-2.629181	40.92393	-91.39365
264037	-25	-121	13	-0.1956283	-0.1822244	-0.5416191	0	11.74	20026	0	0	5	5	0.04855694	-0.1394728	6	10	0.03	2000	-2.253693	40.92393	-91.39365
264138	-66	-13	-156	-0.1855529	-0.2165499	-0.5210285	0	11.74	20026	0	0	5	5	0.04944386	-0.1358355	6	10	0.03	2000	-1.975769	40.92393	-91.39365
264244	138	44	-385	-0.1036711	-0.1317456	-0.5144217	0	11.11	20026	0	0	5	5	0.05029214	-0.1363215	6	10	0.03	2000	-2.10141	40.92393	-91.39365
264355	-151	-84	371	-0.1917167	-0.07768834	-0.5327379	0	11.11	20026	0	0	5	5	0.05080143	-0.1429699	6	10	0.03	2000	-1.743408	40.92393	-91.39365
264498	94	-7	-438	-0.2187173	-0.1181027	-0.4861962	0	11.11	20026	0	0	5	5	0.04855576	-0.1568677	6	10	0.03	2000	-1.750366	40.92393	-91.39365
264574	-124	64	129	-0.2823239	-0.1174408	-0.5440642	0	11.11	20026	0	0	5	5	0.04804287	-0.1698175	6	10	0.03	2000	-1.844543	40.92393	-91.39365
264702	-108	187	567	-0.2486502	-0.08480947	-0.4971122	0	11.11	20026	0	0	5	5	0.04924506	-0.1711204	6	10	0.03	2000	-2.356476	40.92393	-91.39365
264736	265	102	-643	-0.2460844	-0.1042079	-0.435368	0	11.11	20026	0	0	5	5	0.04985951	-0.1660108	6	10	0.03	2000	-1.930695	40.92393	-91.39365
264797	-2	-238	200	-0.1613906	0.08830765	-0.4537599	0	11.11	20026	0	0	5	5	0.05035721	-0.1590585	6	10	0.03	2000	-1.930695	40.92393	-91.39365
264935	119	121	-627	-0.04867265	0.2127398	-0.5961449	0	11.11	20026	0	0	5	5	0.05082621	-0.1290406	6	10	0.03	2000	-3.510864	40.92393	-91.39365
264997	-17	-76	772	-0.02346414	0.13642	-0.7263795	0	11.11	20026	0	0	5	5	0.05114025	-0.1110409	6	10	0.03	2000	-3.510864	40.92393	-91.39365
265126	-125	9	-135	-0.1222035	-0.01056011	-1.146095	0	11.4	20026	0	0	5	5	0.05113588	-0.08795064	6	10	0.03	2000	-1.276611	40.92393	-91.39365
265199	-59	-66	-236	-0.01482143	0.1872533	-1.034706	0	11.4	20026	0	0	5	5	0.05139107	-0.05845389	6	10	0.03	2000	-1.925812	40.92393	-91.39365
265300	-13	-419	349	0.02253557	0.3972951	-1.128194	0	11.4	20026	0	0	5	5	0.05149999	-0.03743361	6	10	0.03	2000	-2.730591	40.92393	-91.39365
265469	-85	342	441	0.6844121	1.203679	-0.1262914	0	11.4	20026	0	0	5	5	0.05183275	-0.02424302	6	10	0.03	2000	-2.753967	40.92393	-91.39365
265632	1213	2777	-151	0.4504628	-2.135139	0.5737808	0	11.4	20026	0	0	5	5	0.05433886	-0.00292896	6	10	0.03	2000	-1.863434	40.92393	-91.39365
265815	-8	-1343	439	0.8777962	-1.076021	0.3476521	0	11.4	20026	0	0	5	5	0.07512282	0.01702042	6	10	0.03	2000	-0.5872498	40.92393	-91.39365
265939	671	-311	-727	1.603496	-0.5890335	0.6251492	0	11.4	20026	0	0	5	5	0.1171355	0.02851567	6	10	0.03	2000	-1.517517	40.92393	-91.39365
266012	-1504	-253	-502	1.628757	-1.725822	0.9192556	0	11.4	20026	0	0	5	5	0.1379572	0.03580602	6	10	0.03	2000	-0.01202393	40.92393	-91.39365
266109	138	-432	187	0.8233297	-2.445235	1.200358	0	11.4	20026	0	0	5	5	0.1759484	0.04363665	6	10	0.03	2000	-2.731354	40.92393	-91.39365
266279	1568	-2098	822	1.595337	-0.6118406	0.4096344	0	11.4	20016	-67	168	5	5	0.1465588	0.05963129	8	10	0.03	2000	-2.510162	40.92393	-91.39365
266437	1184	-2212	35	1.407528	9.871456	1.411021	0	11.4	20052	-108	174	5	5	0.08654151	0.1152695	8	10	0.03	2000	-0.02441406	40.92393	-91.39365
266555	-55	-2229	708	5.358679	8.232698	1.131299	0	11.4	20032	-108	174	5	5	0.06308876	0.1588924	8	10	0.03	2000	1.205882	40.92393	-91.39365
266636	-92	-1055	562	6.041163	9.413232	0.849884	0	11.4	20035	-108	167	5	5	0.04599171	0.2043143	8	10	0.03	2000	3.193093	40.92393	-91.39365
266731	1185	1804	-757	6.446492	7.956084	0.8094085	0	11.4	20050	-101	161	5	5	0.03017516	0.2757333	8	10	0.03	2000	4.320326	40.92393	-91.39365
266835	3100	350	642	8.931943	7.343083	1.115584	0	11.4	20011	18	-19	5	5	0.02444188	0.3171178	8	10	0.03	2000	4.374141	40.92393	-91.39365
266933	-3596	6004	817	4.515093	1.774944	0.1723135	0	10.6	20035	31	-39	5	5	0.02	0.3873104	8	10	0.03	2000	9.45096	40.92393	-91.39365
267001	-4087	4203	-1230	2.117097	-1.049187	0.2925944	0	10.6	20039	32	-39	5	5	0.02	0.4470883	8	10	0.03	2000	9.45096	40.92393	-91.39365
267135	-3408	-33	-1796	-0.5025089	-5.769995	2.004466	0	10.6	20024	33	-53	5	5	0.02	0.5133829	8	10	0.03	2000	5.645976	40.92393	-91.39365
267208	758	3367	298	-1.236709	-7.241671	3.607361	0	10.6	20032	33	-47	5	5	0.02	0.5682101	8	10	0.03	2000	3.133567	40.92393	-91.39365
267338	-1945	-1191	319	-0.7966049	-7.6072	2.619658	0	10.6	20036	53	-67	5	5	0.02	0.659721	8	10	0.03	2000	0.9979642	40.92392	-91.39365
267410	-1015	-1447	1598	-0.6390094	-5.005552	1.434377	0	10.6	20011	47	-61	5	5	0.02	0.7187653	8	10	0.03	2000	0.5289356	40.92392	-91.39365
267573	-1014	344	710	-2.335441	-5.148188	1.246788	0	10.6	20043	67	-87	5	5	0.02	0.9776748	8	10	0.03	2000	-1.991211	40.92392	-91.39365
267693	-378	-51	181	-2.765514	-3.071087	0.9316576	0	10.6	20012	75	-83	5	5	0.02	1.070246	8	10	0.03	2000	-2.237396	40.92392	-91.39365
267772	-865	688	-1168	-3.315383	-3.228097	0.9642244	0	10.6	20080	63	-65	5	5	0.02	1.2699	8	10	0.03	2000	-3.838867	40.92392	-91.39365
267894	-1420	-396	277	-4.492152	-4.690461	0.9258137	0	11	20011	83	-85	5	5	0.02	1.350207	8	10	0.03	2000	-5.610382	40.92391	-91.39364
267929	-1317	-903	286	-4.923615	-4.101161	0.8089887	0	11	20040	65	-67	5	5	0.02	1.370512	8	10	0.03	2000	-5.217773	40.92391	-91.39364
268021	603	182	-457	-4.631821	-3.398344	0.8326241	0	11	20033	78	-73	5	5	0.02	1.568598	8	10	0.03	2000	-7.416138	40.92391	-91.39364
268087	-1429	1362	-280	-6.059629	-4.888661	0.1655534	0	11	20028	60	-49	5	5	0.02	1.584765	8	10	0.03	2000	-6.723206	40.92391	-91.39364
268187	492	1032	186	-6.428828	-5.733278	-0.04052331	0	11	20034	67	-56	5	5	0.02	1.703737	8	10	0.03	2000	-7.029938	40.92391	-91.39364
268334	-275	-1705	-729	-5.085785	-3.240484	0.05619382	0	11	20041	49	-44	5	5	0.02	1.930125	8	10	0.03	2000	-8.891602	40.92391	-91.39364
268407	1838	1830	-937	-3.607116	-3.769557	0.5775327	0	11	20037	55	-51	5	5	0.02	1.988325	8	10	0.03	2000	-10.93689	40.92391	-91.39364
268556	-276	-555	926	-2.564328	-5.790115	0.9662249	0	11	20006	44	-39	5	5	0.02	2.092305	8	10	0.03	2000	-9.891785	40.92391	-91.39363
268672	-862	-1928	897	-3.494125	-2.349206	0.1977784	0	11	20035	32	-33	5	5	0.02	2.275243	8	10	0.03	2000	-10.35104	40.92391	-91.39363
268702	-345	-1206	-1046	-3.979033	-1.786305	0.0448346	0	11	20026	32	-33	5	5	0.02	2.275243	8	10	0.03	2000	-9.837891	40.92391	-91.39363
268786	-40	-87	-1566	-2.496383	-3.606024	-0.04956998	0	11.06	20031	32	-33	5	5	0.02	2.365219	8	10	0.03	2000	-10.24524	40.92391	-91.39363
268897	384	-90	-982	-1.952066	-4.878861	0.5674569	0	11.06	20040	19	-14	5	5	0.02	2.416062	8	10	0.03	2000	-10.51404	40.92391	-91.39363
269054	-362	-2296	-996	-2.712494	-3.242162	1.150379	0	11.06	20034	13	-8	5	5	0.02	2.4967	8	10	0.03	2000	-10.67349	40.92391	-91.39364
269153	498	-239	-348	-2.306734	-3.320163	1.238614	0	11.06	20028	7	-1	5	5	0.02	2.545913	8	10	0.03	2000	-11.13757	40.92391	-91.39364
269240	620	-806	-550	-0.8878519	-4.134488	1.775161	0	11.06	20031	1	4	5	5	0.02	2.581368	8	10	0.03	2000	-11.82083	40.92391	-91.39364
269301	-1110	-596	19	-0.7006674	-4.338807	1.958214	0	11.06	20017	-5	10	5	5	0.02	2.626742	8	10	0.03	2000	-12.07242	40.92391	-91.39364
269479	-274	458	917	-2.472079	0.2656486	0.2185889	0	11.06	20030	-5	11	5	5	0.02	2.684086	8	10	0.03	2000	-10.30737	40.92392	-91.39364
269530	514	755	904	-2.528488	-0.1038731	0.1145188	0	11.06	20041	-19	12	5	5	0.02	2.716354	8	10	0.03	2000	-11.1994	40.92392	-91.39364
269610	2487	1178	-99	-1.289063	-1.087389	0.4260365	0	11.06	20036	-19	12	5	5	0.02	2.736122	8	10	0.03	2000	-9.618378	40.92392	-91.39364
269711	-146	64	345	-0.3690701	-1.941066	0.7735096	0	10.89	20034	-32	25	5	5	0.02	2.747287	8	10	0.03	2000	-10.66434	40.92392	-91.39365
269834	-52	-1631	-284	-1.021949	0.6109145	0.7686069	0	10.89	20027	-46	39	5	5	0.02	2.759034	8	10	0.03	2000	-8.893494	40.92392	-91.39365
269950	812	403	287	1.332098	-0.8596541	1.030989	0	10.89	20033	-46	39	5	5	0.02	2.760704	8	10	0.03	2000	-10.64532	40.92392	-91.39365
270011	-384	-732	1131	1.268311	-0.3629225	0.7340048	0	10.89	20035	-40	33	5	5	0.02	2.758273	8	10	0.03	2000	-7.455811	40.92392	-91.39365
270186	-64	-1461	-288	2.104345	0.3189389	0.4602716	0	10.89	20035	-42	34	5	5	0.02	2.726552	8	10	0.03	2000	-6.681244	40.92392	-91.39365
270220	803	242	-575	2.034836	0.2952059	0.5400445	0	10.89	20012	-62	48	5	5	0.02	2.719129	8	10	0.03	2000	-6.681244	40.92393	-91.39365
270340	-446	-1705	-601	1.712658	0.3269683	1.059419	0	10.89	20031	-50	36	5	5	0.02	2.704246	8	10	0.03	2000	-3.701416	40.92393	-91.39365
270425	660	-1038	-32	3.043187	-0.1565318	1.571806	0	10.89	20059	-70	49	5	5	0.02	2.698459	8	10	0.03	2000	-2.227631	40.92393	-91.39365
270539	381	-539	1418	2.57224	1.630114	0.8000348	0	10.89	20032	-52	31	5	5	0.02	2.677384	8	10	0.03	2000	0.6583171	40.92393	-91.39365
270669	1811	902	-610	2.518018	1.062261	1.032546	0	10.55	20030	-72	44	5	5	0.02	2.658766	8	10	0.03	2000	3.696453	40.92393	-91.39365
270760	900	1046	-780	3.929599	-1.03271	1.829409	0	10.55	20030	-67	39	5	5	0.02	2.618893	8	10	0.03	2000	4.123615	40.92393	-91.39365
270817	583	-105	16	3.841067	-1.304139	1.696219	0	10.55	20023	-68	39	5	5	0.02	2.611554	8	10	0.03	2000	8.401768	40.92393	-91.39365
270943	1741	-825	-125	3.139497	0.4705335	0.7216046	0	10.55	20032	-50	27	5	5	0.02	2.578075	8	10	0.03	2000	11.36351	40.92393	-91.39365
271009	-218	-886	492	4.012455	1.062108	0.2137026	0	10.55	20030	-50	27	5	5	0.02	2.550017	8	10	0.03	2000	12.90603	40.92393	-91.39365
271118	978	1143	887	3.633497	0.8216051	0.2596968	0	10.55	20006	-32	15	5	5	0.02	2.520296	8	10	0.03	2000	15.90923	40.92393	-91.39366
271218	493	-1200	26	2.327954	0.08542595	1.140559	0	10.55	20076	-40	20	5	5	0.02	2.499687	8	10	0.03	2000	21.0219	40.92393	-91.39366
271352	289	238	-920	1.307955	0.7000859	1.113005	0	10.55	20009	-33	16	5	5	0.02	2.47452	8	10	0.03	2000	21.60376	40.92393	-91.39366
271420	1116	494	-353	1.796272	0.1804742	1.025376	0	10.55	20010	-33	16	5	5	0.02	2.463733	8	10	0.03	2000	26.79494	40.92393	-91.39366
271588	1350	1435	1633	1.189881	0.04587855	1.264475	0	10.15	20044	-15	4	5	5	0.02	2.445632	8	10	0.03	2000	29.50224	40.92393	-91.39366
271692	-1553	-440	413	0.8145481	-0.6866317	0.6844088	0	10.15	20011	-8	-2	5	5	0.02	2.443839	8	10	0.03	2000	29.13163	40.92393	-91.39366
271807	1389	1161	-33	0.3025167	-1.015423	0.6499004	0	10.15	20034	9	-14	5	5	0.02	2.441209	8	10	0.03	2000	28.55229	40.92393	-91.39366
271852	1630	1440	-732	0.784291	-1.494176	0.8431476	0	10.15	20031	9	-14	5	5	0.02	2.442257	8	10	0.03	2000	28.55229	40.92393	-91.39366
271974	-2326	-1897	-866	-0.7026091	-1.561137	1.66528	0	10.15	20034	29	-27	5	5	0.02	2.452552	8	10	0.03	2000	27.38683	40.92393	-91.39365
272097	-723	1196	-931	-2.307627	-2.018407	1.206189	0	10.15	20029	49	-47	5	5	0.02	2.472271	8	10	0.03	2000	26.99725	40.92393	-91.39365
272191	-702	1350	-350	-0.7067717	-6.621131	1.87609	0	10.15	20055	43	-41	5	5	0.02	2.501014	8	10	0.03	2000	20.06353	40.92393	-91.39365
272302	-1676	351	651	-2.068894	-6.231418	1.671679	0	10.15	20046	63	-49	5	5	0.02	2.522374	8	10	0.03	2000	18.89123	40.92392	-91.39365
272369	-1325	24	737	-3.060762	-5.143661	1.324524	0	10.15	20010	63	-49	5	5	0.02	2.542241	8	10	0.03	2000	18.68649	40.92392	-91.39365
272549	-1521	567	718	-4.323618	-4.386911	1.282573	0	11.46	20036	72	-57	5	5	0.02	2.583058	8	10	0.03	2000	9.63972	40.92392	-91.39365
272686	-1675	1414	-75	-4.602686	-5.027046	0.8367811	0	11.46	20032	87	-59	5	5	0.02	2.612377	8	10	0.03	2000	3.435217	40.92392	-91.39365
272780	-337	715	245	-4.639894	-4.558135	0.6404241	0	11.46	20030	114	-79	5	5	0.02	2.623778	8	10	0.03	2000	-0.76474	40.92391	-91.39364
272857	-1244	1237	-54	-6.383463	-4.812089	0.1332558	0	11.46	20008	90	-67	5	5	0.02	2.640813	8	10	0.03	2000	-2.579224	40.92391	-91.39364
272893	583	1959	702	-5.778928	-5.32602	-0.007359866	0	11.46	20032	116	-86	5	5	0.02	2.642936	8	10	0.03	2000	-2.579224	40.92391	-91.39364
273076	-1293	-935	-81	-6.212052	-6.689791	0.3162063	0	11.46	20052	119	-88	5	5	0.02	2.647106	8	10	0.03	2000	-6.205536	40.92391	-91.39363
273251	-1448	452	579	-5.350739	-6.93442	1.283652	0	11.46	20008	89	-71	5	5	0.02	2.633664	8	10	0.03	2000	-8.409943	40.92391	-91.39363
273287	-2182	-904	547	-6.397394	-6.375037	0.8858967	0	11.46	20009	109	-90	5	5	0.02	2.631306	8	10	0.03	2000	-9.844238	40.92391	-91.39362
273358	-1366	49	1161	-7.591036	-4.943072	0.4131113	0	11.34	20024	109	-91	5	5	0.02	2.620169	8	10	0.03	2000	-10.87259	40.92391	-91.39362
273489	204	558	696	-6.631312	-4.828847	0.4420468	0	11.34	20009	92	-92	5	5	0.02	2.605223	8	10	0.03	2000	-13.10373	40.9239	-91.39362
273552	1016	2175	-234	-4.252537	-7.273274	1.007113	0	11.34	20057	68	-74	5	5	0.02	2.601791	8	10	0.03	2000	-13.7532	40.9239	-91.39362
273716	-247	-877	89	-6.374519	-5.237348	0.9384974	0	11.34	20036	51	-70	5	5	0.02	2.561762	8	10	0.03	2000	-13.66354	40.9239	-91.39362
273781	1042	-320	724	-5.590061	-4.793959	0.966556	0	11.34	20083	51	-70	5	5	0.02	2.548914	8	10	0.03	2000	-14.98846	40.9239	-91.39362
273893	1634	1681	-1771	-3.354559	-7.039262	0.9333671	0	11.34	20028	32	-52	5	5	0.02	2.507924	8	10	0.03	2000	-14.84558	40.9239	-91.39362
273949	-572	-257	-1481	-2.481919	-6.876339	1.318043	0	11.34	20030	32	-52	5	5	0.02	2.480161	8	10	0.03	2000	-15.29092	40.9239	-91.39362
274103	-896	-1122	1054	-3.580616	-4.902954	1.032616	0	11.34	20030	13	-27	5	5	0.02	2.408213	8	10	0.03	2000	-14.47647	40.9239	-91.39362
274220	1516	363	-474	-2.506067	-4.726456	1.140899	0	11.34	20035	-6	-20	5	5	0.02	2.37404	8	10	0.03	2000	-14.27997	40.9239	-91.39363
274258	1516	363	-474	-1.349796	-4.496164	1.344413	0	10.43	20032	-6	-20	5	5	0.02	2.357557	8	10	0.03	2000	-13.59229	40.9239	-91.39363
274355	-39	-1639	114	-2.059228	-1.65051	1.010698	0	10.43	20032	-12	-8	5	5	0.02	2.333428	8	10	0.03	2000	-11.61554	40.9239	-91.39363
274487	855	-1007	-430	-2.190922	-0.03610581	0.2954103	0	10.43	20058	-32	-2	5	5	0.02	2.283598	8	10	0.03	2000	-10.50162	40.9239	-91.39363
274570	654	-762	-1814	-1.608428	0.8492742	0.4807669	0	10.43	20037	-59	11	5	5	0.02	2.256149	8	10	0.03	2000	-10.4523	40.92391	-91.39364
274659	1131	-43	-1066	-0.3792983	-0.08029608	0.9345133	0	10.43	20027	-59	11	5	5	0.02	2.244961	8	10	0.03	2000	-10.45209	40.92391	-91.39364
274795	1063	-1166	-1055	1.090833	-2.102645	1.427865	0	10.43	20012	-73	25	5	5	0.02	2.233722	8	10	0.03	2000	-10.39035	40.92391	-91.39364
274946	2006	-350	1111	3.188274	-1.884052	0.9325938	0	10.43	20035	-82	39	5	5	0.02	2.237028	8	10	0.03	2000	-7.037384	40.92391	-91.39365
275068	-1623	-623	1293	2.629154	-0.9868318	1.084462	0	10.43	20033	-64	33	5	5	0.02	2.245339	8	10	0.03	2000	-5.606934	40.92391	-91.39365
275101	-559	-687	1436	1.60383	-0.6495695	0.9910485	0	10.43	20056	-97	46	5	5	0.02	2.248652	8	10	0.03	2000	-5.606934	40.92391	-91.39365
275253	377	420	1475	2.384981	0.3690261	0.5175282	0	10.94	20055	-73	34	5	5	0.02	2.291285	8	10	0.03	2000	-2.42157	40.92391	-91.39365
275345	1930	-857	-344	3.018935	0.2935522	0.9062151	0	10.94	20007	-107	54	5	5	0.02	2.319118	8	10	0.03	2000	-2.42157	40.92392	-91.39365
275398	1678	-1756	-1400	3.578717	0.5454659	1.328642	0	10.94	20001	-106	54	5	5	0.02	2.326363	8	10	0.03	2000	-1.603485	40.92392	-91.39365
275482	1417	1606	770	5.147446	-0.6120579	1.932765	0	10.94	20028	-109	56	5	5	0.02	2.353189	8	10	0.03	2000	1.291863	40.92392	-91.39365
275616	-887	-3000	497	4.027882	1.37507	0.9927467	0	10.94	20027	-85	38	5	5	0.02	2.387829	8	10	0.03	2000	7.273355	40.92392	-91.39365
275733	953	-269	751	2.9132	2.612487	0.2415342	0	10.94	20014	-105	58	5	5	0.02	2.409155	8	10	0.03	2000	8.905352	40.92392	-91.39366
275853	476	-1075	-71	3.785835	3.610883	0.4582542	0	10.94	20032	-95	59	5	5	0.02	2.428623	8	10	0.03	2000	13.46444	40.92393	-91.39366
275892	1047	-816	-285	3.740365	3.855504	0.5846885	0	10.94	20032	-95	59	5	5	0.02	2.436641	8	10	0.03	2000	16.43999	40.92393	-91.39366
275983	1550	73	-812	5.116045	2.666212	1.193694	0	10.94	20016	-65	41	5	5	0.02	2.441655	8	10	0.03	2000	16.43999	40.92393	-91.39366
276116	-1049	-1806	-316	4.07676	0.8514166	1.426301	0	10.94	20031	-78	54	5	5	0.02	2.447819	8	10	0.03	2000	23.35305	40.92393	-91.39366
276200	-111	-521	704	4.50773	1.878961	0.6824099	0	10.94	20031	-54	36	5	5	0.02	2.448098	8	10	0.03	2000	29.01294	40.92393	-91.39367
276299	1232	-57	776	4.719813	1.041773	0.8473804	0	10.94	20032	-50	32	5	5	0.02	2.451715	8	10	0.03	2000	31.44362	40.92393	-91.39367
276369	195	-190	-350	4.662923	0.3749873	1.19575	0	10.94	20037	-49	32	5	5	0.02	2.456169	8	10	0.03	2000	34.10503	40.92393	-91.39367
276465	-990	-514	593	4.091982	-0.4087563	1.457113	0	10.94	20024	-43	25	5	5	0.02	2.461001	8	10	0.03	2000	38.40192	40.92393	-91.39367
276596	-860	544	1231	2.686006	-0.8072055	1.0209	0	10.94	20013	-14	8	5	5	0.02	2.483564	8	10	0.03	2000	40.63462	40.92393	-91.39366
276688	-307	746	945	1.600232	-2.496377	0.3911636	0	10.94	20009	0	-5	5	5	0.02	2.505045	8	10	0.03	2000	43.7097	40.92393	-91.39366
276814	-536	-1474	-866	1.176203	-0.6723368	0.05448202	0	10.94	20058	13	-18	5	5	0.02	2.526101	8	10	0.03	2000	43.92744	40.92393	-91.39366
276873	-620	1399	-1471	0.8610592	-1.043773	0.4378981	0	10.94	24002	25	-30	5	5	0.02	2.539723	8	10	0.03	2000	45.50177	40.92393	-91.39366
277017	-1645	40	-832	-0.8167242	-2.27105	1.09506	0	10.72	20031	52	-43	5	5	0.02	2.56045	8	10	0.03	2000	41.28372	40.92392	-91.39365
277064	-872	1084	424	-2.108855	-2.291436	1.072611	0	10.72	20047	46	-37	5	5	0.02	2.565097	8	10	0.03	2000	35.83937	40.92392	-91.39365
277212	-892	2658	-103	-2.651793	-4.360796	0.1233416	0	10.72	20053	79	-51	5	5	0.02	2.577815	8	10	0.03	2000	34.22747	40.92392	-91.39365
