time(ms)	gyro_x(deg/s)	gyro_y(deg/s)	gyro_z(deg/s)	orientation_roll(deg)	orientation_pitch(deg)	orientation_yaw(deg)	throttle	battery(V)	loop_time(uS)	pid_output_roll	pid_output_pitch	pid_output_yaw	pid_output_throttle	ultrasonic_alt	baro_alt	flight_mode	p_gain_altitude	i_gain_altitude	d_gain_altitude	compass_heading	latitude	longitude
554891	52	3	-6	0.504801	0.2569382	-3.354193	0	11.11	20054	0	0	5	5	0.02	-0.240015	1	10	0.03	2000	-1.894531	40.92393	-91.39365
554948	51	0	-9	0.5034082	0.2612793	-3.350586	0	11.11	20054	0	0	5	5	0.02	-0.2509279	1	10	0.03	2000	-1.895386	40.92393	-91.39365
555069	51	-2	-10	0.4976952	0.2648253	-3.341599	0	11.11	20054	0	0	5	5	0.02	-0.2565594	1	10	0.03	2000	-2.124054	40.92393	-91.39365
555158	53	-1	-10	0.503152	0.2656718	-3.335179	0	11.11	20054	0	0	5	5	0.02	-0.2651443	1	10	0.03	2000	-1.913361	40.92393	-91.39365
555256	58	-1	-3	0.513043	0.2736742	-3.324235	0	11	20054	0	0	5	5	0.02	-0.2653945	1	10	0.03	2000	-1.903442	40.92393	-91.39365
555360	52	0	-6	0.5097486	0.2732098	-3.317571	0	11	20054	0	0	5	5	0.02	-0.2686056	1	10	0.03	2000	-1.908386	40.92393	-91.39365
555486	55	-2	-3	0.5159512	0.2763754	-3.305894	0	11	20054	0	0	5	5	0.02	-0.263601	1	10	0.03	2000	-1.69928	40.92393	-91.39365
555565	54	0	-4	0.5210736	0.2758633	-3.298863	0	11	20054	0	0	5	5	0.02	-0.2581017	1	10	0.03	2000	-1.923004	40.92393	-91.39365
555715	58	2	-8	0.5255359	0.2728013	-3.291832	0	11	20054	0	0	5	5	0.02	-0.2495774	1	10	0.03	2000	-1.707977	40.92393	-91.39365
555773	50	0	-9	0.5247197	0.2742331	-3.280949	0	11	20054	0	0	5	5	0.02	-0.2500486	1	10	0.03	2000	-1.93689	40.92393	-91.39365
555873	53	5	-7	0.5275972	0.2718165	-3.274223	0	11	20054	0	0	5	5	0.02	-0.2521481	1	10	0.03	2000	-1.936188	40.92393	-91.39365
556007	53	1	-3	0.5263461	0.2715162	-3.26652	0	11	20054	0	0	5	5	0.02	-0.251602	1	10	0.03	2000	-1.716431	40.92393	-91.39365
556089	53	-3	-2	0.5194353	0.2740839	-3.262852	0	11	20054	0	0	5	5	0.02	-0.2535415	1	10	0.03	2000	-1.93454	40.92393	-91.39365
556199	52	-1	-2	0.5151902	0.2781154	-3.256432	0	11.06	20054	0	0	5	5	0.02	-0.2543019	1	10	0.03	2000	-1.922119	40.92393	-91.39365
556356	59	-2	-4	0.5134129	0.2751645	-3.245062	0	11.06	20054	0	0	5	5	0.02	-0.2481093	1	10	0.03	2000	-2.145142	40.92393	-91.39365
556421	52	-7	-8	0.5112916	0.2796437	-3.238091	0	11.06	20054	0	0	5	5	0.02	-0.2456611	1	10	0.03	2000	-1.917389	40.92393	-91.39365
556527	56	4	-5	0.5104228	0.2764115	-3.224457	0	11.06	20054	0	0	5	5	0.02	-0.2428967	1	10	0.03	2000	-1.686279	40.92393	-91.39365
556575	55	0	-11	0.5116265	0.2741097	-3.222072	0	11.06	20054	0	0	5	5	0.02	-0.2400107	1	10	0.03	2000	-2.139099	40.92393	-91.39365
556738	58	-2	-6	0.5112513	0.2765584	-3.21119	0	11.06	20054	0	0	5	5	0.02	-0.2352114	1	10	0.03	2000	-1.912262	40.92393	-91.39365
556815	54	3	-2	0.5129407	0.275222	-3.207154	0	11.06	20054	0	0	5	5	0.02	-0.2334675	1	10	0.03	2000	-1.68573	40.92393	-91.39365
556872	50	-1	-5	0.5130339	0.2759207	-3.200979	0	11.06	20054	0	0	5	5	0.02	-0.2324995	1	10	0.03	2000	-1.911926	40.92393	-91.39365
557035	54	0	-5	0.5159594	0.2764453	-3.191015	0	11.06	20054	0	0	5	5	0.02	-0.2309517	1	10	0.03	2000	-1.924347	40.92393	-91.39365
557082	52	0	-5	0.5163651	0.2759578	-3.188141	0	11.06	20054	0	0	5	5	0.02	-0.2405111	1	10	0.03	2000	-1.924347	40.92393	-91.39365
557234	57	-3	-2	0.5232054	0.2753895	-3.176892	0	11	20054	0	0	5	5	0.02	-0.2507876	1	10	0.03	2000	-1.931305	40.92393	-91.39365
557359	52	0	-4	0.528975	0.2721513	-3.167782	0	11	20054	0	0	5	5	0.02	-0.2700105	1	10	0.03	2000	-1.715424	40.92393	-91.39365
557412	58	-3	-10	0.5312353	0.2735239	-3.163258	0	11	20054	0	0	5	5	0.02	-0.2726611	1	10	0.03	2000	-1.716125	40.92393	-91.39365
557488	60	-2	-3	0.5355639	0.278054	-3.159651	0	11	20054	0	0	5	5	0.02	-0.2780904	1	10	0.03	2000	-2.184784	40.92393	-91.39365
557588	50	-9	-4	0.5391286	0.2800418	-3.152071	0	11	20054	0	0	5	5	0.02	-0.2847995	1	10	0.03	2000	-1.962769	40.92393	-91.39365
557684	49	1	-7	0.5321699	0.2833444	-3.145345	0	11	20054	0	0	5	5	0.02	-0.287728	1	10	0.03	2000	-1.724915	40.92393	-91.39365
557787	57	-3	-9	0.5376053	0.2825706	-3.139658	0	11	20054	0	0	5	5	0.02	-0.2854456	1	10	0.03	2000	-1.94873	40.92393	-91.39365
557908	55	-6	-7	0.5367334	0.2809003	-3.128959	0	11	20054	0	0	5	5	0.02	-0.280803	1	10	0.03	2000	-1.951294	40.92393	-91.39365
557992	51	0	2	0.5384704	0.2743823	-3.122601	0	11	20054	0	0	5	5	0.02	-0.2807084	1	10	0.03	2000	-1.959045	40.92393	-91.39365
558204	52	1	0	0.5337508	0.272963	-3.111473	0	11.06	20054	0	0	5	5	0.02	-0.2889157	1	10	0.03	2000	-1.958801	40.92393	-91.39365
558275	58	-10	-7	0.5446724	0.2710251	-3.103954	0	11.06	20054	0	0	5	5	0.02	-0.2950375	1	10	0.03	2000	-1.948792	40.92393	-91.39365
558328	59	-1	-5	0.5435939	0.2719996	-3.097718	0	11.06	20054	0	0	5	5	0.02	-0.2944579	1	10	0.03	2000	-1.960541	40.92393	-91.39365
558459	55	0	-2	0.5501923	0.2683106	-3.088364	0	11.06	20054	0	0	5	5	0.02	-0.2965372	1	10	0.03	2000	-1.744751	40.92393	-91.39365
558502	48	0	-5	0.5483929	0.2688166	-3.086652	0	11.06	20054	0	0	5	5	0.02	-0.2970509	1	10	0.03	2000	-1.744751	40.92393	-91.39365
558609	65	-3	-3	0.555121	0.2690784	-3.078827	0	11.06	20054	0	0	5	5	0.02	-0.3032823	1	10	0.03	2000	-1.989807	40.92393	-91.39365
558674	59	-7	-11	0.5617061	0.2660228	-3.07259	0	11.06	20054	0	0	5	5	0.02	-0.3090078	1	10	0.03	2000	-1.756775	40.92393	-91.39365
558778	64	-6	-5	0.5709792	0.2718953	-3.066353	0	11.06	20054	0	0	5	5	0.02	-0.3140287	1	10	0.03	2000	-1.771912	40.92393	-91.39365
558905	60	0	-3	0.5629184	0.2695217	-3.057978	0	11.06	20054	0	0	5	5	0.02	-0.3280347	1	10	0.03	2000	-1.994995	40.92393	-91.39365
559107	58	-7	-6	0.573775	0.2672166	-3.041593	0	11	20054	0	0	5	5	0.02	-0.3366846	1	10	0.03	2000	-1.994995	40.92393	-91.39365
559206	69	-5	-9	0.5778669	0.2657674	-3.031383	0	11	20054	0	0	5	5	0.02	-0.3381149	1	10	0.03	2000	-1.785706	40.92393	-91.39365
559324	59	-2	-8	0.5827274	0.2632187	-3.017809	0	11	20054	0	0	5	5	0.02	-0.3269036	1	10	0.03	2000	-1.803162	40.92393	-91.39365
559401	68	-2	-4	0.5864106	0.2651546	-3.011879	0	11	20054	0	0	5	5	0.02	-0.3202555	1	10	0.03	2000	-1.805817	40.92393	-91.39365
559507	58	-5	-7	0.5914042	0.2649626	-3.002707	0	11	20054	0	0	5	5	0.02	-0.3180021	1	10	0.03	2000	-2.041382	40.92393	-91.39365
559661	65	-3	-5	0.5949209	0.2664175	-2.991764	0	11	20054	0	0	5	5	0.02	-0.3117871	1	10	0.03	2000	-2.271698	40.92393	-91.39365
559790	57	-6	-8	0.5933626	0.2746389	-2.978741	0	11	20054	0	0	5	5	0.02	-0.3077053	1	10	0.03	2000	-2.042175	40.92393	-91.39365
559900	60	-3	-7	0.6006824	0.2660276	-2.968591	0	11.06	20054	0	0	5	5	0.02	-0.3038442	1	10	0.03	2000	-1.818329	40.92393	-91.39365
559987	63	-4	-8	0.5987122	0.2606148	-2.96211	0	11.06	20054	0	0	5	5	0.02	-0.2966647	1	10	0.03	2000	-1.829773	40.92393	-91.39365
560093	58	-4	-7	0.6046231	0.2593943	-2.954468	0	11.06	20054	0	0	5	5	0.02	-0.2872388	1	10	0.03	2000	-2.059082	40.92393	-91.39365
560192	61	-2	-4	0.6042897	0.261284	-2.94279	0	11.06	20054	0	0	5	5	0.02	-0.279622	1	10	0.03	2000	-2.052826	40.92393	-91.39365
560291	65	-1	-4	0.602583	0.2586727	-2.937105	0	11.06	20054	0	0	5	5	0.02	-0.2745745	1	10	0.03	2000	-2.049896	40.92393	-91.39365
560427	57	3	-3	0.6084058	0.261129	-2.925305	0	11.06	20054	0	0	5	5	0.02	-0.2760917	1	10	0.03	2000	-2.072083	40.92393	-91.39365
560496	54	-1	0	0.6115844	0.2579534	-2.916929	0	11.06	20054	0	0	5	5	0.02	-0.2760178	1	10	0.03	2000	-2.070709	40.92393	-91.39365
560658	57	-2	0	0.6077938	0.2630468	-2.908187	0	11.06	20054	0	0	5	5	0.02	-0.2791604	1	10	0.03	2000	-2.058075	40.92393	-91.39365
560756	62	-3	-8	0.6093708	0.2710947	-2.89871	0	11.06	20054	0	0	5	5	0.02	-0.2860591	1	10	0.03	2000	-2.291718	40.92393	-91.39365
560807	54	-3	-7	0.6063532	0.2699274	-2.892168	0	11.06	20054	0	0	5	5	0.02	-0.2886347	1	10	0.03	2000	-2.062439	40.92393	-91.39365
560896	63	-1	-4	0.6074582	0.2709267	-2.886909	0	11.06	20054	0	0	5	5	0.02	-0.2939061	1	10	0.03	2000	-1.84082	40.92393	-91.39365
561011	54	-2	-5	0.6054119	0.2670518	-2.876149	0	11.06	20054	0	0	5	5	0.02	-0.30402	1	10	0.03	2000	-1.839722	40.92393	-91.39365
561150	66	-2	-6	0.6126982	0.2640153	-2.869241	0	11.06	20054	0	0	5	5	0.02	-0.314812	1	10	0.03	2000	-2.068848	40.92393	-91.39365
561220	61	-10	-6	0.6121538	0.2649866	-2.861965	0	11.06	20054	0	0	5	5	0.02	-0.3269925	1	10	0.03	2000	-2.07373	40.92393	-91.39365
561300	57	-8	-9	0.605054	0.264889	-2.856217	0	11.06	20054	0	0	5	5	0.02	-0.3343312	1	10	0.03	2000	-2.052582	40.92393	-91.39365
561411	59	4	-6	0.6061691	0.2630906	-2.850288	0	11.06	20054	0	0	5	5	0.02	-0.3431069	1	10	0.03	2000	-2.058014	40.92393	-91.39365
561587	54	-4	-5	0.6126692	0.2679415	-2.838181	0	11.06	20054	0	0	5	5	0.02	-0.3591537	1	10	0.03	2000	-2.066315	40.92393	-91.39365
561618	62	0	-1	0.6093028	0.2674909	-2.836041	0	11.06	20054	0	0	5	5	0.02	-0.3599842	1	10	0.03	2000	-2.07724	40.92393	-91.39365
561857	53	-4	-4	0.600122	0.271875	-2.814213	0	11.06	20054	0	0	5	5	0.02	-0.3631669	1	10	0.03	2000	-1.818848	40.92393	-91.39365
561978	64	1	-4	0.6007584	0.2703271	-2.803818	0	11.06	20054	0	0	5	5	0.02	-0.3603473	1	10	0.03	2000	-2.051514	40.92393	-91.39365
562088	58	-4	-5	0.5989211	0.2694892	-2.796848	0	11.06	20054	0	0	5	5	0.02	-0.3556682	1	10	0.03	2000	-2.052429	40.92393	-91.39365
562130	58	0	-9	0.5969183	0.2668931	-2.790795	0	11.06	20054	0	0	5	5	0.02	-0.3544108	1	10	0.03	2000	-2.046204	40.92393	-91.39365
562274	56	-6	-6	0.600354	0.2685466	-2.779973	0	11.06	20054	0	0	5	5	0.02	-0.3558692	1	10	0.03	2000	-2.276093	40.92393	-91.39365
562300	56	-6	-6	0.600354	0.2685466	-2.779973	0	11.06	20054	0	0	5	5	0.02	-0.357526	1	10	0.03	2000	-2.276093	40.92393	-91.39365
562404	63	-1	-2	0.6105875	0.2702953	-2.772576	0	11.06	20054	0	0	5	5	0.02	-0.3682184	1	10	0.03	2000	-2.064117	40.92393	-91.39365
562512	61	0	0	0.6113117	0.2677818	-2.764139	0	11.06	20054	0	0	5	5	0.02	-0.3765049	1	10	0.03	2000	-2.05899	40.92393	-91.39365
562629	61	-1	-8	0.6168469	0.2625753	-2.756069	0	11.11	20054	0	0	5	5	0.02	-0.3754054	1	10	0.03	2000	-2.088806	40.92393	-91.39365
562861	60	4	-8	0.614674	0.2675079	-2.738826	0	11.11	20054	0	0	5	5	0.02	-0.347465	1	10	0.03	2000	-2.088409	40.92393	-91.39365
563015	69	-5	-2	0.6162609	0.2656965	-2.72776	0	11.11	20054	0	0	5	5	0.02	-0.3342093	1	10	0.03	2000	-2.065552	40.92393	-91.39365
563049	62	-3	-5	0.6193246	0.2615466	-2.724275	0	11.11	20054	0	0	5	5	0.02	-0.3323036	1	10	0.03	2000	-2.298401	40.92393	-91.39365
563124	66	-9	-2	0.619202	0.2604798	-2.718956	0	11.11	20054	0	0	5	5	0.02	-0.3337707	1	10	0.03	2000	-1.851746	40.92393	-91.39365
563225	65	0	-5	0.6239704	0.2555707	-2.712415	0	11.11	20054	0	0	5	5	0.02	-0.3330761	1	10	0.03	2000	-2.085327	40.92393	-91.39365
563321	70	-4	-2	0.6258664	0.2538512	-2.701654	0	11.11	20054	0	0	5	5	0.02	-0.3329629	1	10	0.03	2000	-2.093811	40.92393	-91.39365
563470	58	-5	-7	0.6255651	0.2619804	-2.693522	0	11.11	20054	0	0	5	5	0.02	-0.3346116	1	10	0.03	2000	-2.087799	40.92393	-91.39365
563515	64	0	0	0.6318598	0.2607356	-2.686308	0	11.11	20054	0	0	5	5	0.02	-0.3351783	1	10	0.03	2000	-2.096252	40.92393	-91.39365
563681	60	-2	-1	0.6355894	0.2640971	-2.67934	0	11.06	20054	0	0	5	5	0.02	-0.3414398	1	10	0.03	2000	-1.888214	40.92393	-91.39365
563843	64	-4	-7	0.6293808	0.2693009	-2.667723	0	11.06	20054	0	0	5	5	0.02	-0.3414158	1	10	0.03	2000	-1.869354	40.92393	-91.39365
564002	61	-2	-9	0.6280032	0.2721014	-2.657023	0	11.06	20054	0	0	5	5	0.02	-0.3353553	1	10	0.03	2000	-2.09906	40.92393	-91.39365
564041	66	-3	-5	0.6314827	0.2675614	-2.648219	0	11.06	20054	0	0	5	5	0.02	-0.332261	1	10	0.03	2000	-1.877838	40.92393	-91.39365
564143	59	-4	-11	0.6274518	0.2634279	-2.641922	0	11.06	20054	0	0	5	5	0.02	-0.3194898	1	10	0.03	2000	-2.096893	40.92393	-91.39365
564220	64	0	0	0.6285053	0.2616481	-2.638376	0	11.06	20054	0	0	5	5	0.02	-0.3160025	1	10	0.03	2000	-2.094818	40.92393	-91.39365
564424	69	-3	-5	0.6336906	0.2616861	-2.623397	0	11.06	20054	0	0	5	5	0.02	-0.2878135	1	10	0.03	2000	-1.870331	40.92393	-91.39365
564656	56	-2	-5	0.6329744	0.2549815	-2.604321	0	11	20054	0	0	5	5	0.02	-0.2740496	1	10	0.03	2000	-2.104218	40.92393	-91.39365
564754	56	0	-6	0.6346559	0.2504421	-2.593928	0	11	20054	0	0	5	5	0.02	-0.2657762	1	10	0.03	2000	-1.860687	40.92393	-91.39365
564888	62	5	-3	0.6369691	0.2393595	-2.583229	0	11	20054	0	0	5	5	0.02	-0.2692779	1	10	0.03	2000	-1.878571	40.92393	-91.39365
564978	57	2	-4	0.6314023	0.2420933	-2.577665	0	11	20054	0	0	5	5	0.02	-0.2641906	1	10	0.03	2000	-2.333008	40.92393	-91.39365
565147	64	3	1	0.6329674	0.2521425	-2.565498	0	11	20054	0	0	5	5	0.02	-0.2460467	1	10	0.03	2000	-2.104553	40.92393	-91.39365
565281	62	3	0	0.6288267	0.2585263	-2.555412	0	11	20054	0	0	5	5	0.02	-0.2348703	1	10	0.03	2000	-2.334656	40.92393	-91.39365
565392	63	2	0	0.6347316	0.2633654	-2.550215	0	11	20054	0	0	5	5	0.02	-0.2263671	1	10	0.03	2000	-2.087402	40.92393	-91.39365
565542	75	-4	-5	0.6467609	0.261719	-2.536643	0	11.06	20054	0	0	5	5	0.02	-0.2214321	1	10	0.03	2000	-2.117767	40.92393	-91.39365
565621	70	-4	-2	0.6469187	0.2594835	-2.530284	0	11.06	20054	0	0	5	5	0.02	-0.2225729	1	10	0.03	2000	-1.907928	40.92393	-91.39365
565762	64	0	-4	0.6451416	0.2583888	-2.52093	0	11.06	20054	0	0	5	5	0.02	-0.22169	1	10	0.03	2000	-2.120483	40.92393	-91.39365
565862	64	-2	-6	0.6468753	0.2580491	-2.518056	0	11.06	20054	0	0	5	5	0.02	-0.2198928	1	10	0.03	2000	-2.347595	40.92393	-91.39365
565927	64	-2	-6	0.6468753	0.2580491	-2.518056	0	11.06	20054	0	0	5	5	0.02	-0.2198928	1	10	0.03	2000	-2.347595	40.92393	-91.39365
566085	64	-2	-6	0.6468753	0.2580491	-2.518056	0	11.06	20054	0	0	5	5	0.02	-0.2198928	1	10	0.03	2000	-2.347595	40.92393	-91.39365
566224	64	-2	-6	0.6468753	0.2580491	-2.518056	0	11.06	20054	0	0	5	5	0.02	-0.2198928	1	10	0.03	2000	-2.347595	40.92393	-91.39365
566296	64	-2	-6	0.6468753	0.2580491	-2.518056	0	11.06	20054	0	0	5	5	0.02	-0.2198928	1	10	0.03	2000	-2.347595	40.92393	-91.39365
566395	64	-2	-6	0.6468753	0.2580491	-2.518056	0	11.11	20054	0	0	5	5	0.02	-0.2198928	1	10	0.03	2000	-2.347595	40.92393	-91.39365
566444	64	-2	-6	0.6468753	0.2580491	-2.518056	0	11.11	20054	0	0	5	5	0.02	-0.2198928	1	10	0.03	2000	-2.347595	40.92393	-91.39365
566517	64	-2	-6	0.6468753	0.2580491	-2.518056	0	11.11	20054	0	0	5	5	0.02	-0.2198928	1	10	0.03	2000	-2.347595	40.92393	-91.39365
566618	64	-2	-6	0.6468753	0.2580491	-2.518056	0	11.11	20054	0	0	5	5	0.02	-0.2198928	1	10	0.03	2000	-2.347595	40.92393	-91.39365
566722	64	-2	-6	0.6468753	0.2580491	-2.518056	0	11.11	20054	0	0	5	5	0.02	-0.2198928	1	10	0.03	2000	-2.347595	40.92393	-91.39365
566820	64	-2	-6	0.6468753	0.2580491	-2.518056	0	11.11	20054	0	0	5	5	0.02	-0.2198928	1	10	0.03	2000	-2.347595	40.92393	-91.39365
567036	64	-2	-6	0.6468753	0.2580491	-2.518056	0	11.11	20054	0	0	5	5	0.02	-0.2198928	1	10	0.03	2000	-2.347595	40.92393	-91.39365
567140	64	-2	-6	0.6468753	0.2580491	-2.518056	0	11.11	20054	0	0	5	5	0.02	-0.2198928	1	10	0.03	2000	-2.347595	40.92393	-91.39365
567226	64	-2	-6	0.6468753	0.2580491	-2.518056	0	11.06	20054	0	0	5	5	0.02	-0.2198928	1	10	0.03	2000	-2.347595	40.92393	-91.39365
567363	64	-2	-6	0.6468753	0.2580491	-2.518056	0	11.06	20054	0	0	5	5	0.02	-0.2198928	1	10	0.03	2000	-2.347595	40.92393	-91.39365
567457	64	-2	-6	0.6468753	0.2580491	-2.518056	0	11.06	20054	0	0	5	5	0.02	-0.2198928	1	10	0.03	2000	-2.347595	40.92393	-91.39365
567550	64	-2	-6	0.6468753	0.2580491	-2.518056	0	11.06	20054	0	0	5	5	0.02	-0.2198928	1	10	0.03	2000	-2.347595	40.92393	-91.39365
567619	64	-2	-6	0.6468753	0.2580491	-2.518056	0	11.06	20054	0	0	5	5	0.02	-0.2198928	1	10	0.03	2000	-2.347595	40.92393	-91.39365
567734	64	-2	-6	0.6468753	0.2580491	-2.518056	0	11.06	20054	0	0	5	5	0.02	-0.2198928	1	10	0.03	2000	-2.347595	40.92393	-91.39365
567818	64	-2	-6	0.6468753	0.2580491	-2.518056	0	11.06	20054	0	0	5	5	0.02	-0.2198928	1	10	0.03	2000	-2.347595	40.92393	-91.39365
567914	64	-2	-6	0.6468753	0.2580491	-2.518056	0	11.06	20054	0	0	5	5	0.02	-0.2198928	1	10	0.03	2000	-2.347595	40.92393	-91.39365
568006	64	-2	-6	0.6468753	0.2580491	-2.518056	0	11.06	20054	0	0	5	5	0.02	-0.2198928	1	10	0.03	2000	-2.347595	40.92393	-91.39365
568118	64	-2	-6	0.6468753	0.2580491	-2.518056	0	11.06	20054	0	0	5	5	0.02	-0.2198928	1	10	0.03	2000	-2.347595	40.92393	-91.39365
568212	64	-2	-6	0.6468753	0.2580491	-2.518056	0	11.11	20054	0	0	5	5	0.02	-0.2198928	1	10	0.03	2000	-2.347595	40.92393	-91.39365
568314	64	-2	-6	0.6468753	0.2580491	-2.518056	0	11.11	20054	0	0	5	5	0.02	-0.2198928	1	10	0.03	2000	-2.347595	40.92393	-91.39365
568422	64	-2	-6	0.6468753	0.2580491	-2.518056	0	11.11	20054	0	0	5	5	0.02	-0.2198928	1	10	0.03	2000	-2.347595	40.92393	-91.39365
568529	64	-2	-6	0.6468753	0.2580491	-2.518056	0	11.11	20054	0	0	5	5	0.02	-0.2198928	1	10	0.03	2000	-2.347595	40.92393	-91.39365
568621	64	-2	-6	0.6468753	0.2580491	-2.518056	0	11.11	20054	0	0	5	5	0.02	-0.2198928	1	10	0.03	2000	-2.347595	40.92393	-91.39365
568765	64	-2	-6	0.6468753	0.2580491	-2.518056	0	11.11	20054	0	0	5	5	0.02	-0.2198928	1	10	0.03	2000	-2.347595	40.92393	-91.39365
568851	64	-2	-6	0.6468753	0.2580491	-2.518056	0	11.11	20054	0	0	5	5	0.02	-0.2198928	1	10	0.03	2000	-2.347595	40.92393	-91.39365
568904	64	-2	-6	0.6468753	0.2580491	-2.518056	0	11.11	20054	0	0	5	5	0.02	-0.2198928	1	10	0.03	2000	-2.347595	40.92393	-91.39365
569025	64	-2	-6	0.6468753	0.2580491	-2.518056	0	11.11	20054	0	0	5	5	0.02	-0.2198928	1	10	0.03	2000	-2.347595	40.92393	-91.39365
569093	64	-2	-6	0.6468753	0.2580491	-2.518056	0	11.11	20054	0	0	5	5	0.02	-0.2198928	1	10	0.03	2000	-2.347595	40.92393	-91.39365
569233	64	-2	-6	0.6468753	0.2580491	-2.518056	0	11.11	20054	0	0	5	5	0.02	-0.2198928	1	10	0.03	2000	-2.347595	40.92393	-91.39365
569297	64	-2	-6	0.6468753	0.2580491	-2.518056	0	11.11	20054	0	0	5	5	0.02	-0.2198928	1	10	0.03	2000	-2.347595	40.92393	-91.39365
569398	64	-2	-6	0.6468753	0.2580491	-2.518056	0	11.11	20054	0	0	5	5	0.02	-0.2198928	1	10	0.03	2000	-2.347595	40.92393	-91.39365
569503	64	-2	-6	0.6468753	0.2580491	-2.518056	0	11.11	20054	0	0	5	5	0.02	-0.2198928	1	10	0.03	2000	-2.347595	40.92393	-91.39365
569588	64	-2	-6	0.6468753	0.2580491	-2.518056	0	11.11	20054	0	0	5	5	0.02	-0.2198928	1	10	0.03	2000	-2.347595	40.92393	-91.39365
569696	64	-2	-6	0.6468753	0.2580491	-2.518056	0	11.11	20054	0	0	5	5	0.02	-0.2198928	1	10	0.03	2000	-2.347595	40.92393	-91.39365
569788	64	-2	-6	0.6468753	0.2580491	-2.518056	0	11.11	20054	0	0	5	5	0.02	-0.2198928	1	10	0.03	2000	-2.347595	40.92393	-91.39365
569897	64	-2	-6	0.6468753	0.2580491	-2.518056	0	11.11	20054	0	0	5	5	0.02	-0.2198928	1	10	0.03	2000	-2.347595	40.92393	-91.39365
569995	64	-2	-6	0.6468753	0.2580491	-2.518056	0	11.11	20054	0	0	5	5	0.02	-0.2198928	1	10	0.03	2000	-2.347595	40.92393	-91.39365
570083	64	-2	-6	0.6468753	0.2580491	-2.518056	0	11.11	20054	0	0	5	5	0.02	-0.2198928	1	10	0.03	2000	-2.347595	40.92393	-91.39365
570179	64	-2	-6	0.6468753	0.2580491	-2.518056	0	11.11	20054	0	0	5	5	0.02	-0.2198928	1	10	0.03	2000	-2.347595	40.92393	-91.39365
570359	64	-2	-6	0.6468753	0.2580491	-2.518056	0	11.11	20054	0	0	5	5	0.02	-0.2198928	1	10	0.03	2000	-2.347595	40.92393	-91.39365
570397	64	-2	-6	0.6468753	0.2580491	-2.518056	0	11.11	20054	0	0	5	5	0.02	-0.2198928	1	10	0.03	2000	-2.347595	40.92393	-91.39365
570471	64	-2	-6	0.6468753	0.2580491	-2.518056	0	11.11	20054	0	0	5	5	0.02	-0.2198928	1	10	0.03	2000	-2.347595	40.92393	-91.39365
570574	64	-2	-6	0.6468753	0.2580491	-2.518056	0	11.11	20054	0	0	5	5	0.02	-0.2198928	1	10	0.03	2000	-2.347595	40.92393	-91.39365
570675	64	-2	-6	0.6468753	0.2580491	-2.518056	0	11.11	20054	0	0	5	5	0.02	-0.2198928	1	10	0.03	2000	-2.347595	40.92393	-91.39365
570808	64	-2	-6	0.6468753	0.2580491	-2.518056	0	11.11	20054	0	0	5	5	0.02	-0.2198928	1	10	0.03	2000	-2.347595	40.92393	-91.39365
570876	64	-2	-6	0.6468753	0.2580491	-2.518056	0	11.06	20054	0	0	5	5	0.02	-0.2198928	1	10	0.03	2000	-2.347595	40.92393	-91.39365
570992	64	-2	-6	0.6468753	0.2580491	-2.518056	0	11.06	20054	0	0	5	5	0.02	-0.2198928	1	10	0.03	2000	-2.347595	40.92393	-91.39365
571090	64	-2	-6	0.6468753	0.2580491	-2.518056	0	11.06	20054	0	0	5	5	0.02	-0.2198928	1	10	0.03	2000	-2.347595	40.92393	-91.39365
571174	64	-2	-6	0.6468753	0.2580491	-2.518056	0	11.06	20054	0	0	5	5	0.02	-0.2198928	1	10	0.03	2000	-2.347595	40.92393	-91.39365
571282	64	-2	-6	0.6468753	0.2580491	-2.518056	0	11.06	20054	0	0	5	5	0.02	-0.2198928	1	10	0.03	2000	-2.347595	40.92393	-91.39365
571397	64	-2	-6	0.6468753	0.2580491	-2.518056	0	11.06	20054	0	0	5	5	0.02	-0.2198928	1	10	0.03	2000	-2.347595	40.92393	-91.39365
571498	64	-2	-6	0.6468753	0.2580491	-2.518056	0	11.06	20054	0	0	5	5	0.02	-0.2198928	1	10	0.03	2000	-2.347595	40.92393	-91.39365
571564	64	-2	-6	0.6468753	0.2580491	-2.518056	0	11.06	20054	0	0	5	5	0.02	-0.2198928	1	10	0.03	2000	-2.347595	40.92393	-91.39365
571664	64	-2	-6	0.6468753	0.2580491	-2.518056	0	11.06	20054	0	0	5	5	0.02	-0.2198928	1	10	0.03	2000	-2.347595	40.92393	-91.39365
571768	64	-2	-6	0.6468753	0.2580491	-2.518056	0	11.06	20054	0	0	5	5	0.02	-0.2198928	1	10	0.03	2000	-2.347595	40.92393	-91.39365
571929	64	-2	-6	0.6468753	0.2580491	-2.518056	0	11.06	20054	0	0	5	5	0.02	-0.2198928	1	10	0.03	2000	-2.347595	40.92393	-91.39365
572014	64	-2	-6	0.6468753	0.2580491	-2.518056	0	11.06	20054	0	0	5	5	0.02	-0.2198928	1	10	0.03	2000	-2.347595	40.92393	-91.39365
572120	64	-2	-6	0.6468753	0.2580491	-2.518056	0	11.06	20054	0	0	5	5	0.02	-0.2198928	1	10	0.03	2000	-2.347595	40.92393	-91.39365
572188	64	-2	-6	0.6468753	0.2580491	-2.518056	0	11.06	20054	0	0	5	5	0.02	-0.2198928	1	10	0.03	2000	-2.347595	40.92393	-91.39365
572281	64	-2	-6	0.6468753	0.2580491	-2.518056	0	11.06	20054	0	0	5	5	0.02	-0.2198928	1	10	0.03	2000	-2.347595	40.92393	-91.39365
572383	64	-2	-6	0.6468753	0.2580491	-2.518056	0	11.06	20054	0	0	5	5	0.02	-0.2198928	1	10	0.03	2000	-2.347595	40.92393	-91.39365
572471	64	-2	-6	0.6468753	0.2580491	-2.518056	0	11.06	20054	0	0	5	5	0.02	-0.2198928	1	10	0.03	2000	-2.347595	40.92393	-91.39365
572636	64	-2	-6	0.6468753	0.2580491	-2.518056	0	11.06	20054	0	0	5	5	0.02	-0.2198928	1	10	0.03	2000	-2.347595	40.92393	-91.39365
572700	64	-2	-6	0.6468753	0.2580491	-2.518056	0	11.06	20054	0	0	5	5	0.02	-0.2198928	1	10	0.03	2000	-2.347595	40.92393	-91.39365
572758	64	-2	-6	0.6468753	0.2580491	-2.518056	0	11.06	20054	0	0	5	5	0.02	-0.2198928	1	10	0.03	2000	-2.347595	40.92393	-91.39365
572890	64	-2	-6	0.6468753	0.2580491	-2.518056	0	11.06	20054	0	0	5	5	0.02	-0.2198928	1	10	0.03	2000	-2.347595	40.92393	-91.39365
572995	64	-2	-6	0.6468753	0.2580491	-2.518056	0	11.06	20054	0	0	5	5	0.02	-0.2198928	1	10	0.03	2000	-2.347595	40.92393	-91.39365
573053	64	-2	-6	0.6468753	0.2580491	-2.518056	0	11.06	20054	0	0	5	5	0.02	-0.2198928	1	10	0.03	2000	-2.347595	40.92393	-91.39365
573148	64	-2	-6	0.6468753	0.2580491	-2.518056	0	11.06	20054	0	0	5	5	0.02	-0.2198928	1	10	0.03	2000	-2.347595	40.92393	-91.39365
573270	64	-2	-6	0.6468753	0.2580491	-2.518056	0	11.06	20054	0	0	5	5	0.02	-0.2198928	1	10	0.03	2000	-2.347595	40.92393	-91.39365
573366	64	-2	-6	0.6468753	0.2580491	-2.518056	0	11.06	20054	0	0	5	5	0.02	-0.2198928	1	10	0.03	2000	-2.347595	40.92393	-91.39365
573460	64	-2	-6	0.6468753	0.2580491	-2.518056	0	11.06	20054	0	0	5	5	0.02	-0.2198928	1	10	0.03	2000	-2.347595	40.92393	-91.39365
573576	64	-2	-6	0.6468753	0.2580491	-2.518056	0	11.11	20054	0	0	5	5	0.02	-0.2198928	1	10	0.03	2000	-2.347595	40.92393	-91.39365
573643	64	-2	-6	0.6468753	0.2580491	-2.518056	0	11.11	20054	0	0	5	5	0.02	-0.2198928	1	10	0.03	2000	-2.347595	40.92393	-91.39365
573812	64	-2	-6	0.6468753	0.2580491	-2.518056	0	11.11	20054	0	0	5	5	0.02	-0.2198928	1	10	0.03	2000	-2.347595	40.92393	-91.39365
573911	64	-2	-6	0.6468753	0.2580491	-2.518056	0	11.11	20054	0	0	5	5	0.02	-0.2198928	1	10	0.03	2000	-2.347595	40.92393	-91.39365
573936	64	-2	-6	0.6468753	0.2580491	-2.518056	0	11.11	20054	0	0	5	5	0.02	-0.2198928	1	10	0.03	2000	-2.347595	40.92393	-91.39365
574040	1	0	4	1.635633	-0.003489062	-0.000550504	0	11.11	20054	0	0	5	5	0.02	-0.1428976	1	10	0.03	2000	-3.900848	40.92393	-91.39365
574141	-4	2	2	1.494814	-0.002291119	-0.001100748	0	11.11	20054	0	0	5	5	0.02	-0.09359736	1	10	0.03	2000	-3.900848	40.92393	-91.39365
574257	0	-6	3	1.309253	-0.00171304	-0.002935024	0	11.11	20054	0	0	5	5	0.02	-0.06215951	1	10	0.03	2000	-3.024719	40.92393	-91.39365
574368	0	-3	0	1.103108	-0.004768699	-0.006909146	0	11.11	20054	0	0	5	5	0.02	-0.04174313	1	10	0.03	2000	-2.90744	40.92393	-91.39365
574475	9	2	-2	0.9265056	-0.006230521	-0.007337299	0	11.11	20054	0	0	5	5	0.02	-0.0195075	1	10	0.03	2000	-2.823029	40.92393	-91.39365
574626	11	0	-1	0.8110104	-0.01034687	-0.008988184	0	11.11	20054	0	0	5	5	0.02	-0.002430191	1	10	0.03	2000	-2.456512	40.92393	-91.39365
574693	4	2	-2	0.7459294	-0.0101405	-0.01014965	0	11.11	20054	0	0	5	5	0.02	0.001285535	1	10	0.03	2000	-2.339844	40.92393	-91.39365
574748	4	-2	1	0.6533743	-0.01062416	-0.01210618	0	11.11	20054	0	0	5	5	0.02	0.005588091	1	10	0.03	2000	-2.474579	40.92393	-91.39365
574896	0	1	0	0.5715171	-0.003958911	-0.01510196	0	11.11	20054	0	0	5	5	0.02	0.01288949	1	10	0.03	2000	-2.063721	40.92393	-91.39365
574948	4	0	4	0.5032532	-0.00443937	-0.01760886	0	11.11	20054	0	0	5	5	0.02	0.0139565	1	10	0.03	2000	-2.194336	40.92393	-91.39365
575085	1	2	2	0.4482404	-0.001798224	-0.01809794	0	11.11	20054	0	0	5	5	0.02	0.0286132	1	10	0.03	2000	-1.840149	40.92393	-91.39365
575152	3	-2	0	0.4134276	0.005192764	-0.01797577	0	11.11	20054	0	0	5	5	0.02	0.03226971	1	10	0.03	2000	-1.559875	40.92393	-91.39365
575264	3	3	-1	0.3482207	0.003550424	-0.01620283	0	11.11	20054	0	0	5	5	0.02	0.03157992	1	10	0.03	2000	-1.681458	40.92393	-91.39365
575373	2	0	-2	0.305847	-0.001895753	-0.01754759	0	11.11	20054	0	0	5	5	0.02	0.03348617	1	10	0.03	2000	-1.632996	40.92393	-91.39365
575476	3	0	0	0.259424	0.003620334	-0.01962627	0	11.06	20054	0	0	5	5	0.02	0.04761635	1	10	0.03	2000	-1.559723	40.92393	-91.39365
575633	0	2	2	0.2277898	0.009002696	-0.02091021	0	11.06	20054	0	0	5	5	0.02	0.07256251	1	10	0.03	2000	-1.517639	40.92393	-91.39365
575676	3	0	1	0.2069667	0.006581891	-0.02170485	0	11.06	20054	0	0	5	5	0.02	0.07778244	1	10	0.03	2000	-1.456848	40.92393	-91.39365
575770	0	0	2	0.1880398	0.007148111	-0.02182703	0	11.06	20054	0	0	5	5	0.02	0.08340374	1	10	0.03	2000	-1.428619	40.92393	-91.39365
575863	-3	5	-2	0.1715774	0.003889805	-0.02311091	0	11.06	20054	0	0	5	5	0.02	0.08378396	1	10	0.03	2000	-1.408386	40.92393	-91.39365
575958	1	6	-1	0.1489215	0.0114473	-0.02286659	0	11.06	20054	0	0	5	5	0.02	0.09023072	1	10	0.03	2000	-1.144257	40.92393	-91.39365
576109	0	-4	0	0.1245592	0.01566796	-0.02323325	0	11.06	20054	0	0	5	5	0.02	0.1028355	1	10	0.03	2000	-1.569153	40.92393	-91.39365
576208	2	-1	1	0.1139455	0.01473702	-0.02408957	0	11.06	20054	0	0	5	5	0.02	0.1189978	1	10	0.03	2000	-1.311707	40.92393	-91.39365
576317	1	5	4	0.1030748	0.01326833	-0.02574026	0	11.06	20054	0	0	5	5	0.02	0.1346775	1	10	0.03	2000	-1.076904	40.92393	-91.39365
576350	2	0	2	0.09637698	0.016435	-0.02665729	0	11.06	20054	0	0	5	5	0.02	0.1369375	1	10	0.03	2000	-1.29425	40.92393	-91.39365
576475	6	2	-1	0.08686808	0.006575419	-0.02720775	0	11.06	20054	0	0	5	5	0.02	0.1410077	1	10	0.03	2000	-1.271362	40.92393	-91.39365
576568	-1	1	2	0.08330327	0.005482572	-0.02690184	0	11.06	20054	0	0	5	5	0.02	0.1456434	1	10	0.03	2000	-1.270721	40.92393	-91.39365
576654	4	-2	0	0.07451699	0.003583012	-0.02910295	0	11.06	20054	0	0	5	5	0.02	0.1477187	1	10	0.03	2000	-1.25824	40.92393	-91.39365
576734	5	1	-1	0.07162674	0.007674784	-0.03038679	0	11.06	20054	0	0	5	5	0.02	0.1515652	1	10	0.03	2000	-1.252289	40.92393	-91.39365
576876	4	1	-2	0.06265409	0.005068698	-0.03209851	0	11.06	20054	0	0	5	5	0.02	0.1488427	1	10	0.03	2000	-1.239624	40.92393	-91.39365
576957	3	3	1	0.05991722	0.00390765	-0.03270995	0	11.06	20054	0	0	5	5	0.02	0.1366303	1	10	0.03	2000	-1.234528	40.92393	-91.39365
577029	2	4	4	0.05485667	0.003144321	-0.03258739	0	11.06	20054	0	0	5	5	0.02	0.1276687	1	10	0.03	2000	-1.225677	40.92393	-91.39365
577131	0	3	-1	0.05012542	0.0007911388	-0.03405448	0	11.06	20054	0	0	5	5	0.02	0.120107	1	10	0.03	2000	-1.205078	40.92393	-91.39365
577233	5	4	3	0.0466539	0.0001832842	-0.03411561	0	11.06	20054	0	0	5	5	0.02	0.1111789	1	10	0.03	2000	-0.9873047	40.92393	-91.39365
577339	0	-5	3	0.03657451	-0.005446238	-0.03937339	0	11.06	20054	0	0	5	5	0.02	0.1092235	1	10	0.03	2000	-1.198395	40.92393	-91.39365
577435	1	-5	0	0.03751415	-0.0003344259	-0.04126875	0	11.06	20054	0	0	5	5	0.02	0.1002685	1	10	0.03	2000	-1.419342	40.92393	-91.39365
577586	4	4	3	0.03335473	-0.0002375089	-0.0423692	0	11.06	20054	0	0	5	5	0.02	0.09176117	1	10	0.03	2000	-1.195831	40.92393	-91.39365
577689	-1	2	4	0.03309797	0.003714587	-0.04432552	0	11.06	20054	0	0	5	5	0.02	0.08630472	1	10	0.03	2000	-1.190857	40.92393	-91.39365
577724	1	2	2	0.03237765	0.005207892	-0.04512029	0	11.06	20054	0	0	5	5	0.02	0.08619051	1	10	0.03	2000	-1.190857	40.92393	-91.39365
577869	7	0	0	0.03978777	0.006495812	-0.0459765	0	11.06	20054	0	0	5	5	0.02	0.09413746	1	10	0.03	2000	-1.419434	40.92393	-91.39365
577929	7	3	5	0.03745067	0.00312318	-0.04726034	0	11.06	20054	0	0	5	5	0.02	0.09450459	1	10	0.03	2000	-1.202942	40.92393	-91.39365
578051	2	-4	0	0.03487945	-0.0001628212	-0.048483	0	11.06	20054	0	0	5	5	0.02	0.09229258	1	10	0.03	2000	-1.190521	40.92393	-91.39365
578147	4	0	2	0.03315147	0.0008959491	-0.04982765	0	11.06	20054	0	0	5	5	0.02	0.09484779	1	10	0.03	2000	-1.187469	40.92393	-91.39365
578220	4	-2	-3	0.03384137	0.003541111	-0.04939952	0	11.06	20054	0	0	5	5	0.02	0.09980884	1	10	0.03	2000	-1.181763	40.92393	-91.39365
578374	3	2	0	0.03108132	-0.001640719	-0.050072	0	11.06	20054	0	0	5	5	0.02	0.1020645	1	10	0.03	2000	-1.183136	40.92393	-91.39365
578461	5	-5	0	0.02396669	-0.003844551	-0.05062231	0	11.06	20054	0	0	5	5	0.02	0.09552321	1	10	0.03	2000	-1.400482	40.92393	-91.39365
578525	-3	-2	0	0.02794852	-0.003158494	-0.05068341	0	11.06	20054	0	0	5	5	0.02	0.08906329	1	10	0.03	2000	-1.400482	40.92393	-91.39365
578661	1	3	2	0.03458682	-0.009351037	-0.05288449	0	11.06	20054	0	0	5	5	0.02	0.08695133	1	10	0.03	2000	-1.182587	40.92393	-91.39365
578754	10	1	-1	0.04035164	-0.003931547	-0.05361799	0	11.06	20054	0	0	5	5	0.02	0.0912727	1	10	0.03	2000	-1.425262	40.92393	-91.39365
578829	7	-6	4	0.03697247	-0.003146386	-0.05441281	0	11.06	20054	0	0	5	5	0.02	0.09364568	1	10	0.03	2000	-1.191284	40.92393	-91.39365
578932	2	0	0	0.04489477	-0.00825644	-0.05471863	0	11.06	20054	0	0	5	5	0.02	0.09848495	1	10	0.03	2000	-0.9786377	40.92393	-91.39365
579031	1	4	-5	0.04216031	-0.007864293	-0.05496326	0	11.06	20054	0	0	5	5	0.02	0.1001244	1	10	0.03	2000	-1.197723	40.92393	-91.39365
579162	6	2	-2	0.03775488	-0.006684804	-0.05575815	0	11.11	20054	0	0	5	5	0.02	0.09563515	1	10	0.03	2000	-1.204712	40.92393	-91.39365
579260	11	8	1	0.04363891	-0.001719785	-0.05496344	0	11.11	20054	0	0	5	5	0.02	0.09420008	1	10	0.03	2000	-1.201874	40.92393	-91.39365
579329	2	2	0	0.04397216	-0.000299404	-0.05600278	0	11.11	20054	0	0	5	5	0.02	0.09643483	1	10	0.03	2000	-1.204193	40.92393	-91.39365
579431	4	-1	2	0.04649278	0.002879255	-0.05545279	0	11.11	20054	0	0	5	5	0.02	0.09995437	1	10	0.03	2000	-1.207611	40.92393	-91.39365
579534	3	0	-3	0.05120728	0.001236078	-0.05380193	0	11.11	20054	0	0	5	5	0.02	0.09960087	1	10	0.03	2000	-1.44104	40.92393	-91.39365
579648	5	0	-1	0.04880824	0.0005380815	-0.05288541	0	11.11	20054	0	0	5	5	0.02	0.1004111	1	10	0.03	2000	-1.209351	40.92393	-91.39365
579724	7	-3	-2	0.05558694	0.01018466	-0.05166266	0	11.11	20054	0	0	5	5	0.02	0.1025973	1	10	0.03	2000	-0.9872437	40.92393	-91.39365
579854	9	-3	3	0.06433728	0.01368065	-0.05147921	0	11.11	20054	0	0	5	5	0.02	0.1054389	1	10	0.03	2000	-1.468719	40.92393	-91.39365
579957	11	-1	1	0.07026031	0.01522061	-0.05294647	0	11.06	20054	0	0	5	5	0.02	0.1077462	1	10	0.03	2000	-1.466034	40.92393	-91.39365
580087	9	-7	-3	0.07200059	0.009617526	-0.05392484	0	11.06	20054	0	0	5	5	0.02	0.1076574	1	10	0.03	2000	-1.246124	40.92393	-91.39365
580172	9	0	4	0.07694119	0.01173006	-0.05490328	0	11.06	20054	0	0	5	5	0.02	0.1082603	1	10	0.03	2000	-1.254089	40.92393	-91.39365
580214	9	4	0	0.07494078	0.01096313	-0.05484223	0	11.06	20054	0	0	5	5	0.02	0.1068878	1	10	0.03	2000	-1.254089	40.92393	-91.39365
580307	15	-3	-2	0.0819757	0.009002578	-0.05520895	0	11.06	20054	0	0	5	5	0.02	0.1055332	1	10	0.03	2000	-1.262665	40.92393	-91.39365
580497	10	6	0	0.08667194	0.003548531	-0.05453609	0	11.06	20054	0	0	5	5	0.02	0.1046759	1	10	0.03	2000	-1.262024	40.92393	-91.39365
580566	7	-5	0	0.08991069	0.006719977	-0.0556978	0	11.06	20054	0	0	5	5	0.02	0.1013514	1	10	0.03	2000	-1.040253	40.92393	-91.39365
580646	7	-6	0	0.08213015	0.005589614	-0.05679841	0	11.06	20054	0	0	5	5	0.02	0.1007698	1	10	0.03	2000	-1.268921	40.92393	-91.39365
580737	10	-5	-5	0.08127289	0.004049986	-0.05783728	0	11.06	20054	0	0	5	5	0.02	0.09819743	1	10	0.03	2000	-1.041229	40.92393	-91.39365
580775	0	3	-1	0.07978733	0.0004520096	-0.05734795	0	11.06	20054	0	0	5	5	0.02	0.0980838	1	10	0.03	2000	-1.48996	40.92393	-91.39365
580929	7	-2	0	0.08272332	0.005043807	-0.05899856	0	11.06	20054	0	0	5	5	0.02	0.08986477	1	10	0.03	2000	-1.034698	40.92393	-91.39365
581019	10	-1	1	0.09267349	0.00104503	-0.05820365	0	11.06	20054	0	0	5	5	0.02	0.07748797	1	10	0.03	2000	-1.275818	40.92393	-91.39365
581086	7	-7	-4	0.0985228	0.001034916	-0.05643071	0	11.06	20054	0	0	5	5	0.02	0.06787807	1	10	0.03	2000	-1.280121	40.92393	-91.39365
581184	3	-1	-1	0.09760549	0.0008927174	-0.0564307	0	11.06	20054	0	0	5	5	0.02	0.0541517	1	10	0.03	2000	-1.064606	40.92393	-91.39365
581323	0	2	0	0.09236407	0.00209533	-0.05685878	0	11.06	20054	0	0	5	5	0.02	0.03401436	1	10	0.03	2000	-1.286591	40.92393	-91.39365
581459	0	-2	-4	0.09504969	0.005808868	-0.05630836	0	11.06	20054	0	0	5	5	0.02	0.01931068	1	10	0.03	2000	-1.288605	40.92393	-91.39365
581514	6	2	0	0.0988531	0.004044259	-0.05600237	0	11.06	20054	0	0	5	5	0.02	0.01310325	1	10	0.03	2000	-1.288605	40.92393	-91.39365
581613	14	-2	0	0.1010599	0.002795866	-0.05429085	0	11.06	20054	0	0	5	5	0.02	0.006083929	1	10	0.03	2000	-1.063965	40.92393	-91.39365
581685	6	2	-2	0.1028432	0.006502201	-0.05355716	0	11.06	20054	0	0	5	5	0.02	-0.0011428	1	10	0.03	2000	-1.525146	40.92393	-91.39365
581835	8	1	7	0.1073657	0.006123508	-0.05294554	0	11.06	20054	0	0	5	5	0.02	-0.008148285	1	10	0.03	2000	-1.299652	40.92393	-91.39365
581893	7	0	-2	0.108146	0.007548081	-0.05245648	0	11.06	20054	0	0	5	5	0.02	-0.004283968	1	10	0.03	2000	-1.299652	40.92393	-91.39365
582032	6	-2	1	0.1087288	0.004634791	-0.05263996	0	11.06	20054	0	0	5	5	0.02	-0.008041051	1	10	0.03	2000	-1.306824	40.92393	-91.39365
582107	11	7	-4	0.1113472	0.006607535	-0.05429069	0	11.06	20054	0	0	5	5	0.02	-0.008268787	1	10	0.03	2000	-1.308258	40.92393	-91.39365
582201	4	0	8	0.1146168	0.008836758	-0.05349626	0	11.06	20054	0	0	5	5	0.02	-0.007692769	1	10	0.03	2000	-1.314087	40.92393	-91.39365
582304	11	1	1	0.1130602	0.008182526	-0.05429117	0	11.06	20054	0	0	5	5	0.02	-0.006697015	1	10	0.03	2000	-1.314087	40.92393	-91.39365
582418	10	2	4	0.112137	0.005325106	-0.05422942	0	11.06	20054	0	0	5	5	0.02	-0.009919546	1	10	0.03	2000	-1.312561	40.92393	-91.39365
582497	14	6	7	0.1198099	0.002998919	-0.05465772	0	11.06	20054	0	0	5	5	0.02	-0.01153217	1	10	0.03	2000	-1.314026	40.92393	-91.39365
582657	12	3	-1	0.125863	0.007574589	-0.0531291	0	11.06	20054	0	0	5	5	0.02	-0.02385496	1	10	0.03	2000	-1.553253	40.92393	-91.39365
582770	10	2	0	0.1242217	0.00831202	-0.05300681	0	11.06	20054	0	0	5	5	0.02	-0.03421563	1	10	0.03	2000	-1.321991	40.92393	-91.39365
582809	8	0	0	0.1227131	0.0093449	-0.05331257	0	11.06	20054	0	0	5	5	0.02	-0.03829136	1	10	0.03	2000	-1.553162	40.92393	-91.39365
582904	12	0	0	0.1284861	0.006478088	-0.05257903	0	11.06	20054	0	0	5	5	0.02	-0.04853185	1	10	0.03	2000	-1.325867	40.92393	-91.39365
583053	9	2	0	0.1171891	0.01185723	-0.05135629	0	11.06	20054	0	0	5	5	0.02	-0.05551207	3	10	0.03	2000	-1.545898	40.92393	-91.39365
583196	3	0	0	0.110757	0.01043068	-0.05068384	0	11.06	20054	0	0	5	5	0.02	-0.0637184	3	10	0.03	2000	-1.30484	40.92393	-91.39365
583234	6	-3	-1	0.1109303	0.008168701	-0.05074493	0	11.06	20054	0	0	5	5	0.02	-0.06572097	3	10	0.03	2000	-1.079468	40.92393	-91.39365
583309	7	-3	-1	0.1105868	0.002666171	-0.05135633	0	11.06	20054	0	0	5	5	0.02	-0.0693171	3	10	0.03	2000	-1.080017	40.92393	-91.39365
583414	17	-2	0	0.1067162	0.002165589	-0.05153994	0	11.06	20054	0	0	5	5	0.02	-0.07069204	3	10	0.03	2000	-1.305145	40.92393	-91.39365
583529	8	-3	-3	0.109774	0.0009824251	-0.05105079	0	11.06	20054	0	0	5	5	0.02	-0.07394385	3	10	0.03	2000	-1.08075	40.92393	-91.39365
583628	2	-11	0	0.1144805	-0.002523124	-0.05209026	0	11.06	20054	0	0	5	5	0.02	-0.07666224	3	10	0.03	2000	-1.31546	40.92393	-91.39365
583750	13	-5	1	0.1260078	-0.003888757	-0.05147911	0	11.06	20054	0	0	5	5	0.02	-0.09635936	3	10	0.03	2000	-1.537262	40.92393	-91.39365
583864	8	-1	1	0.1275964	-0.008520035	-0.05001187	0	11.06	20054	0	0	5	5	0.02	-0.107193	3	10	0.03	2000	-1.323883	40.92393	-91.39365
583923	15	0	3	0.1219256	-0.003495855	-0.04958401	0	11.06	20054	0	0	5	5	0.02	-0.1175725	3	10	0.03	2000	-1.32132	40.92393	-91.39365
584076	15	0	-1	0.1312102	-0.004007323	-0.05276328	0	11.06	20054	0	0	5	5	0.02	-0.1425853	3	10	0.03	2000	-1.335571	40.92393	-91.39365
584188	8	1	7	0.1309548	-0.009618318	-0.05423113	0	11.06	20054	0	0	5	5	0.02	-0.1586091	3	10	0.03	2000	-1.335632	40.92393	-91.39365
584242	6	-1	2	0.130948	-0.01215684	-0.05508715	0	11.06	20054	0	0	5	5	0.02	-0.1601825	3	10	0.03	2000	-1.108307	40.92393	-91.39365
584320	15	-2	-3	0.1250054	-0.0135662	-0.05386385	0	11.06	20054	0	0	5	5	0.02	-0.1648101	3	10	0.03	2000	-1.111023	40.92393	-91.39365
584457	9	-7	-1	0.1252404	-0.01707603	-0.05233536	0	11.06	20054	0	0	5	5	0.02	-0.1666802	3	10	0.03	2000	-1.335236	40.92393	-91.39365
584520	14	-4	3	0.1262016	-0.01549358	-0.05392502	0	11.06	20054	0	0	5	5	0.02	-0.1674213	3	10	0.03	2000	-1.335236	40.92393	-91.39365
584619	8	-2	-5	0.1250445	-0.01202446	-0.05221308	0	11.06	20054	0	0	5	5	0.02	-0.1804444	3	10	0.03	2000	-1.331482	40.92393	-91.39365
584746	4	-3	2	0.1285758	-0.006957147	-0.05013468	0	11.06	20054	0	0	5	5	0.02	-0.1827218	3	10	0.03	2000	-1.335846	40.92393	-91.39365
584824	15	4	2	0.1218149	-0.006378118	-0.04982892	0	11.06	20054	0	0	5	5	0.02	-0.1831424	3	10	0.03	2000	-1.112915	40.92393	-91.39365
584960	13	-7	0	0.1281386	-0.00746058	-0.04848403	0	11.06	20054	0	0	5	5	0.02	-0.1791285	3	10	0.03	2000	-1.333618	40.92393	-91.39365
585069	10	5	2	0.1244141	-0.005347711	-0.0483009	0	11.06	20054	0	0	5	5	0.02	-0.1760223	3	10	0.03	2000	-1.329346	40.92393	-91.39365
585176	8	-3	-4	0.1241796	-0.00439016	-0.04671131	0	11.06	20054	0	0	5	5	0.02	-0.16713	3	10	0.03	2000	-1.55423	40.92393	-91.39365
585226	5	0	-4	0.1304733	-0.006620431	-0.04597732	0	11.06	20054	0	0	5	5	0.02	-0.1465189	3	10	0.03	2000	-1.338196	40.92393	-91.39365
585339	9	0	-5	0.132709	-0.01296858	-0.04457127	0	11.06	20054	0	0	5	5	0.02	-0.1317012	3	10	0.03	2000	-1.343353	40.92393	-91.39365
585515	10	-6	1	0.130358	-0.01080343	-0.04328693	0	11.11	20054	0	0	5	5	0.02	-0.1196148	3	10	0.03	2000	-1.341888	40.92393	-91.39365
585589	6	1	0	0.1281007	-0.01292082	-0.04310355	0	11.11	20054	0	0	5	5	0.02	-0.1203962	3	10	0.03	2000	-1.564789	40.92393	-91.39365
585645	14	-1	0	0.1246635	-0.01127936	-0.04377611	0	11.11	20054	0	0	5	5	0.02	-0.1211342	3	10	0.03	2000	-1.328247	40.92393	-91.39365
585795	7	2	-5	0.1256415	-0.01012306	-0.04450984	0	11.11	20054	0	0	5	5	0.02	-0.126185	3	10	0.03	2000	-1.330994	40.92393	-91.39365
