time(ms)	gyro_x(deg/s)	gyro_y(deg/s)	gyro_z(deg/s)	orientation_roll(deg)	orientation_pitch(deg)	orientation_yaw(deg)	throttle	battery(V)	loop_time(uS)	pid_output_roll	pid_output_pitch	pid_output_yaw	pid_output_throttle	ultrasonic_alt	baro_alt	flight_mode	p_gain_altitude	i_gain_altitude	d_gain_altitude	compass_heading	latitude	longitude
523858	17	-4	2	0.0865441	0.2959673	-4.686505	0	11.06	20054	0	0	5	5	0.02	-0.1900592	1	10	0.03	2000	-1.252167	40.92393	-91.39362
523900	21	-1	-3	0.08447083	0.294798	-4.685833	0	11.06	20054	0	0	5	5	0.02	-0.1885448	1	10	0.03	2000	-1.250549	40.92393	-91.39362
523998	21	-1	0	0.08127526	0.2933035	-4.681981	0	11.06	20054	0	0	5	5	0.02	-0.1828348	1	10	0.03	2000	-1.023315	40.92393	-91.39362
524125	24	-3	0	0.08422323	0.297527	-4.679352	0	11.06	20054	0	0	5	5	0.02	-0.1749497	1	10	0.03	2000	-1.253296	40.92393	-91.39362
524192	18	0	-3	0.08166087	0.2983822	-4.677701	0	11.06	20054	0	0	5	5	0.02	-0.1734792	1	10	0.03	2000	-1.247131	40.92393	-91.39362
524309	22	-2	-3	0.08251259	0.2984313	-4.674156	0	11.06	20054	0	0	5	5	0.02	-0.1696722	1	10	0.03	2000	-1.025024	40.92393	-91.39362
524439	27	-1	0	0.08259165	0.29841	-4.671343	0	11.06	20054	0	0	5	5	0.02	-0.1638908	1	10	0.03	2000	-1.25058	40.92393	-91.39362
524501	17	-2	-2	0.07943913	0.3023216	-4.670183	0	11.06	20054	0	0	5	5	0.02	-0.1632324	1	10	0.03	2000	-1.028717	40.92393	-91.39362
524642	20	-2	-4	0.08820862	0.3004302	-4.670305	0	11.06	20054	0	0	5	5	0.02	-0.1634865	1	10	0.03	2000	-1.257416	40.92393	-91.39362
524706	23	-10	-6	0.08407459	0.3062522	-4.667738	0	11.06	20054	0	0	5	5	0.02	-0.1661493	1	10	0.03	2000	-1.253082	40.92393	-91.39362
524861	21	3	-1	0.09491716	0.3077821	-4.665721	0	11.06	20054	0	0	5	5	0.02	-0.1727982	1	10	0.03	2000	-1.268524	40.92393	-91.39362
524915	22	1	0	0.09752489	0.3030393	-4.664499	0	11.06	20054	0	0	5	5	0.02	-0.1762087	1	10	0.03	2000	-1.273895	40.92393	-91.39362
525044	20	5	2	0.09820635	0.2953544	-4.659609	0	11.06	20054	0	0	5	5	0.02	-0.178847	1	10	0.03	2000	-1.274536	40.92393	-91.39362
525122	23	1	0	0.09992246	0.2962324	-4.659059	0	11.06	20054	0	0	5	5	0.02	-0.1826478	1	10	0.03	2000	-1.047485	40.92393	-91.39362
525231	11	1	-2	0.104633	0.2925364	-4.659121	0	11.11	20054	0	0	5	5	0.02	-0.1917886	1	10	0.03	2000	-1.285187	40.92393	-91.39362
525346	21	1	5	0.1016453	0.2881691	-4.657348	0	11.11	20054	0	0	5	5	0.02	-0.2037004	1	10	0.03	2000	-1.056091	40.92393	-91.39362
525467	23	-4	3	0.1022108	0.2918662	-4.658815	0	11.11	20054	0	0	5	5	0.02	-0.2115102	1	10	0.03	2000	-1.284698	40.92393	-91.39362
525537	15	2	-1	0.1035439	0.2900659	-4.657532	0	11.11	20054	0	0	5	5	0.02	-0.2189772	1	10	0.03	2000	-1.28421	40.92393	-91.39362
525703	24	1	0	0.102738	0.2968336	-4.655331	0	11.11	20054	0	0	5	5	0.02	-0.2275747	1	10	0.03	2000	-1.058868	40.92393	-91.39362
525748	25	-2	2	0.102542	0.2983547	-4.654048	0	11.11	20054	0	0	5	5	0.02	-0.2268254	1	10	0.03	2000	-1.053925	40.92393	-91.39362
525849	20	-3	-4	0.1065731	0.2982358	-4.651358	0	11.11	20054	0	0	5	5	0.02	-0.2174467	1	10	0.03	2000	-1.28595	40.92393	-91.39362
525959	23	-5	0	0.1078699	0.3028125	-4.649035	0	11.11	20054	0	0	5	5	0.02	-0.2170123	1	10	0.03	2000	-1.066956	40.92393	-91.39362
526079	21	-2	-8	0.1173061	0.3043759	-4.646835	0	11.11	20054	0	0	5	5	0.02	-0.2144112	1	10	0.03	2000	-1.299042	40.92393	-91.39362
526215	18	0	0	0.125093	0.3032593	-4.645182	0	11.11	20054	0	0	5	5	0.02	-0.2116065	1	10	0.03	2000	-1.30603	40.92393	-91.39362
526350	27	-4	-2	0.1187739	0.3020292	-4.641638	0	11.11	20054	0	0	5	5	0.02	-0.2173548	1	10	0.03	2000	-1.31543	40.92393	-91.39362
526486	20	-2	-3	0.1165455	0.303539	-4.637849	0	11.11	20054	0	0	5	5	0.02	-0.2293505	1	10	0.03	2000	-1.299133	40.92393	-91.39362
526543	20	-6	-4	0.1163079	0.3063603	-4.63687	0	11.11	20054	0	0	5	5	0.02	-0.2359369	1	10	0.03	2000	-1.0802	40.92393	-91.39362
526723	21	1	-1	0.122254	0.3100447	-4.63149	0	11.11	20054	0	0	5	5	0.02	-0.2558905	1	10	0.03	2000	-1.542511	40.92393	-91.39362
526766	16	3	-1	0.1236211	0.3138297	-4.630389	0	11.11	20054	0	0	5	5	0.02	-0.2597764	1	10	0.03	2000	-1.314758	40.92393	-91.39362
526850	29	-3	-1	0.1143123	0.3108569	-4.627455	0	11.11	20054	0	0	5	5	0.02	-0.2618495	1	10	0.03	2000	-1.087921	40.92393	-91.39362
526969	16	-1	-3	0.1157249	0.3072199	-4.625254	0	11.11	20054	0	0	5	5	0.02	-0.2624842	1	10	0.03	2000	-1.077606	40.92393	-91.39362
527072	27	-5	3	0.1247855	0.3093015	-4.622258	0	11.11	20054	0	0	5	5	0.02	-0.2648222	1	10	0.03	2000	-1.310638	40.92393	-91.39362
527179	16	-2	-1	0.1217991	0.3109777	-4.620913	0	11.06	20054	0	0	5	5	0.02	-0.268646	1	10	0.03	2000	-1.091034	40.92393	-91.39362
527260	28	-1	2	0.1224109	0.3143115	-4.621523	0	11.06	20054	0	0	5	5	0.02	-0.2666303	1	10	0.03	2000	-1.089844	40.92393	-91.39362
527369	23	-7	-4	0.1345869	0.3204968	-4.6181	0	11.06	20054	0	0	5	5	0.02	-0.2593625	1	10	0.03	2000	-1.096283	40.92393	-91.39362
527514	23	1	1	0.1329094	0.3106056	-4.615288	0	11.06	20054	0	0	5	5	0.02	-0.257534	1	10	0.03	2000	-1.33136	40.92393	-91.39362
527599	19	0	-4	0.1358224	0.3109522	-4.61272	0	11.06	20054	0	0	5	5	0.02	-0.256142	1	10	0.03	2000	-1.338898	40.92393	-91.39362
527718	26	-2	2	0.1341876	0.309352	-4.611804	0	11.06	20054	0	0	5	5	0.02	-0.2517312	1	10	0.03	2000	-1.337646	40.92393	-91.39362
527780	25	-4	-2	0.1398008	0.3099163	-4.606792	0	11.06	20054	0	0	5	5	0.02	-0.2491031	1	10	0.03	2000	-1.328857	40.92393	-91.39362
527886	25	2	-4	0.1400202	0.3097426	-4.605326	0	11.06	20054	0	0	5	5	0.02	-0.2455924	1	10	0.03	2000	-1.114838	40.92393	-91.39362
528006	26	-1	3	0.1350419	0.3007655	-4.601475	0	11.06	20054	0	0	5	5	0.02	-0.240457	1	10	0.03	2000	-1.33194	40.92393	-91.39362
528099	20	-3	0	0.1373626	0.3033922	-4.598113	0	11.06	20054	0	0	5	5	0.02	-0.2339069	1	10	0.03	2000	-1.336151	40.92393	-91.39362
528288	24	-7	-1	0.1320617	0.3101301	-4.594323	0	11.06	20054	0	0	5	5	0.02	-0.2380562	1	10	0.03	2000	-1.107697	40.92393	-91.39362
528439	20	0	0	0.1249204	0.3069483	-4.589249	0	11.06	20054	0	0	5	5	0.02	-0.2379758	1	10	0.03	2000	-1.544586	40.92393	-91.39362
528503	24	0	0	0.125811	0.3059484	-4.58778	0	11.06	20054	0	0	5	5	0.02	-0.2394914	1	10	0.03	2000	-1.097687	40.92393	-91.39362
528621	18	-2	4	0.1364339	0.3040827	-4.583318	0	11.06	20054	0	0	5	5	0.02	-0.2553008	1	10	0.03	2000	-1.555573	40.92393	-91.39362
528713	19	0	0	0.1290059	0.3073092	-4.579834	0	11.06	20054	0	0	5	5	0.02	-0.2674071	1	10	0.03	2000	-1.320343	40.92393	-91.39362
528795	26	-6	-4	0.1269608	0.3093101	-4.578427	0	11.06	20054	0	0	5	5	0.02	-0.2712657	1	10	0.03	2000	-1.316589	40.92393	-91.39362
528956	28	1	-7	0.1369015	0.3065113	-4.573964	0	11	20054	0	0	5	5	0.02	-0.2747594	1	10	0.03	2000	-1.100403	40.92393	-91.39362
529013	21	-1	0	0.1371672	0.3072746	-4.571824	0	11	20054	0	0	5	5	0.02	-0.2733497	1	10	0.03	2000	-1.333252	40.92393	-91.39362
529163	26	-2	-1	0.1341957	0.3081639	-4.568829	0	11	20054	0	0	5	5	0.02	-0.2757896	1	10	0.03	2000	-1.334015	40.92393	-91.39362
529208	22	-3	1	0.1363569	0.3101781	-4.568585	0	11	20054	0	0	5	5	0.02	-0.2727273	1	10	0.03	2000	-1.335602	40.92393	-91.39362
529283	28	0	1	0.1363054	0.3087343	-4.567483	0	11	20054	0	0	5	5	0.02	-0.2683968	1	10	0.03	2000	-1.10791	40.92393	-91.39362
529416	20	2	2	0.1362287	0.3082334	-4.564916	0	11	20054	0	0	5	5	0.02	-0.2526879	1	10	0.03	2000	-1.339386	40.92393	-91.39362
529535	31	0	5	0.1313976	0.3115059	-4.56192	0	11	20054	0	0	5	5	0.02	-0.247423	1	10	0.03	2000	-1.333649	40.92393	-91.39362
529640	25	0	0	0.1306957	0.3070824	-4.55813	0	11	20054	0	0	5	5	0.02	-0.2444116	1	10	0.03	2000	-1.105194	40.92393	-91.39362
529700	21	-2	4	0.132884	0.3068228	-4.556418	0	11	20054	0	0	5	5	0.02	-0.2417225	1	10	0.03	2000	-1.548431	40.92393	-91.39362
529824	27	0	0	0.1346265	0.3062616	-4.553973	0	11	20054	0	0	5	5	0.02	-0.2383585	1	10	0.03	2000	-1.108521	40.92393	-91.39362
529924	30	-5	-3	0.1378799	0.3121435	-4.549082	0	11.06	20054	0	0	5	5	0.02	-0.2387827	1	10	0.03	2000	-1.339539	40.92393	-91.39362
530013	26	2	-6	0.1373866	0.3119005	-4.547187	0	11.06	20054	0	0	5	5	0.02	-0.237825	1	10	0.03	2000	-1.114594	40.92393	-91.39362
530072	21	1	-7	0.1395742	0.3073964	-4.54462	0	11.06	20054	0	0	5	5	0.02	-0.2360316	1	10	0.03	2000	-1.333496	40.92393	-91.39362
530198	28	-3	-4	0.1459716	0.3097924	-4.540402	0	11.06	20054	0	0	5	5	0.02	-0.2316068	1	10	0.03	2000	-1.351013	40.92393	-91.39362
530325	24	-2	6	0.1431147	0.3124633	-4.536612	0	11.06	20054	0	0	5	5	0.02	-0.2359804	1	10	0.03	2000	-1.350891	40.92393	-91.39362
530373	28	1	-6	0.145061	0.3120759	-4.534349	0	11.06	20054	0	0	5	5	0.02	-0.2393911	1	10	0.03	2000	-1.573669	40.92393	-91.39362
530495	34	-1	2	0.1404197	0.3095597	-4.532272	0	11.06	20054	0	0	5	5	0.02	-0.2415695	1	10	0.03	2000	-1.118561	40.92393	-91.39362
530602	26	-2	-5	0.1481363	0.3087328	-4.527076	0	11.06	20054	0	0	5	5	0.02	-0.2486559	1	10	0.03	2000	-1.13147	40.92393	-91.39362
530685	26	-3	-8	0.1442202	0.3088062	-4.52298	0	11.06	20054	0	0	5	5	0.02	-0.2507683	1	10	0.03	2000	-1.122833	40.92393	-91.39362
530772	21	1	-4	0.146187	0.3109057	-4.519679	0	11.06	20054	0	0	5	5	0.02	-0.2507172	1	10	0.03	2000	-1.349579	40.92393	-91.39362
530876	28	-3	0	0.1501953	0.3141311	-4.517784	0	11.06	20054	0	0	5	5	0.02	-0.243149	1	10	0.03	2000	-1.575043	40.92393	-91.39362
530967	27	-3	-3	0.1539568	0.3157246	-4.515889	0	11.06	20054	0	0	5	5	0.02	-0.2323772	1	10	0.03	2000	-1.129456	40.92393	-91.39362
531070	27	-4	0	0.1597573	0.3149847	-4.510876	0	11.06	20054	0	0	5	5	0.02	-0.2306019	1	10	0.03	2000	-1.365021	40.92393	-91.39362
531241	26	4	-2	0.1548989	0.3104942	-4.507146	0	11.06	20054	0	0	5	5	0.02	-0.2338596	1	10	0.03	2000	-1.369141	40.92393	-91.39362
531328	23	-14	5	0.1539074	0.3119905	-4.506413	0	11.06	20054	0	0	5	5	0.02	-0.2324514	1	10	0.03	2000	-1.366913	40.92393	-91.39362
531438	26	-5	-4	0.160136	0.3140939	-4.503417	0	11.06	20054	0	0	5	5	0.02	-0.2266663	1	10	0.03	2000	-1.370728	40.92393	-91.39362
531578	31	-2	-6	0.1687207	0.3120111	-4.497915	0	11.06	20054	0	0	5	5	0.02	-0.2324588	1	10	0.03	2000	-1.376801	40.92393	-91.39362
531663	23	0	-4	0.1652874	0.3088919	-4.495102	0	11.06	20054	0	0	5	5	0.02	-0.2529503	1	10	0.03	2000	-1.607971	40.92393	-91.39362
531726	31	4	2	0.1674551	0.3069664	-4.492107	0	11.06	20054	0	0	5	5	0.02	-0.256095	1	10	0.03	2000	-1.377197	40.92393	-91.39362
531887	29	-1	0	0.1676735	0.3150713	-4.488807	0	11.06	20054	0	0	5	5	0.02	-0.2670647	1	10	0.03	2000	-1.380096	40.92393	-91.39362
532104	26	0	-1	0.1628572	0.3070999	-4.483243	0	11.06	20054	0	0	5	5	0.02	-0.2454267	1	10	0.03	2000	-1.148224	40.92393	-91.39362
532263	28	-2	-2	0.1689516	0.3069239	-4.478902	0	11.06	20054	0	0	5	5	0.02	-0.2174988	1	10	0.03	2000	-1.166107	40.92393	-91.39362
532332	26	0	1	0.1630978	0.3098859	-4.476518	0	11.06	20054	0	0	5	5	0.02	-0.2078813	1	10	0.03	2000	-1.601715	40.92393	-91.39362
532488	31	0	-7	0.1656625	0.3099255	-4.470404	0	11.06	20054	0	0	5	5	0.02	-0.2062463	1	10	0.03	2000	-1.377319	40.92393	-91.39362
532629	29	0	-6	0.1622341	0.3063309	-4.463252	0	11.06	20054	0	0	5	5	0.02	-0.2079577	1	10	0.03	2000	-1.384674	40.92393	-91.39362
532781	26	0	-1	0.1599164	0.3013852	-4.458666	0	11.06	20054	0	0	5	5	0.02	-0.2103597	1	10	0.03	2000	-1.151581	40.92393	-91.39362
532863	32	-2	0	0.1581143	0.3025609	-4.456771	0	11.06	20054	0	0	5	5	0.02	-0.214933	1	10	0.03	2000	-1.363129	40.92393	-91.39362
533028	27	-2	-1	0.170063	0.3024914	-4.452797	0	11.06	20054	0	0	5	5	0.02	-0.2228579	1	10	0.03	2000	-1.380646	40.92393	-91.39362
533123	23	-2	-4	0.1767626	0.3035609	-4.451208	0	11.06	20054	0	0	5	5	0.02	-0.2244087	1	10	0.03	2000	-1.385345	40.92393	-91.39362
533207	27	-6	3	0.179139	0.2994081	-4.449069	0	11.06	20054	0	0	5	5	0.02	-0.2276255	1	10	0.03	2000	-1.400482	40.92393	-91.39362
533278	23	-5	-5	0.1860793	0.295062	-4.443626	0	11.06	20054	0	0	5	5	0.02	-0.2265304	1	10	0.03	2000	-1.188568	40.92393	-91.39362
533382	26	-2	-5	0.1856765	0.2959122	-4.440264	0	11.06	20054	0	0	5	5	0.02	-0.2140288	1	10	0.03	2000	-1.185364	40.92393	-91.39362
533530	28	-2	-1	0.1768109	0.3024375	-4.440081	0	11.06	20054	0	0	5	5	0.02	-0.1973413	1	10	0.03	2000	-1.405579	40.92393	-91.39362
533682	28	0	0	0.1778052	0.299763	-4.436473	0	11.06	20054	0	0	5	5	0.02	-0.1954989	1	10	0.03	2000	-1.167328	40.92393	-91.39362
533816	26	3	-4	0.1764027	0.2974375	-4.432867	0	11.06	20054	0	0	5	5	0.02	-0.1989973	1	10	0.03	2000	-1.173187	40.92393	-91.39362
533919	27	-4	-3	0.1758266	0.2928135	-4.426754	0	11.06	20054	0	0	5	5	0.02	-0.2049418	1	10	0.03	2000	-1.392578	40.92393	-91.39362
534152	22	-2	0	0.1858717	0.3019291	-4.417523	0	11.06	20054	0	0	5	5	0.02	-0.2165862	1	10	0.03	2000	-1.169708	40.92393	-91.39362
534306	27	-7	1	0.1907595	0.3028527	-4.413732	0	11.06	20054	0	0	5	5	0.02	-0.2154815	1	10	0.03	2000	-1.411407	40.92393	-91.39362
534354	30	-2	0	0.1884562	0.3084145	-4.409636	0	11.11	20054	0	0	5	5	0.02	-0.2149081	1	10	0.03	2000	-1.416748	40.92393	-91.39362
534431	26	0	-5	0.1867438	0.3068077	-4.408169	0	11.11	20054	0	0	5	5	0.02	-0.2177691	1	10	0.03	2000	-1.416718	40.92393	-91.39362
534524	31	2	1	0.1932857	0.3074948	-4.405845	0	11.11	20054	0	0	5	5	0.02	-0.2245211	1	10	0.03	2000	-1.419159	40.92393	-91.39362
534617	23	-2	-1	0.2055069	0.3046143	-4.402543	0	11.11	20054	0	0	5	5	0.02	-0.226652	1	10	0.03	2000	-1.43692	40.92393	-91.39362
534721	37	0	-4	0.2016876	0.3037467	-4.398875	0	11.11	20054	0	0	5	5	0.02	-0.2345207	1	10	0.03	2000	-1.441528	40.92393	-91.39362
534872	33	-5	0	0.2015945	0.3008013	-4.393617	0	11.11	20054	0	0	5	5	0.02	-0.2548635	1	10	0.03	2000	-1.216431	40.92393	-91.39362
534984	19	-3	-1	0.200573	0.2994678	-4.390316	0	11.11	20054	0	0	5	5	0.02	-0.267675	1	10	0.03	2000	-1.43399	40.92393	-91.39362
535014	27	-1	-2	0.2050202	0.2996476	-4.389521	0	11.11	20054	0	0	5	5	0.02	-0.2730533	1	10	0.03	2000	-1.43399	40.92393	-91.39362
535102	27	1	-3	0.198584	0.3007808	-4.386708	0	11.11	20054	0	0	5	5	0.02	-0.2808723	1	10	0.03	2000	-1.440277	40.92393	-91.39362
535204	30	-1	-5	0.1940687	0.3027227	-4.38573	0	11.11	20054	0	0	5	5	0.02	-0.283631	1	10	0.03	2000	-1.193756	40.92393	-91.39362
535359	28	3	-6	0.1966607	0.3004917	-4.383895	0	11.06	20054	0	0	5	5	0.02	-0.2798979	1	10	0.03	2000	-1.203064	40.92393	-91.39362
535485	30	0	-2	0.2013507	0.3031436	-4.377661	0	11.06	20054	0	0	5	5	0.02	-0.28057	1	10	0.03	2000	-1.432922	40.92393	-91.39362
535517	26	-10	0	0.1991703	0.303087	-4.377417	0	11.06	20054	0	0	5	5	0.02	-0.2830245	1	10	0.03	2000	-1.217682	40.92393	-91.39362
535592	29	7	-6	0.2018071	0.2969644	-4.376071	0	11.06	20054	0	0	5	5	0.02	-0.2878572	1	10	0.03	2000	-1.429779	40.92393	-91.39362
535730	31	-1	-4	0.2028746	0.3004828	-4.372648	0	11.06	20054	0	0	5	5	0.02	-0.3005334	1	10	0.03	2000	-1.439026	40.92393	-91.39362
535857	36	5	-2	0.2029826	0.304932	-4.367634	0	11.06	20054	0	0	5	5	0.02	-0.3080123	1	10	0.03	2000	-1.440491	40.92393	-91.39362
535951	28	-1	-2	0.1993755	0.2997971	-4.365495	0	11.06	20054	0	0	5	5	0.02	-0.3053761	1	10	0.03	2000	-1.435364	40.92393	-91.39362
536005	35	-6	-3	0.1987173	0.303627	-4.360727	0	11.06	20054	0	0	5	5	0.02	-0.3048323	1	10	0.03	2000	-1.659851	40.92393	-91.39362
536119	29	-1	-2	0.2083946	0.3040795	-4.356631	0	11.06	20054	0	0	5	5	0.02	-0.2998437	1	10	0.03	2000	-1.205322	40.92393	-91.39362
536241	31	0	-4	0.209876	0.3051048	-4.352718	0	11.06	20054	0	0	5	5	0.02	-0.2939568	1	10	0.03	2000	-1.667633	40.92393	-91.39362
536317	34	-1	-3	0.2136967	0.3067884	-4.352229	0	11.06	20054	0	0	5	5	0.02	-0.2803611	1	10	0.03	2000	-1.458282	40.92393	-91.39362
536402	31	-5	-1	0.2135448	0.3076669	-4.348501	0	11.06	20054	0	0	5	5	0.02	-0.272038	1	10	0.03	2000	-1.233032	40.92393	-91.39362
536504	31	-5	-1	0.2124062	0.3048184	-4.346239	0	11.06	20054	0	0	5	5	0.02	-0.2606352	1	10	0.03	2000	-1.452942	40.92393	-91.39362
536624	24	0	-3	0.2135558	0.3096933	-4.342876	0	11.06	20054	0	0	5	5	0.02	-0.2511551	1	10	0.03	2000	-1.232086	40.92393	-91.39362
536707	29	-5	-1	0.2055609	0.3096649	-4.337375	0	11.06	20054	0	0	5	5	0.02	-0.2485728	1	10	0.03	2000	-1.665131	40.92393	-91.39362
536860	31	2	0	0.213758	0.3096038	-4.333216	0	11.06	20054	0	0	5	5	0.02	-0.231436	1	10	0.03	2000	-1.451721	40.92393	-91.39362
536909	31	0	-2	0.2168357	0.3111461	-4.330587	0	11.06	20054	0	0	5	5	0.02	-0.2265946	1	10	0.03	2000	-1.453583	40.92393	-91.39362
537062	30	6	-5	0.2202015	0.3048333	-4.325208	0	11.06	20054	0	0	5	5	0.02	-0.2149252	1	10	0.03	2000	-1.240234	40.92393	-91.39362
537121	28	0	-4	0.2224195	0.3053114	-4.324413	0	11.11	20054	0	0	5	5	0.02	-0.2134266	1	10	0.03	2000	-1.240234	40.92393	-91.39362
537213	34	-4	-7	0.2223762	0.3095796	-4.319581	0	11.11	20054	0	0	5	5	0.02	-0.2131517	1	10	0.03	2000	-1.460144	40.92393	-91.39362
537339	34	-3	0	0.2246543	0.3074065	-4.316953	0	11.11	20054	0	0	5	5	0.02	-0.2072198	1	10	0.03	2000	-1.244171	40.92393	-91.39362
537445	27	4	-5	0.2299659	0.2980096	-4.311818	0	11.11	20054	0	0	5	5	0.02	-0.2011895	1	10	0.03	2000	-1.251404	40.92393	-91.39362
537555	29	1	-2	0.23333	0.2881104	-4.310596	0	11.11	20054	0	0	5	5	0.02	-0.195206	1	10	0.03	2000	-1.256958	40.92393	-91.39362
537687	32	1	-1	0.2428634	0.2980581	-4.303137	0	11.11	20054	0	0	5	5	0.02	-0.1883615	1	10	0.03	2000	-1.50235	40.92393	-91.39362
537772	30	-7	0	0.2426109	0.2966613	-4.30112	0	11.11	20054	0	0	5	5	0.02	-0.1841996	1	10	0.03	2000	-1.271851	40.92393	-91.39362
537814	33	-3	-1	0.2412415	0.2942219	-4.299041	0	11.11	20054	0	0	5	5	0.02	-0.1801974	1	10	0.03	2000	-1.272522	40.92393	-91.39362
537974	35	1	-2	0.2383574	0.288829	-4.294517	0	11.11	20054	0	0	5	5	0.02	-0.1843075	1	10	0.03	2000	-1.498016	40.92393	-91.39362
538013	31	3	0	0.2366012	0.2886506	-4.292194	0	11.11	20054	0	0	5	5	0.02	-0.1864324	1	10	0.03	2000	-1.263184	40.92393	-91.39362
538117	34	-4	-3	0.2395154	0.2921664	-4.287852	0	11.06	20054	0	0	5	5	0.02	-0.1888469	1	10	0.03	2000	-1.497101	40.92393	-91.39362
538223	40	1	-5	0.2435664	0.2914262	-4.28449	0	11.06	20054	0	0	5	5	0.02	-0.1986278	1	10	0.03	2000	-1.498688	40.92393	-91.39362
538330	28	-3	3	0.2472606	0.2915695	-4.278926	0	11.06	20054	0	0	5	5	0.02	-0.2108838	1	10	0.03	2000	-1.512115	40.92393	-91.39362
538463	37	-2	-1	0.248534	0.2889661	-4.275015	0	11.06	20054	0	0	5	5	0.02	-0.2295684	1	10	0.03	2000	-1.51123	40.92393	-91.39362
538524	25	-3	-4	0.2501734	0.2862855	-4.270735	0	11.06	20054	0	0	5	5	0.02	-0.2333253	1	10	0.03	2000	-1.506744	40.92393	-91.39362
538624	34	-2	-4	0.2501412	0.2834061	-4.266394	0	11.06	20054	0	0	5	5	0.02	-0.2361694	1	10	0.03	2000	-1.506989	40.92393	-91.39362
538744	34	0	-5	0.2520859	0.287132	-4.258691	0	11.06	20054	0	0	5	5	0.02	-0.2354856	1	10	0.03	2000	-1.510956	40.92393	-91.39362
538863	36	-3	-1	0.2595071	0.288221	-4.253068	0	11.06	20054	0	0	5	5	0.02	-0.2408497	1	10	0.03	2000	-1.296661	40.92393	-91.39362
538955	33	-3	0	0.2605254	0.2896518	-4.24732	0	11.06	20054	0	0	5	5	0.02	-0.2437818	1	10	0.03	2000	-1.306976	40.92393	-91.39362
539047	31	-2	0	0.2627832	0.2952296	-4.243224	0	11.06	20054	0	0	5	5	0.02	-0.2449928	1	10	0.03	2000	-1.530609	40.92393	-91.39362
539135	30	-4	-4	0.2640562	0.2978652	-4.237966	0	11.06	20054	0	0	5	5	0.02	-0.2435128	1	10	0.03	2000	-1.532288	40.92393	-91.39362
539242	36	-2	-2	0.2700326	0.2967748	-4.233138	0	11.06	20054	0	0	5	5	0.02	-0.2432335	1	10	0.03	2000	-1.537445	40.92393	-91.39362
539376	36	-1	-2	0.2769243	0.2951905	-4.223172	0	11.06	20054	0	0	5	5	0.02	-0.241257	1	10	0.03	2000	-1.555237	40.92393	-91.39362
539437	37	0	-3	0.2792654	0.2981852	-4.221644	0	11.06	20054	0	0	5	5	0.02	-0.2399843	1	10	0.03	2000	-1.555237	40.92393	-91.39362
539547	35	0	0	0.2755335	0.2942096	-4.213942	0	11.06	20054	0	0	5	5	0.02	-0.2389861	1	10	0.03	2000	-1.55658	40.92393	-91.39362
539740	36	0	0	0.2751528	0.2909819	-4.207766	0	11.06	20054	0	0	5	5	0.02	-0.2541733	1	10	0.03	2000	-1.552277	40.92393	-91.39362
539832	38	-4	-3	0.2820444	0.2933743	-4.202632	0	11.06	20054	0	0	5	5	0.02	-0.2592637	1	10	0.03	2000	-1.557556	40.92393	-91.39362
539996	34	0	-3	0.2858045	0.2912704	-4.194501	0	11.06	20054	0	0	5	5	0.02	-0.2680164	1	10	0.03	2000	-1.33252	40.92393	-91.39362
540035	37	-4	-4	0.2859141	0.2909739	-4.193339	0	11.06	20054	0	0	5	5	0.02	-0.2684508	1	10	0.03	2000	-1.568176	40.92393	-91.39362
540157	36	-4	0	0.2801383	0.2867199	-4.18906	0	11.06	20054	0	0	5	5	0.02	-0.2613465	1	10	0.03	2000	-1.33725	40.92393	-91.39362
540251	36	-5	-4	0.2894905	0.2881864	-4.180624	0	11.06	20054	0	0	5	5	0.02	-0.2505794	1	10	0.03	2000	-1.576965	40.92393	-91.39362
540404	33	-3	-1	0.296753	0.2860648	-4.173777	0	11.06	20054	0	0	5	5	0.02	-0.2428489	1	10	0.03	2000	-1.351715	40.92393	-91.39362
540435	33	-3	-1	0.296753	0.2860648	-4.173777	0	11.06	20054	0	0	5	5	0.02	-0.2428489	1	10	0.03	2000	-1.351715	40.92393	-91.39362
540588	33	0	-5	0.2937617	0.2924872	-4.166687	0	11.06	20054	0	0	5	5	0.02	-0.2395	1	10	0.03	2000	-1.582275	40.92393	-91.39362
540640	36	5	0	0.2968668	0.2894709	-4.164975	0	11.06	20054	0	0	5	5	0.02	-0.2348521	1	10	0.03	2000	-1.80658	40.92393	-91.39362
540770	36	1	-2	0.3004102	0.2861622	-4.160085	0	11.06	20054	0	0	5	5	0.02	-0.2321088	1	10	0.03	2000	-1.586273	40.92393	-91.39362
540854	36	-5	-8	0.2991806	0.2907297	-4.155929	0	11.06	20054	0	0	5	5	0.02	-0.2257321	1	10	0.03	2000	-1.360291	40.92393	-91.39362
540984	40	-4	-4	0.3090733	0.2945619	-4.149938	0	11.06	20054	0	0	5	5	0.02	-0.2227699	1	10	0.03	2000	-1.817261	40.92393	-91.39362
541056	38	2	-2	0.3044073	0.2971464	-4.14517	0	11.06	20054	0	0	5	5	0.02	-0.2215014	1	10	0.03	2000	-1.592407	40.92393	-91.39362
541139	34	3	1	0.3022937	0.2965138	-4.142357	0	11.06	20054	0	0	5	5	0.02	-0.2248888	1	10	0.03	2000	-1.59494	40.92393	-91.39363
541290	36	1	-1	0.3005816	0.2876357	-4.134595	0	11.06	20054	0	0	5	5	0.02	-0.2331178	1	10	0.03	2000	-1.363373	40.92393	-91.39363
541346	39	4	-4	0.2985348	0.2861522	-4.132151	0	11.06	20054	0	0	5	5	0.02	-0.2334244	1	10	0.03	2000	-1.58313	40.92393	-91.39363
541466	42	0	-3	0.3063891	0.2897013	-4.126832	0	11.06	20054	0	0	5	5	0.02	-0.2291332	1	10	0.03	2000	-1.375549	40.92393	-91.39363
541560	39	-2	-1	0.3077369	0.2941688	-4.123226	0	11.06	20054	0	0	5	5	0.02	-0.224503	1	10	0.03	2000	-1.373138	40.92393	-91.39363
541644	34	0	-5	0.3070561	0.291616	-4.119986	0	11.06	20054	0	0	5	5	0.02	-0.2218172	1	10	0.03	2000	-1.378845	40.92393	-91.39363
541798	36	0	-3	0.3049394	0.2922253	-4.112465	0	11.06	20054	0	0	5	5	0.02	-0.2271043	1	10	0.03	2000	-1.377838	40.92393	-91.39363
541884	33	-4	1	0.296491	0.2925907	-4.110447	0	11.06	20054	0	0	5	5	0.02	-0.2326783	1	10	0.03	2000	-1.597748	40.92393	-91.39363
541974	37	-2	0	0.2984657	0.289977	-4.105862	0	11.06	20054	0	0	5	5	0.02	-0.2419548	1	10	0.03	2000	-1.35907	40.92393	-91.39363
542036	31	4	-3	0.3012717	0.2926753	-4.104578	0	11.06	20054	0	0	5	5	0.02	-0.2491743	1	10	0.03	2000	-1.824738	40.92393	-91.39363
542187	36	-3	0	0.2971204	0.3004855	-4.098464	0	11.06	20054	0	0	5	5	0.02	-0.2409371	1	10	0.03	2000	-1.359772	40.92393	-91.39363
542242	39	0	-1	0.3033538	0.2990016	-4.095407	0	11.06	20054	0	0	5	5	0.02	-0.2370295	1	10	0.03	2000	-1.360382	40.92393	-91.39363
542347	38	0	-3	0.3015206	0.2991762	-4.091496	0	11.06	20054	0	0	5	5	0.02	-0.2363327	1	10	0.03	2000	-1.368988	40.92393	-91.39363
542431	35	-3	-8	0.3026894	0.3006766	-4.08685	0	11.06	20054	0	0	5	5	0.02	-0.235381	1	10	0.03	2000	-1.595428	40.92393	-91.39363
542536	37	-4	-6	0.3070657	0.3015708	-4.080798	0	11.06	20054	0	0	5	5	0.02	-0.2307837	1	10	0.03	2000	-1.366791	40.92393	-91.39363
542628	35	-8	-2	0.307046	0.2951982	-4.077864	0	11.06	20054	0	0	5	5	0.02	-0.2272034	1	10	0.03	2000	-1.381104	40.92393	-91.39363
542792	34	1	0	0.3076728	0.2925403	-4.069246	0	11.06	20054	0	0	5	5	0.02	-0.2289226	1	10	0.03	2000	-1.590851	40.92393	-91.39363
542912	38	-5	-7	0.3102874	0.2970665	-4.065824	0	11.06	20054	0	0	5	5	0.02	-0.2387051	1	10	0.03	2000	-1.374146	40.92393	-91.39363
542952	36	-4	-4	0.3087934	0.297669	-4.063378	0	11.06	20054	0	0	5	5	0.02	-0.24324	1	10	0.03	2000	-1.384979	40.92393	-91.39363
543082	38	1	2	0.3126397	0.2986271	-4.055859	0	11.06	20054	0	0	5	5	0.02	-0.2526687	1	10	0.03	2000	-1.372955	40.92393	-91.39363
543171	37	-4	2	0.3146487	0.29534	-4.052556	0	11.06	20054	0	0	5	5	0.02	-0.2557101	1	10	0.03	2000	-1.607666	40.92393	-91.39363
543286	36	-6	-4	0.3153482	0.2867044	-4.049684	0	11.06	20054	0	0	5	5	0.02	-0.2617519	1	10	0.03	2000	-1.38147	40.92393	-91.39363
543318	37	-4	-3	0.3136154	0.2878122	-4.047666	0	11.06	20054	0	0	5	5	0.02	-0.2661978	1	10	0.03	2000	-1.836975	40.92393	-91.39363
543396	40	3	-5	0.3095005	0.2828573	-4.044364	0	11.06	20054	0	0	5	5	0.02	-0.27181	1	10	0.03	2000	-1.598358	40.92393	-91.39363
543491	35	-1	-1	0.306143	0.2861506	-4.039961	0	11.06	20054	0	0	5	5	0.02	-0.2756783	1	10	0.03	2000	-1.827667	40.92393	-91.39363
543595	28	3	-1	0.3036788	0.2903054	-4.034826	0	11.06	20054	0	0	5	5	0.02	-0.2756361	1	10	0.03	2000	-1.594788	40.92393	-91.39363
543788	35	0	-5	0.3114794	0.2922692	-4.030058	0	11.06	20054	0	0	5	5	0.02	-0.286045	1	10	0.03	2000	-1.608643	40.92393	-91.39363
543818	33	-3	-6	0.3118303	0.2918901	-4.028101	0	11.06	20054	0	0	5	5	0.02	-0.2860714	1	10	0.03	2000	-1.606415	40.92393	-91.39363
543922	41	-1	-4	0.3172993	0.2974578	-4.022171	0	11.06	20054	0	0	5	5	0.02	-0.2896351	1	10	0.03	2000	-1.616425	40.92393	-91.39363
544010	40	3	-5	0.3193206	0.2979349	-4.018747	0	11.06	20054	0	0	5	5	0.02	-0.2982411	1	10	0.03	2000	-1.84906	40.92393	-91.39363
544080	37	4	0	0.3172345	0.2970334	-4.015079	0	11.06	20054	0	0	5	5	0.02	-0.2992408	1	10	0.03	2000	-1.613464	40.92393	-91.39363
544173	46	0	-2	0.3193602	0.2930453	-4.011167	0	11.06	20054	0	0	5	5	0.02	-0.3068809	1	10	0.03	2000	-1.605988	40.92393	-91.39363
544299	37	0	-8	0.3235703	0.2880911	-4.004687	0	11.06	20054	0	0	5	5	0.02	-0.3163889	1	10	0.03	2000	-1.626282	40.92393	-91.39363
544356	40	-4	-2	0.3218545	0.2886237	-4.001997	0	11.06	20054	0	0	5	5	0.02	-0.3214144	1	10	0.03	2000	-1.623871	40.92393	-91.39363
544469	34	0	-7	0.3193737	0.2946456	-3.997779	0	11.06	20054	0	0	5	5	0.02	-0.3249653	1	10	0.03	2000	-1.614502	40.92393	-91.39363
544556	35	-5	0	0.3098204	0.2958586	-3.99301	0	11.06	20054	0	0	5	5	0.02	-0.3270642	1	10	0.03	2000	-1.602417	40.92393	-91.39363
544689	44	-4	-1	0.3108276	0.2999672	-3.987691	0	11.06	20054	0	0	5	5	0.02	-0.3212243	1	10	0.03	2000	-1.38205	40.92393	-91.39363
544767	46	0	2	0.3100658	0.2987078	-3.985551	0	11.06	20054	0	0	5	5	0.02	-0.320506	1	10	0.03	2000	-1.60675	40.92393	-91.39363
544859	37	-5	-2	0.3094445	0.2964275	-3.979499	0	11.06	20054	0	0	5	5	0.02	-0.3207255	1	10	0.03	2000	-1.604034	40.92393	-91.39363
544944	36	0	0	0.3117263	0.2953905	-3.975587	0	11.06	20054	0	0	5	5	0.02	-0.318577	1	10	0.03	2000	-1.37973	40.92393	-91.39363
545061	42	-2	-3	0.3135124	0.2968815	-3.972286	0	11.06	20054	0	0	5	5	0.02	-0.3234073	1	10	0.03	2000	-1.605072	40.92393	-91.39363
545183	51	3	0	0.3200512	0.3015498	-3.96556	0	11.06	20054	0	0	5	5	0.02	-0.3207474	1	10	0.03	2000	-1.61673	40.92393	-91.39364
545236	40	0	3	0.3276093	0.3019439	-3.965744	0	11.06	20054	0	0	5	5	0.02	-0.3230658	1	10	0.03	2000	-1.61673	40.92393	-91.39364
545375	32	-5	-2	0.3266239	0.3031485	-3.959447	0	11.06	20054	0	0	5	5	0.02	-0.3249213	1	10	0.03	2000	-1.632965	40.92393	-91.39364
545430	34	-1	-7	0.3249007	0.3003786	-3.957613	0	11.06	20054	0	0	5	5	0.02	-0.3182954	1	10	0.03	2000	-1.848358	40.92393	-91.39364
545527	45	0	-4	0.317875	0.2955453	-3.951683	0	11.06	20054	0	0	5	5	0.02	-0.3091532	1	10	0.03	2000	-1.394928	40.92393	-91.39364
545687	37	-1	-1	0.3144826	0.2932322	-3.94392	0	11.06	20054	0	0	5	5	0.02	-0.3042514	1	10	0.03	2000	-1.614868	40.92393	-91.39364
545764	38	-4	-4	0.320105	0.2854692	-3.939334	0	11.06	20054	0	0	5	5	0.02	-0.3021764	1	10	0.03	2000	-1.390533	40.92393	-91.39364
545870	49	6	-3	0.3199188	0.2884568	-3.935055	0	11.06	20054	0	0	5	5	0.02	-0.2974825	1	10	0.03	2000	-1.614227	40.92393	-91.39364
545946	42	-2	3	0.3169174	0.2887138	-3.930775	0	11.06	20054	0	0	5	5	0.02	-0.2954932	1	10	0.03	2000	-1.841339	40.92393	-91.39364
546037	39	4	-2	0.3161376	0.2788745	-3.929185	0	11.06	20054	0	0	5	5	0.02	-0.2936475	1	10	0.03	2000	-1.609161	40.92393	-91.39364
546146	43	0	-1	0.3175785	0.2820991	-3.924051	0	11.06	20054	0	0	5	5	0.02	-0.2876117	1	10	0.03	2000	-1.389099	40.92393	-91.39364
546261	45	-2	-3	0.3230678	0.282165	-3.918243	0	11.06	20054	0	0	5	5	0.02	-0.2832367	1	10	0.03	2000	-1.8508	40.92393	-91.39364
546439	39	2	-4	0.3301488	0.2878288	-3.910907	0	11.06	20054	0	0	5	5	0.02	-0.2754137	1	10	0.03	2000	-1.631134	40.92393	-91.39364
546487	45	0	-1	0.3277273	0.2871448	-3.906872	0	11.06	20054	0	0	5	5	0.02	-0.2761206	1	10	0.03	2000	-1.635437	40.92393	-91.39364
546539	45	-6	-7	0.3278936	0.2870594	-3.90406	0	11.06	20054	0	0	5	5	0.02	-0.2792272	1	10	0.03	2000	-1.639587	40.92393	-91.39364
546643	48	0	-3	0.3362628	0.2901488	-3.896113	0	11.06	20054	0	0	5	5	0.02	-0.2804193	1	10	0.03	2000	-1.852234	40.92393	-91.39364
546769	40	-3	-3	0.3378744	0.2880644	-3.892566	0	11.06	20054	0	0	5	5	0.02	-0.2893381	1	10	0.03	2000	-1.864655	40.92393	-91.39364
546873	41	1	-6	0.3421286	0.2936257	-3.887981	0	11.06	20054	0	0	5	5	0.02	-0.2924275	1	10	0.03	2000	-1.654327	40.92393	-91.39364
546944	37	-6	-7	0.3452247	0.299307	-3.879055	0	11.06	20054	0	0	5	5	0.02	-0.2972973	1	10	0.03	2000	-1.660889	40.92393	-91.39364
547031	47	0	-13	0.3524944	0.298997	-3.873186	0	11.06	20054	0	0	5	5	0.02	-0.2982611	1	10	0.03	2000	-1.443665	40.92393	-91.39364
547162	43	-8	0	0.3525253	0.3055938	-3.861448	0	11.06	20054	0	0	5	5	0.02	-0.2931005	1	10	0.03	2000	-1.443176	40.92393	-91.39364
547256	44	-1	-6	0.3566183	0.3029786	-3.857168	0	11.06	20054	0	0	5	5	0.02	-0.2847547	1	10	0.03	2000	-1.664246	40.92393	-91.39364
547329	47	-3	0	0.3561123	0.3048194	-3.854661	0	11.06	20054	0	0	5	5	0.02	-0.2790874	1	10	0.03	2000	-1.678619	40.92393	-91.39364
547433	44	-5	0	0.3636467	0.3072563	-3.846837	0	11.06	20054	0	0	5	5	0.02	-0.2692374	1	10	0.03	2000	-1.455292	40.92393	-91.39364
547560	40	0	-5	0.3647248	0.3096235	-3.842129	0	11.06	20054	0	0	5	5	0.02	-0.261963	1	10	0.03	2000	-1.69751	40.92393	-91.39364
547636	44	-10	-3	0.3671131	0.3062447	-3.837789	0	11.06	20054	0	0	5	5	0.02	-0.2575632	1	10	0.03	2000	-1.691193	40.92393	-91.39364
547765	40	-4	1	0.370659	0.303744	-3.826662	0	11.06	20054	0	0	5	5	0.02	-0.2485548	1	10	0.03	2000	-1.929779	40.92393	-91.39364
547871	40	-2	0	0.3677666	0.3063023	-3.821955	0	11.06	20054	0	0	5	5	0.02	-0.2410736	1	10	0.03	2000	-1.470978	40.92393	-91.39364
547932	46	0	1	0.3677664	0.3079666	-3.820365	0	11.06	20054	0	0	5	5	0.02	-0.239777	1	10	0.03	2000	-1.470978	40.92393	-91.39364
548063	39	-4	-1	0.3694876	0.3004262	-3.809361	0	11.11	20054	0	0	5	5	0.02	-0.2348494	1	10	0.03	2000	-1.698364	40.92393	-91.39364
548219	48	-2	-1	0.3704046	0.2953737	-3.80019	0	11.11	20054	0	0	5	5	0.02	-0.2243824	1	10	0.03	2000	-1.467712	40.92393	-91.39364
548288	47	2	-2	0.3765691	0.2901523	-3.796705	0	11.11	20054	0	0	5	5	0.02	-0.2271993	1	10	0.03	2000	-1.703247	40.92393	-91.39364
548402	45	-2	-3	0.3779528	0.2938984	-3.786373	0	11.11	20054	0	0	5	5	0.02	-0.2443581	1	10	0.03	2000	-1.478485	40.92393	-91.39364
548439	39	0	-9	0.3753521	0.2920501	-3.783438	0	11.11	20054	0	0	5	5	0.02	-0.2509849	1	10	0.03	2000	-1.478485	40.92393	-91.39364
548554	44	0	-8	0.3791631	0.2891191	-3.773473	0	11.11	20054	0	0	5	5	0.02	-0.2616794	1	10	0.03	2000	-1.707123	40.92393	-91.39364
548609	40	-6	0	0.3784559	0.2882892	-3.771516	0	11.11	20054	0	0	5	5	0.02	-0.2794994	1	10	0.03	2000	-1.713928	40.92393	-91.39365
548714	40	-3	-3	0.3780126	0.2891914	-3.764913	0	11.11	20054	0	0	5	5	0.02	-0.2854942	1	10	0.03	2000	-1.710052	40.92393	-91.39365
548815	43	-1	-4	0.3774281	0.2884505	-3.757516	0	11.11	20054	0	0	5	5	0.02	-0.2916282	1	10	0.03	2000	-1.708099	40.92393	-91.39365
548957	47	1	-3	0.3800998	0.2812614	-3.751463	0	11.11	20054	0	0	5	5	0.02	-0.3033299	1	10	0.03	2000	-1.928223	40.92393	-91.39365
549033	41	3	-8	0.3904148	0.283047	-3.746877	0	11.11	20054	0	0	5	5	0.02	-0.3055049	1	10	0.03	2000	-1.722534	40.92393	-91.39365
549123	46	-1	-8	0.3987948	0.2857555	-3.741008	0	11.11	20054	0	0	5	5	0.02	-0.3076619	1	10	0.03	2000	-1.732971	40.92393	-91.39365
549238	53	-3	-5	0.4005455	0.2881099	-3.737646	0	11.11	20054	0	0	5	5	0.02	-0.3105053	1	10	0.03	2000	-1.509857	40.92393	-91.39365
549325	51	-1	-4	0.4030614	0.2844415	-3.730615	0	11.11	20054	0	0	5	5	0.02	-0.3103856	1	10	0.03	2000	-1.750153	40.92393	-91.39365
549453	41	-1	-3	0.4069051	0.2831846	-3.722545	0	11.11	20054	0	0	5	5	0.02	-0.315777	1	10	0.03	2000	-1.750732	40.92393	-91.39365
549568	49	-5	-2	0.4063787	0.2796878	-3.717227	0	11.11	20054	0	0	5	5	0.02	-0.3125029	1	10	0.03	2000	-1.528564	40.92393	-91.39365
549675	45	-2	5	0.4091964	0.2821031	-3.709279	0	11.11	20054	0	0	5	5	0.02	-0.3087605	1	10	0.03	2000	-1.751404	40.92393	-91.39365
549768	49	-7	-1	0.4060125	0.2777668	-3.701453	0	11.11	20054	0	0	5	5	0.02	-0.3058366	1	10	0.03	2000	-1.528015	40.92393	-91.39365
549805	46	-3	-4	0.4069524	0.2786529	-3.698885	0	11.06	20054	0	0	5	5	0.02	-0.3039259	1	10	0.03	2000	-1.528015	40.92393	-91.39365
549978	43	-4	-4	0.4006906	0.2793966	-3.69161	0	11.06	20054	0	0	5	5	0.02	-0.3002436	1	10	0.03	2000	-1.748901	40.92393	-91.39365
550064	38	-2	-2	0.4006856	0.2874646	-3.684579	0	11.06	20054	0	0	5	5	0.02	-0.3008241	1	10	0.03	2000	-1.750122	40.92393	-91.39365
550151	41	4	-3	0.3977425	0.2840157	-3.680911	0	11.06	20054	0	0	5	5	0.02	-0.2995642	1	10	0.03	2000	-1.740448	40.92393	-91.39365
550255	41	0	0	0.4000055	0.2828816	-3.674551	0	11.06	20054	0	0	5	5	0.02	-0.2972183	1	10	0.03	2000	-1.744415	40.92393	-91.39365
550356	51	3	-5	0.4063313	0.2857004	-3.669966	0	11.06	20054	0	0	5	5	0.02	-0.2925457	1	10	0.03	2000	-1.520538	40.92393	-91.39365
550451	46	0	-6	0.414925	0.2846407	-3.665442	0	11.06	20054	0	0	5	5	0.02	-0.2882537	1	10	0.03	2000	-1.971527	40.92393	-91.39365
550506	43	1	0	0.4179558	0.2893641	-3.661469	0	11.06	20054	0	0	5	5	0.02	-0.2857025	1	10	0.03	2000	-1.764618	40.92393	-91.39365
550670	53	-3	-2	0.4308271	0.2862679	-3.652421	0	11.06	20054	0	0	5	5	0.02	-0.2768688	1	10	0.03	2000	-1.787201	40.92393	-91.39365
550722	46	-2	-3	0.4317564	0.2817671	-3.651259	0	11.06	20054	0	0	5	5	0.02	-0.2712332	1	10	0.03	2000	-1.787201	40.92393	-91.39365
550828	43	1	-2	0.4481397	0.2751271	-3.64325	0	11.06	20054	0	0	5	5	0.02	-0.2649089	1	10	0.03	2000	-1.805115	40.92393	-91.39365
550921	49	-4	-3	0.4474742	0.2795838	-3.638176	0	11.06	20054	0	0	5	5	0.02	-0.2536069	1	10	0.03	2000	-1.810913	40.92393	-91.39365
551008	50	-4	0	0.4468313	0.2777759	-3.635118	0	11.06	20054	0	0	5	5	0.02	-0.2497833	1	10	0.03	2000	-1.816376	40.92393	-91.39365
551122	43	0	-5	0.4504679	0.2793987	-3.624725	0	11.06	20054	0	0	5	5	0.02	-0.2396996	1	10	0.03	2000	-1.596191	40.92393	-91.39365
551218	48	-1	-12	0.4440855	0.2748034	-3.616838	0	11.06	20054	0	0	5	5	0.02	-0.2342131	1	10	0.03	2000	-1.816833	40.92393	-91.39365
551356	49	-8	-1	0.4513375	0.270406	-3.609013	0	11.06	20054	0	0	5	5	0.02	-0.2285781	1	10	0.03	2000	-1.822296	40.92393	-91.39365
551411	52	0	-2	0.4564245	0.2706542	-3.60455	0	11.06	20054	0	0	5	5	0.02	-0.2286985	1	10	0.03	2000	-1.828613	40.92393	-91.39365
551545	53	-1	-6	0.4563405	0.269283	-3.592872	0	11.06	20054	0	0	5	5	0.02	-0.2334989	1	10	0.03	2000	-1.825745	40.92393	-91.39365
551627	51	-2	0	0.4564928	0.2695604	-3.58572	0	11.06	20054	0	0	5	5	0.02	-0.2345318	1	10	0.03	2000	-1.608276	40.92393	-91.39365
551710	53	-3	-3	0.4548542	0.2716869	-3.58358	0	11.06	20054	0	0	5	5	0.02	-0.2307593	1	10	0.03	2000	-1.599091	40.92393	-91.39365
551844	50	-3	-2	0.4534415	0.2732607	-3.57178	0	11.06	20054	0	0	5	5	0.02	-0.2274693	1	10	0.03	2000	-1.59726	40.92393	-91.39365
551949	48	-1	-6	0.4562323	0.2711334	-3.562182	0	11.06	20054	0	0	5	5	0.02	-0.2204229	1	10	0.03	2000	-1.834869	40.92393	-91.39365
552013	46	-7	-4	0.4545344	0.2701398	-3.559614	0	11.06	20054	0	0	5	5	0.02	-0.2127104	1	10	0.03	2000	-1.605347	40.92393	-91.39365
552138	60	-5	-3	0.4615259	0.2717993	-3.549098	0	11.06	20054	0	0	5	5	0.02	-0.2088881	1	10	0.03	2000	-1.83136	40.92393	-91.39365
552248	52	-2	-2	0.4676091	0.2752247	-3.541334	0	11.06	20054	0	0	5	5	0.02	-0.2059726	1	10	0.03	2000	-1.848541	40.92393	-91.39365
552298	53	-3	-6	0.4659388	0.2720651	-3.538094	0	11.06	20054	0	0	5	5	0.02	-0.2063267	1	10	0.03	2000	-1.847137	40.92393	-91.39365
552399	40	-1	-1	0.4704747	0.2758274	-3.529717	0	11.06	20054	0	0	5	5	0.02	-0.2043262	1	10	0.03	2000	-1.619568	40.92393	-91.39365
552524	51	-2	-6	0.4770756	0.2744763	-3.520913	0	11.06	20054	0	0	5	5	0.02	-0.2073021	1	10	0.03	2000	-1.856903	40.92393	-91.39365
552645	50	-5	-2	0.4756657	0.274128	-3.513821	0	11.06	20054	0	0	5	5	0.02	-0.2102268	1	10	0.03	2000	-1.861511	40.92393	-91.39365
552763	42	-5	-2	0.4765517	0.2701128	-3.507829	0	11.06	20054	0	0	5	5	0.02	-0.2144747	1	10	0.03	2000	-2.089508	40.92393	-91.39365
552832	49	-2	-2	0.4791878	0.2705064	-3.503734	0	11.06	20054	0	0	5	5	0.02	-0.2128805	1	10	0.03	2000	-1.87326	40.92393	-91.39365
552907	52	-6	-4	0.4839223	0.2718785	-3.498842	0	11.06	20054	0	0	5	5	0.02	-0.2110857	1	10	0.03	2000	-1.639374	40.92393	-91.39365
553017	51	-4	-6	0.485575	0.2748683	-3.492056	0	11.06	20054	0	0	5	5	0.02	-0.2133776	1	10	0.03	2000	-2.099396	40.92393	-91.39365
553093	55	-8	-7	0.4905723	0.2779245	-3.486676	0	11.06	20054	0	0	5	5	0.02	-0.2106442	1	10	0.03	2000	-1.651672	40.92393	-91.39365
553219	53	0	-9	0.484726	0.2840001	-3.47989	0	11.06	20054	0	0	5	5	0.02	-0.2159584	1	10	0.03	2000	-1.87149	40.92393	-91.39365
553350	52	-1	-4	0.4884835	0.2754342	-3.469191	0	11.06	20054	0	0	5	5	0.02	-0.2169665	1	10	0.03	2000	-1.878265	40.92393	-91.39365
553433	53	-6	0	0.491382	0.2800253	-3.463567	0	11.06	20054	0	0	5	5	0.02	-0.2222745	1	10	0.03	2000	-1.645691	40.92393	-91.39365
553507	57	2	-4	0.4910929	0.2785661	-3.462344	0	11.11	20054	0	0	5	5	0.02	-0.2256412	1	10	0.03	2000	-1.884247	40.92393	-91.39365
553636	54	-1	-1	0.4983454	0.2804066	-3.44816	0	11.11	20054	0	0	5	5	0.02	-0.2349233	1	10	0.03	2000	-1.898102	40.92393	-91.39365
553697	52	-4	-4	0.4958752	0.2791978	-3.443881	0	11.11	20054	0	0	5	5	0.02	-0.2337776	1	10	0.03	2000	-1.671051	40.92393	-91.39365
553856	50	1	-5	0.4992666	0.2740618	-3.434649	0	11.11	20054	0	0	5	5	0.02	-0.235669	1	10	0.03	2000	-1.668213	40.92393	-91.39365
554002	57	0	-5	0.5038084	0.270147	-3.424744	0	11.11	20054	0	0	5	5	0.02	-0.2282733	1	10	0.03	2000	-1.67572	40.92393	-91.39365
554115	50	-3	-3	0.5060531	0.2725812	-3.415879	0	11.11	20054	0	0	5	5	0.02	-0.2189469	1	10	0.03	2000	-1.893524	40.92393	-91.39365
554196	51	-2	-3	0.5098237	0.2674981	-3.410866	0	11.11	20054	0	0	5	5	0.02	-0.2164595	1	10	0.03	2000	-2.336517	40.92393	-91.39365
554311	48	-4	-5	0.5019152	0.2662296	-3.399495	0	11.11	20054	0	0	5	5	0.02	-0.2048419	1	10	0.03	2000	-1.680725	40.92393	-91.39365
554410	53	-1	-4	0.5028875	0.2637269	-3.391792	0	11.11	20054	0	0	5	5	0.02	-0.2007989	1	10	0.03	2000	-1.912231	40.92393	-91.39365
554543	54	2	-1	0.5050657	0.2625422	-3.384333	0	11.11	20054	0	0	5	5	0.02	-0.2056568	1	10	0.03	2000	-1.905518	40.92393	-91.39365
554578	54	0	-6	0.5047366	0.2581809	-3.379504	0	11.11	20054	0	0	5	5	0.02	-0.2085492	1	10	0.03	2000	-1.913879	40.92393	-91.39365
554656	57	0	-2	0.5063716	0.2596306	-3.375653	0	11.11	20054	0	0	5	5	0.02	-0.2141643	1	10	0.03	2000	-1.913879	40.92393	-91.39365
