time(ms)	gyro_x(deg/s)	gyro_y(deg/s)	gyro_z(deg/s)	orientation_roll(deg)	orientation_pitch(deg)	orientation_yaw(deg)	throttle	battery(V)	loop_time(uS)	pid_output_roll	pid_output_pitch	pid_output_yaw	pid_output_throttle	ultrasonic_alt	baro_alt	flight_mode	p_gain_altitude	i_gain_altitude	d_gain_altitude	compass_heading	latitude	longitude
153812	13	-2	0	0.1153581	0.001593824	0.3580347	0	11.97	20051	0	0	5	5	0.02	-0.09745815	1	10	0.03	2000	-1.056366	40.92393	-91.39363
153921	7	-1	0	0.1187859	-0.0006139516	0.3568119	0	11.97	20051	0	0	5	5	0.02	-0.09184548	1	10	0.03	2000	-1.05014	40.92393	-91.39363
154074	16	1	-8	0.1258198	-0.001634385	0.3613973	0	11.97	20051	0	0	5	5	0.02	-0.07947979	1	10	0.03	2000	-1.061127	40.92393	-91.39363
154121	12	-1	0	0.1299548	-0.002231315	0.3612749	0	11.97	20051	0	0	5	5	0.02	-0.07388535	1	10	0.03	2000	-1.071655	40.92393	-91.39363
154264	15	0	-5	0.140958	-0.00471006	0.362865	0	11.97	20051	0	0	5	5	0.02	-0.06395891	1	10	0.03	2000	-1.090485	40.92393	-91.39363
154350	16	3	-1	0.1397451	-0.009922329	0.3669	0	11.97	20051	0	0	5	5	0.02	-0.05903014	1	10	0.03	2000	-1.090485	40.92393	-91.39363
154440	18	-5	-4	0.1394434	-0.009358411	0.3680616	0	11.97	20051	0	0	5	5	0.02	-0.06217266	1	10	0.03	2000	-1.090485	40.92393	-91.39363
154532	11	0	-4	0.1359639	-0.0184739	0.3699568	0	11.97	20051	0	0	5	5	0.02	-0.06325036	1	10	0.03	2000	-1.312714	40.92393	-91.39363
154654	11	-3	-2	0.135164	-0.01414632	0.3763764	0	11.97	20051	0	0	5	5	0.02	-0.06293289	1	10	0.03	2000	-1.086487	40.92393	-91.39363
154763	9	-1	0	0.139262	-0.0135665	0.3796775	0	11.97	20051	0	0	5	5	0.02	-0.0643352	1	10	0.03	2000	-1.091553	40.92393	-91.39363
154942	14	0	-2	0.1438596	-0.008320741	0.3838347	0	11.91	20051	0	0	5	5	0.02	-0.0727604	1	10	0.03	2000	-1.322968	40.92393	-91.39363
155013	9	-4	0	0.1455229	-0.006462557	0.385302	0	11.91	20051	0	0	5	5	0.02	-0.07552712	1	10	0.03	2000	-1.099609	40.92393	-91.39363
155114	11	0	-3	0.146119	-0.008659219	0.3881142	0	11.91	20051	0	0	5	5	0.02	-0.07371883	1	10	0.03	2000	-1.319855	40.92393	-91.39363
155187	11	-4	-1	0.1427537	-0.01012413	0.38842	0	11.91	20051	0	0	5	5	0.02	-0.06540238	1	10	0.03	2000	-1.09967	40.92393	-91.39363
155292	7	0	-1	0.1389123	-0.006514571	0.3911101	0	11.91	20051	0	0	5	5	0.02	-0.05344575	1	10	0.03	2000	-1.32019	40.92393	-91.39363
155351	12	-1	-2	0.1392505	-0.003973739	0.3937999	0	11.91	20051	0	0	5	5	0.02	-0.04529315	1	10	0.03	2000	-1.313232	40.92393	-91.39363
155506	12	0	-1	0.1483945	-0.004285882	0.397835	0	11.91	20051	0	0	5	5	0.02	-0.0319559	1	10	0.03	2000	-1.100311	40.92393	-91.39363
155592	12	0	-3	0.1466943	-0.0009116543	0.3993021	0	11.91	20051	0	0	5	5	0.02	-0.007076376	1	10	0.03	2000	-1.100525	40.92393	-91.39363
155690	9	-2	-1	0.143859	-0.000369766	0.4032147	0	11.91	20051	0	0	5	5	0.02	0.00359815	1	10	0.03	2000	-1.105743	40.92393	-91.39363
155759	20	-2	0	0.1456861	0.0002586968	0.4034593	0	11.91	20051	0	0	5	5	0.02	0.01021961	1	10	0.03	2000	-1.105743	40.92393	-91.39363
155870	17	-1	-1	0.1526309	0.008299455	0.4092675	0	11.91	20051	0	0	5	5	0.02	0.01543579	1	10	0.03	2000	-1.328491	40.92393	-91.39363
155954	19	-8	0	0.1554336	-0.00109434	0.4155645	0	11.91	20051	0	0	5	5	0.02	0.01098728	1	10	0.03	2000	-1.112305	40.92393	-91.39363
156062	13	-7	-1	0.1565825	-0.001312789	0.4180098	0	11.91	20051	0	0	5	5	0.02	0.006868836	1	10	0.03	2000	-1.110596	40.92393	-91.39363
156192	9	1	-8	0.1518046	-0.005614534	0.4236959	0	11.91	20051	0	0	5	5	0.02	0.002301383	1	10	0.03	2000	-1.111084	40.92393	-91.39363
156316	19	4	1	0.1568344	-0.004045547	0.4273644	0	11.91	20051	0	0	5	5	0.02	-0.004645835	1	10	0.03	2000	-1.117737	40.92393	-91.39363
156393	12	-7	0	0.1634054	-0.005019038	0.4312773	0	11.91	20051	0	0	5	5	0.02	-0.003876762	1	10	0.03	2000	-1.343872	40.92393	-91.39363
156551	19	-3	-7	0.1689955	-0.006222184	0.4342732	0	11.91	20051	0	0	5	5	0.02	0.002766811	1	10	0.03	2000	-1.134247	40.92393	-91.39363
156625	21	-5	-1	0.1703268	-0.0122992	0.4385531	0	11.91	20051	0	0	5	5	0.02	0.01012213	1	10	0.03	2000	-1.140869	40.92393	-91.39363
156695	17	-2	-2	0.1713617	-0.01247401	0.4409374	0	11.91	20051	0	0	5	5	0.02	0.01183289	1	10	0.03	2000	-1.142242	40.92393	-91.39363
156775	15	-4	-2	0.1735062	-0.01325046	0.4433829	0	11.97	20051	0	0	5	5	0.02	0.01107353	1	10	0.03	2000	-1.138092	40.92393	-91.39363
156892	10	1	-6	0.1757946	-0.01560975	0.450842	0	11.97	20051	0	0	5	5	0.02	0.006626801	1	10	0.03	2000	-1.376984	40.92393	-91.39363
157012	18	4	-3	0.1750263	-0.01182168	0.4546325	0	11.97	20051	0	0	5	5	0.02	0.002277403	1	10	0.03	2000	-1.376984	40.92393	-91.39363
157088	18	1	-4	0.1795962	-0.01408467	0.4572621	0	11.97	20051	0	0	5	5	0.02	-0.000674606	1	10	0.03	2000	-1.363342	40.92393	-91.39363
157175	18	-1	0	0.1815467	-0.00838998	0.4641095	0	11.97	20051	0	0	5	5	0.02	-0.009075684	1	10	0.03	2000	-1.153595	40.92393	-91.39363
157316	13	-2	-1	0.1774502	-0.001625306	0.4702232	0	11.97	20051	0	0	5	5	0.02	-0.01813542	1	10	0.03	2000	-1.371643	40.92393	-91.39363
157393	10	0	-3	0.1846523	0.0006038628	0.4726689	0	11.97	20051	0	0	5	5	0.02	-0.02769454	1	10	0.03	2000	-1.158447	40.92393	-91.39363
157465	12	2	-1	0.1826038	-0.001723062	0.4749312	0	11.97	20051	0	0	5	5	0.02	-0.03454753	1	10	0.03	2000	-1.156738	40.92393	-91.39363
157568	25	3	0	0.1851265	0.0008526646	0.477866	0	11.97	20051	0	0	5	5	0.02	-0.04213703	1	10	0.03	2000	-1.159119	40.92393	-91.39363
157668	15	-5	-1	0.1854084	0.001845245	0.4819013	0	11.97	20051	0	0	5	5	0.02	-0.04813948	1	10	0.03	2000	-1.157501	40.92393	-91.39363
157776	23	2	-1	0.1811527	0.001622051	0.483491	0	11.97	20051	0	0	5	5	0.02	-0.04721959	1	10	0.03	2000	-1.378357	40.92393	-91.39363
157867	25	-3	-3	0.1862881	0.004293856	0.4869148	0	11.97	20051	0	0	5	5	0.02	-0.04875762	3	10	0.03	2000	-1.15683	40.92393	-91.39363
157973	17	0	-4	0.1882422	0.00237509	0.491072	0	11.97	20051	0	0	5	5	0.02	-0.04624523	3	10	0.03	2000	-1.162598	40.92393	-91.39363
158080	8	-5	-4	0.1915506	-0.003550926	0.4957187	0	11.97	20051	0	0	5	5	0.02	-0.04760721	3	10	0.03	2000	-1.399017	40.92393	-91.39363
158176	18	0	-1	0.1932534	-0.007826473	0.5016495	0	11.97	20051	0	0	5	5	0.02	-0.04714095	3	10	0.03	2000	-1.175629	40.92393	-91.39363
158261	12	-1	3	0.1898607	-0.003676692	0.5037286	0	11.97	20051	0	0	5	5	0.02	-0.04692725	3	10	0.03	2000	-1.175629	40.92393	-91.39363
158365	17	0	-3	0.192569	-0.002755762	0.508742	0	11.97	20051	0	0	5	5	0.02	-0.05073339	3	10	0.03	2000	-1.164185	40.92393	-91.39363
158476	20	0	-4	0.1949795	-0.003746209	0.5133275	0	11.97	20051	0	0	5	5	0.02	-0.04968124	3	10	0.03	2000	-1.387787	40.92393	-91.39363
158601	17	-2	-2	0.1955066	-0.005765785	0.5191355	0	11.97	20051	0	0	5	5	0.02	-0.0525911	3	10	0.03	2000	-1.174194	40.92393	-91.39363
158684	19	2	-2	0.1997967	-0.006552757	0.5218865	0	11.97	20051	0	0	5	5	0.02	-0.05314616	3	10	0.03	2000	-1.18454	40.92393	-91.39363
158798	14	0	-1	0.2050026	-0.004654701	0.5242709	0	11.97	20051	0	0	5	5	0.02	-0.05387022	3	10	0.03	2000	-1.194824	40.92393	-91.39363
158906	24	13	-184	0.2022223	-0.002351521	0.5369287	0	11.97	20051	0	0	5	5	0.02	-0.05138169	3	10	0.03	2000	-1.44986	40.92393	-91.39363
159012	-26	-31	-137	0.2059637	-0.02736343	0.551355	0	11.97	20051	0	0	5	5	0.02	-0.05222004	3	10	0.03	2000	-1.680084	40.92393	-91.39363
159148	-12	-46	23	0.2231131	-0.03367279	0.5238419	0	11.97	20051	0	0	5	5	0.02	-0.05073974	3	10	0.03	2000	-0.8401794	40.92393	-91.39363
159228	-27	-38	74	0.2145527	-0.05057654	0.5211468	0	11.97	20051	0	0	5	5	0.02	-0.04812031	3	10	0.03	2000	-1.909027	40.92393	-91.39363
159361	174	98	-71	0.01781262	0.2549986	0.5149043	0	11.97	20051	0	0	5	5	0.02	-0.04506684	3	10	0.03	2000	-1.569061	40.92393	-91.39363
159426	51	232	-21	0.04009337	0.1616129	0.5214456	0	11.97	20051	0	0	5	5	0.02	-0.03821762	3	10	0.03	2000	-1.569061	40.92393	-91.39363
159518	-48	-136	137	0.01420042	0.1876161	0.5122805	0	11.97	20051	0	0	5	5	0.02	-0.02706946	3	10	0.03	2000	-1.52243	40.92393	-91.39363
159626	76	51	267	0.009283567	0.2180963	0.503785	0	11.97	20051	0	0	5	5	0.02	-0.002021513	3	10	0.03	2000	-1.09964	40.92393	-91.39363
159720	-32	-201	78	-0.01646421	0.2242397	0.5084364	0	11.97	20051	0	0	5	5	0.02	0.01074016	3	10	0.03	2000	-1.101013	40.92393	-91.39363
159830	97	-160	42	-0.0341097	0.1928842	0.5047728	0	11.97	20051	0	0	5	5	0.02	0.0138489	3	10	0.03	2000	-1.773712	40.92393	-91.39363
159961	-166	-106	-160	-0.02693355	0.1649103	0.5141912	0	11.97	20051	0	0	5	5	0.02	0.02051079	3	10	0.03	2000	-1.766235	40.92393	-91.39363
160177	17	-38	11	-0.08126239	0.1256519	0.5215323	0	11.97	20051	0	0	5	5	0.02	0.02107846	3	10	0.03	2000	-1.482513	40.92393	-91.39363
160253	84	218	-103	-0.1155529	0.1020359	0.5294272	0	11.97	20051	0	0	5	5	0.02	0.02071858	3	10	0.03	2000	-1.667725	40.92393	-91.39363
160444	106	-171	138	-0.1350018	0.1016278	0.5157411	0	11.97	20051	0	0	5	5	0.02	0.02351934	3	10	0.03	2000	-0.6653137	40.92393	-91.39363
160506	-53	20	-180	-0.1451733	0.09747866	0.5312074	0	11.91	20051	0	0	5	5	0.02	0.02727534	3	10	0.03	2000	-1.618958	40.92393	-91.39363
160638	-82	-228	288	-0.1917586	0.06556749	0.5173442	0	11.91	20051	0	0	5	5	0.02	0.03213809	3	10	0.03	2000	-0.6052246	40.92393	-91.39363
160671	80	216	-180	-0.1738287	0.05455399	0.5348921	0	11.91	20051	0	0	5	5	0.02	0.03394289	3	10	0.03	2000	-0.6052246	40.92393	-91.39363
160827	14	118	143	-0.2470861	0.0154854	0.5211226	0	11.91	20051	0	0	5	5	0.02	0.0368189	3	10	0.03	2000	-1.069458	40.92393	-91.39363
160870	127	-161	-19	-0.224311	0.07004022	0.5242445	0	11.91	20051	0	0	5	5	0.02	0.03772723	3	10	0.03	2000	-0.5539856	40.92393	-91.39363
160964	281	142	-24	-0.1882478	0.07388274	0.526736	0	11.91	20051	0	0	5	5	0.02	0.04628396	3	10	0.03	2000	-0.7950745	40.92393	-91.39363
161057	-150	-104	-87	-0.1653762	0.07597511	0.5347431	0	11.91	20051	0	0	5	5	0.02	0.05481588	3	10	0.03	2000	-0.8312683	40.92393	-91.39363
161213	-146	-252	-19	-0.2098046	-0.03219254	0.5170654	0	11.91	20051	0	0	5	5	0.02	0.06014969	3	10	0.03	2000	-1.070892	40.92393	-91.39363
161260	6	-170	266	-0.2265265	-0.02662331	0.5188333	0	11.91	20051	0	0	5	5	0.02	0.06386899	3	10	0.03	2000	-1.206085	40.92393	-91.39363
161464	-55	77	36	-0.1828907	-0.02431076	0.5519131	0	11.97	20051	0	0	5	5	0.02	0.09173097	3	10	0.03	2000	-0.6249084	40.92393	-91.39363
161485	-55	77	36	-0.1828907	-0.02431076	0.5519131	0	11.97	20051	0	0	5	5	0.02	0.09509755	3	10	0.03	2000	-0.6249084	40.92393	-91.39363
161635	93	89	-21	-0.07836784	-0.04501213	0.5550326	0	11.97	20051	0	0	5	5	0.02	0.1072248	3	10	0.03	2000	-0.9631348	40.92393	-91.39363
161758	-20	-84	-62	0.04227895	-0.1521866	0.5556435	0	11.97	20051	0	0	5	5	0.02	0.1149711	3	10	0.03	2000	-1.788849	40.92393	-91.39363
161789	-20	-8	-114	-0.009323594	-0.08762133	0.5664034	0	11.97	20051	0	0	5	5	0.02	0.1170471	3	10	0.03	2000	-1.591797	40.92393	-91.39363
161879	-30	25	87	0.0379429	-0.1252377	0.5507436	0	11.97	20051	0	0	5	5	0.02	0.1132807	3	10	0.03	2000	-1.179626	40.92393	-91.39363
162000	3	-40	-78	0.04443671	-0.1176634	0.5658435	0	11.97	20051	0	0	5	5	0.02	0.1028991	3	10	0.03	2000	-0.7641602	40.92393	-91.39364
162105	28	25	50	0.05407247	-0.08515685	0.5671939	0	11.97	20051	0	0	5	5	0.02	0.09240164	3	10	0.03	2000	-0.9915771	40.92393	-91.39364
162244	36	20	-20	0.0656151	-0.0729159	0.574776	0	11.97	20051	0	0	5	5	0.02	0.08856095	3	10	0.03	2000	-1.871796	40.92393	-91.39364
162287	-3	13	-8	0.07430656	-0.07295758	0.5741014	0	11.97	20051	0	0	5	5	0.02	0.08836575	3	10	0.03	2000	-1.016632	40.92393	-91.39364
162373	0	-11	8	0.0830845	-0.06647526	0.5728779	0	11.91	20051	0	0	5	5	0.02	0.08682672	3	10	0.03	2000	-1.020752	40.92393	-91.39364
162514	35	0	-27	0.0983657	-0.05916925	0.573853	0	11.91	20051	0	0	5	5	0.02	0.09605801	3	10	0.03	2000	-0.8320618	40.92393	-91.39364
162617	4	-12	4	0.1064529	-0.06158225	0.5710405	0	11.91	20051	0	0	5	5	0.02	0.1012026	3	10	0.03	2000	-1.264648	40.92393	-91.39364
162688	10	2	0	0.1150905	-0.06685133	0.5746482	0	11.91	20051	0	0	5	5	0.02	0.1030844	3	10	0.03	2000	-0.6165771	40.92393	-91.39364
162856	18	3	-4	0.1307463	-0.05484507	0.5759933	0	11.91	20051	0	0	5	5	0.02	0.1114759	3	10	0.03	2000	-0.4122314	40.92393	-91.39364
162991	14	-6	-1	0.1499386	-0.06390773	0.5755705	0	11.91	20051	0	0	5	5	0.02	0.1192464	3	10	0.03	2000	-1.800293	40.92393	-91.39364
163080	54	-30	-101	0.161294	-0.06137586	0.5780789	0	11.91	20051	0	0	5	5	0.02	0.122647	3	10	0.03	2000	-1.127136	40.92393	-91.39364
163196	35	-7	21	0.1684849	-0.05861562	0.5798461	0	11.91	20051	0	0	5	5	0.02	0.1270725	3	10	0.03	2000	-1.176361	40.92393	-91.39364
163305	103	-1	-36	0.1917635	-0.05388468	0.573608	0	11.91	20051	0	0	5	5	0.02	0.1328797	3	10	0.03	2000	-0.7272949	40.92393	-91.39364
163398	5	-44	-77	0.06009813	0.1202262	0.5780696	0	11.91	20051	0	0	5	5	0.02	0.1374301	3	10	0.03	2000	-1.310699	40.92393	-91.39364
163491	-13	-25	15	0.09673604	0.07873172	0.5802681	0	11.91	20051	0	0	5	5	0.02	0.1535795	3	10	0.03	2000	-1.009918	40.92393	-91.39364
163606	37	64	21	0.07202363	0.1130023	0.5750287	0	11.91	20051	0	0	5	5	0.02	0.1643066	3	10	0.03	2000	-1.219604	40.92393	-91.39364
163701	-16	-22	-39	0.03073257	0.1295521	0.5812589	0	11.91	20051	0	0	5	5	0.02	0.172622	3	10	0.03	2000	-0.7494202	40.92393	-91.39364
163816	-197	-135	10	0.02222658	0.1674151	0.572573	0	11.91	20051	0	0	5	5	0.02	0.1777834	3	10	0.03	2000	-1.139771	40.92393	-91.39364
163913	25	52	-37	-0.05705017	0.1973332	0.5802917	0	11.91	20051	0	0	5	5	0.02	0.1815074	3	10	0.03	2000	-1.372925	40.92393	-91.39364
164018	19	16	40	-0.01082885	0.1861365	0.587011	0	11.91	20051	0	0	5	5	0.02	0.1837652	3	10	0.03	2000	-1.086243	40.92393	-91.39364
164120	50	26	-91	0.02388207	0.1253317	0.5980116	0	11.91	20051	0	0	5	5	0.02	0.1833398	3	10	0.03	2000	-1.60318	40.92393	-91.39364
164233	40	39	34	0.05370469	0.09457584	0.6072475	0	11.97	20051	0	0	5	5	0.02	0.1816842	3	10	0.03	2000	-1.864624	40.92393	-91.39364
164352	87	-12	19	0.0620859	0.07531749	0.6158013	0	11.97	20051	0	0	5	5	0.02	0.1799901	3	10	0.03	2000	-0.9900208	40.92393	-91.39364
164468	59	-14	-3	0.01929612	0.1723696	0.6060869	0	11.97	20051	0	0	5	5	0.02	0.1737234	3	10	0.03	2000	-0.9237061	40.92393	-91.39364
164516	-51	-61	45	0.03742268	0.130197	0.6065789	0	11.97	20051	0	0	5	5	0.02	0.1718676	3	10	0.03	2000	-0.9237061	40.92393	-91.39364
164635	83	77	-125	0.0268099	0.1388135	0.5942358	0	11.97	20051	0	0	5	5	0.02	0.1679006	3	10	0.03	2000	-0.5322571	40.92393	-91.39364
164728	130	178	36	-0.00376947	0.1664775	0.575277	0	11.97	20051	0	0	5	5	0.02	0.1673349	3	10	0.03	2000	-0.9496765	40.92393	-91.39364
164835	94	76	-140	-0.01133767	0.07428779	0.5952731	0	11.97	20051	0	0	5	5	0.02	0.1661074	3	10	0.03	2000	-0.8937683	40.92393	-91.39364
164927	-24	-59	264	-0.06549281	0.03155015	0.5709445	0	11.97	20051	0	0	5	5	0.02	0.1661829	3	10	0.03	2000	-1.297668	40.92393	-91.39364
165036	159	132	-116	-0.03528326	-0.006531599	0.591193	0	11.97	20051	0	0	5	5	0.02	0.1688668	3	10	0.03	2000	-1.321106	40.92393	-91.39364
165147	146	-66	-9	-0.07043085	-0.09411798	0.5828746	0	11.91	20051	0	0	5	5	0.02	0.1797447	3	10	0.03	2000	-1.009644	40.92393	-91.39364
165258	-396	40	-60	-0.1709255	-0.1246035	0.5821832	0	11.91	20051	0	0	5	5	0.02	0.1851661	3	10	0.03	2000	-1.593048	40.92393	-91.39364
165364	-1	-177	-157	-0.1610927	-0.1787369	0.5962415	0	11.91	20051	0	0	5	5	0.02	0.1889905	3	10	0.03	2000	-1.418762	40.92393	-91.39364
165442	-237	-161	71	-0.1946203	-0.1618304	0.5895748	0	11.91	20051	0	0	5	5	0.02	0.1894921	3	10	0.03	2000	-0.8059082	40.92393	-91.39364
165645	-99	73	-404	-0.2755233	-0.2389227	0.5903858	0	11.91	20051	0	0	5	5	0.03458044	0.1855256	6	10	0.03	2000	-0.8172302	40.92393	-91.39364
165724	-42	-76	-101	-0.2455244	-0.207343	0.575835	0	11.91	20051	0	0	5	5	0.03759014	0.1802319	6	10	0.03	2000	-0.9976807	40.92393	-91.39364
165802	286	185	-355	-0.322202	-0.285901	0.5723349	0	11.91	20051	0	0	5	5	0.03898186	0.1813417	6	10	0.03	2000	-0.3518982	40.92393	-91.39364
165899	-279	-108	38	-0.3882198	-0.1595349	0.55602	0	11.91	20051	0	0	5	5	0.04263959	0.1785828	6	10	0.03	2000	-0.7022705	40.92393	-91.39364
166017	29	113	150	-0.4412777	-0.2231879	0.5379114	0	11.85	20051	0	0	5	5	0.04530607	0.1716304	6	10	0.03	2000	-1.501923	40.92393	-91.39364
166078	-71	107	189	-0.3880666	-0.07506283	0.535408	0	11.85	20051	0	0	5	5	0.04828031	0.1680982	6	10	0.03	2000	-1.501923	40.92393	-91.39364
166136	-58	112	0	-0.3838958	0.01058374	0.5475131	0	11.85	20051	0	0	5	5	0.04836119	0.1665333	6	10	0.03	2000	-1.242004	40.92393	-91.39364
166285	1	32	324	-0.3406553	0.03107201	0.5390829	0	11.85	20051	0	0	5	5	0.04910386	0.1624125	6	10	0.03	2000	-1.014954	40.92393	-91.39364
166350	114	178	-581	-0.3090265	-0.03686175	0.5563847	0	11.85	20051	0	0	5	5	0.04959078	0.163312	6	10	0.03	2000	-1.119873	40.92393	-91.39364
166462	227	-71	-951	-0.3021181	-0.07145514	0.5257488	0	11.85	20051	0	0	5	5	0.05006268	0.1641938	6	10	0.03	2000	-0.7124329	40.92393	-91.39364
166530	212	-140	-764	-0.382203	-0.08917169	0.5184056	0	11.85	20051	0	0	5	5	0.05002991	0.1669494	6	10	0.03	2000	-1.368805	40.92393	-91.39364
166640	0	-63	-900	-0.5022371	-0.1499206	0.5477511	0	11.85	20051	0	0	5	5	0.05069361	0.1860898	6	10	0.03	2000	-0.4396973	40.92393	-91.39364
166758	10	-173	502	-0.3981359	-0.2034592	0.5517783	0	11.85	20051	0	0	5	5	0.0513076	0.217453	6	10	0.03	2000	-1.066956	40.92393	-91.39364
166848	65	-166	56	-0.3104213	-0.2527576	0.5054452	0	11.85	20051	0	0	5	5	0.0512992	0.2383625	6	10	0.03	2000	-0.3715515	40.92393	-91.39364
166993	66	-88	33	-0.2986948	-0.2500539	0.5714682	0	11.17	20051	0	0	5	5	0.05103149	0.2593374	6	10	0.03	2000	-0.9571838	40.92393	-91.39364
167057	-255	140	-89	-0.2921551	-0.3929394	0.7531018	0	11.17	20051	0	0	5	5	0.05094636	0.2661959	6	10	0.03	2000	0.1597224	40.92393	-91.39364
167153	-146	-812	-380	-0.3742046	0.2025904	1.102051	0	11.17	20051	0	0	5	5	0.05089382	0.2694824	6	10	0.03	2000	-0.4304199	40.92393	-91.39364
167283	190	-1841	-860	-0.2927718	2.348983	1.544146	0	11.17	20051	0	0	5	5	0.04972066	0.3041082	6	10	0.03	2000	-2.245697	40.92393	-91.39364
167373	563	-1328	-2088	0.7114279	4.384427	2.046077	0	11.17	20051	0	0	5	5	0.04969937	0.3286849	6	10	0.03	2000	-2.492767	40.92393	-91.39364
167449	-625	478	-699	0.9517862	3.161136	2.381829	0	11.17	20051	0	0	5	5	0.05326251	0.3593878	6	10	0.03	2000	-3.259644	40.92393	-91.39364
167597	-440	2087	237	1.513737	-0.4526975	3.035936	0	11.17	20051	0	0	5	5	0.06154961	0.3885404	6	10	0.03	2000	-2.733398	40.92393	-91.39364
167702	1202	3866	464	0.1934122	-7.516304	0.9283457	0	11.17	20051	0	0	5	5	0.07433645	0.3950263	6	10	0.03	2000	-1.750671	40.92393	-91.39364
167740	1701	3118	1193	1.239509	-9.040123	0.3255174	0	11.17	20051	0	0	5	5	0.08000541	0.3970056	6	10	0.03	2000	-1.750671	40.92393	-91.39364
167834	1962	-385	-274	2.199324	-7.559029	0.1621258	0	11.17	20051	0	0	5	5	0.1067424	0.3950033	6	10	0.03	2000	0.864886	40.92393	-91.39364
167980	-471	26	-2501	2.141811	-6.724175	2.293488	0	11.06	20051	0	0	5	5	0.1432326	0.3908835	6	10	0.03	2000	2.196665	40.92393	-91.39364
168072	-2063	-3040	-1500	0.01843022	-4.086907	4.290393	0	11.06	20051	0	0	5	5	0.187852	0.383992	6	10	0.03	2000	0.8134197	40.92393	-91.39364
168215	8901	-530	657	1.785919	-0.6280099	4.519172	0	11.06	20035	-60	28	5	5	0.1506299	0.3802217	8	10	0.03	2000	-0.3893433	40.92393	-91.39364
168280	-3682	-1538	1473	5.456533	-0.1214502	2.965574	0	11.06	20006	-78	35	5	5	0.1355669	0.3815741	8	10	0.03	2000	2.673419	40.92393	-91.39364
168392	1945	1127	414	5.047359	2.060663	1.866438	0	11.06	20031	-78	36	5	5	0.08894543	0.4027158	8	10	0.03	2000	2.741414	40.92393	-91.39364
168512	-1711	1155	-319	3.804452	-0.3916613	2.112396	0	11.06	20030	-91	43	5	5	0.05252139	0.4540466	8	10	0.03	2000	5.588296	40.92393	-91.39363
168520	2645	433	73	3.808609	-0.730926	2.243052	0	11.06	20040	-91	43	5	5	0.05252139	0.4540466	8	10	0.03	2000	5.588296	40.92393	-91.39363
168633	55	687	687	4.299155	0.9931034	2.079196	0	11.06	20030	-91	43	5	5	0.0382881	0.498535	8	10	0.03	2000	6.10116	40.92393	-91.39363
168721	-2158	-2174	-857	2.421486	1.867835	0.8649094	0	11.06	20052	-96	43	5	5	0.02791202	0.5579511	8	10	0.03	2000	8.348775	40.92393	-91.39363
168860	461	293	-112	-0.7082368	4.962	2.444251	0	10.21	20015	18	8	5	5	0.02	0.6617718	8	10	0.03	2000	6.776821	40.92393	-91.39363
168908	1164	-408	-322	0.1320366	4.888164	2.576732	0	10.21	20020	19	9	5	5	0.02	0.7216098	8	10	0.03	2000	6.558393	40.92393	-91.39363
169124	-62	635	-285	1.081335	1.730284	1.814478	0	10.21	20027	33	10	5	5	0.02	0.9751572	8	10	0.03	2000	6.317638	40.92393	-91.39362
169181	-96	-643	-694	-0.03129179	1.886548	1.639717	0	10.21	20039	31	8	5	5	0.02	1.011846	8	10	0.03	2000	5.433244	40.92393	-91.39362
169288	-2063	-524	-1089	0.8565792	-0.6938714	3.001882	0	10.21	20064	41	8	5	5	0.02	1.225944	8	10	0.03	2000	5.084785	40.92393	-91.39362
169325	-1901	-133	1485	-0.08221793	-0.7942786	3.094641	0	10.21	20066	37	8	5	5	0.02	1.243588	8	10	0.03	2000	4.00604	40.92393	-91.39362
169447	-1269	-2605	1032	-2.440293	1.221691	1.643794	0	10.21	20052	51	8	5	5	0.02	1.472613	8	10	0.03	2000	5.725616	40.92393	-91.39362
169523	-371	-1653	-1312	-2.360611	2.48294	1.385115	0	10.21	20025	47	6	5	5	0.02	1.517374	8	10	0.03	2000	3.284416	40.92393	-91.39362
169647	-1156	94	-736	-3.150894	0.9693333	1.583547	0	11.74	20034	57	4	5	5	0.02	1.614908	8	10	0.03	2000	3.454964	40.92393	-91.39362
169743	-547	806	629	-3.202662	0.1678144	1.439755	0	11.74	20037	57	4	5	5	0.02	1.784404	8	10	0.03	2000	1.342338	40.92393	-91.39362
169813	-513	-435	243	-3.227451	0.1407145	1.183615	0	11.74	20031	65	4	5	5	0.02	1.881273	8	10	0.03	2000	0.6309013	40.92393	-91.39362
169960	-1079	-277	-242	-3.071969	1.761369	1.684542	0	11.74	20033	75	1	5	5	0.02	1.981413	8	10	0.03	2000	-4.782135	40.92393	-91.39361
170003	1025	2071	-488	-2.781957	-0.01071446	2.024183	0	11.74	20013	75	1	5	5	0.02	2.024429	8	10	0.03	2000	-8.83963	40.92393	-91.39361
170155	-2132	-2059	232	-3.113925	-2.157959	2.022594	0	11.74	20030	81	1	5	5	0.02	2.16681	8	10	0.03	2000	-8.868469	40.92393	-91.39361
170202	-1449	-1534	502	-4.013227	-0.990799	1.813998	0	11.74	20032	71	1	5	5	0.02	2.206089	8	10	0.03	2000	-8.868469	40.92393	-91.39361
170311	728	1767	478	-4.080153	-1.076488	1.764117	0	11.74	20034	78	-9	5	5	0.02	2.259068	8	10	0.03	2000	-11.46072	40.92393	-91.3936
170505	-176	628	-175	-4.814186	-4.745184	2.060876	0	11.74	20007	77	-9	5	5	0.02	2.387729	8	10	0.03	2000	-13.34119	40.92393	-91.3936
170537	249	992	-681	-4.169091	-5.344662	2.26505	0	11.74	20038	77	-9	5	5	0.02	2.395917	8	10	0.03	2000	-13.34119	40.92393	-91.3936
170595	-235	852	-15	-3.603157	-6.158504	2.588926	0	11.34	20032	71	-7	5	5	0.02	2.403644	8	10	0.03	2000	-15.58325	40.92393	-91.3936
170705	-584	-2110	826	-5.044461	-3.560232	1.29351	0	11.34	20028	78	-10	5	5	0.02	2.433159	8	10	0.03	2000	-15.6954	40.92393	-91.3936
170831	1450	672	-648	-5.32723	-2.738163	1.255912	0	11.34	20012	70	-14	5	5	0.02	2.459785	8	10	0.03	2000	-16.71017	40.92393	-91.3936
170895	-1091	0	242	-4.527742	-3.578736	1.659028	0	11.34	20032	70	-14	5	5	0.02	2.468362	8	10	0.03	2000	-20.32999	40.92392	-91.3936
171039	224	-151	239	-4.675696	-3.274351	1.907814	0	11.34	20036	70	-11	5	5	0.02	2.478443	8	10	0.03	2000	-18.47864	40.92392	-91.3936
171093	130	568	-1476	-4.756086	-4.537999	2.011829	0	11.34	20052	70	-12	5	5	0.02	2.480911	8	10	0.03	2000	-20.98874	40.92392	-91.3936
171210	-50	449	-416	-4.8913	-5.459868	2.703462	0	11.34	20009	62	-15	5	5	0.02	2.483145	8	10	0.03	2000	-23.03162	40.92392	-91.3936
171293	462	-281	235	-4.371574	-5.507741	2.905381	0	11.34	20022	62	-15	5	5	0.02	2.480958	8	10	0.03	2000	-22.47375	40.92392	-91.3936
171413	-1022	-702	1003	-4.031255	-3.94821	2.5606	0	11.34	20035	51	-13	5	5	0.02	2.475642	8	10	0.03	2000	-22.78564	40.92392	-91.3936
171558	-1522	-707	699	-4.558789	-1.525409	1.937055	0	10.38	20031	41	-14	5	5	0.02	2.471716	8	10	0.03	2000	-23.88446	40.92392	-91.3936
171608	2272	1711	-1776	-4.680019	-1.867881	1.970112	0	10.38	20006	41	-15	5	5	0.02	2.465105	8	10	0.03	2000	-24.02078	40.92392	-91.3936
171717	-723	-76	-1079	-3.518471	-2.858442	2.141789	0	10.38	20033	39	-13	5	5	0.02	2.465008	8	10	0.03	2000	-22.94522	40.92392	-91.3936
171828	-1228	-1610	-1450	-4.27333	-0.3767537	2.281461	0	10.38	20074	25	-16	5	5	0.02	2.467463	8	10	0.03	2000	-21.29922	40.92392	-91.39361
171924	1447	1406	-100	-5.361001	-0.5252669	3.040786	0	10.38	20016	27	-14	5	5	0.02	2.486216	8	10	0.03	2000	-21.09741	40.92392	-91.39361
172001	1038	520	1199	-4.495613	-1.1196	2.999294	0	10.38	20029	27	-14	5	5	0.02	2.505924	8	10	0.03	2000	-21.09741	40.92392	-91.39361
172110	-416	-432	648	-4.612721	-2.52441	2.039746	0	10.38	20037	31	-14	5	5	0.02	2.533336	8	10	0.03	2000	-21.42975	40.92392	-91.39362
172204	-836	-2761	545	-4.629972	-0.5322508	1.40749	0	10.38	20013	0	-18	5	5	0.02	2.564601	8	10	0.03	2000	-21.36533	40.92392	-91.39362
172360	2022	1287	532	-3.586159	-1.285015	1.717142	0	10.38	20032	-15	-19	5	5	0.02	2.617204	8	10	0.03	2000	-21.22775	40.92392	-91.39362
172422	1719	970	184	-2.767282	-1.418532	1.874886	0	11.23	20051	-7	-17	5	5	0.02	2.639613	8	10	0.03	2000	-21.22775	40.92392	-91.39362
172508	864	-223	895	-2.805327	-0.004270975	1.542579	0	11.23	20022	-28	-20	5	5	0.02	2.664761	8	10	0.03	2000	-16.65707	40.92392	-91.39362
172600	1362	852	1400	-1.874337	-0.4667516	0.9241493	0	11.23	20011	-28	-21	5	5	0.02	2.6925	8	10	0.03	2000	-15.55972	40.92392	-91.39362
172773	1764	-643	-1610	0.7741047	-1.792164	1.675218	0	11.23	23999	-38	-22	5	5	0.02	2.754938	8	10	0.03	2000	-15.16245	40.92392	-91.39364
172821	-1066	688	477	0.8838376	-2.645489	1.853827	0	11.23	20011	-38	-22	5	5	0.02	2.771201	8	10	0.03	2000	-13.93985	40.92392	-91.39364
172963	513	-453	1173	0.0228378	-2.361626	1.516564	0	11.23	20018	-63	-29	5	5	0.02	2.798194	8	10	0.03	2000	-10.7135	40.92391	-91.39365
173018	1448	843	-45	0.4017233	-1.845675	0.88942	0	11.23	20033	-51	-27	5	5	0.02	2.81676	8	10	0.03	2000	-8.820435	40.92391	-91.39365
173168	-572	-16	-294	1.439491	-1.91139	0.7374827	0	11.23	20037	-67	-29	5	5	0.02	2.843746	8	10	0.03	2000	-4.812073	40.92391	-91.39365
173272	1926	1232	-1726	2.592117	-2.836104	1.106251	0	11.23	20054	-91	-36	5	5	0.02	2.847615	8	10	0.03	2000	-2.052094	40.92391	-91.39365
173351	-769	758	1002	3.426688	-4.378079	1.512138	0	11.11	20032	-75	-34	5	5	0.02	2.840512	8	10	0.03	2000	-0.1775208	40.92391	-91.39365
173464	2574	2510	-1541	4.641705	-7.298491	2.772995	0	11.11	20032	-82	-33	5	5	0.02	2.822575	8	10	0.03	2000	1.876434	40.92391	-91.39366
173486	2574	2510	-1541	4.641705	-7.298491	2.772995	0	11.11	20032	-82	-33	5	5	0.02	2.803937	8	10	0.03	2000	1.876434	40.92391	-91.39366
173611	888	-959	-1683	7.139037	-8.006033	3.48431	0	11.11	20052	-103	-40	5	5	0.02	2.7802	8	10	0.03	2000	5.706553	40.92391	-91.39367
173706	3382	2101	260	8.496248	-7.485573	4.764331	0	11.11	20034	-87	-38	5	5	0.02	2.731839	8	10	0.03	2000	7.772793	40.92391	-91.39367
173889	-3137	-3619	2027	3.074787	-1.776252	2.530356	0	11.11	20055	-91	-41	5	5	0.02	2.669657	8	10	0.03	2000	12.327	40.92391	-91.39368
173957	3774	934	534	2.066662	1.61485	1.459468	0	11.11	20031	-101	-45	5	5	0.02	2.631587	8	10	0.03	2000	12.327	40.9239	-91.39368
174043	785	945	-1754	4.405137	-0.03183978	1.802451	0	11.11	20044	-89	-43	5	5	0.02	2.610854	8	10	0.03	2000	12.50059	40.9239	-91.39368
174165	-211	1298	1323	4.297792	-1.970829	2.97826	0	11.11	20010	-93	-43	5	5	0.02	2.551064	8	10	0.03	2000	14.10381	40.9239	-91.39368
174326	2625	-665	77	4.534564	-0.47043	3.441116	0	11.29	20055	-81	-39	5	5	0.02	2.493478	8	10	0.03	2000	13.77301	40.9239	-91.39368
174413	1175	3434	1093	6.671355	-0.8116066	3.896256	0	11.29	20028	-81	-39	5	5	0.02	2.475964	8	10	0.03	2000	15.2121	40.9239	-91.39368
174579	530	-1492	-270	4.569673	-1.191221	1.494959	0	11.29	20055	-67	-35	5	5	0.02	2.44822	8	10	0.03	2000	17.65643	40.9239	-91.39368
174624	791	-253	664	5.11378	-0.2292686	0.8014145	0	11.29	20030	-61	-33	5	5	0.02	2.44764	8	10	0.03	2000	19.57303	40.9239	-91.39368
174706	-97	-20	-229	4.571656	-0.5518002	0.737927	0	11.29	20037	-51	-29	5	5	0.02	2.447955	8	10	0.03	2000	20.81386	40.92391	-91.39368
174822	-814	-717	-727	4.248445	-1.223405	1.571916	0	11.29	20033	-49	-29	5	5	0.02	2.461332	8	10	0.03	2000	21.55791	40.92391	-91.39368
174927	-2214	-1179	1290	3.48369	-2.971143	2.296554	0	11.29	20052	-35	-26	5	5	0.02	2.475166	8	10	0.03	2000	20.38938	40.92391	-91.39367
175071	1854	345	64	2.131623	-0.6154258	1.519171	0	11.29	20051	-17	-19	5	5	0.02	2.527645	8	10	0.03	2000	21.71529	40.92391	-91.39367
175190	-231	178	-767	3.769797	-4.018996	1.89575	0	11.51	20008	-19	-19	5	5	0.02	2.599147	8	10	0.03	2000	20.90163	40.92391	-91.39366
175302	-574	-929	1602	4.354311	-4.088272	2.049914	0	11.51	20033	8	-15	5	5	0.02	2.625166	8	10	0.03	2000	20.34233	40.92391	-91.39365
175337	-870	262	1311	3.840347	-3.661534	1.889342	0	11.51	20014	8	-15	5	5	0.02	2.664239	8	10	0.03	2000	20.66069	40.92391	-91.39365
175422	-769	-1040	-401	1.808515	-2.450792	1.627019	0	11.51	20044	30	-10	5	5	0.02	2.71939	8	10	0.03	2000	20.79622	40.92391	-91.39365
175608	-104	-32	-774	2.131569	-3.385583	2.009044	0	11.51	20003	22	-12	5	5	0.02	2.804995	8	10	0.03	2000	19.89899	40.92391	-91.39364
175669	-839	-360	390	2.253312	-3.473199	1.87052	0	11.51	20034	57	-5	5	5	0.02	2.86429	8	10	0.03	2000	18.93414	40.92391	-91.39364
175753	-1716	-1490	1106	-0.3127871	-1.436358	1.178181	0	11.51	20048	47	-9	5	5	0.02	2.910668	8	10	0.03	2000	18.40411	40.92391	-91.39364
175874	455	1806	10	-0.5422096	-0.4372015	1.258597	0	11.51	20044	103	8	5	5	0.02	2.984756	8	10	0.03	2000	17.33074	40.92392	-91.39362
175987	38	1448	-482	-0.04936479	-2.800809	2.007924	0	11.51	20054	139	23	5	5	0.02	3.071093	8	10	0.03	2000	17.28287	40.92392	-91.39361
176093	-3532	-3780	1280	-4.352794	0.6940903	1.607074	0	10.26	20034	124	19	5	5	0.02	3.15048	8	10	0.03	2000	13.456	40.92392	-91.39361
176238	-6324	540	-1304	-13.30717	0.9680104	1.121011	0	10.26	20024	128	19	5	5	0.02	3.195755	8	10	0.03	2000	7.510469	40.92393	-91.3936
176346	-4133	-1984	-553	-19.77991	1.378352	2.263301	0	10.26	20055	152	15	5	5	0.02	3.207538	8	10	0.03	2000	-0.9956665	40.92392	-91.39359
176448	1941	1184	-1293	-18.69146	0.9894159	3.367106	0	10.26	20027	121	5	5	5	0.02	3.195821	8	10	0.03	2000	-11.07538	40.92392	-91.39359
176584	1182	39	-1092	-11.25683	-0.01801508	4.696588	0	10.26	20029	142	-1	5	5	0.02	3.167535	8	10	0.03	2000	-15.56668	40.92392	-91.39359
176705	-1490	-1556	-120	-9.53894	-1.167013	5.022622	0	10.26	20036	112	-11	5	5	0.02	3.072094	8	10	0.03	2000	-23.6131	40.92392	-91.39359
176777	-133	28	48	-9.098667	0.02776613	4.706231	0	10.26	20032	129	-14	5	5	0.02	2.911834	8	10	0.03	2000	-27.5654	40.92392	-91.39359
176891	1294	2940	-90	-7.071148	-6.602508	5.231851	0	10.26	20007	115	-17	5	5	0.02	2.72093	8	10	0.03	2000	-33.27075	40.92392	-91.39359
177039	-2251	2283	1560	-7.169304	-8.57899	3.972865	0	10.26	20035	0	0	5	5	0.02	2.373183	8	10	0.03	2000	-32.81161	40.92392	-91.39358
177106	1926	-1404	-476	-6.004468	-9.011906	2.792232	0	11.74	20035	0	0	5	5	0.02	2.207502	3	10	0.03	2000	-31.76367	40.92392	-91.39358
177195	-1468	-1200	1005	-4.513266	-7.984518	2.129257	0	11.74	20035	0	0	5	5	0.02	2.015313	3	10	0.03	2000	-31.63937	40.92392	-91.39358
177275	1520	1475	486	-4.449234	-7.726025	2.509292	0	11.74	20035	0	0	5	5	0.02	1.957549	3	10	0.03	2000	-34.28497	40.92392	-91.39358
177420	78	-4592	1790	-2.981071	-1.875324	2.017597	0	11.74	20035	0	0	5	5	0.02	1.767303	3	10	0.03	2000	-33.63748	40.92392	-91.39357
177522	420	-1464	-342	-2.706591	7.190934	0.3887843	0	11.74	20035	0	0	5	5	0.02	1.540386	3	10	0.03	2000	-31.37213	40.92392	-91.39357
177570	-799	532	-1404	-1.968113	6.338365	0.4507708	0	11.74	20035	0	0	5	5	0.02	1.417524	3	10	0.03	2000	-32.39035	40.92392	-91.39357
177750	2946	1794	-1515	8.69136	0.7420647	4.27332	0	11.74	20035	0	0	5	5	0.02	1.25982	3	10	0.03	2000	-30.85651	40.92392	-91.39357
177851	79	-1598	1886	8.491896	2.181023	3.981055	0	11.74	20035	0	0	5	5	0.02	1.200144	3	10	0.03	2000	-27.43759	40.92392	-91.39357
177981	-1145	-1581	1068	7.198784	4.919807	1.127683	0	11.06	20035	0	0	5	5	0.02	1.065339	3	10	0.03	2000	-24.6777	40.92392	-91.39358
178013	-2314	-767	881	5.452702	5.203863	0.3389872	0	11.06	20035	0	0	5	5	0.02	1.04741	3	10	0.03	2000	-24.6777	40.92392	-91.39358
178106	1553	3273	-894	2.545275	1.166676	-0.1205447	0	11.06	20035	0	0	5	5	0.02	0.9953077	3	10	0.03	2000	-20.2366	40.92392	-91.39358
178179	3204	3248	-1730	4.205829	-2.985222	0.6645333	0	11.06	20035	0	0	5	5	0.02	0.9367788	3	10	0.03	2000	-17.21799	40.92392	-91.39358
178386	4118	3409	-759	4.091919	-8.486512	1.457173	0	11.06	20035	0	0	5	5	0.02	0.8162327	3	10	0.03	2000	-11.2793	40.92392	-91.39359
178465	-56	683	-773	7.61682	-8.355206	3.546191	0	11.06	20035	0	0	5	5	0.02	0.7833371	3	10	0.03	2000	-11.24704	40.92392	-91.39359
178526	1905	1758	-1309	8.345896	-8.678091	4.141304	0	11.06	20035	0	0	5	5	0.02	0.7656601	3	10	0.03	2000	-9.197784	40.92392	-91.39359
178674	-3163	-2325	1655	10.58729	-6.988539	1.553775	0	11.06	20035	0	0	5	5	0.02	0.6940334	3	10	0.03	2000	-3.293304	40.92392	-91.39359
178726	-1077	855	1026	5.480278	-3.681546	-0.7500464	0	11.06	20035	0	0	5	5	0.02	0.6864751	3	10	0.03	2000	-1.109344	40.92392	-91.39359
178786	-3707	-3642	-344	1.448351	-0.5941807	-0.6413371	0	11.06	20035	0	0	5	5	0.02	0.6576445	3	10	0.03	2000	0.273617	40.92392	-91.3936
178870	-1622	-5699	-1624	-1.033245	4.820721	0.248571	0	11.46	20035	0	0	5	5	0.02	0.6397805	3	10	0.03	2000	-0.3811951	40.92392	-91.3936
178995	-1119	-1258	261	-3.282202	8.619119	2.232274	0	11.46	20035	0	0	5	5	0.02	0.6052044	3	10	0.03	2000	-1.720764	40.92393	-91.3936
179105	1125	-1417	565	-2.781631	7.741411	2.449635	0	11.46	20035	0	0	5	5	0.02	0.5911738	3	10	0.03	2000	-3.374664	40.92393	-91.3936
179204	592	-150	494	-2.072787	7.620845	1.623393	0	11.46	20035	0	0	5	5	0.02	0.5839502	3	10	0.03	2000	-1.744049	40.92393	-91.3936
179316	407	-99	-167	-1.99803	5.99108	0.9372803	0	11.46	20035	0	0	5	5	0.02	0.5823945	3	10	0.03	2000	0.6197171	40.92393	-91.3936
179401	319	-235	-622	-1.267844	5.095496	0.9324175	0	11.46	20035	0	0	5	5	0.02	0.5853552	3	10	0.03	2000	3.194662	40.92393	-91.3936
179527	1983	2664	-24	0.1548487	1.545149	1.529904	0	11.46	20035	0	0	5	5	0.02	0.5899577	3	10	0.03	2000	2.890223	40.92393	-91.3936
179626	-12	643	-709	2.046171	-4.414208	3.180156	0	11.46	20035	0	0	5	5	0.02	0.5856944	3	10	0.03	2000	2.877323	40.92393	-91.3936
179680	472	69	670	1.753758	-4.216485	3.077917	0	11.46	20035	0	0	5	5	0.02	0.5844485	3	10	0.03	2000	2.877323	40.92393	-91.3936
179833	-2332	-1268	1302	-1.845131	-3.936615	-0.05185599	0	11.51	20035	0	0	5	5	0.02	0.5831138	3	10	0.03	2000	8.517798	40.92393	-91.3936
179888	-1921	-1798	1468	-2.84135	-3.07729	-0.6950405	0	11.51	20035	0	0	5	5	0.02	0.580552	3	10	0.03	2000	8.517798	40.92393	-91.39361
179983	-1765	-314	-957	-5.315204	0.06527368	-0.3775165	0	11.51	20035	0	0	5	5	0.02	0.5836666	3	10	0.03	2000	7.0564	40.92393	-91.39361
180108	866	819	1073	-6.194724	0.8074962	0.6061399	0	11.51	20035	0	0	5	5	0.02	0.5934795	3	10	0.03	2000	3.232609	40.92393	-91.39361
180177	2423	1086	139	-3.847939	0.1129084	1.369409	0	11.51	20035	0	0	5	5	0.02	0.5948284	3	10	0.03	2000	2.656835	40.92393	-91.39361
180297	-1577	-807	-166	-2.585379	-1.251197	2.011609	0	11.51	20035	0	0	5	5	0.02	0.5867657	3	10	0.03	2000	2.33555	40.92393	-91.39361
180368	-605	217	-1175	-2.861268	-0.6648548	2.148197	0	11.51	20035	0	0	5	5	0.02	0.5815784	3	10	0.03	2000	2.33555	40.92393	-91.39361
180477	699	712	-107	-1.749405	-1.529508	2.605657	0	11.51	20035	0	0	5	5	0.02	0.5740999	3	10	0.03	2000	2.227008	40.92393	-91.39361
180617	-2152	6	809	-1.979332	-4.804188	2.20736	0	11.51	20035	0	0	5	5	0.02	0.5632087	3	10	0.03	2000	4.397784	40.92393	-91.39361
180695	1904	2208	-542	-1.603855	-4.374804	1.965948	0	11.51	20035	0	0	5	5	0.02	0.5575627	3	10	0.03	2000	4.428191	40.92393	-91.39361
180842	-2866	-2664	1126	-1.584908	-4.173861	2.92048	0	12.02	20035	0	0	5	5	0.02	0.5453767	3	10	0.03	2000	5.513531	40.92393	-91.39361
180923	-1564	-4451	-529	-5.771602	1.51349	2.954047	0	12.02	20035	0	0	5	5	0.02	0.5437068	3	10	0.03	2000	3.243301	40.92393	-91.39361
180975	-288	-514	1904	-5.677179	2.883973	2.106227	0	12.02	20035	0	0	5	5	0.02	0.546061	3	10	0.03	2000	3.840961	40.92393	-91.39361
181064	88	856	382	-6.206853	2.187652	0.9806756	0	12.02	20035	0	0	5	5	0.02	0.5552039	3	10	0.03	2000	4.546605	40.92393	-91.39361
181257	-476	-599	-1019	-5.186584	1.288145	1.331051	0	12.02	20035	0	0	5	5	0.02	0.5830539	3	10	0.03	2000	0.6901255	40.92393	-91.39361
181374	-701	263	-1261	-5.785702	1.962882	1.665186	0	12.02	20035	0	0	5	5	0.02	0.6018715	3	10	0.03	2000	-0.834198	40.92393	-91.39361
181421	-306	1816	985	-5.65093	1.104357	1.580044	0	12.02	20035	0	0	5	5	0.02	0.6087656	3	10	0.03	2000	-0.7259827	40.92393	-91.39361
181573	1329	-448	1549	-3.389079	-3.06393	0.9097441	0	12.02	20053	-84	6	5	5	0.18294	0.6178048	8	10	0.03	2000	-3.980103	40.92393	-91.39361
181619	-614	5136	1394	-4.194949	-5.127697	-1.72539	0	10.32	20032	-84	6	5	5	0.164646	0.6184694	8	10	0.03	2000	-1.679138	40.92393	-91.39361
181676	1259	4875	-783	-3.628307	-6.955252	-2.08584	0	10.32	20009	-84	6	5	5	0.1333633	0.6198766	8	10	0.03	2000	-1.679138	40.92393	-91.39361
181773	2635	-1691	-562	3.487007	-4.743663	0.8325424	0	10.32	20030	-96	10	5	5	0.09722183	0.6149043	8	10	0.03	2000	-3.296875	40.92393	-91.39361
181898	1150	-940	-1452	5.768058	-3.598071	2.730262	0	10.32	24003	-109	8	5	5	0.07087472	0.6109356	8	10	0.03	2000	-3.825928	40.92393	-91.39361
181971	639	-1660	355	7.610934	-1.651875	3.027708	0	10.32	20018	-109	8	5	5	0.05166768	0.6123108	8	10	0.03	2000	-4.529785	40.92393	-91.39361
182154	322	761	851	6.932415	1.911721	2.490463	0	10.32	20035	-121	8	5	5	0.03050925	0.620234	8	10	0.03	2000	-0.637207	40.92393	-91.39361
182262	-3084	-1243	1408	1.940112	2.04676	2.060939	0	10.32	20040	-3	0	5	5	0.02001712	0.6361692	8	10	0.03	2000	0.5632859	40.92393	-91.39361
182278	-3084	-1243	1408	1.940112	2.04676	2.060939	0	10.32	20040	-3	0	5	5	0.02	0.6409822	8	10	0.03	2000	0.5632859	40.92393	-91.39361
182455	-2575	-1284	685	1.266795	1.123748	2.243646	0	10.32	20037	0	0	5	5	0.02	0.6655033	8	10	0.03	2000	2.376802	40.92393	-91.39361
182497	-213	-248	120	-0.2546184	2.546691	1.867551	0	10.77	20028	0	0	5	5	0.02	0.6799384	8	10	0.03	2000	3.024389	40.92393	-91.39361
182584	-724	40	667	-0.5883868	2.573545	1.45816	0	10.77	20032	5	1	5	5	0.02	0.6962672	8	10	0.03	2000	4.298324	40.92393	-91.39361
182690	-2489	-511	826	-2.533805	-0.5572058	2.61087	0	10.77	20056	5	1	5	5	0.02	0.7176006	8	10	0.03	2000	2.086476	40.92393	-91.39361
182800	-1824	-1036	-77	-4.660679	-0.6872519	2.554706	0	10.77	20040	12	1	5	5	0.02	0.7535954	8	10	0.03	2000	2.086476	40.92393	-91.39361
182957	549	3284	783	-0.3027039	-5.269394	4.568942	0	10.77	20057	12	0	5	5	0.02	0.7934391	8	10	0.03	2000	-2.104462	40.92393	-91.3936
183086	-2931	-1843	2526	-3.913312	-4.268843	2.033825	0	10.77	20064	17	0	5	5	0.02	0.8502527	8	10	0.03	2000	-0.9457092	40.92393	-91.3936
183122	1459	-2641	772	-3.612256	-1.387358	0.7636431	0	10.77	20028	17	0	5	5	0.02	0.8717557	8	10	0.03	2000	-2.17807	40.92393	-91.3936
183194	1070	105	1242	-1.34384	-0.1475735	0.305485	0	10.77	20028	24	0	5	5	0.02	0.9174207	8	10	0.03	2000	0.05742699	40.92393	-91.3936
183317	-284	-570	-860	-1.677267	0.3353477	1.255534	0	10.77	20035	22	0	5	5	0.02	0.9653667	8	10	0.03	2000	-1.535309	40.92393	-91.3936
183424	905	-216	-139	-2.439543	1.361169	2.041182	0	10.77	20035	29	3	5	5	0.02	1.03891	8	10	0.03	2000	-2.781738	40.92393	-91.3936
183503	-843	-230	414	-0.9466936	0.1933221	2.500743	0	10.04	20018	25	3	5	5	0.02	1.064308	8	10	0.03	2000	-5.034912	40.92393	-91.3936
183628	-602	-1168	1145	-3.599233	2.769565	1.504632	0	10.04	20032	32	3	5	5	0.02	1.172151	8	10	0.03	2000	-6.574066	40.92393	-91.39359
183788	-276	988	-128	-1.772306	-0.04819736	1.436529	0	10.04	20040	39	3	5	5	0.02	1.240972	8	10	0.03	2000	-9.453522	40.92393	-91.39359
183893	-657	-61	648	-2.077156	0.6556215	1.086907	0	10.04	20039	42	3	5	5	0.02	1.315512	8	10	0.03	2000	-10.9472	40.92393	-91.39359
183971	143	2496	228	-2.395091	-1.097583	1.030299	0	10.04	20027	38	1	5	5	0.02	1.34829	8	10	0.03	2000	-10.42343	40.92393	-91.39359
184069	-742	-204	-941	-1.817878	-3.135383	1.354356	0	10.04	20063	45	-1	5	5	0.02	1.378871	8	10	0.03	2000	-11.68939	40.92393	-91.39359
184247	805	474	-155	-1.472829	-2.015828	2.107802	0	10.04	20033	42	-2	5	5	0.02	1.442332	8	10	0.03	2000	-13.47876	40.92393	-91.39359
184295	-1743	-410	903	-2.185662	-2.155056	1.882628	0	10.04	20035	42	-2	5	5	0.02	1.453097	8	10	0.03	2000	-13.85184	40.92393	-91.39359
184429	251	19	485	-2.28583	-1.119766	1.513179	0	10.83	20031	42	-5	5	5	0.02	1.481266	8	10	0.03	2000	-14.95596	40.92393	-91.39359
184510	-1353	1333	848	-1.98602	-2.216023	1.201465	0	10.83	20031	38	-5	5	5	0.02	1.492192	8	10	0.03	2000	-15.24005	40.92393	-91.39359
