time(ms)	gyro_x(deg/s)	gyro_y(deg/s)	gyro_z(deg/s)	orientation_roll(deg)	orientation_pitch(deg)	orientation_yaw(deg)	throttle	battery(V)	loop_time(uS)	pid_output_roll	pid_output_pitch	pid_output_yaw	pid_output_throttle	ultrasonic_alt	baro_alt	flight_mode	p_gain_altitude	i_gain_altitude	d_gain_altitude	compass_heading	latitude	longitude
492639	-16	4	7	-2.846696	-0.3892699	-8.784016	0	11.06	20054	0	0	5	5	0.02	-0.2476304	1	10	0.03	2000	2.712666	40.92393	-91.39364
492696	-11	-1	0	-2.843468	-0.3873363	-8.789393	0	11.06	20054	0	0	5	5	0.02	-0.2550181	1	10	0.03	2000	3.18853	40.92393	-91.39364
492812	-21	9	3	-2.842419	-0.3888573	-8.793181	0	11.06	20054	0	0	5	5	0.02	-0.2591572	1	10	0.03	2000	2.959298	40.92393	-91.39364
492858	-20	-2	6	-2.840491	-0.3883797	-8.794648	0	11.06	20054	0	0	5	5	0.02	-0.2587076	1	10	0.03	2000	2.959298	40.92393	-91.39364
492966	-23	2	6	-2.835353	-0.3821679	-8.802287	0	11.06	20054	0	0	5	5	0.02	-0.2556103	1	10	0.03	2000	3.136739	40.92393	-91.39364
493088	-18	4	1	-2.830969	-0.3810888	-8.808768	0	11.06	20054	0	0	5	5	0.02	-0.2551608	1	10	0.03	2000	2.941969	40.92393	-91.39364
493142	-15	-1	0	-2.825775	-0.3786226	-8.812558	0	11.06	20054	0	0	5	5	0.02	-0.2517591	1	10	0.03	2000	2.941969	40.92393	-91.39364
493247	-22	-1	4	-2.826828	-0.3840329	-8.819344	0	11.06	20054	0	0	5	5	0.02	-0.2494618	1	10	0.03	2000	3.371129	40.92393	-91.39364
493354	-21	1	-1	-2.827039	-0.384407	-8.826253	0	11.06	20054	0	0	5	5	0.02	-0.2521869	1	10	0.03	2000	3.134172	40.92393	-91.39364
493531	-16	-5	8	-2.817445	-0.3921187	-8.833769	0	11.06	20054	0	0	5	5	0.02	-0.2493554	1	10	0.03	2000	3.135607	40.92393	-91.39364
493575	-17	0	1	-2.817334	-0.3826873	-8.837802	0	11.06	20054	0	0	5	5	0.02	-0.2472114	1	10	0.03	2000	2.910222	40.92393	-91.39364
493655	-22	-1	3	-2.818431	-0.389823	-8.839698	0	11.06	20054	0	0	5	5	0.02	-0.2447734	1	10	0.03	2000	2.888277	40.92393	-91.39364
493769	-27	-2	1	-2.816789	-0.3911131	-8.844527	0	11.06	20054	0	0	5	5	0.02	-0.240889	1	10	0.03	2000	2.878554	40.92393	-91.39364
493854	-27	1	3	-2.816031	-0.3903756	-8.847949	0	11.06	20054	0	0	5	5	0.02	-0.2415748	1	10	0.03	2000	2.886647	40.92393	-91.39364
493996	-20	3	5	-2.816783	-0.3935669	-8.85644	0	11.06	20054	0	0	5	5	0.02	-0.2462803	1	10	0.03	2000	2.898319	40.92393	-91.39364
494059	-16	6	7	-2.813991	-0.3936632	-8.858822	0	11.06	20054	0	0	5	5	0.02	-0.2442635	1	10	0.03	2000	2.898319	40.92393	-91.39364
494207	-20	4	2	-2.81094	-0.3994168	-8.866583	0	11.06	20054	0	0	5	5	0.02	-0.2392757	1	10	0.03	2000	3.114069	40.92393	-91.39364
494296	-18	0	1	-2.806298	-0.4033402	-8.872512	0	11.06	20054	0	0	5	5	0.02	-0.2381895	1	10	0.03	2000	2.91495	40.92393	-91.39363
494380	-17	2	1	-2.801911	-0.4035129	-8.87569	0	11.11	20054	0	0	5	5	0.02	-0.2325603	1	10	0.03	2000	3.103426	40.92393	-91.39363
494521	-19	-2	5	-2.796407	-0.4022653	-8.883696	0	11.11	20054	0	0	5	5	0.02	-0.2272718	1	10	0.03	2000	2.868648	40.92393	-91.39363
494565	-20	3	4	-2.795427	-0.4022838	-8.885284	0	11.11	20054	0	0	5	5	0.02	-0.2275034	1	10	0.03	2000	3.090316	40.92393	-91.39363
494701	-20	0	4	-2.801578	-0.3957936	-8.892313	0	11.11	20054	0	0	5	5	0.02	-0.226019	1	10	0.03	2000	2.878786	40.92393	-91.39363
494778	-19	-2	3	-2.800792	-0.402963	-8.89653	0	11.11	20054	0	0	5	5	0.02	-0.2316308	1	10	0.03	2000	2.901486	40.92393	-91.39363
494873	-22	-1	1	-2.802423	-0.3986465	-8.902948	0	11.11	20054	0	0	5	5	0.02	-0.2380588	1	10	0.03	2000	2.884115	40.92393	-91.39363
495002	-20	-2	5	-2.800302	-0.3991179	-8.908632	0	11.11	20054	0	0	5	5	0.02	-0.2309506	1	10	0.03	2000	2.897032	40.92393	-91.39363
495078	-19	-2	2	-2.804231	-0.4015737	-8.913338	0	11.11	20054	0	0	5	5	0.02	-0.2246228	1	10	0.03	2000	3.108754	40.92393	-91.39363
495190	-15	-1	3	-2.795558	-0.4029454	-8.920488	0	11.11	20054	0	0	5	5	0.02	-0.2222739	1	10	0.03	2000	3.096404	40.92393	-91.39363
495294	-13	0	4	-2.793528	-0.402588	-8.922871	0	11.06	20054	0	0	5	5	0.02	-0.2197049	1	10	0.03	2000	2.888393	40.92393	-91.39363
495383	-8	0	1	-2.788661	-0.3997131	-8.930146	0	11.06	20054	0	0	5	5	0.02	-0.2193109	1	10	0.03	2000	2.857906	40.92393	-91.39363
495570	-12	0	3	-2.786145	-0.3994784	-8.938824	0	11.06	20054	0	0	5	5	0.02	-0.2162553	1	10	0.03	2000	3.079473	40.92393	-91.39363
495621	-13	-3	0	-2.785057	-0.3991916	-8.939862	0	11.06	20054	0	0	5	5	0.02	-0.2140718	1	10	0.03	2000	3.097495	40.92393	-91.39363
495704	-18	-3	0	-2.784173	-0.4032865	-8.943407	0	11.06	20054	0	0	5	5	0.02	-0.2154171	1	10	0.03	2000	2.859321	40.92393	-91.39363
495801	-12	-5	3	-2.776423	-0.3988078	-8.949092	0	11.06	20054	0	0	5	5	0.02	-0.2236044	1	10	0.03	2000	3.09352	40.92393	-91.39363
495859	-17	0	4	-2.77712	-0.4001157	-8.951353	0	11.06	20054	0	0	5	5	0.02	-0.228786	1	10	0.03	2000	3.069615	40.92393	-91.39363
496001	-9	0	7	-2.78662	-0.395431	-8.958685	0	11.06	20054	0	0	5	5	0.02	-0.2484418	1	10	0.03	2000	2.866246	40.92393	-91.39363
496052	-12	-1	0	-2.783551	-0.3915205	-8.960214	0	11.06	20054	0	0	5	5	0.02	-0.2514884	1	10	0.03	2000	2.866246	40.92393	-91.39363
496145	-22	0	1	-2.785379	-0.4018661	-8.964002	0	11.06	20054	0	0	5	5	0.02	-0.267585	1	10	0.03	2000	3.083849	40.92393	-91.39363
496299	-19	1	5	-2.789608	-0.4071193	-8.969196	0	11.06	20054	0	0	5	5	0.02	-0.2787764	1	10	0.03	2000	2.640377	40.92393	-91.39363
496373	-9	5	1	-2.785303	-0.4066598	-8.972009	0	11.06	20054	0	0	5	5	0.02	-0.2791851	1	10	0.03	2000	2.613406	40.92393	-91.39363
496467	-16	-1	5	-2.786452	-0.4060279	-8.976163	0	11.06	20054	0	0	5	5	0.02	-0.2773214	1	10	0.03	2000	2.870368	40.92393	-91.39363
496589	-11	0	3	-2.780983	-0.4104144	-8.983127	0	11.06	20054	0	0	5	5	0.02	-0.2715709	1	10	0.03	2000	3.07361	40.92393	-91.39363
496645	-16	1	4	-2.779242	-0.4056693	-8.986304	0	11.06	20054	0	0	5	5	0.02	-0.2648038	1	10	0.03	2000	3.065035	40.92393	-91.39363
496769	-14	-2	2	-2.767164	-0.404751	-8.988749	0	11.06	20054	0	0	5	5	0.02	-0.2527632	1	10	0.03	2000	2.824617	40.92393	-91.39363
496879	-22	0	-2	-2.763976	-0.4030835	-8.995898	0	11.06	20054	0	0	5	5	0.02	-0.2371718	1	10	0.03	2000	2.618323	40.92393	-91.39363
496999	-15	2	1	-2.767937	-0.4113197	-9.00305	0	11.06	20054	0	0	5	5	0.02	-0.232391	1	10	0.03	2000	3.060164	40.92393	-91.39363
497053	-8	0	7	-2.767793	-0.4123624	-9.005371	0	11.06	20054	0	0	5	5	0.02	-0.2182143	1	10	0.03	2000	2.849809	40.92393	-91.39363
497158	-11	0	1	-2.76057	-0.4079465	-9.010751	0	11.06	20054	0	0	5	5	0.02	-0.2079679	1	10	0.03	2000	2.82461	40.92393	-91.39363
497239	-17	0	0	-2.760497	-0.4070389	-9.011301	0	11.06	20054	0	0	5	5	0.02	-0.2024335	1	10	0.03	2000	2.824783	40.92393	-91.39363
497367	-18	0	2	-2.765352	-0.4074544	-9.015884	0	11.06	20054	0	0	5	5	0.02	-0.1860731	1	10	0.03	2000	2.832962	40.92393	-91.39363
497517	-6	1	5	-2.760617	-0.4070415	-9.021567	0	11.06	20054	0	0	5	5	0.02	-0.1814332	1	10	0.03	2000	2.82826	40.92393	-91.39363
497682	-12	-7	-2	-2.749393	-0.398484	-9.024685	0	11.06	20054	0	0	5	5	0.02	-0.1794959	1	10	0.03	2000	2.810604	40.92393	-91.39363
497797	-16	-1	0	-2.75014	-0.3989638	-9.027432	0	11.06	20054	0	0	5	5	0.02	-0.1819985	1	10	0.03	2000	2.788702	40.92393	-91.39363
497892	-13	-4	3	-2.747919	-0.4012345	-9.02951	0	11.06	20054	0	0	5	5	0.02	-0.1807013	1	10	0.03	2000	2.784031	40.92393	-91.39363
498063	-14	-5	0	-2.736958	-0.3918023	-9.035864	0	11.06	20054	0	0	5	5	0.02	-0.1683225	1	10	0.03	2000	3.0147	40.92393	-91.39363
498178	-15	2	6	-2.737309	-0.3890563	-9.042587	0	11.06	20054	0	0	5	5	0.02	-0.1664277	1	10	0.03	2000	2.789761	40.92393	-91.39363
498235	-10	-2	0	-2.737606	-0.3911424	-9.045338	0	11.06	20054	0	0	5	5	0.02	-0.1660386	1	10	0.03	2000	2.780874	40.92393	-91.39363
498401	-18	-7	1	-2.732504	-0.3928086	-9.050776	0	11.06	20054	0	0	5	5	0.02	-0.1608498	1	10	0.03	2000	2.800158	40.92393	-91.39363
498442	-8	-3	2	-2.73189	-0.3929506	-9.052608	0	11.06	20054	0	0	5	5	0.02	-0.1603036	1	10	0.03	2000	2.779096	40.92393	-91.39363
498536	-13	-1	0	-2.736102	-0.399796	-9.05377	0	11.06	20054	0	0	5	5	0.02	-0.1604535	1	10	0.03	2000	2.785553	40.92393	-91.39363
498639	-4	0	0	-2.731605	-0.4014617	-9.055847	0	11.06	20054	0	0	5	5	0.02	-0.1596569	1	10	0.03	2000	2.99476	40.92393	-91.39363
498786	-6	3	3	-2.72679	-0.4014087	-9.05713	0	11.06	20054	0	0	5	5	0.02	-0.1490157	1	10	0.03	2000	2.768668	40.92393	-91.39363
498896	-12	-3	2	-2.726997	-0.4050433	-9.057984	0	11.06	20054	0	0	5	5	0.02	-0.1432914	1	10	0.03	2000	2.758819	40.92393	-91.39363
499000	-8	-7	-1	-2.72483	-0.3990652	-9.059697	0	11.06	20054	0	0	5	5	0.02	-0.1366787	1	10	0.03	2000	2.769786	40.92393	-91.39363
499049	-8	-6	5	-2.724926	-0.4007313	-9.061471	0	11.06	20054	0	0	5	5	0.02	-0.1326216	1	10	0.03	2000	2.771057	40.92393	-91.39363
499226	-8	-4	3	-2.724179	-0.3924685	-9.066113	0	11.06	20054	0	0	5	5	0.02	-0.1186304	1	10	0.03	2000	2.978694	40.92393	-91.39363
499258	-6	-6	1	-2.722612	-0.3951233	-9.06538	0	11.06	20054	0	0	5	5	0.02	-0.1168077	1	10	0.03	2000	2.75563	40.92393	-91.39363
499350	-4	-5	2	-2.715911	-0.3917249	-9.067333	0	11.06	20054	0	0	5	5	0.02	-0.1080734	1	10	0.03	2000	2.751898	40.92393	-91.39363
499472	-9	0	1	-2.717863	-0.3956501	-9.069105	0	11.06	20054	0	0	5	5	0.02	-0.09985987	1	10	0.03	2000	2.747319	40.92393	-91.39363
499549	-8	0	3	-2.714796	-0.3957311	-9.071856	0	11.06	20054	0	0	5	5	0.02	-0.0961947	1	10	0.03	2000	2.752327	40.92393	-91.39363
499639	-16	-5	-1	-2.710809	-0.3979174	-9.07534	0	11.06	20054	0	0	5	5	0.02	-0.1004502	1	10	0.03	2000	2.778646	40.92393	-91.39363
499725	-5	-2	0	-2.704656	-0.3971481	-9.078641	0	11.06	20054	0	0	5	5	0.02	-0.1055588	1	10	0.03	2000	2.740591	40.92393	-91.39363
499827	-12	-4	1	-2.701688	-0.3883504	-9.079925	0	11.06	20054	0	0	5	5	0.02	-0.1124266	1	10	0.03	2000	2.735962	40.92393	-91.39363
499947	-10	0	-2	-2.703973	-0.3926117	-9.082615	0	11.06	20054	0	0	5	5	0.02	-0.1197184	1	10	0.03	2000	2.962791	40.92393	-91.39363
500117	-7	2	2	-2.700855	-0.3965439	-9.084447	0	11.06	20054	0	0	5	5	0.02	-0.1443711	1	10	0.03	2000	2.737916	40.92393	-91.39363
500170	-5	0	6	-2.700809	-0.393631	-9.08738	0	11.06	20054	0	0	5	5	0.02	-0.1480763	1	10	0.03	2000	2.955349	40.92393	-91.39363
500327	-13	-2	0	-2.701356	-0.3970693	-9.090437	0	11.06	20054	0	0	5	5	0.02	-0.1578668	1	10	0.03	2000	2.729595	40.92393	-91.39363
500460	-8	0	1	-2.693624	-0.4004998	-9.09459	0	11.06	20054	0	0	5	5	0.02	-0.1621857	1	10	0.03	2000	2.951463	40.92393	-91.39363
500515	-6	-5	3	-2.6949	-0.4048099	-9.097522	0	11.06	20054	0	0	5	5	0.02	-0.1684961	1	10	0.03	2000	2.942336	40.92393	-91.39363
500715	-3	-6	-2	-2.689521	-0.4050575	-9.100148	0	11.06	20054	0	0	5	5	0.02	-0.1758257	1	10	0.03	2000	2.922818	40.92393	-91.39363
500826	0	-4	3	-2.686607	-0.4016669	-9.103507	0	11.06	20054	0	0	5	5	0.02	-0.1768339	1	10	0.03	2000	2.707404	40.92393	-91.39363
501004	-11	3	5	-2.676139	-0.3990645	-9.10766	0	11.06	20054	0	0	5	5	0.02	-0.1730428	1	10	0.03	2000	2.710662	40.92393	-91.39363
501030	-7	2	1	-2.674327	-0.4033905	-9.1087	0	11.06	20054	0	0	5	5	0.02	-0.1693343	1	10	0.03	2000	2.70704	40.92393	-91.39363
501163	-11	-7	2	-2.672683	-0.4105877	-9.110901	0	11.06	20054	0	0	5	5	0.02	-0.1680355	1	10	0.03	2000	2.698008	40.92393	-91.39363
501356	-8	-7	0	-2.677808	-0.4115839	-9.115606	0	11.06	20054	0	0	5	5	0.02	-0.1765042	1	10	0.03	2000	2.711498	40.92393	-91.39363
501517	-11	-1	4	-2.681461	-0.4174347	-9.118785	0	11.06	20054	0	0	5	5	0.02	-0.185692	1	10	0.03	2000	2.700557	40.92393	-91.39363
501610	-12	-2	0	-2.680053	-0.4334823	-9.122449	0	11.06	20054	0	0	5	5	0.02	-0.1876458	1	10	0.03	2000	2.716622	40.92393	-91.39363
501734	-9	0	3	-2.685495	-0.442608	-9.129232	0	11.06	20054	0	0	5	5	0.02	-0.1786471	1	10	0.03	2000	2.699942	40.92393	-91.39363
501909	-7	1	2	-2.679859	-0.4315212	-9.132226	0	11.06	20054	0	0	5	5	0.02	-0.1588368	1	10	0.03	2000	2.694902	40.92393	-91.39363
502000	-10	4	0	-2.677424	-0.4313563	-9.136868	0	11.06	20054	0	0	5	5	0.02	-0.1484933	1	10	0.03	2000	2.910849	40.92393	-91.39363
502089	-3	-1	0	-2.680238	-0.434602	-9.139311	0	11.06	20054	0	0	5	5	0.02	-0.1490595	1	10	0.03	2000	2.689656	40.92393	-91.39363
502168	-12	-1	-3	-2.683606	-0.4285902	-9.142184	0	11.06	20054	0	0	5	5	0.02	-0.1550792	1	10	0.03	2000	2.695333	40.92393	-91.39363
502270	-2	0	5	-2.699371	-0.4319544	-9.143956	0	11.06	20054	0	0	5	5	0.02	-0.1614988	1	10	0.03	2000	2.721448	40.92393	-91.39363
502346	-5	2	-1	-2.702967	-0.4348117	-9.144934	0	11.06	20054	0	0	5	5	0.02	-0.1640978	1	10	0.03	2000	2.730732	40.92393	-91.39363
502436	-2	-1	2	-2.705703	-0.4370036	-9.1475	0	11.06	20054	0	0	5	5	0.02	-0.1644967	1	10	0.03	2000	2.966746	40.92393	-91.39363
502481	-5	0	6	-2.696271	-0.4310299	-9.150249	0	11.06	20054	0	0	5	5	0.02	-0.1640836	1	10	0.03	2000	2.945579	40.92393	-91.39363
502563	-9	3	8	-2.692264	-0.4281361	-9.154468	0	11.06	20054	0	0	5	5	0.02	-0.1644503	1	10	0.03	2000	2.94655	40.92393	-91.39363
502786	-12	-2	-2	-2.708046	-0.4287165	-9.158195	0	11.06	20054	0	0	5	5	0.02	-0.1713039	1	10	0.03	2000	2.734502	40.92393	-91.39363
502882	-13	4	0	-2.699466	-0.4139549	-9.160883	0	11.06	20054	0	0	5	5	0.02	-0.1703092	1	10	0.03	2000	2.960034	40.92393	-91.39363
503023	-3	7	2	-2.70005	-0.4184178	-9.16357	0	11.06	20054	0	0	5	5	0.02	-0.1678713	1	10	0.03	2000	2.712767	40.92393	-91.39363
503062	-10	-3	-4	-2.700885	-0.4178964	-9.16357	0	11.06	20054	0	0	5	5	0.02	-0.1688458	1	10	0.03	2000	2.712767	40.92393	-91.39363
503160	-6	-2	5	-2.703133	-0.4115614	-9.165586	0	11.06	20054	0	0	5	5	0.02	-0.1696352	1	10	0.03	2000	2.733189	40.92393	-91.39363
503330	-8	-2	0	-2.677752	-0.3913746	-9.170352	0	11.06	20054	0	0	5	5	0.02	-0.1695305	1	10	0.03	2000	2.925134	40.92393	-91.39363
503377	-8	0	-4	-2.679368	-0.3945771	-9.171268	0	11.06	20054	0	0	5	5	0.02	-0.1692264	1	10	0.03	2000	2.926732	40.92393	-91.39363
503537	-6	-3	3	-2.679768	-0.4020758	-9.17414	0	11.11	20054	0	0	5	5	0.02	-0.1695567	1	10	0.03	2000	2.715717	40.92393	-91.39363
503570	-5	4	4	-2.677211	-0.4003174	-9.175178	0	11.11	20054	0	0	5	5	0.02	-0.1713193	1	10	0.03	2000	2.715717	40.92393	-91.39363
503691	-8	9	3	-2.673227	-0.4059467	-9.176337	0	11.11	20054	0	0	5	5	0.02	-0.1784555	1	10	0.03	2000	2.687513	40.92393	-91.39363
503920	0	6	0	-2.644859	-0.4015593	-9.180983	0	11.11	20054	0	0	5	5	0.02	-0.1831913	1	10	0.03	2000	2.87161	40.92393	-91.39363
504091	-6	0	4	-2.642164	-0.4151671	-9.186175	0	11.11	20054	0	0	5	5	0.02	-0.1853133	1	10	0.03	2000	2.872215	40.92393	-91.39363
504254	0	2	-4	-2.628288	-0.4052136	-9.191614	0	11.11	20054	0	0	5	5	0.02	-0.1793622	1	10	0.03	2000	2.629503	40.92393	-91.39363
504364	-7	1	4	-2.612181	-0.4124048	-9.193815	0	11.06	20054	0	0	5	5	0.02	-0.1730297	1	10	0.03	2000	2.826243	40.92393	-91.39363
504421	-5	0	1	-2.617589	-0.4143278	-9.193816	0	11.06	20054	0	0	5	5	0.02	-0.1729584	1	10	0.03	2000	2.826243	40.92393	-91.39363
504488	0	2	0	-2.619497	-0.4136619	-9.19504	0	11.06	20054	0	0	5	5	0.02	-0.1748719	1	10	0.03	2000	2.611466	40.92393	-91.39363
504574	-6	0	1	-2.620285	-0.4108332	-9.195834	0	11.06	20054	0	0	5	5	0.02	-0.1839381	1	10	0.03	2000	2.391616	40.92393	-91.39363
504694	-12	1	2	-2.627912	-0.4215163	-9.198218	0	11.06	20054	0	0	5	5	0.02	-0.1998259	1	10	0.03	2000	2.633129	40.92393	-91.39363
504876	-1	1	-5	-2.624505	-0.4012467	-9.198401	0	11.06	20054	0	0	5	5	0.02	-0.2272652	1	10	0.03	2000	2.860047	40.92393	-91.39363
504910	3	-4	-1	-2.626237	-0.4034597	-9.199135	0	11.06	20054	0	0	5	5	0.02	-0.2323318	1	10	0.03	2000	2.622764	40.92393	-91.39363
505096	-7	3	-3	-2.630245	-0.4040796	-9.19944	0	11.06	20054	0	0	5	5	0.02	-0.2398615	1	10	0.03	2000	2.620039	40.92393	-91.39363
505219	-3	-5	8	-2.626914	-0.3989951	-9.199867	0	11.06	20054	0	0	5	5	0.02	-0.230606	1	10	0.03	2000	2.838988	40.92393	-91.39363
505342	1	5	1	-2.630398	-0.4036354	-9.201395	0	11.06	20054	0	0	5	5	0.02	-0.2258951	1	10	0.03	2000	2.832482	40.92393	-91.39363
505451	-3	1	0	-2.626464	-0.4016474	-9.202147	0	11.06	20054	0	0	5	5	0.02	-0.2129204	1	10	0.03	2000	2.624036	40.92393	-91.39363
505549	1	-4	0	-2.609964	-0.4060454	-9.203614	0	11.06	20054	0	0	5	5	0.02	-0.1949377	1	10	0.03	2000	2.825361	40.92393	-91.39363
505653	0	0	1	-2.615727	-0.401589	-9.207223	0	11.06	20054	0	0	5	5	0.02	-0.1753332	1	10	0.03	2000	2.619676	40.92393	-91.39363
505676	-4	1	-4	-2.612479	-0.4075644	-9.207713	0	11.06	20054	0	0	5	5	0.02	-0.1722286	1	10	0.03	2000	2.619676	40.92393	-91.39363
505869	-4	-1	-2	-2.61821	-0.4120854	-9.21419	0	11.06	20054	0	0	5	5	0.02	-0.1552517	1	10	0.03	2000	2.844497	40.92393	-91.39363
505940	-3	-1	4	-2.624042	-0.4064896	-9.214984	0	11.06	20054	0	0	5	5	0.02	-0.1545932	1	10	0.03	2000	2.614357	40.92393	-91.39363
506045	2	-2	3	-2.621982	-0.3968703	-9.216879	0	11.06	20054	0	0	5	5	0.02	-0.1575944	1	10	0.03	2000	2.832732	40.92393	-91.39363
506173	-1	0	2	-2.609461	-0.3782099	-9.219324	0	11	20054	0	0	5	5	0.02	-0.1599994	1	10	0.03	2000	2.839942	40.92393	-91.39363
506242	-1	-3	4	-2.613692	-0.3839665	-9.220668	0	11	20054	0	0	5	5	0.02	-0.1646333	1	10	0.03	2000	2.799989	40.92393	-91.39363
506336	-4	0	-1	-2.60308	-0.3881019	-9.223662	0	11	20054	0	0	5	5	0.02	-0.1687667	1	10	0.03	2000	2.824967	40.92393	-91.39363
506498	-1	2	5	-2.596017	-0.389196	-9.223051	0	11	20054	0	0	5	5	0.02	-0.1682716	1	10	0.03	2000	2.799142	40.92393	-91.39363
506605	-3	-3	0	-2.603135	-0.3904067	-9.228062	0	11	20054	0	0	5	5	0.02	-0.1727969	1	10	0.03	2000	2.576992	40.92393	-91.39363
506730	0	-2	3	-2.617123	-0.3942215	-9.229527	0	11	20054	0	0	5	5	0.02	-0.1712753	1	10	0.03	2000	2.59061	40.92393	-91.39363
506869	1	-6	2	-2.617332	-0.3911924	-9.229649	0	11	20054	0	0	5	5	0.02	-0.1716027	1	10	0.03	2000	2.828331	40.92393	-91.39363
506978	3	-1	-4	-2.603393	-0.3977497	-9.232155	0	11	20054	0	0	5	5	0.02	-0.1710872	1	10	0.03	2000	2.814643	40.92393	-91.39363
507097	-3	0	0	-2.605016	-0.3931256	-9.234538	0	11.11	20054	0	0	5	5	0.02	-0.1668634	1	10	0.03	2000	2.82094	40.92393	-91.39363
507198	2	1	5	-2.621759	-0.3997352	-9.239302	0	11.11	20054	0	0	5	5	0.02	-0.1518546	1	10	0.03	2000	2.604401	40.92393	-91.39363
507300	0	1	0	-2.617	-0.4048363	-9.241012	0	11.11	20054	0	0	5	5	0.02	-0.1481383	1	10	0.03	2000	2.829012	40.92393	-91.39363
507358	4	-5	-3	-2.618676	-0.409277	-9.241195	0	11.11	20054	0	0	5	5	0.02	-0.1460216	1	10	0.03	2000	2.612642	40.92393	-91.39363
507457	1	2	5	-2.617285	-0.4092312	-9.243699	0	11.11	20054	0	0	5	5	0.02	-0.1433028	1	10	0.03	2000	2.823084	40.92393	-91.39363
507563	1	-1	2	-2.618082	-0.4058309	-9.243637	0	11.11	20054	0	0	5	5	0.02	-0.1424567	1	10	0.03	2000	2.604769	40.92393	-91.39363
507720	1	-1	2	-2.603669	-0.3942791	-9.248035	0	11.11	20054	0	0	5	5	0.02	-0.135953	1	10	0.03	2000	2.825386	40.92393	-91.39363
507801	0	-3	-2	-2.605848	-0.3972467	-9.251274	0	11.11	20054	0	0	5	5	0.02	-0.1353578	1	10	0.03	2000	2.589927	40.92393	-91.39363
507908	4	3	3	-2.604117	-0.3963569	-9.252311	0	11.11	20054	0	0	5	5	0.02	-0.146917	1	10	0.03	2000	2.814575	40.92393	-91.39363
508004	3	1	5	-2.598277	-0.4000895	-9.253653	0	11.11	20054	0	0	5	5	0.02	-0.1510072	1	10	0.03	2000	2.56369	40.92393	-91.39363
508118	0	-5	-3	-2.596266	-0.4102064	-9.254386	0	11.11	20054	0	0	5	5	0.02	-0.1500589	1	10	0.03	2000	2.587124	40.92393	-91.39363
508179	3	3	0	-2.586142	-0.4035529	-9.256342	0	11.11	20054	0	0	5	5	0.02	-0.1526906	1	10	0.03	2000	2.587124	40.92393	-91.39363
508271	7	2	-5	-2.57712	-0.409584	-9.257746	0	11.11	20054	0	0	5	5	0.02	-0.1550947	1	10	0.03	2000	2.558939	40.92393	-91.39363
508345	1	2	0	-2.582929	-0.4093153	-9.258908	0	11.11	20054	0	0	5	5	0.02	-0.1528286	1	10	0.03	2000	2.785701	40.92393	-91.39363
508448	3	-3	1	-2.585157	-0.4140703	-9.259948	0	11.11	20054	0	0	5	5	0.02	-0.1569575	1	10	0.03	2000	2.775077	40.92393	-91.39363
508557	2	-3	-2	-2.570414	-0.417987	-9.263795	0	11.11	20054	0	0	5	5	0.02	-0.1615724	1	10	0.03	2000	2.330253	40.92393	-91.39363
508643	0	-6	0	-2.561522	-0.4152515	-9.2641	0	11.11	20054	0	0	5	5	0.02	-0.1620278	1	10	0.03	2000	2.774056	40.92393	-91.39363
508826	7	0	-1	-2.553857	-0.4180993	-9.264285	0	11.11	20054	0	0	5	5	0.02	-0.1591561	1	10	0.03	2000	2.752981	40.92393	-91.39363
508859	5	-1	0	-2.550888	-0.4188547	-9.265874	0	11.11	20054	0	0	5	5	0.02	-0.1575925	1	10	0.03	2000	2.510359	40.92393	-91.39363
508969	11	-2	5	-2.550701	-0.4151301	-9.268011	0	11.11	20054	0	0	5	5	0.02	-0.151292	1	10	0.03	2000	2.500392	40.92393	-91.39363
509095	3	-1	1	-2.54624	-0.413191	-9.269599	0	11.11	20054	0	0	5	5	0.02	-0.150166	1	10	0.03	2000	2.498193	40.92393	-91.39363
509173	3	1	0	-2.541273	-0.4149733	-9.270638	0	11.11	20054	0	0	5	5	0.02	-0.1513747	1	10	0.03	2000	2.504714	40.92393	-91.39363
509303	2	0	-4	-2.541567	-0.4139391	-9.270026	0	11.11	20054	0	0	5	5	0.02	-0.149243	1	10	0.03	2000	2.508346	40.92393	-91.39363
509386	1	1	1	-2.547012	-0.4126101	-9.269476	0	11.11	20054	0	0	5	5	0.02	-0.150635	1	10	0.03	2000	2.502752	40.92393	-91.39363
509425	8	0	-2	-2.543761	-0.4115896	-9.269171	0	11.11	20054	0	0	5	5	0.02	-0.1503447	1	10	0.03	2000	2.509564	40.92393	-91.39363
509518	7	2	0	-2.534899	-0.4186849	-9.27076	0	11.11	20054	0	0	5	5	0.02	-0.1529363	1	10	0.03	2000	2.484076	40.92393	-91.39363
509672	5	-2	-1	-2.526004	-0.417916	-9.270637	0	11.11	20054	0	0	5	5	0.02	-0.1504912	1	10	0.03	2000	2.698464	40.92393	-91.39363
509779	1	-4	5	-2.530008	-0.4147024	-9.271245	0	11.06	20054	0	0	5	5	0.02	-0.1447113	1	10	0.03	2000	2.477946	40.92393	-91.39363
509817	9	-6	0	-2.532575	-0.4173373	-9.270634	0	11.06	20054	0	0	5	5	0.02	-0.1376603	1	10	0.03	2000	2.726539	40.92393	-91.39363
509917	7	-3	0	-2.527447	-0.4160902	-9.271549	0	11.06	20054	0	0	5	5	0.02	-0.1305963	1	10	0.03	2000	2.707241	40.92393	-91.39362
510027	9	-2	-1	-2.524083	-0.4100713	-9.270451	0	11.06	20054	0	0	5	5	0.02	-0.125316	1	10	0.03	2000	2.473298	40.92393	-91.39362
510117	7	-2	2	-2.51224	-0.4125665	-9.27106	0	11.06	20054	0	0	5	5	0.02	-0.1222944	1	10	0.03	2000	2.459441	40.92393	-91.39362
510219	5	0	3	-2.509252	-0.417968	-9.270632	0	11.06	20054	0	0	5	5	0.02	-0.1193217	1	10	0.03	2000	2.437435	40.92393	-91.39362
510324	9	2	2	-2.512688	-0.4217142	-9.270877	0	11.06	20054	0	0	5	5	0.02	-0.1117397	1	10	0.03	2000	2.688555	40.92393	-91.39362
510443	6	0	0	-2.506714	-0.4199515	-9.270877	0	11.06	20054	0	0	5	5	0.02	-0.112411	1	10	0.03	2000	2.675523	40.92393	-91.39362
510526	8	1	-2	-2.503825	-0.4170802	-9.270083	0	11.06	20054	0	0	5	5	0.02	-0.117044	1	10	0.03	2000	2.656844	40.92393	-91.39362
510704	9	-10	0	-2.501747	-0.4186594	-9.269413	0	11.11	20054	0	0	5	5	0.02	-0.1421425	1	10	0.03	2000	2.669313	40.92393	-91.39362
510729	11	-2	0	-2.499859	-0.4143104	-9.269596	0	11.11	20054	0	0	5	5	0.02	-0.1460069	1	10	0.03	2000	2.434077	40.92393	-91.39362
510906	3	2	4	-2.488124	-0.4121862	-9.266171	0	11.11	20054	0	0	5	5	0.02	-0.172253	1	10	0.03	2000	2.857915	40.92393	-91.39362
510937	11	-6	-3	-2.487785	-0.4111437	-9.266109	0	11.11	20054	0	0	5	5	0.02	-0.1720725	1	10	0.03	2000	2.414801	40.92393	-91.39362
511066	6	-6	-1	-2.482557	-0.4202995	-9.265802	0	11.11	20054	0	0	5	5	0.02	-0.1690192	1	10	0.03	2000	2.179516	40.92393	-91.39362
511136	4	-2	8	-2.482255	-0.4238048	-9.266352	0	11.11	20054	0	0	5	5	0.02	-0.1705159	1	10	0.03	2000	2.416374	40.92393	-91.39362
511301	12	-4	-1	-2.470673	-0.4207541	-9.268307	0	11.11	20054	0	0	5	5	0.02	-0.1741569	1	10	0.03	2000	2.631854	40.92393	-91.39362
511391	8	-4	2	-2.467266	-0.4208927	-9.267329	0	11.11	20054	0	0	5	5	0.02	-0.180254	1	10	0.03	2000	2.621429	40.92393	-91.39362
511459	10	-3	-1	-2.472131	-0.4198296	-9.267573	0	11.11	20054	0	0	5	5	0.02	-0.1842527	1	10	0.03	2000	2.373069	40.92393	-91.39362
511599	2	3	0	-2.466156	-0.4224248	-9.265375	0	11.06	20054	0	0	5	5	0.02	-0.2028308	1	10	0.03	2000	2.818171	40.92393	-91.39362
511642	10	0	3	-2.469109	-0.4221186	-9.26623	0	11.06	20054	0	0	5	5	0.02	-0.2048496	1	10	0.03	2000	2.620581	40.92393	-91.39362
511715	15	5	5	-2.467335	-0.424431	-9.266533	0	11.06	20054	0	0	5	5	0.02	-0.2105135	1	10	0.03	2000	2.634739	40.92393	-91.39362
511893	2	-6	-1	-2.460288	-0.4316697	-9.26684	0	11.06	20054	0	0	5	5	0.02	-0.2223441	1	10	0.03	2000	2.58877	40.92393	-91.39362
511940	3	2	-3	-2.464125	-0.4345551	-9.266962	0	11.06	20054	0	0	5	5	0.02	-0.2237262	1	10	0.03	2000	2.58877	40.92393	-91.39362
512040	14	0	2	-2.458989	-0.4261388	-9.265922	0	11.06	20054	0	0	5	5	0.02	-0.2316311	1	10	0.03	2000	2.379295	40.92393	-91.39362
512090	12	0	0	-2.460971	-0.425619	-9.265616	0	11.06	20054	0	0	5	5	0.02	-0.2334349	1	10	0.03	2000	2.383332	40.92393	-91.39362
512217	16	-1	0	-2.461328	-0.4290806	-9.266105	0	11.06	20054	0	0	5	5	0.02	-0.232777	1	10	0.03	2000	2.589854	40.92393	-91.39362
512313	9	0	-3	-2.458828	-0.4278003	-9.263905	0	11.06	20054	0	0	5	5	0.02	-0.2349771	1	10	0.03	2000	2.369635	40.92393	-91.39362
512388	11	-3	-4	-2.453943	-0.4304401	-9.264516	0	11.06	20054	0	0	5	5	0.02	-0.2345732	1	10	0.03	2000	2.589178	40.92393	-91.39362
512590	12	4	1	-2.463538	-0.4360096	-9.263174	0	11	20054	0	0	5	5	0.02	-0.2309748	1	10	0.03	2000	2.3851	40.92393	-91.39362
512676	11	-4	4	-2.464007	-0.4375204	-9.262686	0	11	20054	0	0	5	5	0.02	-0.2328276	1	10	0.03	2000	2.370834	40.92393	-91.39362
512734	6	-9	0	-2.462172	-0.4362001	-9.259937	0	11	20054	0	0	5	5	0.02	-0.2420299	1	10	0.03	2000	2.605107	40.92393	-91.39362
512840	13	8	-4	-2.458785	-0.4321348	-9.261039	0	11	20054	0	0	5	5	0.02	-0.2462972	1	10	0.03	2000	2.595514	40.92393	-91.39362
512870	8	4	-3	-2.459123	-0.4351105	-9.259571	0	11	20054	0	0	5	5	0.02	-0.2462972	1	10	0.03	2000	2.595514	40.92393	-91.39362
513012	6	-5	1	-2.452407	-0.430051	-9.260305	0	11	20054	0	0	5	5	0.02	-0.2442961	1	10	0.03	2000	2.363443	40.92393	-91.39362
513124	9	-2	3	-2.453482	-0.4283072	-9.258718	0	11	20054	0	0	5	5	0.02	-0.2374044	1	10	0.03	2000	2.369749	40.92393	-91.39362
513165	13	-4	4	-2.448025	-0.4292096	-9.257796	0	11	20054	0	0	5	5	0.02	-0.234792	1	10	0.03	2000	2.144619	40.92393	-91.39362
513288	10	6	4	-2.450754	-0.4260018	-9.259263	0	11	20054	0	0	5	5	0.02	-0.2193708	1	10	0.03	2000	2.361436	40.92393	-91.39362
513365	11	-1	-2	-2.452982	-0.4309433	-9.259689	0	11.06	20054	0	0	5	5	0.02	-0.2079457	1	10	0.03	2000	2.372542	40.92393	-91.39362
513505	14	-4	-3	-2.449987	-0.4319739	-9.260055	0	11.06	20054	0	0	5	5	0.02	-0.1905672	1	10	0.03	2000	2.368676	40.92393	-91.39362
513573	8	-3	1	-2.450828	-0.4300377	-9.26244	0	11.06	20054	0	0	5	5	0.02	-0.1913629	1	10	0.03	2000	2.572724	40.92393	-91.39362
513669	12	3	-1	-2.452931	-0.4236026	-9.261889	0	11.06	20054	0	0	5	5	0.02	-0.1899579	1	10	0.03	2000	2.578242	40.92393	-91.39362
513802	10	-1	1	-2.448488	-0.426305	-9.261767	0	11.06	20054	0	0	5	5	0.02	-0.1866326	1	10	0.03	2000	2.568698	40.92393	-91.39362
513879	8	2	-1	-2.450793	-0.4306	-9.260911	0	11.06	20054	0	0	5	5	0.02	-0.1880329	1	10	0.03	2000	2.133682	40.92393	-91.39362
513996	17	-4	-2	-2.446877	-0.4217443	-9.260668	0	11.06	20054	0	0	5	5	0.02	-0.1888395	1	10	0.03	2000	2.348121	40.92393	-91.39362
514077	13	0	4	-2.443316	-0.4197574	-9.261583	0	11.06	20054	0	0	5	5	0.02	-0.1882943	1	10	0.03	2000	2.812386	40.92393	-91.39362
514185	5	-6	-3	-2.433317	-0.4176529	-9.261643	0	11.06	20054	0	0	5	5	0.02	-0.1941026	1	10	0.03	2000	2.346876	40.92393	-91.39362
514320	18	0	-1	-2.433029	-0.4172115	-9.261398	0	11.06	20054	0	0	5	5	0.02	-0.1920541	1	10	0.03	2000	2.322842	40.92393	-91.39362
514381	16	-5	-3	-2.430448	-0.4210843	-9.26091	0	11.06	20054	0	0	5	5	0.02	-0.1911822	1	10	0.03	2000	2.343384	40.92393	-91.39362
514563	14	-8	-3	-2.416978	-0.428236	-9.258407	0	11.06	20054	0	0	5	5	0.02	-0.2025125	1	10	0.03	2000	2.542242	40.92393	-91.39362
514623	14	-1	0	-2.419672	-0.4243717	-9.257674	0	11.06	20054	0	0	5	5	0.02	-0.2033512	1	10	0.03	2000	2.535408	40.92393	-91.39362
514758	10	-8	-10	-2.405231	-0.4179493	-9.255169	0	11.06	20054	0	0	5	5	0.02	-0.2066763	1	10	0.03	2000	2.313019	40.92393	-91.39362
514800	11	4	-1	-2.407715	-0.4192168	-9.254498	0	11.06	20054	0	0	5	5	0.02	-0.2074379	1	10	0.03	2000	2.068346	40.92393	-91.39362
514938	12	-4	0	-2.412196	-0.4223805	-9.254192	0	11.06	20054	0	0	5	5	0.02	-0.2116352	1	10	0.03	2000	2.534464	40.92393	-91.39362
515011	8	5	-2	-2.409639	-0.425819	-9.254253	0	11.06	20054	0	0	5	5	0.02	-0.217742	1	10	0.03	2000	2.287843	40.92393	-91.39362
515077	10	4	1	-2.404731	-0.4293832	-9.255048	0	11.06	20054	0	0	5	5	0.02	-0.2248829	1	10	0.03	2000	2.529119	40.92393	-91.39362
515148	28	6	0	-2.414934	-0.4342496	-9.254255	0	11.06	20054	0	0	5	5	0.02	-0.2271463	1	10	0.03	2000	2.288718	40.92393	-91.39362
515256	19	2	6	-2.404092	-0.432368	-9.25126	0	11	20054	0	0	5	5	0.02	-0.2268729	1	10	0.03	2000	2.29971	40.92393	-91.39362
515390	16	8	-1	-2.398489	-0.4324781	-9.250589	0	11	20054	0	0	5	5	0.02	-0.2093409	1	10	0.03	2000	2.525568	40.92393	-91.39362
515453	25	-2	-5	-2.398128	-0.4305542	-9.250039	0	11	20054	0	0	5	5	0.02	-0.207404	1	10	0.03	2000	2.056623	40.92393	-91.39362
515621	13	1	6	-2.395768	-0.4267596	-9.247413	0	11	20054	0	0	5	5	0.02	-0.1987033	1	10	0.03	2000	2.525475	40.92393	-91.39362
515648	-3	1	-2	-2.389456	-0.4286559	-9.245945	0	11	20054	0	0	5	5	0.02	-0.1997649	1	10	0.03	2000	2.515563	40.92393	-91.39362
515770	20	10	2	-2.395415	-0.4323066	-9.245335	0	11	20054	0	0	5	5	0.02	-0.2000669	1	10	0.03	2000	2.273842	40.92393	-91.39362
515872	16	-6	0	-2.386826	-0.4307316	-9.242768	0	11	20054	0	0	5	5	0.02	-0.1978188	1	10	0.03	2000	2.508633	40.92393	-91.39362
516006	19	3	-7	-2.392043	-0.4305178	-9.241178	0	11	20054	0	0	5	5	0.02	-0.1986018	1	10	0.03	2000	2.492901	40.92393	-91.39362
516065	35	7	0	-2.397202	-0.437501	-9.241178	0	11.06	20054	0	0	5	5	0.02	-0.1987593	1	10	0.03	2000	2.270866	40.92393	-91.39362
516147	9	0	-2	-2.397948	-0.4204215	-9.251511	0	11.06	20054	0	0	5	5	0.02	-0.2009332	1	10	0.03	2000	2.500222	40.92393	-91.39362
516249	18	-3	0	-2.391402	-0.4231638	-9.25157	0	11.06	20054	0	0	5	5	0.02	-0.2122784	1	10	0.03	2000	2.283652	40.92393	-91.39362
516376	15	-1	-2	-2.395184	-0.4207431	-9.248698	0	11.06	20054	0	0	5	5	0.02	-0.2103181	1	10	0.03	2000	2.49565	40.92393	-91.39362
516462	12	-7	0	-2.395286	-0.4188612	-9.247906	0	11.06	20054	0	0	5	5	0.02	-0.2095047	1	10	0.03	2000	2.505289	40.92393	-91.39362
516608	-20	-4	-138	-2.379985	-0.4149509	-9.229994	0	11.06	20054	0	0	5	5	0.02	-0.2066771	1	10	0.03	2000	2.509469	40.92393	-91.39362
516750	28	21	-18	-2.389265	-0.4336724	-9.252124	0	11.06	20054	0	0	5	5	0.02	-0.19498	1	10	0.03	2000	2.298363	40.92393	-91.39362
516812	-3	241	165	-2.337945	-0.541227	-9.358392	0	11.06	20054	0	0	5	5	0.02	-0.1787068	1	10	0.03	2000	2.253394	40.92393	-91.39362
516867	350	-697	58	-2.32933	-0.6655168	-9.289435	0	11.06	20054	0	0	5	5	0.02	-0.1709444	1	10	0.03	2000	2.631055	40.92393	-91.39362
516934	-1252	-2011	-984	-2.618737	0.88097	-8.70703	0	11.06	20054	0	0	5	5	0.02	-0.1645744	1	10	0.03	2000	2.481839	40.92393	-91.39362
517059	27	-2432	-733	-4.584582	5.889362	-6.17946	0	11.06	20054	0	0	5	5	0.02	-0.1566755	1	10	0.03	2000	2.144036	40.92393	-91.39362
517136	-1530	-1808	-956	-5.667973	7.540378	-5.315365	0	11.06	20054	0	0	5	5	0.02	-0.1499028	1	10	0.03	2000	2.345125	40.92393	-91.39362
517206	-1377	-831	-2543	-7.606412	8.976095	-2.410175	0	11.06	20054	0	0	5	5	0.02	-0.1390598	1	10	0.03	2000	1.862172	40.92393	-91.39362
517400	-1081	3419	-1575	-8.777413	5.819255	3.334612	0	11.06	20054	0	0	5	5	0.02	-0.1012543	1	10	0.03	2000	-2.289063	40.92393	-91.39362
517420	-1000	3910	-1800	-9.322236	3.918563	4.255906	0	11.06	20054	0	0	5	5	0.02	-0.1012543	1	10	0.03	2000	-2.289063	40.92393	-91.39362
517583	-97	4384	-1878	-11.17185	-5.766093	10.03173	0	11.06	20054	0	0	5	5	0.02	-0.06050042	1	10	0.03	2000	-9.186646	40.92393	-91.39362
517662	-366	3365	-1535	-11.89625	-8.496955	11.905	0	11.06	20054	0	0	5	5	0.02	-0.03430565	1	10	0.03	2000	-10.95886	40.92393	-91.39362
517790	733	1398	-2235	-12.26302	-11.50194	16.65375	0	11.06	20054	0	0	5	5	0.02	0.0009838189	1	10	0.03	2000	-12.47592	40.92393	-91.39362
517890	128	-1442	-976	-11.89933	-9.816511	18.58012	0	11.06	20054	0	0	5	5	0.02	0.03010917	1	10	0.03	2000	-14.10452	40.92393	-91.39362
517913	105	-2873	114	-11.7096	-8.37297	18.78505	0	11.06	20054	0	0	5	5	0.02	0.03010917	1	10	0.03	2000	-14.10452	40.92393	-91.39362
518009	-821	-3329	2880	-11.28949	-4.707497	17.49496	0	11.06	20054	0	0	5	5	0.02	0.04811948	1	10	0.03	2000	-14.5155	40.92393	-91.39362
518129	637	-2433	3777	-9.980883	1.72402	9.085472	0	11.06	20054	0	0	5	5	0.02	0.07803046	1	10	0.03	2000	-9.678711	40.92393	-91.39362
518317	-161	-1460	1524	-8.631517	4.848245	-0.4661924	0	11.06	20054	0	0	5	5	0.02	0.1132903	1	10	0.03	2000	-4.435303	40.92393	-91.39362
518436	976	-1377	1533	-7.222329	5.887356	-2.104791	0	11.06	20054	0	0	5	5	0.02	0.1216208	1	10	0.03	2000	-4.45108	40.92393	-91.39362
518529	387	-155	1131	-6.004991	5.985025	-5.56101	0	11.06	20054	0	0	5	5	0.02	0.1214494	1	10	0.03	2000	-3.359589	40.92393	-91.39362
518685	2096	1601	-1499	-3.850044	3.671	-4.91684	0	11.06	20054	0	0	5	5	0.02	0.09914333	1	10	0.03	2000	-2.520203	40.92393	-91.39362
518735	1855	1596	-1829	-2.976685	2.887925	-4.026029	0	11.06	20054	0	0	5	5	0.02	0.07956183	1	10	0.03	2000	-2.520203	40.92393	-91.39362
518844	449	529	557	0.6216952	1.236311	-1.643678	0	11.11	20054	0	0	5	5	0.02	0.06419253	1	10	0.03	2000	-4.36142	40.92393	-91.39362
518968	-267	227	2648	0.2663619	1.825271	-4.724652	0	11.11	20054	0	0	5	5	0.02	0.04252053	1	10	0.03	2000	-3.031708	40.92393	-91.39362
519066	173	329	-304	0.4791076	1.207	-7.935594	0	11.11	20054	0	0	5	5	0.02	0.0362836	1	10	0.03	2000	-1.005188	40.92393	-91.39362
519139	92	82	10	0.5024874	0.9818506	-7.85313	0	11.11	20054	0	0	5	5	0.02	0.0314348	1	10	0.03	2000	0.2003757	40.92393	-91.39362
519210	-2	-13	-9	0.5062591	0.9360409	-7.852396	0	11.11	20054	0	0	5	5	0.02	0.02038135	1	10	0.03	2000	0.123976	40.92393	-91.39362
519299	-126	-195	-16	0.3252685	1.022143	-7.892498	0	11.11	20054	0	0	5	5	0.02	0.01009761	1	10	0.03	2000	0.1288646	40.92393	-91.39362
519428	-189	-234	-483	0.3468781	0.5315621	-7.280255	0	11.11	20054	0	0	5	5	0.02	-0.001586883	1	10	0.03	2000	0.2396037	40.92393	-91.39362
519531	97	177	-72	0.3740807	0.5308052	-7.165862	0	11.11	20054	0	0	5	5	0.02	-0.01333663	1	10	0.03	2000	0.07604961	40.92393	-91.39362
519629	-30	-78	-3	0.4043808	0.4939515	-6.926999	0	11.11	20054	0	0	5	5	0.02	-0.02694186	1	10	0.03	2000	-0.3987427	40.92393	-91.39362
519733	71	234	-1143	0.1291606	0.2327694	-6.622154	0	11	20054	0	0	5	5	0.02	-0.02885259	1	10	0.03	2000	-0.3178101	40.92393	-91.39362
519799	473	635	-2374	0.4125547	-0.5173725	-3.885424	0	11	20054	0	0	5	5	0.02	-0.02935303	1	10	0.03	2000	-0.5879211	40.92393	-91.39362
519898	179	272	149	0.7171202	-0.331497	-3.257601	0	11	20054	0	0	5	5	0.02	-0.0272348	1	10	0.03	2000	-2.820374	40.92393	-91.39362
520015	-335	-503	-31	0.777119	-0.4379063	-3.283705	0	11	20054	0	0	5	5	0.02	-0.03851068	1	10	0.03	2000	-2.541992	40.92393	-91.39362
520070	210	417	994	0.1133165	1.108299	-4.183919	0	11	20054	0	0	5	5	0.02	-0.04089323	1	10	0.03	2000	-3.111542	40.92393	-91.39362
520244	-25	-6	-10	0.1870923	0.1976219	-4.769161	0	11	20054	0	0	5	5	0.02	-0.0376085	1	10	0.03	2000	-1.203705	40.92393	-91.39362
520317	-1	-6	27	0.2460139	0.08363199	-4.795999	0	11	20054	0	0	5	5	0.02	-0.03998417	1	10	0.03	2000	-1.203705	40.92393	-91.39362
520365	-41	-140	-46	0.2146124	0.1409964	-4.791229	0	11	20054	0	0	5	5	0.02	-0.0399641	1	10	0.03	2000	-1.276947	40.92393	-91.39362
520484	-10	-55	-7	0.1329494	0.2648505	-4.760173	0	11	20054	0	0	5	5	0.02	-0.03998988	1	10	0.03	2000	-1.056305	40.92393	-91.39362
520582	43	30	9	0.123029	0.2963589	-4.763781	0	11	20054	0	0	5	5	0.02	-0.03771301	1	10	0.03	2000	-1.551575	40.92393	-91.39362
520668	29	-3	5	0.1118339	0.3036853	-4.758339	0	11.06	20054	0	0	5	5	0.02	-0.03665489	1	10	0.03	2000	-1.300232	40.92393	-91.39362
520779	6	-15	-12	0.1136129	0.2977116	-4.756078	0	11.06	20054	0	0	5	5	0.02	-0.05213325	1	10	0.03	2000	-1.072021	40.92393	-91.39362
520876	13	-6	-6	0.1004683	0.299509	-4.755712	0	11.06	20054	0	0	5	5	0.02	-0.06594059	1	10	0.03	2000	-1.282257	40.92393	-91.39362
521002	21	-5	-1	0.09527468	0.3026957	-4.755897	0	11.06	20054	0	0	5	5	0.02	-0.08752022	1	10	0.03	2000	-1.27594	40.92393	-91.39362
521075	21	-3	-1	0.09607206	0.3010736	-4.755957	0	11.06	20054	0	0	5	5	0.02	-0.09560673	1	10	0.03	2000	-1.272644	40.92393	-91.39362
521187	23	5	2	0.08861979	0.2956616	-4.751676	0	11.06	20054	0	0	5	5	0.02	-0.1169071	1	10	0.03	2000	-1.25647	40.92393	-91.39362
521276	18	-2	0	0.0806541	0.2906871	-4.750147	0	11.06	20054	0	0	5	5	0.02	-0.1259434	1	10	0.03	2000	-1.257996	40.92393	-91.39362
521372	23	0	-3	0.07568672	0.290545	-4.748679	0	11.06	20054	0	0	5	5	0.02	-0.1364398	1	10	0.03	2000	-1.23819	40.92393	-91.39362
521493	14	7	4	0.067523	0.2853473	-4.74868	0	11	20054	0	0	5	5	0.02	-0.1413393	1	10	0.03	2000	-1.223206	40.92393	-91.39362
521654	18	-15	-21	0.08551852	0.2877684	-4.733884	0	11	20054	0	0	5	5	0.02	-0.1441523	1	10	0.03	2000	-1.244812	40.92393	-91.39362
521722	20	-8	-3	0.08896559	0.2883704	-4.725264	0	11	20054	0	0	5	5	0.02	-0.1459456	1	10	0.03	2000	-1.244812	40.92393	-91.39362
521830	20	3	6	0.09195397	0.2871816	-4.725569	0	11	20054	0	0	5	5	0.02	-0.1594007	1	10	0.03	2000	-1.496765	40.92393	-91.39362
521874	24	0	-8	0.09586056	0.2845716	-4.723795	0	11	20054	0	0	5	5	0.02	-0.1634584	1	10	0.03	2000	-1.265961	40.92393	-91.39362
521976	21	2	1	0.09287864	0.2877266	-4.722696	0	11	20054	0	0	5	5	0.02	-0.1671145	1	10	0.03	2000	-1.044159	40.92393	-91.39362
522098	19	-3	-3	0.09031597	0.2908463	-4.720617	0	11	20054	0	0	5	5	0.02	-0.1745087	1	10	0.03	2000	-1.045807	40.92393	-91.39362
522184	20	0	-3	0.09091816	0.2935206	-4.719945	0	11	20054	0	0	5	5	0.02	-0.1770069	1	10	0.03	2000	-1.269836	40.92393	-91.39362
522315	16	0	-4	0.08218157	0.2959699	-4.718048	0	11	20054	0	0	5	5	0.02	-0.1791277	1	10	0.03	2000	-1.254089	40.92393	-91.39362
522405	20	-2	-2	0.07810572	0.2934741	-4.715541	0	11	20054	0	0	5	5	0.02	-0.1821051	1	10	0.03	2000	-1.024567	40.92393	-91.39362
522530	22	0	-2	0.08112109	0.2941231	-4.712423	0	11.06	20054	0	0	5	5	0.02	-0.1846053	1	10	0.03	2000	-1.240082	40.92393	-91.39362
522695	25	0	2	0.0831902	0.2925525	-4.710406	0	11.06	20054	0	0	5	5	0.02	-0.1789179	1	10	0.03	2000	-1.255737	40.92393	-91.39362
522809	25	0	0	0.08540896	0.2884199	-4.707412	0	11.06	20054	0	0	5	5	0.02	-0.1757223	1	10	0.03	2000	-1.256866	40.92393	-91.39362
522891	21	-1	0	0.09241427	0.2878037	-4.705822	0	11.06	20054	0	0	5	5	0.02	-0.1731159	1	10	0.03	2000	-1.259003	40.92393	-91.39362
523027	18	0	0	0.08797114	0.2955229	-4.7035	0	11.06	20054	0	0	5	5	0.02	-0.16249	1	10	0.03	2000	-1.491699	40.92393	-91.39362
523147	15	-1	-1	0.0868267	0.2998172	-4.701179	0	11.06	20054	0	0	5	5	0.02	-0.1588324	1	10	0.03	2000	-1.03714	40.92393	-91.39362
523202	16	1	0	0.08611272	0.3030255	-4.6991	0	11.06	20054	0	0	5	5	0.02	-0.1574456	1	10	0.03	2000	-1.259613	40.92393	-91.39362
523310	19	0	7	0.09091637	0.3001979	-4.697327	0	11.06	20054	0	0	5	5	0.02	-0.1575664	1	10	0.03	2000	-1.264954	40.92393	-91.39362
523367	19	0	0	0.09165742	0.2987622	-4.696348	0	11.06	20054	0	0	5	5	0.02	-0.1572222	1	10	0.03	2000	-1.264954	40.92393	-91.39362
523529	18	-1	-1	0.08223504	0.2973258	-4.693536	0	11.06	20054	0	0	5	5	0.02	-0.1652319	1	10	0.03	2000	-1.030701	40.92393	-91.39362
523617	15	-3	-9	0.07942188	0.2932388	-4.691029	0	11.06	20054	0	0	5	5	0.02	-0.1705693	1	10	0.03	2000	-1.250061	40.92393	-91.39362
