time(ms)	gyro_x(deg/s)	gyro_y(deg/s)	gyro_z(deg/s)	orientation_roll(deg)	orientation_pitch(deg)	orientation_yaw(deg)	throttle	battery(V)	loop_time(uS)	pid_output_roll	pid_output_pitch	pid_output_yaw	pid_output_throttle	ultrasonic_alt	baro_alt	flight_mode	p_gain_altitude	i_gain_altitude	d_gain_altitude	compass_heading	latitude	longitude
400400	607	-1302	-209	-4.336313	-4.30652	-1.443495	0	10.09	23995	46	-44	5	5	0.02	1.552064	8	10	0.03	2000	-13.50998	40.92387	-91.39356
400575	2925	1507	-77	0.08519819	-2.993004	-0.9405665	0	10.66	20008	39	-35	5	5	0.02	1.556961	8	10	0.03	2000	-12.84464	40.92387	-91.39356
400610	1540	539	-561	0.7350429	-3.423219	-0.5388657	0	10.66	20025	37	-31	5	5	0.02	1.56098	8	10	0.03	2000	-12.84464	40.92387	-91.39356
400780	-773	760	123	-1.314854	-3.77892	0.1175113	0	10.66	20028	28	-23	5	5	0.02	1.611111	8	10	0.03	2000	-13.86429	40.92387	-91.39357
400857	433	-514	903	-3.944558	-2.983318	-0.9693714	0	10.66	20052	23	-12	5	5	0.02	1.626217	8	10	0.03	2000	-12.5018	40.92387	-91.39357
400909	1085	-499	533	-3.721133	-2.767825	-1.190363	0	10.66	20051	23	-12	5	5	0.02	1.642672	8	10	0.03	2000	-12.45837	40.92387	-91.39357
401038	-1091	-548	1049	-3.367178	-3.267125	-1.246506	0	10.66	20006	23	-14	5	5	0.02	1.70178	3	10	0.03	2000	-11.21442	40.92387	-91.39357
401137	892	482	-1518	-3.208589	-4.309451	-0.3018172	0	10.66	20006	0	0	5	5	0.02	1.751368	3	10	0.03	2000	-10.57797	40.92388	-91.39358
401275	144	-2741	1215	-3.580696	-3.006866	-0.1209162	0	10.66	20006	0	0	5	5	0.02	1.801701	3	10	0.03	2000	-10.53714	40.92389	-91.39358
401423	-491	-3970	1391	-3.524442	1.422113	-1.720891	0	10.66	20006	0	0	5	5	0.02	1.888308	3	10	0.03	2000	-8.449463	40.92389	-91.39358
401457	-206	-4675	204	-3.849066	3.320593	-2.007511	0	10.66	20006	0	0	5	5	0.02	1.899831	3	10	0.03	2000	-8.449463	40.92389	-91.39358
401525	1737	-3849	-596	-2.402005	6.567753	-2.182656	0	10.66	20006	0	0	5	5	0.02	1.92494	3	10	0.03	2000	-6.545502	40.92389	-91.39358
401705	20	792	-989	-3.474054	7.400473	-1.930164	0	9.98	20006	0	0	5	5	0.02	2.168873	3	10	0.03	2000	-6.37738	40.9239	-91.39358
401733	2239	2515	174	-2.980384	5.83387	-1.674182	0	9.98	20006	0	0	5	5	0.02	2.182309	3	10	0.03	2000	-7.235168	40.9239	-91.39358
401916	-464	-572	-400	-2.439675	1.133966	-1.682967	0	9.98	20006	0	0	5	5	0.02	2.280352	3	10	0.03	2000	-5.463135	40.9239	-91.39359
402057	1119	-2007	277	-1.130322	0.2860368	-2.080502	0	9.98	20006	0	0	5	5	0.02	2.314565	3	10	0.03	2000	-1.978607	40.92391	-91.39359
402143	443	-4455	-428	-0.08900724	3.436204	-1.647789	0	9.98	20006	0	0	5	5	0.02	2.310913	3	10	0.03	2000	0.539152	40.92391	-91.39359
402295	-725	-3082	295	-1.715142	7.110168	-1.340508	0	9.98	20006	0	0	5	5	0.02	2.258303	3	10	0.03	2000	2.533177	40.92391	-91.39359
402412	1858	2215	190	-1.243592	5.401368	-1.040821	0	9.98	20006	0	0	5	5	0.02	2.174404	3	10	0.03	2000	3.12228	40.92392	-91.39359
402485	-164	453	449	-1.183199	1.582543	-1.23965	0	10.38	20006	0	0	5	5	0.02	2.000547	3	10	0.03	2000	7.465899	40.92392	-91.39359
402577	461	-1015	243	-1.464684	0.9329306	-1.639046	0	10.38	20006	0	0	5	5	0.02	1.940009	3	10	0.03	2000	11.01385	40.92392	-91.39359
402728	2760	2594	639	0.4043806	-1.071777	-1.831633	0	10.38	20006	0	0	5	5	0.02	1.602598	3	10	0.03	2000	18.41792	40.92392	-91.39359
402862	358	821	-905	1.587628	-5.157812	-1.55624	0	10.38	20006	0	0	5	5	0.02	1.532925	3	10	0.03	2000	18.63173	40.92392	-91.3936
403017	1961	2882	-1820	1.907372	-5.81686	-0.1050112	0	10.38	20006	0	0	5	5	0.02	1.293076	3	10	0.03	2000	20.34685	40.92392	-91.39361
403112	-2500	2974	-562	1.582973	-9.56281	0.6020141	0	10.38	20006	0	0	5	5	0.02	1.081784	3	10	0.03	2000	19.09451	40.92392	-91.39361
403192	-4265	1459	338	-2.881481	-11.66484	0.0976524	0	10.38	20006	0	0	5	5	0.02	0.9176041	3	10	0.03	2000	21.19709	40.92392	-91.39361
403311	-1476	958	235	-7.268087	-12.27446	-1.411357	0	10.38	20006	0	0	5	5	0.02	0.6983116	3	10	0.03	2000	17.44407	40.92392	-91.39361
403437	3453	-3948	403	-6.263964	-1.744535	-2.970886	0	11	20006	0	0	5	5	0.02	0.657104	3	10	0.03	2000	16.97511	40.92392	-91.39361
403499	2576	-3509	891	-4.407351	0.7873752	-3.037096	0	11	20006	0	0	5	5	0.02	0.6055543	3	10	0.03	2000	16.97511	40.92392	-91.39362
403639	139	-335	56	-5.792464	-4.450715	-4.624808	0	11	20006	0	0	5	5	0.02	0.4979157	3	10	0.03	2000	12.42912	40.92392	-91.39362
403756	-52	-47	106	-4.897948	-3.202686	-4.735228	0	11	20006	0	0	5	5	0.02	0.4235315	3	10	0.03	2000	12.42912	40.92392	-91.39362
403891	-23	-11	24	-4.524116	-2.786676	-4.747565	0	11	20006	0	0	5	5	0.02	0.2629604	1	10	0.03	2000	10.00055	40.92392	-91.39362
403949	-72	-34	63	-3.865512	-2.158211	-4.77722	0	11	20006	0	0	5	5	0.02	0.2067014	1	10	0.03	2000	9.377978	40.92392	-91.39362
404098	-76	-7	-10	-3.313564	-1.609112	-4.801799	0	11	20006	0	0	5	5	0.02	0.1057949	1	10	0.03	2000	7.44152	40.92392	-91.39362
404167	-117	0	10	-3.061856	-1.367229	-4.806201	0	11	20006	0	0	5	5	0.02	0.07485917	1	10	0.03	2000	7.189871	40.92392	-91.39362
404304	-82	6	-20	-2.642842	-0.9351086	-4.834573	0	11	20006	0	0	5	5	0.02	-0.01068056	1	10	0.03	2000	6.423769	40.92392	-91.39362
404363	-39	9	25	-2.548466	-0.853065	-4.845396	0	11.06	20006	0	0	5	5	0.02	-0.06003994	1	10	0.03	2000	5.521178	40.92392	-91.39362
404478	-60	17	-12	-2.219188	-0.5199155	-4.866552	0	11.06	20006	0	0	5	5	0.02	-0.1077279	1	10	0.03	2000	5.378239	40.92392	-91.39362
404641	-39	7	31	-1.895988	-0.1736692	-4.887892	0	11.06	20006	0	0	5	5	0.02	-0.1820083	1	10	0.03	2000	4.367815	40.92392	-91.39362
404720	-60	-3	2	-1.779912	-0.0468038	-4.899141	0	11.06	20006	0	0	5	5	0.02	-0.2133016	1	10	0.03	2000	5.190031	40.92392	-91.39362
404804	-43	7	-2	-1.566543	0.1483707	-4.918157	0	11.06	20006	0	0	5	5	0.02	-0.2377009	1	10	0.03	2000	4.189895	40.92392	-91.39362
404858	-58	-6	-7	-1.521178	0.1940497	-4.924576	0	11.06	20006	0	0	5	5	0.02	-0.2605958	1	10	0.03	2000	4.189895	40.92392	-91.39362
405015	-49	0	10	-1.346282	0.3424909	-4.948177	0	11.06	20006	0	0	5	5	0.02	-0.283551	1	10	0.03	2000	3.67972	40.92392	-91.39362
405068	-46	0	-6	-1.271911	0.397937	-4.959304	0	11.06	20006	0	0	5	5	0.02	-0.2926044	1	10	0.03	2000	3.99352	40.92392	-91.39362
405172	-52	1	7	-1.167108	0.4967654	-4.975565	0	11.06	20006	0	0	5	5	0.02	-0.3038553	1	10	0.03	2000	3.066481	40.92392	-91.39362
405295	-52	-1	14	-1.05782	0.5964683	-4.999227	0	11.11	20006	0	0	5	5	0.02	-0.3110606	1	10	0.03	2000	2.9531	40.92392	-91.39362
405402	-54	1	8	-0.9887323	0.6628018	-5.016407	0	11.11	20006	0	0	5	5	0.02	-0.3156095	1	10	0.03	2000	2.529357	40.92392	-91.39362
405583	-57	8	11	-0.8678014	0.7740713	-5.046183	0	11.11	20006	0	0	5	5	0.02	-0.3172854	1	10	0.03	2000	2.315237	40.92392	-91.39362
405679	-48	-6	9	-0.8325003	0.8062534	-5.055231	0	11.11	20006	0	0	5	5	0.02	-0.3188614	1	10	0.03	2000	2.252178	40.92392	-91.39362
405783	-54	-5	10	-0.7805346	0.8653759	-5.074183	0	11.11	20006	0	0	5	5	0.02	-0.3165974	1	10	0.03	2000	2.157159	40.92392	-91.39362
405906	-51	0	5	-0.7425456	0.9029495	-5.086716	0	11.11	20006	0	0	5	5	0.02	-0.3149216	1	10	0.03	2000	2.113318	40.92392	-91.39362
405985	-55	2	12	-0.7074503	0.9374106	-5.102	0	11.11	20006	0	0	5	5	0.02	-0.313412	1	10	0.03	2000	2.074932	40.92392	-91.39362
406089	-57	0	8	-0.6933989	0.9459293	-5.10579	0	11.11	20006	0	0	5	5	0.02	-0.3080972	1	10	0.03	2000	2.023118	40.92392	-91.39362
406202	-44	5	3	-0.6470292	0.9852844	-5.123213	0	11.11	20006	0	0	5	5	0.02	-0.2938924	1	10	0.03	2000	1.964897	40.92392	-91.39362
406353	-49	-4	16	-0.6180233	1.01431	-5.140086	0	11.11	20006	0	0	5	5	0.02	-0.2914447	1	10	0.03	2000	1.91159	40.92392	-91.39362
406405	-50	-4	8	-0.6075553	1.021927	-5.143999	0	11.11	20006	0	0	5	5	0.02	-0.281649	1	10	0.03	2000	1.873072	40.92392	-91.39362
406538	-46	-2	6	-0.5875952	1.040584	-5.157388	0	11.11	20006	0	0	5	5	0.02	-0.2731355	1	10	0.03	2000	1.858775	40.92392	-91.39362
406624	-48	1	12	-0.5615333	1.061636	-5.176405	0	11.11	20006	0	0	5	5	0.02	-0.2715657	1	10	0.03	2000	1.817566	40.92392	-91.39362
406721	-49	3	3	-0.5529784	1.072871	-5.183804	0	11.11	20006	0	0	5	5	0.02	-0.2548652	1	10	0.03	2000	1.806298	40.92392	-91.39362
406821	-50	-7	5	-0.5248333	1.084298	-5.200311	0	11.11	20006	0	0	5	5	0.02	-0.2465473	1	10	0.03	2000	1.753894	40.92392	-91.39362
406956	-44	4	4	-0.5092113	1.091993	-5.210705	0	11.11	20006	0	0	5	5	0.02	-0.238516	1	10	0.03	2000	1.720784	40.92392	-91.39362
407055	-47	0	9	-0.4959299	1.103961	-5.220793	0	11.11	20006	0	0	5	5	0.02	-0.2327006	1	10	0.03	2000	1.694285	40.92392	-91.39362
407169	-45	1	5	-0.4843372	1.101551	-5.234244	0	11.17	20006	0	0	5	5	0.02	-0.230024	1	10	0.03	2000	1.671669	40.92392	-91.39362
407205	-45	1	5	-0.4843372	1.101551	-5.234244	0	11.17	20006	0	0	5	5	0.02	-0.2301787	1	10	0.03	2000	1.671669	40.92392	-91.39362
407346	-51	5	1	-0.4762025	1.102496	-5.250141	0	11.17	20006	0	0	5	5	0.02	-0.2340087	1	10	0.03	2000	1.662724	40.92392	-91.39362
407443	-45	-14	7	-0.4811052	1.100433	-5.263896	0	11.17	20006	0	0	5	5	0.02	-0.2393982	1	10	0.03	2000	1.650378	40.92392	-91.39362
407591	-37	4	1	-0.4792116	1.107341	-5.278753	0	11.17	20006	0	0	5	5	0.02	-0.255918	1	10	0.03	2000	1.670978	40.92392	-91.39362
407655	-51	-1	3	-0.4807844	1.109148	-5.285968	0	11.17	20006	0	0	5	5	0.02	-0.2592458	1	10	0.03	2000	1.445356	40.92392	-91.39362
407764	-52	-2	6	-0.4676518	1.106901	-5.303942	0	11.17	20006	0	0	5	5	0.02	-0.2709141	1	10	0.03	2000	1.646158	40.92392	-91.39362
407806	-47	6	5	-0.4689581	1.107934	-5.307611	0	11.17	20006	0	0	5	5	0.02	-0.2709141	1	10	0.03	2000	1.646821	40.92392	-91.39362
407906	-69	-9	-17	-0.4627518	1.112201	-5.313725	0	11.17	20006	0	0	5	5	0.02	-0.2733472	1	10	0.03	2000	1.642848	40.92392	-91.39362
407998	86	129	29	-0.4378448	1.135183	-5.341238	0	11.17	20006	0	0	5	5	0.02	-0.2694929	1	10	0.03	2000	1.613908	40.92392	-91.39362
408161	-1997	-3375	-432	-2.37746	4.065741	-5.161281	0	11.17	20006	0	0	5	5	0.02	-0.2549638	1	10	0.03	2000	2.085396	40.92392	-91.39362
408224	-1708	-2380	-2830	-4.538268	6.962423	-3.346224	0	11.17	20006	0	0	5	5	0.02	-0.2447411	1	10	0.03	2000	2.760855	40.92392	-91.39362
408353	1228	-5279	-1429	-2.736368	12.9874	1.869433	0	11.17	20006	0	0	5	5	0.02	-0.2375765	1	10	0.03	2000	0.0859127	40.92392	-91.39362
408499	948	-2573	814	-1.413946	16.41053	2.096382	0	11.17	20006	0	0	5	5	0.02	-0.2208007	1	10	0.03	2000	0.3961405	40.92392	-91.39362
408531	-364	-443	1243	-1.88511	15.97922	1.510723	0	11.17	20006	0	0	5	5	0.02	-0.2208007	1	10	0.03	2000	4.68273	40.92392	-91.39362
408698	-484	8140	2107	-7.301377	-0.7375249	-4.540949	0	11.17	20006	0	0	5	5	0.02	-0.177557	1	10	0.03	2000	12.14755	40.92392	-91.39362
408729	-468	5599	1433	-7.327457	-6.524354	-6.539013	0	11.17	20006	0	0	5	5	0.02	-0.177557	1	10	0.03	2000	9.76225	40.92392	-91.39362
408864	2854	-336	-1532	-4.204668	-6.890699	-6.981588	0	11.17	20006	0	0	5	5	0.02	-0.142369	1	10	0.03	2000	3.961518	40.92392	-91.39362
409039	-1927	-2517	0	-1.297708	2.357436	-3.772954	0	11.17	20006	0	0	5	5	0.02	-0.1027352	1	10	0.03	2000	-0.4917297	40.92392	-91.39362
409159	-325	-673	-80	0.8523651	1.451776	-4.531065	0	11.17	20006	0	0	5	5	0.02	-0.09501346	1	10	0.03	2000	-0.2174072	40.92392	-91.39362
409336	-405	-1006	1095	-0.2913032	3.381054	-5.130448	0	11.17	20006	0	0	5	5	0.02	-0.09325951	1	10	0.03	2000	-0.5087891	40.92392	-91.39362
409396	414	407	282	-0.06826938	1.861884	-6.994418	0	11.17	20006	0	0	5	5	0.02	-0.09415185	1	10	0.03	2000	1.889464	40.92392	-91.39362
409501	-118	-202	-59	0.1145973	1.45836	-6.943548	0	11.17	20006	0	0	5	5	0.02	-0.08762226	1	10	0.03	2000	1.529192	40.92392	-91.39362
409527	-380	-449	130	-0.06238088	1.590222	-6.983405	0	11.17	20006	0	0	5	5	0.02	-0.08506766	1	10	0.03	2000	1.529192	40.92392	-91.39362
409647	-167	-319	46	0.09136918	1.078874	-7.000533	0	11.17	20006	0	0	5	5	0.02	-0.0848806	1	10	0.03	2000	1.751154	40.92392	-91.39362
409739	112	265	-57	-0.08552912	1.165851	-7.007018	0	11.17	20006	0	0	5	5	0.02	-0.08603852	1	10	0.03	2000	1.831719	40.92392	-91.39362
409917	7	75	1	-0.05528007	0.8249843	-7.021142	0	11.23	20006	0	0	5	5	0.02	-0.1055142	1	10	0.03	2000	1.896745	40.92392	-91.39362
409975	-115	-118	-2	-0.06515785	0.7818171	-7.019492	0	11.23	20006	0	0	5	5	0.02	-0.1164742	1	10	0.03	2000	1.896745	40.92392	-91.39362
410059	-56	-17	2	-0.1427662	0.7001152	-7.027135	0	11.23	20006	0	0	5	5	0.02	-0.1248388	1	10	0.03	2000	1.936244	40.92392	-91.39362
410158	-58	-18	3	-0.1675194	0.6193992	-7.035818	0	11.23	20006	0	0	5	5	0.02	-0.1348162	1	10	0.03	2000	2.033044	40.92392	-91.39362
410290	-22	29	6	-0.2059302	0.5269693	-7.049572	0	11.23	20006	0	0	5	5	0.02	-0.1402441	1	10	0.03	2000	2.272359	40.92392	-91.39362
410436	-49	0	-1	-0.2098074	0.4512756	-7.051163	0	11.23	20006	0	0	5	5	0.02	-0.1368039	1	10	0.03	2000	2.129297	40.92392	-91.39362
410469	-49	0	-1	-0.2098074	0.4512756	-7.051163	0	11.23	20006	0	0	5	5	0.02	-0.1387779	1	10	0.03	2000	2.129297	40.92392	-91.39362
410538	-45	-11	6	-0.2275948	0.399035	-7.057768	0	11.23	20006	0	0	5	5	0.02	-0.1415872	1	10	0.03	2000	2.138809	40.92392	-91.39362
410632	-42	-5	7	-0.2414388	0.3563233	-7.066755	0	11.23	20006	0	0	5	5	0.02	-0.1449772	1	10	0.03	2000	2.383043	40.92392	-91.39362
410754	-40	0	3	-0.2543507	0.3147267	-7.078433	0	11.23	20006	0	0	5	5	0.02	-0.1422332	1	10	0.03	2000	1.970591	40.92392	-91.39362
410879	-41	3	4	-0.2624213	0.2859984	-7.08693	0	11.11	20006	0	0	5	5	0.02	-0.1397046	1	10	0.03	2000	2.440556	40.92392	-91.39362
410972	-43	3	10	-0.2732254	0.261408	-7.093594	0	11.11	20006	0	0	5	5	0.02	-0.1407843	1	10	0.03	2000	2.444233	40.92392	-91.39362
411036	-43	-1	6	-0.2765897	0.2471938	-7.098851	0	11.11	20006	0	0	5	5	0.02	-0.1415258	1	10	0.03	2000	2.227283	40.92392	-91.39362
411149	-34	3	0	-0.2908726	0.2266265	-7.106553	0	11.11	20006	0	0	5	5	0.02	-0.138762	1	10	0.03	2000	2.474521	40.92392	-91.39362
411261	-48	0	3	-0.2916433	0.204809	-7.114561	0	11.11	20006	0	0	5	5	0.02	-0.1299922	1	10	0.03	2000	2.483227	40.92392	-91.39362
411358	-37	0	4	-0.2948162	0.1982617	-7.119818	0	11.11	20006	0	0	5	5	0.02	-0.1297458	1	10	0.03	2000	2.271337	40.92392	-91.39362
411429	-42	-3	1	-0.2963558	0.1905437	-7.127156	0	11.11	20006	0	0	5	5	0.02	-0.1265281	1	10	0.03	2000	2.260478	40.92392	-91.39362
411540	-37	3	-1	-0.298298	0.1760222	-7.134309	0	11.11	20006	0	0	5	5	0.02	-0.1284166	1	10	0.03	2000	2.272359	40.92392	-91.39362
411621	-36	-1	7	-0.295525	0.1582666	-7.149168	0	11.11	20006	0	0	5	5	0.02	-0.1342878	1	10	0.03	2000	2.493307	40.92392	-91.39362
411707	-34	5	3	-0.2924549	0.1494404	-7.153203	0	11.17	20006	0	0	5	5	0.02	-0.1392044	1	10	0.03	2000	2.500063	40.92392	-91.39362
411777	-42	2	4	-0.2908537	0.1491802	-7.156261	0	11.17	20006	0	0	5	5	0.02	-0.145148	1	10	0.03	2000	2.495508	40.92392	-91.39362
411883	-30	0	4	-0.281029	0.1416829	-7.166166	0	11.17	20006	0	0	5	5	0.02	-0.1500776	1	10	0.03	2000	2.466189	40.92392	-91.39362
412039	-37	-6	3	-0.2913921	0.1416254	-7.180046	0	11.17	20006	0	0	5	5	0.02	-0.1562513	1	10	0.03	2000	2.254393	40.92393	-91.39362
412112	-38	-1	-1	-0.2946239	0.1359297	-7.184081	0	11.17	20006	0	0	5	5	0.02	-0.164609	1	10	0.03	2000	2.254393	40.92393	-91.39362
412240	-33	3	8	-0.3016257	0.124895	-7.19478	0	11.17	20006	0	0	5	5	0.02	-0.1693013	1	10	0.03	2000	2.282734	40.92393	-91.39362
412314	-38	1	0	-0.3013491	0.1209132	-7.2001	0	11.17	20006	0	0	5	5	0.02	-0.1692097	1	10	0.03	2000	2.503652	40.92393	-91.39362
412368	-33	-1	5	-0.298244	0.1228354	-7.204931	0	11.17	20006	0	0	5	5	0.02	-0.1719327	1	10	0.03	2000	2.504394	40.92393	-91.39362
412468	-39	1	12	-0.2926897	0.1202901	-7.210557	0	11.17	20006	0	0	5	5	0.02	-0.1771722	1	10	0.03	2000	2.499219	40.92393	-91.39362
412575	-36	3	8	-0.2867258	0.1202546	-7.223215	0	11.17	20006	0	0	5	5	0.02	-0.1865535	1	10	0.03	2000	2.257833	40.92393	-91.39362
412659	-36	0	4	-0.283302	0.1152167	-7.228962	0	11.17	20006	0	0	5	5	0.02	-0.1941678	1	10	0.03	2000	2.476559	40.92393	-91.39362
412771	-36	-3	5	-0.281056	0.1137364	-7.236543	0	11.17	20006	0	0	5	5	0.02	-0.2020338	1	10	0.03	2000	2.698923	40.92393	-91.39362
412913	-32	2	13	-0.281414	0.1007752	-7.246507	0	11.17	20006	0	0	5	5	0.02	-0.2061549	1	10	0.03	2000	2.485038	40.92393	-91.39362
413015	-37	6	1	-0.2836104	0.1053248	-7.252682	0	11.17	20006	0	0	5	5	0.02	-0.2033668	1	10	0.03	2000	2.485144	40.92393	-91.39362
413152	-33	-1	3	-0.2827177	0.1049008	-7.265644	0	11.17	20006	0	0	5	5	0.02	-0.1903013	1	10	0.03	2000	2.263654	40.92393	-91.39362
413175	-33	-1	3	-0.2827177	0.1049008	-7.265644	0	11.17	20006	0	0	5	5	0.02	-0.1852681	1	10	0.03	2000	2.263654	40.92393	-91.39362
413274	-42	-1	-1	-0.2788546	0.1092525	-7.276403	0	11.17	20006	0	0	5	5	0.02	-0.18395	1	10	0.03	2000	2.24618	40.92393	-91.39362
413391	-35	0	4	-0.2835192	0.111787	-7.283679	0	11.17	20006	0	0	5	5	0.02	-0.1850986	1	10	0.03	2000	2.249251	40.92393	-91.39362
413479	-34	1	5	-0.2799841	0.1097887	-7.290465	0	11.17	20006	0	0	5	5	0.02	-0.183398	1	10	0.03	2000	2.26103	40.92393	-91.39362
413585	-35	0	0	-0.272139	0.1065286	-7.298413	0	11.17	20006	0	0	5	5	0.02	-0.1799886	1	10	0.03	2000	2.473132	40.92393	-91.39362
413688	-36	0	5	-0.2717425	0.1066997	-7.308988	0	11.17	20006	0	0	5	5	0.02	-0.1773819	1	10	0.03	2000	2.460811	40.92393	-91.39362
413806	-34	1	3	-0.2759351	0.1021564	-7.315103	0	11.17	20006	0	0	5	5	0.02	-0.1725496	1	10	0.03	2000	2.24185	40.92393	-91.39362
413924	-40	-1	7	-0.277135	0.1012904	-7.321217	0	11.17	20006	0	0	5	5	0.02	-0.1730104	1	10	0.03	2000	2.4694	40.92393	-91.39362
413997	-42	-2	11	-0.2774023	0.1069357	-7.327881	0	11.17	20006	0	0	5	5	0.02	-0.1767936	1	10	0.03	2000	2.476726	40.92393	-91.39362
414179	-39	3	3	-0.2765185	0.1035278	-7.338336	0	11.17	20006	0	0	5	5	0.02	-0.2001688	1	10	0.03	2000	2.236952	40.92393	-91.39362
414236	-30	0	9	-0.2772373	0.09477238	-7.34555	0	11.17	20006	0	0	5	5	0.02	-0.2076616	1	10	0.03	2000	2.253446	40.92393	-91.39362
414318	-37	1	7	-0.2748035	0.0932156	-7.351848	0	11.17	20006	0	0	5	5	0.02	-0.2280564	1	10	0.03	2000	2.701169	40.92393	-91.39362
414438	-38	-3	6	-0.2687808	0.09741003	-7.361629	0	11.17	20006	0	0	5	5	0.02	-0.2542368	1	10	0.03	2000	1.997402	40.92393	-91.39362
414547	-35	-4	0	-0.267676	0.09294041	-7.368537	0	11.17	20006	0	0	5	5	0.02	-0.2620552	1	10	0.03	2000	2.45593	40.92393	-91.39362
414654	-34	0	4	-0.2582127	0.08880939	-7.37612	0	11.17	20006	0	0	5	5	0.02	-0.2590477	1	10	0.03	2000	2.225621	40.92393	-91.39362
414705	-26	1	7	-0.2587036	0.08689722	-7.378566	0	11.17	20006	0	0	5	5	0.02	-0.2645986	1	10	0.03	2000	2.225621	40.92393	-91.39362
414803	-38	5	2	-0.2552264	0.08711749	-7.38688	0	11.17	20006	0	0	5	5	0.02	-0.270321	1	10	0.03	2000	2.20874	40.92393	-91.39362
414903	-35	2	0	-0.255267	0.08419411	-7.391771	0	11.17	20006	0	0	5	5	0.02	-0.2782345	1	10	0.03	2000	2.208482	40.92393	-91.39362
415031	-37	-4	8	-0.2587956	0.08721358	-7.405465	0	11.17	20006	0	0	5	5	0.02	-0.2826196	1	10	0.03	2000	2.214611	40.92393	-91.39362
415123	-34	5	4	-0.2561478	0.08482891	-7.412679	0	11.17	20006	0	0	5	5	0.02	-0.2856341	1	10	0.03	2000	2.446275	40.92393	-91.39362
415281	-28	4	2	-0.2519491	0.08290894	-7.426191	0	11.17	20006	0	0	5	5	0.02	-0.2913616	1	10	0.03	2000	2.434748	40.92393	-91.39362
415343	-32	0	5	-0.2490022	0.0830596	-7.428636	0	11.23	20006	0	0	5	5	0.02	-0.2923718	1	10	0.03	2000	2.434748	40.92393	-91.39362
415420	-33	-4	6	-0.2520198	0.08931979	-7.434444	0	11.23	20006	0	0	5	5	0.02	-0.2973676	1	10	0.03	2000	2.437835	40.92393	-91.39362
415491	-32	-1	5	-0.2578298	0.09309626	-7.439823	0	11.23	20006	0	0	5	5	0.02	-0.3013588	1	10	0.03	2000	2.445581	40.92393	-91.39362
415621	-34	1	1	-0.2557394	0.09841615	-7.447648	0	11.23	20006	0	0	5	5	0.02	-0.3106615	1	10	0.03	2000	2.206879	40.92393	-91.39362
415673	-35	-6	-1	-0.2548421	0.09717041	-7.4537	0	11.23	20006	0	0	5	5	0.02	-0.3139622	1	10	0.03	2000	2.447373	40.92393	-91.39362
415784	-39	0	3	-0.2512478	0.09370204	-7.460792	0	11.23	20006	0	0	5	5	0.02	-0.3269902	1	10	0.03	2000	2.445784	40.92393	-91.39362
415893	-35	5	8	-0.2531364	0.09487916	-7.471491	0	11.23	20006	0	0	5	5	0.02	-0.3321061	1	10	0.03	2000	1.968833	40.92393	-91.39362
416021	-30	-3	1	-0.2562337	0.09528592	-7.479561	0	11.23	20006	0	0	5	5	0.02	-0.3432408	1	10	0.03	2000	2.456193	40.92393	-91.39362
416148	-32	-3	3	-0.2498016	0.1062199	-7.488976	0	11.23	20006	0	0	5	5	0.02	-0.342375	1	10	0.03	2000	2.210437	40.92393	-91.39362
416182	-31	-1	2	-0.2487077	0.1020003	-7.494051	0	11.17	20006	0	0	5	5	0.02	-0.3354799	1	10	0.03	2000	2.422184	40.92393	-91.39362
416255	-28	-3	7	-0.2439569	0.1009773	-7.496986	0	11.17	20006	0	0	5	5	0.02	-0.3308735	1	10	0.03	2000	2.422184	40.92393	-91.39362
416466	-26	1	6	-0.2416411	0.09937192	-7.513553	0	11.17	20006	0	0	5	5	0.02	-0.3100935	1	10	0.03	2000	1.957321	40.92393	-91.39362
416503	-35	-5	5	-0.2403352	0.09957684	-7.515388	0	11.17	20006	0	0	5	5	0.02	-0.3063367	1	10	0.03	2000	2.195336	40.92393	-91.39362
416568	-29	-1	2	-0.2365394	0.09947844	-7.518078	0	11.17	20006	0	0	5	5	0.02	-0.3013687	1	10	0.03	2000	2.195336	40.92393	-91.39362
416689	-28	-1	5	-0.2267515	0.1000969	-7.52731	0	11.17	20006	0	0	5	5	0.02	-0.2927449	1	10	0.03	2000	2.403413	40.92393	-91.39362
416759	-29	6	0	-0.2246033	0.09572779	-7.530611	0	11.17	20006	0	0	5	5	0.02	-0.2877051	1	10	0.03	2000	1.93727	40.92393	-91.39362
416873	-36	2	5	-0.2226534	0.09186281	-7.539597	0	11.17	20006	0	0	5	5	0.02	-0.2768173	1	10	0.03	2000	2.372411	40.92393	-91.39362
417044	-30	-6	7	-0.2109806	0.1010298	-7.546994	0	11.17	20006	0	0	5	5	0.02	-0.2599825	1	10	0.03	2000	2.373853	40.92393	-91.39362
417103	-25	4	1	-0.210087	0.09842972	-7.549378	0	11.23	20006	0	0	5	5	0.02	-0.2539706	1	10	0.03	2000	2.373853	40.92393	-91.39362
417185	-37	0	2	-0.2108659	0.09478021	-7.551763	0	11.23	20006	0	0	5	5	0.02	-0.2502235	1	10	0.03	2000	2.129496	40.92393	-91.39362
417265	-31	3	6	-0.2068515	0.09536129	-7.55647	0	11.23	20006	0	0	5	5	0.02	-0.2462389	1	10	0.03	2000	2.352556	40.92393	-91.39362
417370	-33	3	12	-0.1990401	0.09022871	-7.565152	0	11.23	20006	0	0	5	5	0.02	-0.2408383	1	10	0.03	2000	2.134849	40.92393	-91.39362
417494	-25	-9	3	-0.1950763	0.09177028	-7.572672	0	11.23	20006	0	0	5	5	0.02	-0.2319798	1	10	0.03	2000	2.114802	40.92393	-91.39362
417567	-26	-1	7	-0.1877284	0.08960823	-7.577623	0	11.23	20006	0	0	5	5	0.02	-0.2257321	1	10	0.03	2000	2.109475	40.92393	-91.39362
417726	-28	4	1	-0.1829989	0.09126779	-7.581352	0	11.23	20006	0	0	5	5	0.02	-0.2249247	1	10	0.03	2000	2.109196	40.92393	-91.39362
417807	-28	0	-1	-0.1749057	0.0944276	-7.592051	0	11.23	20006	0	0	5	5	0.02	-0.2239867	1	10	0.03	2000	2.086191	40.92393	-91.39362
417870	-32	-4	5	-0.1725158	0.09303924	-7.594436	0	11.23	20006	0	0	5	5	0.02	-0.2195962	1	10	0.03	2000	2.086191	40.92393	-91.39362
417999	-24	1	1	-0.1630119	0.09213918	-7.598836	0	11.17	20006	0	0	5	5	0.02	-0.210821	1	10	0.03	2000	2.292695	40.92393	-91.39362
418094	-25	2	2	-0.1584938	0.08735921	-7.604031	0	11.17	20006	0	0	5	5	0.02	-0.204274	1	10	0.03	2000	2.057013	40.92393	-91.39362
418169	-25	4	5	-0.161374	0.08642816	-7.6099	0	11.17	20006	0	0	5	5	0.02	-0.1974939	1	10	0.03	2000	2.279316	40.92393	-91.39362
418260	-26	0	5	-0.1612572	0.08906546	-7.614364	0	11.17	20006	0	0	5	5	0.02	-0.1979772	1	10	0.03	2000	2.067189	40.92393	-91.39362
418416	-31	6	6	-0.1569053	0.08418835	-7.62653	0	11.17	20006	0	0	5	5	0.02	-0.2007151	1	10	0.03	2000	2.292645	40.92393	-91.39362
418489	-25	-9	4	-0.157677	0.08615107	-7.628548	0	11.17	20006	0	0	5	5	0.02	-0.2044695	1	10	0.03	2000	2.280299	40.92393	-91.39362
418555	-24	0	1	-0.1617894	0.08024328	-7.634418	0	11.17	20006	0	0	5	5	0.02	-0.2061779	1	10	0.03	2000	2.063336	40.92393	-91.39362
418655	-29	-5	4	-0.1634835	0.08130505	-7.641082	0	11.17	20006	0	0	5	5	0.02	-0.204991	1	10	0.03	2000	2.0602	40.92393	-91.39362
418751	-34	3	0	-0.1630974	0.08119912	-7.643588	0	11.17	20006	0	0	5	5	0.02	-0.2020112	1	10	0.03	2000	2.06275	40.92393	-91.39362
418857	-23	-3	5	-0.1566717	0.07969372	-7.648233	0	11.17	20006	0	0	5	5	0.02	-0.204586	1	10	0.03	2000	2.061454	40.92393	-91.39362
419023	-23	3	4	-0.15477	0.07425019	-7.657648	0	11.23	20006	0	0	5	5	0.02	-0.2020484	1	10	0.03	2000	2.281228	40.92393	-91.39362
419137	-28	0	8	-0.1496746	0.07243795	-7.661866	0	11.23	20006	0	0	5	5	0.02	-0.200244	1	10	0.03	2000	2.055654	40.92393	-91.39362
419211	-24	3	2	-0.1473415	0.07090417	-7.669202	0	11.23	20006	0	0	5	5	0.02	-0.196135	1	10	0.03	2000	2.051638	40.92393	-91.39362
419319	-30	2	2	-0.1461667	0.06663518	-7.672808	0	11.23	20006	0	0	5	5	0.02	-0.1934746	1	10	0.03	2000	2.03194	40.92393	-91.39362
419348	-29	4	5	-0.1443148	0.07021548	-7.674397	0	11.23	20006	0	0	5	5	0.02	-0.1924605	1	10	0.03	2000	2.03194	40.92393	-91.39362
419428	-26	4	4	-0.1390409	0.07031512	-7.678554	0	11.23	20006	0	0	5	5	0.02	-0.1938764	1	10	0.03	2000	2.026988	40.92393	-91.39362
419568	-25	2	-2	-0.1401412	0.07430554	-7.682039	0	11.23	20006	0	0	5	5	0.02	-0.1973751	1	10	0.03	2000	2.250946	40.92393	-91.39362
419635	-23	6	4	-0.1415762	0.07196996	-7.682467	0	11.23	20006	0	0	5	5	0.02	-0.19878	1	10	0.03	2000	2.253965	40.92393	-91.39362
419778	-25	0	4	-0.1387289	0.06906875	-7.694266	0	11.23	20006	0	0	5	5	0.02	-0.1982468	1	10	0.03	2000	1.808768	40.92393	-91.39362
419882	-27	3	1	-0.1424387	0.07070267	-7.698668	0	11.17	20006	0	0	5	5	0.02	-0.2011904	1	10	0.03	2000	2.256288	40.92393	-91.39362
419965	-25	-1	2	-0.144363	0.06888579	-7.702091	0	11.17	20006	0	0	5	5	0.02	-0.2062387	1	10	0.03	2000	2.036448	40.92393	-91.39362
420061	-24	2	0	-0.1387656	0.07155807	-7.708143	0	11.17	20006	0	0	5	5	0.02	-0.210222	1	10	0.03	2000	2.261982	40.92393	-91.39362
420124	-27	2	6	-0.1329493	0.06663701	-7.710773	0	11.17	20006	0	0	5	5	0.02	-0.2111635	1	10	0.03	2000	2.260805	40.92393	-91.39362
420217	-28	-4	0	-0.1325434	0.07428518	-7.715847	0	11.17	20006	0	0	5	5	0.02	-0.2080869	1	10	0.03	2000	2.019296	40.92393	-91.39362
420280	-23	-4	3	-0.1238516	0.07636416	-7.718842	0	11.17	20006	0	0	5	5	0.02	-0.2079473	1	10	0.03	2000	2.023475	40.92393	-91.39362
420384	-28	4	7	-0.1142329	0.07207546	-7.725138	0	11.17	20006	0	0	5	5	0.02	-0.2089866	1	10	0.03	2000	1.996804	40.92393	-91.39362
420485	-22	2	1	-0.1142803	0.07351673	-7.728989	0	11.17	20006	0	0	5	5	0.02	-0.211283	1	10	0.03	2000	2.210554	40.92393	-91.39362
420598	-17	2	6	-0.1135895	0.06899802	-7.735348	0	11.17	20006	0	0	5	5	0.02	-0.2082967	1	10	0.03	2000	2.223034	40.92393	-91.39362
420685	-12	1	8	-0.11202	0.0713539	-7.738893	0	11.17	20006	0	0	5	5	0.02	-0.2096192	1	10	0.03	2000	1.990147	40.92393	-91.39362
420816	-29	-4	7	-0.1034694	0.07432236	-7.744761	0	11.17	20006	0	0	5	5	0.02	-0.2176857	1	10	0.03	2000	1.979637	40.92393	-91.39362
420888	-28	1	0	-0.1037174	0.07276376	-7.748307	0	11.17	20006	0	0	5	5	0.02	-0.2261031	1	10	0.03	2000	1.973506	40.92393	-91.39362
421008	-24	0	5	-0.1085001	0.06804268	-7.754175	0	11.17	20006	0	0	5	5	0.02	-0.2309661	1	10	0.03	2000	2.203751	40.92393	-91.39362
421091	-17	-3	-1	-0.1050432	0.06611416	-7.75607	0	11.17	20006	0	0	5	5	0.02	-0.2359368	1	10	0.03	2000	2.201654	40.92393	-91.39362
421242	-18	3	4	-0.1002267	0.06706519	-7.759922	0	11.17	20006	0	0	5	5	0.02	-0.2525068	1	10	0.03	2000	1.974398	40.92393	-91.39362
421300	-17	-1	-2	-0.09723058	0.06620644	-7.761451	0	11.17	20006	0	0	5	5	0.02	-0.2543329	1	10	0.03	2000	1.968078	40.92393	-91.39362
421406	-19	2	0	-0.08330805	0.07616735	-7.764692	0	11.17	20006	0	0	5	5	0.02	-0.2635878	1	10	0.03	2000	1.942839	40.92393	-91.39362
421548	-15	1	3	-0.07840123	0.07414252	-7.767628	0	11.17	20006	0	0	5	5	0.02	-0.2741024	1	10	0.03	2000	2.403183	40.92393	-91.39362
421699	-19	0	2	-0.07583947	0.07467596	-7.770867	0	11.17	20006	0	0	5	5	0.02	-0.2689475	1	10	0.03	2000	2.151036	40.92393	-91.39362
421803	-16	-2	0	-0.06629948	0.0805421	-7.774841	0	11.17	20006	0	0	5	5	0.02	-0.2618272	1	10	0.03	2000	2.144001	40.92393	-91.39362
421965	-20	-4	2	-0.06981441	0.07278143	-7.779548	0	11.17	20006	0	0	5	5	0.02	-0.2586037	1	10	0.03	2000	2.143128	40.92393	-91.39362
422016	-15	-1	2	-0.06965274	0.07054465	-7.780894	0	11.17	20006	0	0	5	5	0.02	-0.2593616	1	10	0.03	2000	2.143128	40.92393	-91.39362
422225	-26	3	8	-0.06143012	0.07311907	-7.788352	0	11.17	20006	0	0	5	5	0.02	-0.2658514	1	10	0.03	2000	2.126005	40.92393	-91.39362
422414	-19	-4	-3	-0.05243131	0.07814394	-7.795994	0	11.17	20006	0	0	5	5	0.02	-0.2792463	1	10	0.03	2000	2.117058	40.92393	-91.39362
422560	-4	1	1	-0.04915727	0.07605892	-7.800702	0	11.17	20006	0	0	5	5	0.02	-0.291715	1	10	0.03	2000	1.895242	40.92393	-91.39362
422595	-18	5	7	-0.05011063	0.07223925	-7.801863	0	11.17	20006	0	0	5	5	0.02	-0.2934711	1	10	0.03	2000	1.895242	40.92393	-91.39362
422746	-12	0	-2	-0.04396448	0.07705188	-7.808465	0	11.17	20006	0	0	5	5	0.02	-0.3072941	1	10	0.03	2000	1.878896	40.92393	-91.39362
422763	-12	0	-2	-0.04396448	0.07705188	-7.808465	0	11.17	20006	0	0	5	5	0.02	-0.3092914	1	10	0.03	2000	1.878896	40.92393	-91.39362
422946	-24	8	-1	-0.05072662	0.0765155	-7.813662	0	11.17	20006	0	0	5	5	0.02	-0.3198071	1	10	0.03	2000	2.330266	40.92393	-91.39362
423011	-13	-5	5	-0.04587492	0.07837901	-7.817391	0	11.17	20006	0	0	5	5	0.02	-0.3206377	1	10	0.03	2000	2.352151	40.92393	-91.39362
423157	-15	1	6	-0.04064347	0.08327009	-7.820693	0	11.17	20006	0	0	5	5	0.02	-0.3169295	1	10	0.03	2000	1.871928	40.92393	-91.39362
423207	-16	2	1	-0.04089335	0.08024826	-7.823505	0	11.17	20006	0	0	5	5	0.02	-0.3147731	1	10	0.03	2000	2.095197	40.92393	-91.39362
423325	-27	1	1	-0.03965006	0.0804972	-7.826132	0	11.17	20006	0	0	5	5	0.02	-0.3083558	1	10	0.03	2000	2.089372	40.92393	-91.39362
423409	-14	0	3	-0.04687161	0.0813947	-7.830168	0	11.23	20006	0	0	5	5	0.02	-0.304029	1	10	0.03	2000	2.108632	40.92393	-91.39362
423476	-19	-1	2	-0.0413022	0.08395592	-7.832551	0	11.23	20006	0	0	5	5	0.02	-0.2912191	1	10	0.03	2000	1.878918	40.92393	-91.39362
423577	-18	0	3	-0.04768364	0.08364303	-7.83683	0	11.23	20006	0	0	5	5	0.02	-0.2845045	1	10	0.03	2000	2.100436	40.92393	-91.39362
423619	-16	0	6	-0.04362682	0.08347307	-7.840255	0	11.23	20006	0	0	5	5	0.02	-0.2832685	1	10	0.03	2000	1.881766	40.92393	-91.39362
423757	-19	-1	2	-0.04544783	0.08293805	-7.846428	0	11.23	20006	0	0	5	5	0.02	-0.2767215	1	10	0.03	2000	2.108976	40.92393	-91.39362
423866	-17	-2	-4	-0.03943491	0.08373703	-7.850341	0	11.23	20006	0	0	5	5	0.02	-0.2784265	1	10	0.03	2000	2.099893	40.92393	-91.39362
423953	-21	-3	0	-0.04020927	0.07493559	-7.853031	0	11.23	20006	0	0	5	5	0.02	-0.2732047	1	10	0.03	2000	2.099281	40.92393	-91.39362
424113	-16	7	2	-0.04120265	0.0687906	-7.861346	0	11.23	20006	0	0	5	5	0.02	-0.2658548	1	10	0.03	2000	1.874359	40.92393	-91.39362
424282	-21	0	-1	-0.02899588	0.07465065	-7.86636	0	11.23	20006	0	0	5	5	0.02	-0.2576692	1	10	0.03	2000	2.086291	40.92393	-91.39362
424341	-22	3	5	-0.02789122	0.07238741	-7.867521	0	11.23	20006	0	0	5	5	0.02	-0.2597733	1	10	0.03	2000	2.07653	40.92393	-91.39362
424525	-12	2	5	-0.02312309	0.07097527	-7.873147	0	11.23	20006	0	0	5	5	0.02	-0.2666662	1	10	0.03	2000	2.067832	40.92393	-91.39362
424703	-14	4	-2	-0.01998306	0.08057719	-7.880485	0	11.23	20006	0	0	5	5	0.02	-0.2884273	1	10	0.03	2000	2.076002	40.92393	-91.39362
424738	-11	3	-6	-0.01657273	0.0815398	-7.881952	0	11.23	20006	0	0	5	5	0.02	-0.2900911	1	10	0.03	2000	1.834234	40.92393	-91.39362
424799	-21	-4	1	-0.01550967	0.08247517	-7.882746	0	11.23	20006	0	0	5	5	0.02	-0.2971912	1	10	0.03	2000	1.834234	40.92393	-91.39362
424988	-21	1	4	-0.02585392	0.07494732	-7.889593	0	11.23	20006	0	0	5	5	0.02	-0.3103917	1	10	0.03	2000	1.846273	40.92394	-91.39362
425089	-14	3	-7	-0.01833833	0.07475859	-7.892528	0	11.23	20006	0	0	5	5	0.02	-0.3158301	1	10	0.03	2000	1.843391	40.92394	-91.39362
425254	-18	0	0	-0.01790396	0.06653561	-7.897602	0	11.23	20006	0	0	5	5	0.02	-0.3219766	1	10	0.03	2000	1.839225	40.92394	-91.39362
425286	-22	1	4	-0.01782056	0.06715146	-7.899252	0	11.23	20006	0	0	5	5	0.02	-0.3227478	1	10	0.03	2000	1.839225	40.92394	-91.39362
425473	-13	1	6	-0.007006718	0.07031839	-7.906466	0	11.23	20006	0	0	5	5	0.02	-0.3131779	1	10	0.03	2000	1.600146	40.92394	-91.39362
425528	-7	1	2	-0.007609741	0.07095084	-7.908301	0	11.23	20006	0	0	5	5	0.02	-0.3059036	1	10	0.03	2000	2.053812	40.92394	-91.39362
425611	-12	-6	0	-0.005092606	0.06537073	-7.91148	0	11.23	20006	0	0	5	5	0.02	-0.3003203	1	10	0.03	2000	2.04269	40.92394	-91.39362
425746	-9	4	4	0.0038976	0.06983436	-7.915087	0	11.23	20006	0	0	5	5	0.02	-0.2908968	1	10	0.03	2000	2.035191	40.92394	-91.39362
425830	-9	-6	4	0.004223133	0.07147137	-7.921569	0	11.23	20006	0	0	5	5	0.02	-0.2868059	1	10	0.03	2000	1.806849	40.92394	-91.39362
425948	-12	2	-3	0.008749308	0.07243138	-7.922853	0	11.23	20006	0	0	5	5	0.02	-0.2734494	1	10	0.03	2000	2.249253	40.92394	-91.39362
426057	-14	0	2	0.0151254	0.07413686	-7.923708	0	11.23	20006	0	0	5	5	0.02	-0.263885	1	10	0.03	2000	2.017629	40.92394	-91.39362
426092	-18	0	3	0.01642811	0.07332343	-7.925421	0	11.23	20006	0	0	5	5	0.02	-0.2601253	1	10	0.03	2000	2.017629	40.92394	-91.39362
426235	-10	4	0	0.03177803	0.07729913	-7.929455	0	11.23	20006	0	0	5	5	0.02	-0.2477678	1	10	0.03	2000	1.747338	40.92394	-91.39362
426308	-14	0	1	0.02903933	0.07219796	-7.930984	0	11.23	20006	0	0	5	5	0.02	-0.2370369	1	10	0.03	2000	1.767769	40.92394	-91.39362
426350	-5	5	-2	0.03182629	0.06785492	-7.931717	0	11.23	20006	0	0	5	5	0.02	-0.2355843	1	10	0.03	2000	1.767769	40.92394	-91.39362
426468	-15	1	3	0.03464929	0.06109189	-7.934958	0	11.23	20006	0	0	5	5	0.02	-0.2299723	1	10	0.03	2000	1.980426	40.92394	-91.39362
426548	-15	3	0	0.04098215	0.06041786	-7.935386	0	11.23	20006	0	0	5	5	0.02	-0.2315139	1	10	0.03	2000	1.97619	40.92394	-91.39362
426652	-21	-7	-3	0.04375053	0.06749705	-7.937708	0	11.23	20006	0	0	5	5	0.02	-0.2415501	1	10	0.03	2000	1.970658	40.92394	-91.39362
426776	-14	-6	2	0.0494729	0.06838528	-7.940826	0	11.23	20006	0	0	5	5	0.02	-0.2451426	1	10	0.03	2000	1.742887	40.92394	-91.39362
426860	-11	-4	0	0.05255499	0.06770273	-7.942784	0	11.23	20006	0	0	5	5	0.02	-0.2492889	1	10	0.03	2000	1.507333	40.92394	-91.39362
426944	-15	3	0	0.05213928	0.06371555	-7.94468	0	11.23	20006	0	0	5	5	0.02	-0.2521034	1	10	0.03	2000	1.953015	40.92394	-91.39362
427104	-4	0	0	0.0531902	0.06935945	-7.945962	0	11.23	20006	0	0	5	5	0.02	-0.2539296	1	10	0.03	2000	1.718786	40.92394	-91.39362
427190	-5	2	-1	0.05981199	0.07480625	-7.946085	0	11.23	20006	0	0	5	5	0.02	-0.257301	1	10	0.03	2000	1.948379	40.92394	-91.39362
427247	-14	1	2	0.0719854	0.07538357	-7.948714	0	11.23	20006	0	0	5	5	0.02	-0.2605079	1	10	0.03	2000	2.152271	40.92394	-91.39362
427436	-6	-4	0	0.07655837	0.06963576	-7.952566	0	11.23	20006	0	0	5	5	0.02	-0.2591571	1	10	0.03	2000	1.695943	40.92394	-91.39362
427487	-14	1	5	0.0797966	0.06780591	-7.954094	0	11.23	20006	0	0	5	5	0.02	-0.260054	1	10	0.03	2000	1.695943	40.92394	-91.39362
427592	-4	-3	-1	0.08070528	0.07311751	-7.954706	0	11.23	20006	0	0	5	5	0.02	-0.2642038	1	10	0.03	2000	1.468813	40.92394	-91.39362
427618	-5	-3	0	0.07954951	0.06530057	-7.953789	0	11.23	20006	0	0	5	5	0.02	-0.2642038	1	10	0.03	2000	2.133018	40.92394	-91.39362
427738	-9	-9	3	0.08653019	0.06726401	-7.957946	0	11.23	20006	0	0	5	5	0.02	-0.2684073	1	10	0.03	2000	1.669468	40.92394	-91.39362
427900	-1	-3	1	0.08629061	0.06469805	-7.959597	0	11.17	20006	0	0	5	5	0.02	-0.2434688	1	10	0.03	2000	1.677912	40.92394	-91.39362
427936	-8	2	4	0.07885333	0.06184023	-7.961064	0	11.17	20006	0	0	5	5	0.02	-0.2404926	1	10	0.03	2000	1.67766	40.92394	-91.39362
428118	-5	3	6	0.07388917	0.06177785	-7.965526	0	11.17	20006	0	0	5	5	0.02	-0.2215123	1	10	0.03	2000	1.685132	40.92394	-91.39362
428288	-11	-1	0	0.07031737	0.05765837	-7.969561	0	11.17	20006	0	0	5	5	0.02	-0.2092573	1	10	0.03	2000	1.689118	40.92394	-91.39362
428323	-5	-1	2	0.07251728	0.05800738	-7.970356	0	11.17	20006	0	0	5	5	0.02	-0.208477	1	10	0.03	2000	1.689118	40.92394	-91.39362
428463	-7	0	0	0.06674348	0.04957103	-7.974145	0	11.17	20006	0	0	5	5	0.02	-0.2002701	1	10	0.03	2000	1.703466	40.92394	-91.39362
428544	-8	0	3	0.07886162	0.04433723	-7.975612	0	11.17	20006	0	0	5	5	0.02	-0.1944021	1	10	0.03	2000	1.689055	40.92394	-91.39362
428650	-6	3	-1	0.07703043	0.04278531	-7.975429	0	11.17	20006	0	0	5	5	0.02	-0.1876425	1	10	0.03	2000	1.690008	40.92394	-91.39362
428785	-9	0	-4	0.07666426	0.04384552	-7.980626	0	11.23	20006	0	0	5	5	0.02	-0.1883352	1	10	0.03	2000	1.689094	40.92394	-91.39362
428935	-14	-1	3	0.07524152	0.04194926	-7.984722	0	11.23	20006	0	0	5	5	0.02	-0.1862561	1	10	0.03	2000	1.698921	40.92394	-91.39362
428986	-3	4	3	0.07416851	0.03985446	-7.986005	0	11.23	20006	0	0	5	5	0.02	-0.1864996	1	10	0.03	2000	1.698921	40.92394	-91.39362
429085	-17	1	4	0.07304954	0.03924145	-7.987962	0	11.23	20006	0	0	5	5	0.02	-0.1933514	1	10	0.03	2000	1.693288	40.92394	-91.39362
429187	-13	4	1	0.09151441	0.04950167	-7.989613	0	11.23	20006	0	0	5	5	0.02	-0.2025394	1	10	0.03	2000	1.892854	40.92394	-91.39362
429279	-3	1	1	0.07934624	0.04206677	-7.990653	0	11.23	20006	0	0	5	5	0.02	-0.20757	1	10	0.03	2000	1.46293	40.92394	-91.39362
429449	-12	2	2	0.08399317	0.03341478	-7.993769	0	11.23	20006	0	0	5	5	0.02	-0.2167052	1	10	0.03	2000	1.672552	40.92394	-91.39362
429594	-5	2	3	0.0784991	0.03009125	-7.997254	0	11.23	20006	0	0	5	5	0.02	-0.2169389	1	10	0.03	2000	1.685786	40.92394	-91.39362
429782	-11	-9	7	0.08423506	0.04849849	-8.00312	0	11.23	20006	0	0	5	5	0.02	-0.2074753	1	10	0.03	2000	2.140307	40.92394	-91.39362
429850	-11	1	1	0.07933527	0.03808234	-8.005565	0	11.23	20006	0	0	5	5	0.02	-0.2058117	1	10	0.03	2000	1.680661	40.92394	-91.39362
429991	3	-4	4	0.08529066	0.0595323	-8.009108	0	11.23	20006	0	0	5	5	0.02	-0.1958169	1	10	0.03	2000	1.680198	40.92394	-91.39362
430086	-10	-1	3	0.0929651	0.07072277	-8.009779	0	11.23	20006	0	0	5	5	0.02	-0.1920498	1	10	0.03	2000	1.90568	40.92394	-91.39362
430251	-4	0	6	0.09228239	0.06867154	-8.011492	0	11.23	20006	0	0	5	5	0.02	-0.192987	1	10	0.03	2000	1.890849	40.92394	-91.39362
430292	-2	-1	-3	0.1031288	0.07056037	-8.012041	0	11.23	20006	0	0	5	5	0.02	-0.1939741	1	10	0.03	2000	1.650434	40.92394	-91.39362
430481	-5	-1	0	0.1210795	0.08225262	-8.016991	0	11.23	20006	0	0	5	5	0.02	-0.1961304	1	10	0.03	2000	1.626184	40.92394	-91.39362
430535	0	-2	-1	0.1175682	0.08286425	-8.017785	0	11.23	20006	0	0	5	5	0.02	-0.1918437	1	10	0.03	2000	1.626184	40.92394	-91.39362
430607	-10	4	2	0.1271905	0.07274902	-8.01986	0	11.11	20006	0	0	5	5	0.02	-0.1901952	1	10	0.03	2000	1.616139	40.92394	-91.39362
430692	-7	1	3	0.1169902	0.07039791	-8.022183	0	11.11	20006	0	0	5	5	0.02	-0.190763	1	10	0.03	2000	1.849265	40.92394	-91.39362
430786	-3	0	3	0.1161627	0.05917322	-8.023465	0	11.11	20006	0	0	5	5	0.02	-0.1897978	1	10	0.03	2000	1.633757	40.92394	-91.39362
430885	-1	0	4	0.1338233	0.05907393	-8.026886	0	11.11	20006	0	0	5	5	0.02	-0.1889378	1	10	0.03	2000	1.605045	40.92394	-91.39362
431075	-3	-1	-1	0.144895	0.05602015	-8.030675	0	11.11	20006	0	0	5	5	0.02	-0.1899045	1	10	0.03	2000	1.578774	40.92394	-91.39362
431144	-3	-2	0	0.1381605	0.05346416	-8.03324	0	11.11	20006	0	0	5	5	0.02	-0.1958675	1	10	0.03	2000	1.590892	40.92394	-91.39362
431206	-4	0	-1	0.1365663	0.04758637	-8.034095	0	11.11	20006	0	0	5	5	0.02	-0.1986363	1	10	0.03	2000	1.590892	40.92394	-91.39362
431300	-10	4	5	0.1423347	0.05259059	-8.036724	0	11.11	20006	0	0	5	5	0.02	-0.2056655	1	10	0.03	2000	1.590469	40.92394	-91.39362
431405	-1	-2	-1	0.1324246	0.05045184	-8.038801	0	11.11	20006	0	0	5	5	0.02	-0.2213936	1	10	0.03	2000	1.819945	40.92394	-91.39362
431548	-4	-7	-9	0.1406775	0.05726211	-8.038861	0	11.23	20006	0	0	5	5	0.02	-0.2151244	1	10	0.03	2000	1.586572	40.92394	-91.39362
431583	1	1	-4	0.1466955	0.06034106	-8.03819	0	11.23	20006	0	0	5	5	0.02	-0.2141148	1	10	0.03	2000	1.588652	40.92394	-91.39362
