time(ms)	gyro_x(deg/s)	gyro_y(deg/s)	gyro_z(deg/s)	orientation_roll(deg)	orientation_pitch(deg)	orientation_yaw(deg)	throttle	battery(V)	loop_time(uS)	pid_output_roll	pid_output_pitch	pid_output_yaw	pid_output_throttle	ultrasonic_alt	baro_alt	flight_mode	p_gain_altitude	i_gain_altitude	d_gain_altitude	compass_heading	latitude	longitude
338988	-6	0	0	-0.05832268	0.5313889	-3.042833	0	11.46	20028	0	0	5	5	0.02	0.05236454	1	10	0.03	2000	0.5510068	40.92394	-91.39365
339055	-6	2	0	-0.05123061	0.5270177	-3.04485	0	11.46	20028	0	0	5	5	0.02	0.05166103	1	10	0.03	2000	0.755599	40.92394	-91.39365
339171	0	0	-5	-0.04307387	0.5270875	-3.046806	0	11.46	20028	0	0	5	5	0.02	0.05152435	1	10	0.03	2000	0.5271052	40.92394	-91.39365
339262	-5	1	4	-0.04476541	0.5233846	-3.04809	0	11.34	20028	0	0	5	5	0.02	0.04779024	1	10	0.03	2000	0.3015269	40.92394	-91.39365
339334	-4	0	-3	-0.04572046	0.5254666	-3.048395	0	11.34	20028	0	0	5	5	0.02	0.04208525	1	10	0.03	2000	0.5308985	40.92394	-91.39365
339435	0	-3	0	-0.04143066	0.5324412	-3.047968	0	11.34	20028	0	0	5	5	0.02	0.02889641	1	10	0.03	2000	0.5116827	40.92394	-91.39365
339568	-4	0	0	-0.02813851	0.5414906	-3.048091	0	11.34	20028	0	0	5	5	0.02	0.02123409	1	10	0.03	2000	0.2658388	40.92394	-91.39365
339694	-1	1	-1	-0.02829725	0.546141	-3.049008	0	11.34	20028	0	0	5	5	0.02	0.01187951	1	10	0.03	2000	0.2789245	40.92394	-91.39365
339746	0	-1	0	-0.02744736	0.5455112	-3.048274	0	11.34	20028	0	0	5	5	0.02	0.011255	1	10	0.03	2000	0.26925	40.92394	-91.39365
339867	-8	0	3	-0.02569211	0.5438891	-3.047847	0	11.34	20028	0	0	5	5	0.02	0.01093931	1	10	0.03	2000	0.4906349	40.92394	-91.39365
339973	-2	0	-1	-0.03053993	0.5409958	-3.04748	0	11.34	20028	0	0	5	5	0.02	0.01391096	1	10	0.03	2000	0.5019662	40.92394	-91.39365
340088	0	0	-5	-0.04069626	0.542934	-3.046869	0	11.34	20028	0	0	5	5	0.02	0.01200404	1	10	0.03	2000	0.7206527	40.92394	-91.39365
340254	-5	-2	0	-0.05330024	0.5259583	-3.046319	0	11.46	20028	0	0	5	5	0.02	0.007381881	1	10	0.03	2000	0.5334708	40.92394	-91.39365
340285	-9	0	3	-0.05213573	0.5268181	-3.047236	0	11.46	20028	0	0	5	5	0.02	0.006506364	1	10	0.03	2000	0.5334708	40.92394	-91.39365
340362	1	0	-1	-0.05724742	0.518636	-3.046441	0	11.46	20028	0	0	5	5	0.02	0.005622583	1	10	0.03	2000	0.5319561	40.92394	-91.39365
340497	0	3	2	-0.04430411	0.5379262	-3.047053	0	11.46	20028	0	0	5	5	0.02	0.007426139	1	10	0.03	2000	0.5186797	40.92394	-91.39365
340586	-3	-3	-1	-0.03935049	0.5387551	-3.04687	0	11.46	20028	0	0	5	5	0.02	0.008764916	1	10	0.03	2000	0.2840985	40.92394	-91.39365
340680	-1	0	1	-0.01805824	0.5407092	-3.046747	0	11.46	20028	0	0	5	5	0.02	0.01610633	1	10	0.03	2000	0.4884471	40.92394	-91.39365
340789	6	-1	0	-0.02054998	0.5256823	-3.047358	0	11.46	20028	0	0	5	5	0.02	0.03174596	1	10	0.03	2000	0.2597216	40.92394	-91.39364
340890	4	2	1	-0.0125515	0.5253659	-3.04742	0	11.46	20028	0	0	5	5	0.02	0.04742233	1	10	0.03	2000	0.4669034	40.92394	-91.39364
340972	1	7	-1	-0.01126373	0.5202138	-3.048581	0	11.46	20028	0	0	5	5	0.02	0.05237402	1	10	0.03	2000	0.4765303	40.92394	-91.39364
341076	-2	0	0	-0.02157706	0.5105689	-3.049743	0	11.46	20028	0	0	5	5	0.02	0.0514696	1	10	0.03	2000	0.4746926	40.92394	-91.39364
341236	-2	2	1	-0.01228425	0.5132365	-3.049743	0	11.4	20028	0	0	5	5	0.02	0.03912445	1	10	0.03	2000	0.4776855	40.92394	-91.39364
341282	0	0	2	-0.009783473	0.5068367	-3.048948	0	11.4	20028	0	0	5	5	0.02	0.03222645	1	10	0.03	2000	0.466155	40.92394	-91.39364
341443	0	1	2	-0.003508425	0.5294455	-3.051272	0	11.4	20028	0	0	5	5	0.02	0.02284412	1	10	0.03	2000	0.4466131	40.92394	-91.39364
341500	0	-5	2	-0.005087944	0.5311571	-3.050782	0	11.4	20028	0	0	5	5	0.02	0.01326654	1	10	0.03	2000	0.4466131	40.92394	-91.39364
341588	1	0	0	-0.01544957	0.5093371	-3.052738	0	11.4	20028	0	0	5	5	0.02	0.009266391	1	10	0.03	2000	0.2430767	40.92394	-91.39364
341694	6	-2	1	-0.01348432	0.5130682	-3.053105	0	11.4	20028	0	0	5	5	0.02	0.004673512	1	10	0.03	2000	0.4723332	40.92394	-91.39364
341794	-4	0	0	-0.00261352	0.5180658	-3.052737	0	11.4	20028	0	0	5	5	0.02	0.0054306	1	10	0.03	2000	0.4509621	40.92394	-91.39364
341914	4	-1	0	-0.008250838	0.5097009	-3.053532	0	11.4	20028	0	0	5	5	0.02	0.01548182	1	10	0.03	2000	0.2389045	40.92394	-91.39364
342031	3	-2	1	0.001960301	0.5200178	-3.053654	0	11.4	20028	0	0	5	5	0.02	0.02129312	1	10	0.03	2000	0.2317152	40.92394	-91.39364
342118	7	0	-3	0.01206291	0.5350443	-3.052921	0	11.4	20028	0	0	5	5	0.02	0.02440003	1	10	0.03	2000	0.4258182	40.92394	-91.39364
342183	-4	0	-3	0.01148895	0.5350864	-3.052187	0	11.4	20028	0	0	5	5	0.02	0.02659068	1	10	0.03	2000	0.4258182	40.92394	-91.39364
342283	0	-6	-1	0.01070874	0.5381217	-3.052432	0	11.4	20028	0	0	5	5	0.02	0.0270381	1	10	0.03	2000	0.2076309	40.92394	-91.39364
342413	6	0	-2	0.02538976	0.529826	-3.051883	0	11.4	20028	0	0	5	5	0.02	0.02601149	1	10	0.03	2000	0.6404967	40.92394	-91.39364
342497	12	-2	2	0.04486624	0.5341122	-3.052555	0	11.4	20028	0	0	5	5	0.02	0.02292418	1	10	0.03	2000	0.1618462	40.92394	-91.39364
342579	3	0	0	0.04229845	0.5305596	-3.053227	0	11.4	20028	0	0	5	5	0.02	0.02057424	1	10	0.03	2000	0.1547098	40.92394	-91.39364
342731	2	-1	4	0.04709386	0.5255732	-3.058179	0	11.4	20028	0	0	5	5	0.02	0.0114256	1	10	0.03	2000	0.3861416	40.92394	-91.39364
342777	-4	2	2	0.04872691	0.52252	-3.058852	0	11.4	20028	0	0	5	5	0.02	0.01111005	1	10	0.03	2000	0.1530946	40.92393	-91.39364
342944	6	4	-3	0.04920983	0.5199572	-3.057935	0	11.4	20028	0	0	5	5	0.02	0.01487574	1	10	0.03	2000	0.1492153	40.92393	-91.39364
343089	0	0	-1	0.04663016	0.522997	-3.058974	0	11.4	20028	0	0	5	5	0.02	0.02738878	1	10	0.03	2000	0.1501382	40.92393	-91.39364
343240	5	-7	0	0.04349944	0.525562	-3.058974	0	11.4	20028	0	0	5	5	0.02	0.02693188	1	10	0.03	2000	-0.05245972	40.92393	-91.39364
343281	1	-2	2	0.0406535	0.5230614	-3.058546	0	11.4	20028	0	0	5	5	0.02	0.02656375	1	10	0.03	2000	0.1579854	40.92393	-91.39364
343435	2	1	-2	0.03651026	0.5067002	-3.061052	0	11.4	20028	0	0	5	5	0.02	0.02504822	1	10	0.03	2000	0.3892215	40.92393	-91.39364
343513	2	-2	-3	0.04249468	0.5131875	-3.061602	0	11.4	20028	0	0	5	5	0.02	0.02409047	1	10	0.03	2000	-0.05950928	40.92393	-91.39364
343609	2	1	-1	0.0477562	0.5172281	-3.059156	0	11.4	20028	0	0	5	5	0.02	0.02508792	1	10	0.03	2000	0.1570165	40.92393	-91.39364
343716	6	2	4	0.05016605	0.5164379	-3.058789	0	11.4	20028	0	0	5	5	0.02	0.0314211	1	10	0.03	2000	0.3749766	40.92393	-91.39364
343797	7	4	2	0.05620635	0.5189656	-3.059217	0	11.4	20028	0	0	5	5	0.02	0.03077913	1	10	0.03	2000	0.3619283	40.92393	-91.39364
343887	6	-3	2	0.05764878	0.5115214	-3.060257	0	11.51	20028	0	0	5	5	0.02	0.02946876	3	10	0.03	2000	0.3560404	40.92393	-91.39364
343972	0	0	-1	0.05776861	0.5066101	-3.061234	0	11.51	20028	0	0	5	5	0.02	0.02864679	3	10	0.03	2000	0.3618775	40.92393	-91.39364
344119	3	1	1	0.05175556	0.5053245	-3.060439	0	11.51	20028	0	0	5	5	0.02	0.02228899	3	10	0.03	2000	0.3720387	40.92393	-91.39364
344176	1	-3	4	0.05069901	0.4987676	-3.060562	0	11.51	20028	0	0	5	5	0.02	0.01206731	3	10	0.03	2000	0.1484442	40.92393	-91.39364
344305	0	0	5	0.05111544	0.5036166	-3.060012	0	11.51	20028	0	0	5	5	0.02	-0.0007740133	3	10	0.03	2000	0.1426175	40.92393	-91.39364
344389	3	-6	1	0.05163602	0.4959692	-3.059217	0	11.51	20028	0	0	5	5	0.02	-0.007381212	3	10	0.03	2000	0.3682203	40.92393	-91.39364
344537	9	-4	-1	0.05116213	0.4988166	-3.057934	0	11.51	20028	0	0	5	5	0.02	-0.0244817	3	10	0.03	2000	0.3681858	40.92393	-91.39364
344626	12	-2	1	0.05812957	0.4921111	-3.057811	0	11.51	20028	0	0	5	5	0.02	-0.02926089	3	10	0.03	2000	0.3695038	40.92393	-91.39364
344730	3	3	0	0.06518765	0.4964507	-3.057139	0	11.51	20028	0	0	5	5	0.02	-0.04595098	3	10	0.03	2000	0.3594911	40.92393	-91.39364
344805	5	1	6	0.06539511	0.5044436	-3.058056	0	11.46	20028	0	0	5	5	0.02	-0.05564665	3	10	0.03	2000	0.1278633	40.92393	-91.39364
344898	2	0	-3	0.06211665	0.5033715	-3.059096	0	11.46	20028	0	0	5	5	0.02	-0.06061456	3	10	0.03	2000	0.3568421	40.92393	-91.39364
344969	6	-4	1	0.06506982	0.50692	-3.058851	0	11.46	20028	0	0	5	5	0.02	-0.0650835	3	10	0.03	2000	0.5766472	40.92393	-91.39364
345085	7	1	0	0.06518275	0.5006807	-3.058118	0	11.46	20028	0	0	5	5	0.02	-0.06538945	3	10	0.03	2000	0.1290182	40.92393	-91.39364
345170	8	4	2	0.07753209	0.5011357	-3.057812	0	11.46	20028	0	0	5	5	0.02	-0.06354685	3	10	0.03	2000	0.3417072	40.92393	-91.39364
345272	8	-2	0	0.07874159	0.5068541	-3.055183	0	11.46	20028	0	0	5	5	0.02	-0.06163669	3	10	0.03	2000	0.1081945	40.92393	-91.39364
345370	3	8	0	0.07964633	0.5072314	-3.055183	0	11.46	20028	0	0	5	5	0.02	-0.06611018	3	10	0.03	2000	0.09883348	40.92393	-91.39364
345481	6	1	0	0.07811336	0.5057464	-3.054816	0	11.46	20028	0	0	5	5	0.02	-0.07944119	3	10	0.03	2000	0.106026	40.92393	-91.39364
345629	4	-9	2	0.07436011	0.5065454	-3.055977	0	11.46	20028	0	0	5	5	0.02	-0.09280157	3	10	0.03	2000	0.328185	40.92393	-91.39364
345713	8	3	0	0.07039429	0.5110187	-3.056221	0	11.4	20028	0	0	5	5	0.02	-0.09998428	3	10	0.03	2000	0.3372351	40.92393	-91.39364
345812	-1	-7	-2	0.0716842	0.5068334	-3.054631	0	11.4	20028	0	0	5	5	0.02	-0.1011089	3	10	0.03	2000	0.1170922	40.92393	-91.39364
345864	0	-4	-2	0.07111546	0.5087062	-3.052981	0	11.4	20028	0	0	5	5	0.02	-0.1017828	3	10	0.03	2000	0.1187093	40.92393	-91.39364
345972	7	0	-1	0.07063774	0.5034131	-3.052736	0	11.4	20028	0	0	5	5	0.02	-0.1030862	3	10	0.03	2000	0.1187093	40.92393	-91.39364
346058	2	1	4	0.08140997	0.5138479	-3.050596	0	11.4	20028	0	0	5	5	0.02	-0.1039138	3	10	0.03	2000	0.326707	40.92393	-91.39363
346224	0	-1	-3	0.07819366	0.514545	-3.048333	0	11.4	20028	0	0	5	5	0.02	-0.1030404	3	10	0.03	2000	0.328458	40.92393	-91.39363
346271	6	-3	3	0.08102218	0.5111251	-3.049067	0	11.4	20028	0	0	5	5	0.02	-0.105174	3	10	0.03	2000	0.328458	40.92393	-91.39363
346437	15	6	-2	0.07913612	0.5122598	-3.049189	0	11.4	20028	0	0	5	5	0.02	-0.1119467	3	10	0.03	2000	0.5536687	40.92393	-91.39363
346554	7	3	0	0.08943648	0.5080128	-3.046499	0	11.4	20028	0	0	5	5	0.02	-0.115664	3	10	0.03	2000	0.3180171	40.92393	-91.39363
346615	7	-3	-2	0.08576951	0.5085789	-3.046682	0	11.4	20028	0	0	5	5	0.02	-0.1171854	3	10	0.03	2000	0.3118223	40.92393	-91.39363
346727	5	2	-2	0.0906027	0.5086555	-3.043931	0	11.4	20028	0	0	5	5	0.02	-0.1197554	3	10	0.03	2000	0.5332221	40.92393	-91.39363
346836	5	3	0	0.08733128	0.5050871	-3.042647	0	11.4	20028	0	0	5	5	0.02	-0.1199489	3	10	0.03	2000	0.3146881	40.92393	-91.39363
346848	14	-2	-4	0.08660682	0.5081003	-3.041791	0	11.4	20028	0	0	5	5	0.02	-0.1199489	3	10	0.03	2000	0.3189872	40.92393	-91.39363
346971	13	0	1	0.09426384	0.5138851	-3.040873	0	11.4	20028	0	0	5	5	0.02	-0.1122024	3	10	0.03	2000	0.08823646	40.92393	-91.39363
347042	8	-2	3	0.09679484	0.5217102	-3.038489	0	11.4	20028	0	0	5	5	0.02	-0.1062273	3	10	0.03	2000	0.3036399	40.92393	-91.39363
347141	7	1	0	0.09790152	0.520588	-3.037694	0	11.4	20028	0	0	5	5	0.02	-0.1039141	3	10	0.03	2000	0.2976402	40.92393	-91.39363
347269	2	0	-4	0.1059275	0.5095716	-3.037633	0	11.4	20028	0	0	5	5	0.02	-0.08999389	3	10	0.03	2000	0.06108462	40.92393	-91.39363
347355	0	-1	11	0.112357	0.5012764	-3.031702	0	11.4	20028	0	0	5	5	0.02	-0.08598366	3	10	0.03	2000	0.06173822	40.92393	-91.39363
347462	-9	5	27	0.1220904	0.5018705	-3.032192	0	11.4	20028	0	0	5	5	0.02	-0.08298829	3	10	0.03	2000	-0.1827087	40.92393	-91.39363
347600	-6	-20	-29	0.123085	0.500081	-3.031821	0	11.34	20028	0	0	5	5	0.02	-0.082851	3	10	0.03	2000	-0.1888733	40.92393	-91.39363
347648	15	9	-35	0.1184256	0.5017667	-3.029071	0	11.34	20028	0	0	5	5	0.02	-0.08471459	3	10	0.03	2000	-0.1888733	40.92393	-91.39363
347751	0	47	57	0.120276	0.4928447	-3.036953	0	11.34	20028	0	0	5	5	0.02	-0.0868622	3	10	0.03	2000	0.4886872	40.92393	-91.39363
347857	6	-19	-49	0.1216164	0.5034174	-3.032307	0	11.34	20028	0	0	5	5	0.02	-0.1014838	3	10	0.03	2000	0.04028626	40.92393	-91.39363
347982	8	-78	32	0.1393541	0.4989913	-3.036709	0	11.34	20028	0	0	5	5	0.02	-0.1066815	3	10	0.03	2000	-0.2099915	40.92393	-91.39363
348061	-9	-13	-10	0.1423821	0.4843542	-3.032612	0	11.34	20028	0	0	5	5	0.02	-0.1043631	3	10	0.03	2000	-0.2077942	40.92393	-91.39363
348150	25	35	27	0.1355497	0.4760043	-3.030287	0	11.34	20028	0	0	5	5	0.02	-0.101617	3	10	0.03	2000	0.01248434	40.92393	-91.39363
348262	20	-4	-22	0.14374	0.4887695	-3.025395	0	11.34	20028	0	0	5	5	0.02	-0.09632391	3	10	0.03	2000	0.4429689	40.92393	-91.39363
348422	19	0	-13	0.141986	0.4843472	-3.025761	0	11.34	20028	0	0	5	5	0.02	-0.09625076	3	10	0.03	2000	0.2264156	40.92393	-91.39363
348446	-9	1	-13	0.1409622	0.4862708	-3.02564	0	11.46	20028	0	0	5	5	0.02	-0.09740132	3	10	0.03	2000	0.6743608	40.92393	-91.39363
348580	56	-13	-34	0.1287485	0.5003607	-3.022945	0	11.46	20028	0	0	5	5	0.02	-0.09922177	3	10	0.03	2000	-0.2164917	40.92393	-91.39363
348653	29	70	-11	0.1204217	0.483785	-3.027409	0	11.46	20028	0	0	5	5	0.02	-0.09924719	3	10	0.03	2000	0.03606733	40.92393	-91.39363
348757	-14	-8	-42	0.1184429	0.4872344	-3.024903	0	11.46	20028	0	0	5	5	0.02	-0.1038292	3	10	0.03	2000	-0.1956177	40.92393	-91.39363
348880	11	-32	-22	0.1248214	0.5028414	-3.033101	0	11.46	20028	0	0	5	5	0.02	-0.1114051	3	10	0.03	2000	0.2637821	40.92393	-91.39363
348991	61	67	-26	0.1427002	0.4994453	-3.029861	0	11.46	20028	0	0	5	5	0.02	-0.1148112	3	10	0.03	2000	-0.002593994	40.92393	-91.39363
349090	137	160	-54	0.2169112	0.4855501	-3.01433	0	11.46	20028	0	0	5	5	0.02	-0.1207043	3	10	0.03	2000	0.6291811	40.92393	-91.39363
349159	-97	-114	-36	0.2238007	0.4751944	-3.022274	0	11.46	20028	0	0	5	5	0.02	-0.1195441	3	10	0.03	2000	0.09567535	40.92393	-91.39363
349317	193	64	-152	0.1788081	0.5305672	-3.025762	0	11.46	20028	0	0	5	5	0.02	-0.1216197	3	10	0.03	2000	0.4245605	40.92393	-91.39363
349364	72	62	76	0.09407249	0.5071531	-3.022274	0	11.23	20028	0	0	5	5	0.02	-0.1231172	3	10	0.03	2000	-0.1614685	40.92393	-91.39363
349536	252	81	38	0.07299536	0.4654687	-3.014189	0	11.23	20028	0	0	5	5	0.02	-0.1164039	3	10	0.03	2000	-0.3750305	40.92393	-91.39363
349601	-75	-21	145	0.1016625	0.4495543	-3.017613	0	11.23	20028	0	0	5	5	0.02	-0.109744	3	10	0.03	2000	0.1116259	40.92393	-91.39363
349712	41	113	-177	0.1427712	0.4047076	-3.020294	0	11.23	20028	0	0	5	5	0.02	-0.09879621	3	10	0.03	2000	0.4389629	40.92393	-91.39363
349754	-111	-81	57	0.1177013	0.4359316	-3.024568	0	11.23	20028	0	0	5	5	0.02	-0.09028439	6	10	0.03	2000	0.2397469	40.92393	-91.39363
349865	19	-153	-11	0.09399781	0.4635148	-3.016926	0	11.23	20028	0	0	5	5	0.02245632	-0.08462069	6	10	0.03	2000	-0.203186	40.92393	-91.39363
349997	-112	-96	98	0.1245543	0.4519133	-3.016981	0	11.23	20028	0	0	5	5	0.02850666	-0.07984398	6	10	0.03	2000	0.5115479	40.92393	-91.39363
350109	-114	-210	-194	0.1135	0.4033966	-3.004627	0	11.23	20028	0	0	5	5	0.0301459	-0.07807844	6	10	0.03	2000	0.01189922	40.92393	-91.39363
350176	172	82	-259	0.1362759	0.4140151	-3.01901	0	11.23	20028	0	0	5	5	0.03357731	-0.07681943	6	10	0.03	2000	0.03960778	40.92393	-91.39363
350268	-68	-40	-198	0.03264838	0.3864051	-3.021279	0	11.46	20028	0	0	5	5	0.03625511	-0.08137547	6	10	0.03	2000	-0.1772461	40.92393	-91.39363
350347	-171	-51	-270	-0.009570696	0.37299	-3.023434	0	11.46	20028	0	0	5	5	0.03758433	-0.08164173	6	10	0.03	2000	0.2530456	40.92393	-91.39363
350509	-81	-46	-147	0.03261285	0.3720021	-3.041054	0	11.46	20028	0	0	5	5	0.03943391	-0.08127489	6	10	0.03	2000	0.5174229	40.92393	-91.39363
350595	-112	-65	-85	0.008149997	0.4458095	-3.011888	0	11.46	20028	0	0	5	5	0.04003284	-0.08358301	6	10	0.03	2000	-0.105896	40.92393	-91.39363
350717	244	12	-275	0.1909752	0.399249	-2.947123	0	11.46	20028	0	0	5	5	0.041181	-0.07985325	6	10	0.03	2000	0.227294	40.92393	-91.39363
350831	224	122	-687	0.05413631	0.4340629	-2.81833	0	11.46	20028	0	0	5	5	0.04141388	-0.07933532	6	10	0.03	2000	0.6415957	40.92393	-91.39363
350847	224	122	-687	0.05413631	0.4340629	-2.81833	0	11.46	20028	0	0	5	5	0.04162859	-0.07910634	6	10	0.03	2000	0.6415957	40.92393	-91.39363
350946	76	-25	-164	-0.06160423	0.4750242	-2.763175	0	11.46	20028	0	0	5	5	0.04199575	-0.08013154	6	10	0.03	2000	0.1808642	40.92393	-91.39363
351038	84	125	-427	-0.1254138	0.2435778	-2.725817	0	11.46	20028	0	0	5	5	0.04241993	-0.07990276	6	10	0.03	2000	-0.01824951	40.92393	-91.39363
351142	-122	-162	146	-0.1455325	0.08895935	-2.743941	0	11.46	20028	0	0	5	5	0.04272916	-0.07573151	6	10	0.03	2000	0.2148191	40.92393	-91.39363
351243	-12	-202	-76	-0.1980481	0.1117159	-2.733685	0	11.11	20028	0	0	5	5	0.04271648	-0.06608383	6	10	0.03	2000	1.271175	40.92393	-91.39363
351353	105	297	-403	-0.3932332	-0.2377776	-2.681279	0	11.11	20028	0	0	5	5	0.04253477	-0.05631565	6	10	0.03	2000	0.6520031	40.92393	-91.39363
351428	-54	-117	-363	-0.342354	-0.05251848	-2.636997	0	11.11	20028	0	0	5	5	0.04272976	-0.05214293	6	10	0.03	2000	-0.04315186	40.92393	-91.39363
351537	48	251	-227	-0.44145	-0.3404325	-2.394071	0	11.11	20028	0	0	5	5	0.04085458	-0.04442658	6	10	0.03	2000	0.3425264	40.92393	-91.39363
351642	289	-244	-1057	-0.3858159	-0.4137138	-2.032531	0	11.11	20028	0	0	5	5	0.04128138	-0.03619241	6	10	0.03	2000	0.1439224	40.92393	-91.39363
351796	37	-1113	184	-0.6752221	0.7925355	-0.7950623	0	11.11	20028	0	0	5	5	0.03600352	-0.0006126676	6	10	0.03	2000	-0.6535034	40.92393	-91.39363
351890	1296	38	1173	-0.2234215	1.72916	-1.524054	0	11.11	20028	0	0	5	5	0.03303875	0.01689167	6	10	0.03	2000	-0.4954529	40.92393	-91.39363
351931	385	-105	655	0.5904281	1.431238	-2.554893	0	11.11	20028	0	0	5	5	0.03611499	0.03110458	6	10	0.03	2000	-0.4954529	40.92393	-91.39363
352037	474	-450	245	0.4841511	1.130569	-2.980504	0	11.11	20028	0	0	5	5	0.04225709	0.04397638	6	10	0.03	2000	2.636987	40.92393	-91.39363
352186	-663	-33	-6	0.5937136	0.6562212	-2.781976	0	10.89	20028	0	0	5	5	0.04874844	0.06412298	6	10	0.03	2000	4.287606	40.92393	-91.39363
352256	509	592	-464	0.009713089	-0.3449807	-2.347767	0	10.89	20028	0	0	5	5	0.06151609	0.07896687	6	10	0.03	2000	6.031598	40.92393	-91.39363
352393	-817	484	-849	1.674722	-3.789927	-1.517875	0	10.89	20028	0	0	5	5	0.08622114	0.1001379	6	10	0.03	2000	5.914689	40.92393	-91.39363
352503	-40	-482	857	-0.1978348	-3.785092	-1.234697	0	10.89	20028	0	0	5	5	0.1233487	0.1224411	6	10	0.03	2000	6.206872	40.92393	-91.39363
352582	167	1081	-1031	-0.3017407	-4.950746	-1.288354	0	10.89	20028	0	0	5	5	0.1826784	0.1333042	6	10	0.03	2000	6.188928	40.92393	-91.39363
352644	1207	-1811	1401	-0.05275851	-3.929781	-1.797567	0	10.89	20030	-92	106	5	5	0.1871744	0.1404535	8	10	0.03	2000	7.215505	40.92393	-91.39363
352802	1056	-1297	291	3.570086	3.519538	-2.785842	0	10.89	20031	-94	102	5	5	0.1228051	0.1761863	8	10	0.03	2000	8.34121	40.92393	-91.39363
352888	547	151	136	5.209342	3.567524	-2.713698	0	10.89	20041	-102	102	5	5	0.08952493	0.2067888	8	10	0.03	2000	12.21892	40.92393	-91.39363
353020	-589	363	-146	4.286581	4.714564	-3.152826	0	10.77	20037	-96	92	5	5	0.05873731	0.257553	8	10	0.03	2000	13.45981	40.92393	-91.39362
353073	-1432	-1832	-1046	3.609246	4.392889	-3.450104	0	10.77	20009	-98	90	5	5	0.04757722	0.2867095	8	10	0.03	2000	17.47964	40.92393	-91.39362
353156	935	-1242	-1534	3.898449	4.956018	-2.370149	0	10.77	20010	-98	90	5	5	0.03853755	0.3151345	8	10	0.03	2000	16.70243	40.92393	-91.39362
353350	-385	1811	-1843	4.820215	0.6551018	-0.9151479	0	10.77	20056	7	-7	5	5	0.02048043	0.3901711	8	10	0.03	2000	16.74583	40.92393	-91.39362
353385	1368	3456	-1654	5.184128	-1.04951	0.03601974	0	10.77	20032	17	-13	5	5	0.02	0.4005536	8	10	0.03	2000	16.57898	40.92393	-91.39362
353593	-93	1491	1867	2.870898	-3.816549	0.3997228	0	10.77	20055	34	-18	5	5	0.02	0.5136825	8	10	0.03	2000	16.72023	40.92393	-91.39362
353718	-1631	-132	1378	0.4361208	-4.00474	-1.891395	0	10.77	20061	28	-14	5	5	0.02	0.6484485	8	10	0.03	2000	17.00545	40.92393	-91.39362
353771	-2504	-158	-589	-1.634243	-2.38847	-2.686909	0	10.77	20007	44	-22	5	5	0.02	0.7127631	8	10	0.03	2000	16.77191	40.92393	-91.39362
353895	-1038	954	-483	-5.75391	-2.344953	-1.979465	0	10.77	20011	40	-20	5	5	0.02	0.8820003	8	10	0.03	2000	14.88263	40.92393	-91.39362
353981	-580	-1790	655	-4.712598	-1.807676	-1.102457	0	10.66	20020	61	-25	5	5	0.02	0.9153433	8	10	0.03	2000	13.2217	40.92392	-91.3936
354083	-1804	-1356	-1305	-5.063843	0.8670415	-1.100558	0	10.66	20036	53	-21	5	5	0.02	1.129551	8	10	0.03	2000	9.951561	40.92392	-91.3936
354168	-959	868	-328	-6.013615	0.5927548	-1.23256	0	10.66	20055	72	-27	5	5	0.02	1.175585	8	10	0.03	2000	8.15836	40.92392	-91.39359
354322	-885	-1070	-185	-5.345452	0.2718338	-1.823803	0	10.66	20051	85	-31	5	5	0.02	1.313979	8	10	0.03	2000	6.084174	40.92392	-91.39359
354431	-998	-324	630	-5.890524	1.287685	-2.011005	0	10.66	20052	73	-25	5	5	0.02	1.421612	8	10	0.03	2000	4.472036	40.92392	-91.39359
354469	-1477	1024	-805	-6.248365	0.3154583	-1.754701	0	10.66	20033	73	-25	5	5	0.02	1.442101	8	10	0.03	2000	4.472036	40.92392	-91.39358
354593	-3712	2204	-1174	-11.78043	-3.105767	-1.344743	0	10.66	20002	75	-26	5	5	0.02	1.540282	8	10	0.03	2000	-0.4838257	40.92392	-91.39358
354689	-2857	1930	185	-13.42865	-5.297724	-1.26997	0	10.66	20022	94	-34	5	5	0.02	1.640936	8	10	0.03	2000	-4.934784	40.92391	-91.39358
354807	-3286	-362	-173	-18.77534	-6.984309	-2.428515	0	10.66	20061	80	-30	5	5	0.02	1.764378	8	10	0.03	2000	-10.72409	40.92391	-91.39358
354926	-70	2375	-66	-17.91145	-8.771333	-2.21868	0	10.38	20031	96	-38	5	5	0.02	1.839723	8	10	0.03	2000	-14.75601	40.92391	-91.39357
354991	775	1495	-1403	-17.83269	-9.48343	-1.758537	0	10.38	20012	80	-32	5	5	0.02	1.882265	8	10	0.03	2000	-20.97845	40.92391	-91.39357
355082	3814	3283	-181	-10.16299	-13.80934	-1.497107	0	10.38	20030	90	-37	5	5	0.02	1.937206	8	10	0.03	2000	-21.62296	40.92391	-91.39356
355237	1410	752	901	-2.85679	-14.57791	-2.496518	0	10.38	20031	76	-33	5	5	0.02	1.990405	8	10	0.03	2000	-19.8335	40.92391	-91.39356
355410	878	-561	-453	-2.224026	-13.66816	-2.151444	0	10.38	20057	78	-35	5	5	0.02	2.045197	8	10	0.03	2000	-17.38376	40.9239	-91.39356
355531	-1418	-127	-1669	-2.507109	-13.39506	-0.8413789	0	10.38	20062	66	-34	5	5	0.02	2.077092	8	10	0.03	2000	-19.81415	40.9239	-91.39355
355632	1250	1164	489	-2.379287	-13.30629	-0.5231218	0	10.38	20030	66	-37	5	5	0.02	2.085638	8	10	0.03	2000	-18.24146	40.9239	-91.39355
355734	-1698	-2586	814	-2.691767	-10.33944	-1.362781	0	10.38	20059	58	-33	5	5	0.02	2.093698	8	10	0.03	2000	-17.37607	40.9239	-91.39355
355842	1191	-2342	0	-4.011188	-6.622591	-2.189336	0	10.32	20044	61	-33	5	5	0.02	2.098592	8	10	0.03	2000	-16.4017	40.9239	-91.39355
355938	429	-2658	250	2.97987	-5.740084	-1.448192	0	10.32	20033	53	-27	5	5	0.02	2.099001	8	10	0.03	2000	-15.40561	40.9239	-91.39355
356074	85	-1845	354	0.7645009	1.513995	-0.9752132	0	10.32	20031	44	-18	5	5	0.02	2.10993	8	10	0.03	2000	-15.53012	40.9239	-91.39356
356109	1574	379	-120	0.8790126	1.221948	-0.8871618	0	10.32	20041	44	-18	5	5	0.02	2.111736	8	10	0.03	2000	-15.53012	40.9239	-91.39356
356205	-1903	203	760	0.4840295	-1.795311	-1.501293	0	10.32	20052	41	-12	5	5	0.02	2.117323	8	10	0.03	2000	-13.62924	40.92391	-91.39356
356335	826	931	178	0.5245098	-1.881007	-1.701365	0	10.32	20003	36	-5	5	5	0.02	2.118876	8	10	0.03	2000	-12.97549	40.92391	-91.39356
356392	-987	-324	21	0.05134836	-2.066762	-1.664461	0	10.32	20040	34	-5	5	5	0.02	2.125372	8	10	0.03	2000	-12.97549	40.92391	-91.39356
356549	645	765	-286	-1.500432	-3.403134	-0.80339	0	10.32	20012	26	2	5	5	0.02	2.138318	8	10	0.03	2000	-10.76196	40.92391	-91.39357
356590	2067	-2469	211	-0.3305457	-2.286493	-0.5001101	0	10.32	20036	26	2	5	5	0.02	2.142684	8	10	0.03	2000	-10.83493	40.92391	-91.39357
356700	1009	-1176	931	2.437985	-0.06439409	-1.449511	0	10.32	20050	25	6	5	5	0.02	2.147744	8	10	0.03	2000	-11.13028	40.92391	-91.39357
356795	423	669	-820	1.523316	-0.7155102	-2.065419	0	10.43	20009	24	6	5	5	0.02	2.148281	8	10	0.03	2000	-9.445404	40.92391	-91.39357
357003	-1089	-1560	65	-0.4780008	-4.130391	-0.7317472	0	10.43	20042	21	10	5	5	0.02	2.13312	8	10	0.03	2000	-7.061401	40.92392	-91.39357
357094	176	-1379	723	-1.702585	-1.718061	-1.100486	0	10.43	20036	17	14	5	5	0.02	2.110483	8	10	0.03	2000	-7.055328	40.92392	-91.39358
357175	194	-959	-340	-2.33417	-0.6503385	-1.371408	0	10.43	20026	23	8	5	5	0.02	2.080406	8	10	0.03	2000	-6.227081	40.92392	-91.39358
357218	1178	1939	844	-1.802977	-1.123103	-1.513049	0	10.43	20033	23	8	5	5	0.02	2.064394	8	10	0.03	2000	-6.227081	40.92392	-91.39358
357313	-770	677	516	-2.102413	-2.856309	-1.819178	0	10.43	20036	18	13	5	5	0.02	2.026647	8	10	0.03	2000	-5.046997	40.92392	-91.39358
357385	-387	-440	-884	-2.301613	-1.988853	-2.068685	0	10.43	20013	22	7	5	5	0.02	1.986858	8	10	0.03	2000	-5.126404	40.92392	-91.39358
357491	-6	249	88	-2.413272	-2.412581	-1.427748	0	10.43	20032	17	15	5	5	0.02	1.953981	8	10	0.03	2000	-4.278442	40.92393	-91.39358
357590	-782	-921	1175	-2.604084	-0.992849	-1.522637	0	10.43	20033	21	9	5	5	0.02	1.886007	8	10	0.03	2000	-4.694	40.92393	-91.39358
357707	739	-899	993	-2.479809	0.08280428	-2.125457	0	10.38	20034	19	8	5	5	0.02	1.844062	8	10	0.03	2000	-5.567902	40.92393	-91.39358
357796	57	895	-302	-2.895846	-1.060235	-2.259115	0	10.38	20034	13	14	5	5	0.02	1.820548	8	10	0.03	2000	-3.3078	40.92393	-91.39358
357900	254	418	269	-2.765245	-2.152414	-1.772235	0	10.38	20054	13	14	5	5	0.02	1.786235	8	10	0.03	2000	-3.476563	40.92393	-91.39358
358021	27	78	639	-1.397114	-3.623907	-0.8030105	0	10.38	20034	12	15	5	5	0.02	1.768133	8	10	0.03	2000	-4.308319	40.92393	-91.39358
358101	-173	-889	-77	-1.693005	-3.681445	-1.001741	0	10.38	20056	16	9	5	5	0.02	1.754178	8	10	0.03	2000	-3.749237	40.92393	-91.39358
358200	-710	-1554	501	-2.404789	-2.209361	-1.387759	0	10.38	20019	16	9	5	5	0.02	1.740052	8	10	0.03	2000	-3.704742	40.92393	-91.39358
358304	1593	111	-327	-2.545689	-0.4758773	-1.599364	0	10.38	20051	22	5	5	5	0.02	1.732075	8	10	0.03	2000	-3.094208	40.92393	-91.39358
358437	-225	438	-179	-1.138934	-1.78067	-1.313408	0	10.38	20032	11	10	5	5	0.02	1.720088	8	10	0.03	2000	-4.059357	40.92393	-91.39359
358588	591	-811	-138	-1.479122	-0.9049058	-1.615212	0	10.26	20056	10	9	5	5	0.02	1.713596	8	10	0.03	2000	-2.089233	40.92393	-91.39359
358640	33	-170	-1188	-1.384285	-1.251373	-1.401482	0	10.26	20030	10	9	5	5	0.02	1.71573	8	10	0.03	2000	-2.992065	40.92393	-91.39359
358722	-507	-893	418	-1.580042	-1.537159	-1.179273	0	10.26	20049	9	5	5	5	0.02	1.726626	8	10	0.03	2000	-0.1629944	40.92393	-91.39359
358854	1424	984	264	-3.432878	0.03452531	-1.423234	0	10.26	20032	9	5	5	5	0.02	1.746263	8	10	0.03	2000	2.26667	40.92393	-91.39359
358929	1672	1867	1108	-3.052804	-0.626484	-1.364423	0	10.26	20034	4	5	5	5	0.02	1.764038	8	10	0.03	2000	2.26667	40.92393	-91.39359
359082	74	-280	1130	-2.921463	-1.799476	-0.9410455	0	10.26	20010	12	1	5	5	0.02	1.775419	8	10	0.03	2000	3.347042	40.92393	-91.39359
359142	1081	1355	553	-1.33769	-3.188691	-1.036484	0	10.26	20028	13	-3	5	5	0.02	1.782769	8	10	0.03	2000	5.739781	40.92393	-91.39359
359231	-1177	-1977	88	-1.810003	-2.511848	-1.431957	0	10.26	20029	13	-3	5	5	0.02	1.794889	8	10	0.03	2000	7.201656	40.92393	-91.39359
359311	230	737	-751	-2.26386	-0.9477477	-1.554042	0	10.26	20030	8	-8	5	5	0.02	1.800163	8	10	0.03	2000	8.536969	40.92393	-91.39359
359429	-595	-167	847	-2.190181	-1.688564	-1.980536	0	10.26	20054	12	-8	5	5	0.02	1.815044	8	10	0.03	2000	5.795844	40.92393	-91.39359
359612	577	2699	591	-3.219851	-1.911241	-1.946253	0	9.75	20011	13	-13	5	5	0.02	1.823236	8	10	0.03	2000	7.576833	40.92393	-91.3936
359682	756	598	1134	-1.417827	-5.784008	-1.446868	0	9.75	20046	10	-19	5	5	0.02	1.835885	8	10	0.03	2000	7.144729	40.92393	-91.3936
359782	-1563	-3047	1160	-2.166129	-2.553218	-1.492288	0	9.75	20036	12	-17	5	5	0.02	1.850263	8	10	0.03	2000	5.268106	40.92393	-91.3936
359830	-752	-1935	1011	-2.715255	-0.7613258	-1.750292	0	9.75	20033	7	-27	5	5	0.02	1.861883	8	10	0.03	2000	5.268106	40.92393	-91.3936
360004	-395	787	-156	-1.613397	-2.73951	-2.01165	0	9.75	20040	11	-23	5	5	0.02	1.907423	8	10	0.03	2000	9.245728	40.92392	-91.3936
360042	-1774	-1389	-271	-2.354474	-2.437859	-1.883834	0	9.75	20032	11	-31	5	5	0.02	1.922547	8	10	0.03	2000	9.245728	40.92392	-91.3936
360118	-59	-1694	-1397	-4.201109	-0.3656236	-1.922613	0	9.75	20038	13	-27	5	5	0.02	1.953509	8	10	0.03	2000	12.59968	40.92392	-91.3936
360235	3167	3551	-323	-1.914791	-4.395405	-1.015936	0	9.75	20047	13	-27	5	5	0.02	1.986673	8	10	0.03	2000	14.09421	40.92392	-91.3936
360375	-215	-1492	473	-1.482889	-3.578333	-0.855578	0	9.75	20033	10	-47	5	5	0.02	2.024697	8	10	0.03	2000	16.5377	40.92392	-91.3936
360460	-788	915	558	-1.874258	-2.777645	-1.851855	0	10.43	20006	10	-47	5	5	0.02	2.046077	8	10	0.03	2000	14.7475	40.92391	-91.3936
360599	-905	29	-558	-3.343115	-2.449909	-2.515662	0	10.43	20037	11	-55	5	5	0.02	2.06831	8	10	0.03	2000	17.23382	40.9239	-91.3936
360687	1099	1117	-1600	-2.739448	-3.555248	-1.786458	0	10.43	20009	11	-49	5	5	0.02	2.06982	8	10	0.03	2000	17.17475	40.9239	-91.3936
360842	-173	342	-815	-2.182842	-6.996169	-1.005953	0	10.43	23991	11	-65	5	5	0.02	2.066373	8	10	0.03	2000	14.94427	40.9239	-91.3936
360985	-2143	3422	1270	-2.674369	-10.45331	-1.763304	0	10.43	20008	14	-83	5	5	0.02	2.060161	8	10	0.03	2000	14.20075	40.92389	-91.3936
361034	-1033	4193	1423	-3.560616	-11.78547	-1.957785	0	10.43	20030	18	-66	5	5	0.02	2.059093	8	10	0.03	2000	11.17541	40.92389	-91.3936
361196	-1751	917	-384	-7.088685	-12.15962	-2.120564	0	10.43	20009	18	-81	5	5	0.02	2.065804	8	10	0.03	2000	7.768622	40.92389	-91.3936
361287	475	4622	-496	-6.495652	-17.31223	-1.301285	0	10.43	20060	20	-69	5	5	0.02	2.06508	8	10	0.03	2000	1.26143	40.92389	-91.3936
361350	-953	2501	-546	-6.667004	-18.48052	-1.110525	0	10.94	20030	20	-88	5	5	0.02	2.066008	8	10	0.03	2000	1.26143	40.92388	-91.3936
361425	-3585	-99	-90	-8.807148	-18.54332	-1.3712	0	10.94	20031	20	-76	5	5	0.02	2.070698	8	10	0.03	2000	0.07546841	40.92388	-91.3936
361591	1719	1565	326	-10.63538	-19.3939	-2.466358	0	10.94	24012	18	-81	5	5	0.02	2.089	8	10	0.03	2000	-3.945618	40.92387	-91.3936
361631	2980	840	643	-8.404604	-19.32653	-2.267072	0	10.94	20031	21	-97	5	5	0.02	2.095759	8	10	0.03	2000	-3.933533	40.92387	-91.3936
361834	-611	-1610	634	-4.700413	-10.86383	-1.4783	0	10.94	20051	20	-92	5	5	0.02	2.14782	8	10	0.03	2000	-5.25824	40.92387	-91.3936
361952	602	-105	-1123	-5.732905	-7.807328	-1.987104	0	10.94	20034	20	-78	5	5	0.02	2.190206	8	10	0.03	2000	-4.872314	40.92386	-91.3936
362013	2041	1375	-317	-4.111629	-8.737717	-1.76684	0	10.94	20007	23	-89	5	5	0.02	2.213578	8	10	0.03	2000	-6.500122	40.92386	-91.3936
362199	-353	1202	116	-3.1938	-8.914027	-1.223626	0	10.94	20007	23	-75	5	5	0.02	2.250857	8	10	0.03	2000	-5.821136	40.92386	-91.3936
362267	-284	-185	-803	-2.897408	-10.36451	-1.040683	0	10.72	20030	20	-75	5	5	0.02	2.279107	8	10	0.03	2000	-6.648468	40.92386	-91.3936
362381	-1010	-1561	739	-3.277281	-8.403972	-2.360258	0	10.72	20030	18	-65	5	5	0.02	2.307914	8	10	0.03	2000	-5.185425	40.92386	-91.3936
362452	703	-1365	-576	-3.785491	-6.276285	-2.362715	0	10.72	20036	16	-65	5	5	0.02	2.319989	8	10	0.03	2000	-5.200928	40.92386	-91.3936
362546	794	-1668	-1749	-3.106542	-4.990171	-1.667321	0	10.72	20039	10	-57	5	5	0.02	2.321107	8	10	0.03	2000	-5.655548	40.92386	-91.3936
362659	954	-813	-341	-0.2258221	-2.850412	-0.8130086	0	10.72	20036	8	-49	5	5	0.02	2.308596	8	10	0.03	2000	-5.772095	40.92386	-91.39361
362758	101	596	-852	-0.701918	-4.045513	-1.304765	0	10.72	20008	8	-46	5	5	0.02	2.303945	8	10	0.03	2000	-4.99231	40.92386	-91.39361
362878	-132	-736	1172	-0.7561414	-3.484155	-1.56656	0	10.72	20031	10	-46	5	5	0.02	2.286811	8	10	0.03	2000	-3.521515	40.92386	-91.39361
362929	-603	-405	680	-1.364694	-2.891017	-1.681093	0	10.72	20033	8	-44	5	5	0.02	2.275931	8	10	0.03	2000	-3.521515	40.92386	-91.39361
363012	595	1669	164	-1.259841	-3.632595	-1.55658	0	10.72	20011	8	-44	5	5	0.02	2.263957	8	10	0.03	2000	-2.669281	40.92386	-91.39361
363143	-1098	-1910	-756	-1.610487	-4.20286	-1.828579	0	10.15	20004	7	-41	5	5	0.02	2.236002	8	10	0.03	2000	-2.950104	40.92386	-91.39361
363261	-269	-520	424	-1.716771	-4.555763	-1.651323	0	10.15	20031	11	-41	5	5	0.02	2.205704	8	10	0.03	2000	-1.539642	40.92387	-91.39361
363274	-1246	25	-993	-2.45835	-4.970882	-1.715568	0	10.15	20012	11	-41	5	5	0.02	2.205704	8	10	0.03	2000	-2.192749	40.92387	-91.39361
363422	226	-614	1591	-2.06467	-4.999472	-1.664113	0	10.15	20036	8	-35	5	5	0.02	2.179865	8	10	0.03	2000	-2.458282	40.92387	-91.39361
363515	1080	404	1026	-1.87914	-4.503079	-1.590736	0	10.15	20053	6	-30	5	5	0.02	2.158956	8	10	0.03	2000	-0.9329529	40.92387	-91.39361
363614	-445	-533	838	-2.207152	-4.711983	-1.69057	0	10.15	20011	8	-32	5	5	0.02	2.145617	8	10	0.03	2000	-0.8534241	40.92387	-91.39361
363715	180	-191	898	-1.498298	-4.779544	-1.264747	0	10.15	20016	10	-26	5	5	0.02	2.134368	8	10	0.03	2000	-0.4251709	40.92387	-91.39361
363775	-571	-689	816	-2.454204	-4.171123	-1.409287	0	10.15	20033	10	-26	5	5	0.02	2.115612	8	10	0.03	2000	-0.4039917	40.92387	-91.39361
363876	761	-404	-1110	-2.218119	-3.937974	-1.246008	0	10.15	20053	7	-15	5	5	0.02	2.089277	8	10	0.03	2000	-1.089996	40.92387	-91.39361
363990	872	575	-434	-1.843595	-5.734231	-1.613973	0	10.15	20016	9	-11	5	5	0.02	2.064669	8	10	0.03	2000	1.374971	40.92387	-91.39361
364165	-264	-570	-203	-2.283476	-4.111532	-1.391765	0	10.49	20033	11	-15	5	5	0.02	2.036037	8	10	0.03	2000	1.672797	40.92388	-91.39361
364221	1220	828	231	-2.15633	-4.226557	-1.35576	0	10.49	20030	11	-4	5	5	0.02	2.022854	8	10	0.03	2000	1.643312	40.92388	-91.39361
364298	276	-345	707	-1.948182	-4.179144	-1.319132	0	10.49	20031	11	-10	5	5	0.02	2.010913	8	10	0.03	2000	2.952232	40.92388	-91.39361
364468	-2632	-1508	-771	-3.868371	-4.335119	-1.389407	0	10.49	20031	16	-10	5	5	0.02	1.965573	8	10	0.03	2000	2.396948	40.92389	-91.39361
364504	-2222	-1928	-904	-5.059531	-3.839703	-1.452374	0	10.49	20054	16	-10	5	5	0.02	1.955207	8	10	0.03	2000	2.396948	40.92389	-91.39361
364648	-440	-1557	-360	-4.070193	-2.934573	-1.51087	0	10.49	20032	18	-7	5	5	0.02	1.946617	8	10	0.03	2000	1.11333	40.92389	-91.39361
364762	856	491	-333	-3.975738	-2.604096	-1.317911	0	10.49	20031	21	2	5	5	0.02	1.941426	8	10	0.03	2000	2.114191	40.92389	-91.39361
364834	-557	-507	-482	-3.45877	-3.777029	-1.422083	0	10.49	20018	21	-5	5	5	0.02	1.930664	8	10	0.03	2000	2.02997	40.92389	-91.39361
364966	-245	-639	-556	-3.111496	-4.366361	-1.750444	0	10.32	20055	24	2	5	5	0.02	1.926029	8	10	0.03	2000	1.77169	40.9239	-91.39361
365048	497	118	-712	-2.796937	-4.331167	-1.786139	0	10.32	20040	24	-3	5	5	0.02	1.927524	8	10	0.03	2000	1.307151	40.9239	-91.39361
365104	-368	-1256	-101	-3.149609	-3.941645	-1.765598	0	10.32	20053	24	4	5	5	0.02	1.921936	8	10	0.03	2000	1.615993	40.9239	-91.39361
365263	1958	958	-909	-2.322472	-3.338457	-1.636189	0	10.32	20036	22	-3	5	5	0.02	1.912955	8	10	0.03	2000	3.369658	40.9239	-91.3936
365428	-669	-1606	157	-2.543031	-3.415577	-0.4705848	0	10.32	20067	26	4	5	5	0.02	1.895788	8	10	0.03	2000	1.789923	40.9239	-91.3936
365489	-356	-1380	1800	-2.842827	-2.816461	-0.6342802	0	10.32	20030	26	4	5	5	0.02	1.889055	8	10	0.03	2000	1.789923	40.9239	-91.3936
365626	928	-310	968	-1.528094	-5.216063	-1.607037	0	10.32	20013	26	3	5	5	0.02	1.875525	8	10	0.03	2000	2.02713	40.9239	-91.3936
365745	739	859	356	-2.068547	-4.318411	-1.039082	0	10.32	23996	24	-2	5	5	0.02	1.858436	8	10	0.03	2000	3.004807	40.92391	-91.3936
365829	-1807	-2157	475	-1.946239	-3.768636	-1.153759	0	10.32	20028	27	0	5	5	0.02	1.84937	8	10	0.03	2000	3.989531	40.92391	-91.3936
365918	98	28	801	-2.854855	-1.615328	-1.618007	0	10.21	20031	25	-5	5	5	0.02	1.840573	8	10	0.03	2000	3.624023	40.92391	-91.3936
365968	840	613	73	-3.002661	-1.58821	-1.634236	0	10.21	20041	25	-5	5	5	0.02	1.837852	8	10	0.03	2000	3.624023	40.92391	-91.3936
366032	-1069	-182	-1449	-2.938668	-2.765028	-1.357456	0	10.21	20035	28	-2	5	5	0.02	1.818965	8	10	0.03	2000	2.076447	40.92391	-91.3936
366160	532	-759	27	-2.668102	-2.676476	-0.8044651	0	10.21	20033	28	-8	5	5	0.02	1.805021	8	10	0.03	2000	2.80125	40.92391	-91.3936
366248	100	820	330	-3.840447	-1.235666	-1.675247	0	10.21	20032	28	-8	5	5	0.02	1.792398	8	10	0.03	2000	3.808793	40.92391	-91.3936
366338	2658	1662	752	-2.411397	-2.247906	-1.560479	0	10.21	20054	29	-15	5	5	0.02	1.763358	8	10	0.03	2000	4.590774	40.92391	-91.3936
366493	-601	28	-984	-3.350848	-2.253712	-1.68354	0	10.21	20035	27	-17	5	5	0.02	1.747913	8	10	0.03	2000	3.112419	40.92391	-91.3936
366607	-4778	297	-1580	-6.008574	-6.280295	-1.824863	0	10.21	20021	32	-20	5	5	0.02	1.752393	8	10	0.03	2000	1.289964	40.92391	-91.39359
366665	-2734	1891	503	-9.16951	-7.654213	-1.466388	0	10.21	20038	30	-22	5	5	0.02	1.756474	8	10	0.03	2000	0.435054	40.92391	-91.39359
366745	-1596	2194	-130	-12.06053	-9.401651	-1.41152	0	9.81	20034	33	-27	5	5	0.02	1.772343	8	10	0.03	2000	-5.649261	40.9239	-91.39359
366843	1595	3501	2	-11.24149	-11.54192	-1.094513	0	9.81	20034	31	-27	5	5	0.02	1.809178	8	10	0.03	2000	-8.611755	40.9239	-91.39359
366944	-3128	909	407	-11.98786	-15.517	-1.26609	0	9.81	20041	34	-35	5	5	0.02	1.828374	8	10	0.03	2000	-12.60156	40.9239	-91.39359
367063	-488	1236	-942	-14.18548	-16.42926	-1.860943	0	9.81	20030	32	-33	5	5	0.02	1.858246	8	10	0.03	2000	-13.9982	40.9239	-91.39359
367215	651	-2524	-308	-4.903582	-17.96612	-0.3200393	0	9.81	20031	28	-39	5	5	0.02	1.886883	8	10	0.03	2000	-18.21585	40.9239	-91.39359
367248	-2187	-4521	1002	-5.207568	-15.28467	-0.4135082	0	9.81	20033	28	-39	5	5	0.02	1.89827	8	10	0.03	2000	-18.21585	40.9239	-91.39359
367360	578	-1319	-659	-6.039631	-10.48145	-0.6013845	0	9.81	20031	28	-39	5	5	0.02	1.922965	8	10	0.03	2000	-16.81104	40.9239	-91.39359
367475	971	-421	1493	-2.694196	-10.17141	-1.225606	0	9.81	20032	20	-43	5	5	0.02	1.976234	8	10	0.03	2000	-16.34265	40.9239	-91.39359
367598	-1576	-2444	180	-3.369001	-6.298502	-2.221053	0	9.81	20036	0	0	5	5	0.02	2.013168	3	10	0.03	2000	-14.7518	40.9239	-91.39359
367696	585	-1737	430	-5.309748	-0.9158337	-3.142153	0	11.11	20036	0	0	5	5	0.02	2.052316	3	10	0.03	2000	-15.04623	40.92389	-91.3936
367812	1229	-541	-369	-4.661131	0.1747484	-2.885835	0	11.11	20036	0	0	5	5	0.02	2.072908	3	10	0.03	2000	-12.60596	40.92389	-91.3936
367880	222	-697	330	-4.601169	1.321052	-2.22007	0	11.11	20036	0	0	5	5	0.02	2.076316	3	10	0.03	2000	-11.17752	40.92389	-91.3936
367996	1018	-241	-410	-5.273692	1.415339	-1.467468	0	11.11	20036	0	0	5	5	0.02	2.074839	3	10	0.03	2000	-8.337189	40.92389	-91.3936
368062	1342	1501	-147	-3.725714	0.8305678	-1.979607	0	11.11	20036	0	0	5	5	0.02	2.071949	3	10	0.03	2000	-7.582458	40.92389	-91.3936
368144	524	1611	635	-3.299587	-2.18331	-2.603189	0	11.11	20036	0	0	5	5	0.02	2.052941	3	10	0.03	2000	-6.378082	40.92389	-91.3936
368246	433	1407	940	-2.515645	-3.68514	-3.074022	0	11.11	20036	0	0	5	5	0.02	2.010562	3	10	0.03	2000	-5.646667	40.92389	-91.3936
368352	1074	-2269	16	-1.751838	-1.539663	-2.704173	0	11.11	20036	0	0	5	5	0.02	1.960793	3	10	0.03	2000	-4.042419	40.92389	-91.3936
368438	561	1804	-202	-3.111558	-2.773968	-2.715162	0	11.11	20036	0	0	5	5	0.02	1.921722	3	10	0.03	2000	-3.365143	40.92389	-91.39361
368542	-77	1966	-1145	-2.12438	-4.910355	-2.516062	0	11.11	20036	0	0	5	5	0.02	1.710714	3	10	0.03	2000	-2.396515	40.92389	-91.39361
368688	-1906	-1175	45	-3.21178	-6.646812	-1.101671	0	9.98	20036	0	0	5	5	0.02	1.517008	3	10	0.03	2000	-0.881134	40.92389	-91.39361
368768	1181	2599	190	-4.383808	-7.576093	-1.037915	0	9.98	20036	0	0	5	5	0.02	1.313915	3	10	0.03	2000	-0.1120911	40.92389	-91.39361
368863	-715	-272	-593	-4.609341	-8.28592	-0.4826367	0	9.98	20036	0	0	5	5	0.02	1.269902	3	10	0.03	2000	-0.6601257	40.92389	-91.39361
368940	-468	-1614	-250	-5.32094	-6.754522	-0.1548458	0	9.98	20036	0	0	5	5	0.02	1.222039	3	10	0.03	2000	-1.845734	40.92389	-91.39362
369093	-2359	-275	136	-7.786634	-2.785028	-1.17093	0	9.98	20036	0	0	5	5	0.02	1.131735	3	10	0.03	2000	-1.511627	40.92389	-91.39362
369165	-4286	-1801	1077	-12.37029	-4.092428	-2.583181	0	9.98	20036	0	0	5	5	0.02	1.089201	3	10	0.03	2000	-3.039429	40.92389	-91.39362
369241	-315	-1031	8	-14.24374	-1.969293	-2.317811	0	9.98	20036	0	0	5	5	0.02	1.030612	3	10	0.03	2000	-3.66449	40.92389	-91.39362
369348	-2770	-1382	920	-14.67728	-1.483638	-1.766703	0	9.98	20036	0	0	5	5	0.02	0.9663989	3	10	0.03	2000	-5.515625	40.9239	-91.39362
369480	228	534	-559	-11.89156	-1.872558	-1.997292	0	9.98	20036	0	0	5	5	0.02	0.9107153	3	10	0.03	2000	-8.411713	40.9239	-91.39362
