time(ms)	gyro_x(deg/s)	gyro_y(deg/s)	gyro_z(deg/s)	orientation_roll(deg)	orientation_pitch(deg)	orientation_yaw(deg)	throttle	battery(V)	loop_time(uS)	pid_output_roll	pid_output_pitch	pid_output_yaw	pid_output_throttle	ultrasonic_alt	baro_alt	flight_mode	p_gain_altitude	i_gain_altitude	d_gain_altitude	compass_heading	latitude	longitude
461938	0	2	3	0.9265959	0.3232193	-1.228675	0	11.11	20006	0	0	5	5	0.02	-0.4948993	1	10	0.03	2000	-2.330627	40.92394	-91.39363
462027	-4	4	3	0.935594	0.3022072	-1.233077	0	11.11	20006	0	0	5	5	0.02	-0.4965243	1	10	0.03	2000	-1.908539	40.92394	-91.39363
462065	0	-2	2	0.9545023	0.2866241	-1.235523	0	11.11	20006	0	0	5	5	0.02	-0.4989119	1	10	0.03	2000	-2.133881	40.92394	-91.39363
462200	-9	-18	-5	0.9466096	0.2761397	-1.23699	0	11.11	20006	0	0	5	5	0.02	-0.5094336	1	10	0.03	2000	-2.173157	40.92394	-91.39363
462264	-2	0	2	0.9585821	0.2656021	-1.242003	0	11.11	20006	0	0	5	5	0.02	-0.5100653	1	10	0.03	2000	-1.946808	40.92394	-91.39363
462369	-6	0	6	0.9625805	0.2512845	-1.245672	0	11.11	20006	0	0	5	5	0.02	-0.5083567	1	10	0.03	2000	-2.179871	40.92394	-91.39363
462472	-2	4	5	0.9722728	0.2327704	-1.250502	0	11.11	20006	0	0	5	5	0.02	-0.5057904	1	10	0.03	2000	-2.192932	40.92394	-91.39364
462572	27	272	-103	0.9449292	0.2600918	-1.091589	0	11.11	20006	0	0	5	5	0.02	-0.5002339	1	10	0.03	2000	-2.442657	40.92394	-91.39364
462671	-405	195	453	1.118112	-0.1204634	-1.195722	0	11.11	20006	0	0	5	5	0.02	-0.4924985	1	10	0.03	2000	-1.822906	40.92394	-91.39364
462767	-6709	-963	-38	-3.016854	0.9993579	-1.376526	0	11.11	20006	0	0	5	5	0.02	-0.4791613	1	10	0.03	2000	-2.056488	40.92394	-91.39364
462918	831	-138	-438	-10.63133	3.494983	-1.6627	0	11.11	20006	0	0	5	5	0.02	-0.4611346	1	10	0.03	2000	-1.303833	40.92394	-91.39364
462996	954	-1705	-1340	-8.071882	4.476958	-0.4668489	0	11.11	20006	0	0	5	5	0.02	-0.4506816	1	10	0.03	2000	-3.091644	40.92394	-91.39363
463104	497	-2022	145	-4.573205	8.847282	0.5835841	0	11.11	20006	0	0	5	5	0.02	-0.4248628	1	10	0.03	2000	-7.983551	40.92394	-91.39363
463217	597	-836	-602	-2.08124	10.17586	0.7164303	0	11.11	20006	0	0	5	5	0.02	-0.4067442	1	10	0.03	2000	-9.634186	40.92394	-91.39363
463283	3400	-2443	-1109	1.974305	11.6991	2.355701	0	11.11	20006	0	0	5	5	0.02	-0.3949827	1	10	0.03	2000	-13.71109	40.92394	-91.39363
463395	2598	-1667	-731	5.429146	13.66512	3.50948	0	11.06	20006	0	0	5	5	0.02	-0.3599289	1	10	0.03	2000	-15.47562	40.92394	-91.39364
463489	2022	3543	884	8.223207	12.14233	3.280893	0	11.06	20006	0	0	5	5	0.02	-0.3408617	1	10	0.03	2000	-14.34979	40.92394	-91.39364
463593	436	3180	1630	6.736345	5.783353	-0.3237025	0	11.06	20006	0	0	5	5	0.02	-0.3106733	1	10	0.03	2000	-5.624359	40.92393	-91.39364
463704	-444	627	559	5.683519	5.138477	-1.516345	0	11.06	20006	0	0	5	5	0.02	-0.2880162	1	10	0.03	2000	-1.70813	40.92393	-91.39364
463799	-349	1757	373	3.067933	4.46138	-2.093837	0	11.06	20006	0	0	5	5	0.02	-0.2769385	1	10	0.03	2000	3.0589	40.92393	-91.39364
463958	-495	-1413	-201	-2.615772	3.952456	-1.191909	0	11.06	20006	0	0	5	5	0.02	-0.2610582	1	10	0.03	2000	5.205644	40.92393	-91.39364
463996	-768	-171	-236	-2.974799	4.077268	-1.096521	0	11.06	20006	0	0	5	5	0.02	-0.2564817	1	10	0.03	2000	5.176083	40.92393	-91.39364
464152	593	1921	-295	-3.562071	0.7384687	-0.5096921	0	11.06	20006	0	0	5	5	0.02	-0.2572156	1	10	0.03	2000	4.520713	40.92393	-91.39364
464197	-489	-795	36	-2.978466	-0.2056488	-0.5763354	0	11.06	20006	0	0	5	5	0.02	-0.2567616	1	10	0.03	2000	4.475936	40.92393	-91.39364
464298	-107	-587	202	-3.253794	0.8613528	-0.7666582	0	11.11	20006	0	0	5	5	0.02	-0.2549426	1	10	0.03	2000	4.165885	40.92393	-91.39364
464462	806	38	1930	-3.078147	0.8838934	-3.810637	0	11.11	20006	0	0	5	5	0.02	-0.2682714	1	10	0.03	2000	4.354645	40.92392	-91.39364
464505	191	336	140	-2.193744	0.1349199	-4.399894	0	11.11	20006	0	0	5	5	0.02	-0.2696029	1	10	0.03	2000	6.100463	40.92392	-91.39364
464687	-4	11	4	-1.929936	0.3328586	-4.347807	0	11.11	20006	0	0	5	5	0.02	-0.2790224	1	10	0.03	2000	4.768219	40.92392	-91.39364
464771	-16	-43	-5	-1.777075	0.2883902	-4.34903	0	11.11	20006	0	0	5	5	0.02	-0.2857378	1	10	0.03	2000	5.003693	40.92392	-91.39364
464813	12	34	2	-1.713823	0.2964762	-4.348846	0	11.11	20006	0	0	5	5	0.02	-0.2933517	1	10	0.03	2000	4.528978	40.92392	-91.39364
465009	0	13	1	-1.488113	0.3078194	-4.354776	0	11.11	20006	0	0	5	5	0.02	-0.3367244	1	10	0.03	2000	4.364441	40.92392	-91.39364
465020	-8	-6	7	-1.347747	0.3074384	-4.358932	0	11.11	20006	0	0	5	5	0.02	-0.3367244	1	10	0.03	2000	4.002954	40.92392	-91.39364
465170	1	4	0	-1.17428	0.2927064	-4.363578	0	11.11	20006	0	0	5	5	0.02	-0.3651249	1	10	0.03	2000	3.6807	40.92392	-91.39364
465249	0	2	-3	-1.10421	0.2829943	-4.364617	0	11.11	20006	0	0	5	5	0.02	-0.3755768	1	10	0.03	2000	3.796318	40.92392	-91.39364
465350	3	0	-1	-0.993598	0.2963723	-4.367123	0	11.11	20006	0	0	5	5	0.02	-0.3901717	1	10	0.03	2000	3.451143	40.92392	-91.39364
465435	-5	0	2	-0.8903236	0.2933637	-4.368651	0	11.11	20006	0	0	5	5	0.02	-0.3957674	1	10	0.03	2000	3.217645	40.92392	-91.39364
465521	0	3	9	-0.8015171	0.2959816	-4.37079	0	11.11	20006	0	0	5	5	0.02	-0.3974445	1	10	0.03	2000	3.101002	40.92392	-91.39364
465677	-9	-6	4	-0.7191812	0.295379	-4.374154	0	11.11	20006	0	0	5	5	0.02	-0.4058303	1	10	0.03	2000	2.927313	40.92392	-91.39364
465740	-10	0	4	-0.6788318	0.2929347	-4.374215	0	11.11	20006	0	0	5	5	0.02	-0.4081188	1	10	0.03	2000	2.902643	40.92392	-91.39364
465855	0	-2	0	-0.6091401	0.283145	-4.376417	0	11.11	20006	0	0	5	5	0.02	-0.4058132	1	10	0.03	2000	2.764626	40.92392	-91.39364
465940	-4	-3	6	-0.5737654	0.2822165	-4.381185	0	11.11	20006	0	0	5	5	0.02	-0.3975222	1	10	0.03	2000	2.733137	40.92392	-91.39364
466038	0	-3	-1	-0.5525362	0.2833253	-4.382897	0	11.11	20006	0	0	5	5	0.02	-0.3919787	1	10	0.03	2000	2.687551	40.92392	-91.39364
466124	-1	-2	-1	-0.519031	0.2836881	-4.385342	0	11.11	20006	0	0	5	5	0.02	-0.384582	1	10	0.03	2000	2.841537	40.92392	-91.39364
466254	6	-4	0	-0.4585222	0.2813648	-4.385892	0	11.11	20006	0	0	5	5	0.02	-0.3838687	1	10	0.03	2000	2.774323	40.92392	-91.39364
466336	2	-3	-1	-0.4481848	0.2822337	-4.38632	0	11.11	20006	0	0	5	5	0.02	-0.3807467	1	10	0.03	2000	2.732193	40.92392	-91.39364
466419	-2	-5	6	-0.434923	0.279999	-4.389559	0	11.11	20006	0	0	5	5	0.02	-0.3779308	1	10	0.03	2000	2.493987	40.92392	-91.39364
466535	4	0	0	-0.427552	0.2819999	-4.392188	0	11.11	20006	0	0	5	5	0.02	-0.3676569	3	10	0.03	2000	2.711141	40.92392	-91.39364
466617	5	-3	-1	-0.4179849	0.2734602	-4.394144	0	11.11	20006	0	0	5	5	0.02	-0.3519236	3	10	0.03	2000	2.692042	40.92392	-91.39364
466746	2	3	1	-0.3869492	0.2853508	-4.39989	0	11.11	20006	0	0	5	5	0.02	-0.3473702	3	10	0.03	2000	2.415281	40.92392	-91.39364
466821	3	0	4	-0.3806148	0.3026098	-4.40258	0	11.11	20006	0	0	5	5	0.02	-0.3452633	3	10	0.03	2000	2.412166	40.92392	-91.39364
466925	6	-10	-1	-0.3689436	0.3082231	-4.406489	0	11.11	20006	0	0	5	5	0.02	-0.3504079	3	10	0.03	2000	2.629073	40.92392	-91.39364
467059	21	-27	-10	-0.359683	0.2834051	-4.407462	0	11.11	20006	0	0	5	5	0.02	-0.3616481	3	10	0.03	2000	2.37818	40.92392	-91.39364
467180	-13	-10	68	-0.3480024	0.2753687	-4.411374	0	11.11	20006	0	0	5	5	0.02	-0.3676978	3	10	0.03	2000	2.162127	40.92392	-91.39364
467285	34	8	-37	-0.3483637	0.265926	-4.412906	0	11.11	20006	0	0	5	5	0.02	-0.3723013	3	10	0.03	2000	2.137557	40.92392	-91.39364
467326	-68	-88	-135	-0.3524173	0.2631753	-4.407894	0	11.11	20006	0	0	5	5	0.02	-0.371636	3	10	0.03	2000	2.3643	40.92392	-91.39364
467480	-130	-18	-30	-0.3584032	0.2498769	-4.419758	0	11.11	20006	0	0	5	5	0.02	-0.3705055	3	10	0.03	2000	2.157472	40.92392	-91.39364
467625	6	169	26	-0.3753762	0.2670951	-4.429909	0	11.11	20006	0	0	5	5	0.02	-0.3777367	3	10	0.03	2000	2.640144	40.92392	-91.39364
467675	-123	-11	-173	-0.3025015	0.2540171	-4.427042	0	11.11	20006	0	0	5	5	0.02	-0.379292	3	10	0.03	2000	2.312688	40.92392	-91.39364
467754	-204	-28	-122	-0.2916769	0.2897277	-4.443533	0	11.11	20006	0	0	5	5	0.02	-0.3827658	3	10	0.03	2000	2.047025	40.92392	-91.39364
467830	-158	-45	270	-0.2998776	0.3575731	-4.471865	0	11.11	20006	0	0	5	5	0.02	-0.3901351	3	10	0.03	2000	2.082707	40.92392	-91.39364
467972	141	9	-125	-0.3323469	0.2739671	-4.4638	0	11.06	20006	0	0	5	5	0.02	-0.3891088	3	10	0.03	2000	2.336516	40.92392	-91.39364
468073	-278	-226	438	-0.5000234	0.2042787	-4.387152	0	11.06	20006	0	0	5	5	0.02	-0.3896017	3	10	0.03	2000	2.377796	40.92392	-91.39364
468118	-56	99	-347	-0.5028979	0.2567853	-4.3174	0	11.06	20006	0	0	5	5	0.02	-0.3877177	3	10	0.03	2000	2.192403	40.92392	-91.39364
468221	-31	125	237	-0.5134499	0.1046783	-3.995943	0	11.06	20006	0	0	5	5	0.02	-0.3829964	3	10	0.03	2000	2.063894	40.92392	-91.39364
468359	66	-123	-176	-0.6367497	-0.2304403	-3.534266	0	11.06	20006	0	0	5	5	0.02	-0.3719138	6	10	0.03	2000	1.892646	40.92392	-91.39364
468427	-361	-328	-813	-0.6357572	-0.1940876	-3.129356	0	11.06	20006	0	0	5	5	0.02880181	-0.3636812	6	10	0.03	2000	1.522066	40.92392	-91.39364
468566	-211	43	-237	-0.84541	-0.1152665	-2.158761	0	11.06	20006	0	0	5	5	0.03810684	-0.3392431	6	10	0.03	2000	1.52394	40.92392	-91.39364
468650	-164	-114	176	-0.8968832	-0.3928645	-1.736064	0	11.06	20006	0	0	5	5	0.04131364	-0.3297698	6	10	0.03	2000	0.7603724	40.92392	-91.39364
468784	-260	-806	254	-1.333351	0.210037	-1.968579	0	11.06	20006	0	0	5	5	0.04461831	-0.3205132	6	10	0.03	2000	1.262154	40.92392	-91.39363
468821	755	-357	-401	-0.9143292	0.7339731	-2.258506	0	11.06	20006	0	0	5	5	0.04561018	-0.3139585	6	10	0.03	2000	2.285431	40.92392	-91.39363
468931	668	-1738	841	0.6802432	2.99216	-3.482096	0	10.77	20006	0	0	5	5	0.04568229	-0.2951311	6	10	0.03	2000	2.524801	40.92392	-91.39363
469072	1910	331	-607	2.764461	0.9848108	-3.858808	0	10.77	20006	0	0	5	5	0.05021983	-0.2786151	6	10	0.03	2000	5.303072	40.92392	-91.39363
469123	1275	431	993	3.461795	0.3844882	-3.861855	0	10.77	20006	0	0	5	5	0.04702099	-0.2579057	6	10	0.03	2000	7.909657	40.92392	-91.39363
469266	-1279	2406	125	0.8739146	-2.799059	-3.498192	0	10.77	20006	0	0	5	5	0.06709868	-0.2375422	6	10	0.03	2000	10.60099	40.92392	-91.39363
469372	-2273	-659	-239	-1.625221	-8.492063	-3.123369	0	10.77	20006	0	0	5	5	0.1070558	-0.2076101	6	10	0.03	2000	7.778783	40.92392	-91.39363
469428	-2467	-697	-400	-4.777366	-7.68977	-2.919455	0	10.77	20006	0	0	5	5	0.1362068	-0.1968022	6	10	0.03	2000	8.528112	40.92392	-91.39363
469584	552	-1480	1403	-6.471467	-7.740327	-3.383097	0	10.77	20038	-300	300	5	5	0.1702407	-0.1724157	8	10	0.03	2000	8.251233	40.92392	-91.39363
469689	6121	-7742	716	0.5744677	4.752301	-3.229642	0	10.77	20011	-300	300	5	5	0.1241054	-0.1529382	8	10	0.03	2000	11.66199	40.92392	-91.39363
469723	5987	-4325	151	3.748458	7.815667	-3.136345	0	10.77	20023	-300	300	5	5	0.1116949	-0.1480917	8	10	0.03	2000	11.66199	40.92392	-91.39363
469875	3791	-3028	-979	14.13137	11.27639	-2.32629	0	10.26	23979	-300	300	5	5	0.07328302	-0.1087028	8	10	0.03	2000	22.88409	40.92392	-91.39363
469985	2019	-176	1122	16.60477	13.44364	-1.996963	0	10.26	20031	-300	300	5	5	0.04808099	-0.07193853	8	10	0.03	2000	36.60497	40.92392	-91.39362
470023	194	-1916	891	16.08952	14.08004	-2.221832	0	10.26	20052	-300	300	5	5	0.04327289	-0.06511203	8	10	0.03	2000	36.60497	40.92392	-91.39362
470132	-1654	-432	-85	8.306591	15.28847	-4.025012	0	10.26	20034	-300	300	5	5	0.03154594	-0.02544798	8	10	0.03	2000	49.16611	40.92392	-91.39362
470201	-6369	3515	-276	4.270002	12.30304	-4.629633	0	10.26	20057	140	-49	5	5	0.02299699	0.006765633	8	10	0.03	2000	56.27847	40.92392	-91.39362
470399	-4729	6254	-134	-18.69771	-7.651749	-1.914423	0	10.26	20009	227	-53	5	5	0.02	0.1090841	8	10	0.03	2000	35.63394	40.92392	-91.39362
470418	-4729	6254	-134	-18.69771	-7.651749	-1.914423	0	10.26	20009	197	-53	5	5	0.02	0.1224616	8	10	0.03	2000	35.63394	40.92392	-91.39362
470545	-3721	5253	-248	-23.25869	-14.7756	-1.797474	0	10.26	20043	197	-53	5	5	0.02	0.2123821	8	10	0.03	2000	25.35113	40.92392	-91.39362
470611	-296	1785	152	-22.46286	-19.65977	-1.6842	0	10.26	20033	167	-53	5	5	0.02	0.2271191	8	10	0.03	2000	2.917364	40.92392	-91.39362
470712	-3993	-2599	615	-20.32783	-13.93496	-3.310543	0	9.81	20079	300	-172	5	5	0.02	0.3168916	8	10	0.03	2000	-0.4104309	40.92391	-91.39361
470879	-2433	-440	-118	-19.54561	-12.21251	-3.467768	0	9.81	20037	300	-207	5	5	0.02	0.3832682	8	10	0.03	2000	-6.045197	40.92391	-91.3936
471003	-1210	2146	-464	-20.33714	-11.54038	-2.610363	0	9.81	20035	300	-178	5	5	0.02	0.4712698	8	10	0.03	2000	-13.02267	40.92391	-91.3936
471053	-2595	759	-354	-20.31821	-11.76682	-2.43876	0	9.81	20061	300	-178	5	5	0.02	0.4797447	8	10	0.03	2000	-13.02267	40.9239	-91.39359
471156	892	2089	-87	-20.23323	-13.72481	-1.844541	0	9.81	20034	300	-246	5	5	0.02	0.5264547	8	10	0.03	2000	-19.6008	40.9239	-91.39359
471207	2485	2360	423	-16.44055	-15.13641	-2.054794	0	9.81	20053	300	-246	5	5	0.02	0.5328692	8	10	0.03	2000	-22.16071	40.9239	-91.39359
471333	1764	-1032	-32	-11.21546	-16.12939	-2.482237	0	9.81	20031	300	-192	5	5	0.02	0.5870667	8	10	0.03	2000	-23.52289	40.9239	-91.39359
471418	1026	-1688	-300	-8.378672	-13.12416	-2.452521	0	9.81	20030	300	-226	5	5	0.02	0.6067939	8	10	0.03	2000	-22.41107	40.9239	-91.39359
471566	988	-4040	-478	-5.83282	-6.491328	-2.267265	0	9.81	20033	242	-198	5	5	0.02	0.654508	8	10	0.03	2000	-22.31577	40.9239	-91.39359
471608	1145	-4282	-29	-4.494593	-3.810379	-2.208742	0	10.21	20076	290	-237	5	5	0.02	0.723145	8	10	0.03	2000	-23.33124	40.9239	-91.39359
471766	4158	-226	109	-1.476385	-1.545305	-2.932194	0	10.21	20029	152	-138	5	5	0.02	0.7995457	8	10	0.03	2000	-22.85141	40.9239	-91.39359
471823	3810	-956	-690	5.05354	-0.9113912	-3.119848	0	10.21	20056	118	-104	5	5	0.02	0.8296815	8	10	0.03	2000	-21.7959	40.9239	-91.39359
471937	1086	381	-1316	5.890723	-2.117297	-3.068274	0	10.21	20010	58	-59	5	5	0.02	0.9382753	8	10	0.03	2000	-19.0759	40.9239	-91.39359
472041	3255	-1061	392	8.861829	-2.470177	-2.449418	0	10.21	20009	-10	-25	5	5	0.02	1.019838	8	10	0.03	2000	-15.89267	40.9239	-91.39359
472190	-1859	-873	800	4.105395	-3.433734	-3.588876	0	10.21	20030	-110	73	5	5	0.02	1.122499	8	10	0.03	2000	-11.64725	40.92391	-91.3936
472248	446	-2501	-3	3.343023	-2.477453	-3.526347	0	10.21	20020	-110	73	5	5	0.02	1.182291	8	10	0.03	2000	-11.64725	40.92391	-91.3936
472320	1576	-2231	-84	4.70839	2.245824	-3.29947	0	10.21	20030	-180	139	5	5	0.02	1.268176	8	10	0.03	2000	-11.27228	40.92391	-91.39361
472459	1585	-1659	500	8.12964	4.807459	-2.998244	0	10.21	20006	-150	109	5	5	0.02	1.323577	8	10	0.03	2000	-8.156586	40.92391	-91.39361
472522	1421	-1928	-240	8.126904	5.342632	-2.935565	0	10.21	20032	-234	176	5	5	0.02	1.372761	8	10	0.03	2000	-7.498596	40.92391	-91.39361
472673	1424	84	1378	11.27728	7.63239	-3.350085	0	10.94	20031	-175	147	5	5	0.02	1.431032	8	10	0.03	2000	-3.488403	40.92391	-91.39361
472712	905	-332	314	10.88581	7.214777	-3.485369	0	10.94	20005	-226	198	5	5	0.02	1.446317	8	10	0.03	2000	2.853907	40.92392	-91.39362
472847	670	-1551	-428	11.28405	7.185423	-3.34059	0	10.94	20007	-151	138	5	5	0.02	1.477536	8	10	0.03	2000	3.10382	40.92392	-91.39362
472922	737	-2555	-1446	10.27849	7.771368	-3.195264	0	10.94	20059	-202	189	5	5	0.02	1.484768	8	10	0.03	2000	7.284664	40.92392	-91.39362
473173	2602	-2066	-656	10.24361	7.081275	-2.846557	0	10.94	20033	-86	118	5	5	0.02	1.450367	8	10	0.03	2000	27.33636	40.92392	-91.39362
473296	210	-1625	-30	8.47436	6.775591	-3.216394	0	10.94	20037	-86	118	5	5	0.02	1.401887	8	10	0.03	2000	31.02682	40.92392	-91.39362
473417	-1418	724	553	7.651772	4.465281	-2.351904	0	10.94	20033	-41	73	5	5	0.02	1.359363	8	10	0.03	2000	36.01318	40.92392	-91.39362
473450	-2052	-394	-553	5.521926	3.632794	-2.635936	0	9.92	24021	-28	87	5	5	0.02	1.349066	8	10	0.03	2000	43.36592	40.92392	-91.39362
473511	-1622	1220	320	4.002276	2.583069	-2.990928	0	9.92	20011	-24	73	5	5	0.02	1.311754	8	10	0.03	2000	44.57114	40.92392	-91.39362
473691	-6093	1803	-1980	-12.94901	-6.9038	-3.10599	0	9.92	20028	72	-6	5	5	0.02	1.270507	8	10	0.03	2000	39.7524	40.92392	-91.39362
473776	-4891	818	-1048	-17.2729	-8.892004	-1.934869	0	9.92	20031	102	-36	5	5	0.02	1.252315	8	10	0.03	2000	36.66122	40.92392	-91.39362
473852	-3470	2389	-157	-20.54553	-11.70576	-1.218013	0	9.92	20004	102	-36	5	5	0.02	1.234722	8	10	0.03	2000	25.60326	40.92392	-91.39362
473930	-1755	1163	705	-21.12225	-13.52997	-1.731356	0	9.92	20037	102	-36	5	5	0.02	1.229085	8	10	0.03	2000	16.32281	40.92392	-91.39362
474015	-1738	1836	232	-19.01903	-10.13147	-3.622801	0	9.92	20059	240	-138	5	5	0.02	1.195059	8	10	0.03	2000	5.213927	40.92391	-91.39361
474065	-466	2869	-575	-16.62101	-11.96083	-2.764403	0	9.92	20010	300	-189	5	5	0.02	1.17109	8	10	0.03	2000	-2.722412	40.92391	-91.3936
474148	-2785	-1809	-168	-19.55906	-13.87927	-2.315697	0	9.92	20034	300	-209	5	5	0.02	1.131256	8	10	0.03	2000	-10.88123	40.92391	-91.3936
474225	-1034	2598	1107	-20.11676	-12.64349	-3.333032	0	10.55	23992	300	-210	5	5	0.02	1.112515	8	10	0.03	2000	-14.89197	40.92391	-91.3936
474318	-1854	2060	33	-19.96532	-14.78469	-4.011124	0	10.55	20043	300	-210	5	5	0.02	1.096911	8	10	0.03	2000	-16.80731	40.92391	-91.39359
474470	3963	1208	-366	-16.76686	-14.54807	-3.923981	0	10.55	20057	213	-154	5	5	0.02	1.082537	8	10	0.03	2000	-21.55862	40.92391	-91.39359
474566	3650	-1608	-1586	-9.08221	-8.531893	-2.072419	0	10.55	20029	247	-154	5	5	0.02	1.078859	8	10	0.03	2000	-21.70987	40.92391	-91.39359
474621	-135	-2570	-2013	-7.996098	-5.999646	-0.7375617	0	10.55	20026	187	-109	5	5	0.02	1.093756	8	10	0.03	2000	-22.34097	40.92391	-91.39359
474767	-178	-3924	192	-7.51584	2.204696	-0.8002161	0	10.55	20031	170	-109	5	5	0.02	1.12384	8	10	0.03	2000	-22.78741	40.92391	-91.39359
474826	-124	-749	1088	-7.391541	2.866191	-1.510066	0	10.55	20056	125	-64	5	5	0.02	1.158251	8	10	0.03	2000	-22.78741	40.92391	-91.39359
475012	1020	-238	786	-6.913972	-2.170378	-4.767244	0	10.55	20057	27	-17	5	5	0.02	1.264974	8	10	0.03	2000	-22.34213	40.92391	-91.3936
475059	2253	195	-1328	-5.11245	-2.188663	-3.971481	0	10.66	20006	-23	0	5	5	0.02	1.278715	8	10	0.03	2000	-21.30615	40.92391	-91.3936
475165	352	684	247	-2.740234	-2.052751	-2.033084	0	10.66	20005	-54	0	5	5	0.02	1.358177	8	10	0.03	2000	-22.70621	40.92391	-91.3936
475233	36	-1566	153	-3.290671	-1.810413	-2.145036	0	10.66	20028	-54	0	5	5	0.02	1.406451	8	10	0.03	2000	-22.38382	40.92391	-91.3936
475400	1101	1230	245	0.5450135	-0.2383275	-3.980915	0	10.66	20034	-208	50	5	5	0.02	1.523212	8	10	0.03	2000	-21.03339	40.92391	-91.39361
475445	1990	279	272	1.03457	-0.9148006	-4.253768	0	10.66	20061	-209	51	5	5	0.02	1.553196	8	10	0.03	2000	-18.67035	40.92391	-91.39362
475578	-311	-2904	-641	5.668682	1.595152	-3.767299	0	10.66	20030	-149	36	5	5	0.02	1.64152	8	10	0.03	2000	-17.22269	40.92391	-91.39362
475681	4620	-335	-359	6.521793	3.402627	-2.999782	0	10.66	20027	-251	70	5	5	0.02	1.662099	8	10	0.03	2000	-15.39578	40.92391	-91.39362
475761	2731	-758	-170	9.216798	3.324166	-2.960051	0	10.66	20018	-206	55	5	5	0.02	1.697212	8	10	0.03	2000	-13.35599	40.92391	-91.39362
475813	4560	-1834	-1257	10.88576	4.253122	-3.138079	0	10.66	20058	-291	89	5	5	0.02	1.704969	8	10	0.03	2000	-9.289001	40.92391	-91.39362
475921	2213	-25	-161	14.94367	4.719019	-3.24638	0	10.66	20057	-216	74	5	5	0.02	1.702836	8	10	0.03	2000	-0.03860474	40.92391	-91.39362
476013	1736	-153	-373	14.15385	4.166156	-3.116259	0	10.26	20027	-300	108	5	5	0.02	1.6885	8	10	0.03	2000	4.474931	40.92392	-91.39362
476112	1416	330	32	15.79764	4.314177	-2.660794	0	10.26	20056	-226	78	5	5	0.02	1.647398	8	10	0.03	2000	13.95148	40.92392	-91.39362
476316	-1947	3204	475	11.80314	-1.323433	-3.458579	0	10.26	20019	-220	48	5	5	0.02	1.526541	8	10	0.03	2000	29.10651	40.92392	-91.39363
476458	-2102	2194	-17	5.77895	-7.22365	-2.522484	0	10.26	20033	-146	18	5	5	0.02	1.42107	8	10	0.03	2000	28.72171	40.92392	-91.39363
476534	-2590	2017	224	-1.637143	-9.836394	-2.408463	0	10.26	20011	-146	18	5	5	0.02	1.364175	8	10	0.03	2000	28.07208	40.92391	-91.39363
476645	-3828	2022	938	-5.088109	-11.0611	-2.652432	0	10.26	20009	-71	-46	5	5	0.02	1.257799	8	10	0.03	2000	24.55735	40.92391	-91.39363
476684	-4639	703	1176	-7.15049	-11.64899	-2.885535	0	10.26	20037	-20	-96	5	5	0.02	1.245355	8	10	0.03	2000	22.13673	40.92391	-91.39363
476791	-3918	811	-708	-12.60213	-8.317843	-2.821341	0	10.26	24007	25	-112	5	5	0.02	1.181175	8	10	0.03	2000	20.65416	40.92391	-91.39363
477002	-2399	879	-320	-19.17791	-8.089938	-3.910832	0	10.6	20034	123	-131	5	5	0.02	1.128246	8	10	0.03	2000	7.471452	40.92391	-91.39362
477121	-687	117	-533	-15.99284	-8.973011	-4.328215	0	10.6	20012	174	-148	5	5	0.02	1.101249	8	10	0.03	2000	1.738472	40.92391	-91.39362
477256	-626	-310	426	-15.62152	-9.368568	-4.208293	0	10.6	20011	224	-134	5	5	0.02	1.069062	8	10	0.03	2000	-2.886658	40.92391	-91.39362
477298	-594	-1055	25	-15.35887	-8.520119	-3.989613	0	10.6	20053	225	-135	5	5	0.02	1.061674	8	10	0.03	2000	-2.886658	40.92391	-91.39362
477420	-503	-444	-1321	-14.6835	-8.214733	-3.516685	0	10.6	20037	213	-90	5	5	0.02	1.039039	8	10	0.03	2000	-7.091309	40.92391	-91.39362
477504	-1079	-291	107	-14.80087	-7.467614	-3.622305	0	10.6	20040	214	-90	5	5	0.02	1.032549	8	10	0.03	2000	-9.073822	40.92391	-91.39362
477624	-712	-566	195	-13.53527	-6.969041	-3.343747	0	10.6	20057	188	-60	5	5	0.02	1.023625	8	10	0.03	2000	-12.53726	40.92391	-91.39362
477702	2908	241	-1178	-11.75037	-6.184326	-3.015371	0	10.6	20031	143	-45	5	5	0.02	1.017448	8	10	0.03	2000	-14.05991	40.92391	-91.39362
477799	5413	-2088	-752	-3.095486	-4.384241	-2.453226	0	9.98	20014	126	-11	5	5	0.02	1.020648	8	10	0.03	2000	-14.46307	40.92391	-91.39362
477914	286	-4804	848	0.150885	4.092688	-1.838806	0	9.98	20004	81	3	5	5	0.02	1.04185	8	10	0.03	2000	-13.64859	40.92391	-91.39362
477996	-11	1595	496	-1.440898	4.834398	-3.059927	0	9.98	20061	64	37	5	5	0.02	1.058803	8	10	0.03	2000	-14.13998	40.92391	-91.39362
478116	373	283	377	-1.640265	2.684417	-3.534192	0	9.98	20055	34	38	5	5	0.02	1.095331	8	10	0.03	2000	-12.41351	40.92391	-91.39362
478202	73	-3011	134	-1.154228	3.413743	-3.380836	0	9.98	20041	-17	72	5	5	0.02	1.121986	8	10	0.03	2000	-11.87143	40.92391	-91.39362
478312	776	131	281	-1.0698	4.647627	-3.225668	0	9.98	20009	-47	72	5	5	0.02	1.177405	8	10	0.03	2000	-12.08987	40.92391	-91.39362
478439	2413	-1398	-1466	0.783067	4.289755	-2.994204	0	9.98	20057	-66	76	5	5	0.02	1.213368	8	10	0.03	2000	-12.91989	40.92392	-91.39362
478545	-222	-1117	873	1.282452	4.518456	-3.333432	0	9.98	20043	-116	92	5	5	0.02	1.251306	8	10	0.03	2000	-9.172638	40.92392	-91.39362
478650	2419	249	-589	1.768168	3.950984	-3.77664	0	9.98	20034	-102	63	5	5	0.02	1.303482	8	10	0.03	2000	-6.817383	40.92392	-91.39362
478724	1258	-682	-262	3.461372	3.936292	-3.64548	0	11	20030	-135	96	5	5	0.02	1.328317	8	10	0.03	2000	-6.817383	40.92392	-91.39362
478836	1000	-1103	-1039	5.249765	5.073403	-3.02272	0	11	24028	-109	80	5	5	0.02	1.369769	8	10	0.03	2000	-4.330414	40.92392	-91.39362
479048	1504	-637	1069	5.657267	2.926931	-2.66125	0	11	20030	-112	54	5	5	0.02	1.431946	8	10	0.03	2000	4.153969	40.92392	-91.39363
479133	1232	-116	350	5.682928	3.602272	-2.899829	0	11	20029	-146	54	5	5	0.02	1.444617	8	10	0.03	2000	8.36414	40.92392	-91.39363
479228	610	1729	1345	6.524978	1.90967	-3.289855	0	11	20030	-101	39	5	5	0.02	1.464746	8	10	0.03	2000	18.08265	40.92392	-91.39363
479395	2847	2397	907	7.708796	-0.198593	-2.581239	0	11	20033	-105	-8	5	5	0.02	1.481012	8	10	0.03	2000	25.38164	40.92392	-91.39363
479421	-1531	2520	-1047	6.231699	-3.407498	-2.276705	0	11	24017	-105	-8	5	5	0.02	1.48613	8	10	0.03	2000	31.29088	40.92392	-91.39363
479539	-2814	1661	879	2.672428	-5.40898	-2.468373	0	11	20052	-105	-8	5	5	0.02	1.507885	8	10	0.03	2000	30.38601	40.92392	-91.39363
479671	-1780	2335	-156	-3.389548	-7.39558	-3.256184	0	9.98	20030	-60	-108	5	5	0.02	1.52455	8	10	0.03	2000	32.25249	40.92391	-91.39363
479727	-2431	2056	-164	-5.735636	-10.33191	-3.14185	0	9.98	20054	-30	-108	5	5	0.02	1.533721	8	10	0.03	2000	31.45644	40.92391	-91.39363
479879	685	326	1027	-6.177869	-9.57426	-2.822136	0	9.98	20052	-13	-159	5	5	0.02	1.557438	8	10	0.03	2000	22.79446	40.92391	-91.39363
479958	323	1039	1148	-2.77489	-10.99131	-3.697581	0	9.98	20037	17	-144	5	5	0.02	1.580759	8	10	0.03	2000	21.32982	40.92391	-91.39363
480028	-90	1229	161	-3.022664	-10.88174	-4.096441	0	9.98	20053	68	-178	5	5	0.02	1.592264	8	10	0.03	2000	19.73453	40.92391	-91.39363
480186	-1830	618	-1154	-5.825999	-11.4614	-3.158885	0	9.98	20030	68	-178	5	5	0.02	1.642205	8	10	0.03	2000	18.29741	40.92391	-91.39363
480280	-2511	5561	1291	-8.882676	-14.89493	-3.204017	0	9.98	20033	136	-246	5	5	0.02	1.668879	8	10	0.03	2000	14.74459	40.9239	-91.39362
480345	8	1122	-512	-10.34056	-19.09146	-3.47349	0	9.98	20035	136	-171	5	5	0.02	1.699711	8	10	0.03	2000	10.70493	40.9239	-91.39362
480472	-2365	-1193	-1573	-10.7039	-16.51444	-3.578662	0	9.98	20032	172	-160	5	5	0.02	1.768904	8	10	0.03	2000	7.682977	40.9239	-91.39362
480578	-1252	1616	-463	-11.24026	-15.66046	-2.978869	0	9.53	20019	240	-211	5	5	0.02	1.809481	8	10	0.03	2000	6.850938	40.9239	-91.39362
480706	-1211	653	358	-13.28881	-16.27332	-3.13312	0	9.53	20032	195	-181	5	5	0.02	1.885481	8	10	0.03	2000	2.599613	40.9239	-91.39362
480770	-1498	194	1657	-12.9708	-15.14067	-3.383917	0	9.53	20007	246	-198	5	5	0.02	1.895231	8	10	0.03	2000	0.3825011	40.9239	-91.39362
480827	-2185	-50	-88	-15.32793	-14.73377	-3.970075	0	9.53	20007	246	-198	5	5	0.02	1.924575	8	10	0.03	2000	-0.460022	40.9239	-91.39362
481025	-3298	23	-422	-15.67512	-11.65012	-4.061046	0	9.53	20078	254	-155	5	5	0.02	1.988705	8	10	0.03	2000	-3.719696	40.9239	-91.39362
481073	-851	71	-895	-15.33339	-13.66769	-3.408688	0	9.53	24039	250	-149	5	5	0.02	2.008974	8	10	0.03	2000	-8.122955	40.9239	-91.39362
481160	-1144	-36	-930	-15.89164	-13.22094	-3.483667	0	9.53	20024	209	-125	5	5	0.02	2.041583	8	10	0.03	2000	-9.196808	40.9239	-91.39362
481219	-276	-189	539	-15.58554	-12.32608	-3.55057	0	9.53	20032	149	-80	5	5	0.02	2.058256	8	10	0.03	2000	-9.196808	40.9239	-91.39362
481380	-175	1622	-581	-13.88738	-9.397073	-3.501214	0	9.53	20033	138	-65	5	5	0.02	2.10093	8	10	0.03	2000	-12.27261	40.9239	-91.39362
481477	3623	-2493	-1014	-8.160773	-7.437174	-2.867855	0	10.72	20054	121	-48	5	5	0.02	2.129575	8	10	0.03	2000	-13.75311	40.9239	-91.39362
481516	4029	-2582	-114	-5.793036	-6.054316	-2.745701	0	10.72	20037	121	-48	5	5	0.02	2.136195	8	10	0.03	2000	-13.75311	40.9239	-91.39362
481623	3690	-1910	180	-1.864805	-3.91537	-2.763258	0	10.72	20011	61	-33	5	5	0.02	2.184315	8	10	0.03	2000	-12.57407	40.9239	-91.39362
481730	3457	-2240	487	3.023031	-1.694916	-3.114774	0	10.72	20010	44	0	5	5	0.02	2.218623	8	10	0.03	2000	-10.95029	40.9239	-91.39362
481821	210	-2169	-128	5.481484	1.019965	-3.738488	0	10.72	20008	-6	51	5	5	0.02	2.271306	8	10	0.03	2000	-10.0787	40.9239	-91.39362
481983	-487	-892	-1163	3.594081	1.876915	-4.13729	0	10.72	20054	0	0	5	5	0.02	2.342177	3	10	0.03	2000	-6.652802	40.9239	-91.39362
482097	-1425	-214	242	1.417572	-0.3371706	-3.978822	0	10.72	20054	0	0	5	5	0.02	2.430277	3	10	0.03	2000	-6.185272	40.92391	-91.39362
482208	105	-825	340	-0.7250828	-1.246221	-3.722833	0	10.72	20054	0	0	5	5	0.02	2.471761	3	10	0.03	2000	-4.725372	40.92391	-91.39362
482332	-242	-4396	-972	-1.087319	3.773196	-3.931972	0	10.72	20054	0	0	5	5	0.02	2.516231	3	10	0.03	2000	-4.387543	40.92391	-91.39362
482367	-510	-3196	-1042	-2.081988	6.584361	-4.199798	0	10.72	20054	0	0	5	5	0.02	2.523473	3	10	0.03	2000	-5.112854	40.92391	-91.39362
482441	1753	-499	-23	-1.630286	6.626139	-4.804007	0	11.11	20054	0	0	5	5	0.02	2.556392	3	10	0.03	2000	-2.531647	40.92392	-91.39362
482556	-811	-1356	-6	-0.575424	7.095092	-4.740326	0	11.11	20054	0	0	5	5	0.02	2.55215	3	10	0.03	2000	-2.595459	40.92392	-91.39362
482609	-627	-2096	-1057	-1.926126	7.60028	-4.318354	0	11.11	20054	0	0	5	5	0.02	2.546495	3	10	0.03	2000	-2.158966	40.92392	-91.39363
482810	-143	1046	1300	-0.5901675	1.595224	-3.012325	0	11.11	20054	0	0	5	5	0.02	2.47496	3	10	0.03	2000	1.369797	40.92392	-91.39363
482860	-703	360	1379	-1.132044	0.9123315	-3.448721	0	11.11	20054	0	0	5	5	0.02	2.437547	3	10	0.03	2000	1.369797	40.92392	-91.39363
483020	732	411	-454	-1.351037	-0.7998666	-4.67302	0	11.11	20054	0	0	5	5	0.02	2.19781	3	10	0.03	2000	7.835862	40.92392	-91.39364
483182	-404	2555	306	-3.245762	-2.729397	-3.778163	0	11.11	20054	0	0	5	5	0.02	1.970658	3	10	0.03	2000	9.472656	40.92392	-91.39364
483201	1744	5757	389	-2.878733	-7.346665	-3.613567	0	11.11	20054	0	0	5	5	0.02	1.970658	3	10	0.03	2000	8.925641	40.92392	-91.39364
483292	-190	2828	-38	-1.146415	-12.74729	-3.602493	0	10.21	20054	0	0	5	5	0.02	1.86142	3	10	0.03	2000	12.76385	40.92392	-91.39365
483422	819	2171	-6	-1.865151	-15.07013	-4.249442	0	10.21	20054	0	0	5	5	0.02	1.686895	3	10	0.03	2000	10.19095	40.92392	-91.39365
483510	486	665	-102	2.346237	-14.97288	-4.877447	0	10.21	20054	0	0	5	5	0.02	1.500662	3	10	0.03	2000	10.81906	40.92392	-91.39365
483609	-301	-927	-491	1.729893	-13.49196	-4.488802	0	10.21	20054	0	0	5	5	0.02	1.412536	3	10	0.03	2000	10.97458	40.92392	-91.39365
483762	-2331	-2059	661	-1.298309	-8.177717	-3.120045	0	10.21	20054	0	0	5	5	0.02	1.201661	3	10	0.03	2000	11.08836	40.92392	-91.39365
483835	-3263	-5004	798	-3.998646	-3.937333	-3.261373	0	10.21	20054	0	0	5	5	0.02	1.038197	3	10	0.03	2000	10.97408	40.92392	-91.39365
483884	-3456	-6164	668	-5.799919	-0.494795	-3.358042	0	10.21	20054	0	0	5	5	0.02	1.005211	3	10	0.03	2000	10.67557	40.92392	-91.39365
484048	883	4032	-389	-4.942843	3.932756	-4.929433	0	10.21	20054	0	0	5	5	0.02	0.8705261	3	10	0.03	2000	13.59406	40.92393	-91.39365
484104	2598	3705	520	-4.314149	1.119581	-5.254281	0	10.21	20054	0	0	5	5	0.02	0.8137576	3	10	0.03	2000	13.59406	40.92393	-91.39365
484249	0	396	276	-3.138783	-1.357579	-6.460444	0	10.89	20054	0	0	5	5	0.02	0.7016784	3	10	0.03	2000	12.48572	40.92393	-91.39365
484344	2841	-173	1591	-6.224417	-6.26494	-8.145884	0	10.89	20054	0	0	5	5	0.02	0.6199563	3	10	0.03	2000	12.48572	40.92393	-91.39365
484486	355	458	42	-5.96279	-6.027624	-8.013417	0	10.89	20054	0	0	5	5	0.02	0.5248914	3	10	0.03	2000	9.698475	40.92393	-91.39365
484524	-86	-55	-66	-5.701909	-5.96678	-8.013049	0	10.89	20054	0	0	5	5	0.02	0.4700245	3	10	0.03	2000	9.698475	40.92393	-91.39365
484622	-52	42	21	-5.428925	-5.195898	-8.025706	0	10.89	20054	0	0	5	5	0.02	0.4072291	1	10	0.03	2000	8.357332	40.92393	-91.39365
484751	-36	5	-72	-5.127634	-4.597329	-8.041482	0	10.89	20054	0	0	5	5	0.02	0.2014479	1	10	0.03	2000	8.902493	40.92393	-91.39365
484896	-38	-10	100	-4.673784	-3.776133	-8.071312	0	10.89	20054	0	0	5	5	0.02	0.08218398	1	10	0.03	2000	7.634664	40.92393	-91.39365
484961	-66	25	-28	-4.465525	-3.340135	-8.074368	0	10.89	20054	0	0	5	5	0.02	0.05030823	1	10	0.03	2000	7.282405	40.92393	-91.39365
485029	-12	-8	-23	-4.345464	-3.090005	-8.082927	0	10.89	20054	0	0	5	5	0.02	0.01072502	1	10	0.03	2000	7.024774	40.92393	-91.39365
485113	-52	-12	-22	-4.231561	-2.860965	-8.096987	0	10.94	20054	0	0	5	5	0.02	-0.02605641	1	10	0.03	2000	6.4421	40.92393	-91.39365
485204	-49	-12	27	-4.138368	-2.638706	-8.109825	0	10.94	20054	0	0	5	5	0.02	-0.08014889	1	10	0.03	2000	6.380756	40.92393	-91.39365
485369	-24	9	-49	-3.932575	-2.180069	-8.133609	0	10.94	20054	0	0	5	5	0.02	-0.1393273	1	10	0.03	2000	5.807962	40.92393	-91.39365
485411	-20	24	21	-3.864728	-2.029903	-8.146385	0	10.94	20054	0	0	5	5	0.02	-0.1474286	1	10	0.03	2000	5.981266	40.92393	-91.39365
485538	-33	-1	40	-3.721668	-1.761347	-8.168093	0	10.94	20054	0	0	5	5	0.02	-0.179842	1	10	0.03	2000	4.979908	40.92393	-91.39365
485609	-31	-7	-8	-3.671071	-1.642478	-8.174022	0	10.94	20054	0	0	5	5	0.02	-0.2016935	1	10	0.03	2000	5.613884	40.92393	-91.39365
485740	-58	-15	9	-3.575062	-1.438741	-8.191018	0	10.94	20054	0	0	5	5	0.02	-0.2304507	1	10	0.03	2000	5.429428	40.92393	-91.39365
485805	-38	7	34	-3.547722	-1.388862	-8.197131	0	10.94	20054	0	0	5	5	0.02	-0.2395557	1	10	0.03	2000	5.429428	40.92393	-91.39365
485924	-22	5	-9	-3.442907	-1.185464	-8.222991	0	10.94	20054	0	0	5	5	0.02	-0.2662515	1	10	0.03	2000	4.998075	40.92393	-91.39365
486002	-30	4	10	-3.401698	-1.116321	-8.231977	0	10.94	20054	0	0	5	5	0.02	-0.2817197	1	10	0.03	2000	4.320597	40.92393	-91.39365
486129	-30	2	15	-3.345159	-1.031212	-8.246345	0	11	20054	0	0	5	5	0.02	-0.2984351	1	10	0.03	2000	4.005507	40.92393	-91.39365
486252	-28	1	16	-3.284459	-0.9240376	-8.261076	0	11	20054	0	0	5	5	0.02	-0.3036693	1	10	0.03	2000	3.676856	40.92393	-91.39365
486398	-33	3	9	-3.222581	-0.8154636	-8.283023	0	11	20054	0	0	5	5	0.02	-0.3054658	1	10	0.03	2000	3.593271	40.92393	-91.39365
486467	-34	5	4	-3.215097	-0.8010622	-8.288097	0	11	20054	0	0	5	5	0.02	-0.3115995	1	10	0.03	2000	3.556519	40.92393	-91.39365
486561	-29	0	8	-3.181703	-0.7346753	-8.30259	0	11	20054	0	0	5	5	0.02	-0.3158081	1	10	0.03	2000	3.736534	40.92393	-91.39365
486689	-33	-2	10	-3.15414	-0.6910499	-8.315247	0	11	20054	0	0	5	5	0.02	-0.3154233	1	10	0.03	2000	3.449151	40.92393	-91.39365
486761	-36	-2	4	-3.131748	-0.656153	-8.328268	0	11	20054	0	0	5	5	0.02	-0.3152831	1	10	0.03	2000	3.393414	40.92393	-91.39365
486846	-30	-3	14	-3.119082	-0.6341159	-8.335361	0	11	20054	0	0	5	5	0.02	-0.3196517	1	10	0.03	2000	3.393414	40.92393	-91.39365
486947	-29	-1	4	-3.092802	-0.6009146	-8.347405	0	11	20054	0	0	5	5	0.02	-0.3194814	1	10	0.03	2000	3.369838	40.92393	-91.39365
487003	-27	1	7	-3.082859	-0.5788489	-8.356086	0	11	20054	0	0	5	5	0.02	-0.3180508	1	10	0.03	2000	3.552889	40.92393	-91.39365
487138	-29	3	8	-3.057068	-0.5438946	-8.369169	0	11	20054	0	0	5	5	0.02	-0.3201708	1	10	0.03	2000	3.272283	40.92393	-91.39365
487229	-26	2	9	-3.047468	-0.5266764	-8.373631	0	11	20054	0	0	5	5	0.02	-0.3249659	1	10	0.03	2000	3.269006	40.92393	-91.39365
487298	-35	-8	8	-3.038664	-0.5169538	-8.381763	0	11	20054	0	0	5	5	0.02	-0.3260386	1	10	0.03	2000	3.252716	40.92393	-91.39365
487430	-29	5	9	-3.026434	-0.494361	-8.393991	0	11	20054	0	0	5	5	0.02	-0.323033	1	10	0.03	2000	3.455858	40.92393	-91.39365
487538	-35	-2	7	-3.014272	-0.4783373	-8.405484	0	11	20054	0	0	5	5	0.02	-0.3164827	1	10	0.03	2000	3.216647	40.92393	-91.39365
487645	-36	-2	6	-3.000022	-0.4602082	-8.417897	0	11	20054	0	0	5	5	0.02	-0.3122839	1	10	0.03	2000	3.189731	40.92393	-91.39365
487739	-31	-2	4	-2.994739	-0.4512852	-8.424074	0	11	20054	0	0	5	5	0.02	-0.3024577	1	10	0.03	2000	3.164299	40.92393	-91.39365
487831	-24	2	-3	-2.984674	-0.4444237	-8.433796	0	11	20054	0	0	5	5	0.02	-0.2959421	1	10	0.03	2000	3.161039	40.92393	-91.39365
487933	-31	-1	2	-2.979201	-0.4460874	-8.440523	0	11.06	20054	0	0	5	5	0.02	-0.286058	1	10	0.03	2000	3.147142	40.92393	-91.39365
488029	-23	-3	14	-2.970143	-0.4369544	-8.450489	0	11.06	20054	0	0	5	5	0.02	-0.2817002	1	10	0.03	2000	2.911422	40.92393	-91.39365
488147	-28	-3	6	-2.958303	-0.4291051	-8.46339	0	11.06	20054	0	0	5	5	0.02	-0.2780413	1	10	0.03	2000	3.119502	40.92393	-91.39365
488206	-31	0	6	-2.950786	-0.4270999	-8.466936	0	11.06	20054	0	0	5	5	0.02	-0.2746207	1	10	0.03	2000	3.347469	40.92393	-91.39365
488305	-29	1	9	-2.946911	-0.4196882	-8.476966	0	11.06	20054	0	0	5	5	0.02	-0.266375	1	10	0.03	2000	2.871745	40.92393	-91.39365
488487	-30	0	3	-2.944845	-0.4113068	-8.496039	0	11.06	20054	0	0	5	5	0.02	-0.2524154	1	10	0.03	2000	3.328073	40.92393	-91.39365
488581	-40	2	4	-2.943572	-0.4123386	-8.501175	0	11.06	20054	0	0	5	5	0.02	-0.2428849	1	10	0.03	2000	3.097808	40.92393	-91.39365
488624	-29	0	11	-2.939257	-0.4081129	-8.510039	0	11.06	20054	0	0	5	5	0.02	-0.2409879	1	10	0.03	2000	3.087566	40.92393	-91.39365
488716	-27	0	3	-2.93216	-0.4050327	-8.519149	0	11.06	20054	0	0	5	5	0.02	-0.2313914	1	10	0.03	2000	3.32321	40.92393	-91.39365
488819	-22	-1	0	-2.932185	-0.4078	-8.528504	0	11.06	20054	0	0	5	5	0.02	-0.2327575	1	10	0.03	2000	3.282881	40.92393	-91.39365
488915	-29	0	12	-2.925523	-0.4133511	-8.537921	0	11.06	20054	0	0	5	5	0.02	-0.2294629	1	10	0.03	2000	3.066835	40.92393	-91.39365
489171	-26	2	4	-2.92437	-0.4028732	-8.558033	0	11.06	20054	0	0	5	5	0.02	-0.2248334	1	10	0.03	2000	3.292138	40.92393	-91.39365
489242	-31	0	5	-2.922374	-0.4008549	-8.563964	0	11.06	20054	0	0	5	5	0.02	-0.2160968	1	10	0.03	2000	3.058196	40.92393	-91.39365
489336	-28	0	5	-2.919787	-0.3964029	-8.575517	0	11.06	20054	0	0	5	5	0.02	-0.2037485	1	10	0.03	2000	3.067928	40.92393	-91.39365
489456	-27	-5	1	-2.918841	-0.3964317	-8.584261	0	11.06	20054	0	0	5	5	0.02	-0.1969418	1	10	0.03	2000	3.050253	40.92393	-91.39365
489536	-19	0	11	-2.920013	-0.3961565	-8.59019	0	11.06	20054	0	0	5	5	0.02	-0.1977305	1	10	0.03	2000	3.067449	40.92393	-91.39365
489640	-29	-6	3	-2.922688	-0.3894229	-8.598015	0	11.06	20054	0	0	5	5	0.02	-0.2039182	1	10	0.03	2000	3.272376	40.92393	-91.39365
489790	-24	-3	0	-2.916193	-0.3852683	-8.607733	0	11	20054	0	0	5	5	0.02	-0.2041523	1	10	0.03	2000	3.27356	40.92393	-91.39365
489863	-26	7	3	-2.912739	-0.3837078	-8.614577	0	11	20054	0	0	5	5	0.02	-0.2038388	1	10	0.03	2000	3.041582	40.92393	-91.39365
490014	-26	-3	5	-2.908133	-0.380707	-8.624971	0	11	20054	0	0	5	5	0.02	-0.1948656	1	10	0.03	2000	3.043773	40.92393	-91.39365
490102	-25	1	4	-2.902599	-0.3856741	-8.635794	0	11	20054	0	0	5	5	0.02	-0.1915114	1	10	0.03	2000	3.042524	40.92393	-91.39365
490151	-25	0	2	-2.904198	-0.3851525	-8.638422	0	11	20054	0	0	5	5	0.02	-0.1791475	1	10	0.03	2000	3.252148	40.92393	-91.39365
490245	-24	3	6	-2.900698	-0.3894576	-8.646557	0	11	20054	0	0	5	5	0.02	-0.1752571	1	10	0.03	2000	3.01548	40.92393	-91.39364
490319	-27	5	6	-2.898611	-0.3931929	-8.650959	0	11	20054	0	0	5	5	0.02	-0.1711987	1	10	0.03	2000	3.013846	40.92393	-91.39364
490454	-31	0	3	-2.89467	-0.3939771	-8.659636	0	11	20054	0	0	5	5	0.02	-0.1702541	1	10	0.03	2000	3.020415	40.92393	-91.39364
490547	-26	3	5	-2.887697	-0.402822	-8.667644	0	11	20054	0	0	5	5	0.02	-0.1684984	1	10	0.03	2000	3.002078	40.92393	-91.39364
490668	-25	3	2	-2.889056	-0.4080248	-8.673512	0	11	20054	0	0	5	5	0.02	-0.1611425	1	10	0.03	2000	3.217867	40.92393	-91.39364
490766	-21	4	0	-2.890579	-0.4059933	-8.682194	0	11	20054	0	0	5	5	0.02	-0.1538418	1	10	0.03	2000	3.243353	40.92393	-91.39364
490812	-30	3	8	-2.893009	-0.4070652	-8.684944	0	11	20054	0	0	5	5	0.02	-0.1479668	1	10	0.03	2000	3.243353	40.92393	-91.39364
490950	-25	-3	3	-2.895877	-0.4001383	-8.698454	0	11	20054	0	0	5	5	0.02	-0.1388108	1	10	0.03	2000	3.484067	40.92393	-91.39364
491019	-25	1	0	-2.893348	-0.3958458	-8.700838	0	11	20054	0	0	5	5	0.02	-0.1331032	1	10	0.03	2000	3.484067	40.92393	-91.39364
491113	-31	2	2	-2.892821	-0.4010577	-8.710251	0	11	20054	0	0	5	5	0.02	-0.1261791	1	10	0.03	2000	3.015455	40.92393	-91.39364
491260	-28	2	5	-2.888454	-0.4071446	-8.718621	0	11	20054	0	0	5	5	0.02	-0.1258282	1	10	0.03	2000	3.008895	40.92393	-91.39364
491374	-27	-5	5	-2.881634	-0.4049196	-8.727482	0	11	20054	0	0	5	5	0.02	-0.1365779	1	10	0.03	2000	3.012315	40.92393	-91.39364
491443	-21	0	2	-2.877479	-0.4062278	-8.730844	0	11	20054	0	0	5	5	0.02	-0.1485302	1	10	0.03	2000	3.200095	40.92393	-91.39364
491622	-30	0	8	-2.872606	-0.3962795	-8.740502	0	11.11	20054	0	0	5	5	0.02	-0.1676062	1	10	0.03	2000	3.204916	40.92393	-91.39364
491654	-20	1	1	-2.87399	-0.3937088	-8.741419	0	11.11	20054	0	0	5	5	0.02	-0.1728986	1	10	0.03	2000	3.204916	40.92393	-91.39364
491718	-27	0	2	-2.876175	-0.3872536	-8.744598	0	11.11	20054	0	0	5	5	0.02	-0.1844069	1	10	0.03	2000	2.985675	40.92393	-91.39364
491862	-18	0	0	-2.873584	-0.3899036	-8.753403	0	11.11	20054	0	0	5	5	0.02	-0.1887289	1	10	0.03	2000	3.220762	40.92393	-91.39364
491920	-16	4	7	-2.867095	-0.3837224	-8.755724	0	11.11	20054	0	0	5	5	0.02	-0.1922987	1	10	0.03	2000	3.206615	40.92393	-91.39364
492068	-25	1	2	-2.864783	-0.3917663	-8.759937	0	11.11	20054	0	0	5	5	0.02	-0.2048802	1	10	0.03	2000	3.202439	40.92393	-91.39364
492129	-27	-2	0	-2.864187	-0.3898718	-8.761038	0	11.11	20054	0	0	5	5	0.02	-0.213505	1	10	0.03	2000	3.191341	40.92393	-91.39364
492229	-12	0	3	-2.857995	-0.3890688	-8.768125	0	11.11	20054	0	0	5	5	0.02	-0.2204804	1	10	0.03	2000	3.19113	40.92393	-91.39364
492385	-24	1	2	-2.846651	-0.3851968	-8.774787	0	11.11	20054	0	0	5	5	0.02	-0.2345159	1	10	0.03	2000	3.179346	40.92393	-91.39364
