time(ms)	gyro_x(deg/s)	gyro_y(deg/s)	gyro_z(deg/s)	orientation_roll(deg)	orientation_pitch(deg)	orientation_yaw(deg)	throttle	battery(V)	loop_time(uS)	pid_output_roll	pid_output_pitch	pid_output_yaw	pid_output_throttle	ultrasonic_alt	baro_alt	flight_mode	p_gain_altitude	i_gain_altitude	d_gain_altitude	compass_heading	latitude	longitude
215453	-67	7	9	-0.7102964	0.01485673	-10.06885	0	11.63	20026	0	0	5	5	0.02	0.08017464	1	10	0.03	2000	-0.7338257	40.92392	-91.39364
215559	-59	-1	6	-0.7099046	0.007148669	-10.07796	0	11.63	20026	0	0	5	5	0.02	0.07835111	1	10	0.03	2000	-0.7315674	40.92392	-91.39364
215698	-54	4	8	-0.7024744	0.01326297	-10.09012	0	11.63	20026	0	0	5	5	0.02	0.07719779	1	10	0.03	2000	-0.7398071	40.92392	-91.39364
215864	-58	7	8	-0.7032052	0.01992118	-10.10363	0	11.63	20026	0	0	5	5	0.02	0.0789324	1	10	0.03	2000	-0.7357788	40.92392	-91.39364
216064	-61	3	4	-0.7000656	0.01325308	-10.12344	0	11.63	20026	0	0	5	5	0.02	0.1021319	1	10	0.03	2000	-0.7514038	40.92392	-91.39364
216254	-56	4	2	-0.7056025	0.01459332	-10.14007	0	11.68	20026	0	0	5	5	0.02	0.1260221	1	10	0.03	2000	-0.7370911	40.92392	-91.39364
216323	-53	2	13	-0.7059376	0.008473358	-10.14685	0	11.68	20026	0	0	5	5	0.02	0.1313878	1	10	0.03	2000	-0.7370911	40.92392	-91.39364
216476	-55	-2	7	-0.7033553	0.006533785	-10.16324	0	11.68	20026	0	0	5	5	0.02	0.1372568	1	10	0.03	2000	-0.7409668	40.92392	-91.39364
216522	-57	7	7	-0.7030222	0.005439521	-10.16654	0	11.68	20026	0	0	5	5	0.02	0.1387123	1	10	0.03	2000	-0.7409668	40.92393	-91.39364
216692	-57	1	3	-0.7036817	0.007670121	-10.17992	0	11.68	20026	0	0	5	5	0.02	0.1464697	1	10	0.03	2000	-0.739502	40.92393	-91.39364
216791	-62	6	4	-0.7025974	0.003166404	-10.19093	0	11.68	20026	0	0	5	5	0.02	0.150466	1	10	0.03	2000	-0.749115	40.92393	-91.39364
216852	-58	1	3	-0.7018806	0.0004844289	-10.19497	0	11.68	20026	0	0	5	5	0.02	0.1551338	1	10	0.03	2000	-0.9717102	40.92393	-91.39364
216955	-58	2	3	-0.7077283	-0.006987005	-10.20683	0	11.68	20026	0	0	5	5	0.02	0.166638	1	10	0.03	2000	-0.970459	40.92393	-91.39364
217103	-61	-3	7	-0.7016369	0.001452713	-10.21814	0	11.74	20026	0	0	5	5	0.02	0.1734611	1	10	0.03	2000	-0.9658508	40.92393	-91.39364
217167	-55	-4	3	-0.7005168	0.004589291	-10.22682	0	11.74	20026	0	0	5	5	0.02	0.1794195	1	10	0.03	2000	-0.749176	40.92393	-91.39364
217262	-59	0	7	-0.7039011	0.007202437	-10.23244	0	11.74	20026	0	0	5	5	0.02	0.1865899	1	10	0.03	2000	-0.750061	40.92393	-91.39364
217399	-57	2	3	-0.6969428	-0.001145397	-10.24736	0	11.74	20026	0	0	5	5	0.02	0.1900626	1	10	0.03	2000	-0.7426758	40.92393	-91.39364
217456	-57	2	3	-0.6969428	-0.001145397	-10.24736	0	11.74	20026	0	0	5	5	0.02	0.188689	1	10	0.03	2000	-0.751709	40.92393	-91.39364
217587	-61	-1	6	-0.6998982	-0.003225337	-10.26008	0	11.74	20026	0	0	5	5	0.02	0.1914584	1	10	0.03	2000	-0.7519226	40.92393	-91.39364
217683	-58	0	5	-0.7011424	-0.0005584014	-10.27273	0	11.74	20026	0	0	5	5	0.02	0.1967673	1	10	0.03	2000	-0.7478943	40.92393	-91.39364
217829	-62	1	9	-0.7010956	0.0096959	-10.28569	0	11.74	20026	0	0	5	5	0.02	0.2101999	1	10	0.03	2000	-0.9784241	40.92393	-91.39364
217908	-50	-3	11	-0.7024365	0.01068169	-10.29461	0	11.74	20026	0	0	5	5	0.02	0.2168624	1	10	0.03	2000	-0.7453918	40.92393	-91.39364
217973	-49	0	8	-0.6988458	0.01008132	-10.29938	0	11.63	20026	0	0	5	5	0.02	0.2292707	1	10	0.03	2000	-0.9707947	40.92393	-91.39364
218136	-58	0	7	-0.7019175	0.01171589	-10.31283	0	11.63	20026	0	0	5	5	0.02	0.2423131	1	10	0.03	2000	-0.7334595	40.92393	-91.39364
218253	-56	5	0	-0.6987534	0.01497397	-10.32463	0	11.63	20026	0	0	5	5	0.02	0.2500956	1	10	0.03	2000	-0.7489929	40.92393	-91.39364
218351	-59	1	3	-0.698663	0.01695245	-10.33043	0	11.63	20026	0	0	5	5	0.02	0.2558567	1	10	0.03	2000	-0.7542725	40.92393	-91.39364
218395	-57	1	10	-0.7015836	0.01701272	-10.3371	0	11.63	20026	0	0	5	5	0.02	0.2562213	1	10	0.03	2000	-0.9802246	40.92392	-91.39364
218487	-54	-3	6	-0.6884601	0.0205951	-10.34633	0	11.63	20026	0	0	5	5	0.02	0.2561102	1	10	0.03	2000	-0.7558289	40.92392	-91.39364
218706	-55	5	6	-0.6858563	0.02610965	-10.35917	0	11.63	20026	0	0	5	5	0.02	0.244965	1	10	0.03	2000	-0.7697754	40.92392	-91.39364
218847	-48	-2	4	-0.6802917	0.02719138	-10.37494	0	11.63	20026	0	0	5	5	0.02	0.2405368	1	10	0.03	2000	-1.013062	40.92393	-91.39364
218909	-56	4	2	-0.6790752	0.02417427	-10.38038	0	11.68	20026	0	0	5	5	0.02	0.239741	1	10	0.03	2000	-0.7778015	40.92393	-91.39364
219086	-56	-3	4	-0.6728142	0.02408566	-10.39218	0	11.68	20026	0	0	5	5	0.02	0.2308383	1	10	0.03	2000	-1.021179	40.92393	-91.39364
219159	-55	-2	7	-0.6758939	0.02228437	-10.39786	0	11.68	20026	0	0	5	5	0.02	0.2316993	1	10	0.03	2000	-0.7862854	40.92392	-91.39364
219239	-60	3	2	-0.6769313	0.02462384	-10.40954	0	11.68	20026	0	0	5	5	0.02	0.2295957	1	10	0.03	2000	-0.7775574	40.92392	-91.39364
219299	-52	3	8	-0.6747877	0.02583301	-10.41265	0	11.68	20026	0	0	5	5	0.02	0.2244262	1	10	0.03	2000	-0.7824707	40.92393	-91.39364
219400	-53	0	7	-0.6726766	0.02450392	-10.42415	0	11.68	20026	0	0	5	5	0.02	0.2186591	1	10	0.03	2000	-1.254303	40.92393	-91.39364
219488	-54	-1	11	-0.6770105	0.02355459	-10.43741	0	11.68	20026	0	0	5	5	0.02	0.2219339	1	10	0.03	2000	-0.7812195	40.92393	-91.39364
219618	-60	1	5	-0.6749328	0.02264598	-10.44536	0	11.68	20026	0	0	5	5	0.02	0.2272033	1	10	0.03	2000	-0.7802124	40.92393	-91.39364
219698	-54	-5	2	-0.6767113	0.02385742	-10.45	0	11.68	20026	0	0	5	5	0.02	0.2309941	1	10	0.03	2000	-1.016724	40.92392	-91.39364
219924	-52	1	7	-0.6821131	0.02311555	-10.46871	0	11.63	20026	0	0	5	5	0.02	0.225519	1	10	0.03	2000	-1.008392	40.92393	-91.39364
220016	-57	1	4	-0.6819462	0.02298602	-10.47586	0	11.63	20026	0	0	5	5	0.02	0.2127532	1	10	0.03	2000	-0.7721863	40.92393	-91.39364
220149	-56	6	3	-0.6767737	0.02372186	-10.48619	0	11.63	20026	0	0	5	5	0.02	0.2055319	1	10	0.03	2000	-1.018311	40.92393	-91.39364
220257	-56	1	9	-0.6726744	0.02290107	-10.49603	0	11.63	20026	0	0	5	5	0.02	0.1994209	1	10	0.03	2000	-1.015594	40.92393	-91.39364
220336	-52	0	5	-0.6726028	0.01713486	-10.50257	0	11.63	20026	0	0	5	5	0.02	0.1977921	1	10	0.03	2000	-0.7927551	40.92393	-91.39364
220489	-53	4	2	-0.6664801	0.009876312	-10.51474	0	11.63	20026	0	0	5	5	0.02	0.1967088	1	10	0.03	2000	-0.796051	40.92393	-91.39364
220557	-53	2	6	-0.661965	0.01094119	-10.52006	0	11.63	20026	0	0	5	5	0.02	0.1966523	1	10	0.03	2000	-0.7987671	40.92393	-91.39364
220659	-55	6	6	-0.657995	0.004933723	-10.52715	0	11.63	20026	0	0	5	5	0.02	0.2037676	1	10	0.03	2000	-1.037506	40.92393	-91.39364
220718	-53	1	0	-0.65653	0.005239852	-10.53308	0	11.63	20026	0	0	5	5	0.02	0.208742	1	10	0.03	2000	-1.037506	40.92393	-91.39364
220813	-52	1	7	-0.650772	0.009871142	-10.54255	0	11.63	20026	0	0	5	5	0.02	0.2077689	1	10	0.03	2000	-1.051208	40.92393	-91.39364
220853	-54	5	3	-0.6488008	0.009574719	-10.54518	0	11.63	20026	0	0	5	5	0.02	0.2059755	1	10	0.03	2000	-1.051208	40.92393	-91.39364
221069	-50	5	7	-0.6346876	0.01189701	-10.5664	0	11.63	20026	0	0	5	5	0.02	0.1979987	1	10	0.03	2000	-0.8435669	40.92393	-91.39364
221170	-52	4	1	-0.6354305	0.003660647	-10.57667	0	11.63	20026	0	0	5	5	0.02	0.1961839	1	10	0.03	2000	-1.07901	40.92393	-91.39364
221259	-53	3	8	-0.6381798	3.487102E-05	-10.58321	0	11.63	20026	0	0	5	5	0.02	0.19256	1	10	0.03	2000	-0.8495483	40.92393	-91.39364
221361	-53	0	7	-0.6361746	-0.002106776	-10.5933	0	11.63	20026	0	0	5	5	0.02	0.1759959	1	10	0.03	2000	-0.8502502	40.92393	-91.39364
221471	-44	-2	5	-0.6278477	-0.008357885	-10.60113	0	11.63	20026	0	0	5	5	0.02	0.1671363	1	10	0.03	2000	-0.8519592	40.92393	-91.39364
221588	-51	0	5	-0.6278031	-0.008978654	-10.61054	0	11.63	20026	0	0	5	5	0.02	0.1626178	1	10	0.03	2000	-0.8658447	40.92393	-91.39364
221671	-53	0	1	-0.6270143	-0.00219692	-10.61561	0	11.63	20026	0	0	5	5	0.02	0.1654114	1	10	0.03	2000	-0.8591003	40.92393	-91.39364
221763	-51	0	5	-0.6183524	0.0008090569	-10.62503	0	11.63	20026	0	0	5	5	0.02	0.1704047	1	10	0.03	2000	-0.8732605	40.92393	-91.39364
221897	-52	-4	3	-0.6143281	0.000991486	-10.63175	0	11.63	20026	0	0	5	5	0.02	0.1706237	1	10	0.03	2000	-0.8792419	40.92393	-91.39364
222014	-47	-1	-1	-0.606693	0.001076515	-10.64086	0	11.63	20026	0	0	5	5	0.02	0.1787588	1	10	0.03	2000	-0.8962097	40.92393	-91.39364
222084	-48	1	7	-0.6077979	0.001723691	-10.64612	0	11.63	20026	0	0	5	5	0.02	0.1833484	1	10	0.03	2000	-1.121185	40.92393	-91.39364
222166	-46	0	4	-0.6059129	0.00357059	-10.65082	0	11.63	20026	0	0	5	5	0.02	0.1862857	1	10	0.03	2000	-1.127655	40.92393	-91.39364
222313	-44	-1	-1	-0.6098607	0.0006848511	-10.66354	0	11.63	20026	0	0	5	5	0.02	0.181476	1	10	0.03	2000	-0.891449	40.92393	-91.39364
222374	-50	2	5	-0.6066096	0.001851533	-10.66733	0	11.63	20026	0	0	5	5	0.02	0.1798109	1	10	0.03	2000	-0.8909607	40.92393	-91.39364
222473	-46	0	6	-0.5982099	0.005082355	-10.67656	0	11.63	20026	0	0	5	5	0.02	0.1761385	1	10	0.03	2000	-1.131256	40.92393	-91.39364
222581	-45	-1	8	-0.5980185	0.008211441	-10.68408	0	11.63	20026	0	0	5	5	0.02	0.1617709	1	10	0.03	2000	-0.9069519	40.92393	-91.39364
222675	-45	0	3	-0.5978599	0.008285522	-10.6908	0	11.63	20026	0	0	5	5	0.02	0.1584844	1	10	0.03	2000	-0.9099426	40.92393	-91.39364
222796	-47	-2	5	-0.5994481	0.01011329	-10.69967	0	11.63	20026	0	0	5	5	0.02	0.1549658	1	10	0.03	2000	-1.13504	40.92393	-91.39364
222887	-49	0	3	-0.5997152	0.00969886	-10.7037	0	11.63	20026	0	0	5	5	0.02	0.1533873	1	10	0.03	2000	-0.9043274	40.92393	-91.39364
222984	-47	0	5	-0.603387	0.01801419	-10.71109	0	11.63	20026	0	0	5	5	0.02	0.1499036	1	10	0.03	2000	-1.135406	40.92393	-91.39364
223070	-50	1	3	-0.600709	0.01518252	-10.71464	0	11.63	20026	0	0	5	5	0.02	0.1465942	1	10	0.03	2000	-0.9069824	40.92393	-91.39364
223176	-47	2	8	-0.5978356	0.009905858	-10.72454	0	11.63	20026	0	0	5	5	0.02	0.1369508	1	10	0.03	2000	-1.138824	40.92393	-91.39364
223278	-50	-1	4	-0.5901412	0.009864913	-10.73157	0	11.63	20026	0	0	5	5	0.02	0.1262677	1	10	0.03	2000	-1.143921	40.92393	-91.39364
223396	-42	0	3	-0.5853983	0.002717724	-10.74215	0	11.63	20026	0	0	5	5	0.02	0.1176985	1	10	0.03	2000	-0.9244995	40.92393	-91.39364
223478	-43	-3	0	-0.5827746	-0.0002148024	-10.74704	0	11.63	20026	0	0	5	5	0.02	0.1037053	1	10	0.03	2000	-1.156952	40.92393	-91.39364
223585	-44	-1	0	-0.5853589	-0.006278021	-10.75376	0	11.63	20026	0	0	5	5	0.02	0.08994657	1	10	0.03	2000	-1.158447	40.92393	-91.39364
223718	-55	-3	5	-0.5731866	0.0003466151	-10.76318	0	11.63	20026	0	0	5	5	0.02	0.08777826	1	10	0.03	2000	-1.172089	40.92393	-91.39364
223774	-47	4	5	-0.570181	0.003667965	-10.76568	0	11.63	20026	0	0	5	5	0.02	0.09442045	1	10	0.03	2000	-1.172089	40.92393	-91.39364
223921	-53	2	1	-0.5710309	0.007714435	-10.77742	0	11.63	20026	0	0	5	5	0.02	0.1036762	1	10	0.03	2000	-0.9507751	40.92393	-91.39364
223976	-45	-1	1	-0.5643758	0.004531238	-10.77888	0	11.63	20026	0	0	5	5	0.02	0.1065197	1	10	0.03	2000	-0.95224	40.92393	-91.39364
224091	-44	2	0	-0.5710844	0.006410978	-10.78286	0	11.63	20026	0	0	5	5	0.02	0.1129993	1	10	0.03	2000	-0.9546509	40.92393	-91.39364
224210	-47	0	1	-0.5705174	0.009898975	-10.79043	0	11.63	20026	0	0	5	5	0.02	0.1286772	1	10	0.03	2000	-1.174255	40.92393	-91.39364
224287	-51	1	0	-0.5681232	0.006036529	-10.79496	0	11.63	20026	0	0	5	5	0.02	0.1333926	1	10	0.03	2000	-1.185059	40.92393	-91.39364
224445	-49	0	1	-0.5685051	-0.006066081	-10.80266	0	11.63	20026	0	0	5	5	0.02	0.1435433	1	10	0.03	2000	-0.9515381	40.92393	-91.39364
224507	-50	5	1	-0.5636653	-0.006539677	-10.80779	0	11.63	20026	0	0	5	5	0.02	0.1462954	1	10	0.03	2000	-0.9549866	40.92393	-91.39364
224593	-49	4	5	-0.5660897	-0.004445095	-10.81061	0	11.63	20026	0	0	5	5	0.02	0.1511247	1	10	0.03	2000	-0.9615784	40.92393	-91.39364
224687	-49	6	6	-0.5648991	0.004862341	-10.81635	0	11.63	20026	0	0	5	5	0.02	0.1569214	1	10	0.03	2000	-0.9603271	40.92393	-91.39364
224815	-38	5	7	-0.5625261	0.007867235	-10.82503	0	11.63	20026	0	0	5	5	0.02	0.1730406	1	10	0.03	2000	-0.9595947	40.92393	-91.39364
224900	-47	-4	7	-0.5634964	0.01000974	-10.83023	0	11.63	20026	0	0	5	5	0.02	0.2033973	1	10	0.03	2000	-1.19043	40.92393	-91.39364
225112	-46	3	5	-0.5620845	0.001825229	-10.84674	0	11.63	20026	0	0	5	5	0.02	0.2346734	1	10	0.03	2000	-0.9652405	40.92393	-91.39364
225238	-41	3	4	-0.5536551	0.006907909	-10.8545	0	11.63	20026	0	0	5	5	0.02	0.2378397	1	10	0.03	2000	-0.9794312	40.92393	-91.39364
225297	-46	2	3	-0.5517791	0.007146093	-10.85548	0	11.63	20026	0	0	5	5	0.02	0.2442727	1	10	0.03	2000	-0.9794312	40.92393	-91.39364
225430	-47	8	4	-0.549311	0.007719677	-10.86556	0	11.63	20026	0	0	5	5	0.02	0.2528452	1	10	0.03	2000	-0.9821777	40.92393	-91.39364
225578	-47	-1	5	-0.5496641	0.008106401	-10.87504	0	11.63	20026	0	0	5	5	0.02	0.2673153	1	10	0.03	2000	-0.9868774	40.92393	-91.39364
225652	-45	1	-1	-0.5473102	0.01091644	-10.88011	0	11.63	20026	0	0	5	5	0.02	0.278645	1	10	0.03	2000	-0.9907532	40.92393	-91.39364
225718	-39	5	4	-0.5490252	0.006094986	-10.88384	0	11.63	20026	0	0	5	5	0.02	0.291788	1	10	0.03	2000	-0.9881592	40.92393	-91.39364
225806	-43	2	2	-0.5420099	0.009959199	-10.88873	0	11.63	20026	0	0	5	5	0.02	0.3056996	1	10	0.03	2000	-0.9901733	40.92393	-91.39364
226005	-49	0	1	-0.5314634	0.01945566	-10.9004	0	11.63	20026	0	0	5	5	0.02	0.3309985	1	10	0.03	2000	-1.008606	40.92393	-91.39364
226077	-46	5	2	-0.5327504	0.01797398	-10.90737	0	11.63	20026	0	0	5	5	0.02	0.3533109	1	10	0.03	2000	-1.244781	40.92393	-91.39364
226151	-44	-1	4	-0.5315817	0.0240778	-10.91073	0	11.63	20026	0	0	5	5	0.02	0.3603885	1	10	0.03	2000	-1.010101	40.92393	-91.39364
226247	-47	1	3	-0.5336272	0.01450367	-10.91629	0	11.68	20026	0	0	5	5	0.02	0.3800506	1	10	0.03	2000	-1.004059	40.92393	-91.39364
226294	-45	0	5	-0.5339994	0.006596415	-10.92051	0	11.68	20026	0	0	5	5	0.02	0.382632	1	10	0.03	2000	-1.004669	40.92393	-91.39364
226392	-39	0	7	-0.5265765	0.0137496	-10.92583	0	11.68	20026	0	0	5	5	0.02	0.3970243	1	10	0.03	2000	-1.004669	40.92393	-91.39364
226570	-49	1	4	-0.5340474	0.01298048	-10.93744	0	11.68	20026	0	0	5	5	0.02	0.4050491	1	10	0.03	2000	-1.008545	40.92393	-91.39364
226633	-47	-1	7	-0.536849	0.01476424	-10.93879	0	11.68	20026	0	0	5	5	0.02	0.4056167	1	10	0.03	2000	-1.004822	40.92393	-91.39364
226724	-45	3	5	-0.5348266	0.009611889	-10.9482	0	11.68	20026	0	0	5	5	0.02	0.4031257	1	10	0.03	2000	-0.9998779	40.92393	-91.39364
226868	-47	-4	2	-0.5413677	0.01512858	-10.95566	0	11.68	20026	0	0	5	5	0.02	0.3948543	1	10	0.03	2000	-0.9955444	40.92393	-91.39364
226923	-49	2	3	-0.5421457	0.01292462	-10.96031	0	11.68	20026	0	0	5	5	0.02	0.3984388	1	10	0.03	2000	-0.9955444	40.92393	-91.39364
227070	-47	0	4	-0.5418426	0.009247762	-10.96941	0	11.68	20026	0	0	5	5	0.02	0.4033471	1	10	0.03	2000	-0.992157	40.92393	-91.39364
227098	-46	1	4	-0.5432749	0.01065959	-10.9724	0	11.68	20026	0	0	5	5	0.02	0.4065604	1	10	0.03	2000	-0.9949646	40.92393	-91.39364
227274	-43	1	3	-0.5375809	4.730913E-05	-10.98879	0	11.68	20026	0	0	5	5	0.02	0.4207789	1	10	0.03	2000	-1.232758	40.92393	-91.39364
227303	-42	5	1	-0.5401448	0.003154964	-10.99031	0	11.68	20026	0	0	5	5	0.02	0.4268458	1	10	0.03	2000	-1.232758	40.92393	-91.39364
227457	-42	-2	0	-0.5444688	0.001791704	-11.00382	0	11.68	20026	0	0	5	5	0.02	0.4414844	1	10	0.03	2000	-1.230194	40.92393	-91.39364
227556	-46	1	6	-0.539207	0.0008664649	-11.00816	0	11.68	20026	0	0	5	5	0.02	0.4479246	1	10	0.03	2000	-1.226532	40.92393	-91.39364
227647	-43	3	2	-0.5360475	0.005116999	-11.01843	0	11.68	20026	0	0	5	5	0.02	0.4472718	1	10	0.03	2000	-1.007202	40.92393	-91.39364
227752	-42	6	4	-0.5406034	-2.955684E-05	-11.0221	0	11.68	20026	0	0	5	5	0.02	0.4424899	1	10	0.03	2000	-1.238159	40.92393	-91.39363
227859	-46	1	3	-0.5401444	0.0019073	-11.03023	0	11.68	20026	0	0	5	5	0.02	0.4431821	1	10	0.03	2000	-0.9930115	40.92393	-91.39363
227894	-34	-2	1	-0.5337833	-0.0008232011	-11.03249	0	11.68	20026	0	0	5	5	0.02	0.4430232	1	10	0.03	2000	-1.003601	40.92393	-91.39363
228033	-47	4	3	-0.533172	-0.006245286	-11.04025	0	11.68	20026	0	0	5	5	0.02	0.4479092	1	10	0.03	2000	-1.241516	40.92393	-91.39363
228135	-40	-2	3	-0.5367845	-0.002984065	-11.046	0	11.68	20026	0	0	5	5	0.02	0.4493559	1	10	0.03	2000	-1.233307	40.92393	-91.39363
228161	-45	0	3	-0.5381061	-0.001239581	-11.04752	0	11.68	20026	0	0	5	5	0.02	0.4498571	1	10	0.03	2000	-1.233307	40.92393	-91.39363
228313	-40	-9	-2	-0.5345913	0.005718131	-11.0515	0	11.68	20026	0	0	5	5	0.02	0.4507593	1	10	0.03	2000	-1.239532	40.92393	-91.39363
228399	-47	-1	0	-0.5214649	0.004858743	-11.05981	0	11.68	20026	0	0	5	5	0.02	0.4485878	1	10	0.03	2000	-1.021393	40.92393	-91.39363
228516	-45	0	0	-0.5246238	0.01770079	-11.06433	0	11.68	20026	0	0	5	5	0.02	0.452823	1	10	0.03	2000	-1.25705	40.92393	-91.39363
228577	-42	-3	4	-0.5244689	0.0145381	-11.06574	0	11.68	20026	0	0	5	5	0.02	0.4576021	1	10	0.03	2000	-1.25705	40.92393	-91.39363
228748	-35	3	1	-0.5238484	0.01962488	-11.07919	0	11.68	20026	0	0	5	5	0.02	0.4640977	1	10	0.03	2000	-1.257813	40.92393	-91.39363
228806	-36	0	5	-0.5203527	0.02076828	-11.08273	0	11.68	20026	0	0	5	5	0.02	0.4663476	1	10	0.03	2000	-1.261169	40.92393	-91.39363
229010	-37	4	6	-0.5183119	0.01815831	-11.09649	0	11.68	20026	0	0	5	5	0.02	0.4635647	1	10	0.03	2000	-1.033936	40.92393	-91.39363
229173	-45	-1	2	-0.5104128	0.009172844	-11.10835	0	11.68	20026	0	0	5	5	0.02	0.4576552	1	10	0.03	2000	-1.035492	40.92393	-91.39363
229259	-44	7	1	-0.513559	0.01239976	-11.11213	0	11.68	20026	0	0	5	5	0.02	0.4556261	1	10	0.03	2000	-1.275848	40.92393	-91.39363
229329	-39	2	6	-0.5135401	0.01261532	-11.11947	0	11.68	20026	0	0	5	5	0.02	0.4557742	1	10	0.03	2000	-1.043488	40.92393	-91.39363
229393	-39	0	5	-0.5172019	0.01363237	-11.12234	0	11.68	20026	0	0	5	5	0.02	0.4577107	1	10	0.03	2000	-1.266815	40.92393	-91.39363
229513	-44	4	5	-0.507557	0.001693268	-11.13029	0	11.68	20026	0	0	5	5	0.02	0.4575258	1	10	0.03	2000	-1.052582	40.92393	-91.39363
229630	-43	-2	3	-0.5164212	-0.003082462	-11.13475	0	11.68	20026	0	0	5	5	0.02	0.4641531	1	10	0.03	2000	-1.268188	40.92393	-91.39364
229664	-47	-1	3	-0.5123169	-0.002693412	-11.13799	0	11.68	20026	0	0	5	5	0.02	0.4661082	1	10	0.03	2000	-1.268188	40.92393	-91.39364
229764	-37	-2	4	-0.503212	-0.006285163	-11.1441	0	11.68	20026	0	0	5	5	0.02	0.4716321	1	10	0.03	2000	-1.050079	40.92393	-91.39364
229942	-37	6	6	-0.5069329	-0.01154547	-11.14918	0	11.63	20026	0	0	5	5	0.02	0.4767347	1	10	0.03	2000	-1.035889	40.92393	-91.39364
229973	-42	4	1	-0.5022817	-0.005724239	-11.15114	0	11.63	20026	0	0	5	5	0.02	0.4767347	1	10	0.03	2000	-1.035889	40.92393	-91.39364
230123	-44	-1	3	-0.514829	0.0004577481	-11.15929	0	11.63	20026	0	0	5	5	0.02	0.4852931	1	10	0.03	2000	-1.278625	40.92393	-91.39364
230171	-41	-4	4	-0.5084147	0.002337412	-11.16149	0	11.63	20026	0	0	5	5	0.02	0.4897707	1	10	0.03	2000	-1.278625	40.92393	-91.39364
230339	-51	4	5	-0.4981135	0.01152946	-11.17005	0	11.63	20026	0	0	5	5	0.02	0.4913855	1	10	0.03	2000	-1.525238	40.92393	-91.39364
230446	-34	3	8	-0.4948899	0.01173638	-11.17787	0	11.63	20026	0	0	5	5	0.02	0.4941756	1	10	0.03	2000	-1.294678	40.92393	-91.39364
230671	-39	6	4	-0.48403	0.004393779	-11.18887	0	11.63	20026	0	0	5	5	0.02	0.4959505	1	10	0.03	2000	-1.069855	40.92393	-91.39364
230774	-33	0	3	-0.4759337	0.01027613	-11.19511	0	11.74	20026	0	0	5	5	0.02	0.4900415	1	10	0.03	2000	-1.322693	40.92393	-91.39364
230847	-38	5	1	-0.4618303	0.01256914	-11.20109	0	11.74	20026	0	0	5	5	0.02	0.4870314	1	10	0.03	2000	-1.100464	40.92393	-91.39364
230938	-31	-2	1	-0.4486469	0.01179338	-11.20451	0	11.74	20026	0	0	5	5	0.02	0.4809468	1	10	0.03	2000	-1.13974	40.92393	-91.39364
231044	-43	-2	2	-0.4432391	0.0170671	-11.21167	0	11.74	20026	0	0	5	5	0.02	0.4723129	1	10	0.03	2000	-1.383209	40.92393	-91.39364
231168	-43	-2	2	-0.4432391	0.0170671	-11.21167	0	11.74	20026	0	0	5	5	0.02	0.4723129	1	10	0.03	2000	-1.383209	40.92393	-91.39364
231266	-43	-2	2	-0.4432391	0.0170671	-11.21167	0	11.74	20026	0	0	5	5	0.02	0.4723129	1	10	0.03	2000	-1.383209	40.92393	-91.39364
231368	-43	-2	2	-0.4432391	0.0170671	-11.21167	0	11.74	20026	0	0	5	5	0.02	0.4723129	1	10	0.03	2000	-1.383209	40.92393	-91.39364
231510	-43	-2	2	-0.4432391	0.0170671	-11.21167	0	11.74	20026	0	0	5	5	0.02	0.4723129	1	10	0.03	2000	-1.383209	40.92393	-91.39364
231620	-43	-2	2	-0.4432391	0.0170671	-11.21167	0	11.63	20026	0	0	5	5	0.02	0.4723129	1	10	0.03	2000	-1.383209	40.92393	-91.39364
231766	-43	-2	2	-0.4432391	0.0170671	-11.21167	0	11.63	20026	0	0	5	5	0.02	0.4723129	1	10	0.03	2000	-1.383209	40.92393	-91.39364
231813	-43	-2	2	-0.4432391	0.0170671	-11.21167	0	11.63	20026	0	0	5	5	0.02	0.4723129	1	10	0.03	2000	-1.383209	40.92393	-91.39364
231952	-43	-2	2	-0.4432391	0.0170671	-11.21167	0	11.63	20026	0	0	5	5	0.02	0.4723129	1	10	0.03	2000	-1.383209	40.92393	-91.39364
231974	-43	-2	2	-0.4432391	0.0170671	-11.21167	0	11.63	20026	0	0	5	5	0.02	0.4723129	1	10	0.03	2000	-1.383209	40.92393	-91.39364
232069	-43	-2	2	-0.4432391	0.0170671	-11.21167	0	11.63	20026	0	0	5	5	0.02	0.4723129	1	10	0.03	2000	-1.383209	40.92393	-91.39364
232123	-43	-2	2	-0.4432391	0.0170671	-11.21167	0	11.63	20026	0	0	5	5	0.02	0.4723129	1	10	0.03	2000	-1.383209	40.92393	-91.39364
232225	-43	-2	2	-0.4432391	0.0170671	-11.21167	0	11.63	20026	0	0	5	5	0.02	0.4723129	1	10	0.03	2000	-1.383209	40.92393	-91.39364
232358	-43	-2	2	-0.4432391	0.0170671	-11.21167	0	11.63	20026	0	0	5	5	0.02	0.4723129	1	10	0.03	2000	-1.383209	40.92393	-91.39364
232485	-43	-2	2	-0.4432391	0.0170671	-11.21167	0	11.68	20026	0	0	5	5	0.02	0.4723129	1	10	0.03	2000	-1.383209	40.92393	-91.39364
232544	-43	-2	2	-0.4432391	0.0170671	-11.21167	0	11.68	20026	0	0	5	5	0.02	0.4723129	1	10	0.03	2000	-1.383209	40.92393	-91.39364
232643	-43	-2	2	-0.4432391	0.0170671	-11.21167	0	11.68	20026	0	0	5	5	0.02	0.4723129	1	10	0.03	2000	-1.383209	40.92393	-91.39364
232734	-43	-2	2	-0.4432391	0.0170671	-11.21167	0	11.68	20026	0	0	5	5	0.02	0.4723129	1	10	0.03	2000	-1.383209	40.92393	-91.39364
232787	-43	-2	2	-0.4432391	0.0170671	-11.21167	0	11.68	20026	0	0	5	5	0.02	0.4723129	1	10	0.03	2000	-1.383209	40.92393	-91.39364
232951	-43	-2	2	-0.4432391	0.0170671	-11.21167	0	11.68	20026	0	0	5	5	0.02	0.4723129	1	10	0.03	2000	-1.383209	40.92393	-91.39364
233038	-43	-2	2	-0.4432391	0.0170671	-11.21167	0	11.68	20026	0	0	5	5	0.02	0.4723129	1	10	0.03	2000	-1.383209	40.92393	-91.39364
233093	-43	-2	2	-0.4432391	0.0170671	-11.21167	0	11.68	20026	0	0	5	5	0.02	0.4723129	1	10	0.03	2000	-1.383209	40.92393	-91.39364
233211	-43	-2	2	-0.4432391	0.0170671	-11.21167	0	11.68	20026	0	0	5	5	0.02	0.4723129	1	10	0.03	2000	-1.383209	40.92393	-91.39364
233285	-43	-2	2	-0.4432391	0.0170671	-11.21167	0	11.63	20026	0	0	5	5	0.02	0.4723129	1	10	0.03	2000	-1.383209	40.92393	-91.39364
233412	-43	-2	2	-0.4432391	0.0170671	-11.21167	0	11.63	20026	0	0	5	5	0.02	0.4723129	1	10	0.03	2000	-1.383209	40.92393	-91.39364
233491	-43	-2	2	-0.4432391	0.0170671	-11.21167	0	11.63	20026	0	0	5	5	0.02	0.4723129	1	10	0.03	2000	-1.383209	40.92393	-91.39364
233577	-43	-2	2	-0.4432391	0.0170671	-11.21167	0	11.63	20026	0	0	5	5	0.02	0.4723129	1	10	0.03	2000	-1.383209	40.92393	-91.39364
233717	-43	-2	2	-0.4432391	0.0170671	-11.21167	0	11.63	20026	0	0	5	5	0.02	0.4723129	1	10	0.03	2000	-1.383209	40.92393	-91.39364
233820	-43	-2	2	-0.4432391	0.0170671	-11.21167	0	11.63	20026	0	0	5	5	0.02	0.4723129	1	10	0.03	2000	-1.383209	40.92393	-91.39364
233916	-43	-2	2	-0.4432391	0.0170671	-11.21167	0	11.63	20026	0	0	5	5	0.02	0.4723129	1	10	0.03	2000	-1.383209	40.92393	-91.39364
233945	-43	-2	2	-0.4432391	0.0170671	-11.21167	0	11.63	20026	0	0	5	5	0.02	0.4723129	1	10	0.03	2000	-1.383209	40.92393	-91.39364
234095	-43	-2	2	-0.4432391	0.0170671	-11.21167	0	11.63	20026	0	0	5	5	0.02	0.4723129	1	10	0.03	2000	-1.383209	40.92393	-91.39364
234157	-43	-2	2	-0.4432391	0.0170671	-11.21167	0	11.63	20026	0	0	5	5	0.02	0.4723129	1	10	0.03	2000	-1.383209	40.92393	-91.39364
234303	-43	-2	2	-0.4432391	0.0170671	-11.21167	0	11.68	20026	0	0	5	5	0.02	0.4723129	1	10	0.03	2000	-1.383209	40.92393	-91.39364
234344	-43	-2	2	-0.4432391	0.0170671	-11.21167	0	11.68	20026	0	0	5	5	0.02	0.4723129	1	10	0.03	2000	-1.383209	40.92393	-91.39364
234468	-43	-2	2	-0.4432391	0.0170671	-11.21167	0	11.68	20026	0	0	5	5	0.02	0.4723129	1	10	0.03	2000	-1.383209	40.92393	-91.39364
234591	-43	-2	2	-0.4432391	0.0170671	-11.21167	0	11.68	20026	0	0	5	5	0.02	0.4723129	1	10	0.03	2000	-1.383209	40.92393	-91.39364
234665	-43	-2	2	-0.4432391	0.0170671	-11.21167	0	11.68	20026	0	0	5	5	0.02	0.4723129	1	10	0.03	2000	-1.383209	40.92393	-91.39364
234743	-43	-2	2	-0.4432391	0.0170671	-11.21167	0	11.68	20026	0	0	5	5	0.02	0.4723129	1	10	0.03	2000	-1.383209	40.92393	-91.39364
234886	-43	-2	2	-0.4432391	0.0170671	-11.21167	0	11.68	20026	0	0	5	5	0.02	0.4723129	1	10	0.03	2000	-1.383209	40.92393	-91.39364
234955	-43	-2	2	-0.4432391	0.0170671	-11.21167	0	11.68	20026	0	0	5	5	0.02	0.4723129	1	10	0.03	2000	-1.383209	40.92393	-91.39364
235032	-43	-2	2	-0.4432391	0.0170671	-11.21167	0	11.68	20026	0	0	5	5	0.02	0.4723129	1	10	0.03	2000	-1.383209	40.92393	-91.39364
235203	-43	-2	2	-0.4432391	0.0170671	-11.21167	0	11.68	20026	0	0	5	5	0.02	0.4723129	1	10	0.03	2000	-1.383209	40.92393	-91.39364
235291	-43	-2	2	-0.4432391	0.0170671	-11.21167	0	11.68	20026	0	0	5	5	0.02	0.4723129	1	10	0.03	2000	-1.383209	40.92393	-91.39364
235412	-43	-2	2	-0.4432391	0.0170671	-11.21167	0	11.68	20026	0	0	5	5	0.02	0.4723129	1	10	0.03	2000	-1.383209	40.92393	-91.39364
235469	-43	-2	2	-0.4432391	0.0170671	-11.21167	0	11.68	20026	0	0	5	5	0.02	0.4723129	1	10	0.03	2000	-1.383209	40.92393	-91.39364
235527	-43	-2	2	-0.4432391	0.0170671	-11.21167	0	11.68	20026	0	0	5	5	0.02	0.4723129	1	10	0.03	2000	-1.383209	40.92393	-91.39364
235664	-43	-2	2	-0.4432391	0.0170671	-11.21167	0	11.68	20026	0	0	5	5	0.02	0.4723129	1	10	0.03	2000	-1.383209	40.92393	-91.39364
235745	-43	-2	2	-0.4432391	0.0170671	-11.21167	0	11.68	20026	0	0	5	5	0.02	0.4723129	1	10	0.03	2000	-1.383209	40.92393	-91.39364
235824	-43	-2	2	-0.4432391	0.0170671	-11.21167	0	11.68	20026	0	0	5	5	0.02	0.4723129	1	10	0.03	2000	-1.383209	40.92393	-91.39364
235976	-43	-2	2	-0.4432391	0.0170671	-11.21167	0	11.68	20026	0	0	5	5	0.02	0.4723129	1	10	0.03	2000	-1.383209	40.92393	-91.39364
236122	-43	-2	2	-0.4432391	0.0170671	-11.21167	0	11.68	20026	0	0	5	5	0.02	0.4723129	1	10	0.03	2000	-1.383209	40.92393	-91.39364
236176	-43	-2	2	-0.4432391	0.0170671	-11.21167	0	11.68	20026	0	0	5	5	0.02	0.4723129	1	10	0.03	2000	-1.383209	40.92393	-91.39364
236292	-43	-2	2	-0.4432391	0.0170671	-11.21167	0	11.68	20026	0	0	5	5	0.02	0.4723129	1	10	0.03	2000	-1.383209	40.92393	-91.39364
236334	-43	-2	2	-0.4432391	0.0170671	-11.21167	0	11.68	20026	0	0	5	5	0.02	0.4723129	1	10	0.03	2000	-1.383209	40.92393	-91.39364
236446	-43	-2	2	-0.4432391	0.0170671	-11.21167	0	11.68	20026	0	0	5	5	0.02	0.4723129	1	10	0.03	2000	-1.383209	40.92393	-91.39364
236536	-43	-2	2	-0.4432391	0.0170671	-11.21167	0	11.68	20026	0	0	5	5	0.02	0.4723129	1	10	0.03	2000	-1.383209	40.92393	-91.39364
236615	-43	-2	2	-0.4432391	0.0170671	-11.21167	0	11.68	20026	0	0	5	5	0.02	0.4723129	1	10	0.03	2000	-1.383209	40.92393	-91.39364
236723	-43	-2	2	-0.4432391	0.0170671	-11.21167	0	11.68	20026	0	0	5	5	0.02	0.4723129	1	10	0.03	2000	-1.383209	40.92393	-91.39364
236865	-43	-2	2	-0.4432391	0.0170671	-11.21167	0	11.68	20026	0	0	5	5	0.02	0.4723129	1	10	0.03	2000	-1.383209	40.92393	-91.39364
236946	-43	-2	2	-0.4432391	0.0170671	-11.21167	0	11.74	20026	0	0	5	5	0.02	0.4723129	1	10	0.03	2000	-1.383209	40.92393	-91.39364
237043	-43	-2	2	-0.4432391	0.0170671	-11.21167	0	11.74	20026	0	0	5	5	0.02	0.4723129	1	10	0.03	2000	-1.383209	40.92393	-91.39364
237186	-43	-2	2	-0.4432391	0.0170671	-11.21167	0	11.74	20026	0	0	5	5	0.02	0.4723129	1	10	0.03	2000	-1.383209	40.92393	-91.39364
237233	-43	-2	2	-0.4432391	0.0170671	-11.21167	0	11.74	20026	0	0	5	5	0.02	0.4723129	1	10	0.03	2000	-1.383209	40.92393	-91.39364
237344	-43	-2	2	-0.4432391	0.0170671	-11.21167	0	11.74	20026	0	0	5	5	0.02	0.4723129	1	10	0.03	2000	-1.383209	40.92393	-91.39364
237467	-43	-2	2	-0.4432391	0.0170671	-11.21167	0	11.74	20026	0	0	5	5	0.02	0.4723129	1	10	0.03	2000	-1.383209	40.92393	-91.39364
237575	-43	-2	2	-0.4432391	0.0170671	-11.21167	0	11.74	20026	0	0	5	5	0.02	0.4723129	1	10	0.03	2000	-1.383209	40.92393	-91.39364
237746	-43	-2	2	-0.4432391	0.0170671	-11.21167	0	11.74	20026	0	0	5	5	0.02	0.4723129	1	10	0.03	2000	-1.383209	40.92393	-91.39364
237779	-43	-2	2	-0.4432391	0.0170671	-11.21167	0	11.74	20026	0	0	5	5	0.02	0.4723129	1	10	0.03	2000	-1.383209	40.92393	-91.39364
237879	-43	-2	2	-0.4432391	0.0170671	-11.21167	0	11.68	20026	0	0	5	5	0.02	0.4723129	1	10	0.03	2000	-1.383209	40.92393	-91.39364
237976	-43	-2	2	-0.4432391	0.0170671	-11.21167	0	11.68	20026	0	0	5	5	0.02	0.4723129	1	10	0.03	2000	-1.383209	40.92393	-91.39364
238064	-43	-2	2	-0.4432391	0.0170671	-11.21167	0	11.68	20026	0	0	5	5	0.02	0.4723129	1	10	0.03	2000	-1.383209	40.92393	-91.39364
238161	-43	-2	2	-0.4432391	0.0170671	-11.21167	0	11.68	20026	0	0	5	5	0.02	0.4723129	1	10	0.03	2000	-1.383209	40.92393	-91.39364
238268	-43	-2	2	-0.4432391	0.0170671	-11.21167	0	11.68	20026	0	0	5	5	0.02	0.4723129	1	10	0.03	2000	-1.383209	40.92393	-91.39364
238363	-43	-2	2	-0.4432391	0.0170671	-11.21167	0	11.68	20026	0	0	5	5	0.02	0.4723129	1	10	0.03	2000	-1.383209	40.92393	-91.39364
238501	-43	-2	2	-0.4432391	0.0170671	-11.21167	0	11.68	20026	0	0	5	5	0.02	0.4723129	1	10	0.03	2000	-1.383209	40.92393	-91.39364
238557	-43	-2	2	-0.4432391	0.0170671	-11.21167	0	11.68	20026	0	0	5	5	0.02	0.4723129	1	10	0.03	2000	-1.383209	40.92393	-91.39364
238659	-43	-2	2	-0.4432391	0.0170671	-11.21167	0	11.68	20026	0	0	5	5	0.02	0.4723129	1	10	0.03	2000	-1.383209	40.92393	-91.39364
238789	-43	-2	2	-0.4432391	0.0170671	-11.21167	0	11.63	20026	0	0	5	5	0.02	0.4723129	1	10	0.03	2000	-1.383209	40.92393	-91.39364
238887	-43	-2	2	-0.4432391	0.0170671	-11.21167	0	11.63	20026	0	0	5	5	0.02	0.4723129	1	10	0.03	2000	-1.383209	40.92393	-91.39364
238944	-43	-2	2	-0.4432391	0.0170671	-11.21167	0	11.63	20026	0	0	5	5	0.02	0.4723129	1	10	0.03	2000	-1.383209	40.92393	-91.39364
239049	-43	-2	2	-0.4432391	0.0170671	-11.21167	0	11.63	20026	0	0	5	5	0.02	0.4723129	1	10	0.03	2000	-1.383209	40.92393	-91.39364
239155	8	-2	2	1.008345	-0.4710391	-0.9623574	0	11.63	20026	0	0	5	5	0.02	0.1350169	1	10	0.03	2000	-3.525146	40.92393	-91.39365
239262	6	-2	0	0.8939573	-0.4167492	-0.9618073	0	11.63	20026	0	0	5	5	0.02	0.08211064	1	10	0.03	2000	-3.418823	40.92393	-91.39365
239357	11	-1	0	0.7945121	-0.3620323	-0.9618686	0	11.63	20026	0	0	5	5	0.02	0.0616783	1	10	0.03	2000	-3.165466	40.92393	-91.39365
239461	11	-2	2	0.7082974	-0.3195346	-0.9610129	0	11.63	20026	0	0	5	5	0.02	0.03732173	1	10	0.03	2000	-3.043182	40.92393	-91.39365
239608	7	-1	2	0.6031175	-0.2645963	-0.9594231	0	11.63	20026	0	0	5	5	0.02	0.01125368	1	10	0.03	2000	-3.088562	40.92393	-91.39365
239650	9	3	2	0.578548	-0.2519901	-0.9589952	0	11.63	20026	0	0	5	5	0.02	0.008791259	1	10	0.03	2000	-2.78656	40.92393	-91.39365
239837	6	-7	1	0.4573074	-0.1989705	-0.9575893	0	11.74	20026	0	0	5	5	0.02	-0.004035647	1	10	0.03	2000	-2.630066	40.92393	-91.39365
239937	9	-5	-2	0.4269175	-0.1842331	-0.9558772	0	11.74	20026	0	0	5	5	0.02	-0.01227764	1	10	0.03	2000	-2.555237	40.92393	-91.39365
239981	4	-3	-6	0.3836077	-0.1628435	-0.9541653	0	11.74	20026	0	0	5	5	0.02	-0.01293587	1	10	0.03	2000	-2.70224	40.92393	-91.39365
240086	11	-3	-9	0.3465862	-0.13765	-0.9524528	0	11.74	20026	0	0	5	5	0.02	-0.01724509	1	10	0.03	2000	-2.660706	40.92393	-91.39365
240193	5	-7	-1	0.3051195	-0.1163762	-0.9498844	0	11.74	20026	0	0	5	5	0.02	-0.02402669	1	10	0.03	2000	-2.368622	40.92393	-91.39365
240264	12	-4	-3	0.2871341	-0.1055124	-0.9474995	0	11.74	20026	0	0	5	5	0.02	-0.02644028	1	10	0.03	2000	-2.542633	40.92393	-91.39365
240344	8	-3	-2	0.264827	-0.1017394	-0.9465823	0	11.74	20026	0	0	5	5	0.02	-0.0303098	1	10	0.03	2000	-2.281494	40.92393	-91.39365
240488	8	2	0	0.2343629	-0.07804297	-0.9452982	0	11.74	20026	0	0	5	5	0.02	-0.03482862	1	10	0.03	2000	-2.478455	40.92393	-91.39365
240576	4	2	-6	0.218484	-0.06677959	-0.9423636	0	11.63	20026	0	0	5	5	0.02	-0.04049124	1	10	0.03	2000	-2.216858	40.92393	-91.39365
240645	1	4	1	0.2048638	-0.06860732	-0.941263	0	11.63	20026	0	0	5	5	0.02	-0.04474371	1	10	0.03	2000	-2.414948	40.92393	-91.39365
240758	5	-1	-1	0.1951842	-0.05851057	-0.9397955	0	11.63	20026	0	0	5	5	0.02	-0.0528111	1	10	0.03	2000	-2.14917	40.92393	-91.39365
240859	5	-2	2	0.1815047	-0.05436848	-0.9383893	0	11.63	20026	0	0	5	5	0.02	-0.05391133	1	10	0.03	2000	-2.370178	40.92393	-91.39365
241031	4	-1	1	0.1630816	-0.04260959	-0.9386951	0	11.63	20026	0	0	5	5	0.02	-0.06088907	1	10	0.03	2000	-2.327728	40.92393	-91.39365
241175	7	-2	-4	0.1440738	-0.03803596	-0.9388787	0	11.63	20026	0	0	5	5	0.02	-0.06577102	1	10	0.03	2000	-2.068176	40.92393	-91.39365
241295	4	0	1	0.1265136	-0.02661031	-0.9395511	0	11.63	20026	0	0	5	5	0.02	-0.06720451	1	10	0.03	2000	-2.28067	40.92393	-91.39365
241344	10	-5	0	0.1219271	-0.02768818	-0.9396123	0	11.63	20026	0	0	5	5	0.02	-0.06952221	1	10	0.03	2000	-2.28067	40.92393	-91.39365
241447	12	-3	0	0.1120641	-0.02575349	-0.9366776	0	11.63	20026	0	0	5	5	0.02	-0.06998231	1	10	0.03	2000	-2.030334	40.92393	-91.39365
241550	9	-4	-1	0.1120393	-0.02533054	-0.9365552	0	11.68	20026	0	0	5	5	0.02	-0.07596812	1	10	0.03	2000	-2.024567	40.92393	-91.39365
241650	3	-1	1	0.1151704	-0.0225828	-0.9367387	0	11.68	20026	0	0	5	5	0.02	-0.08268493	1	10	0.03	2000	-2.249542	40.92393	-91.39365
241773	15	1	-4	0.1073075	-0.02150255	-0.935149	0	11.68	20026	0	0	5	5	0.02	-0.08129378	1	10	0.03	2000	-2.020569	40.92393	-91.39365
241881	0	4	5	0.1087752	-0.01720755	-0.933376	0	11.68	20026	0	0	5	5	0.02	-0.08417426	1	10	0.03	2000	-2.242218	40.92393	-91.39365
241930	7	-2	0	0.1084406	-0.01521634	-0.9329479	0	11.68	20026	0	0	5	5	0.02	-0.08696468	1	10	0.03	2000	-2.02002	40.92393	-91.39365
242112	1	3	-2	0.1049519	-0.004825568	-0.9339262	0	11.68	20026	0	0	5	5	0.02	-0.08714825	1	10	0.03	2000	-2.014954	40.92393	-91.39365
242198	8	-2	0	0.1094144	-0.006409782	-0.9334984	0	11.68	20026	0	0	5	5	0.02	-0.09046257	1	10	0.03	2000	-2.005524	40.92393	-91.39365
242235	6	-3	0	0.1120995	-0.003817806	-0.9331927	0	11.68	20026	0	0	5	5	0.02	-0.09109866	1	10	0.03	2000	-2.014008	40.92393	-91.39365
242346	13	0	0	0.1166824	-0.001597455	-0.932398	0	11.68	20026	0	0	5	5	0.02	-0.09494681	1	10	0.03	2000	-2.019257	40.92393	-91.39365
242470	5	0	1	0.1131878	0.002371215	-0.9347213	0	11.68	20026	0	0	5	5	0.02	-0.1036398	1	10	0.03	2000	-2.267517	40.92393	-91.39365
242539	9	-2	0	0.112006	0.0008024012	-0.932887	0	11.68	20026	0	0	5	5	0.02	-0.112374	1	10	0.03	2000	-2.022247	40.92393	-91.39365
242640	8	-1	-1	0.1131202	-0.002793039	-0.933132	0	11.68	20026	0	0	5	5	0.02	-0.1297302	1	10	0.03	2000	-2.263428	40.92393	-91.39365
242761	6	0	1	0.1149791	-0.005077499	-0.9331316	0	11.68	20026	0	0	5	5	0.02	-0.1360345	1	10	0.03	2000	-2.028961	40.92393	-91.39365
242831	5	-3	-3	0.1090383	-0.004010006	-0.933376	0	11.68	20026	0	0	5	5	0.02	-0.1356012	1	10	0.03	2000	-2.018768	40.92393	-91.39365
242963	5	-2	0	0.1015461	-0.004519926	-0.9314805	0	11.68	20026	0	0	5	5	0.02	-0.1337257	1	10	0.03	2000	-2.011597	40.92393	-91.39365
243063	7	1	0	0.09868684	-0.01310666	-0.9324585	0	11.68	20026	0	0	5	5	0.02	-0.1344592	1	10	0.03	2000	-1.992584	40.92393	-91.39365
243128	9	2	-2	0.1010469	-0.005241435	-0.9333755	0	11.68	20026	0	0	5	5	0.02	-0.1372153	1	10	0.03	2000	-2.00354	40.92393	-91.39365
243285	9	-3	4	0.097782	-0.001896572	-0.933498	0	11.68	20026	0	0	5	5	0.02	-0.1367358	1	10	0.03	2000	-2.000122	40.92393	-91.39365
243387	6	1	0	0.09989177	-0.002634495	-0.9338038	0	11.68	20026	0	0	5	5	0.02	-0.1307196	1	10	0.03	2000	-2.22226	40.92393	-91.39365
243429	6	1	0	0.09989177	-0.002634495	-0.9338038	0	11.68	20026	0	0	5	5	0.02	-0.1282733	1	10	0.03	2000	-2.22226	40.92393	-91.39365
243573	9	-2	-3	0.09808672	-0.002732752	-0.9341095	0	11.68	20026	0	0	5	5	0.02	-0.1205255	1	10	0.03	2000	-2.235138	40.92393	-91.39365
243636	8	-2	0	0.09257267	-0.008281602	-0.9352101	0	11.68	20026	0	0	5	5	0.02	-0.1206689	1	10	0.03	2000	-2.232758	40.92393	-91.39365
243754	7	-6	-1	0.09268014	-0.01018958	-0.9333761	0	11.68	20026	0	0	5	5	0.02	-0.1129752	1	10	0.03	2000	-2.222534	40.92393	-91.39365
243824	8	1	0	0.09368952	-0.01031934	-0.9331315	0	11.68	20026	0	0	5	5	0.02	-0.1113188	1	10	0.03	2000	-1.98526	40.92393	-91.39365
243931	14	0	1	0.09215923	-0.01765424	-0.9331316	0	11.68	20026	0	0	5	5	0.02	-0.114633	1	10	0.03	2000	-2.219818	40.92393	-91.39365
244032	9	5	-1	0.095382	-0.02025199	-0.9308695	0	11.68	20026	0	0	5	5	0.02	-0.1080868	1	10	0.03	2000	-2.236145	40.92393	-91.39365
244119	4	-2	0	0.09029936	-0.01660949	-0.9284235	0	11.68	20026	0	0	5	5	0.02	-0.1026959	1	10	0.03	2000	-2.225037	40.92393	-91.39365
244271	13	0	1	0.09382796	-0.01614067	-0.9280565	0	11.68	20026	0	0	5	5	0.02	-0.09645406	1	10	0.03	2000	-2.00766	40.92393	-91.39365
244326	8	0	1	0.09490018	-0.01784289	-0.929218	0	11.68	20026	0	0	5	5	0.02	-0.09364197	1	10	0.03	2000	-1.992126	40.92393	-91.39365
244449	12	-4	0	0.09284208	-0.01938557	-0.9287295	0	11.68	20026	0	0	5	5	0.02	-0.09111347	1	10	0.03	2000	-2.22699	40.92393	-91.39365
244584	4	0	0	0.09949224	-0.01671664	-0.927629	0	11.68	20026	0	0	5	5	0.02	-0.09014943	1	10	0.03	2000	-2.228607	40.92393	-91.39365
244631	10	1	0	0.09930311	-0.01618948	-0.9270788	0	11.68	20026	0	0	5	5	0.02	-0.09033211	1	10	0.03	2000	-2.012817	40.92393	-91.39365
244748	14	-4	0	0.1068346	-0.01621504	-0.9232266	0	11.68	20026	0	0	5	5	0.02	-0.08277262	1	10	0.03	2000	-2.010803	40.92393	-91.39365
244822	7	-2	-2	0.103705	-0.01577366	-0.9232268	0	11.68	20026	0	0	5	5	0.02	-0.07821676	1	10	0.03	2000	-2.010803	40.92393	-91.39365
245004	17	2	0	0.1119369	-0.01218911	-0.9158902	0	11.68	20026	0	0	5	5	0.02	-0.06399026	1	10	0.03	2000	-2.243317	40.92393	-91.39365
245066	9	1	-1	0.1123406	-0.0153436	-0.9162574	0	11.68	20026	0	0	5	5	0.02	-0.06309973	1	10	0.03	2000	-2.026062	40.92393	-91.39365
245179	9	0	-2	0.118904	-0.01448864	-0.917419	0	11.68	20026	0	0	5	5	0.02	-0.07094461	1	10	0.03	2000	-2.248444	40.92393	-91.39365
245228	8	-2	-5	0.1156517	-0.0169484	-0.9161348	0	11.68	20026	0	0	5	5	0.02	-0.07380079	1	10	0.03	2000	-2.260437	40.92393	-91.39365
245313	17	0	0	0.1189043	-0.01750329	-0.9135671	0	11.68	20026	0	0	5	5	0.02	-0.08390088	1	10	0.03	2000	-2.022949	40.92393	-91.39365
245422	18	3	0	0.1299794	-0.007832805	-0.9102654	0	11.68	20026	0	0	5	5	0.02	-0.09752958	1	10	0.03	2000	-2.275696	40.92393	-91.39365
245532	4	-3	4	0.1265665	-0.0102311	-0.9102046	0	11.68	20026	0	0	5	5	0.02	-0.1061203	1	10	0.03	2000	-2.043427	40.92393	-91.39365
245662	5	2	-1	0.1296531	-0.009631639	-0.9086762	0	11.68	20026	0	0	5	5	0.02	-0.1146309	1	10	0.03	2000	-2.043335	40.92393	-91.39365
245812	16	-2	-1	0.1285321	-0.01407733	-0.9059857	0	11.68	20026	0	0	5	5	0.02	-0.1199768	1	10	0.03	2000	-2.277924	40.92393	-91.39365
245881	19	-1	2	0.1366652	-0.01201765	-0.907698	0	11.68	20026	0	0	5	5	0.02	-0.1206339	1	10	0.03	2000	-2.060089	40.92393	-91.39365
245956	11	-8	-2	0.1376155	-0.009072975	-0.9066585	0	11.68	20026	0	0	5	5	0.02	-0.1210221	1	10	0.03	2000	-2.055176	40.92393	-91.39365
246058	8	-2	-2	0.1436244	-0.00286792	-0.904885	0	11.74	20026	0	0	5	5	0.02	-0.1128225	1	10	0.03	2000	-2.301605	40.92393	-91.39365
246080	8	-2	-2	0.1436244	-0.00286792	-0.904885	0	11.74	20026	0	0	5	5	0.02	-0.1117328	1	10	0.03	2000	-2.301605	40.92393	-91.39365
246222	7	-6	0	0.1441241	-0.003056619	-0.9014615	0	11.74	20026	0	0	5	5	0.02	-0.1076215	1	10	0.03	2000	-2.065643	40.92393	-91.39365
246280	11	1	0	0.1416729	-0.004213647	-0.8998109	0	11.74	20026	0	0	5	5	0.02	-0.1071153	1	10	0.03	2000	-2.070801	40.92393	-91.39365
