time(ms)	gyro_x(deg/s)	gyro_y(deg/s)	gyro_z(deg/s)	orientation_roll(deg)	orientation_pitch(deg)	orientation_yaw(deg)	throttle	battery(V)	loop_time(uS)	pid_output_roll	pid_output_pitch	pid_output_yaw	pid_output_throttle	ultrasonic_alt	baro_alt	flight_mode	p_gain_altitude	i_gain_altitude	d_gain_altitude	compass_heading	latitude	longitude
61610	-111	0	14	-1.737023	0.4759705	-8.78429	0	12.08	20009	0	0	5	5	0.02	-0.009027262	1	10	0.03	2000	2.672586	40.92392	-91.39364
61685	-108	7	17	-1.733414	0.4791737	-8.793461	0	12.08	20009	0	0	5	5	0.02	-0.002734782	1	10	0.03	2000	2.672586	40.92392	-91.39364
61802	-116	0	13	-1.731201	0.4830717	-8.827578	0	12.08	20009	0	0	5	5	0.02	0.008525098	1	10	0.03	2000	2.435856	40.92392	-91.39364
61908	-112	0	17	-1.729275	0.4851158	-8.844085	0	12.08	20009	0	0	5	5	0.02	0.01916282	1	10	0.03	2000	2.425203	40.92392	-91.39364
62027	-106	8	15	-1.733081	0.480983	-8.87783	0	12.08	20009	0	0	5	5	0.02	0.02415058	1	10	0.03	2000	2.653138	40.92392	-91.39364
62139	-112	2	15	-1.740412	0.4949815	-8.909559	0	12.08	20009	0	0	5	5	0.02	0.03223474	1	10	0.03	2000	2.437839	40.92392	-91.39364
62203	-111	-1	11	-1.73049	0.4997276	-8.924416	0	12.08	20009	0	0	5	5	0.02	0.03277599	1	10	0.03	2000	2.435886	40.92392	-91.39364
62343	-109	3	18	-1.716473	0.4930068	-8.955655	0	12.08	20009	0	0	5	5	0.02	0.03090689	1	10	0.03	2000	2.641514	40.92392	-91.39364
62434	-117	10	12	-1.717271	0.4910136	-8.978093	0	12.08	20009	0	0	5	5	0.02	0.03138291	1	10	0.03	2000	2.403528	40.92392	-91.39364
62487	-112	1	17	-1.71864	0.4892653	-8.985673	0	12.02	20009	0	0	5	5	0.02	0.03170775	1	10	0.03	2000	2.412305	40.92392	-91.39364
62593	-109	3	12	-1.707314	0.4978097	-9.001506	0	12.02	20009	0	0	5	5	0.02	0.02838143	1	10	0.03	2000	2.616473	40.92392	-91.39365
62692	-108	2	11	-1.698445	0.5016646	-9.04008	0	12.02	20009	0	0	5	5	0.02	0.02737902	1	10	0.03	2000	2.159487	40.92392	-91.39364
62811	-105	5	8	-1.693105	0.5042705	-9.061848	0	12.02	20009	0	0	5	5	0.02	0.03070578	1	10	0.03	2000	2.368535	40.92392	-91.39364
62891	-110	2	13	-1.693874	0.5054144	-9.077926	0	12.02	20009	0	0	5	5	0.02	0.03828209	1	10	0.03	2000	2.363093	40.92392	-91.39365
63034	-111	3	16	-1.683638	0.5055979	-9.117355	0	12.02	20009	0	0	5	5	0.02	0.0489559	1	10	0.03	2000	2.346868	40.92392	-91.39365
63176	-109	1	13	-1.674428	0.5116296	-9.13814	0	12.02	20009	0	0	5	5	0.02	0.05126059	1	10	0.03	2000	2.361828	40.92392	-91.39365
63270	-100	8	16	-1.665288	0.4978355	-9.168035	0	12.02	20009	0	0	5	5	0.02	0.05445617	1	10	0.03	2000	2.563402	40.92392	-91.39365
63295	-113	0	8	-1.670513	0.5006725	-9.175859	0	12.02	20009	0	0	5	5	0.02	0.05522546	1	10	0.03	2000	2.563402	40.92392	-91.39365
63416	-104	2	9	-1.680135	0.4991976	-9.203493	0	12.08	20009	0	0	5	5	0.02	0.05797651	1	10	0.03	2000	2.334843	40.92392	-91.39365
63536	-118	2	9	-1.684094	0.4984159	-9.225987	0	12.08	20009	0	0	5	5	0.02	0.06621943	1	10	0.03	2000	2.578885	40.92392	-91.39365
63603	-118	3	11	-1.683768	0.5013233	-9.23962	0	12.08	20009	0	0	5	5	0.02	0.06557447	1	10	0.03	2000	2.375279	40.92392	-91.39365
63719	-114	3	17	-1.683687	0.5021471	-9.269699	0	12.08	20009	0	0	5	5	0.02	0.05725721	1	10	0.03	2000	2.139884	40.92392	-91.39365
63801	-110	1	11	-1.68405	0.5001332	-9.2848	0	12.08	20009	0	0	5	5	0.02	0.04993976	1	10	0.03	2000	2.130794	40.92393	-91.39365
63912	-104	9	17	-1.682948	0.4949498	-9.308828	0	12.08	20009	0	0	5	5	0.02	0.03335296	1	10	0.03	2000	2.346708	40.92393	-91.39365
64018	-110	10	11	-1.684659	0.498264	-9.330653	0	12.08	20009	0	0	5	5	0.02	0.02206704	1	10	0.03	2000	2.341652	40.92393	-91.39365
64110	-111	0	14	-1.685836	0.5015492	-9.35291	0	12.08	20009	0	0	5	5	0.02	0.01625918	1	10	0.03	2000	2.587103	40.92393	-91.39365
64295	-104	6	12	-1.683879	0.4964571	-9.386898	0	12.08	20009	0	0	5	5	0.02	-0.001191102	1	10	0.03	2000	2.572739	40.92393	-91.39365
64303	-104	6	12	-1.683879	0.4964571	-9.386898	0	12.08	20009	0	0	5	5	0.02	-0.001191102	1	10	0.03	2000	2.572739	40.92393	-91.39365
64444	-109	4	15	-1.669711	0.4870788	-9.422597	0	12.08	20009	0	0	5	5	0.02	-0.005356075	1	10	0.03	2000	2.33215	40.92393	-91.39365
64541	-102	0	10	-1.668815	0.4956008	-9.441423	0	12.08	20009	0	0	5	5	0.02	-0.00164492	1	10	0.03	2000	2.102623	40.92393	-91.39365
64626	-105	2	17	-1.663662	0.4975785	-9.464349	0	12.08	20009	0	0	5	5	0.02	0.0009724549	1	10	0.03	2000	2.123732	40.92393	-91.39365
64758	-107	-2	19	-1.658985	0.503751	-9.484769	0	12.08	20009	0	0	5	5	0.02	0.01196827	1	10	0.03	2000	2.301604	40.92393	-91.39364
64849	-105	0	13	-1.664693	0.5052035	-9.512949	0	12.08	20009	0	0	5	5	0.02	0.008300943	1	10	0.03	2000	2.106194	40.92393	-91.39364
64918	-108	0	11	-1.665598	0.5060189	-9.520715	0	12.08	20009	0	0	5	5	0.02	0.005833414	1	10	0.03	2000	2.106194	40.92393	-91.39364
65035	-105	2	13	-1.651471	0.5121995	-9.548403	0	12.08	20009	0	0	5	5	0.02	-0.007840344	1	10	0.03	2000	2.084872	40.92393	-91.39364
65109	-105	-1	9	-1.645213	0.5200808	-9.567719	0	12.08	20009	0	0	5	5	0.02	-0.01398915	1	10	0.03	2000	2.067602	40.92393	-91.39364
65228	-104	-2	16	-1.641553	0.5196582	-9.589053	0	12.08	20009	0	0	5	5	0.02	-0.02398128	1	10	0.03	2000	2.069797	40.92393	-91.39364
65372	-107	0	13	-1.643893	0.5186651	-9.609103	0	12.08	20009	0	0	5	5	0.02	-0.0280061	1	10	0.03	2000	2.295107	40.92393	-91.39364
65417	-111	-1	7	-1.643979	0.5180113	-9.629766	0	12.08	20009	0	0	5	5	0.02	-0.03056198	1	10	0.03	2000	2.303503	40.92393	-91.39364
65521	-104	2	13	-1.647857	0.5177357	-9.642969	0	12.08	20009	0	0	5	5	0.02	-0.03538204	1	10	0.03	2000	2.529035	40.92393	-91.39364
65649	-104	9	15	-1.647523	0.5105569	-9.675673	0	12.08	20009	0	0	5	5	0.02	-0.04239741	1	10	0.03	2000	2.311659	40.92393	-91.39364
65732	-106	3	9	-1.642429	0.5101948	-9.688876	0	12.08	20009	0	0	5	5	0.02	-0.04317652	1	10	0.03	2000	2.078511	40.92393	-91.39364
65892	-103	-1	14	-1.652816	0.5162011	-9.722378	0	12.08	20009	0	0	5	5	0.02	-0.02976358	1	10	0.03	2000	2.082372	40.92393	-91.39364
65984	-105	3	9	-1.65114	0.5161715	-9.736134	0	12.08	20009	0	0	5	5	0.02	-0.01904249	1	10	0.03	2000	2.313573	40.92393	-91.39364
66078	-104	-1	18	-1.647317	0.5140236	-9.76566	0	12.08	20009	0	0	5	5	0.02	-0.01561182	1	10	0.03	2000	2.303987	40.92393	-91.39364
66187	-109	3	12	-1.652915	0.5143258	-9.786936	0	12.08	20009	0	0	5	5	0.02	-0.01288174	1	10	0.03	2000	2.325315	40.92393	-91.39364
66291	-107	0	17	-1.652476	0.516847	-9.800508	0	12.08	20009	0	0	5	5	0.02	-0.008343685	1	10	0.03	2000	2.53649	40.92393	-91.39364
66388	-102	2	8	-1.651742	0.5215078	-9.825882	0	12.08	20009	0	0	5	5	0.02	0.003527619	1	10	0.03	2000	2.54749	40.92393	-91.39364
66417	-106	3	16	-1.650271	0.5214642	-9.833951	0	12.08	20009	0	0	5	5	0.02	0.003527619	1	10	0.03	2000	2.305275	40.92393	-91.39364
66519	-103	1	11	-1.650607	0.5226074	-9.855044	0	12.08	20009	0	0	5	5	0.02	0.007601978	1	10	0.03	2000	2.082034	40.92393	-91.39364
66652	-104	6	16	-1.648244	0.5207774	-9.882979	0	12.08	20009	0	0	5	5	0.02	0.0151976	1	10	0.03	2000	2.314131	40.92393	-91.39364
66725	-106	0	10	-1.642717	0.5163773	-9.894532	0	12.08	20009	0	0	5	5	0.02	0.02070468	1	10	0.03	2000	2.310492	40.92393	-91.39364
66911	-108	3	11	-1.637972	0.5036803	-9.926685	0	12.08	20009	0	0	5	5	0.02	0.02632269	1	10	0.03	2000	2.296703	40.92393	-91.39364
66941	-106	7	9	-1.639564	0.498287	-9.939338	0	12.08	20009	0	0	5	5	0.02	0.0277874	1	10	0.03	2000	2.302395	40.92393	-91.39364
67057	-97	4	13	-1.633662	0.5058812	-9.958473	0	12.08	20009	0	0	5	5	0.02	0.04361664	1	10	0.03	2000	2.286571	40.92393	-91.39364
67128	-105	8	9	-1.638167	0.5087913	-9.964587	0	12.08	20009	0	0	5	5	0.02	0.05053746	1	10	0.03	2000	2.286571	40.92393	-91.39364
67252	-104	8	19	-1.633122	0.5103205	-9.991913	0	12.08	20009	0	0	5	5	0.02	0.07153779	1	10	0.03	2000	2.28478	40.92393	-91.39364
67333	-104	4	6	-1.634812	0.5077276	-9.998392	0	12.08	20009	0	0	5	5	0.02	0.07928862	1	10	0.03	2000	2.269471	40.92393	-91.39364
67473	-110	2	15	-1.639849	0.506231	-10.04149	0	12.08	20009	0	0	5	5	0.02	0.09996433	1	10	0.03	2000	2.283952	40.92393	-91.39364
67603	-104	5	10	-1.64062	0.508031	-10.06111	0	12.08	20009	0	0	5	5	0.02	0.103141	1	10	0.03	2000	2.296381	40.92393	-91.39364
67682	-96	0	10	-1.631071	0.5057552	-10.08116	0	12.08	20009	0	0	5	5	0.02	0.1038202	1	10	0.03	2000	2.291332	40.92393	-91.39364
67734	-98	7	15	-1.633923	0.5061489	-10.09265	0	12.08	20009	0	0	5	5	0.02	0.1037104	1	10	0.03	2000	2.280893	40.92393	-91.39364
67833	-99	1	13	-1.631325	0.506255	-10.11222	0	12.08	20009	0	0	5	5	0.02	0.1005793	1	10	0.03	2000	2.278051	40.92393	-91.39364
67927	-106	2	11	-1.632239	0.5035326	-10.13844	0	12.08	20009	0	0	5	5	0.02	0.09941109	1	10	0.03	2000	2.070035	40.92393	-91.39364
68030	-106	6	10	-1.632316	0.5004983	-10.14945	0	12.08	20009	0	0	5	5	0.02	0.09128633	1	10	0.03	2000	2.288103	40.92393	-91.39364
68132	-106	4	9	-1.63077	0.4992047	-10.16992	0	12.08	20009	0	0	5	5	0.02	0.08283602	1	10	0.03	2000	2.05372	40.92393	-91.39364
68236	-98	4	13	-1.627447	0.5058785	-10.19365	0	12.08	20009	0	0	5	5	0.02	0.07840291	1	10	0.03	2000	2.26928	40.92393	-91.39364
68322	-95	0	11	-1.625479	0.506211	-10.1997	0	12.08	20009	0	0	5	5	0.02	0.08422764	1	10	0.03	2000	2.26928	40.92393	-91.39364
68467	-103	0	13	-1.618953	0.5031393	-10.23509	0	12.08	20009	0	0	5	5	0.02	0.09841941	1	10	0.03	2000	2.241325	40.92393	-91.39364
68549	-103	5	11	-1.61336	0.5032021	-10.24897	0	12.08	20009	0	0	5	5	0.02	0.1033616	1	10	0.03	2000	2.252083	40.92393	-91.39364
68631	-96	7	9	-1.614337	0.5054374	-10.26737	0	12.08	20009	0	0	5	5	0.02	0.107144	1	10	0.03	2000	2.471486	40.92393	-91.39364
68727	-100	4	12	-1.611806	0.5051007	-10.28455	0	12.08	20009	0	0	5	5	0.02	0.1079193	1	10	0.03	2000	2.464735	40.92393	-91.39364
68835	-102	1	14	-1.611064	0.5081406	-10.31298	0	12.08	20009	0	0	5	5	0.02	0.1063196	1	10	0.03	2000	2.043657	40.92393	-91.39364
68913	-99	-4	11	-1.616291	0.5105218	-10.32698	0	12.14	20009	0	0	5	5	0.02	0.1033621	1	10	0.03	2000	2.028534	40.92393	-91.39364
69023	-95	7	12	-1.607937	0.5187129	-10.34018	0	12.14	20009	0	0	5	5	0.02	0.09556985	1	10	0.03	2000	2.249145	40.92393	-91.39364
69149	-98	0	12	-1.609076	0.5068704	-10.37111	0	12.14	20009	0	0	5	5	0.02	0.08205187	1	10	0.03	2000	2.241118	40.92393	-91.39364
69302	-108	3	9	-1.607886	0.5138389	-10.39782	0	12.14	20009	0	0	5	5	0.02	0.07239401	1	10	0.03	2000	2.243558	40.92393	-91.39364
69414	-100	7	15	-1.602715	0.5145645	-10.41665	0	12.14	20009	0	0	5	5	0.02	0.07084633	1	10	0.03	2000	2.230926	40.92393	-91.39364
69455	-98	5	10	-1.595064	0.5163412	-10.42307	0	12.14	20009	0	0	5	5	0.02	0.07059994	1	10	0.03	2000	2.230926	40.92393	-91.39364
69602	-100	5	13	-1.603389	0.5158921	-10.45706	0	12.14	20009	0	0	5	5	0.02	0.06733778	1	10	0.03	2000	2.21797	40.92392	-91.39364
69691	-99	3	13	-1.601359	0.5204191	-10.47112	0	12.14	20009	0	0	5	5	0.02	0.0617375	1	10	0.03	2000	2.248713	40.92392	-91.39364
69730	-106	0	6	-1.603357	0.5236907	-10.48377	0	12.14	20009	0	0	5	5	0.02	0.05800218	1	10	0.03	2000	2.4523	40.92392	-91.39364
69955	-98	8	14	-1.611053	0.5194066	-10.52002	0	12.08	20009	0	0	5	5	0.02	0.04051963	1	10	0.03	2000	2.468312	40.92392	-91.39364
70104	-101	3	12	-1.607069	0.5172696	-10.55414	0	12.08	20009	0	0	5	5	0.02	0.02534408	1	10	0.03	2000	2.233962	40.92392	-91.39364
70195	-97	0	12	-1.606435	0.5146043	-10.56789	0	12.08	20009	0	0	5	5	0.02	0.02379682	1	10	0.03	2000	2.233962	40.92392	-91.39364
70349	-104	2	8	-1.59696	0.5207673	-10.59644	0	12.08	20009	0	0	5	5	0.02	0.03733329	1	10	0.03	2000	1.989968	40.92392	-91.39364
70514	-103	9	13	-1.591103	0.5251763	-10.63049	0	12.08	20009	0	0	5	5	0.02	0.05504072	1	10	0.03	2000	1.991872	40.92392	-91.39364
70618	-100	1	10	-1.585072	0.5252335	-10.6481	0	12.08	20009	0	0	5	5	0.02	0.06053099	1	10	0.03	2000	2.201321	40.92392	-91.39364
70715	-98	6	12	-1.581616	0.5203623	-10.67206	0	12.08	20009	0	0	5	5	0.02	0.06536204	1	10	0.03	2000	2.197017	40.92392	-91.39365
70814	-103	9	8	-1.583328	0.5189358	-10.68374	0	12.08	20009	0	0	5	5	0.02	0.07982314	1	10	0.03	2000	2.197017	40.92392	-91.39365
70878	-95	6	11	-1.579487	0.516467	-10.70385	0	12.08	20009	0	0	5	5	0.02	0.08090152	1	10	0.03	2000	2.416058	40.92392	-91.39365
71004	-95	5	14	-1.573837	0.5174906	-10.72317	0	12.08	20009	0	0	5	5	0.02	0.08810088	1	10	0.03	2000	1.981354	40.92392	-91.39365
71073	-98	0	12	-1.574815	0.5218278	-10.73674	0	12.08	20009	0	0	5	5	0.02	0.08829282	1	10	0.03	2000	1.965585	40.92392	-91.39365
71152	-103	2	8	-1.566416	0.5158113	-10.76004	0	12.08	20009	0	0	5	5	0.02	0.08409051	1	10	0.03	2000	2.177201	40.92392	-91.39365
71202	-95	6	12	-1.564078	0.5143718	-10.76511	0	12.08	20009	0	0	5	5	0.02	0.07758807	1	10	0.03	2000	2.158455	40.92392	-91.39365
71350	-101	2	16	-1.56112	0.5204091	-10.79965	0	12.08	20009	0	0	5	5	0.02	0.06953984	1	10	0.03	2000	2.179793	40.92392	-91.39365
71453	-98	-2	13	-1.55722	0.5155497	-10.82013	0	12.08	20009	0	0	5	5	0.02	0.0639405	1	10	0.03	2000	2.157184	40.92392	-91.39365
71570	-100	3	9	-1.559839	0.5131082	-10.83804	0	12.08	20009	0	0	5	5	0.02	0.05523051	1	10	0.03	2000	2.156261	40.92392	-91.39364
71608	-100	3	9	-1.559839	0.5131082	-10.83804	0	12.08	20009	0	0	5	5	0.02	0.05288025	1	10	0.03	2000	2.156261	40.92392	-91.39364
71761	-99	1	11	-1.561154	0.5040148	-10.88371	0	12.19	20009	0	0	5	5	0.02	0.04360325	1	10	0.03	2000	1.948015	40.92392	-91.39364
71874	-100	-3	8	-1.563031	0.5063396	-10.89979	0	12.19	20009	0	0	5	5	0.02	0.03403933	1	10	0.03	2000	2.185367	40.92392	-91.39364
71950	-100	-1	13	-1.565561	0.5023121	-10.91195	0	12.19	20009	0	0	5	5	0.02	0.028063	1	10	0.03	2000	2.175037	40.92392	-91.39364
71972	-95	1	13	-1.557657	0.5034932	-10.93812	0	12.19	20009	0	0	5	5	0.02	0.02080896	1	10	0.03	2000	2.384037	40.92392	-91.39365
71988	-99	7	11	-1.553751	0.5013233	-10.94405	0	12.19	20009	0	0	5	5	0.02	0.02080896	1	10	0.03	2000	2.383725	40.92392	-91.39365
72092	-100	7	11	-1.550063	0.5010266	-10.95737	0	12.19	20009	0	0	5	5	0.02	0.013519	1	10	0.03	2000	2.373712	40.92392	-91.39365
72238	-94	0	11	-1.553237	0.5042603	-10.98946	0	12.19	20009	0	0	5	5	0.02	0.01571013	1	10	0.03	2000	2.138123	40.92392	-91.39365
72359	-97	7	11	-1.547719	0.5007654	-11.00891	0	12.19	20009	0	0	5	5	0.02	0.02285242	1	10	0.03	2000	1.926394	40.92392	-91.39365
72423	-103	5	11	-1.544841	0.5020347	-11.02761	0	12.08	20009	0	0	5	5	0.02	0.03239866	1	10	0.03	2000	2.14822	40.92392	-91.39365
72484	-100	7	13	-1.538301	0.5074564	-11.03861	0	12.08	20009	0	0	5	5	0.02	0.03360024	1	10	0.03	2000	2.134804	40.92392	-91.39365
72721	-95	1	7	-1.536271	0.5036966	-11.07438	0	12.08	20009	0	0	5	5	0.02	0.05020848	1	10	0.03	2000	1.899423	40.92392	-91.39365
72805	-93	6	12	-1.53344	0.5063405	-11.09681	0	12.08	20009	0	0	5	5	0.02	0.05081594	1	10	0.03	2000	2.124655	40.92392	-91.39365
72884	-96	0	10	-1.534318	0.505456	-11.10702	0	12.08	20009	0	0	5	5	0.02	0.04774209	1	10	0.03	2000	2.130438	40.92392	-91.39365
73018	-99	5	18	-1.532065	0.5054334	-11.12652	0	12.08	20009	0	0	5	5	0.02	0.04091797	1	10	0.03	2000	1.902091	40.92392	-91.39365
73076	-101	1	7	-1.53271	0.5049886	-11.1442	0	12.08	20009	0	0	5	5	0.02	0.03910885	1	10	0.03	2000	2.33811	40.92392	-91.39365
73322	-94	4	12	-1.532069	0.5033301	-11.18497	0	12.08	20009	0	0	5	5	0.02	0.03849237	1	10	0.03	2000	1.896329	40.92392	-91.39365
73407	-101	7	7	-1.532498	0.5024154	-11.20136	0	12.14	20009	0	0	5	5	0.02	0.03549	1	10	0.03	2000	1.911371	40.92392	-91.39365
73508	-92	6	8	-1.530051	0.5027667	-11.21206	0	12.14	20009	0	0	5	5	0.02	0.02601187	1	10	0.03	2000	2.120811	40.92392	-91.39365
73688	-97	1	14	-1.525253	0.5010011	-11.24537	0	12.14	20009	0	0	5	5	0.02	0.02479726	1	10	0.03	2000	1.895165	40.92392	-91.39365
73761	-97	0	10	-1.528478	0.5052138	-11.26365	0	12.14	20009	0	0	5	5	0.02	0.03146614	1	10	0.03	2000	2.112166	40.92392	-91.39365
73831	-93	7	11	-1.522147	0.5011573	-11.27387	0	12.14	20009	0	0	5	5	0.02	0.03613119	1	10	0.03	2000	2.131899	40.92392	-91.39365
73916	-94	3	12	-1.519773	0.5028535	-11.28389	0	12.14	20009	0	0	5	5	0.02	0.04026499	1	10	0.03	2000	1.88	40.92392	-91.39364
74003	-89	4	15	-1.51855	0.5036906	-11.29967	0	12.14	20009	0	0	5	5	0.02	0.05137018	1	10	0.03	2000	1.873898	40.92392	-91.39364
74145	-91	3	10	-1.51828	0.5108722	-11.32186	0	12.14	20009	0	0	5	5	0.02	0.0628195	1	10	0.03	2000	2.102239	40.92392	-91.39364
74209	-102	2	9	-1.519738	0.5097443	-11.32639	0	12.14	20009	0	0	5	5	0.02	0.06768521	1	10	0.03	2000	2.102239	40.92392	-91.39364
74268	-96	-1	13	-1.516377	0.5074244	-11.34931	0	12.14	20009	0	0	5	5	0.02	0.07779717	1	10	0.03	2000	2.104012	40.92392	-91.39365
74495	-92	8	17	-1.520486	0.5017843	-11.38074	0	12.14	20009	0	0	5	5	0.02	0.1011808	1	10	0.03	2000	2.106861	40.92392	-91.39365
74582	-95	-3	9	-1.522287	0.4991724	-11.3918	0	12.14	20009	0	0	5	5	0.02	0.1113992	1	10	0.03	2000	2.111586	40.92392	-91.39365
74683	-96	4	14	-1.518371	0.5017038	-11.41485	0	12.14	20009	0	0	5	5	0.02	0.1227539	1	10	0.03	2000	2.325648	40.92392	-91.39365
74789	-90	4	11	-1.512076	0.5078592	-11.43111	0	12.14	20009	0	0	5	5	0.02	0.1333584	1	10	0.03	2000	1.865464	40.92392	-91.39365
74874	-92	4	3	-1.50836	0.5076731	-11.44419	0	12.14	20009	0	0	5	5	0.02	0.1380944	1	10	0.03	2000	2.083652	40.92392	-91.39365
75021	-93	0	11	-1.511108	0.5013081	-11.46999	0	12.14	20009	0	0	5	5	0.02	0.1441003	1	10	0.03	2000	1.864897	40.92392	-91.39365
75081	-97	4	9	-1.514632	0.4969377	-11.47574	0	12.14	20009	0	0	5	5	0.02	0.145402	1	10	0.03	2000	2.097172	40.92392	-91.39365
75173	-96	6	8	-1.519589	0.4950121	-11.4928	0	12.14	20009	0	0	5	5	0.02	0.1509233	1	10	0.03	2000	2.102681	40.92392	-91.39365
75304	-94	0	7	-1.516704	0.5002908	-11.51267	0	12.14	20009	0	0	5	5	0.02	0.1691495	1	10	0.03	2000	2.104603	40.92392	-91.39365
75420	-93	7	12	-1.505388	0.5027187	-11.53529	0	12.14	20009	0	0	5	5	0.02	0.1919345	1	10	0.03	2000	2.101411	40.92392	-91.39365
75496	-87	3	9	-1.501804	0.5065458	-11.54562	0	12.14	20009	0	0	5	5	0.02	0.1966325	1	10	0.03	2000	2.303223	40.92392	-91.39365
75626	-93	1	9	-1.502668	0.5143179	-11.57356	0	12.14	20009	0	0	5	5	0.02	0.2021395	1	10	0.03	2000	2.066554	40.92392	-91.39365
75675	-90	2	7	-1.501488	0.51321	-11.57955	0	12.14	20009	0	0	5	5	0.02	0.2091579	1	10	0.03	2000	1.861956	40.92392	-91.39365
75776	-96	3	8	-1.499661	0.5120062	-11.59649	0	12.14	20009	0	0	5	5	0.02	0.2066749	1	10	0.03	2000	1.844892	40.92392	-91.39365
75893	-93	-1	10	-1.496175	0.5059374	-11.61887	0	12.14	20009	0	0	5	5	0.02	0.2016764	1	10	0.03	2000	2.0747	40.92392	-91.39365
76009	-92	6	13	-1.490907	0.5035914	-11.63561	0	12.14	20009	0	0	5	5	0.02	0.189335	1	10	0.03	2000	1.835561	40.92392	-91.39365
76085	-90	3	9	-1.493622	0.5062609	-11.6465	0	12.08	20009	0	0	5	5	0.02	0.1790864	1	10	0.03	2000	2.057398	40.92392	-91.39365
76178	-94	1	8	-1.490892	0.5069668	-11.66306	0	12.08	20009	0	0	5	5	0.02	0.1676588	1	10	0.03	2000	2.059985	40.92392	-91.39365
76354	-94	1	7	-1.49251	0.5079255	-11.69143	0	12.08	20009	0	0	5	5	0.02	0.1373727	1	10	0.03	2000	1.620433	40.92392	-91.39365
76406	-95	3	6	-1.49325	0.5125162	-11.70201	0	12.08	20009	0	0	5	5	0.02	0.1274481	1	10	0.03	2000	2.059366	40.92392	-91.39365
76514	-92	3	12	-1.494281	0.5090843	-11.72114	0	12.08	20009	0	0	5	5	0.02	0.1209892	1	10	0.03	2000	2.068465	40.92392	-91.39365
76559	-89	7	11	-1.496768	0.5105637	-11.72646	0	12.08	20009	0	0	5	5	0.02	0.116642	1	10	0.03	2000	2.067642	40.92392	-91.39365
76663	-93	1	10	-1.489679	0.5085678	-11.74089	0	12.08	20009	0	0	5	5	0.02	0.1122186	1	10	0.03	2000	2.294055	40.92392	-91.39365
76772	-94	3	11	-1.488087	0.50699	-11.75679	0	12.08	20009	0	0	5	5	0.02	0.1052299	1	10	0.03	2000	2.056033	40.92392	-91.39365
76895	-96	-2	8	-1.484769	0.5064951	-11.77207	0	12.08	20009	0	0	5	5	0.02	0.09871266	1	10	0.03	2000	2.061604	40.92392	-91.39365
77004	-99	1	5	-1.483229	0.5016722	-11.80233	0	12.14	20009	0	0	5	5	0.02	0.09589395	1	10	0.03	2000	2.040248	40.92392	-91.39365
77096	-93	7	10	-1.483226	0.5015017	-11.81266	0	12.14	20009	0	0	5	5	0.02	0.09256995	1	10	0.03	2000	1.825928	40.92392	-91.39365
77222	-92	3	9	-1.484096	0.5026997	-11.83302	0	12.14	20009	0	0	5	5	0.02	0.08866986	1	10	0.03	2000	2.272761	40.92392	-91.39365
77310	-90	0	8	-1.487662	0.5026283	-11.848	0	12.14	20009	0	0	5	5	0.02	0.08995719	1	10	0.03	2000	2.055554	40.92392	-91.39365
77362	-91	8	5	-1.486808	0.5013306	-11.85234	0	12.14	20009	0	0	5	5	0.02	0.08742701	1	10	0.03	2000	2.055554	40.92392	-91.39365
77459	-99	4	10	-1.488121	0.5062758	-11.86732	0	12.14	20009	0	0	5	5	0.02	0.08789477	1	10	0.03	2000	2.050658	40.92392	-91.39365
77610	-89	4	9	-1.4744	0.4965289	-11.89722	0	12.14	20009	0	0	5	5	0.02	0.08224159	1	10	0.03	2000	1.807802	40.92392	-91.39365
77713	-95	3	11	-1.474553	0.4966879	-11.91421	0	12.14	20009	0	0	5	5	0.02	0.07505649	1	10	0.03	2000	1.817622	40.92392	-91.39365
77858	-90	5	8	-1.462261	0.5024918	-11.93903	0	12.14	20009	0	0	5	5	0.02	0.06474675	1	10	0.03	2000	2.020848	40.92392	-91.39365
77972	-92	2	7	-1.45705	0.5041882	-11.95652	0	12.14	20009	0	0	5	5	0.02	0.05838256	1	10	0.03	2000	1.78344	40.92392	-91.39365
78098	-86	0	10	-1.458527	0.4943177	-11.98195	0	12.14	20009	0	0	5	5	0.02	0.05199392	1	10	0.03	2000	2.008297	40.92392	-91.39365
78185	-90	5	11	-1.457277	0.4975871	-11.99253	0	12.14	20009	0	0	5	5	0.02	0.04841611	1	10	0.03	2000	2.011272	40.92392	-91.39365
78291	-87	6	9	-1.449485	0.492264	-12.01111	0	12.14	20009	0	0	5	5	0.02	0.04198115	1	10	0.03	2000	1.773593	40.92392	-91.39365
78325	-89	8	6	-1.447886	0.4918454	-12.01619	0	12.14	20009	0	0	5	5	0.02	0.03680015	1	10	0.03	2000	1.771771	40.92392	-91.39365
78483	-93	2	9	-1.454741	0.4885992	-12.04168	0	12.14	20009	0	0	5	5	0.02	0.02397516	1	10	0.03	2000	1.987451	40.92392	-91.39365
78595	-93	0	9	-1.451223	0.4945263	-12.05679	0	12.14	20009	0	0	5	5	0.02	0.02996641	1	10	0.03	2000	2.006009	40.92392	-91.39365
78709	-90	1	13	-1.455274	0.4934754	-12.07403	0	12.14	20009	0	0	5	5	0.02	0.03269339	1	10	0.03	2000	1.9991	40.92392	-91.39365
78802	-87	1	14	-1.443115	0.4893669	-12.09732	0	12.14	20009	0	0	5	5	0.02	0.02604996	1	10	0.03	2000	1.998072	40.92392	-91.39365
78879	-88	0	12	-1.438932	0.4955998	-12.10924	0	12.14	20009	0	0	5	5	0.02	0.02526753	1	10	0.03	2000	1.970818	40.92392	-91.39365
78942	-94	7	10	-1.433804	0.5000662	-12.12202	0	12.14	20009	0	0	5	5	0.02	0.02858394	1	10	0.03	2000	1.969819	40.92392	-91.39365
78991	-86	-1	12	-1.434432	0.4985417	-12.12722	0	12.14	20009	0	0	5	5	0.02	0.02900581	1	10	0.03	2000	1.969819	40.92392	-91.39365
79116	-87	2	10	-1.46387	0.4966994	-12.14579	0	12.14	20009	0	0	5	5	0.02	0.02724483	1	10	0.03	2000	2.239839	40.92392	-91.39365
79260	-88	5	12	-1.459184	0.4980277	-12.16805	0	12.14	20009	0	0	5	5	0.02	0.02518959	1	10	0.03	2000	2.009371	40.92392	-91.39365
79310	-88	5	5	-1.492389	0.4946595	-12.17967	0	12.14	20009	0	0	5	5	0.02	0.02518959	1	10	0.03	2000	2.009371	40.92392	-91.39365
79478	-87	6	8	-1.477311	0.4896574	-12.20548	0	12.14	20009	0	0	5	5	0.02	0.02002957	1	10	0.03	2000	2.043023	40.92392	-91.39365
79511	-86	8	14	-1.474751	0.4893889	-12.21061	0	12.14	20009	0	0	5	5	0.02	0.02262922	1	10	0.03	2000	2.043023	40.92392	-91.39365
79618	-88	1	6	-1.468497	0.4943585	-12.22645	0	12.14	20009	0	0	5	5	0.02	0.02617151	1	10	0.03	2000	1.804621	40.92392	-91.39365
79725	-85	5	9	-1.465236	0.4928456	-12.24185	0	12.14	20009	0	0	5	5	0.02	0.02765273	1	10	0.03	2000	1.794525	40.92392	-91.39365
79774	-81	2	8	-1.461871	0.4984224	-12.25231	0	12.14	20009	0	0	5	5	0.02	0.02966332	1	10	0.03	2000	2.021737	40.92392	-91.39365
79917	-87	0	11	-1.450807	0.4981113	-12.27047	0	12.14	20009	0	0	5	5	0.02	0.02776015	1	10	0.03	2000	2.008597	40.92392	-91.39365
80069	-85	5	10	-1.444282	0.4985356	-12.29596	0	12.14	20009	0	0	5	5	0.02	0.01347231	1	10	0.03	2000	1.774089	40.92392	-91.39365
80166	-90	6	11	-1.437267	0.500394	-12.31216	0	12.14	20009	0	0	5	5	0.02	0.008449641	1	10	0.03	2000	1.979424	40.92392	-91.39365
80344	-85	0	10	-1.438081	0.4958344	-12.34047	0	12.14	20009	0	0	5	5	0.02	0.0004579606	1	10	0.03	2000	1.983089	40.92392	-91.39365
80372	-83	3	9	-1.437106	0.4978982	-12.34621	0	12.14	20009	0	0	5	5	0.02	-0.0006200926	1	10	0.03	2000	1.98041	40.92392	-91.39365
80477	-85	0	11	-1.429677	0.4986261	-12.36731	0	12.14	20009	0	0	5	5	0.02	-0.0004792739	1	10	0.03	2000	1.745528	40.92392	-91.39365
80584	-86	1	10	-1.426767	0.4963129	-12.38253	0	12.19	20009	0	0	5	5	0.02	-0.001374367	1	10	0.03	2000	1.962767	40.92392	-91.39365
80655	-86	3	12	-1.420126	0.4991456	-12.39415	0	12.19	20009	0	0	5	5	0.02	0.002425077	1	10	0.03	2000	1.951288	40.92392	-91.39365
80762	-88	0	7	-1.416133	0.5041803	-12.41175	0	12.19	20009	0	0	5	5	0.02	0.006184613	1	10	0.03	2000	1.505165	40.92392	-91.39365
80858	-85	6	10	-1.408246	0.4968932	-12.42777	0	12.19	20009	0	0	5	5	0.02	0.009353278	1	10	0.03	2000	1.483094	40.92392	-91.39365
80995	-79	4	10	-1.406821	0.4969459	-12.45112	0	12.19	20009	0	0	5	5	0.02	0.01267081	1	10	0.03	2000	1.931834	40.92392	-91.39365
81050	-83	2	9	-1.403065	0.4967022	-12.45724	0	12.19	20009	0	0	5	5	0.02	0.01221328	1	10	0.03	2000	1.931834	40.92392	-91.39365
81206	-81	6	13	-1.399047	0.5008877	-12.48487	0	12.19	20009	0	0	5	5	0.02	0.003931429	1	10	0.03	2000	1.919681	40.92392	-91.39365
81263	-80	4	8	-1.402619	0.4992817	-12.49404	0	12.19	20009	0	0	5	5	0.02	0.002288591	1	10	0.03	2000	1.923528	40.92392	-91.39365
81390	-85	2	10	-1.407239	0.4961317	-12.5144	0	12.19	20009	0	0	5	5	0.02	-0.008636424	1	10	0.03	2000	1.701532	40.92392	-91.39365
81489	-85	1	8	-1.40667	0.494428	-12.52626	0	12.14	20009	0	0	5	5	0.02	-0.01670736	1	10	0.03	2000	1.707284	40.92392	-91.39365
81593	-83	0	4	-1.402341	0.4851719	-12.54943	0	12.14	20009	0	0	5	5	0.02	-0.02435871	1	10	0.03	2000	1.702567	40.92392	-91.39364
81659	-86	1	6	-1.400645	0.4867041	-12.55964	0	12.14	20009	0	0	5	5	0.02	-0.03498028	1	10	0.03	2000	1.702567	40.92391	-91.39364
81790	-88	0	8	-1.40052	0.4875207	-12.57224	0	12.14	20009	0	0	5	5	0.02	-0.03947163	1	10	0.03	2000	2.145871	40.92391	-91.39364
81892	-82	4	9	-1.40058	0.4843823	-12.59009	0	12.14	20009	0	0	5	5	0.02	-0.05173442	1	10	0.03	2000	1.922291	40.92392	-91.39364
82047	-85	7	5	-1.392409	0.484659	-12.6157	0	12.14	20009	0	0	5	5	0.02	-0.056193	1	10	0.03	2000	1.684489	40.92391	-91.39364
82150	-86	3	8	-1.390247	0.484668	-12.63056	0	12.14	20009	0	0	5	5	0.02	-0.05927096	1	10	0.03	2000	1.689931	40.92391	-91.39364
82253	-91	-4	6	-1.381686	0.4855496	-12.64878	0	12.14	20009	0	0	5	5	0.02	-0.05479414	1	10	0.03	2000	2.112667	40.92391	-91.39364
82331	-82	3	11	-1.381688	0.4906524	-12.65789	0	12.14	20009	0	0	5	5	0.02	-0.05030199	1	10	0.03	2000	1.659287	40.92391	-91.39364
82451	-87	4	3	-1.381256	0.4904008	-12.68143	0	12.19	20009	0	0	5	5	0.02	-0.04327358	1	10	0.03	2000	1.440773	40.92391	-91.39364
82543	-88	2	8	-1.381401	0.4887531	-12.6914	0	12.19	20009	0	0	5	5	0.02	-0.0345513	1	10	0.03	2000	1.899655	40.92391	-91.39364
82677	-83	4	14	-1.379241	0.4911412	-12.71689	0	12.19	20009	0	0	5	5	0.02	-0.034385	1	10	0.03	2000	1.667397	40.92391	-91.39364
82719	-81	6	8	-1.380463	0.4948982	-12.72105	0	12.19	20009	0	0	5	5	0.02	-0.03495194	1	10	0.03	2000	1.667397	40.92391	-91.39364
82841	-78	-2	10	-1.377432	0.4917358	-12.74196	0	12.19	20009	0	0	5	5	0.02	-0.03325173	1	10	0.03	2000	1.890344	40.92391	-91.39364
82977	-80	4	10	-1.374108	0.4881896	-12.75737	0	12.19	20009	0	0	5	5	0.02	-0.03537537	1	10	0.03	2000	1.890621	40.92391	-91.39364
83119	-84	8	6	-1.369261	0.4890001	-12.7839	0	12.19	20009	0	0	5	5	0.02	-0.04693105	1	10	0.03	2000	1.880854	40.92391	-91.39364
83214	-77	0	10	-1.357939	0.4870531	-12.79766	0	12.19	20009	0	0	5	5	0.02	-0.05662485	1	10	0.03	2000	1.871724	40.92391	-91.39364
83316	-87	0	9	-1.357376	0.4896477	-12.813	0	12.08	20009	0	0	5	5	0.02	-0.06833397	1	10	0.03	2000	1.63143	40.92391	-91.39364
83491	-85	5	7	-1.349991	0.4901697	-12.83807	0	12.08	20009	0	0	5	5	0.02	-0.08868909	1	10	0.03	2000	1.840095	40.92391	-91.39364
83549	-82	2	8	-1.353149	0.4875675	-12.8429	0	12.08	20009	0	0	5	5	0.02	-0.09913936	1	10	0.03	2000	1.840095	40.92391	-91.39364
83669	-83	2	11	-1.352836	0.4779473	-12.86503	0	12.08	20009	0	0	5	5	0.02	-0.1133467	1	10	0.03	2000	1.624052	40.92391	-91.39364
83771	-83	1	9	-1.356388	0.4846272	-12.87842	0	12.08	20009	0	0	5	5	0.02	-0.123016	1	10	0.03	2000	1.632132	40.92391	-91.39364
83829	-82	4	8	-1.358017	0.4799057	-12.89364	0	12.08	20009	0	0	5	5	0.02	-0.128543	1	10	0.03	2000	1.849524	40.92391	-91.39364
83934	-83	2	12	-1.360988	0.4799217	-12.90189	0	12.08	20009	0	0	5	5	0.02	-0.1352637	1	10	0.03	2000	1.860286	40.92391	-91.39364
84040	-79	11	9	-1.351155	0.4789575	-12.9187	0	12.08	20009	0	0	5	5	0.02	-0.1386922	1	10	0.03	2000	1.855746	40.92391	-91.39364
84186	-80	4	10	-1.344614	0.4789184	-12.94322	0	12.19	20009	0	0	5	5	0.02	-0.1339261	1	10	0.03	2000	1.845376	40.92391	-91.39364
84282	-86	2	12	-1.348124	0.4765544	-12.95373	0	12.19	20009	0	0	5	5	0.02	-0.122801	1	10	0.03	2000	1.62039	40.92391	-91.39364
84394	-81	9	14	-1.343682	0.4864886	-12.97495	0	12.19	20009	0	0	5	5	0.02	-0.110226	1	10	0.03	2000	1.614795	40.92391	-91.39364
84523	-85	2	8	-1.336254	0.4911393	-12.99041	0	12.19	20009	0	0	5	5	0.02	-0.1029943	1	10	0.03	2000	1.83344	40.92391	-91.39364
84587	-78	3	6	-1.336565	0.4941459	-13.00594	0	12.19	20009	0	0	5	5	0.02	-0.0982282	1	10	0.03	2000	1.826729	40.92391	-91.39364
84694	-74	0	9	-1.333468	0.4919436	-13.02319	0	12.19	20009	0	0	5	5	0.02	-0.09549838	1	10	0.03	2000	1.813235	40.92391	-91.39364
84812	-83	7	8	-1.337753	0.4950959	-13.03682	0	12.19	20009	0	0	5	5	0.02	-0.09585019	1	10	0.03	2000	1.809849	40.92391	-91.39364
84871	-76	2	9	-1.333137	0.4989569	-13.05363	0	12.19	20009	0	0	5	5	0.02	-0.09688377	1	10	0.03	2000	1.818485	40.92391	-91.39364
84957	-78	3	5	-1.331338	0.5003636	-13.06146	0	12.19	20009	0	0	5	5	0.02	-0.09743647	1	10	0.03	2000	1.589281	40.92391	-91.39364
85037	-75	-1	9	-1.32725	0.5036706	-13.07063	0	12.19	20009	0	0	5	5	0.02	-0.09833998	1	10	0.03	2000	1.603284	40.92391	-91.39364
85227	-81	3	6	-1.332001	0.4959924	-13.10499	0	12.14	20009	0	0	5	5	0.02	-0.09384575	1	10	0.03	2000	1.594872	40.92391	-91.39364
85302	-80	4	5	-1.330965	0.4992649	-13.11666	0	12.14	20009	0	0	5	5	0.02	-0.08627839	1	10	0.03	2000	1.587228	40.92391	-91.39364
85386	-82	1	13	-1.329604	0.5033456	-13.13256	0	12.14	20009	0	0	5	5	0.02	-0.0777715	1	10	0.03	2000	1.582149	40.92391	-91.39364
85437	-84	-1	6	-1.331746	0.502714	-13.14222	0	12.14	20009	0	0	5	5	0.02	-0.07702369	1	10	0.03	2000	1.816639	40.92391	-91.39364
85557	-80	-1	11	-1.328789	0.5032524	-13.16203	0	12.14	20009	0	0	5	5	0.02	-0.07368696	1	10	0.03	2000	1.814013	40.92391	-91.39364
85692	-76	3	15	-1.330103	0.5025304	-13.1819	0	12.14	20009	0	0	5	5	0.02	-0.07225542	1	10	0.03	2000	1.584979	40.92391	-91.39364
85781	-80	6	15	-1.332696	0.4989284	-13.19077	0	12.14	20009	0	0	5	5	0.02	-0.07478873	1	10	0.03	2000	1.809478	40.92391	-91.39364
85864	-79	3	10	-1.329216	0.4940199	-13.20018	0	12.14	20009	0	0	5	5	0.02	-0.07471213	1	10	0.03	2000	1.813842	40.92391	-91.39364
85947	-82	3	14	-1.333963	0.4922059	-13.21185	0	12.14	20009	0	0	5	5	0.02	-0.07516027	1	10	0.03	2000	2.030761	40.92391	-91.39364
86106	-82	-1	10	-1.337825	0.4961576	-13.24163	0	12.02	20009	0	0	5	5	0.02	-0.07412294	1	10	0.03	2000	1.820997	40.92391	-91.39364
86222	-77	-2	15	-1.330191	0.4932751	-13.26419	0	12.02	20009	0	0	5	5	0.02	-0.07156316	1	10	0.03	2000	1.81544	40.92391	-91.39364
86343	-83	3	11	-1.32333	0.4944894	-13.28681	0	12.02	20009	0	0	5	5	0.02	-0.06419223	1	10	0.03	2000	1.587521	40.92391	-91.39364
86371	-86	9	12	-1.323605	0.4935728	-13.29115	0	12.02	20009	0	0	5	5	0.02	-0.06433435	1	10	0.03	2000	1.587521	40.92391	-91.39364
86508	-79	-1	15	-1.312775	0.4926421	-13.3142	0	12.02	20009	0	0	5	5	0.02	-0.06851898	1	10	0.03	2000	1.571047	40.92391	-91.39364
86625	-84	4	7	-1.308754	0.4880976	-13.32722	0	12.02	20009	0	0	5	5	0.02	-0.07003282	1	10	0.03	2000	1.768959	40.92391	-91.39364
86698	-76	1	8	-1.304153	0.4880469	-13.33731	0	12.02	20009	0	0	5	5	0.02	-0.07658065	1	10	0.03	2000	1.768959	40.92391	-91.39364
86751	-76	4	8	-1.299157	0.4852292	-13.34654	0	12.02	20009	0	0	5	5	0.02	-0.07814652	1	10	0.03	2000	1.552993	40.92391	-91.39364
86854	-77	1	8	-1.297215	0.4826367	-13.36103	0	12.02	20009	0	0	5	5	0.02	-0.08148608	1	10	0.03	2000	1.983809	40.92391	-91.39364
87002	-74	4	7	-1.295685	0.4784149	-13.38004	0	12.08	20009	0	0	5	5	0.02	-0.08881765	1	10	0.03	2000	1.757902	40.92391	-91.39364
87078	-74	2	9	-1.293816	0.4813921	-13.38927	0	12.08	20009	0	0	5	5	0.02	-0.08901993	1	10	0.03	2000	1.754416	40.92391	-91.39364
87163	-75	-4	9	-1.292988	0.4725724	-13.40737	0	12.08	20009	0	0	5	5	0.02	-0.08501291	1	10	0.03	2000	1.756652	40.92391	-91.39364
87288	-78	5	8	-1.287534	0.4726562	-13.42369	0	12.08	20009	0	0	5	5	0.02	-0.07987903	1	10	0.03	2000	1.53115	40.92391	-91.39364
87359	-74	5	8	-1.284532	0.4733598	-13.43635	0	12.08	20009	0	0	5	5	0.02	-0.0796094	1	10	0.03	2000	1.959496	40.92391	-91.39364
87456	-75	2	10	-1.285428	0.4782526	-13.45182	0	12.08	20009	0	0	5	5	0.02	-0.07812922	1	10	0.03	2000	1.744447	40.92391	-91.39364
87635	-70	3	10	-1.286322	0.4745012	-13.47474	0	12.08	20009	0	0	5	5	0.02	-0.07910181	1	10	0.03	2000	1.758504	40.92391	-91.39364
87693	-76	7	3	-1.280779	0.4700673	-13.48336	0	12.08	20009	0	0	5	5	0.02	-0.08768149	1	10	0.03	2000	1.74658	40.92391	-91.39364
87840	-76	0	9	-1.271567	0.4679564	-13.49639	0	12.08	20009	0	0	5	5	0.02	-0.09600747	1	10	0.03	2000	1.509446	40.92391	-91.39364
87877	-76	0	9	-1.271567	0.4679564	-13.49639	0	12.08	20009	0	0	5	5	0.02	-0.100137	1	10	0.03	2000	1.509446	40.92391	-91.39364
87970	-78	2	8	-1.272234	0.4754587	-13.51632	0	12.19	20009	0	0	5	5	0.02	-0.1044637	1	10	0.03	2000	1.728879	40.92391	-91.39364
88117	-74	5	7	-1.271595	0.4752926	-13.54249	0	12.19	20009	0	0	5	5	0.02	-0.1138028	1	10	0.03	2000	1.50919	40.92391	-91.39364
88177	-76	1	6	-1.269653	0.474824	-13.55007	0	12.19	20009	0	0	5	5	0.02	-0.1143079	1	10	0.03	2000	1.494917	40.92391	-91.39364
88284	-76	-2	9	-1.263506	0.4736789	-13.56566	0	12.19	20009	0	0	5	5	0.02	-0.1079297	1	10	0.03	2000	1.719819	40.92391	-91.39364
88385	-79	2	8	-1.265303	0.4736078	-13.58028	0	12.19	20009	0	0	5	5	0.02	-0.1073815	1	10	0.03	2000	1.707693	40.92391	-91.39364
88489	-77	1	12	-1.258593	0.4753351	-13.59306	0	12.19	20009	0	0	5	5	0.02	-0.1041706	1	10	0.03	2000	1.484032	40.92391	-91.39364
88626	-71	6	10	-1.251903	0.4804831	-13.60681	0	12.19	20009	0	0	5	5	0.02	-0.11249	1	10	0.03	2000	1.698683	40.92391	-91.39364
88725	-74	4	17	-1.253305	0.4796444	-13.62595	0	12.19	20009	0	0	5	5	0.02	-0.1176299	1	10	0.03	2000	1.25387	40.92391	-91.39364
88784	-75	2	5	-1.247675	0.4848557	-13.63371	0	12.19	20009	0	0	5	5	0.02	-0.1193934	1	10	0.03	2000	1.469043	40.92391	-91.39364
88965	-79	4	9	-1.246704	0.4845325	-13.65407	0	12.19	20009	0	0	5	5	0.02	-0.1257769	1	10	0.03	2000	1.89903	40.92391	-91.39364
89011	-71	4	6	-1.247857	0.4840183	-13.6633	0	12.19	20009	0	0	5	5	0.02	-0.1267847	1	10	0.03	2000	1.466056	40.92391	-91.39364
89106	-73	0	9	-1.248535	0.4802444	-13.6718	0	12.19	20009	0	0	5	5	0.02	-0.1265839	1	10	0.03	2000	1.465684	40.92391	-91.39364
89193	-73	2	10	-1.250777	0.4844872	-13.68299	0	12.19	20009	0	0	5	5	0.02	-0.1257904	1	10	0.03	2000	1.698877	40.92391	-91.39363
89377	-71	2	6	-1.247182	0.4837728	-13.70945	0	12.19	20009	0	0	5	5	0.02	-0.1094422	1	10	0.03	2000	1.472657	40.92391	-91.39363
89414	-71	4	4	-1.24536	0.4886594	-13.71288	0	12.19	20009	0	0	5	5	0.02	-0.1094422	1	10	0.03	2000	1.472657	40.92391	-91.39363
89490	-70	-3	12	-1.244825	0.4921283	-13.72138	0	12.19	20009	0	0	5	5	0.02	-0.08099822	1	10	0.03	2000	1.459888	40.92391	-91.39363
89663	-73	1	5	-1.233006	0.4894336	-13.74302	0	12.19	20009	0	0	5	5	0.02	-0.06596	1	10	0.03	2000	1.887058	40.92391	-91.39363
89709	-77	0	7	-1.232281	0.4906622	-13.74791	0	12.19	20009	0	0	5	5	0.02	-0.0653218	1	10	0.03	2000	1.887058	40.92391	-91.39363
89824	-83	-3	6	-1.233111	0.4877989	-13.76607	0	12.19	20009	0	0	5	5	0.02	-0.06066642	1	10	0.03	2000	1.43764	40.92391	-91.39363
89901	-80	0	8	-1.233526	0.4837955	-13.77615	0	12.19	20009	0	0	5	5	0.02	-0.06012481	1	10	0.03	2000	1.668324	40.92391	-91.39363
90006	-71	3	10	-1.232289	0.4836004	-13.79431	0	12.19	20009	0	0	5	5	0.02	-0.06179203	1	10	0.03	2000	1.212563	40.92391	-91.39363
90096	-77	2	7	-1.233762	0.4856865	-13.80354	0	12.19	20009	0	0	5	5	0.02	-0.0563494	1	10	0.03	2000	1.445449	40.92391	-91.39363
90268	-64	6	8	-1.221757	0.4834035	-13.82561	0	12.19	20009	0	0	5	5	0.02	-0.03183771	1	10	0.03	2000	1.648371	40.92391	-91.39363
90315	-72	4	13	-1.220816	0.4835429	-13.83546	0	12.19	20009	0	0	5	5	0.02	-0.02746605	1	10	0.03	2000	1.426172	40.92391	-91.39363
90404	-65	0	12	-1.218248	0.4812869	-13.84652	0	12.19	20009	0	0	5	5	0.02	-0.0160891	3	10	0.03	2000	1.193667	40.92391	-91.39363
90550	-75	-1	8	-1.220858	0.4774241	-13.86756	0	12.19	20009	0	0	5	5	0.02	0.009075392	3	10	0.03	2000	1.642588	40.92391	-91.39363
90612	-75	-1	8	-1.220858	0.4774241	-13.86756	0	12.19	20009	0	0	5	5	0.02	0.01621983	3	10	0.03	2000	1.642588	40.92391	-91.39363
90742	-59	4	10	-1.216895	0.4768933	-13.88761	0	12.19	20009	0	0	5	5	0.02	0.03941845	3	10	0.03	2000	1.636617	40.92391	-91.39363
90820	-82	7	10	-1.222957	0.4795736	-13.90277	0	12.19	20009	0	0	5	5	0.02	0.04877707	3	10	0.03	2000	1.63547	40.92391	-91.39363
90912	-75	6	12	-1.221277	0.4731748	-13.91158	0	12.19	20009	0	0	5	5	0.02	0.06100066	3	10	0.03	2000	1.645636	40.92391	-91.39363
91087	-71	7	13	-1.218772	0.4731666	-13.93652	0	12.19	20009	0	0	5	5	0.02	0.0680413	3	10	0.03	2000	1.422063	40.92391	-91.39363
91192	-73	3	10	-1.213282	0.4767936	-13.95266	0	12.19	20009	0	0	5	5	0.02	0.0724128	3	10	0.03	2000	1.629222	40.92391	-91.39363
91298	-65	1	10	-1.21182	0.4771462	-13.97247	0	12.19	20009	0	0	5	5	0.02	0.07373181	3	10	0.03	2000	1.413739	40.92391	-91.39363
91367	-70	0	4	-1.213056	0.4822251	-13.98335	0	12.19	20009	0	0	5	5	0.02	0.0692269	3	10	0.03	2000	1.404372	40.92391	-91.39363
91518	-77	0	5	-1.214243	0.4812233	-13.9998	0	12.19	20009	0	0	5	5	0.02	0.07187267	3	10	0.03	2000	1.630014	40.92391	-91.39363
91644	-71	3	9	-1.209419	0.4739589	-14.02193	0	12.14	20009	0	0	5	5	0.02	0.07829132	3	10	0.03	2000	1.389264	40.92391	-91.39363
91770	-68	10	0	-1.198562	0.4717754	-14.03868	0	12.14	20009	0	0	5	5	0.02	0.08239017	3	10	0.03	2000	1.385448	40.92391	-91.39363
91799	-67	1	9	-1.196327	0.4728413	-14.04271	0	12.14	20009	0	0	5	5	0.02	0.08293068	3	10	0.03	2000	1.385448	40.92391	-91.39363
91978	-93	11	-4	-1.165304	0.4742263	-14.08099	0	12.14	20009	0	0	5	5	0.02	0.0849459	3	10	0.03	2000	0.9217299	40.92391	-91.39363
92057	-59	-27	26	-1.172039	0.4650979	-14.08582	0	12.14	20009	0	0	5	5	0.02	0.08627764	3	10	0.03	2000	0.9322065	40.92391	-91.39363
92099	-71	-11	-26	-1.156856	0.4503039	-14.08857	0	12.14	20009	0	0	5	5	0.02	0.08696537	3	10	0.03	2000	0.9322065	40.92391	-91.39363
92252	-44	11	-25	-1.115918	0.444143	-14.13981	0	12.14	20009	0	0	5	5	0.02	0.09328383	3	10	0.03	2000	1.071916	40.92391	-91.39363
92303	-141	-18	20	-1.111255	0.4313097	-14.12899	0	12.14	20009	0	0	5	5	0.02	0.09470486	3	10	0.03	2000	1.230972	40.92391	-91.39363
