time(ms)	gyro_x(deg/s)	gyro_y(deg/s)	gyro_z(deg/s)	orientation_roll(deg)	orientation_pitch(deg)	orientation_yaw(deg)	throttle	battery(V)	loop_time(uS)	pid_output_roll	pid_output_pitch	pid_output_yaw	pid_output_throttle	ultrasonic_alt	baro_alt	flight_mode	p_gain_altitude	i_gain_altitude	d_gain_altitude	compass_heading	latitude	longitude
184688	-254	595	931	-2.170846	-2.736921	1.915432	0	10.83	20012	34	-7	5	5	0.02	1.490596	8	10	0.03	2000	-18.13464	40.92393	-91.39359
184774	-1184	110	-170	-2.995517	-3.009813	2.085881	0	10.83	20042	34	-7	5	5	0.02	1.483072	8	10	0.03	2000	-17.87561	40.92393	-91.39359
184951	-843	-755	38	-3.128927	-2.193993	1.636998	0	10.83	20031	32	-17	5	5	0.02	1.467371	8	10	0.03	2000	-20.84784	40.92393	-91.39359
184983	171	-732	666	-3.03087	-1.82695	1.453066	0	10.83	20003	32	-17	5	5	0.02	1.459228	8	10	0.03	2000	-20.84784	40.92393	-91.39359
185172	284	1954	-964	-1.529031	-1.8351	1.734616	0	10.83	20008	26	-22	5	5	0.02	1.400477	8	10	0.03	2000	-21.27713	40.92392	-91.39359
185239	-362	-1002	-1102	-2.145708	-1.768662	2.057013	0	10.83	20050	26	-22	5	5	0.02	1.365041	8	10	0.03	2000	-21.07669	40.92392	-91.39359
185318	1254	2195	-737	-1.953014	-2.072753	2.118079	0	11.4	20025	26	-20	5	5	0.02	1.323498	8	10	0.03	2000	-21.07669	40.92392	-91.39359
185390	3780	2770	-528	-0.6399279	-4.828143	2.593292	0	11.4	20015	23	-24	5	5	0.02	1.27039	8	10	0.03	2000	-21.72067	40.92392	-91.39359
185607	-2308	-2621	1013	-1.434071	-3.947592	2.877414	0	11.4	20032	16	-25	5	5	0.02	1.162105	8	10	0.03	2000	-16.2746	40.92392	-91.39359
185737	-481	-1185	-504	-2.448592	-0.4547283	1.800252	0	11.4	20051	5	-32	5	5	0.02	1.120535	8	10	0.03	2000	-15.85165	40.92392	-91.39359
185797	964	746	-354	-2.745536	0.6370655	1.842197	0	11.4	20008	5	-32	5	5	0.02	1.097209	8	10	0.03	2000	-17.25244	40.92392	-91.39359
185919	461	2213	-1227	-0.7972791	-1.139162	2.440286	0	11.4	20052	-2	-34	5	5	0.02	1.051192	8	10	0.03	2000	-17.02548	40.92392	-91.39359
186019	-57	-125	-312	-2.418738	-1.861812	2.108355	0	11.4	24023	-1	-33	5	5	0.02	1.039702	8	10	0.03	2000	-15.28754	40.92392	-91.3936
186115	331	-1230	-737	-2.394037	-1.440758	1.928366	0	11.4	20035	-15	-36	5	5	0.02	1.012788	8	10	0.03	2000	-14.77127	40.92392	-91.3936
186249	-661	-331	-25	-1.898548	-0.5079958	1.945161	0	11.23	20010	-11	-32	5	5	0.02	1.003386	8	10	0.03	2000	-15.39749	40.92392	-91.3936
186395	410	1041	862	-0.7075412	-0.7986873	1.277906	0	11.23	20041	-19	-32	5	5	0.02	1.002895	8	10	0.03	2000	-14.56882	40.92391	-91.39361
186443	-88	-1054	-1533	-1.08837	-1.742285	1.313568	0	11.23	20019	-19	-32	5	5	0.02	1.002817	8	10	0.03	2000	-15.21225	40.92391	-91.39361
186531	2734	2231	-1378	1.806831	-3.849052	2.571142	0	11.23	20010	-33	-35	5	5	0.02	1.002641	8	10	0.03	2000	-15.22452	40.92391	-91.39361
186637	-92	97	174	2.850532	-4.920053	3.011048	0	11.23	20010	-27	-31	5	5	0.02	1.006994	8	10	0.03	2000	-13.00882	40.92391	-91.39361
186732	-1271	-2290	119	-0.3840249	-1.129903	2.345592	0	11.23	20044	-33	-33	5	5	0.02	1.010656	8	10	0.03	2000	-11.97437	40.92391	-91.39362
186856	1624	662	-706	1.735541	-4.896033	1.876048	0	11.23	20056	-33	-33	5	5	0.02	1.020449	8	10	0.03	2000	-9.681824	40.92391	-91.39362
186935	435	-2	115	2.245369	-4.095257	1.964981	0	11.23	20037	-39	-34	5	5	0.02	1.031489	8	10	0.03	2000	-9.447327	40.92391	-91.39362
187111	297	-909	319	1.525763	-2.759109	1.600097	0	11.23	20026	-53	-34	5	5	0.02	1.043858	8	10	0.03	2000	-7.169464	40.92391	-91.39362
187158	-5	-1677	-786	1.187921	-2.14232	1.571218	0	11.57	20032	-45	-32	5	5	0.02	1.041859	8	10	0.03	2000	-4.245239	40.92391	-91.39362
187310	61	1527	1060	2.342142	-4.723375	1.906336	0	11.57	20048	-59	-36	5	5	0.02	1.034175	8	10	0.03	2000	-4.389648	40.92391	-91.39362
187399	890	-51	-630	3.187508	-6.373409	2.972887	0	11.57	20032	-64	-37	5	5	0.02	1.023081	8	10	0.03	2000	-2.289948	40.92391	-91.39363
187559	345	-2213	670	2.348872	-3.090935	1.109967	0	11.57	20011	-57	-35	5	5	0.02	1.004758	8	10	0.03	2000	0.2705252	40.92391	-91.39363
187707	635	406	276	3.660754	-3.205676	1.276152	0	11.57	20029	-59	-35	5	5	0.02	0.990599	8	10	0.03	2000	4.689468	40.92391	-91.39363
187763	1964	1749	-178	4.481006	-3.98638	2.007739	0	11.57	20028	-66	-39	5	5	0.02	0.9842613	8	10	0.03	2000	4.970475	40.92391	-91.39363
187890	-2123	-219	77	3.329493	-3.285185	3.126031	0	11.57	20033	-66	-39	5	5	0.02	0.9751779	8	10	0.03	2000	5.584887	40.92391	-91.39363
188012	607	-740	1370	2.410146	-2.116634	1.863739	0	11.57	20034	-65	-40	5	5	0.02	0.9690619	8	10	0.03	2000	6.228906	40.92391	-91.39364
188063	55	-1353	309	2.371093	-1.548963	1.233491	0	11.57	20031	-57	-38	5	5	0.02	0.9636116	8	10	0.03	2000	6.228906	40.92391	-91.39364
188204	-1388	-357	-684	3.897286	-3.671115	1.899584	0	11.23	20016	-73	-46	5	5	0.02	0.9624623	8	10	0.03	2000	11.11941	40.92391	-91.39364
188281	-728	-96	-516	3.465433	-3.285339	2.29628	0	11.23	20027	-55	-38	5	5	0.02	0.9675481	8	10	0.03	2000	11.11941	40.92391	-91.39364
188374	1309	-77	446	3.435945	-1.294834	1.609042	0	11.23	20054	-47	-40	5	5	0.02	0.9746159	8	10	0.03	2000	9.761152	40.92391	-91.39364
188489	426	1757	-1157	3.499682	-3.028256	1.722636	0	11.23	20029	-44	-43	5	5	0.02	0.9922949	8	10	0.03	2000	9.946348	40.92391	-91.39364
188662	1169	1144	609	2.026835	-2.094375	2.073259	0	11.23	20030	-40	-41	5	5	0.02	1.03104	8	10	0.03	2000	13.59754	40.92391	-91.39363
188760	1130	863	-680	3.780005	-3.394961	2.649689	0	11.23	20029	-29	-41	5	5	0.02	1.045216	8	10	0.03	2000	13.20998	40.92391	-91.39363
188860	543	456	-1124	4.368502	-4.268871	3.414332	0	11.23	20016	-27	-41	5	5	0.02	1.071942	8	10	0.03	2000	14.00848	40.92391	-91.39363
188911	-1784	-1470	1029	3.131007	-3.670437	2.519906	0	11.23	20061	-13	-45	5	5	0.02	1.101777	8	10	0.03	2000	14.97519	40.9239	-91.39362
189028	-445	-721	505	1.314551	-2.336	0.6812716	0	11.46	20050	-15	-43	5	5	0.02	1.146677	8	10	0.03	2000	15.66923	40.9239	-91.39362
189117	635	-207	718	2.430294	-1.86384	0.8004173	0	11.46	20030	-1	-46	5	5	0.02	1.186677	8	10	0.03	2000	16.5962	40.9239	-91.39362
189210	-207	1290	-383	2.700186	-2.883085	1.411459	0	11.46	20032	-3	-44	5	5	0.02	1.260099	8	10	0.03	2000	15.69259	40.9239	-91.39362
189344	-1342	-193	234	1.808298	-4.273819	2.395712	0	11.46	20031	17	-44	5	5	0.02	1.337653	8	10	0.03	2000	14.23928	40.9239	-91.39362
189450	-442	-1020	130	1.54127	-3.724769	1.679229	0	11.46	20035	32	-44	5	5	0.02	1.429588	8	10	0.03	2000	13.52743	40.9239	-91.39362
189575	-207	1191	-882	0.8542395	-5.251256	0.8146502	0	11.46	20028	24	-42	5	5	0.02	1.486504	8	10	0.03	2000	12.66159	40.9239	-91.39362
189687	-97	-114	-185	1.725429	-6.210345	1.440275	0	11.46	20061	49	-42	5	5	0.02	1.546422	8	10	0.03	2000	10.60669	40.9239	-91.39361
189754	-957	-960	-92	1.440955	-5.17903	1.53196	0	11.46	20009	41	-40	5	5	0.02	1.586063	8	10	0.03	2000	10.20657	40.9239	-91.39361
189883	-1512	-1058	-1009	0.1092237	-4.198121	1.439941	0	11.46	20034	65	-40	5	5	0.02	1.646185	8	10	0.03	2000	8.43838	40.9239	-91.3936
189980	-384	-293	-48	-0.4228765	-4.213305	1.852757	0	10.72	20042	53	-40	5	5	0.02	1.701672	8	10	0.03	2000	6.559875	40.9239	-91.3936
190062	-1685	1018	-668	-0.4208554	-4.06155	2.551594	0	10.72	20036	101	-56	5	5	0.02	1.736243	8	10	0.03	2000	2.214401	40.9239	-91.39359
190202	-1938	-1235	319	-4.249825	-4.240971	2.761239	0	10.72	20033	73	-47	5	5	0.02	1.75618	8	10	0.03	2000	-1.906494	40.9239	-91.39359
190290	-3823	583	283	-6.494074	-4.05888	3.073261	0	10.72	20033	73	-47	5	5	0.02	1.753931	8	10	0.03	2000	-3.259949	40.9239	-91.39359
190343	-3129	418	-1958	-8.07656	-4.018462	3.436222	0	10.72	20031	70	-56	5	5	0.02	1.739985	8	10	0.03	2000	-3.259949	40.9239	-91.39359
190469	-1072	2237	-504	-10.21611	-8.74618	4.126102	0	10.72	20026	0	0	5	5	0.02	1.683255	3	10	0.03	2000	-12.53748	40.92389	-91.39357
190548	-654	1397	620	-10.2575	-9.789221	3.865377	0	10.72	20026	0	0	5	5	0.02	1.63661	3	10	0.03	2000	-14.80045	40.92389	-91.39357
190660	-1008	310	549	-8.370783	-11.13972	3.044921	0	10.72	20026	0	0	5	5	0.02	1.423785	3	10	0.03	2000	-17.98132	40.92389	-91.39355
190881	-1916	-4314	-336	-9.002105	-1.757057	3.449921	0	10.72	20026	0	0	5	5	0.02	1.280039	3	10	0.03	2000	-21.77286	40.92389	-91.39354
191048	-42	-3042	531	-12.8679	6.550189	2.18976	0	10.6	20026	0	0	5	5	0.02	1.169122	3	10	0.03	2000	-24.17212	40.92389	-91.39354
191099	-760	-3073	-101	-12.45051	7.887792	2.26299	0	10.6	20026	0	0	5	5	0.02	1.100554	3	10	0.03	2000	-25.43533	40.92389	-91.39354
191213	-2577	-1844	995	-12.68244	10.70771	1.789098	0	10.6	20026	0	0	5	5	0.02	1.040743	3	10	0.03	2000	-27.12122	40.92389	-91.39354
191283	-571	-229	-1196	-14.77368	10.71647	1.052278	0	10.6	20026	0	0	5	5	0.02	1.039993	3	10	0.03	2000	-33.10217	40.92389	-91.39354
191404	-2784	2330	-147	-14.91156	7.55291	1.444675	0	10.6	20026	0	0	5	5	0.02	1.064662	3	10	0.03	2000	-38.19452	40.92388	-91.39353
191480	-1409	2202	-500	-16.76483	3.66038	2.260911	0	10.6	20026	0	0	5	5	0.02	1.076548	3	10	0.03	2000	-41.2782	40.92388	-91.39353
191597	-2194	2022	759	-17.9214	-0.7299664	2.5416	0	10.6	20026	0	0	5	5	0.02	1.318474	3	10	0.03	2000	-44.91287	40.92388	-91.39354
191645	4407	1723	307	-15.90348	-3.177364	2.299676	0	10.6	20026	0	0	5	5	0.02	1.334382	3	10	0.03	2000	-47.5022	40.92388	-91.39354
191780	3941	1576	658	-8.760013	-7.468492	1.235661	0	10.6	20026	0	0	5	5	0.02	1.53948	3	10	0.03	2000	-47.60553	40.92388	-91.39354
191898	4810	1271	-846	4.374074	-10.33995	2.001027	0	11.29	20026	0	0	5	5	0.02	1.75674	3	10	0.03	2000	-42.38855	40.92388	-91.39354
191999	3536	1153	315	8.823453	-10.90559	1.727687	0	11.29	20026	0	0	5	5	0.02	1.982467	3	10	0.03	2000	-39.17908	40.92388	-91.39354
192039	2453	-95	71	10.8251	-10.62618	0.999745	0	11.29	20026	0	0	5	5	0.02	2.002438	3	10	0.03	2000	-30.59698	40.92388	-91.39355
192119	3980	1432	1218	11.88808	-10.48351	1.12913	0	11.29	20026	0	0	5	5	0.02	2.206734	3	10	0.03	2000	-27.72812	40.92388	-91.39355
192240	1091	402	-348	12.38195	-11.07519	1.770987	0	11.29	20026	0	0	5	5	0.02	2.426133	3	10	0.03	2000	-22.72372	40.92388	-91.39357
192309	1572	185	-476	11.77579	-10.51217	1.681711	0	11.29	20026	0	0	5	5	0.02	2.441994	3	10	0.03	2000	-18.90811	40.92388	-91.39357
192417	1486	1373	187	11.85213	-10.86935	1.167198	0	11.29	20026	0	0	5	5	0.02	2.50894	3	10	0.03	2000	-16.13089	40.92388	-91.39358
192533	-1216	-1097	946	8.811218	-9.238539	0.9538627	0	11.29	20026	0	0	5	5	0.02	2.656217	3	10	0.03	2000	-6.576202	40.92388	-91.39358
192703	-1885	381	602	3.240006	-7.813187	2.079137	0	10.32	20026	0	0	5	5	0.02	2.871667	3	10	0.03	2000	-4.401001	40.92388	-91.39359
192739	-1183	651	1351	2.038181	-7.65911	1.958046	0	10.32	20026	0	0	5	5	0.02	2.886347	3	10	0.03	2000	-4.401001	40.92388	-91.39359
192899	115	-81	-2839	0.4089105	-7.7226	3.948098	0	10.32	20026	0	0	5	5	0.02	3.010447	3	10	0.03	2000	-3.999634	40.92388	-91.39359
192933	3188	1285	-1865	1.239146	-7.558658	5.582403	0	10.32	20026	0	0	5	5	0.02	3.042667	3	10	0.03	2000	-3.310242	40.92389	-91.3936
193078	-695	-1022	2061	2.442329	-8.367679	3.476811	0	10.32	20026	0	0	5	5	0.02	3.0995	3	10	0.03	2000	-1.05188	40.92389	-91.3936
193147	-622	-2742	704	1.526802	-7.191257	1.704371	0	10.32	20026	0	0	5	5	0.02	3.152265	3	10	0.03	2000	0.8597925	40.92389	-91.3936
193225	-2487	-2744	352	-0.06149571	-4.718511	1.033104	0	10.32	20026	0	0	5	5	0.02	3.175816	3	10	0.03	2000	2.266702	40.92389	-91.3936
193359	-4563	-3374	-709	-9.590189	2.353813	0.9986452	0	10.32	20026	0	0	5	5	0.02	3.22102	3	10	0.03	2000	4.066971	40.92389	-91.39361
193444	-3109	-3116	-610	-12.83762	5.082334	1.20586	0	10.32	20026	0	0	5	5	0.02	3.235209	3	10	0.03	2000	3.727942	40.92389	-91.39361
193595	1811	-1148	-503	-14.58917	11.03249	1.433392	0	10.32	20026	0	0	5	5	0.02	3.251193	3	10	0.03	2000	1.88697	40.92389	-91.39361
193620	3108	751	-906	-12.60625	10.11316	1.583869	0	11.06	20026	0	0	5	5	0.02	3.251193	3	10	0.03	2000	0.5763103	40.92389	-91.39361
193764	4063	2315	1096	-3.976994	2.360184	1.721742	0	11.06	20026	0	0	5	5	0.02	3.251496	3	10	0.03	2000	-1.728729	40.9239	-91.39362
193855	1129	642	290	-1.209722	0.3256955	2.002779	0	11.06	20026	0	0	5	5	0.02	3.243106	3	10	0.03	2000	-4.637695	40.9239	-91.39362
193948	930	-1419	-1225	-1.020712	0.4878676	2.194875	0	11.06	20026	0	0	5	5	0.02	3.232589	3	10	0.03	2000	-4.299805	40.9239	-91.39362
194079	-541	-1118	173	-0.3526962	2.198022	1.145727	0	11.06	20026	0	0	5	5	0.02	3.196494	3	10	0.03	2000	-1.259064	40.9239	-91.39362
194173	1428	1094	180	-0.2680368	1.139831	0.8921036	0	11.06	20026	0	0	5	5	0.02	3.170647	3	10	0.03	2000	-0.4906616	40.9239	-91.39362
194269	-873	-4227	-592	0.2104578	2.922408	1.463599	0	11.06	20026	0	0	5	5	0.02	3.121776	3	10	0.03	2000	-0.1853638	40.9239	-91.39362
194345	-414	-1651	620	-0.9086585	5.513654	1.602708	0	11.06	20026	0	0	5	5	0.02	3.09204	3	10	0.03	2000	-0.1802063	40.9239	-91.39362
194430	771	8	1590	0.07826333	4.199904	1.889479	0	11.06	20026	0	0	5	5	0.02	3.060949	3	10	0.03	2000	0.9905772	40.9239	-91.39362
194547	-675	-1308	1064	-1.215341	5.660816	1.481496	0	10.89	20026	0	0	5	5	0.02	2.996586	3	10	0.03	2000	3.832992	40.9239	-91.39362
194687	-44	2411	-924	0.04611912	1.033478	1.161136	0	10.89	20026	0	0	5	5	0.02	2.850906	3	10	0.03	2000	4.654284	40.9239	-91.39362
194737	-140	1795	1007	-0.3035108	-0.8894004	1.314657	0	10.89	20026	0	0	5	5	0.02	2.832484	3	10	0.03	2000	3.971787	40.9239	-91.39362
194832	226	2006	-433	-0.6785311	-3.128417	1.55556	0	10.89	20026	0	0	5	5	0.02	2.751086	3	10	0.03	2000	5.731029	40.9239	-91.39362
195009	2385	1794	137	-0.082663	-7.876433	1.859826	0	10.89	20026	0	0	5	5	0.02	2.526276	3	10	0.03	2000	5.399257	40.9239	-91.39362
195159	-706	-471	449	-1.113322	-8.36067	1.867917	0	10.89	20026	0	0	5	5	0.02	2.430219	3	10	0.03	2000	10.27405	40.9239	-91.39362
195296	-1512	1190	439	-1.515236	-9.122535	2.13942	0	10.89	20026	0	0	5	5	0.02	2.286657	3	10	0.03	2000	9.610443	40.9239	-91.39362
195422	138	2834	203	-0.8238274	-10.94076	0.5996656	0	10.89	20026	0	0	5	5	0.02	2.147896	3	10	0.03	2000	8.322209	40.9239	-91.39362
195492	-2382	-104	1249	-2.154042	-9.142703	-1.175968	0	10.38	20026	0	0	5	5	0.02	2.00023	3	10	0.03	2000	9.971958	40.92389	-91.39362
195633	598	3622	-2567	-4.401379	-7.337538	-1.410332	0	10.38	20026	0	0	5	5	0.02	1.911114	3	10	0.03	2000	8.04108	40.92389	-91.39362
195689	-956	-1531	-1340	-1.957407	-2.324374	3.768468	0	10.38	20026	0	0	5	5	0.02	1.800722	3	10	0.03	2000	3.575563	40.92389	-91.39362
195721	671	-441	-562	-1.96036	-1.431007	2.095388	0	10.38	20026	0	0	5	5	0.02	1.740316	3	10	0.03	2000	1.084801	40.92389	-91.39362
195749	-466	-615	-593	-1.768507	-2.061057	1.934556	0	10.38	20026	0	0	5	5	0.02	1.707767	3	10	0.03	2000	1.341233	40.92389	-91.39362
195858	-2012	-564	104	-2.541366	-1.769077	1.606087	0	10.38	20026	0	0	5	5	0.02	1.666426	3	10	0.03	2000	1.364828	40.92389	-91.39362
196020	-2058	-358	-603	-4.958792	-2.651717	1.523067	0	10.38	20026	0	0	5	5	0.02	1.614528	3	10	0.03	2000	-2.056976	40.92389	-91.39362
196092	-43	1692	-1314	-5.889252	-3.70038	2.000332	0	10.38	20026	0	0	5	5	0.02	1.559924	3	10	0.03	2000	-2.721893	40.92389	-91.39362
196227	-1602	-241	-1627	-6.535841	-5.020877	3.045079	0	11.34	20026	0	0	5	5	0.02	1.497144	3	10	0.03	2000	-7.862274	40.92389	-91.39362
196264	112	1238	1563	-6.843189	-4.841261	2.94153	0	11.34	20026	0	0	5	5	0.02	1.472584	3	10	0.03	2000	-10.34229	40.92389	-91.39362
196332	-1236	1205	598	-6.965366	-5.949131	2.781745	0	11.34	20026	0	0	5	5	0.02	1.41759	3	10	0.03	2000	-10.76447	40.92389	-91.39362
196464	3067	3119	-475	-5.440043	-10.24105	2.678761	0	11.34	20026	0	0	5	5	0.02	1.343929	3	10	0.03	2000	-14.40128	40.92389	-91.39362
196534	-1673	1986	801	-3.305461	-12.44322	2.6623	0	11.34	20026	0	0	5	5	0.02	1.296537	3	10	0.03	2000	-14.55951	40.92389	-91.39362
196639	-791	-771	977	-3.326026	-11.93894	2.506232	0	11.34	20026	0	0	5	5	0.02	1.209293	3	10	0.03	2000	-15.42279	40.92388	-91.39362
196754	-221	-3507	283	-2.757262	-4.159463	1.111659	0	11.34	20026	0	0	5	5	0.02	1.097593	3	10	0.03	2000	-14.82666	40.92388	-91.39362
196861	511	-681	-177	-1.726498	-2.398645	2.294139	0	11.34	20026	0	0	5	5	0.02	1.002121	3	10	0.03	2000	-15.10895	40.92388	-91.39362
196942	1149	-286	-728	-1.965987	-1.993105	2.788833	0	11.34	20026	0	0	5	5	0.02	0.8661157	3	10	0.03	2000	-17.11139	40.92388	-91.39362
196977	-115	-483	431	-2.72519	-1.600989	2.376544	0	10.43	20026	0	0	5	5	0.02	0.7964788	3	10	0.03	2000	-16.24692	40.92388	-91.39362
197040	-433	-643	-131	-2.088979	-1.824607	2.145363	0	10.43	20026	0	0	5	5	0.02	0.7595794	3	10	0.03	2000	-17.45163	40.92388	-91.39362
197191	-443	1609	-539	-1.424624	-5.308932	2.619454	0	10.43	20026	0	0	5	5	0.02	0.7122529	3	10	0.03	2000	-18.30835	40.92389	-91.39362
197273	2487	1683	151	-0.8057181	-6.629886	2.325006	0	10.43	20026	0	0	5	5	0.02	0.6667741	3	10	0.03	2000	-16.81	40.92389	-91.39362
197419	-235	-866	-189	-1.484892	-5.431718	2.388727	0	10.43	20026	0	0	5	5	0.02	0.5789163	3	10	0.03	2000	-15.8884	40.92389	-91.39362
197491	351	-9	4	-1.493022	-4.838313	2.391154	0	10.43	20026	0	0	5	5	0.02	0.5487111	3	10	0.03	2000	-16.42892	40.92389	-91.39362
197563	52	-484	404	-1.840126	-4.814626	2.329277	0	10.43	20026	0	0	5	5	0.02	0.5325075	3	10	0.03	2000	-15.93341	40.92389	-91.39362
197661	1183	1259	-118	-0.5239424	-4.098917	2.372581	0	10.43	20026	0	0	5	5	0.02	0.4854352	3	10	0.03	2000	-13.96939	40.92389	-91.39362
197873	-855	19	1405	4.552989	8.25174	2.672723	0	11.46	20026	0	0	5	5	0.02	0.4189995	3	10	0.03	2000	-13.4267	40.92389	-91.39362
198024	-248	259	82	2.757824	2.218856	1.562336	0	11.46	20026	0	0	5	5	0.02	0.3368849	1	10	0.03	2000	-12.0968	40.92389	-91.39362
198148	-104	-65	45	2.448811	2.249573	1.507803	0	11.46	20026	0	0	5	5	0.02	0.2801915	1	10	0.03	2000	-11.75485	40.92389	-91.39362
198298	-124	-15	42	2.113605	2.513184	1.46935	0	11.46	20026	0	0	5	5	0.02	0.2186452	1	10	0.03	2000	-11.56036	40.92389	-91.39362
198382	-53	39	51	1.899366	2.680116	1.437865	0	11.46	20026	0	0	5	5	0.02	0.1884258	1	10	0.03	2000	-9.970764	40.92389	-91.39362
198545	-62	22	-40	1.763794	2.777606	1.416406	0	11.46	20026	0	0	5	5	0.02	0.1264532	1	10	0.03	2000	-10.52014	40.92389	-91.39362
198627	-59	-10	36	1.633941	2.881184	1.388469	0	11.46	20026	0	0	5	5	0.02	0.0884072	1	10	0.03	2000	-9.180054	40.92389	-91.39362
198688	-88	-10	1	1.613134	2.90702	1.377647	0	11.46	20026	0	0	5	5	0.02	0.06875627	1	10	0.03	2000	-9.180054	40.92389	-91.39362
198818	-70	-6	13	1.469027	3.025167	1.346221	0	11.51	20026	0	0	5	5	0.02	0.04278647	1	10	0.03	2000	-9.481995	40.92389	-91.39362
198922	-58	13	-13	1.419584	3.060745	1.333747	0	11.51	20026	0	0	5	5	0.02	0.02018157	1	10	0.03	2000	-10.08633	40.92389	-91.39362
199050	-67	2	-5	1.344267	3.133478	1.308858	0	11.51	20026	0	0	5	5	0.02	0.002338723	1	10	0.03	2000	-9.535553	40.92389	-91.39362
199132	-73	11	-33	1.301404	3.179363	1.289722	0	11.51	20026	0	0	5	5	0.02	-0.01383616	1	10	0.03	2000	-9.030334	40.92389	-91.39362
199220	-81	0	6	1.274769	3.198471	1.275783	0	11.51	20026	0	0	5	5	0.02	-0.035216	1	10	0.03	2000	-9.02066	40.92389	-91.39362
199361	-84	-13	7	1.218631	3.249589	1.242582	0	11.51	20026	0	0	5	5	0.02	-0.04426542	1	10	0.03	2000	-8.740509	40.92389	-91.39362
199466	-70	0	10	1.191144	3.276201	1.224547	0	11.51	20026	0	0	5	5	0.02	-0.04796614	1	10	0.03	2000	-8.764465	40.92389	-91.39362
199498	-73	1	7	1.181341	3.283173	1.2177	0	11.51	20026	0	0	5	5	0.02	-0.04784291	1	10	0.03	2000	-8.970703	40.92389	-91.39362
199651	-76	6	13	1.14212	3.30339	1.194285	0	11.57	20026	0	0	5	5	0.02	-0.04704628	1	10	0.03	2000	-8.895447	40.92389	-91.39362
199737	-76	-1	10	1.112935	3.323972	1.175087	0	11.57	20026	0	0	5	5	0.02	-0.04923714	1	10	0.03	2000	-8.342285	40.92389	-91.39362
199799	-78	2	5	1.109513	3.334023	1.16934	0	11.57	20026	0	0	5	5	0.02	-0.05276661	1	10	0.03	2000	-8.54599	40.92389	-91.39362
199957	-79	0	7	1.084787	3.35882	1.135959	0	11.57	20026	0	0	5	5	0.02	-0.07017282	1	10	0.03	2000	-8.509888	40.92389	-91.39362
200038	-73	4	10	1.069865	3.366086	1.118167	0	11.57	20026	0	0	5	5	0.02	-0.07555159	1	10	0.03	2000	-8.522919	40.92389	-91.39362
200177	-79	-2	9	1.052215	3.38778	1.091695	0	11.57	20026	0	0	5	5	0.02	-0.0856196	1	10	0.03	2000	-8.215881	40.92389	-91.39362
200217	-76	1	7	1.049466	3.388	1.085826	0	11.57	20026	0	0	5	5	0.02	-0.08748115	1	10	0.03	2000	-8.271942	40.92389	-91.39362
200347	-80	3	4	1.042397	3.396522	1.068401	0	11.57	20026	0	0	5	5	0.02	-0.09922221	1	10	0.03	2000	-8.465729	40.92389	-91.39362
200463	-75	0	11	1.038198	3.414498	1.040707	0	11.57	20026	0	0	5	5	0.02	-0.1159126	1	10	0.03	2000	-8.411224	40.92389	-91.39362
200568	-71	-1	8	1.024537	3.415168	1.021205	0	11.57	20026	0	0	5	5	0.02	-0.1226203	1	10	0.03	2000	-8.392853	40.92389	-91.39362
200613	-73	1	9	1.027929	3.419122	1.010567	0	11.57	20026	0	0	5	5	0.02	-0.122739	1	10	0.03	2000	-8.462311	40.92389	-91.39362
200732	-74	1	13	1.021833	3.431951	0.9946713	0	11.57	20026	0	0	5	5	0.02	-0.1180311	1	10	0.03	2000	-8.458801	40.92389	-91.39362
200827	-72	-5	12	1.018261	3.432193	0.9765139	0	11.57	20026	0	0	5	5	0.02	-0.1189717	1	10	0.03	2000	-8.173981	40.92389	-91.39362
200913	-71	9	12	1.009738	3.434948	0.9586612	0	11.57	20026	0	0	5	5	0.02	-0.1194029	1	10	0.03	2000	-8.407166	40.92389	-91.39362
201033	-72	3	11	1.004539	3.434565	0.9408688	0	11.57	20026	0	0	5	5	0.02	-0.1217338	1	10	0.03	2000	-8.384766	40.92389	-91.39362
201115	-62	0	10	1.009092	3.434629	0.9228339	0	11.57	20026	0	0	5	5	0.02	-0.1209136	1	10	0.03	2000	-8.11499	40.92389	-91.39362
201225	-76	3	14	1.007495	3.437881	0.9066312	0	11.57	20026	0	0	5	5	0.02	-0.1190171	1	10	0.03	2000	-8.153137	40.92389	-91.39362
201345	-75	-2	15	1.00435	3.445276	0.8839477	0	11.57	20026	0	0	5	5	0.02	-0.1228125	1	10	0.03	2000	-8.107605	40.92389	-91.39362
201436	-68	5	12	1.002257	3.444265	0.8728812	0	11.57	20026	0	0	5	5	0.02	-0.1180841	1	10	0.03	2000	-8.380219	40.92389	-91.39362
201523	-66	-2	15	1.008355	3.449645	0.8554575	0	11.51	20026	0	0	5	5	0.02	-0.1074005	1	10	0.03	2000	-8.143097	40.92389	-91.39362
201642	-79	0	13	1.01163	3.451228	0.8347926	0	11.51	20026	0	0	5	5	0.02	-0.08967918	1	10	0.03	2000	-8.628235	40.92389	-91.39362
201738	-71	-3	11	1.013502	3.453262	0.8157799	0	11.51	20026	0	0	5	5	0.02	-0.06972515	1	10	0.03	2000	-8.394501	40.92389	-91.39362
201826	-70	-2	10	1.01597	3.450868	0.8052644	0	11.51	20026	0	0	5	5	0.02	-0.04854484	1	10	0.03	2000	-8.358398	40.92389	-91.39362
201932	-70	3	4	1.014661	3.453104	0.7911419	0	11.51	20026	0	0	5	5	0.02	-0.03561658	1	10	0.03	2000	-8.633057	40.92389	-91.39362
202026	-83	507	14	1.036583	3.447077	0.7537274	0	11.51	20026	0	0	5	5	0.02	-0.02935858	1	10	0.03	2000	-8.648987	40.92389	-91.39362
202133	-584	32	155	0.845256	3.186766	0.6784406	0	11.51	20026	0	0	5	5	0.02	-0.01496362	1	10	0.03	2000	-8.255127	40.92389	-91.39362
202241	-5976	-4011	-2337	-2.717415	5.476256	1.856703	0	11.51	20026	0	0	5	5	0.02	-0.002153421	1	10	0.03	2000	-8.207672	40.92389	-91.39362
202365	1877	-1405	-2102	-2.038646	9.976044	9.532193	0	11.57	20026	0	0	5	5	0.02	0.0197549	1	10	0.03	2000	-12.87357	40.92389	-91.39362
202427	1964	-1960	-1416	-0.9173144	11.05195	10.47987	0	11.57	20026	0	0	5	5	0.02	0.03410306	1	10	0.03	2000	-13.91071	40.92389	-91.39362
202580	1204	-347	575	-0.5510958	13.41748	10.80485	0	11.57	20026	0	0	5	5	0.02	0.05986661	1	10	0.03	2000	-14.02136	40.92389	-91.39362
202662	-933	1009	211	-1.187622	14.94526	10.43705	0	11.57	20026	0	0	5	5	0.02	0.08177876	1	10	0.03	2000	-12.00211	40.9239	-91.39362
202737	-2307	2355	-402	-4.413332	14.85067	10.39259	0	11.57	20026	0	0	5	5	0.02	0.1095012	1	10	0.03	2000	-9.672028	40.9239	-91.39362
202875	-5084	-1170	-310	-10.56186	16.3601	11.22971	0	11.57	20026	0	0	5	5	0.02	0.1426239	1	10	0.03	2000	-10.34259	40.9239	-91.39362
202944	-4485	-954	-1203	-16.57039	18.96742	12.30306	0	11.57	20026	0	0	5	5	0.02	0.1594028	1	10	0.03	2000	-11.34875	40.9239	-91.39362
203051	-2612	308	-1286	-19.78919	21.06629	14.43717	0	11.57	20026	0	0	5	5	0.02	0.1972005	1	10	0.03	2000	-18.53619	40.9239	-91.39362
203171	1710	-199	-838	-18.1674	22.21522	16.23044	0	11.57	20026	0	0	5	5	0.02	0.2375053	1	10	0.03	2000	-21.92255	40.9239	-91.39362
203257	609	465	-700	-14.0141	22.11606	17.32611	0	11.57	20026	0	0	5	5	0.02	0.2571691	1	10	0.03	2000	-23.08759	40.9239	-91.39362
203386	2735	-1574	1222	-9.950353	22.46442	17.20373	0	11.68	20026	0	0	5	5	0.02	0.2931791	1	10	0.03	2000	-24.82401	40.9239	-91.39362
203486	1696	496	3328	-8.047372	22.28238	13.30645	0	11.68	20026	0	0	5	5	0.02	0.3203952	1	10	0.03	2000	-21.34598	40.9239	-91.39362
203657	2187	583	4833	-6.058367	20.64698	3.740805	0	11.68	20026	0	0	5	5	0.02	0.3578365	1	10	0.03	2000	-13.01868	40.9239	-91.39362
203721	1619	2369	3040	-4.712145	12.55309	-5.534706	0	11.68	20026	0	0	5	5	0.02	0.3727091	1	10	0.03	2000	-5.162018	40.9239	-91.39362
203811	768	2220	984	-4.269135	8.551929	-7.531319	0	11.68	20026	0	0	5	5	0.02	0.3970446	1	10	0.03	2000	-5.162018	40.9239	-91.39362
203868	730	1084	7	-2.987526	5.696687	-8.118662	0	11.68	20026	0	0	5	5	0.02	0.3988196	1	10	0.03	2000	-3.365326	40.9239	-91.39362
203977	414	2359	-210	-3.054567	2.429293	-8.019619	0	11.68	20026	0	0	5	5	0.02	0.3975449	1	10	0.03	2000	-2.540009	40.9239	-91.39362
204081	-328	-335	51	-2.707881	-2.698205	-8.114511	0	11.68	20026	0	0	5	5	0.02	0.3803266	1	10	0.03	2000	-1.791351	40.9239	-91.39362
204237	598	950	1674	-2.051652	-2.21382	-9.462627	0	11.68	20026	0	0	5	5	0.02	0.3446587	1	10	0.03	2000	-1.334534	40.9239	-91.39362
204273	-160	496	1184	-2.026379	-2.846554	-10.22707	0	11.68	20026	0	0	5	5	0.02	0.3366535	1	10	0.03	2000	-0.3621521	40.9239	-91.39362
204357	1055	1293	-3080	-1.279622	-3.542137	-10.02206	0	11.68	20026	0	0	5	5	0.02	0.297258	1	10	0.03	2000	1.131207	40.9239	-91.39362
204468	77	250	132	-0.621609	-3.010941	-8.975268	0	11.68	20026	0	0	5	5	0.02	0.2663288	1	10	0.03	2000	-0.7054443	40.9239	-91.39362
204550	-204	-572	-166	-0.6137212	-2.649796	-8.975463	0	11.68	20026	0	0	5	5	0.02	0.2371662	1	10	0.03	2000	-0.8649597	40.9239	-91.39362
204644	-22	165	-4	-0.7607585	-2.111077	-8.906379	0	11.68	20026	0	0	5	5	0.02	0.2211914	1	10	0.03	2000	-0.8866882	40.9239	-91.39362
204750	-70	-23	9	-0.7520257	-1.886545	-8.915979	0	11.68	20026	0	0	5	5	0.02	0.2032642	1	10	0.03	2000	-0.6890564	40.9239	-91.39362
204840	-67	-4	6	-0.7693259	-1.620133	-8.926556	0	11.68	20026	0	0	5	5	0.02	0.1794017	1	10	0.03	2000	-0.6770325	40.9239	-91.39362
204946	-65	0	8	-0.776934	-1.36026	-8.943127	0	11.68	20026	0	0	5	5	0.02	0.1518739	1	10	0.03	2000	-0.6496582	40.9239	-91.39362
205057	-71	2	11	-0.782758	-1.194507	-8.953093	0	11.68	20026	0	0	5	5	0.02	0.1373924	1	10	0.03	2000	-0.8913269	40.9239	-91.39362
205165	-70	1	2	-0.7904668	-1.038206	-8.966666	0	11.63	20026	0	0	5	5	0.02	0.1209506	1	10	0.03	2000	-0.6320801	40.9239	-91.39362
205281	-68	0	4	-0.7964141	-0.9115481	-8.978771	0	11.63	20026	0	0	5	5	0.02	0.1095774	1	10	0.03	2000	-0.6256104	40.9239	-91.39362
205346	-67	6	7	-0.7984147	-0.840648	-8.984334	0	11.63	20026	0	0	5	5	0.02	0.1047402	1	10	0.03	2000	-0.6082458	40.9239	-91.39362
205464	-74	6	6	-0.7997576	-0.7058173	-9.00072	0	11.63	20026	0	0	5	5	0.02	0.08952646	1	10	0.03	2000	-0.5996399	40.9239	-91.39362
205580	-58	1	12	-0.7915418	-0.5961945	-9.016863	0	11.63	20026	0	0	5	5	0.02	0.07674771	1	10	0.03	2000	-0.6101685	40.92391	-91.39362
205661	-75	-2	5	-0.7936499	-0.552841	-9.023527	0	11.63	20026	0	0	5	5	0.02	0.06530561	1	10	0.03	2000	-0.6105042	40.92391	-91.39362
205756	-68	3	6	-0.7988446	-0.4809166	-9.035939	0	11.63	20026	0	0	5	5	0.02	0.06067545	1	10	0.03	2000	-0.8412476	40.92391	-91.39362
205881	-70	4	5	-0.7985703	-0.4241998	-9.044498	0	11.63	20026	0	0	5	5	0.02	0.05728351	1	10	0.03	2000	-0.5993347	40.92391	-91.39362
205957	-68	3	5	-0.8024976	-0.3665326	-9.057705	0	11.63	20026	0	0	5	5	0.02	0.05343565	1	10	0.03	2000	-0.8295898	40.92391	-91.39362
206072	-66	0	7	-0.8007618	-0.3151817	-9.071951	0	11.63	20026	0	0	5	5	0.02	0.04414186	1	10	0.03	2000	-0.5895386	40.92391	-91.39362
206174	-67	0	8	-0.7957685	-0.2891152	-9.080877	0	11.63	20026	0	0	5	5	0.02	0.03361544	1	10	0.03	2000	-0.5943604	40.92391	-91.39362
206349	-69	9	9	-0.8005767	-0.2190982	-9.105762	0	11.63	20026	0	0	5	5	0.02	0.003229119	1	10	0.03	2000	-0.5910034	40.92391	-91.39362
206393	-62	0	4	-0.8017909	-0.209	-9.109919	0	11.63	20026	0	0	5	5	0.02	-0.00272396	1	10	0.03	2000	-0.8283081	40.92391	-91.39362
206509	-63	8	1	-0.8061175	-0.1818013	-9.122143	0	11.63	20026	0	0	5	5	0.02	-0.01697052	1	10	0.03	2000	-0.5859985	40.92391	-91.39363
206587	-65	8	2	-0.8033694	-0.1655977	-9.128807	0	11.63	20026	0	0	5	5	0.02	-0.02095254	1	10	0.03	2000	-0.8157654	40.92391	-91.39363
206662	-67	7	6	-0.8078682	-0.150294	-9.137367	0	11.63	20026	0	0	5	5	0.02	-0.02185236	1	10	0.03	2000	-0.5863953	40.92391	-91.39363
206797	-70	0	1	-0.8085932	-0.1260489	-9.152829	0	11.63	20026	0	0	5	5	0.02	-0.02963524	1	10	0.03	2000	-0.5813293	40.92391	-91.39363
206871	-69	2	3	-0.8155029	-0.1072304	-9.164323	0	11.63	20026	0	0	5	5	0.02	-0.03848857	1	10	0.03	2000	-0.5716553	40.92391	-91.39363
206986	-60	3	14	-0.8106104	-0.09864162	-9.177466	0	11.63	20026	0	0	5	5	0.02	-0.04421325	1	10	0.03	2000	-0.5645752	40.92391	-91.39363
207078	-64	2	13	-0.8100689	-0.09106469	-9.196294	0	11.63	20026	0	0	5	5	0.02	-0.04567895	1	10	0.03	2000	-0.5715637	40.92391	-91.39363
207203	-65	4	9	-0.8103237	-0.08665054	-9.209133	0	11.63	20026	0	0	5	5	0.02	-0.02668106	1	10	0.03	2000	-0.8038635	40.92391	-91.39363
207292	-61	-2	9	-0.8126128	-0.07394812	-9.220505	0	11.63	20026	0	0	5	5	0.02	-0.0130349	1	10	0.03	2000	-0.5682678	40.92391	-91.39363
207356	-70	-2	5	-0.8112622	-0.06519887	-9.230169	0	11.63	20026	0	0	5	5	0.02	0.004657526	1	10	0.03	2000	-0.5730591	40.92391	-91.39363
207471	-64	4	5	-0.811079	-0.05677061	-9.240195	0	11.63	20026	0	0	5	5	0.02	0.02126445	1	10	0.03	2000	-0.5700684	40.92391	-91.39363
207509	-61	0	10	-0.8065684	-0.05120539	-9.252176	0	11.63	20026	0	0	5	5	0.02	0.02390714	1	10	0.03	2000	-0.570343	40.92391	-91.39363
207619	-62	1	2	-0.8053064	-0.04116913	-9.260126	0	11.63	20026	0	0	5	5	0.02	0.0386055	1	10	0.03	2000	-0.578186	40.92391	-91.39363
207712	-66	2	5	-0.8121989	-0.03580618	-9.272353	0	11.63	20026	0	0	5	5	0.02	0.04614985	1	10	0.03	2000	-0.5733948	40.92391	-91.39363
207869	-64	1	8	-0.7997147	-0.0273553	-9.291243	0	11.63	20026	0	0	5	5	0.02	0.06681122	1	10	0.03	2000	-0.5950928	40.92391	-91.39363
207928	-63	4	6	-0.7989285	-0.02226939	-9.294789	0	11.63	20026	0	0	5	5	0.02	0.07070187	1	10	0.03	2000	-0.8178711	40.92391	-91.39363
208048	-63	6	8	-0.7875339	-0.02041983	-9.313681	0	11.63	20026	0	0	5	5	0.02	0.0770421	1	10	0.03	2000	-0.6065979	40.92391	-91.39363
208136	-64	0	4	-0.7911469	-0.01766558	-9.325235	0	11.63	20026	0	0	5	5	0.02	0.07859088	1	10	0.03	2000	-0.831665	40.92391	-91.39363
208226	-69	-4	4	-0.7959528	-0.01470707	-9.336302	0	11.63	20026	0	0	5	5	0.02	0.07840037	1	10	0.03	2000	-0.6066589	40.92391	-91.39363
208303	-62	1	9	-0.792257	-0.01380811	-9.341316	0	11.63	20026	0	0	5	5	0.02	0.07621618	1	10	0.03	2000	-0.8272705	40.92391	-91.39363
208452	-64	-6	7	-0.7872128	-0.01322568	-9.363512	0	11.63	20026	0	0	5	5	0.02	0.06576377	1	10	0.03	2000	-0.6071472	40.92391	-91.39363
208590	-59	2	5	-0.7953753	-0.01322143	-9.38289	0	11.63	20026	0	0	5	5	0.02	0.06175996	1	10	0.03	2000	-0.597229	40.92391	-91.39363
208657	-62	1	2	-0.7915354	-0.01060194	-9.390961	0	11.63	20026	0	0	5	5	0.02	0.06286373	1	10	0.03	2000	-0.6037292	40.92392	-91.39363
208787	-68	0	4	-0.7919136	-0.01162798	-9.403494	0	11.63	20026	0	0	5	5	0.02	0.06286719	1	10	0.03	2000	-0.6028748	40.92392	-91.39363
208833	-58	0	13	-0.7911835	-0.0108142	-9.412359	0	11.63	20026	0	0	5	5	0.02	0.0624593	1	10	0.03	2000	-0.6029358	40.92392	-91.39363
208967	-65	-2	9	-0.7890581	-0.01575361	-9.42838	0	11.63	20026	0	0	5	5	0.02	0.05268449	1	10	0.03	2000	-0.6021423	40.92392	-91.39363
209057	-64	4	7	-0.7903989	-0.01073318	-9.435901	0	11.63	20026	0	0	5	5	0.02	0.04648317	1	10	0.03	2000	-0.6060791	40.92392	-91.39363
209103	-68	3	4	-0.7865953	-0.00744462	-9.443484	0	11.63	20026	0	0	5	5	0.02	0.04428807	1	10	0.03	2000	-0.6052551	40.92392	-91.39363
209195	-65	-4	7	-0.7819831	-0.008460173	-9.455038	0	11.63	20026	0	0	5	5	0.02	0.03676846	1	10	0.03	2000	-0.8501892	40.92392	-91.39363
209366	-57	3	6	-0.7712918	-0.007733877	-9.473139	0	11.63	20026	0	0	5	5	0.02	0.01159562	1	10	0.03	2000	-0.6324768	40.92392	-91.39363
209441	-65	-1	3	-0.7752342	-0.009334507	-9.478518	0	11.63	20026	0	0	5	5	0.02	0.002051396	1	10	0.03	2000	-0.8683777	40.92392	-91.39363
209501	-64	3	7	-0.7753205	-0.01174632	-9.486835	0	11.63	20026	0	0	5	5	0.02	-0.002150053	1	10	0.03	2000	-0.6304932	40.92392	-91.39363
209610	-65	0	7	-0.7724148	-0.009121388	-9.500225	0	11.63	20026	0	0	5	5	0.02	-0.01252911	1	10	0.03	2000	-0.629303	40.92392	-91.39363
209695	-61	3	10	-0.7734415	-0.007141821	-9.507685	0	11.63	20026	0	0	5	5	0.02	-0.01434907	1	10	0.03	2000	-0.6333618	40.92392	-91.39363
209804	-65	-1	4	-0.7696283	-0.009955574	-9.521687	0	11.63	20026	0	0	5	5	0.02	-0.01387687	1	10	0.03	2000	-0.6347351	40.92392	-91.39363
209899	-61	3	1	-0.7684155	-0.01003616	-9.530002	0	11.63	20026	0	0	5	5	0.02	-0.009346068	1	10	0.03	2000	-0.6403198	40.92392	-91.39363
210016	-66	-3	8	-0.7689549	-0.01410607	-9.548037	0	11.63	20026	0	0	5	5	0.02	-0.009948827	1	10	0.03	2000	-0.8720093	40.92392	-91.39363
210109	-64	6	6	-0.7747444	-0.01154374	-9.555251	0	11.63	20026	0	0	5	5	0.02	-0.005889827	1	10	0.03	2000	-0.6365356	40.92392	-91.39363
210246	-66	4	13	-0.7755637	-0.01172871	-9.571574	0	11.63	20026	0	0	5	5	0.02	0.002554132	1	10	0.03	2000	-0.6307983	40.92392	-91.39363
210309	-54	-5	3	-0.7704195	-0.008536407	-9.579217	0	11.63	20026	0	0	5	5	0.02	0.008671529	1	10	0.03	2000	-0.85849	40.92392	-91.39363
210466	-65	5	8	-0.7755421	-0.009305424	-9.592056	0	11.63	20026	0	0	5	5	0.02	0.02909355	1	10	0.03	2000	-0.6335449	40.92392	-91.39363
210539	-60	4	7	-0.7704415	-0.01236955	-9.603672	0	11.63	20026	0	0	5	5	0.02	0.03854817	1	10	0.03	2000	-0.6360168	40.92392	-91.39363
210624	-59	-1	8	-0.7682846	-0.007725352	-9.610642	0	11.63	20026	0	0	5	5	0.02	0.04450976	1	10	0.03	2000	-0.8691406	40.92392	-91.39363
210750	-70	-3	1	-0.7635109	-0.006403768	-9.626537	0	11.63	20026	0	0	5	5	0.02	0.06115234	1	10	0.03	2000	-0.6477051	40.92392	-91.39363
210822	-62	-5	8	-0.7599857	-0.004354347	-9.629166	0	11.63	20026	0	0	5	5	0.02	0.06974544	1	10	0.03	2000	-0.6477051	40.92392	-91.39363
210990	-62	1	9	-0.7610137	-0.01276479	-9.651909	0	11.63	20026	0	0	5	5	0.02	0.08204164	1	10	0.03	2000	-0.6488647	40.92392	-91.39363
211061	-64	0	5	-0.7598682	-0.01733489	-9.659488	0	11.63	20026	0	0	5	5	0.02	0.08853268	1	10	0.03	2000	-0.6533508	40.92392	-91.39364
211133	-60	5	10	-0.7656609	-0.0104521	-9.666336	0	11.63	20026	0	0	5	5	0.02	0.08909759	1	10	0.03	2000	-0.6504822	40.92392	-91.39364
211227	-66	0	8	-0.7614819	-0.0139585	-9.673857	0	11.63	20026	0	0	5	5	0.02	0.09365645	1	10	0.03	2000	-0.8741455	40.92392	-91.39364
211337	-67	3	11	-0.7627952	-0.01111233	-9.683517	0	11.63	20026	0	0	5	5	0.02	0.09477483	1	10	0.03	2000	-0.646637	40.92392	-91.39364
211444	-67	-2	12	-0.7688367	-0.01568045	-9.696722	0	11.63	20026	0	0	5	5	0.02	0.09407058	1	10	0.03	2000	-0.6400146	40.92392	-91.39364
211539	-61	2	8	-0.7681443	-0.01652781	-9.704546	0	11.63	20026	0	0	5	5	0.02	0.09450283	1	10	0.03	2000	-0.637207	40.92392	-91.39364
211647	-61	-1	3	-0.7701966	-0.02501957	-9.715427	0	11.63	20026	0	0	5	5	0.02	0.09347019	1	10	0.03	2000	-0.6371155	40.92392	-91.39364
211758	-64	0	10	-0.7729321	-0.02841062	-9.721479	0	11.63	20026	0	0	5	5	0.02	0.08954522	1	10	0.03	2000	-0.8633728	40.92392	-91.39364
211842	-65	1	7	-0.7715361	-0.03030807	-9.732545	0	11.63	20026	0	0	5	5	0.02	0.08687565	1	10	0.03	2000	-0.6329651	40.92392	-91.39364
211965	-67	-3	4	-0.7591661	-0.02572074	-9.745872	0	11.63	20026	0	0	5	5	0.02	0.07919428	1	10	0.03	2000	-0.6557007	40.92392	-91.39364
212054	-64	2	10	-0.7602551	-0.02411432	-9.753025	0	11.63	20026	0	0	5	5	0.02	0.07763322	1	10	0.03	2000	-0.6565552	40.92392	-91.39364
212120	-60	3	4	-0.7591406	-0.01575986	-9.764518	0	11.63	20026	0	0	5	5	0.02	0.08068437	1	10	0.03	2000	-0.6517639	40.92392	-91.39364
212230	-57	3	5	-0.7507327	-0.01519381	-9.773196	0	11.63	20026	0	0	5	5	0.02	0.09026224	1	10	0.03	2000	-0.8924561	40.92392	-91.39364
212356	-62	1	8	-0.7493809	-0.01508347	-9.785239	0	11.63	20026	0	0	5	5	0.02	0.1046797	1	10	0.03	2000	-0.6675415	40.92392	-91.39364
212436	-58	2	8	-0.7444696	-0.01100222	-9.791967	0	11.63	20026	0	0	5	5	0.02	0.1065725	1	10	0.03	2000	-0.6782532	40.92392	-91.39364
212540	-58	3	9	-0.736581	0.003008257	-9.805663	0	11.63	20026	0	0	5	5	0.02	0.104483	1	10	0.03	2000	-0.6792297	40.92392	-91.39364
212640	-55	5	6	-0.7239599	-0.001651976	-9.816119	0	11.63	20026	0	0	5	5	0.02	0.1035211	1	10	0.03	2000	-0.6990662	40.92392	-91.39364
212809	-57	0	5	-0.7162445	-0.006365994	-9.833419	0	11.63	20026	0	0	5	5	0.02	0.1026358	1	10	0.03	2000	-0.7225342	40.92392	-91.39364
212878	-59	-3	6	-0.7153717	-0.007235101	-9.838799	0	11.63	20026	0	0	5	5	0.02	0.1025084	1	10	0.03	2000	-0.9552917	40.92392	-91.39364
212946	-53	-1	4	-0.7104948	-0.003878595	-9.844055	0	11.63	20026	0	0	5	5	0.02	0.1046826	1	10	0.03	2000	-0.7250061	40.92392	-91.39364
213104	-57	1	4	-0.7063019	-0.00403492	-9.857869	0	11.63	20026	0	0	5	5	0.02	0.1020298	1	10	0.03	2000	-0.7417603	40.92392	-91.39364
213190	-57	1	5	-0.7102632	-0.006553099	-9.865574	0	11.63	20026	0	0	5	5	0.02	0.1012285	1	10	0.03	2000	-0.7417603	40.92392	-91.39364
213215	-57	-1	7	-0.7136005	-0.00660228	-9.867958	0	11.63	20026	0	0	5	5	0.02	0.1012285	1	10	0.03	2000	-0.7283325	40.92392	-91.39364
213368	-58	1	8	-0.7091083	-0.002477869	-9.886241	0	11.68	20026	0	0	5	5	0.02	0.09476113	1	10	0.03	2000	-0.7452393	40.92392	-91.39364
213425	-58	1	5	-0.7099062	8.034831E-05	-9.889297	0	11.68	20026	0	0	5	5	0.02	0.09361403	1	10	0.03	2000	-0.7391357	40.92392	-91.39364
213533	-55	-2	7	-0.7098888	0.003074992	-9.900546	0	11.68	20026	0	0	5	5	0.02	0.09263522	1	10	0.03	2000	-0.7288208	40.92392	-91.39364
213666	-50	-1	3	-0.7078924	0.0003418304	-9.90764	0	11.68	20026	0	0	5	5	0.02	0.1012917	1	10	0.03	2000	-0.7315674	40.92392	-91.39364
213759	-55	0	2	-0.7033824	0.001887225	-9.91785	0	11.68	20026	0	0	5	5	0.02	0.1167011	1	10	0.03	2000	-0.7412415	40.92392	-91.39364
213881	-60	-3	6	-0.7067868	-0.001989329	-9.928424	0	11.68	20026	0	0	5	5	0.02	0.1335773	1	10	0.03	2000	-0.7336426	40.92392	-91.39364
213994	-56	2	10	-0.7033888	0.002692231	-9.938265	0	11.68	20026	0	0	5	5	0.02	0.1411311	1	10	0.03	2000	-0.7461243	40.92392	-91.39364
214035	-60	-1	6	-0.7032731	0.004747911	-9.943522	0	11.68	20026	0	0	5	5	0.02	0.1473458	1	10	0.03	2000	-0.7406921	40.92392	-91.39364
214163	-53	0	3	-0.7096081	0.005135613	-9.951225	0	11.68	20026	0	0	5	5	0.02	0.1453781	1	10	0.03	2000	-0.7340698	40.92392	-91.39364
214262	-55	-4	8	-0.7050099	0.004791143	-9.96443	0	11.68	20026	0	0	5	5	0.02	0.1455301	1	10	0.03	2000	-0.7414856	40.92392	-91.39364
214323	-63	-1	5	-0.7045212	0.006147299	-9.967488	0	11.68	20026	0	0	5	5	0.02	0.1430958	1	10	0.03	2000	-0.9674988	40.92392	-91.39364
214439	-60	-2	6	-0.706511	0.007984343	-9.978431	0	11.68	20026	0	0	5	5	0.02	0.1371801	1	10	0.03	2000	-0.7327881	40.92392	-91.39364
214536	-54	-2	5	-0.7037431	0.003020888	-9.987846	0	11.68	20026	0	0	5	5	0.02	0.1337351	1	10	0.03	2000	-0.7396851	40.92392	-91.39364
214637	-61	-4	5	-0.7022164	0.004847411	-9.993348	0	11.68	20026	0	0	5	5	0.02	0.1234052	1	10	0.03	2000	-0.743866	40.92392	-91.39364
214728	-61	-3	8	-0.7067465	0.003858694	-10.00539	0	11.68	20026	0	0	5	5	0.02	0.1226071	1	10	0.03	2000	-0.7451782	40.92392	-91.39364
214911	-65	5	4	-0.7082211	0.005207008	-10.02447	0	11.68	20026	0	0	5	5	0.02	0.1224603	1	10	0.03	2000	-1.196991	40.92392	-91.39364
214989	-62	1	8	-0.7081653	0.006858218	-10.02948	0	11.68	20026	0	0	5	5	0.02	0.1153239	1	10	0.03	2000	-0.7344055	40.92392	-91.39364
215110	-53	0	12	-0.7058612	0.0123612	-10.03877	0	11.68	20026	0	0	5	5	0.02	0.1066989	1	10	0.03	2000	-0.7356262	40.92392	-91.39364
215159	-59	3	7	-0.7046818	0.01338686	-10.04666	0	11.68	20026	0	0	5	5	0.02	0.1050859	1	10	0.03	2000	-0.9738159	40.92392	-91.39364
215212	-60	-1	7	-0.70713	0.01308622	-10.04959	0	11.63	20026	0	0	5	5	0.02	0.09281382	1	10	0.03	2000	-0.9747009	40.92392	-91.39364
