time(ms)	gyro_x(deg/s)	gyro_y(deg/s)	gyro_z(deg/s)	orientation_roll(deg)	orientation_pitch(deg)	orientation_yaw(deg)	throttle	battery(V)	loop_time(uS)	pid_output_roll	pid_output_pitch	pid_output_yaw	pid_output_throttle	ultrasonic_alt	baro_alt	flight_mode	p_gain_altitude	i_gain_altitude	d_gain_altitude	compass_heading	latitude	longitude
647486	-99	-3	15	-1.981328	-0.5349856	-24.42562	0	9.92	20034	0	0	5	5	0.02	-0.3061641	1	10	0.03	2000	6.219995	40.92392	-91.39364
647645	-95	6	20	-1.966282	-0.5058901	-24.46072	0	9.87	20034	0	0	5	5	0.02	-0.3114665	1	10	0.03	2000	6.210617	40.92393	-91.39364
647705	-101	-3	9	-1.961211	-0.4920941	-24.47723	0	9.87	20034	0	0	5	5	0.02	-0.3133821	1	10	0.03	2000	6.218869	40.92393	-91.39364
647802	-95	1	17	-1.95439	-0.4828936	-24.49588	0	9.87	20034	0	0	5	5	0.02	-0.3176099	1	10	0.03	2000	5.955652	40.92393	-91.39364
647922	-101	-2	14	-1.935583	-0.4565228	-24.52946	0	9.87	20034	0	0	5	5	0.02	-0.3161042	1	10	0.03	2000	6.185039	40.92393	-91.39364
647996	-101	4	12	-1.931283	-0.4422409	-24.55326	0	9.87	20034	0	0	5	5	0.02	-0.3115734	1	10	0.03	2000	6.365662	40.92393	-91.39364
648096	-99	1	14	-1.925073	-0.4318273	-24.56958	0	9.87	20034	0	0	5	5	0.02	-0.3077404	1	10	0.03	2000	6.156065	40.92393	-91.39364
648224	-98	0	18	-1.918659	-0.4178987	-24.61007	0	9.87	20034	0	0	5	5	0.02	-0.300751	1	10	0.03	2000	6.137906	40.92393	-91.39364
648300	-97	7	14	-1.915069	-0.4122868	-24.6267	0	9.87	20034	0	0	5	5	0.02	-0.2995419	1	10	0.03	2000	5.867927	40.92393	-91.39364
648451	-98	1	15	-1.909972	-0.3976896	-24.65765	0	9.87	20034	0	0	5	5	0.02	-0.2913201	1	10	0.03	2000	6.12529	40.92393	-91.39364
648503	-98	5	16	-1.904519	-0.391825	-24.67441	0	9.92	20034	0	0	5	5	0.02	-0.2828838	1	10	0.03	2000	6.072297	40.92393	-91.39364
648607	-94	1	13	-1.88765	-0.3846351	-24.7018	0	9.92	20034	0	0	5	5	0.02	-0.2795135	1	10	0.03	2000	6.113047	40.92393	-91.39364
648724	-92	1	16	-1.890412	-0.3792988	-24.72407	0	9.92	20034	0	0	5	5	0.02	-0.2824677	1	10	0.03	2000	6.313691	40.92393	-91.39364
648830	-96	0	15	-1.880167	-0.3750075	-24.7492	0	9.92	20034	0	0	5	5	0.02	-0.2900207	1	10	0.03	2000	6.301474	40.92393	-91.39364
648909	-100	5	17	-1.876037	-0.3690727	-24.76553	0	9.92	20034	0	0	5	5	0.02	-0.296583	1	10	0.03	2000	6.072662	40.92393	-91.39364
649019	-95	-1	13	-1.871287	-0.3709108	-24.7977	0	9.92	20034	0	0	5	5	0.02	-0.3008511	1	10	0.03	2000	6.050079	40.92393	-91.39364
649173	-80	-13	8	-1.873745	-0.3642841	-24.8325	0	9.92	20034	0	0	5	5	0.02	-0.2955428	1	10	0.03	2000	6.045935	40.92393	-91.39364
649280	-85	0	13	-1.868781	-0.3660104	-24.85622	0	9.92	20034	0	0	5	5	0.02	-0.2946115	1	10	0.03	2000	6.053432	40.92393	-91.39364
649366	-96	5	16	-1.870751	-0.3674241	-24.87316	0	9.92	20034	0	0	5	5	0.02	-0.2936	1	10	0.03	2000	5.831534	40.92393	-91.39364
649415	-94	9	14	-1.865085	-0.3608335	-24.8879	0	9.92	20034	0	0	5	5	0.02	-0.2925195	1	10	0.03	2000	6.055971	40.92393	-91.39364
649533	-101	1	9	-1.863989	-0.3544379	-24.91659	0	9.87	20034	0	0	5	5	0.02	-0.288333	1	10	0.03	2000	5.823542	40.92393	-91.39364
649615	-96	7	11	-1.857551	-0.3489082	-24.93604	0	9.87	20034	0	0	5	5	0.02	-0.2895408	1	10	0.03	2000	6.012139	40.92393	-91.39364
649727	-102	-6	11	-1.858451	-0.348817	-24.9506	0	9.87	20034	0	0	5	5	0.02	-0.2868285	1	10	0.03	2000	5.801431	40.92393	-91.39364
649835	-196	236	328	-1.957723	-0.170763	-25.05961	0	9.87	20034	0	0	5	5	0.02	-0.2766158	1	10	0.03	2000	6.174064	40.92393	-91.39364
649925	-428	311	-112	-1.939515	-0.4178133	-24.95389	0	9.87	20034	0	0	5	5	0.02	-0.270625	1	10	0.03	2000	6.318281	40.92393	-91.39364
650051	183	-216	-2019	-2.949098	1.09181	-24.64221	0	9.87	20034	0	0	5	5	0.02	-0.2314642	1	10	0.03	2000	6.325963	40.92393	-91.39364
650118	827	-986	-3304	-2.0475	2.934493	-21.41512	0	9.87	20034	0	0	5	5	0.02	-0.2268752	1	10	0.03	2000	4.495932	40.92393	-91.39364
650308	1647	2340	-780	3.292956	6.030732	-12.66699	0	9.87	20034	0	0	5	5	0.02	-0.1868473	1	10	0.03	2000	-3.361664	40.92393	-91.39364
650350	1281	1656	-420	4.142049	5.471724	-12.36329	0	9.98	20034	0	0	5	5	0.02	-0.1827133	1	10	0.03	2000	-3.361664	40.92393	-91.39364
650424	165	-232	1568	4.627577	5.106284	-13.53894	0	9.98	20034	0	0	5	5	0.02	-0.1705548	1	10	0.03	2000	-3.475037	40.92393	-91.39364
650555	-1012	-1375	1430	3.11815	5.981061	-15.7867	0	9.98	20034	0	0	5	5	0.02	-0.1352416	1	10	0.03	2000	0.1746627	40.92393	-91.39364
650620	-1824	-1843	1984	0.3722971	5.920344	-18.88434	0	9.98	20034	0	0	5	5	0.02	-0.1294921	1	10	0.03	2000	2.369287	40.92393	-91.39364
650750	-1070	1073	1418	-1.243397	2.613874	-21.8958	0	9.98	20034	0	0	5	5	0.02	-0.09485072	1	10	0.03	2000	5.305922	40.92393	-91.39364
650874	4334	1740	-2023	-1.752507	-3.06087	-21.54413	0	9.98	20034	0	0	5	5	0.02	-0.07333854	1	10	0.03	2000	5.79015	40.92393	-91.39364
650950	524	1056	367	-0.8971614	-3.680987	-21.32052	0	9.98	20034	0	0	5	5	0.02	-0.07266004	1	10	0.03	2000	4.973408	40.92393	-91.39364
651041	-532	-965	22	-0.7200788	-3.521234	-21.44462	0	9.98	20034	0	0	5	5	0.02	-0.07452355	1	10	0.03	2000	4.852215	40.92393	-91.39364
651157	-447	-470	-68	-1.498305	-2.230853	-21.69571	0	9.98	20034	0	0	5	5	0.02	-0.0799503	1	10	0.03	2000	4.611648	40.92392	-91.39364
651233	-108	-158	-198	-1.424995	-1.904669	-21.59842	0	9.98	20034	0	0	5	5	0.02	-0.08574213	1	10	0.03	2000	4.742338	40.92392	-91.39364
651332	-23	84	30	-1.330086	-1.244414	-21.72052	0	9.98	20034	0	0	5	5	0.02	-0.09304266	1	10	0.03	2000	3.814587	40.92392	-91.39364
651435	157	701	22	-1.295986	-0.9274071	-21.75434	0	9.98	20034	0	0	5	5	0.02	-0.1075774	1	10	0.03	2000	4.014906	40.92392	-91.39364
651560	109	351	131	-1.125034	-1.049606	-21.79402	0	9.98	20034	0	0	5	5	0.02	-0.1034449	1	10	0.03	2000	4.165398	40.92392	-91.39364
651661	-193	-106	22	-1.165523	-0.8745142	-21.80876	0	9.98	20034	0	0	5	5	0.02	-0.1131296	1	10	0.03	2000	3.918995	40.92392	-91.39364
651764	-53	59	24	-1.152271	-0.7187227	-21.8414	0	9.98	20034	0	0	5	5	0.02	-0.1278984	1	10	0.03	2000	4.025317	40.92392	-91.39364
651834	-123	-62	31	-1.098559	-0.7064808	-21.86023	0	9.98	20034	0	0	5	5	0.02	-0.1402451	1	10	0.03	2000	3.911748	40.92392	-91.39364
651992	-96	-4	14	-1.107506	-0.5079437	-21.89905	0	9.98	20034	0	0	5	5	0.02	-0.1718088	1	10	0.03	2000	3.810907	40.92392	-91.39364
652049	-108	-15	9	-1.112857	-0.4720087	-21.90688	0	9.98	20034	0	0	5	5	0.02	-0.1753177	1	10	0.03	2000	3.810907	40.92392	-91.39364
652154	-96	1	14	-1.11113	-0.3810695	-21.93256	0	9.98	20034	0	0	5	5	0.02	-0.1742776	1	10	0.03	2000	3.791907	40.92392	-91.39364
652238	-84	20	17	-1.105625	-0.3024263	-21.95378	0	9.98	20034	0	0	5	5	0.02	-0.1736293	1	10	0.03	2000	3.770795	40.92392	-91.39364
652347	-84	19	16	-1.103965	-0.2488379	-21.97898	0	9.98	20034	0	0	5	5	0.02	-0.1748777	1	10	0.03	2000	3.972596	40.92392	-91.39364
652509	-91	3	15	-1.108483	-0.1567695	-22.01885	0	9.98	20034	0	0	5	5	0.02	-0.1791781	1	10	0.03	2000	3.987682	40.92392	-91.39364
652595	-91	0	12	-1.104844	-0.1222972	-22.03359	0	9.98	20034	0	0	5	5	0.02	-0.180039	1	10	0.03	2000	4.000522	40.92392	-91.39364
652645	-88	3	17	-1.105922	-0.07318546	-22.05774	0	9.98	20034	0	0	5	5	0.02	-0.1799028	1	10	0.03	2000	3.973207	40.92392	-91.39364
652749	-91	0	12	-1.110605	-0.04517947	-22.07431	0	9.98	20034	0	0	5	5	0.02	-0.1863107	1	10	0.03	2000	3.990181	40.92392	-91.39364
652849	-86	3	16	-1.104457	-0.002021657	-22.10697	0	9.98	20034	0	0	5	5	0.02	-0.1871478	1	10	0.03	2000	3.970917	40.92392	-91.39364
652977	-94	-3	17	-1.105308	0.02987536	-22.12745	0	9.98	20034	0	0	5	5	0.02	-0.1915644	1	10	0.03	2000	3.9665	40.92392	-91.39364
653054	-90	2	16	-1.10066	0.04741025	-22.14281	0	9.98	20034	0	0	5	5	0.02	-0.1892543	1	10	0.03	2000	3.752362	40.92392	-91.39364
653157	-88	0	10	-1.093711	0.06552799	-22.1718	0	9.98	20034	0	0	5	5	0.02	-0.1840598	1	10	0.03	2000	3.949041	40.92392	-91.39364
653277	-92	3	23	-1.101224	0.08164501	-22.19669	0	9.98	20034	0	0	5	5	0.02	-0.169192	1	10	0.03	2000	3.959019	40.92392	-91.39364
653385	-90	10	20	-1.096435	0.1029234	-22.22255	0	9.98	20034	0	0	5	5	0.02	-0.1617753	1	10	0.03	2000	3.752343	40.92392	-91.39364
653488	-94	0	11	-1.096737	0.117014	-22.25185	0	9.98	20034	0	0	5	5	0.02	-0.1581957	1	10	0.03	2000	3.716832	40.92392	-91.39364
653550	-89	-1	8	-1.096851	0.1204147	-22.25845	0	9.98	20034	0	0	5	5	0.02	-0.1549116	1	10	0.03	2000	3.73506	40.92392	-91.39364
653672	-95	4	13	-1.098697	0.1358598	-22.28304	0	9.98	20034	0	0	5	5	0.02	-0.1546621	1	10	0.03	2000	3.962344	40.92392	-91.39364
653811	-91	5	12	-1.101181	0.1545672	-22.32059	0	9.98	20034	0	0	5	5	0.02	-0.1601658	1	10	0.03	2000	3.729887	40.92392	-91.39364
653856	-96	3	9	-1.099355	0.1544386	-22.33374	0	9.98	20034	0	0	5	5	0.02	-0.1590204	1	10	0.03	2000	3.947454	40.92392	-91.39364
653944	-91	6	14	-1.103239	0.1626505	-22.35539	0	9.98	20034	0	0	5	5	0.02	-0.1614138	1	10	0.03	2000	3.929328	40.92392	-91.39364
654081	-83	8	14	-1.105659	0.1734927	-22.38384	0	9.98	20034	0	0	5	5	0.02	-0.1704288	1	10	0.03	2000	3.965909	40.92392	-91.39364
654138	-97	4	6	-1.104793	0.1804204	-22.39919	0	9.98	20034	0	0	5	5	0.02	-0.1783148	1	10	0.03	2000	3.733613	40.92392	-91.39364
654236	-90	12	15	-1.105067	0.1835987	-22.42267	0	9.98	20034	0	0	5	5	0.02	-0.1819183	1	10	0.03	2000	3.962789	40.92392	-91.39364
654379	-90	2	11	-1.113045	0.1892674	-22.45019	0	9.98	20034	0	0	5	5	0.02	-0.1820668	1	10	0.03	2000	3.965877	40.92392	-91.39364
654437	-93	7	11	-1.123216	0.1931003	-22.45753	0	9.98	20034	0	0	5	5	0.02	-0.179802	1	10	0.03	2000	3.965877	40.92392	-91.39364
654532	-94	5	11	-1.120013	0.1946751	-22.48707	0	9.98	20034	0	0	5	5	0.02	-0.1822616	1	10	0.03	2000	3.969284	40.92392	-91.39364
654635	-93	0	16	-1.119668	0.1964853	-22.50946	0	9.98	20034	0	0	5	5	0.02	-0.1820563	1	10	0.03	2000	3.968096	40.92392	-91.39364
654742	-92	3	14	-1.120762	0.1957349	-22.53148	0	9.98	20034	0	0	5	5	0.02	-0.1787242	1	10	0.03	2000	3.751012	40.92392	-91.39364
654845	-95	-4	11	-1.114935	0.1999421	-22.55509	0	9.98	20034	0	0	5	5	0.02	-0.1700853	1	10	0.03	2000	3.981915	40.92392	-91.39364
654968	-93	5	13	-1.111441	0.2064331	-22.5776	0	9.98	20034	0	0	5	5	0.02	-0.169907	1	10	0.03	2000	3.740506	40.92392	-91.39364
655047	-93	9	15	-1.104861	0.2127609	-22.60249	0	9.98	20034	0	0	5	5	0.02	-0.1673588	1	10	0.03	2000	3.965334	40.92392	-91.39364
655173	-87	0	10	-1.108814	0.2202127	-22.62983	0	9.98	20034	0	0	5	5	0.02	-0.1681683	1	10	0.03	2000	3.727326	40.92392	-91.39364
655247	-86	6	12	-1.107067	0.2170021	-22.63778	0	9.98	20034	0	0	5	5	0.02	-0.1667167	1	10	0.03	2000	3.961751	40.92392	-91.39364
655358	-91	-1	15	-1.102476	0.2117371	-22.67308	0	9.98	20034	0	0	5	5	0.02	-0.159916	1	10	0.03	2000	3.936923	40.92392	-91.39364
655443	-99	-1	10	-1.101001	0.2071426	-22.68598	0	9.98	20034	0	0	5	5	0.02	-0.1567463	1	10	0.03	2000	3.95636	40.92392	-91.39364
655578	-96	6	13	-1.097006	0.2099844	-22.71442	0	9.98	20034	0	0	5	5	0.02	-0.1571543	1	10	0.03	2000	3.935758	40.92392	-91.39364
655658	-93	5	8	-1.094187	0.2129475	-22.73038	0	9.98	20034	0	0	5	5	0.02	-0.1549456	1	10	0.03	2000	3.935745	40.92392	-91.39364
655742	-91	0	13	-1.087582	0.2157462	-22.76072	0	9.98	20034	0	0	5	5	0.02	-0.15768	1	10	0.03	2000	3.926768	40.92392	-91.39364
655831	-92	3	16	-1.082359	0.2175923	-22.7762	0	9.98	20034	0	0	5	5	0.02	-0.1599803	1	10	0.03	2000	3.92143	40.92392	-91.39364
655935	-96	2	16	-1.082709	0.2151213	-22.8061	0	9.92	20034	0	0	5	5	0.02	-0.164782	1	10	0.03	2000	4.13266	40.92392	-91.39364
656046	-90	-2	11	-1.082131	0.218118	-22.82959	0	9.92	20034	0	0	5	5	0.02	-0.1667534	1	10	0.03	2000	3.882457	40.92392	-91.39364
656171	-93	1	12	-1.090354	0.2229819	-22.85681	0	9.92	20034	0	0	5	5	0.02	-0.1650792	1	10	0.03	2000	3.481741	40.92392	-91.39364
656260	-89	4	18	-1.091522	0.2199689	-22.87271	0	9.92	20034	0	0	5	5	0.02	-0.1716542	1	10	0.03	2000	3.713713	40.92392	-91.39364
656360	-97	6	14	-1.09818	0.2139923	-22.89772	0	9.92	20034	0	0	5	5	0.02	-0.1779613	1	10	0.03	2000	3.923574	40.92392	-91.39364
656486	-93	1	12	-1.099067	0.2144881	-22.92469	0	9.92	20034	0	0	5	5	0.02	-0.1884452	1	10	0.03	2000	3.715364	40.92392	-91.39364
656533	-97	4	17	-1.098301	0.2113541	-22.93142	0	9.92	20034	0	0	5	5	0.02	-0.1906464	1	10	0.03	2000	3.943818	40.92392	-91.39364
656675	-91	6	16	-1.10318	0.2157318	-22.96672	0	9.92	20034	0	0	5	5	0.02	-0.2050571	1	10	0.03	2000	3.734218	40.92392	-91.39364
656802	-96	4	17	-1.094313	0.2101236	-22.99595	0	9.98	20034	0	0	5	5	0.02	-0.2186569	1	10	0.03	2000	3.92522	40.92392	-91.39364
656925	-92	0	12	-1.098375	0.2113821	-23.01741	0	9.98	20034	0	0	5	5	0.02	-0.2382577	1	10	0.03	2000	3.706017	40.92392	-91.39364
656974	-101	7	19	-1.101408	0.2095485	-23.02451	0	9.98	20034	0	0	5	5	0.02	-0.2420829	1	10	0.03	2000	3.725453	40.92392	-91.39364
657089	-94	6	12	-1.092426	0.2241816	-23.0584	0	9.98	20034	0	0	5	5	0.02	-0.2500402	1	10	0.03	2000	3.711113	40.92392	-91.39364
657208	-95	7	13	-1.090926	0.2201088	-23.08109	0	9.98	20034	0	0	5	5	0.02	-0.2572191	1	10	0.03	2000	3.702662	40.92392	-91.39364
657283	-90	0	12	-1.093005	0.2181546	-23.09564	0	9.98	20034	0	0	5	5	0.02	-0.261973	1	10	0.03	2000	3.713254	40.92392	-91.39364
657326	-92	0	14	-1.091949	0.2117012	-23.10947	0	9.98	20034	0	0	5	5	0.02	-0.2654724	1	10	0.03	2000	3.713254	40.92392	-91.39364
657485	-85	0	13	-1.078223	0.2057401	-23.14445	0	9.98	20034	0	0	5	5	0.02	-0.2657211	1	10	0.03	2000	3.906282	40.92392	-91.39364
657543	-94	6	11	-1.076696	0.2063232	-23.15112	0	9.98	20034	0	0	5	5	0.02	-0.263007	1	10	0.03	2000	3.906282	40.92392	-91.39364
657747	-85	0	15	-1.068386	0.2072608	-23.19332	0	9.98	20034	0	0	5	5	0.02	-0.2536367	1	10	0.03	2000	3.892522	40.92392	-91.39364
657841	-88	7	12	-1.066155	0.2106262	-23.21325	0	9.98	20034	0	0	5	5	0.02	-0.2534998	1	10	0.03	2000	3.678081	40.92392	-91.39364
657959	-88	-1	5	-1.063896	0.2081473	-23.24328	0	9.98	20034	0	0	5	5	0.02	-0.2469198	1	10	0.03	2000	3.894863	40.92392	-91.39364
658065	-91	1	13	-1.059737	0.2104603	-23.26597	0	9.98	20034	0	0	5	5	0.02	-0.2396287	1	10	0.03	2000	3.645374	40.92392	-91.39364
658177	-85	1	10	-1.050016	0.2155651	-23.28585	0	9.98	20034	0	0	5	5	0.02	-0.2269149	1	10	0.03	2000	3.661377	40.92392	-91.39364
658227	-88	2	9	-1.046539	0.2160846	-23.3004	0	9.98	20034	0	0	5	5	0.02	-0.2236955	1	10	0.03	2000	3.649552	40.92392	-91.39364
658330	-82	5	13	-1.037825	0.2119929	-23.32242	0	9.98	20034	0	0	5	5	0.02	-0.222856	1	10	0.03	2000	3.619075	40.92392	-91.39364
658435	-92	3	15	-1.044709	0.2193183	-23.34982	0	9.98	20034	0	0	5	5	0.02	-0.2274887	1	10	0.03	2000	3.626328	40.92392	-91.39364
658544	-90	5	19	-1.048481	0.2146746	-23.36567	0	9.98	20034	0	0	5	5	0.02	-0.2380259	1	10	0.03	2000	3.646384	40.92392	-91.39364
658666	-90	3	10	-1.040348	0.2139536	-23.39404	0	9.98	20034	0	0	5	5	0.02	-0.2466911	1	10	0.03	2000	3.852476	40.92392	-91.39364
658736	-86	-2	11	-1.039502	0.2147847	-23.41349	0	9.98	20034	0	0	5	5	0.02	-0.2570037	1	10	0.03	2000	3.622892	40.92392	-91.39364
658844	-83	0	12	-1.043905	0.2148033	-23.43477	0	9.98	20034	0	0	5	5	0.02	-0.2721827	1	10	0.03	2000	3.859663	40.92392	-91.39364
658951	-85	0	11	-1.035454	0.2068631	-23.44853	0	9.98	20034	0	0	5	5	0.02	-0.2752433	1	10	0.03	2000	3.607112	40.92392	-91.39363
659028	-85	1	13	-1.038045	0.2018	-23.47428	0	9.98	20034	0	0	5	5	0.02	-0.2739012	1	10	0.03	2000	3.843859	40.92392	-91.39363
659157	-77	-3	11	-1.033478	0.2019021	-23.49569	0	9.98	20034	0	0	5	5	0.02	-0.2621064	1	10	0.03	2000	3.614622	40.92392	-91.39363
659251	-88	-2	16	-1.021114	0.2054298	-23.52217	0	9.98	20034	0	0	5	5	0.02	-0.2537672	1	10	0.03	2000	3.840376	40.92392	-91.39363
659344	-77	2	14	-1.016223	0.2052914	-23.53569	0	9.98	20034	0	0	5	5	0.02	-0.2536221	1	10	0.03	2000	3.832323	40.92392	-91.39363
659482	-86	6	11	-1.016131	0.208672	-23.56083	0	9.98	20034	0	0	5	5	0.02	-0.2585619	1	10	0.03	2000	3.591607	40.92392	-91.39363
659600	-80	1	12	-1.017238	0.2108486	-23.57978	0	9.98	20034	0	0	5	5	0.02	-0.2688152	1	10	0.03	2000	3.593944	40.92392	-91.39363
659686	-87	-2	14	-1.014381	0.2202714	-23.59892	0	9.98	20034	0	0	5	5	0.02	-0.2741821	1	10	0.03	2000	3.806526	40.92392	-91.39363
659793	-78	4	7	-1.01804	0.2154113	-23.61806	0	9.98	20034	0	0	5	5	0.02	-0.274827	1	10	0.03	2000	3.599284	40.92392	-91.39363
659851	-80	3	10	-1.013	0.2152046	-23.62949	0	9.98	20034	0	0	5	5	0.02	-0.2736328	1	10	0.03	2000	3.599284	40.92392	-91.39363
659962	-82	9	11	-1.005713	0.206702	-23.65316	0	9.98	20034	0	0	5	5	0.02	-0.2689524	1	10	0.03	2000	3.799094	40.92392	-91.39363
660038	-81	3	14	-1.001381	0.2114704	-23.66465	0	9.98	20034	0	0	5	5	0.02	-0.2682484	1	10	0.03	2000	3.333962	40.92392	-91.39363
660163	-77	5	14	-1.000095	0.2077977	-23.68961	0	9.98	20034	0	0	5	5	0.02	-0.258148	1	10	0.03	2000	3.787968	40.92392	-91.39363
660232	-78	1	15	-1.000284	0.2156296	-23.70239	0	9.98	20034	0	0	5	5	0.02	-0.250926	1	10	0.03	2000	3.801778	40.92392	-91.39363
660315	-81	-1	12	-0.9917232	0.2195993	-23.71529	0	9.98	20034	0	0	5	5	0.02	-0.2497115	1	10	0.03	2000	3.551334	40.92392	-91.39363
660416	-83	0	15	-0.9937786	0.2197133	-23.74208	0	9.98	20034	0	0	5	5	0.02	-0.24464	1	10	0.03	2000	3.54884	40.92392	-91.39363
660571	-91	-2	13	-0.9962762	0.2246126	-23.77639	0	9.98	20034	0	0	5	5	0.02	-0.2376694	1	10	0.03	2000	3.773781	40.92392	-91.39363
660623	-80	5	10	-0.9948196	0.224324	-23.78269	0	9.98	20034	0	0	5	5	0.02	-0.2321636	1	10	0.03	2000	3.786854	40.92392	-91.39363
660769	-83	3	10	-1.002127	0.2261463	-23.80869	0	9.98	20034	0	0	5	5	0.02	-0.2299393	1	10	0.03	2000	3.350513	40.92392	-91.39363
660922	-83	3	11	-0.9962716	0.2308517	-23.83308	0	9.98	20034	0	0	5	5	0.02	-0.2297216	1	10	0.03	2000	3.566577	40.92392	-91.39363
660985	-80	0	8	-0.9950485	0.2330607	-23.84414	0	9.98	20034	0	0	5	5	0.02	-0.2302972	1	10	0.03	2000	3.78776	40.92392	-91.39363
661084	-90	8	18	-0.988883	0.2164258	-23.87044	0	9.98	20034	0	0	5	5	0.02	-0.2257838	1	10	0.03	2000	3.767663	40.92392	-91.39363
661127	-88	0	15	-0.9881502	0.217764	-23.87705	0	9.98	20034	0	0	5	5	0.02	-0.2218704	1	10	0.03	2000	3.779927	40.92392	-91.39363
661287	-81	-1	9	-0.987268	0.2150632	-23.90243	0	9.98	20034	0	0	5	5	0.02	-0.206103	1	10	0.03	2000	3.546864	40.92392	-91.39363
661379	-81	2	13	-0.9865511	0.2112265	-23.92898	0	9.98	20034	0	0	5	5	0.02	-0.2012235	1	10	0.03	2000	3.780471	40.92392	-91.39363
661434	-81	2	11	-0.9850981	0.2122875	-23.93577	0	9.98	20034	0	0	5	5	0.02	-0.1986139	1	10	0.03	2000	3.780471	40.92392	-91.39363
661536	-79	0	9	-0.9731162	0.2167585	-23.95992	0	9.98	20034	0	0	5	5	0.02	-0.194508	1	10	0.03	2000	3.527782	40.92392	-91.39363
661638	-83	3	9	-0.9645517	0.2152175	-23.97233	0	9.98	20034	0	0	5	5	0.02	-0.1912503	1	10	0.03	2000	3.51355	40.92392	-91.39363
661744	-76	0	18	-0.9612342	0.217131	-23.99074	0	9.98	20034	0	0	5	5	0.02	-0.1898094	1	10	0.03	2000	3.737175	40.92392	-91.39363
661940	-80	2	13	-0.9657277	0.2104941	-24.02983	0	9.98	20034	0	0	5	5	0.02	-0.1854673	1	10	0.03	2000	3.724028	40.92392	-91.39363
662005	-77	3	9	-0.9619212	0.2058012	-24.04114	0	9.98	20034	0	0	5	5	0.02	-0.1822133	1	10	0.03	2000	3.523008	40.92392	-91.39363
662134	-81	-2	9	-0.9608663	0.2083091	-24.06604	0	9.98	20034	0	0	5	5	0.02	-0.1717707	1	10	0.03	2000	3.500839	40.92392	-91.39363
662190	-77	3	8	-0.9525806	0.2069517	-24.08139	0	9.98	20034	0	0	5	5	0.02	-0.1705986	1	10	0.03	2000	3.724955	40.92392	-91.39363
662307	-76	11	8	-0.9505641	0.2116355	-24.09949	0	10.04	20034	0	0	5	5	0.02	-0.1707012	1	10	0.03	2000	3.271362	40.92392	-91.39363
662357	-84	5	11	-0.9500992	0.2091804	-24.11252	0	10.04	20034	0	0	5	5	0.02	-0.1720523	1	10	0.03	2000	3.271362	40.92392	-91.39363
662545	-82	0	16	-0.9471892	0.2171829	-24.14469	0	10.04	20034	0	0	5	5	0.02	-0.1746721	1	10	0.03	2000	3.696086	40.92392	-91.39363
662609	-85	5	11	-0.9458756	0.2127638	-24.1579	0	10.04	20034	0	0	5	5	0.02	-0.172555	1	10	0.03	2000	3.720048	40.92392	-91.39363
662734	-82	3	6	-0.9428062	0.213511	-24.1902	0	10.04	20034	0	0	5	5	0.02	-0.1764271	1	10	0.03	2000	3.474029	40.92392	-91.39363
662770	-82	3	6	-0.9428062	0.213511	-24.1902	0	10.04	20034	0	0	5	5	0.02	-0.1769794	1	10	0.03	2000	3.474029	40.92392	-91.39363
662848	-75	0	7	-0.9420601	0.2090748	-24.20793	0	10.04	20034	0	0	5	5	0.02	-0.178464	1	10	0.03	2000	3.70625	40.92392	-91.39363
662962	-73	-1	14	-0.9534432	0.2010631	-24.22579	0	10.04	20034	0	0	5	5	0.02	-0.1797135	1	10	0.03	2000	3.706103	40.92392	-91.39363
663125	-81	0	14	-0.9485987	0.2058647	-24.26017	0	10.04	20034	0	0	5	5	0.02	-0.1797887	1	10	0.03	2000	3.728369	40.92392	-91.39363
663190	-75	9	11	-0.9532065	0.2020357	-24.26678	0	10.04	20034	0	0	5	5	0.02	-0.1759361	1	10	0.03	2000	3.706579	40.92392	-91.39363
663265	-80	8	16	-0.9526176	0.2039185	-24.28811	0	9.98	20034	0	0	5	5	0.02	-0.170966	1	10	0.03	2000	3.500878	40.92392	-91.39363
663353	-77	-2	14	-0.9506593	0.2151758	-24.30065	0	9.98	20034	0	0	5	5	0.02	-0.1680191	1	10	0.03	2000	3.498183	40.92392	-91.39363
663550	-85	4	7	-0.9472385	0.2142948	-24.33997	0	9.98	20034	0	0	5	5	0.02	-0.1678122	1	10	0.03	2000	3.686447	40.92392	-91.39363
663721	-73	4	9	-0.9571692	0.2201874	-24.37556	0	9.98	20034	0	0	5	5	0.02	-0.1820709	1	10	0.03	2000	3.730405	40.92392	-91.39363
663801	-86	-2	15	-0.9608482	0.2173668	-24.38827	0	9.98	20034	0	0	5	5	0.02	-0.1876828	1	10	0.03	2000	3.261285	40.92392	-91.39363
663913	-76	-3	10	-0.9553353	0.2232195	-24.4224	0	9.98	20034	0	0	5	5	0.02	-0.1932205	1	10	0.03	2000	3.501413	40.92392	-91.39363
663951	-80	6	15	-0.9543089	0.2235928	-24.42998	0	9.98	20034	0	0	5	5	0.02	-0.1936929	1	10	0.03	2000	3.714714	40.92392	-91.39363
664024	-75	4	9	-0.9499015	0.2228236	-24.43652	0	9.98	20034	0	0	5	5	0.02	-0.1940982	1	10	0.03	2000	3.714714	40.92392	-91.39363
664196	-82	-2	12	-0.9521719	0.213928	-24.47187	0	9.98	20034	0	0	5	5	0.02	-0.1971391	1	10	0.03	2000	3.267498	40.92392	-91.39363
664288	-82	0	10	-0.9514921	0.216017	-24.49077	0	9.98	20034	0	0	5	5	0.02	-0.2019705	1	10	0.03	2000	3.49202	40.92392	-91.39363
664422	-80	0	13	-0.956028	0.2088564	-24.51817	0	9.98	20034	0	0	5	5	0.02	-0.2093266	1	10	0.03	2000	3.711366	40.92392	-91.39363
664441	-80	0	13	-0.956028	0.2088564	-24.51817	0	9.98	20034	0	0	5	5	0.02	-0.2097841	1	10	0.03	2000	3.711366	40.92392	-91.39363
664531	-76	7	9	-0.9423307	0.2115406	-24.5375	0	9.98	20034	0	0	5	5	0.02	-0.2090451	1	10	0.03	2000	3.69621	40.92392	-91.39363
664731	-75	0	9	-0.9426231	0.2063754	-24.5775	0	9.98	20034	0	0	5	5	0.02	-0.2090504	1	10	0.03	2000	3.473035	40.92392	-91.39362
664860	-77	7	8	-0.9517212	0.2096302	-24.60226	0	9.98	20034	0	0	5	5	0.02	-0.2004402	1	10	0.03	2000	3.469317	40.92392	-91.39362
664970	-78	11	8	-0.9494612	0.2106332	-24.62061	0	9.98	20034	0	0	5	5	0.02	-0.1979537	1	10	0.03	2000	3.256075	40.92392	-91.39362
665067	-79	0	12	-0.948767	0.2130971	-24.64037	0	9.98	20034	0	0	5	5	0.02	-0.1918754	1	10	0.03	2000	3.728457	40.92392	-91.39362
665158	-72	0	13	-0.9332804	0.2183343	-24.65731	0	9.98	20034	0	0	5	5	0.02	-0.1913211	1	10	0.03	2000	3.683032	40.92392	-91.39362
665235	-82	5	9	-0.9273452	0.2167342	-24.66973	0	9.98	20034	0	0	5	5	0.02	-0.1912992	1	10	0.03	2000	3.45962	40.92392	-91.39362
665345	-83	1	8	-0.9193996	0.2178244	-24.69419	0	9.98	20034	0	0	5	5	0.02	-0.1860019	1	10	0.03	2000	3.666552	40.92392	-91.39362
665428	-76	-2	11	-0.9138817	0.21832	-24.7071	0	9.98	20034	0	0	5	5	0.02	-0.1811115	1	10	0.03	2000	3.441005	40.92392	-91.39362
665562	-77	0	1	-0.8991548	0.2182003	-24.72942	0	9.98	20034	0	0	5	5	0.02	-0.1778125	1	10	0.03	2000	3.411019	40.92392	-91.39362
665646	-76	0	9	-0.8984325	0.2115907	-24.74666	0	9.98	20034	0	0	5	5	0.02	-0.1764002	1	10	0.03	2000	3.635497	40.92392	-91.39362
665783	-74	0	3	-0.8860877	0.1985547	-24.77441	0	9.98	20034	0	0	5	5	0.02	-0.1752691	1	10	0.03	2000	3.614425	40.92392	-91.39362
665833	-78	6	11	-0.8910911	0.2021372	-24.7801	0	9.98	20034	0	0	5	5	0.02	-0.176299	1	10	0.03	2000	3.403736	40.92392	-91.39362
665912	-72	4	10	-0.9002307	0.1934047	-24.78969	0	9.98	20034	0	0	5	5	0.02	-0.1781135	1	10	0.03	2000	3.631015	40.92392	-91.39362
666054	-71	2	11	-0.889791	0.19146	-24.81244	0	9.98	20034	0	0	5	5	0.02	-0.1780341	1	10	0.03	2000	3.391705	40.92392	-91.39362
666112	-73	1	13	-0.8806871	0.1993251	-24.83115	0	9.98	20034	0	0	5	5	0.02	-0.1799138	1	10	0.03	2000	3.391282	40.92392	-91.39362
666214	-77	2	13	-0.8745164	0.1954841	-24.85115	0	9.98	20034	0	0	5	5	0.02	-0.1777188	1	10	0.03	2000	3.37788	40.92392	-91.39362
666370	-68	-3	12	-0.8754692	0.196901	-24.87457	0	9.98	20034	0	0	5	5	0.02	-0.172129	1	10	0.03	2000	3.374253	40.92392	-91.39362
666530	-70	2	13	-0.8740999	0.1995214	-24.89144	0	9.98	20034	0	0	5	5	0.02	-0.1642027	1	10	0.03	2000	3.609443	40.92392	-91.39362
666615	-75	-1	10	-0.8914602	0.1948114	-24.9145	0	9.98	20034	0	0	5	5	0.02	-0.1623183	1	10	0.03	2000	3.633616	40.92392	-91.39363
666723	-69	2	9	-0.885125	0.1996358	-24.94422	0	9.98	20034	0	0	5	5	0.02	-0.159084	1	10	0.03	2000	3.624624	40.92392	-91.39363
666807	-72	4	10	-0.8923372	0.188864	-24.9551	0	9.98	20034	0	0	5	5	0.02	-0.1520761	1	10	0.03	2000	3.175727	40.92392	-91.39363
666909	-76	6	10	-0.8935748	0.1886319	-24.96648	0	9.98	20034	0	0	5	5	0.02	-0.1456883	1	10	0.03	2000	3.624001	40.92392	-91.39363
667045	-72	6	11	-0.8729649	0.2075088	-24.99515	0	9.98	20034	0	0	5	5	0.02	-0.1339033	1	10	0.03	2000	3.38087	40.92392	-91.39363
667110	-77	0	8	-0.8642317	0.197871	-25.00855	0	9.98	20034	0	0	5	5	0.02	-0.1299189	1	10	0.03	2000	3.57369	40.92392	-91.39363
667214	-74	10	10	-0.8587464	0.1928054	-25.01809	0	9.98	20034	0	0	5	5	0.02	-0.1278548	1	10	0.03	2000	3.575683	40.92392	-91.39363
667355	-77	11	8	-0.8620737	0.1895688	-25.04272	0	9.98	20034	0	0	5	5	0.02	-0.1254703	1	10	0.03	2000	3.571361	40.92392	-91.39362
667497	-75	0	13	-0.8440696	0.1975198	-25.07109	0	9.98	20034	0	0	5	5	0.02	-0.1187313	1	10	0.03	2000	3.557956	40.92392	-91.39362
667558	-75	3	8	-0.8384726	0.1983292	-25.08216	0	9.98	20034	0	0	5	5	0.02	-0.1174359	1	10	0.03	2000	3.555776	40.92392	-91.39362
667641	-74	0	7	-0.8430974	0.2008657	-25.09304	0	9.98	20034	0	0	5	5	0.02	-0.1186187	1	10	0.03	2000	3.099216	40.92392	-91.39362
667775	-73	0	0	-0.8582439	0.214614	-25.11677	0	9.98	20034	0	0	5	5	0.02	-0.1230226	1	10	0.03	2000	3.341006	40.92392	-91.39362
667877	-69	5	8	-0.8551239	0.2174726	-25.13199	0	9.98	20034	0	0	5	5	0.02	-0.1236545	1	10	0.03	2000	3.129175	40.92392	-91.39362
667939	-73	5	10	-0.8522285	0.2175146	-25.14164	0	9.98	20034	0	0	5	5	0.02	-0.1232874	1	10	0.03	2000	3.566082	40.92392	-91.39362
668047	-75	3	5	-0.8720032	0.2112138	-25.16549	0	9.98	20034	0	0	5	5	0.02	-0.1310261	1	10	0.03	2000	3.361391	40.92392	-91.39362
668174	-74	0	13	-0.8729941	0.2096524	-25.1839	0	9.98	20034	0	0	5	5	0.02	-0.1416386	1	10	0.03	2000	3.369465	40.92392	-91.39362
668260	-80	3	11	-0.8669575	0.2052367	-25.20384	0	9.98	20034	0	0	5	5	0.02	-0.1502547	1	10	0.03	2000	3.368298	40.92392	-91.39362
668323	-79	11	14	-0.8759494	0.2050596	-25.21613	0	9.98	20034	0	0	5	5	0.02	-0.1545759	1	10	0.03	2000	3.379203	40.92392	-91.39362
668395	-70	3	13	-0.8792985	0.2029181	-25.22763	0	9.98	20034	0	0	5	5	0.02	-0.1604851	1	10	0.03	2000	3.597545	40.92392	-91.39362
668540	-74	2	8	-0.8808323	0.207354	-25.25361	0	9.98	20034	0	0	5	5	0.02	-0.1654838	1	10	0.03	2000	3.620901	40.92392	-91.39362
668804	-73	1	11	-0.8809339	0.2075304	-25.29243	0	9.92	20034	0	0	5	5	0.02	-0.1712153	1	10	0.03	2000	3.362335	40.92392	-91.39362
668884	-68	5	10	-0.8775525	0.2081377	-25.30905	0	9.92	20034	0	0	5	5	0.02	-0.1693672	1	10	0.03	2000	3.37643	40.92392	-91.39362
668975	-69	3	13	-0.874779	0.1982683	-25.32703	0	9.92	20034	0	0	5	5	0.02	-0.1693687	1	10	0.03	2000	3.388952	40.92392	-91.39362
669059	-70	2	12	-0.8772992	0.1996958	-25.3384	0	9.92	20034	0	0	5	5	0.02	-0.1707871	1	10	0.03	2000	3.588962	40.92392	-91.39362
669245	-73	1	11	-0.8924839	0.1943436	-25.37074	0	9.92	20034	0	0	5	5	0.02	-0.1843722	1	10	0.03	2000	3.397352	40.92392	-91.39362
669405	-67	3	14	-0.8896536	0.2040138	-25.39287	0	9.92	20034	0	0	5	5	0.02	-0.1999931	1	10	0.03	2000	3.399911	40.92392	-91.39362
669639	-69	4	12	-0.8873992	0.2073093	-25.43891	0	9.98	20034	0	0	5	5	0.02	-0.1897446	1	10	0.03	2000	3.389104	40.92392	-91.39362
669812	-74	4	13	-0.8931561	0.2035039	-25.46691	0	9.98	20034	0	0	5	5	0.02	-0.1946863	1	10	0.03	2000	3.620611	40.92392	-91.39362
669958	-82	8	8	-0.8915526	0.1923425	-25.4951	0	9.98	20034	0	0	5	5	0.02	-0.2051523	1	10	0.03	2000	3.646529	40.92392	-91.39362
670002	-83	-1	11	-0.8970745	0.1920927	-25.50568	0	9.98	20034	0	0	5	5	0.02	-0.2071884	1	10	0.03	2000	3.405091	40.92392	-91.39362
670117	-78	6	7	-0.8893592	0.1926227	-25.52634	0	9.98	20034	0	0	5	5	0.02	-0.2119291	1	10	0.03	2000	3.403589	40.92392	-91.39362
670255	-80	-1	11	-0.8855098	0.1915113	-25.54272	0	9.98	20034	0	0	5	5	0.02	-0.2230052	1	10	0.03	2000	3.396166	40.92392	-91.39362
670367	-69	0	9	-0.8867863	0.1947097	-25.56492	0	9.98	20034	0	0	5	5	0.02	-0.2362731	1	10	0.03	2000	3.169996	40.92392	-91.39362
670447	-72	1	5	-0.8758715	0.1986998	-25.57532	0	9.98	20034	0	0	5	5	0.02	-0.2434191	1	10	0.03	2000	3.169996	40.92392	-91.39362
670517	-68	5	6	-0.8796155	0.1884512	-25.58889	0	9.98	20034	0	0	5	5	0.02	-0.2535902	1	10	0.03	2000	2.541546	40.92392	-91.39362
670582	-77	4	12	-0.8801579	0.1965918	-25.60106	0	9.98	20034	0	0	5	5	0.02	-0.2558606	1	10	0.03	2000	3.60521	40.92392	-91.39362
670709	-74	11	6	-0.8817357	0.1959888	-25.61555	0	9.98	20034	0	0	5	5	0.02	-0.2605977	1	10	0.03	2000	3.618646	40.92392	-91.39362
670753	-73	3	5	-0.8771309	0.2060708	-25.62649	0	9.98	20034	0	0	5	5	0.02	-0.2604943	1	10	0.03	2000	3.381491	40.92392	-91.39362
670926	-85	0	7	-0.8795611	0.2031644	-25.65376	0	9.98	20034	0	0	5	5	0.02	-0.2564451	1	10	0.03	2000	3.614133	40.92392	-91.39362
670960	-76	4	5	-0.8744595	0.2009633	-25.6655	0	9.98	20034	0	0	5	5	0.02	-0.256911	1	10	0.03	2000	3.352564	40.92392	-91.39362
671070	-77	1	8	-0.8630396	0.2094951	-25.67491	0	9.98	20034	0	0	5	5	0.02	-0.261911	1	10	0.03	2000	3.352564	40.92392	-91.39362
671222	-74	0	11	-0.8436095	0.210505	-25.69917	0	9.98	20034	0	0	5	5	0.02	-0.2704831	1	10	0.03	2000	3.112417	40.92392	-91.39362
671278	-67	2	10	-0.8386458	0.2157826	-25.71067	0	9.98	20034	0	0	5	5	0.02	-0.2719833	1	10	0.03	2000	3.321423	40.92392	-91.39362
671413	-72	4	12	-0.8414779	0.2117773	-25.7336	0	9.98	20034	0	0	5	5	0.02	-0.2801499	1	10	0.03	2000	3.337377	40.92392	-91.39362
671471	-74	1	9	-0.8335455	0.2155582	-25.74369	0	9.98	20034	0	0	5	5	0.02	-0.280389	1	10	0.03	2000	3.316455	40.92392	-91.39362
671647	-63	3	12	-0.8210908	0.211899	-25.76552	0	9.98	20034	0	0	5	5	0.02	-0.2748688	1	10	0.03	2000	3.285083	40.92392	-91.39362
671829	-71	-1	10	-0.8312489	0.2016352	-25.79818	0	9.98	20034	0	0	5	5	0.02	-0.2741914	1	10	0.03	2000	3.282337	40.92392	-91.39362
671973	-74	3	12	-0.8358414	0.1913996	-25.81829	0	9.98	20034	0	0	5	5	0.02	-0.276284	1	10	0.03	2000	3.302553	40.92392	-91.39362
672126	-70	4	11	-0.8524778	0.2000629	-25.84403	0	9.98	20034	0	0	5	5	0.02	-0.2747281	1	10	0.03	2000	3.333781	40.92392	-91.39362
672251	-65	5	6	-0.8396699	0.1988021	-25.87191	0	9.98	20034	0	0	5	5	0.02	-0.2701004	1	10	0.03	2000	3.31414	40.92392	-91.39362
672300	-68	-2	8	-0.840291	0.2028739	-25.87723	0	9.92	20034	0	0	5	5	0.02	-0.2669941	1	10	0.03	2000	3.31414	40.92392	-91.39362
672420	-67	0	10	-0.8487083	0.2072053	-25.89337	0	9.92	20034	0	0	5	5	0.02	-0.2639262	1	10	0.03	2000	3.55597	40.92392	-91.39362
672560	-76	-1	8	-0.8647568	0.204243	-25.91764	0	9.92	20034	0	0	5	5	0.02	-0.2556045	1	10	0.03	2000	3.349662	40.92392	-91.39362
672749	-69	8	11	-0.8510654	0.211768	-25.94919	0	9.92	20034	0	0	5	5	0.02	-0.2569041	1	10	0.03	2000	3.101747	40.92392	-91.39362
672772	-69	8	11	-0.8510654	0.211768	-25.94919	0	9.92	20034	0	0	5	5	0.02	-0.2561146	1	10	0.03	2000	3.101747	40.92392	-91.39362
672865	-68	-1	8	-0.8451243	0.2077938	-25.96521	0	9.92	20034	0	0	5	5	0.02	-0.2547908	1	10	0.03	2000	3.335936	40.92392	-91.39362
673118	-76	6	8	-0.8628356	0.1994963	-26.0019	0	9.92	20034	0	0	5	5	0.02	-0.2368062	1	10	0.03	2000	3.337697	40.92392	-91.39362
673233	-67	5	7	-0.8531556	0.1974449	-26.02329	0	9.98	20034	0	0	5	5	0.02	-0.2341634	1	10	0.03	2000	3.338779	40.92392	-91.39362
673375	-77	0	7	-0.8498623	0.2130329	-26.04347	0	9.98	20034	0	0	5	5	0.02	-0.2347338	1	10	0.03	2000	3.570316	40.92392	-91.39362
673475	-66	5	7	-0.8372493	0.2087089	-26.06567	0	9.98	20034	0	0	5	5	0.02	-0.2350318	1	10	0.03	2000	3.322567	40.92392	-91.39362
673673	-71	2	7	-0.8432079	0.1908075	-26.09109	0	9.98	20034	0	0	5	5	0.02	-0.2399209	1	10	0.03	2000	3.315297	40.92392	-91.39362
673740	-64	4	13	-0.8424415	0.1996255	-26.10247	0	9.98	20034	0	0	5	5	0.02	-0.2283771	1	10	0.03	2000	3.333728	40.92392	-91.39362
673881	-73	2	15	-0.8381308	0.2087066	-26.12124	0	9.98	20034	0	0	5	5	0.02	-0.2165048	1	10	0.03	2000	3.319782	40.92392	-91.39362
673975	-65	4	6	-0.8349864	0.2021979	-26.14282	0	9.98	20034	0	0	5	5	0.02	-0.2138136	1	10	0.03	2000	3.52937	40.92392	-91.39362
674079	-69	3	6	-0.8313503	0.1992245	-26.15144	0	9.98	20034	0	0	5	5	0.02	-0.2075746	1	10	0.03	2000	3.746935	40.92392	-91.39362
674251	-70	3	6	-0.8386539	0.202148	-26.17785	0	9.98	20034	0	0	5	5	0.02	-0.1971611	1	10	0.03	2000	3.325481	40.92392	-91.39362
674327	-73	2	10	-0.8377381	0.2019607	-26.18665	0	9.98	20034	0	0	5	5	0.02	-0.1933259	1	10	0.03	2000	3.772285	40.92392	-91.39362
674394	-70	-2	14	-0.8267779	0.199068	-26.20217	0	9.98	20034	0	0	5	5	0.02	-0.1927614	1	10	0.03	2000	3.322415	40.92392	-91.39362
674477	-73	1	6	-0.8297012	0.196814	-26.21115	0	9.98	20034	0	0	5	5	0.02	-0.1904819	1	10	0.03	2000	3.301287	40.92392	-91.39362
674602	-70	3	11	-0.818594	0.1954766	-26.2336	0	9.98	20034	0	0	5	5	0.02	-0.1915332	1	10	0.03	2000	3.514467	40.92392	-91.39362
674716	-66	-1	10	-0.8280633	0.192186	-26.25352	0	9.98	20034	0	0	5	5	0.02	-0.1932261	1	10	0.03	2000	3.511975	40.92392	-91.39362
674838	-69	-2	16	-0.8173067	0.2025912	-26.27187	0	9.98	20034	0	0	5	5	0.02	-0.1979895	1	10	0.03	2000	3.298465	40.92392	-91.39362
674901	-65	0	13	-0.8088737	0.1915925	-26.29192	0	9.98	20034	0	0	5	5	0.02	-0.1979889	1	10	0.03	2000	3.276837	40.92392	-91.39362
674956	-70	-3	10	-0.806517	0.1915966	-26.30373	0	9.98	20034	0	0	5	5	0.02	-0.1928717	1	10	0.03	2000	3.261422	40.92392	-91.39362
675046	-64	2	13	-0.8048077	0.197137	-26.31981	0	9.98	20034	0	0	5	5	0.02	-0.1807225	1	10	0.03	2000	3.249052	40.92392	-91.39362
675123	-67	0	9	-0.8034471	0.1974519	-26.33125	0	9.98	20034	0	0	5	5	0.02	-0.1725426	1	10	0.03	2000	3.266849	40.92392	-91.39362
675255	-65	-2	9	-0.815112	0.19535	-26.35172	0	9.98	20034	0	0	5	5	0.02	-0.1650552	1	10	0.03	2000	3.499224	40.92392	-91.39362
675348	-64	0	7	-0.8085812	0.2062566	-26.3678	0	9.98	20034	0	0	5	5	0.02	-0.159254	1	10	0.03	2000	3.523542	40.92392	-91.39362
675405	-72	-2	11	-0.8049623	0.2077286	-26.37856	0	9.98	20034	0	0	5	5	0.02	-0.1574452	1	10	0.03	2000	3.040153	40.92392	-91.39362
675570	-62	0	14	-0.795201	0.2143891	-26.404	0	9.98	20034	0	0	5	5	0.02	-0.1405396	1	10	0.03	2000	3.242146	40.92392	-91.39362
675625	-66	5	12	-0.7980988	0.2102865	-26.40969	0	9.98	20034	0	0	5	5	0.02	-0.1178337	1	10	0.03	2000	3.244983	40.92392	-91.39362
675707	-67	1	12	-0.7984868	0.2122961	-26.42448	0	9.98	20034	0	0	5	5	0.02	-0.1038551	1	10	0.03	2000	3.470587	40.92392	-91.39362
675906	-66	-1	5	-0.7877531	0.2137383	-26.45492	0	9.92	20034	0	0	5	5	0.02	-0.08451895	1	10	0.03	2000	3.474394	40.92392	-91.39362
675937	-66	-1	5	-0.7877531	0.2137383	-26.45492	0	9.92	20034	0	0	5	5	0.02	-0.08571152	1	10	0.03	2000	3.474394	40.92392	-91.39362
676012	-61	-5	1	-0.7929838	0.2077554	-26.46977	0	9.92	20034	0	0	5	5	0.02	-0.08584591	1	10	0.03	2000	3.472457	40.92392	-91.39362
676127	-60	0	11	-0.7922776	0.2011286	-26.48764	0	9.92	20034	0	0	5	5	0.02	-0.08805705	1	10	0.03	2000	3.254489	40.92392	-91.39362
676217	-68	0	11	-0.7881616	0.198606	-26.49828	0	9.92	20034	0	0	5	5	0.02	-0.08691852	1	10	0.03	2000	3.249026	40.92392	-91.39362
676330	-74	3	8	-0.7852197	0.2033745	-26.52426	0	9.92	20034	0	0	5	5	0.02	-0.08193622	1	10	0.03	2000	3.467888	40.92392	-91.39362
676420	-70	6	10	-0.7900181	0.2002875	-26.53441	0	9.92	20034	0	0	5	5	0.02	-0.07045459	1	10	0.03	2000	3.238289	40.92392	-91.39362
676606	-68	-2	5	-0.7777479	0.2109407	-26.56474	0	9.92	20034	0	0	5	5	0.02	-0.04977079	1	10	0.03	2000	3.234115	40.92392	-91.39362
676641	-62	5	16	-0.7795597	0.2144677	-26.5703	0	9.92	20034	0	0	5	5	0.02	-0.04564824	1	10	0.03	2000	3.234115	40.92392	-91.39362
676718	-64	3	5	-0.7776983	0.2159221	-26.5802	0	9.92	20034	0	0	5	5	0.02	-0.04076925	1	10	0.03	2000	3.442102	40.92392	-91.39362
676846	-64	-4	11	-0.7764766	0.21529	-26.60723	0	9.92	20034	0	0	5	5	0.02	-0.02765254	1	10	0.03	2000	3.43849	40.92392	-91.39362
676908	-69	-2	9	-0.7705448	0.2131579	-26.6142	0	9.92	20034	0	0	5	5	0.02	-0.0232576	1	10	0.03	2000	3.43849	40.92392	-91.39362
677025	-62	-6	5	-0.7718639	0.2124248	-26.63192	0	9.92	20034	0	0	5	5	0.02	-0.01396045	1	10	0.03	2000	3.214299	40.92392	-91.39362
677121	-65	5	7	-0.7706513	0.2049347	-26.64598	0	9.92	20034	0	0	5	5	0.02	-0.00725309	1	10	0.03	2000	3.445425	40.92392	-91.39362
677205	-73	-3	5	-0.7667048	0.2065334	-26.66059	0	9.92	20034	0	0	5	5	0.02	0.001518619	1	10	0.03	2000	3.453666	40.92392	-91.39362
677348	-67	6	8	-0.7683006	0.2029763	-26.67421	0	9.92	20034	0	0	5	5	0.02	0.02252834	1	10	0.03	2000	3.187781	40.92392	-91.39362
677428	-70	1	10	-0.7672136	0.2067246	-26.68295	0	9.92	20034	0	0	5	5	0.02	0.03104191	1	10	0.03	2000	3.428455	40.92392	-91.39362
677523	-65	4	5	-0.7675253	0.202962	-26.70478	0	9.92	20034	0	0	5	5	0.02	0.02799365	1	10	0.03	2000	3.217766	40.92392	-91.39362
677633	-65	1	8	-0.7694968	0.2049142	-26.72244	0	9.92	20034	0	0	5	5	0.02	0.01912107	1	10	0.03	2000	3.214683	40.92392	-91.39362
677771	-60	3	13	-0.7705849	0.2019428	-26.73698	0	9.92	20034	0	0	5	5	0.02	0.007537925	1	10	0.03	2000	3.443672	40.92392	-91.39362
677803	-63	0	13	-0.7656511	0.1981266	-26.74608	0	9.92	20034	0	0	5	5	0.02	0.00356452	1	10	0.03	2000	3.200757	40.92392	-91.39362
677884	-64	0	5	-0.7600809	0.1981441	-26.75947	0	9.92	20034	0	0	5	5	0.02	-0.004342346	1	10	0.03	2000	3.196787	40.92392	-91.39362
677989	-72	6	16	-0.7555345	0.1970456	-26.76943	0	9.92	20034	0	0	5	5	0.02	-0.01147652	1	10	0.03	2000	3.422693	40.92392	-91.39362
678097	-68	0	12	-0.7494334	0.2025652	-26.78887	0	9.92	20034	0	0	5	5	0.02	-0.01448402	1	10	0.03	2000	3.397753	40.92392	-91.39362
678299	-64	1	10	-0.7520471	0.2021932	-26.81589	0	9.92	20034	0	0	5	5	0.02	-0.01624692	1	10	0.03	2000	3.177237	40.92392	-91.39362
678419	-62	5	9	-0.7484905	0.2026033	-26.83736	0	9.92	20034	0	0	5	5	0.02	-0.02434366	1	10	0.03	2000	3.173704	40.92392	-91.39362
678496	-66	4	6	-0.7553524	0.1987599	-26.84579	0	9.92	20034	0	0	5	5	0.02	-0.02813191	1	10	0.03	2000	3.173704	40.92392	-91.39362
678628	-59	3	8	-0.7455619	0.2105625	-26.86744	0	9.92	20034	0	0	5	5	0.02	-0.0334939	1	10	0.03	2000	3.189691	40.92392	-91.39362
678677	-59	2	7	-0.7442468	0.2020354	-26.87679	0	9.92	20034	0	0	5	5	0.02	-0.03374974	1	10	0.03	2000	3.163562	40.92392	-91.39362
678792	-62	0	14	-0.7489933	0.198529	-26.89843	0	9.92	20034	0	0	5	5	0.02	-0.03304866	1	10	0.03	2000	3.411541	40.92392	-91.39362
678928	-68	2	3	-0.7477758	0.196715	-26.91237	0	9.92	20034	0	0	5	5	0.02	-0.03318479	1	10	0.03	2000	3.622335	40.92392	-91.39362
