time(ms)	gyro_x(deg/s)	gyro_y(deg/s)	gyro_z(deg/s)	orientation_roll(deg)	orientation_pitch(deg)	orientation_yaw(deg)	throttle	battery(V)	loop_time(uS)	pid_output_roll	pid_output_pitch	pid_output_yaw	pid_output_throttle	ultrasonic_alt	baro_alt	flight_mode	p_gain_altitude	i_gain_altitude	d_gain_altitude	compass_heading	latitude	longitude
40	0	-3	1	-0.007603612	-0.004553624	-0.3223237	0	12.53	0	0	0	5	5	0.02	-0.06683462	1	10	0.03	2000	1.127982	40.92391	-91.39363
207	4	2	4	-0.007949544	0.002756544	-0.3267261	0	12.53	0	0	0	5	5	0.02	-0.06022453	1	10	0.03	2000	1.128092	40.92391	-91.39363
321	0	-5	0	-0.008881337	-0.003177487	-0.3283769	0	12.53	0	0	0	5	5	0.02	-0.04905504	1	10	0.03	2000	1.133197	40.92391	-91.39363
384	0	3	-1	-0.008880948	-0.002447513	-0.328499	0	12.53	0	0	0	5	5	0.02	-0.04844523	1	10	0.03	2000	1.133197	40.92391	-91.39363
448	4	0	4	-0.004938115	-0.006158437	-0.3297826	0	12.53	0	0	0	5	5	0.02	-0.04918169	1	10	0.03	2000	1.34535	40.92391	-91.39363
648	3	-1	1	0.0008194588	-0.009894391	-0.3309439	0	12.53	0	0	0	5	5	0.02	-0.05229895	1	10	0.03	2000	1.119354	40.92391	-91.39362
709	2	-1	2	0.00282613	-0.007500367	-0.3314943	0	12.53	0	0	0	5	5	0.02	-0.05354666	1	10	0.03	2000	1.113322	40.92391	-91.39362
792	1	-4	3	0.0007733044	-0.001327868	-0.3329619	0	12.42	0	0	0	5	5	0.02	-0.05358703	1	10	0.03	2000	1.117423	40.92391	-91.39362
886	1	3	1	-0.0001074954	-0.003694492	-0.3365078	0	12.42	0	0	0	5	5	0.02	-0.05086134	1	10	0.03	2000	1.122716	40.92391	-91.39362
975	-3	0	-2	0.00148649	0.0001492453	-0.3393816	0	12.42	0	0	0	5	5	0.02	-0.04847834	1	10	0.03	2000	1.11175	40.92391	-91.39362
1091	-1	0	0	-0.00376861	0.001374764	-0.3428055	0	12.42	0	0	0	5	5	0.02	-0.04904615	1	10	0.03	2000	1.124754	40.92391	-91.39362
1156	-1	0	2	-0.003169208	0.005275686	-0.3438448	0	12.42	0	0	0	5	5	0.02	-0.04764868	1	10	0.03	2000	1.124754	40.92391	-91.39362
1317	-1	3	1	-0.004236571	0.009170958	-0.3464128	0	12.42	0	0	0	5	5	0.02	-0.03891644	1	10	0.03	2000	1.122749	40.92391	-91.39362
1408	-2	0	3	-0.006559893	0.01114312	-0.3476352	0	12.42	0	0	0	5	5	0.02	-0.02999794	1	10	0.03	2000	1.126134	40.92391	-91.39362
1542	0	-1	0	-0.01149249	0.01122423	-0.3505696	0	12.42	0	0	0	5	5	0.02	-0.02707908	1	10	0.03	2000	1.339747	40.92391	-91.39362
1623	2	-4	0	-0.007512822	0.01077083	-0.3504472	0	12.42	0	0	0	5	5	0.02	-0.02482544	1	10	0.03	2000	1.129525	40.92391	-91.39362
1705	-4	-1	0	-0.01010508	0.009247218	-0.3516089	0	12.42	0	0	0	5	5	0.02	-0.02445518	1	10	0.03	2000	0.9092032	40.92391	-91.39362
1746	1	4	0	-0.009863092	0.005907089	-0.3525872	0	12.42	0	0	0	5	5	0.02	-0.02399979	1	10	0.03	2000	1.130574	40.92391	-91.39362
1929	0	1	1	-0.009175358	0.002493632	-0.3541768	0	12.42	0	0	0	5	5	0.02	-0.02170515	1	10	0.03	2000	1.127426	40.92391	-91.39362
1980	-3	-5	6	-0.01627458	0.004024528	-0.3561332	0	12.42	0	0	0	5	5	0.02	-0.02388767	1	10	0.03	2000	1.359095	40.92391	-91.39362
2123	1	4	1	-0.02177546	0.008840484	-0.3581513	0	12.42	0	0	0	5	5	0.02	-0.03050744	1	10	0.03	2000	0.9226018	40.92391	-91.39362
2280	1	3	-1	-0.02051108	0.01252222	-0.3620639	0	12.42	0	0	0	5	5	0.02	-0.04128617	1	10	0.03	2000	1.150938	40.92391	-91.39362
2433	0	0	-1	-0.02923016	0.01412836	-0.362186	0	12.42	0	0	0	5	5	0.02	-0.04417013	1	10	0.03	2000	1.382148	40.92391	-91.39362
2523	0	-2	2	-0.02493517	0.01034919	-0.364081	0	12.42	0	0	0	5	5	0.02	-0.04591959	1	10	0.03	2000	1.151816	40.92391	-91.39362
2595	-2	9	-1	-0.02337156	0.009028059	-0.3657929	0	12.48	0	0	0	5	5	0.02	-0.04525616	1	10	0.03	2000	1.377512	40.92391	-91.39362
2769	-6	-5	6	-0.02024216	0.01097511	-0.3677491	0	12.48	0	0	0	5	5	0.02	-0.04955913	1	10	0.03	2000	1.146509	40.92391	-91.39362
2912	-3	-3	3	-0.02161432	0.009252703	-0.3709284	0	12.48	0	0	0	5	5	0.02	-0.05111592	1	10	0.03	2000	0.9236491	40.92391	-91.39362
2986	-1	0	0	-0.02291091	0.007615267	-0.3700724	0	12.48	0	0	0	5	5	0.02	-0.04714717	1	10	0.03	2000	0.9233961	40.92391	-91.39362
3146	0	-2	9	-0.03294921	0.01206021	-0.3746577	0	12.48	0	0	0	5	5	0.02	-0.03302552	1	10	0.03	2000	0.9393904	40.92391	-91.39362
3319	-1	2	1	-0.02905212	0.003743623	-0.3776533	0	12.48	0	0	0	5	5	0.02	-0.02338982	1	10	0.03	2000	1.158754	40.92391	-91.39362
3431	-9	-2	2	-0.03409394	-0.008509791	-0.3764305	0	12.48	0	0	0	5	5	0.02	-0.02238555	1	10	0.03	2000	1.16841	40.92391	-91.39362
3577	2	-5	0	-0.03618702	-0.006568908	-0.3804659	0	12.42	0	0	0	5	5	0.02	-0.0268891	1	10	0.03	2000	1.163821	40.92391	-91.39362
3698	1	2	-2	-0.03556247	0.001951072	-0.3819944	0	12.42	0	0	0	5	5	0.02	-0.03170609	1	10	0.03	2000	1.169861	40.92391	-91.39362
3716	1	2	-2	-0.03556247	0.001951072	-0.3819944	0	12.42	0	0	0	5	5	0.02	-0.03297465	1	10	0.03	2000	1.169861	40.92391	-91.39362
3881	-3	2	-3	-0.03613874	0.006957123	-0.3849904	0	12.42	0	0	0	5	5	0.02	-0.02905445	1	10	0.03	2000	1.403466	40.92391	-91.39362
3984	-1	-1	0	-0.03823574	0.004275938	-0.3851125	0	12.42	0	0	0	5	5	0.02	-0.02485181	1	10	0.03	2000	1.171841	40.92391	-91.39362
4039	-3	-2	5	-0.02927935	0.006378138	-0.3869464	0	12.42	0	0	0	5	5	0.02	-0.02035035	1	10	0.03	2000	0.9389964	40.92391	-91.39362
4119	-1	-4	0	-0.02423566	0.005592711	-0.3870076	0	12.42	0	0	0	5	5	0.02	-0.01037949	1	10	0.03	2000	1.151995	40.92391	-91.39362
4286	-9	3	0	-0.02735951	0.006304297	-0.3877415	0	12.42	0	0	0	5	5	0.02	0.001926249	1	10	0.03	2000	1.38518	40.92391	-91.39362
4333	-5	4	0	-0.0301234	0.002520951	-0.3873746	0	12.42	0	0	0	5	5	0.02	0.003444134	1	10	0.03	2000	1.38518	40.92391	-91.39362
4465	-5	0	1	-0.0328891	0.009128135	-0.3894533	0	12.48	0	0	0	5	5	0.02	0.01152347	1	10	0.03	2000	0.940849	40.92391	-91.39362
4635	-4	-3	4	-0.03187111	0.01249677	-0.3929379	0	12.48	0	0	0	5	5	0.02	0.01577159	1	10	0.03	2000	0.9451557	40.92391	-91.39362
4827	2	-3	0	-0.03415445	0.005914839	-0.3946499	0	12.48	0	0	0	5	5	0.02	0.01993928	1	10	0.03	2000	0.9482665	40.92391	-91.39362
4963	-3	0	8	-0.03267769	0.00853137	-0.3977067	0	12.48	0	0	0	5	5	0.02	0.02095584	1	10	0.03	2000	1.166021	40.92391	-91.39362
5125	0	-1	1	-0.03088575	0.01166628	-0.4009475	0	12.48	0	0	0	5	5	0.02	0.00978962	1	10	0.03	2000	0.9526265	40.92391	-91.39362
5210	-3	-1	-1	-0.0319244	0.01034689	-0.4022925	0	12.48	0	0	0	5	5	0.02	0.00359729	1	10	0.03	2000	1.166237	40.92391	-91.39362
5265	3	-2	0	-0.03038545	0.007714554	-0.4044326	0	12.48	0	0	0	5	5	0.02	0.00592021	1	10	0.03	2000	1.168749	40.92391	-91.39362
5404	-2	2	3	-0.03325573	0.007194099	-0.406511	0	12.53	0	0	0	5	5	0.02	0.004039268	1	10	0.03	2000	1.170344	40.92391	-91.39362
5454	-5	0	3	-0.03511517	0.009720338	-0.4086506	0	12.53	0	0	0	5	5	0.02	0.00417673	1	10	0.03	2000	0.9454542	40.92391	-91.39362
5554	-2	4	1	-0.03568494	0.006819462	-0.4099344	0	12.53	0	0	0	5	5	0.02	0.002248954	1	10	0.03	2000	1.168968	40.92391	-91.39362
5634	-2	1	0	-0.03435798	0.01162108	-0.4116464	0	12.53	0	0	0	5	5	0.02	-0.002822335	1	10	0.03	2000	1.175584	40.92391	-91.39362
5707	-2	1	3	-0.03687875	0.01212365	-0.4125023	0	12.53	0	0	0	5	5	0.02	-0.00630839	1	10	0.03	2000	0.9492437	40.92391	-91.39362
5809	0	-4	0	-0.03709187	0.01533316	-0.4145198	0	12.53	0	0	0	5	5	0.02	-0.005371715	1	10	0.03	2000	1.177719	40.92391	-91.39362
6028	-3	-2	-1	-0.0311582	0.01363377	-0.4179437	0	12.53	0	0	0	5	5	0.02	-0.009778957	1	10	0.03	2000	1.166853	40.92391	-91.39362
6155	-6	-1	1	-0.02378907	0.01026555	-0.4176991	0	12.53	0	0	0	5	5	0.02	-0.0105645	1	10	0.03	2000	1.153736	40.92391	-91.39362
6322	-1	3	0	-0.03053166	0.01215829	-0.4201448	0	12.48	0	0	0	5	5	0.02	-0.007601714	1	10	0.03	2000	0.9370912	40.92391	-91.39362
6392	-1	-4	1	-0.02825493	0.01413463	-0.4214898	0	12.48	0	0	0	5	5	0.02	-0.004337311	1	10	0.03	2000	1.160757	40.92391	-91.39362
6453	-3	-2	-2	-0.02578583	0.01520656	-0.4221622	0	12.48	0	0	0	5	5	0.02	-0.001872036	1	10	0.03	2000	1.15972	40.92391	-91.39362
6573	-2	-4	-4	-0.02327919	0.01743946	-0.4252802	0	12.48	0	0	0	5	5	0.02	0.001194795	1	10	0.03	2000	0.9298754	40.92391	-91.39362
6620	0	-3	-4	-0.02356268	0.01657401	-0.4244239	0	12.48	0	0	0	5	5	0.02	-0.002421677	1	10	0.03	2000	1.598849	40.92391	-91.39362
6787	-1	-1	4	-0.02201521	0.01380143	-0.4277868	0	12.48	0	0	0	5	5	0.02	-0.003589218	1	10	0.03	2000	1.147679	40.92391	-91.39362
6843	1	2	1	-0.02143932	0.01184655	-0.4281537	0	12.48	0	0	0	5	5	0.02	-0.000559121	1	10	0.03	2000	1.147679	40.92391	-91.39362
6972	-2	-2	1	-0.01464443	0.006988521	-0.4303548	0	12.48	0	0	0	5	5	0.02	0.0010592	1	10	0.03	2000	1.140118	40.92391	-91.39362
7052	1	3	1	-0.01387072	0.007735948	-0.4324948	0	12.48	0	0	0	5	5	0.02	0.00534776	1	10	0.03	2000	1.141018	40.92391	-91.39362
7122	3	-3	-2	-0.009296355	0.005464529	-0.4340844	0	12.48	0	0	0	5	5	0.02	0.008581302	1	10	0.03	2000	0.9050214	40.92391	-91.39362
7225	0	2	-1	-0.00786443	0.005751806	-0.4335341	0	12.48	0	0	0	5	5	0.02	0.01599777	1	10	0.03	2000	1.124955	40.92391	-91.39362
7348	-1	-1	5	-0.008820334	0.007734431	-0.4339011	0	12.48	0	0	0	5	5	0.02	0.03285066	1	10	0.03	2000	1.127755	40.92391	-91.39362
7501	-3	-1	-3	-0.008759178	0.00650728	-0.4375692	0	12.48	0	0	0	5	5	0.02	0.04340225	1	10	0.03	2000	1.347422	40.92391	-91.39362
7549	-3	5	1	-0.01002691	0.008088293	-0.4390978	0	12.48	0	0	0	5	5	0.02	0.04366865	1	10	0.03	2000	1.346623	40.92391	-91.39362
7634	2	0	-1	-0.008903957	0.007133567	-0.4416043	0	12.48	0	0	0	5	5	0.02	0.0459662	1	10	0.03	2000	1.134644	40.92391	-91.39362
7744	-6	0	2	-0.006362645	0.01025857	-0.4445997	0	12.48	0	0	0	5	5	0.02	0.0478981	1	10	0.03	2000	1.132328	40.92391	-91.39362
7862	1	-1	2	-0.009959974	0.01128279	-0.4469844	0	12.48	0	0	0	5	5	0.02	0.04316444	1	10	0.03	2000	0.909384	40.92391	-91.39362
7935	-3	2	6	-0.004841939	0.01293353	-0.4487575	0	12.48	0	0	0	5	5	0.02	0.04491057	1	10	0.03	2000	0.903397	40.92391	-91.39362
8085	1	1	0	-0.006774229	0.01625964	-0.4510199	0	12.48	0	0	0	5	5	0.02	0.03826445	1	10	0.03	2000	1.119292	40.92391	-91.39362
8173	-4	-2	1	-0.005211097	0.01274838	-0.4516313	0	12.48	0	0	0	5	5	0.02	0.02943287	1	10	0.03	2000	1.128842	40.92391	-91.39362
8236	0	-3	6	-0.006941033	0.01398813	-0.4548105	0	12.48	0	0	0	5	5	0.02	0.02651572	1	10	0.03	2000	1.123944	40.92391	-91.39362
8376	-3	-7	2	-0.01003675	0.01230751	-0.4554831	0	12.48	0	0	0	5	5	0.02	0.02294431	1	10	0.03	2000	1.132087	40.92391	-91.39362
8433	-5	2	1	-0.01245423	0.01126755	-0.4563391	0	12.48	0	0	0	5	5	0.02	0.02367456	1	10	0.03	2000	1.13636	40.92391	-91.39362
8546	5	4	0	-0.009354654	0.01772643	-0.4577454	0	12.48	0	0	0	5	5	0.02	0.02716218	1	10	0.03	2000	1.364453	40.92391	-91.39362
8631	0	6	4	-0.01162109	0.01636402	-0.4595797	0	12.48	0	0	0	5	5	0.02	0.03997166	1	10	0.03	2000	1.130326	40.92391	-91.39362
8778	-4	-6	-1	-0.010236	0.01190456	-0.4590293	0	12.48	0	0	0	5	5	0.02	0.04878816	1	10	0.03	2000	1.132487	40.92391	-91.39362
8846	-1	-6	0	-0.01457565	0.01322879	-0.4602522	0	12.48	0	0	0	5	5	0.02	0.0494122	1	10	0.03	2000	1.371787	40.92391	-91.39362
8925	2	3	0	-0.01587447	0.01434485	-0.461597	0	12.48	0	0	0	5	5	0.02	0.04663564	1	10	0.03	2000	1.145153	40.92391	-91.39362
9083	4	-1	2	-0.01200389	0.0110932	-0.4621472	0	12.48	0	0	0	5	5	0.02	0.03667	1	10	0.03	2000	0.9153312	40.92391	-91.39362
9196	1	1	0	-0.004831562	0.01580527	-0.4620861	0	12.48	0	0	0	5	5	0.02	0.02272137	1	10	0.03	2000	0.8993319	40.92391	-91.39362
9341	2	5	2	-0.006095217	0.008322553	-0.46392	0	12.48	0	0	0	5	5	0.02	0.01557482	1	10	0.03	2000	0.8994769	40.92391	-91.39362
9452	3	-6	-1	-0.004657907	0.01168181	-0.4658764	0	12.48	0	0	0	5	5	0.02	-0.001567482	1	10	0.03	2000	1.128236	40.92391	-91.39362
9528	-3	0	-3	-0.004479855	0.009538291	-0.4659986	0	12.48	0	0	0	5	5	0.02	-0.006710112	1	10	0.03	2000	1.120601	40.92391	-91.39362
9681	0	3	-2	-0.003567088	0.007458222	-0.468322	0	12.48	0	0	0	5	5	0.02	-0.02663825	1	10	0.03	2000	1.124565	40.92391	-91.39362
9778	-2	2	-2	-0.007781371	0.01057202	-0.4687499	0	12.48	0	0	0	5	5	0.02	-0.03674135	1	10	0.03	2000	1.130795	40.92391	-91.39362
9903	2	0	-1	-0.008839705	0.009296685	-0.4705233	0	12.48	0	0	0	5	5	0.02	-0.06050709	1	10	0.03	2000	1.124831	40.92391	-91.39362
9958	-3	1	-1	-0.008253369	0.01122274	-0.4722965	0	12.48	0	0	0	5	5	0.02	-0.06309362	1	10	0.03	2000	1.132435	40.92391	-91.39362
10025	-2	5	1	-0.01183634	0.0101608	-0.4723577	0	12.48	0	0	0	5	5	0.02	-0.06839938	1	10	0.03	2000	1.349908	40.92391	-91.39362
10127	-3	4	1	-0.01310823	0.00615289	-0.4756592	0	12.48	0	0	0	5	5	0.02	-0.06475183	1	10	0.03	2000	0.9160472	40.92391	-91.39362
10225	3	3	4	-0.01225778	0.009272764	-0.4770042	0	12.48	0	0	0	5	5	0.02	-0.06496888	1	10	0.03	2000	0.9135945	40.92391	-91.39362
10329	-4	0	3	-0.01089006	0.01214291	-0.4811006	0	12.48	0	0	0	5	5	0.02	-0.07179004	1	10	0.03	2000	1.353533	40.92391	-91.39362
10433	-4	3	-1	-0.01495352	0.01236532	-0.4825066	0	12.48	0	0	0	5	5	0.02	-0.07345654	1	10	0.03	2000	1.355905	40.92391	-91.39362
10562	-4	-1	4	-0.01856114	0.02258631	-0.4855022	0	12.48	0	0	0	5	5	0.02	-0.06625001	1	10	0.03	2000	0.9215181	40.92391	-91.39362
10700	2	-4	0	-0.01889729	0.02518201	-0.4847688	0	12.48	0	0	0	5	5	0.02	-0.05377701	1	10	0.03	2000	1.14958	40.92391	-91.39362
10777	7	1	0	-0.01795268	0.02467927	-0.4885593	0	12.48	0	0	0	5	5	0.02	-0.03880237	1	10	0.03	2000	1.366325	40.92391	-91.39362
10869	0	-2	0	-0.01435998	0.02253867	-0.4907602	0	12.48	0	0	0	5	5	0.02	-0.03243343	1	10	0.03	2000	1.13943	40.92391	-91.39362
10996	0	-1	1	-0.01064956	0.02115945	-0.4933892	0	12.48	0	0	0	5	5	0.02	-0.02869011	1	10	0.03	2000	0.9143246	40.92391	-91.39362
11050	3	2	-1	-0.01162961	0.02104352	-0.4935727	0	12.48	0	0	0	5	5	0.02	-0.03118715	1	10	0.03	2000	1.137457	40.92391	-91.39362
11161	-2	-4	4	-0.01207916	0.0253451	-0.4945507	0	12.48	0	0	0	5	5	0.02	-0.03863313	1	10	0.03	2000	1.352683	40.92391	-91.39362
11309	12	0	1	-0.01060834	0.02909071	-0.4977299	0	12.48	0	0	0	5	5	0.02	-0.04803167	1	10	0.03	2000	0.9102048	40.92391	-91.39362
11428	-1	1	-1	-0.003066606	0.02704291	-0.4988914	0	12.48	0	0	0	5	5	0.02	-0.05335349	1	10	0.03	2000	1.126442	40.92391	-91.39362
11469	3	-2	1	-0.001726765	0.02709932	-0.4991972	0	12.48	0	0	0	5	5	0.02	-0.05479266	1	10	0.03	2000	1.126442	40.92391	-91.39362
11552	1	3	2	-0.001438157	0.02536908	-0.5018262	0	12.48	0	0	0	5	5	0.02	-0.05933969	1	10	0.03	2000	1.115484	40.92391	-91.39362
11657	0	-4	2	-0.007707474	0.02762218	-0.5013983	0	12.48	0	0	0	5	5	0.02	-0.06292448	1	10	0.03	2000	1.118388	40.92391	-91.39362
11792	2	3	0	0.0008549431	0.02269598	-0.5041494	0	12.48	0	0	0	5	5	0.02	-0.06159327	1	10	0.03	2000	1.127756	40.92391	-91.39362
11854	1	0	4	-0.001546152	0.0232397	-0.5054333	0	12.48	0	0	0	5	5	0.02	-0.05439551	1	10	0.03	2000	1.116889	40.92391	-91.39362
12001	5	0	1	-0.001314044	0.01933339	-0.5065951	0	12.48	0	0	0	5	5	0.02	-0.0367809	1	10	0.03	2000	1.117941	40.92391	-91.39362
12110	3	0	-1	-0.001632198	0.01509983	-0.5088571	0	12.48	0	0	0	5	5	0.02	-0.02939388	1	10	0.03	2000	1.34463	40.92391	-91.39362
12165	0	-4	0	-0.001870887	0.01420361	-0.508857	0	12.48	0	0	0	5	5	0.02	-0.02557464	1	10	0.03	2000	1.34463	40.92391	-91.39362
12343	3	0	3	0.00652764	0.002876401	-0.5099577	0	12.48	0	0	0	5	5	0.02	-0.02701211	1	10	0.03	2000	1.331435	40.92391	-91.39362
12385	4	0	6	0.006801494	0.002110196	-0.5111191	0	12.48	0	0	0	5	5	0.02	-0.03100214	1	10	0.03	2000	1.321044	40.92391	-91.39362
12557	4	1	2	0.01572395	0.006566625	-0.5101408	0	12.48	0	0	0	5	5	0.02	-0.04162118	1	10	0.03	2000	1.08878	40.92391	-91.39362
12639	5	5	2	0.01747559	0.00479754	-0.5121584	0	12.53	0	0	0	5	5	0.02	-0.04662702	1	10	0.03	2000	1.093336	40.92391	-91.39362
12734	2	4	0	0.01869048	0.006228221	-0.5139924	0	12.53	0	0	0	5	5	0.02	-0.05090051	1	10	0.03	2000	1.091343	40.92391	-91.39362
12761	0	1	0	0.01624661	0.01083751	-0.5152154	0	12.53	0	0	0	5	5	0.02	-0.05090051	1	10	0.03	2000	1.088476	40.92391	-91.39362
12910	5	1	-1	0.02726151	0.01065614	-0.516377	0	12.53	0	0	0	5	5	0.02	-0.04403234	1	10	0.03	2000	1.308379	40.92391	-91.39362
13020	9	-2	1	0.03436725	0.01488161	-0.5167437	0	12.53	0	0	0	5	5	0.02	-0.04264993	1	10	0.03	2000	1.283778	40.92391	-91.39362
13067	8	-1	0	0.03545926	0.015148	-0.517416	0	12.53	0	0	0	5	5	0.02	-0.03689503	1	10	0.03	2000	1.283778	40.92391	-91.39362
13216	6	4	1	0.03607251	0.0206497	-0.5162547	0	12.53	0	0	0	5	5	0.02	-0.03057944	1	10	0.03	2000	1.283173	40.92391	-91.39362
13268	6	0	0	0.0380108	0.02327447	-0.5160713	0	12.53	0	0	0	5	5	0.02	-0.02633099	1	10	0.03	2000	1.279642	40.92391	-91.39362
13423	5	2	2	0.0303655	0.01784395	-0.5138702	0	12.53	0	0	0	5	5	0.02	-0.01388547	1	10	0.03	2000	1.069857	40.92391	-91.39362
13468	7	-1	1	0.03283205	0.01602533	-0.5135646	0	12.53	0	0	0	5	5	0.02	-0.007107099	1	10	0.03	2000	1.069857	40.92391	-91.39362
13631	0	-2	-2	0.03336197	0.01352185	-0.514115	0	12.42	0	0	0	5	5	0.02	-0.008504783	1	10	0.03	2000	1.288073	40.92391	-91.39363
13764	-1	0	0	0.03239907	0.009275896	-0.5136871	0	12.42	0	0	0	5	5	0.02	-0.009680982	1	10	0.03	2000	1.071368	40.92391	-91.39363
13813	1	5	0	0.03029153	0.009093128	-0.5144818	0	12.42	0	0	0	5	5	0.02	-0.01431769	1	10	0.03	2000	1.287428	40.92391	-91.39363
13911	2	-2	-1	0.02621554	0.007513421	-0.5138096	0	12.42	0	0	0	5	5	0.02	-0.01665994	1	10	0.03	2000	1.289348	40.92391	-91.39363
13966	0	2	2	0.03025493	0.007212149	-0.514543	0	12.42	0	0	0	5	5	0.02	-0.02014388	1	10	0.03	2000	1.289348	40.92391	-91.39363
14092	-1	-4	0	0.02913783	0.01373705	-0.5138705	0	12.42	0	0	0	5	5	0.02	-0.02278675	1	10	0.03	2000	1.065417	40.92391	-91.39363
14247	4	-1	4	0.02740438	0.01625137	-0.5163161	0	12.42	0	0	0	5	5	0.02	-0.03853945	1	10	0.03	2000	1.070069	40.92391	-91.39363
14386	8	1	-1	0.03743201	0.01218189	-0.5147876	0	12.42	0	0	0	5	5	0.02	-0.04639716	1	10	0.03	2000	1.078791	40.92391	-91.39363
14476	4	-2	-1	0.03555351	0.0103335	-0.5152768	0	12.42	0	0	0	5	5	0.02	-0.05180866	1	10	0.03	2000	1.061088	40.92391	-91.39363
14585	6	-6	2	0.03668603	0.007409128	-0.5137484	0	12.48	0	0	0	5	5	0.02	-0.06010461	1	10	0.03	2000	1.057429	40.92391	-91.39363
14679	3	-1	7	0.03636182	0.00750708	-0.5152155	0	12.48	0	0	0	5	5	0.02	-0.05968586	1	10	0.03	2000	1.285286	40.92391	-91.39363
14788	0	1	1	0.03756909	0.005028928	-0.5167441	0	12.48	0	0	0	5	5	0.02	-0.05922457	1	10	0.03	2000	1.062255	40.92391	-91.39363
14895	2	2	-1	0.03238116	0.0064861	-0.5164997	0	12.48	0	0	0	5	5	0.02	-0.05557826	1	10	0.03	2000	0.8426834	40.92391	-91.39363
15038	-1	0	-1	0.03457071	0.003077225	-0.5163159	0	12.48	0	0	0	5	5	0.02	-0.04477586	1	10	0.03	2000	1.061339	40.92391	-91.39363
15094	4	-1	-1	0.03781618	0.007068097	-0.516316	0	12.48	0	0	0	5	5	0.02	-0.03630467	1	10	0.03	2000	1.060175	40.92391	-91.39363
15204	2	-1	4	0.03732498	0.006049855	-0.5184559	0	12.48	0	0	0	5	5	0.02	-0.01157095	1	10	0.03	2000	1.063514	40.92391	-91.39363
15290	0	3	-2	0.03755341	0.005924481	-0.5179667	0	12.48	0	0	0	5	5	0.02	0.002749469	1	10	0.03	2000	1.280979	40.92391	-91.39363
15452	2	3	2	0.02812049	0.0167993	-0.519312	0	12.48	0	0	0	5	5	0.02	0.02229786	1	10	0.03	2000	1.068921	40.92391	-91.39363
15525	4	1	-1	0.02146277	0.016551	-0.5199234	0	12.48	0	0	0	5	5	0.02	0.02880702	1	10	0.03	2000	1.080837	40.92391	-91.39363
15641	1	-2	1	0.02038133	0.01540137	-0.5203516	0	12.48	0	0	0	5	5	0.02	0.03720093	1	10	0.03	2000	1.081037	40.92391	-91.39363
15748	4	4	1	0.01685535	0.0139401	-0.5225526	0	12.48	0	0	0	5	5	0.02	0.04113381	1	10	0.03	2000	1.087677	40.92391	-91.39364
15790	0	-1	0	0.01313339	0.01728484	-0.5216355	0	12.48	0	0	0	5	5	0.02	0.04342924	1	10	0.03	2000	1.312732	40.92391	-91.39364
15884	-3	4	-3	0.01413245	0.01725956	-0.5218803	0	12.48	0	0	0	5	5	0.02	0.04640288	1	10	0.03	2000	1.091231	40.92391	-91.39364
15985	7	-6	2	0.01594785	0.02046272	-0.5215132	0	12.48	0	0	0	5	5	0.02	0.04198495	1	10	0.03	2000	1.095329	40.92391	-91.39364
16096	-2	0	0	0.01910678	0.02021766	-0.5210239	0	12.48	0	0	0	5	5	0.02	0.03073395	1	10	0.03	2000	0.8671945	40.92391	-91.39364
16171	3	-1	-1	0.02102125	0.02183475	-0.5211459	0	12.48	0	0	0	5	5	0.02	0.0243975	1	10	0.03	2000	0.8569596	40.92391	-91.39364
16292	3	-4	0	0.02958252	0.02521864	-0.5216973	0	12.48	0	0	0	5	5	0.02	0.0003251027	1	10	0.03	2000	1.074223	40.92391	-91.39364
16365	4	-2	-2	0.03226624	0.02781017	-0.5204133	0	12.48	0	0	0	5	5	0.02	-0.01327983	1	10	0.03	2000	1.070598	40.92391	-91.39364
16500	2	0	3	0.04285744	0.02396115	-0.5205966	0	12.48	0	0	0	5	5	0.02	-0.0204482	1	10	0.03	2000	1.059078	40.92392	-91.39364
16568	8	-1	3	0.04083075	0.03144976	-0.5215137	0	12.48	0	0	0	5	5	0.02	-0.02553655	1	10	0.03	2000	0.8265719	40.92392	-91.39364
16686	4	-4	-4	0.04722082	0.02196292	-0.5200463	0	12.48	0	0	0	5	5	0.02	-0.02329249	3	10	0.03	2000	1.041141	40.92392	-91.39364
16802	8	2	0	0.0514526	0.02249994	-0.5204742	0	12.48	0	0	0	5	5	0.02	0.001542559	3	10	0.03	2000	1.258025	40.92392	-91.39364
16912	0	2	4	0.05113509	0.01941397	-0.5208412	0	12.48	0	0	0	5	5	0.02	0.007747963	3	10	0.03	2000	1.032876	40.92392	-91.39364
17008	0	1	-3	0.04517437	0.02489376	-0.5216972	0	12.48	0	0	0	5	5	0.02	0.01891914	3	10	0.03	2000	1.044436	40.92392	-91.39364
17068	5	0	0	0.04375704	0.02825186	-0.5218194	0	12.48	0	0	0	5	5	0.02	0.02448901	3	10	0.03	2000	1.26508	40.92392	-91.39364
17171	3	2	0	0.04550635	0.02282523	-0.5210244	0	12.48	0	0	0	5	5	0.02	0.02676536	3	10	0.03	2000	0.8229038	40.92392	-91.39364
17346	2	0	-6	0.05586749	0.01672434	-0.5206573	0	12.53	0	0	0	5	5	0.02	0.03950758	3	10	0.03	2000	1.032323	40.92392	-91.39364
17407	0	0	-3	0.05967799	0.02075326	-0.5220637	0	12.53	0	0	0	5	5	0.02	0.04162966	3	10	0.03	2000	0.802618	40.92392	-91.39364
17474	-1	-4	1	0.06538051	0.02434552	-0.5215749	0	12.53	0	0	0	5	5	0.02	0.04507696	3	10	0.03	2000	1.233504	40.92392	-91.39364
17584	7	0	0	0.06730863	0.0226527	-0.5205966	0	12.53	0	0	0	5	5	0.02	0.04857585	3	10	0.03	2000	1.012635	40.92392	-91.39364
17703	8	0	1	0.07411586	0.02121743	-0.5198629	0	12.53	0	0	0	5	5	0.02	0.04840691	3	10	0.03	2000	1.007238	40.92392	-91.39364
17785	7	-2	0	0.07605033	0.01666687	-0.5195572	0	12.53	0	0	0	5	5	0.02	0.05318243	3	10	0.03	2000	0.9993963	40.92392	-91.39364
17894	3	-2	-2	0.07464214	0.01199042	-0.5212691	0	12.53	0	0	0	5	5	0.02	0.05790859	3	10	0.03	2000	1.217189	40.92392	-91.39364
17964	4	2	3	0.08162835	0.0177678	-0.5228592	0	12.53	0	0	0	5	5	0.02	0.0590473	3	10	0.03	2000	0.9973915	40.92392	-91.39365
18164	5	0	0	0.07572688	0.01703166	-0.524571	0	12.59	0	0	0	5	5	0.02	0.05267557	3	10	0.03	2000	0.9924353	40.92392	-91.39365
18196	10	0	0	0.07069248	0.01310835	-0.5225531	0	12.59	0	0	0	5	5	0.02	0.05173388	3	10	0.03	2000	0.775308	40.92392	-91.39365
18277	6	0	0	0.06806493	0.01687261	-0.5219417	0	12.59	0	0	0	5	5	0.02	0.04447261	3	10	0.03	2000	1.220443	40.92392	-91.39365
18368	2	-5	2	0.07035816	0.01540304	-0.5241428	0	12.59	0	0	0	5	5	0.02	0.03601527	3	10	0.03	2000	1.004593	40.92392	-91.39365
18471	4	3	6	0.0657814	0.01940571	-0.5276886	0	12.59	0	0	0	5	5	0.02	0.03207924	3	10	0.03	2000	1.010548	40.92392	-91.39365
18572	3	2	2	0.06188799	0.01403064	-0.5271997	0	12.59	0	0	0	5	5	0.02	0.0240439	3	10	0.03	2000	1.245496	40.92392	-91.39365
18673	5	0	1	0.06090188	0.01365374	-0.5266495	0	12.59	0	0	0	5	5	0.02	0.01803005	3	10	0.03	2000	1.02271	40.92392	-91.39365
18780	14	-2	1	0.06176575	0.01039299	-0.5281171	0	12.59	0	0	0	5	5	0.02	0.01425464	3	10	0.03	2000	1.025965	40.92392	-91.39365
18877	5	-4	0	0.06170344	0.0190034	-0.5272	0	12.59	0	0	0	5	5	0.02	0.01071586	3	10	0.03	2000	1.019523	40.92392	-91.39365
18969	4	4	0	0.06313038	0.01483099	-0.5273222	0	12.59	0	0	0	5	5	0.02	0.008010445	3	10	0.03	2000	1.239611	40.92392	-91.39365
19069	9	0	0	0.06684044	0.0116697	-0.5310525	0	12.53	0	0	0	5	5	0.02	0.003874181	3	10	0.03	2000	1.017453	40.92392	-91.39365
19222	4	-3	5	0.06976623	0.01052105	-0.5320918	0	12.53	0	0	0	5	5	0.02	0.002820561	3	10	0.03	2000	0.7812385	40.92392	-91.39365
19295	3	2	2	0.06763893	0.01131762	-0.5331925	0	12.53	0	0	0	5	5	0.02	0.0008987638	3	10	0.03	2000	0.7852744	40.92392	-91.39365
19367	2	-2	-2	0.06959981	0.01366067	-0.5327645	0	12.53	0	0	0	5	5	0.02	0.0008867072	3	10	0.03	2000	1.234466	40.92392	-91.39365
19533	11	23	17	0.0754056	0.01464062	-0.539673	0	12.53	0	0	0	5	5	0.02	-0.0002740371	3	10	0.03	2000	1.000935	40.92392	-91.39365
19601	-38	-25	5	0.07965703	0.01895489	-0.5455435	0	12.53	0	0	0	5	5	0.02	-0.002884557	3	10	0.03	2000	0.9964255	40.92392	-91.39365
19668	-2	-13	0	0.06173794	0.009209514	-0.5477464	0	12.53	0	0	0	5	5	0.02	-0.005516537	3	10	0.03	2000	1.004751	40.92392	-91.39365
19767	51	41	-61	0.0530884	0.009709182	-0.5550847	0	12.53	0	0	0	5	5	0.02	-0.01242609	3	10	0.03	2000	0.7678858	40.92392	-91.39365
19935	2	14	-13	0.04661669	0.0108859	-0.5596097	0	12.53	0	0	0	5	5	0.02	-0.01055958	3	10	0.03	2000	0.813537	40.92392	-91.39365
19991	0	-52	-80	0.0420207	0.02060925	-0.5500748	0	12.48	0	0	0	5	5	0.02	-0.008391401	3	10	0.03	2000	0.813537	40.92392	-91.39365
20085	15	22	-58	0.04720939	0.02440144	-0.5478129	0	12.48	0	0	0	5	5	0.02	-0.005195869	3	10	0.03	2000	0.5657424	40.92392	-91.39365
20207	10	20	33	0.05373907	0.007695631	-0.5350367	0	12.48	0	0	0	5	5	0.02	-0.0007084879	3	10	0.03	2000	0.5670685	40.92392	-91.39365
20300	-21	-19	208	0.04587175	0.01690275	-0.555155	0	12.48	0	0	0	5	5	0.02	0.01703935	3	10	0.03	2000	1.029692	40.92392	-91.39365
20400	-182	-288	-119	-0.03699692	0.1397813	-0.543663	0	12.48	0	0	0	5	5	0.02	0.02508201	3	10	0.03	2000	0.4763185	40.92392	-91.39365
20499	180	238	-76	-0.4767425	0.7597076	-0.5435506	0	12.48	0	0	0	5	5	0.02	0.03465934	3	10	0.03	2000	1.425303	40.92392	-91.39365
20599	-115	-184	26	-0.3951567	0.662294	-0.5497879	0	12.48	0	0	0	5	5	0.02	0.04049067	3	10	0.03	2000	1.157168	40.92392	-91.39365
20661	72	75	102	-0.4124813	0.6681282	-0.5513128	0	12.48	0	0	0	5	5	0.02	0.0472936	3	10	0.03	2000	0.6656795	40.92392	-91.39365
20789	20	21	15	-0.424523	0.7118014	-0.54202	0	12.48	0	0	0	5	5	0.02	0.06094113	3	10	0.03	2000	0.8609769	40.92392	-91.39365
20865	-26	-80	48	-0.3958944	0.6615837	-0.5499004	0	12.48	0	0	0	5	5	0.02	0.06893647	3	10	0.03	2000	0.8569499	40.92392	-91.39365
20976	28	-80	42	-0.4083002	0.6435776	-0.5442755	0	12.31	0	0	0	5	5	0.02	0.08709789	3	10	0.03	2000	0.4745914	40.92392	-91.39365
21107	37	-51	21	-0.5184439	0.7439891	-0.5286886	0	12.31	0	0	0	5	5	0.02	0.09493582	3	10	0.03	2000	0.1398263	40.92392	-91.39365
21268	-5	24	81	-0.5173877	0.7396889	-0.5548575	0	12.31	0	0	0	5	5	0.02	0.09508143	3	10	0.03	2000	1.091197	40.92392	-91.39365
21351	94	137	-52	-0.4695601	0.6596262	-0.5465435	0	12.31	0	0	0	5	5	0.02	0.096319	3	10	0.03	2000	1.010063	40.92392	-91.39365
21511	12	112	21	-0.2981316	0.3500038	-0.5606104	0	12.31	0	0	0	5	5	0.02	0.08993905	3	10	0.03	2000	0.5970616	40.92392	-91.39365
21619	124	133	-9	-0.06465158	0.04851293	-0.570452	0	12.31	0	0	0	5	5	0.02	0.09162829	3	10	0.03	2000	1.032793	40.92392	-91.39365
21697	121	-10	-63	-0.01009172	-0.00249694	-0.5793755	0	12.31	0	0	0	5	5	0.02	0.0952257	3	10	0.03	2000	1.032793	40.92392	-91.39365
21742	60	-184	12	-0.08032565	0.1569021	-0.5877529	0	12.31	0	0	0	5	5	0.02	0.09726977	3	10	0.03	2000	1.726608	40.92392	-91.39365
21865	111	69	100	-0.1513639	0.1185004	-0.5917222	0	12.31	0	0	0	5	5	0.02	0.1014721	3	10	0.03	2000	1.154246	40.92392	-91.39365
21941	-79	-21	-12	-0.0489452	0.002855642	-0.5991839	0	12.31	0	0	0	5	5	0.02	0.1031924	3	10	0.03	2000	1.553439	40.92392	-91.39365
22077	-45	36	-55	-0.105828	0.02819887	-0.59784	0	12.31	0	0	0	5	5	0.02	0.1002623	3	10	0.03	2000	1.668994	40.92392	-91.39365
22160	18	3	0	-0.1041434	0.00740825	-0.6082939	0	12.31	0	0	0	5	5	0.02	0.09972075	3	10	0.03	2000	1.037129	40.92392	-91.39365
22239	15	49	-21	-0.101971	0.04489023	-0.6128753	0	12.31	0	0	0	5	5	0.02	0.09631111	3	10	0.03	2000	1.741183	40.92392	-91.39365
22377	-72	-127	43	-0.1186616	0.05226448	-0.6183699	0	12.31	0	0	0	5	5	0.02	0.1007361	3	10	0.03	2000	0.7405241	40.92392	-91.39365
22425	315	255	-153	-0.1482605	0.05374713	-0.6184853	0	12.31	0	0	0	5	5	0.02	0.1007361	3	10	0.03	2000	0.856631	40.92392	-91.39365
22614	191	225	-254	-0.1275808	-0.07869522	-0.6580401	0	12.31	0	0	0	5	5	0.02	0.1144123	3	10	0.03	2000	1.5644	40.92392	-91.39365
22673	-120	-212	292	-0.1253598	-0.1057331	-0.6794308	0	12.31	0	0	0	5	5	0.02	0.1283284	3	10	0.03	2000	1.485291	40.92392	-91.39365
22767	-311	-161	103	-0.3047183	0.1391938	-0.6907632	0	12.08	0	0	0	5	5	0.02	0.1347376	3	10	0.03	2000	1.357248	40.92392	-91.39365
22879	418	407	-196	-0.3749617	0.1743129	-0.6887538	0	12.08	0	0	0	5	5	0.02	0.1420117	6	10	0.03	2000	0.9418833	40.92392	-91.39365
22951	2442	2067	1329	1.116894	-1.255399	-1.056568	0	12.08	0	0	0	5	5	0.02577999	0.1482265	6	10	0.03	2000	4.340636	40.92392	-91.39365
23024	671	597	-586	2.505106	-3.04391	-0.6286953	0	12.08	0	0	0	5	5	0.03138788	0.1503022	6	10	0.03	2000	1.977286	40.92392	-91.39365
23144	-707	-1769	1444	-0.7791561	0.4175166	0.2808779	0	12.08	0	0	0	5	5	0.04547679	0.164909	6	10	0.03	2000	2.301059	40.92392	-91.39365
23239	61	461	-244	-0.4748007	0.1120829	1.000609	0	12.08	0	0	0	5	5	0.04412495	0.165624	6	10	0.03	2000	0.6996436	40.92392	-91.39365
23376	82	-118	-27	-0.3997528	-0.01988969	0.7936015	0	12.08	0	0	0	5	5	0.04257091	0.174717	6	10	0.03	2000	0.4386886	40.92393	-91.39365
23421	173	8	-257	-0.358764	-0.08444692	0.8030183	0	12.08	0	0	0	5	5	0.0420696	0.1757549	6	10	0.03	2000	0.5605922	40.92393	-91.39365
23582	-291	-197	51	-0.3986716	0.09168317	0.7597896	0	12.08	0	0	0	5	5	0.04157111	0.1757361	6	10	0.03	2000	0.5074462	40.92393	-91.39365
23689	-75	-8	204	-0.6962122	0.5088128	0.7495983	0	12.31	0	0	0	5	5	0.04152693	0.1798073	6	10	0.03	2000	0.7711138	40.92393	-91.39365
23719	5	-31	138	-0.6869375	0.4212941	0.7640331	0	12.31	0	0	0	5	5	0.04173034	0.1809546	6	10	0.03	2000	0.8772675	40.92393	-91.39365
23816	28	-23	173	-0.5425202	0.38265	0.7416717	0	12.31	0	0	0	5	5	0.04269121	0.1842359	6	10	0.03	2000	0.5066913	40.92393	-91.39365
24001	-72	84	-472	-0.6389768	0.3953529	0.7796366	0	12.31	0	0	0	5	5	0.04127325	0.1959094	6	10	0.03	2000	0.2908198	40.92392	-91.39365
24024	-72	84	-472	-0.6389768	0.3953529	0.7796366	0	12.31	0	0	0	5	5	0.04037012	0.1965566	6	10	0.03	2000	0.2908198	40.92392	-91.39365
24159	134	121	434	-0.6459757	0.3338291	0.6009295	0	12.31	0	0	0	5	5	0.04020894	0.1952113	6	10	0.03	2000	-0.08734131	40.92392	-91.39365
24269	134	26	-7	-0.5298233	0.2543668	0.5607103	0	12.31	0	0	0	5	5	0.04206945	0.1853473	6	10	0.03	2000	0.1350696	40.92392	-91.39365
24447	382	59	-546	-0.5157681	0.3605022	0.764101	0	12.31	0	0	0	5	5	0.03621374	0.1654144	6	10	0.03	2000	1.061942	40.92392	-91.39365
24530	-127	-780	-240	-0.264529	0.3363007	1.147637	0	12.31	0	0	0	5	5	0.03604564	0.1616699	6	10	0.03	2000	-0.205658	40.92392	-91.39365
24651	1059	149	962	-0.5777328	1.716014	1.403607	0	12.31	0	0	0	5	5	0.03919774	0.1523675	6	10	0.03	2000	0.2296907	40.92392	-91.39365
24813	1187	402	-464	-0.07645789	0.01596932	-0.5637988	0	12.31	0	0	0	5	5	0.04225696	0.1510599	6	10	0.03	2000	3.368617	40.92392	-91.39365
24874	1429	494	640	0.4696549	-0.1594216	-0.8569385	0	12.31	0	0	0	5	5	0.04120132	0.1564258	6	10	0.03	2000	3.368617	40.92392	-91.39365
25001	1805	3730	-1250	1.01447	-4.176271	0.1629852	0	12.31	0	0	0	5	5	0.05096841	0.1620019	6	10	0.03	2000	4.2245	40.92392	-91.39365
25104	-194	2354	770	1.719896	-7.9045	1.066743	0	12.31	0	0	0	5	5	0.06452119	0.1699619	6	10	0.03	2000	4.558528	40.92392	-91.39365
25187	-1796	-518	-360	1.23397	-11.90545	2.394267	0	12.31	0	0	0	5	5	0.08189394	0.177673	6	10	0.03	2000	4.709886	40.92392	-91.39365
25235	-1133	-911	1092	0.5007339	-11.1394	2.342043	0	12.31	0	0	0	5	5	0.1038068	0.1842997	6	10	0.03	2000	5.248523	40.92393	-91.39365
25339	106	-2138	1748	-0.1007063	-6.953573	1.2771	0	12.31	0	0	0	5	5	0.1730899	0.194164	6	10	0.03	2000	4.589413	40.92393	-91.39365
25469	-3835	47	-222	-4.88062	-5.008833	0.262106	0	12.59	20009	5	5	5	5	0.1488709	0.2146778	8	10	0.03	2000	6.748307	40.92393	-91.39365
25634	-3439	-179	668	-8.140424	-1.363024	-0.1980468	0	12.59	20051	10	5	5	5	0.09767422	0.2394845	8	10	0.03	2000	5.704398	40.92393	-91.39365
25687	-1343	1549	606	-9.290168	-1.834569	-0.6588982	0	12.59	20037	10	5	5	5	0.07120451	0.2560338	8	10	0.03	2000	4.600373	40.92393	-91.39365
25749	-199	461	-958	-8.814312	-0.6810251	0.05932143	0	12.59	20062	21	15	5	5	0.06408405	0.2621394	8	10	0.03	2000	2.633784	40.92393	-91.39365
25916	1734	1977	579	-3.781727	0.3977774	1.536835	0	12.59	20025	21	15	5	5	0.03405689	0.3361739	8	10	0.03	2000	-0.3442383	40.92393	-91.39365
25971	-1852	875	357	-3.601127	-0.5999774	0.7637335	0	12.59	20022	26	26	5	5	0.0306512	0.3475363	8	10	0.03	2000	-0.08401489	40.92393	-91.39365
26053	41	-1662	-60	-4.568861	0.03901739	0.7399781	0	12.59	20010	22	22	5	5	0.02482747	0.3839484	8	10	0.03	2000	0.7444208	40.92393	-91.39365
26274	-1391	-195	899	-2.235138	3.043692	1.916318	0	12.59	20034	23	33	5	5	0.02	0.6601465	8	10	0.03	2000	-3.234833	40.92393	-91.39365
26367	889	-87	1079	-0.902741	1.996326	0.5506918	0	12.14	20030	29	43	5	5	0.02	0.7087641	8	10	0.03	2000	-2.83139	40.92393	-91.39365
26491	-510	-1290	761	-3.100223	3.384805	-0.158386	0	12.14	20036	21	46	5	5	0.02	0.9469185	8	10	0.03	2000	-1.98761	40.92393	-91.39365
26560	1114	720	538	-1.925168	3.05119	0.4626249	0	12.14	20037	21	46	5	5	0.02	1.006576	8	10	0.03	2000	-1.09549	40.92393	-91.39365
26663	125	-291	284	-1.333826	2.124829	0.9987851	0	12.14	20034	17	38	5	5	0.02	1.195011	8	10	0.03	2000	-2.760498	40.92393	-91.39365
26774	-970	-1925	716	-2.239829	2.442747	0.6501045	0	12.14	20028	22	54	5	5	0.02	1.386785	8	10	0.03	2000	-1.956421	40.92394	-91.39365
26935	-664	340	0	-0.9052002	1.331707	0.7466153	0	12.14	20032	18	51	5	5	0.02	1.585035	8	10	0.03	2000	-0.9728394	40.92394	-91.39365
27024	-902	-1141	-183	-2.499427	1.581614	0.6650603	0	12.14	20051	14	43	5	5	0.02	1.702244	8	10	0.03	2000	0.4444273	40.92394	-91.39365
27087	-308	-1821	988	-3.073004	3.076298	0.5312774	0	12.14	20032	19	54	5	5	0.02	1.832491	8	10	0.03	2000	-0.1966858	40.92394	-91.39364
27240	-217	1027	533	-3.145536	3.099068	-0.1837514	0	12.14	20034	19	46	5	5	0.02	1.938404	8	10	0.03	2000	0.6155689	40.92394	-91.39364
27312	95	698	-514	-3.117145	2.132143	-0.156947	0	12.14	20033	14	51	5	5	0.02	2.129084	8	10	0.03	2000	-0.9303589	40.92394	-91.39365
27427	1578	133	760	-3.146539	2.989897	0.4627297	0	11.91	20031	10	44	5	5	0.02	2.222366	8	10	0.03	2000	-2.303894	40.92394	-91.39365
27482	1641	2047	626	-1.142586	1.798821	0.8043739	0	11.91	20048	10	44	5	5	0.02	2.263656	8	10	0.03	2000	-2.303894	40.92394	-91.39365
27610	-1139	-1376	378	-1.923391	1.587539	0.6405061	0	11.91	20039	10	40	5	5	0.02	2.367083	8	10	0.03	2000	0.5330114	40.92394	-91.39365
27711	3325	4848	-19	0.9035591	-0.9605786	1.067358	0	11.91	20031	6	32	5	5	0.02	2.447139	8	10	0.03	2000	-1.980774	40.92394	-91.39365
27799	-1203	2188	288	1.440127	-4.929194	1.298527	0	11.91	20016	6	32	5	5	0.02	2.547662	8	10	0.03	2000	1.494431	40.92394	-91.39365
27916	-221	-1668	-342	-2.331006	-2.257034	0.7482085	0	11.91	20040	10	28	5	5	0.02	2.626494	8	10	0.03	2000	2.561189	40.92394	-91.39365
28076	1363	234	1014	-1.178718	-1.410084	0.08909065	0	11.91	20028	5	23	5	5	0.02	2.741385	8	10	0.03	2000	4.250911	40.92394	-91.39365
28122	-260	-880	-1318	-1.208109	-0.7710487	0.3790215	0	11.91	20037	5	19	5	5	0.02	2.76633	8	10	0.03	2000	5.985677	40.92394	-91.39365
28171	1210	1039	-194	-0.7303867	-0.4449134	0.6526471	0	11.91	20032	5	8	5	5	0.02	2.798729	8	10	0.03	2000	5.985677	40.92394	-91.39365
28284	-48	793	428	-0.2750233	-2.093109	0.7675688	0	11.46	20035	5	8	5	5	0.02	2.834643	8	10	0.03	2000	6.323873	40.92394	-91.39365
28381	-790	-798	-116	-1.795537	-1.116289	0.3460044	0	11.46	20016	5	-1	5	5	0.02	2.847517	8	10	0.03	2000	5.052804	40.92394	-91.39365
28488	926	2205	759	-1.543519	-2.278079	0.4336038	0	11.46	20011	5	-1	5	5	0.02	2.848365	8	10	0.03	2000	6.841184	40.92394	-91.39365
28604	284	3027	228	-2.238131	-5.641499	0.2775672	0	11.46	20032	5	-12	5	5	0.02	2.833019	8	10	0.03	2000	6.92428	40.92393	-91.39365
28679	2120	4422	-337	0.04523734	-13.16698	1.182369	0	11.46	20004	9	-8	5	5	0.02	2.820596	8	10	0.03	2000	6.610543	40.92393	-91.39365
28841	69	3036	93	0.4125359	-14.86537	1.365796	0	11.46	20028	9	-11	5	5	0.02	2.800185	8	10	0.03	2000	6.654325	40.92393	-91.39365
28896	-1278	-1415	-404	-0.5642993	-14.1552	1.179528	0	11.46	20010	9	-11	5	5	0.02	2.796606	8	10	0.03	2000	6.540823	40.92393	-91.39365
29014	-860	-1406	784	-0.9619474	-6.088609	1.646387	0	11.46	20060	14	-18	5	5	0.02	2.797666	8	10	0.03	2000	5.575661	40.92393	-91.39365
29144	326	-364	91	-0.6612531	-3.189988	0.3618736	0	11.46	20026	14	-34	5	5	0.02	2.80488	8	10	0.03	2000	6.215558	40.92393	-91.39365
29187	24	-106	1098	-0.5961424	-2.762408	0.1287216	0	12.02	20056	14	-26	5	5	0.02	2.812815	8	10	0.03	2000	7.174908	40.92393	-91.39365
29293	1916	2238	-410	-0.2947358	-3.307071	0.7745751	0	12.02	20009	19	-37	5	5	0.02	2.827659	8	10	0.03	2000	9.315264	40.92393	-91.39365
29500	-1551	-1979	1059	-1.723826	-2.756724	1.048823	0	12.02	20035	30	-40	5	5	0.02	2.842829	8	10	0.03	2000	6.646851	40.92393	-91.39364
29608	14	-311	-417	-1.903393	-4.466685	-0.05793822	0	12.02	20041	26	-28	5	5	0.02	2.847077	8	10	0.03	2000	6.433465	40.92393	-91.39364
29702	-1119	-2457	-923	-1.935293	-2.858678	-0.005933288	0	12.02	20008	31	-33	5	5	0.02	2.862074	8	10	0.03	2000	6.972133	40.92392	-91.39364
29830	997	1747	-464	-2.366271	-3.984281	1.494502	0	12.02	20072	31	-21	5	5	0.02	2.871764	8	10	0.03	2000	4.55492	40.92392	-91.39364
29900	-2040	-1888	-296	-2.716041	-4.400737	1.462657	0	12.02	20043	42	-31	5	5	0.02	2.893788	8	10	0.03	2000	3.863763	40.92392	-91.39364
30004	-842	-1837	1188	-4.292521	-1.648685	0.8678962	0	12.02	20055	38	-23	5	5	0.02	2.926576	8	10	0.03	2000	3.740997	40.92392	-91.39364
30093	819	2154	-456	-2.809526	-4.01938	0.9288305	0	11.91	20012	35	-26	5	5	0.02	2.960994	8	10	0.03	2000	3.723336	40.92392	-91.39363
30169	-1166	-675	-180	-3.051367	-4.307755	0.9246451	0	11.91	20011	46	-37	5	5	0.02	2.978612	8	10	0.03	2000	3.933787	40.92392	-91.39363
30309	1534	456	843	-4.408543	-1.596226	0.7301311	0	11.91	20031	42	-33	5	5	0.02	3.001562	8	10	0.03	2000	1.97601	40.92392	-91.39363
30389	-678	139	203	-2.562711	-3.072339	1.092117	0	11.91	20035	52	-38	5	5	0.02	3.025681	8	10	0.03	2000	1.684998	40.92392	-91.39363
30473	-1230	-888	-453	-4.148542	-2.269377	0.8157976	0	11.91	20033	44	-30	5	5	0.02	3.042507	8	10	0.03	2000	1.942811	40.92392	-91.39363
30623	1804	1232	603	-3.23956	-3.307185	-0.03573268	0	11.91	20030	50	-41	5	5	0.02	3.058298	8	10	0.03	2000	1.323812	40.92391	-91.39363
30679	302	798	-979	-2.783234	-4.068645	0.0940432	0	11.91	20008	46	-33	5	5	0.02	3.061718	8	10	0.03	2000	0.7445775	40.92391	-91.39363
30782	-1799	-1315	-438	-5.070705	-2.916665	0.3104984	0	11.91	20029	56	-48	5	5	0.02	3.065526	8	10	0.03	2000	2.232688	40.92391	-91.39362
30898	146	-226	-41	-5.734605	-0.8836634	0.4816031	0	11.91	20031	48	-41	5	5	0.02	3.065955	8	10	0.03	2000	1.582566	40.92391	-91.39362
30993	-250	835	434	-5.819581	-1.919114	0.06718461	0	11.91	20030	53	-51	5	5	0.02	3.055895	8	10	0.03	2000	-2.090759	40.92391	-91.39362
31084	1531	1265	-513	-3.981488	-3.891955	0.06730603	0	10.89	20009	45	-47	5	5	0.02	3.045982	8	10	0.03	2000	-2.544617	40.92391	-91.39362
31197	-699	824	-628	-3.380842	-4.979237	0.1053215	0	10.89	20034	51	-63	5	5	0.02	3.018935	8	10	0.03	2000	-2.808807	40.92391	-91.39362
31314	-1282	-355	596	-4.64002	-4.739415	0.7800605	0	10.89	20050	52	-66	5	5	0.02	2.986397	8	10	0.03	2000	-2.4823	40.9239	-91.39362
