time(ms)	gyro_x(deg/s)	gyro_y(deg/s)	gyro_z(deg/s)	orientation_roll(deg)	orientation_pitch(deg)	orientation_yaw(deg)	throttle	battery(V)	loop_time(uS)	pid_output_roll	pid_output_pitch	pid_output_yaw	pid_output_throttle	ultrasonic_alt	baro_alt	flight_mode	p_gain_altitude	i_gain_altitude	d_gain_altitude	compass_heading	latitude	longitude
31503	2703	2632	-947	-4.49971	-5.894877	0.9385462	0	10.89	20030	44	-69	5	5	0.02	2.893304	8	10	0.03	2000	-4.3284	40.9239	-91.39362
31598	-845	955	-161	-3.558748	-7.905029	1.664593	0	10.89	20032	40	-62	5	5	0.02	2.854005	8	10	0.03	2000	-5.571259	40.9239	-91.39362
31752	-590	1010	-48	-4.039087	-4.726607	2.756975	0	10.89	20044	40	-72	5	5	0.02	2.760839	8	10	0.03	2000	-7.122681	40.9239	-91.39362
31904	583	337	531	-2.37755	-5.994057	1.02957	0	10.89	20012	36	-65	5	5	0.02	2.682174	8	10	0.03	2000	-6.693756	40.9239	-91.39362
31999	-575	987	1022	-2.469009	-6.185905	0.4310429	0	11.74	20027	32	-57	5	5	0.02	2.645737	8	10	0.03	2000	-5.579559	40.9239	-91.39362
32106	-395	754	869	-2.665446	-3.428513	1.873457	0	11.74	20074	32	-81	5	5	0.02	2.599068	8	10	0.03	2000	-6.868958	40.9239	-91.39362
32203	605	-172	-1456	-3.201185	-4.631662	2.036298	0	11.74	20048	21	-56	5	5	0.02	2.589089	8	10	0.03	2000	-6.824402	40.9239	-91.39362
32343	585	-809	-349	-2.782048	-4.150775	1.142891	0	11.74	20012	21	-56	5	5	0.02	2.580179	8	10	0.03	2000	-6.859375	40.9239	-91.39362
32493	-117	356	-330	-1.5242	-4.715808	0.540985	0	11.74	20030	11	-49	5	5	0.02	2.568726	8	10	0.03	2000	-5.373138	40.9239	-91.39363
32551	-412	-1957	-613	-1.457963	-4.184901	0.6303111	0	11.74	20032	11	-49	5	5	0.02	2.567929	8	10	0.03	2000	-5.243073	40.9239	-91.39363
32665	1430	1256	-231	-1.148372	-4.106421	1.264383	0	11.74	20035	11	-49	5	5	0.02	2.57132	8	10	0.03	2000	-5.005859	40.9239	-91.39363
32778	-970	-476	-17	-1.100621	-5.156076	1.755601	0	11.74	24007	4	-41	5	5	0.02	2.576867	8	10	0.03	2000	-5.879211	40.9239	-91.39363
32880	-126	118	480	-2.539499	-4.689614	0.1163647	0	11.46	20007	8	-41	5	5	0.02	2.57953	8	10	0.03	2000	-3.145081	40.9239	-91.39363
32964	222	-1061	-101	-2.468553	-3.623354	-0.3165302	0	11.46	20034	3	-41	5	5	0.02	2.586748	8	10	0.03	2000	-3.554413	40.9239	-91.39363
33048	1327	689	-1907	-1.27537	-2.978267	0.1963558	0	11.46	20005	11	-37	5	5	0.02	2.596388	8	10	0.03	2000	-2.007202	40.9239	-91.39363
33104	-460	1126	128	-0.7803324	-4.278498	0.7249992	0	11.46	20079	11	-37	5	5	0.02	2.597981	8	10	0.03	2000	-3.560883	40.9239	-91.39363
33226	-329	-1710	-843	-2.868941	-3.881237	1.033044	0	11.46	20034	0	-32	5	5	0.02	2.608089	8	10	0.03	2000	-3.518433	40.9239	-91.39363
33313	523	-264	-44	-2.369865	-2.638402	1.014194	0	11.46	20037	-9	-21	5	5	0.02	2.613479	8	10	0.03	2000	-3.357941	40.9239	-91.39363
33420	1034	477	288	-1.429984	-3.762216	0.966306	0	11.46	20055	-1	-21	5	5	0.02	2.627837	8	10	0.03	2000	-2.030212	40.9239	-91.39364
33521	-448	-872	-899	-1.438598	-3.812502	0.7321889	0	11.46	20030	-12	-6	5	5	0.02	2.64294	8	10	0.03	2000	-2.333282	40.9239	-91.39364
33680	2017	418	597	-1.141775	-3.18271	0.739967	0	11.46	20031	-8	-5	5	5	0.02	2.664499	8	10	0.03	2000	-1.212341	40.9239	-91.39364
33758	1523	9	-519	-0.2511967	-3.55199	1.492695	0	11.46	20060	-24	4	5	5	0.02	2.68003	8	10	0.03	2000	-0.1919861	40.9239	-91.39364
33829	1116	1237	-662	0.7942789	-4.319313	1.811652	0	11.57	20011	-16	0	5	5	0.02	2.682755	8	10	0.03	2000	0.5569716	40.9239	-91.39364
33924	-221	-437	513	0.8880051	-5.250515	1.481661	0	11.57	20028	-26	11	5	5	0.02	2.692928	8	10	0.03	2000	0.6940302	40.92391	-91.39365
34042	-814	-2520	1125	-0.8360769	-1.312536	0.2145081	0	11.57	20030	-18	3	5	5	0.02	2.707223	8	10	0.03	2000	3.387226	40.92391	-91.39365
34130	753	415	-1138	-0.6080527	-2.373809	0.4757909	0	11.57	20043	-29	19	5	5	0.02	2.711493	8	10	0.03	2000	4.762909	40.92391	-91.39365
34239	1706	118	-525	1.108997	-3.014351	1.105811	0	11.57	20032	-21	7	5	5	0.02	2.713925	8	10	0.03	2000	5.378445	40.92391	-91.39365
34370	439	-598	-30	1.031444	-2.454425	2.032599	0	11.57	20035	-32	23	5	5	0.02	2.719023	8	10	0.03	2000	9.721314	40.92391	-91.39365
34513	606	584	920	-0.2287004	-1.852566	1.267117	0	11.57	20037	-30	25	5	5	0.02	2.718645	8	10	0.03	2000	11.37846	40.92391	-91.39365
34599	-594	-387	930	0.216572	-1.729199	0.3841563	0	11.57	20030	-22	17	5	5	0.02	2.720247	8	10	0.03	2000	13.92442	40.92391	-91.39365
34712	2175	105	-314	0.460205	-2.706198	0.6085478	0	11.74	20050	-22	28	5	5	0.02	2.72466	8	10	0.03	2000	16.67275	40.92392	-91.39365
34780	-796	-1073	-560	0.6857122	-1.936132	0.9368196	0	11.74	20040	-14	16	5	5	0.02	2.724757	8	10	0.03	2000	17.39785	40.92392	-91.39365
34891	1064	306	1172	0.9352627	-1.529898	0.9448225	0	11.74	20056	-6	15	5	5	0.02	2.721193	8	10	0.03	2000	21.18017	40.92392	-91.39365
34974	-74	-330	379	0.4736838	-0.8316581	0.8311754	0	11.74	20076	-8	17	5	5	0.02	2.719122	8	10	0.03	2000	23.05695	40.92392	-91.39365
35119	-1759	-1606	-105	-0.2183632	-1.60462	0.850484	0	11.74	20011	1	6	5	5	0.02	2.71384	8	10	0.03	2000	24.21464	40.92392	-91.39365
35145	-912	-1328	353	-1.255123	-1.60462	0.850484	0	11.74	20053	1	6	5	5	0.02	2.712074	8	10	0.03	2000	24.21464	40.92392	-91.39365
35246	1956	2004	89	-0.6424466	-1.759921	0.6825792	0	11.74	20033	6	6	5	5	0.02	2.703085	8	10	0.03	2000	28.49843	40.92392	-91.39365
35346	-1066	-975	764	-1.067004	-2.705381	1.267941	0	11.74	20055	6	-1	5	5	0.02	2.699318	8	10	0.03	2000	27.82265	40.92392	-91.39365
35510	466	465	719	-2.207739	-1.542375	0.110773	0	11.74	20021	17	-9	5	5	0.02	2.687203	8	10	0.03	2000	29.46205	40.92392	-91.39365
35594	1798	1744	-159	-0.608669	-3.039625	0.422534	0	11.74	20024	27	-14	5	5	0.02	2.675904	8	10	0.03	2000	29.68697	40.92392	-91.39365
35638	-183	798	607	-0.2621004	-4.247554	1.148253	0	11.29	20031	27	-14	5	5	0.02	2.670129	8	10	0.03	2000	27.18045	40.92392	-91.39365
35769	-923	-422	287	-1.357966	-3.204213	0.355446	0	11.29	20025	27	-14	5	5	0.02	2.660949	8	10	0.03	2000	28.70515	40.92392	-91.39365
35844	435	-444	-628	-1.744591	-1.697009	0.0836215	0	11.29	20032	23	-14	5	5	0.02	2.65884	8	10	0.03	2000	29.69165	40.92392	-91.39365
35964	-1770	189	-1505	-2.903008	-2.192971	0.6853053	0	11.29	20058	55	-35	5	5	0.02	2.64957	8	10	0.03	2000	31.94933	40.92391	-91.39364
36079	-279	368	452	-3.297025	-2.344055	0.9734337	0	11.29	20034	47	-35	5	5	0.02	2.639663	8	10	0.03	2000	26.55064	40.92391	-91.39364
36156	-949	572	842	-3.656129	-2.857513	0.5864851	0	11.29	20030	68	-46	5	5	0.02	2.628669	8	10	0.03	2000	23.13122	40.92391	-91.39363
36241	263	-613	-1232	-3.427902	-4.277205	0.4050028	0	11.29	20012	60	-42	5	5	0.02	2.612826	8	10	0.03	2000	19.12804	40.92391	-91.39363
36374	1477	2765	455	-0.9856217	-7.647782	1.751894	0	11.29	20031	82	-58	5	5	0.02	2.593969	8	10	0.03	2000	20.0921	40.92391	-91.39363
36441	-635	2550	44	-0.9914938	-8.319546	2.171271	0	11.29	20035	82	-58	5	5	0.02	2.5814	8	10	0.03	2000	17.07487	40.92391	-91.39363
36547	-2397	-780	11	-6.312365	-5.415461	0.65856	0	11.74	20031	84	-63	5	5	0.02	2.557826	8	10	0.03	2000	12.06887	40.9239	-91.39362
36660	913	2171	-92	-5.945442	-4.805181	0.4904042	0	11.74	20013	105	-84	5	5	0.02	2.519742	8	10	0.03	2000	8.268589	40.9239	-91.39362
36754	-971	1116	758	-5.862195	-6.108577	0.9004908	0	11.74	20033	105	-84	5	5	0.02	2.49512	8	10	0.03	2000	3.425729	40.9239	-91.39362
36844	-494	726	-940	-5.440215	-7.026972	1.569376	0	11.74	20030	111	-97	5	5	0.02	2.467786	8	10	0.03	2000	1.80204	40.9239	-91.39362
36951	-903	312	89	-6.146986	-6.619365	1.47697	0	11.74	20024	95	-85	5	5	0.02	2.440265	8	10	0.03	2000	-2.06958	40.9239	-91.39362
37133	-1716	2226	-391	-6.055397	-8.456349	0.3227068	0	11.74	20031	107	-96	5	5	0.02	2.412799	8	10	0.03	2000	-6.18988	40.92389	-91.39362
37167	-1205	2265	788	-7.138465	-10.44628	0.08829732	0	11.74	20013	106	-96	5	5	0.02	2.395394	8	10	0.03	2000	-6.983215	40.92389	-91.39362
37366	-428	2074	-1065	-6.328543	-17.83309	1.891134	0	11.74	20055	106	-101	5	5	0.02	2.345476	8	10	0.03	2000	-12.15082	40.92389	-91.39361
37516	-735	3730	1458	-7.893739	-19.64357	1.823412	0	10.89	20059	106	-106	5	5	0.02	2.291031	8	10	0.03	2000	-12.09946	40.92388	-91.39361
37624	806	3173	-39	-6.457142	-21.96459	1.676177	0	10.89	20057	117	-122	5	5	0.02	2.254017	8	10	0.03	2000	-12.94446	40.92388	-91.3936
37745	-1670	-1737	1054	-7.127694	-17.10001	1.281062	0	10.89	20029	93	-102	5	5	0.02	2.222836	8	10	0.03	2000	-12.49573	40.92388	-91.3936
37787	-1923	-2868	440	-8.108226	-12.50415	0.5574481	0	10.89	20052	103	-113	5	5	0.02	2.207424	8	10	0.03	2000	-12.74371	40.92388	-91.3936
37905	73	199	-765	-7.409493	-9.100945	-0.08285661	0	10.89	20056	97	-102	5	5	0.02	2.154695	8	10	0.03	2000	-11.8284	40.92388	-91.3936
37973	-629	680	-311	-7.603427	-8.13759	0.4656288	0	10.89	20032	97	-102	5	5	0.02	2.134876	8	10	0.03	2000	-11.79938	40.92388	-91.3936
38047	-1638	-328	-1216	-8.852393	-7.750948	1.020167	0	10.89	24009	85	-86	5	5	0.02	2.110181	8	10	0.03	2000	-12.01602	40.92388	-91.3936
38216	385	8	868	-7.11338	-8.209117	1.788731	0	10.89	20006	77	-74	5	5	0.02	2.063683	8	10	0.03	2000	-13.50565	40.92388	-91.3936
38265	27	-1118	-1175	-6.720788	-8.146979	1.698288	0	10.89	20009	77	-74	5	5	0.02	2.060716	8	10	0.03	2000	-13.61694	40.92388	-91.3936
38354	2614	-118	1082	0.2600824	-8.389707	1.504132	0	10.89	20030	71	-63	5	5	0.02	2.05559	8	10	0.03	2000	-13.00452	40.92388	-91.3936
38456	2002	-940	1518	1.871691	-7.937257	1.062038	0	11.91	20068	63	-55	5	5	0.02	2.067447	8	10	0.03	2000	-11.39771	40.92388	-91.3936
38563	2911	-1738	26	6.225367	-5.812295	1.020997	0	11.91	20055	58	-39	5	5	0.02	2.085107	8	10	0.03	2000	-11.02267	40.92388	-91.3936
38743	20	-5191	704	2.646291	9.591208	0.06389552	0	11.91	20055	43	-14	5	5	0.02	2.138782	8	10	0.03	2000	-8.658936	40.92389	-91.39361
38767	20	-5191	704	2.646291	9.591208	0.06389552	0	11.91	20055	43	-14	5	5	0.02	2.156482	8	10	0.03	2000	-8.658936	40.92389	-91.39361
38871	-1852	-3169	-771	-1.019264	14.98994	0.0911123	0	11.91	20034	27	11	5	5	0.02	2.180432	8	10	0.03	2000	-7.201294	40.92389	-91.39361
39060	-1468	1576	-126	-1.163706	4.774319	0.2667877	0	11.91	20013	10	46	5	5	0.02	2.237517	8	10	0.03	2000	-8.024017	40.92389	-91.39361
39094	-760	90	641	-2.128829	4.054757	0.3634974	0	11.91	20038	10	46	5	5	0.02	2.242347	8	10	0.03	2000	-7.1073	40.9239	-91.39362
39163	1104	372	-1276	-1.754163	3.646944	0.6896214	0	11.91	20033	14	34	5	5	0.02	2.248212	8	10	0.03	2000	-6.552368	40.9239	-91.39362
39298	104	-1895	-29	-1.133517	1.487544	0.802914	0	11.91	20032	-1	60	5	5	0.02	2.232598	8	10	0.03	2000	-5.0802	40.9239	-91.39362
39412	-437	-1060	-1176	-2.025648	2.892754	0.7777461	0	11.68	20034	-3	65	5	5	0.02	2.17593	8	10	0.03	2000	-6.222687	40.9239	-91.39362
39531	-472	478	214	-1.042979	0.9498222	1.143229	0	11.68	20031	8	45	5	5	0.02	2.118829	8	10	0.03	2000	-3.686523	40.92391	-91.39362
39557	981	1899	-172	-1.085674	0.147119	1.115872	0	11.68	20035	8	45	5	5	0.02	2.118829	8	10	0.03	2000	-3.85318	40.92391	-91.39362
39666	1102	-651	-822	-1.106639	-0.9509278	1.566399	0	11.68	20057	-2	61	5	5	0.02	2.057157	8	10	0.03	2000	-0.9824524	40.92391	-91.39362
39796	784	1326	1546	-1.070078	-1.194811	1.497999	0	11.68	20033	3	45	5	5	0.02	1.982959	8	10	0.03	2000	-1.818909	40.92391	-91.39362
39907	-301	901	486	-2.253523	-3.862604	0.3727503	0	11.68	20031	15	25	5	5	0.02	1.931651	8	10	0.03	2000	2.612825	40.92391	-91.39362
39960	295	2614	1088	-2.036953	-4.593595	0.2789579	0	11.68	20017	4	36	5	5	0.02	1.885032	8	10	0.03	2000	3.014879	40.92391	-91.39362
40061	1316	-2280	-461	-2.168405	-5.312435	1.061167	0	11.68	20033	12	20	5	5	0.02	1.851776	8	10	0.03	2000	3.872941	40.92392	-91.39362
40227	520	601	-532	-1.347205	-3.508014	1.054137	0	11.11	20008	9	13	5	5	0.02	1.780356	8	10	0.03	2000	4.494998	40.92392	-91.39362
40326	1140	148	896	-0.6434323	-3.50494	1.358052	0	11.11	20029	4	24	5	5	0.02	1.755798	8	10	0.03	2000	5.286031	40.92392	-91.39362
40408	-901	-1564	-575	-1.062301	-1.629209	0.9622302	0	11.11	20055	12	12	5	5	0.02	1.739636	8	10	0.03	2000	7.188862	40.92392	-91.39362
40578	-436	-1162	-279	-1.93252	-0.1089354	0.1422706	0	11.11	20037	1	17	5	5	0.02	1.745014	8	10	0.03	2000	8.066025	40.92392	-91.39362
40652	485	920	-838	-1.666617	-0.5139534	0.8121649	0	11.11	20032	9	9	5	5	0.02	1.749349	8	10	0.03	2000	7.89144	40.92392	-91.39362
40757	-952	-1067	-989	-2.714552	-0.9315653	1.058342	0	11.11	20076	5	11	5	5	0.02	1.754745	8	10	0.03	2000	10.12168	40.92392	-91.39362
40843	1212	-324	-1300	-2.052644	-1.450074	1.457177	0	11.11	20033	12	5	5	5	0.02	1.760688	8	10	0.03	2000	12.38959	40.92392	-91.39362
40946	495	175	-807	-2.33776	-1.565511	1.603691	0	11.11	20032	16	-2	5	5	0.02	1.772889	8	10	0.03	2000	14.2567	40.92392	-91.39362
41090	-2331	1273	1296	-0.2010321	-9.741642	1.454324	0	11.11	20030	16	-7	5	5	0.02	1.804012	8	10	0.03	2000	14.13162	40.92392	-91.39362
41158	-2990	-254	2183	-1.69592	-9.554625	0.9130999	0	11.17	20030	24	-11	5	5	0.02	1.822303	8	10	0.03	2000	15.18505	40.92392	-91.39362
41261	531	415	44	-3.355683	-7.455635	0.1644545	0	11.17	20030	24	-22	5	5	0.02	1.861659	8	10	0.03	2000	12.98517	40.92392	-91.39362
41342	-729	1176	-395	-2.457264	-7.793653	0.1960586	0	11.17	20034	28	-22	5	5	0.02	1.89605	8	10	0.03	2000	12.79363	40.92392	-91.39362
41524	-654	-812	692	-2.215665	-6.510859	0.4353996	0	11.17	20030	28	-33	5	5	0.02	1.955692	8	10	0.03	2000	9.682583	40.92391	-91.39362
41547	-654	-812	692	-2.215665	-6.510859	0.4353996	0	11.17	20030	28	-33	5	5	0.02	1.963894	8	10	0.03	2000	9.682583	40.92391	-91.39362
41678	-769	502	-446	-3.093413	-9.670598	0.602604	0	11.17	20055	39	-38	5	5	0.02	2.001855	8	10	0.03	2000	6.760729	40.92391	-91.39362
41752	-2441	-86	148	-3.956825	-9.516544	0.357485	0	11.17	20031	39	-34	5	5	0.02	2.035971	8	10	0.03	2000	6.760729	40.92391	-91.39362
41942	1148	-316	-39	-4.579738	-8.763753	0.7398526	0	11.17	20032	44	-36	5	5	0.02	2.09648	8	10	0.03	2000	3.119532	40.92391	-91.39362
41988	-1082	-1818	85	-4.408773	-6.800356	0.5955577	0	11.17	20055	55	-47	5	5	0.02	2.126106	8	10	0.03	2000	2.684027	40.92391	-91.39362
42115	1376	1928	-198	-5.023365	-5.932285	0.4253972	0	11.29	20038	55	-39	5	5	0.02	2.157614	8	10	0.03	2000	1.757065	40.92391	-91.39362
42163	1941	1784	-363	-4.192571	-7.188054	0.6776113	0	11.29	20037	55	-39	5	5	0.02	2.189108	8	10	0.03	2000	1.757065	40.92391	-91.39362
42263	-784	-455	-496	-2.556475	-8.179682	1.509035	0	11.29	20059	47	-35	5	5	0.02	2.206781	8	10	0.03	2000	1.31073	40.92391	-91.39362
42431	742	1007	388	-5.342668	-4.978238	0.6134732	0	11.29	20035	59	-43	5	5	0.02	2.248562	8	10	0.03	2000	-0.8845215	40.92391	-91.39362
42574	-401	-402	204	-4.653411	-6.187156	0.4031637	0	11.29	20055	69	-54	5	5	0.02	2.260211	8	10	0.03	2000	0.3150206	40.9239	-91.39362
42658	453	-9	51	-4.960745	-5.098678	0.845595	0	11.29	20056	61	-46	5	5	0.02	2.266598	8	10	0.03	2000	-2.170441	40.9239	-91.39362
42760	-936	412	74	-4.547018	-5.46576	0.961271	0	11.29	20032	67	-51	5	5	0.02	2.268759	8	10	0.03	2000	-1.979858	40.9239	-91.39362
42894	1017	1753	-1142	-4.645227	-6.470286	0.1132571	0	11.29	20042	77	-61	5	5	0.02	2.271583	8	10	0.03	2000	-3.870392	40.9239	-91.39362
43007	-335	1054	-1074	-3.644865	-8.204383	1.391062	0	11.68	20056	65	-49	5	5	0.02	2.26877	8	10	0.03	2000	-7.074371	40.9239	-91.39362
43062	319	719	1267	-3.718165	-8.666573	1.481543	0	11.68	20027	70	-60	5	5	0.02	2.251745	8	10	0.03	2000	-6.784668	40.9239	-91.39362
43187	-1137	-1369	1365	-5.257533	-7.119898	0.4316116	0	11.68	20007	62	-52	5	5	0.02	2.236497	8	10	0.03	2000	-6.007446	40.9239	-91.39362
43279	-992	-1259	-323	-6.39623	-4.006986	0.6193736	0	11.68	20053	68	-57	5	5	0.02	2.224419	8	10	0.03	2000	-5.04657	40.9239	-91.39362
43391	1065	1149	-73	-6.693531	-4.807125	0.5382074	0	11.68	20034	64	-53	5	5	0.02	2.190373	8	10	0.03	2000	-7.071136	40.9239	-91.39362
43445	367	268	-45	-6.187801	-4.808935	0.5057607	0	11.68	20033	64	-59	5	5	0.02	2.18533	8	10	0.03	2000	-7.071136	40.9239	-91.39362
43588	-127	538	-1607	-6.374254	-3.538528	0.2680035	0	11.68	20032	56	-51	5	5	0.02	2.153336	8	10	0.03	2000	-7.513763	40.9239	-91.39362
43650	218	313	-1541	-6.523041	-4.047081	0.2795433	0	11.68	20020	61	-56	5	5	0.02	2.133657	8	10	0.03	2000	-7.513763	40.9239	-91.39362
43757	-2049	-237	-384	-4.948691	-5.61746	1.049663	0	11.68	20053	57	-48	5	5	0.02	2.096997	8	10	0.03	2000	-6.405914	40.9239	-91.39362
43845	13	-409	-1215	-6.022209	-4.526761	0.8661832	0	11.68	20032	53	-55	5	5	0.02	2.074152	8	10	0.03	2000	-6.405914	40.92389	-91.39362
43968	-194	370	304	-4.042896	-5.585856	0.2274487	0	10.77	20035	48	-55	5	5	0.02	2.032849	8	10	0.03	2000	-8.314484	40.92389	-91.39362
44072	-1462	-796	-986	-4.028947	-5.893146	0.4172353	0	10.77	20036	48	-51	5	5	0.02	2.017703	8	10	0.03	2000	-9.252686	40.92389	-91.39362
44220	786	338	893	-3.80701	-6.355827	0.5689434	0	10.77	20051	48	-56	5	5	0.02	1.987917	8	10	0.03	2000	-11.814	40.92389	-91.39362
44275	142	-381	-562	-3.643821	-6.831642	0.9439636	0	10.77	20031	44	-52	5	5	0.02	1.975005	8	10	0.03	2000	-12.3259	40.92389	-91.39362
44378	-217	1026	179	-2.323734	-7.434999	2.0036	0	10.77	20054	38	-57	5	5	0.02	1.967105	8	10	0.03	2000	-12.28433	40.92389	-91.39362
44485	-832	-716	381	-3.686314	-7.795762	1.021707	0	10.77	20009	33	-49	5	5	0.02	1.966164	8	10	0.03	2000	-10.94659	40.92389	-91.39362
44525	-861	-1123	-362	-4.013995	-7.659731	0.5324675	0	10.77	20037	33	-49	5	5	0.02	1.967895	8	10	0.03	2000	-10.94659	40.92389	-91.39362
44685	-136	188	-264	-4.374496	-4.576315	1.341491	0	10.77	20051	26	-49	5	5	0.02	1.969184	8	10	0.03	2000	-9.667023	40.92389	-91.39362
44787	1278	604	1087	-4.320925	-5.024631	1.47965	0	10.83	20034	26	-45	5	5	0.02	1.970014	8	10	0.03	2000	-10.3223	40.92389	-91.39362
44834	1602	935	887	-3.488039	-5.511975	1.578369	0	10.83	20030	26	-45	5	5	0.02	1.968683	8	10	0.03	2000	-10.56454	40.92389	-91.39362
44904	-496	83	1011	-3.57161	-5.013838	1.274611	0	10.83	20033	15	-46	5	5	0.02	1.960848	8	10	0.03	2000	-8.227325	40.92389	-91.39362
45032	1580	69	124	-3.424441	-3.105149	0.2088059	0	10.83	20008	4	-46	5	5	0.02	1.956748	8	10	0.03	2000	-9.233765	40.92389	-91.39362
45090	2052	1711	616	-2.77978	-3.226065	0.1497673	0	10.83	20033	4	-46	5	5	0.02	1.95266	8	10	0.03	2000	-8.536407	40.92389	-91.39362
45226	433	-75	-118	-1.857191	-5.020435	0.8483314	0	10.83	20029	-2	-46	5	5	0.02	1.9519	8	10	0.03	2000	-7.368713	40.92389	-91.39362
45340	-160	-521	688	-2.826247	-3.818396	0.8320637	0	10.83	20045	5	-46	5	5	0.02	1.960291	8	10	0.03	2000	-7.959961	40.92389	-91.39362
45411	962	2179	50	-2.03859	-5.606617	0.9414918	0	10.83	20025	1	-43	5	5	0.02	1.963917	8	10	0.03	2000	-8.066071	40.92389	-91.39362
45469	-716	-1300	556	-2.264308	-5.254766	0.9918445	0	10.83	20060	1	-42	5	5	0.02	1.964608	8	10	0.03	2000	-6.441193	40.92389	-91.39362
45578	-541	-1245	-1391	-3.15894	-3.984723	1.208531	0	10.83	20032	-14	-42	5	5	0.02	1.960281	8	10	0.03	2000	-5.485291	40.92389	-91.39363
45680	-267	-90	171	-2.487431	-2.857287	1.458851	0	10.83	20009	-6	-42	5	5	0.02	1.951583	8	10	0.03	2000	-5.755402	40.92389	-91.39363
45795	738	841	301	-2.165555	-2.449575	1.341119	0	10.83	20031	-8	-48	5	5	0.02	1.938431	8	10	0.03	2000	-3.880157	40.92389	-91.39363
45897	973	1195	-154	-0.2349534	-4.238343	1.269809	0	10.83	20021	-19	-48	5	5	0.02	1.908681	8	10	0.03	2000	-2.979767	40.92389	-91.39363
45992	-322	-1526	285	-0.2164726	-3.329451	1.072553	0	10.83	20035	-19	-48	5	5	0.02	1.888932	8	10	0.03	2000	-1.82782	40.92389	-91.39363
46124	-237	1069	100	-0.2463486	-4.576507	1.245143	0	10.83	20041	-17	-48	5	5	0.02	1.855649	8	10	0.03	2000	0.68691	40.92389	-91.39364
46201	302	-641	-836	-0.5348616	-5.208203	1.259767	0	10.83	20058	-5	-48	5	5	0.02	1.827607	8	10	0.03	2000	2.077709	40.92389	-91.39364
46284	-181	-987	715	-0.7176985	-3.69619	0.9775283	0	10.83	20057	-16	-48	5	5	0.02	1.808551	8	10	0.03	2000	1.349114	40.92389	-91.39364
46423	1892	1984	162	0.6620435	-5.126836	0.8657753	0	10.83	20010	-8	-44	5	5	0.02	1.77927	8	10	0.03	2000	5.265318	40.92389	-91.39364
46568	-1336	-2121	-242	-0.342731	-5.266211	0.597582	0	11.29	20046	-11	-49	5	5	0.02	1.754575	8	10	0.03	2000	6.454893	40.92389	-91.39364
46626	2711	1344	243	-0.6637238	-4.619892	0.4839954	0	11.29	20056	-11	-44	5	5	0.02	1.739798	8	10	0.03	2000	8.068256	40.92389	-91.39364
46667	-952	-85	-1533	0.1516027	-5.219391	0.7148224	0	11.29	20038	-11	-44	5	5	0.02	1.727211	8	10	0.03	2000	8.068256	40.92389	-91.39364
46768	-1520	-920	108	-1.02805	-4.35572	0.7452976	0	11.29	20032	-3	-44	5	5	0.02	1.696475	8	10	0.03	2000	8.367287	40.92389	-91.39364
46908	-109	472	38	-0.6628051	-4.192092	-0.5104287	0	11.29	20054	4	-44	5	5	0.02	1.635028	8	10	0.03	2000	9.585828	40.92389	-91.39364
47008	-827	-975	-1492	-1.44226	-4.566067	-0.2352178	0	11.29	20066	10	-49	5	5	0.02	1.596436	8	10	0.03	2000	9.270711	40.92389	-91.39364
47063	1375	720	-1511	-0.9463146	-4.646355	1.067621	0	11.29	20035	18	-45	5	5	0.02	1.586119	8	10	0.03	2000	9.895777	40.92389	-91.39364
47165	-1055	-632	322	-0.6476239	-5.002579	1.319628	0	11.29	20057	28	-40	5	5	0.02	1.526789	8	10	0.03	2000	9.895777	40.92389	-91.39364
47296	1552	1543	804	-2.644429	-2.736356	1.037043	0	11.29	20033	28	-44	5	5	0.02	1.48448	8	10	0.03	2000	9.310462	40.92389	-91.39364
47392	363	643	-1042	-0.5753698	-5.314769	0.6039328	0	11.29	20026	47	-52	5	5	0.02	1.449471	8	10	0.03	2000	10.42033	40.92389	-91.39363
47458	-893	1025	-377	-0.9181895	-5.139935	0.627183	0	11.51	20041	39	-44	5	5	0.02	1.422817	8	10	0.03	2000	9.920647	40.92389	-91.39363
47558	-1646	-1800	-317	-4.1911	-4.37743	1.02366	0	11.51	20011	55	-38	5	5	0.02	1.407293	8	10	0.03	2000	10.43765	40.92389	-91.39363
47704	-526	-1272	753	-5.316663	-3.555487	0.7181345	0	11.51	20078	62	-35	5	5	0.02	1.387071	8	10	0.03	2000	7.285891	40.92389	-91.39363
47825	137	-393	435	-3.862109	-3.624609	0.1837333	0	11.51	20007	54	-38	5	5	0.02	1.373996	8	10	0.03	2000	8.469843	40.92389	-91.39363
47937	49	758	-224	-2.38911	-4.184577	0.7163666	0	11.51	20014	75	-33	5	5	0.02	1.365166	8	10	0.03	2000	7.733192	40.92389	-91.39362
48054	-1204	-861	-982	-3.877668	-4.648537	0.8890847	0	11.51	20068	67	-33	5	5	0.02	1.360892	8	10	0.03	2000	7.537109	40.92389	-91.39362
48088	778	1063	848	-3.6638	-4.720625	0.883406	0	11.51	24003	83	-23	5	5	0.02	1.365926	8	10	0.03	2000	7.379099	40.92389	-91.39362
48194	-852	-1283	-89	-4.200592	-4.834811	1.034185	0	11.51	20032	71	-27	5	5	0.02	1.387511	8	10	0.03	2000	6.031359	40.92389	-91.39362
48281	-1136	-409	487	-4.486478	-4.450919	0.5028001	0	11.51	20042	97	-21	5	5	0.02	1.402072	8	10	0.03	2000	5.802513	40.9239	-91.39362
48395	-780	161	371	-5.404874	-4.377298	0.273412	0	11.23	20033	89	-21	5	5	0.02	1.415441	8	10	0.03	2000	4.337569	40.9239	-91.39362
48503	479	502	-276	-5.538319	-3.909345	0.9445573	0	11.23	20033	110	-11	5	5	0.02	1.440445	8	10	0.03	2000	2.99563	40.9239	-91.39362
48613	-700	-251	-592	-5.77969	-4.782862	1.23322	0	11.23	20033	94	-15	5	5	0.02	1.472245	8	10	0.03	2000	3.259698	40.9239	-91.39362
48752	-365	35	508	-5.958732	-3.933133	0.7459327	0	11.23	20034	104	-17	5	5	0.02	1.498605	8	10	0.03	2000	1.121655	40.9239	-91.39362
48801	-1469	-572	-226	-6.351779	-4.167522	0.666405	0	11.23	20009	130	-7	5	5	0.02	1.507938	8	10	0.03	2000	0.8308982	40.9239	-91.39362
48891	-936	45	-102	-7.251151	-4.046443	0.7825286	0	11.23	20038	130	-7	5	5	0.02	1.520138	8	10	0.03	2000	0.04384416	40.9239	-91.39361
48950	77	1372	-290	-7.11143	-4.359351	0.7177525	0	11.23	20067	110	-11	5	5	0.02	1.528278	8	10	0.03	2000	-1.229248	40.9239	-91.39361
49127	-151	-1101	-101	-8.840885	-2.881376	0.5569365	0	11.23	20025	115	-8	5	5	0.02	1.541773	8	10	0.03	2000	-4.335052	40.9239	-91.3936
49203	-585	497	416	-9.168767	-2.200277	0.7681481	0	11.23	20034	137	-3	5	5	0.02	1.548869	8	10	0.03	2000	-7.488922	40.9239	-91.3936
49286	-1924	-1372	-843	-10.1731	-3.1961	0.4726709	0	11.06	20025	121	-7	5	5	0.02	1.546198	8	10	0.03	2000	-9.286621	40.9239	-91.3936
49365	-57	-827	381	-9.735775	-2.680835	0.3423925	0	11.06	20032	137	-2	5	5	0.02	1.535982	8	10	0.03	2000	-13.8371	40.9239	-91.39359
49503	-1019	-616	311	-9.906857	-2.896748	0.2950549	0	11.06	20033	116	-10	5	5	0.02	1.512801	8	10	0.03	2000	-15.94714	40.92391	-91.39359
49555	-212	22	1613	-9.995158	-2.589376	0.2787232	0	11.06	20029	127	-4	5	5	0.02	1.508819	8	10	0.03	2000	-15.94714	40.92391	-91.39359
49638	-12	1417	408	-9.401115	-2.743962	0.6308191	0	11.06	20021	152	-5	5	5	0.02	1.481492	8	10	0.03	2000	-19.27393	40.92391	-91.39359
49737	107	568	-1325	-8.454163	-4.465573	0.8100701	0	11.06	20029	122	-7	5	5	0.02	1.45582	8	10	0.03	2000	-20.96881	40.92391	-91.39359
49877	-719	-494	-359	-8.252028	-3.382181	2.104597	0	11.06	20028	106	-11	5	5	0.02	1.42765	8	10	0.03	2000	-22.91977	40.92391	-91.39359
49940	-1356	-1128	383	-8.794904	-3.081483	0.9747995	0	11.06	20027	106	-11	5	5	0.02	1.4185	8	10	0.03	2000	-22.79199	40.92391	-91.39359
50070	-517	45	-885	-9.73123	-2.412747	-0.2527518	0	11.06	20053	83	-15	5	5	0.02	1.381866	8	10	0.03	2000	-22.64499	40.92391	-91.39359
50146	1095	983	679	-8.02398	-3.506117	-0.1147476	0	11.06	20031	83	-15	5	5	0.02	1.3672	8	10	0.03	2000	-24.75229	40.92391	-91.39359
50340	-1119	-534	877	-8.037289	-3.768825	1.354618	0	11.51	20036	62	-23	5	5	0.02	1.357726	8	10	0.03	2000	-28.49612	40.92391	-91.39359
50423	1449	1451	456	-6.957993	-1.4716	0.9042907	0	11.51	20028	62	-23	5	5	0.02	1.357558	8	10	0.03	2000	-28.75632	40.92391	-91.3936
50493	2960	1343	-889	-5.581183	-3.33551	0.9679164	0	11.51	20039	40	-23	5	5	0.02	1.358021	8	10	0.03	2000	-27.02548	40.92391	-91.3936
50560	3688	1075	-1050	-4.059313	-3.878328	1.103711	0	11.51	20006	40	-23	5	5	0.02	1.360952	8	10	0.03	2000	-27.52887	40.92391	-91.3936
50630	2395	965	-243	-0.6076859	-6.424735	2.059884	0	11.51	20015	19	-28	5	5	0.02	1.364002	8	10	0.03	2000	-27.52887	40.92391	-91.3936
50716	517	-569	518	4.730147	-8.888283	2.264124	0	11.51	20047	27	-28	5	5	0.02	1.368834	8	10	0.03	2000	-24.3313	40.92391	-91.3936
50879	1235	-88	1194	4.26726	-4.733479	-0.03966941	0	11.51	20056	5	-34	5	5	0.02	1.40782	8	10	0.03	2000	-19.03378	40.9239	-91.39361
51000	-474	1258	59	5.221711	-7.025231	0.02003652	0	11.51	20034	-21	-39	5	5	0.02	1.435249	8	10	0.03	2000	-12.5925	40.9239	-91.39362
51076	-287	1166	-355	1.129689	-6.496897	0.7821091	0	11.46	24022	-5	-39	5	5	0.02	1.44658	8	10	0.03	2000	-6.473969	40.9239	-91.39362
51112	-646	1799	-1385	0.2711339	-7.119812	1.107553	0	11.46	20054	-5	-39	5	5	0.02	1.449961	8	10	0.03	2000	-6.473969	40.9239	-91.39362
51188	145	1598	315	-1.076884	-8.737229	1.495176	0	11.46	20035	-37	-44	5	5	0.02	1.461383	8	10	0.03	2000	-5.988708	40.9239	-91.39362
51344	760	501	231	-0.5616873	-9.703815	0.9653535	0	11.46	20054	-42	-45	5	5	0.02	1.46277	8	10	0.03	2000	-4.37207	40.9239	-91.39362
51397	1464	-1007	57	-0.1411965	-6.814631	0.3234453	0	11.46	20067	-22	-41	5	5	0.02	1.463063	8	10	0.03	2000	-2.755493	40.9239	-91.39362
51519	1673	2063	378	2.274987	-6.998015	0.912643	0	11.46	20034	-43	-47	5	5	0.02	1.467179	8	10	0.03	2000	-0.04910278	40.9239	-91.39362
51597	-1686	237	-631	0.5694284	-8.468409	0.8466136	0	11.46	20036	-23	-43	5	5	0.02	1.469009	8	10	0.03	2000	1.267467	40.9239	-91.39362
51758	948	1129	-502	1.588944	-8.628878	1.279923	0	11.46	20027	-20	-44	5	5	0.02	1.458165	8	10	0.03	2000	2.106312	40.9239	-91.39363
51816	-891	-135	-707	-0.8301769	-7.582013	1.30332	0	11.46	20034	-20	-44	5	5	0.02	1.45215	8	10	0.03	2000	3.615128	40.9239	-91.39363
51952	-459	1848	-696	-1.208718	-9.518183	1.195295	0	11.46	20007	-36	-44	5	5	0.02	1.422718	8	10	0.03	2000	3.19187	40.9239	-91.39363
52007	-1888	528	976	-2.7049	-10.33505	0.6955519	0	11.51	20056	-20	-40	5	5	0.02	1.418045	8	10	0.03	2000	4.796318	40.9239	-91.39363
52125	-3079	-1558	-1267	-7.031613	-8.286606	0.2370804	0	11.51	20053	-31	-35	5	5	0.02	1.388851	8	10	0.03	2000	3.784932	40.9239	-91.39363
52224	-1861	44	370	-9.31853	-7.265255	0.5998452	0	11.51	20034	-25	-31	5	5	0.02	1.35899	8	10	0.03	2000	2.636199	40.9239	-91.39364
52298	-2335	-387	-1891	-10.9844	-7.302255	1.021083	0	11.51	20016	-25	-31	5	5	0.02	1.33887	8	10	0.03	2000	2.54096	40.9239	-91.39364
52418	-1986	1241	-1105	-12.99941	-8.390697	1.626903	0	11.51	20009	0	0	5	5	0.02	1.31677	3	10	0.03	2000	-1.251709	40.9239	-91.39364
52522	-2880	-2216	490	-16.57814	-5.867177	1.962066	0	11.51	20009	0	0	5	5	0.02	1.297884	3	10	0.03	2000	-2.677399	40.9239	-91.39364
52622	1434	-211	66	-17.3291	-3.758651	0.3829064	0	11.51	20009	0	0	5	5	0.02	1.289204	3	10	0.03	2000	-2.795074	40.9239	-91.39364
52733	2738	-1074	374	-10.04109	-4.212508	-0.4282142	0	11.51	20009	0	0	5	5	0.02	1.279268	3	10	0.03	2000	-3.049683	40.92391	-91.39364
52764	5761	-2401	511	-5.577352	-1.978182	-0.1648492	0	11.51	20009	0	0	5	5	0.02	1.278664	3	10	0.03	2000	-4.856232	40.92391	-91.39364
52885	2455	-1085	634	1.798099	-0.2289262	0.15733	0	11.63	20009	0	0	5	5	0.02	1.269788	3	10	0.03	2000	-2.638092	40.92391	-91.39364
53003	-1408	-5009	722	2.822787	6.650158	0.9159227	0	11.63	20009	0	0	5	5	0.02	1.24924	3	10	0.03	2000	-0.3987427	40.92391	-91.39364
53117	-683	-3353	260	0.8108032	11.40988	0.8845048	0	11.63	20009	0	0	5	5	0.02	1.227206	3	10	0.03	2000	0.4907747	40.92391	-91.39365
53177	-828	-3054	861	0.4577782	12.08915	0.7175452	0	11.63	20009	0	0	5	5	0.02	1.209006	3	10	0.03	2000	1.991037	40.92391	-91.39365
53301	-1162	-992	-1265	-0.3095106	8.965309	0.2329733	0	11.63	20009	0	0	5	5	0.02	1.148326	3	10	0.03	2000	6.292742	40.92391	-91.39365
53357	-289	-1017	1024	-0.7295086	8.991347	0.1630418	0	11.63	20009	0	0	5	5	0.02	1.108162	3	10	0.03	2000	6.282089	40.92391	-91.39365
53475	-888	896	-580	0.3922628	4.341388	0.7807883	0	11.63	20009	0	0	5	5	0.02	1.053636	3	10	0.03	2000	9.137121	40.92392	-91.39365
53563	-688	1226	2103	-0.590609	2.891659	0.810276	0	11.63	20009	0	0	5	5	0.02	0.9895136	3	10	0.03	2000	10.31328	40.92392	-91.39365
53715	1400	3805	1908	0.3603232	-3.82911	-0.5579098	0	11.63	20009	0	0	5	5	0.02	0.8799362	3	10	0.03	2000	10.95953	40.92392	-91.39365
53818	-1008	-1730	432	0.6913996	-4.517717	-2.442106	0	11.23	20009	0	0	5	5	0.02	0.8361955	3	10	0.03	2000	11.02757	40.92392	-91.39365
53850	206	-663	663	-0.1239308	-3.409219	-2.724167	0	11.23	20009	0	0	5	5	0.02	0.8183064	3	10	0.03	2000	11.7491	40.92392	-91.39365
53963	992	508	-1396	-1.713416	-1.670313	0.2387585	0	11.23	20009	0	0	5	5	0.02	0.7585737	3	10	0.03	2000	12.40758	40.92392	-91.39365
54110	1218	3136	-78	-6.37862	-10.16046	-2.009881	0	11.23	20009	0	0	5	5	0.02	0.6942638	3	10	0.03	2000	10.63385	40.92392	-91.39365
54231	616	1164	-40	-5.636503	-6.401502	-2.697961	0	11.23	20009	0	0	5	5	0.02	0.5602232	3	10	0.03	2000	9.003925	40.92392	-91.39365
54265	241	407	-24	-4.998904	-6.701926	-2.710005	0	11.23	20009	0	0	5	5	0.02	0.5220642	3	10	0.03	2000	9.003925	40.92392	-91.39365
54392	-152	-85	-83	-4.525678	-5.658852	-2.740031	0	11.23	20009	0	0	5	5	0.02	0.4623798	3	10	0.03	2000	8.073292	40.92392	-91.39365
54443	-170	30	39	-4.116003	-4.748448	-2.776904	0	11.23	20009	0	0	5	5	0.02	0.4018443	3	10	0.03	2000	6.926342	40.92392	-91.39365
54611	-170	-20	-41	-3.613581	-3.743584	-2.805336	0	11.23	20009	0	0	5	5	0.02	0.253679	3	10	0.03	2000	5.018047	40.92392	-91.39365
54680	-128	-7	59	-3.278668	-3.112716	-2.841956	0	11.85	20009	0	0	5	5	0.02	0.2210134	1	10	0.03	2000	5.057765	40.92392	-91.39365
54797	-107	-13	51	-3.014714	-2.579096	-2.881877	0	11.85	20009	0	0	5	5	0.02	0.1354014	1	10	0.03	2000	4.824194	40.92392	-91.39365
54898	-94	2	22	-2.766237	-2.076343	-2.914399	0	11.85	20009	0	0	5	5	0.02	0.1017513	1	10	0.03	2000	4.266381	40.92392	-91.39365
55025	-107	21	-4	-2.494036	-1.51962	-2.952863	0	11.85	20009	0	0	5	5	0.02	0.03754243	1	10	0.03	2000	2.354263	40.92392	-91.39365
55093	-136	-27	40	-2.382969	-1.268064	-2.974323	0	11.85	20009	0	0	5	5	0.02	0.01879527	1	10	0.03	2000	3.366853	40.92392	-91.39365
55156	-127	-2	9	-2.268219	-1.057226	-2.995051	0	11.85	20009	0	0	5	5	0.02	0.01412224	1	10	0.03	2000	2.549938	40.92392	-91.39365
55242	-119	23	-3	-2.110952	-0.7565733	-3.024029	0	11.85	20009	0	0	5	5	0.02	-0.01010567	1	10	0.03	2000	1.726233	40.92392	-91.39365
55403	-106	-2	7	-1.948383	-0.4324713	-3.069882	0	11.85	20009	0	0	5	5	0.02	-0.03434733	1	10	0.03	2000	1.431231	40.92392	-91.39365
55434	-112	25	22	-1.834088	-0.2073308	-3.101247	0	11.85	20009	0	0	5	5	0.02	-0.04474518	1	10	0.03	2000	2.078186	40.92392	-91.39365
55526	-124	19	19	-1.769113	-0.08341496	-3.123744	0	11.85	20009	0	0	5	5	0.02	-0.05436426	1	10	0.03	2000	2.078186	40.92392	-91.39365
55654	-133	-9	-6	-1.650693	0.1498475	-3.167458	0	11.91	20009	0	0	5	5	0.02	-0.06402799	1	10	0.03	2000	1.602932	40.92392	-91.39365
55742	-121	4	-10	-1.567429	0.290916	-3.194603	0	11.91	20009	0	0	5	5	0.02	-0.06838544	1	10	0.03	2000	1.214499	40.92392	-91.39365
55808	-123	5	32	-1.498343	0.4105774	-3.225967	0	11.91	20009	0	0	5	5	0.02	-0.06955896	1	10	0.03	2000	1.564158	40.92392	-91.39365
55960	-121	0	15	-1.443713	0.5149581	-3.255559	0	11.91	20009	0	0	5	5	0.02	-0.07846471	1	10	0.03	2000	1.410302	40.92392	-91.39365
56044	-116	6	14	-1.390681	0.6143526	-3.284294	0	11.91	20009	0	0	5	5	0.02	-0.08640807	1	10	0.03	2000	1.79979	40.92392	-91.39365
56162	-122	2	14	-1.329831	0.7209689	-3.321529	0	11.91	20009	0	0	5	5	0.02	-0.1018917	1	10	0.03	2000	1.460805	40.92392	-91.39365
56227	-136	-2	16	-1.315503	0.7467057	-3.330274	0	11.91	20009	0	0	5	5	0.02	-0.1030318	1	10	0.03	2000	1.460805	40.92392	-91.39365
56390	-115	8	23	-1.252425	0.8635259	-3.390928	0	11.91	20009	0	0	5	5	0.02	-0.1071485	1	10	0.03	2000	1.108141	40.92392	-91.39365
56464	-122	1	18	-1.229334	0.9000526	-3.411531	0	11.97	20009	0	0	5	5	0.02	-0.1066856	1	10	0.03	2000	1.295713	40.92392	-91.39365
56574	-126	9	16	-1.212535	0.9474581	-3.441674	0	11.97	20009	0	0	5	5	0.02	-0.1103937	1	10	0.03	2000	1.008875	40.92392	-91.39365
56659	-118	-4	21	-1.182514	1.001835	-3.472307	0	11.97	20009	0	0	5	5	0.02	-0.115517	1	10	0.03	2000	1.211293	40.92392	-91.39365
56696	-115	0	16	-1.174334	1.017366	-3.483373	0	11.97	20009	0	0	5	5	0.02	-0.115958	1	10	0.03	2000	1.186238	40.92392	-91.39365
56822	-114	2	23	-1.141191	1.072803	-3.522927	0	11.97	20009	0	0	5	5	0.02	-0.117001	1	10	0.03	2000	1.15281	40.92392	-91.39365
56896	-112	-3	18	-1.11622	1.111772	-3.549707	0	11.97	20009	0	0	5	5	0.02	-0.1190842	1	10	0.03	2000	0.8748099	40.92392	-91.39365
57072	-123	-98	46	-0.9143246	0.9474745	-3.608639	0	11.97	20009	0	0	5	5	0.02	-0.1043801	1	10	0.03	2000	0.9506152	40.92392	-91.39365
57103	-491	-618	305	-1.030073	0.3890062	-3.823838	0	11.97	20009	0	0	5	5	0.02	-0.1043801	1	10	0.03	2000	1.235875	40.92392	-91.39365
57201	-3549	-621	-1414	-4.743379	2.088931	-3.082004	0	11.97	20009	0	0	5	5	0.02	-0.1045321	1	10	0.03	2000	1.316916	40.92392	-91.39365
57379	3097	-2602	-2885	-1.332281	7.839289	6.461739	0	11.97	20009	0	0	5	5	0.02	-0.1264658	1	10	0.03	2000	-1.720947	40.92392	-91.39365
57463	2610	-2640	-798	2.384749	11.18145	8.536128	0	11.97	20009	0	0	5	5	0.02	-0.1300346	1	10	0.03	2000	-3.978333	40.92392	-91.39365
57517	2277	-1965	550	3.553486	12.71766	8.564861	0	11.97	20009	0	0	5	5	0.02	-0.1289806	1	10	0.03	2000	-4.209991	40.92392	-91.39365
57587	-2345	1565	3182	2.437174	14.63455	2.79606	0	11.97	20009	0	0	5	5	0.02	-0.1186337	1	10	0.03	2000	1.685882	40.92392	-91.39365
57699	-3750	1463	1160	-1.777732	14.30576	0.2767222	0	11.97	20009	0	0	5	5	0.02	-0.08642779	1	10	0.03	2000	4.029086	40.92392	-91.39365
57799	-3947	-2633	-1145	-8.668747	18.09928	1.55505	0	11.97	20009	0	0	5	5	0.02	-0.0445148	1	10	0.03	2000	2.547878	40.92392	-91.39365
57925	-516	-981	-901	-11.58068	22.61753	3.954598	0	11.97	20009	0	0	5	5	0.02	0.01250844	1	10	0.03	2000	-3.619507	40.92392	-91.39365
58064	7	1435	1257	-11.66307	21.70884	4.275076	0	11.97	20009	0	0	5	5	0.02	0.06273582	1	10	0.03	2000	-5.968323	40.92392	-91.39365
58098	-408	2470	2031	-11.97729	20.00278	3.343219	0	11.97	20009	0	0	5	5	0.02	0.07732482	1	10	0.03	2000	-6.070465	40.92392	-91.39365
58220	1149	1022	1759	-12.27677	11.23022	-2.021013	0	11.97	20009	0	0	5	5	0.02	0.1669346	1	10	0.03	2000	-2.598511	40.92392	-91.39365
58331	1923	1710	222	-9.388005	6.78458	-3.940865	0	12.02	20009	0	0	5	5	0.02	0.2276209	1	10	0.03	2000	-2.336487	40.92392	-91.39365
58436	2316	1987	-264	-3.45981	1.171546	-3.437575	0	12.02	20009	0	0	5	5	0.02	0.2615181	1	10	0.03	2000	-1.976868	40.92392	-91.39365
58521	1684	1784	658	-0.4503111	-1.332614	-3.878264	0	12.02	20009	0	0	5	5	0.02	0.2690712	1	10	0.03	2000	-1.498932	40.92392	-91.39365
58576	-348	-281	1896	-0.1732679	-2.201285	-4.329986	0	12.02	20009	0	0	5	5	0.02	0.2690498	1	10	0.03	2000	-0.4247131	40.92392	-91.39365
58698	-349	-2058	1377	-1.204251	-1.231972	-9.929592	0	12.02	20009	0	0	5	5	0.02	0.2593857	1	10	0.03	2000	3.25618	40.92392	-91.39365
58733	-348	973	-917	-1.198802	-1.598797	-9.167311	0	12.02	20009	0	0	5	5	0.02	0.2294881	1	10	0.03	2000	3.770759	40.92392	-91.39365
58902	176	446	-120	-1.653537	-1.059057	-7.95117	0	12.02	20009	0	0	5	5	0.02	0.1934165	1	10	0.03	2000	1.493993	40.92392	-91.39365
59024	396	564	-33	-1.480624	-1.035203	-8.042944	0	12.02	20009	0	0	5	5	0.02	0.1700592	1	10	0.03	2000	1.751464	40.92392	-91.39365
59044	-153	-9	12	-1.371925	-0.947857	-8.068926	0	12.02	20009	0	0	5	5	0.02	0.1605905	1	10	0.03	2000	1.809219	40.92392	-91.39365
59121	-119	-1	14	-1.407406	-0.7718599	-8.124374	0	12.02	20009	0	0	5	5	0.02	0.1454633	1	10	0.03	2000	1.981711	40.92392	-91.39365
59171	-121	0	17	-1.482053	-0.4993263	-8.168636	0	12.02	20009	0	0	5	5	0.02	0.09435739	1	10	0.03	2000	2.094508	40.92392	-91.39364
59233	-116	6	21	-1.514431	-0.4092039	-8.189055	0	12.02	20009	0	0	5	5	0.02	0.07707657	1	10	0.03	2000	2.362041	40.92392	-91.39364
59310	-126	-3	16	-1.557218	-0.2878691	-8.216998	0	12.02	20009	0	0	5	5	0.02	0.04416568	1	10	0.03	2000	2.198026	40.92392	-91.39365
59377	-115	6	18	-1.584888	-0.2188284	-8.235157	0	12.02	20009	0	0	5	5	0.02	0.02616871	1	10	0.03	2000	2.232082	40.92392	-91.39365
59479	-113	9	6	-1.610344	-0.1021862	-8.267499	0	12.02	20009	0	0	5	5	0.02	0.008431907	1	10	0.03	2000	2.289274	40.92392	-91.39364
59585	-111	4	13	-1.631965	-0.02812395	-8.290425	0	12.02	20009	0	0	5	5	0.02	-0.01111613	1	10	0.03	2000	2.299202	40.92392	-91.39364
59742	-120	10	15	-1.669381	0.07388037	-8.331757	0	12.08	20009	0	0	5	5	0.02	-0.0215313	1	10	0.03	2000	2.595019	40.92392	-91.39364
59843	-113	-3	18	-1.683981	0.09990656	-8.349792	0	12.08	20009	0	0	5	5	0.02	-0.0275344	1	10	0.03	2000	2.383231	40.92392	-91.39364
59931	-118	1	18	-1.699492	0.1324592	-8.365627	0	12.08	20009	0	0	5	5	0.02	-0.02710946	1	10	0.03	2000	2.172533	40.92392	-91.39364
59979	-116	5	17	-1.711593	0.183722	-8.39247	0	12.08	20009	0	0	5	5	0.02	-0.02476425	1	10	0.03	2000	2.417686	40.92392	-91.39364
60111	-115	6	14	-1.716249	0.2412991	-8.420956	0	12.08	20009	0	0	5	5	0.02	-0.0357353	1	10	0.03	2000	2.640757	40.92392	-91.39364
60170	-118	0	20	-1.72108	0.2493294	-8.430188	0	12.08	20009	0	0	5	5	0.02	-0.04034902	1	10	0.03	2000	2.640757	40.92392	-91.39364
60285	-117	5	16	-1.741485	0.3132842	-8.473659	0	12.08	20009	0	0	5	5	0.02	-0.04894845	1	10	0.03	2000	2.678328	40.92392	-91.39364
60418	-112	0	12	-1.752141	0.343101	-8.505328	0	12.08	20009	0	0	5	5	0.02	-0.0497595	1	10	0.03	2000	2.461759	40.92392	-91.39364
60458	-111	2	17	-1.758288	0.3561233	-8.51352	0	12.08	20009	0	0	5	5	0.02	-0.04995055	1	10	0.03	2000	2.461759	40.92392	-91.39364
60584	-117	3	10	-1.756947	0.3736925	-8.53571	0	12.08	20009	0	0	5	5	0.02	-0.04322926	1	10	0.03	2000	2.489066	40.92392	-91.39364
60668	-113	-1	18	-1.75529	0.4008927	-8.560471	0	12.08	20009	0	0	5	5	0.02	-0.04357941	1	10	0.03	2000	2.709872	40.92392	-91.39364
60787	-115	0	10	-1.747809	0.4296321	-8.592872	0	12.08	20009	0	0	5	5	0.02	-0.03842703	1	10	0.03	2000	2.246146	40.92392	-91.39364
60861	-106	4	12	-1.745482	0.4385789	-8.608035	0	12.08	20009	0	0	5	5	0.02	-0.03374027	1	10	0.03	2000	2.466539	40.92392	-91.39364
60963	-103	8	16	-1.749752	0.4547245	-8.629493	0	12.08	20009	0	0	5	5	0.02	-0.02494558	1	10	0.03	2000	2.457053	40.92392	-91.39364
61066	-112	2	15	-1.74117	0.4627573	-8.652234	0	12.08	20009	0	0	5	5	0.02	-0.01437026	1	10	0.03	2000	2.44043	40.92392	-91.39364
61188	-113	4	15	-1.753445	0.463662	-8.681273	0	12.08	20009	0	0	5	5	0.02	-0.01047554	1	10	0.03	2000	2.688098	40.92392	-91.39364
61270	-114	2	16	-1.759238	0.4634312	-8.69717	0	12.08	20009	0	0	5	5	0.02	-0.007671494	1	10	0.03	2000	2.480095	40.92392	-91.39364
61361	-111	-1	12	-1.74709	0.4717755	-8.726027	0	12.08	20009	0	0	5	5	0.02	-0.007283796	1	10	0.03	2000	2.233544	40.92392	-91.39364
