time(ms)	gyro_x(deg/s)	gyro_y(deg/s)	gyro_z(deg/s)	orientation_roll(deg)	orientation_pitch(deg)	orientation_yaw(deg)	throttle	battery(V)	loop_time(uS)	pid_output_roll	pid_output_pitch	pid_output_yaw	pid_output_throttle	ultrasonic_alt	baro_alt	flight_mode	p_gain_altitude	i_gain_altitude	d_gain_altitude	compass_heading	latitude	longitude
188444	-458	-627	1056	-3.156971	1.64196	335.9388	0	11.23	23745	42	42	5	5	0.02	1.460016	8	10	0.08	2800	337.2526	40.92392	-91.39365
188538	-1264	-221	472	-3.902053	2.063013	335.2617	0	11.23	23747	26	35	5	5	0.02	1.47063	8	10	0.08	2800	337.3794	40.92392	-91.39365
188720	-988	-432	608	-2.507772	1.933759	334.1298	0	11.23	23226	41	30	5	5	0.02	1.493374	8	10	0.08	2800	333.8748	40.92392	-91.39365
188847	-1280	-1020	995	-5.44171	3.689904	333.3587	0	11.23	23100	30	22	5	5	0.02	1.499839	8	10	0.08	2800	332.0092	40.92392	-91.39365
188867	787	6	473	-5.617188	3.957826	333.1378	0	11.23	23926	30	22	5	5	0.02	1.499839	8	10	0.08	2800	332.0092	40.92392	-91.39365
188960	708	2163	736	-3.419375	2.213312	332.4944	0	11.23	23760	24	17	5	5	0.02	1.494889	8	10	0.08	2800	332.3523	40.92392	-91.39365
189084	270	-1297	374	-2.9832	0.7631847	331.6379	0	11.23	23293	41	15	5	5	0.02	1.486674	8	10	0.08	2800	332.6857	40.92392	-91.39365
189173	253	-1263	509	-2.847008	1.859399	330.8469	0	11.23	24525	42	12	5	5	0.02	1.473335	8	10	0.08	2800	331.4058	40.92392	-91.39365
189261	1144	1565	1636	-1.617621	0.2135578	329.6755	0	11.23	23908	29	19	5	5	0.02	1.456558	8	10	0.08	2800	329.4908	40.92392	-91.39365
189367	340	752	850	-1.424208	-1.12261	328.9922	0	11.23	23928	22	23	5	5	0.02	1.442195	8	10	0.08	2800	330.2424	40.92392	-91.39365
189489	827	-1411	1469	-3.360029	2.144712	328.1042	0	11.23	24550	34	30	5	5	0.02	1.410767	8	10	0.08	2800	325.9602	40.92392	-91.39365
189607	-1058	1363	-338	-3.016492	0.8824626	326.9788	0	11.23	23906	29	39	5	5	0.02	1.392444	8	10	0.08	2800	324.1748	40.92392	-91.39365
189698	1063	-1506	-211	-2.266937	0.793142	326.7902	0	11.23	23732	29	44	5	5	0.02	1.382432	8	10	0.08	2800	327.3115	40.92392	-91.39365
189770	-665	-756	-257	-2.091043	1.279918	326.6284	0	11.23	23905	27	48	5	5	0.02	1.375082	8	10	0.08	2800	324.8025	40.92392	-91.39365
189895	-1220	-90	689	-3.210067	2.447812	326.2872	0	11.23	23907	38	-3	5	5	0.02	1.35216	8	10	0.08	2800	324.6677	40.92391	-91.39365
190025	1518	2284	782	-4.180013	1.95253	327.1566	0	11.29	23272	37	-18	5	5	0.02	1.320518	8	10	0.08	2800	324.2215	40.92391	-91.39365
190153	1332	24	-1774	-3.098803	-1.162716	328.7594	0	11.29	23742	48	-12	5	5	0.02	1.300375	8	10	0.08	2800	327.3433	40.92391	-91.39365
190228	-284	314	455	-3.069769	-0.1630401	329.1986	0	11.29	23774	49	-15	5	5	0.02	1.262164	8	10	0.08	2800	329.2196	40.92391	-91.39365
190291	-2445	-587	-598	-6.144164	0.9106971	330.1335	0	11.29	23707	51	-21	5	5	0.02	1.255134	8	10	0.08	2800	329.1865	40.92391	-91.39365
190362	1987	121	-3036	-4.803322	0.7455283	332.9088	0	11.29	24550	39	9	5	5	0.02	1.235828	8	10	0.08	2800	333.4509	40.92391	-91.39365
190474	2626	172	-2539	-0.7917528	0.1401721	337.4006	0	11.29	23963	39	14	5	5	0.02	1.198809	8	10	0.08	2800	334.3091	40.92391	-91.39365
190571	-3576	-493	-2750	-0.7695739	-0.5607737	340.6835	0	11.29	23751	58	29	5	5	0.02	1.173478	8	10	0.08	2800	337.7222	40.92391	-91.39365
190683	4830	2555	-2297	-1.362093	1.360389	346.4776	0	11.29	23739	59	20	5	5	0.02	1.15285	8	10	0.08	2800	344.3555	40.92391	-91.39365
190819	-2384	1200	-2451	0.8160304	-0.5271105	350.589	0	11.29	23919	63	27	5	5	0.02	1.119362	8	10	0.08	2800	350.3234	40.92391	-91.39365
190901	-1326	-2053	1733	-4.293519	1.588664	352.2195	0	11.29	23788	60	35	5	5	0.02	1.115898	8	10	0.08	2800	352.5104	40.92391	-91.39365
190974	-1770	-1967	1474	-5.99906	3.5427	351.6559	0	11.29	23748	65	36	5	5	0.02	1.119119	8	10	0.08	2800	352.885	40.92391	-91.39365
191141	1787	591	860	-6.384828	5.978167	347.1687	0	11.29	23911	62	29	5	5	0.02	1.140386	8	10	0.08	2800	347.4995	40.92391	-91.39365
191254	-347	1403	2444	-5.054794	2.72748	343.512	0	11.29	23746	66	24	5	5	0.02	1.157329	8	10	0.08	2800	345.7075	40.92391	-91.39365
191305	-840	-984	2717	-6.282537	2.105253	339.8449	0	11.29	24534	67	21	5	5	0.02	1.18474	8	10	0.08	2800	343.3523	40.92391	-91.39365
191396	-395	-102	1568	-6.829072	2.31995	337.3624	0	11.29	23919	69	16	5	5	0.02	1.21056	8	10	0.08	2800	339.9424	40.92391	-91.39365
191475	1518	333	1636	-4.546107	0.8857652	333.7223	0	11.29	23754	66	14	5	5	0.02	1.237836	8	10	0.08	2800	334.3605	40.92391	-91.39365
191555	518	-70	1059	-2.832303	0.2597357	332.2377	0	11.29	23757	63	13	5	5	0.02	1.250714	8	10	0.08	2800	333.2072	40.92391	-91.39365
191737	-796	1451	2600	-7.284225	0.02024565	328.4775	0	11.29	24381	72	6	5	5	0.02	1.275903	8	10	0.08	2800	331.3135	40.92391	-91.39365
191820	533	-349	-462	-7.448628	-0.7222036	327.5938	0	11.29	23766	63	9	5	5	0.02	1.28852	8	10	0.08	2800	331.5263	40.92391	-91.39365
191955	-2668	-2804	-843	-4.60103	1.706596	327.9658	0	11.34	23751	58	12	5	5	0.02	1.307412	8	10	0.08	2800	330.1345	40.92391	-91.39365
192104	205	2793	0	-2.874856	0.1002737	331.2514	0	11.34	23928	64	12	5	5	0.02	1.32238	8	10	0.08	2800	333.8972	40.92391	-91.39365
192157	120	1476	-632	-3.277599	-1.882537	332.3255	0	11.34	23273	64	12	5	5	0.02	1.327363	8	10	0.08	2800	334.4673	40.92391	-91.39365
192372	144	-1224	884	-3.368343	1.973532	333.9939	0	11.34	23922	56	19	5	5	0.02	1.343119	8	10	0.08	2800	338.307	40.92391	-91.39365
192596	1574	1978	-1078	-2.088511	0.5476547	334.8513	0	11.34	24597	55	20	5	5	0.02	1.356266	8	10	0.08	2800	338.3145	40.92391	-91.39365
192752	-1136	-1430	-2156	-1.892309	-2.362978	336.8173	0	11.34	23747	55	22	5	5	0.02	1.366876	8	10	0.08	2800	343.078	40.92391	-91.39365
192822	-2864	-2359	-1531	-4.774009	0.6975461	337.5565	0	11.4	23754	55	22	5	5	0.02	1.366648	8	10	0.08	2800	340.9933	40.92391	-91.39365
192891	-3079	-2473	-974	-6.282171	2.333531	337.6779	0	11.4	23281	54	22	5	5	0.02	1.367906	8	10	0.08	2800	340.9933	40.92391	-91.39365
193054	615	978	-581	-5.618354	2.479711	337.0625	0	11.4	24361	55	22	5	5	0.02	1.371414	8	10	0.08	2800	341.0986	40.92391	-91.39365
193168	1114	171	-796	-5.687291	2.944427	335.8964	0	11.4	23758	41	27	5	5	0.02	1.375201	8	10	0.08	2800	341.372	40.92391	-91.39365
193204	3258	1583	-1231	-4.134254	2.374259	336.4025	0	11.4	23877	41	27	5	5	0.02	1.377028	8	10	0.08	2800	341.2516	40.92391	-91.39365
193278	-599	-825	7	-0.9508414	1.023734	336.8373	0	11.4	23097	36	29	5	5	0.02	1.382528	8	10	0.08	2800	341.4324	40.92391	-91.39365
193456	-247	-741	615	-4.430805	4.572695	337.8485	0	11.4	23730	51	44	5	5	0.02	1.3867	8	10	0.08	2800	341.4802	40.92391	-91.39365
193495	-62	197	330	-5.182453	5.017145	338.0943	0	11.4	23282	49	36	5	5	0.02	1.388446	8	10	0.08	2800	339.8751	40.92391	-91.39365
193689	1633	-874	-1163	-2.973264	1.820212	338.8389	0	11.4	23899	57	33	5	5	0.02	1.399253	8	10	0.08	2800	342.4609	40.92391	-91.39365
193758	-3263	-1709	-404	-4.609507	3.215113	339.3401	0	11.11	23749	60	33	5	5	0.02	1.402223	8	10	0.08	2800	343.4412	40.92391	-91.39365
193873	3136	101	663	-5.886291	4.654093	339.7309	0	11.11	24561	41	31	5	5	0.02	1.409344	8	10	0.08	2800	341.2244	40.92391	-91.39365
193904	4920	1178	-222	-3.810269	4.305576	340.0671	0	11.11	23102	37	30	5	5	0.02	1.409182	8	10	0.08	2800	341.6127	40.92391	-91.39365
194007	-2501	970	-2304	0.09654836	-0.8383735	340.9026	0	11.11	23711	30	29	5	5	0.02	1.40933	8	10	0.08	2800	342.6822	40.92391	-91.39365
194183	-98	-2690	-1755	-2.964133	3.663599	342.166	0	11.11	24587	33	47	5	5	0.02	1.418816	8	10	0.08	2800	344.8004	40.92391	-91.39365
194214	-245	-2143	-1030	-2.531875	4.872036	342.4087	0	11.11	23083	33	47	5	5	0.02	1.418816	8	10	0.08	2800	343.2823	40.92391	-91.39365
194294	-1485	-161	-544	-4.533802	5.958505	342.0588	0	11.11	23889	34	49	5	5	0.02	1.424288	8	10	0.08	2800	342.6011	40.92391	-91.39365
194416	681	-65	-75	-3.625832	5.169182	341.1698	0	11.11	23785	43	42	5	5	0.02	1.439096	8	10	0.08	2800	342.1836	40.92391	-91.39365
194485	26	2223	1238	-2.699321	2.984145	339.4633	0	11.11	24576	45	41	5	5	0.02	1.440576	8	10	0.08	2800	338.9529	40.92391	-91.39365
194640	-893	-1234	917	-3.558038	1.619029	337.5703	0	11.06	24367	40	41	5	5	0.02	1.456579	8	10	0.08	2800	338.7419	40.92391	-91.39365
194763	-119	1388	766	-4.897206	4.77985	334.6252	0	11.06	23884	40	29	5	5	0.02	1.463412	8	10	0.08	2800	334.9286	40.92391	-91.39365
194817	2038	2596	-49	-4.438047	3.614804	334.2885	0	11.06	23749	39	27	5	5	0.02	1.474063	8	10	0.08	2800	334.9286	40.92391	-91.39365
194949	-891	-932	-808	-2.92773	0.2017756	334.2472	0	11.06	24423	40	31	5	5	0.02	1.476849	8	10	0.08	2800	334.0653	40.92391	-91.39365
195055	-585	-860	117	-2.856822	1.998361	334.8969	0	11.06	23275	41	31	5	5	0.02	1.469218	8	10	0.08	2800	335.2572	40.92391	-91.39365
195078	-280	175	152	-3.315621	2.322474	335.0469	0	11.06	23755	41	31	5	5	0.02	1.469218	8	10	0.08	2800	335.6452	40.92391	-91.39365
195183	375	498	-257	-2.273531	1.285239	335.6552	0	11.06	23908	49	27	5	5	0.02	1.464894	8	10	0.08	2800	333.7252	40.92391	-91.39365
195332	-547	-1358	-967	-5.445579	2.542905	337.955	0	11.06	23764	46	30	5	5	0.02	1.449141	8	10	0.08	2800	335.8112	40.92391	-91.39365
195504	-710	-326	-694	-2.731145	1.470621	340.8345	0	11.06	23896	44	33	5	5	0.02	1.411934	8	10	0.08	2800	340.3534	40.92391	-91.39365
195683	747	-251	160	-4.092985	3.053276	341.5467	0	11.29	23734	43	33	5	5	0.02	1.368018	8	10	0.08	2800	342.2609	40.92391	-91.39365
195754	-564	-76	930	-4.002547	3.114114	341.3251	0	11.29	24554	44	33	5	5	0.02	1.340781	8	10	0.08	2800	341.5774	40.92391	-91.39365
195808	-82	599	1371	-4.776523	2.275345	340.8893	0	11.29	23923	44	33	5	5	0.02	1.335508	8	10	0.08	2800	340.668	40.92391	-91.39365
195868	-9	233	-533	-4.573057	2.019718	340.7167	0	11.29	24387	44	33	5	5	0.02	1.320416	8	10	0.08	2800	340.668	40.92391	-91.39365
195982	259	-472	1325	-3.741444	3.23513	339.4697	0	11.29	23749	45	32	5	5	0.02	1.281415	8	10	0.08	2800	340.647	40.92391	-91.39365
196176	1406	938	2256	-3.325145	1.394181	336.286	0	11.29	24383	63	22	5	5	0.02	1.216133	8	10	0.08	2800	337.522	40.92391	-91.39365
196225	1737	837	1683	-2.828571	0.9445664	335.6863	0	11.29	23924	57	24	5	5	0.02	1.186162	8	10	0.08	2800	336.7529	40.92391	-91.39365
196279	-1526	-982	-256	-2.660466	1.272541	334.8061	0	11.29	23253	57	23	5	5	0.02	1.168035	8	10	0.08	2800	336.7529	40.92391	-91.39365
196450	267	603	796	-7.569017	1.457626	332.4914	0	11.11	23751	58	21	5	5	0.02	1.10002	8	10	0.08	2800	331.8893	40.92391	-91.39365
196549	-352	-1291	-496	-2.702819	1.207226	330.3241	0	11.11	23726	58	20	5	5	0.02	1.081203	8	10	0.08	2800	331.532	40.92391	-91.39365
196633	-705	825	937	-3.37904	1.332803	329.8901	0	11.11	23752	39	10	5	5	0.02	1.053625	8	10	0.08	2800	328.8251	40.92391	-91.39365
196713	-1527	639	380	-5.098484	-0.001409912	329.6938	0	11.11	23129	35	8	5	5	0.02	1.034565	8	10	0.08	2800	329.6689	40.92391	-91.39365
196760	-579	-2581	-1023	-3.571386	1.24791	331.1397	0	11.11	23931	37	18	5	5	0.02	1.021774	8	10	0.08	2800	332.3648	40.92391	-91.39365
196869	2006	-875	618	-3.069173	3.167435	331.9983	0	11.11	23973	29	23	5	5	0.02	1.006068	8	10	0.08	2800	332.3217	40.92391	-91.39365
197014	-343	-132	-1156	-0.1786205	0.4910718	334.2825	0	11.11	23125	35	21	5	5	0.02	1.01476	8	10	0.08	2800	333.0679	40.92391	-91.39365
197089	-3197	-1711	-2074	-1.07781	0.9394881	334.9739	0	11.11	23897	35	21	5	5	0.02	1.02459	8	10	0.08	2800	334.2545	40.92391	-91.39365
197226	1855	242	-1427	-4.768618	4.901803	338.3627	0	11.11	23747	33	21	5	5	0.02	1.043486	8	10	0.08	2800	337.2542	40.92391	-91.39365
197289	2156	1359	-365	-2.47772	3.955431	338.6872	0	11.11	23740	35	30	5	5	0.02	1.051883	8	10	0.08	2800	337.67	40.92391	-91.39365
197471	-942	857	-892	-1.043419	0.8118945	339.3103	0	11.11	23922	36	10	5	5	0.02	1.071446	8	10	0.08	2800	339.3081	40.92391	-91.39365
197517	-315	-33	-18	-2.234453	0.3028274	339.2124	0	11.11	23272	34	7	5	5	0.02	1.075334	8	10	0.08	2800	339.3081	40.92391	-91.39365
197567	1012	-32	-1253	-1.574968	-0.1646713	339.5381	0	11.11	24549	33	4	5	5	0.02	1.077521	8	10	0.08	2800	338.6604	40.92391	-91.39365
197669	-1282	-771	-192	-0.8652331	-0.4321012	339.5369	0	11.11	23929	49	14	5	5	0.02	1.092629	8	10	0.08	2800	338.6247	40.92391	-91.39365
197826	187	1509	-244	-3.066074	1.276263	338.7235	0	11.11	23240	59	16	5	5	0.02	1.112519	8	10	0.08	2800	338.5109	40.92391	-91.39365
197915	-3970	679	1270	-4.855884	-1.484859	337.3494	0	11.11	23102	42	-4	5	5	0.02	1.130545	8	10	0.08	2800	337.3246	40.92391	-91.39365
197980	981	-346	1008	-7.556479	-0.4759959	336.9634	0	11.11	24393	58	7	5	5	0.02	1.139187	8	10	0.08	2800	335.0812	40.92391	-91.39365
198015	668	-611	206	-4.359224	0.359223	336.3744	0	11.11	23745	65	8	5	5	0.02	1.145968	8	10	0.08	2800	335.9103	40.92391	-91.39365
198045	-608	-1672	-1043	-4.379224	1.040815	336.4029	0	11.11	23916	68	9	5	5	0.02	1.156018	8	10	0.08	2800	335.8203	40.92391	-91.39365
198150	1537	530	1293	-5.061634	2.362499	336.1576	0	11.11	24552	43	-3	5	5	0.02	1.160619	8	10	0.08	2800	331.0513	40.92391	-91.39365
198254	167	2615	-1688	-1.970417	-2.76585	336.5423	0	11.11	23927	45	-2	5	5	0.02	1.159177	8	10	0.08	2800	333.6569	40.92391	-91.39365
198359	-184	-992	-715	-2.488485	-3.327045	337.21	0	11.11	23334	45	-2	5	5	0.02	1.161805	8	10	0.08	2800	334.8208	40.92391	-91.39365
198491	1811	1203	584	-6.911732	2.894319	338.8381	0	11.11	23738	44	-3	5	5	0.02	1.165947	8	10	0.08	2800	335.4646	40.92391	-91.39365
198592	358	739	1251	-6.024303	1.66077	337.9611	0	11.11	23923	49	-2	5	5	0.02	1.173321	8	10	0.08	2800	335.2905	40.92391	-91.39365
198673	1035	-787	396	-5.088135	1.999598	336.8123	0	11.11	23790	46	-4	5	5	0.02	1.179491	8	10	0.08	2800	335.3699	40.92391	-91.39365
198779	2132	1637	-328	-2.365404	0.6031438	336.2886	0	11.11	23107	46	-6	5	5	0.02	1.185864	8	10	0.08	2800	335.7332	40.92391	-91.39365
198848	358	1861	-367	-1.498648	-1.314002	335.382	0	11.11	23751	58	-16	5	5	0.02	1.189385	8	10	0.08	2800	332.8746	40.92391	-91.39365
198964	-1882	-1165	789	-2.693417	-2.072231	334.6964	0	11.11	23775	63	-23	5	5	0.02	1.188763	8	10	0.08	2800	333.5913	40.92391	-91.39365
199089	-1606	-516	-801	-7.732954	0.584932	334.095	0	11.11	23135	43	-9	5	5	0.02	1.191371	8	10	0.08	2800	329.8682	40.92391	-91.39365
199168	4311	773	-815	-4.941649	0.04960451	334.4513	0	11.11	24366	40	-7	5	5	0.02	1.192218	8	10	0.08	2800	331.1356	40.92391	-91.39365
199258	-30	2048	-1033	-1.199966	-2.026173	335.1535	0	11.11	23923	59	-18	5	5	0.02	1.191638	8	10	0.08	2800	332.8955	40.9239	-91.39365
199446	892	-954	-390	-4.769315	-2.81519	336.6711	0	11.11	23904	57	-18	5	5	0.02	1.185287	8	10	0.08	2800	336.0141	40.9239	-91.39365
199499	1043	-1327	-985	-4.17046	-2.046724	336.5955	0	11.11	24399	57	-18	5	5	0.02	1.183824	8	10	0.08	2800	336.0141	40.9239	-91.39365
199572	1419	-720	1156	-3.303451	-0.6160835	335.9969	0	11.11	23773	62	-10	5	5	0.02	1.179941	8	10	0.08	2800	336.6138	40.9239	-91.39365
199730	-2481	-1458	-136	-7.215242	-0.3030743	334.3978	0	11.11	23920	71	-15	5	5	0.02	1.189049	8	10	0.08	2800	332.2803	40.9239	-91.39365
199803	2739	385	137	-6.479761	0.5571696	333.8066	0	11.11	24386	71	-2	5	5	0.02	1.192916	8	10	0.08	2800	330.9857	40.9239	-91.39365
200003	544	372	2383	-5.936505	0.2416111	332.5683	0	11.23	24568	76	1	5	5	0.02	1.195426	8	10	0.08	2800	330.0226	40.9239	-91.39365
200087	1522	1168	19	-5.082783	-0.2638578	331.6125	0	11.23	23751	80	4	5	5	0.02	1.200051	8	10	0.08	2800	328.7105	40.9239	-91.39365
200229	-4214	-1678	-502	-5.243745	-0.5431336	332.0445	0	11.23	23332	82	-15	5	5	0.02	1.195246	8	10	0.08	2800	330.7766	40.9239	-91.39365
200295	-3251	-1563	-813	-6.719044	0.1667009	332.1858	0	11.23	23733	85	-4	5	5	0.02	1.194308	8	10	0.08	2800	330.9865	40.92391	-91.39365
200416	-2166	202	-43	-7.948133	-0.1167077	331.9401	0	11.23	24397	89	2	5	5	0.02	1.195262	8	10	0.08	2800	330.4522	40.92391	-91.39365
200495	2109	-717	894	-8.045328	0.8445989	331.5364	0	11.23	23923	90	-8	5	5	0.02	1.198987	8	10	0.08	2800	330.546	40.92391	-91.39365
200614	-990	1088	-622	-5.067337	-1.117886	331.4081	0	11.23	23747	90	-7	5	5	0.02	1.196271	8	10	0.08	2800	331.0351	40.92391	-91.39365
200688	-163	-200	1510	-6.222649	-1.630441	331.388	0	11.23	23101	97	2	5	5	0.02	1.197584	8	10	0.08	2800	332.1907	40.92391	-91.39365
200811	838	-274	-1027	-5.083337	-0.3342704	331.6711	0	11.23	23910	99	7	5	5	0.02	1.199649	8	10	0.08	2800	332.6692	40.92391	-91.39365
200916	-754	198	-1976	-6.397838	-0.05277624	332.0442	0	11.17	23917	98	3	5	5	0.02	1.198298	8	10	0.08	2800	332.7187	40.92391	-91.39365
201004	-1571	-1355	-783	-5.903384	0.3954221	332.253	0	11.17	23915	99	4	5	5	0.02	1.199285	8	10	0.08	2800	332.9668	40.92391	-91.39365
201087	323	-855	984	-7.401571	1.185442	333.097	0	11.17	24408	93	19	5	5	0.02	1.19446	8	10	0.08	2800	334.486	40.92391	-91.39365
201171	-842	-917	323	-7.834532	1.819036	332.6515	0	11.17	23288	93	28	5	5	0.02	1.190417	8	10	0.08	2800	334.1295	40.92391	-91.39365
201339	2882	1267	1015	-5.642591	1.572739	332.4634	0	11.17	23760	91	3	5	5	0.02	1.190608	8	10	0.08	2800	333.4339	40.92391	-91.39365
201389	215	1948	1051	-5.23027	0.6285297	332.1901	0	11.17	23915	87	13	5	5	0.02	1.195149	8	10	0.08	2800	333.4339	40.92391	-91.39365
201467	-867	210	151	-5.771237	-0.7447332	331.7582	0	11.17	23920	86	15	5	5	0.02	1.195116	8	10	0.08	2800	335.0016	40.92391	-91.39365
201623	1057	-744	-1210	-6.630469	0.3139678	331.6244	0	11.17	23112	89	15	5	5	0.02	1.203909	8	10	0.08	2800	333.4513	40.92391	-91.39365
201752	-2618	142	-1599	-8.509417	0.9900328	332.3905	0	11.17	23766	89	18	5	5	0.02	1.217801	8	10	0.08	2800	329.1074	40.92391	-91.39365
201805	-1298	-3708	-892	-10.54494	2.93047	334.4243	0	11.11	23724	86	30	5	5	0.02	1.225775	8	10	0.08	2800	329.1074	40.92391	-91.39365
201876	2036	-2026	-1484	-10.16973	4.485928	335.2282	0	11.11	23896	84	37	5	5	0.02	1.228961	8	10	0.08	2800	336.4785	40.92391	-91.39365
201999	1584	2383	-346	-3.746375	2.955209	338.3039	0	11.11	24383	68	32	5	5	0.02	1.23718	8	10	0.08	2800	335.5416	40.92391	-91.39365
202129	-551	301	593	-3.481379	0.3689657	339.1262	0	11.11	23308	69	36	5	5	0.02	1.254116	8	10	0.08	2800	342.0911	40.92391	-91.39365
202198	790	-788	-2461	-3.597185	0.9865743	339.7801	0	11.11	23898	70	39	5	5	0.02	1.269037	8	10	0.08	2800	342.192	40.92391	-91.39365
202320	-1840	-450	540	-2.383325	1.085354	339.947	0	11.11	23746	70	41	5	5	0.02	1.297533	8	10	0.08	2800	343.9688	40.92391	-91.39365
202445	547	-1730	-8	-6.476782	5.397363	338.729	0	11.11	23294	55	47	5	5	0.02	1.320983	8	10	0.08	2800	338.3398	40.92391	-91.39365
202585	-131	1124	-855	-5.716093	4.940773	338.1167	0	11.11	23109	70	36	5	5	0.02	1.345493	8	10	0.08	2800	335.1356	40.92391	-91.39365
202668	22	743	-1546	-5.039637	2.926277	338.4972	0	11.11	23946	72	31	5	5	0.02	1.366029	8	10	0.08	2800	337.1507	40.92391	-91.39365
202742	-1426	-973	-1102	-6.647701	3.041773	338.8986	0	11.17	23759	58	44	5	5	0.02	1.384517	8	10	0.08	2800	338.5575	40.92391	-91.39365
202830	1515	-568	1264	-5.752202	4.900771	338.2844	0	11.17	24522	46	41	5	5	0.02	1.411262	8	10	0.08	2800	341.343	40.92391	-91.39365
202893	1822	1270	1827	-3.567597	4.465065	337.4732	0	11.17	23900	53	37	5	5	0.02	1.425393	8	10	0.08	2800	340.0004	40.92391	-91.39365
203005	-328	2171	-383	-3.050335	1.339725	336.4381	0	11.17	23775	50	30	5	5	0.02	1.439321	8	10	0.08	2800	338.0742	40.92391	-91.39365
203083	291	-1	87	-3.019629	-0.3981833	335.9266	0	11.17	23756	44	41	5	5	0.02	1.447538	8	10	0.08	2800	338.0742	40.92391	-91.39365
203187	-611	-1304	545	-3.987098	1.411382	334.3051	0	11.17	23140	38	43	5	5	0.02	1.457017	8	10	0.08	2800	338.5658	40.92391	-91.39365
203275	2728	1725	549	-1.28879	1.129475	333.4906	0	11.17	23912	41	28	5	5	0.02	1.459299	8	10	0.08	2800	336.0892	40.92391	-91.39365
203446	878	679	-516	-5.006059	1.210506	333.4073	0	11.17	23726	39	25	5	5	0.02	1.457342	8	10	0.08	2800	333.4309	40.92391	-91.39365
203472	294	2113	520	-4.860504	0.3881117	333.4148	0	11.17	23901	40	32	5	5	0.02	1.454567	8	10	0.08	2800	334.8044	40.92391	-91.39365
203693	-588	-47	-2615	-2.39063	1.016549	335.8762	0	11.46	23758	35	35	5	5	0.02	1.428022	8	10	0.08	2800	334.9185	40.92391	-91.39365
203805	-1770	-993	-1204	-2.349656	3.215002	339.7993	0	11.46	23109	28	39	5	5	0.02	1.425935	8	10	0.08	2800	337.8322	40.92391	-91.39365
203878	-209	-343	155	-4.241391	3.904016	341.0412	0	11.46	23753	23	41	5	5	0.02	1.424542	8	10	0.08	2800	340.8904	40.92391	-91.39365
203977	1718	578	-450	-1.990296	5.138118	342.3876	0	11.46	23750	29	39	5	5	0.02	1.425474	8	10	0.08	2800	341.2007	40.92391	-91.39365
204080	671	902	327	-0.9115412	4.360979	342.4297	0	11.46	23748	27	40	5	5	0.02	1.431202	8	10	0.08	2800	342.1024	40.92391	-91.39365
204259	-451	5	927	-1.632	2.527247	339.6822	0	11.46	23741	27	41	5	5	0.02	1.457786	8	10	0.08	2800	337.5068	40.92391	-91.39365
204324	-910	-87	983	-1.992021	2.941994	338.4673	0	11.46	23920	28	40	5	5	0.02	1.4765	8	10	0.08	2800	337.6623	40.92391	-91.39365
204374	-670	610	1375	-2.664396	2.873088	337.889	0	11.46	23754	26	24	5	5	0.02	1.487388	8	10	0.08	2800	337.6623	40.92391	-91.39365
204531	280	331	1285	-2.271258	1.159594	335.8266	0	11.46	23949	35	24	5	5	0.02	1.526488	8	10	0.08	2800	333.6741	40.92391	-91.39365
204649	-492	-411	1261	-4.433525	2.815431	334.8221	0	11.11	23746	39	22	5	5	0.02	1.556527	8	10	0.08	2800	331.099	40.92391	-91.39365
204718	259	145	857	-5.454456	2.827913	334.2032	0	11.11	23740	42	20	5	5	0.02	1.569569	8	10	0.08	2800	328.7088	40.92391	-91.39365
204807	-432	-232	399	-4.403464	2.639015	333.2662	0	11.11	23920	46	18	5	5	0.02	1.582951	8	10	0.08	2800	328.2426	40.92391	-91.39365
204848	-364	-387	210	-4.195791	2.475585	332.6956	0	11.11	23952	47	17	5	5	0.02	1.58963	8	10	0.08	2800	326.3141	40.92391	-91.39365
204962	-821	204	134	-2.963235	-0.0989336	332.4726	0	11.11	24551	50	13	5	5	0.02	1.59381	8	10	0.08	2800	327.4943	40.92391	-91.39365
205189	14	310	-202	-3.440969	0.7190882	332.3341	0	11.11	23926	48	14	5	5	0.02	1.608177	8	10	0.08	2800	326.6964	40.92391	-91.39365
205294	-831	275	-761	-4.209296	0.6864325	332.074	0	11.11	23290	39	0	5	5	0.02	1.601102	8	10	0.08	2800	327.0354	40.92391	-91.39365
205358	-882	-1048	-865	-5.879673	1.851465	332.0868	0	11.11	23116	38	-4	5	5	0.02	1.598124	8	10	0.08	2800	325.6172	40.92391	-91.39365
205523	1464	2008	-2752	-2.673017	-0.3209805	334.5698	0	11.34	23881	48	18	5	5	0.02	1.586003	8	10	0.08	2800	328.3785	40.92391	-91.39365
205626	-3508	-2375	-2279	-3.659479	-0.1374196	336.8344	0	11.34	23724	58	11	5	5	0.02	1.574865	8	10	0.08	2800	331.1267	40.92391	-91.39365
205748	1442	957	490	-6.864404	2.978453	337.9904	0	11.34	24380	62	10	5	5	0.02	1.572049	8	10	0.08	2800	331.563	40.92391	-91.39365
205795	1374	779	554	-6.344922	2.790101	337.9388	0	11.34	23896	65	7	5	5	0.02	1.56639	8	10	0.08	2800	333.8415	40.92391	-91.39365
205990	2468	1968	605	-4.312874	1.539833	336.3283	0	11.34	23946	75	0	5	5	0.02	1.563329	8	10	0.08	2800	330.5852	40.92391	-91.39365
206147	-485	554	-889	-1.681093	-2.105054	336.8758	0	11.34	23766	77	-1	5	5	0.02	1.562656	8	10	0.08	2800	333.0436	40.92391	-91.39365
206169	-1603	148	-39	-2.369628	-2.042477	337.0062	0	11.34	23292	77	-1	5	5	0.02	1.56036	8	10	0.08	2800	333.0436	40.92391	-91.39365
206304	-584	-937	1935	-5.727098	1.805286	336.9486	0	11.34	23915	81	6	5	5	0.02	1.5573	8	10	0.08	2800	332.703	40.92391	-91.39365
206408	1973	1222	674	-6.688538	1.962782	336.756	0	11.06	23759	84	10	5	5	0.02	1.555729	8	10	0.08	2800	331.736	40.92391	-91.39365
206544	-1677	258	396	-5.911024	-0.7198566	335.8078	0	11.06	23764	84	3	5	5	0.02	1.553172	8	10	0.08	2800	332.827	40.92391	-91.39365
206616	-604	671	1305	-6.656662	-1.03077	335.3933	0	11.06	24542	85	2	5	5	0.02	1.554909	8	10	0.08	2800	332.827	40.92391	-91.39365
206731	429	-504	99	-5.001462	0.9231411	334.8937	0	11.06	23782	89	13	5	5	0.02	1.562166	8	10	0.08	2800	331.8187	40.92391	-91.39365
206785	561	226	1034	-4.957641	0.9665519	334.7809	0	11.06	23916	91	16	5	5	0.02	1.566715	8	10	0.08	2800	331.8187	40.92391	-91.39365
207024	-206	-1015	-2055	-8.185105	2.280816	335.8024	0	11.06	23984	97	20	5	5	0.02	1.600964	8	10	0.08	2800	330.3649	40.92391	-91.39365
207142	-1202	-823	-627	-8.488724	2.612222	336.1518	0	11.06	23930	103	27	5	5	0.02	1.61851	8	10	0.08	2800	332.4464	40.92391	-91.39365
207405	-1265	-250	-340	-5.894035	0.1565653	337.5222	0	11.97	23288	92	29	5	5	0.02	1.670656	8	10	0.08	2800	337.6961	40.92391	-91.39365
207500	203	-1817	-1059	-7.806393	0.9448572	337.489	0	11.97	24550	93	34	5	5	0.02	1.682509	8	10	0.08	2800	337.4901	40.92391	-91.39365
207557	800	-1208	-537	-7.563123	3.488152	337.6293	0	11.97	23786	95	29	5	5	0.02	1.695566	8	10	0.08	2800	336.213	40.92391	-91.39365
207703	936	987	1211	-8.118874	1.472695	336.9663	0	11.97	23748	98	29	5	5	0.02	1.698732	8	10	0.08	2800	335.7652	40.92391	-91.39365
207789	574	64	-594	-5.355464	0.9148637	336.3465	0	11.97	24548	93	46	5	5	0.02	1.685245	8	10	0.08	2800	337.9696	40.92392	-91.39365
207891	365	-2004	-160	-7.685335	4.16467	335.7643	0	11.97	23910	91	52	5	5	0.02	1.668705	8	10	0.08	2800	335.8786	40.92392	-91.39365
208034	468	1520	2168	-6.689733	3.788242	334.5236	0	11.97	23744	88	26	5	5	0.02	1.650129	8	10	0.08	2800	334.3192	40.92392	-91.39365
208212	3343	2311	-2	-5.050794	2.172537	333.9123	0	11	24403	73	22	5	5	0.02	1.646012	8	10	0.08	2800	333.3205	40.92392	-91.39365
208325	-969	-2067	-723	-6.392012	1.591087	334.868	0	11	23782	68	35	5	5	0.02	1.642534	8	10	0.08	2800	337.4565	40.92392	-91.39365
208390	748	-1007	898	-6.971911	3.514382	335.3206	0	11	23745	67	35	5	5	0.02	1.640252	8	10	0.08	2800	337.4473	40.92392	-91.39365
208620	1217	-63	820	-3.929044	2.661785	334.7197	0	11	23757	61	62	5	5	0.02	1.635201	8	10	0.08	2800	336.8087	40.92392	-91.39365
208826	456	-572	6	-4.634046	3.942413	334.8844	0	11	23928	60	67	5	5	0.02	1.625182	8	10	0.08	2800	335.0949	40.92392	-91.39365
208959	-616	856	-952	-4.672278	4.425978	335.389	0	11	23716	58	72	5	5	0.02	1.605584	8	10	0.08	2800	334.353	40.92392	-91.39365
209053	2604	755	1148	-6.092037	4.730951	334.6782	0	11	23126	32	44	5	5	0.02	1.58918	8	10	0.08	2800	330.8856	40.92392	-91.39365
209233	1953	-114	-543	-0.5145097	1.624396	334.4279	0	11	23795	36	44	5	5	0.02	1.542038	8	10	0.08	2800	331.9444	40.92392	-91.39365
209323	-977	-1404	692	-6.832208	4.598662	335.0949	0	11	23757	34	47	5	5	0.02	1.509744	8	10	0.08	2800	331.8887	40.92392	-91.39365
209398	1827	919	-448	-5.785886	3.967909	334.5932	0	11	23082	28	38	5	5	0.02	1.490377	8	10	0.08	2800	331.3771	40.92392	-91.39365
209567	2788	788	888	0.8955148	2.253119	334.1267	0	11	23345	39	42	5	5	0.02	1.438099	8	10	0.08	2800	332.9197	40.92392	-91.39365
209685	-1390	-679	-538	-0.7177493	0.7465841	335.0264	0	11	23912	47	31	5	5	0.02	1.4118	8	10	0.08	2800	332.6209	40.92392	-91.39365
209755	-777	-23	-127	-4.154038	2.79294	335.579	0	11	24390	67	30	5	5	0.02	1.392476	8	10	0.08	2800	330.6325	40.92392	-91.39365
209875	2075	1382	-101	-3.580846	3.476549	336.573	0	11	23285	42	27	5	5	0.02	1.364102	8	10	0.08	2800	329.9155	40.92392	-91.39365
209959	-1409	1180	879	-2.369867	2.08744	337.2883	0	11	23099	33	23	5	5	0.02	1.359103	8	10	0.08	2800	332.9093	40.92392	-91.39365
210066	604	-854	1169	-5.215089	1.984591	336.8205	0	11.11	23923	42	18	5	5	0.02	1.363318	8	10	0.08	2800	332.5964	40.92392	-91.39365
210119	1316	-911	-127	-4.332706	3.379345	336.4113	0	11.11	23911	46	29	5	5	0.02	1.365859	8	10	0.08	2800	331.5244	40.92392	-91.39365
210230	-1337	-479	384	-2.431515	3.145113	335.74	0	11.11	23759	55	32	5	5	0.02	1.374214	8	10	0.08	2800	329.9064	40.92392	-91.39365
210328	314	-65	1807	-6.313707	3.99131	334.692	0	11.11	24395	46	27	5	5	0.02	1.388694	8	10	0.08	2800	328.5801	40.92392	-91.39365
210397	1445	-808	851	-5.945685	4.788511	333.8999	0	11.11	23760	47	27	5	5	0.02	1.403876	8	10	0.08	2800	327.0442	40.92392	-91.39365
210465	2081	-30	-405	-5.197102	5.186981	333.7736	0	11.11	23922	53	19	5	5	0.02	1.428442	8	10	0.08	2800	327.0442	40.92392	-91.39365
210611	-2121	1499	-187	-2.349535	-1.204634	335.8029	0	11.11	23093	53	23	5	5	0.02	1.469465	8	10	0.08	2800	329.8929	40.92392	-91.39365
210728	1880	-2492	-1988	-7.177485	3.124599	339.6707	0	11.11	23751	52	25	5	5	0.02	1.508746	8	10	0.08	2800	332.3324	40.92392	-91.39365
210751	3080	-66	-3513	-5.359568	3.664316	340.8777	0	11.11	23302	51	27	5	5	0.02	1.508746	8	10	0.08	2800	334.351	40.92392	-91.39365
210890	797	1635	-562	-1.398124	1.718744	342.1667	0	11.06	23767	59	10	5	5	0.02	1.545773	8	10	0.08	2800	335.2894	40.92391	-91.39365
211050	1233	-810	-577	-5.395711	2.73104	341.7122	0	11.06	23768	69	7	5	5	0.02	1.564524	8	10	0.08	2800	334.9359	40.92391	-91.39365
211218	-1439	252	1306	-6.270156	0.5723397	338.1525	0	11.06	23950	74	-12	5	5	0.02	1.574391	8	10	0.08	2800	333.2447	40.92391	-91.39365
211256	-965	278	-507	-6.690584	0.5498101	337.7413	0	11.06	23742	76	-18	5	5	0.02	1.574391	8	10	0.08	2800	331.1732	40.92391	-91.39365
211470	-2939	-2784	954	-6.604984	-2.279129	334.9202	0	11.06	23760	74	-18	5	5	0.02	1.572316	8	10	0.08	2800	331.303	40.92391	-91.39365
211631	2251	2349	555	-4.883296	0.5146104	335.3727	0	11.06	23744	83	-9	5	5	0.02	1.570339	8	10	0.08	2800	331.0142	40.92391	-91.39365
211679	1027	2787	-446	-4.393941	-0.765438	335.5689	0	11.06	23922	84	-1	5	5	0.02	1.570148	8	10	0.08	2800	331.1044	40.92391	-91.39365
211760	3341	2255	-695	-4.41402	-2.900733	336.7775	0	10.55	23754	88	3	5	5	0.02	1.573035	8	10	0.08	2800	333.6886	40.92391	-91.39365
211835	-2548	-2706	49	-3.838536	-1.58792	338.7206	0	10.55	23886	88	10	5	5	0.02	1.579629	8	10	0.08	2800	336.2935	40.92391	-91.39365
211922	-4913	-1550	574	-10.74607	3.069353	339.8311	0	10.55	23125	93	17	5	5	0.02	1.580477	8	10	0.08	2800	330.4656	40.92391	-91.39365
212039	4903	2638	-86	-12.00417	2.482822	340.3204	0	10.55	23901	91	14	5	5	0.02	1.586574	8	10	0.08	2800	335.3614	40.92391	-91.39365
212162	366	-1195	1133	-4.939732	0.1671291	342.332	0	10.55	23278	90	16	5	5	0.02	1.602997	8	10	0.08	2800	340.0603	40.92391	-91.39365
212318	1153	178	-906	-4.199243	1.13439	342.7944	0	10.55	23926	92	16	5	5	0.02	1.658266	8	10	0.08	2800	337.5301	40.92391	-91.39365
212387	-3510	-186	116	-6.365642	2.205276	343.0226	0	10.55	23767	95	15	5	5	0.02	1.692842	8	10	0.08	2800	338.2802	40.92391	-91.39365
212469	2380	527	-2402	-10.34515	4.032371	343.9818	0	10.55	23931	97	15	5	5	0.02	1.724023	8	10	0.08	2800	338.0926	40.92391	-91.39365
212556	2571	2542	-1942	-6.33845	2.043707	344.6796	0	10.55	24593	85	21	5	5	0.02	1.749801	8	10	0.08	2800	340.3462	40.92391	-91.39365
212720	-339	-1953	539	-4.139928	1.257378	346.9141	0	10.32	23739	94	35	5	5	0.02	1.870067	8	10	0.08	2800	342.4606	40.92391	-91.39365
212791	-2651	-2099	474	-6.155896	3.511022	346.7544	0	10.32	23726	94	39	5	5	0.02	1.911765	8	10	0.08	2800	344.019	40.92391	-91.39365
212945	3586	2135	2223	-5.965468	2.433678	344.3087	0	10.32	23906	80	32	5	5	0.02	2.010404	8	10	0.08	2800	340.7095	40.92391	-91.39365
212979	1410	773	846	-5.069422	1.577725	343.6228	0	10.32	24386	79	31	5	5	0.02	2.023711	8	10	0.08	2800	340.7095	40.92391	-91.39365
213057	-280	1090	1040	-4.256162	0.2848602	342.306	0	10.32	23760	88	28	5	5	0.02	2.065383	8	10	0.08	2800	341.0478	40.92391	-91.39365
213282	-556	-1232	1575	-9.127815	4.390438	338.0356	0	10.32	23743	94	9	5	5	0.02	2.228123	8	10	0.08	2800	333.8564	40.92391	-91.39364
213435	-532	1355	650	-5.633739	-2.06257	335.3028	0	10.32	23304	89	10	5	5	0.02	2.337968	8	10	0.08	2800	333.3531	40.92391	-91.39364
213583	485	-2726	-79	-8.464893	2.434695	333.9073	0	11.34	24396	104	20	5	5	0.02	2.421847	8	10	0.08	2800	330.3912	40.92391	-91.39364
213658	1111	1414	129	-7.275429	2.596405	333.5541	0	11.34	23758	92	15	5	5	0.02	2.475109	8	10	0.08	2800	329.6078	40.92391	-91.39364
213809	-2641	-414	-704	-6.315475	-1.327707	332.8542	0	11.34	23758	96	12	5	5	0.02	2.544729	8	10	0.08	2800	330.4771	40.92391	-91.39364
213910	3194	694	-384	-5.98917	0.6456729	333.6494	0	11.34	24392	97	12	5	5	0.02	2.616046	8	10	0.08	2800	329.8919	40.92391	-91.39364
213960	-825	733	-231	-4.069295	-0.4348902	333.6866	0	11.34	23747	98	12	5	5	0.02	2.638402	8	10	0.08	2800	333.4596	40.92391	-91.39364
214164	2039	513	199	-8.092412	3.371007	333.5795	0	11.34	23762	88	20	5	5	0.02	2.720257	8	10	0.08	2800	332.6905	40.92391	-91.39364
214262	1522	2372	210	-6.842218	2.342029	333.5649	0	11.34	24413	88	19	5	5	0.02	2.760093	8	10	0.08	2800	332.4708	40.92391	-91.39364
214411	-913	-2114	-2091	-8.039169	3.052948	335.809	0	11.34	24555	83	41	5	5	0.02	2.81039	8	10	0.08	2800	334.0555	40.92392	-91.39364
214570	734	2136	-1562	-4.942267	3.233521	338.1544	0	11	23730	76	32	5	5	0.02	2.846264	8	10	0.08	2800	336.8084	40.92392	-91.39365
214745	-662	-331	770	-4.859224	1.467246	338.3988	0	11	23708	86	33	5	5	0.02	2.889985	8	10	0.08	2800	340.785	40.92392	-91.39365
214814	1402	-435	725	-5.843951	1.959575	338.2832	0	11	23917	82	48	5	5	0.02	2.900029	8	10	0.08	2800	339.303	40.92392	-91.39365
214873	-947	-1341	-86	-4.656895	2.529139	338.3614	0	11	23927	83	50	5	5	0.02	2.918142	8	10	0.08	2800	338.884	40.92392	-91.39365
215083	928	638	-489	-4.276496	2.296412	337.7488	0	11	24565	59	36	5	5	0.02	2.937781	8	10	0.08	2800	337.3441	40.92392	-91.39365
215122	-1011	-584	846	-4.158561	2.112615	337.4676	0	11	23104	55	36	5	5	0.02	2.942808	8	10	0.08	2800	337.3441	40.92392	-91.39365
215229	591	588	1000	-7.378382	4.366201	336.8956	0	11	23753	64	41	5	5	0.02	2.950586	8	10	0.08	2800	333.7434	40.92392	-91.39365
215286	3082	1402	1072	-6.705972	3.874452	336.5961	0	11	23293	59	44	5	5	0.02	2.948911	8	10	0.08	2800	335.6871	40.92392	-91.39365
215410	-1239	262	722	-4.094067	1.121866	335.3073	0	11.06	23892	53	47	5	5	0.02	2.947988	8	10	0.08	2800	333.1939	40.92392	-91.39365
215484	1490	-1529	1711	-5.150913	3.287177	334.0912	0	11.06	24389	57	44	5	5	0.02	2.945926	8	10	0.08	2800	332.2945	40.92392	-91.39365
215569	1665	587	1511	-4.25312	3.453124	332.9123	0	11.06	23756	56	45	5	5	0.02	2.946262	8	10	0.08	2800	331.0798	40.92392	-91.39365
215710	-1781	518	1003	-4.416418	2.319683	331.9525	0	11.06	23147	59	43	5	5	0.02	2.9433	8	10	0.08	2800	330.58	40.92392	-91.39365
215863	1870	1015	-886	-4.769825	3.050128	333.5459	0	11.06	23919	49	36	5	5	0.02	2.940334	8	10	0.08	2800	330.8855	40.92392	-91.39365
215915	2334	366	-328	-3.311954	2.376776	333.879	0	11.06	23751	47	37	5	5	0.02	2.940562	8	10	0.08	2800	331.9909	40.92392	-91.39365
216014	-467	-1263	-562	-4.040254	4.237006	334.9954	0	11.06	24555	49	41	5	5	0.02	2.945794	8	10	0.08	2800	332.6396	40.92392	-91.39365
216119	-1088	199	-1515	-3.49473	3.196834	336.5641	0	11.06	23907	46	41	5	5	0.02	2.954117	8	10	0.08	2800	333.2031	40.92392	-91.39365
216220	-875	-1241	-150	-5.189979	3.851923	337.308	0	11.06	23948	55	38	5	5	0.02	2.968819	8	10	0.08	2800	334.182	40.92392	-91.39365
216296	879	831	-1612	-4.960609	5.477412	338.8594	0	11.11	23750	59	39	5	5	0.02	2.976328	8	10	0.08	2800	334.9799	40.92392	-91.39365
216394	-1053	601	-155	-6.061193	3.879713	338.8687	0	11.11	23902	52	41	5	5	0.02	2.976798	8	10	0.08	2800	334.632	40.92392	-91.39365
216489	2510	-471	720	-4.585569	3.735748	338.7972	0	11.11	23715	50	42	5	5	0.02	2.965217	8	10	0.08	2800	335.5434	40.92392	-91.39365
216645	83	1187	-500	-2.732291	1.846851	337.6259	0	11.11	23764	45	27	5	5	0.02	2.950832	8	10	0.08	2800	335.3286	40.92392	-91.39365
216803	-656	-152	-591	-3.223997	0.3311425	337.0474	0	11.11	23913	47	30	5	5	0.02	2.950336	8	10	0.08	2800	331.8798	40.92392	-91.39365
216904	-263	-1909	430	-2.26643	0.7256538	337.6514	0	11.11	23758	46	31	5	5	0.02	2.956744	8	10	0.08	2800	335.6271	40.92392	-91.39365
217029	463	297	-182	-2.619155	1.908108	337.7494	0	11.11	23916	39	19	5	5	0.02	2.971861	8	10	0.08	2800	332.1217	40.92392	-91.39365
217118	-1118	-551	-418	-3.513896	1.647977	337.8515	0	11.11	23775	47	19	5	5	0.02	2.986544	8	10	0.08	2800	333.1229	40.92392	-91.39365
217182	-1110	-1139	280	-4.987939	3.140996	338.1209	0	11.11	23748	53	29	5	5	0.02	2.990249	8	10	0.08	2800	333.2118	40.92392	-91.39365
217323	1525	2291	1024	-5.776983	2.292569	338.091	0	11	23117	47	17	5	5	0.02	3.000128	8	10	0.08	2800	333.5621	40.92392	-91.39365
217392	3574	1430	1033	-1.985478	0.06369553	337.4434	0	11	23894	46	12	5	5	0.02	3.015976	8	10	0.08	2800	332.7335	40.92391	-91.39365
217481	-947	347	297	-0.8846521	-0.8243717	336.7343	0	11	23890	38	20	5	5	0.02	3.028474	8	10	0.08	2800	334.1115	40.92391	-91.39365
217706	433	1061	1034	-3.91164	1.227439	335.7438	0	11	24368	44	12	5	5	0.02	3.067359	8	10	0.08	2800	327.4468	40.92391	-91.39365
217925	2380	721	-1448	-5.585464	3.186339	337.1609	0	11	23890	47	25	5	5	0.02	3.101067	8	10	0.08	2800	328.9949	40.92391	-91.39365
218045	566	697	-446	-3.372308	1.496446	336.9956	0	11	24393	62	6	5	5	0.02	3.107753	8	10	0.08	2800	329.6016	40.92391	-91.39365
218197	-31	1060	52	-4.650232	1.921785	335.5641	0	11.17	24549	72	-10	5	5	0.02	3.112865	8	10	0.08	2800	329.2246	40.92391	-91.39365
218337	729	-1390	-194	-5.694387	1.538376	334.0592	0	11.17	23741	67	15	5	5	0.02	3.129625	8	10	0.08	2800	327.391	40.92391	-91.39365
218436	353	487	1041	-5.723686	2.309249	333.2683	0	11.17	23753	59	-2	5	5	0.02	3.15063	8	10	0.08	2800	326.5885	40.92391	-91.39365
218495	505	1021	1192	-5.997153	1.314121	332.5927	0	11.17	23728	58	-2	5	5	0.02	3.15336	8	10	0.08	2800	326.315	40.92391	-91.39365
218737	-2580	62	-468	-6.310645	-0.913493	331.0602	0	11.17	23923	70	8	5	5	0.02	3.176422	8	10	0.08	2800	324.2612	40.92391	-91.39365
218896	665	758	-1224	-4.772323	1.049405	331.6741	0	11.17	23133	66	5	5	5	0.02	3.184904	8	10	0.08	2800	325.5661	40.92391	-91.39365
219153	831	804	-958	-3.985064	0.4251834	333.2443	0	11.06	23777	77	7	5	5	0.02	3.176153	8	10	0.08	2800	327.8818	40.92391	-91.39365
219293	-307	-669	-108	-5.083666	-0.03209677	334.1911	0	11.06	24384	60	8	5	5	0.02	3.163145	8	10	0.08	2800	330.0484	40.92391	-91.39365
219325	919	-637	-462	-5.193481	0.9157907	334.7629	0	11.06	23940	71	-8	5	5	0.02	3.160121	8	10	0.08	2800	329.5228	40.92391	-91.39365
219458	1810	2066	393	-0.6826617	-3.268873	337.5376	0	11.06	24538	75	-13	5	5	0.02	3.152917	8	10	0.08	2800	332.1927	40.92391	-91.39365
219523	-1089	135	-3364	-1.928767	-2.92906	339.0179	0	11.06	23912	67	7	5	5	0.02	3.150622	8	10	0.08	2800	335.9467	40.92391	-91.39365
219694	81	-1948	-411	-7.158422	2.62689	342.7542	0	11.06	23316	78	7	5	5	0.02	3.153109	8	10	0.08	2800	339.5127	40.92391	-91.39365
219899	748	1654	2239	-6.576143	0.7137305	343.8301	0	11.06	24378	83	29	5	5	0.02	3.158101	8	10	0.08	2800	341.2038	40.92391	-91.39365
220100	-797	1310	2290	-4.145535	0.6064535	339.9954	0	11.17	24546	99	18	5	5	0.02	3.163585	8	10	0.08	2800	336.4832	40.92391	-91.39365
220269	-1258	398	-939	-5.308224	-0.3331384	338.9528	0	11.17	23766	93	33	5	5	0.02	3.174685	8	10	0.08	2800	334.8718	40.92391	-91.39365
220357	-4351	-3199	763	-8.434606	2.19855	337.2906	0	11.17	23914	91	36	5	5	0.02	3.193583	8	10	0.08	2800	331.757	40.92391	-91.39365
220414	260	-824	619	-10.52192	4.21825	336.3375	0	11.17	23929	82	21	5	5	0.02	3.219646	8	10	0.08	2800	332.3111	40.92391	-91.39365
220529	1282	-116	1976	-7.978718	3.759107	334.8242	0	11.17	24368	76	17	5	5	0.02	3.254965	8	10	0.08	2800	331.1137	40.92391	-91.39365
220639	-282	1596	-32	-4.930125	1.698787	334.0494	0	11.17	23778	92	30	5	5	0.02	3.28338	8	10	0.08	2800	329.326	40.92391	-91.39365
220685	-1904	925	525	-5.38328	1.004202	333.7833	0	11.17	24558	93	31	5	5	0.02	3.297454	8	10	0.08	2800	329.326	40.92391	-91.39365
220762	-524	-605	-563	-6.651127	1.043349	333.833	0	11.17	23928	83	29	5	5	0.02	3.314551	8	10	0.08	2800	330.7312	40.92391	-91.39365
220971	31	-1425	-323	-6.976639	1.633135	336.931	0	11.17	23751	80	35	5	5	0.02	3.354284	8	10	0.08	2800	335.6778	40.92391	-91.39365
221135	1182	1095	201	-6.64493	5.289319	339.4222	0	11.17	23930	67	35	5	5	0.02	3.384876	8	10	0.08	2800	334.5831	40.92391	-91.39365
221230	2734	1530	699	-4.748735	2.903728	339.2369	0	11.17	23914	63	33	5	5	0.02	3.402404	8	10	0.08	2800	336.6109	40.92391	-91.39365
221272	3383	2091	851	-3.717962	2.074228	339.3272	0	11.17	23754	61	32	5	5	0.02	3.405218	8	10	0.08	2800	336.6109	40.92391	-91.39365
221383	-2631	-739	-164	-4.885542	0.7320153	339.3259	0	11.17	24398	67	35	5	5	0.02	3.421034	8	10	0.08	2800	335.3731	40.92391	-91.39365
221445	-1033	-652	257	-6.043283	1.309883	339.1884	0	11.17	23929	67	35	5	5	0.02	3.428198	8	10	0.08	2800	334.5274	40.92391	-91.39365
