time(ms)	gyro_x(deg/s)	gyro_y(deg/s)	gyro_z(deg/s)	orientation_roll(deg)	orientation_pitch(deg)	orientation_yaw(deg)	throttle	battery(V)	loop_time(uS)	pid_output_roll	pid_output_pitch	pid_output_yaw	pid_output_throttle	ultrasonic_alt	baro_alt	flight_mode	p_gain_altitude	i_gain_altitude	d_gain_altitude	compass_heading	latitude	longitude
94388	424	-457	2282	-2.844609	2.403556	345.2625	0	11.8	23119	21	61	5	5	0.02	1.989644	8	10	0.08	2800	349.2465	40.92392	-91.39367
94476	-155	-2270	314	-1.655773	3.741373	344.0624	0	11.8	23945	19	62	5	5	0.02	1.989675	8	10	0.08	2800	345.6122	40.92392	-91.39367
94580	634	2063	-699	-2.153357	4.707454	343.3814	0	11.8	23804	30	30	5	5	0.02	1.998113	8	10	0.08	2800	340.0274	40.92392	-91.39367
94687	-189	728	-376	-1.21173	2.454558	343.7374	0	11.8	23924	32	30	5	5	0.02	2.004513	8	10	0.08	2800	342.3595	40.92392	-91.39367
94830	451	-1116	235	-4.517751	2.061306	344.8561	0	11.91	23917	23	41	5	5	0.02	2.006783	8	10	0.08	2800	342.2694	40.92392	-91.39367
94938	613	-532	64	-3.688308	2.730715	345.7752	0	11.91	23742	29	26	5	5	0.02	2.008525	8	10	0.08	2800	343.1676	40.92392	-91.39367
95014	104	173	-1407	-2.919391	2.822302	346.9422	0	11.91	23126	29	22	5	5	0.02	2.009359	8	10	0.08	2800	343.8914	40.92392	-91.39367
95168	-36	-1056	-169	-2.283452	2.0453	348.7167	0	11.91	23870	22	27	5	5	0.02	2.005682	8	10	0.08	2800	347.1071	40.92392	-91.39367
95255	17	256	1205	-1.334987	2.722456	347.9533	0	11.91	23760	20	18	5	5	0.02	2.007427	8	10	0.08	2800	346.5425	40.92392	-91.39367
95346	1057	1087	-527	-0.5473405	1.803412	347.3967	0	11.91	23119	19	14	5	5	0.02	2.017252	8	10	0.08	2800	345.407	40.92392	-91.39367
95424	-58	592	503	-0.7765278	1.275685	346.7791	0	11.91	23921	17	9	5	5	0.02	2.039067	8	10	0.08	2800	346.2221	40.92392	-91.39367
95555	-2466	-1215	753	-2.533075	1.497391	346.1178	0	11.91	23742	40	17	5	5	0.02	2.062173	8	10	0.08	2800	345.6422	40.92392	-91.39368
95648	-956	126	650	-5.792546	4.243267	345.758	0	11.91	23119	50	16	5	5	0.02	2.080448	8	10	0.08	2800	340.7537	40.92392	-91.39368
95707	1768	1564	1597	-4.865757	3.522652	345.2986	0	11.8	24362	52	15	5	5	0.02	2.09301	8	10	0.08	2800	340.1667	40.92392	-91.39368
95862	-506	1214	-601	-4.096981	-0.5510391	343.7611	0	11.8	23730	72	5	5	5	0.02	2.105425	8	10	0.08	2800	343.2008	40.92392	-91.39367
96000	184	-1432	589	-6.271539	0.8825899	343.0086	0	11.8	23754	75	1	5	5	0.02	2.103457	8	10	0.08	2800	342.1496	40.92392	-91.39367
96020	3311	526	200	-5.595006	1.287171	343.1175	0	11.8	23910	75	1	5	5	0.02	2.103457	8	10	0.08	2800	341.0708	40.92392	-91.39367
96106	480	2772	237	-2.234557	-2.089727	343.1158	0	11.8	23758	62	0	5	5	0.02	2.095932	8	10	0.08	2800	341.2742	40.92392	-91.39367
96207	-2816	-1157	378	-4.491175	-2.585717	342.7722	0	11.8	24567	63	-15	5	5	0.02	2.085444	8	10	0.08	2800	342.383	40.92391	-91.39367
96314	801	-1117	-1710	-4.956101	-1.364903	343.2664	0	11.8	23920	66	-21	5	5	0.02	2.069223	8	10	0.08	2800	341.42	40.92391	-91.39367
96462	67	1787	171	-0.456319	-4.332682	346.3985	0	11.8	23756	51	-14	5	5	0.02	2.006997	8	10	0.08	2800	347.2827	40.92391	-91.39367
96516	-1483	-1235	-845	-1.166107	-4.078339	346.7375	0	11.8	23327	50	-12	5	5	0.02	1.998286	8	10	0.08	2800	347.2827	40.92391	-91.39367
96683	-929	1327	-1822	-7.597202	2.574148	350.2187	0	11.68	23902	74	0	5	5	0.02	1.941278	8	10	0.08	2800	347.8951	40.92391	-91.39367
96760	2919	1784	-2585	-5.774439	0.2601109	352.8784	0	11.68	23950	79	5	5	5	0.02	1.928553	8	10	0.08	2800	351.0152	40.92391	-91.39367
96846	-1010	-874	-1585	-4.264365	-1.121043	355.5031	0	11.68	23774	71	11	5	5	0.02	1.925898	8	10	0.08	2800	354.4691	40.92391	-91.39367
96920	-3105	-2370	-1119	-6.163736	0.4945751	356.315	0	11.68	24580	72	15	5	5	0.02	1.934773	8	10	0.08	2800	358.6708	40.92391	-91.39367
97136	-693	1746	691	-5.053897	1.552076	359.7123	0	11.68	23771	71	23	5	5	0.02	2.006336	8	10	0.08	2800	0.6264038	40.92391	-91.39367
97259	415	-2025	1232	-5.51779	2.469414	358.764	0	11.68	23757	71	23	5	5	0.02	2.053745	8	10	0.08	2800	2.192871	40.92391	-91.39367
97312	343	-863	1454	-4.492257	3.679692	357.4388	0	11.68	24369	74	11	5	5	0.02	2.087605	8	10	0.08	2800	0.6465759	40.92391	-91.39367
97443	-826	-513	1325	-5.23194	4.324118	354.9096	0	11.68	23294	78	10	5	5	0.02	2.152343	8	10	0.08	2800	357.6125	40.92391	-91.39367
97604	174	66	1988	-7.869117	4.048593	349.6616	0	11.63	23760	76	8	5	5	0.02	2.229347	8	10	0.08	2800	348.1308	40.92391	-91.39367
97685	281	807	1813	-6.968011	1.835764	346.1789	0	11.63	23886	68	6	5	5	0.02	2.251638	8	10	0.08	2800	345.7645	40.92391	-91.39367
97805	787	-584	2274	-5.870828	0.05014954	343.9278	0	11.63	23746	62	4	5	5	0.02	2.270958	8	10	0.08	2800	345.0511	40.92391	-91.39367
97850	646	-158	1932	-5.575418	0.5932881	342.0854	0	11.63	23100	73	9	5	5	0.02	2.294504	8	10	0.08	2800	341.9371	40.92391	-91.39366
97915	610	1254	536	-4.70387	-0.60581	340.4007	0	11.63	24377	74	9	5	5	0.02	2.305623	8	10	0.08	2800	338.4438	40.92391	-91.39366
98035	-964	-963	1343	-4.453284	-1.768415	337.6929	0	11.63	23958	69	14	5	5	0.02	2.314464	8	10	0.08	2800	338.0438	40.92391	-91.39366
98173	3152	2893	1302	-4.245773	-1.519733	334.9523	0	11.63	23144	74	0	5	5	0.02	2.318115	8	10	0.08	2800	332.7729	40.92391	-91.39366
98324	-1837	-2577	-146	-4.10814	-1.848236	336.3629	0	11.63	23283	74	0	5	5	0.02	2.322166	8	10	0.08	2800	334.7824	40.92391	-91.39366
98452	-4018	-2129	-482	-6.220897	-0.02463713	336.3129	0	11.8	23764	77	-1	5	5	0.02	2.310712	8	10	0.08	2800	333.4579	40.92391	-91.39366
98612	1085	2809	241	-7.919847	-0.3853997	335.8924	0	11.8	23911	76	0	5	5	0.02	2.279484	8	10	0.08	2800	330.7332	40.92391	-91.39366
98692	-838	-2075	1767	-8.927208	-1.047674	334.4497	0	11.8	23754	76	-3	5	5	0.02	2.268079	8	10	0.08	2800	332.7137	40.92391	-91.39366
98759	1939	-1085	1921	-9.094995	1.379599	333.6078	0	11.8	23161	86	-9	5	5	0.02	2.251829	8	10	0.08	2800	330.8696	40.92391	-91.39366
98880	154	421	148	-5.301812	-2.044974	332.0987	0	11.8	23708	92	-15	5	5	0.02	2.198645	8	10	0.08	2800	329.8629	40.92391	-91.39366
98960	879	-986	-2531	-3.873942	-3.146164	332.8859	0	11.8	23276	75	-5	5	5	0.02	2.190239	8	10	0.08	2800	328.8867	40.92391	-91.39366
99023	764	-1938	-1042	-3.398619	-0.7305864	334.3921	0	11.8	24583	74	-3	5	5	0.02	2.187299	8	10	0.08	2800	331.0212	40.92391	-91.39366
99093	-211	536	-1954	-5.110825	-0.766313	338.248	0	11.8	24389	71	0	5	5	0.02	2.180531	8	10	0.08	2800	334.5471	40.92391	-91.39366
99186	-1527	-693	-3724	-5.777938	0.005460835	341.2467	0	11.8	23757	94	0	5	5	0.02	2.178435	8	10	0.08	2800	337.4229	40.92391	-91.39366
99334	-1286	1291	-3349	-5.257345	-1.496676	347.0884	0	11.68	23722	80	9	5	5	0.02	2.166733	8	10	0.08	2800	338.371	40.92391	-91.39366
99379	-1286	1291	-3349	-5.257345	-1.496676	347.0884	0	11.68	23722	77	12	5	5	0.02	2.166471	8	10	0.08	2800	338.371	40.92391	-91.39366
99612	3635	2458	-678	-5.520231	4.165509	352.0554	0	11.68	24383	0	0	5	5	0.02	2.195009	3	10	0.08	2800	348.4435	40.92391	-91.39366
99701	-446	-1473	1424	-2.698415	-0.2052168	350.007	0	11.68	24383	0	0	5	5	0.02	2.205132	3	10	0.08	2800	347.9132	40.92391	-91.39366
99857	5913	-254	1247	7.429897	1.729911	347.883	0	11.68	24383	0	0	5	5	0.02	2.232843	3	10	0.08	2800	346.4987	40.92391	-91.39366
99950	-726	212	961	10.88798	1.321542	345.5755	0	11.68	24383	0	0	5	5	0.02	2.248511	3	10	0.08	2800	341.1272	40.92391	-91.39366
99978	-1427	177	1207	9.957709	1.145228	344.8021	0	11.68	24383	0	0	5	5	0.02	2.248511	3	10	0.08	2800	338.5715	40.92391	-91.39366
100122	-269	-33	906	7.874535	1.63314	342.374	0	11.68	24383	0	0	5	5	0.02	2.260313	3	10	0.08	2800	333.4965	40.92391	-91.39365
100237	-2071	-416	543	4.927887	1.649697	329.8257	0	11.68	24383	0	0	5	5	0.02	2.254885	3	10	0.08	2800	330.8275	40.92391	-91.39365
100387	966	1390	-1350	8.88469	-2.688098	330.0109	0	11.68	24383	0	0	5	5	0.02	2.236152	3	10	0.08	2800	329.442	40.92391	-91.39365
100516	861	553	-2253	11.5114	-3.684741	334.0184	0	11.68	24383	0	0	5	5	0.02	2.208349	3	10	0.08	2800	332.0234	40.92391	-91.39365
100573	-902	425	-2736	10.42262	-3.670423	335.2103	0	11.68	24383	0	0	5	5	0.02	2.202976	3	10	0.08	2800	331.1056	40.92391	-91.39365
100684	-2548	-2731	-1973	8.960132	-3.476683	337.7746	0	11.68	24383	0	0	5	5	0.02	2.180573	3	10	0.08	2800	331.7824	40.92391	-91.39365
100779	-830	-1315	207	2.861269	3.972794	338.2816	0	11.68	24383	0	0	5	5	0.02	2.178717	3	10	0.08	2800	330.4394	40.92391	-91.39365
100934	-1316	-615	-521	1.70598	4.263113	337.466	0	11.68	24383	0	0	5	5	0.02	2.211446	3	10	0.08	2800	329.1082	40.92391	-91.39364
101040	-6445	-1583	-663	-3.049013	6.435939	326.1772	0	11.68	24383	0	0	5	5	0.02	2.278572	3	10	0.08	2800	325.6541	40.92391	-91.39364
101131	-8590	2539	-2572	-15.80858	4.919849	329.8292	0	11.68	24383	0	0	5	5	0.02	2.320523	3	10	0.08	2800	326.7199	40.92391	-91.39363
101176	-3971	3806	-2476	-18.37145	3.290955	331.4041	0	11.63	24383	0	0	5	5	0.02	2.336785	3	10	0.08	2800	332.7116	40.92391	-91.39363
101281	-4232	79	-1148	-23.00408	1.744477	335.3956	0	11.63	24383	0	0	5	5	0.02	2.431807	3	10	0.08	2800	342.9057	40.92391	-91.39362
101391	378	-886	588	-27.32208	3.590551	348.7579	0	11.63	24383	0	0	5	5	0.02	2.632221	3	10	0.08	2800	353.6732	40.92391	-91.39362
101550	5840	1411	1321	-11.09166	-0.4992346	358.8277	0	11.63	24383	0	0	5	5	0.02	2.705469	3	10	0.08	2800	1.289459	40.92391	-91.39362
101599	2475	1433	2144	-8.839436	-1.424193	358.1071	0	11.63	24383	0	0	5	5	0.02	2.755446	3	10	0.08	2800	4.35498	40.92391	-91.39362
101707	4316	2838	-329	-11.72232	-2.694473	356.0042	0	11.63	24383	0	0	5	5	0.02	2.807194	3	10	0.08	2800	359.4868	40.92391	-91.39361
101819	-775	-489	-235	-3.337768	-7.096538	356.057	0	11.63	24383	0	0	5	5	0.02	2.90765	3	10	0.08	2800	2.284821	40.92391	-91.39361
101936	-8842	-9162	-1925	-15.04282	3.315598	356.3121	0	11.63	24383	0	0	5	5	0.02	2.997229	3	10	0.08	2800	359.8635	40.92391	-91.3936
102025	5172	2632	-560	-16.76998	13.48909	357.9468	0	11.63	24383	0	0	5	5	0.02	3.047288	3	10	0.08	2800	355.7533	40.92391	-91.3936
102142	4366	6166	445	-6.400843	3.99996	357.3967	0	11.68	24383	0	0	5	5	0.02	3.152607	3	10	0.08	2800	3.64856	40.92391	-91.39359
102226	-597	1924	913	-4.661182	-0.6660022	356.6747	0	11.68	24383	0	0	5	5	0.02	3.203528	3	10	0.08	2800	3.643341	40.92392	-91.39359
102331	-3879	-4084	1371	-8.723916	2.36235	354.5628	0	11.68	24383	0	0	5	5	0.02	3.301648	3	10	0.08	2800	3.924805	40.92392	-91.39359
102456	-2329	-741	1901	-14.38868	6.21841	1.873037	0	11.68	24383	0	0	5	5	0.02	3.373144	3	10	0.08	2800	359.591	40.92392	-91.39359
102541	-428	1511	2014	-16.589	3.634134	358.731	0	11.68	24383	0	0	5	5	0.02	3.407244	3	10	0.08	2800	356.4665	40.92392	-91.39359
102597	1275	1011	1042	-16.26068	1.364759	356.4992	0	11.68	24383	0	0	5	5	0.02	3.438598	3	10	0.08	2800	356.4042	40.92392	-91.39359
102719	-79	1544	666	-14.08127	-1.553865	354.9362	0	11.68	24383	0	0	5	5	0.02	3.471763	3	10	0.08	2800	357.7503	40.92392	-91.39359
102808	1559	-596	442	-13.12316	-2.595454	355.0358	0	11.68	24383	0	0	5	5	0.02	3.51466	3	10	0.08	2800	358.8021	40.92392	-91.39359
103023	3087	-1393	-1480	-5.936708	-2.722905	356.1127	0	11.68	24383	0	0	5	5	0.02	3.576544	3	10	0.08	2800	1.556427	40.92392	-91.39359
103115	-667	-1770	5	-3.265531	-0.118574	356.7897	0	11.8	24383	0	0	5	5	0.02	3.589135	3	10	0.08	2800	0.8069458	40.92392	-91.39359
103262	1593	-78	-2088	-2.446242	1.638608	358.2788	0	11.8	24383	0	0	5	5	0.02	3.630032	3	10	0.08	2800	0.526062	40.92392	-91.39359
103342	400	27	425	-0.4638862	3.128742	359.4483	0	11.8	24383	0	0	5	5	0.02	3.636563	3	10	0.08	2800	358.9388	40.92392	-91.39359
103424	456	-1886	291	-2.182331	3.710845	359.6566	0	11.8	24383	0	0	5	5	0.02	3.643083	3	10	0.08	2800	359.6939	40.92392	-91.39359
103587	322	-1545	841	-0.5286196	12.54733	359.0239	0	11.8	24383	0	0	5	5	0.02	3.651504	3	10	0.08	2800	354.3328	40.92393	-91.39359
103621	7	-463	728	-0.7031242	12.88868	358.6388	0	11.8	24383	0	0	5	5	0.02	3.653595	3	10	0.08	2800	351.3203	40.92393	-91.39359
103728	654	1333	1072	-1.181732	10.93797	357.1469	0	11.8	24383	0	0	5	5	0.02	3.647677	3	10	0.08	2800	348.0648	40.92393	-91.39359
103863	-3578	4387	180	-5.142899	2.216685	355.0013	0	11.8	24383	0	0	5	5	0.02	3.634031	3	10	0.08	2800	347.5512	40.92393	-91.39359
103976	698	980	-1900	-8.617336	-0.5238131	357.1388	0	11.57	24383	0	0	5	5	0.02	3.587239	3	10	0.08	2800	348.2807	40.92393	-91.39359
104019	323	1865	-2402	-7.354583	-1.097775	359.8434	0	11.57	24383	0	0	5	5	0.02	3.580139	3	10	0.08	2800	356.0323	40.92393	-91.39359
104199	1737	-408	-1790	-5.320598	-0.6730064	7.554586	0	11.57	24383	0	0	5	5	0.02	3.5209	3	10	0.08	2800	6.843964	40.92393	-91.39359
104375	2679	410	-2162	-0.04646487	1.626584	12.02312	0	11.57	24383	0	0	5	5	0.02	3.43383	3	10	0.08	2800	8.585846	40.92393	-91.39359
104508	2330	-1078	-2105	4.094171	3.307672	16.01843	0	11.57	24383	0	0	5	5	0.02	3.344627	3	10	0.08	2800	10.297	40.92393	-91.39359
104605	-921	795	-1841	3.976641	5.990684	24.03677	0	11.57	24383	0	0	5	5	0.02	3.309126	3	10	0.08	2800	18.39279	40.92393	-91.39359
104670	-2871	1493	-1767	1.55736	3.998943	26.24959	0	11.57	24383	0	0	5	5	0.02	3.269076	3	10	0.08	2800	22.47604	40.92393	-91.39359
104729	-2442	934	-1604	0.09251885	3.558706	26.90007	0	11.57	24383	0	0	5	5	0.02	3.260681	3	10	0.08	2800	22.47604	40.92393	-91.39359
104875	221	-1339	1598	-2.086042	6.96225	26.24142	0	11.74	24383	0	0	5	5	0.02	3.203149	3	10	0.08	2800	21.15985	40.92393	-91.3936
104993	-209	717	2286	-2.614356	6.827414	24.15697	0	11.74	24383	0	0	5	5	0.02	3.167686	3	10	0.08	2800	21.15985	40.92393	-91.3936
105068	338	1485	3391	-3.519823	3.954786	19.36148	0	11.74	24383	0	0	5	5	0.02	3.140769	3	10	0.08	2800	13.15076	40.92393	-91.3936
105144	1551	1506	3851	-2.997815	1.708748	15.28285	0	11.74	24383	0	0	5	5	0.02	3.115099	3	10	0.08	2800	8.642029	40.92393	-91.3936
105244	480	-363	3978	-1.23296	0.7546955	355.396	0	11.74	24383	0	0	5	5	0.02	3.073673	3	10	0.08	2800	358.925	40.92393	-91.3936
105398	-1197	-76	3485	-3.817415	-5.190024	343.5297	0	11.74	24383	0	0	5	5	0.02	2.993887	3	10	0.08	2800	345.821	40.92393	-91.3936
105436	-1197	-76	3485	-3.817415	-5.190024	343.5297	0	11.74	24383	0	0	5	5	0.02	2.972593	3	10	0.08	2800	345.821	40.92393	-91.3936
105552	802	-2181	708	-4.96424	-1.661064	339.049	0	11.74	24383	0	0	5	5	0.02	2.936656	3	10	0.08	2800	337.1792	40.92393	-91.3936
105695	662	-1515	1534	-1.302768	0.3713847	337.2396	0	11.74	24383	0	0	5	5	0.02	2.893779	3	10	0.08	2800	330.8554	40.92393	-91.3936
105792	-1080	-515	-936	-1.893411	1.731187	328.1738	0	11.74	24383	0	0	5	5	0.02	2.838006	3	10	0.08	2800	327.768	40.92393	-91.39361
105915	-757	1471	-922	-4.846248	0.9776026	329.2761	0	11.34	24383	0	0	5	5	0.02	2.804635	3	10	0.08	2800	331.1569	40.92393	-91.39361
105954	432	-907	-1287	-6.329912	0.7992512	331.1078	0	11.34	24383	0	0	5	5	0.02	2.799823	3	10	0.08	2800	332.1657	40.92393	-91.39361
106042	-2863	684	-445	-6.630818	1.1615	333.3148	0	11.34	24383	0	0	5	5	0.02	2.77678	3	10	0.08	2800	333.974	40.92393	-91.39361
106144	-4290	-528	-2846	-10.86189	1.100526	335.8672	0	11.34	24383	0	0	5	5	0.02	2.762465	3	10	0.08	2800	334.0647	40.92393	-91.39361
106287	571	2414	-1526	-11.38445	0.2494074	342.0424	0	11.34	24383	0	0	5	5	0.02	2.767165	3	10	0.08	2800	344.2232	40.92393	-91.39361
106420	1293	882	-2618	-9.811184	-2.602365	359.5621	0	11.34	24383	0	0	5	5	0.02	2.780819	3	10	0.08	2800	356.4988	40.92393	-91.39361
106544	2053	-940	-3933	-7.505503	0.5617844	6.831341	0	11.34	24383	0	0	5	5	0.02	2.821425	3	10	0.08	2800	9.450012	40.92393	-91.39361
106606	2669	573	-3968	-5.300903	0.6152288	8.855933	0	11.34	24383	0	0	5	5	0.02	2.840262	3	10	0.08	2800	17.79013	40.92393	-91.39361
106738	-2255	1020	-3170	-4.802498	-0.6586617	30.81203	0	11.68	24383	0	0	5	5	0.02	2.923676	3	10	0.08	2800	29.17392	40.92393	-91.39361
106770	794	1381	-2292	-5.066364	-1.240329	32.3717	0	11.68	24383	0	0	5	5	0.02	2.960642	3	10	0.08	2800	30.1098	40.92393	-91.39361
106883	2011	2525	-1075	-2.284201	-3.52555	33.9983	0	11.68	24383	0	0	5	5	0.02	3.060916	3	10	0.08	2800	30.1098	40.92393	-91.39361
106966	141	290	424	-0.5845571	-6.671426	33.91606	0	11.68	24383	0	0	5	5	0.02	3.125865	3	10	0.08	2800	33.91403	40.92393	-91.39361
107124	-367	1169	3776	-3.504228	-3.885457	27.4403	0	11.68	24383	0	0	5	5	0.02	3.336841	3	10	0.08	2800	26.52527	40.92393	-91.39362
107176	-889	991	3820	-3.874249	-4.593524	25.6407	0	11.68	24383	0	0	5	5	0.02	3.370188	3	10	0.08	2800	22.54602	40.92393	-91.39362
107252	-524	39	4247	-5.127185	-6.530954	19.39437	0	11.68	24383	0	0	5	5	0.02	3.405778	3	10	0.08	2800	14.91257	40.92393	-91.39362
107389	704	-1097	3761	-4.30679	-3.674332	357.4252	0	11.68	24383	0	0	5	5	0.02	3.572646	3	10	0.08	2800	353.8544	40.92393	-91.39362
107460	918	473	4008	-4.002045	-3.581301	355.3242	0	11.68	24383	0	0	5	5	0.02	3.639008	3	10	0.08	2800	353.8544	40.92393	-91.39362
107517	779	9	1633	-2.403911	-5.3384	349.0868	0	11.68	24383	0	0	5	5	0.02	3.682673	3	10	0.08	2800	346.6931	40.92393	-91.39362
107682	-700	-1453	241	0.3611246	-1.263484	346.3925	0	11.57	24383	0	0	5	5	0.02	3.89638	3	10	0.08	2800	340.9957	40.92393	-91.39362
107789	-4122	-2157	129	-5.04517	-0.003633404	345.5995	0	11.57	24383	0	0	5	5	0.02	3.982189	3	10	0.08	2800	338.4367	40.92393	-91.39362
107848	-1397	-307	958	-6.551721	1.4261	345.4171	0	11.57	24383	0	0	5	5	0.02	4.026889	3	10	0.08	2800	337.9703	40.92393	-91.39362
107953	853	1150	51	-3.910539	0.03989992	346.0498	0	11.57	24383	0	0	5	5	0.02	4.0829	3	10	0.08	2800	338.1042	40.92393	-91.39362
108059	-1438	-1167	54	-5.485728	0.08281288	346.1208	0	11.57	24383	0	0	5	5	0.02	4.138597	3	10	0.08	2800	339.2129	40.92393	-91.39362
108129	316	-216	-50	-6.234343	1.983008	346.2468	0	11.57	24383	0	0	5	5	0.02	4.157896	3	10	0.08	2800	337.8586	40.92393	-91.39362
108293	256	493	219	-5.567051	1.228186	346.0388	0	11.57	24383	0	0	5	5	0.02	4.194259	3	10	0.08	2800	336.7693	40.92393	-91.39362
108327	709	-296	132	-5.146831	1.454795	346.0311	0	11.57	24383	0	0	5	5	0.02	4.197262	3	10	0.08	2800	339.4123	40.92393	-91.39362
108477	1246	220	-225	-3.163798	1.12956	346.2404	0	11.57	24383	0	0	5	5	0.02	4.188453	3	10	0.08	2800	337.195	40.92393	-91.39362
108614	347	516	56	-3.095236	0.5227147	346.4317	0	11.85	24383	0	0	5	5	0.02	4.152767	3	10	0.08	2800	338.3317	40.92393	-91.39362
108672	101	846	-7	-3.12791	0.1010533	346.4802	0	11.85	24383	0	0	5	5	0.02	4.120799	3	10	0.08	2800	338.3317	40.92393	-91.39362
108724	-2042	-233	-497	-4.906192	-0.6070341	346.9981	0	11.85	24383	0	0	5	5	0.02	4.108943	3	10	0.08	2800	338.1865	40.92393	-91.39362
108831	-2953	-2071	-10	-8.633521	2.185706	347.3571	0	11.85	24383	0	0	5	5	0.02	4.038471	3	10	0.08	2800	338.6295	40.92393	-91.39361
108922	-3189	-1267	-41	-12.10353	4.137092	336.3464	0	11.85	24383	0	0	5	5	0.02	3.947218	3	10	0.08	2800	336.313	40.92393	-91.39361
109050	-1335	-2923	-596	-17.30834	6.052174	336.6296	0	11.85	24383	0	0	5	5	0.02	3.737897	3	10	0.08	2800	336.1255	40.92393	-91.39361
109140	4550	235	331	-14.6098	7.574243	336.7792	0	11.85	24383	0	0	5	5	0.02	3.693499	3	10	0.08	2800	336.6836	40.92393	-91.39361
109227	2004	2741	-17	-8.310403	0.7742668	336.0388	0	11.85	24383	0	0	5	5	0.02	3.597322	3	10	0.08	2800	338.7654	40.92393	-91.39361
109381	-923	747	-628	-3.192475	-0.6444935	335.7312	0	11.85	24383	0	0	5	5	0.02	3.51197	3	10	0.08	2800	339.9613	40.92393	-91.39361
109420	-923	747	-628	-3.192475	-0.6444935	336.0509	0	11.85	24383	0	0	5	5	0.02	3.493486	3	10	0.08	2800	339.9613	40.92393	-91.39361
109527	259	412	267	-3.201524	-1.724477	335.9021	0	10.94	24383	0	0	5	5	0.02	3.271484	3	10	0.08	2800	339.1938	40.92393	-91.39361
109617	-764	800	58	-3.402026	-2.212462	335.2609	0	10.94	24383	0	0	5	5	0.02	3.064737	3	10	0.08	2800	339.6664	40.92393	-91.39361
109723	80	736	254	-4.179011	-2.040346	335.1458	0	10.94	24383	0	0	5	5	0.02	2.916506	3	10	0.08	2800	340.9894	40.92393	-91.39361
109824	-376	663	-243	-4.331885	-2.041149	335.2756	0	10.94	24383	0	0	5	5	0.02	2.8169	3	10	0.08	2800	340.434	40.92394	-91.39361
109957	2392	1789	-3189	-0.4563354	-7.781312	338.1608	0	10.94	24383	0	0	5	5	0.02	2.719144	3	10	0.08	2800	346.1653	40.92394	-91.39361
110029	-653	-1348	-1213	-0.4999666	-7.325218	352.2186	0	10.94	24383	0	0	5	5	0.02	2.664705	3	10	0.08	2800	351.4874	40.92394	-91.39361
110132	-866	-1892	-1075	-3.468801	-3.392282	353.8911	0	10.94	24383	0	0	5	5	0.02	2.592417	3	10	0.08	2800	349.8975	40.92394	-91.3936
110212	-3656	-3417	-694	-9.427213	1.032712	356.4982	0	10.94	24383	0	0	5	5	0.02	2.553427	3	10	0.08	2800	349.986	40.92394	-91.3936
110357	364	-1065	-1267	-12.0503	5.763226	358.1823	0	11.51	24383	0	0	5	5	0.02	2.528925	3	10	0.08	2800	351.7242	40.92394	-91.3936
110470	1403	780	140	-6.111085	4.201869	359.2531	0	11.51	24383	0	0	5	5	0.02	2.505679	3	10	0.08	2800	354.5178	40.92394	-91.3936
110624	-4007	-3353	645	-9.987576	5.988496	358.8138	0	11.51	24383	0	0	5	5	0.02	2.524769	3	10	0.08	2800	355.2259	40.92394	-91.3936
110775	-1131	-2488	841	-17.56395	12.25314	356.9704	0	11.51	24383	0	0	5	5	0.02	2.574277	3	10	0.08	2800	347.924	40.92394	-91.3936
110819	6	1105	1538	-17.59443	11.25633	354.7838	0	11.51	24383	0	0	5	5	0.02	2.589074	3	10	0.08	2800	346.6704	40.92394	-91.3936
110933	-1187	-105	1253	-18.11652	9.686837	353.2874	0	11.51	24383	0	0	5	5	0.02	2.618776	3	10	0.08	2800	347.5323	40.92394	-91.3936
111045	1270	2583	271	-17.69362	8.239285	351.2323	0	11.51	24383	0	0	5	5	0.02	2.659206	3	10	0.08	2800	343.2148	40.92394	-91.3936
111163	1025	1018	524	-16.36102	4.304277	350.9233	0	11.51	24383	0	0	5	5	0.02	2.684255	3	10	0.08	2800	350.7986	40.92394	-91.3936
111241	-635	-2862	-1695	-15.24877	6.844336	351.7927	0	11.51	24383	0	0	5	5	0.02	2.7156	3	10	0.08	2800	353.1993	40.92394	-91.3936
111319	-482	-2133	-1906	-12.71596	8.333286	352.8158	0	11.8	24383	0	0	5	5	0.02	2.735999	3	10	0.08	2800	352.42	40.92394	-91.3936
111428	3022	1344	-1558	-8.769874	7.604385	357.5598	0	11.8	24383	0	0	5	5	0.02	2.754909	3	10	0.08	2800	359.508	40.92394	-91.39361
111529	769	1492	-1390	-5.605048	6.183438	359.879	0	11.8	24383	0	0	5	5	0.02	2.774687	3	10	0.08	2800	4.291412	40.92394	-91.39361
111689	1266	861	-705	-1.62238	2.432851	4.585211	0	11.8	24383	0	0	5	5	0.02	2.7941	3	10	0.08	2800	12.70279	40.92394	-91.39361
111732	195	700	684	-0.8434305	1.67254	4.462319	0	11.8	24383	0	0	5	5	0.02	2.796819	3	10	0.08	2800	12.75308	40.92394	-91.39361
111851	-58	-313	1601	-2.022577	2.068289	2.545941	0	11.8	24383	0	0	5	5	0.02	2.807094	3	10	0.08	2800	9.715912	40.92394	-91.39362
111980	64	1681	2361	-1.337116	0.893129	357.9718	0	11.8	24383	0	0	5	5	0.02	2.814589	3	10	0.08	2800	3.918274	40.92394	-91.39362
112075	-293	531	2302	-2.163345	-1.026986	353.6422	0	11.8	24383	0	0	5	5	0.02	2.818368	3	10	0.08	2800	357.2338	40.92394	-91.39362
112173	-373	-745	1989	-3.650417	-0.4917263	349.3452	0	11.8	24383	0	0	5	5	0.02	2.819568	3	10	0.08	2800	352.9213	40.92393	-91.39362
112218	328	1145	1457	-3.572567	-0.6879338	346.7621	0	11.68	24383	0	0	5	5	0.02	2.821088	3	10	0.08	2800	347.608	40.92393	-91.39362
112366	-1938	-2150	623	-4.363172	-3.902198	342.6206	0	11.68	24383	0	0	5	5	0.02	2.829966	3	10	0.08	2800	343.6686	40.92393	-91.39362
112529	-140	1514	1102	-0.8560016	0.08578692	342.838	0	11.68	24383	0	0	5	5	0.02	2.828645	3	10	0.08	2800	340.9724	40.92393	-91.39363
112641	1508	2315	-2317	-0.524632	-3.963636	343.8253	0	11.68	24383	0	0	5	5	0.02	2.814578	3	10	0.08	2800	342.386	40.92393	-91.39363
112754	-1109	-2655	-797	-0.2229304	-0.5242285	347.0696	0	11.68	24383	0	0	5	5	0.02	2.791042	3	10	0.08	2800	342.8541	40.92393	-91.39363
112824	-1063	-1267	-1528	-3.405708	3.199759	348.3694	0	11.68	24383	0	0	5	5	0.02	2.778056	3	10	0.08	2800	340.3134	40.92393	-91.39363
112994	5034	4101	-204	3.693074	-2.872575	343.671	0	11.68	24383	0	0	5	5	0.02	2.702271	3	10	0.08	2800	349.1416	40.92393	-91.39364
113160	-4409	-3724	-771	2.440777	-3.50356	346.0017	0	11.74	24383	0	0	5	5	0.02	2.641425	3	10	0.08	2800	351.4823	40.92393	-91.39365
113239	-441	244	-863	-3.899141	4.626975	346.9992	0	11.74	24383	0	0	5	5	0.02	2.591583	3	10	0.08	2800	347.1407	40.92393	-91.39365
113416	294	-1121	546	-3.009162	1.30991	344.9999	0	11.74	24383	0	0	5	5	0.02	2.503294	3	10	0.08	2800	347.117	40.92392	-91.39365
113483	453	491	764	-2.849014	2.06229	344.37	0	11.74	24383	0	0	5	5	0.02	2.450258	3	10	0.08	2800	346.1596	40.92392	-91.39365
113578	2427	2084	753	-1.247366	0.6065031	344.0898	0	11.74	24383	0	0	5	5	0.02	2.409313	3	10	0.08	2800	345.8944	40.92392	-91.39365
113674	-1131	-1068	606	-1.123065	0.957112	344.1378	0	11.74	24383	0	0	5	5	0.02	2.340033	3	10	0.08	2800	345.3507	40.92392	-91.39365
113763	-89	-6	-931	-3.568781	2.266754	344.1868	0	11.74	24383	0	0	5	5	0.02	2.29534	3	10	0.08	2800	344.95	40.92392	-91.39365
113818	1312	795	-919	-3.352634	2.637247	344.5276	0	11.74	24383	0	0	5	5	0.02	2.262797	3	10	0.08	2800	345.1206	40.92392	-91.39365
113941	-1392	1402	419	-1.613928	-0.1316709	345.3319	0	11.74	24383	0	0	5	5	0.02	2.210133	3	10	0.08	2800	347.1913	40.92392	-91.39365
114065	1065	-1023	1038	-4.439608	1.454501	345.0265	0	11.57	24383	0	0	5	5	0.02	2.18626	3	10	0.08	2800	347.7988	40.92392	-91.39365
114112	-595	-824	1226	-4.588943	1.87446	344.5399	0	11.57	24383	0	0	5	5	0.02	2.182621	3	10	0.08	2800	346.5369	40.92392	-91.39365
114250	44	97	-498	-5.207863	1.84152	343.4809	0	11.57	24383	0	0	5	5	0.02	2.165839	3	10	0.08	2800	344.5522	40.92392	-91.39365
114315	-741	-226	-1173	-4.966197	1.634718	343.4175	0	11.57	24383	0	0	5	5	0.02	2.158275	3	10	0.08	2800	345.353	40.92392	-91.39365
114465	3449	2525	897	-2.703499	-0.4607081	343.3829	0	11.57	24383	0	0	5	5	0.02	2.139427	3	10	0.08	2800	345.8171	40.92392	-91.39365
114578	-1088	-1146	-234	-2.544086	-1.864242	343.3613	0	11.57	24383	0	0	5	5	0.02	2.110992	3	10	0.08	2800	346.1165	40.92392	-91.39365
114641	-459	-2471	-411	-4.109283	0.3956767	343.2659	0	11.57	24383	0	0	5	5	0.02	2.10626	3	10	0.08	2800	345.9512	40.92392	-91.39365
114800	-157	2274	-114	-0.9112882	-0.4517087	341.4348	0	11.57	24383	0	0	5	5	0.02	2.062467	3	10	0.08	2800	344.6144	40.92392	-91.39365
114911	-2442	-1322	151	-3.107677	0.1816703	339.8789	0	11.57	24383	0	0	5	5	0.02	2.020487	3	10	0.08	2800	341.9627	40.92391	-91.39365
115013	-1618	-1002	1244	-5.236925	1.091167	338.9803	0	11.63	24383	0	0	5	5	0.02	1.981416	3	10	0.08	2800	341.0107	40.92391	-91.39365
115115	2437	733	812	-2.990882	-0.5359672	339.0906	0	11.63	24383	0	0	5	5	0.02	1.937805	3	10	0.08	2800	342.1182	40.92391	-91.39365
115293	-1244	-1207	-2020	-9.117071	1.091666	341.209	0	11.63	24383	0	0	5	5	0.02	1.889633	3	10	0.08	2800	340.9202	40.92391	-91.39365
115343	4905	2167	-2975	-7.491188	1.03414	342.3687	0	11.63	24383	0	0	5	5	0.02	1.884474	3	10	0.08	2800	340.9202	40.92391	-91.39365
115409	-983	458	-2360	-2.022957	-1.018503	346.5681	0	11.63	24383	0	0	5	5	0.02	1.872309	3	10	0.08	2800	350.8254	40.92391	-91.39365
115596	416	-1930	-3253	-12.53019	5.582012	352.1831	0	11.63	24383	0	0	5	5	0.02	1.85315	3	10	0.08	2800	352.2646	40.92391	-91.39365
115673	3957	1380	-883	-6.488254	5.152665	354.1165	0	11.63	24383	0	0	5	5	0.02	1.850857	3	10	0.08	2800	357.1453	40.92391	-91.39365
115735	2250	897	-138	-4.401294	4.515279	354.1389	0	11.63	24383	0	0	5	5	0.02	1.85384	3	10	0.08	2800	359.4717	40.92392	-91.39365
115797	1988	-360	675	-1.974653	3.997403	353.7264	0	11.63	24383	0	0	5	5	0.02	1.856513	3	10	0.08	2800	358.5943	40.92392	-91.39365
115928	-375	449	278	-2.56693	5.380822	351.9853	0	11.63	24383	0	0	5	5	0.02	1.863017	3	10	0.08	2800	352.1268	40.92392	-91.39365
116061	-428	309	2003	-0.96406	3.089295	347.4557	0	11.63	24383	0	0	5	5	0.02	1.869653	3	10	0.08	2800	349.9134	40.92392	-91.39365
116144	-1479	-923	872	-2.40141	3.66263	345.7335	0	11.63	24383	0	0	5	5	0.02	1.874985	3	10	0.08	2800	346.494	40.92392	-91.39365
116186	-1100	-706	1099	-3.064615	3.819543	344.8474	0	11.63	24383	0	0	5	5	0.02	1.879002	3	10	0.08	2800	346.494	40.92392	-91.39365
116335	188	-329	546	-3.694589	4.041559	341.3915	0	11.63	24383	0	0	5	5	0.02	1.887878	3	10	0.08	2800	340.82	40.92392	-91.39365
116429	-1715	-765	-121	-3.863995	4.42057	341.4585	0	11.63	24383	0	0	5	5	0.02	1.893808	3	10	0.08	2800	340.16	40.92392	-91.39365
116591	-5112	-1619	-1249	-12.37379	5.41674	342.8578	0	11.63	24383	0	0	5	5	0.02	1.896553	3	10	0.08	2800	340.3268	40.92392	-91.39365
116697	604	321	-726	-12.65335	6.365037	343.7575	0	11.63	24383	0	0	5	5	0.02	1.894561	3	10	0.08	2800	342.1846	40.92392	-91.39365
116760	1322	-1560	-1261	-11.34389	6.330449	343.5676	0	11.57	24383	0	0	5	5	0.02	1.897778	3	10	0.08	2800	342.7462	40.92392	-91.39365
116878	1561	1345	1047	-5.789899	7.0906	342.8622	0	11.57	24383	0	0	5	5	0.02	1.909671	3	10	0.08	2800	342.6695	40.92392	-91.39365
116981	1714	881	-158	-3.836892	5.543582	342.4569	0	11.57	24383	0	0	5	5	0.02	1.915494	3	10	0.08	2800	343.5562	40.92392	-91.39365
117096	-3003	-1041	-712	-4.231619	4.84934	342.8487	0	11.57	24383	0	0	5	5	0.02	1.915419	3	10	0.08	2800	345.0825	40.92392	-91.39365
117245	712	-98	202	-8.472282	8.099545	343.8544	0	11.57	24383	0	0	5	5	0.02	1.914282	3	10	0.08	2800	345.4651	40.92392	-91.39365
117313	-1322	254	517	-7.523227	6.381805	344.3407	0	11.57	24383	0	0	5	5	0.02	1.917966	3	10	0.08	2800	348.1797	40.92392	-91.39365
117416	-3126	-1383	-556	-10.12766	6.924519	344.4557	0	11.57	24383	0	0	5	5	0.02	1.92514	3	10	0.08	2800	348.1797	40.92392	-91.39365
117503	849	2064	403	-10.88846	6.457825	344.882	0	11.57	24383	0	0	5	5	0.02	1.930845	3	10	0.08	2800	350.9068	40.92392	-91.39365
117573	-543	1613	-77	-10.44977	4.331269	345.2532	0	11.57	24383	0	0	5	5	0.02	1.92652	3	10	0.08	2800	351.4135	40.92392	-91.39365
117629	-391	1493	-373	-10.39984	2.74098	345.5858	0	11.4	24383	0	0	5	5	0.02	1.917381	3	10	0.08	2800	353.3581	40.92392	-91.39365
117717	-229	88	-1085	-11.59995	1.172638	356.2339	0	11.4	24383	0	0	5	5	0.02	1.908625	3	10	0.08	2800	0.09732056	40.92392	-91.39365
117804	3144	-1181	249	-7.200381	1.563618	357.0471	0	11.4	24383	0	0	5	5	0.02	1.902975	3	10	0.08	2800	1.036377	40.92392	-91.39365
117907	1022	-375	209	-4.772834	2.509491	356.9522	0	11.4	24383	0	0	5	5	0.02	1.888189	3	10	0.08	2800	0.9720459	40.92391	-91.39365
117995	383	-27	868	-3.689702	-0.2255444	355.1887	0	11.4	24383	0	0	5	5	0.02	1.871583	3	10	0.08	2800	0.5992126	40.92391	-91.39365
118124	1540	1015	1038	-1.416171	-0.1648172	354.1427	0	11.4	24383	0	0	5	5	0.02	1.84991	3	10	0.08	2800	355.3065	40.92391	-91.39365
118318	1068	1476	598	-0.9164912	-2.012077	351.5403	0	11.4	23713	-11	-8	5	5	0.02	1.762818	8	10	0.08	2800	354.4103	40.92391	-91.39365
118450	-2077	-1930	1666	0.1175331	-1.345723	350.2639	0	11.4	23977	-22	-6	5	5	0.02	1.71669	8	10	0.08	2800	351.0311	40.92391	-91.39365
118563	1894	1458	-1791	5.01189	-3.074435	351.8816	0	12.36	23738	-38	-12	5	5	0.02	1.656432	8	10	0.08	2800	349.0144	40.92391	-91.39365
118737	-1822	-1018	-2516	0.9162281	-0.5540775	354.7198	0	12.36	23918	-42	-24	5	5	0.02	1.59075	8	10	0.08	2800	350.9113	40.92391	-91.39365
118816	278	497	-2876	1.035915	-0.7364901	357.0579	0	12.36	23917	-40	-13	5	5	0.02	1.567312	8	10	0.08	2800	351.8603	40.92391	-91.39365
119005	-230	-118	-1446	1.027101	-2.794258	359.8109	0	12.36	24541	-37	-24	5	5	0.02	1.513182	8	10	0.08	2800	355.0931	40.92391	-91.39365
119075	487	-553	-46	1.519498	-1.754111	359.7194	0	12.36	24386	-34	-25	5	5	0.02	1.498292	8	10	0.08	2800	355.999	40.92391	-91.39365
119161	222	-1701	532	1.584978	-0.4856795	359.0374	0	12.36	23748	-12	-12	5	5	0.02	1.471836	8	10	0.08	2800	352.7373	40.92391	-91.39365
119201	-582	-809	245	1.073389	0.3332358	358.5406	0	12.36	23939	-10	-10	5	5	0.02	1.465868	8	10	0.08	2800	352.7373	40.92391	-91.39365
119344	722	-244	1567	0.2998692	2.392095	357.4559	0	12.36	23770	-9	-5	5	5	0.02	1.460014	8	10	0.08	2800	351.0967	40.92391	-91.39365
119453	-702	1211	555	-1.534978	0.3825675	344.2681	0	11.57	24391	-6	-12	5	5	0.02	1.455885	8	10	0.08	2800	345.5545	40.92391	-91.39365
119551	837	-131	1432	2.329399	-0.7940615	342.1005	0	11.57	23764	24	0	5	5	0.02	1.458175	8	10	0.08	2800	347.0548	40.92391	-91.39365
119618	-3040	-419	828	0.6123553	-0.3477172	340.9651	0	11.57	23759	37	2	5	5	0.02	1.460878	8	10	0.08	2800	344.4624	40.92391	-91.39365
119698	-722	-810	824	-1.934803	0.4517241	340.2755	0	11.57	23911	40	-1	5	5	0.02	1.464512	8	10	0.08	2800	341.0546	40.92391	-91.39365
119841	92	-1220	-115	-1.533128	1.109776	339.6049	0	11.57	23757	26	-5	5	5	0.02	1.470078	8	10	0.08	2800	342.7838	40.92391	-91.39365
119904	2062	1111	408	-0.4178883	1.244213	339.2969	0	11.57	23738	52	-1	5	5	0.02	1.470499	8	10	0.08	2800	342.1855	40.92391	-91.39365
120050	-4245	-610	438	-4.72805	-0.9796187	338.2375	0	11.57	23743	66	-11	5	5	0.02	1.482617	8	10	0.08	2800	339.8605	40.92391	-91.39365
120135	2153	1778	1250	-6.667228	0.9106909	337.7755	0	11.57	23751	50	-15	5	5	0.02	1.489802	8	10	0.08	2800	342.2153	40.92391	-91.39365
120287	352	1765	-1109	-3.958888	-1.658792	337.5956	0	11.57	24541	76	-11	5	5	0.02	1.512168	8	10	0.08	2800	342.2566	40.92391	-91.39365
120329	811	1266	35	-3.337308	-2.567554	337.6966	0	11.57	23132	81	-11	5	5	0.02	1.519181	8	10	0.08	2800	342.9489	40.92391	-91.39365
120469	-1374	-1041	-745	-5.409374	-0.3381857	338.1044	0	11.68	23929	88	-28	5	5	0.02	1.52727	8	10	0.08	2800	343.0504	40.92391	-91.39364
120519	215	124	-229	-5.187125	-0.2318973	338.0705	0	11.68	23911	92	-34	5	5	0.02	1.533523	8	10	0.08	2800	343.5913	40.92391	-91.39364
120669	393	1956	-1966	-3.107136	-2.269907	338.4365	0	11.68	23888	93	-13	5	5	0.02	1.538276	8	10	0.08	2800	344.0154	40.92391	-91.39364
120772	-2758	-1158	-685	-5.876307	-2.523649	340.0886	0	11.68	23280	103	-6	5	5	0.02	1.550677	8	10	0.08	2800	345.856	40.92391	-91.39364
120825	-1196	-1085	172	-6.851892	-1.807086	340.3578	0	11.68	23739	101	-12	5	5	0.02	1.562775	8	10	0.08	2800	345.856	40.92391	-91.39364
120996	-2255	-1336	-193	-6.020618	-0.5283135	342.0769	0	11.68	23913	95	2	5	5	0.02	1.569069	8	10	0.08	2800	348.8805	40.92391	-91.39363
121050	-2813	-1501	342	-7.72162	0.4172083	342.0969	0	11.68	24351	95	5	5	5	0.02	1.569069	8	10	0.08	2800	348.8805	40.92391	-91.39363
121169	1646	2070	2670	-8.121711	1.878994	341.4293	0	11.68	23757	113	-3	5	5	0.02	1.55998	8	10	0.08	2800	350.5232	40.92391	-91.39363
121273	2102	406	1874	-8.618301	-2.03014	348.9482	0	11.68	23754	117	12	5	5	0.02	1.549319	8	10	0.08	2800	350.9184	40.92392	-91.39363
121328	3663	118	1180	-7.639659	-1.804045	348.4889	0	11.68	23941	120	22	5	5	0.02	1.54183	8	10	0.08	2800	350.9184	40.92392	-91.39363
121524	-2654	-634	-1445	-9.849003	2.322637	347.8613	0	11.68	24551	117	36	5	5	0.02	1.489874	8	10	0.08	2800	346.1568	40.92392	-91.39363
121643	-1441	750	-1190	-9.243309	2.948265	347.8451	0	11.68	23912	103	28	5	5	0.02	1.428829	8	10	0.08	2800	346.2586	40.92392	-91.39362
121717	-1951	-158	-1715	-9.368672	1.515366	348.5671	0	11.68	23905	95	32	5	5	0.02	1.422549	8	10	0.08	2800	346.24	40.92392	-91.39362
121847	-1008	-349	-1718	-7.725512	1.922228	351.6063	0	11.68	23750	87	41	5	5	0.02	1.395724	8	10	0.08	2800	349.6028	40.92392	-91.39362
121971	-568	1111	-2063	-2.961284	1.914861	353.6505	0	11.68	24387	81	45	5	5	0.02	1.379485	8	10	0.08	2800	353.7271	40.92392	-91.39362
122056	-1043	-937	-2014	-4.283459	1.534034	355.1271	0	11.68	23757	81	51	5	5	0.02	1.375585	8	10	0.08	2800	351.9954	40.92392	-91.39362
122165	-513	561	-711	-4.749333	2.988801	356.2869	0	11.68	23914	73	56	5	5	0.02	1.383943	8	10	0.08	2800	354.4913	40.92392	-91.39362
122218	-53	-56	920	-4.870411	2.542544	356.285	0	11.68	23750	70	57	5	5	0.02	1.386051	8	10	0.08	2800	354.4913	40.92392	-91.39362
122396	-287	-1374	1545	-7.478967	5.430809	354.2875	0	11.68	23267	63	54	5	5	0.02	1.416412	8	10	0.08	2800	350.5585	40.92392	-91.39362
122432	-717	-1261	895	-7.798796	5.839717	352.8746	0	11.68	24565	65	55	5	5	0.02	1.420237	8	10	0.08	2800	350.5611	40.92392	-91.39362
122539	-197	1136	1074	-9.228011	6.053304	350.3814	0	11.68	23716	75	40	5	5	0.02	1.429225	8	10	0.08	2800	345.9705	40.92393	-91.39362
122651	3942	1746	335	-5.600131	2.60302	348.7725	0	11.68	23902	64	32	5	5	0.02	1.440874	8	10	0.08	2800	343.8576	40.92393	-91.39362
122818	332	-976	1530	-4.454813	0.3779674	348.2098	0	11.68	23120	67	34	5	5	0.02	1.456302	8	10	0.08	2800	346.0222	40.92393	-91.39362
122856	260	-1356	851	-4.937276	1.08245	348.1098	0	11.68	23902	66	35	5	5	0.02	1.456972	8	10	0.08	2800	346.0222	40.92393	-91.39362
122913	-1002	-1731	-996	-5.474126	1.905039	348.1253	0	11.68	24378	66	35	5	5	0.02	1.456819	8	10	0.08	2800	342.5879	40.92393	-91.39362
123060	-784	2129	75	-3.691274	-0.2585224	347.1615	0	11.68	23747	57	41	5	5	0.02	1.45851	8	10	0.08	2800	342.1556	40.92393	-91.39362
123193	-974	-3051	-144	-5.438718	-0.6527008	337.2774	0	11.57	23920	77	33	5	5	0.02	1.453178	8	10	0.08	2800	343.8737	40.92393	-91.39362
123320	1176	1500	-33	-1.325974	-1.033893	339.6384	0	11.57	23280	83	40	5	5	0.02	1.442055	8	10	0.08	2800	345.4818	40.92393	-91.39362
123370	-2320	-2316	-3065	-4.236202	0.3742486	341.6452	0	11.57	23734	54	13	5	5	0.02	1.4412	8	10	0.08	2800	344.2199	40.92393	-91.39362
123476	-562	-138	-1136	-4.767444	2.116803	344.3007	0	11.57	23781	24	3	5	5	0.02	1.445441	8	10	0.08	2800	348.256	40.92393	-91.39362
123506	-95	511	-3211	-5.714192	2.469853	345.6833	0	11.57	23924	21	1	5	5	0.02	1.447273	8	10	0.08	2800	346.1379	40.92393	-91.39362
123622	2372	-844	-383	-6.666986	2.885008	349.4685	0	11.57	23304	3	-5	5	5	0.02	1.460847	8	10	0.08	2800	352.7773	40.92393	-91.39362
123750	521	1173	-995	-2.937607	4.962013	350.2236	0	11.57	23932	-12	-17	5	5	0.02	1.472255	8	10	0.08	2800	354.4601	40.92393	-91.39362
123824	908	3547	759	-2.426347	1.837096	349.7292	0	11.57	23901	-21	-22	5	5	0.02	1.501081	8	10	0.08	2800	354.5908	40.92393	-91.39362
123918	1320	1289	562	-1.687089	-0.3172483	349.3799	0	11.57	23894	-6	1	5	5	0.02	1.524796	8	10	0.08	2800	352.7056	40.92393	-91.39362
124068	86	274	522	0.5411217	0.5501786	347.0161	0	11.51	23132	-12	0	5	5	0.02	1.585229	8	10	0.08	2800	351.4567	40.92393	-91.39362
124164	195	1834	1144	1.394927	-1.230487	345.517	0	11.51	23907	37	-7	5	5	0.02	1.608559	8	10	0.08	2800	349.8589	40.92392	-91.39363
124228	-1671	-779	1348	0.3614137	-1.797844	344.1304	0	11.51	23898	27	-16	5	5	0.02	1.646811	8	10	0.08	2800	350.0912	40.92392	-91.39363
124352	-837	-1145	1905	-3.140722	1.318934	341.8628	0	11.51	23743	63	-15	5	5	0.02	1.666774	8	10	0.08	2800	346.0727	40.92392	-91.39363
124415	748	2828	155	-3.266229	-1.277493	340.093	0	11.51	23929	64	-17	5	5	0.02	1.678638	8	10	0.08	2800	342.1816	40.92392	-91.39363
124519	-1185	-248	-53	-2.859644	-4.019718	338.2381	0	11.51	23288	81	-28	5	5	0.02	1.717848	8	10	0.08	2800	342.3291	40.92392	-91.39363
124755	1666	-966	797	-5.549736	-0.647725	337.2538	0	11.51	23747	41	-18	5	5	0.02	1.76589	8	10	0.08	2800	339.2741	40.92392	-91.39363
124882	363	1194	1005	-3.765472	-1.5285	336.429	0	11.51	23723	46	-31	5	5	0.02	1.788288	8	10	0.08	2800	338.6345	40.92392	-91.39363
125028	-79	-416	-333	-2.459519	-2.006323	335.1206	0	11.57	23922	40	-31	5	5	0.02	1.789588	8	10	0.08	2800	338.6228	40.92392	-91.39363
125140	1822	2657	-1126	-1.332487	-2.807229	335.3476	0	11.57	23759	40	-34	5	5	0.02	1.777249	8	10	0.08	2800	337.0752	40.92392	-91.39363
125256	-3321	164	-1041	-3.469341	-5.502763	336.5316	0	11.57	23696	54	-38	5	5	0.02	1.75982	8	10	0.08	2800	340.3856	40.92392	-91.39363
125321	-1523	-971	-453	-7.077116	-3.363651	337.1453	0	11.57	23132	56	-40	5	5	0.02	1.74691	8	10	0.08	2800	339.8903	40.92392	-91.39363
125428	1635	2715	-3212	-1.919248	-2.292548	344.5326	0	11.57	23862	56	-42	5	5	0.02	1.724161	8	10	0.08	2800	347.4322	40.92391	-91.39363
125477	-2883	-2425	-2515	-3.693106	-2.877922	347.5044	0	11.57	23751	69	-24	5	5	0.02	1.713973	8	10	0.08	2800	350.3051	40.92391	-91.39363
125538	1340	330	-1011	-7.301063	2.422509	350.2193	0	11.57	24406	79	-15	5	5	0.02	1.715547	8	10	0.08	2800	353.4061	40.92391	-91.39363
125590	918	411	579	-4.143392	0.7842394	350.4128	0	11.57	23289	72	-8	5	5	0.02	1.713167	8	10	0.08	2800	356.9988	40.92391	-91.39363
125618	-757	-754	903	-4.688087	1.264586	349.8145	0	11.51	23916	74	-6	5	5	0.02	1.713006	8	10	0.08	2800	355.7045	40.92391	-91.39363
