time(ms)	gyro_x(deg/s)	gyro_y(deg/s)	gyro_z(deg/s)	orientation_roll(deg)	orientation_pitch(deg)	orientation_yaw(deg)	throttle	battery(V)	loop_time(uS)	pid_output_roll	pid_output_pitch	pid_output_yaw	pid_output_throttle	ultrasonic_alt	baro_alt	flight_mode	p_gain_altitude	i_gain_altitude	d_gain_altitude	compass_heading	latitude	longitude
253910	1643	2199	101	-4.464212	3.636527	323.8719	0	11.11	23761	72	47	5	5	0.02	3.844621	8	10	0.08	2800	321.7846	40.92392	-91.39365
254062	-7	1138	-91	-4.072876	1.321302	325.2777	0	10.72	23940	63	44	5	5	0.02	3.816542	8	10	0.08	2800	326.1819	40.92392	-91.39365
254149	696	-204	388	-3.24161	1.974629	326.4073	0	10.72	24545	59	42	5	5	0.02	3.785284	8	10	0.08	2800	327.5682	40.92392	-91.39365
254217	-14	78	-982	-3.152505	2.315236	326.7738	0	10.72	23917	65	32	5	5	0.02	3.762924	8	10	0.08	2800	327.7777	40.92392	-91.39365
254365	-3231	-1789	-2	-8.719386	2.675411	326.0939	0	10.72	23907	72	39	5	5	0.02	3.718042	8	10	0.08	2800	326.5453	40.92392	-91.39365
254436	1052	-1018	2123	-9.080771	4.992864	325.5817	0	10.72	23760	73	42	5	5	0.02	3.692348	8	10	0.08	2800	324.3918	40.92392	-91.39365
254548	2977	428	2047	-6.643805	4.611839	324.9456	0	10.72	23132	78	47	5	5	0.02	3.647393	8	10	0.08	2800	324.7509	40.92392	-91.39365
254615	788	1227	-594	-4.768838	3.887516	324.4184	0	10.72	24384	76	19	5	5	0.02	3.632348	8	10	0.08	2800	323.4177	40.92392	-91.39365
254760	-1926	-799	1329	-6.66548	2.323368	322.8174	0	10.72	23736	77	6	5	5	0.02	3.594403	8	10	0.08	2800	323.7733	40.92392	-91.39365
254825	1305	244	-294	-7.174301	2.794627	321.7492	0	10.72	24533	74	32	5	5	0.02	3.588768	8	10	0.08	2800	321.5137	40.92392	-91.39365
254938	-985	-70	1761	-4.014881	1.29969	320.7076	0	10.89	23902	77	15	5	5	0.02	3.554127	8	10	0.08	2800	320.7048	40.92392	-91.39365
255012	-975	665	1726	-4.869349	0.9948999	320.628	0	10.89	23756	79	11	5	5	0.02	3.523263	8	10	0.08	2800	320.7048	40.92392	-91.39365
255190	522	-977	-1020	-5.102087	0.8788911	319.9577	0	10.89	23753	69	20	5	5	0.02	3.467978	8	10	0.08	2800	319.4789	40.92392	-91.39365
255284	-1227	-16	-1868	-3.256325	0.6148311	320.9892	0	10.89	24353	76	25	5	5	0.02	3.44255	8	10	0.08	2800	318.5253	40.92392	-91.39365
255366	-1493	171	-1550	-5.636253	1.128071	322.4258	0	10.89	23310	81	13	5	5	0.02	3.41085	8	10	0.08	2800	320.4459	40.92392	-91.39365
255417	311	1265	-2047	-5.53283	0.4561916	323.0509	0	10.89	23728	83	12	5	5	0.02	3.399343	8	10	0.08	2800	322.3276	40.92392	-91.39365
255522	-2012	-449	-486	-5.20855	0.9215318	324.9187	0	10.89	23746	61	14	5	5	0.02	3.361985	8	10	0.08	2800	324.607	40.92392	-91.39365
255658	2005	-1353	1315	-6.108496	2.238316	325.3767	0	10.89	24428	0	0	5	5	0.02	3.334474	3	10	0.08	2800	325.6241	40.92392	-91.39365
255765	449	-106	-391	-1.120636	2.468656	325.1457	0	10.89	24428	0	0	5	5	0.02	3.30048	3	10	0.08	2800	325.6221	40.92392	-91.39365
255856	-781	180	176	-3.401635	3.055706	324.7683	0	10.77	24428	0	0	5	5	0.02	3.263434	3	10	0.08	2800	324.1666	40.92392	-91.39365
255968	402	3803	-876	-1.733422	-1.006988	325.5926	0	10.77	24428	0	0	5	5	0.02	3.211181	3	10	0.08	2800	325.0971	40.92392	-91.39365
256035	-4135	1190	-201	-4.071007	-3.774906	325.6577	0	10.77	24428	0	0	5	5	0.02	3.201134	3	10	0.08	2800	326.9831	40.92392	-91.39365
256136	-3138	-2714	-363	-11.03933	-1.893995	325.8582	0	10.77	24428	0	0	5	5	0.02	3.162061	3	10	0.08	2800	327.1544	40.92392	-91.39365
256322	-1001	-1470	-83	-11.49687	-2.443393	325.5686	0	10.77	24428	0	0	5	5	0.02	3.107126	3	10	0.08	2800	329.7059	40.92392	-91.39365
256457	500	-272	-567	-13.45503	1.548161	325.2773	0	10.77	24428	0	0	5	5	0.02	3.070931	3	10	0.08	2800	326.6896	40.92392	-91.39365
256578	466	990	-280	-11.61037	-1.999815	325.7518	0	10.77	24428	0	0	5	5	0.02	3.017294	3	10	0.08	2800	328.7281	40.92392	-91.39365
256680	2413	486	-2268	-9.99107	-2.21116	327.0357	0	10.77	24428	0	0	5	5	0.02	2.970752	3	10	0.08	2800	330.7608	40.92391	-91.39365
256800	1261	-558	-2802	-4.987248	-1.022634	330.9713	0	10.94	24428	0	0	5	5	0.02	2.899788	3	10	0.08	2800	334.4258	40.92391	-91.39365
256888	1246	373	-4471	-5.040587	-0.3411736	334.5948	0	10.94	24428	0	0	5	5	0.02	2.859938	3	10	0.08	2800	334.4761	40.92391	-91.39365
256925	1572	1264	-4124	-2.710831	-1.163453	341.8435	0	10.94	24428	0	0	5	5	0.02	2.845926	3	10	0.08	2800	343.132	40.92391	-91.39365
257088	-1837	-1353	-7442	-1.505771	-2.015437	354.3972	0	10.94	24428	0	0	5	5	0.02	2.728363	3	10	0.08	2800	357.8785	40.92391	-91.39365
257145	-549	-220	-6291	-1.558202	-1.561139	357.7489	0	10.94	24428	0	0	5	5	0.02	2.668081	3	10	0.08	2800	6.767334	40.92391	-91.39365
257235	-1277	52	-3257	-3.081845	-1.48877	16.68338	0	10.94	24428	0	0	5	5	0.02	2.485434	3	10	0.08	2800	14.29678	40.92391	-91.39365
257367	5416	3163	-4020	-0.3708739	0.4155947	24.4959	0	10.94	24428	0	0	5	5	0.02	2.4314	3	10	0.08	2800	24.55838	40.92391	-91.39365
257449	-376	-828	-2325	4.879332	-1.616922	29.39728	0	10.94	24428	0	0	5	5	0.02	2.240435	3	10	0.08	2800	30.68991	40.92391	-91.39365
257548	-3005	-2322	-421	2.418585	-0.3692669	30.69927	0	10.94	24428	0	0	5	5	0.02	2.172518	3	10	0.08	2800	32.81339	40.92391	-91.39365
257727	1152	236	2828	-3.528025	3.28894	26.71713	0	10.83	24428	0	0	5	5	0.02	2.030272	3	10	0.08	2800	29.43719	40.92391	-91.39365
257786	1302	611	2977	-3.332121	3.019661	25.18014	0	10.83	24428	0	0	5	5	0.02	1.874046	3	10	0.08	2800	24.3591	40.92391	-91.39365
257894	752	1026	3455	-2.842501	0.9644433	18.09443	0	10.83	24428	0	0	5	5	0.02	1.776612	3	10	0.08	2800	18.76462	40.92391	-91.39365
257998	1451	-234	2342	-1.729381	-0.2079495	12.26469	0	10.83	24428	0	0	5	5	0.02	1.740265	3	10	0.08	2800	9.639923	40.92391	-91.39365
258126	1625	195	3549	-0.1761388	-1.317654	4.824345	0	10.83	24428	0	0	5	5	0.02	1.582018	3	10	0.08	2800	357.3129	40.92391	-91.39365
258165	787	73	3839	0.06947534	-1.341653	3.058135	0	10.83	24428	0	0	5	5	0.02	1.560496	3	10	0.08	2800	357.3129	40.92391	-91.39365
258236	-549	-418	607	-1.167068	-0.6475009	0.1806364	0	10.83	24428	0	0	5	5	0.02	1.497487	3	10	0.08	2800	352.8611	40.92391	-91.39365
258403	1325	9	748	-1.020442	-0.9390596	344.1219	0	10.83	24428	0	0	5	5	0.02	1.383098	3	10	0.08	2800	344.0322	40.92391	-91.39365
258482	90	2582	-853	-1.508159	-0.9649051	343.5457	0	10.83	24428	0	0	5	5	0.02	1.29537	3	10	0.08	2800	340.421	40.92391	-91.39365
258538	1090	541	-2555	-0.8004765	-2.356576	344.9632	0	10.83	24428	0	0	5	5	0.02	1.281864	3	10	0.08	2800	341.9873	40.92391	-91.39365
258648	-891	-2643	-118	-0.6635148	-0.7860769	346.3652	0	10.66	24428	0	0	5	5	0.02	1.23216	3	10	0.08	2800	344.0307	40.92391	-91.39365
258753	-278	1302	368	-1.800499	0.6374856	347.92	0	10.66	24428	0	0	5	5	0.02	1.169944	3	10	0.08	2800	346.9444	40.92391	-91.39365
258945	1279	2144	926	-4.981657	4.357135	347.1929	0	10.66	24428	0	0	5	5	0.02	1.106937	3	10	0.08	2800	342.0349	40.92391	-91.39365
258977	563	2956	-330	-4.930681	3.142103	347.2487	0	10.66	24428	0	0	5	5	0.02	1.097229	3	10	0.08	2800	342.0349	40.92391	-91.39365
259044	-1907	1708	-667	-5.472062	0.4363666	347.8452	0	10.66	24428	0	0	5	5	0.02	1.070326	3	10	0.08	2800	343.7129	40.92391	-91.39365
259211	1133	385	-101	-8.210217	2.587942	348.9111	0	10.66	24428	0	0	5	5	0.02	1.006957	3	10	0.08	2800	348.0336	40.92391	-91.39365
259312	-655	809	-169	-7.570405	1.720328	349.6743	0	10.66	24428	0	0	5	5	0.02	0.9893193	3	10	0.08	2800	349.826	40.92391	-91.39365
259337	-655	809	-169	-7.570405	1.720328	349.6743	0	10.66	24428	0	0	5	5	0.02	0.9781622	3	10	0.08	2800	349.826	40.92391	-91.39365
259486	2402	2450	416	-2.202114	-0.7554301	351.3665	0	10.72	24428	0	0	5	5	0.02	0.9318877	3	10	0.08	2800	355.1691	40.92391	-91.39365
259544	-1418	391	-195	-1.267069	-3.453291	351.7122	0	10.72	24428	0	0	5	5	0.02	0.9250378	3	10	0.08	2800	354.7083	40.92391	-91.39365
259648	-465	-321	117	-2.616767	-3.184636	352.1851	0	10.72	24428	0	0	5	5	0.02	0.887956	3	10	0.08	2800	357.4881	40.92391	-91.39365
259806	-996	-87	-712	-2.614701	-3.296271	353.02	0	10.72	24428	0	0	5	5	0.02	0.8484151	3	10	0.08	2800	356.4827	40.92391	-91.39365
259920	-3656	-1874	-210	-7.842469	-1.39285	352.8634	0	10.72	24428	0	0	5	5	0.02	0.8199267	3	10	0.08	2800	357.4231	40.92391	-91.39365
259962	1835	492	635	-8.426521	-0.1299881	353.4518	0	10.72	24428	0	0	5	5	0.02	0.795972	3	10	0.08	2800	356.0187	40.92391	-91.39365
260095	-2272	-19	-139	-8.549891	-2.112494	353.6955	0	10.72	24428	0	0	5	5	0.02	0.7431803	3	10	0.08	2800	358.7746	40.92392	-91.39365
260209	-1365	-1318	-714	-12.22604	1.887732	353.7209	0	10.72	24428	0	0	5	5	0.02	0.7012877	3	10	0.08	2800	1.161346	40.92392	-91.39365
260233	-1365	-1318	-714	-12.22604	1.887732	353.7209	0	10.72	24428	0	0	5	5	0.02	0.6789469	3	10	0.08	2800	1.161346	40.92392	-91.39365
260417	2511	990	239	-3.8145	-3.714502	3.915934	0	11	24428	0	0	5	5	0.02	0.6005239	3	10	0.08	2800	2.497833	40.92392	-91.39365
260509	753	-1412	132	-3.322165	-1.404822	4.517197	0	11	24428	0	0	5	5	0.02	0.5454385	3	10	0.08	2800	2.435577	40.92392	-91.39365
260581	400	-1694	691	-2.816423	-0.01898994	4.093092	0	11	24428	0	0	5	5	0.02	0.5256251	3	10	0.08	2800	1.521454	40.92392	-91.39365
260646	-380	1493	3120	-2.705916	-0.402152	2.211216	0	11	24428	0	0	5	5	0.02	0.4945942	3	10	0.08	2800	356.5051	40.92392	-91.39365
260771	968	-1927	3246	-3.28036	-1.284303	359.3877	0	11	24428	0	0	5	5	0.02	0.4366772	3	10	0.08	2800	357.255	40.92392	-91.39365
260851	-1488	-488	1163	-3.235898	1.40062	355.6469	0	11	24428	0	0	5	5	0.02	0.4069561	3	10	0.08	2800	349.7927	40.92392	-91.39365
260998	-1973	378	1584	-5.296129	-1.220533	348.6421	0	11	24428	0	0	5	5	0.02	0.3329795	3	10	0.08	2800	344.2809	40.92392	-91.39365
261024	-1973	378	1584	-5.296129	-1.220533	348.6421	0	11	24428	0	0	5	5	0.02	0.3252316	3	10	0.08	2800	344.2809	40.92392	-91.39365
261162	2457	-295	772	-1.597652	-0.901877	344.1881	0	11	24428	0	0	5	5	0.02	0.2927953	3	10	0.08	2800	336.5667	40.92392	-91.39365
261231	-3067	-1334	429	-2.026789	1.11582	342.8868	0	11	24428	0	0	5	5	0.02	0.2723595	3	10	0.08	2800	334.3275	40.92392	-91.39365
261351	-2584	-1418	-55	-5.863057	2.203333	327.6888	0	10.38	24428	0	0	5	5	0.02	0.2298722	3	10	0.08	2800	329.5819	40.92393	-91.39365
261496	1748	1219	-944	-0.9133074	1.671404	328.6851	0	10.38	24428	0	0	5	5	0.02	0.2023063	3	10	0.08	2800	330.8356	40.92393	-91.39365
261599	-2031	-237	-1307	0.455793	0.7084419	329.8982	0	10.38	24428	0	0	5	5	0.02	0.1591066	3	10	0.08	2800	331.8294	40.92393	-91.39365
261700	556	1070	-539	-0.3258821	0.7479364	331.0189	0	10.38	24428	0	0	5	5	0.02	0.1522926	3	10	0.08	2800	331.0901	40.92393	-91.39365
261786	-2291	1295	50	-2.357198	-2.208996	332.1666	0	10.38	24428	0	0	5	5	0.02	0.139211	3	10	0.08	2800	332.8668	40.92393	-91.39365
261863	-5034	-320	-1934	-6.809419	-2.641977	332.8569	0	10.38	24428	0	0	5	5	0.02	0.1312453	3	10	0.08	2800	332.9147	40.92393	-91.39365
261974	-1576	1249	-1554	-12.77124	-1.264332	334.6891	0	10.38	24428	0	0	5	5	0.02	0.1128743	3	10	0.08	2800	336.0425	40.92393	-91.39365
262035	-418	1044	-984	-12.57873	-2.159073	335.1038	0	10.38	24428	0	0	5	5	0.02	0.1029355	3	10	0.08	2800	336.0425	40.92393	-91.39365
262110	1825	-579	-1522	-10.9906	-2.979398	336.5133	0	10.38	24428	0	0	5	5	0.02	0.09914792	3	10	0.08	2800	342.0957	40.92393	-91.39365
262215	295	665	-1750	-5.846313	-1.807913	339.6442	0	10.6	24428	0	0	5	5	0.02	0.07240266	3	10	0.08	2800	343.1217	40.92393	-91.39365
262343	19	-729	-3329	-4.71283	-2.222867	342.9467	0	10.6	24428	0	0	5	5	0.02	0.04831621	3	10	0.08	2800	349.2011	40.92393	-91.39365
262405	-1838	-2308	-1516	-5.17376	-1.186468	344.3771	0	10.6	24428	0	0	5	5	0.02	0.02965154	3	10	0.08	2800	349.2011	40.92393	-91.39365
262572	289	-821	-1099	-5.646737	1.42093	349.4243	0	10.6	24428	0	0	5	5	0.02	-0.002222075	3	10	0.08	2800	353.4067	40.92393	-91.39365
262690	988	289	-370	-4.229153	1.015318	351.7111	0	10.6	24428	0	0	5	5	0.02	-0.02769755	3	10	0.08	2800	355.7628	40.92393	-91.39365
262745	1062	397	-604	-3.572023	0.8737975	351.973	0	10.6	24428	0	0	5	5	0.02	-0.03846773	3	10	0.08	2800	359.744	40.92393	-91.39365
262840	493	-871	825	-2.958293	2.161104	352.17	0	10.6	24428	0	0	5	5	0.02	-0.06007996	3	10	0.08	2800	359.1218	40.92394	-91.39365
263004	495	1349	1319	1.297414	0.07729111	351.1783	0	10.6	24428	0	0	5	5	0.02	-0.07647536	3	10	0.08	2800	356.6019	40.92394	-91.39365
263170	-182	-336	-167	-1.759423	-0.7018899	350.0568	0	10.6	24428	0	0	5	5	0.02	-0.1083222	3	10	0.08	2800	353.2995	40.92394	-91.39365
263257	110	930	143	0.9287829	-2.417733	348.7141	0	10.6	24428	0	0	5	5	0.02	-0.1354474	3	10	0.08	2800	354.9222	40.92394	-91.39365
263416	-2399	-2683	871	-2.497978	2.43464	345.8827	0	10.6	24428	0	0	5	5	0.02	-0.1653642	3	10	0.08	2800	344.8388	40.92394	-91.39365
263507	2552	761	1619	-1.019261	1.971124	344.8536	0	10.6	24428	0	0	5	5	0.02	-0.1749327	3	10	0.08	2800	345.934	40.92394	-91.39365
263612	-3091	443	781	-0.1507277	-0.08891382	343.4222	0	10.6	24428	0	0	5	5	0.02	-0.1916128	3	10	0.08	2800	343.9407	40.92395	-91.39365
263673	-3657	240	499	-7.882378	-4.594658	341.8833	0	10.6	24428	0	0	5	5	0.02	-0.2019515	3	10	0.08	2800	341.7368	40.92395	-91.39365
263693	57	-1301	1722	-9.227881	-3.952258	341.1931	0	10.6	24428	0	0	5	5	0.02	-0.2289061	3	10	0.08	2800	344.7348	40.92395	-91.39365
263741	80	-1987	-670	-7.330474	-0.8706425	340.5407	0	10.6	24428	0	0	5	5	0.02	-0.2404233	3	10	0.08	2800	342.8454	40.92395	-91.39365
263791	2158	501	-1141	-4.319245	0.01459036	341.4363	0	10.6	24428	0	0	5	5	0.02	-0.2840275	3	10	0.08	2800	345.2013	40.92395	-91.39365
263861	99	-229	-650	-3.156505	-0.3749885	341.8775	0	10.72	24428	0	0	5	5	0.02	-0.3103877	3	10	0.08	2800	345.2013	40.92395	-91.39365
263949	218	-1443	-384	-2.749645	0.528309	342.3004	0	10.72	24428	0	0	5	5	0.02	-0.3547039	3	10	0.08	2800	346.3458	40.92395	-91.39365
264084	13144	9594	-8808	-0.07413919	-5.058257	345.3994	0	10.72	24428	0	0	5	5	0.02	-0.3988448	3	10	0.08	2800	346.3043	40.92395	-91.39365
264161	90	9603	1027	3.132702	-16.71891	5.873475	0	10.72	24428	0	0	5	5	0.02	-0.444972	3	10	0.08	2800	6.093506	40.92395	-91.39365
264240	81	1911	323	2.665118	-27.31472	5.26921	0	10.72	24428	0	0	5	5	0.02	-0.4628711	3	10	0.08	2800	12.03207	40.92395	-91.39365
264395	-523	-10557	-615	2.251988	-19.28481	5.773121	0	10.72	24428	0	0	5	5	0.02	-0.5263792	3	10	0.08	2800	12.76501	40.92395	-91.39365
264497	-4984	-4704	1612	-5.490041	-0.7907618	5.49091	0	10.72	24428	0	0	5	5	0.02	-0.5625443	3	10	0.08	2800	4.438812	40.92395	-91.39365
264529	2848	2840	-808	-5.631303	-0.41682	352.0415	0	10.72	24428	0	0	5	5	0.02	-0.5709792	3	10	0.08	2800	352.0598	40.92395	-91.39365
264708	-1454	-2278	-411	-0.5992514	-6.775857	352.1504	0	10.72	24428	0	0	5	5	0.02	-0.6183376	3	10	0.08	2800	357.864	40.92395	-91.39365
264743	-767	-926	-56	-2.054618	-4.874447	352.2341	0	10.72	24428	0	0	5	5	0.02	-0.6291052	3	10	0.08	2800	356.0516	40.92395	-91.39365
264839	247	377	131	-2.321139	-4.510043	352.2069	0	10.72	24428	0	0	5	5	0.02	-0.6556901	3	10	0.08	2800	355.678	40.92395	-91.39365
264980	-182	-212	-60	-1.121409	-5.906035	352.1319	0	10.72	24428	0	0	5	5	0.02	-0.6784021	3	10	0.08	2800	355.0535	40.92395	-91.39365
265096	-52	-79	6	-1.331673	-5.554606	352.166	0	10.72	24428	0	0	5	5	0.02	-0.6990071	3	10	0.08	2800	355.6351	40.92395	-91.39365
265166	-14	-34	-3	-1.250129	-5.583076	352.151	0	10.72	24428	0	0	5	5	0.02	-0.7133124	3	10	0.08	2800	354.4597	40.92395	-91.39365
265303	-10	23	14	-1.307537	-5.435209	352.1587	0	10.72	24428	0	0	5	5	0.02	-0.7442746	3	10	0.08	2800	353.7814	40.92395	-91.39365
265428	-24	-13	-1	-1.346736	-5.267706	352.1584	0	10.72	24428	0	0	5	5	0.02	-0.7561528	3	10	0.08	2800	355.7168	40.92395	-91.39365
265527	-5	-14	-1	-1.360889	-5.211061	352.1606	0	10.72	24428	0	0	5	5	0.02	-0.7575349	3	10	0.08	2800	354.5356	40.92395	-91.39365
265572	18	-13	13	-1.385552	-5.11907	352.1605	0	10.72	24428	0	0	5	5	0.02	-0.7570276	3	10	0.08	2800	355.6917	40.92395	-91.39365
265640	-11	-12	16	-1.39272	-5.093063	352.1632	0	10.77	24428	0	0	5	5	0.02	-0.7605816	3	10	0.08	2800	355.6917	40.92395	-91.39365
265729	7	6	3	-1.424859	-4.981899	352.1635	0	10.77	24428	0	0	5	5	0.02	-0.7650797	3	10	0.08	2800	354.648	40.92395	-91.39365
265852	-2	0	19	-1.444091	-4.902474	352.1635	0	10.77	24428	0	0	5	5	0.02	-0.7714801	3	10	0.08	2800	355.4718	40.92395	-91.39365
265984	-3	8	5	-1.465085	-4.826501	352.166	0	10.77	24428	0	0	5	5	0.02	-0.780298	3	10	0.08	2800	354.2851	40.92395	-91.39365
266083	-4	-4	0	-1.482748	-4.734948	352.1687	0	10.77	24428	0	0	5	5	0.02	-0.7807252	3	10	0.08	2800	355.5564	40.92395	-91.39365
266125	-6	0	8	-1.489477	-4.711463	352.1703	0	10.77	24428	0	0	5	5	0.02	-0.7807252	3	10	0.08	2800	355.5564	40.92395	-91.39365
266280	0	0	0	-1.512477	-4.606727	352.1725	0	10.77	24428	0	0	5	5	0.02	-0.7887084	3	10	0.08	2800	355.5262	40.92395	-91.39365
266363	0	0	-1	-1.5256	-4.551445	352.1721	0	10.77	24428	0	0	5	5	0.02	-0.7889245	3	10	0.08	2800	354.843	40.92395	-91.39365
266479	-3	-2	1	-1.539957	-4.499397	352.1722	0	10.77	24428	0	0	5	5	0.02	-0.7877697	3	10	0.08	2800	355.4659	40.92395	-91.39365
266607	-6	-2	2	-1.55424	-4.429859	352.1744	0	10.83	24428	0	0	5	5	0.02	-0.7912454	3	10	0.08	2800	354.8539	40.92395	-91.39365
266710	-1	5	-4	-1.56147	-4.384598	352.177	0	10.83	24428	0	0	5	5	0.02	-0.8062343	3	10	0.08	2800	355.1749	40.92395	-91.39365
266761	-5	-2	2	-1.564366	-4.369948	352.1768	0	10.83	24428	0	0	5	5	0.02	-0.8126422	3	10	0.08	2800	355.1749	40.92395	-91.39365
266826	-5	-6	-3	-1.574587	-4.325222	352.1772	0	10.83	24428	0	0	5	5	0.02	-0.814366	3	10	0.08	2800	355.3438	40.92395	-91.39365
266989	-1	7	3	-1.591263	-4.260592	352.1772	0	10.83	24428	0	0	5	5	0.02	-0.8207659	3	10	0.08	2800	355.3979	40.92395	-91.39365
267153	-3	0	9	-1.600237	-4.212745	352.1787	0	10.83	24428	0	0	5	5	0.02	-0.8257725	3	10	0.08	2800	355.1164	40.92395	-91.39365
267239	-3	0	3	-1.610021	-4.174627	352.1797	0	10.83	24428	0	0	5	5	0.02	-0.830535	3	10	0.08	2800	355.6837	40.92395	-91.39365
267435	-3	-3	-2	-1.622355	-4.111919	352.1791	0	10.83	24428	0	0	5	5	0.02	-0.8420144	3	10	0.08	2800	355.875	40.92395	-91.39365
267580	-2	0	1	-1.623985	-4.066722	352.1803	0	10.83	24428	0	0	5	5	0.02	-0.8496007	3	10	0.08	2800	355.658	40.92395	-91.39365
267651	-3	-3	-2	-1.625736	-4.047472	352.1814	0	10.83	24428	0	0	5	5	0.02	-0.8470937	3	10	0.08	2800	355.0623	40.92395	-91.39365
267763	-6	-1	-2	-1.633002	-4.01757	352.1832	0	10.83	24428	0	0	5	5	0.02	-0.8490508	3	10	0.08	2800	354.6965	40.92395	-91.39365
267848	-2	1	-2	-1.635985	-3.990265	352.1851	0	10.83	24428	0	0	5	5	0.02	-0.8476056	3	10	0.08	2800	355.3561	40.92395	-91.39365
268002	-5	2	0	-1.644473	-3.946856	352.1866	0	10.83	24428	0	0	5	5	0.02	-0.8483313	3	10	0.08	2800	355.0121	40.92395	-91.39365
268052	-4	-2	-3	-1.644427	-3.940251	352.1856	0	10.83	24428	0	0	5	5	0.02	-0.8526799	3	10	0.08	2800	355.3449	40.92395	-91.39365
268146	1	-9	0	-1.649346	-3.916631	352.1888	0	10.83	24428	0	0	5	5	0.02	-0.8618006	3	10	0.08	2800	355.5794	40.92395	-91.39365
268254	-8	5	0	-1.652706	-3.895844	352.1926	0	10.83	24428	0	0	5	5	0.02	-0.877294	3	10	0.08	2800	355.0065	40.92395	-91.39365
268398	-3	1	-4	-1.658478	-3.865593	352.1945	0	10.83	24428	0	0	5	5	0.02	-0.8811227	3	10	0.08	2800	355.0185	40.92395	-91.39365
268452	-1	-4	0	-1.659241	-3.859266	352.195	0	10.83	24428	0	0	5	5	0.02	-0.8861222	3	10	0.08	2800	355.0185	40.92395	-91.39365
268588	-5	0	0	-1.666555	-3.833804	352.1956	0	10.83	24428	0	0	5	5	0.02	-0.8878688	3	10	0.08	2800	355.2874	40.92395	-91.39365
268680	-1	1	0	-1.670211	-3.817784	352.1972	0	10.83	24428	0	0	5	5	0.02	-0.8873952	3	10	0.08	2800	355.23	40.92395	-91.39365
268790	-1	2	0	-1.675013	-3.804446	352.1982	0	10.83	24428	0	0	5	5	0.02	-0.9018064	3	10	0.08	2800	355.2736	40.92395	-91.39365
268933	0	-5	-1	-1.677475	-3.779746	352.1982	0	10.83	24428	0	0	5	5	0.02	-0.9166772	3	10	0.08	2800	355.2476	40.92395	-91.39365
269011	0	-5	-1	-1.681195	-3.765075	352.1996	0	10.83	24428	0	0	5	5	0.02	-0.9269705	3	10	0.08	2800	355.5256	40.92395	-91.39365
269085	-4	0	2	-1.682781	-3.755722	352.1999	0	10.83	24428	0	0	5	5	0.02	-0.9417204	3	10	0.08	2800	355.5202	40.92395	-91.39365
269181	-5	-9	0	-1.679942	-3.747177	352.2004	0	10.83	24428	0	0	5	5	0.02	-0.9564428	3	10	0.08	2800	354.937	40.92395	-91.39365
269285	-5	2	2	-1.682114	-3.735719	352.2014	0	10.89	24428	0	0	5	5	0.02	-0.9708332	3	10	0.08	2800	354.7339	40.92395	-91.39365
269432	2	1	-6	-1.681417	-3.718414	352.2016	0	10.89	24428	0	0	5	5	0.02	-0.9811949	3	10	0.08	2800	355.2489	40.92395	-91.39365
269528	-1	1	-1	-1.679154	-3.707928	352.2036	0	10.89	24428	0	0	5	5	0.02	-0.9887362	3	10	0.08	2800	354.943	40.92395	-91.39365
269645	-3	2	-1	-1.680226	-3.699228	352.2061	0	10.89	24428	0	0	5	5	0.02	-0.9910486	3	10	0.08	2800	355.2318	40.92395	-91.39365
269757	-2	-7	0	-1.680094	-3.688643	352.2085	0	10.89	24428	0	0	5	5	0.02	-0.987684	3	10	0.08	2800	355.2858	40.92395	-91.39365
269879	0	0	1	-1.680323	-3.675659	352.2112	0	10.89	24428	0	0	5	5	0.02	-0.9749852	3	10	0.08	2800	355.8827	40.92395	-91.39365
269973	-6	5	0	-1.684903	-3.668772	352.2146	0	10.89	24428	0	0	5	5	0.02	-0.9688354	1	10	0.08	2800	355.229	40.92395	-91.39365
270078	1	7	0	-1.682013	-3.659476	352.2172	0	10.89	24428	0	0	5	5	0.02	-0.9642115	1	10	0.08	2800	354.72	40.92395	-91.39365
270204	-2	0	2	-1.685454	-3.655406	352.2174	0	10.89	24428	0	0	5	5	0.02	-0.9598323	1	10	0.08	2800	354.9752	40.92395	-91.39365
270288	2	-4	0	-1.685373	-3.649463	352.2181	0	10.89	24428	0	0	5	5	0.02	-0.948627	1	10	0.08	2800	354.997	40.92395	-91.39365
270412	0	-5	-2	-1.684637	-3.639912	352.2186	0	10.89	24428	0	0	5	5	0.02	-0.9419798	1	10	0.08	2800	354.9548	40.92395	-91.39365
270527	0	5	1	-1.685449	-3.635346	352.2205	0	10.89	24428	0	0	5	5	0.02	-0.9400793	1	10	0.08	2800	355.3324	40.92395	-91.39365
270617	-5	0	-2	-1.68725	-3.629139	352.2226	0	10.89	24428	0	0	5	5	0.02	-0.9352331	1	10	0.08	2800	355.0008	40.92395	-91.39365
270773	1	-5	-2	-1.688448	-3.621178	352.2242	0	10.89	24428	0	0	5	5	0.02	-0.926159	1	10	0.08	2800	354.9754	40.92395	-91.39365
270854	-6	2	5	-1.687446	-3.616207	352.2248	0	10.89	24428	0	0	5	5	0.02	-0.9245473	1	10	0.08	2800	355.2104	40.92395	-91.39365
270894	0	0	0	-1.686794	-3.613234	352.2238	0	10.89	24428	0	0	5	5	0.02	-0.9210297	1	10	0.08	2800	355.2104	40.92395	-91.39365
270993	-2	2	2	-1.686416	-3.609369	352.224	0	10.89	24428	0	0	5	5	0.02	-0.9109958	1	10	0.08	2800	354.9789	40.92395	-91.39365
271225	0	0	2	-1.684306	-3.599545	352.2277	0	10.89	24428	0	0	5	5	0.02	-0.9213276	1	10	0.08	2800	355.5691	40.92395	-91.39365
271331	0	0	0	-1.683666	-3.59445	352.2298	0	10.89	24428	0	0	5	5	0.02	-0.9355426	1	10	0.08	2800	355.5542	40.92395	-91.39365
271386	1	0	-5	-1.682872	-3.593353	352.2322	0	10.89	24428	0	0	5	5	0.02	-0.938401	1	10	0.08	2800	355.2487	40.92395	-91.39365
271580	-8	3	2	-1.67715	-3.590132	352.2386	0	10.89	24428	0	0	5	5	0.02	-0.9604946	1	10	0.08	2800	355.2455	40.92395	-91.39365
271644	-3	0	1	-1.675667	-3.587502	352.2409	0	10.89	24428	0	0	5	5	0.02	-0.9620111	1	10	0.08	2800	354.9659	40.92395	-91.39365
271697	-5	4	-1	-1.675383	-3.586303	352.2408	0	10.89	24428	0	0	5	5	0.02	-0.9656711	1	10	0.08	2800	354.9659	40.92395	-91.39365
271772	0	0	-3	-1.671202	-3.582675	352.242	0	10.89	24428	0	0	5	5	0.02	-0.9691086	1	10	0.08	2800	355.0435	40.92395	-91.39365
271860	1	1	0	-1.671586	-3.580856	352.2425	0	10.89	24428	0	0	5	5	0.02	-0.9795883	1	10	0.08	2800	355.3331	40.92395	-91.39365
272039	-4	-1	-4	-1.666983	-3.577286	352.2445	0	10.94	24428	0	0	5	5	0.02	-0.9920353	1	10	0.08	2800	354.9932	40.92395	-91.39365
272107	0	2	1	-1.66555	-3.576101	352.245	0	10.94	24428	0	0	5	5	0.02	-0.9866197	1	10	0.08	2800	355.6063	40.92395	-91.39365
272193	-4	-1	0	-1.665555	-3.568494	352.2446	0	10.94	24428	0	0	5	5	0.02	-0.9810726	1	10	0.08	2800	355.0465	40.92395	-91.39365
272282	-1	-2	0	-1.662622	-3.566697	352.2473	0	10.94	24428	0	0	5	5	0.02	-0.9732308	1	10	0.08	2800	355.3542	40.92395	-91.39365
272332	0	3	-4	-1.663946	-3.563841	352.2484	0	10.94	24428	0	0	5	5	0.02	-0.9747824	1	10	0.08	2800	354.7767	40.92395	-91.39365
272466	-3	1	-3	-1.662878	-3.561921	352.2499	0	10.94	24428	0	0	5	5	0.02	-0.9762062	1	10	0.08	2800	355.6391	40.92395	-91.39365
272526	0	1	-2	-1.661691	-3.559773	352.2524	0	10.94	24428	0	0	5	5	0.02	-0.971441	1	10	0.08	2800	355.6414	40.92395	-91.39365
272661	1	8	0	-1.659343	-3.562019	352.256	0	10.94	24428	0	0	5	5	0.02	-0.963779	1	10	0.08	2800	355.1162	40.92395	-91.39365
272777	2	4	0	-1.657342	-3.561184	352.2577	0	10.94	24428	0	0	5	5	0.02	-0.9521945	1	10	0.08	2800	355.3261	40.92395	-91.39365
272842	6	5	0	-1.654725	-3.559477	352.2577	0	10.89	24428	0	0	5	5	0.02	-0.9371672	1	10	0.08	2800	355.1019	40.92395	-91.39365
272951	-1	0	0	-1.654076	-3.557249	352.2603	0	10.89	24428	0	0	5	5	0.02	-0.9178234	1	10	0.08	2800	355.0073	40.92395	-91.39365
273040	2	-1	-5	-1.65572	-3.551945	352.2631	0	10.89	24428	0	0	5	5	0.02	-0.8989575	1	10	0.08	2800	355.3092	40.92395	-91.39365
273109	5	0	0	-1.653948	-3.551027	352.2636	0	10.89	24428	0	0	5	5	0.02	-0.8955612	1	10	0.08	2800	355.3092	40.92395	-91.39365
273239	2	2	-3	-1.654556	-3.549381	352.2674	0	10.89	24428	0	0	5	5	0.02	-0.8877833	1	10	0.08	2800	355.3607	40.92395	-91.39365
273362	1	0	0	-1.651906	-3.54794	352.2726	0	10.89	24428	0	0	5	5	0.02	-0.8811412	1	10	0.08	2800	355.0631	40.92395	-91.39365
273417	1	4	-1	-1.65151	-3.547572	352.2729	0	10.89	24428	0	0	5	5	0.02	-0.8740811	1	10	0.08	2800	355.0665	40.92395	-91.39365
273559	3	4	4	-1.648266	-3.545794	352.2758	0	10.89	24428	0	0	5	5	0.02	-0.8677247	1	10	0.08	2800	355.1479	40.92395	-91.39365
273667	5	0	-7	-1.64214	-3.543491	352.2784	0	10.89	24428	0	0	5	5	0.02	-0.8567243	1	10	0.08	2800	355.1348	40.92395	-91.39365
273724	4	1	-4	-1.638808	-3.543789	352.2791	0	10.94	24428	0	0	5	5	0.02	-0.8491988	1	10	0.08	2800	355.4035	40.92395	-91.39365
273827	0	3	-3	-1.637717	-3.544143	352.2823	0	10.94	24428	0	0	5	5	0.02	-0.8474286	1	10	0.08	2800	355.3849	40.92395	-91.39365
273972	4	0	0	-1.632012	-3.545543	352.2859	0	10.94	24428	0	0	5	5	0.02	-0.8415914	1	10	0.08	2800	355.4925	40.92395	-91.39365
274090	2	0	-7	-1.628793	-3.541193	352.2902	0	10.94	24428	0	0	5	5	0.02	-0.8407319	1	10	0.08	2800	355.1039	40.92395	-91.39365
274144	2	-1	-3	-1.629598	-3.540232	352.2908	0	10.94	24428	0	0	5	5	0.02	-0.8404965	1	10	0.08	2800	355.1039	40.92395	-91.39365
274250	1	1	0	-1.631839	-3.537944	352.2942	0	10.94	24428	0	0	5	5	0.02	-0.8505554	1	10	0.08	2800	354.7896	40.92395	-91.39365
274400	4	1	0	-1.626468	-3.537126	352.2983	0	10.94	24428	0	0	5	5	0.02	-0.8654375	1	10	0.08	2800	355.4344	40.92395	-91.39365
274463	5	-7	-3	-1.625526	-3.533793	352.3008	0	10.94	24428	0	0	5	5	0.02	-0.8706853	1	10	0.08	2800	354.8564	40.92395	-91.39365
274556	5	0	-2	-1.620583	-3.533382	352.3039	0	10.94	24428	0	0	5	5	0.02	-0.8720444	1	10	0.08	2800	355.1706	40.92395	-91.39365
274589	2	7	1	-1.619235	-3.533222	352.3048	0	10.94	24428	0	0	5	5	0.02	-0.8736232	1	10	0.08	2800	355.1524	40.92395	-91.39365
274734	6	0	0	-1.616281	-3.536423	352.3083	0	10.89	24428	0	0	5	5	0.02	-0.876999	1	10	0.08	2800	355.4884	40.92395	-91.39365
274811	0	2	-3	-1.616037	-3.534941	352.3126	0	10.89	24428	0	0	5	5	0.02	-0.8763736	1	10	0.08	2800	354.9084	40.92395	-91.39365
274915	-3	-4	-1	-1.618454	-3.532759	352.3149	0	10.89	24428	0	0	5	5	0.02	-0.8785989	1	10	0.08	2800	355.7454	40.92395	-91.39365
275004	6	9	14	-1.612491	-3.534672	352.3197	0	10.89	24428	0	0	5	5	0.02	-0.8781972	1	10	0.08	2800	355.4669	40.92395	-91.39365
275160	0	-5	-2	-1.61241	-3.533758	352.3224	0	10.89	24428	0	0	5	5	0.02	-0.8839022	1	10	0.08	2800	356.049	40.92395	-91.39365
275202	1	-1	-8	-1.61025	-3.528699	352.325	0	10.89	24428	0	0	5	5	0.02	-0.8860771	1	10	0.08	2800	355.5289	40.92395	-91.39365
275331	-1	0	-4	-1.608746	-3.528788	352.3269	0	10.89	24428	0	0	5	5	0.02	-0.8970072	1	10	0.08	2800	355.5636	40.92395	-91.39365
275424	2	0	0	-1.607389	-3.532756	352.3285	0	10.89	24428	0	0	5	5	0.02	-0.9089003	1	10	0.08	2800	355.1852	40.92395	-91.39365
275530	4	-1	-1	-1.598717	-3.531099	352.3336	0	10.89	24428	0	0	5	5	0.02	-0.9159631	1	10	0.08	2800	355.5103	40.92395	-91.39365
275559	4	-1	-1	-1.598717	-3.531099	352.3336	0	10.89	24428	0	0	5	5	0.02	-0.9217914	1	10	0.08	2800	355.5103	40.92395	-91.39365
275644	3	0	1	-1.593783	-3.531993	352.3368	0	10.89	24428	0	0	5	5	0.02	-0.9282458	1	10	0.08	2800	355.2989	40.92395	-91.39365
275827	2	-2	0	-1.587684	-3.529776	352.339	0	10.89	24428	0	0	5	5	0.02	-0.9486198	1	10	0.08	2800	355.8052	40.92395	-91.39365
275855	13	0	0	-1.585283	-3.529813	352.3397	0	10.89	24428	0	0	5	5	0.02	-0.9488248	1	10	0.08	2800	354.9862	40.92395	-91.39365
275932	3	1	-1	-1.581718	-3.527468	352.3418	0	10.89	24428	0	0	5	5	0.02	-0.9434692	1	10	0.08	2800	355.2993	40.92395	-91.39365
276055	-9	-4	3	-1.580124	-3.525591	352.3448	0	10.89	24428	0	0	5	5	0.02	-0.9347762	1	10	0.08	2800	355.3121	40.92395	-91.39365
276209	5	3	3	-1.576722	-3.520288	352.3499	0	10.89	24428	0	0	5	5	0.02	-0.935198	1	10	0.08	2800	355.5744	40.92395	-91.39365
276274	2	1	0	-1.575715	-3.520083	352.3514	0	10.89	24428	0	0	5	5	0.02	-0.9336744	1	10	0.08	2800	355.2465	40.92395	-91.39365
276343	5	-3	-6	-1.574177	-3.521229	352.3528	0	10.89	24428	0	0	5	5	0.02	-0.9312935	1	10	0.08	2800	355.5619	40.92395	-91.39365
276452	6	2	4	-1.570907	-3.51801	352.3568	0	10.89	24428	0	0	5	5	0.02	-0.9284213	1	10	0.08	2800	355.3301	40.92395	-91.39365
276516	10	-4	-5	-1.568516	-3.517216	352.3607	0	10.89	24428	0	0	5	5	0.02	-0.9284266	1	10	0.08	2800	355.5826	40.92395	-91.39365
276665	5	-1	0	-1.566438	-3.518186	352.3631	0	10.89	24428	0	0	5	5	0.02	-0.9265578	1	10	0.08	2800	355.2769	40.92395	-91.39365
276705	7	0	0	-1.564464	-3.518143	352.3644	0	10.89	24428	0	0	5	5	0.02	-0.9261667	1	10	0.08	2800	355.281	40.92395	-91.39365
276879	4	4	0	-1.563844	-3.519369	352.3691	0	10.89	24428	0	0	5	5	0.02	-0.9284836	1	10	0.08	2800	355.6378	40.92395	-91.39365
276909	-31	-3	0	-1.561893	-3.521705	352.3675	0	10.89	24428	0	0	5	5	0.02	-0.9299206	1	10	0.08	2800	355.2878	40.92395	-91.39365
277110	-5	-1	5	-1.582505	-3.522403	352.3756	0	10.89	24428	0	0	5	5	0.02	-0.934225	1	10	0.08	2800	355.8577	40.92395	-91.39365
277278	0	5	-3	-1.587937	-3.526438	352.3761	0	10.89	24428	0	0	5	5	0.02	-0.9306499	1	10	0.08	2800	355.1925	40.92395	-91.39365
277312	4	3	-6	-1.590398	-3.527623	352.3797	0	10.89	24428	0	0	5	5	0.02	-0.9296504	1	10	0.08	2800	355.0049	40.92395	-91.39365
277419	-1	0	0	-1.585581	-3.53207	352.383	0	10.89	24428	0	0	5	5	0.02	-0.9189796	1	10	0.08	2800	355.0049	40.92395	-91.39365
277516	3	-1	-7	-1.586868	-3.528599	352.3852	0	10.89	24428	0	0	5	5	0.02	-0.918853	1	10	0.08	2800	355.5755	40.92395	-91.39365
277634	53	14	-20	-1.583795	-3.542645	352.4072	0	10.89	24428	0	0	5	5	0.02	-0.9161309	1	10	0.08	2800	355.249	40.92395	-91.39365
277705	-1598	-2090	132	-1.873783	-3.156664	352.385	0	10.89	24428	0	0	5	5	0.02	-0.9131534	1	10	0.08	2800	355.7142	40.92395	-91.39365
277830	-707	-9760	-315	-6.331755	8.932199	352.7218	0	10.89	24428	0	0	5	5	0.02	-0.9129207	1	10	0.08	2800	347.8486	40.92395	-91.39365
278026	-199	-6573	28	-7.146484	41.06779	341.0778	0	10.89	24428	0	0	5	5	0.02	-0.9009646	1	10	0.08	2800	333.8034	40.92395	-91.39365
278188	1800	-750	-2890	-4.116868	48.53197	333.2365	0	10.89	24428	0	0	5	5	0.02	-0.8821657	1	10	0.08	2800	332.1585	40.92395	-91.39365
278295	534	1615	717	0.8716666	49.13261	335.388	0	10.89	24428	0	0	5	5	0.02	-0.862728	1	10	0.08	2800	335.1867	40.92395	-91.39365
278328	534	1615	717	0.8716666	49.13261	335.388	0	10.89	24428	0	0	5	5	0.02	-0.8545873	1	10	0.08	2800	335.1867	40.92395	-91.39365
278475	-1523	6137	666	-4.746832	40.72972	332.2566	0	10.89	24428	0	0	5	5	0.02	-0.8382203	1	10	0.08	2800	334.3503	40.92395	-91.39365
278536	-345	9550	-2650	-5.711609	27.94023	334.3554	0	10.89	24428	0	0	5	5	0.02	-0.8321345	1	10	0.08	2800	334.1946	40.92395	-91.39365
278634	290	11917	-3307	-3.876538	15.62523	337.9028	0	10.89	24428	0	0	5	5	0.02	-0.8155873	1	10	0.08	2800	344.5157	40.92395	-91.39365
278782	-293	9382	-6173	1.060852	-15.29817	25.12543	0	10.89	24428	0	0	5	5	0.02	-0.7788203	1	10	0.08	2800	19.59879	40.92395	-91.39365
278837	-2052	8924	-5756	-0.150312	-20.41366	40.32512	0	10.89	24428	0	0	5	5	0.02	-0.752267	1	10	0.08	2800	38.14758	40.92395	-91.39365
278952	3830	2194	-6202	-3.395788	-34.74045	65.0901	0	10.89	24428	0	0	5	5	0.02	-0.6838176	1	10	0.08	2800	69.74939	40.92395	-91.39365
279115	-9000	-278	-5321	-15.64961	-36.15133	93.7574	0	10.89	24428	0	0	5	5	0.02	-0.620882	1	10	0.08	2800	93.12289	40.92395	-91.39365
279241	-4053	-3107	-3239	-42.23515	-25.93149	107.2913	0	10.94	24428	0	0	5	5	0.02	-0.5456443	1	10	0.08	2800	112.1157	40.92395	-91.39365
279333	-816	-4550	-4602	-44.46397	-14.58982	114.8913	0	10.94	24428	0	0	5	5	0.02	-0.5097316	1	10	0.08	2800	115.4933	40.92395	-91.39366
279433	141	-2088	-1473	-46.82064	-3.274235	120.0587	0	10.94	24428	0	0	5	5	0.02	-0.4565072	1	10	0.08	2800	110.854	40.92395	-91.39366
279564	1137	-333	-1183	-44.87212	-1.076053	108.4745	0	10.94	24428	0	0	5	5	0.02	-0.4122833	1	10	0.08	2800	107.1573	40.92395	-91.39366
279654	2217	-4343	-3038	-44.36676	4.768771	111.2487	0	10.94	24428	0	0	5	5	0.02	-0.3666134	1	10	0.08	2800	103.4473	40.92395	-91.39366
279700	4193	1413	-506	-40.95965	8.209595	99.49547	0	10.94	24428	0	0	5	5	0.02	-0.3522128	1	10	0.08	2800	99.42438	40.92395	-91.39366
279834	7605	256	-4409	-29.68803	0.683251	101.9428	0	10.94	24428	0	0	5	5	0.02	-0.3139636	1	10	0.08	2800	108.8944	40.92395	-91.39367
279988	3547	-5546	-1973	-8.584497	20.96635	113.9747	0	10.94	24428	0	0	5	5	0.02	-0.2785576	1	10	0.08	2800	105.766	40.92395	-91.39367
280024	1442	-2205	-1275	-6.728131	23.16827	114.7835	0	10.89	24428	0	0	5	5	0.02	-0.2739471	1	10	0.08	2800	105.766	40.92395	-91.39367
280080	-4055	2100	-304	-7.632303	22.9905	102.1483	0	10.89	24428	0	0	5	5	0.02	-0.2650221	1	10	0.08	2800	101.0865	40.92395	-91.39367
280183	-8411	2495	2480	-23.09456	16.03029	109.5126	0	10.89	24428	0	0	5	5	0.02	-0.250118	1	10	0.08	2800	111.4426	40.92394	-91.39368
280323	-6669	2997	1798	-37.22526	9.053266	116.0934	0	10.89	24428	0	0	5	5	0.02	-0.2308123	1	10	0.08	2800	126.0377	40.92394	-91.39368
280436	-2678	2877	156	-50.20915	-1.062718	136.7516	0	10.89	24428	0	0	5	5	0.02	-0.2129164	1	10	0.08	2800	136.7516	40.92394	-91.39368
280521	-1720	-2372	-439	-52.461	1.578059	137.5722	0	10.89	24428	0	0	5	5	0.02	-0.2063051	1	10	0.08	2800	136.7516	40.92394	-91.39368
280613	-712	-616	109	-54.16359	0.5394427	138.6938	0	10.89	24428	0	0	5	5	0.02	-0.2057122	1	10	0.08	2800	136.4353	40.92394	-91.39368
280746	-2684	212	3345	-56.7535	-3.462177	134.5788	0	10.89	24428	0	0	5	5	0.02	-0.2012395	1	10	0.08	2800	139.1809	40.92394	-91.39368
280802	-2962	-179	2935	-58.53914	-5.146045	132.8425	0	10.89	24428	0	0	5	5	0.02	-0.2024661	1	10	0.08	2800	139.1809	40.92394	-91.39368
280991	4846	784	-2901	-54.81652	-6.238764	147.2334	0	10.94	24428	0	0	5	5	0.02	-0.1951537	1	10	0.08	2800	147.0396	40.92394	-91.39368
281079	5328	45	-1964	-49.12461	-4.544693	149.4948	0	10.94	24428	0	0	5	5	0.02	-0.1976526	1	10	0.08	2800	146.5185	40.92394	-91.39368
281153	1458	692	275	-46.01161	-2.123222	151.9193	0	10.94	24428	0	0	5	5	0.02	-0.2003284	1	10	0.08	2800	149.2963	40.92394	-91.39368
281273	2748	-769	122	-42.36024	0.7170106	153.7348	0	10.94	24428	0	0	5	5	0.02	-0.1995354	1	10	0.08	2800	148.1291	40.92394	-91.39368
281279	2748	-769	122	-42.36024	0.7170106	153.7348	0	10.94	24428	0	0	5	5	0.02	-0.1995354	1	10	0.08	2800	148.1291	40.92394	-91.39368
281370	2748	-769	122	-42.36024	0.7170106	153.7348	0	10.94	24428	0	0	5	5	0.02	-0.1995354	1	10	0.08	2800	148.1291	40.92394	-91.39368
281456	2748	-769	122	-42.36024	0.7170106	153.7348	0	10.94	24428	0	0	5	5	0.02	-0.1995354	1	10	0.08	2800	148.1291	40.92394	-91.39368
281543	2748	-769	122	-42.36024	0.7170106	153.7348	0	10.94	24428	0	0	5	5	0.02	-0.1995354	1	10	0.08	2800	148.1291	40.92394	-91.39368
281621	2748	-769	122	-42.36024	0.7170106	153.7348	0	10.94	24428	0	0	5	5	0.02	-0.1995354	1	10	0.08	2800	148.1291	40.92394	-91.39368
281709	2748	-769	122	-42.36024	0.7170106	153.7348	0	10.94	24428	0	0	5	5	0.02	-0.1995354	1	10	0.08	2800	148.1291	40.92394	-91.39368
281798	2748	-769	122	-42.36024	0.7170106	153.7348	0	10.94	24428	0	0	5	5	0.02	-0.1995354	1	10	0.08	2800	148.1291	40.92394	-91.39368
281886	2748	-769	122	-42.36024	0.7170106	153.7348	0	10.94	24428	0	0	5	5	0.02	-0.1995354	1	10	0.08	2800	148.1291	40.92394	-91.39368
281978	2748	-769	122	-42.36024	0.7170106	153.7348	0	10.94	24428	0	0	5	5	0.02	-0.1995354	1	10	0.08	2800	148.1291	40.92394	-91.39368
282071	2748	-769	122	-42.36024	0.7170106	153.7348	0	10.94	24428	0	0	5	5	0.02	-0.1995354	1	10	0.08	2800	148.1291	40.92394	-91.39368
282164	2748	-769	122	-42.36024	0.7170106	153.7348	0	10.94	24428	0	0	5	5	0.02	-0.1995354	1	10	0.08	2800	148.1291	40.92394	-91.39368
282256	2748	-769	122	-42.36024	0.7170106	153.7348	0	10.94	24428	0	0	5	5	0.02	-0.1995354	1	10	0.08	2800	148.1291	40.92394	-91.39368
282349	2748	-769	122	-42.36024	0.7170106	153.7348	0	10.94	24428	0	0	5	5	0.02	-0.1995354	1	10	0.08	2800	148.1291	40.92394	-91.39368
282442	2748	-769	122	-42.36024	0.7170106	153.7348	0	10.94	24428	0	0	5	5	0.02	-0.1995354	1	10	0.08	2800	148.1291	40.92394	-91.39368
282535	2748	-769	122	-42.36024	0.7170106	153.7348	0	10.94	24428	0	0	5	5	0.02	-0.1995354	1	10	0.08	2800	148.1291	40.92394	-91.39368
282628	2748	-769	122	-42.36024	0.7170106	153.7348	0	10.94	24428	0	0	5	5	0.02	-0.1995354	1	10	0.08	2800	148.1291	40.92394	-91.39368
282721	2748	-769	122	-42.36024	0.7170106	153.7348	0	10.94	24428	0	0	5	5	0.02	-0.1995354	1	10	0.08	2800	148.1291	40.92394	-91.39368
282814	2748	-769	122	-42.36024	0.7170106	153.7348	0	10.94	24428	0	0	5	5	0.02	-0.1995354	1	10	0.08	2800	148.1291	40.92394	-91.39368
282897	2748	-769	122	-42.36024	0.7170106	153.7348	0	10.94	24428	0	0	5	5	0.02	-0.1995354	1	10	0.08	2800	148.1291	40.92394	-91.39368
282986	2748	-769	122	-42.36024	0.7170106	153.7348	0	10.94	24428	0	0	5	5	0.02	-0.1995354	1	10	0.08	2800	148.1291	40.92394	-91.39368
283080	2748	-769	122	-42.36024	0.7170106	153.7348	0	10.94	24428	0	0	5	5	0.02	-0.1995354	1	10	0.08	2800	148.1291	40.92394	-91.39368
283173	2748	-769	122	-42.36024	0.7170106	153.7348	0	10.94	24428	0	0	5	5	0.02	-0.1995354	1	10	0.08	2800	148.1291	40.92394	-91.39368
283266	2748	-769	122	-42.36024	0.7170106	153.7348	0	10.94	24428	0	0	5	5	0.02	-0.1995354	1	10	0.08	2800	148.1291	40.92394	-91.39368
283359	2748	-769	122	-42.36024	0.7170106	153.7348	0	10.94	24428	0	0	5	5	0.02	-0.1995354	1	10	0.08	2800	148.1291	40.92394	-91.39368
283457	2748	-769	122	-42.36024	0.7170106	153.7348	0	10.94	24428	0	0	5	5	0.02	-0.1995354	1	10	0.08	2800	148.1291	40.92394	-91.39368
283550	2748	-769	122	-42.36024	0.7170106	153.7348	0	10.94	24428	0	0	5	5	0.02	-0.1995354	1	10	0.08	2800	148.1291	40.92394	-91.39368
283641	2748	-769	122	-42.36024	0.7170106	153.7348	0	10.94	24428	0	0	5	5	0.02	-0.1995354	1	10	0.08	2800	148.1291	40.92394	-91.39368
283732	2748	-769	122	-42.36024	0.7170106	153.7348	0	10.94	24428	0	0	5	5	0.02	-0.1995354	1	10	0.08	2800	148.1291	40.92394	-91.39368
283823	2748	-769	122	-42.36024	0.7170106	153.7348	0	10.94	24428	0	0	5	5	0.02	-0.1995354	1	10	0.08	2800	148.1291	40.92394	-91.39368
283914	2748	-769	122	-42.36024	0.7170106	153.7348	0	10.94	24428	0	0	5	5	0.02	-0.1995354	1	10	0.08	2800	148.1291	40.92394	-91.39368
284005	2748	-769	122	-42.36024	0.7170106	153.7348	0	10.94	24428	0	0	5	5	0.02	-0.1995354	1	10	0.08	2800	148.1291	40.92394	-91.39368
284096	2748	-769	122	-42.36024	0.7170106	153.7348	0	10.94	24428	0	0	5	5	0.02	-0.1995354	1	10	0.08	2800	148.1291	40.92394	-91.39368
