time(ms)	gyro_x(deg/s)	gyro_y(deg/s)	gyro_z(deg/s)	orientation_roll(deg)	orientation_pitch(deg)	orientation_yaw(deg)	throttle	battery(V)	loop_time(uS)	pid_output_roll	pid_output_pitch	pid_output_yaw	pid_output_throttle	ultrasonic_alt	baro_alt	flight_mode	p_gain_altitude	i_gain_altitude	d_gain_altitude	compass_heading	latitude	longitude
96	19	8	-5	-4.348996	-1.214687	347.2269	0	12.76	0	0	0	5	5	0.02	-0.4151163	1	10	0.08	2800	341.3321	40.92394	-91.39367
137	17	6	-3	-4.349353	-1.214474	347.2293	0	12.76	0	0	0	5	5	0.02	-0.4193802	1	10	0.08	2800	341.1124	40.92394	-91.39367
246	20	0	0	-4.349723	-1.212419	347.2322	0	12.76	0	0	0	5	5	0.02	-0.4379852	1	10	0.08	2800	341.0685	40.92394	-91.39367
395	22	-1	-5	-4.347547	-1.213163	347.2354	0	12.76	0	0	0	5	5	0.02	-0.4647194	1	10	0.08	2800	341.2927	40.92394	-91.39367
466	18	2	-1	-4.347478	-1.212553	347.2375	0	12.76	0	0	0	5	5	0.02	-0.482323	1	10	0.08	2800	341.7047	40.92394	-91.39367
553	18	-10	0	-4.346569	-1.214188	347.2382	0	12.76	0	0	0	5	5	0.02	-0.4838786	1	10	0.08	2800	341.5219	40.92394	-91.39367
666	23	0	-3	-4.34347	-1.215086	347.2421	0	12.76	0	0	0	5	5	0.02	-0.4856203	1	10	0.08	2800	341.2065	40.92394	-91.39367
740	17	0	-1	-4.344084	-1.215085	347.2433	0	12.76	0	0	0	5	5	0.02	-0.494671	1	10	0.08	2800	341.3486	40.92394	-91.39367
858	17	1	-6	-4.343227	-1.217816	347.2494	0	12.76	0	0	0	5	5	0.02	-0.4943753	1	10	0.08	2800	341.5332	40.92394	-91.39367
938	21	-4	-1	-4.341408	-1.218133	347.2502	0	12.76	0	0	0	5	5	0.02	-0.4882653	1	10	0.08	2800	341.0746	40.92394	-91.39367
1018	17	0	0	-4.34211	-1.218186	347.2536	0	12.76	0	0	0	5	5	0.02	-0.4792111	1	10	0.08	2800	341.4829	40.92394	-91.39367
1221	26	-3	-5	-4.338067	-1.219295	347.2615	0	12.76	0	0	0	5	5	0.02	-0.4730067	1	10	0.08	2800	341.6709	40.92394	-91.39367
1318	20	0	-3	-4.337197	-1.222184	347.2642	0	12.76	0	0	0	5	5	0.02	-0.4783831	1	10	0.08	2800	341.2704	40.92394	-91.39367
1373	22	0	0	-4.339119	-1.222213	347.2668	0	12.76	0	0	0	5	5	0.02	-0.4785276	1	10	0.08	2800	341.1798	40.92394	-91.39367
1472	21	-2	1	-4.338164	-1.221562	347.2687	0	12.76	0	0	0	5	5	0.02	-0.483584	1	10	0.08	2800	340.9445	40.92394	-91.39367
1627	24	-2	-2	-4.335675	-1.219917	347.2719	0	12.76	0	0	0	5	5	0.02	-0.5041699	1	10	0.08	2800	340.9136	40.92394	-91.39367
1785	22	-4	-3	-4.333562	-1.221531	347.2796	0	12.76	0	0	0	5	5	0.02	-0.5104731	1	10	0.08	2800	341.091	40.92394	-91.39367
1900	23	0	-5	-4.331474	-1.222504	347.2852	0	12.82	0	0	0	5	5	0.02	-0.5036845	1	10	0.08	2800	341.8251	40.92394	-91.39367
1951	22	-4	-9	-4.329356	-1.222263	347.289	0	12.82	0	0	0	5	5	0.02	-0.4977237	1	10	0.08	2800	341.1007	40.92394	-91.39367
2070	22	1	1	-4.331812	-1.221543	347.2935	0	12.82	0	0	0	5	5	0.02	-0.4900794	1	10	0.08	2800	341.101	40.92394	-91.39367
2156	24	-2	0	-4.331355	-1.221501	347.2949	0	12.82	0	0	0	5	5	0.02	-0.4801749	1	10	0.08	2800	340.7395	40.92394	-91.39367
2239	22	7	-1	-4.33104	-1.219535	347.2957	0	12.82	0	0	0	5	5	0.02	-0.468642	1	10	0.08	2800	340.7439	40.92394	-91.39367
2358	17	2	-3	-4.329182	-1.21953	347.3021	0	12.82	0	0	0	5	5	0.02	-0.4408641	1	10	0.08	2800	340.8737	40.92394	-91.39367
2463	18	0	-2	-4.328683	-1.217432	347.3049	0	12.82	0	0	0	5	5	0.02	-0.4306308	1	10	0.08	2800	341.4772	40.92394	-91.39367
2519	20	3	-6	-4.326711	-1.216001	347.3062	0	12.82	0	0	0	5	5	0.02	-0.4179421	1	10	0.08	2800	341.4772	40.92394	-91.39367
2677	21	0	-1	-4.323874	-1.21894	347.3129	0	12.82	0	0	0	5	5	0.02	-0.3906816	1	10	0.08	2800	341.1222	40.92394	-91.39367
2837	19	1	-3	-4.320156	-1.220235	347.3171	0	12.76	0	0	0	5	5	0.02	-0.3825267	1	10	0.08	2800	341.2622	40.92394	-91.39367
2970	25	-3	-1	-4.319937	-1.222082	347.3195	0	12.76	0	0	0	5	5	0.02	-0.3781744	1	10	0.08	2800	341.0369	40.92393	-91.39367
3029	19	0	0	-4.322662	-1.222673	347.3218	0	12.76	0	0	0	5	5	0.02	-0.3681215	1	10	0.08	2800	341.214	40.92393	-91.39367
3200	25	-3	-1	-4.31823	-1.221148	347.3261	0	12.76	0	0	0	5	5	0.02	-0.3594515	1	10	0.08	2800	341.1726	40.92393	-91.39367
3277	14	2	0	-4.317271	-1.220168	347.3275	0	12.76	0	0	0	5	5	0.02	-0.352761	1	10	0.08	2800	341.3143	40.92393	-91.39367
3336	21	0	-2	-4.315447	-1.219283	347.3286	0	12.76	0	0	0	5	5	0.02	-0.3477852	1	10	0.08	2800	341.2676	40.92393	-91.39367
3445	19	-8	-10	-4.312485	-1.219872	347.3347	0	12.76	0	0	0	5	5	0.02	-0.3281471	1	10	0.08	2800	340.8821	40.92393	-91.39367
3476	20	-2	0	-4.313044	-1.216636	347.336	0	12.76	0	0	0	5	5	0.02	-0.3252972	1	10	0.08	2800	340.8821	40.92393	-91.39367
3588	23	1	-4	-4.312415	-1.213957	347.3433	0	12.76	0	0	0	5	5	0.02	-0.3193507	1	10	0.08	2800	341.0103	40.92393	-91.39367
3676	22	1	0	-4.310507	-1.21331	347.347	0	12.76	0	0	0	5	5	0.02	-0.3020514	1	10	0.08	2800	340.8378	40.92393	-91.39367
3851	20	4	-4	-4.311453	-1.2128	347.3513	0	12.76	0	0	0	5	5	0.02	-0.2943875	1	10	0.08	2800	341.2466	40.92393	-91.39367
3925	20	0	-4	-4.309945	-1.212899	347.3541	0	12.76	0	0	0	5	5	0.02	-0.2961038	1	10	0.08	2800	341.1129	40.92393	-91.39367
4007	17	-6	-5	-4.30746	-1.213492	347.3578	0	12.76	0	0	0	5	5	0.02	-0.2915562	1	10	0.08	2800	341.113	40.92393	-91.39367
4114	21	-5	-2	-4.310044	-1.213357	347.3597	0	12.76	0	0	0	5	5	0.02	-0.2947373	1	10	0.08	2800	341.1623	40.92393	-91.39367
4166	23	-5	0	-4.311667	-1.210265	347.3619	0	12.76	0	0	0	5	5	0.02	-0.2963939	1	10	0.08	2800	341.1623	40.92393	-91.39367
4287	17	3	-1	-4.314779	-1.209093	347.366	0	12.76	0	0	0	5	5	0.02	-0.3026588	1	10	0.08	2800	341.4266	40.92393	-91.39367
4357	25	4	-2	-4.316153	-1.208176	347.3672	0	12.76	0	0	0	5	5	0.02	-0.3080322	1	10	0.08	2800	340.9682	40.92393	-91.39367
4443	18	0	-2	-4.315341	-1.207089	347.372	0	12.76	0	0	0	5	5	0.02	-0.3136303	1	10	0.08	2800	341.334	40.92393	-91.39367
4605	19	2	0	-4.316143	-1.207064	347.3798	0	12.76	0	0	0	5	5	0.02	-0.3304334	1	10	0.08	2800	341.79	40.92393	-91.39367
4650	20	1	3	-4.318725	-1.207627	347.3798	0	12.76	0	0	0	5	5	0.02	-0.3329583	1	10	0.08	2800	341.4202	40.92393	-91.39367
4756	23	-4	0	-4.318011	-1.206895	347.3825	0	12.76	0	0	0	5	5	0.02	-0.3427379	1	10	0.08	2800	341.4157	40.92393	-91.39367
4871	22	4	-3	-4.317725	-1.211357	347.3865	0	12.76	0	0	0	5	5	0.02	-0.3432112	1	10	0.08	2800	341.5952	40.92393	-91.39367
4969	24	5	-5	-4.313569	-1.209884	347.39	0	12.76	0	0	0	5	5	0.02	-0.3396886	1	10	0.08	2800	341.374	40.92393	-91.39367
5131	24	-1	-2	-4.316069	-1.206923	347.394	0	12.76	0	0	0	5	5	0.02	-0.3256929	1	10	0.08	2800	340.6111	40.92393	-91.39367
5199	28	-6	-2	-4.315592	-1.207885	347.3954	0	12.76	0	0	0	5	5	0.02	-0.3215753	1	10	0.08	2800	341.1057	40.92393	-91.39367
5282	19	1	0	-4.31483	-1.206502	347.3983	0	12.76	0	0	0	5	5	0.02	-0.3003001	1	10	0.08	2800	341.0656	40.92393	-91.39367
5354	16	0	-1	-4.316673	-1.207358	347.3994	0	12.76	0	0	0	5	5	0.02	-0.2943722	1	10	0.08	2800	341.1038	40.92393	-91.39367
5474	22	0	1	-4.316963	-1.203917	347.4043	0	12.76	0	0	0	5	5	0.02	-0.2871218	1	10	0.08	2800	341.5994	40.92393	-91.39367
5547	23	0	8	-4.314045	-1.203319	347.4048	0	12.76	0	0	0	5	5	0.02	-0.2818232	1	10	0.08	2800	341.2892	40.92393	-91.39367
5762	19	0	0	-4.315375	-1.209606	347.4081	0	12.76	0	0	0	5	5	0.02	-0.2763647	1	10	0.08	2800	341.561	40.92393	-91.39367
5936	20	2	-3	-4.311015	-1.208644	347.4174	0	12.76	0	0	0	5	5	0.02	-0.2740131	1	10	0.08	2800	341.0721	40.92393	-91.39367
5972	24	1	-2	-4.309245	-1.209355	347.4182	0	12.76	0	0	0	5	5	0.02	-0.2729636	1	10	0.08	2800	340.9883	40.92393	-91.39367
6081	18	-5	-4	-4.311821	-1.210084	347.421	0	12.76	0	0	0	5	5	0.02	-0.2756961	1	10	0.08	2800	340.8009	40.92393	-91.39367
6186	22	0	-4	-4.311387	-1.209537	347.4244	0	12.76	0	0	0	5	5	0.02	-0.2812491	1	10	0.08	2800	341.3821	40.92393	-91.39367
6302	23	0	-8	-4.308971	-1.21068	347.4315	0	12.76	0	0	0	5	5	0.02	-0.288011	1	10	0.08	2800	341.1106	40.92393	-91.39367
6396	16	0	-3	-4.307573	-1.211318	347.4332	0	12.76	0	0	0	5	5	0.02	-0.2989203	1	10	0.08	2800	341.0824	40.92393	-91.39367
6475	22	-3	-6	-4.303095	-1.21563	347.4368	0	12.76	0	0	0	5	5	0.02	-0.3007861	1	10	0.08	2800	341.126	40.92393	-91.39367
6532	22	4	-3	-4.300509	-1.214983	347.4398	0	12.76	0	0	0	5	5	0.02	-0.3024676	1	10	0.08	2800	341.2272	40.92393	-91.39367
6701	27	-4	-4	-4.296154	-1.217562	347.4457	0	12.76	0	0	0	5	5	0.02	-0.3152934	1	10	0.08	2800	341.1377	40.92393	-91.39367
6798	26	-1	-8	-4.293723	-1.218183	347.4475	0	12.76	0	0	0	5	5	0.02	-0.3303246	1	10	0.08	2800	341.551	40.92393	-91.39367
6824	23	-3	-5	-4.292558	-1.217958	347.4495	0	12.76	0	0	0	5	5	0.02	-0.3303246	1	10	0.08	2800	341.1074	40.92393	-91.39367
6922	24	4	0	-4.292591	-1.220687	347.4506	0	12.76	0	0	0	5	5	0.02	-0.3379526	1	10	0.08	2800	341.1067	40.92393	-91.39367
7064	24	0	-2	-4.288045	-1.220416	347.457	0	12.76	0	0	0	5	5	0.02	-0.3396415	1	10	0.08	2800	341.7038	40.92393	-91.39367
7121	27	4	-1	-4.287448	-1.219015	347.4596	0	12.76	0	0	0	5	5	0.02	-0.3398097	1	10	0.08	2800	341.662	40.92393	-91.39367
7318	24	-2	-1	-4.285307	-1.215749	347.4644	0	12.76	0	0	0	5	5	0.02	-0.3246008	1	10	0.08	2800	341.536	40.92393	-91.39367
7379	20	3	-4	-4.285921	-1.217218	347.465	0	12.76	0	0	0	5	5	0.02	-0.3205796	1	10	0.08	2800	341.536	40.92393	-91.39367
7493	19	0	-1	-4.287656	-1.218992	347.4705	0	12.76	0	0	0	5	5	0.02	-0.3074956	1	10	0.08	2800	341.2081	40.92393	-91.39367
7568	13	-1	-5	-4.286338	-1.220662	347.4719	0	12.76	0	0	0	5	5	0.02	-0.2962506	1	10	0.08	2800	340.9474	40.92393	-91.39367
7642	24	-2	0	-4.284716	-1.218839	347.4738	0	12.76	0	0	0	5	5	0.02	-0.2951459	1	10	0.08	2800	341.4891	40.92393	-91.39367
7736	22	-1	-1	-4.281979	-1.218914	347.4761	0	12.76	0	0	0	5	5	0.02	-0.2941214	1	10	0.08	2800	341.444	40.92393	-91.39367
7866	23	0	1	-4.280671	-1.219328	347.4822	0	12.76	0	0	0	5	5	0.02	-0.294564	1	10	0.08	2800	341.3521	40.92393	-91.39367
7964	24	0	1	-4.27858	-1.21938	347.4824	0	12.76	0	0	0	5	5	0.02	-0.2966003	1	10	0.08	2800	341.2728	40.92393	-91.39367
8032	28	7	-2	-4.277672	-1.219156	347.4846	0	12.76	0	0	0	5	5	0.02	-0.3025067	1	10	0.08	2800	341.2727	40.92393	-91.39367
8202	24	1	2	-4.273361	-1.217228	347.4919	0	12.76	0	0	0	5	5	0.02	-0.3204398	1	10	0.08	2800	341.3319	40.92393	-91.39367
8287	25	0	-2	-4.269756	-1.216751	347.4965	0	12.76	0	0	0	5	5	0.02	-0.324138	1	10	0.08	2800	341.296	40.92393	-91.39367
8361	27	1	0	-4.267073	-1.216107	347.498	0	12.76	0	0	0	5	5	0.02	-0.3268711	1	10	0.08	2800	341.482	40.92393	-91.39367
8451	23	-2	-4	-4.266709	-1.215801	347.5021	0	12.76	0	0	0	5	5	0.02	-0.3290673	1	10	0.08	2800	341.9013	40.92393	-91.39367
8537	19	0	-5	-4.265856	-1.212151	347.5055	0	12.76	0	0	0	5	5	0.02	-0.3295842	1	10	0.08	2800	341.9013	40.92393	-91.39367
8624	19	4	-1	-4.26649	-1.214084	347.509	0	12.76	0	0	0	5	5	0.02	-0.3336479	1	10	0.08	2800	341.7155	40.92393	-91.39367
8741	21	0	-1	-4.267828	-1.215229	347.5103	0	12.76	0	0	0	5	5	0.02	-0.3360551	1	10	0.08	2800	341.4856	40.92393	-91.39367
8813	21	0	3	-4.265383	-1.215024	347.512	0	12.76	0	0	0	5	5	0.02	-0.3343629	1	10	0.08	2800	341.578	40.92393	-91.39367
8925	23	0	4	-4.26482	-1.219108	347.5144	0	12.76	0	0	0	5	5	0.02	-0.3290971	1	10	0.08	2800	341.18	40.92393	-91.39367
8996	23	-3	-8	-4.263569	-1.21404	347.5184	0	12.76	0	0	0	5	5	0.02	-0.3234638	1	10	0.08	2800	341.4534	40.92393	-91.39367
9095	29	0	2	-4.266047	-1.21639	347.5203	0	12.76	0	0	0	5	5	0.02	-0.317102	1	10	0.08	2800	341.4008	40.92393	-91.39367
9242	20	2	-8	-4.269728	-1.218076	347.527	0	12.76	0	0	0	5	5	0.02	-0.3086308	1	10	0.08	2800	341.2979	40.92393	-91.39367
9364	24	1	1	-4.268312	-1.219332	347.5316	0	12.76	0	0	0	5	5	0.02	-0.3007776	1	10	0.08	2800	341.2551	40.92393	-91.39367
9412	19	1	0	-4.267257	-1.220695	347.5366	0	12.76	0	0	0	5	5	0.02	-0.2948757	1	10	0.08	2800	341.7516	40.92393	-91.39367
9521	20	0	-6	-4.268718	-1.221208	347.5391	0	12.76	0	0	0	5	5	0.02	-0.2915491	1	10	0.08	2800	341.9366	40.92393	-91.39367
9591	23	1	-1	-4.269915	-1.220327	347.5422	0	12.76	0	0	0	5	5	0.02	-0.2908482	1	10	0.08	2800	341.6592	40.92393	-91.39367
9690	18	-6	-4	-4.269922	-1.219431	347.5483	0	12.76	0	0	0	5	5	0.02	-0.2839343	1	10	0.08	2800	341.1678	40.92393	-91.39367
9762	27	0	0	-4.270302	-1.219813	347.5497	0	12.76	0	0	0	5	5	0.02	-0.27837	1	10	0.08	2800	341.1638	40.92393	-91.39367
9977	22	-3	-6	-4.269814	-1.222327	347.5572	0	12.76	0	0	0	5	5	0.02	-0.2615575	1	10	0.08	2800	341.6147	40.92393	-91.39367
10071	18	-6	0	-4.26741	-1.222763	347.5571	0	12.76	0	0	0	5	5	0.02	-0.2470062	1	10	0.08	2800	341.2993	40.92393	-91.39367
10176	27	3	-2	-4.267398	-1.219051	347.5602	0	12.76	0	0	0	5	5	0.02	-0.2421468	1	10	0.08	2800	341.5309	40.92393	-91.39367
10341	15	-3	-1	-4.267493	-1.219965	347.5668	0	12.76	0	0	0	5	5	0.02	-0.2226092	1	10	0.08	2800	341.3469	40.92393	-91.39367
10411	13	0	3	-4.268564	-1.220829	347.5705	0	12.76	0	0	0	5	5	0.02	-0.2114417	1	10	0.08	2800	341.3896	40.92393	-91.39367
10480	17	-3	4	-4.268071	-1.224545	347.5699	0	12.76	0	0	0	5	5	0.02	-0.1997896	1	10	0.08	2800	340.9792	40.92393	-91.39367
10529	26	1	0	-4.268754	-1.22391	347.5727	0	12.76	0	0	0	5	5	0.02	-0.1962977	1	10	0.08	2800	341.5203	40.92393	-91.39367
10602	28	-1	-2	-4.267514	-1.226182	347.5764	0	12.76	0	0	0	5	5	0.02	-0.2017101	1	10	0.08	2800	341.4738	40.92393	-91.39367
10672	23	0	-5	-4.264343	-1.224236	347.5801	0	12.76	0	0	0	5	5	0.02	-0.2111136	1	10	0.08	2800	341.4835	40.92392	-91.39367
10704	20	3	-2	-4.263984	-1.224836	347.5811	0	12.76	0	0	0	5	5	0.02	-0.2185712	1	10	0.08	2800	341.4835	40.92392	-91.39367
10810	18	0	-1	-4.261739	-1.221247	347.5848	0	12.82	0	0	0	5	5	0.02	-0.2276995	1	10	0.08	2800	341.1876	40.92392	-91.39367
10903	22	-2	-7	-4.260086	-1.220488	347.59	0	12.82	0	0	0	5	5	0.02	-0.2314156	1	10	0.08	2800	341.3649	40.92392	-91.39367
11010	26	2	-2	-4.25702	-1.223432	347.5934	0	12.82	0	0	0	5	5	0.02	-0.227534	1	10	0.08	2800	340.9212	40.92392	-91.39367
11159	23	-2	0	-4.25576	-1.219258	347.5993	0	12.82	0	0	0	5	5	0.02	-0.225163	1	10	0.08	2800	341.2357	40.92392	-91.39367
11338	28	0	0	-4.2541	-1.219216	347.6053	0	12.82	0	0	0	5	5	0.02	-0.2102298	1	10	0.08	2800	341.2419	40.92392	-91.39367
11380	22	8	-6	-4.250831	-1.221299	347.6085	0	12.82	0	0	0	5	5	0.02	-0.2010264	1	10	0.08	2800	341.2419	40.92392	-91.39367
11455	25	2	-4	-4.248917	-1.221338	347.6122	0	12.82	0	0	0	5	5	0.02	-0.1987678	1	10	0.08	2800	341.249	40.92392	-91.39367
11543	20	1	-1	-4.244644	-1.220852	347.6151	0	12.82	0	0	0	5	5	0.02	-0.196707	1	10	0.08	2800	341.5349	40.92392	-91.39367
11660	22	0	-6	-4.244967	-1.218024	347.6172	0	12.82	0	0	0	5	5	0.02	-0.1968145	1	10	0.08	2800	341.7628	40.92392	-91.39367
11785	17	-1	-4	-4.249054	-1.214956	347.624	0	12.82	0	0	0	5	5	0.02	-0.1966464	1	10	0.08	2800	341.5328	40.92392	-91.39367
11875	24	2	-2	-4.243263	-1.217768	347.6295	0	12.82	0	0	0	5	5	0.02	-0.197474	1	10	0.08	2800	341.6322	40.92392	-91.39367
11909	21	-2	0	-4.241335	-1.218632	347.6317	0	12.82	0	0	0	5	5	0.02	-0.2007527	1	10	0.08	2800	341.6322	40.92392	-91.39367
12005	22	1	1	-4.244108	-1.219496	347.6333	0	12.82	0	0	0	5	5	0.02	-0.2067769	1	10	0.08	2800	341.5982	40.92392	-91.39367
12097	21	0	-3	-4.244735	-1.221081	347.6384	0	12.82	0	0	0	5	5	0.02	-0.2313119	1	10	0.08	2800	341.7636	40.92392	-91.39367
12161	19	-4	-5	-4.244467	-1.22116	347.6407	0	12.82	0	0	0	5	5	0.02	-0.2458116	1	10	0.08	2800	341.6791	40.92392	-91.39367
12310	23	-2	-2	-4.241079	-1.224743	347.6456	0	12.82	0	0	0	5	5	0.02	-0.2701953	1	10	0.08	2800	341.3158	40.92392	-91.39367
12433	22	0	1	-4.23828	-1.225203	347.6487	0	12.76	0	0	0	5	5	0.02	-0.290156	1	10	0.08	2800	341.7764	40.92392	-91.39367
12466	22	0	1	-4.238035	-1.224259	347.651	0	12.76	0	0	0	5	5	0.02	-0.2945207	1	10	0.08	2800	341.3693	40.92392	-91.39367
12572	22	2	-1	-4.232831	-1.221356	347.6562	0	12.76	0	0	0	5	5	0.02	-0.3056974	1	10	0.08	2800	341.7392	40.92392	-91.39367
12720	21	0	-3	-4.229963	-1.217462	347.6603	0	12.76	0	0	0	5	5	0.02	-0.3141364	1	10	0.08	2800	341.2579	40.92392	-91.39367
12776	26	-6	3	-4.231567	-1.218091	347.6629	0	12.76	0	0	0	5	5	0.02	-0.3178384	1	10	0.08	2800	341.7086	40.92392	-91.39367
12838	25	-2	-2	-4.228654	-1.218294	347.6678	0	12.76	0	0	0	5	5	0.02	-0.3194305	1	10	0.08	2800	341.7094	40.92392	-91.39367
12943	29	6	0	-4.225076	-1.220332	347.6698	0	12.76	0	0	0	5	5	0.02	-0.3255555	1	10	0.08	2800	341.9917	40.92392	-91.39367
13052	21	0	3	-4.222195	-1.219639	347.6749	0	12.76	0	0	0	5	5	0.02	-0.3213289	1	10	0.08	2800	341.9552	40.92392	-91.39367
13167	21	2	-5	-4.224861	-1.220541	347.6779	0	12.76	0	0	0	5	5	0.02	-0.3066078	1	10	0.08	2800	342.1903	40.92392	-91.39367
13369	28	0	-2	-4.226157	-1.220837	347.6838	0	12.76	0	0	0	5	5	0.02	-0.2880631	1	10	0.08	2800	341.8084	40.92392	-91.39367
13500	21	0	0	-4.231378	-1.223556	347.6885	0	12.76	0	0	0	5	5	0.02	-0.2835492	1	10	0.08	2800	341.2963	40.92392	-91.39367
13666	24	-2	-3	-4.229532	-1.223997	347.6941	0	12.76	0	0	0	5	5	0.02	-0.2744547	1	10	0.08	2800	341.8064	40.92392	-91.39367
13799	20	-1	-2	-4.230327	-1.222515	347.6985	0	12.76	0	0	0	5	5	0.02	-0.2648639	1	10	0.08	2800	341.7966	40.92392	-91.39367
13916	25	-1	2	-4.229774	-1.219869	347.7027	0	12.76	0	0	0	5	5	0.02	-0.2557417	1	10	0.08	2800	341.567	40.92392	-91.39367
14050	23	-5	-3	-4.225726	-1.219154	347.7056	0	12.76	0	0	0	5	5	0.02	-0.248931	1	10	0.08	2800	341.181	40.92392	-91.39367
14171	30	7	-2	-4.224738	-1.217273	347.7108	0	12.76	0	0	0	5	5	0.02	-0.245901	1	10	0.08	2800	341.6345	40.92392	-91.39367
14291	28	0	-2	-4.223358	-1.217768	347.713	0	12.76	0	0	0	5	5	0.02	-0.2490276	1	10	0.08	2800	341.4512	40.92392	-91.39367
14407	28	3	0	-4.223525	-1.221183	347.7178	0	12.76	0	0	0	5	5	0.02	-0.2450327	1	10	0.08	2800	341.451	40.92392	-91.39367
14520	23	-5	-1	-4.223147	-1.221815	347.7195	0	12.76	0	0	0	5	5	0.02	-0.2393009	1	10	0.08	2800	341.9075	40.92392	-91.39367
14613	22	0	-4	-4.222011	-1.222166	347.7239	0	12.76	0	0	0	5	5	0.02	-0.2365036	1	10	0.08	2800	341.9983	40.92392	-91.39367
14636	22	0	-4	-4.222011	-1.222166	347.7239	0	12.76	0	0	0	5	5	0.02	-0.2343369	1	10	0.08	2800	341.9983	40.92392	-91.39367
14743	25	5	-4	-4.224395	-1.223818	347.7274	0	12.76	0	0	0	5	5	0.02	-0.2291571	1	10	0.08	2800	342.0874	40.92392	-91.39367
14842	25	-7	-1	-4.222116	-1.223625	347.7302	0	12.76	0	0	0	5	5	0.02	-0.2285587	1	10	0.08	2800	341.1351	40.92392	-91.39367
14979	28	-1	-1	-4.221319	-1.225296	347.7346	0	12.76	0	0	0	5	5	0.02	-0.2357372	1	10	0.08	2800	341.4968	40.92392	-91.39367
15027	23	2	1	-4.223274	-1.22624	347.7362	0	12.76	0	0	0	5	5	0.02	-0.2372308	1	10	0.08	2800	341.4968	40.92392	-91.39367
15150	27	-4	0	-4.219388	-1.226694	347.7397	0	12.76	0	0	0	5	5	0.02	-0.2441695	1	10	0.08	2800	341.4877	40.92392	-91.39367
15301	22	0	-6	-4.220525	-1.227774	347.7427	0	12.76	0	0	0	5	5	0.02	-0.2413991	1	10	0.08	2800	341.6405	40.92392	-91.39367
15349	23	0	-1	-4.219419	-1.229862	347.7449	0	12.76	0	0	0	5	5	0.02	-0.2375053	1	10	0.08	2800	341.546	40.92392	-91.39367
15482	31	-2	-6	-4.216498	-1.230669	347.7496	0	12.76	0	0	0	5	5	0.02	-0.2218796	1	10	0.08	2800	341.4105	40.92392	-91.39367
15543	26	2	0	-4.216849	-1.22955	347.7512	0	12.76	0	0	0	5	5	0.02	-0.2113267	1	10	0.08	2800	341.323	40.92392	-91.39367
15674	26	6	-3	-4.214845	-1.23052	347.7546	0	12.76	0	0	0	5	5	0.02	-0.1874598	1	10	0.08	2800	341.6502	40.92392	-91.39367
15760	22	1	-5	-4.217198	-1.232963	347.7577	0	12.76	0	0	0	5	5	0.02	-0.181614	1	10	0.08	2800	341.7397	40.92392	-91.39367
15831	30	4	-2	-4.215289	-1.234322	347.7592	0	12.76	0	0	0	5	5	0.02	-0.1621184	1	10	0.08	2800	342.0953	40.92392	-91.39367
16030	17	-6	-8	-4.214933	-1.23571	347.7662	0	12.76	0	0	0	5	5	0.02	-0.1299902	1	10	0.08	2800	341.635	40.92392	-91.39367
16091	27	0	-4	-4.213325	-1.236289	347.7671	0	12.76	0	0	0	5	5	0.02	-0.1109009	1	10	0.08	2800	341.0112	40.92392	-91.39367
16213	29	0	-4	-4.212535	-1.234565	347.7701	0	12.76	0	0	0	5	5	0.02	-0.09981252	1	10	0.08	2800	341.7771	40.92392	-91.39367
16256	24	-4	-2	-4.210747	-1.234474	347.7764	0	12.76	0	0	0	5	5	0.02	-0.09930354	1	10	0.08	2800	341.8319	40.92392	-91.39367
16327	31	0	0	-4.208323	-1.233981	347.7781	0	12.76	0	0	0	5	5	0.02	-0.1001891	1	10	0.08	2800	341.1986	40.92392	-91.39367
16475	23	-2	0	-4.2065	-1.232681	347.7808	0	12.76	0	0	0	5	5	0.02	-0.1170733	1	10	0.08	2800	341.3406	40.92392	-91.39367
16552	28	-1	0	-4.205362	-1.234694	347.784	0	12.76	0	0	0	5	5	0.02	-0.1232201	1	10	0.08	2800	342.1238	40.92392	-91.39367
16610	29	-4	0	-4.204915	-1.232274	347.7845	0	12.76	0	0	0	5	5	0.02	-0.1249161	1	10	0.08	2800	342.1238	40.92392	-91.39367
16763	31	-3	-3	-4.202728	-1.229408	347.7895	0	12.76	0	0	0	5	5	0.02	-0.1153876	1	10	0.08	2800	342.361	40.92392	-91.39367
16845	30	9	0	-4.200079	-1.230941	347.7921	0	12.76	0	0	0	5	5	0.02	-0.1103436	1	10	0.08	2800	341.2705	40.92392	-91.39367
16957	29	0	0	-4.196019	-1.232706	347.7967	0	12.76	0	0	0	5	5	0.02	-0.1076555	1	10	0.08	2800	341.7836	40.92392	-91.39367
17022	25	5	0	-4.196845	-1.231313	347.7997	0	12.76	0	0	0	5	5	0.02	-0.1042903	1	10	0.08	2800	341.5533	40.92392	-91.39367
17137	26	1	0	-4.19665	-1.233451	347.8019	0	12.76	0	0	0	5	5	0.02	-0.09563355	1	10	0.08	2800	341.7734	40.92392	-91.39367
17275	21	3	0	-4.194321	-1.22979	347.8029	0	12.76	0	0	0	5	5	0.02	-0.08918256	1	10	0.08	2800	341.463	40.92392	-91.39367
17342	28	0	-2	-4.194734	-1.230084	347.8089	0	12.76	0	0	0	5	5	0.02	-0.08041557	1	10	0.08	2800	341.469	40.92392	-91.39367
17410	30	0	-4	-4.194943	-1.227316	347.8108	0	12.76	0	0	0	5	5	0.02	-0.07722323	1	10	0.08	2800	341.5168	40.92392	-91.39367
17495	23	-1	0	-4.191423	-1.227455	347.8135	0	12.76	0	0	0	5	5	0.02	-0.07196116	1	10	0.08	2800	341.9786	40.92392	-91.39367
17568	20	-4	4	-4.192827	-1.228499	347.8149	0	12.76	0	0	0	5	5	0.02	-0.06902502	1	10	0.08	2800	341.4297	40.92392	-91.39367
17616	29	-6	-1	-4.193334	-1.228862	347.8155	0	12.76	0	0	0	5	5	0.02	-0.06852944	1	10	0.08	2800	341.881	40.92392	-91.39367
17757	26	-3	3	-4.18878	-1.226879	347.8207	0	12.76	0	0	0	5	5	0.02	-0.06310101	1	10	0.08	2800	341.8891	40.92392	-91.39367
17803	26	3	-2	-4.188234	-1.228103	347.8228	0	12.76	0	0	0	5	5	0.02	-0.06154478	1	10	0.08	2800	341.4848	40.92392	-91.39367
17936	30	0	-3	-4.188834	-1.228388	347.8265	0	12.76	0	0	0	5	5	0.02	-0.05950665	1	10	0.08	2800	341.3936	40.92392	-91.39367
18067	24	5	-4	-4.188097	-1.227041	347.83	0	12.76	0	0	0	5	5	0.02	-0.06189561	1	10	0.08	2800	341.5252	40.92392	-91.39367
18188	29	1	-5	-4.190958	-1.232416	347.8369	0	12.76	0	0	0	5	5	0.02	-0.05547332	1	10	0.08	2800	342.0223	40.92392	-91.39367
18237	27	2	-3	-4.189846	-1.232823	347.8375	0	12.76	0	0	0	5	5	0.02	-0.04497483	1	10	0.08	2800	342.0223	40.92392	-91.39367
18332	29	-2	-6	-4.190433	-1.23347	347.8406	0	12.76	0	0	0	5	5	0.02	-0.03384171	1	10	0.08	2800	341.9308	40.92392	-91.39367
18443	24	0	-2	-4.191678	-1.229958	347.8428	0	12.76	0	0	0	5	5	0.02	-0.02993073	1	10	0.08	2800	341.6075	40.92392	-91.39367
18500	30	-7	-3	-4.19553	-1.228689	347.843	0	12.76	0	0	0	5	5	0.02	-0.02667363	1	10	0.08	2800	341.2431	40.92392	-91.39367
18626	22	2	-3	-4.199796	-1.230755	347.8506	0	12.82	0	0	0	5	5	0.02	-0.02378027	1	10	0.08	2800	341.867	40.92392	-91.39367
18680	26	-2	-1	-4.201405	-1.231112	347.8515	0	12.82	0	0	0	5	5	0.02	-0.0210295	1	10	0.08	2800	341.867	40.92392	-91.39367
18769	24	0	1	-4.202856	-1.231296	347.8535	0	12.82	0	0	0	5	5	0.02	-0.02007169	1	10	0.08	2800	341.6739	40.92392	-91.39367
19012	24	3	-4	-4.202164	-1.231788	347.8626	0	12.82	0	0	0	5	5	0.02	-0.02396943	1	10	0.08	2800	341.5881	40.92392	-91.39367
19112	29	-3	-4	-4.200696	-1.230463	347.8675	0	12.82	0	0	0	5	5	0.02	-0.02225631	1	10	0.08	2800	341.3183	40.92392	-91.39367
19247	27	0	-1	-4.197021	-1.228943	347.8712	0	12.82	0	0	0	5	5	0.02	-0.0135151	1	10	0.08	2800	341.7835	40.92392	-91.39367
19300	25	2	-2	-4.197191	-1.22905	347.8724	0	12.82	0	0	0	5	5	0.02	-0.006438338	1	10	0.08	2800	341.7835	40.92392	-91.39367
19379	22	0	-4	-4.194167	-1.230243	347.8768	0	12.82	0	0	0	5	5	0.02	0.002271551	1	10	0.08	2800	341.7884	40.92392	-91.39367
19508	22	-1	-1	-4.194486	-1.233893	347.8803	0	12.82	0	0	0	5	5	0.02	0.01025806	1	10	0.08	2800	341.8794	40.92392	-91.39367
19545	18	-2	-3	-4.195942	-1.23117	347.8824	0	12.76	0	0	0	5	5	0.02	0.01141251	1	10	0.08	2800	341.9177	40.92392	-91.39367
19637	25	0	0	-4.197523	-1.231428	347.8841	0	12.76	0	0	0	5	5	0.02	0.01131872	1	10	0.08	2800	341.8227	40.92392	-91.39367
19809	31	-3	-3	-4.196723	-1.230269	347.8902	0	12.76	0	0	0	5	5	0.02	0.007991392	1	10	0.08	2800	341.777	40.92392	-91.39367
19858	26	2	-2	-4.195702	-1.231653	347.8918	0	12.76	0	0	0	5	5	0.02	0.008142699	1	10	0.08	2800	341.649	40.92392	-91.39367
19967	25	1	-4	-4.194218	-1.230878	347.8947	0	12.76	0	0	0	5	5	0.02	0.004073311	1	10	0.08	2800	341.4658	40.92391	-91.39367
19996	26	0	-2	-4.193503	-1.230567	347.8962	0	12.76	0	0	0	5	5	0.02	0.002811106	1	10	0.08	2800	341.4658	40.92391	-91.39367
20109	29	3	0	-4.194257	-1.23296	347.8983	0	12.76	0	0	0	5	5	0.02	-0.001289743	1	10	0.08	2800	341.1491	40.92391	-91.39367
20197	26	0	-4	-4.193115	-1.235372	347.9014	0	12.76	0	0	0	5	5	0.02	-0.004755592	1	10	0.08	2800	342.3384	40.92391	-91.39367
20371	27	-3	0	-4.192954	-1.236701	347.9053	0	12.76	0	0	0	5	5	0.02	-0.009464519	1	10	0.08	2800	341.9721	40.92391	-91.39367
20437	27	-3	-4	-4.192004	-1.23702	347.9074	0	12.76	0	0	0	5	5	0.02	-0.004477916	1	10	0.08	2800	341.9721	40.92391	-91.39367
20514	30	0	0	-4.18669	-1.236474	347.9118	0	12.76	0	0	0	5	5	0.02	-0.001718008	1	10	0.08	2800	341.6534	40.92391	-91.39367
20581	27	-4	-7	-4.186392	-1.236258	347.9139	0	12.76	0	0	0	5	5	0.02	0.003615133	1	10	0.08	2800	341.7072	40.92391	-91.39367
20686	28	-1	0	-4.186489	-1.235849	347.9183	0	12.76	0	0	0	5	5	0.02	0.006008885	1	10	0.08	2800	341.8813	40.92391	-91.39367
20839	25	-1	-3	-4.182097	-1.237107	347.9222	0	12.76	0	0	0	5	5	0.02	-0.0003794528	1	10	0.08	2800	342.0321	40.92391	-91.39367
20886	24	0	-5	-4.183661	-1.2376	347.9237	0	12.76	0	0	0	5	5	0.02	-0.001348013	1	10	0.08	2800	342.0321	40.92391	-91.39367
20980	25	0	1	-4.181402	-1.235671	347.9275	0	12.76	0	0	0	5	5	0.02	-0.004344677	1	10	0.08	2800	341.4964	40.92391	-91.39367
21185	29	3	-1	-4.178043	-1.232729	347.9316	0	12.76	0	0	0	5	5	0.02	-0.005047922	1	10	0.08	2800	341.7264	40.92391	-91.39367
21220	24	0	-5	-4.17804	-1.233318	347.9331	0	12.76	0	0	0	5	5	0.02	-0.002153603	1	10	0.08	2800	341.9069	40.92391	-91.39367
21343	35	-6	5	-4.172523	-1.23325	347.9382	0	12.76	0	0	0	5	5	0.02	0.01290221	1	10	0.08	2800	341.7836	40.92391	-91.39367
21422	27	-2	0	-4.171187	-1.234267	347.9397	0	12.76	0	0	0	5	5	0.02	0.03246306	1	10	0.08	2800	341.4775	40.92391	-91.39367
21490	20	-2	-4	-4.171587	-1.234809	347.9424	0	12.76	0	0	0	5	5	0.02	0.04477058	1	10	0.08	2800	341.3873	40.92391	-91.39367
21590	26	-3	1	-4.17205	-1.237054	347.9467	0	12.76	0	0	0	5	5	0.02	0.0607981	1	10	0.08	2800	341.698	40.92391	-91.39367
21723	24	1	-2	-4.174294	-1.234783	347.9518	0	12.76	0	0	0	5	5	0.02	0.07488451	1	10	0.08	2800	341.4671	40.92391	-91.39367
21862	19	-2	2	-4.171186	-1.236514	347.9537	0	12.76	0	0	0	5	5	0.02	0.1026049	1	10	0.08	2800	341.7029	40.92391	-91.39367
21914	24	-1	-5	-4.170331	-1.235119	347.9557	0	12.76	0	0	0	5	5	0.02	0.1050954	1	10	0.08	2800	341.4789	40.92391	-91.39367
22016	26	5	-7	-4.170611	-1.236391	347.9579	0	12.76	0	0	0	5	5	0.02	0.1194955	1	10	0.08	2800	341.662	40.92391	-91.39367
22129	29	-4	-10	-4.168478	-1.235605	347.9633	0	12.76	0	0	0	5	5	0.02	0.1246523	1	10	0.08	2800	341.8364	40.92391	-91.39367
22222	27	-3	0	-4.16744	-1.234476	347.9669	0	12.76	0	0	0	5	5	0.02	0.1352744	1	10	0.08	2800	341.9373	40.92391	-91.39367
22368	32	-1	-5	-4.162175	-1.235159	347.9738	0	12.82	0	0	0	5	5	0.02	0.1401234	1	10	0.08	2800	341.6628	40.92391	-91.39367
22410	28	2	0	-4.161328	-1.234979	347.9755	0	12.82	0	0	0	5	5	0.02	0.1389257	1	10	0.08	2800	341.814	40.92391	-91.39367
22546	21	3	0	-4.159734	-1.234687	347.9804	0	12.82	0	0	0	5	5	0.02	0.1342083	1	10	0.08	2800	341.8616	40.92391	-91.39367
22654	30	0	-5	-4.159092	-1.237384	347.9828	0	12.82	0	0	0	5	5	0.02	0.1306912	1	10	0.08	2800	341.5014	40.92391	-91.39367
22768	23	1	-10	-4.159233	-1.238411	347.9872	0	12.82	0	0	0	5	5	0.02	0.1347996	1	10	0.08	2800	341.8155	40.92391	-91.39367
22832	24	-4	-2	-4.16123	-1.238505	347.9887	0	12.82	0	0	0	5	5	0.02	0.1339282	1	10	0.08	2800	341.813	40.92391	-91.39367
22936	20	0	-10	-4.162676	-1.236364	347.998	0	12.82	0	0	0	5	5	0.02	0.126762	1	10	0.08	2800	341.9051	40.92391	-91.39367
23103	27	5	-3	-4.160118	-1.236507	348.0034	0	12.82	0	0	0	5	5	0.02	0.1176162	1	10	0.08	2800	341.7684	40.92391	-91.39367
23252	31	-5	-4	-4.162296	-1.23936	348.0085	0	12.76	0	0	0	5	5	0.02	0.1064797	1	10	0.08	2800	341.9478	40.92391	-91.39367
23336	29	0	-4	-4.16143	-1.238843	348.0115	0	12.76	0	0	0	5	5	0.02	0.09667816	1	10	0.08	2800	342.1342	40.92391	-91.39367
23401	25	-2	-4	-4.159203	-1.23656	348.0157	0	12.76	0	0	0	5	5	0.02	0.09505478	1	10	0.08	2800	341.6833	40.92391	-91.39367
23558	28	3	1	-4.159709	-1.238474	348.0182	0	12.76	0	0	0	5	5	0.02	0.08704686	1	10	0.08	2800	342.1296	40.92391	-91.39367
23661	25	-1	-3	-4.163098	-1.23872	348.0227	0	12.76	0	0	0	5	5	0.02	0.08325168	1	10	0.08	2800	341.8146	40.92391	-91.39367
23679	29	-12	-3	-4.162865	-1.238533	348.0223	0	12.76	0	0	0	5	5	0.02	0.08263792	1	10	0.08	2800	341.8146	40.92391	-91.39367
23810	31	0	0	-4.160954	-1.235897	348.0271	0	12.76	0	0	0	5	5	0.02	0.07687861	1	10	0.08	2800	341.9031	40.92391	-91.39367
23880	26	-1	-4	-4.160935	-1.23766	348.0289	0	12.76	0	0	0	5	5	0.02	0.07709442	1	10	0.08	2800	342.2251	40.92391	-91.39367
23959	25	0	-4	-4.161488	-1.238199	348.0321	0	12.76	0	0	0	5	5	0.02	0.07646652	1	10	0.08	2800	341.5918	40.92391	-91.39367
24151	25	2	-2	-4.157406	-1.241465	348.0386	0	12.76	0	0	0	5	5	0.02	0.07588592	1	10	0.08	2800	341.9573	40.92391	-91.39367
24214	27	-3	0	-4.158248	-1.241272	348.0425	0	12.76	0	0	0	5	5	0.02	0.07617408	1	10	0.08	2800	341.8722	40.92391	-91.39367
24376	27	3	-5	-4.154912	-1.242618	348.05	0	12.76	0	0	0	5	5	0.02	0.06895767	1	10	0.08	2800	342.0903	40.92391	-91.39367
24476	29	10	-3	-4.151592	-1.244722	348.0544	0	12.76	0	0	0	5	5	0.02	0.06649926	1	10	0.08	2800	341.9137	40.92391	-91.39368
24602	31	3	0	-4.147504	-1.243426	348.0588	0	12.76	0	0	0	5	5	0.02	0.0662839	3	10	0.08	2800	341.792	40.92391	-91.39368
24713	28	-1	-4	-4.142394	-1.240627	348.0615	0	12.76	0	0	0	5	5	0.02	0.06164228	3	10	0.08	2800	341.9873	40.92391	-91.39368
24782	27	2	0	-4.138766	-1.240632	348.0635	0	12.76	0	0	0	5	5	0.02	0.04078403	3	10	0.08	2800	341.5872	40.92391	-91.39368
24914	22	3	-9	-4.137433	-1.241207	348.0706	0	12.82	0	0	0	5	5	0.02	0.02081964	3	10	0.08	2800	342.0068	40.92391	-91.39368
24966	22	2	2	-4.13912	-1.241671	348.0707	0	12.82	0	0	0	5	5	0.02	-0.006628234	3	10	0.08	2800	341.9081	40.92391	-91.39368
25077	27	2	-4	-4.140439	-1.242728	348.0764	0	12.82	0	0	0	5	5	0.02	-0.02000688	3	10	0.08	2800	341.4994	40.92391	-91.39368
25154	32	0	-5	-4.141518	-1.243062	348.0803	0	12.82	0	0	0	5	5	0.02	-0.03095211	3	10	0.08	2800	341.7169	40.92391	-91.39368
25212	30	0	0	-4.141727	-1.242621	348.0813	0	12.82	0	0	0	5	5	0.02	-0.03553443	3	10	0.08	2800	341.7169	40.92391	-91.39368
25326	29	0	-5	-4.142228	-1.242771	348.0911	0	12.82	0	0	0	5	5	0.02	-0.0288298	3	10	0.08	2800	341.9827	40.92391	-91.39368
25411	27	-1	-3	-4.13881	-1.2434	348.0939	0	12.82	0	0	0	5	5	0.02	-0.02214994	3	10	0.08	2800	341.6258	40.92391	-91.39368
25530	25	-4	0	-4.135888	-1.240347	348.0985	0	12.82	0	0	0	5	5	0.02	-0.00934992	3	10	0.08	2800	341.9089	40.92391	-91.39368
25613	20	0	-4	-4.134865	-1.24252	348.1025	0	12.82	0	0	0	5	5	0.02	0.003776055	3	10	0.08	2800	342.0977	40.92391	-91.39368
25737	27	10	-7	-4.134874	-1.240414	348.1074	0	12.82	0	0	0	5	5	0.02	0.006440511	3	10	0.08	2800	341.9214	40.92391	-91.39368
25879	25	-7	-3	-4.130696	-1.238918	348.1122	0	12.76	0	0	0	5	5	0.02	0.01822945	3	10	0.08	2800	341.6519	40.92391	-91.39368
25951	34	-1	-3	-4.130292	-1.236897	348.1176	0	12.76	0	0	0	5	5	0.02	0.02847748	3	10	0.08	2800	341.6546	40.92391	-91.39368
26089	28	-1	-4	-4.129537	-1.234187	348.1227	0	12.76	0	0	0	5	5	0.02	0.05378459	3	10	0.08	2800	341.8904	40.92391	-91.39368
26204	38	1	3	-4.127255	-1.236548	348.1272	0	12.76	0	0	0	5	5	0.02	0.08411287	3	10	0.08	2800	341.8047	40.92391	-91.39368
26326	22	-1	-1	-4.126401	-1.235646	348.1326	0	12.76	0	0	0	5	5	0.02	0.102179	3	10	0.08	2800	341.8531	40.92391	-91.39368
26382	29	3	-1	-4.124228	-1.235904	348.1332	0	12.76	0	0	0	5	5	0.02	0.1087042	3	10	0.08	2800	341.944	40.92391	-91.39368
26542	30	0	-5	-4.11907	-1.239913	348.1376	0	12.76	0	0	0	5	5	0.02	0.1144044	3	10	0.08	2800	341.8173	40.92391	-91.39368
26689	25	7	-2	-4.117045	-1.236776	348.1451	0	12.76	0	0	0	5	5	0.02	0.1143256	3	10	0.08	2800	341.8718	40.92391	-91.39368
26782	30	-1	-1	-4.114045	-1.235009	348.1478	0	12.76	0	0	0	5	5	0.02	0.1070384	3	10	0.08	2800	341.7843	40.92391	-91.39368
26886	30	2	-1	-4.113893	-1.237523	348.1536	0	12.76	0	0	0	5	5	0.02	0.1005644	3	10	0.08	2800	342.2514	40.92391	-91.39368
27008	30	-1	0	-4.111789	-1.236144	348.1572	0	12.76	0	0	0	5	5	0.02	0.08943477	3	10	0.08	2800	342.3525	40.92391	-91.39368
27096	28	0	-9	-4.110052	-1.236125	348.1608	0	12.76	0	0	0	5	5	0.02	0.07657285	3	10	0.08	2800	342.0327	40.92391	-91.39368
27193	28	-1	-1	-4.108863	-1.236676	348.1661	0	12.76	0	0	0	5	5	0.02	0.06755736	3	10	0.08	2800	341.6649	40.92391	-91.39368
27286	32	-3	-3	-4.107115	-1.237572	348.1671	0	12.76	0	0	0	5	5	0.02	0.06263746	3	10	0.08	2800	341.9414	40.92391	-91.39368
27394	36	-3	-5	-4.102272	-1.239826	348.1727	0	12.76	0	0	0	5	5	0.02	0.04420807	3	10	0.08	2800	342.0373	40.92391	-91.39368
27523	28	-5	-1	-4.100889	-1.236528	348.1774	0	12.76	0	0	0	5	5	0.02	0.03015906	3	10	0.08	2800	341.6382	40.92391	-91.39368
27637	29	-1	-5	-4.09661	-1.236442	348.1798	0	12.76	0	0	0	5	5	0.02	0.00556437	3	10	0.08	2800	341.6955	40.92391	-91.39368
27687	25	0	-3	-4.09611	-1.236155	348.1812	0	12.76	0	0	0	5	5	0.02	0.003059118	3	10	0.08	2800	341.6955	40.92391	-91.39368
27801	31	3	-4	-4.090792	-1.237594	348.1871	0	12.76	0	0	0	5	5	0.02	0.004300667	3	10	0.08	2800	342.3081	40.92391	-91.39368
27875	29	0	-2	-4.087697	-1.239235	348.1903	0	12.76	0	0	0	5	5	0.02	0.00423847	3	10	0.08	2800	342.0824	40.92391	-91.39368
27977	26	0	-3	-4.083712	-1.240242	348.1945	0	12.76	0	0	0	5	5	0.02	0.0007340629	3	10	0.08	2800	342.5408	40.92391	-91.39368
28092	43	-10	53	-4.081471	-1.238212	348.201	0	12.76	0	0	0	5	5	0.02	-0.01414111	3	10	0.08	2800	342.0639	40.92391	-91.39368
28172	51	18	68	-4.073778	-1.243453	348.192	0	12.76	0	0	0	5	5	0.02	-0.01742374	3	10	0.08	2800	342.1309	40.92391	-91.39368
28272	49	71	231	-4.081145	-1.215994	348.1955	0	12.76	0	0	0	5	5	0.02	-0.01980982	3	10	0.08	2800	342.2655	40.92391	-91.39368
28388	43	16	414	-4.071136	-1.235598	348.1835	0	12.76	0	0	0	5	5	0.02	-0.01378561	3	10	0.08	2800	343.5654	40.92391	-91.39368
28483	52	-20	11	-4.069614	-1.24094	348.2007	0	12.76	0	0	0	5	5	0.02	0.0007519068	3	10	0.08	2800	342.0933	40.92391	-91.39368
28622	34	11	34	-4.085282	-1.242553	348.2004	0	12.76	0	0	0	5	5	0.02	0.02323984	3	10	0.08	2800	342.3004	40.92391	-91.39368
28676	34	16	-63	-4.083072	-1.242672	348.2045	0	12.76	0	0	0	5	5	0.02	0.02680613	3	10	0.08	2800	342.9737	40.92391	-91.39368
28864	21	-35	-11	-4.091677	-1.243134	348.2043	0	12.76	0	0	0	5	5	0.02	0.04680042	3	10	0.08	2800	341.214	40.92391	-91.39368
28882	21	-35	-11	-4.091677	-1.246237	348.2038	0	12.76	0	0	0	5	5	0.02	0.04729272	3	10	0.08	2800	341.3321	40.92391	-91.39368
28988	62	10	-100	-4.096366	-1.250217	348.2166	0	12.76	0	0	0	5	5	0.02	0.04722613	3	10	0.08	2800	341.7213	40.92391	-91.39368
29111	-11	2	52	-4.091226	-1.245449	348.2137	0	12.76	0	0	0	5	5	0.02	0.04802016	3	10	0.08	2800	341.6842	40.92392	-91.39368
29173	85	-61	61	-4.083341	-1.237415	348.2224	0	12.76	0	0	0	5	5	0.02	0.05039267	3	10	0.08	2800	341.6815	40.92392	-91.39368
29229	0	-27	-48	-4.090389	-1.241497	348.2263	0	12.76	0	0	0	5	5	0.02	0.05733316	3	10	0.08	2800	341.4991	40.92392	-91.39368
29414	-34	-5	-54	-4.056861	-1.245577	348.2465	0	12.82	0	0	0	5	5	0.02	0.07237045	3	10	0.08	2800	341.7643	40.92392	-91.39368
29436	62	-33	52	-4.05708	-1.229257	348.2378	0	12.82	0	0	0	5	5	0.02	0.07599986	3	10	0.08	2800	341.7643	40.92392	-91.39368
29589	93	-54	27	-4.046031	-1.227748	348.2463	0	12.82	0	0	0	5	5	0.02	0.07603651	3	10	0.08	2800	342.5369	40.92392	-91.39368
29658	67	-2	82	-4.054205	-1.256537	348.2521	0	12.82	0	0	0	5	5	0.02	0.07796428	3	10	0.08	2800	342.5369	40.92392	-91.39368
29782	43	-7	-70	-4.068923	-1.270623	348.2562	0	12.82	0	0	0	5	5	0.02	0.08184259	3	10	0.08	2800	341.7266	40.92392	-91.39368
29890	37	-14	52	-4.074988	-1.2705	348.2573	0	12.82	0	0	0	5	5	0.02	0.09404378	3	10	0.08	2800	341.9523	40.92392	-91.39368
29947	36	1	34	-4.085898	-1.272964	348.2567	0	12.82	0	0	0	5	5	0.02	0.1005644	3	10	0.08	2800	341.6985	40.92392	-91.39368
30046	14	53	-18	-4.082645	-1.279564	348.2626	0	12.82	0	0	0	5	5	0.02	0.0989339	3	10	0.08	2800	341.686	40.92392	-91.39368
30139	11	-6	-46	-4.079635	-1.271641	348.2676	0	12.82	0	0	0	5	5	0.02	0.09875409	3	10	0.08	2800	341.9583	40.92392	-91.39368
30273	37	-83	61	-4.066729	-1.270102	348.2745	0	12.76	0	0	0	5	5	0.02	0.09373645	3	10	0.08	2800	341.7962	40.92392	-91.39368
30319	79	57	52	-4.060723	-1.277536	348.2733	0	12.76	0	0	0	5	5	0.02	0.09199716	3	10	0.08	2800	341.7962	40.92392	-91.39368
