time(ms)	gyro_x(deg/s)	gyro_y(deg/s)	gyro_z(deg/s)	orientation_roll(deg)	orientation_pitch(deg)	orientation_yaw(deg)	throttle	battery(V)	loop_time(uS)	pid_output_roll	pid_output_pitch	pid_output_yaw	pid_output_throttle	ultrasonic_alt	baro_alt	flight_mode	p_gain_altitude	i_gain_altitude	d_gain_altitude	compass_heading	latitude	longitude
30533	-53	-25	-126	-4.086844	-1.281824	348.2902	0	12.76	0	0	0	5	5	0.02	0.08583443	3	10	0.08	2800	342.642	40.92392	-91.39368
30578	-24	60	-79	-4.090679	-1.284811	348.2861	0	12.76	0	0	0	5	5	0.02	0.08678392	3	10	0.08	2800	341.94	40.92392	-91.39368
30704	-52	49	210	-4.066229	-1.244302	348.2895	0	12.76	0	0	0	5	5	0.02	0.09605927	3	10	0.08	2800	343.3312	40.92392	-91.39368
30774	148	41	-56	-4.034596	-1.235546	348.2951	0	12.76	0	0	0	5	5	0.02	0.09986759	3	10	0.08	2800	342.1791	40.92392	-91.39368
30896	32	-4	4	-4.051502	-1.255421	348.2921	0	12.76	0	0	0	5	5	0.02	0.1086886	3	10	0.08	2800	341.9289	40.92392	-91.39368
30981	9	24	-2	-4.074429	-1.261983	348.301	0	12.76	0	0	0	5	5	0.02	0.1149606	3	10	0.08	2800	342.5605	40.92392	-91.39368
31102	15	-18	-85	-4.084414	-1.260441	348.3077	0	12.76	0	0	0	5	5	0.02	0.1221851	3	10	0.08	2800	341.9405	40.92392	-91.39368
31187	-78	9	-58	-4.096959	-1.265012	348.3104	0	12.76	0	0	0	5	5	0.02	0.1308141	3	10	0.08	2800	341.3143	40.92392	-91.39368
31345	58	-3	-57	-4.092743	-1.269785	348.3081	0	12.76	0	0	0	5	5	0.02	0.1472128	3	10	0.08	2800	342.9613	40.92392	-91.39368
31464	50	-57	-56	-4.069377	-1.243602	348.3107	0	12.76	0	0	0	5	5	0.02	0.1506189	3	10	0.08	2800	342.5141	40.92392	-91.39368
31513	44	29	-140	-4.06987	-1.249956	348.3215	0	12.76	0	0	0	5	5	0.02	0.1522593	3	10	0.08	2800	342.2601	40.92392	-91.39368
31616	59	-4	83	-4.063564	-1.229877	348.325	0	12.76	0	0	0	5	5	0.02	0.151918	3	10	0.08	2800	341.9543	40.92392	-91.39368
31683	22	-52	-29	-4.079647	-1.23878	348.3256	0	12.76	0	0	0	5	5	0.02	0.1546554	3	10	0.08	2800	342.0837	40.92392	-91.39368
31837	28	12	92	-4.082958	-1.230274	348.3233	0	12.76	0	0	0	5	5	0.02	0.1646786	3	10	0.08	2800	341.8219	40.92392	-91.39368
31910	48	-18	13	-4.080005	-1.230796	348.3275	0	12.76	0	0	0	5	5	0.02	0.1647416	3	10	0.08	2800	341.9028	40.92392	-91.39368
32057	-63	83	-27	-4.089379	-1.238486	348.3398	0	12.76	0	0	0	5	5	0.02	0.1535597	3	10	0.08	2800	341.306	40.92392	-91.39368
32182	98	8	119	-4.068689	-1.228078	348.3381	0	12.76	0	0	0	5	5	0.02	0.1432205	3	10	0.08	2800	342.5084	40.92392	-91.39368
32257	107	23	-30	-4.0667	-1.230636	348.3542	0	12.76	0	0	0	5	5	0.02	0.1331574	3	10	0.08	2800	342.2548	40.92392	-91.39368
32434	-98	110	112	-4.107992	-1.231135	348.3573	0	12.76	0	0	0	5	5	0.02	0.1115184	3	10	0.08	2800	343.0224	40.92392	-91.39368
32500	-106	177	22	-4.102896	-1.242486	348.3639	0	12.76	0	0	0	5	5	0.02	0.1070594	3	10	0.08	2800	342.8753	40.92392	-91.39368
32591	32	25	-77	-4.10985	-1.241741	348.371	0	12.76	0	0	0	5	5	0.02	0.1002149	3	10	0.08	2800	341.763	40.92392	-91.39368
32742	52	22	67	-4.114507	-1.239762	348.3727	0	12.76	0	0	0	5	5	0.02	0.08735909	3	10	0.08	2800	342.9025	40.92392	-91.39368
32857	72	-58	75	-4.110573	-1.237551	348.3727	0	12.76	0	0	0	5	5	0.02	0.0812572	3	10	0.08	2800	342.1295	40.92392	-91.39368
32987	14	-3	-83	-4.100965	-1.234601	348.3808	0	12.76	0	0	0	5	5	0.02	0.06837791	3	10	0.08	2800	340.9749	40.92392	-91.39368
33070	-101	15	133	-4.116736	-1.236073	348.3825	0	12.7	0	0	0	5	5	0.02	0.06695907	3	10	0.08	2800	341.3671	40.92392	-91.39368
33146	24	-126	38	-4.078428	-1.210134	348.3862	0	12.7	0	0	0	5	5	0.02	0.06776154	3	10	0.08	2800	341.875	40.92392	-91.39368
33250	143	61	1	-4.089227	-1.249002	348.4011	0	12.7	0	0	0	5	5	0.02	0.07459372	3	10	0.08	2800	340.7669	40.92392	-91.39368
33293	69	38	-139	-4.060642	-1.216005	348.4329	0	12.7	0	0	0	5	5	0.02	0.0781802	3	10	0.08	2800	341.5121	40.92392	-91.39368
33448	190	19	-35	-4.036907	-1.215787	348.4411	0	12.7	0	0	0	5	5	0.02	0.09203251	3	10	0.08	2800	341.0885	40.92392	-91.39368
33570	74	-34	31	-3.990436	-1.188491	348.4548	0	12.7	0	0	0	5	5	0.02	0.09639396	3	10	0.08	2800	340.2898	40.92392	-91.39368
33643	81	-4	112	-3.998942	-1.135138	348.4596	0	12.7	0	0	0	5	5	0.02	0.1006483	3	10	0.08	2800	340.6831	40.92392	-91.39368
33719	28	120	34	-3.954367	-1.123169	348.4602	0	12.7	0	0	0	5	5	0.02	0.108245	3	10	0.08	2800	339.7628	40.92392	-91.39368
33817	-60	-6	26	-3.953487	-1.081144	348.4724	0	12.7	0	0	0	5	5	0.02	0.1182322	3	10	0.08	2800	340.664	40.92392	-91.39368
33931	95	-24	236	-3.886847	-1.04491	348.4845	0	13.33	0	0	0	5	5	0.02	0.1239552	3	10	0.08	2800	340.7973	40.92392	-91.39368
33950	35	-143	77	-3.8947	-1.023262	348.4741	0	13.33	0	0	0	5	5	0.02	0.1239552	3	10	0.08	2800	340.7973	40.92392	-91.39368
34070	-106	-91	-51	-3.869124	-0.9749125	348.4941	0	13.33	0	0	0	5	5	0.02	0.1368024	3	10	0.08	2800	342.6276	40.92392	-91.39368
34245	38	-107	-37	-3.934488	-1.048217	348.4506	0	13.33	0	0	0	5	5	0.02	0.1505424	3	10	0.08	2800	343.82	40.92392	-91.39368
34297	35	-110	24	-3.956387	-1.061016	348.4573	0	13.33	0	0	0	5	5	0.02	0.1516066	3	10	0.08	2800	342.9869	40.92392	-91.39368
34384	-17	5	41	-3.963372	-1.083225	348.457	0	13.33	0	0	0	5	5	0.02	0.1539733	3	10	0.08	2800	343.1623	40.92392	-91.39368
34450	1	66	108	-3.983683	-1.088731	348.4597	0	13.33	0	0	0	5	5	0.02	0.1573806	3	10	0.08	2800	341.7866	40.92392	-91.39368
34559	31	-49	-16	-3.986985	-1.097467	348.4702	0	13.33	0	0	0	5	5	0.02	0.1624705	3	10	0.08	2800	342.6327	40.92392	-91.39368
34777	55	71	-50	-3.99238	-1.125045	348.5016	0	13.33	0	0	0	5	5	0.02	0.1498681	3	10	0.08	2800	343.8918	40.92392	-91.39368
34972	77	113	47	-3.996877	-1.129671	348.5043	0	12.65	0	0	0	5	5	0.02	0.133626	3	10	0.08	2800	342.0408	40.92392	-91.39368
35160	81	150	279	-3.931068	-1.110715	348.5059	0	12.65	0	0	0	5	5	0.02	0.1399586	3	10	0.08	2800	342.1843	40.92392	-91.39368
35213	176	-59	-337	-3.751429	-0.9763407	348.6215	0	12.65	0	0	0	5	5	0.02	0.1478793	3	10	0.08	2800	342.1843	40.92392	-91.39368
35366	5296	-1256	969	1.850348	0.7061263	347.718	0	12.65	0	0	0	5	5	0.02	0.1660543	3	10	0.08	2800	339.211	40.92392	-91.39368
35453	670	-795	-1435	5.498513	1.368884	337.3903	0	12.65	0	0	0	5	5	0.02	0.1901052	3	10	0.08	2800	337.0938	40.92392	-91.39368
35552	-1630	1065	-1587	1.98414	0.4062081	339.963	0	12.65	0	0	0	5	5	0.02	0.2148837	3	10	0.08	2800	334.8178	40.92392	-91.39368
35734	86	129	-1143	-4.454389	-0.5115103	343.3899	0	12.65	0	0	0	5	5	0.02	0.3098315	3	10	0.08	2800	344.4856	40.92392	-91.39368
35881	1567	2739	-2178	0.09536473	-2.349447	350.2878	0	12.65	0	0	0	5	5	0.02	0.4023279	3	10	0.08	2800	350.6407	40.92392	-91.39368
36063	-2723	-3103	-648	-6.248989	-0.8042177	355.0107	0	12.65	0	0	0	5	5	0.02	0.5546553	3	10	0.08	2800	359.5748	40.92392	-91.39368
36170	2569	-1125	350	-5.695767	3.272624	355.4172	0	12.65	0	0	0	5	5	0.02	0.6072909	3	10	0.08	2800	359.3037	40.92392	-91.39368
36288	-602	852	1342	-2.192427	1.147224	353.1606	0	12.65	0	0	0	5	5	0.02	0.714209	3	10	0.08	2800	355.8609	40.92392	-91.39368
36379	668	-2410	1845	-4.990073	5.117826	350.7511	0	12.65	0	0	0	5	5	0.02	0.7570258	3	10	0.08	2800	352.9	40.92392	-91.39368
36458	1644	753	852	-3.493295	5.312562	349.3638	0	12.65	0	0	0	5	5	0.02	0.836421	3	10	0.08	2800	352.9	40.92392	-91.39368
36573	-932	1472	1536	-2.600099	2.351109	346.8224	0	12.65	0	0	0	5	5	0.02	0.8789673	3	10	0.08	2800	349.5562	40.92392	-91.39368
36713	622	1071	489	-3.758683	-1.311847	343.2136	0	12.42	0	0	0	5	5	0.02	0.9189402	3	10	0.08	2800	346.48	40.92392	-91.39367
36758	2847	1689	1015	-1.26583	-2.441804	342.1043	0	12.42	0	0	0	5	5	0.02	0.9235047	3	10	0.08	2800	347.4849	40.92392	-91.39367
36903	-1685	-820	-279	-0.6512298	-4.532349	340.4638	0	12.42	0	0	0	5	5	0.02	0.9389844	3	10	0.08	2800	346.8402	40.92392	-91.39367
37026	-827	-1148	1200	-3.257261	-3.262754	340.4612	0	12.42	0	0	0	5	5	0.02	0.9322625	3	10	0.08	2800	346.9536	40.92392	-91.39367
37170	949	-1741	220	-7.028948	-0.06501093	338.8823	0	12.42	0	0	0	5	5	0.02	0.9320206	3	10	0.08	2800	344.4994	40.92392	-91.39367
37290	-2021	-982	1420	-5.091163	4.562599	337.772	0	12.42	0	0	0	5	5	0.02	0.9333856	3	10	0.08	2800	341.1474	40.92392	-91.39367
37396	-207	482	-499	-7.530217	4.691355	336.6975	0	12.42	0	0	0	5	5	0.02	0.9330072	3	10	0.08	2800	338.7998	40.92392	-91.39367
37463	1189	1713	-698	-6.891685	4.042172	336.4626	0	12.42	0	0	0	5	5	0.02	0.9321468	3	10	0.08	2800	338.7998	40.92392	-91.39367
37600	-2459	666	-755	-3.31821	1.083908	336.7667	0	12.19	0	0	0	5	5	0.02	0.9137235	3	10	0.08	2800	342.8763	40.92392	-91.39367
37721	1708	2169	-1546	-6.523014	-1.327669	338.8184	0	12.19	0	0	0	5	5	0.02	0.9114478	3	10	0.08	2800	344.4277	40.92392	-91.39367
37827	1429	-1889	-744	-1.345142	-1.495006	342.3296	0	12.19	0	0	0	5	5	0.02	0.9080374	3	10	0.08	2800	351.4685	40.92392	-91.39367
37996	4687	3233	-3232	0.4294048	0.6722022	349.7925	0	12.19	0	0	0	5	5	0.02	0.9131088	3	10	0.08	2800	352.9737	40.92392	-91.39366
38125	-907	2063	-3343	3.902072	-3.538403	5.434579	0	12.19	0	0	0	5	5	0.02	0.9293279	3	10	0.08	2800	4.885925	40.92392	-91.39366
38213	-2726	-3340	-891	-1.082695	-0.8550252	8.591593	0	12.19	0	0	0	5	5	0.02	0.9579065	3	10	0.08	2800	10.29059	40.92392	-91.39366
38344	1953	-867	-1608	-0.9105753	2.171938	10.02009	0	12.19	0	0	0	5	5	0.02	0.9867257	3	10	0.08	2800	14.0253	40.92392	-91.39366
38432	-2041	-547	427	0.2929013	1.502308	9.775082	0	12.19	0	0	0	5	5	0.02	1.025134	3	10	0.08	2800	12.07343	40.92392	-91.39366
38469	-2295	-1980	1120	-1.058067	2.14272	9.263519	0	12.19	0	0	0	5	5	0.02	1.05457	3	10	0.08	2800	9.496826	40.92392	-91.39366
38613	398	-634	2084	-3.135432	5.698982	6.085202	0	12.48	0	0	0	5	5	0.02	1.115137	3	10	0.08	2800	4.742523	40.92392	-91.39366
38759	1233	758	1694	-1.136599	1.066285	0.2360656	0	12.48	0	0	0	5	5	0.02	1.155742	3	10	0.08	2800	357.6345	40.92392	-91.39366
38809	239	1739	1191	-0.7404193	0.279626	359.2191	0	12.48	0	0	0	5	5	0.02	1.185	3	10	0.08	2800	357.0028	40.92392	-91.39366
38914	-703	456	320	-3.015371	-1.206985	355.6565	0	12.48	0	0	0	5	5	0.02	1.238134	3	10	0.08	2800	354.4189	40.92392	-91.39366
39001	1893	392	435	-1.721281	-2.308868	354.771	0	12.48	0	0	0	5	5	0.02	1.265684	3	10	0.08	2800	354.4189	40.92392	-91.39366
39120	-2443	-1331	-271	-3.849743	0.05973063	353.6202	0	12.48	0	0	0	5	5	0.02	1.303579	3	10	0.08	2800	352.1965	40.92392	-91.39366
39204	-505	-96	892	-4.979359	0.4035898	353.5892	0	12.48	0	0	0	5	5	0.02	1.357662	3	10	0.08	2800	354.6107	40.92392	-91.39366
39364	-1244	-200	507	-6.436284	0.6254803	353.5215	0	12.48	0	0	0	5	5	0.02	1.40181	3	10	0.08	2800	354.3358	40.92392	-91.39366
39486	-1273	264	-463	-8.522457	0.6823236	353.4937	0	12.76	0	0	0	5	5	0.02	1.424887	3	10	0.08	2800	356.4464	40.92392	-91.39366
39552	-795	337	-285	-9.599664	0.2308761	353.3974	0	12.76	0	0	0	5	5	0.02	1.437535	3	10	0.08	2800	2.178925	40.92392	-91.39366
39696	-1241	23	-111	-8.081286	-6.148403	6.174437	0	12.76	0	0	0	5	5	0.02	1.45432	3	10	0.08	2800	6.14682	40.92392	-91.39366
39758	332	-2350	-133	-8.41393	-5.301482	6.494014	0	12.76	0	0	0	5	5	0.02	1.459906	3	10	0.08	2800	6.14682	40.92392	-91.39366
39898	2081	842	-928	-3.011839	-5.822526	7.109358	0	12.76	0	0	0	5	5	0.02	1.463979	3	10	0.08	2800	5.959564	40.92391	-91.39366
39965	1461	-201	-1487	-2.030081	-5.822251	7.526165	0	12.76	0	0	0	5	5	0.02	1.463605	3	10	0.08	2800	5.959564	40.92391	-91.39367
40098	-181	-1546	180	-4.525025	0.7785569	9.841946	0	12.76	0	0	0	5	5	0.02	1.451209	3	10	0.08	2800	5.042175	40.92391	-91.39367
40250	3625	1874	-2029	-2.320519	-2.898067	11.31043	0	12.76	0	0	0	5	5	0.02	1.419563	3	10	0.08	2800	8.008484	40.92391	-91.39367
40297	2531	961	-939	0.9309732	-4.069473	12.85318	0	12.42	0	0	0	5	5	0.02	1.415917	3	10	0.08	2800	8.399292	40.92391	-91.39367
40426	1084	1680	-1447	5.076147	-7.813572	16.64543	0	12.42	0	0	0	5	5	0.02	1.39935	3	10	0.08	2800	12.54422	40.92391	-91.39367
40490	4916	1316	-1573	5.87546	-8.515004	17.4127	0	12.42	0	0	0	5	5	0.02	1.381939	3	10	0.08	2800	11.57098	40.92391	-91.39367
40614	-2167	-3609	-2217	8.346461	-6.314832	21.6508	0	12.42	0	0	0	5	5	0.02	1.378125	3	10	0.08	2800	14.23361	40.92391	-91.39368
40714	-1853	-5401	384	6.571522	-0.699509	22.42937	0	12.42	0	0	0	5	5	0.02	1.390829	3	10	0.08	2800	13.03754	40.92391	-91.39368
40768	-2563	-5144	873	4.116386	5.114915	10.309	0	12.42	0	0	0	5	5	0.02	1.393865	3	10	0.08	2800	10.45416	40.92391	-91.39368
40873	56	-2317	1672	-0.2775664	10.84637	9.185493	0	12.42	0	0	0	5	5	0.02	1.407175	3	10	0.08	2800	8.765015	40.92391	-91.39368
41028	-607	2617	2377	-1.213506	5.311052	4.521025	0	12.42	0	0	0	5	5	0.02	1.420014	3	10	0.08	2800	1.77887	40.92391	-91.39368
41116	-12	2294	2702	-2.353978	1.576253	1.446707	0	12.42	0	0	0	5	5	0.02	1.43759	3	10	0.08	2800	1.308655	40.92391	-91.39368
41243	1146	-1659	2586	-1.4569	1.734862	355.4981	0	12.59	0	0	0	5	5	0.02	1.444165	3	10	0.08	2800	353.7615	40.92391	-91.39368
41362	1708	692	2599	-0.6442124	2.652418	351.3918	0	12.59	0	0	0	5	5	0.02	1.435235	3	10	0.08	2800	347.7113	40.92392	-91.39368
41390	1708	2125	1949	0.009064007	1.862797	350.3362	0	12.59	0	0	0	5	5	0.02	1.431098	3	10	0.08	2800	347.4783	40.92392	-91.39368
41551	-777	532	545	0.1788661	-0.8106016	346.847	0	12.59	0	0	0	5	5	0.02	1.39359	3	10	0.08	2800	341.5193	40.92392	-91.39368
41642	-3117	818	-26	-2.222838	-2.654377	346.9939	0	12.59	0	0	0	5	5	0.02	1.366445	3	10	0.08	2800	341.2194	40.92392	-91.39368
41744	3645	-916	-1416	-3.166117	-2.206787	350.119	0	12.59	0	0	0	5	5	0.02	1.331374	3	10	0.08	2800	345.2703	40.92392	-91.39368
41891	30	1229	-2694	3.12952	-4.244985	358.8524	0	12.59	0	0	0	5	5	0.02	1.274192	3	10	0.08	2800	355.97	40.92392	-91.39368
42060	2679	2965	-2914	-4.75415	0.8887516	10.34545	0	12.59	0	0	0	5	5	0.02	1.215169	3	10	0.08	2800	13.53055	40.92392	-91.39368
42107	5677	1931	-1878	-0.3280569	-1.330255	13.6694	0	12.59	0	0	0	5	5	0.02	1.207335	3	10	0.08	2800	13.53055	40.92392	-91.39368
42165	753	-3080	-1633	1.691855	-0.2119698	16.44086	0	12.25	0	0	0	5	5	0.02	1.176267	3	10	0.08	2800	15.42606	40.92392	-91.39368
42430	-2501	470	193	6.140071	1.549881	26.94176	0	12.25	0	0	0	5	5	0.02	1.124073	3	10	0.08	2800	24.14807	40.92392	-91.39368
42567	1035	-909	1950	1.32815	5.853484	26.27674	0	12.25	0	0	0	5	5	0.02	1.143395	3	10	0.08	2800	28.90836	40.92392	-91.39368
42634	412	2020	3184	1.020133	4.923637	23.35388	0	12.25	0	0	0	5	5	0.02	1.16776	3	10	0.08	2800	23.18713	40.92392	-91.39368
42706	-273	813	5887	0.3692319	2.361147	15.61547	0	12.25	0	0	0	5	5	0.02	1.207458	3	10	0.08	2800	15.67984	40.92392	-91.39368
42844	-645	-807	7363	-1.051985	1.875463	5.152286	0	12.25	0	0	0	5	5	0.02	1.266719	3	10	0.08	2800	358.9079	40.92392	-91.39368
42963	1500	-930	7123	-2.075058	1.305376	350.1526	0	12.25	0	0	0	5	5	0.02	1.325239	3	10	0.08	2800	346.6202	40.92392	-91.39368
43039	1741	617	3820	-0.2795526	0.789168	329.565	0	12.59	0	0	0	5	5	0.02	1.352322	3	10	0.08	2800	330.6884	40.92392	-91.39368
43149	-2101	1249	3162	-1.344202	-0.3712439	322.5433	0	12.59	0	0	0	5	5	0.02	1.38904	3	10	0.08	2800	324.8045	40.92392	-91.39368
43236	-1729	-240	2593	-3.617982	-1.483984	318.4588	0	12.59	0	0	0	5	5	0.02	1.451775	3	10	0.08	2800	317.6668	40.92392	-91.39368
43333	-5752	-1129	-830	-10.21282	0.7317959	316.123	0	12.59	0	0	0	5	5	0.02	1.509498	3	10	0.08	2800	314.4551	40.92392	-91.39368
43441	-215	-764	-2418	-14.83012	0.9739834	317.7648	0	12.59	0	0	0	5	5	0.02	1.540932	3	10	0.08	2800	314.6258	40.92392	-91.39368
43530	315	-515	-2804	-11.19935	2.906362	322.4235	0	12.59	0	0	0	5	5	0.02	1.563649	3	10	0.08	2800	315.9479	40.92392	-91.39368
43701	-769	463	-1650	-11.66858	4.118433	330.1207	0	12.59	0	0	0	5	5	0.02	1.626375	3	10	0.08	2800	324.5078	40.92392	-91.39368
43788	6879	1464	-1680	-2.900615	-1.098713	335.2329	0	12.59	0	0	0	5	5	0.02	1.667383	3	10	0.08	2800	337.0508	40.92392	-91.39368
43828	4820	447	-2048	0.2331044	-1.470858	336.2672	0	12.59	0	0	0	5	5	0.02	1.691685	3	10	0.08	2800	340.1458	40.92392	-91.39368
43968	-3677	-427	-649	-2.409751	-1.187096	338.0277	0	12.65	0	0	0	5	5	0.02	1.764087	3	10	0.08	2800	342.2039	40.92392	-91.39368
44084	1469	-577	382	-3.890764	-0.39756	338.1229	0	12.65	0	0	0	5	5	0.02	1.793209	3	10	0.08	2800	343.3908	40.92392	-91.39368
44200	-896	-199	1213	-2.551401	0.3560291	336.2731	0	12.65	0	0	0	5	5	0.02	1.81085	3	10	0.08	2800	340.6468	40.92391	-91.39367
44345	-403	1280	1277	-7.070956	-0.3703856	332.9493	0	12.65	0	0	0	5	5	0.02	1.815924	3	10	0.08	2800	335.7357	40.92391	-91.39367
44426	273	334	1046	-7.764089	-0.9350828	332.1922	0	12.65	0	0	0	5	5	0.02	1.822983	3	10	0.08	2800	335.53	40.92391	-91.39367
44582	3296	2438	-2027	-0.751784	-4.879963	334.1591	0	12.65	0	0	0	5	5	0.02	1.81923	3	10	0.08	2800	338.6229	40.92391	-91.39367
44634	-2387	-1531	-543	-0.6094244	-5.603414	335.5778	0	12.65	0	0	0	5	5	0.02	1.817097	3	10	0.08	2800	341.5588	40.92391	-91.39367
44753	-665	-3662	-1674	-5.861873	0.9242698	338.2108	0	12.65	0	0	0	5	5	0.02	1.801793	3	10	0.08	2800	343.5006	40.92391	-91.39367
44954	-976	-2433	-121	-3.036788	0.3772884	342.4394	0	12.31	0	0	0	5	5	0.02	1.757958	3	10	0.08	2800	349.6836	40.92391	-91.39367
45038	-1138	-37	-179	-5.171814	3.99409	342.5329	0	12.31	0	0	0	5	5	0.02	1.735005	3	10	0.08	2800	348.9249	40.92391	-91.39367
45139	2746	3852	705	-4.43761	1.732478	342.222	0	12.31	0	0	0	5	5	0.02	1.719987	3	10	0.08	2800	347.3678	40.92391	-91.39367
45248	97	734	523	-1.590772	-2.660822	341.8704	0	12.31	0	0	0	5	5	0.02	1.70376	3	10	0.08	2800	350.0645	40.92391	-91.39367
45353	-2252	-1469	-1110	-5.534543	-0.4246348	343.0146	0	12.31	0	0	0	5	5	0.02	1.692567	3	10	0.08	2800	349.3686	40.92391	-91.39367
45464	1514	1286	-1927	-7.358698	1.398498	344.0921	0	12.31	0	0	0	5	5	0.02	1.664655	3	10	0.08	2800	348.4124	40.92391	-91.39367
45535	3647	2785	-454	-4.272286	-0.8094033	345.7489	0	12.31	0	0	0	5	5	0.02	1.655057	3	10	0.08	2800	354.0425	40.92391	-91.39367
45729	3357	1438	-1874	-7.043468	2.963994	351.441	0	12.31	0	0	0	5	5	0.02	1.633412	3	10	0.08	2800	358.7293	40.92391	-91.39367
45802	2563	2019	-1084	-4.968944	1.800147	2.173401	0	12.25	0	0	0	5	5	0.02	1.626773	3	10	0.08	2800	2.173401	40.92391	-91.39367
45906	-404	-483	925	-2.968412	-1.19661	1.722963	0	12.25	0	0	0	5	5	0.02	1.619152	3	10	0.08	2800	2.029907	40.92391	-91.39367
45938	-816	-3190	1057	-3.921904	0.9340645	0.5691633	0	12.25	0	0	0	5	5	0.02	1.609682	3	10	0.08	2800	2.61557	40.92391	-91.39367
46130	2362	1720	1669	-2.174632	1.906499	354.242	0	12.25	0	0	0	5	5	0.02	1.591323	3	10	0.08	2800	350.5234	40.92391	-91.39367
46148	2362	1720	1669	-2.174632	1.906499	354.242	0	12.25	0	0	0	5	5	0.02	1.576146	3	10	0.08	2800	350.5234	40.92391	-91.39367
46291	1710	2747	2210	1.837706	-3.407427	350.4538	0	12.25	0	0	0	5	5	0.02	1.5531	3	10	0.08	2800	350.6857	40.92391	-91.39367
46405	1340	838	-534	0.0716074	-1.922464	345.2855	0	12.25	0	0	0	5	5	0.02	1.514816	3	10	0.08	2800	342.0058	40.92391	-91.39367
46437	1356	2633	2047	1.050425	-2.922558	344.5636	0	12.25	0	0	0	5	5	0.02	1.508223	3	10	0.08	2800	342.0058	40.92391	-91.39367
46586	-267	-1125	-878	-0.4398838	-4.483263	342.615	0	12.25	0	0	0	5	5	0.02	1.458887	3	10	0.08	2800	339.2462	40.92391	-91.39367
46658	1751	1226	-1454	0.4539462	-3.436764	342.9271	0	12.25	0	0	0	5	5	0.02	1.436888	3	10	0.08	2800	335.7636	40.92391	-91.39367
46742	-1784	-808	-125	0.5031826	-3.444462	344.2006	0	12.25	0	0	0	5	5	0.02	1.415818	3	10	0.08	2800	340.4225	40.92391	-91.39367
46856	-972	-3186	1684	-7.135375	1.4433	345.0355	0	12.25	0	0	0	5	5	0.02	1.386597	3	10	0.08	2800	340.0228	40.92391	-91.39367
47056	611	1557	520	-7.588095	4.071095	344.1213	0	12.25	0	0	0	5	5	0.02	1.358373	3	10	0.08	2800	336.1774	40.92391	-91.39367
47173	1564	2815	-225	-5.195636	0.7613398	343.3726	0	12.25	0	0	0	5	5	0.02	1.349573	3	10	0.08	2800	337.2359	40.92391	-91.39367
47253	-237	-990	1097	-4.157783	-1.121971	341.8627	0	12.25	0	0	0	5	5	0.02	1.34112	3	10	0.08	2800	337.6483	40.92391	-91.39367
47341	1414	-1023	110	-3.62578	0.8691145	340.5519	0	12.25	0	0	0	5	5	0.02	1.337065	3	10	0.08	2800	333.9617	40.92391	-91.39367
47505	958	1424	947	-1.724524	-1.081727	339.5998	0	12.25	20040	0	0	5	5	0.02	1.320245	8	10	0.08	2800	331.3882	40.92391	-91.39367
47630	403	-1193	-205	1.784916	-3.087197	338.4177	0	12.25	24390	0	0	5	5	0.02	1.303443	8	10	0.08	2800	331.528	40.92391	-91.39367
47713	-400	-1279	159	-0.5774468	-0.09449138	328.0506	0	12.25	23727	0	0	5	5	0.02	1.30252	8	10	0.08	2800	328.051	40.92391	-91.39367
47761	284	456	-1108	-1.367841	1.168839	329.267	0	12.25	24566	13	3	5	5	0.02	1.302407	8	10	0.08	2800	330.1286	40.92391	-91.39367
47861	-394	1363	-1476	-0.2017259	-0.3235911	330.0855	0	12.25	23948	19	5	5	5	0.02	1.306714	8	10	0.08	2800	328.7885	40.92391	-91.39367
47998	-3526	-2370	-1222	-3.927893	-0.4769711	333.454	0	12.25	23702	28	-1	5	5	0.02	1.318423	8	10	0.08	2800	333.0137	40.92391	-91.39367
48143	1875	1713	-314	-0.2092636	-0.7625178	338.5655	0	12.25	23110	37	7	5	5	0.02	1.326805	8	10	0.08	2800	338.1544	40.92391	-91.39367
48277	169	-1964	-1407	-1.089296	-0.8215965	342.4732	0	12.25	23719	46	15	5	5	0.02	1.339404	8	10	0.08	2800	343.6844	40.92391	-91.39366
48360	-2020	-1216	-1330	-2.039657	1.073017	343.804	0	12.25	23759	48	8	5	5	0.02	1.348643	8	10	0.08	2800	343.6844	40.92391	-91.39366
48456	-1711	-1827	-1552	-2.870986	2.596544	346.7544	0	12.25	24553	54	10	5	5	0.02	1.366827	8	10	0.08	2800	344.9279	40.92391	-91.39366
48620	-736	-275	-674	-5.312942	5.373507	348.3621	0	12.42	23970	74	27	5	5	0.02	1.404366	8	10	0.08	2800	347.5356	40.92391	-91.39366
48679	570	568	1292	-6.476114	5.548577	347.6626	0	12.42	23737	77	28	5	5	0.02	1.418608	8	10	0.08	2800	348.3925	40.92391	-91.39366
48845	-50	957	1486	-5.522954	0.701872	342.9291	0	12.42	23911	80	-4	5	5	0.02	1.479801	8	10	0.08	2800	345.0112	40.92391	-91.39366
48933	661	-342	2192	-5.390435	-0.7850174	339.5452	0	12.42	23774	87	0	5	5	0.02	1.531399	8	10	0.08	2800	341.7752	40.92392	-91.39365
49072	-1225	-298	2640	-5.959356	0.2631598	336.1275	0	12.42	24530	87	-4	5	5	0.02	1.556973	8	10	0.08	2800	340.7434	40.92392	-91.39365
49135	395	128	1894	-6.742037	0.1697637	333.358	0	12.42	23742	78	-22	5	5	0.02	1.578748	8	10	0.08	2800	335.8414	40.92392	-91.39365
49244	686	1263	881	-5.778402	-2.441993	331.4224	0	12.42	23926	83	-21	5	5	0.02	1.601084	8	10	0.08	2800	335.6821	40.92392	-91.39365
49430	-1909	-944	-722	-5.898721	-2.997343	330.3202	0	12.19	23924	100	-10	5	5	0.02	1.595277	8	10	0.08	2800	334.5855	40.92392	-91.39365
49463	-500	-253	187	-6.623703	-2.442267	330.4973	0	12.19	24386	93	-15	5	5	0.02	1.591571	8	10	0.08	2800	333.825	40.92392	-91.39365
49541	1046	1093	79	-5.689531	-2.497926	331.3395	0	12.19	23775	97	-14	5	5	0.02	1.587802	8	10	0.08	2800	336.7167	40.92392	-91.39365
49652	753	-1080	-1344	-6.995301	-0.8876103	333.1548	0	12.19	23755	93	0	5	5	0.02	1.57501	8	10	0.08	2800	337.5419	40.92392	-91.39365
49849	-2215	1057	-498	-5.374831	-2.269618	335.5656	0	12.19	23932	93	4	5	5	0.02	1.525359	8	10	0.08	2800	343.2112	40.92392	-91.39365
49976	-481	-1536	-120	-8.728406	-0.9500707	336.2297	0	12.19	23926	97	6	5	5	0.02	1.498882	8	10	0.08	2800	345.1566	40.92392	-91.39365
50029	1482	-575	614	-7.965115	0.5568167	336.7865	0	12.19	23927	93	10	5	5	0.02	1.489061	8	10	0.08	2800	345.3323	40.92392	-91.39365
50202	516	174	249	-7.435097	2.615975	337.7295	0	12.19	23737	106	9	5	5	0.02	1.456033	8	10	0.08	2800	343.7126	40.92392	-91.39365
50264	1334	861	590	-6.020381	1.767892	338.1177	0	12.19	23743	118	9	5	5	0.02	1.438903	8	10	0.08	2800	347.2932	40.92392	-91.39365
50385	-1835	-71	525	-8.680403	0.5970713	337.5851	0	12.14	23902	109	11	5	5	0.02	1.407995	8	10	0.08	2800	347.0186	40.92392	-91.39365
50513	3457	1193	-1983	-9.862619	4.154047	340.0545	0	12.14	23752	104	19	5	5	0.02	1.35777	8	10	0.08	2800	347.8446	40.92392	-91.39365
50570	1081	1547	-1176	-7.788022	2.820829	340.6222	0	12.14	23302	97	35	5	5	0.02	1.333072	8	10	0.08	2800	347.8446	40.92393	-91.39365
50637	-2424	-875	-1741	-8.534063	3.023156	353.7144	0	12.14	23089	91	61	5	5	0.02	1.3268	8	10	0.08	2800	355.1336	40.92393	-91.39365
50795	1115	100	-2280	-3.194626	1.434298	357.0636	0	12.14	23727	63	65	5	5	0.02	1.275308	8	10	0.08	2800	359.4053	40.92393	-91.39365
50871	-1804	-758	-3645	-2.752078	0.1454841	359.7964	0	12.14	23756	53	69	5	5	0.02	1.260708	8	10	0.08	2800	359.4053	40.92393	-91.39365
50983	-20	-1997	-428	-6.111962	3.590822	2.264188	0	12.14	24547	40	75	5	5	0.02	1.251535	8	10	0.08	2800	3.244965	40.92393	-91.39365
51039	1817	-566	-231	-3.513243	4.860234	2.904879	0	12.14	24381	26	75	5	5	0.02	1.249594	8	10	0.08	2800	6.406921	40.92393	-91.39365
51219	-197	-578	1202	-4.492349	7.275079	0.1283227	0	12.14	23765	30	63	5	5	0.02	1.247246	8	10	0.08	2800	358.8515	40.92393	-91.39365
51315	313	-924	956	-2.374048	5.396508	356.0479	0	12.08	23749	27	69	5	5	0.02	1.250738	8	10	0.08	2800	353.5473	40.92393	-91.39365
51372	34	-84	334	-3.669166	6.092386	355.0307	0	12.08	23908	27	67	5	5	0.02	1.254462	8	10	0.08	2800	350.1116	40.92393	-91.39365
51483	2273	1897	1401	-2.810291	5.448565	351.2956	0	12.08	23309	22	65	5	5	0.02	1.260161	8	10	0.08	2800	347.5598	40.92393	-91.39365
51533	2331	2161	1096	-1.208868	3.150097	350.0088	0	12.08	24543	21	69	5	5	0.02	1.262308	8	10	0.08	2800	345.5912	40.92393	-91.39365
51607	945	1036	63	0.6751084	1.476938	349.8127	0	12.08	23928	13	71	5	5	0.02	1.273066	8	10	0.08	2800	344.5548	40.92393	-91.39365
51771	-2756	-1096	-1638	-0.5640338	4.07648	340.6015	0	12.08	23750	15	79	5	5	0.02	1.293223	8	10	0.08	2800	341.8835	40.92393	-91.39365
51852	-2276	452	-1027	-0.1267244	2.718203	344.2903	0	12.08	23069	18	61	5	5	0.02	1.297239	8	10	0.08	2800	344.1996	40.92393	-91.39365
51905	-1886	-933	-1659	-0.9330229	2.993207	345.1129	0	12.08	23894	17	61	5	5	0.02	1.309003	8	10	0.08	2800	344.1996	40.92393	-91.39365
52098	-693	-168	-115	-4.050473	4.897693	348.9728	0	12.08	23942	14	32	5	5	0.02	1.347435	8	10	0.08	2800	347.4448	40.92393	-91.39365
52142	1173	756	-33	-3.729468	4.503944	349.0155	0	12.59	23739	30	33	5	5	0.02	1.352014	8	10	0.08	2800	347.4448	40.92393	-91.39365
52274	-49	446	1101	-3.999895	2.536322	347.7466	0	12.59	24407	41	23	5	5	0.02	1.384798	8	10	0.08	2800	346.9648	40.92393	-91.39365
52357	-676	-2749	1757	-4.3451	4.591611	345.8529	0	12.59	23274	25	21	5	5	0.02	1.413215	8	10	0.08	2800	345.2018	40.92393	-91.39365
52511	1488	1112	2002	-4.90413	5.209848	342.8398	0	12.59	23757	22	9	5	5	0.02	1.463623	8	10	0.08	2800	341.9032	40.92393	-91.39365
52646	1291	193	1881	-2.900858	-1.179345	336.8077	0	12.59	23734	15	-3	5	5	0.02	1.513872	8	10	0.08	2800	339.0807	40.92393	-91.39365
52765	1228	576	298	-1.539701	6.685257E-05	334.7767	0	12.59	23108	16	-6	5	5	0.02	1.556821	8	10	0.08	2800	332.915	40.92393	-91.39365
52798	1519	1418	480	-0.6266295	-0.8423775	334.5917	0	12.59	23926	16	-7	5	5	0.02	1.57329	8	10	0.08	2800	332.915	40.92393	-91.39365
52923	-1525	269	841	-1.711944	-0.7647842	334.0006	0	12.59	23737	26	-11	5	5	0.02	1.609751	8	10	0.08	2800	332.007	40.92393	-91.39365
53041	1766	225	227	-3.219185	1.344832	333.7648	0	12.08	23744	22	-10	5	5	0.02	1.665389	8	10	0.08	2800	330.6164	40.92393	-91.39365
53154	682	1774	-321	-0.0386184	-2.182269	334.7624	0	12.08	23915	21	-10	5	5	0.02	1.701431	8	10	0.08	2800	331.2916	40.92392	-91.39365
53275	-772	-1604	-2101	-2.870966	0.0006872177	336.5551	0	12.08	23917	20	-13	5	5	0.02	1.746037	8	10	0.08	2800	332.8114	40.92392	-91.39365
53329	-16	-618	-434	-2.737089	0.9842216	337.36	0	12.08	23918	20	-13	5	5	0.02	1.764347	8	10	0.08	2800	335.7074	40.92392	-91.39365
53392	1349	1896	289	-2.484764	0.5429641	337.58	0	12.08	23766	19	-14	5	5	0.02	1.775476	8	10	0.08	2800	335.7074	40.92392	-91.39365
53500	-857	-1217	-36	-2.849714	-2.645878	337.6463	0	12.08	24398	35	-21	5	5	0.02	1.795635	8	10	0.08	2800	338.6637	40.92392	-91.39365
53574	-341	-1933	-152	-3.52576	-0.3028463	337.5945	0	12.08	23719	39	-24	5	5	0.02	1.797551	8	10	0.08	2800	338.4642	40.92392	-91.39365
53711	271	1289	-691	-3.021024	-0.2883486	337.3065	0	12.08	23751	46	-15	5	5	0.02	1.800989	8	10	0.08	2800	336.3095	40.92392	-91.39365
53881	459	1548	322	-3.315622	-0.6322297	337.3455	0	12.08	23753	54	-22	5	5	0.02	1.795696	8	10	0.08	2800	338.0793	40.92392	-91.39365
54022	-825	-1610	-892	-3.728839	-1.173339	338.1577	0	12.36	23093	51	-23	5	5	0.02	1.781814	8	10	0.08	2800	339.5423	40.92392	-91.39365
54097	1685	1815	265	-4.508679	-0.8546284	338.2384	0	12.36	23745	52	-24	5	5	0.02	1.756373	8	10	0.08	2800	340.2208	40.92392	-91.39365
54277	263	94	-1399	-5.183897	-2.538829	340.0251	0	12.36	23756	79	-16	5	5	0.02	1.730458	8	10	0.08	2800	341.7492	40.92392	-91.39365
54418	-221	709	-2164	-4.444237	-2.826184	342.9648	0	12.36	23903	73	-6	5	5	0.02	1.673028	8	10	0.08	2800	347.0629	40.92392	-91.39365
54456	-431	18	-522	-6.223373	-0.6506022	344.8712	0	12.36	23720	75	-1	5	5	0.02	1.655456	8	10	0.08	2800	349.2339	40.92392	-91.39365
54559	791	-473	-2551	-4.710013	-0.5330638	346.7259	0	12.36	23742	84	4	5	5	0.02	1.630449	8	10	0.08	2800	349.2339	40.92392	-91.39365
54809	-4429	-6017	-397	-8.335439	1.918708	349.2514	0	12.36	23907	63	10	5	5	0.02	1.583874	8	10	0.08	2800	355.3405	40.92392	-91.39365
54924	3116	793	644	-6.754778	7.011111	347.9973	0	11.97	23883	74	21	5	5	0.02	1.576638	8	10	0.08	2800	351.2207	40.92392	-91.39365
54975	1686	1938	503	-5.345173	5.951046	347.2514	0	11.97	23737	77	22	5	5	0.02	1.576638	8	10	0.08	2800	351.2207	40.92392	-91.39365
55150	-142	-30	142	-7.09261	0.9776546	342.9352	0	11.97	23922	78	24	5	5	0.02	1.582584	8	10	0.08	2800	346.551	40.92392	-91.39365
55212	206	-448	1668	-5.330524	0.873963	340.7609	0	11.97	23728	81	28	5	5	0.02	1.592568	8	10	0.08	2800	343.6903	40.92392	-91.39365
55350	963	211	-259	-9.364975	4.943092	338.545	0	11.97	23917	101	23	5	5	0.02	1.600529	8	10	0.08	2800	340.0309	40.92392	-91.39365
55422	2416	3058	-865	-6.556873	2.650302	338.1211	0	11.97	23945	86	25	5	5	0.02	1.635358	8	10	0.08	2800	339.4625	40.92392	-91.39365
55483	259	3981	-667	-4.896794	0.7185665	338.1752	0	11.97	23709	89	26	5	5	0.02	1.659672	8	10	0.08	2800	340.6729	40.92392	-91.39365
55584	17	-2052	-1542	-4.676086	-0.4136728	339.9355	0	11.97	23107	82	34	5	5	0.02	1.696498	8	10	0.08	2800	344.118	40.92392	-91.39365
55673	-1695	-1317	-1951	-5.61355	1.771858	341.1726	0	11.97	24401	78	36	5	5	0.02	1.730553	8	10	0.08	2800	344.3189	40.92392	-91.39365
55763	-238	-1763	2	-7.87981	5.133846	343.1732	0	12.31	23712	76	41	5	5	0.02	1.75096	8	10	0.08	2800	345.5985	40.92392	-91.39365
55906	326	1015	788	-7.384238	4.98475	343.5788	0	12.31	24545	69	47	5	5	0.02	1.78407	8	10	0.08	2800	347.5893	40.92392	-91.39365
55970	808	-72	521	-6.442064	4.289998	343.6816	0	12.31	23911	70	34	5	5	0.02	1.789032	8	10	0.08	2800	347.8132	40.92392	-91.39365
56142	1068	2499	1360	-5.33195	2.591966	341.3214	0	12.31	23750	63	36	5	5	0.02	1.852842	8	10	0.08	2800	345.3127	40.92392	-91.39365
56202	-131	-931	674	-4.578396	-0.6199464	339.3178	0	12.31	23913	61	36	5	5	0.02	1.860124	8	10	0.08	2800	345.6855	40.92393	-91.39365
56292	-447	-2147	707	-5.372682	1.451535	338.0652	0	12.31	23893	58	39	5	5	0.02	1.879285	8	10	0.08	2800	341.1263	40.92393	-91.39365
56405	756	2326	1293	-3.027976	1.931332	335.9944	0	12.31	23288	65	35	5	5	0.02	1.908461	8	10	0.08	2800	339.5838	40.92393	-91.39365
56484	-1338	70	574	-3.214214	1.426588	335.5491	0	12.31	23749	68	34	5	5	0.02	1.918296	8	10	0.08	2800	338.7301	40.92393	-91.39365
56732	-1105	-1214	-124	-4.578514	4.111064	334.7675	0	12.48	23890	71	46	5	5	0.02	1.921955	8	10	0.08	2800	334.7014	40.92393	-91.39365
56856	-192	-713	232	-6.445533	2.672887	333.4544	0	12.48	23136	79	44	5	5	0.02	1.912843	8	10	0.08	2800	336.077	40.92393	-91.39365
56919	-763	-1261	396	-6.415193	2.812582	332.8907	0	12.48	23901	63	52	5	5	0.02	1.906409	8	10	0.08	2800	336.077	40.92393	-91.39365
56994	-1186	-170	645	-3.748601	1.321735	331.5086	0	12.48	23746	61	53	5	5	0.02	1.902834	8	10	0.08	2800	333.5919	40.92393	-91.39365
57105	-2787	-746	118	-3.122291	1.911521	330.8423	0	12.48	23916	62	42	5	5	0.02	1.905982	8	10	0.08	2800	334.4472	40.92393	-91.39365
57242	-2694	-1781	569	-10.48325	2.524439	330.1186	0	12.48	23931	64	31	5	5	0.02	1.908076	8	10	0.08	2800	330.5086	40.92393	-91.39365
57337	1675	-349	823	-9.053185	4.826184	329.5637	0	12.48	23754	57	32	5	5	0.02	1.904368	8	10	0.08	2800	327.7974	40.92393	-91.39365
57388	3396	1777	-402	-6.186583	2.828191	329.4914	0	12.48	23753	54	29	5	5	0.02	1.892839	8	10	0.08	2800	327.5462	40.92393	-91.39365
57482	1989	1456	-918	-2.736642	0.1295072	330.3087	0	12.48	23702	50	28	5	5	0.02	1.882396	8	10	0.08	2800	327.6031	40.92393	-91.39365
57592	-322	-2137	-1150	-6.041692	4.109586	332.7568	0	12.48	24394	46	26	5	5	0.02	1.864726	8	10	0.08	2800	330.6783	40.92393	-91.39365
57768	960	1694	-979	-4.652109	2.116043	334.1362	0	12.08	23745	62	27	5	5	0.02	1.827285	8	10	0.08	2800	330.0698	40.92393	-91.39365
57847	-1053	516	-810	-4.718183	1.275762	336.4686	0	12.08	23762	56	30	5	5	0.02	1.814192	8	10	0.08	2800	331.3651	40.92393	-91.39365
57960	-1374	-1136	-1484	-4.717896	1.632949	337.7244	0	12.08	23906	56	32	5	5	0.02	1.799454	8	10	0.08	2800	331.5342	40.92393	-91.39365
58012	405	701	-1099	-3.364457	2.090519	337.7878	0	12.08	23287	55	32	5	5	0.02	1.798235	8	10	0.08	2800	334.5832	40.92393	-91.39365
58117	-542	928	-205	-4.423499	-0.7883953	336.8273	0	12.08	23121	48	20	5	5	0.02	1.79313	8	10	0.08	2800	331.3949	40.92393	-91.39365
58234	6728	2371	-3312	-1.013019	-2.152946	339.4486	0	12.08	24393	31	18	5	5	0.02	1.787771	8	10	0.08	2800	333.7332	40.92393	-91.39365
58288	-953	-382	-2453	2.624191	-3.807823	342.7137	0	12.08	23747	27	18	5	5	0.02	1.785397	8	10	0.08	2800	337.6929	40.92393	-91.39365
58385	-1746	-2977	-3784	-3.753343	3.588294	338.7889	0	12.08	23742	39	0	5	5	0.02	1.786455	8	10	0.08	2800	336.8934	40.92393	-91.39365
58529	-935	4071	256	-5.209779	1.696599	343.6292	0	12.08	24373	45	-13	5	5	0.02	1.793195	8	10	0.08	2800	344.4798	40.92392	-91.39365
58591	1118	1168	653	-5.732473	-1.107728	343.6568	0	12.19	23787	61	-17	5	5	0.02	1.809483	8	10	0.08	2800	346.6568	40.92392	-91.39365
58695	-1014	-1417	1779	-5.09587	-1.040998	341.9532	0	12.19	23948	65	-23	5	5	0.02	1.824433	8	10	0.08	2800	347.9081	40.92392	-91.39365
58804	-629	-1348	2401	-7.434106	2.159344	339.2802	0	12.19	23751	79	-25	5	5	0.02	1.853025	8	10	0.08	2800	343.4096	40.92392	-91.39365
58964	539	2849	-452	-3.959981	-3.15505	337.7834	0	12.19	23749	80	-37	5	5	0.02	1.865803	8	10	0.08	2800	340.8698	40.92392	-91.39365
59102	-3923	-3101	-494	-11.48427	-2.158793	337.9038	0	12.19	23936	95	-47	5	5	0.02	1.899274	8	10	0.08	2800	337.2187	40.92392	-91.39365
59138	-3923	-3101	-494	-11.48427	-2.158793	337.9038	0	12.19	23936	83	-35	5	5	0.02	1.906466	8	10	0.08	2800	337.2187	40.92392	-91.39365
59207	3595	-1171	-731	-11.49131	2.337899	339.1185	0	12.19	23747	88	-31	5	5	0.02	1.957627	8	10	0.08	2800	341.1424	40.92392	-91.39365
59389	1701	291	395	-6.227179	-2.447698	337.0871	0	12.19	24553	76	-68	5	5	0.02	2.052939	8	10	0.08	2800	343.2833	40.92392	-91.39365
59423	2078	965	1591	-5.159483	-2.822224	336.5887	0	12.19	23112	73	-74	5	5	0.02	2.067699	8	10	0.08	2800	345.4205	40.92392	-91.39365
59497	-198	382	1628	-1.889831	-4.449748	334.342	0	12.08	23918	72	-55	5	5	0.02	2.137303	8	10	0.08	2800	341.9225	40.92392	-91.39365
59616	-2952	-1858	2632	-5.006988	-2.660589	341.1174	0	12.08	23791	78	-43	5	5	0.02	2.185528	8	10	0.08	2800	341.3738	40.92392	-91.39365
59700	-249	-990	2338	-6.852988	-1.120294	339.1315	0	12.08	23732	69	-74	5	5	0.02	2.221024	8	10	0.08	2800	338.5364	40.92391	-91.39365
59809	-286	2093	1867	-5.058247	-4.258113	335.1461	0	12.08	24347	59	-89	5	5	0.02	2.245725	8	10	0.08	2800	332.8349	40.92391	-91.39365
59926	418	-1355	1001	-5.843351	-4.90642	331.7388	0	12.08	23755	72	-63	5	5	0.02	2.290853	8	10	0.08	2800	333.0293	40.92391	-91.39365
60071	-75	1176	1521	-3.900765	-7.989099	328.5778	0	12.08	23925	74	-94	5	5	0.02	2.33064	8	10	0.08	2800	330.8036	40.92391	-91.39365
60124	-916	-687	174	-4.126861	-8.104297	328.3315	0	12.08	24418	73	-99	5	5	0.02	2.335512	8	10	0.08	2800	330.8036	40.92391	-91.39365
60239	1543	2741	-1016	-3.421761	-6.562624	329.4778	0	12.08	23726	84	-92	5	5	0.02	2.358091	8	10	0.08	2800	331.7674	40.92391	-91.39365
60305	505	3019	-960	-2.924333	-8.198044	330.3142	0	12.08	24546	95	-96	5	5	0.02	2.36724	8	10	0.08	2800	331.7674	40.92391	-91.39365
60491	-2936	-2894	-2993	-9.023651	-4.636412	338.1075	0	12.02	23921	91	-91	5	5	0.02	2.37202	8	10	0.08	2800	339.4394	40.92391	-91.39365
60561	-386	1725	-1006	-10.4731	-3.547373	340.7022	0	12.02	23282	97	-65	5	5	0.02	2.365355	8	10	0.08	2800	344.5529	40.92391	-91.39365
60723	2325	-381	-1475	-6.237906	-4.102736	344.2162	0	12.02	24400	99	-35	5	5	0.02	2.346655	8	10	0.08	2800	353.2462	40.92391	-91.39364
60892	-1738	-2629	-1344	-8.672921	-2.218228	355.344	0	12.02	23935	98	-19	5	5	0.02	2.327347	8	10	0.08	2800	356.5613	40.92391	-91.39364
60945	1623	656	1246	-8.68354	-1.454244	355.3986	0	12.02	23741	98	-18	5	5	0.02	2.322411	8	10	0.08	2800	356.5613	40.92391	-91.39364
61051	-2024	79	734	-7.624819	-1.951781	353.9702	0	12.02	24388	109	-20	5	5	0.02	2.297399	8	10	0.08	2800	353.455	40.92391	-91.39364
61180	3080	-215	-67	-8.003775	-1.57849	350.5558	0	12.02	23913	92	-9	5	5	0.02	2.271918	8	10	0.08	2800	349.7491	40.92391	-91.39364
61213	3080	-215	-67	-8.003775	-1.57849	350.5558	0	12.02	23913	91	-6	5	5	0.02	2.271918	8	10	0.08	2800	349.7491	40.92391	-91.39364
61374	-2779	-512	-633	-7.962462	-2.308684	348.2654	0	11.97	24365	89	12	5	5	0.02	2.213172	8	10	0.08	2800	346.3737	40.92391	-91.39364
61467	2224	-2787	832	-8.402003	-0.4493264	348.2717	0	11.97	23763	91	20	5	5	0.02	2.163043	8	10	0.08	2800	347.0925	40.92391	-91.39364
61509	63	-140	-92	-7.786616	0.1080147	348.0505	0	11.97	23283	75	33	5	5	0.02	2.14222	8	10	0.08	2800	347.0925	40.92391	-91.39364
61665	6291	736	-2034	-8.347497	6.128875	353.6976	0	11.97	23747	59	53	5	5	0.02	2.097546	8	10	0.08	2800	346.6642	40.92391	-91.39364
61752	-1551	-929	-351	-5.150198	-0.5960392	358.3065	0	11.97	23291	59	34	5	5	0.02	2.068527	8	10	0.08	2800	351.8181	40.92391	-91.39365
61799	1168	-1667	-257	-5.352722	0.3910051	358.981	0	11.97	23800	47	36	5	5	0.02	2.057575	8	10	0.08	2800	356.024	40.92391	-91.39365
61946	-847	848	-1295	2.430774	-2.64191	3.500989	0	11.97	23914	26	40	5	5	0.02	2.019052	8	10	0.08	2800	359.447	40.92391	-91.39365
62035	-2381	-4449	-12	-6.294356	2.594141	4.755713	0	11.97	23753	27	37	5	5	0.02	2.000758	8	10	0.08	2800	358.9764	40.92391	-91.39365
62117	1801	-3196	1312	-7.195842	6.911956	5.08145	0	11.97	23760	22	35	5	5	0.02	1.99467	8	10	0.08	2800	2.644531	40.92391	-91.39365
62189	2748	2096	1009	-3.717403	5.888484	3.254155	0	11.8	23946	28	43	5	5	0.02	1.997947	8	10	0.08	2800	356.7048	40.92391	-91.39365
62266	2464	2527	-730	-0.9965841	3.105426	2.922915	0	11.8	23925	28	43	5	5	0.02	2.01365	8	10	0.08	2800	353.9118	40.92391	-91.39365
62322	-1353	2001	1230	0.6728003	-0.1558193	2.074607	0	11.8	23295	27	45	5	5	0.02	2.020051	8	10	0.08	2800	353.7203	40.92391	-91.39365
62490	-5682	-4824	442	-1.818337	3.419373	2.225003	0	11.8	23761	31	58	5	5	0.02	2.097004	8	10	0.08	2800	355.5149	40.92391	-91.39365
62559	-2243	-2511	265	-6.725641	7.086308	348.1666	0	11.8	24375	45	52	5	5	0.02	2.107448	8	10	0.08	2800	348.4378	40.92392	-91.39365
62689	1720	424	2343	-7.294106	6.117735	344.0117	0	11.8	23755	52	54	5	5	0.02	2.187129	8	10	0.08	2800	343.2564	40.92392	-91.39365
