time(ms)	gyro_x(deg/s)	gyro_y(deg/s)	gyro_z(deg/s)	orientation_roll(deg)	orientation_pitch(deg)	orientation_yaw(deg)	throttle	battery(V)	loop_time(uS)	pid_output_roll	pid_output_pitch	pid_output_yaw	pid_output_throttle	ultrasonic_alt	baro_alt	flight_mode	p_gain_altitude	i_gain_altitude	d_gain_altitude	compass_heading	latitude	longitude
157052	1799	526	-151	-5.88406	3.752843	335.7119	0	11.29	23911	78	43	5	5	0.02	2.054131	8	10	0.08	2800	340.887	40.92393	-91.39364
157131	-809	-58	226	-4.712131	1.809735	334.779	0	11.29	23953	85	45	5	5	0.02	2.02691	8	10	0.08	2800	342.6414	40.92393	-91.39364
157235	240	965	-904	-4.000489	0.471768	335.0576	0	11.29	24553	85	46	5	5	0.02	1.99749	8	10	0.08	2800	341.1352	40.92393	-91.39364
157370	-2589	-1782	-858	-3.877282	-0.3188604	336.5774	0	11.29	23913	67	41	5	5	0.02	1.957109	8	10	0.08	2800	345.1398	40.92393	-91.39364
157515	1382	-499	596	-5.236988	3.164217	338.7545	0	11.29	23763	68	46	5	5	0.02	1.914896	8	10	0.08	2800	344.5523	40.92393	-91.39364
157654	1273	2410	-1189	-2.809012	1.269291	340.1489	0	11.29	23914	67	47	5	5	0.02	1.897419	8	10	0.08	2800	346.1868	40.92393	-91.39364
157729	-703	-1936	-593	-5.197446	1.546229	342.2408	0	11.29	23732	62	40	5	5	0.02	1.887966	8	10	0.08	2800	348.0636	40.92393	-91.39364
157848	-1117	-1388	-1192	-8.419917	7.562897	343.1913	0	11.4	23173	60	38	5	5	0.02	1.885108	8	10	0.08	2800	348.2527	40.92393	-91.39364
157883	1000	241	126	-8.133709	7.653741	342.9392	0	11.4	23897	49	38	5	5	0.02	1.884789	8	10	0.08	2800	348.2527	40.92393	-91.39365
157959	2486	3188	1673	-5.110721	4.690946	341.1286	0	11.4	23745	63	55	5	5	0.02	1.884344	8	10	0.08	2800	344.8248	40.92393	-91.39365
158069	2331	1670	-45	-2.614894	1.508552	340.1617	0	11.4	23759	65	49	5	5	0.02	1.881492	8	10	0.08	2800	346.145	40.92393	-91.39365
158188	-2051	-2916	1427	-6.151314	4.207146	335.2908	0	11.4	23942	68	45	5	5	0.02	1.876314	8	10	0.08	2800	342.7791	40.92393	-91.39365
158322	-365	1768	1218	-7.195399	3.56951	330.4424	0	11.4	23935	57	48	5	5	0.02	1.863993	8	10	0.08	2800	333.8351	40.92393	-91.39365
158376	589	1591	1358	-6.722075	2.371835	329.4019	0	11.4	23741	54	47	5	5	0.02	1.862349	8	10	0.08	2800	333.8351	40.92393	-91.39365
158545	-245	403	-963	-5.318372	1.761611	325.8786	0	11.4	23951	55	29	5	5	0.02	1.864471	8	10	0.08	2800	330.5404	40.92393	-91.39365
158654	1114	1794	-943	-4.438661	0.5707566	327.0572	0	11.4	23749	47	39	5	5	0.02	1.875706	8	10	0.08	2800	328.5096	40.92393	-91.39365
158669	1114	1794	-943	-4.438661	0.5707566	327.0572	0	11.4	23749	47	39	5	5	0.02	1.877314	8	10	0.08	2800	328.5096	40.92393	-91.39365
158801	-607	-3265	-909	-4.230954	4.198707	330.9188	0	11.34	23916	49	26	5	5	0.02	1.87491	8	10	0.08	2800	332.5417	40.92392	-91.39365
158887	426	83	-1613	-4.764994	6.1287	332.8587	0	11.34	23916	49	23	5	5	0.02	1.869338	8	10	0.08	2800	336.4356	40.92392	-91.39365
158998	-544	-167	-1025	-2.596618	3.657013	335.6976	0	11.34	23280	49	40	5	5	0.02	1.866079	8	10	0.08	2800	337.5461	40.92392	-91.39365
159168	-270	-75	1050	-3.404454	3.852637	336.4441	0	11.34	23132	50	47	5	5	0.02	1.875951	8	10	0.08	2800	339.9152	40.92392	-91.39365
159247	-1078	852	-2166	-4.927359	2.736937	336.5223	0	11.34	23740	51	23	5	5	0.02	1.883375	8	10	0.08	2800	340.078	40.92392	-91.39365
159346	881	1195	919	-4.486279	1.376542	336.2978	0	11.34	23279	40	29	5	5	0.02	1.893792	8	10	0.08	2800	341.3796	40.92392	-91.39365
159372	-641	444	424	-4.52879	0.8518072	336.0352	0	11.34	23747	40	29	5	5	0.02	1.904483	8	10	0.08	2800	341.3457	40.92392	-91.39365
159547	2953	887	968	-2.52194	1.936381	334.35	0	11.34	23916	44	14	5	5	0.02	1.93843	8	10	0.08	2800	339.5409	40.92392	-91.39365
159629	-1153	1182	554	-2.112764	1.30939	333.6304	0	11.34	23899	45	8	5	5	0.02	1.949182	8	10	0.08	2800	339.1055	40.92392	-91.39365
159803	1189	426	24	-2.747702	1.561905	332.187	0	11.34	23918	44	11	5	5	0.02	1.963394	8	10	0.08	2800	337.7158	40.92392	-91.39365
159914	829	1563	1512	-1.944094	-0.6069921	330.2406	0	11.34	23279	58	13	5	5	0.02	1.970982	8	10	0.08	2800	336.1943	40.92392	-91.39365
160030	-2250	-1809	-948	-4.687618	-0.2609362	329.0139	0	11.34	23923	55	10	5	5	0.02	1.963342	8	10	0.08	2800	334.028	40.92392	-91.39365
160078	410	-308	-1239	-4.972455	0.2840315	329.0358	0	11.34	23762	54	9	5	5	0.02	1.950061	8	10	0.08	2800	334.028	40.92392	-91.39365
160194	-1274	93	-1020	-3.134435	-0.422027	330.1981	0	11.34	23910	53	9	5	5	0.02	1.936692	8	10	0.08	2800	334.6227	40.92392	-91.39365
160335	1019	205	-1045	-2.455752	-0.8271545	334.0538	0	11.34	23096	68	2	5	5	0.02	1.925996	8	10	0.08	2800	337.8875	40.92392	-91.39365
160435	-619	156	-1729	-3.482374	1.5266	338.2563	0	11.34	23742	61	11	5	5	0.02	1.897706	8	10	0.08	2800	341.1866	40.92392	-91.39365
160522	-716	206	388	-4.388978	1.879913	339.6708	0	11.34	23281	61	13	5	5	0.02	1.883079	8	10	0.08	2800	343.3916	40.92392	-91.39365
160766	-1834	-2003	-432	-8.249693	3.445124	339.7293	0	11.29	23938	76	15	5	5	0.02	1.832565	8	10	0.08	2800	344.0018	40.92392	-91.39365
160869	1674	919	1385	-7.172725	4.400926	338.4438	0	11.29	23757	80	17	5	5	0.02	1.830702	8	10	0.08	2800	340.554	40.92392	-91.39365
160992	1164	1265	878	-7.274269	1.523692	336.3651	0	11.29	23123	89	5	5	5	0.02	1.82693	8	10	0.08	2800	339.7963	40.92392	-91.39365
161060	-65	3014	-873	-6.141283	-0.5512918	336.1536	0	11.29	24377	92	3	5	5	0.02	1.817674	8	10	0.08	2800	340.6883	40.92392	-91.39365
161225	-354	-1868	-780	-4.305653	-4.138086	336.0868	0	11.29	23746	94	15	5	5	0.02	1.805956	8	10	0.08	2800	345.5844	40.92392	-91.39365
161307	-1690	-1136	-693	-6.339861	1.408663	336.7033	0	11.29	23758	94	13	5	5	0.02	1.800576	8	10	0.08	2800	340.7202	40.92392	-91.39365
161446	607	-416	-815	-8.060621	2.89788	336.3022	0	11.29	23913	93	12	5	5	0.02	1.79659	8	10	0.08	2800	342.2458	40.92392	-91.39364
161564	-2226	144	578	-6.625605	2.236846	338.0375	0	11.63	23119	99	13	5	5	0.02	1.794778	8	10	0.08	2800	341.8558	40.92392	-91.39364
161634	-2118	-370	-1031	-8.569279	1.843285	338.4213	0	11.63	23750	98	13	5	5	0.02	1.795832	8	10	0.08	2800	344.1817	40.92392	-91.39364
161864	-339	-221	296	-9.500993	5.782454	339.4916	0	11.63	24546	110	35	5	5	0.02	1.816155	8	10	0.08	2800	345.6258	40.92392	-91.39364
161970	347	2025	431	-9.280684	4.406572	339.407	0	11.63	23943	111	39	5	5	0.02	1.842573	8	10	0.08	2800	345.7045	40.92392	-91.39364
162086	1200	1193	246	-7.16804	0.03289995	339.0051	0	11.63	23912	86	32	5	5	0.02	1.863418	8	10	0.08	2800	347.8177	40.92392	-91.39364
162122	391	-528	168	-7.087158	0.2396446	338.77	0	11.63	23764	84	32	5	5	0.02	1.866539	8	10	0.08	2800	347.8177	40.92392	-91.39364
162289	705	2017	838	-7.78789	3.052301	337.4345	0	11.63	23933	80	37	5	5	0.02	1.883972	8	10	0.08	2800	343.8121	40.92392	-91.39364
162440	-339	-813	-506	-4.411194	0.7307769	350.1802	0	11.23	23727	60	43	5	5	0.02	1.875982	8	10	0.08	2800	349.5276	40.92392	-91.39364
162601	1061	-181	967	-5.138803	2.800148	350.5312	0	11.23	23765	53	38	5	5	0.02	1.855302	8	10	0.08	2800	349.1151	40.92392	-91.39364
162632	692	773	1069	-5.11926	2.823573	350.1089	0	11.23	24370	59	53	5	5	0.02	1.852512	8	10	0.08	2800	347.748	40.92392	-91.39364
162810	-55	-945	1972	-4.63231	4.564814	347.9332	0	11.23	24535	61	43	5	5	0.02	1.831991	8	10	0.08	2800	347.3868	40.92392	-91.39364
162926	2972	2005	1661	-2.767705	1.815284	346.5224	0	11.23	23920	61	35	5	5	0.02	1.812669	8	10	0.08	2800	345.0074	40.92392	-91.39364
162944	2972	2005	1661	-2.767705	1.815284	346.5224	0	11.23	23920	61	34	5	5	0.02	1.809268	8	10	0.08	2800	345.0074	40.92392	-91.39364
163034	-2590	-1488	-373	-4.807595	2.43011	345.2885	0	11.23	23752	52	44	5	5	0.02	1.800974	8	10	0.08	2800	341.4178	40.92392	-91.39364
163145	482	-508	2222	-5.254497	4.498834	343.722	0	11.23	23109	54	55	5	5	0.02	1.777266	8	10	0.08	2800	339.0423	40.92392	-91.39365
163239	14	251	-33	-5.434144	3.929126	342.4885	0	11.23	24384	56	57	5	5	0.02	1.769536	8	10	0.08	2800	337.0371	40.92392	-91.39365
163410	-674	-1137	-163	-4.559281	2.633671	342.1075	0	11.17	23921	57	50	5	5	0.02	1.750475	8	10	0.08	2800	336.532	40.92392	-91.39365
163537	-2048	-1443	-1957	-2.892208	2.517627	344.5076	0	11.17	23919	52	53	5	5	0.02	1.735824	8	10	0.08	2800	337.2339	40.92392	-91.39365
163589	-3636	-1351	-3038	-5.581919	3.312383	347.1964	0	11.17	23914	49	56	5	5	0.02	1.725799	8	10	0.08	2800	342.1136	40.92392	-91.39365
163662	-35	-1880	-1523	-6.920959	5.616421	349.0319	0	11.17	23279	46	57	5	5	0.02	1.714448	8	10	0.08	2800	342.5928	40.92392	-91.39365
163728	2099	672	-547	-6.206669	6.626821	350.9845	0	11.17	23895	45	49	5	5	0.02	1.703568	8	10	0.08	2800	345.0842	40.92392	-91.39365
163840	1062	512	29	-2.150896	4.261652	352.3079	0	11.17	23930	40	45	5	5	0.02	1.703194	8	10	0.08	2800	348.673	40.92392	-91.39365
163977	141	-282	-151	-1.852841	3.660194	352.1452	0	11.17	23299	41	54	5	5	0.02	1.713291	8	10	0.08	2800	347.3374	40.92392	-91.39365
164033	584	-239	1046	-1.869104	3.894182	351.6146	0	11.17	23736	43	53	5	5	0.02	1.721282	8	10	0.08	2800	348.3577	40.92392	-91.39365
164200	642	445	1576	-4.20924	5.964797	348.4471	0	11.17	23887	42	51	5	5	0.02	1.760591	8	10	0.08	2800	343.7885	40.92392	-91.39365
164335	2057	987	958	-3.598951	3.014568	344.4025	0	11.29	23757	42	48	5	5	0.02	1.782033	8	10	0.08	2800	338.32	40.92392	-91.39365
164369	2057	987	958	-3.598951	3.014568	344.4025	0	11.29	23757	43	49	5	5	0.02	1.782033	8	10	0.08	2800	338.32	40.92392	-91.39365
164548	-1763	-1823	1098	-1.016517	2.747811	342.1665	0	11.29	23919	31	51	5	5	0.02	1.810405	8	10	0.08	2800	335.8165	40.92392	-91.39365
164710	103	2653	880	-2.937464	1.389447	331.0013	0	11.29	24552	46	16	5	5	0.02	1.817495	8	10	0.08	2800	331.1389	40.92392	-91.39365
164824	-1100	-314	-932	-4.179301	0.563202	331.5499	0	11.29	24395	39	-4	5	5	0.02	1.820622	8	10	0.08	2800	332.4902	40.92392	-91.39365
164880	724	430	-992	-3.19213	0.7113696	332.1704	0	11.29	23751	34	-11	5	5	0.02	1.82232	8	10	0.08	2800	333.6433	40.92392	-91.39365
164980	-1953	-797	-806	-4.385623	0.384152	332.615	0	11.29	23922	62	-1	5	5	0.02	1.821861	8	10	0.08	2800	335.5384	40.92392	-91.39365
165070	353	690	-1237	-5.178018	-0.0617794	333.0628	0	11.29	23731	62	-6	5	5	0.02	1.825484	8	10	0.08	2800	337.1295	40.92392	-91.39365
165154	1026	827	164	-2.54658	-1.253984	334.0665	0	11.34	23915	64	-10	5	5	0.02	1.82701	8	10	0.08	2800	339.1893	40.92392	-91.39365
165244	-2557	-1520	29	-4.185078	-1.2503	334.1028	0	11.34	23307	80	16	5	5	0.02	1.820796	8	10	0.08	2800	339.1893	40.92392	-91.39365
165338	-2538	-2789	4	-7.992914	2.215309	334.1804	0	11.34	23121	90	18	5	5	0.02	1.813404	8	10	0.08	2800	339.1212	40.92392	-91.39365
165469	2072	305	525	-6.805322	4.32968	333.9466	0	11.34	23941	93	31	5	5	0.02	1.790798	8	10	0.08	2800	337.2192	40.92392	-91.39365
165546	3009	3415	1366	-5.758251	2.289421	333.456	0	11.34	23923	94	25	5	5	0.02	1.775235	8	10	0.08	2800	336.6466	40.92392	-91.39365
165735	-2121	-1846	-159	-3.501241	-4.343624	333.7222	0	11.34	23920	62	16	5	5	0.02	1.723012	8	10	0.08	2800	341.2643	40.92392	-91.39365
165798	459	-3617	530	-5.529834	-0.6155576	334.1518	0	11.34	23911	58	19	5	5	0.02	1.717327	8	10	0.08	2800	343.1381	40.92392	-91.39365
165855	-347	-1941	570	-5.959063	2.361259	333.6726	0	11.34	23923	57	19	5	5	0.02	1.688093	8	10	0.08	2800	340.2575	40.92392	-91.39365
165993	1467	837	-211	-6.58976	4.73945	332.8749	0	11.34	24560	77	8	5	5	0.02	1.667763	8	10	0.08	2800	337.0596	40.92392	-91.39365
166052	871	2559	1	-4.060099	2.495755	332.7728	0	11.34	23924	81	6	5	5	0.02	1.636629	8	10	0.08	2800	339.4366	40.92392	-91.39365
166283	-2335	-933	-679	-7.449153	2.349564	331.4082	0	11.34	23735	84	27	5	5	0.02	1.602485	8	10	0.08	2800	334.2706	40.92392	-91.39365
166366	2539	773	-350	-7.491633	2.92462	332.1582	0	11.34	23759	85	31	5	5	0.02	1.591318	8	10	0.08	2800	336.4538	40.92392	-91.39365
166502	-3463	-116	-3505	-5.689441	2.207739	338.3987	0	11.34	23751	70	39	5	5	0.02	1.584033	8	10	0.08	2800	344.425	40.92392	-91.39365
166595	-4088	92	-2616	-8.493546	2.489818	340.0383	0	11.34	23749	65	42	5	5	0.02	1.58356	8	10	0.08	2800	345.5885	40.92392	-91.39365
166744	532	464	-698	-0.8461589	1.632644	343.6213	0	11.34	23937	67	44	5	5	0.02	1.587444	8	10	0.08	2800	350.3289	40.92392	-91.39365
166823	-2848	-1054	-1278	-4.188082	1.939404	344.6356	0	11.34	23765	65	37	5	5	0.02	1.599394	8	10	0.08	2800	349.5004	40.92392	-91.39365
166875	-1974	-3007	-973	-6.14074	4.458603	344.9889	0	11.34	23770	63	35	5	5	0.02	1.603045	8	10	0.08	2800	351.0752	40.92392	-91.39365
166976	682	1307	881	-5.392153	6.17411	343.9401	0	11.34	23920	62	29	5	5	0.02	1.627449	8	10	0.08	2800	349.3409	40.92392	-91.39365
167123	-1345	-1766	1532	-7.149425	2.992346	338.9117	0	11.34	23741	69	30	5	5	0.02	1.671463	8	10	0.08	2800	347.0988	40.92392	-91.39365
167198	-607	-2993	482	-7.284824	4.003963	338.3545	0	11.34	23953	59	33	5	5	0.02	1.704054	8	10	0.08	2800	345.7531	40.92392	-91.39365
167276	1679	2091	-571	-3.589699	2.89697	337.4397	0	11.34	23926	56	35	5	5	0.02	1.728256	8	10	0.08	2800	342.4807	40.92392	-91.39365
167406	-335	437	76	-1.329522	0.5141956	337.0798	0	11.34	23748	48	39	5	5	0.02	1.791873	8	10	0.08	2800	342.7756	40.92392	-91.39365
167504	246	-337	486	-2.657902	1.306686	336.9466	0	11.34	23917	44	39	5	5	0.02	1.840065	8	10	0.08	2800	340.9456	40.92392	-91.39365
167554	-1014	-1767	307	-3.146053	2.297056	336.679	0	11.34	23935	50	36	5	5	0.02	1.868199	8	10	0.08	2800	337.9868	40.92392	-91.39365
167700	545	807	1364	-5.969316	4.673193	336.0219	0	11.34	23941	51	36	5	5	0.02	1.911825	8	10	0.08	2800	336.8694	40.92392	-91.39365
167761	840	1813	-336	-4.785462	2.931682	335.7731	0	11.34	23268	45	26	5	5	0.02	1.934648	8	10	0.08	2800	336.8694	40.92392	-91.39365
167910	124	128	534	-5.5309	0.8464023	334.815	0	11.34	23905	53	23	5	5	0.02	1.960479	8	10	0.08	2800	336.1191	40.92392	-91.39365
168005	719	-644	1187	-5.212201	1.898098	334.3006	0	11.34	23887	57	20	5	5	0.02	1.998637	8	10	0.08	2800	337.8708	40.92392	-91.39365
168125	803	857	1333	-2.176741	0.1314069	333.6375	0	11.34	23730	49	12	5	5	0.02	2.019728	8	10	0.08	2800	334.5047	40.92391	-91.39365
168296	-2285	-747	414	-5.882421	1.760796	332.9334	0	11.34	24352	39	16	5	5	0.02	2.033247	8	10	0.08	2800	333.8213	40.92391	-91.39365
168422	-1098	548	-1359	-2.429616	1.360837	334.2579	0	11.34	23916	51	28	5	5	0.02	2.024225	8	10	0.08	2800	333.0441	40.92391	-91.39365
168498	-559	1652	-1954	-3.730224	-0.1306862	335.5895	0	11.34	24577	44	11	5	5	0.02	2.018773	8	10	0.08	2800	335.8131	40.92391	-91.39365
168558	-311	-433	-1605	-4.276363	0.1156961	337.1555	0	11.34	23932	43	9	5	5	0.02	2.011996	8	10	0.08	2800	338.9788	40.92391	-91.39365
168676	1453	155	-1052	-4.145998	1.799533	339.106	0	11.34	23760	47	24	5	5	0.02	1.978901	8	10	0.08	2800	339.0308	40.92391	-91.39365
168788	48	357	-1609	-1.556146	-0.6345028	341.2465	0	11.34	23757	49	32	5	5	0.02	1.959425	8	10	0.08	2800	343.1638	40.92391	-91.39365
168944	-657	-313	-548	-5.106863	0.6241728	341.7909	0	11.46	24354	54	6	5	5	0.02	1.897918	8	10	0.08	2800	343.3776	40.92391	-91.39365
168981	1119	641	-783	-2.993731	0.0222126	342.0863	0	11.46	23756	55	0	5	5	0.02	1.880228	8	10	0.08	2800	343.3776	40.92391	-91.39365
169082	-1299	-2509	-746	-2.049673	0.7263347	343.2349	0	11.46	24508	50	11	5	5	0.02	1.871081	8	10	0.08	2800	345.9987	40.92391	-91.39365
169152	1033	1032	-1813	-2.042399	1.270707	343.5673	0	11.46	23114	50	11	5	5	0.02	1.856128	8	10	0.08	2800	346.6489	40.92391	-91.39365
169288	-681	11	-1596	-5.37481	-0.196021	346.6616	0	11.46	23917	50	15	5	5	0.02	1.836625	8	10	0.08	2800	347.5034	40.92391	-91.39365
169410	-2313	-2783	-23	-7.57562	3.501264	346.2177	0	11.46	24548	61	10	5	5	0.02	1.840685	8	10	0.08	2800	350.4805	40.92391	-91.39365
169535	76	1032	1155	-5.007555	1.919484	344.4718	0	11.46	23904	67	6	5	5	0.02	1.851604	8	10	0.08	2800	347.3812	40.92391	-91.39365
169616	-260	-2	16	-4.932116	0.9568754	343.4214	0	11.46	23919	71	1	5	5	0.02	1.872345	8	10	0.08	2800	345.6036	40.92391	-91.39365
169667	403	-1163	1795	-4.717884	1.162661	342.6662	0	11.46	23735	74	-1	5	5	0.02	1.876638	8	10	0.08	2800	345.6036	40.92391	-91.39365
169771	-1887	131	937	-5.56126	2.821881	339.1863	0	11.68	23109	77	-19	5	5	0.02	1.891397	8	10	0.08	2800	342.3127	40.92391	-91.39365
169864	-682	3167	818	-5.938343	0.6448475	337.4286	0	11.68	24362	78	-25	5	5	0.02	1.898945	8	10	0.08	2800	337.9579	40.92391	-91.39365
169958	-602	-1578	524	-5.747975	-2.487706	335.0232	0	11.68	23744	69	-8	5	5	0.02	1.910435	8	10	0.08	2800	338.5202	40.92391	-91.39365
170069	-1528	-4651	-211	-6.74519	1.065491	334.2427	0	11.68	23777	66	0	5	5	0.02	1.942975	8	10	0.08	2800	337.8992	40.92391	-91.39365
170153	1076	4293	1175	-4.716266	-0.6259078	333.586	0	11.68	24384	71	9	5	5	0.02	1.963697	8	10	0.08	2800	333.7234	40.92391	-91.39365
170281	748	409	-843	-4.540796	-3.187625	333.6654	0	11.68	23791	75	14	5	5	0.02	1.997478	8	10	0.08	2800	334.6308	40.92391	-91.39365
170361	-1149	-3104	-272	-3.947475	-0.4375109	333.6425	0	11.68	24562	66	21	5	5	0.02	2.011881	8	10	0.08	2800	335.2357	40.92391	-91.39365
170482	2080	2311	397	-4.674039	3.187724	333.6899	0	11.68	23905	75	-4	5	5	0.02	2.051989	8	10	0.08	2800	332.1305	40.92391	-91.39365
170553	-840	-546	-16	-4.604346	-0.03367367	334.0846	0	11.68	23285	76	-7	5	5	0.02	2.087874	8	10	0.08	2800	333.5822	40.92391	-91.39365
170605	-998	62	1124	-5.070754	-0.1150445	334.0114	0	11.68	23757	77	-9	5	5	0.02	2.094562	8	10	0.08	2800	336.2394	40.92391	-91.39365
170699	876	133	-411	-6.197546	1.091086	334.0144	0	11.29	24392	66	-2	5	5	0.02	2.114026	8	10	0.08	2800	332.7347	40.92391	-91.39365
170809	482	1505	-1867	-5.141295	-0.04458656	334.8853	0	11.29	23916	71	-4	5	5	0.02	2.135525	8	10	0.08	2800	333.08	40.92391	-91.39365
170897	-2093	-13	-1107	-4.280118	-2.423501	336.0428	0	11.29	23739	85	-8	5	5	0.02	2.138421	8	10	0.08	2800	334.4839	40.92391	-91.39365
171000	-856	-1843	1137	-7.899571	0.2123214	336.6517	0	11.29	23922	83	3	5	5	0.02	2.146112	8	10	0.08	2800	336.9568	40.92391	-91.39365
171100	2034	648	-228	-6.918604	1.654917	337.1991	0	11.29	23933	85	8	5	5	0.02	2.166407	8	10	0.08	2800	334.5097	40.92391	-91.39365
171202	-80	812	-794	-5.43443	-1.466479	337.6826	0	11.29	23963	91	-13	5	5	0.02	2.177608	8	10	0.08	2800	340.0323	40.92391	-91.39364
171304	-1113	-986	-494	-6.568598	-0.7598137	337.946	0	11.29	23759	93	-18	5	5	0.02	2.182235	8	10	0.08	2800	339.9969	40.92391	-91.39364
171422	-212	-443	-374	-5.656274	-0.4912395	338.0125	0	11.29	23945	79	-5	5	5	0.02	2.185636	8	10	0.08	2800	339.3406	40.92391	-91.39364
171508	962	1869	-607	-4.63877	-1.530441	337.9589	0	11.29	23784	76	-3	5	5	0.02	2.178052	8	10	0.08	2800	340.8791	40.92391	-91.39364
171612	-2277	-2122	281	-5.750313	-1.408093	338.1335	0	11.29	23917	86	-6	5	5	0.02	2.162634	8	10	0.08	2800	341.0293	40.92391	-91.39364
171726	956	519	1508	-7.014682	0.560805	338.1188	0	11.29	23756	90	1	5	5	0.02	2.133312	8	10	0.08	2800	337.6304	40.92391	-91.39364
171820	2429	1164	-1432	-4.085707	-3.461753	338.6045	0	11.29	23268	90	6	5	5	0.02	2.109784	8	10	0.08	2800	339.9607	40.92391	-91.39364
171924	-3394	-2566	-2211	-7.075788	-0.876994	339.1796	0	11.29	23113	91	1	5	5	0.02	2.083103	8	10	0.08	2800	337.1962	40.92391	-91.39364
172118	1972	2725	821	-6.427629	0.6312352	340.4998	0	11.29	23752	94	2	5	5	0.02	2.06584	8	10	0.08	2800	341.3357	40.92391	-91.39364
172149	314	594	-310	-5.803131	-0.3119029	340.3489	0	11.29	23920	93	2	5	5	0.02	2.059154	8	10	0.08	2800	343.4972	40.92391	-91.39364
172239	-1123	-1169	-1	-6.067091	-0.2947353	339.952	0	11.29	24554	95	1	5	5	0.02	2.039289	8	10	0.08	2800	343.2056	40.92391	-91.39364
172360	519	-186	876	-6.676192	0.3258391	337.8351	0	11.29	23736	81	2	5	5	0.02	1.994806	8	10	0.08	2800	344.3934	40.92391	-91.39364
172474	-244	1600	123	-7.603729	1.907065	336.8676	0	11	23741	92	8	5	5	0.02	1.979806	8	10	0.08	2800	340.3916	40.92391	-91.39364
172563	318	1911	-811	-7.129247	-0.8257865	336.6506	0	11	23737	105	8	5	5	0.02	1.95777	8	10	0.08	2800	342.3333	40.92391	-91.39364
172620	1217	312	-1568	-6.588322	-1.629989	336.616	0	11	24403	90	8	5	5	0.02	1.940897	8	10	0.08	2800	341.1673	40.92391	-91.39364
172713	-474	259	510	-5.055838	-0.8832759	336.3171	0	11	23276	89	10	5	5	0.02	1.922724	8	10	0.08	2800	344.041	40.92391	-91.39364
172807	-458	-1394	94	-6.246401	-0.2465295	335.8977	0	11	24512	75	14	5	5	0.02	1.921188	8	10	0.08	2800	342.7389	40.92391	-91.39364
172935	-1230	45	-321	-8.916348	2.751341	334.2435	0	11	23911	75	12	5	5	0.02	1.902164	8	10	0.08	2800	340.7997	40.92391	-91.39364
173016	2476	-245	2285	-7.818366	2.015876	333.026	0	11	23919	71	4	5	5	0.02	1.892368	8	10	0.08	2800	336.7554	40.92391	-91.39364
173111	1871	2084	689	-5.327805	0.8712169	331.9596	0	11	23731	64	0	5	5	0.02	1.888251	8	10	0.08	2800	337.8995	40.92391	-91.39364
173231	-3651	-2007	-1633	-6.132636	0.9552552	332.9361	0	11	24375	71	3	5	5	0.02	1.888952	8	10	0.08	2800	338.3054	40.92391	-91.39364
173315	2177	1692	-1575	-9.162579	2.033558	333.5581	0	11	23915	71	4	5	5	0.02	1.886037	8	10	0.08	2800	336.6982	40.92391	-91.39364
173416	446	-93	-198	-4.380808	-0.03124895	334.3357	0	11.23	23763	84	0	5	5	0.02	1.883974	8	10	0.08	2800	340.8082	40.92391	-91.39364
173539	324	1567	-9	-4.872834	-0.9886318	334.2306	0	11.23	23931	58	11	5	5	0.02	1.878755	8	10	0.08	2800	341.39	40.92391	-91.39364
173621	1098	-60	-400	-4.127413	-1.425378	334.4553	0	11.23	23908	40	20	5	5	0.02	1.875511	8	10	0.08	2800	341.5237	40.92391	-91.39364
173723	1384	-481	774	-3.372086	2.207595	333.9579	0	11.23	23921	23	28	5	5	0.02	1.867057	8	10	0.08	2800	339.0878	40.92391	-91.39364
173827	2396	2573	1856	-1.066014	-0.2953991	334.2735	0	11.23	23751	38	21	5	5	0.02	1.854962	8	10	0.08	2800	339.7457	40.92391	-91.39365
173987	447	-3082	-1949	-3.373451	-0.0095047	335.8014	0	11.23	23749	28	26	5	5	0.02	1.839916	8	10	0.08	2800	340.7015	40.92391	-91.39365
174040	-870	-1220	-2156	-3.697098	3.720221	338.4623	0	11.23	24557	24	28	5	5	0.02	1.839293	8	10	0.08	2800	342.4613	40.92391	-91.39365
174160	755	1319	-1145	-4.133975	3.574839	338.8887	0	11.23	23782	51	18	5	5	0.02	1.837151	8	10	0.08	2800	342.6068	40.92391	-91.39365
174280	-556	105	1261	-3.588158	1.508819	337.6193	0	11.23	23727	40	22	5	5	0.02	1.837329	8	10	0.08	2800	343.8209	40.92391	-91.39365
174375	29	-100	929	-4.667603	1.744745	337.2058	0	11.51	23751	39	22	5	5	0.02	1.845698	8	10	0.08	2800	341.946	40.92391	-91.39365
174445	295	-579	-84	-4.186611	2.042281	336.9764	0	11.51	23139	39	22	5	5	0.02	1.849582	8	10	0.08	2800	342.0063	40.92391	-91.39365
174564	-2819	958	-908	-1.032203	0.1812111	337.5825	0	11.51	23756	53	16	5	5	0.02	1.848181	8	10	0.08	2800	343.4578	40.92391	-91.39365
174613	-3485	-988	-259	-4.679914	0.1834918	338.1586	0	11.51	23734	55	16	5	5	0.02	1.848067	8	10	0.08	2800	343.4578	40.92391	-91.39365
174718	1268	-703	128	-5.823049	4.167956	340.0804	0	11.51	23095	47	20	5	5	0.02	1.84979	8	10	0.08	2800	345.0073	40.92391	-91.39365
174822	501	202	-1337	-4.800344	4.153785	340.2037	0	11.51	24376	56	17	5	5	0.02	1.855556	8	10	0.08	2800	346.3458	40.92391	-91.39365
174926	292	1033	-605	-4.845308	3.423744	340.2691	0	11.51	23285	59	16	5	5	0.02	1.865927	8	10	0.08	2800	344.9098	40.92391	-91.39365
175031	-470	843	-463	-4.231631	1.268452	340.8458	0	11.51	23747	44	22	5	5	0.02	1.890177	8	10	0.08	2800	342.7486	40.92391	-91.39365
175140	703	94	106	-5.18371	2.031884	340.6576	0	11.51	23941	40	24	5	5	0.02	1.9013	8	10	0.08	2800	344.2989	40.92391	-91.39365
175254	-996	-958	1369	-1.11763	-0.5461496	339.3521	0	11.34	23299	42	22	5	5	0.02	1.910515	8	10	0.08	2800	347.0995	40.92391	-91.39365
175340	-4073	-2774	746	-4.154574	0.5836145	338.332	0	11.34	24569	41	22	5	5	0.02	1.911507	8	10	0.08	2800	343.1847	40.92391	-91.39365
175444	1040	564	1831	-5.510538	3.124111	337.4313	0	11.34	23747	44	20	5	5	0.02	1.915383	8	10	0.08	2800	338.3859	40.92391	-91.39365
175543	2272	1706	913	-3.45123	0.9781128	336.2136	0	11.34	23897	44	19	5	5	0.02	1.922002	8	10	0.08	2800	337.5385	40.92391	-91.39365
175647	1265	848	1010	-0.8838095	-0.7400259	335.2681	0	11.34	23761	41	20	5	5	0.02	1.916777	8	10	0.08	2800	336.4205	40.92391	-91.39365
175748	-1106	-303	181	-0.4246321	-1.323105	336.087	0	11.34	23918	40	21	5	5	0.02	1.913565	8	10	0.08	2800	339.1654	40.92391	-91.39365
175873	-1610	-1354	-487	-2.546772	0.7498151	337.3189	0	11.34	23914	53	16	5	5	0.02	1.910964	8	10	0.08	2800	337.7051	40.92391	-91.39365
175957	-1439	-318	-663	-4.611197	2.121691	337.7593	0	11.34	23741	56	15	5	5	0.02	1.906441	8	10	0.08	2800	338.3592	40.92391	-91.39365
176061	1681	1320	1394	-3.805596	1.376251	337.3503	0	11.34	23101	27	9	5	5	0.02	1.89237	8	10	0.08	2800	338.9351	40.92391	-91.39365
176166	-87	-684	1138	-4.493903	1.496491	335.6234	0	11.29	23746	44	8	5	5	0.02	1.874902	8	10	0.08	2800	338.1623	40.92391	-91.39365
176270	-300	-718	-589	-5.213355	2.366254	335.1586	0	11.29	23757	48	5	5	5	0.02	1.859782	8	10	0.08	2800	333.9897	40.92391	-91.39365
176374	-1364	597	-59	-4.619991	-0.01845446	334.0189	0	11.29	23751	44	7	5	5	0.02	1.840512	8	10	0.08	2800	332.7667	40.92391	-91.39365
176479	1809	-1574	1200	-5.437283	0.1336537	333.4174	0	11.29	23910	44	5	5	5	0.02	1.815247	8	10	0.08	2800	334.7385	40.92391	-91.39365
176577	-1903	100	561	-4.105609	0.9208447	332.1285	0	11.29	23767	68	4	5	5	0.02	1.803456	8	10	0.08	2800	333.1582	40.92391	-91.39365
176679	-2185	-815	410	-6.160088	1.210444	331.2351	0	11.29	23109	81	0	5	5	0.02	1.780235	8	10	0.08	2800	331.5976	40.92391	-91.39365
176795	3232	2838	1495	-5.380723	-0.2429947	330.4087	0	11.29	23898	59	-9	5	5	0.02	1.761144	8	10	0.08	2800	330.432	40.92391	-91.39365
176887	-1104	-2058	-721	-3.951087	-2.680682	330.4227	0	11.29	23289	55	-16	5	5	0.02	1.743076	8	10	0.08	2800	334.1479	40.92391	-91.39365
176991	27	-1569	-1455	-4.033144	0.1308971	331.1813	0	11.29	24544	59	-7	5	5	0.02	1.730177	8	10	0.08	2800	331.9027	40.92391	-91.39365
177094	-203	-394	-26	-3.697519	0.3078266	331.6328	0	11.29	23917	47	-12	5	5	0.02	1.718345	8	10	0.08	2800	332.0493	40.92391	-91.39365
177204	1321	918	91	-4.359805	0.958388	332.1998	0	11.23	23754	43	-14	5	5	0.02	1.703194	8	10	0.08	2800	333.2614	40.92391	-91.39365
177295	1678	485	1110	-2.228151	-0.5157627	332.4086	0	11.23	24563	35	-17	5	5	0.02	1.692224	8	10	0.08	2800	335.1203	40.92391	-91.39365
177409	-2197	-465	727	-3.891889	-0.9250222	332.3778	0	11.23	24419	65	-8	5	5	0.02	1.674336	8	10	0.08	2800	332.0878	40.92391	-91.39365
177503	806	1137	-921	-6.61146	1.312861	333.461	0	11.23	23286	56	-19	5	5	0.02	1.660316	8	10	0.08	2800	336.0006	40.9239	-91.39365
177608	771	2479	1354	-5.687711	-0.7781318	333.1552	0	11.23	23948	54	-21	5	5	0.02	1.652316	8	10	0.08	2800	337.3835	40.9239	-91.39365
177713	-702	-1761	179	-5.826035	-1.381819	332.6955	0	11.23	23928	73	-16	5	5	0.02	1.64287	8	10	0.08	2800	335.6911	40.9239	-91.39365
177826	1269	2333	1138	-6.538015	-0.2356719	331.907	0	11.23	23294	81	-16	5	5	0.02	1.63591	8	10	0.08	2800	335.3123	40.9239	-91.39365
177921	2954	591	-761	-3.702728	-1.77524	332.0905	0	11.23	24529	71	-20	5	5	0.02	1.633404	8	10	0.08	2800	335.7741	40.9239	-91.39365
178021	-2999	-1743	409	-3.844362	-0.5213603	332.1029	0	11.23	23701	72	-19	5	5	0.02	1.631577	8	10	0.08	2800	336.3032	40.9239	-91.39365
178132	-1864	-235	-2253	-5.770395	0.4743396	333.6774	0	11.46	23913	88	-12	5	5	0.02	1.620736	8	10	0.08	2800	336.832	40.9239	-91.39365
178231	296	1520	-3088	-5.70582	-0.1058158	335.0201	0	11.46	23272	93	-8	5	5	0.02	1.617231	8	10	0.08	2800	338.9455	40.9239	-91.39365
178335	1116	2007	-2417	-1.61871	-2.334057	339.8596	0	11.46	23870	72	0	5	5	0.02	1.616727	8	10	0.08	2800	343.8493	40.9239	-91.39365
178440	-1656	-548	-1529	-2.675997	-2.941709	340.9159	0	11.46	23915	69	2	5	5	0.02	1.623343	8	10	0.08	2800	346.8244	40.9239	-91.39365
178561	-992	-515	2002	-8.04443	2.929732	342.0351	0	11.46	23906	80	0	5	5	0.02	1.631636	8	10	0.08	2800	345.4007	40.9239	-91.39365
178649	68	-100	474	-7.448217	1.075614	339.8096	0	11.46	23958	83	-2	5	5	0.02	1.639192	8	10	0.08	2800	344.8359	40.9239	-91.39365
178764	-1270	-889	-427	-8.247892	1.424817	338.2841	0	11.46	23798	84	-5	5	5	0.02	1.658249	8	10	0.08	2800	344.2497	40.9239	-91.39365
178854	1796	1257	976	-7.584838	1.32779	337.726	0	11.46	23793	94	-11	5	5	0.02	1.672032	8	10	0.08	2800	342.7968	40.9239	-91.39365
178961	-1295	96	1329	-6.597526	-1.36009	336.2906	0	11.46	23901	97	-15	5	5	0.02	1.682782	8	10	0.08	2800	343.6943	40.9239	-91.39365
179056	1831	677	2082	-7.309964	-0.5277709	336.0644	0	11.06	23893	99	-3	5	5	0.02	1.692185	8	10	0.08	2800	341.6808	40.92391	-91.39364
179181	-513	558	328	-6.536704	-2.256605	335.3661	0	11.06	23280	103	2	5	5	0.02	1.711387	8	10	0.08	2800	341.6808	40.92391	-91.39364
179269	213	538	-2086	-4.471585	-3.667548	335.9239	0	11.06	23080	93	13	5	5	0.02	1.721015	8	10	0.08	2800	341.7471	40.92391	-91.39364
179372	-2755	-4014	1	-7.4557	1.606191	336.5813	0	11.06	23752	87	13	5	5	0.02	1.734195	8	10	0.08	2800	342.5161	40.92391	-91.39364
179472	2190	1192	516	-8.131612	4.075862	336.6617	0	11.06	23278	84	14	5	5	0.02	1.781605	8	10	0.08	2800	339.7712	40.92391	-91.39364
179583	2092	2330	450	-5.553134	1.584446	336.719	0	11.06	24547	91	14	5	5	0.02	1.815825	8	10	0.08	2800	340.0219	40.92391	-91.39364
179680	-1979	-1240	-666	-5.491251	0.1766163	336.5036	0	11.06	23904	92	14	5	5	0.02	1.850829	8	10	0.08	2800	343.1925	40.92391	-91.39364
179785	-1308	-1630	1063	-6.709231	1.43288	336.2488	0	11.06	23897	91	16	5	5	0.02	1.889697	8	10	0.08	2800	341.6259	40.92391	-91.39364
179888	2254	1193	507	-6.508979	0.1128717	335.3246	0	11.06	24551	94	16	5	5	0.02	1.90662	8	10	0.08	2800	341.5374	40.92391	-91.39364
179991	-1355	-2031	-444	-5.301845	0.005468464	335.7138	0	11.23	24412	87	29	5	5	0.02	1.960397	8	10	0.08	2800	341.2411	40.92391	-91.39364
180100	-3182	-2878	-586	-7.866055	2.302536	335.6638	0	11.23	23805	84	38	5	5	0.02	1.988492	8	10	0.08	2800	341.1811	40.92391	-91.39364
180197	523	1344	1332	-8.388663	2.590354	335.1833	0	11.23	23741	78	34	5	5	0.02	2.035944	8	10	0.08	2800	339.498	40.92391	-91.39364
180300	1334	-702	-1317	-6.62652	2.386332	335.1891	0	11.23	23920	74	36	5	5	0.02	2.055148	8	10	0.08	2800	338.868	40.92391	-91.39364
180394	149	1203	786	-6.063819	3.394291	334.5299	0	11.23	24545	82	34	5	5	0.02	2.072819	8	10	0.08	2800	338.8069	40.92391	-91.39364
180497	2126	2255	-1014	-4.30857	0.817124	334.3729	0	11.23	23937	79	26	5	5	0.02	2.092848	8	10	0.08	2800	339.1556	40.92391	-91.39364
180601	-3119	-1461	-77	-5.343464	-0.9278685	333.6455	0	11.23	23918	92	21	5	5	0.02	2.106471	8	10	0.08	2800	339.0738	40.92391	-91.39364
180716	-1866	-1997	228	-7.742846	0.3500358	333.505	0	11.23	23917	95	20	5	5	0.02	2.113106	8	10	0.08	2800	339.5612	40.92391	-91.39364
180808	3131	795	1151	-6.087145	1.290627	333.5702	0	11.23	23920	89	25	5	5	0.02	2.116551	8	10	0.08	2800	338.8245	40.92391	-91.39364
180911	413	738	-1278	-4.84795	0.7198483	334.0125	0	11.23	23915	58	31	5	5	0.02	2.112859	8	10	0.08	2800	339.1872	40.92391	-91.39365
181011	-2017	-1456	-1418	-3.929744	0.4407016	334.5818	0	11.23	23897	51	35	5	5	0.02	2.099443	8	10	0.08	2800	337.3046	40.92391	-91.39365
181127	-1610	-1517	-1676	-6.240748	2.368022	335.9343	0	11.23	23763	48	29	5	5	0.02	2.07847	8	10	0.08	2800	338.5222	40.92391	-91.39365
181216	463	-3	-32	-4.702783	1.897944	336.0239	0	11.23	23950	50	24	5	5	0.02	2.044889	8	10	0.08	2800	337.9594	40.92391	-91.39365
181360	-262	17	968	-5.346089	1.9378	333.9242	0	11.23	23111	48	19	5	5	0.02	2.014262	8	10	0.08	2800	336.8311	40.92391	-91.39365
181431	933	-438	2441	-4.593592	1.372591	333.023	0	11.23	23739	57	19	5	5	0.02	1.991952	8	10	0.08	2800	336.4317	40.92391	-91.39365
181548	-156	1512	2094	-5.103739	0.5224868	330.7325	0	11.23	23904	59	9	5	5	0.02	1.947667	8	10	0.08	2800	334.2937	40.92391	-91.39365
181618	321	-176	-365	-4.543738	-0.4192185	329.7573	0	11.23	23277	55	17	5	5	0.02	1.929606	8	10	0.08	2800	330.2453	40.92391	-91.39365
181712	-83	-1340	-64	-3.856827	1.2883	329.0499	0	11.23	24519	54	17	5	5	0.02	1.912266	8	10	0.08	2800	333.413	40.92391	-91.39365
181816	123	895	-52	-4.104974	0.9901401	327.5681	0	11.29	23921	30	17	5	5	0.02	1.893461	8	10	0.08	2800	321.7733	40.92391	-91.39365
181921	-1992	-463	107	-4.66323	-0.0952858	327.5156	0	11.29	23922	22	17	5	5	0.02	1.876075	8	10	0.08	2800	326.7005	40.92391	-91.39365
182032	-943	-1355	-786	-5.345584	3.368926	328.171	0	11.29	24538	35	1	5	5	0.02	1.866588	8	10	0.08	2800	326.6313	40.92391	-91.39365
182129	1475	1511	-1039	-4.50162	2.744783	329.1031	0	11.29	24431	37	-2	5	5	0.02	1.858506	8	10	0.08	2800	326.8351	40.92391	-91.39365
182240	1764	1363	-2687	-1.326974	0.3248855	331.3919	0	11.29	23275	32	7	5	5	0.02	1.834386	8	10	0.08	2800	330.1757	40.92391	-91.39365
182381	-1543	-1086	153	-2.307668	-0.6939925	332.7774	0	11.29	23753	46	-1	5	5	0.02	1.811322	8	10	0.08	2800	333.3831	40.92391	-91.39365
182554	927	435	1657	-5.817832	0.0710927	333.8704	0	11.29	23279	50	-6	5	5	0.02	1.786182	8	10	0.08	2800	333.657	40.92391	-91.39365
182732	-1420	-261	-1080	-2.378856	-0.5377802	332.4515	0	11.29	23767	34	-22	5	5	0.02	1.772541	8	10	0.08	2800	333.7003	40.92391	-91.39365
182794	-1191	-814	87	-3.268504	0.1351977	332.1712	0	11.29	23891	34	-23	5	5	0.02	1.772395	8	10	0.08	2800	333.7003	40.92391	-91.39365
182866	3006	773	1074	-2.977258	0.3725115	332.2748	0	11.29	23753	31	-40	5	5	0.02	1.770615	8	10	0.08	2800	333.7657	40.92391	-91.39365
183037	40	-503	1104	-3.712943	-0.6370209	331.4427	0	11.29	23918	31	-25	5	5	0.02	1.761276	8	10	0.08	2800	332.5646	40.92391	-91.39365
183113	2409	1449	-1056	-4.761511	-0.3384799	331.2301	0	11.29	23929	39	-29	5	5	0.02	1.755722	8	10	0.08	2800	329.7462	40.9239	-91.39365
183192	-652	-277	-336	-1.184246	-3.227429	332.5463	0	11.29	23733	45	-36	5	5	0.02	1.752868	8	10	0.08	2800	333.2474	40.9239	-91.39365
183303	972	145	-780	-0.7592573	-3.462607	334.2381	0	11.29	23917	43	-22	5	5	0.02	1.74424	8	10	0.08	2800	337.6782	40.9239	-91.39365
183414	-1609	-1274	-444	-4.067854	-2.424025	334.1174	0	11.29	23293	53	-27	5	5	0.02	1.727802	8	10	0.08	2800	337.0706	40.9239	-91.39365
183501	1708	731	157	-3.186278	-2.346756	333.9101	0	11.29	23883	55	-31	5	5	0.02	1.706462	8	10	0.08	2800	336.333	40.9239	-91.39365
183587	-1471	-729	-420	-4.086701	-2.884877	333.3445	0	11.29	23769	58	-34	5	5	0.02	1.689304	8	10	0.08	2800	335.9471	40.9239	-91.39365
183728	2492	789	202	-3.545135	-1.042149	333.5466	0	11.17	23744	74	-27	5	5	0.02	1.662773	8	10	0.08	2800	335.5504	40.9239	-91.39365
183788	-860	322	-1438	-3.65229	-1.618511	333.8682	0	11.17	24514	71	-33	5	5	0.02	1.654715	8	10	0.08	2800	336.6999	40.9239	-91.39365
183886	-986	267	810	-4.513822	-1.913364	333.8456	0	11.17	23922	79	-38	5	5	0.02	1.644271	8	10	0.08	2800	336.5238	40.9239	-91.39365
183979	937	237	519	-5.04909	-1.619029	333.4383	0	11.17	23729	73	-40	5	5	0.02	1.640491	8	10	0.08	2800	337.486	40.9239	-91.39365
184086	830	857	588	-3.495394	-1.80143	333.0936	0	11.17	23295	74	-39	5	5	0.02	1.646128	8	10	0.08	2800	337.1179	40.9239	-91.39365
184222	-3285	-1646	-576	-6.827612	-1.061544	332.7898	0	11.17	23937	93	-21	5	5	0.02	1.665417	8	10	0.08	2800	335.3052	40.9239	-91.39365
184293	1832	863	917	-6.86729	-0.3182634	333.1431	0	11.17	23759	99	-19	5	5	0.02	1.667648	8	10	0.08	2800	336.9554	40.9239	-91.39365
184469	-825	-937	-364	-9.716659	-1.060952	332.2085	0	11.17	24553	121	-2	5	5	0.02	1.673375	8	10	0.08	2800	336.2895	40.9239	-91.39365
184501	1986	368	-225	-8.892945	-1.066153	332.1707	0	11.17	23106	106	1	5	5	0.02	1.67286	8	10	0.08	2800	336.2895	40.9239	-91.39365
184577	435	-373	-238	-6.832924	-0.8345274	332.2305	0	11.11	24367	112	5	5	5	0.02	1.666299	8	10	0.08	2800	335.6153	40.9239	-91.39365
184715	-1868	-684	235	-8.383767	-0.4727568	332.1476	0	11.11	23773	99	-7	5	5	0.02	1.657863	8	10	0.08	2800	338.3366	40.9239	-91.39365
184871	-546	493	-1702	-7.725927	1.270358	333.8023	0	11.11	23770	87	5	5	5	0.02	1.633907	8	10	0.08	2800	339.8846	40.92391	-91.39365
184913	1101	3163	1187	-7.613678	-1.289863	333.6157	0	11.11	24374	82	6	5	5	0.02	1.630053	8	10	0.08	2800	338.4111	40.92391	-91.39365
184995	5643	1900	-994	-4.490224	-4.383273	334.0873	0	11.11	23342	78	11	5	5	0.02	1.605136	8	10	0.08	2800	342.7589	40.92391	-91.39365
185157	-3894	-3833	830	-4.760478	-0.8030194	346.9355	0	11.11	23918	95	47	5	5	0.02	1.565298	8	10	0.08	2800	346.0634	40.92391	-91.39364
185239	118	-2877	1497	-9.725807	5.263113	346.2203	0	11.11	23913	86	58	5	5	0.02	1.548247	8	10	0.08	2800	341.9325	40.92391	-91.39364
185277	509	-748	-64	-9.134584	5.639396	345.6687	0	11.11	23761	93	61	5	5	0.02	1.539532	8	10	0.08	2800	339.731	40.92391	-91.39364
185465	-2211	-2211	1837	-8.358967	4.89423	343.2748	0	11.57	23920	98	54	5	5	0.02	1.524469	8	10	0.08	2800	337.2814	40.92391	-91.39364
185525	-359	-2659	102	-8.825473	6.900966	342.6646	0	11.57	23933	98	53	5	5	0.02	1.519705	8	10	0.08	2800	335.6477	40.92391	-91.39364
185603	831	333	1262	-7.617752	6.759719	342.0176	0	11.57	23909	81	59	5	5	0.02	1.523147	8	10	0.08	2800	333.3886	40.92391	-91.39365
185700	240	893	-614	-6.270608	3.425583	341.3369	0	11.57	23755	73	62	5	5	0.02	1.528388	8	10	0.08	2800	333.9269	40.92391	-91.39365
185765	-797	-2644	537	-7.206813	5.229575	340.9391	0	11.57	23885	74	65	5	5	0.02	1.535064	8	10	0.08	2800	335.8733	40.92391	-91.39365
185883	3061	892	1845	-6.666831	5.977993	340.7794	0	11.57	23754	68	71	5	5	0.02	1.538256	8	10	0.08	2800	333.3092	40.92391	-91.39365
185971	536	191	992	-3.996371	3.643015	339.6397	0	11.57	23897	66	70	5	5	0.02	1.543324	8	10	0.08	2800	331.791	40.92392	-91.39365
186151	-180	-766	-495	-2.186743	2.750701	338.9086	0	11.57	23928	58	74	5	5	0.02	1.546041	8	10	0.08	2800	332.6429	40.92392	-91.39365
186193	-1817	-1187	51	-3.035616	3.142902	339.5368	0	11.57	23746	61	65	5	5	0.02	1.546409	8	10	0.08	2800	330.9494	40.92392	-91.39365
186297	-3453	-2873	-753	-4.624364	3.982255	340.2129	0	11.57	23298	57	64	5	5	0.02	1.547866	8	10	0.08	2800	330.9494	40.92392	-91.39365
186357	101	-186	986	-7.427219	7.04409	339.503	0	11.11	23914	57	58	5	5	0.02	1.548973	8	10	0.08	2800	331.5206	40.92392	-91.39365
186511	83	576	413	-4.867413	5.379157	326.3821	0	11.11	23938	70	50	5	5	0.02	1.554462	8	10	0.08	2800	328.5627	40.92392	-91.39365
186646	-3103	-758	-924	-5.033811	3.567668	325.2666	0	11.11	24515	70	52	5	5	0.02	1.550975	8	10	0.08	2800	326.6684	40.92392	-91.39365
186702	-3925	-1612	-2552	-7.825213	4.810707	326.065	0	11.11	23915	70	51	5	5	0.02	1.550284	8	10	0.08	2800	325.3168	40.92392	-91.39365
186810	2946	2872	889	-6.005782	2.358916	327.3507	0	11.11	23968	69	55	5	5	0.02	1.540902	8	10	0.08	2800	326.9869	40.92392	-91.39365
186882	1195	-261	-820	-4.223149	1.253325	328.4809	0	11.11	23945	67	58	5	5	0.02	1.534123	8	10	0.08	2800	331.3467	40.92392	-91.39365
186999	2811	-220	-149	-3.721773	3.394819	331.6425	0	11.11	23924	57	30	5	5	0.02	1.510568	8	10	0.08	2800	334.1581	40.92392	-91.39365
187034	2931	982	-613	-2.551094	3.378754	332.4955	0	11.11	24374	53	31	5	5	0.02	1.492046	8	10	0.08	2800	334.1581	40.92392	-91.39365
187192	-1431	-23	-1041	-1.187585	0.3696166	335.1597	0	11.11	23721	45	31	5	5	0.02	1.461876	8	10	0.08	2800	336.0622	40.92392	-91.39365
187235	-983	-1186	29	-4.229779	1.40217	336.0576	0	11.4	23744	47	27	5	5	0.02	1.44484	8	10	0.08	2800	339.6913	40.92392	-91.39365
187412	3012	1709	-1598	-1.163753	0.7498122	339.3383	0	11.4	23970	42	22	5	5	0.02	1.418744	8	10	0.08	2800	339.584	40.92392	-91.39365
187479	-2630	-2131	-2733	-1.414601	1.386539	342.1289	0	11.4	23731	38	20	5	5	0.02	1.409082	8	10	0.08	2800	345.0251	40.92392	-91.39365
187547	-25	-418	-970	-1.84598	2.193526	343.8472	0	11.4	23100	37	46	5	5	0.02	1.395885	8	10	0.08	2800	347.2394	40.92392	-91.39365
187660	-1841	-1112	-893	-4.16608	4.308326	345.8216	0	11.4	23751	39	47	5	5	0.02	1.382052	8	10	0.08	2800	347.2091	40.92392	-91.39365
187718	-61	-1796	-499	-4.691772	5.202987	345.9164	0	11.4	23929	32	49	5	5	0.02	1.382071	8	10	0.08	2800	347.2091	40.92392	-91.39365
187830	355	486	-113	-3.156626	5.728992	345.0542	0	11.4	23759	30	49	5	5	0.02	1.387381	8	10	0.08	2800	347.2454	40.92392	-91.39365
187948	-445	966	684	-5.818067	4.465868	342.2365	0	11.4	24413	44	43	5	5	0.02	1.39597	8	10	0.08	2800	342.3137	40.92392	-91.39365
188055	1558	-498	2183	-4.399165	3.251256	339.678	0	11.4	23923	50	41	5	5	0.02	1.397844	8	10	0.08	2800	342.925	40.92392	-91.39365
188267	1996	1137	202	-2.77703	3.788162	336.8185	0	11.23	23924	42	42	5	5	0.02	1.425122	8	10	0.08	2800	337.6534	40.92392	-91.39365
