time(ms)	gyro_x(deg/s)	gyro_y(deg/s)	gyro_z(deg/s)	orientation_roll(deg)	orientation_pitch(deg)	orientation_yaw(deg)	throttle	battery(V)	loop_time(uS)	pid_output_roll	pid_output_pitch	pid_output_yaw	pid_output_throttle	ultrasonic_alt	baro_alt	flight_mode	p_gain_altitude	i_gain_altitude	d_gain_altitude	compass_heading	latitude	longitude
438170	-86	-3	6	-1.127177	0.2284283	-65.03883	0	11.06	4003	0	0	5	5	0.4064549	-0.3418417	1	10	0.03	2000	2.123595	40.92394	-91.39363
438238	-81	8	8	-1.115074	0.22787	-65.05372	0	11.06	4003	0	0	5	5	0.4064549	-0.3449206	1	10	0.03	2000	1.885546	40.92394	-91.39363
438316	-91	-4	8	-1.11781	0.2285798	-65.06477	0	11.06	4002	0	0	5	5	0.4064549	-0.3523175	1	10	0.03	2000	1.868598	40.92394	-91.39363
438438	-84	7	12	-1.108898	0.2258884	-65.08912	0	11.06	4003	0	0	5	5	0.4064549	-0.3553787	1	10	0.03	2000	1.881538	40.92394	-91.39363
438505	-81	6	11	-1.097436	0.2263789	-65.09852	0	11.06	4002	0	0	5	5	0.4064549	-0.355947	1	10	0.03	2000	1.84565	40.92394	-91.39363
438629	-80	8	13	-1.089575	0.2288221	-65.11567	0	11.06	4002	0	0	5	5	0.4064549	-0.3602048	1	10	0.03	2000	1.826013	40.92394	-91.39363
438697	-85	5	15	-1.085539	0.2269229	-65.13062	0	11.06	4003	0	0	5	5	0.4064549	-0.3614088	1	10	0.03	2000	1.809757	40.92394	-91.39363
438801	-79	3	6	-1.082635	0.2250786	-65.13996	0	11.06	4003	0	0	5	5	0.4064549	-0.3630536	1	10	0.03	2000	1.82027	40.92394	-91.39363
438915	-81	0	8	-1.082012	0.2259887	-65.16151	0	11.06	4003	0	0	5	5	0.4064549	-0.359473	1	10	0.03	2000	1.815362	40.92394	-91.39363
439071	-86	1	6	-1.070161	0.2172752	-65.17994	0	11.06	4004	0	0	5	5	0.4064549	-0.3464566	1	10	0.03	2000	2.034033	40.92394	-91.39363
439184	-87	0	7	-1.070901	0.2154696	-65.19147	0	11.06	4002	0	0	5	5	0.4064549	-0.3370808	1	10	0.03	2000	1.792851	40.92394	-91.39363
439214	-78	1	7	-1.068559	0.2149922	-65.201	0	11.06	4003	0	0	5	5	0.4064549	-0.3304871	1	10	0.03	2000	2.033275	40.92394	-91.39363
439324	-81	0	9	-1.058972	0.2156171	-65.21626	0	11.06	4004	0	0	5	5	0.4064549	-0.3194502	1	10	0.03	2000	1.793555	40.92394	-91.39363
439428	-82	-4	3	-1.053595	0.2148653	-65.23158	0	11.06	4003	0	0	5	5	0.4064549	-0.303584	1	10	0.03	2000	1.768564	40.92394	-91.39363
439554	-86	0	2	-1.055204	0.2193722	-65.25385	0	11.06	4003	0	0	5	5	0.4064549	-0.2672158	1	10	0.03	2000	1.780208	40.92394	-91.39363
439644	-85	5	9	-1.054007	0.2208959	-65.26832	0	11.06	4004	0	0	5	5	0.4064549	-0.2578399	1	10	0.03	2000	1.777838	40.92394	-91.39363
439704	-75	0	8	-1.056604	0.2182976	-65.27247	0	11.06	4003	0	0	5	5	0.4064549	-0.2563824	1	10	0.03	2000	1.772559	40.92394	-91.39363
439889	-72	2	10	-1.056496	0.224021	-65.3028	0	11.06	4002	0	0	5	5	0.4064549	-0.2707371	1	10	0.03	2000	1.774329	40.92394	-91.39363
439959	-93	5	8	-1.055015	0.2229089	-65.31184	0	11.06	4002	0	0	5	5	0.4064549	-0.2752285	1	10	0.03	2000	1.769684	40.92394	-91.39363
440073	-82	8	8	-1.05837	0.2260991	-65.33015	0	11.06	4003	0	0	5	5	0.4064549	-0.2934898	1	10	0.03	2000	1.759218	40.92394	-91.39364
440169	-69	-4	0	-1.055837	0.2272782	-65.34174	0	11.06	4003	0	0	5	5	0.4064549	-0.302058	1	10	0.03	2000	1.785251	40.92394	-91.39364
440206	-69	-4	0	-1.055837	0.2272782	-65.34174	0	11.06	4003	0	0	5	5	0.4064549	-0.308782	1	10	0.03	2000	1.785251	40.92394	-91.39364
440339	-82	1	10	-1.043099	0.2310023	-65.36689	0	11.06	4004	0	0	5	5	0.4064549	-0.3080475	1	10	0.03	2000	1.754652	40.92394	-91.39364
440422	-73	6	5	-1.036002	0.2233588	-65.37635	0	11.11	4003	0	0	5	5	0.4064549	-0.3057854	1	10	0.03	2000	1.743976	40.92394	-91.39364
440512	-87	0	7	-1.035341	0.2200642	-65.38783	0	11.11	4004	0	0	5	5	0.4064549	-0.2989519	1	10	0.03	2000	1.978762	40.92394	-91.39364
440616	-72	5	14	-1.033739	0.2208878	-65.40192	0	11.11	4002	0	0	5	5	0.4064549	-0.2965045	1	10	0.03	2000	1.72691	40.92394	-91.39364
440750	-77	-5	8	-1.023083	0.2172711	-65.41383	0	11.11	4010	0	0	5	5	0.4064549	-0.2993652	1	10	0.03	2000	1.745318	40.92394	-91.39364
440842	-80	0	12	-1.021946	0.2158087	-65.43244	0	11.11	4002	0	0	5	5	0.4064549	-0.2949786	1	10	0.03	2000	1.722119	40.92394	-91.39364
440959	-79	4	7	-1.027689	0.2132645	-65.44465	0	11.11	4004	0	0	5	5	0.4064549	-0.2907057	1	10	0.03	2000	1.714885	40.92394	-91.39364
441049	-78	0	7	-1.034587	0.2114219	-65.45832	0	11.11	4004	0	0	5	5	0.4064549	-0.2820119	1	10	0.03	2000	1.49585	40.92394	-91.39364
441127	-83	15	9	-1.032895	0.2119111	-65.46784	0	11.11	4002	0	0	5	5	0.4064549	-0.2759798	1	10	0.03	2000	1.74275	40.92394	-91.39364
441302	-76	1	6	-1.032609	0.2108761	-65.4903	0	11.11	4004	0	0	5	5	0.4064549	-0.2507515	1	10	0.03	2000	1.730183	40.92394	-91.39364
441417	-75	4	8	-1.024482	0.2105176	-65.51051	0	11.06	4002	0	0	5	5	0.4064549	-0.2455225	1	10	0.03	2000	1.722146	40.92395	-91.39364
441485	-75	4	8	-1.024482	0.2105176	-65.51051	0	11.06	4002	0	0	5	5	0.4064549	-0.2446581	1	10	0.03	2000	1.722146	40.92395	-91.39364
441594	-73	5	8	-1.02098	0.2034882	-65.53425	0	11.06	4004	0	0	5	5	0.4064549	-0.2427126	1	10	0.03	2000	1.713719	40.92395	-91.39364
441705	-75	0	10	-1.020307	0.2103681	-65.54829	0	11.06	4002	0	0	5	5	0.4064549	-0.2395039	1	10	0.03	2000	1.708117	40.92395	-91.39364
441732	-76	5	12	-1.009474	0.208838	-65.55695	0	11.06	4002	0	0	5	5	0.4064549	-0.2392274	1	10	0.03	2000	1.702962	40.92395	-91.39364
441850	-81	0	13	-1.002291	0.2130066	-65.57026	0	11.06	4003	0	0	5	5	0.4064549	-0.2422397	1	10	0.03	2000	1.676386	40.92395	-91.39364
441963	-71	-7	10	-0.9995202	0.2176671	-65.58851	0	11.06	4004	0	0	5	5	0.4064549	-0.2468744	1	10	0.03	2000	1.684216	40.92395	-91.39364
442092	-71	-2	9	-1.001539	0.2237698	-65.60609	0	11.06	4003	0	0	5	5	0.4064549	-0.258954	1	10	0.03	2000	1.67873	40.92395	-91.39364
442187	-83	7	11	-1.005704	0.2248235	-65.61658	0	11.06	4004	0	0	5	5	0.4064549	-0.2654212	1	10	0.03	2000	1.684928	40.92395	-91.39364
442300	-80	1	9	-1.004674	0.2208044	-65.63404	0	11.06	4003	0	0	5	5	0.4064549	-0.282041	1	10	0.03	2000	1.688399	40.92395	-91.39364
442332	-78	6	5	-1.004117	0.2183935	-65.63813	0	11.06	4002	0	0	5	5	0.4064549	-0.2858826	1	10	0.03	2000	1.685741	40.92395	-91.39364
442418	-74	-1	6	-0.998103	0.2162688	-65.64668	0	11.06	4002	0	0	5	5	0.04134865	-0.2983156	6	10	0.03	2000	1.677205	40.92395	-91.39364
442521	-75	-3	9	-0.9957655	0.2200267	-65.66419	0	11.06	4004	0	0	5	5	0.04282353	-0.3106762	6	10	0.03	2000	1.916166	40.92395	-91.39364
442675	-73	1	7	-0.9877758	0.2269073	-65.68262	0	11.06	4003	0	0	5	5	0.04422465	-0.3179905	6	10	0.03	2000	1.677402	40.92395	-91.39364
442781	-77	4	7	-0.9971105	0.2226526	-65.69544	0	11.06	4003	0	0	5	5	0.04506728	-0.3251162	6	10	0.03	2000	1.673141	40.92395	-91.39364
442892	-69	0	6	-0.98766	0.2213116	-65.71229	0	11.06	4004	0	0	5	5	0.04591198	-0.335433	6	10	0.03	2000	1.663215	40.92395	-91.39364
442938	-73	3	7	-0.9862357	0.2111877	-65.7226	0	11.06	4003	0	0	5	5	0.04608848	-0.3372763	6	10	0.03	2000	1.64835	40.92395	-91.39364
443028	-82	0	4	-0.983793	0.2109735	-65.73615	0	11.06	4004	0	0	5	5	0.04580907	-0.3537295	3	10	0.03	2000	1.647937	40.92395	-91.39364
443150	-80	-6	10	-0.9769899	0.2096772	-65.75007	0	11.06	4003	0	0	5	5	0.0456646	-0.3713457	3	10	0.03	2000	1.6401	40.92395	-91.39364
443232	-75	7	8	-0.972491	0.2030572	-65.76014	0	11.06	4003	0	0	5	5	0.0227677	-0.379004	6	10	0.03	2000	1.63448	40.92395	-91.39364
443390	-74	0	9	-0.9650916	0.2164694	-65.77961	0	11.06	4003	0	0	5	5	0.03287536	-0.3988027	6	10	0.03	2000	1.615632	40.92395	-91.39364
443510	-73	-3	11	-0.9570678	0.2118958	-65.80231	0	11.06	4003	0	0	5	5	0.03631345	-0.4021651	6	10	0.03	2000	1.607232	40.92395	-91.39364
443559	-69	1	8	-0.9545535	0.2209241	-65.80683	0	11.06	4003	0	0	5	5	0.03717548	-0.3987988	6	10	0.03	2000	1.607232	40.92395	-91.39364
443672	-76	4	9	-0.9427453	0.2142631	-65.81904	0	11.06	4003	0	0	5	5	0.03793254	-0.3925728	6	10	0.03	2000	1.584309	40.92395	-91.39364
443774	-68	8	2	-0.939433	0.2025194	-65.83704	0	11.06	4004	0	0	5	5	0.04034314	-0.3825812	6	10	0.03	2000	1.579299	40.92395	-91.39364
443880	-76	2	9	-0.9407267	0.2095539	-65.84693	0	11.06	4004	0	0	5	5	0.04274023	-0.3717504	6	10	0.03	2000	1.577833	40.92395	-91.39364
443986	-77	0	7	-0.9413791	0.2085883	-65.86097	0	11.06	4004	0	0	5	5	0.04143871	-0.3639969	6	10	0.03	2000	1.581055	40.92395	-91.39364
444057	-66	3	5	-0.9371257	0.2093424	-65.87275	0	11.06	4004	0	0	5	5	0.04262398	-0.363574	6	10	0.03	2000	1.579239	40.92395	-91.39364
444128	-67	3	9	-0.9353315	0.2077024	-65.88209	0	11.06	4003	0	0	5	5	0.04287792	-0.3659105	6	10	0.03	2000	1.566863	40.92395	-91.39364
444325	-63	-6	4	-0.9357204	0.2019418	-65.90693	0	11.06	4003	0	0	5	5	0.04470273	-0.3681328	3	10	0.03	2000	1.581835	40.92395	-91.39364
444356	-78	2	8	-0.941529	0.1993449	-65.91059	0	11.06	4004	0	0	5	5	0.04496586	-0.3689136	3	10	0.03	2000	1.574665	40.92395	-91.39364
444477	-71	0	13	-0.9405608	0.1931363	-65.9264	0	11.06	4002	0	0	5	5	0.04560762	-0.3735191	3	10	0.03	2000	1.58412	40.92395	-91.39364
444540	-71	0	4	-0.9358478	0.1964259	-65.93543	0	11.06	4003	0	0	5	5	0.04607547	-0.3805039	3	10	0.03	2000	1.578843	40.92395	-91.39364
444691	-68	6	7	-0.9332227	0.2033964	-65.94556	0	11.06	4003	0	0	5	5	0.04650828	-0.3827094	3	10	0.03	2000	1.568886	40.92395	-91.39364
444811	-73	0	6	-0.9244331	0.2131714	-65.96754	0	11.06	4002	0	0	5	5	0.02706451	-0.3804403	6	10	0.03	2000	1.545506	40.92395	-91.39364
444880	-73	0	2	-0.9275068	0.2089964	-65.97401	0	11.06	4002	0	0	5	5	0.03026402	-0.3795488	6	10	0.03	2000	1.549619	40.92395	-91.39364
444963	-72	2	12	-0.9077039	0.2170647	-65.98762	0	11.06	4003	0	0	5	5	0.03488998	-0.3702044	6	10	0.03	2000	1.523178	40.92395	-91.39364
445067	-66	0	7	-0.9046511	0.2180127	-65.99744	0	11.11	4002	0	0	5	5	0.0380277	-0.3622313	6	10	0.03	2000	1.518788	40.92395	-91.39364
445162	-67	3	6	-0.9082325	0.214396	-66.00141	0	11.11	4004	0	0	5	5	0.0405497	-0.3541426	6	10	0.03	2000	1.518788	40.92395	-91.39364
445220	-70	3	10	-0.9093944	0.2080229	-66.01643	0	11.11	4002	0	0	5	5	0.04122813	-0.3525994	3	10	0.03	2000	1.519422	40.92395	-91.39364
445324	-75	3	7	-0.9088728	0.2090924	-66.02711	0	11.11	4002	0	0	5	5	0.04332794	-0.3536953	3	10	0.03	2000	1.525932	40.92395	-91.39364
445444	-62	0	5	-0.9031217	0.2094627	-66.04469	0	11.11	4003	0	0	5	5	0.04441358	-0.3573092	3	10	0.03	2000	1.521547	40.92395	-91.39364
445528	-66	2	0	-0.8905511	0.2204987	-66.05146	0	11.11	4004	0	0	5	5	0.04520501	-0.3655858	3	10	0.03	2000	1.493251	40.92395	-91.39364
445626	-71	1	9	-0.8916213	0.2221329	-66.06074	0	11.11	4004	0	0	5	5	0.04578197	-0.3718498	3	10	0.03	2000	1.492518	40.92395	-91.39364
445759	-62	3	9	-0.8674503	0.2252682	-66.0821	0	11.11	4004	0	0	5	5	0.04620257	-0.3737983	3	10	0.03	2000	1.472479	40.92395	-91.39364
445913	-61	2	10	-0.869857	0.2080031	-66.09779	0	11.06	4002	0	0	5	5	0.0466659	-0.377531	3	10	0.03	2000	1.692956	40.92395	-91.39364
445946	-62	4	9	-0.8661274	0.214902	-66.10145	0	11.06	4004	0	0	5	5	0.04679284	-0.3770021	3	10	0.03	2000	1.692956	40.92395	-91.39364
446026	-66	-6	3	-0.8521818	0.2182267	-66.1142	0	11.06	4002	0	0	5	5	0.04689566	-0.3724331	3	10	0.03	2000	1.67305	40.92395	-91.39364
446129	-72	2	4	-0.8621228	0.209815	-66.12458	0	11.06	4003	0	0	5	5	0.04701446	-0.3642675	3	10	0.03	2000	1.428712	40.92395	-91.39364
446232	-65	4	7	-0.8696959	0.2085471	-66.13605	0	11.06	4003	0	0	5	5	0.04712435	-0.3522437	3	10	0.03	2000	1.461429	40.92395	-91.39364
446408	-57	0	7	-0.882619	0.2095094	-66.15351	0	11.06	4003	0	0	5	5	0.04719645	-0.3421231	3	10	0.03	2000	1.469853	40.92395	-91.39364
446495	-66	-1	4	-0.8847362	0.21495	-66.17048	0	11.06	4003	0	0	5	5	0.04723373	-0.336147	3	10	0.03	2000	1.725942	40.92395	-91.39364
446664	-68	-1	5	-0.8612731	0.2198905	-66.19141	0	11.06	4003	0	0	5	5	0.04728071	-0.3305766	3	10	0.03	2000	1.447279	40.92395	-91.39364
446876	-65	5	10	-0.8570021	0.2142792	-66.22266	0	11.11	4003	0	0	5	5	0.04730254	-0.3240486	3	10	0.03	2000	1.451707	40.92395	-91.39364
447003	-64	0	12	-0.8573796	0.212891	-66.23365	0	11.11	4004	0	0	5	5	0.04731542	-0.3113325	3	10	0.03	2000	1.444086	40.92395	-91.39364
447061	-63	6	9	-0.8480994	0.2102825	-66.24134	0	11.11	4002	0	0	5	5	0.04731728	-0.3069195	3	10	0.03	2000	1.436441	40.92395	-91.39364
447194	-65	2	10	-0.8473102	0.2244949	-66.2613	0	11.11	4003	0	0	5	5	0.04732413	-0.2930994	3	10	0.03	2000	1.421426	40.92395	-91.39364
447337	-62	-6	1	-0.8493675	0.215176	-66.28022	0	11.11	4004	0	0	5	5	0.04732681	-0.2836277	3	10	0.03	2000	1.437955	40.92395	-91.39364
447459	-63	-2	6	-0.8510594	0.2149599	-66.29743	0	11.11	4004	0	0	5	5	0.04732928	-0.2716896	3	10	0.03	2000	1.417333	40.92395	-91.39364
447577	-63	8	6	-0.853044	0.2242458	-66.30524	0	11.11	4002	0	0	5	5	0.0473309	-0.2608426	3	10	0.03	2000	1.440336	40.92395	-91.39364
447741	-63	-2	5	-0.8334833	0.2279285	-66.32929	0	11.11	4003	0	0	5	5	0.04733218	-0.246072	3	10	0.03	2000	1.416068	40.92395	-91.39364
447881	-60	-1	3	-0.8331674	0.215256	-66.34614	0	11.06	4004	0	0	5	5	0.0473328	-0.2397477	3	10	0.03	2000	1.391485	40.92395	-91.39364
447981	-60	0	9	-0.8318326	0.2155372	-66.35993	0	11.06	4004	0	0	5	5	0.04733313	-0.23792	3	10	0.03	2000	1.392721	40.92395	-91.39364
448135	-67	-1	5	-0.8211396	0.2147882	-66.37586	0	11.06	4003	0	0	5	5	0.04733348	-0.2196667	3	10	0.03	2000	1.38215	40.92395	-91.39364
448301	-68	0	6	-0.8130786	0.2188293	-66.39515	0	11.06	4004	0	0	5	5	0.04733372	-0.2104856	3	10	0.03	2000	1.362403	40.92395	-91.39364
448352	-59	2	6	-0.8179138	0.2293164	-66.40131	0	11.06	4002	0	0	5	5	0.04733375	-0.2133228	3	10	0.03	2000	1.840971	40.92395	-91.39364
448469	-64	-6	7	-0.8248513	0.2172243	-66.41608	0	11.06	4003	0	0	5	5	0.04733382	-0.2230222	3	10	0.03	2000	1.373971	40.92395	-91.39364
448541	-59	3	-1	-0.8234465	0.2173823	-66.42329	0	11.06	4002	0	0	5	5	0.04733387	-0.2331315	3	10	0.03	2000	1.393269	40.92395	-91.39364
448609	-68	-1	9	-0.8228192	0.2202695	-66.42982	0	11.06	4002	0	0	5	5	0.04733389	-0.2416172	3	10	0.03	2000	1.625541	40.92395	-91.39364
448788	-69	-1	6	-0.8100473	0.2173724	-66.4513	0	11.11	4003	0	0	5	5	0.04733394	-0.2669553	3	10	0.03	2000	1.371528	40.92395	-91.39364
448878	-59	0	1	-0.8046213	0.2065971	-66.46265	0	11.11	4003	0	0	5	5	0.04733395	-0.2743865	3	10	0.03	2000	1.353731	40.92395	-91.39364
448960	-58	0	6	-0.8008493	0.1999435	-66.47529	0	11.11	4003	0	0	5	5	0.04733396	-0.2818946	3	10	0.03	2000	1.353625	40.92395	-91.39364
449098	-58	0	6	-0.7850217	0.2101652	-66.48981	0	11.11	4002	0	0	5	5	0.04733398	-0.3024707	3	10	0.03	2000	1.324037	40.92395	-91.39364
449219	-66	-4	5	-0.7862493	0.2054909	-66.50007	0	11.11	4003	0	0	5	5	0.04733399	-0.3103775	3	10	0.03	2000	1.322272	40.92395	-91.39365
449316	-60	0	5	-0.7886623	0.2052227	-66.51215	0	11.11	4003	0	0	5	5	0.04733399	-0.3323368	3	10	0.03	2000	1.325541	40.92395	-91.39365
449388	-59	-3	12	-0.7867252	0.2035933	-66.51856	0	11.11	4004	0	0	5	5	0.04733399	-0.3380302	3	10	0.03	2000	1.329546	40.92395	-91.39365
449498	-56	5	8	-0.7818375	0.2035684	-66.53211	0	11.11	4002	0	0	5	5	0.04733399	-0.3494007	3	10	0.03	2000	1.320609	40.92395	-91.39365
449631	-60	-2	5	-0.7856633	0.204495	-66.54823	0	11.11	4003	0	0	5	5	0.04733399	-0.3588361	3	10	0.03	2000	1.313761	40.92395	-91.39365
449691	-58	1	6	-0.7836549	0.2092798	-66.55408	0	11.11	4003	0	0	5	5	0.04733399	-0.3635123	3	10	0.03	2000	1.319708	40.92395	-91.39365
449794	-62	-3	6	-0.7890038	0.2085537	-66.56605	0	11.11	4004	0	0	5	5	0.04733399	-0.3672214	3	10	0.03	2000	1.321527	40.92395	-91.39365
449901	-64	0	9	-0.7863903	0.2166413	-66.58064	0	11.11	4004	0	0	5	5	0.04733399	-0.371075	3	10	0.03	2000	1.321727	40.92395	-91.39365
449992	-58	4	11	-0.7865137	0.2190672	-66.58845	0	11.11	4004	0	0	5	5	0.04733399	-0.3716218	3	10	0.03	2000	1.556327	40.92395	-91.39365
450134	-56	1	6	-0.7807083	0.2193664	-66.59937	0	11.11	4003	0	0	5	5	0.04733399	-0.3691386	3	10	0.03	2000	1.323207	40.92395	-91.39365
450179	-58	6	9	-0.7867466	0.2140384	-66.61085	0	11.11	4003	0	0	5	5	0.04733399	-0.369449	3	10	0.03	2000	1.318373	40.92395	-91.39365
450352	-68	-7	10	-0.7880653	0.2154453	-66.63349	0	11.11	4002	0	0	5	5	0.04733399	-0.3696407	3	10	0.03	2000	1.31231	40.92395	-91.39365
450419	-60	7	6	-0.7878988	0.2199264	-66.64027	0	11.11	4003	0	0	5	5	0.04733399	-0.3656153	3	10	0.03	2000	1.551282	40.92395	-91.39365
450566	-62	-2	9	-0.7836784	0.2130801	-66.65632	0	11.11	4003	0	0	5	5	0.04733399	-0.3542499	3	10	0.03	2000	1.318211	40.92396	-91.39365
450665	-56	-5	0	-0.7818228	0.2108342	-66.66694	0	11.11	4003	0	0	5	5	0.04733399	-0.3477271	3	10	0.03	2000	1.316728	40.92396	-91.39365
450787	-56	0	5	-0.7788727	0.2077568	-66.68104	0	11.11	4004	0	0	5	5	0.04733399	-0.3415972	3	10	0.03	2000	1.31396	40.92396	-91.39365
450863	-62	2	9	-0.7719384	0.2086849	-66.69086	0	11.11	4003	0	0	5	5	0.04733399	-0.33465	3	10	0.03	2000	1.312008	40.92396	-91.39365
450961	-59	0	12	-0.7673656	0.211427	-66.6999	0	11.11	4003	0	0	5	5	0.04733399	-0.3264476	3	10	0.03	2000	1.295201	40.92396	-91.39365
451099	-59	3	9	-0.7751927	0.2131038	-66.72199	0	11.11	4003	0	0	5	5	0.04733399	-0.3265481	3	10	0.03	2000	1.301436	40.92396	-91.39365
451180	-68	-1	6	-0.770223	0.2117387	-66.73109	0	11.11	4002	0	0	5	5	0.04733399	-0.3294859	3	10	0.03	2000	1.293931	40.92396	-91.39365
451343	-59	1	11	-0.7695884	0.2135044	-66.7458	0	11.11	4003	0	0	5	5	0.04733399	-0.3275871	3	10	0.03	2000	1.296323	40.92396	-91.39365
451429	-58	7	2	-0.7639147	0.2171687	-66.76148	0	11.06	4002	0	0	5	5	0.04733399	-0.331747	3	10	0.03	2000	1.521081	40.92396	-91.39365
451483	-56	2	5	-0.7604355	0.2093623	-66.77058	0	11.06	4002	0	0	5	5	0.04733399	-0.3335288	3	10	0.03	2000	1.505719	40.92396	-91.39365
451610	-63	7	12	-0.7610132	0.2062766	-66.78626	0	11.06	4004	0	0	5	5	0.04733399	-0.3443178	3	10	0.03	2000	1.273949	40.92395	-91.39365
451683	-59	0	10	-0.7603717	0.2044796	-66.79585	0	11.06	4003	0	0	5	5	0.04733399	-0.3459532	3	10	0.03	2000	1.509068	40.92395	-91.39365
451762	-62	-5	13	-0.7600183	0.2023328	-66.80384	0	11.06	4003	0	0	5	5	0.04733399	-0.3550849	3	10	0.03	2000	1.270358	40.92395	-91.39365
451883	-57	6	7	-0.7506923	0.2010028	-66.81501	0	11.06	4002	0	0	5	5	0.04733399	-0.3609925	3	10	0.03	2000	1.271805	40.92395	-91.39365
451979	-54	-3	4	-0.7512547	0.1991715	-66.82966	0	11.06	4002	0	0	5	5	0.04733399	-0.3609056	3	10	0.03	2000	1.260377	40.92395	-91.39365
452069	-56	-4	9	-0.7532386	0.194888	-66.84138	0	11.06	4004	0	0	5	5	0.04733399	-0.3504355	3	10	0.03	2000	1.491076	40.92395	-91.39365
452223	-60	3	9	-0.7572498	0.1851588	-66.85896	0	11.06	4004	0	0	5	5	0.04733399	-0.3439509	3	10	0.03	2000	1.511722	40.92395	-91.39365
452294	-60	0	8	-0.7543889	0.181297	-66.87562	0	11.11	4004	0	0	5	5	0.04733399	-0.3460641	3	10	0.03	2000	1.272524	40.92395	-91.39365
452334	-63	0	3	-0.7543426	0.1833718	-66.87916	0	11.11	4003	0	0	5	5	0.04733399	-0.3525866	3	10	0.03	2000	1.272524	40.92395	-91.39365
452483	-57	-2	15	-0.749743	0.1770136	-66.89088	0	11.11	4003	0	0	5	5	0.04733399	-0.3537222	3	10	0.03	2000	1.497957	40.92395	-91.39365
452544	-66	6	7	-0.7413287	0.1767367	-66.90199	0	11.11	4003	0	0	5	5	0.04733399	-0.3567058	3	10	0.03	2000	1.246973	40.92395	-91.39365
452653	-63	0	7	-0.7452996	0.1799793	-66.91291	0	11.11	4004	0	0	5	5	0.04733399	-0.3577806	3	10	0.03	2000	1.251803	40.92395	-91.39365
452774	-55	-4	11	-0.7417102	0.1780508	-66.92768	0	11.11	4003	0	0	5	5	0.04733399	-0.357271	3	10	0.03	2000	1.250473	40.92395	-91.39365
452826	-66	4	6	-0.7380089	0.1765124	-66.93586	0	11.11	4004	0	0	5	5	0.04733399	-0.3565319	3	10	0.03	2000	1.247273	40.92395	-91.39365
452974	-55	-4	10	-0.7326739	0.1719641	-66.94874	0	11.11	4003	0	0	5	5	0.04733399	-0.3607341	3	10	0.03	2000	1.235957	40.92395	-91.39365
453074	-49	1	2	-0.7283726	0.1726817	-66.96253	0	11.11	4002	0	0	5	5	0.04733399	-0.3735603	3	10	0.03	2000	1.461888	40.92395	-91.39365
453097	-49	1	2	-0.7283726	0.1726817	-66.96253	0	11.11	4002	0	0	5	5	0.04733399	-0.3785656	3	10	0.03	2000	1.461888	40.92395	-91.39365
453250	-53	0	9	-0.7191457	0.1729478	-66.97388	0	11.11	4002	0	0	5	5	0.04733399	-0.3892848	3	10	0.03	2000	1.209175	40.92395	-91.39365
453344	-52	-1	3	-0.7089399	0.1743814	-66.98792	0	11.11	4004	0	0	5	5	0.04733399	-0.3908464	3	10	0.03	2000	1.190727	40.92395	-91.39365
453400	-56	5	7	-0.7074095	0.1758228	-66.99262	0	11.11	4004	0	0	5	5	0.04733399	-0.3896357	3	10	0.03	2000	1.190727	40.92395	-91.39365
453494	-55	0	7	-0.7066148	0.1805219	-67.00013	0	11.11	4003	0	0	5	5	0.04733399	-0.3858285	3	10	0.03	2000	1.1863	40.92395	-91.39365
453630	-55	4	10	-0.7121199	0.183315	-67.01704	0	11.11	4003	0	0	5	5	0.04733399	-0.3783676	3	10	0.03	2000	1.427949	40.92395	-91.39365
453720	-46	-4	4	-0.7141161	0.1842306	-67.02393	0	11.11	4003	0	0	5	5	0.04733399	-0.37342	3	10	0.03	2000	1.203762	40.92395	-91.39365
453879	-51	-3	8	-0.7022382	0.1930321	-67.04017	0	11.11	4004	0	0	5	5	0.04733399	-0.3824421	3	10	0.03	2000	1.189756	40.92395	-91.39365
453966	-58	-3	10	-0.7002238	0.1839343	-67.04987	0	11.11	4004	0	0	5	5	0.04733399	-0.3846049	3	10	0.03	2000	1.175021	40.92395	-91.39365
454044	-50	-1	7	-0.7025423	0.1799125	-67.05555	0	11.11	4003	0	0	5	5	0.04733399	-0.3906878	3	10	0.03	2000	1.182132	40.92395	-91.39365
454157	-51	0	10	-0.7005745	0.175575	-67.06507	0	11.11	4003	0	0	5	5	0.04733399	-0.3847539	3	10	0.03	2000	1.18808	40.92395	-91.39365
454170	-51	0	10	-0.7005745	0.175575	-67.06507	0	11.11	4003	0	0	5	5	0.04733399	-0.3842092	3	10	0.03	2000	1.18808	40.92395	-91.39365
454286	-54	6	9	-0.6937194	0.1722848	-67.0854	0	11.11	4002	0	0	5	5	0.04733399	-0.3871917	3	10	0.03	2000	1.17117	40.92395	-91.39365
454368	-49	-2	4	-0.6973379	0.1739693	-67.09443	0	11.11	4004	0	0	5	5	0.04733399	-0.3837231	3	10	0.03	2000	1.179858	40.92395	-91.39365
454476	-60	1	4	-0.6931264	0.1752363	-67.10279	0	11.11	4002	0	0	5	5	0.04733399	-0.3790214	3	10	0.03	2000	1.169555	40.92395	-91.39365
454606	-47	5	2	-0.6873114	0.1747104	-67.1208	0	11.11	4003	0	0	5	5	0.04733399	-0.3763173	3	10	0.03	2000	1.151983	40.92395	-91.39365
454675	-52	4	10	-0.6804848	0.1703498	-67.12806	0	11.11	4004	0	0	5	5	0.04733399	-0.3702615	3	10	0.03	2000	1.385247	40.92395	-91.39365
454914	-51	3	7	-0.674974	0.1772061	-67.15144	0	11	4002	0	0	5	5	0.04733399	-0.3456005	3	10	0.03	2000	1.37744	40.92395	-91.39365
455048	-56	4	10	-0.6755484	0.1745881	-67.16096	0	11	4003	0	0	5	5	0.04733399	-0.3485847	3	10	0.03	2000	1.371367	40.92395	-91.39365
455101	-48	-6	9	-0.6698858	0.1745554	-67.17176	0	11	4004	0	0	5	5	0.04733399	-0.3497935	3	10	0.03	2000	1.136735	40.92395	-91.39365
455187	-57	9	8	-0.6705042	0.1777563	-67.1797	0	11	4003	0	0	5	5	0.04733399	-0.3581991	3	10	0.03	2000	1.12733	40.92395	-91.39365
455370	-53	5	7	-0.6629119	0.1689781	-67.19587	0	11	4002	0	0	5	5	0.04733399	-0.3516852	3	10	0.03	2000	1.11529	40.92395	-91.39365
455439	-55	6	7	-0.6647301	0.1722704	-67.20283	0	11	4002	0	0	5	5	0.04733399	-0.3450578	3	10	0.03	2000	1.119598	40.92395	-91.39365
455602	-55	2	7	-0.6642894	0.1669268	-67.22346	0	11	4003	0	0	5	5	0.04733399	-0.3348259	3	10	0.03	2000	1.11272	40.92395	-91.39365
455711	-51	-2	5	-0.6622893	0.1654159	-67.23505	0	11	4004	0	0	5	5	0.04733399	-0.3343739	3	10	0.03	2000	1.34508	40.92395	-91.39365
455784	-45	1	4	-0.6612392	0.1640396	-67.2403	0	11	4003	0	0	5	5	0.04733399	-0.3360143	3	10	0.03	2000	1.114328	40.92395	-91.39365
455945	-54	2	9	-0.6574641	0.1735867	-67.25996	0	11.11	4003	0	0	5	5	0.04733399	-0.3488783	3	10	0.03	2000	1.116258	40.92395	-91.39365
456018	-48	4	5	-0.657771	0.1706687	-67.26582	0	11.11	4004	0	0	5	5	0.04733399	-0.354238	3	10	0.03	2000	1.103828	40.92395	-91.39365
456129	-51	-1	5	-0.6460804	0.1689604	-67.27692	0	11.11	4003	0	0	5	5	0.04733399	-0.3626739	3	10	0.03	2000	1.094472	40.92395	-91.39365
456253	-51	1	5	-0.6442481	0.1708949	-67.2851	0	11.11	4002	0	0	5	5	0.04733399	-0.3638027	3	10	0.03	2000	1.076142	40.92395	-91.39365
456342	-51	0	9	-0.6422738	0.1799649	-67.2945	0	11.11	4003	0	0	5	5	0.04733399	-0.3686001	3	10	0.03	2000	1.07805	40.92395	-91.39365
456385	-41	0	3	-0.6375667	0.1788509	-67.30225	0	11.11	4004	0	0	5	5	0.04733399	-0.3700435	3	10	0.03	2000	1.318969	40.92395	-91.39365
456506	-50	4	8	-0.6396704	0.1824463	-67.31367	0	11.11	4003	0	0	5	5	0.04733399	-0.3713267	3	10	0.03	2000	1.074613	40.92395	-91.39365
456638	-47	1	4	-0.6386586	0.1903409	-67.32557	0	11.11	4003	0	0	5	5	0.04733399	-0.371047	3	10	0.03	2000	1.318693	40.92395	-91.39365
456685	-49	5	9	-0.6385961	0.1865739	-67.32972	0	11.11	4004	0	0	5	5	0.04733399	-0.3692073	3	10	0.03	2000	1.318693	40.92395	-91.39365
456802	-47	1	7	-0.6285679	0.1877834	-67.34437	0	11.06	4003	0	0	5	5	0.04733399	-0.36893	3	10	0.03	2000	1.052336	40.92395	-91.39365
456899	-44	2	10	-0.6345681	0.189541	-67.35407	0	11.06	4003	0	0	5	5	0.04733399	-0.368037	3	10	0.03	2000	1.06349	40.92395	-91.39365
456948	-54	2	3	-0.6381334	0.1885072	-67.35731	0	11.06	4004	0	0	5	5	0.04733399	-0.3644511	3	10	0.03	2000	1.295935	40.92395	-91.39365
457079	-49	1	6	-0.6286162	0.1841956	-67.36988	0	11.06	4004	0	0	5	5	0.04733399	-0.365315	3	10	0.03	2000	1.061204	40.92395	-91.39365
457150	-44	0	9	-0.6250764	0.1779704	-67.37775	0	11.06	4003	0	0	5	5	0.04733399	-0.3676972	3	10	0.03	2000	1.0532	40.92395	-91.39365
457328	-46	0	7	-0.6211339	0.1757575	-67.39106	0	11.06	4004	0	0	5	5	0.04733399	-0.3748534	3	10	0.03	2000	1.04389	40.92395	-91.39365
457398	-48	5	1	-0.6158649	0.1837936	-67.39906	0	11.06	4003	0	0	5	5	0.04733399	-0.3751889	3	10	0.03	2000	1.035947	40.92395	-91.39365
457554	-44	0	2	-0.6072233	0.1824273	-67.40998	0	11.06	4002	0	0	5	5	0.04733399	-0.3751796	3	10	0.03	2000	1.021364	40.92395	-91.39365
457690	-49	5	9	-0.6059982	0.1895458	-67.42054	0	11.06	4002	0	0	5	5	0.04733399	-0.3710846	3	10	0.03	2000	1.023505	40.92395	-91.39365
457803	-39	1	5	-0.5984209	0.1915059	-67.42945	0	11.06	4004	0	0	5	5	0.04733399	-0.3734173	3	10	0.03	2000	1.011803	40.92395	-91.39365
457857	-44	0	7	-0.5931469	0.1930243	-67.4369	0	11.06	4002	0	0	5	5	0.04733399	-0.3780414	3	10	0.03	2000	1.00263	40.92395	-91.39365
457986	-45	-3	5	-0.5919514	0.1955865	-67.44874	0	11.06	4004	0	0	5	5	0.04733399	-0.3861711	3	10	0.03	2000	0.9952241	40.92395	-91.39365
458029	-48	6	7	-0.5949731	0.193654	-67.45429	0	11.06	4004	0	0	5	5	0.04733399	-0.388491	3	10	0.03	2000	1.232076	40.92395	-91.39365
458135	-43	-1	6	-0.5925165	0.1938622	-67.45966	0	11.06	4003	0	0	5	5	0.04733399	-0.3989642	3	10	0.03	2000	0.9986418	40.92395	-91.39365
458243	-45	1	10	-0.5953121	0.1889207	-67.46864	0	11.06	4002	0	0	5	5	0.04733399	-0.4058778	3	10	0.03	2000	0.9967494	40.92395	-91.39365
458405	-44	7	8	-0.5997676	0.1812999	-67.48194	0	11.06	4003	0	0	5	5	0.04733399	-0.4006058	3	10	0.03	2000	1.233628	40.92395	-91.39365
458494	-52	4	8	-0.6016935	0.1758392	-67.49158	0	11.06	4003	0	0	5	5	0.04733399	-0.401765	3	10	0.03	2000	1.248767	40.92395	-91.39365
458544	-52	1	6	-0.6016649	0.1748936	-67.49439	0	11.11	4003	0	0	5	5	0.04733399	-0.4057758	3	10	0.03	2000	1.248767	40.92395	-91.39365
458629	-48	-2	7	-0.5996588	0.1711444	-67.50068	0	11.11	4003	0	0	5	5	0.04733399	-0.4090723	3	10	0.03	2000	1.018018	40.92395	-91.39365
458735	-43	7	9	-0.5994164	0.1749176	-67.51325	0	11.11	4004	0	0	5	5	0.04733399	-0.4186384	3	10	0.03	2000	1.241856	40.92395	-91.39365
458836	-43	-1	6	-0.5980756	0.1797443	-67.52131	0	11.11	4002	0	0	5	5	0.04733399	-0.4252852	3	10	0.03	2000	1.011022	40.92395	-91.39365
458939	-38	0	5	-0.5964589	0.1790857	-67.5246	0	11.11	4003	0	0	5	5	0.04733399	-0.432012	3	10	0.03	2000	1.00243	40.92395	-91.39365
459070	-39	-2	4	-0.591679	0.1839531	-67.54139	0	11.11	4002	0	0	5	5	0.04733399	-0.4488277	3	10	0.03	2000	0.9920245	40.92395	-91.39365
459148	-39	0	5	-0.5930611	0.1834594	-67.54786	0	11.11	4006	0	0	5	5	0.04733399	-0.4600877	3	10	0.03	2000	0.9931991	40.92395	-91.39365
459282	-47	1	10	-0.5879079	0.1834246	-67.55762	0	11.11	4002	0	0	5	5	0.04733399	-0.4623663	3	10	0.03	2000	0.998282	40.92395	-91.39365
459352	-43	-2	7	-0.5865361	0.1854299	-67.56196	0	11.11	4003	0	0	5	5	0.04733399	-0.4614187	3	10	0.03	2000	0.7527365	40.92395	-91.39365
459434	-38	2	2	-0.5776639	0.1796733	-67.5694	0	11.11	4002	0	0	5	5	0.04733399	-0.4599408	3	10	0.03	2000	1.208471	40.92395	-91.39365
459537	-48	0	1	-0.5739064	0.1742267	-67.57691	0	11.06	4003	0	0	5	5	0.04733399	-0.4546428	3	10	0.03	2000	0.972598	40.92395	-91.39365
459627	-41	-6	-2	-0.5675348	0.1800443	-67.58833	0	11.06	4003	0	0	5	5	0.04733399	-0.4472083	3	10	0.03	2000	0.9589188	40.92395	-91.39365
459695	-37	4	8	-0.5674044	0.1783349	-67.59333	0	11.06	4004	0	0	5	5	0.04733399	-0.4359981	3	10	0.03	2000	0.9594674	40.92395	-91.39365
459845	-44	1	4	-0.5616521	0.1711375	-67.60633	0	11.06	4003	0	0	5	5	0.04733399	-0.4289834	3	10	0.03	2000	0.9477064	40.92395	-91.39365
459905	-40	4	5	-0.5597337	0.1771829	-67.61127	0	11.06	4004	0	0	5	5	0.04733399	-0.4283755	3	10	0.03	2000	1.184723	40.92395	-91.39365
460030	-37	-6	9	-0.5546046	0.1805932	-67.62415	0	11.06	4003	0	0	5	5	0.04733399	-0.422412	3	10	0.03	2000	0.9389262	40.92395	-91.39365
460157	-37	0	0	-0.5544168	0.1761861	-67.6366	0	11.06	4002	0	0	5	5	0.04733399	-0.413753	3	10	0.03	2000	0.9186009	40.92395	-91.39365
460202	-36	-2	0	-0.5516489	0.1767743	-67.63764	0	11.06	4004	0	0	5	5	0.04733399	-0.4121585	3	10	0.03	2000	0.9324052	40.92395	-91.39365
460255	-41	0	3	-0.5582979	0.1838518	-67.64765	0	11.06	4002	0	0	5	5	0.04733399	-0.4092824	3	10	0.03	2000	0.9333979	40.92395	-91.39365
460349	-48	5	8	-0.5594631	0.1790067	-67.65583	0	11.06	4003	0	0	5	5	0.04733399	-0.4040791	3	10	0.03	2000	0.9402447	40.92395	-91.39365
460513	-46	-1	8	-0.5608755	0.1769926	-67.67115	0	11.06	4003	0	0	5	5	0.04733399	-0.3942181	3	10	0.03	2000	0.9427975	40.92395	-91.39365
460622	-39	0	4	-0.5514481	0.1712821	-67.68214	0	11.06	4004	0	0	5	5	0.04733399	-0.389638	3	10	0.03	2000	0.9349746	40.92395	-91.39365
460664	-37	-6	10	-0.5473353	0.1700158	-67.6858	0	11.06	4004	0	0	5	5	0.04733399	-0.3853847	3	10	0.03	2000	0.9255235	40.92395	-91.39365
460767	-41	1	4	-0.5425354	0.1736234	-67.69697	0	11.06	4004	0	0	5	5	0.04733399	-0.3775304	3	10	0.03	2000	1.154557	40.92395	-91.39365
460832	-37	2	6	-0.5418451	0.1679037	-67.70277	0	11.06	4004	0	0	5	5	0.04733399	-0.3753172	3	10	0.03	2000	0.9084696	40.92395	-91.39365
460956	-39	0	5	-0.5417064	0.1651628	-67.71436	0	11.06	4004	0	0	5	5	0.04733399	-0.3736021	3	10	0.03	2000	0.9050428	40.92395	-91.39365
461022	-34	3	9	-0.5425055	0.1675204	-67.71845	0	11.06	4002	0	0	5	5	0.04733399	-0.3754835	3	10	0.03	2000	0.9050428	40.92395	-91.39365
461156	-45	2	5	-0.5362284	0.1673537	-67.7309	0	11.11	4002	0	0	5	5	0.04733399	-0.3701614	3	10	0.03	2000	0.9031252	40.92395	-91.39365
461223	-36	0	7	-0.5362478	0.1669256	-67.73682	0	11.11	4002	0	0	5	5	0.04733399	-0.3687761	3	10	0.03	2000	0.8986342	40.92395	-91.39365
461361	-40	3	9	-0.5318683	0.1681137	-67.75092	0	11.11	4003	0	0	5	5	0.04733399	-0.357039	3	10	0.03	2000	0.8965235	40.92395	-91.39365
461432	-41	5	4	-0.53579	0.1671205	-67.75678	0	11.11	4003	0	0	5	5	0.04733399	-0.351418	3	10	0.03	2000	0.8972913	40.92395	-91.39365
461552	-43	0	7	-0.5407456	0.170069	-67.76484	0	11.11	4004	0	0	5	5	0.04733399	-0.3469141	3	10	0.03	2000	0.9089895	40.92395	-91.39365
461631	-38	1	7	-0.5324986	0.1739772	-67.77607	0	11.11	4002	0	0	5	5	0.04733399	-0.3413774	3	10	0.03	2000	0.8965743	40.92395	-91.39365
461727	-42	0	5	-0.53341	0.1731483	-67.78419	0	11.11	4003	0	0	5	5	0.04733399	-0.3387464	3	10	0.03	2000	0.8964525	40.92395	-91.39365
461827	-43	-1	4	-0.5302688	0.1716523	-67.79029	0	11.11	4002	0	0	5	5	0.04733399	-0.3327982	3	10	0.03	2000	0.8937507	40.92395	-91.39365
462004	-34	6	4	-0.5234975	0.1777519	-67.80671	0	11.11	4004	0	0	5	5	0.04733399	-0.3226431	3	10	0.03	2000	0.8801101	40.92395	-91.39365
462063	-37	-2	5	-0.5225163	0.1755878	-67.81214	0	11.11	4004	0	0	5	5	0.04733399	-0.3214473	3	10	0.03	2000	1.112017	40.92395	-91.39365
462155	-39	4	5	-0.519289	0.1671901	-67.82081	0	11.06	4003	0	0	5	5	0.04733399	-0.3198766	3	10	0.03	2000	1.103881	40.92395	-91.39365
462281	-38	8	7	-0.5199465	0.1621611	-67.83125	0	11.06	4004	0	0	5	5	0.04733399	-0.3152264	3	10	0.03	2000	1.11269	40.92395	-91.39365
462381	-37	2	5	-0.5255086	0.1700337	-67.84211	0	11.06	4003	0	0	5	5	0.04733399	-0.3122928	3	10	0.03	2000	0.8826447	40.92395	-91.39365
462416	-38	4	6	-0.5266882	0.1699833	-67.84589	0	11.06	4002	0	0	5	5	0.04733399	-0.3081362	3	10	0.03	2000	0.8835691	40.92395	-91.39365
462511	-35	2	9	-0.5240959	0.1682799	-67.84986	0	11.06	4004	0	0	5	5	0.04733399	-0.3021087	3	10	0.03	2000	0.8808607	40.92395	-91.39365
462625	-42	3	7	-0.521641	0.1602422	-67.8592	0	11.06	4004	0	0	5	5	0.04733399	-0.2917589	3	10	0.03	2000	0.8776042	40.92395	-91.39365
462705	-45	-2	0	-0.5234482	0.1625162	-67.86451	0	11.06	4004	0	0	5	5	0.04733399	-0.2859377	3	10	0.03	2000	0.877106	40.92395	-91.39365
462904	-39	3	3	-0.5128605	0.1567593	-67.87861	0	11.06	4002	0	0	5	5	0.04733399	-0.2843718	3	10	0.03	2000	0.8772922	40.92395	-91.39365
462971	-40	1	8	-0.5111086	0.1562475	-67.88471	0	11.06	4003	0	0	5	5	0.04733399	-0.2890705	3	10	0.03	2000	1.098306	40.92395	-91.39365
463017	-41	0	3	-0.5089055	0.1530249	-67.89014	0	11.11	4002	0	0	5	5	0.04733399	-0.2963778	3	10	0.03	2000	1.091405	40.92395	-91.39365
463129	-41	2	-3	-0.5009469	0.154636	-67.8993	0	11.11	4004	0	0	5	5	0.04733399	-0.3071564	3	10	0.03	2000	0.8525102	40.92395	-91.39365
463260	-42	8	6	-0.5022708	0.1525935	-67.90534	0	11.11	4004	0	0	5	5	0.04733399	-0.3044472	3	10	0.03	2000	0.8439848	40.92395	-91.39365
463351	-33	3	2	-0.5007453	0.1510242	-67.91315	0	11.11	4004	0	0	5	5	0.04733399	-0.2987821	3	10	0.03	2000	0.8450528	40.92395	-91.39365
463402	-29	1	3	-0.4949901	0.1528102	-67.91499	0	11.11	4003	0	0	5	5	0.04733399	-0.2884001	3	10	0.03	2000	0.8450528	40.92395	-91.39365
463556	-38	-1	6	-0.4898516	0.1526553	-67.92396	0	11.11	4003	0	0	5	5	0.04733399	-0.2815354	3	10	0.03	2000	0.826035	40.92395	-91.39365
463628	-30	2	3	-0.4891518	0.1562207	-67.92963	0	11.11	4003	0	0	5	5	0.04733399	-0.278853	3	10	0.03	2000	1.061154	40.92395	-91.39365
463693	-39	0	1	-0.4905132	0.1540072	-67.9325	0	11.11	4011	0	0	5	5	0.04733399	-0.2768974	3	10	0.03	2000	0.8222521	40.92395	-91.39365
463797	-37	4	2	-0.4928684	0.1634169	-67.94282	0	11.11	4004	0	0	5	5	0.04733399	-0.2764507	3	10	0.03	2000	1.065252	40.92395	-91.39365
464029	-34	3	8	-0.4835299	0.1666517	-67.95576	0	11.11	4002	0	0	5	5	0.04733399	-0.2830056	3	10	0.03	2000	0.8125234	40.92395	-91.39365
464110	-40	2	6	-0.4783762	0.1654529	-67.96272	0	11.11	4004	0	0	5	5	0.04733399	-0.2717877	3	10	0.03	2000	0.8109639	40.92395	-91.39365
464248	-45	7	6	-0.484332	0.1640206	-67.97688	0	11.11	4003	0	0	5	5	0.04733399	-0.2557445	3	10	0.03	2000	0.8120561	40.92395	-91.39365
464342	-32	-4	3	-0.485567	0.1628409	-67.9806	0	11.11	4003	0	0	5	5	0.04733399	-0.2373504	3	10	0.03	2000	0.8188617	40.92395	-91.39365
464443	-33	0	1	-0.4816247	0.1669212	-67.98695	0	11.11	4003	0	0	5	5	0.04733399	-0.2312873	3	10	0.03	2000	0.8091039	40.92395	-91.39365
464518	-40	0	5	-0.4800583	0.1642526	-67.99299	0	11.11	4003	0	0	5	5	0.04733399	-0.2268673	3	10	0.03	2000	0.8086504	40.92395	-91.39365
464718	-41	-6	3	-0.4846673	0.1713832	-68.00587	0	11.11	4004	0	0	5	5	0.04733399	-0.2269189	3	10	0.03	2000	0.8136048	40.92395	-91.39365
464798	-39	-4	5	-0.4857833	0.1720655	-68.01099	0	11.11	4002	0	0	5	5	0.04733399	-0.2300587	3	10	0.03	2000	0.8136048	40.92395	-91.39365
464932	-42	-6	-1	-0.4921698	0.1708885	-68.02088	0	11.06	4002	0	0	5	5	0.04733399	-0.2384496	3	10	0.03	2000	1.060103	40.92395	-91.39365
465011	-32	0	7	-0.4901958	0.1718658	-68.02949	0	11.06	4003	0	0	5	5	0.04733399	-0.2434113	3	10	0.03	2000	0.8229905	40.92395	-91.39365
465126	-31	0	1	-0.4914388	0.1690404	-68.03584	0	11.06	4002	0	0	5	5	0.04733399	-0.2586551	3	10	0.03	2000	0.8213592	40.92395	-91.39365
465198	-43	7	4	-0.4947056	0.1692125	-68.04053	0	11.06	4004	0	0	5	5	0.04733399	-0.2650977	3	10	0.03	2000	0.8304197	40.92395	-91.39365
465288	-31	2	0	-0.4847732	0.1672596	-68.04737	0	11.06	4004	0	0	5	5	0.04733399	-0.2750438	3	10	0.03	2000	0.8229918	40.92395	-91.39365
465393	-38	2	0	-0.4888814	0.1680315	-68.05543	0	11.06	4003	0	0	5	5	0.04733399	-0.2890059	3	10	0.03	2000	0.8196151	40.92395	-91.39365
465631	-41	0	3	-0.4856741	0.1635485	-68.07276	0	11.06	4002	0	0	5	5	0.04733399	-0.306327	3	10	0.03	2000	0.8139649	40.92395	-91.39365
465731	-32	-1	8	-0.489708	0.163886	-68.08015	0	11.11	4003	0	0	5	5	0.04733399	-0.312073	3	10	0.03	2000	0.584325	40.92395	-91.39365
465802	-35	0	8	-0.4892728	0.1657129	-68.08637	0	11.11	4003	0	0	5	5	0.04733399	-0.3173886	3	10	0.03	2000	0.8206566	40.92395	-91.39365
465928	-35	2	8	-0.4804748	0.168864	-68.09901	0	11.11	4003	0	0	5	5	0.04733399	-0.3138916	3	10	0.03	2000	0.8074135	40.92395	-91.39365
465995	-32	4	4	-0.4714993	0.1687767	-68.10303	0	11.11	4004	0	0	5	5	0.04733399	-0.3073144	3	10	0.03	2000	0.8074135	40.92395	-91.39365
466108	-38	0	6	-0.4663817	0.175357	-68.10999	0	11.11	4003	0	0	5	5	0.04733399	-0.3037044	3	10	0.03	2000	0.7808147	40.92395	-91.39365
466211	-29	-2	-8	-0.4632347	0.1749392	-68.12269	0	11.11	4003	0	0	5	5	0.04733399	-0.3036301	3	10	0.03	2000	0.7848148	40.92395	-91.39365
466295	-35	-1	2	-0.464159	0.1712838	-68.12708	0	11.11	4002	0	0	5	5	0.04733399	-0.3004463	3	10	0.03	2000	1.016544	40.92395	-91.39365
466419	-38	3	4	-0.4664046	0.1696571	-68.13355	0	11.11	4003	0	0	5	5	0.04733399	-0.3026819	3	10	0.03	2000	1.018857	40.92395	-91.39365
466510	-27	1	5	-0.4594312	0.1620271	-68.14564	0	11.11	4003	0	0	5	5	0.04733399	-0.3053877	3	10	0.03	2000	0.7826524	40.92395	-91.39365
466598	-37	5	4	-0.4509807	0.1591969	-68.14948	0	11.11	4002	0	0	5	5	0.04733399	-0.3031383	3	10	0.03	2000	0.7668297	40.92395	-91.39365
466687	-33	0	5	-0.4500971	0.1601388	-68.15333	0	11	4003	0	0	5	5	0.04733399	-0.3040684	3	10	0.03	2000	0.7514629	40.92395	-91.39365
466834	-37	6	1	-0.4477293	0.1658378	-68.16511	0	11	4004	0	0	5	5	0.04733399	-0.3083814	3	10	0.03	2000	0.75252	40.92395	-91.39365
466910	-34	-3	3	-0.4517139	0.1634246	-68.16901	0	11	4003	0	0	5	5	0.04733399	-0.3074108	3	10	0.03	2000	0.7532429	40.92395	-91.39365
467039	-32	-5	3	-0.4480915	0.162531	-68.1797	0	11	4003	0	0	5	5	0.04733399	-0.3118802	3	10	0.03	2000	0.7538987	40.92395	-91.39365
467127	-36	-5	8	-0.4486848	0.1612296	-68.18702	0	11	4004	0	0	5	5	0.04733399	-0.3088785	3	10	0.03	2000	0.7548705	40.92395	-91.39365
467255	-33	0	5	-0.448356	0.167421	-68.19471	0	11	4002	0	0	5	5	0.04733399	-0.3057375	3	10	0.03	2000	0.753684	40.92395	-91.39365
467390	-33	5	2	-0.4311588	0.162263	-68.20783	0	11	4004	0	0	5	5	0.04733399	-0.3037399	3	10	0.03	2000	0.7288023	40.92395	-91.39365
467499	-36	2	9	-0.424901	0.1596407	-68.21607	0	11	4004	0	0	5	5	0.04733399	-0.3032357	3	10	0.03	2000	0.7149538	40.92395	-91.39365
467619	-38	1	6	-0.4297951	0.1498409	-68.22413	0	11.11	4003	0	0	5	5	0.04733399	-0.303293	3	10	0.03	2000	0.7198076	40.92395	-91.39365
467680	-35	0	6	-0.433137	0.1467668	-68.22999	0	11.11	4004	0	0	5	5	0.04733399	-0.303293	3	10	0.03	2000	0.7283529	40.92395	-91.39365
467780	-35	0	6	-0.4341496	0.1458872	-68.23682	0	11.11	4002	0	0	5	5	0.04733399	-0.3027055	3	10	0.03	2000	0.7307855	40.92395	-91.39365
467891	-32	-1	8	-0.4250555	0.1418393	-68.2472	0	11.11	4004	0	0	5	5	0.04733399	-0.3099433	3	10	0.03	2000	0.7226265	40.92395	-91.39365
468056	-33	4	4	-0.4241255	0.1458873	-68.25935	0	11.11	4004	0	0	5	5	0.04733399	-0.3169384	3	10	0.03	2000	0.7129561	40.92395	-91.39365
468097	-35	4	4	-0.4270033	0.1448389	-68.26167	0	11.11	4003	0	0	5	5	0.04733399	-0.3239194	3	10	0.03	2000	0.7129561	40.92395	-91.39365
468200	-32	2	5	-0.4279421	0.1437709	-68.26606	0	11.11	4004	0	0	5	5	0.04733399	-0.3246961	3	10	0.03	2000	0.7182325	40.92395	-91.39365
468374	-23	-5	8	-0.4277015	0.1445637	-68.28529	0	11.11	4002	0	0	5	5	0.04733399	-0.3222518	3	10	0.03	2000	0.9689832	40.92395	-91.39365
468453	-28	3	8	-0.4253613	0.1445718	-68.29737	0	11.11	4003	0	0	5	5	0.04733399	-0.3213425	3	10	0.03	2000	0.7162187	40.92395	-91.39365
468530	-29	0	5	-0.4269701	0.1436622	-68.3028	0	11.11	4004	0	0	5	5	0.04733399	-0.3224333	3	10	0.03	2000	0.9486328	40.92395	-91.39365
468578	-34	3	6	-0.427103	0.139276	-68.30506	0	11.11	4002	0	0	5	5	0.04733399	-0.3233277	3	10	0.03	2000	0.9486328	40.92395	-91.39365
468707	-32	1	9	-0.431418	0.1445578	-68.31898	0	11.11	4003	0	0	5	5	0.04733399	-0.3269801	3	10	0.03	2000	0.7260347	40.92395	-91.39365
468862	-37	0	3	-0.4295527	0.1469031	-68.33051	0	11.11	4003	0	0	5	5	0.04733399	-0.340468	3	10	0.03	2000	0.9563406	40.92395	-91.39365
468938	-35	1	9	-0.4301788	0.1492472	-68.33656	0	11.11	4003	0	0	5	5	0.04733399	-0.3441456	3	10	0.03	2000	0.9574249	40.92395	-91.39365
469089	-27	-1	2	-0.4272598	0.1470772	-68.34595	0	11.11	4003	0	0	5	5	0.04733399	-0.355844	3	10	0.03	2000	0.7209759	40.92395	-91.39365
469283	-41	0	2	-0.42293	0.1490632	-68.36298	0	11.11	4004	0	0	5	5	0.04733399	-0.3662021	3	10	0.03	2000	0.7073981	40.92395	-91.39365
