time(ms)	gyro_x(deg/s)	gyro_y(deg/s)	gyro_z(deg/s)	orientation_roll(deg)	orientation_pitch(deg)	orientation_yaw(deg)	throttle	battery(V)	loop_time(uS)	pid_output_roll	pid_output_pitch	pid_output_yaw	pid_output_throttle	ultrasonic_alt	baro_alt	flight_mode	p_gain_altitude	i_gain_altitude	d_gain_altitude	compass_heading	latitude	longitude
376238	724	238	-1201	0.2509636	-0.753328	-49.33813	0	10.49	4002	-19	4	5	5	0.4062598	1.358661	8	10	0.03	2000	4.391934	40.92395	-91.39365
376441	-402	197	-529	0.2620987	-1.475808	-49.41534	0	10.72	4003	-20	4	5	5	0.4063513	1.501684	8	10	0.03	2000	7.826743	40.92395	-91.39365
376525	715	-2145	-637	0.6317096	-0.4221268	-49.607	0	10.72	4002	-21	5	5	5	0.4063794	1.567737	8	10	0.03	2000	8.73207	40.92395	-91.39365
376677	-2439	292	257	-0.2786183	-2.881408	-49.37155	0	10.72	4002	-21	5	5	5	0.4064054	1.674641	8	10	0.03	2000	10.56306	40.92395	-91.39365
376740	-1577	1280	740	-1.257523	-3.593058	-49.25537	0	10.72	4004	-21	5	5	5	0.4064148	1.725416	8	10	0.03	2000	11.58418	40.92395	-91.39365
376825	-490	-2392	459	-2.743407	-2.797024	-49.24417	0	10.72	4003	-22	5	5	5	0.4064257	1.776564	8	10	0.03	2000	10.57566	40.92395	-91.39364
376941	894	-671	-188	-1.912524	0.1466577	-49.16502	0	10.72	4004	-13	1	5	5	0.4064336	1.854353	8	10	0.03	2000	11.52854	40.92395	-91.39364
377028	1011	2828	-1591	-0.6858374	-1.621427	-48.89624	0	10.72	4004	-13	1	5	5	0.4064377	1.896533	8	10	0.03	2000	11.63285	40.92395	-91.39364
377132	-2700	-1144	49	-4.948026	-8.447153	-49.87384	0	10.72	4004	-13	1	5	5	0.4064424	1.948584	8	10	0.03	2000	8.876369	40.92395	-91.39364
377290	-1853	2577	125	-6.182941	-8.213709	-49.47729	0	9.98	4003	-13	1	5	5	0.4064475	2.022711	8	10	0.03	2000	0.8349332	40.92395	-91.39364
377331	-2098	2121	624	-7.269745	-9.161376	-49.52267	0	9.98	4003	-13	1	5	5	0.406449	2.04755	8	10	0.03	2000	0.3507284	40.92395	-91.39364
377498	1201	2661	721	-7.530548	-12.29562	-49.32212	0	9.98	4003	-3	1	5	5	0.406451	2.079847	8	10	0.03	2000	-1.598145	40.92395	-91.39363
377557	1804	-3093	212	-3.097405	-11.12254	-49.331	0	9.98	4002	-3	-3	5	5	0.4064518	2.095952	8	10	0.03	2000	-6.028442	40.92395	-91.39363
377658	-878	-3856	-134	-2.467678	-6.303906	-49.21619	0	9.98	4003	-2	-3	5	5	0.4064527	2.116304	8	10	0.03	2000	-6.399139	40.92395	-91.39363
377746	-244	-611	314	-0.6540647	-6.177251	-48.36655	0	9.98	4004	-2	-3	5	5	0.4064531	2.124838	8	10	0.03	2000	-8.572784	40.92394	-91.39363
377910	-482	885	477	-1.021178	-3.300903	-49.66768	0	9.98	4004	-1	-8	5	5	0.4064539	2.139746	8	10	0.03	2000	-8.247375	40.92394	-91.39363
377993	99	587	124	-1.059291	-4.747375	-50.71637	0	9.98	4003	7	-9	5	5	0.4064542	2.141626	8	10	0.03	2000	-8.235962	40.92394	-91.39362
378135	32	301	-1626	-2.384867	-2.560629	-50.33068	0	9.98	4002	9	-9	5	5	0.4064544	2.140547	8	10	0.03	2000	-9.711456	40.92394	-91.39362
378205	-354	131	1334	-1.983348	-3.325809	-50.06938	0	10.89	4004	9	-10	5	5	0.4064546	2.140202	8	10	0.03	2000	-9.711456	40.92394	-91.39362
378256	321	-425	-714	-1.489926	-3.47488	-49.53484	0	10.89	4004	10	-10	5	5	0.4064546	2.139096	8	10	0.03	2000	-10.92941	40.92394	-91.39362
378382	1186	426	-322	0.2916996	-3.033061	-48.58416	0	10.89	4004	11	-11	5	5	0.4064547	2.132184	8	10	0.03	2000	-11.00803	40.92394	-91.39362
378506	1645	746	-88	-0.8228772	-3.438994	-49.35177	0	10.89	4002	15	-18	5	5	0.4064548	2.126426	8	10	0.03	2000	-13.47885	40.92394	-91.39362
378646	-1389	-650	659	-0.07024618	-2.262422	-49.73414	0	10.89	4004	13	-17	5	5	0.4064549	2.119859	8	10	0.03	2000	-12.77939	40.92394	-91.39362
378682	-1279	-1799	-252	-0.8065537	-1.723252	-49.81931	0	10.89	4003	14	-17	5	5	0.4064549	2.122259	8	10	0.03	2000	-12.77939	40.92393	-91.39362
378762	849	-243	-1353	0.05882561	-0.9309595	-49.53044	0	10.89	4003	15	-22	5	5	0.4064549	2.124602	8	10	0.03	2000	-14.37582	40.92393	-91.39362
378900	767	1701	420	0.890146	-2.187396	-49.18277	0	10.89	4005	16	-23	5	5	0.4064549	2.139141	8	10	0.03	2000	-16.49875	40.92393	-91.39362
378973	-805	583	1272	1.203124	-2.250821	-48.77865	0	10.89	4004	17	-24	5	5	0.4064549	2.142561	8	10	0.03	2000	-17.9711	40.92393	-91.39362
379197	-1855	-1943	320	-0.6815921	-2.266751	-49.29982	0	10.43	4004	28	-31	5	5	0.4064549	2.183085	8	10	0.03	2000	-19.08807	40.92393	-91.39362
379342	-167	2275	399	-0.9724064	-4.934052	-49.37986	0	10.43	4003	30	-38	5	5	0.4064549	2.227674	8	10	0.03	2000	-25.65186	40.92393	-91.39362
379403	-38	-371	-990	-1.451886	-5.868684	-49.22183	0	10.43	4003	31	-39	5	5	0.4064549	2.250645	8	10	0.03	2000	-20.74844	40.92393	-91.39362
379480	-1595	1732	792	-1.035452	-6.728397	-49.10737	0	10.43	4003	32	-39	5	5	0.4064549	2.273384	8	10	0.03	2000	-19.68823	40.92393	-91.39362
379589	840	3146	-163	-2.546439	-11.94202	-49.59044	0	10.43	4003	34	-41	5	5	0.4064549	2.310057	8	10	0.03	2000	-20.85031	40.92392	-91.39362
379692	-1291	3576	20	-2.593743	-15.0452	-49.81908	0	10.43	4004	36	-52	5	5	0.4064549	2.334415	8	10	0.03	2000	-18.39767	40.92392	-91.39362
379791	45	3312	699	-3.586396	-17.53492	-49.5499	0	10.43	4002	37	-53	5	5	0.4064549	2.359768	8	10	0.03	2000	-16.85168	40.92392	-91.39362
379953	524	-1084	-14	-3.203752	-15.31783	-48.43178	0	10.43	4002	39	-57	5	5	0.4064549	2.422437	8	10	0.03	2000	-17.08563	40.92392	-91.39362
380038	-586	-2583	145	-3.182093	-11.5474	-48.41382	0	10.26	4003	31	-63	5	5	0.4064549	2.438941	8	10	0.03	2000	-17.14117	40.92392	-91.39362
380097	-735	-2812	-10	-3.509228	-9.781435	-48.55267	0	10.26	4004	32	-64	5	5	0.4064549	2.466962	8	10	0.03	2000	-15.93356	40.92392	-91.39362
380242	230	2709	150	-3.356161	-10.39351	-49.35314	0	10.26	4003	33	-72	5	5	0.4064549	2.531437	8	10	0.03	2000	-17.19223	40.92391	-91.39362
380361	-168	2849	136	-3.077025	-13.84883	-49.37699	0	10.26	4004	37	-82	5	5	0.4064549	2.572413	8	10	0.03	2000	-15.79282	40.92391	-91.39362
380407	-627	2838	23	-3.403218	-15.25656	-49.44909	0	10.26	4004	35	-76	5	5	0.4064549	2.609054	8	10	0.03	2000	-15.33865	40.92391	-91.39362
380546	-195	-2528	-890	-4.575983	-14.92335	-49.37413	0	10.26	4004	36	-80	5	5	0.4064549	2.651082	8	10	0.03	2000	-14.20563	40.92391	-91.39362
380664	-242	-1172	-646	-4.241311	-7.971622	-48.73536	0	10.26	4003	37	-82	5	5	0.4064549	2.683738	8	10	0.03	2000	-13.60519	40.92391	-91.39362
380738	865	312	107	-4.320838	-8.21134	-48.62626	0	10.26	4004	38	-83	5	5	0.4064549	2.701129	8	10	0.03	2000	-14.03946	40.92391	-91.39363
380818	-4	-1103	247	-3.864785	-7.936587	-48.8435	0	10.26	4004	29	-86	5	5	0.4064549	2.71931	8	10	0.03	2000	-12.20413	40.92391	-91.39363
381013	4847	1076	205	3.457945	-10.40037	-49.75287	0	10.72	4003	30	-90	5	5	0.4064549	2.739805	8	10	0.03	2000	-11.9158	40.92391	-91.39363
381085	4050	-1790	184	7.965144	-9.209754	-49.77401	0	10.72	4002	31	-92	5	5	0.4064549	2.737275	8	10	0.03	2000	-7.665222	40.92391	-91.39363
381176	-475	-402	1176	9.285673	-5.440686	-49.66349	0	10.72	4003	31	-94	5	5	0.4064549	2.723689	8	10	0.03	2000	-5.51767	40.92391	-91.39363
381282	-65	-1408	565	8.105212	-4.126027	-49.70985	0	10.72	4004	31	-96	5	5	0.4064549	2.692889	8	10	0.03	2000	-5.51767	40.92392	-91.39364
381369	-3389	687	165	5.169874	-3.880439	-50.04222	0	10.72	4004	23	-95	5	5	0.4064549	2.655343	8	10	0.03	2000	-2.986115	40.92392	-91.39364
381422	-1392	-228	-1135	3.592055	-4.23155	-50.12191	0	10.72	4002	23	-95	5	5	0.4064549	2.62452	8	10	0.03	2000	-3.045502	40.92392	-91.39364
381577	-1081	3201	1876	2.225411	-8.396872	-50.24101	0	10.72	4003	23	-98	5	5	0.4064549	2.544794	8	10	0.03	2000	-2.737976	40.92392	-91.39364
381691	-1316	-1313	489	-1.574058	-10.04163	-50.26833	0	10.72	4003	23	-96	5	5	0.4064549	2.454844	8	10	0.03	2000	-2.736542	40.92392	-91.39364
381757	826	-1138	614	-1.312205	-8.92084	-50.09724	0	10.72	4003	23	-98	5	5	0.4064549	2.296454	8	10	0.03	2000	-2.736542	40.92392	-91.39364
381832	515	1423	82	0.44819	-8.494011	-49.6384	0	10.72	4003	23	-99	5	5	0.4064549	2.249834	8	10	0.03	2000	-3.750488	40.92392	-91.39364
381932	-1014	-5799	350	-0.4313179	-6.176423	-49.19238	0	10.09	4002	23	-96	5	5	0.4064549	2.175175	8	10	0.03	2000	-3.087585	40.92392	-91.39364
382025	-9	-5933	-433	-2.341419	3.404216	-49.05867	0	10.09	4002	23	-98	5	5	0.4064549	2.094716	8	10	0.03	2000	-3.28479	40.92393	-91.39364
382174	240	748	-1183	-1.23843	5.180797	-49.82577	0	10.09	4003	23	-96	5	5	0.4064549	1.928739	8	10	0.03	2000	-4.423035	40.92393	-91.39364
382346	-776	1912	144	-1.313022	-4.224529	-49.34781	0	10.09	4003	23	-98	5	5	0.4064549	1.741129	8	10	0.03	2000	-6.453003	40.92393	-91.39364
382436	-1167	1007	935	-1.154455	-4.151706	-49.01446	0	10.09	4002	23	-95	5	5	0.4064549	1.695333	8	10	0.03	2000	-7.513489	40.92393	-91.39364
382539	-126	31	-969	-1.581607	-6.672265	-49.16457	0	10.09	4004	23	-96	5	5	0.4064549	1.583517	8	10	0.03	2000	-10.35919	40.92393	-91.39364
382628	-180	1312	-161	-1.084305	-9.599184	-49.87055	0	10.09	4003	23	-98	5	5	0.4064549	1.505207	8	10	0.03	2000	-8.41925	40.92393	-91.39364
382906	-225	-1813	2283	0.9699734	-8.025692	-49.17514	0	10.49	4003	23	-96	5	5	0.4064549	1.338908	8	10	0.03	2000	-11.72165	40.92393	-91.39364
382987	-933	-1178	97	-0.03720373	-5.967809	-49.32344	0	10.49	4004	23	-92	5	5	0.4064549	1.257115	8	10	0.03	2000	-12.73209	40.92394	-91.39364
383109	519	501	-182	0.09003181	-5.790116	-49.35585	0	10.49	4003	23	-93	5	5	0.4064549	1.213492	8	10	0.03	2000	-13.48523	40.92394	-91.39364
383191	516	-1466	-1046	-1.352849	-8.38955	-50.06952	0	10.49	4003	23	-89	5	5	0.4064549	1.180715	8	10	0.03	2000	-12.6814	40.92394	-91.39364
383252	466	-2868	-741	-1.05475	-7.163554	-50.26287	0	10.49	4004	23	-89	5	5	0.4064549	1.16061	8	10	0.03	2000	-13.18875	40.92394	-91.39364
383351	-147	2002	340	-1.28374	-6.121552	-50.77146	0	10.49	4003	23	-81	5	5	0.4064549	1.146386	8	10	0.03	2000	-12.64432	40.92395	-91.39364
383454	1006	1371	570	-0.3938021	-8.099163	-50.03452	0	10.49	4004	23	-81	5	5	0.4064549	1.145468	8	10	0.03	2000	-13.49921	40.92395	-91.39364
383582	924	-2770	-2066	-1.629442	-2.885303	-48.10237	0	10.49	4004	23	-81	5	5	0.4064549	1.173075	8	10	0.03	2000	-15.15784	40.92395	-91.39364
383651	613	193	2043	0.2518474	-1.769779	-48.33897	0	10.49	4003	23	-81	5	5	0.4064549	1.192247	8	10	0.03	2000	-16.11829	40.92395	-91.39364
383811	194	128	118	-0.09395525	-5.104829	-49.05879	0	10.32	4004	23	-71	5	5	0.4064549	1.259174	8	10	0.03	2000	-15.09738	40.92396	-91.39364
383921	256	375	-389	-0.06116546	-5.957248	-48.59029	0	10.32	4004	23	-67	5	5	0.4064549	1.309807	8	10	0.03	2000	-15.40353	40.92397	-91.39364
384016	-445	-3295	1552	-1.834851	-1.613991	-48.93251	0	10.32	4004	23	-65	5	5	0.4064549	1.368776	8	10	0.03	2000	-15.91263	40.92397	-91.39364
384092	-358	-3066	-593	-2.803756	0.4161522	-49.4076	0	10.32	4003	14	-61	5	5	0.4064549	1.441654	8	10	0.03	2000	-17.20062	40.92397	-91.39365
384193	-177	-2592	39	-1.740852	6.279641	-49.77139	0	10.32	4002	13	-60	5	5	0.4064549	1.468041	8	10	0.03	2000	-17.28247	40.92397	-91.39365
384339	-38	2754	1422	-0.833541	4.079849	-49.84378	0	10.32	4004	12	-54	5	5	0.4064549	1.5702	8	10	0.03	2000	-21.33127	40.92397	-91.39365
384401	-129	3428	-67	-1.306339	-1.650251	-49.66906	0	10.32	4003	12	-52	5	5	0.4064549	1.604245	8	10	0.03	2000	-22.77225	40.92397	-91.39365
384484	826	-44	-1323	-0.5916935	-4.506999	-48.83095	0	10.32	4004	12	-47	5	5	0.4064549	1.639556	8	10	0.03	2000	-20.21429	40.92397	-91.39365
384572	-728	1055	511	-1.672899	-4.394788	-48.77092	0	10.32	4002	11	-46	5	5	0.4064549	1.673	8	10	0.03	2000	-19.48898	40.92397	-91.39365
384735	714	1393	179	-1.884681	-4.000233	-48.815	0	10.94	4002	10	-39	5	5	0.4064549	1.75771	8	10	0.03	2000	-19.30234	40.92398	-91.39365
384765	652	1900	31	-1.700084	-4.939023	-48.86104	0	10.94	4003	10	-38	5	5	0.4064549	1.767351	8	10	0.03	2000	-17.14667	40.92398	-91.39365
384894	1463	-953	351	-1.286351	-4.751285	-48.96531	0	10.94	4003	10	-31	5	5	0.4064549	1.820084	8	10	0.03	2000	-15.20697	40.92398	-91.39365
385005	2907	1978	-666	2.604655	-5.420315	-48.77546	0	10.94	4003	9	-29	5	5	0.4064549	1.87392	8	10	0.03	2000	-14.01776	40.92398	-91.39365
385083	695	3569	629	4.441848	-9.167403	-49.14577	0	10.94	4003	9	-28	5	5	0.4064549	1.888232	8	10	0.03	2000	-15.5022	40.92398	-91.39365
385163	1021	-2430	150	3.531586	-9.312921	-49.53153	0	10.94	4004	0	-22	5	5	0.4064549	1.907337	8	10	0.03	2000	-7.614166	40.92399	-91.39365
385300	-738	-684	-1475	3.660071	-4.915843	-49.42994	0	10.94	4003	-1	-18	5	5	0.4064549	1.937788	8	10	0.03	2000	-4.669525	40.92399	-91.39365
385350	209	-163	-1950	3.126105	-5.383913	-49.25168	0	10.94	4003	-1	-17	5	5	0.4064549	1.94807	8	10	0.03	2000	-2.111694	40.92399	-91.39365
385497	-754	1717	1578	2.039458	-6.545029	-48.82026	0	10.94	4002	-3	-14	5	5	0.4064549	1.950937	8	10	0.03	2000	-2.631195	40.92399	-91.39365
385591	-1185	937	-174	1.403123	-8.081862	-48.68826	0	10.94	4003	-3	-8	5	5	0.4064549	1.948938	8	10	0.03	2000	-2.207581	40.92399	-91.39365
385655	-624	118	1328	0.9587653	-7.927059	-49.08572	0	10.15	4003	-4	-6	5	5	0.4064549	1.944347	8	10	0.03	2000	-0.5497131	40.92399	-91.39365
385864	-957	-323	395	1.904122	-2.962687	-49.01036	0	10.15	4003	-6	-1	5	5	0.4064549	1.938883	8	10	0.03	2000	2.26127	40.92399	-91.39365
385931	-52	1867	1422	0.857272	-3.665934	-49.28194	0	10.15	4003	-16	0	5	5	0.4064549	1.926388	8	10	0.03	2000	1.645146	40.92399	-91.39366
386056	-2058	812	1182	0.7102209	-5.274982	-49.48034	0	10.15	4003	-18	2	5	5	0.4064549	1.890395	8	10	0.03	2000	3.328988	40.92399	-91.39366
386090	-925	-1159	-1358	0.3610877	-5.832135	-49.46614	0	10.15	4004	-18	3	5	5	0.4064549	1.870728	8	10	0.03	2000	2.01667	40.92399	-91.39366
386156	-5	822	103	0.4692567	-5.93975	-49.7393	0	10.15	4003	-19	4	5	5	0.4064549	1.838775	8	10	0.03	2000	2.01667	40.92399	-91.39366
386261	316	-3868	-2452	-0.06526583	-4.108163	-49.52945	0	10.15	4003	-12	8	5	5	0.4064549	1.783957	8	10	0.03	2000	-0.868042	40.92399	-91.39365
386439	348	49	-1431	0.441964	-0.08548621	-49.02428	0	10.15	4004	-13	11	5	5	0.4064549	1.750735	8	10	0.03	2000	-0.5412292	40.92399	-91.39365
386525	417	-2319	-1060	2.091806	-0.3806368	-48.58605	0	10.94	4002	-15	14	5	5	0.4064549	1.713086	8	10	0.03	2000	-3.746155	40.92399	-91.39365
386585	243	1638	1365	2.327674	-0.4972382	-48.95494	0	10.94	4004	-15	16	5	5	0.4064549	1.7071	8	10	0.03	2000	-3.242523	40.92399	-91.39365
386656	-349	532	-1064	1.295807	-1.743548	-49.54705	0	10.94	4003	-16	17	5	5	0.4064549	1.689366	8	10	0.03	2000	0.1149478	40.92399	-91.39365
386756	-1620	3884	1094	0.344081	-8.648634	-50.36584	0	10.94	4004	-16	19	5	5	0.4064549	1.663795	8	10	0.03	2000	1.842328	40.92399	-91.39365
386864	667	1030	-1234	0.2299712	-10.75108	-50.04758	0	10.94	4004	-18	18	5	5	0.4064549	1.624901	8	10	0.03	2000	-2.243103	40.92399	-91.39365
387012	-665	901	-1822	-1.284637	-11.84349	-49.51636	0	10.94	4003	-19	16	5	5	0.4064549	1.600665	8	10	0.03	2000	-1.135254	40.92398	-91.39365
387061	873	-1313	-1075	-1.813741	-12.30752	-49.14262	0	10.94	4003	-19	16	5	5	0.4064549	1.590861	8	10	0.03	2000	-0.1029968	40.92398	-91.39365
387171	-841	-1219	-1487	-2.4922	-10.04556	-48.94065	0	10.94	4004	-21	19	5	5	0.4064549	1.561725	8	10	0.03	2000	-0.1048279	40.92398	-91.39365
387266	-155	-550	-615	-2.790235	-8.597983	-49.15095	0	10.94	4003	-22	21	5	5	0.4064549	1.547063	8	10	0.03	2000	-1.352112	40.92398	-91.39365
387459	-875	2682	176	-2.228852	-14.53573	-50.21742	0	10.04	4002	-14	20	5	5	0.4064549	1.515192	8	10	0.03	2000	-3.878723	40.92398	-91.39365
387532	405	914	-718	-1.745122	-13.79599	-49.76614	0	10.04	4004	-16	27	5	5	0.4064549	1.500197	8	10	0.03	2000	-4.706757	40.92397	-91.39365
387666	1149	-1438	-1140	-1.737024	-7.354199	-49.21527	0	10.04	4002	-15	19	5	5	0.4064549	1.495744	8	10	0.03	2000	-4.169769	40.92397	-91.39365
387701	1422	163	589	-0.4614116	-6.384087	-49.18956	0	10.04	4003	-15	20	5	5	0.4064549	1.496468	8	10	0.03	2000	-4.169769	40.92397	-91.39365
387803	1136	-1118	-996	0.1916761	-6.211147	-49.22166	0	10.04	4003	-16	21	5	5	0.4064549	1.508515	8	10	0.03	2000	-5.719116	40.92397	-91.39365
387944	644	-1135	-549	1.309197	-4.892972	-48.98121	0	10.04	4002	-16	23	5	5	0.4064549	1.535238	8	10	0.03	2000	-4.953918	40.92397	-91.39365
388045	-627	-37	446	0.8815849	-3.816009	-49.49619	0	10.04	4002	-17	25	5	5	0.4064549	1.573499	8	10	0.03	2000	-4.295959	40.92397	-91.39365
388095	95	-828	719	0.9745858	-3.6185	-49.70313	0	10.04	4004	-17	25	5	5	0.4064549	1.597267	8	10	0.03	2000	-4.295959	40.92397	-91.39365
388206	-924	-3043	-277	0.5294418	-1.70705	-50.05406	0	10.04	4002	-8	27	5	5	0.4064549	1.629864	8	10	0.03	2000	-4.563171	40.92397	-91.39364
388286	606	235	-199	1.201499	0.3032782	-49.54026	0	10.04	4004	-8	24	5	5	0.4064549	1.670626	8	10	0.03	2000	-4.107819	40.92397	-91.39364
388365	-2373	275	622	-0.1422705	-0.5151104	-49.1419	0	10.15	4003	-8	24	5	5	0.4064549	1.70238	8	10	0.03	2000	-4.192505	40.92397	-91.39364
388529	1097	-289	-1158	-4.540982	1.232546	-49.34321	0	10.15	4003	-8	25	5	5	0.4064549	1.766371	8	10	0.03	2000	-4.628601	40.92397	-91.39364
388650	1849	1040	-655	-2.639619	-1.312545	-49.78926	0	10.15	4003	0	28	5	5	0.4064549	1.833916	8	10	0.03	2000	-5.732819	40.92397	-91.39363
388684	838	440	-1087	-1.899348	-2.457311	-49.73894	0	10.15	4004	0	28	5	5	0.4064549	1.833916	8	10	0.03	2000	-6.141449	40.92397	-91.39363
388783	126	-920	-461	-1.81196	-2.805267	-49.42695	0	10.15	4002	0	29	5	5	0.4064549	1.858227	8	10	0.03	2000	-5.602051	40.92397	-91.39363
388868	626	-1261	-87	-1.181591	2.346526	-48.95874	0	10.15	4002	0	26	5	5	0.4064549	1.886169	8	10	0.03	2000	-6.085968	40.92397	-91.39363
388993	1704	1917	541	0.9689054	-1.122821	-49.05274	0	10.15	4004	1	27	5	5	0.4064549	1.929373	8	10	0.03	2000	-8.096191	40.92397	-91.39363
389068	-1412	-297	463	0.8086408	-1.776133	-49.09957	0	10.15	4002	2	28	5	5	0.4064549	1.944363	8	10	0.03	2000	-8.602448	40.92397	-91.39363
389205	1293	2728	-960	0.04774454	-3.862366	-49.42165	0	10.15	4003	2	29	5	5	0.4064549	1.955034	8	10	0.03	2000	-8.138184	40.92397	-91.39363
389267	-96	1076	-784	0.9730591	-6.235256	-49.02558	0	10.15	4004	2	30	5	5	0.4064549	1.958196	8	10	0.03	2000	-4.843811	40.92397	-91.39363
389370	-835	45	-1447	-1.765657	-6.780223	-48.91087	0	10.94	4003	3	31	5	5	0.4064549	1.959443	8	10	0.03	2000	-5.41391	40.92397	-91.39363
389502	-469	3175	993	-1.32991	-12.78918	-49.19377	0	10.94	4004	13	28	5	5	0.4064549	1.952087	8	10	0.03	2000	-3.017303	40.92397	-91.39362
389597	-2570	1786	344	-3.029666	-14.91282	-49.48089	0	10.94	4002	14	24	5	5	0.4064549	1.945945	8	10	0.03	2000	-7.438232	40.92396	-91.39362
389676	-1166	-346	-1696	-5.109118	-15.60319	-49.37414	0	10.94	4003	14	24	5	5	0.4064549	1.943344	8	10	0.03	2000	-7.599304	40.92396	-91.39362
389796	1594	-1780	209	-3.773446	-13.72148	-49.20343	0	10.94	4004	25	25	5	5	0.4064549	1.943658	8	10	0.03	2000	-8.552368	40.92396	-91.39362
389874	-148	-3641	-313	-3.073918	-9.602127	-49.32836	0	10.94	4002	26	25	5	5	0.4064549	1.933353	8	10	0.03	2000	-8.760101	40.92396	-91.39362
390083	-9	-1922	17	-2.711155	-2.864148	-49.3817	0	10.94	4004	30	21	5	5	0.4064549	1.907882	8	10	0.03	2000	-11.3819	40.92395	-91.39362
390246	183	1429	1186	-3.408	-0.07309087	-49.44627	0	10.77	4002	31	21	5	5	0.4064549	1.887417	8	10	0.03	2000	-11.57498	40.92395	-91.39362
390315	-9	1161	1423	-3.30059	-1.356934	-49.87802	0	10.77	4004	32	22	5	5	0.4064549	1.867653	8	10	0.03	2000	-11.21936	40.92395	-91.39362
390399	444	-402	-1141	-2.038236	-1.820423	-49.74539	0	10.77	4004	33	22	5	5	0.4064549	1.852936	8	10	0.03	2000	-14.29742	40.92395	-91.39362
390568	-911	-2082	-1153	-1.797389	0.3086922	-49.55469	0	10.77	4003	36	18	5	5	0.4064549	1.822074	8	10	0.03	2000	-16.38449	40.92395	-91.39362
390593	-911	-2082	-1153	-1.797389	0.3086922	-49.55469	0	10.77	4003	36	18	5	5	0.4064549	1.819443	8	10	0.03	2000	-16.38449	40.92395	-91.39362
390703	-902	109	-953	-2.161982	-1.338838	-50.0013	0	10.77	4002	37	18	5	5	0.4064549	1.804222	8	10	0.03	2000	-16.75	40.92395	-91.39362
390796	-119	352	59	-2.87286	-3.565877	-50.95335	0	10.77	4003	39	18	5	5	0.4064549	1.798827	8	10	0.03	2000	-19.88605	40.92395	-91.39362
390898	-901	-684	-2027	-3.658428	-3.528405	-50.75199	0	10.77	4002	40	18	5	5	0.4064549	1.791805	8	10	0.03	2000	-19.88605	40.92395	-91.39362
390998	-822	3904	939	-2.90609	-2.329456	-49.71992	0	10.77	4004	42	18	5	5	0.4064549	1.783666	8	10	0.03	2000	-21.03467	40.92395	-91.39362
391158	192	1433	1296	-1.23836	-9.282204	-49.45463	0	10.77	4002	44	18	5	5	0.4064549	1.777975	8	10	0.03	2000	-22.66449	40.92395	-91.39362
391276	-20	-503	-465	-1.937804	-9.879634	-49.24108	0	10.94	4003	46	13	5	5	0.4064549	1.779886	8	10	0.03	2000	-21.28476	40.92395	-91.39362
391290	-853	-1154	340	-2.350176	-9.117735	-49.3815	0	10.94	4004	47	13	5	5	0.4064549	1.779886	8	10	0.03	2000	-21.28476	40.92395	-91.39362
391389	-72	-2066	-1145	-2.551158	-6.632837	-49.11904	0	10.94	4004	48	13	5	5	0.4064549	1.787097	8	10	0.03	2000	-22.08081	40.92395	-91.39362
391522	-412	-1752	-469	-3.376804	-3.792895	-49.08229	0	10.94	4003	50	8	5	5	0.4064549	1.798985	8	10	0.03	2000	-23.64514	40.92394	-91.39362
391686	777	2382	-668	-3.389823	-1.981531	-48.81358	0	10.94	4003	52	7	5	5	0.4064549	1.826693	8	10	0.03	2000	-25.00308	40.92394	-91.39362
391734	703	5918	1075	-2.625003	-4.541352	-49.01276	0	10.94	4003	53	7	5	5	0.4064549	1.833946	8	10	0.03	2000	-26.97412	40.92394	-91.39362
391847	1187	336	632	-0.2639167	-9.790755	-49.9441	0	10.94	4003	54	6	5	5	0.4064549	1.852396	8	10	0.03	2000	-23.04062	40.92394	-91.39362
391950	2756	1533	-866	2.426491	-9.730727	-49.74463	0	10.94	4002	56	6	5	5	0.4064549	1.866169	8	10	0.03	2000	-20.56369	40.92394	-91.39362
392015	1542	2952	122	3.301174	-12.07081	-49.55642	0	10.94	4002	48	5	5	5	0.4064549	1.869127	8	10	0.03	2000	-18.21307	40.92394	-91.39362
392111	2135	-1550	-881	4.546335	-11.81425	-49.04889	0	10.77	4003	49	5	5	5	0.4064549	1.882927	8	10	0.03	2000	-16.98877	40.92394	-91.39362
392245	-937	-1955	-730	4.003428	-5.60617	-49.1649	0	10.77	4003	50	0	5	5	0.4064549	1.90104	8	10	0.03	2000	-14.09839	40.92394	-91.39362
392357	-1376	-536	-370	0.6939195	-4.709908	-49.63599	0	10.77	4003	42	0	5	5	0.4064549	1.910118	8	10	0.03	2000	-11.38489	40.92394	-91.39363
392462	693	2318	769	0.2730177	-3.86242	-48.98849	0	10.77	4002	43	-1	5	5	0.4064549	1.906522	8	10	0.03	2000	-9.586304	40.92394	-91.39363
392497	-1968	2090	102	-0.5285469	-5.156839	-49.19421	0	10.77	4003	43	-1	5	5	0.4064549	1.901668	8	10	0.03	2000	-9.586304	40.92394	-91.39363
392589	-1794	-1018	415	-3.165632	-5.222767	-49.44108	0	10.77	4003	43	-2	5	5	0.4064549	1.890934	8	10	0.03	2000	-8.136108	40.92394	-91.39363
392685	-70	1603	489	-1.868876	-2.284692	-49.10129	0	10.77	4002	44	-7	5	5	0.4064549	1.881235	8	10	0.03	2000	-10.19669	40.92394	-91.39363
392788	-29	866	-622	-1.999582	-3.896915	-48.95168	0	10.77	4002	44	-8	5	5	0.4064549	1.859487	8	10	0.03	2000	-10.93451	40.92393	-91.39363
392892	298	-1861	-1260	-3.382858	-1.198809	-48.89397	0	10.77	4002	44	-9	5	5	0.4064549	1.847231	8	10	0.03	2000	-12.02533	40.92393	-91.39363
393069	635	138	156	1.427719	-3.227133	-48.79297	0	10.15	4002	37	-10	5	5	0.4064549	1.814743	8	10	0.03	2000	-12.88593	40.92393	-91.39364
393137	2977	-473	280	3.21662	-1.999277	-48.89434	0	10.15	4004	37	-11	5	5	0.4064549	1.801344	8	10	0.03	2000	-8.901031	40.92393	-91.39364
393248	1122	2577	-13	6.130908	-4.86006	-48.65203	0	10.15	4002	37	-12	5	5	0.4064549	1.783882	8	10	0.03	2000	-5.387054	40.92393	-91.39364
393316	-555	1188	757	6.207988	-7.176734	-48.79366	0	10.15	4003	37	-13	5	5	0.4064549	1.769728	8	10	0.03	2000	-4.64325	40.92393	-91.39364
393370	-830	-1698	615	4.307345	-6.652104	-49.36833	0	10.15	4003	37	-13	5	5	0.4064549	1.763759	8	10	0.03	2000	-1.071899	40.92393	-91.39364
393524	493	578	-1203	2.244485	-4.808265	-49.61851	0	10.15	4004	37	-15	5	5	0.4064549	1.704072	8	10	0.03	2000	2.886091	40.92393	-91.39364
393572	493	578	-1203	2.244485	-4.808265	-49.61851	0	10.15	4004	37	-16	5	5	0.4064549	1.689662	8	10	0.03	2000	2.886091	40.92393	-91.39364
393771	-2071	76	1156	-1.222549	-5.030872	-49.40455	0	10.15	4003	27	-18	5	5	0.4064549	1.615371	8	10	0.03	2000	3.002239	40.92393	-91.39365
393791	-104	-71	-869	-1.280525	-4.88492	-49.31556	0	10.15	4004	27	-18	5	5	0.4064549	1.615371	8	10	0.03	2000	3.002239	40.92393	-91.39365
393902	-471	-2203	-903	-1.206056	-4.196502	-49.49472	0	10.77	4003	26	-19	5	5	0.4064549	1.580763	8	10	0.03	2000	-0.1832886	40.92393	-91.39365
394093	-363	584	-185	-1.872065	-4.172767	-49.49002	0	10.77	4003	25	-21	5	5	0.4064549	1.507129	8	10	0.03	2000	-1.845764	40.92393	-91.39365
394214	803	-1508	-285	-1.083003	-3.09127	-49.18137	0	10.77	4002	25	-26	5	5	0.4064549	1.482112	8	10	0.03	2000	-4.172821	40.92393	-91.39365
394296	1658	707	-512	-0.1410611	-4.152685	-49.08823	0	10.77	4002	24	-27	5	5	0.4064549	1.462083	8	10	0.03	2000	-4.686157	40.92393	-91.39365
394469	-744	385	981	-1.494945	-4.539362	-49.65692	0	10.77	4003	23	-30	5	5	0.4064549	1.431523	8	10	0.03	2000	-2.461792	40.92393	-91.39365
394491	-181	-1919	-415	-2.024043	-3.963755	-49.70476	0	10.77	4004	23	-30	5	5	0.4064549	1.428491	8	10	0.03	2000	-2.461792	40.92393	-91.39365
394593	-990	272	-235	-2.042871	-3.700783	-49.93205	0	10.77	4002	23	-31	5	5	0.4064549	1.41439	8	10	0.03	2000	-3.427399	40.92393	-91.39365
394697	427	-368	-304	-1.796701	-3.627406	-49.63734	0	10.77	4004	22	-32	5	5	0.4064549	1.407084	8	10	0.03	2000	-3.010254	40.92393	-91.39364
394803	-579	708	-927	-0.2822205	-3.542647	-49.16439	0	11.06	4002	31	-43	5	5	0.4064549	1.410789	8	10	0.03	2000	-3.311432	40.92393	-91.39364
394919	-43	304	-1106	-0.1554065	-7.655187	-49.05384	0	11.06	4004	31	-39	5	5	0.4064549	1.419906	8	10	0.03	2000	-6.353088	40.92393	-91.39364
395043	-2130	-3394	-228	-2.140323	-3.86186	-49.19382	0	11.06	4003	31	-41	5	5	0.4064549	1.427711	8	10	0.03	2000	-6.381836	40.92393	-91.39364
395111	892	2022	1184	-2.433431	-2.903507	-49.44497	0	11.06	4003	31	-42	5	5	0.4064549	1.429868	8	10	0.03	2000	-6.29834	40.92393	-91.39364
395213	-1800	941	809	-2.444942	-6.537043	-49.90234	0	11.06	4003	31	-44	5	5	0.4064549	1.444307	8	10	0.03	2000	-7.264923	40.92393	-91.39364
395315	283	1132	921	-1.940352	-5.252574	-49.83645	0	11.06	4002	31	-51	5	5	0.4064549	1.466439	8	10	0.03	2000	-9.15271	40.92392	-91.39364
395419	524	864	-2279	-2.32496	-6.547848	-49.1694	0	11.06	4003	31	-51	5	5	0.4064549	1.487127	8	10	0.03	2000	-9.278381	40.92392	-91.39364
395525	-602	-448	-173	-2.714116	-6.72749	-49.15429	0	11.06	4003	31	-53	5	5	0.4064549	1.509587	8	10	0.03	2000	-9.698029	40.92392	-91.39364
395670	-148	10	1054	-2.244787	-5.32952	-49.26452	0	11.06	4004	31	-53	5	5	0.4064549	1.523235	8	10	0.03	2000	-8.432739	40.92392	-91.39364
395725	-711	1942	1629	-2.015309	-5.440019	-49.58743	0	11.06	4004	31	-61	5	5	0.4064549	1.524783	8	10	0.03	2000	-8.678162	40.92392	-91.39364
395845	1236	849	445	-1.839168	-7.904278	-50.38184	0	9.58	4004	31	-63	5	5	0.4064549	1.540288	8	10	0.03	2000	-7.931976	40.92392	-91.39364
395931	-223	-137	532	-1.198408	-7.236135	-49.97069	0	9.58	4003	31	-66	5	5	0.4064549	1.556539	8	10	0.03	2000	-9.086334	40.92392	-91.39364
396054	409	2047	497	-1.863671	-7.393375	-49.23893	0	9.58	4003	31	-67	5	5	0.4064549	1.565924	8	10	0.03	2000	-10.25723	40.92392	-91.39364
396129	677	92	-476	-1.520411	-9.614188	-49.56693	0	9.58	4002	31	-69	5	5	0.4064549	1.571819	8	10	0.03	2000	-13.23438	40.92392	-91.39364
396237	-53	-3150	37	-1.89453	-7.478678	-49.94191	0	9.58	4003	31	-75	5	5	0.4064549	1.585335	8	10	0.03	2000	-11.47488	40.92392	-91.39364
396343	-2368	953	1371	-2.01861	-4.871471	-50.31056	0	9.58	4003	31	-78	5	5	0.4064549	1.594038	8	10	0.03	2000	-12.63306	40.92392	-91.39364
396432	50	-100	656	-2.041283	-7.877435	-50.37429	0	9.58	4004	31	-80	5	5	0.4064549	1.603439	8	10	0.03	2000	-12.63306	40.92392	-91.39364
396551	-255	122	-1160	-2.258526	-7.163249	-49.12087	0	9.58	4004	31	-83	5	5	0.4064549	1.617911	8	10	0.03	2000	-13.15857	40.92392	-91.39364
396625	159	-353	594	-2.304803	-6.701402	-48.8329	0	9.58	4004	31	-89	5	5	0.4064549	1.623722	8	10	0.03	2000	-14.70224	40.92391	-91.39364
396728	-103	58	-120	-2.97181	-8.65898	-48.96067	0	10.32	4003	31	-91	5	5	0.4064549	1.626435	8	10	0.03	2000	-11.73358	40.92391	-91.39364
396852	343	591	-60	-2.104492	-8.087383	-49.41698	0	10.32	4004	31	-95	5	5	0.4064549	1.627302	8	10	0.03	2000	-12.73422	40.92391	-91.39364
397001	333	1203	-1459	-3.651407	-6.111757	-49.59071	0	10.32	4003	31	-96	5	5	0.4064549	1.63266	8	10	0.03	2000	-11.54987	40.92391	-91.39364
397036	333	1203	-1459	-3.651407	-6.111757	-49.59071	0	10.32	4003	31	-99	5	5	0.4064549	1.637203	8	10	0.03	2000	-11.54987	40.92391	-91.39364
397157	286	-2322	-976	-3.566646	-7.56183	-49.63749	0	10.32	4003	31	-101	5	5	0.4064549	1.643265	8	10	0.03	2000	-11.95303	40.92391	-91.39364
397242	1168	546	-640	-1.167887	-4.902043	-48.6489	0	10.32	4003	31	-103	5	5	0.4064549	1.65431	8	10	0.03	2000	-13.78635	40.92391	-91.39364
397408	-596	433	423	-1.383536	-10.67904	-48.9744	0	10.32	4003	31	-111	5	5	0.4064549	1.675468	8	10	0.03	2000	-14.12491	40.92391	-91.39364
397534	-988	-386	-317	-2.074316	-10.45736	-49.23923	0	10.32	4004	31	-115	5	5	0.4064549	1.697376	8	10	0.03	2000	-13.89938	40.92391	-91.39364
397575	-1501	-251	868	-2.643054	-10.11308	-49.33375	0	10.32	4003	31	-116	5	5	0.4064549	1.701596	8	10	0.03	2000	-13.89938	40.92391	-91.39364
397649	-638	-2046	-626	-3.273586	-8.015834	-49.17334	0	10.77	4002	31	-119	5	5	0.4064549	1.71083	8	10	0.03	2000	-12.88101	40.92391	-91.39364
397775	580	2164	-2029	-2.370757	-10.83337	-48.83176	0	10.77	4004	31	-122	5	5	0.4064549	1.719683	8	10	0.03	2000	-15.42557	40.92391	-91.39364
397859	-517	-1404	-282	-2.216471	-11.87352	-49.05417	0	10.77	4003	31	-124	5	5	0.4064549	1.721215	8	10	0.03	2000	-14.4483	40.92391	-91.39364
397981	271	1175	512	-3.761699	-7.843499	-49.03886	0	10.77	4003	31	-127	5	5	0.4064549	1.722033	8	10	0.03	2000	-12.93704	40.92391	-91.39364
398058	1745	3171	-832	-2.852029	-10.30274	-48.94555	0	10.77	4003	22	-130	5	5	0.4064549	1.72548	8	10	0.03	2000	-14.11258	40.92391	-91.39365
398196	-587	-1245	-711	-2.164622	-12.30261	-49.24781	0	10.77	4003	22	-133	5	5	0.4064549	1.732216	8	10	0.03	2000	-13.64618	40.92391	-91.39365
398261	428	-337	-877	-2.806349	-12.02963	-49.175	0	10.77	4004	21	-134	5	5	0.4064549	1.728225	8	10	0.03	2000	-12.33496	40.92391	-91.39365
398352	2730	1974	960	-0.1781536	-13.24169	-49.29314	0	10.77	4004	21	-138	5	5	0.4064549	1.728245	8	10	0.03	2000	-13.68173	40.92391	-91.39365
398594	1991	-859	-1100	5.94795	-10.22407	-49.40737	0	10.66	4003	20	-143	5	5	0.4064549	1.736391	8	10	0.03	2000	-11.04779	40.92391	-91.39365
398670	410	-2775	172	7.721507	-8.449242	-49.40382	0	10.66	4003	19	-141	5	5	0.4064549	1.73776	8	10	0.03	2000	-6.738037	40.92391	-91.39365
398768	-715	-3570	-647	7.550134	-5.346495	-49.3359	0	10.66	4002	19	-143	5	5	0.4064549	1.739151	8	10	0.03	2000	-8.535126	40.92391	-91.39365
398898	-542	-3871	180	6.854985	0.5070784	-49.01973	0	10.66	4004	18	-147	5	5	0.4064549	1.742205	8	10	0.03	2000	-4.997009	40.92391	-91.39365
399014	-1344	976	-168	3.56859	0.8431794	-49.49326	0	10.66	4004	18	-144	5	5	0.4064549	1.738838	8	10	0.03	2000	-3.957397	40.92392	-91.39365
399097	1028	3448	-1367	3.458995	-5.53174	-49.58875	0	10.66	4002	17	-146	5	5	0.4064549	1.734505	8	10	0.03	2000	-3.923676	40.92392	-91.39365
399241	-1466	1161	572	0.009898554	-9.679439	-49.69057	0	10.66	4003	17	-145	5	5	0.4064549	1.715135	8	10	0.03	2000	-3.153412	40.92392	-91.39365
399344	576	997	646	0.3852526	-9.753288	-49.3041	0	10.66	4003	16	-147	5	5	0.4064549	1.708573	8	10	0.03	2000	-2.768524	40.92392	-91.39365
399377	-765	-726	-813	0.3092265	-9.813376	-49.0885	0	10.66	4004	16	-148	5	5	0.4064549	1.700475	8	10	0.03	2000	-2.768524	40.92392	-91.39365
399502	-512	173	-768	-0.1498023	-11.51233	-49.08602	0	9.19	4003	15	-150	5	5	0.4064549	1.666415	8	10	0.03	2000	-4.125885	40.92392	-91.39365
399602	-150	-7	417	-0.002159096	-11.68787	-49.50676	0	9.19	4003	15	-146	5	5	0.4064549	1.650707	8	10	0.03	2000	-3.053223	40.92392	-91.39365
399672	-341	1848	1402	-0.1620111	-11.47096	-49.84163	0	9.19	4003	14	-148	5	5	0.4064549	1.639366	8	10	0.03	2000	-3.233246	40.92392	-91.39365
399779	288	443	-28	-0.3479934	-11.12028	-49.7961	0	9.19	4004	14	-145	5	5	0.4064549	1.613623	8	10	0.03	2000	-3.936218	40.92393	-91.39365
399907	-330	-810	-327	-1.145339	-10.87973	-49.84798	0	9.19	4004	13	-147	5	5	0.4064549	1.589517	8	10	0.03	2000	-4.436523	40.92393	-91.39365
400007	-634	-1322	311	-1.047914	-5.965881	-49.53868	0	9.19	4004	22	-149	5	5	0.4064549	1.580001	8	10	0.03	2000	-3.851166	40.92393	-91.39364
400078	-269	-2647	-891	-1.431435	-4.224947	-49.50841	0	9.19	4002	22	-150	5	5	0.4064549	1.569849	8	10	0.03	2000	-4.553406	40.92393	-91.39364
400233	197	-1243	1502	-1.266001	-1.804111	-49.98585	0	9.19	4003	22	-143	5	5	0.4064549	1.553606	8	10	0.03	2000	-5.840851	40.92393	-91.39364
400285	361	-2637	-1199	-0.2741612	0.1788589	-49.5783	0	9.19	4004	22	-143	5	5	0.4064549	1.550777	8	10	0.03	2000	-6.628265	40.92394	-91.39363
400387	-2386	-1563	-574	-1.601309	0.26188	-49.58791	0	9.92	4002	31	-139	5	5	0.4064549	1.542512	8	10	0.03	2000	-6.503754	40.92394	-91.39363
400548	347	-2027	-1801	-1.240656	-0.2028448	-49.73863	0	9.92	4002	32	-136	5	5	0.4064549	1.53963	8	10	0.03	2000	-8.478119	40.92394	-91.39363
400665	350	537	-25	-0.8225242	1.695611	-49.70855	0	9.92	4002	34	-138	5	5	0.4064549	1.53606	8	10	0.03	2000	-11.02493	40.92395	-91.39363
400750	-259	1542	761	-0.8972074	0.1779516	-49.54038	0	9.92	4002	33	-132	5	5	0.4064549	1.52544	8	10	0.03	2000	-11.92331	40.92395	-91.39363
400844	-818	402	315	-1.031269	-3.365904	-49.53791	0	9.92	4003	43	-128	5	5	0.4064549	1.515505	8	10	0.03	2000	-13.18518	40.92395	-91.39362
400891	-283	729	202	-1.44089	-3.596029	-49.61564	0	9.92	4002	43	-128	5	5	0.4064549	1.512314	8	10	0.03	2000	-13.18518	40.92395	-91.39362
401041	-172	390	697	-0.7515784	-6.407097	-49.27577	0	9.92	4003	44	-128	5	5	0.4064549	1.493728	8	10	0.03	2000	-13.20633	40.92395	-91.39362
401109	-267	-1335	410	-1.976325	-3.804661	-48.45312	0	9.92	4003	45	-123	5	5	0.4064549	1.481753	8	10	0.03	2000	-11.97794	40.92395	-91.39362
401219	-477	-1234	-171	-2.509548	-2.631346	-48.57428	0	9.92	4002	46	-118	5	5	0.4064549	1.459184	8	10	0.03	2000	-13.67313	40.92396	-91.39362
401293	-447	-2016	374	-2.60313	-1.241117	-49.10541	0	9.92	4003	47	-118	5	5	0.4064549	1.450641	8	10	0.03	2000	-12.83951	40.92396	-91.39362
401426	-696	-685	-830	-4.365651	1.197123	-50.24643	0	10.09	4002	57	-117	5	5	0.4064549	1.4216	8	10	0.03	2000	-17.28909	40.92396	-91.39362
401515	484	-30	-416	-3.045547	0.3470784	-49.96225	0	10.09	4004	59	-117	5	5	0.4064549	1.408584	8	10	0.03	2000	-22.21759	40.92396	-91.39362
401601	-1746	860	125	-4.353482	0.9912611	-49.48768	0	10.09	4003	60	-117	5	5	0.4064549	1.400559	8	10	0.03	2000	-22.27982	40.92396	-91.39362
401733	189	858	-56	-4.225811	-0.6787505	-49.1032	0	10.09	4003	62	-116	5	5	0.4064549	1.379899	8	10	0.03	2000	-27.82858	40.92396	-91.39362
401887	-2085	2013	1558	-5.081723	-4.281038	-49.21876	0	10.09	4003	64	-110	5	5	0.4064549	1.381078	8	10	0.03	2000	-29.73322	40.92397	-91.39362
401953	-331	1952	1752	-5.094042	-7.074078	-49.93629	0	10.09	4003	65	-110	5	5	0.4064549	1.388793	8	10	0.03	2000	-31.62991	40.92397	-91.39362
402032	550	1358	-264	-4.589083	-7.989028	-49.91372	0	10.09	4003	67	-109	5	5	0.4064549	1.409665	8	10	0.03	2000	-32.54797	40.92397	-91.39362
402127	-338	1731	-775	-4.673581	-7.573074	-48.10301	0	10.09	4004	68	-108	5	5	0.4064549	1.427496	8	10	0.03	2000	-29.44485	40.92397	-91.39362
402233	-259	-573	1142	-5.617639	-8.021105	-48.37899	0	10.66	4002	70	-107	5	5	0.4064549	1.472396	8	10	0.03	2000	-29.45151	40.92397	-91.39362
402260	-81	2079	559	-5.69862	-8.854574	-48.75932	0	10.66	4003	71	-107	5	5	0.4064549	1.475712	8	10	0.03	2000	-28.65808	40.92397	-91.39362
402365	-672	-11	311	-4.95918	-10.87148	-48.82479	0	10.66	4004	73	-106	5	5	0.4064549	1.49769	8	10	0.03	2000	-27.57657	40.92397	-91.39362
402436	-729	-1517	-1317	-5.618444	-10.04606	-48.78679	0	10.66	4004	75	-105	5	5	0.4064549	1.512836	8	10	0.03	2000	-25.95175	40.92397	-91.39362
402579	1925	854	1766	-5.642665	-8.456829	-49.0749	0	10.66	4003	76	-104	5	5	0.4064549	1.534927	8	10	0.03	2000	-27.24173	40.92397	-91.39362
402651	1826	2897	988	-3.144276	-9.759253	-49.68754	0	10.66	4002	77	-104	5	5	0.4064549	1.543175	8	10	0.03	2000	-27.30423	40.92397	-91.39362
402768	1368	-2084	-395	0.9404256	-10.71901	-50.20534	0	10.66	4003	79	-103	5	5	0.4064549	1.573091	8	10	0.03	2000	-23.55362	40.92397	-91.39362
402850	2132	-861	326	3.030699	-7.921347	-49.49602	0	10.66	4003	80	-102	5	5	0.4064549	1.584012	8	10	0.03	2000	-22.16592	40.92397	-91.39362
403067	471	122	-738	5.226202	-11.43099	-49.18066	0	10.21	4004	74	-101	5	5	0.4064549	1.613993	8	10	0.03	2000	-15.20972	40.92397	-91.39362
403228	-760	-282	446	3.511223	-10.47346	-49.37687	0	10.21	4003	75	-100	5	5	0.4064549	1.618342	8	10	0.03	2000	-10.00784	40.92397	-91.39362
403310	-2118	-1454	908	1.4848	-8.219188	-49.45243	0	10.21	4003	76	-99	5	5	0.4064549	1.61191	8	10	0.03	2000	-8.598358	40.92397	-91.39362
403397	303	1382	-1872	-0.8034839	-7.783862	-48.96397	0	10.21	4002	77	-98	5	5	0.4064549	1.602209	8	10	0.03	2000	-8.382324	40.92397	-91.39362
403465	-2424	2454	-224	-2.106283	-11.14237	-49.51554	0	10.21	4003	77	-98	5	5	0.4064549	1.577697	8	10	0.03	2000	-9.940491	40.92397	-91.39363
403626	-683	-178	-261	-3.635088	-10.4093	-50.35086	0	10.21	4003	69	-97	5	5	0.4064549	1.540704	8	10	0.03	2000	-8.905029	40.92397	-91.39363
403705	-647	-894	-630	-4.691218	-11.07388	-50.4741	0	10.21	4004	70	-96	5	5	0.4064549	1.497116	8	10	0.03	2000	-8.443085	40.92397	-91.39363
403772	-320	1196	578	-4.830583	-10.05069	-50.68868	0	10.21	4003	70	-96	5	5	0.4064549	1.469975	8	10	0.03	2000	-8.499878	40.92397	-91.39363
403872	-661	1301	185	-5.474091	-9.988962	-50.19132	0	10.21	4002	70	-95	5	5	0.4064549	1.438813	8	10	0.03	2000	-8.499878	40.92397	-91.39363
404005	234	1233	192	-6.149604	-9.923038	-49.16658	0	9.41	4004	71	-94	5	5	0.4064549	1.398194	8	10	0.03	2000	-13.57352	40.92397	-91.39363
404136	1568	1495	-301	-3.518409	-11.5179	-49.22322	0	9.41	4003	72	-93	5	5	0.4064549	1.340086	8	10	0.03	2000	-15.03537	40.92397	-91.39363
404248	771	-944	709	-0.6178296	-8.670404	-48.9784	0	9.41	4002	72	-88	5	5	0.4064549	1.321659	8	10	0.03	2000	-13.6687	40.92397	-91.39363
404336	909	-672	1113	0.3820869	-6.497283	-49.01891	0	9.41	4003	73	-87	5	5	0.4064549	1.278719	8	10	0.03	2000	-13.37146	40.92397	-91.39363
404405	1105	-2343	-262	1.079268	-4.203699	-48.79757	0	9.41	4002	73	-86	5	5	0.4064549	1.26967	8	10	0.03	2000	-13.63672	40.92397	-91.39363
404484	-227	-3524	-281	1.155532	-2.779022	-48.73819	0	9.41	4003	73	-85	5	5	0.4064549	1.267547	8	10	0.03	2000	-12.53433	40.92397	-91.39363
404610	1474	-2797	-744	-1.646	8.221943	-48.88317	0	9.41	4003	74	-85	5	5	0.4064549	1.265206	8	10	0.03	2000	-12.92688	40.92397	-91.39363
404680	650	-338	117	-1.318384	8.196928	-49.24147	0	9.41	4004	74	-84	5	5	0.4064549	1.263995	8	10	0.03	2000	-15.62289	40.92397	-91.39363
404827	2731	-2210	168	3.093291	9.863566	-49.58947	0	9.41	4003	66	-78	5	5	0.4064549	1.249384	8	10	0.03	2000	-14.50272	40.92397	-91.39364
404883	1475	-573	-955	5.168147	9.683504	-49.45442	0	10.21	4002	66	-77	5	5	0.4064549	1.246741	8	10	0.03	2000	-16.04108	40.92397	-91.39364
404998	1080	525	-2298	6.563656	5.792961	-48.63907	0	10.21	4004	66	-76	5	5	0.4064549	1.233464	8	10	0.03	2000	-12.06625	40.92397	-91.39364
405192	-2181	1876	537	1.944758	4.593778	-48.74082	0	10.21	4003	66	-74	5	5	0.4064549	1.196416	8	10	0.03	2000	-3.382263	40.92397	-91.39364
405226	-2181	1876	537	1.944758	4.593778	-48.74082	0	10.21	4003	66	-73	5	5	0.4064549	1.172958	8	10	0.03	2000	-3.382263	40.92397	-91.39364
405375	-1671	2502	1683	-0.4156591	-3.074924	-49.23485	0	10.21	4004	66	-71	5	5	0.4064549	1.115119	8	10	0.03	2000	0.5243305	40.92397	-91.39364
405468	-2175	2375	2363	-4.169837	-7.008391	-50.94287	0	10.21	4002	66	-70	5	5	0.4064549	1.08581	8	10	0.03	2000	6.866496	40.92397	-91.39364
405507	-1315	-686	-1164	-5.273471	-7.93675	-51.02425	0	10.21	4002	66	-69	5	5	0.4064549	1.078667	8	10	0.03	2000	-5.233917	40.92397	-91.39364
405618	-222	652	220	-3.405776	-3.941613	-49.43426	0	10.21	4009	66	-73	5	5	0.4064549	1.047626	8	10	0.03	2000	-2.967957	40.92397	-91.39364
405711	-1376	1379	465	-4.661043	-3.351517	-47.86254	0	10.21	4004	66	-72	5	5	0.4064549	1.028775	8	10	0.03	2000	-3.370453	40.92397	-91.39364
405901	845	-1158	370	-3.504557	-4.019557	-48.39403	0	10.83	4002	0	0	5	5	0.4064549	1.00311	3	10	0.03	2000	-6.466522	40.92397	-91.39364
405984	350	-1914	1058	-2.541048	1.688485	-49.59212	0	10.83	4003	0	0	5	5	0.4064549	0.9912122	3	10	0.03	2000	-4.560455	40.92397	-91.39364
406093	544	-571	462	-2.362549	2.637825	-50.06748	0	10.83	4002	0	0	5	5	0.4064549	0.9791228	3	10	0.03	2000	-2.961334	40.92396	-91.39364
406127	629	-219	-141	-2.219626	2.706571	-50.07206	0	10.83	4003	0	0	5	5	0.4064549	0.9763129	3	10	0.03	2000	-2.961334	40.92396	-91.39364
406210	564	3564	-152	-2.018742	-0.4425035	-49.37569	0	10.83	4003	0	0	5	5	0.4064549	0.9609751	3	10	0.03	2000	-1.564331	40.92396	-91.39364
406322	662	4554	-9	-2.219949	-3.94629	-49.11355	0	10.83	4004	0	0	5	5	0.4064549	0.9328695	3	10	0.03	2000	4.206257	40.92395	-91.39364
406422	-820	5887	1410	-3.057656	-13.13507	-49.61674	0	10.83	4004	0	0	5	5	0.4064549	0.9054877	3	10	0.03	2000	4.983559	40.92395	-91.39364
406582	94	1117	-237	-2.330689	-16.87656	-49.94618	0	10.83	4004	0	0	5	5	0.4064549	0.8702786	3	10	0.03	2000	3.244284	40.92395	-91.39364
406738	-389	-829	-219	-1.005814	-12.17417	-49.27363	0	10.38	4003	0	0	5	5	0.4064549	0.8128428	3	10	0.03	2000	1.52002	40.92394	-91.39364
406893	1201	-2202	-1509	-0.7143156	-4.277022	-49.21694	0	10.38	4003	0	0	5	5	0.4064549	0.7729881	3	10	0.03	2000	0.6747081	40.92394	-91.39364
406981	221	1607	-595	0.4354244	-5.252841	-48.93073	0	10.38	4004	0	0	5	5	0.4064549	0.770189	3	10	0.03	2000	-0.2052307	40.92394	-91.39364
407064	-859	-46	276	0.3728581	-7.626822	-48.91637	0	10.38	4003	0	0	5	5	0.4064549	0.775523	3	10	0.03	2000	-0.3715515	40.92393	-91.39364
407180	-129	-2379	-264	0.1843085	-4.824754	-48.85883	0	10.38	4002	0	0	5	5	0.4064549	0.7903421	3	10	0.03	2000	-0.4325562	40.92393	-91.39364
407278	597	4215	-653	0.6763384	-9.548615	-48.88113	0	10.38	4003	0	0	5	5	0.4064549	0.7993453	3	10	0.03	2000	-0.7661133	40.92393	-91.39364
407373	112	1829	-334	1.350329	-12.90154	-48.69446	0	10.38	4004	0	0	5	5	0.4064549	0.8344786	3	10	0.03	2000	-0.9014282	40.92393	-91.39363
