time(ms)	gyro_x(deg/s)	gyro_y(deg/s)	gyro_z(deg/s)	orientation_roll(deg)	orientation_pitch(deg)	orientation_yaw(deg)	throttle	battery(V)	loop_time(uS)	pid_output_roll	pid_output_pitch	pid_output_yaw	pid_output_throttle	ultrasonic_alt	baro_alt	flight_mode	p_gain_altitude	i_gain_altitude	d_gain_altitude	compass_heading	latitude	longitude
469501	-34	2	4	-0.4076128	0.1575319	-68.37659	0	11.11	4002	0	0	5	5	0.04733399	-0.3816655	3	10	0.03	2000	0.6843969	40.92395	-91.39365
469634	-34	3	2	-0.4054626	0.1600283	-68.38551	0	11.11	4004	0	0	5	5	0.04733399	-0.4044049	3	10	0.03	2000	0.6818627	40.92395	-91.39365
469694	-27	-2	7	-0.4039212	0.1580874	-68.38813	0	11.11	4003	0	0	5	5	0.04733399	-0.4055799	3	10	0.03	2000	0.6818627	40.92395	-91.39365
469807	-27	0	6	-0.3968603	0.1610096	-68.39906	0	11.11	4003	0	0	5	5	0.04733399	-0.4123694	3	10	0.03	2000	0.6623359	40.92395	-91.39365
469921	-31	0	3	-0.4000853	0.156709	-68.40553	0	11.11	4003	0	0	5	5	0.04733399	-0.4146573	3	10	0.03	2000	0.6666558	40.92395	-91.39365
470067	-32	-5	2	-0.3993004	0.1674877	-68.41608	0	11.11	4002	0	0	5	5	0.04733399	-0.4140668	3	10	0.03	2000	0.6685017	40.92395	-91.39365
470116	-26	-2	9	-0.3979644	0.1705831	-68.4195	0	11.11	4004	0	0	5	5	0.04733399	-0.4084379	3	10	0.03	2000	0.6685017	40.92395	-91.39365
470259	-30	-1	2	-0.3922403	0.1666502	-68.42963	0	11.11	4004	0	0	5	5	0.04733399	-0.3957264	3	10	0.03	2000	0.6608253	40.92395	-91.39365
470349	-28	-4	3	-0.3894319	0.1663968	-68.43549	0	11.11	4003	0	0	5	5	0.04733399	-0.3851083	3	10	0.03	2000	0.6516137	40.92395	-91.39365
470423	-21	4	4	-0.3833721	0.1609034	-68.44093	0	11.11	4003	0	0	5	5	0.04733399	-0.3868672	3	10	0.03	2000	0.6516137	40.92395	-91.39365
470552	-32	3	6	-0.3903176	0.1574437	-68.44678	0	11.11	4003	0	0	5	5	0.04733399	-0.3858988	3	10	0.03	2000	0.6524873	40.92395	-91.39365
470652	-39	2	0	-0.3811112	0.1475993	-68.45496	0	11.11	4002	0	0	5	5	0.04733399	-0.3850169	3	10	0.03	2000	0.641038	40.92395	-91.39365
470718	-24	8	6	-0.3763772	0.1495586	-68.45802	0	11.11	4003	0	0	5	5	0.04733399	-0.3833651	3	10	0.03	2000	0.6354241	40.92395	-91.39365
470831	-30	-1	5	-0.3754345	0.1513781	-68.46809	0	11.11	4002	0	0	5	5	0.04733399	-0.3861286	3	10	0.03	2000	0.6320539	40.92395	-91.39365
470946	-21	2	4	-0.3730135	0.1551791	-68.47706	0	11.11	4004	0	0	5	5	0.04733399	-0.3843575	3	10	0.03	2000	0.6312874	40.92395	-91.39365
471134	-34	0	7	-0.3651931	0.1548102	-68.49061	0	11.11	4004	0	0	5	5	0.04733399	-0.386676	3	10	0.03	2000	0.6154976	40.92394	-91.39365
471234	-24	0	5	-0.3649935	0.1486887	-68.49635	0	11.11	4002	0	0	5	5	0.04733399	-0.3908008	3	10	0.03	2000	0.6166164	40.92395	-91.39365
471338	-29	3	4	-0.3652459	0.1506307	-68.49805	0	11.11	4004	0	0	5	5	0.04733399	-0.3908008	3	10	0.03	2000	0.6166164	40.92395	-91.39365
471519	-32	-8	2	-0.3753215	0.1481191	-68.51019	0	11.11	4003	0	0	5	5	0.04733399	-0.3954586	3	10	0.03	2000	0.6305303	40.92395	-91.39365
471630	-23	0	0	-0.3885837	0.1530724	-68.51677	0	11.11	4002	0	0	5	5	0.04733399	-0.399716	3	10	0.03	2000	0.6534804	40.92395	-91.39365
471677	-25	-4	5	-0.3809004	0.1535077	-68.52031	0	11.11	4003	0	0	5	5	0.04733399	-0.3994867	3	10	0.03	2000	0.6438681	40.92395	-91.39365
471826	-25	2	2	-0.3794645	0.1499294	-68.53233	0	11.11	4004	0	0	5	5	0.04733399	-0.3929937	3	10	0.03	2000	0.6344615	40.92395	-91.39365
471899	-27	-1	11	-0.3804658	0.1411811	-68.53691	0	11.11	4002	0	0	5	5	0.04733399	-0.3901891	3	10	0.03	2000	0.640283	40.92395	-91.39365
472117	-23	0	7	-0.3641379	0.1485276	-68.55302	0	11.11	4004	0	0	5	5	0.04733399	-0.3694897	3	10	0.03	2000	0.6247574	40.92395	-91.39365
472210	-26	-6	5	-0.3638981	0.1479537	-68.56169	0	11	4004	0	0	5	5	0.04733399	-0.3613564	3	10	0.03	2000	0.6110066	40.92394	-91.39365
472381	-22	-4	3	-0.3583514	0.1464443	-68.57286	0	11	4004	0	0	5	5	0.04733399	-0.3578457	3	10	0.03	2000	0.6069866	40.92394	-91.39365
472515	-31	0	4	-0.3593221	0.1461259	-68.58147	0	11	4004	0	0	5	5	0.04733399	-0.3595346	3	10	0.03	2000	0.6015094	40.92394	-91.39365
472631	-19	2	3	-0.358649	0.1500497	-68.59093	0	11	4002	0	0	5	5	0.04733399	-0.3536341	3	10	0.03	2000	0.6076244	40.92394	-91.39365
472677	-29	-2	6	-0.3564492	0.1498888	-68.59489	0	11	4003	0	0	5	5	0.04733399	-0.3509444	3	10	0.03	2000	0.6014913	40.92394	-91.39365
472738	-34	2	4	-0.3530457	0.1521709	-68.59734	0	11	4004	0	0	5	5	0.04733399	-0.3478369	3	10	0.03	2000	0.6014913	40.92394	-91.39365
472878	-22	2	7	-0.3474065	0.1545181	-68.60802	0	11	4008	0	0	5	5	0.04733399	-0.3479619	3	10	0.03	2000	0.5863447	40.92394	-91.39365
473047	-27	0	0	-0.3524135	0.1568774	-68.61913	0	11	4002	0	0	5	5	0.04733399	-0.3494977	3	10	0.03	2000	0.5814113	40.92394	-91.39365
473151	-34	-4	6	-0.3554087	0.1496854	-68.62596	0	11.06	4002	0	0	5	5	0.04733399	-0.3498122	3	10	0.03	2000	0.602164	40.92394	-91.39365
473240	-33	3	6	-0.3593259	0.1509447	-68.62785	0	11.06	4003	0	0	5	5	0.04733399	-0.3531041	3	10	0.03	2000	0.6013831	40.92394	-91.39365
473407	-24	-5	8	-0.3499276	0.1484963	-68.64012	0	11.06	4003	0	0	5	5	0.04733399	-0.3564151	3	10	0.03	2000	0.5891925	40.92394	-91.39365
473520	-22	0	0	-0.3499965	0.1456991	-68.64836	0	11.06	4004	0	0	5	5	0.04733399	-0.3544354	3	10	0.03	2000	0.5842966	40.92394	-91.39365
473632	-26	0	5	-0.340327	0.1455829	-68.66179	0	11.06	4002	0	0	5	5	0.04733399	-0.3522275	3	10	0.03	2000	0.5792872	40.92394	-91.39365
473715	-24	-1	8	-0.3397078	0.1484825	-68.666	0	11.06	4003	0	0	5	5	0.04733399	-0.3515849	3	10	0.03	2000	0.5696263	40.92394	-91.39365
473788	-27	-5	2	-0.3383639	0.148828	-68.67015	0	11.06	4003	0	0	5	5	0.04733399	-0.3508936	3	10	0.03	2000	0.5721627	40.92394	-91.39365
473949	-24	-3	2	-0.3338705	0.1414728	-68.68596	0	11.06	4004	0	0	5	5	0.04733399	-0.3462167	3	10	0.03	2000	0.5634012	40.92394	-91.39365
474021	-21	-1	5	-0.3347196	0.1399943	-68.69041	0	11.06	4002	0	0	5	5	0.04733399	-0.3477802	3	10	0.03	2000	0.7933882	40.92394	-91.39365
474163	-23	4	3	-0.3286108	0.1372273	-68.69884	0	11.06	4004	0	0	5	5	0.04733399	-0.35924	3	10	0.03	2000	0.554719	40.92394	-91.39365
474270	-22	-4	4	-0.3258196	0.1365689	-68.70598	0	11.06	4004	0	0	5	5	0.04733399	-0.3753261	3	10	0.03	2000	0.5546286	40.92394	-91.39365
474329	-19	-4	3	-0.3237333	0.1323757	-68.71019	0	11.06	4003	0	0	5	5	0.04733399	-0.3790606	3	10	0.03	2000	0.5473822	40.92394	-91.39365
474426	-29	0	3	-0.3263355	0.1290702	-68.71477	0	11.06	4002	0	0	5	5	0.04733399	-0.3804996	3	10	0.03	2000	0.545075	40.92394	-91.39365
474574	-24	0	5	-0.3263966	0.1298469	-68.72472	0	11.06	4003	0	0	5	5	0.04733399	-0.3719281	3	10	0.03	2000	0.5525989	40.92394	-91.39365
474714	-21	4	3	-0.3203991	0.1291071	-68.73265	0	11.06	4003	0	0	5	5	0.04733399	-0.3706377	3	10	0.03	2000	0.555262	40.92394	-91.39365
474831	-27	3	1	-0.3145617	0.1362334	-68.7426	0	11.06	4002	0	0	5	5	0.04733399	-0.3676883	3	10	0.03	2000	0.527329	40.92394	-91.39365
474877	-27	-2	8	-0.3160007	0.1332245	-68.74394	0	11.06	4002	0	0	5	5	0.04733399	-0.3652896	3	10	0.03	2000	0.5255715	40.92394	-91.39365
474966	-18	4	0	-0.3135071	0.1352448	-68.74931	0	11.06	4004	0	0	5	5	0.04733399	-0.3639472	3	10	0.03	2000	0.5246472	40.92394	-91.39365
475079	-16	-6	7	-0.311367	0.1384928	-68.75731	0	11.06	4003	0	0	5	5	0.04733399	-0.3591925	3	10	0.03	2000	0.5233173	40.92394	-91.39365
475175	-20	6	4	-0.3069972	0.1389155	-68.76201	0	11.06	4003	0	0	5	5	0.04733399	-0.3510403	3	10	0.03	2000	0.7607393	40.92394	-91.39365
475307	-21	3	4	-0.3098967	0.1281571	-68.77104	0	11.06	4003	0	0	5	5	0.04733399	-0.3318974	3	10	0.03	2000	0.7553567	40.92394	-91.39365
475397	-19	0	5	-0.3081364	0.1330766	-68.77873	0	11.06	4002	0	0	5	5	0.04733399	-0.3272262	3	10	0.03	2000	0.7554573	40.92394	-91.39365
475433	-16	0	-3	-0.3101534	0.1328754	-68.78087	0	11.06	4003	0	0	5	5	0.04733399	-0.3235686	3	10	0.03	2000	0.5169863	40.92394	-91.39365
475567	-25	0	3	-0.3040223	0.129216	-68.78917	0	11.06	4002	0	0	5	5	0.04733399	-0.3085698	3	10	0.03	2000	0.5121843	40.92394	-91.39365
475637	-27	0	5	-0.3094012	0.1293537	-68.79375	0	11.06	4002	0	0	5	5	0.04733399	-0.3073807	3	10	0.03	2000	0.5193049	40.92394	-91.39364
475749	-20	3	3	-0.3147793	0.1312603	-68.80278	0	11.06	4003	0	0	5	5	0.04733399	-0.3033807	3	10	0.03	2000	0.5278444	40.92394	-91.39364
475896	-22	-2	3	-0.3077547	0.1286714	-68.81139	0	11.06	4004	0	0	5	5	0.04733399	-0.3055179	3	10	0.03	2000	0.5193325	40.92394	-91.39364
475990	-25	-3	0	-0.3015027	0.1327933	-68.81761	0	11.06	4003	0	0	5	5	0.04733399	-0.3089837	3	10	0.03	2000	0.5132293	40.92394	-91.39364
476127	-25	-1	4	-0.3020014	0.1295612	-68.82896	0	11.06	4003	0	0	5	5	0.04733399	-0.3199953	3	10	0.03	2000	0.7466408	40.92394	-91.39364
476262	-23	1	2	-0.3010645	0.1299024	-68.83458	0	11.06	4003	0	0	5	5	0.04733399	-0.3310815	3	10	0.03	2000	0.5123101	40.92394	-91.39364
476377	-19	6	2	-0.2916054	0.1243265	-68.84044	0	11.06	4003	0	0	5	5	0.04733399	-0.3238401	3	10	0.03	2000	0.4953117	40.92394	-91.39364
476446	-18	-2	7	-0.2937282	0.1232809	-68.84508	0	11.06	4002	0	0	5	5	0.04733399	-0.3210836	3	10	0.03	2000	0.494523	40.92394	-91.39364
476520	-16	4	2	-0.2821529	0.1214835	-68.85338	0	11.06	4003	0	0	5	5	0.04733399	-0.3224541	3	10	0.03	2000	0.4830704	40.92394	-91.39364
476642	-29	4	10	-0.2838882	0.1251724	-68.86174	0	11.06	4004	0	0	5	5	0.04733399	-0.3213342	3	10	0.03	2000	0.4738338	40.92394	-91.39364
476760	-19	0	4	-0.2811179	0.1222304	-68.87096	0	11.06	4004	0	0	5	5	0.04733399	-0.3258194	3	10	0.03	2000	0.4767933	40.92394	-91.39364
476904	-19	1	3	-0.2748742	0.1242246	-68.88029	0	11.06	4002	0	0	5	5	0.04733399	-0.3159619	3	10	0.03	2000	0.4609997	40.92394	-91.39364
476950	-21	3	1	-0.275013	0.1246894	-68.88182	0	11.06	4004	0	0	5	5	0.04733399	-0.3143578	3	10	0.03	2000	0.4648699	40.92394	-91.39364
477008	-16	2	5	-0.2762218	0.1202498	-68.88872	0	11.06	4003	0	0	5	5	0.04733399	-0.3148599	3	10	0.03	2000	0.4710586	40.92394	-91.39364
477153	-23	1	4	-0.2686484	0.1208595	-68.89696	0	11.06	4003	0	0	5	5	0.04733399	-0.3254831	3	10	0.03	2000	0.450414	40.92394	-91.39364
477262	-22	-1	5	-0.2706202	0.12508	-68.9063	0	11.06	4003	0	0	5	5	0.04733399	-0.3328723	3	10	0.03	2000	0.4614876	40.92394	-91.39364
477324	-18	0	10	-0.2662785	0.1254195	-68.9091	0	11.06	4002	0	0	5	5	0.04733399	-0.3349537	3	10	0.03	2000	0.4614876	40.92394	-91.39364
477458	-18	3	0	-0.2538122	0.1204613	-68.91801	0	11.06	4004	0	0	5	5	0.04733399	-0.3368062	3	10	0.03	2000	0.6664973	40.92394	-91.39364
477621	-10	4	2	-0.2566032	0.1180959	-68.92601	0	11.06	4004	0	0	5	5	0.04733399	-0.3410736	3	10	0.03	2000	0.4286699	40.92394	-91.39364
477714	-16	-3	2	-0.2543356	0.1197098	-68.92973	0	11.06	4002	0	0	5	5	0.04733399	-0.339311	3	10	0.03	2000	0.4243582	40.92394	-91.39364
477867	-23	3	5	-0.2503277	0.1201586	-68.937	0	11.06	4004	0	0	5	5	0.04733399	-0.3473668	3	10	0.03	2000	0.4263574	40.92394	-91.39364
477960	-20	-6	1	-0.2537006	0.1220892	-68.94377	0	11.06	4002	0	0	5	5	0.04733399	-0.3481534	3	10	0.03	2000	0.4224817	40.92394	-91.39364
478037	-9	1	5	-0.2553482	0.1272324	-68.94749	0	11.06	4003	0	0	5	5	0.04733399	-0.3436197	3	10	0.03	2000	0.4288561	40.92393	-91.39364
478164	-15	4	3	-0.2527542	0.1198281	-68.95244	0	11.06	4004	0	0	5	5	0.04733399	-0.333534	3	10	0.03	2000	0.4302133	40.92393	-91.39364
478272	-28	0	1	-0.2524677	0.1230939	-68.9583	0	11.06	4004	0	0	5	5	0.04733399	-0.3249795	3	10	0.03	2000	0.6565706	40.92393	-91.39364
478320	-18	2	0	-0.2539472	0.1224083	-68.96001	0	11.06	4003	0	0	5	5	0.04733399	-0.3241554	3	10	0.03	2000	0.4265204	40.92393	-91.39364
478416	-15	-1	7	-0.2515396	0.1279838	-68.96507	0	11.06	4004	0	0	5	5	0.04733399	-0.3217726	3	10	0.03	2000	0.4252197	40.92393	-91.39364
478520	-12	-2	2	-0.2425994	0.1253797	-68.96819	0	11.06	4002	0	0	5	5	0.04733399	-0.313286	3	10	0.03	2000	0.4224844	40.92393	-91.39364
478707	-21	0	5	-0.2329997	0.1246463	-68.97984	0	11.11	4003	0	0	5	5	0.04733399	-0.2978542	3	10	0.03	2000	0.3979762	40.92393	-91.39364
478762	-16	0	7	-0.2327985	0.1285342	-68.98363	0	11.11	4003	0	0	5	5	0.04733399	-0.2971934	3	10	0.03	2000	0.3919801	40.92393	-91.39364
478900	-17	-7	0	-0.2336539	0.1284352	-68.98589	0	11.11	4003	0	0	5	5	0.04733399	-0.3020395	3	10	0.03	2000	0.3923186	40.92393	-91.39364
478926	-20	1	3	-0.2369331	0.1300561	-68.98979	0	11.11	4003	0	0	5	5	0.04733399	-0.3020395	3	10	0.03	2000	0.3990736	40.92393	-91.39364
479113	-11	-4	2	-0.236779	0.1352484	-68.99937	0	11.11	4004	0	0	5	5	0.04733399	-0.3060389	3	10	0.03	2000	0.401947	40.92393	-91.39364
479157	-10	-9	2	-0.2344614	0.1337506	-69.00334	0	11.11	4003	0	0	5	5	0.04733399	-0.3059908	3	10	0.03	2000	0.3960857	40.92393	-91.39364
479280	-21	2	3	-0.230847	0.1338567	-69.00713	0	11.11	4004	0	0	5	5	0.04733399	-0.2947128	3	10	0.03	2000	0.3902644	40.92393	-91.39364
479346	-16	-1	2	-0.2270891	0.1364656	-69.01109	0	11.11	4003	0	0	5	5	0.04733399	-0.2911979	3	10	0.03	2000	0.388265	40.92393	-91.39364
479416	-20	1	1	-0.2281569	0.132417	-69.0136	0	11.11	4002	0	0	5	5	0.04733399	-0.2896056	3	10	0.03	2000	0.3818932	40.92393	-91.39364
479516	-14	-1	4	-0.2271433	0.1339339	-69.01793	0	11.11	4003	0	0	5	5	0.04733399	-0.2827553	3	10	0.03	2000	0.6210763	40.92393	-91.39364
479637	-11	-1	7	-0.22629	0.1338312	-69.02446	0	11.11	4003	0	0	5	5	0.04733399	-0.2721618	3	10	0.03	2000	0.6176633	40.92393	-91.39364
479768	-21	1	4	-0.2161091	0.1345458	-69.02989	0	11.11	4003	0	0	5	5	0.04733399	-0.2601386	3	10	0.03	2000	0.6021678	40.92393	-91.39364
479870	-15	3	3	-0.2165382	0.1316416	-69.03484	0	11.11	4003	0	0	5	5	0.04733399	-0.2562881	3	10	0.03	2000	0.3715293	40.92393	-91.39364
479918	-8	-1	0	-0.2137294	0.1351174	-69.036	0	11.11	4003	0	0	5	5	0.04733399	-0.2437518	3	10	0.03	2000	0.3651553	40.92393	-91.39364
480112	-19	-2	-2	-0.2181633	0.1274278	-69.04369	0	11.11	4004	0	0	5	5	0.04733399	-0.2295254	3	10	0.03	2000	0.3658024	40.92393	-91.39364
480162	-15	0	4	-0.2159447	0.1216208	-69.04839	0	11.11	4002	0	0	5	5	0.04733399	-0.2289178	3	10	0.03	2000	0.3650342	40.92393	-91.39364
480338	-11	1	3	-0.207996	0.1133438	-69.05467	0	11.11	4004	0	0	5	5	0.04733399	-0.2395951	3	10	0.03	2000	0.5920147	40.92393	-91.39364
480464	-13	-1	0	-0.1927566	0.1138063	-69.06096	0	11	4003	0	0	5	5	0.04733399	-0.2435592	3	10	0.03	2000	0.3328901	40.92393	-91.39364
480542	-15	-4	-1	-0.194025	0.1183126	-69.06474	0	11	4004	0	0	5	5	0.04733399	-0.2451082	3	10	0.03	2000	0.3254689	40.92393	-91.39364
480603	-16	-4	7	-0.1936523	0.120052	-69.06725	0	11	4003	0	0	5	5	0.04733399	-0.2478955	3	10	0.03	2000	0.562799	40.92393	-91.39364
480707	-14	3	2	-0.1854557	0.1129819	-69.07274	0	11	4004	0	0	5	5	0.04733399	-0.2488414	3	10	0.03	2000	0.3191195	40.92393	-91.39364
480885	-14	-5	5	-0.1878523	0.1168832	-69.08385	0	11	4002	0	0	5	5	0.04733399	-0.2431143	3	10	0.03	2000	0.5525762	40.92393	-91.39364
480946	-17	-2	4	-0.1905412	0.1151648	-69.08562	0	11	4003	0	0	5	5	0.04733399	-0.2438774	3	10	0.03	2000	0.5525762	40.92393	-91.39364
481062	-9	2	2	-0.1979248	0.1156327	-69.09282	0	11	4004	0	0	5	5	0.04733399	-0.2499058	3	10	0.03	2000	0.3296201	40.92393	-91.39364
481192	-19	1	2	-0.1990543	0.1070492	-69.10313	0	11	4002	0	0	5	5	0.04733399	-0.257849	3	10	0.03	2000	0.5715113	40.92393	-91.39364
481270	-13	0	3	-0.1983128	0.1026548	-69.106	0	11	4003	0	0	5	5	0.04733399	-0.2608775	3	10	0.03	2000	0.3327613	40.92393	-91.39364
481325	-13	1	-1	-0.1946741	0.1052517	-69.10728	0	11.11	4004	0	0	5	5	0.04733399	-0.2625863	3	10	0.03	2000	0.3283341	40.92393	-91.39364
481412	-12	-4	5	-0.194356	0.1027468	-69.1115	0	11.11	4003	0	0	5	5	0.04733399	-0.2722135	3	10	0.03	2000	0.5595604	40.92393	-91.39364
481533	-19	6	3	-0.1871537	0.1063158	-69.11583	0	11.11	4002	0	0	5	5	0.04733399	-0.2811913	3	10	0.03	2000	0.316634	40.92393	-91.39363
481699	-6	-1	2	-0.1848273	0.1046674	-69.12505	0	11.11	4004	0	0	5	5	0.04733399	-0.2910025	3	10	0.03	2000	0.3151492	40.92393	-91.39363
481712	-6	-1	2	-0.1848273	0.1046674	-69.12505	0	11.11	4004	0	0	5	5	0.04733399	-0.2920853	3	10	0.03	2000	0.3151492	40.92393	-91.39363
481831	-15	-3	5	-0.1866384	0.1116181	-69.13506	0	11.11	4003	0	0	5	5	0.04733399	-0.3008071	3	10	0.03	2000	0.7820897	40.92393	-91.39363
481934	-20	-1	8	-0.1890174	0.1086639	-69.14085	0	11.11	4003	0	0	5	5	0.04733399	-0.3129395	3	10	0.03	2000	0.3176222	40.92393	-91.39363
482017	-7	1	-2	-0.1910572	0.1088274	-69.14378	0	11.11	4004	0	0	5	5	0.04733399	-0.3230613	3	10	0.03	2000	0.3241369	40.92393	-91.39363
482163	-16	2	0	-0.1756156	0.1010341	-69.15251	0	11.11	4003	0	0	5	5	0.04733399	-0.3427686	3	10	0.03	2000	0.5415766	40.92393	-91.39363
482211	-12	1	0	-0.174045	0.09680231	-69.15343	0	11.11	4004	0	0	5	5	0.04733399	-0.3438529	3	10	0.03	2000	0.5415766	40.92393	-91.39364
482309	-9	-2	8	-0.1690686	0.1025087	-69.16164	0	11	4002	0	0	5	5	0.04733399	-0.3420929	3	10	0.03	2000	0.286507	40.92393	-91.39364
482525	-7	-6	1	-0.1697557	0.1113941	-69.17007	0	11	4003	0	0	5	5	0.04733399	-0.3388532	3	10	0.03	2000	0.5238361	40.92393	-91.39363
482719	-9	-2	0	-0.168438	0.1114527	-69.18015	0	11	4004	0	0	5	5	0.04733399	-0.3310277	3	10	0.03	2000	0.516602	40.92393	-91.39364
482795	-14	3	0	-0.166285	0.1133958	-69.18344	0	11	4003	0	0	5	5	0.04733399	-0.3282388	3	10	0.03	2000	0.5197103	40.92393	-91.39364
482880	-14	5	7	-0.1660821	0.1110364	-69.18912	0	11	4004	0	0	5	5	0.04733399	-0.3256615	3	10	0.03	2000	0.5192384	40.92393	-91.39364
482960	-20	-1	5	-0.1616416	0.1080864	-69.19406	0	11	4004	0	0	5	5	0.04733399	-0.3269468	3	10	0.03	2000	0.2774441	40.92393	-91.39364
483015	-20	-1	5	-0.1616416	0.1080864	-69.19406	0	11	4004	0	0	5	5	0.04733399	-0.3279732	3	10	0.03	2000	0.2774441	40.92393	-91.39364
483175	-15	0	0	-0.1587287	0.1052256	-69.2037	0	11.06	4004	0	0	5	5	0.04733399	-0.326463	3	10	0.03	2000	0.2662252	40.92393	-91.39364
483233	-8	0	4	-0.1598059	0.1056937	-69.20505	0	11.06	4003	0	0	5	5	0.04733399	-0.3287702	3	10	0.03	2000	0.2662252	40.92393	-91.39364
483323	-5	-2	0	-0.1578724	0.1047831	-69.20895	0	11.06	4002	0	0	5	5	0.04733399	-0.3300369	3	10	0.03	2000	0.2730755	40.92393	-91.39364
483428	-17	-2	3	-0.1584026	0.1035368	-69.21481	0	11.06	4004	0	0	5	5	0.04733399	-0.3291747	3	10	0.03	2000	0.5005976	40.92393	-91.39364
483553	-11	-6	2	-0.1588494	0.1076505	-69.22305	0	11.06	4003	0	0	5	5	0.04733399	-0.3265182	3	10	0.03	2000	0.2668939	40.92393	-91.39364
483650	-15	7	2	-0.1647849	0.1011107	-69.2244	0	11.06	4005	0	0	5	5	0.04733399	-0.3197353	3	10	0.03	2000	0.2693272	40.92393	-91.39364
483747	-14	-1	5	-0.1585371	0.09748164	-69.22665	0	11.06	4003	0	0	5	5	0.04733399	-0.3158931	3	10	0.03	2000	0.2701964	40.92393	-91.39364
483970	-14	-3	2	-0.1531904	0.1047308	-69.23392	0	11.06	4004	0	0	5	5	0.04733399	-0.3091611	3	10	0.03	2000	0.2566188	40.92393	-91.39363
484051	-6	0	5	-0.1511705	0.1063065	-69.23819	0	11.06	4004	0	0	5	5	0.04733399	-0.3068409	3	10	0.03	2000	0.2594994	40.92393	-91.39364
484155	-7	0	3	-0.1539419	0.106253	-69.241	0	11.06	4003	0	0	5	5	0.04733399	-0.3046452	3	10	0.03	2000	0.2529165	40.92393	-91.39364
484213	-11	2	1	-0.1539302	0.1049033	-69.24429	0	11.06	4003	0	0	5	5	0.04733399	-0.3069104	3	10	0.03	2000	0.2639518	40.92393	-91.39364
484343	-8	0	2	-0.1606407	0.1072074	-69.24777	0	11.06	4003	0	0	5	5	0.04733399	-0.3139254	3	10	0.03	2000	0.2688775	40.92393	-91.39364
484451	-12	4	4	-0.1561113	0.1028813	-69.25058	0	11.06	4002	0	0	5	5	0.04733399	-0.3254158	3	10	0.03	2000	0.2625453	40.92393	-91.39364
484521	-12	-1	2	-0.147279	0.1041734	-69.25339	0	11.06	4004	0	0	5	5	0.04733399	-0.3321511	3	10	0.03	2000	0.2541193	40.92393	-91.39364
484627	-5	1	0	-0.1418363	0.1133862	-69.25534	0	11.06	4004	0	0	5	5	0.04733399	-0.3394519	3	10	0.03	2000	0.2438059	40.92393	-91.39364
484816	-11	0	0	-0.1315655	0.1099636	-69.25705	0	11.06	4002	0	0	5	5	0.04733399	-0.3435768	3	10	0.03	2000	0.2306782	40.92393	-91.39364
484926	-2	3	-2	-0.1252132	0.1081556	-69.25943	0	11.06	4002	0	0	5	5	0.04733399	-0.3363159	3	10	0.03	2000	0.2177736	40.92393	-91.39363
484950	-8	-9	0	-0.1221917	0.1099338	-69.26089	0	11.06	4003	0	0	5	5	0.04733399	-0.3282123	3	10	0.03	2000	0.443319	40.92393	-91.39363
485047	-16	-3	5	-0.1162418	0.1160131	-69.26199	0	11.06	4004	0	0	5	5	0.04733399	-0.3131929	3	10	0.03	2000	0.4293723	40.92393	-91.39363
485183	-13	-2	6	-0.1158623	0.1104335	-69.26651	0	11.06	4002	0	0	5	5	0.04733399	-0.310567	3	10	0.03	2000	0.4280093	40.92393	-91.39363
485300	-6	-3	2	-0.106635	0.1094422	-69.27078	0	11.06	4003	0	0	5	5	0.04733399	-0.3085154	3	10	0.03	2000	0.4200531	40.92393	-91.39363
485439	-10	-4	1	-0.1006645	0.1159165	-69.27371	0	11.06	4002	0	0	5	5	0.04733399	-0.3021769	3	10	0.03	2000	0.1742205	40.92393	-91.39363
485504	-13	-4	0	-0.09916432	0.1144439	-69.27591	0	11.06	4003	0	0	5	5	0.04733399	-0.2956758	3	10	0.03	2000	0.1672905	40.92393	-91.39363
485601	-11	-2	2	-0.09457385	0.1146412	-69.27853	0	11.06	4003	0	0	5	5	0.04733399	-0.290251	3	10	0.03	2000	0.3995308	40.92393	-91.39363
485639	-10	0	4	-0.0918469	0.116383	-69.28159	0	11.06	4004	0	0	5	5	0.04733399	-0.290251	3	10	0.03	2000	0.1572185	40.92393	-91.39363
485742	-4	7	3	-0.09646485	0.1119195	-69.28543	0	11.06	4004	0	0	5	5	0.04733399	-0.2875609	3	10	0.03	2000	0.1497849	40.92393	-91.39363
485842	-7	2	3	-0.09562588	0.1144526	-69.28903	0	11.11	4003	0	0	5	5	0.04733399	-0.285796	3	10	0.03	2000	0.163169	40.92393	-91.39363
485978	-8	0	3	-0.1053472	0.1178588	-69.2963	0	11.11	4003	0	0	5	5	0.04733399	-0.2872448	3	10	0.03	2000	0.1786159	40.92393	-91.39363
486037	-8	-7	-1	-0.09810134	0.1202384	-69.29868	0	11.11	4002	0	0	5	5	0.04733399	-0.2885998	3	10	0.03	2000	0.1661859	40.92393	-91.39363
486145	-6	0	-2	-0.09973487	0.1139204	-69.3002	0	11.11	4003	0	0	5	5	0.04733399	-0.2818646	1	10	0.03	2000	0.1686252	40.92393	-91.39363
486301	-6	0	2	-0.09810807	0.1105374	-69.30307	0	11.11	4002	0	0	5	5	0.04733399	-0.2696717	1	10	0.03	2000	0.1633662	40.92393	-91.39363
486430	-6	4	1	-0.08677894	0.1036014	-69.30685	0	11.11	4002	0	0	5	5	0.04733399	-0.2634013	1	10	0.03	2000	0.1459957	40.92393	-91.39363
486499	-10	-4	5	-0.08971918	0.1063661	-69.31137	0	11.11	4003	0	0	5	5	0.04733399	-0.2584135	1	10	0.03	2000	0.1487501	40.92393	-91.39363
486628	-11	0	-1	-0.08810714	0.1028123	-69.31424	0	11.11	4002	0	0	5	5	0.04733399	-0.255141	1	10	0.03	2000	0.1489663	40.92393	-91.39363
486689	-4	-4	2	-0.08286073	0.1030523	-69.31644	0	11.11	4003	0	0	5	5	0.04733399	-0.259531	1	10	0.03	2000	0.1438208	40.92393	-91.39363
486802	-3	5	2	-0.08394492	0.1084945	-69.31882	0	11.06	4004	0	0	5	5	0.04733399	-0.2657123	1	10	0.03	2000	0.1380584	40.92393	-91.39363
486860	-5	-3	3	-0.08582977	0.1089381	-69.3201	0	11.06	4003	0	0	5	5	0.04733399	-0.2702424	1	10	0.03	2000	0.1380584	40.92393	-91.39363
486920	-5	0	5	-0.08773239	0.1085652	-69.32455	0	11.06	4002	0	0	5	5	0.04733399	-0.2735449	1	10	0.03	2000	0.1488009	40.92393	-91.39363
487069	-13	1	3	-0.07983722	0.1086797	-69.33176	0	11.06	4003	0	0	5	5	0.04733399	-0.279146	3	10	0.03	2000	0.1449293	40.92393	-91.39363
487194	-5	7	2	-0.08261278	0.1151753	-69.33493	0	11.06	4003	0	0	5	5	0.04733399	-0.2884816	3	10	0.03	2000	0.1349647	40.92393	-91.39363
487296	2	-4	-4	-0.08194514	0.1158896	-69.33786	0	11.06	4003	0	0	5	5	0.04733399	-0.3027188	3	10	0.03	2000	0.1365829	40.92393	-91.39363
487366	-12	0	-2	-0.07510036	0.1163676	-69.3403	0	11.06	4004	0	0	5	5	0.04733399	-0.3031124	3	10	0.03	2000	0.3654543	40.92393	-91.39363
487499	-12	-5	-8	-0.08041301	0.1134241	-69.34091	0	11.06	4003	0	0	5	5	0.04733399	-0.3127156	3	10	0.03	2000	0.1269837	40.92393	-91.39363
487565	-8	-4	1	-0.08242234	0.1157295	-69.34134	0	11.06	4004	0	0	5	5	0.04733399	-0.3176368	3	10	0.03	2000	0.1380559	40.92393	-91.39363
487610	-6	1	0	-0.07849813	0.1142814	-69.34366	0	11.06	4004	0	0	5	5	0.04733399	-0.3188083	3	10	0.03	2000	0.1327721	40.92393	-91.39363
487744	-5	3	1	-0.07666243	0.1104522	-69.34805	0	11.06	4003	0	0	5	5	0.04733399	-0.3263599	3	10	0.03	2000	0.1327523	40.92393	-91.39363
487839	-5	1	-4	-0.07196222	0.1093814	-69.35172	0	11.06	4002	0	0	5	5	0.04733399	-0.3296016	3	10	0.03	2000	0.1235339	40.92393	-91.39363
487941	-2	-2	0	-0.07199471	0.1090566	-69.35379	0	11.06	4002	0	0	5	5	0.04733399	-0.3364948	3	10	0.03	2000	0.1221836	40.92393	-91.39363
488019	-10	-2	2	-0.0706374	0.105557	-69.35806	0	11.06	4003	0	0	5	5	0.04733399	-0.3369527	3	10	0.03	2000	0.1220977	40.92393	-91.39363
488099	-1	2	-19	-0.071647	0.09829979	-69.36143	0	11.06	4004	0	0	5	5	0.04733399	-0.3346905	3	10	0.03	2000	0.3540468	40.92393	-91.39363
488239	-35	20	-38	-0.0589419	0.09396728	-69.37152	0	11.06	4003	0	0	5	5	0.04733399	-0.3235763	3	10	0.03	2000	-0.1225281	40.92393	-91.39363
488302	51	-29	57	-0.04901788	0.1125065	-69.37312	0	11.06	4003	0	0	5	5	0.04733399	-0.3206174	3	10	0.03	2000	0.3461491	40.92393	-91.39363
488453	-111	-79	-102	-0.09853426	0.1604345	-69.36796	0	11.06	4003	0	0	5	5	0.04733399	-0.304563	3	10	0.03	2000	-0.5744324	40.92393	-91.39363
488493	-111	-79	-102	-0.09853426	0.1604345	-69.36796	0	11.06	4003	0	0	5	5	0.04733399	-0.2993142	3	10	0.03	2000	-0.5744324	40.92393	-91.39363
488589	49	16	-165	-0.09522388	0.1401131	-69.37409	0	11.06	4003	0	0	5	5	0.04733399	-0.2879801	3	10	0.03	2000	0.134908	40.92393	-91.39363
488693	41	-62	241	-0.1046038	0.1269361	-69.37817	0	11.06	4003	0	0	5	5	0.04733399	-0.2824703	3	10	0.03	2000	0.3897203	40.92393	-91.39363
488849	-95	74	36	-0.08590695	0.1413583	-69.39606	0	11.06	4003	0	0	5	5	0.04733399	-0.273846	3	10	0.03	2000	-0.3021851	40.92393	-91.39363
488992	-193	69	123	-0.1373246	0.2648794	-69.44375	0	11.06	4002	0	0	5	5	0.04733399	-0.2767976	3	10	0.03	2000	0.4340869	40.92393	-91.39363
489049	7	-60	-33	-0.1439695	0.25382	-69.44455	0	11.06	4002	0	0	5	5	0.04733399	-0.275466	3	10	0.03	2000	0.4340869	40.92393	-91.39363
489143	7	38	103	-0.09911643	0.2297283	-69.45084	0	11.06	4002	0	0	5	5	0.04733399	-0.2713149	3	10	0.03	2000	0.6769958	40.92393	-91.39363
489198	31	53	111	-0.09219634	0.1932709	-69.45195	0	11.06	4003	0	0	5	5	0.04733399	-0.2609976	3	10	0.03	2000	0.6769958	40.92393	-91.39363
489287	46	-33	265	-0.1381636	0.1626402	-69.45525	0	11.06	4004	0	0	5	5	0.04733399	-0.2448214	3	10	0.03	2000	0.2097252	40.92393	-91.39363
489416	265	-74	98	-0.1011854	0.1578322	-69.44887	0	11.06	4003	0	0	5	5	0.04733399	-0.2182557	3	10	0.03	2000	-0.05114746	40.92393	-91.39363
489509	24	-64	316	-0.06537021	0.1429596	-69.46037	0	11.06	4003	0	0	5	5	0.04733399	-0.2143599	3	10	0.03	2000	-0.05114746	40.92393	-91.39363
489596	93	99	76	-0.07653084	0.1201349	-69.45912	0	11.06	4003	0	0	5	5	0.04733399	-0.2141485	3	10	0.03	2000	0.1396036	40.92393	-91.39363
489706	-72	7	3	-0.08376387	0.1519549	-69.47947	0	11.06	4003	0	0	5	5	0.04733399	-0.2155734	3	10	0.03	2000	0.3899405	40.92393	-91.39363
489808	-105	-81	169	-0.1399187	0.1765861	-69.49281	0	11.06	4002	0	0	5	5	0.04733399	-0.2242069	3	10	0.03	2000	0.2230101	40.92393	-91.39363
489911	-144	-14	-131	-0.145271	0.1336863	-69.49026	0	11.06	4003	0	0	5	5	0.04733399	-0.2310395	3	10	0.03	2000	0.2634032	40.92393	-91.39363
490048	-44	111	-90	-0.06543619	0.1274089	-69.49649	0	11.06	4004	0	0	5	5	0.04733399	-0.254927	3	10	0.03	2000	0.3530702	40.92393	-91.39363
490206	9	-61	68	-0.09925748	0.1739509	-69.51418	0	11.06	4003	0	0	5	5	0.04733399	-0.2694795	3	10	0.03	2000	0.08282072	40.92393	-91.39363
490314	-233	-85	166	-0.1548344	0.06716921	-69.52469	0	10.49	4004	0	0	5	5	0.04733399	-0.275547	3	10	0.03	2000	0.2498399	40.92393	-91.39363
490368	-10	-30	10	-0.1166292	0.04286251	-69.52521	0	10.49	4004	0	0	5	5	0.04733399	-0.2762351	3	10	0.03	2000	0.6357753	40.92393	-91.39363
490470	-202	-86	179	-0.254378	0.09474249	-69.53162	0	10.49	4003	0	0	5	5	0.04733399	-0.281081	3	10	0.03	2000	0.6042635	40.92393	-91.39363
490628	18	50	-87	-0.2955101	-0.05934391	-69.5423	0	10.49	4004	0	0	5	5	0.04733399	-0.2917771	3	10	0.03	2000	1.030727	40.92393	-91.39363
490681	-36	93	247	-0.2909077	-0.0199434	-69.54289	0	10.49	4003	0	0	5	5	0.04733399	-0.295689	3	10	0.03	2000	0.4991968	40.92393	-91.39363
490776	151	-61	98	-0.3291693	-0.05855989	-69.53666	0	10.49	4004	0	0	5	5	0.04733399	-0.299412	3	10	0.03	2000	0.2678033	40.92393	-91.39363
490908	91	-18	149	-0.3774911	0.03866945	-69.56945	0	10.49	4003	0	0	5	5	0.04733399	-0.29032	3	10	0.03	2000	0.8834064	40.92393	-91.39363
491038	54	0	98	-0.33194	0.00650052	-69.58598	0	10.49	4003	0	0	5	5	0.04733399	-0.2741655	3	10	0.03	2000	0.8068262	40.92393	-91.39363
491086	-129	-10	49	-0.3640846	0.0004417075	-69.59784	0	10.49	4003	0	0	5	5	0.04733399	-0.272024	3	10	0.03	2000	0.5399874	40.92393	-91.39363
491280	-148	96	96	-0.2698338	-0.2564381	-69.6119	0	10.89	4004	0	0	5	5	0.04733399	-0.2709449	3	10	0.03	2000	0.4850771	40.92393	-91.39363
491357	59	-125	258	-0.2845338	-0.2114552	-69.61659	0	10.89	4004	0	0	5	5	0.04733399	-0.2787774	3	10	0.03	2000	0.4850771	40.92393	-91.39363
491450	21	13	-27	-0.3316596	-0.1245662	-69.62319	0	10.89	4002	0	0	5	5	0.04733399	-0.2887674	3	10	0.03	2000	0.6029473	40.92393	-91.39363
491567	-99	29	-16	-0.3730688	-0.09380558	-69.62937	0	10.89	4004	0	0	5	5	0.04733399	-0.2973789	3	10	0.03	2000	0.6226521	40.92393	-91.39363
491662	37	-78	-89	-0.2836376	-0.1100339	-69.63046	0	10.89	4004	0	0	5	5	0.04733399	-0.2973825	3	10	0.03	2000	1.086697	40.92393	-91.39363
491757	-63	85	41	-0.3153675	-0.06893611	-69.64268	0	10.89	4003	0	0	5	5	0.04733399	-0.2906944	3	10	0.03	2000	-0.1685486	40.92393	-91.39363
491846	-266	103	41	-0.2262753	-0.1819682	-69.67423	0	10.89	4002	0	0	5	5	0.04733399	-0.2805672	3	10	0.03	2000	0.7418944	40.92393	-91.39363
491885	-113	-26	77	-0.2243818	-0.1360431	-69.6853	0	10.89	4002	0	0	5	5	0.04733399	-0.2767461	3	10	0.03	2000	0.3420188	40.92393	-91.39363
492000	-38	-72	-87	-0.1132215	-0.1729864	-69.70127	0	10.89	4002	0	0	5	5	0.04733399	-0.2696293	3	10	0.03	2000	0.2826989	40.92393	-91.39363
492089	49	-38	-157	-0.198436	-0.04435244	-69.72524	0	10.89	4003	0	0	5	5	0.04733399	-0.2642494	3	10	0.03	2000	0.4990689	40.92393	-91.39363
492269	-44	92	119	-0.1988055	-0.03689663	-69.7304	0	11.06	4002	0	0	5	5	0.04733399	-0.2542657	3	10	0.03	2000	-0.1983948	40.92393	-91.39363
492295	-77	17	229	-0.2361466	-0.04130587	-69.74014	0	11.06	4002	0	0	5	5	0.04733399	-0.2538604	3	10	0.03	2000	-0.1983948	40.92393	-91.39363
492421	-51	-157	216	-0.2027157	-0.02444055	-69.75837	0	11.06	4003	0	0	5	5	0.0227334	-0.2720271	6	10	0.03	2000	0.5407541	40.92393	-91.39363
492567	-139	98	-87	-0.260518	-0.007616567	-69.77152	0	11.06	4004	0	0	5	5	0.03119355	-0.2927946	6	10	0.03	2000	1.142051	40.92393	-91.39363
492630	96	22	155	-0.2470965	-0.0009243338	-69.78888	0	11.06	4004	0	0	5	5	0.03426023	-0.2995505	6	10	0.03	2000	0.3878798	40.92393	-91.39363
492693	16	-99	19	-0.2655999	-0.01604777	-69.79364	0	11.06	4003	0	0	5	5	0.03660705	-0.3041585	6	10	0.03	2000	0.3878798	40.92393	-91.39363
492825	151	180	-418	-0.291003	-0.009399434	-69.76793	0	11.06	4002	0	0	5	5	0.04028898	-0.3166628	6	10	0.03	2000	0.8173461	40.92393	-91.39363
493026	-71	98	23	-0.4109565	-0.06068372	-69.84418	0	11.06	4002	0	0	5	5	0.04336541	-0.3219205	6	10	0.03	2000	0.7142808	40.92393	-91.39363
493182	37	145	114	-0.3747022	-0.08560106	-69.83954	0	11	4004	0	0	5	5	0.04458423	-0.309316	6	10	0.03	2000	1.250914	40.92393	-91.39363
493232	105	-21	-241	-0.2916737	-0.09154526	-69.86118	0	11	4002	0	0	5	5	0.0449576	-0.3005551	6	10	0.03	2000	1.250914	40.92393	-91.39363
493357	70	16	-490	-0.2665407	-0.09399213	-69.84134	0	11	4003	0	0	5	5	0.04513684	-0.2927246	6	10	0.03	2000	0.4051056	40.92393	-91.39363
493438	32	-58	-781	-0.3511436	-0.2326366	-69.89116	0	11	4004	0	0	5	5	0.04529362	-0.285929	6	10	0.03	2000	0.5788929	40.92393	-91.39363
493521	-84	-106	-158	-0.4544135	-0.2766081	-69.90871	0	11	4002	0	0	5	5	0.04593951	-0.2771689	6	10	0.03	2000	1.416825	40.92393	-91.39363
493582	-277	252	-123	-0.4289969	-0.30261	-69.89684	0	11	4003	0	0	5	5	0.04626963	-0.2693623	6	10	0.03	2000	1.416825	40.92393	-91.39363
493709	-231	-38	662	-0.3563739	-0.3656042	-69.88159	0	11	4003	0	0	5	5	0.0484876	-0.2479258	6	10	0.03	2000	0.4719138	40.92393	-91.39363
493836	223	350	279	-0.2999889	-0.426353	-70.07452	0	11	4003	0	0	5	5	0.04892511	-0.2328141	6	10	0.03	2000	-0.1989136	40.92393	-91.39363
493963	-181	-565	-200	-0.3437142	-0.5409158	-70.62126	0	10.66	4004	0	0	5	5	0.04846159	-0.2184378	6	10	0.03	2000	0.8461551	40.92393	-91.39363
494014	207	-743	-495	-0.4401843	-0.2469726	-70.69399	0	10.66	4003	0	0	5	5	0.04834883	-0.2166521	6	10	0.03	2000	0.9670223	40.92393	-91.39363
494082	-171	-945	-70	-0.3942762	0.6109484	-70.6815	0	10.66	4003	0	0	5	5	0.04310705	-0.2111418	6	10	0.03	2000	1.715231	40.92393	-91.39363
494205	1861	119	834	0.698642	1.713004	-71.35062	0	10.66	4003	0	0	5	5	0.04296311	-0.2035404	6	10	0.03	2000	2.109688	40.92393	-91.39363
494333	479	-1233	-577	2.388927	1.982642	-71.41055	0	10.66	4004	0	0	5	5	0.04337284	-0.1810229	6	10	0.03	2000	4.116117	40.92393	-91.39363
494386	611	-1041	-1353	1.893316	2.696205	-70.60746	0	10.66	4002	0	0	5	5	0.04593307	-0.1700616	6	10	0.03	2000	4.835352	40.92393	-91.39363
494479	-1933	3096	308	0.7401712	-1.82243	-70.66431	0	10.66	4004	0	0	5	5	0.05121734	-0.1624439	6	10	0.03	2000	4.875536	40.92393	-91.39363
494607	885	2117	-1045	1.690797	-5.747192	-68.88154	0	10.66	4004	0	0	5	5	0.04953652	-0.1492837	6	10	0.03	2000	4.805184	40.92393	-91.39363
494682	-1958	1819	-714	0.5150039	-8.669198	-68.0563	0	10.66	4002	0	0	5	5	0.06847353	-0.1486999	6	10	0.03	2000	4.198514	40.92393	-91.39363
494830	108	1025	1210	-1.54356	-5.956404	-68.12635	0	10.66	4003	0	0	5	5	0.1149381	-0.1485037	6	10	0.03	2000	4.093932	40.92393	-91.39363
494926	686	-493	646	-0.943962	-5.416645	-68.59377	0	10.32	4002	0	0	5	5	0.1552021	-0.1449662	6	10	0.03	2000	4.092624	40.92393	-91.39363
494980	509	-1701	240	-0.6966868	-4.240035	-68.48274	0	10.32	4002	0	0	5	5	0.2016951	-0.1343233	6	10	0.03	2000	4.195076	40.92393	-91.39363
495089	2384	6105	-990	2.671802	-9.38127	-67.75817	0	10.32	4004	0	-300	5	5	0.2744743	-0.1003041	8	10	0.03	2000	4.705801	40.92393	-91.39363
495190	-1667	6886	1362	3.029186	-12.97882	-67.96192	0	10.32	4004	0	-300	5	5	0.3275303	-0.08117449	8	10	0.03	2000	3.719097	40.92393	-91.39363
495292	-17	2328	1370	0.3151405	-19.2742	-68.56751	0	10.32	4003	0	-300	5	5	0.3546476	-0.06355587	8	10	0.03	2000	3.470615	40.92393	-91.39363
495454	-536	643	1107	-1.572469	-20.69214	-69.0048	0	10.32	4004	0	-7	5	5	0.4088156	-0.01648181	8	10	0.03	2000	2.279468	40.92393	-91.39363
495575	-430	-4443	1451	0.3370475	-13.44701	-69.73897	0	10.32	4002	0	-4	5	5	0.4254651	-0.0001967294	8	10	0.03	2000	2.197475	40.92393	-91.39363
495663	1352	-923	-120	-0.2066282	-8.976877	-70.40524	0	10.32	4003	0	0	5	5	0.4376026	0.02344286	8	10	0.03	2000	1.852469	40.92393	-91.39363
495738	988	-2453	583	2.541842	-6.496205	-70.15903	0	10.32	4004	0	0	5	5	0.4438062	0.04002022	8	10	0.03	2000	1.963685	40.92393	-91.39363
495825	-2063	-518	-519	3.059071	-2.534652	-69.44169	0	9.81	4003	8	0	5	5	0.4488311	0.05634868	8	10	0.03	2000	-0.5333252	40.92393	-91.39362
495945	-171	-1086	-660	1.970496	-2.110281	-69.62348	0	9.81	4003	9	0	5	5	0.4561981	0.1195792	8	10	0.03	2000	-1.328247	40.92393	-91.39362
496072	12	229	-649	0.9080573	-1.853349	-69.94617	0	9.81	4003	9	3	5	5	0.4610316	0.1950047	8	10	0.03	2000	-1.647003	40.92393	-91.39362
496130	-877	705	-113	1.033307	-2.556954	-69.84814	0	9.81	4003	9	3	5	5	0.4619537	0.2079486	8	10	0.03	2000	-1.998413	40.92393	-91.39362
496262	102	75	-398	2.016629	-4.338601	-69.64109	0	9.81	4003	11	4	5	5	0.4648078	0.3025529	8	10	0.03	2000	-2.030243	40.92393	-91.39362
496317	-334	-3418	-1205	1.074118	-3.572922	-69.34351	0	9.81	4003	10	4	5	5	0.4662835	0.3828769	8	10	0.03	2000	-2.799591	40.92394	-91.39362
496403	-114	-1317	830	1.489902	-1.102252	-68.52116	0	9.81	4004	10	13	5	5	0.4670377	0.4450885	8	10	0.03	2000	-2.685028	40.92394	-91.39362
496539	209	-2711	-638	-0.05937093	2.379701	-68.93836	0	9.81	4002	10	13	5	5	0.4681434	0.6458614	8	10	0.03	2000	-3.941742	40.92394	-91.39362
496610	-1167	-2274	1296	-0.7252687	3.87453	-69.47109	0	9.81	4002	20	14	5	5	0.4687151	0.7371956	8	10	0.03	2000	-2.343231	40.92394	-91.39362
496730	-14	-2634	-402	-1.415664	8.388088	-69.64353	0	10.77	4003	20	18	5	5	0.4691319	0.8241057	8	10	0.03	2000	-2.479706	40.92395	-91.39362
496866	1215	-640	-1486	-1.22249	7.829308	-69.42492	0	10.77	4004	21	19	5	5	0.469591	0.9690949	8	10	0.03	2000	-5.128479	40.92395	-91.39362
496919	-732	508	-1409	-0.847382	6.140154	-69.12885	0	10.77	4003	21	23	5	5	0.4696572	1.011591	8	10	0.03	2000	-7.027344	40.92395	-91.39362
497069	700	1609	427	-1.16792	3.327185	-68.79808	0	10.77	4003	22	25	5	5	0.469862	1.118803	8	10	0.03	2000	-6.816101	40.92395	-91.39362
497174	742	-922	-993	-0.662284	-0.5900843	-68.22096	0	10.77	4002	22	30	5	5	0.4699965	1.235777	8	10	0.03	2000	-8.080505	40.92395	-91.39362
497218	742	-922	-993	-0.662284	-0.5900843	-68.22096	0	10.77	4002	22	30	5	5	0.4700222	1.253219	8	10	0.03	2000	-8.080505	40.92395	-91.39362
497324	-1229	-418	940	-2.5099	-2.181328	-68.99384	0	10.77	4003	23	31	5	5	0.4700847	1.338952	8	10	0.03	2000	-2.490845	40.92395	-91.39362
497445	664	-524	551	-1.154406	-0.07621899	-68.71584	0	10.77	4002	23	32	5	5	0.4701167	1.370542	8	10	0.03	2000	-3.591644	40.92395	-91.39362
497582	-232	1832	-243	-2.719214	-2.503329	-69.0816	0	10.77	4002	24	38	5	5	0.4701805	1.506404	8	10	0.03	2000	-1.607239	40.92396	-91.39362
497728	-690	-2588	162	-2.487706	-2.2308	-68.46398	0	9.53	4002	25	39	5	5	0.4702055	1.571724	8	10	0.03	2000	-2.872437	40.92396	-91.39362
497870	126	489	311	-3.182374	-2.294688	-68.94866	0	9.53	4002	26	35	5	5	0.4702183	1.630516	8	10	0.03	2000	-2.67569	40.92395	-91.39362
498031	-908	1479	870	-2.557001	-1.816947	-69.21682	0	9.53	4002	26	37	5	5	0.4702346	1.720531	8	10	0.03	2000	-6.043396	40.92395	-91.39362
498138	-148	2002	-1280	-3.596628	-6.440979	-69.27153	0	9.53	4004	27	38	5	5	0.4702409	1.745275	8	10	0.03	2000	-6.455383	40.92395	-91.39362
498319	254	1236	43	-4.172308	-8.125774	-68.87578	0	9.53	4004	27	34	5	5	0.4702451	1.749085	8	10	0.03	2000	-9.910278	40.92395	-91.39362
498361	1076	1690	908	-3.469129	-8.840981	-68.52302	0	9.53	4004	28	34	5	5	0.4702459	1.74982	8	10	0.03	2000	-7.309418	40.92395	-91.39362
498474	48	1955	146	-1.930107	-11.18562	-68.24349	0	9.53	4003	28	35	5	5	0.4702483	1.75092	8	10	0.03	2000	-6.794373	40.92395	-91.39362
498576	-768	41	632	-2.078388	-10.9568	-68.32169	0	9.53	4002	29	36	5	5	0.4702496	1.747864	8	10	0.03	2000	-6.278503	40.92395	-91.39362
498657	1217	-1608	-627	-3.27317	-9.022078	-69.22132	0	10.6	4004	29	31	5	5	0.4702505	1.739354	8	10	0.03	2000	-4.833954	40.92395	-91.39362
498756	986	-680	310	-1.833763	-7.199626	-69.28645	0	10.6	4003	30	28	5	5	0.4702512	1.718858	8	10	0.03	2000	-4.409332	40.92394	-91.39362
498905	452	-955	235	-4.040897	-0.8259252	-69.04329	0	10.6	4003	30	28	5	5	0.4702519	1.693524	8	10	0.03	2000	-2.965515	40.92394	-91.39362
498975	218	1676	2125	-3.092689	-0.9810424	-69.46404	0	10.6	4002	31	28	5	5	0.4702521	1.684902	8	10	0.03	2000	-4.954437	40.92394	-91.39362
499050	623	1267	1840	-2.953643	-1.409417	-69.32321	0	10.6	4003	31	29	5	5	0.4702523	1.669922	8	10	0.03	2000	-4.929199	40.92394	-91.39362
499116	193	54	200	-0.9688878	-3.315881	-68.61047	0	10.6	4003	32	20	5	5	0.4702523	1.669922	8	10	0.03	2000	-7.651611	40.92393	-91.39362
499224	941	715	319	-1.864875	-3.410429	-68.92888	0	10.6	4003	32	20	5	5	0.4702525	1.642183	8	10	0.03	2000	-6.498779	40.92393	-91.39362
499388	-123	1197	-1370	-2.192214	-7.603894	-69.22511	0	10.6	4004	33	16	5	5	0.4702527	1.606184	8	10	0.03	2000	-8.42395	40.92393	-91.39362
499500	-422	2906	392	-1.193158	-8.504309	-68.65337	0	10.72	4002	33	11	5	5	0.4702528	1.601922	8	10	0.03	2000	-9.545044	40.92393	-91.39362
499565	-216	1075	124	-2.795031	-10.31252	-69.08357	0	10.72	4003	34	11	5	5	0.4702529	1.604984	8	10	0.03	2000	-8.28183	40.92393	-91.39362
499682	20	-3517	-370	-2.001098	-7.010094	-68.63506	0	10.72	4003	25	7	5	5	0.4702529	1.615532	8	10	0.03	2000	-7.705444	40.92392	-91.39362
499733	-1924	-2237	1168	-3.890881	-2.848752	-68.76277	0	10.72	4004	25	6	5	5	0.4702529	1.623693	8	10	0.03	2000	-6.093048	40.92392	-91.39362
499797	378	-2373	-1516	-4.819761	-0.1987732	-68.87421	0	10.72	4004	26	6	5	5	0.4702529	1.638694	8	10	0.03	2000	-6.050751	40.92392	-91.39362
499969	1222	822	-28	-4.729235	-4.292858	-70.07286	0	10.72	4002	26	1	5	5	0.4702529	1.687579	8	10	0.03	2000	-7.224518	40.92392	-91.39362
500053	-121	-235	38	-2.545294	-4.173579	-69.24704	0	10.72	4009	26	-3	5	5	0.4702529	1.723634	8	10	0.03	2000	-9.559357	40.92392	-91.39362
500189	-207	6790	2865	-2.193783	-11.8822	-69.37019	0	10.72	4003	26	-7	5	5	0.4702529	1.761789	8	10	0.03	2000	-10.6738	40.92391	-91.39362
500279	-396	496	-1353	-3.609072	-16.12076	-69.69344	0	10.72	4004	27	-8	5	5	0.4702529	1.800031	8	10	0.03	2000	-8.554932	40.92391	-91.39362
500391	-48	1944	1270	-2.939977	-13.64066	-69.40054	0	10.72	4002	18	-14	5	5	0.4702529	1.823717	8	10	0.03	2000	-8.164185	40.92391	-91.39363
500525	188	3734	-1206	-2.902359	-19.74288	-69.28451	0	10.15	4004	18	-14	5	5	0.4702529	1.851433	8	10	0.03	2000	-7.291931	40.92391	-91.39363
500592	-454	3500	157	-2.865072	-20.88067	-69.30444	0	10.15	4002	18	-19	5	5	0.4702529	1.897865	8	10	0.03	2000	-7.291931	40.9239	-91.39363
500722	891	-996	-1037	-3.142548	-19.50058	-69.01936	0	10.15	4004	9	-25	5	5	0.4702529	1.938773	8	10	0.03	2000	-6.196289	40.9239	-91.39364
500925	-140	-2444	-32	-2.031114	-15.37145	-68.60294	0	10.15	4003	9	-27	5	5	0.4702529	2.026874	8	10	0.03	2000	-6.596375	40.9239	-91.39364
501036	1786	-713	-463	-1.972778	-7.389253	-68.87665	0	10.15	4004	9	-28	5	5	0.4702529	2.077729	8	10	0.03	2000	-4.15387	40.9239	-91.39364
