time(ms)	gyro_x(deg/s)	gyro_y(deg/s)	gyro_z(deg/s)	orientation_roll(deg)	orientation_pitch(deg)	orientation_yaw(deg)	throttle	battery(V)	loop_time(uS)	pid_output_roll	pid_output_pitch	pid_output_yaw	pid_output_throttle	ultrasonic_alt	baro_alt	flight_mode	p_gain_altitude	i_gain_altitude	d_gain_altitude	compass_heading	latitude	longitude
344469	-28	0	4	-0.3906577	-0.1533509	-48.67231	0	11.4	4003	0	0	5	5	0.03757218	-0.362721	6	10	0.03	2000	-2.947571	40.92395	-91.39365
344644	-27	2	3	-0.3914449	-0.149223	-48.68189	0	11.4	4003	0	0	5	5	0.0387605	-0.3519354	6	10	0.03	2000	-2.931396	40.92395	-91.39365
344698	-24	-2	1	-0.3891398	-0.1504145	-48.68805	0	11.4	4004	0	0	5	5	0.03908607	-0.3518203	6	10	0.03	2000	-2.936127	40.92395	-91.39365
344790	-32	2	-1	-0.3874161	-0.1509839	-48.69263	0	11.4	4004	0	0	5	5	0.03922759	-0.3469698	6	10	0.03	2000	-2.708069	40.92395	-91.39365
344911	-32	0	7	-0.3830387	-0.1477528	-48.69825	0	11.4	4003	0	0	5	5	0.03939386	-0.3473689	6	10	0.03	2000	-2.729828	40.92395	-91.39365
344990	-35	3	1	-0.3772487	-0.1497655	-48.70496	0	11.4	4002	0	0	5	5	0.03954767	-0.3441453	6	10	0.03	2000	-2.72876	40.92395	-91.39365
345090	-30	1	7	-0.3785313	-0.1453981	-48.7135	0	11.4	4003	0	0	5	5	0.0397987	-0.3363945	6	10	0.03	2000	-2.95871	40.92395	-91.39365
345184	-29	-1	2	-0.3770839	-0.1452169	-48.71747	0	11.4	4003	0	0	5	5	0.03992701	-0.3329675	6	10	0.03	2000	-2.972961	40.92395	-91.39365
345332	-30	3	4	-0.3758769	-0.148248	-48.732	0	11.4	4003	0	0	5	5	0.040151	-0.319573	6	10	0.03	2000	-2.974487	40.92395	-91.39365
345436	-28	-2	8	-0.3789037	-0.1453383	-48.73786	0	11.4	4003	0	0	5	5	0.04023853	-0.3067943	6	10	0.03	2000	-2.956665	40.92395	-91.39365
345532	-20	-4	-5	-0.3763179	-0.1460975	-48.74311	0	11.34	4004	0	0	5	5	0.03991133	-0.2977538	6	10	0.03	2000	-2.981812	40.92395	-91.39365
345646	-35	-6	-1	-0.3716361	-0.1500565	-48.74781	0	11.34	4002	0	0	5	5	0.03989711	-0.2918223	6	10	0.03	2000	-2.983551	40.92395	-91.39365
345697	-31	1	5	-0.3616897	-0.1512563	-48.75593	0	11.34	4004	0	0	5	5	0.04000672	-0.2887556	6	10	0.03	2000	-2.747009	40.92395	-91.39365
345862	-27	-1	5	-0.36394	-0.1470583	-48.76319	0	11.34	4003	0	0	5	5	0.03559501	-0.2888965	6	10	0.03	2000	-2.503418	40.92395	-91.39365
345923	-20	2	1	-0.3658206	-0.146885	-48.76887	0	11.34	4002	0	0	5	5	0.03512251	-0.2888021	6	10	0.03	2000	-2.992493	40.92395	-91.39365
346002	-25	0	1	-0.3642988	-0.1464291	-48.77766	0	11.34	4004	0	0	5	5	0.03613929	-0.2886406	6	10	0.03	2000	-2.742096	40.92395	-91.39365
346123	-29	0	6	-0.3619804	-0.1552295	-48.78266	0	11.34	4004	0	0	5	5	0.0379144	-0.2917978	6	10	0.03	2000	-2.990173	40.92395	-91.39365
346213	-33	0	5	-0.3577174	-0.1497385	-48.78974	0	11.34	4004	0	0	5	5	0.03821703	-0.3017888	6	10	0.03	2000	-2.755249	40.92395	-91.39365
346302	-33	-3	3	-0.3523522	-0.1529295	-48.79682	0	11.34	4003	0	0	5	5	0.03846063	-0.3108636	6	10	0.03	2000	-2.773071	40.92395	-91.39365
346442	-31	-1	8	-0.3524857	-0.1554914	-48.8061	0	11.4	4004	0	0	5	5	0.03911781	-0.3254035	6	10	0.03	2000	-2.76416	40.92395	-91.39365
346523	-29	-3	1	-0.3509524	-0.1540751	-48.80872	0	11.4	4003	0	0	5	5	0.03937549	-0.3332795	6	10	0.03	2000	-2.76416	40.92395	-91.39365
346607	-30	2	4	-0.3454176	-0.1537324	-48.81263	0	11.4	4003	0	0	5	5	0.0395842	-0.3340847	6	10	0.03	2000	-3.033112	40.92395	-91.39365
346768	-30	-2	2	-0.3448664	-0.146209	-48.82209	0	11.4	4004	0	0	5	5	0.03994858	-0.3399256	6	10	0.03	2000	-3.023071	40.92395	-91.39365
346858	-24	2	1	-0.344445	-0.1441056	-48.82606	0	11.4	4002	0	0	5	5	0.04004841	-0.3444593	6	10	0.03	2000	-2.797211	40.92395	-91.39365
346905	-25	-2	0	-0.3437643	-0.1436303	-48.82728	0	11.4	4003	0	0	5	5	0.03992347	-0.345302	6	10	0.03	2000	-2.790131	40.92395	-91.39365
347031	-34	-7	2	-0.336094	-0.1464049	-48.83375	0	11.4	4003	0	0	5	5	0.03996277	-0.3482051	6	10	0.03	2000	-2.814789	40.92395	-91.39365
347193	-25	3	6	-0.3278969	-0.1454172	-48.8448	0	11.4	4004	0	0	5	5	0.03963663	-0.3527865	6	10	0.03	2000	-2.808044	40.92395	-91.39365
347261	-28	3	-1	-0.3304669	-0.1426604	-48.84681	0	11.4	4003	0	0	5	5	0.03986356	-0.3523615	6	10	0.03	2000	-3.045135	40.92395	-91.39365
347317	-31	0	3	-0.3234439	-0.1414891	-48.84913	0	11.4	4002	0	0	5	5	0.0399246	-0.3512516	6	10	0.03	2000	-3.05069	40.92395	-91.39365
347443	-30	-4	0	-0.323107	-0.1444996	-48.85395	0	11.4	4003	0	0	5	5	0.03953287	-0.3518732	6	10	0.03	2000	-2.829559	40.92395	-91.39365
347613	-27	7	9	-0.3184855	-0.1468796	-48.86518	0	11.4	4004	0	0	5	5	0.0374922	-0.3497725	6	10	0.03	2000	-3.318604	40.92395	-91.39365
347653	-29	-1	2	-0.3185338	-0.1458298	-48.86689	0	11.4	4003	0	0	5	5	0.03805874	-0.3430216	6	10	0.03	2000	-3.318604	40.92395	-91.39365
347826	-20	6	5	-0.3170272	-0.1557832	-48.87775	0	11.4	4003	0	0	5	5	0.03686908	-0.3306726	6	10	0.03	2000	-2.823212	40.92395	-91.39365
347898	-35	-2	3	-0.3234447	-0.1691682	-48.88209	0	11.4	4003	0	0	5	5	0.03755401	-0.3288779	6	10	0.03	2000	-3.318054	40.92395	-91.39365
348072	-30	-1	9	-0.317793	-0.1709145	-48.89216	0	11.4	4002	0	0	5	5	0.03658815	-0.3220474	6	10	0.03	2000	-3.088043	40.92395	-91.39365
348209	-27	-1	7	-0.3166249	-0.1661073	-48.90156	0	11.4	4002	0	0	5	5	0.03792449	-0.3220093	6	10	0.03	2000	-2.595123	40.92395	-91.39365
348309	-18	2	3	-0.3101394	-0.1623451	-48.90882	0	11.4	4003	0	0	5	5	0.03861541	-0.3208785	6	10	0.03	2000	-3.095764	40.92395	-91.39365
348391	-24	0	7	-0.3086875	-0.1646096	-48.91358	0	11.4	4002	0	0	5	5	0.03911909	-0.3219961	6	10	0.03	2000	-3.092468	40.92395	-91.39365
348486	-26	3	5	-0.3028724	-0.1666653	-48.91761	0	11.4	4002	0	0	5	5	0.03948627	-0.319594	6	10	0.03	2000	-3.081879	40.92395	-91.39365
348512	-25	0	6	-0.302172	-0.1695443	-48.91944	0	11.4	4004	0	0	5	5	0.03937924	-0.3156208	6	10	0.03	2000	-3.106293	40.92395	-91.39365
348685	-24	0	7	-0.3088775	-0.1698575	-48.93317	0	11.4	4002	0	0	5	5	0.03924924	-0.3001317	6	10	0.03	2000	-2.620972	40.92395	-91.39365
348748	-28	-7	7	-0.3074425	-0.1718463	-48.93739	0	11.4	4004	0	0	5	5	0.03948194	-0.29892	6	10	0.03	2000	-2.867249	40.92395	-91.39365
348865	-26	6	3	-0.3080727	-0.1701101	-48.94398	0	11.4	4004	0	0	5	5	0.03928602	-0.2961648	6	10	0.03	2000	-3.09201	40.92395	-91.39365
348934	-21	-3	2	-0.3010915	-0.1698703	-48.95002	0	11.4	4004	0	0	5	5	0.03943647	-0.2918411	6	10	0.03	2000	-3.095428	40.92395	-91.39365
349002	-19	0	-3	-0.2991669	-0.1717924	-48.95173	0	11.4	4003	0	0	5	5	0.03930775	-0.2917962	6	10	0.03	2000	-3.095428	40.92395	-91.39365
349131	-28	5	7	-0.2965702	-0.17141	-48.9582	0	11.4	4002	0	0	5	5	0.03970882	-0.2991208	6	10	0.03	2000	-2.875549	40.92395	-91.39365
349367	-20	-1	8	-0.2870587	-0.1698373	-48.97309	0	11.34	4004	0	0	5	5	0.03717536	-0.3222084	6	10	0.03	2000	-2.884674	40.92395	-91.39365
349451	-22	-2	8	-0.2812709	-0.168988	-48.97816	0	11.34	4002	0	0	5	5	0.0378021	-0.3309967	6	10	0.03	2000	-2.893768	40.92395	-91.39365
349511	-24	5	0	-0.279821	-0.1696327	-48.98115	0	11.34	4003	0	0	5	5	0.03791874	-0.3362918	6	10	0.03	2000	-2.917542	40.92395	-91.39365
349615	-25	0	4	-0.2790192	-0.1669123	-48.98933	0	11.34	4003	0	0	5	5	0.03821902	-0.3375854	6	10	0.03	2000	-3.148468	40.92395	-91.39365
349719	-29	4	6	-0.27799	-0.1718007	-48.99519	0	11.34	4004	0	0	5	5	0.03899451	-0.3402383	6	10	0.03	2000	-2.907196	40.92395	-91.39365
349895	-25	4	-1	-0.2747014	-0.1762642	-49.00428	0	11.34	4004	0	0	5	5	0.03968773	-0.3239591	6	10	0.03	2000	-3.154388	40.92395	-91.39365
349949	-22	0	3	-0.2705005	-0.1749782	-49.00733	0	11.34	4003	0	0	5	5	0.03976636	-0.3225301	6	10	0.03	2000	-2.918793	40.92395	-91.39365
350116	-22	3	3	-0.2757613	-0.1696387	-49.01929	0	11.34	4004	0	0	5	5	0.03934811	-0.3161465	6	10	0.03	2000	-3.16391	40.92395	-91.39365
350237	-15	0	5	-0.271499	-0.1759082	-49.02814	0	11.34	4003	0	0	5	5	0.03948173	-0.3151574	6	10	0.03	2000	-3.172089	40.92395	-91.39365
350364	-17	9	0	-0.2666268	-0.1819776	-49.03712	0	11.34	4003	0	0	5	5	0.03955903	-0.3176987	6	10	0.03	2000	-3.165344	40.92395	-91.39365
350490	-15	4	5	-0.2708513	-0.184313	-49.04292	0	11.34	4004	0	0	5	5	0.0392285	-0.3295487	6	10	0.03	2000	-3.154694	40.92395	-91.39365
350546	-18	5	0	-0.2693487	-0.1858741	-49.05006	0	11.34	4002	0	0	5	5	0.03935305	-0.3383306	6	10	0.03	2000	-2.908722	40.92395	-91.39365
350649	-25	4	1	-0.2663305	-0.1814172	-49.05463	0	11.34	4003	0	0	5	5	0.03933098	-0.3558268	6	10	0.03	2000	-2.927124	40.92395	-91.39365
350689	-22	-3	2	-0.2669953	-0.1791695	-49.05958	0	11.34	4004	0	0	5	5	0.0393938	-0.3640361	6	10	0.03	2000	-3.174316	40.92395	-91.39365
350800	-26	-2	4	-0.2567815	-0.1782643	-49.06562	0	11.34	4002	0	0	5	5	0.03930052	-0.374483	6	10	0.03	2000	-3.4245	40.92395	-91.39365
350953	-17	2	2	-0.2506329	-0.1792825	-49.07178	0	11.34	4003	0	0	5	5	0.03970407	-0.3761517	6	10	0.03	2000	-2.940948	40.92395	-91.39365
351135	-26	0	1	-0.2476133	-0.1678455	-49.07935	0	11.46	4003	0	0	5	5	0.04006483	-0.3737877	6	10	0.03	2000	-2.960968	40.92395	-91.39365
351277	-26	0	2	-0.2507537	-0.162886	-49.08759	0	11.46	4002	0	0	5	5	0.04020554	-0.3759947	6	10	0.03	2000	-2.956146	40.92395	-91.39365
351356	-19	2	1	-0.248727	-0.1573337	-49.08949	0	11.46	4002	0	0	5	5	0.04025655	-0.378948	6	10	0.03	2000	-2.962921	40.92395	-91.39365
351501	-16	3	4	-0.2422348	-0.1651522	-49.09852	0	11.46	4004	0	0	5	5	0.04033133	-0.3798786	6	10	0.03	2000	-3.210846	40.92395	-91.39365
351657	-20	-2	1	-0.2305057	-0.1636402	-49.10505	0	11.46	4004	0	0	5	5	0.04012581	-0.3538195	6	10	0.03	2000	-2.97995	40.92395	-91.39365
351724	-21	2	1	-0.2324179	-0.1662488	-49.1092	0	11.46	4003	0	0	5	5	0.04019197	-0.3445013	6	10	0.03	2000	-2.974823	40.92395	-91.39365
351791	-19	-3	0	-0.2309969	-0.1677649	-49.11213	0	11.46	4004	0	0	5	5	0.0402684	-0.3331207	6	10	0.03	2000	-2.973938	40.92395	-91.39365
351922	-13	0	2	-0.2286515	-0.157967	-49.11921	0	11.34	4003	0	0	5	5	0.04032411	-0.3224532	6	10	0.03	2000	-3.233337	40.92395	-91.39365
352010	-15	-1	1	-0.2193564	-0.1576712	-49.12226	0	11.34	4004	0	0	5	5	0.03999836	-0.3070268	6	10	0.03	2000	-3.252747	40.92395	-91.39365
352095	-23	-4	0	-0.2178749	-0.1598766	-49.12598	0	11.34	4002	0	0	5	5	0.03937186	-0.2965769	6	10	0.03	2000	-3.013184	40.92395	-91.39365
352198	-25	3	-3	-0.2162072	-0.1599762	-49.13117	0	11.34	4003	0	0	5	5	0.03957938	-0.2834844	6	10	0.03	2000	-3.017334	40.92395	-91.39365
352407	-11	-1	7	-0.2239099	-0.1635475	-49.13685	0	11.34	4004	0	0	5	5	0.03983321	-0.2718576	6	10	0.03	2000	-2.994629	40.92395	-91.39365
352593	-22	-2	5	-0.2152552	-0.1646202	-49.14747	0	11.34	4004	0	0	5	5	0.04013346	-0.2807821	6	10	0.03	2000	-3.021454	40.92395	-91.39365
352678	-14	0	2	-0.2111567	-0.1621658	-49.15052	0	11.34	4004	0	0	5	5	0.03980714	-0.2834854	6	10	0.03	2000	-3.0112	40.92395	-91.39365
352758	-19	0	5	-0.2115522	-0.1620671	-49.15546	0	11.34	4003	0	0	5	5	0.03988644	-0.2887568	6	10	0.03	2000	-3.022827	40.92395	-91.39365
352948	-21	0	8	-0.2119871	-0.1604437	-49.16212	0	11.4	4004	0	0	5	5	0.04012705	-0.3121365	6	10	0.03	2000	-3.277863	40.92395	-91.39365
353132	-11	-1	0	-0.2033818	-0.1625988	-49.17194	0	11.4	4004	0	0	5	5	0.03982067	-0.3284577	6	10	0.03	2000	-3.03595	40.92395	-91.39365
353226	-21	-2	-4	-0.1915855	-0.1668896	-49.17768	0	11.4	4003	0	0	5	5	0.03979045	-0.3289165	6	10	0.03	2000	-3.072266	40.92395	-91.39365
353332	-18	-1	4	-0.1898638	-0.1674484	-49.18262	0	11.4	4003	0	0	5	5	0.0376794	-0.3309533	6	10	0.03	2000	-3.050903	40.92395	-91.39365
353479	-26	-2	-1	-0.1872776	-0.1693165	-49.18732	0	11.4	4004	0	0	5	5	0.03801366	-0.327565	6	10	0.03	2000	-3.06424	40.92395	-91.39365
353576	-17	4	1	-0.1907203	-0.1701017	-49.19178	0	11.4	4002	0	0	5	5	0.03848113	-0.3324649	6	10	0.03	2000	-3.055664	40.92395	-91.39365
353761	-6	0	0	-0.1890076	-0.173921	-49.20106	0	11.4	4002	0	0	5	5	0.03941491	-0.3396122	6	10	0.03	2000	-3.304138	40.92395	-91.39365
353816	-16	-1	0	-0.1844809	-0.1770232	-49.2021	0	11.4	4003	0	0	5	5	0.03941033	-0.3386141	6	10	0.03	2000	-3.315552	40.92395	-91.39365
353871	-16	-1	4	-0.1809002	-0.1778452	-49.20411	0	11.4	4002	0	0	5	5	0.03942721	-0.3354316	6	10	0.03	2000	-3.337372	40.92395	-91.39365
353998	-14	1	1	-0.1842923	-0.1799334	-49.21015	0	11.4	4004	0	0	5	5	0.03933101	-0.3297398	6	10	0.03	2000	-3.319611	40.92395	-91.39365
354071	-15	3	-1	-0.1835147	-0.1860344	-49.21217	0	11.4	4004	0	0	5	5	0.03954818	-0.3285132	6	10	0.03	2000	-3.315948	40.92395	-91.39365
354257	-18	0	1	-0.1754614	-0.1828464	-49.22224	0	11.4	4003	0	0	5	5	0.03979011	-0.3166818	6	10	0.03	2000	-3.313385	40.92395	-91.39365
354302	-17	-8	6	-0.1734114	-0.1818157	-49.22669	0	11.4	4004	0	0	5	5	0.03986431	-0.3081512	6	10	0.03	2000	-3.087982	40.92395	-91.39365
354375	-17	1	8	-0.1734747	-0.1834981	-49.23133	0	11.4	4003	0	0	5	5	0.03877965	-0.3011101	6	10	0.03	2000	-3.338776	40.92395	-91.39365
354498	-9	3	-1	-0.1735598	-0.1836257	-49.23835	0	11.4	4004	0	0	5	5	0.03848717	-0.2903674	6	10	0.03	2000	-3.334351	40.92395	-91.39365
354518	-11	-1	-1	-0.1729636	-0.1870392	-49.24097	0	11.4	4003	0	0	5	5	0.03868585	-0.289149	6	10	0.03	2000	-3.334351	40.92395	-91.39365
354612	-18	-1	2	-0.1678648	-0.1843725	-49.24506	0	11.34	4002	0	0	5	5	0.0390256	-0.2861772	6	10	0.03	2000	-3.339691	40.92395	-91.39365
354739	-23	1	3	-0.1651522	-0.1796488	-49.25239	0	11.34	4002	0	0	5	5	0.03906102	-0.2818652	6	10	0.03	2000	-3.350494	40.92395	-91.39365
354858	-15	-1	-2	-0.1660086	-0.1793694	-49.25819	0	11.34	4003	0	0	5	5	0.03954694	-0.2845874	6	10	0.03	2000	-3.352112	40.92395	-91.39365
354946	-6	0	0	-0.1619634	-0.176566	-49.26228	0	11.34	4002	0	0	5	5	0.03951728	-0.2833705	6	10	0.03	2000	-3.366882	40.92395	-91.39365
355047	-16	2	-2	-0.1626221	-0.1775696	-49.26356	0	11.34	4004	0	0	5	5	0.03942464	-0.2808864	6	10	0.03	2000	-3.35144	40.92395	-91.39365
355163	-23	-1	6	-0.1620834	-0.1797961	-49.27198	0	11.34	4003	0	0	5	5	0.03978552	-0.2707395	6	10	0.03	2000	-3.355988	40.92395	-91.39365
355216	-9	-2	3	-0.164313	-0.1797349	-49.27637	0	11.34	4004	0	0	5	5	0.03985436	-0.270045	6	10	0.03	2000	-3.099426	40.92395	-91.39365
355324	-17	4	0	-0.1580934	-0.1766012	-49.27796	0	11.34	4002	0	0	5	5	0.04002228	-0.2701755	6	10	0.03	2000	-3.356262	40.92395	-91.39365
355481	-10	-2	5	-0.1633131	-0.175948	-49.28632	0	11.34	4004	0	0	5	5	0.03953382	-0.2690078	6	10	0.03	2000	-3.35791	40.92395	-91.39365
355579	-16	0	2	-0.1610468	-0.1739347	-49.29249	0	11.4	4004	0	0	5	5	0.0396497	-0.2681896	6	10	0.03	2000	-3.355286	40.92395	-91.39365
355619	-14	2	0	-0.1657897	-0.1784566	-49.29432	0	11.4	4004	0	0	5	5	0.03963481	-0.2693891	6	10	0.03	2000	-3.120026	40.92395	-91.39365
355723	-6	-1	0	-0.1604088	-0.1784427	-49.29823	0	11.4	4002	0	0	5	5	0.03963991	-0.2756553	6	10	0.03	2000	-3.103882	40.92395	-91.39365
355877	-4	0	3	-0.1630167	-0.1862727	-49.3061	0	11.4	4004	0	0	5	5	0.03718961	-0.2876767	6	10	0.03	2000	-3.358398	40.92395	-91.39365
355981	-16	5	0	-0.1587289	-0.1848694	-49.30732	0	11.4	4003	0	0	5	5	0.03821621	-0.2910261	6	10	0.03	2000	-3.343536	40.92395	-91.39365
356068	-17	-3	6	-0.1505117	-0.1880147	-49.3097	0	11.4	4003	0	0	5	5	0.03844968	-0.2881251	6	10	0.03	2000	-3.120056	40.92395	-91.39365
356121	-14	-5	7	-0.1475919	-0.1867359	-49.31312	0	11.4	4004	0	0	5	5	0.03879247	-0.2798704	6	10	0.03	2000	-3.377991	40.92395	-91.39365
356219	-6	-2	4	-0.1506038	-0.1859952	-49.31843	0	11.4	4003	0	0	5	5	0.03872094	-0.2785426	6	10	0.03	2000	-2.900818	40.92395	-91.39365
356325	-8	-5	4	-0.1508775	-0.182466	-49.32209	0	11.4	4004	0	0	5	5	0.03919602	-0.2783953	6	10	0.03	2000	-3.119232	40.92395	-91.39365
356427	-7	2	5	-0.144348	-0.1787457	-49.32893	0	11.4	4004	0	0	5	5	0.03924449	-0.2860556	6	10	0.03	2000	-3.139496	40.92395	-91.39365
356563	-9	-2	-3	-0.1390654	-0.1859265	-49.33485	0	11.4	4002	0	0	5	5	0.03901997	-0.2901899	6	10	0.03	2000	-3.377899	40.92395	-91.39365
356677	-17	-6	3	-0.12569	-0.1808001	-49.33973	0	11.4	4002	0	0	5	5	0.03952001	-0.295401	6	10	0.03	2000	-3.418915	40.92395	-91.39365
356737	-7	-3	-1	-0.1233758	-0.1811546	-49.34132	0	11.4	4003	0	0	5	5	0.03970127	-0.3001368	6	10	0.03	2000	-3.418915	40.92395	-91.39365
356824	-8	0	6	-0.1233614	-0.1876293	-49.34394	0	11.4	4003	0	0	5	5	0.03789299	-0.3064097	6	10	0.03	2000	-3.183167	40.92395	-91.39365
356926	-9	0	2	-0.1228117	-0.1859207	-49.34797	0	11.4	4003	0	0	5	5	0.03860909	-0.3170535	6	10	0.03	2000	-3.18219	40.92395	-91.39365
357053	0	0	4	-0.1138457	-0.182233	-49.35169	0	11.4	4004	0	0	5	5	0.03897557	-0.3150874	6	10	0.03	2000	-3.18335	40.92395	-91.39365
357121	-11	-2	5	-0.1102411	-0.1892728	-49.35584	0	11.4	4003	0	0	5	5	0.03908877	-0.3087472	6	10	0.03	2000	-3.4263	40.92395	-91.39365
357283	-4	-3	0	-0.1020932	-0.1945062	-49.35871	0	11.4	4003	0	0	5	5	0.03944013	-0.2944573	6	10	0.03	2000	-3.217163	40.92395	-91.39365
357474	-3	-2	3	-0.09808732	-0.1927614	-49.36555	0	11.34	4004	0	0	5	5	0.03922256	-0.2859389	6	10	0.03	2000	-3.220764	40.92395	-91.39365
357547	-10	-4	3	-0.1009302	-0.1938744	-49.36787	0	11.34	4004	0	0	5	5	0.03927511	-0.2921588	6	10	0.03	2000	-3.238678	40.92395	-91.39365
357697	-8	-6	-1	-0.09435856	-0.1902887	-49.37116	0	11.34	4004	0	0	5	5	0.03952597	-0.2948155	6	10	0.03	2000	-3.223969	40.92395	-91.39365
357792	-6	-2	4	-0.09657653	-0.1917941	-49.37464	0	11.34	4004	0	0	5	5	0.03958841	-0.2986668	6	10	0.03	2000	-3.248138	40.92395	-91.39365
357893	-14	0	-2	-0.1019915	-0.1911047	-49.37708	0	11.34	4004	0	0	5	5	0.0398284	-0.2998503	6	10	0.03	2000	-3.451416	40.92395	-91.39365
357982	-6	0	3	-0.1016066	-0.1892882	-49.37971	0	11.34	4002	0	0	5	5	0.04000336	-0.2945273	6	10	0.03	2000	-3.22821	40.92395	-91.39365
358048	-10	-2	0	-0.09589227	-0.1937468	-49.3802	0	11.34	4002	0	0	5	5	0.04009278	-0.2915769	6	10	0.03	2000	-3.223633	40.92395	-91.39365
358120	-10	0	2	-0.09618068	-0.1932687	-49.3827	0	11.34	4003	0	0	5	5	0.04016521	-0.2889517	6	10	0.03	2000	-3.21875	40.92395	-91.39365
358225	-11	0	2	-0.08696239	-0.1886313	-49.38575	0	11.4	4003	0	0	5	5	0.04007739	-0.2864044	6	10	0.03	2000	-3.485321	40.92395	-91.39365
358358	-3	5	-3	-0.07732392	-0.185252	-49.38856	0	11.4	4004	0	0	5	5	0.04004595	-0.287935	6	10	0.03	2000	-3.257813	40.92395	-91.39365
358482	-18	-5	0	-0.08087048	-0.1876804	-49.39118	0	11.4	4002	0	0	5	5	0.0397284	-0.2847923	6	10	0.03	2000	-3.493652	40.92395	-91.39365
358632	-11	1	3	-0.08245818	-0.1903004	-49.39759	0	11.4	4003	0	0	5	5	0.03901124	-0.2728187	6	10	0.03	2000	-3.24469	40.92395	-91.39365
358706	-6	0	0	-0.07699011	-0.1899304	-49.39906	0	11.4	4003	0	0	5	5	0.03928917	-0.2684233	6	10	0.03	2000	-3.748077	40.92395	-91.39365
358788	-8	4	0	-0.07561397	-0.1876984	-49.40113	0	11.4	4003	0	0	5	5	0.03914549	-0.26576	6	10	0.03	2000	-3.494263	40.92395	-91.39365
358919	-3	2	0	-0.07878206	-0.1917701	-49.40406	0	11.4	4003	0	0	5	5	0.03960237	-0.2798325	6	10	0.03	2000	-3.258148	40.92395	-91.39365
358951	-15	0	2	-0.07930158	-0.1920494	-49.40485	0	11.4	4004	0	0	5	5	0.03968953	-0.2877645	6	10	0.03	2000	-3.258148	40.92395	-91.39365
359038	-9	-4	3	-0.08281797	-0.1884739	-49.409	0	11.4	4003	0	0	5	5	0.03983858	-0.2945133	6	10	0.03	2000	-3.246765	40.92395	-91.39365
359146	-10	-3	-2	-0.08173042	-0.1920472	-49.41002	0	11.34	4003	0	0	5	5	0.04001078	-0.3073761	6	10	0.03	2000	-3.498413	40.92395	-91.39365
359204	-10	0	-2	-0.07790787	-0.1894471	-49.41222	0	11.34	4003	0	0	5	5	0.0400571	-0.312523	6	10	0.03	2000	-3.498413	40.92395	-91.39365
359387	-2	-1	5	-0.07814897	-0.1898825	-49.41911	0	11.34	4003	0	0	5	5	0.04020047	-0.3259752	6	10	0.03	2000	-3.503632	40.92395	-91.39365
359491	-4	2	4	-0.07219588	-0.1975452	-49.42284	0	11.34	4004	0	0	5	5	0.04027459	-0.3242782	6	10	0.03	2000	-3.266937	40.92395	-91.39365
359572	-3	0	3	-0.07193109	-0.1969052	-49.42448	0	11.34	4002	0	0	5	5	0.04031248	-0.3252659	6	10	0.03	2000	-3.273895	40.92395	-91.39365
359662	-12	1	2	-0.07551005	-0.190332	-49.4304	0	11.34	4003	0	0	5	5	0.04004218	-0.3314256	6	10	0.03	2000	-3.253723	40.92395	-91.39365
359747	-2	1	-1	-0.07559171	-0.190226	-49.43248	0	11.34	4004	0	0	5	5	0.04012422	-0.3323547	6	10	0.03	2000	-3.506073	40.92395	-91.39365
359879	-2	-6	0	-0.07554907	-0.1845034	-49.4384	0	11.34	4003	0	0	5	5	0.03977975	-0.3333783	6	10	0.03	2000	-3.265533	40.92395	-91.39365
359946	-8	-4	7	-0.07667319	-0.181346	-49.4398	0	11.34	4003	0	0	5	5	0.03991165	-0.3337782	6	10	0.03	2000	-3.263885	40.92395	-91.39365
360160	-4	1	4	-0.07147814	-0.1826357	-49.44768	0	11.4	4003	0	0	5	5	0.03949752	-0.3394263	6	10	0.03	2000	-3.513214	40.92395	-91.39365
360249	-12	0	7	-0.06873748	-0.1859208	-49.45177	0	11.4	4003	0	0	5	5	0.03974127	-0.3421974	6	10	0.03	2000	-3.271881	40.92395	-91.39365
360348	-9	-3	-5	-0.06785978	-0.1817591	-49.45457	0	11.4	4003	0	0	5	5	0.03993984	-0.3422078	6	10	0.03	2000	-3.271667	40.92395	-91.39365
360374	-10	0	2	-0.06499956	-0.184155	-49.46019	0	11.4	4003	0	0	5	5	0.0400846	-0.3394324	6	10	0.03	2000	-3.284393	40.92395	-91.39365
360502	-9	-3	5	-0.06777946	-0.1887361	-49.46397	0	11.4	4004	0	0	5	5	0.04021851	-0.3372872	6	10	0.03	2000	-3.283997	40.92395	-91.39365
360566	0	0	3	-0.06186189	-0.1887361	-49.46397	0	11.4	4002	0	0	5	5	0.04024406	-0.3370439	6	10	0.03	2000	-3.283997	40.92395	-91.39365
360716	-17	3	3	-0.05930708	-0.1891961	-49.46971	0	11.4	4003	0	0	5	5	0.0403518	-0.3540476	6	10	0.03	2000	-3.522339	40.92395	-91.39365
360836	-5	2	5	-0.05771849	-0.1927986	-49.47466	0	11.4	4004	0	0	5	5	0.03549717	-0.3697898	6	10	0.03	2000	-3.295776	40.92395	-91.39365
360977	-9	-4	0	-0.05734604	-0.1891813	-49.47978	0	11.4	4003	0	0	5	5	0.03700819	-0.3861651	6	10	0.03	2000	-3.299561	40.92395	-91.39364
361048	-5	1	0	-0.05539982	-0.1894703	-49.48253	0	11.4	4003	0	0	5	5	0.03766669	-0.3851629	6	10	0.03	2000	-3.532043	40.92395	-91.39364
361127	-7	2	0	-0.05474736	-0.1950818	-49.48528	0	11.4	4003	0	0	5	5	0.03713678	-0.3809076	6	10	0.03	2000	-3.532043	40.92395	-91.39364
361227	1	-6	0	-0.0525387	-0.1948752	-49.489	0	11.4	4002	0	0	5	5	0.03717989	-0.3791724	6	10	0.03	2000	-3.532532	40.92395	-91.39364
361349	-7	3	4	-0.05106341	-0.1994008	-49.49474	0	11.4	4004	0	0	5	5	0.03796082	-0.3759974	6	10	0.03	2000	-3.295868	40.92395	-91.39364
361408	0	0	1	-0.04956862	-0.2002926	-49.49486	0	11.4	4004	0	0	5	5	0.03843832	-0.3760585	6	10	0.03	2000	-3.295868	40.92395	-91.39364
361551	-4	-2	1	-0.04905053	-0.2009908	-49.4995	0	11.4	4003	0	0	5	5	0.03880376	-0.3852686	6	10	0.03	2000	-3.299225	40.92395	-91.39364
361650	-6	-4	5	-0.04717898	-0.1976265	-49.50175	0	11.4	4004	0	0	5	5	0.03893055	-0.382814	6	10	0.03	2000	-3.561279	40.92395	-91.39364
361704	-6	0	0	-0.04813429	-0.1962403	-49.50682	0	11.4	4004	0	0	5	5	0.03891339	-0.3803963	6	10	0.03	2000	-3.57666	40.92395	-91.39364
361815	-7	-4	-3	-0.05008615	-0.1972222	-49.51054	0	11.4	4003	0	0	5	5	0.03910072	-0.3662673	6	10	0.03	2000	-3.057983	40.92395	-91.39364
361891	-5	4	3	-0.05073645	-0.201218	-49.51311	0	11.4	4004	0	0	5	5	0.03936164	-0.3596357	6	10	0.03	2000	-3.55423	40.92395	-91.39364
362069	1	4	-2	-0.04478553	-0.2026277	-49.51634	0	11.4	4004	0	0	5	5	0.03961137	-0.3436536	6	10	0.03	2000	-3.579071	40.92395	-91.39364
362114	-2	-2	2	-0.03996379	-0.1995637	-49.52165	0	11.4	4002	0	0	5	5	0.03959005	-0.3440322	6	10	0.03	2000	-3.326202	40.92395	-91.39364
362200	-1	0	8	-0.0323554	-0.1960426	-49.52556	0	11.4	4002	0	0	5	5	0.039758	-0.3444695	6	10	0.03	2000	-3.576843	40.92395	-91.39364
362294	-4	-4	3	-0.03184358	-0.195153	-49.52733	0	11.4	4004	0	0	5	5	0.03995203	-0.343908	6	10	0.03	2000	-3.344513	40.92395	-91.39364
362442	2	0	5	-0.03177113	-0.2050831	-49.53252	0	11.4	4003	0	0	5	5	0.04013153	-0.3394549	6	10	0.03	2000	-3.598877	40.92395	-91.39364
362526	-1	0	3	-0.0297051	-0.2054083	-49.53355	0	11.4	4003	0	0	5	5	0.04022434	-0.3307259	6	10	0.03	2000	-3.589142	40.92395	-91.39364
362707	-9	-2	0	-0.0213299	-0.2002085	-49.53722	0	11.34	4002	0	0	5	5	0.04034132	-0.317852	6	10	0.03	2000	-3.350677	40.92395	-91.39364
362777	-6	-3	2	-0.01958393	-0.2009721	-49.53954	0	11.34	4003	0	0	5	5	0.03802041	-0.3193241	6	10	0.03	2000	-3.362335	40.92395	-91.39364
362840	3	3	2	-0.01478243	-0.2110714	-49.54259	0	11.34	4003	0	0	5	5	0.03848659	-0.318739	6	10	0.03	2000	-3.374817	40.92395	-91.39364
362907	0	0	6	-0.02089402	-0.2056385	-49.54533	0	11.34	4004	0	0	5	5	0.03830831	-0.3200398	6	10	0.03	2000	-3.607605	40.92395	-91.39364
363102	-7	-2	5	-0.02123499	-0.2000944	-49.54906	0	11.34	4003	0	0	5	5	0.03905309	-0.3203252	3	10	0.03	2000	-3.595886	40.92395	-91.39364
363146	4	-2	5	-0.01830159	-0.201066	-49.55235	0	11.34	4003	0	0	5	5	0.03943815	-0.3161076	3	10	0.03	2000	-3.121063	40.92395	-91.39364
363238	-10	0	5	-0.01647241	-0.2003372	-49.554	0	11.34	4004	0	0	5	5	0.03963496	-0.314047	3	10	0.03	2000	-3.355957	40.92395	-91.39364
363306	3	-3	5	-0.01881711	-0.2038323	-49.55577	0	11.34	4002	0	0	5	5	0.03979438	-0.3137297	3	10	0.03	2000	-3.365417	40.92395	-91.39364
363435	-3	-4	5	-0.02032118	-0.20148	-49.5587	0	11.34	4002	0	0	5	5	0.0400281	-0.3169589	3	10	0.03	2000	-3.369202	40.92395	-91.39364
363579	-5	0	1	-0.0154833	-0.1970946	-49.56371	0	11.4	4003	0	0	5	5	0.04018144	-0.3238577	3	10	0.03	2000	-3.609924	40.92395	-91.39364
363684	-4	-3	3	-0.01909894	-0.2024412	-49.56718	0	11.4	4008	0	0	5	5	0.04026072	-0.332468	3	10	0.03	2000	-3.38446	40.92395	-91.39364
363727	6	-2	8	-0.0208089	-0.2041479	-49.56902	0	11.4	4002	0	0	5	5	0.04031852	-0.3391987	1	10	0.03	2000	-3.38446	40.92395	-91.39364
363843	-4	1	6	-0.01116556	-0.2049068	-49.57243	0	11.4	4004	0	0	5	5	0.04036066	-0.3445707	1	10	0.03	2000	-3.636414	40.92395	-91.39364
363893	-4	-2	-1	-0.01125744	-0.2064034	-49.57475	0	11.4	4003	0	0	5	5	0.04039137	-0.3497941	1	10	0.03	2000	-3.625763	40.92395	-91.39364
364027	0	1	0	-0.004292779	-0.2023263	-49.57738	0	11.4	4002	0	0	5	5	0.04041376	-0.3505647	1	10	0.03	2000	-3.378937	40.92395	-91.39364
364087	0	-2	2	0.005046943	-0.1999741	-49.5808	0	11.4	4002	0	0	5	5	0.04041979	-0.3543103	1	10	0.03	2000	-3.39151	40.92395	-91.39364
364193	0	-4	-1	0.007818923	-0.202261	-49.58202	0	11.4	4004	0	0	5	5	0.04043843	-0.3597994	1	10	0.03	2000	-3.413086	40.92395	-91.39364
364311	-3	4	0	0.007236606	-0.2049137	-49.58318	0	11.4	4003	0	0	5	5	0.04044807	-0.3621262	1	10	0.03	2000	-3.420074	40.92395	-91.39364
364389	0	0	-2	0.009054754	-0.2036385	-49.58391	0	11.29	4004	0	0	5	5	0.0404551	-0.3640054	1	10	0.03	2000	-3.671906	40.92395	-91.39364
364492	-7	0	5	0.00380498	-0.2051356	-49.58519	0	11.29	4003	0	0	5	5	0.04046022	-0.369223	1	10	0.03	2000	-3.661469	40.92395	-91.39364
364601	0	-1	-2	0.0004762933	-0.2020772	-49.58916	0	11.29	4003	0	0	5	5	0.04046395	-0.3726462	3	10	0.03	2000	-3.397827	40.92395	-91.39364
364686	-7	-2	1	0.009672903	-0.2040113	-49.58952	0	11.29	4003	0	0	5	5	0.04046668	-0.3791386	3	10	0.03	2000	-3.66156	40.92395	-91.39364
364816	-5	-1	2	0.01211372	-0.2105877	-49.59416	0	11.29	4004	0	0	5	5	0.0404692	-0.3855129	3	10	0.03	2000	-3.425934	40.92395	-91.39364
364958	0	0	2	0.01466763	-0.2138674	-49.5955	0	11.29	4003	0	0	5	5	0.04047085	-0.3877375	3	10	0.03	2000	-3.653503	40.92395	-91.39364
365005	-5	0	1	0.01695923	-0.2147643	-49.59605	0	11.29	4004	0	0	5	5	0.04047116	-0.3872672	3	10	0.03	2000	-3.415588	40.92395	-91.39364
365123	-2	-1	0	0.01556947	-0.2149677	-49.59862	0	11.29	4002	0	0	5	5	0.04047214	-0.3856497	3	10	0.03	2000	-3.914642	40.92395	-91.39364
365194	5	0	2	0.01363369	-0.2186168	-49.60167	0	11.29	4003	0	0	5	5	0.04047249	-0.3819107	3	10	0.03	2000	-3.653687	40.92395	-91.39364
365302	-3	0	1	0.02012686	-0.2168425	-49.60704	0	11.4	4003	0	0	5	5	0.0404729	-0.3754239	3	10	0.03	2000	-3.438721	40.92395	-91.39364
365438	-6	-3	0	0.01382166	-0.2118827	-49.61003	0	11.4	4003	0	0	5	5	0.04047327	-0.368165	3	10	0.03	2000	-3.412048	40.92395	-91.39364
365502	1	3	0	0.01377719	-0.2101997	-49.61131	0	11.4	4004	0	0	5	5	0.04047347	-0.3624118	3	10	0.03	2000	-3.412048	40.92395	-91.39364
365708	-6	-5	1	0.02085176	-0.2096252	-49.61656	0	11.4	4003	0	0	5	5	0.04047368	-0.3596951	3	10	0.03	2000	-3.420929	40.92395	-91.39364
365845	1	0	5	0.02001074	-0.2071781	-49.61913	0	11.4	4004	0	0	5	5	0.04047381	-0.3609855	3	10	0.03	2000	-3.424011	40.92395	-91.39364
365902	0	0	5	0.02328784	-0.2062261	-49.62047	0	11.4	4003	0	0	5	5	0.04047383	-0.362056	3	10	0.03	2000	-3.42923	40.92395	-91.39364
366021	1	3	-2	0.02700287	-0.214774	-49.62224	0	11.4	4004	0	0	5	5	0.04047389	-0.3604674	3	10	0.03	2000	-3.436554	40.92395	-91.39364
366109	0	-5	0	0.02961319	-0.2114821	-49.62358	0	11.4	4003	0	0	5	5	0.04047392	-0.3593453	3	10	0.03	2000	-3.436554	40.92395	-91.39364
366202	-8	-6	0	0.04125647	-0.2149958	-49.6248	0	11.34	4004	0	0	5	5	0.04047394	-0.3616089	3	10	0.03	2000	-3.457214	40.92395	-91.39364
366303	0	-3	3	0.03823628	-0.2092462	-49.62608	0	11.34	4004	0	0	5	5	0.04047395	-0.3649141	3	10	0.03	2000	-3.490173	40.92395	-91.39364
366471	0	-1	2	0.03849748	-0.2072786	-49.63042	0	11.34	4003	0	0	5	5	0.04047397	-0.3621709	3	10	0.03	2000	-3.69577	40.92395	-91.39364
366510	-6	0	-1	0.03668449	-0.2077662	-49.63078	0	11.34	4003	0	0	5	5	0.04047398	-0.3612272	3	10	0.03	2000	-3.69577	40.92395	-91.39364
366606	-1	-2	4	0.0270577	-0.2071318	-49.63341	0	11.34	4003	0	0	5	5	0.04047398	-0.3625876	3	10	0.03	2000	-3.453033	40.92395	-91.39364
366786	0	-4	-1	0.02589842	-0.2046299	-49.64	0	11.34	4004	0	0	5	5	0.04047398	-0.3674681	3	10	0.03	2000	-3.685638	40.92395	-91.39364
366829	-4	-1	0	0.03368144	-0.20298	-49.64195	0	11.34	4003	0	0	5	5	0.04047398	-0.3671871	3	10	0.03	2000	-3.216278	40.92395	-91.39364
366945	0	-5	1	0.04348669	-0.2027843	-49.64488	0	11.34	4004	0	0	5	5	0.04047398	-0.3627297	3	10	0.03	2000	-3.71814	40.92395	-91.39364
367014	4	0	0	0.04501121	-0.2032408	-49.64598	0	11.34	4004	0	0	5	5	0.04047398	-0.3612323	3	10	0.03	2000	-3.71814	40.92395	-91.39364
367142	2	-4	3	0.04163722	-0.2013069	-49.64848	0	11.34	4003	0	0	5	5	0.04047398	-0.356746	3	10	0.03	2000	-3.478119	40.92395	-91.39364
367215	-4	1	1	0.04435789	-0.2013378	-49.64879	0	11.34	4002	0	0	5	5	0.04047398	-0.3543619	3	10	0.03	2000	-3.480103	40.92395	-91.39364
367387	-1	-7	0	0.0449227	-0.2077056	-49.65111	0	11.34	4003	0	0	5	5	0.04047398	-0.3547275	3	10	0.03	2000	-3.481903	40.92395	-91.39364
367438	1	5	-2	0.04531255	-0.19566	-49.6505	0	11.34	4003	0	0	5	5	0.04047398	-0.3538193	3	10	0.03	2000	-3.96051	40.92395	-91.39364
367524	-1	-2	0	0.04074216	-0.1980074	-49.65202	0	11.34	4002	0	0	5	5	0.04047398	-0.3459495	3	10	0.03	2000	-3.722137	40.92395	-91.39364
367636	3	0	0	0.04289468	-0.1987142	-49.65587	0	11.34	4002	0	0	5	5	0.04047398	-0.3366678	3	10	0.03	2000	-3.707489	40.92395	-91.39364
367784	2	0	4	0.04731454	-0.2046938	-49.66032	0	11.34	4003	0	0	5	5	0.04047398	-0.3347006	3	10	0.03	2000	-3.487976	40.92395	-91.39364
367871	6	-5	3	0.04586867	-0.2040892	-49.66118	0	11.34	4004	0	0	5	5	0.04047398	-0.3265104	3	10	0.03	2000	-3.487976	40.92395	-91.39364
368018	3	-15	6	0.04164373	-0.2032907	-49.66405	0	11.34	4004	0	0	5	5	0.04047398	-0.3136618	3	10	0.03	2000	-3.709625	40.92395	-91.39364
368073	12	-12	28	0.04853895	-0.2033818	-49.66447	0	11.46	4002	0	0	5	5	0.04047398	-0.3098608	3	10	0.03	2000	-3.709625	40.92395	-91.39364
368126	20	-11	-132	0.02062341	-0.191969	-49.65842	0	11.46	4002	0	0	5	5	0.04047398	-0.3039277	3	10	0.03	2000	-4.029572	40.92395	-91.39364
368213	4	29	119	0.03405566	-0.1970595	-49.67127	0	11.46	4004	0	0	5	5	0.04047398	-0.2986718	3	10	0.03	2000	-4.099243	40.92395	-91.39364
368361	0	99	-77	0.0670238	-0.212534	-49.67066	0	11.46	4003	0	0	5	5	0.04047398	-0.2960098	3	10	0.03	2000	-4.075439	40.92395	-91.39364
368473	-8	-90	89	0.08309193	-0.1999573	-49.68375	0	11.46	4004	0	0	5	5	0.04047398	-0.2953491	3	10	0.03	2000	-4.051575	40.92395	-91.39364
368514	57	-89	102	0.06998342	-0.2029922	-49.68657	0	11.46	4003	0	0	5	5	0.04047398	-0.2959453	3	10	0.03	2000	-4.051575	40.92395	-91.39364
368647	-119	-10	-169	0.1291908	-0.232401	-49.68507	0	11.46	4004	0	0	5	5	0.04047398	-0.2971339	3	10	0.03	2000	-4.000916	40.92395	-91.39364
368748	-91	-36	-181	0.08867855	-0.2425299	-49.68795	0	11.46	4002	0	0	5	5	0.04047398	-0.2958479	3	10	0.03	2000	-4.068542	40.92395	-91.39364
368830	-26	76	96	0.1321743	-0.2185778	-49.68941	0	11.46	4002	0	0	5	5	0.04047398	-0.2980652	3	10	0.03	2000	-4.041077	40.92395	-91.39364
368982	74	47	-48	0.1209004	-0.2386933	-49.68415	0	11.4	4004	0	0	5	5	0.04047398	-0.2965859	3	10	0.03	2000	-3.09317	40.92395	-91.39364
369029	-28	-11	36	0.1058349	-0.2277564	-49.69772	0	11.4	4002	0	0	5	5	0.04047398	-0.294942	3	10	0.03	2000	-3.09317	40.92395	-91.39364
369141	0	60	-148	0.1304425	-0.2474947	-49.68476	0	11.4	4004	0	0	5	5	0.04047398	-0.2930359	3	10	0.03	2000	-4.222931	40.92395	-91.39364
369235	-92	-21	-5	0.1296658	-0.2097672	-49.68649	0	11.4	4003	0	0	5	5	0.04047398	-0.2843884	3	10	0.03	2000	-3.972443	40.92395	-91.39364
369394	85	-68	206	0.112245	-0.1416322	-49.7115	0	11.4	4004	0	0	5	5	0.04047398	-0.2648052	3	10	0.03	2000	-4.085144	40.92395	-91.39364
369528	153	59	-80	0.1165395	-0.150225	-49.71943	0	11.4	4004	0	0	5	5	0.04047398	-0.2434852	3	10	0.03	2000	-4.162201	40.92395	-91.39364
369674	70	-119	195	0.04917655	-0.0746007	-49.73529	0	11.4	4003	0	0	5	5	0.04047398	-0.2280319	3	10	0.03	2000	-3.778473	40.92395	-91.39364
369790	89	29	116	0.07865583	-0.08431551	-49.7113	0	11.4	4003	0	0	5	5	0.04047398	-0.2108194	3	10	0.03	2000	-3.58847	40.92395	-91.39364
369832	-91	16	-133	0.04132846	-0.06343936	-49.70894	0	11.4	4003	0	0	5	5	0.04047398	-0.207213	3	10	0.03	2000	-4.451202	40.92395	-91.39364
370005	38	103	-73	0.03343412	-0.037165	-49.72081	0	10.94	4002	0	0	5	5	0.04047398	-0.1803577	3	10	0.03	2000	-3.937622	40.92395	-91.39364
370151	-62	-47	-92	0.007973235	-0.04443947	-49.74974	0	10.94	4004	0	0	5	5	0.04047398	-0.1667726	3	10	0.03	2000	-3.985046	40.92395	-91.39364
370268	45	-144	121	-0.061407	-0.02060908	-49.7603	0	10.94	4003	0	0	5	5	0.04047398	-0.153327	3	10	0.03	2000	-3.806488	40.92395	-91.39364
370322	-52	17	-119	-0.01791131	-0.04912617	-49.75717	0	10.94	4002	0	0	5	5	0.04047398	-0.1517303	3	10	0.03	2000	-3.289703	40.92395	-91.39364
370456	11	-17	41	-0.003855092	-0.0306792	-49.776	0	10.94	4003	0	0	5	5	0.04047398	-0.1434706	3	10	0.03	2000	-3.875214	40.92395	-91.39364
370525	26	-113	65	-0.05361018	0.02840499	-49.76873	0	10.94	4004	0	0	5	5	0.04047398	-0.141229	3	10	0.03	2000	-4.164063	40.92395	-91.39364
370627	-66	15	-192	0.03211881	-0.05131388	-49.77362	0	10.94	4003	0	0	5	5	0.04047398	-0.1358772	3	10	0.03	2000	-3.115479	40.92395	-91.39364
370741	-53	73	-297	0.1059822	-0.06270327	-49.77135	0	10.94	4003	0	0	5	5	0.04047398	-0.1348255	3	10	0.03	2000	-3.184357	40.92395	-91.39364
370926	-63	80	122	0.1354163	-0.2226686	-49.75459	0	10.89	4004	0	0	5	5	0.04047398	-0.1276334	3	10	0.03	2000	-3.961212	40.92395	-91.39364
370961	-82	36	-127	0.110866	-0.2633004	-49.75856	0	10.89	4002	0	0	5	5	0.04047398	-0.1260361	3	10	0.03	2000	-3.938232	40.92395	-91.39364
371022	-22	-85	-289	0.02397504	-0.1925105	-49.764	0	10.89	4002	0	0	5	5	0.04047398	-0.1201489	3	10	0.03	2000	-3.93811	40.92395	-91.39364
371142	-164	74	251	0.04553835	-0.1607654	-49.79202	0	10.89	4002	0	0	5	5	0.04047398	-0.1190838	3	10	0.03	2000	-3.865234	40.92395	-91.39364
371227	29	-127	148	0.07811496	-0.2783729	-49.8134	0	10.89	4002	0	0	5	5	0.04047398	-0.1169153	3	10	0.03	2000	-3.800659	40.92395	-91.39364
371370	52	-32	198	0.0230959	-0.1835741	-49.85754	0	10.89	4004	0	0	5	5	0.04047398	-0.1039758	3	10	0.03	2000	-4.070709	40.92395	-91.39364
371451	140	-44	-610	0.01364685	-0.203244	-49.85809	0	10.89	4004	0	0	5	5	0.04047398	-0.09989583	3	10	0.03	2000	-4.042023	40.92395	-91.39364
371544	-276	18	438	-0.03873339	-0.08228388	-49.89405	0	10.89	4002	0	0	5	5	0.04047398	-0.09781054	3	10	0.03	2000	-3.589081	40.92395	-91.39364
371640	-156	-163	-341	-0.03206263	-0.02470983	-49.82333	0	10.89	4002	0	0	5	5	0.04047398	-0.09452975	3	10	0.03	2000	-3.818268	40.92395	-91.39364
371887	101	-207	-723	-0.008254972	-0.002332507	-49.70395	0	10.32	4004	0	0	5	5	0.04047398	-0.09294255	3	10	0.03	2000	-3.93219	40.92395	-91.39364
371971	-47	-234	-120	0.0614242	0.1192835	-49.69448	0	10.32	4002	0	0	5	5	0.04047398	-0.08260236	3	10	0.03	2000	-4.914917	40.92395	-91.39364
372038	-47	-234	-120	0.0614242	0.1192835	-49.69448	0	10.32	4002	0	0	5	5	0.04047398	-0.07212928	3	10	0.03	2000	-4.914917	40.92395	-91.39364
372155	-233	-309	-27	0.08479685	0.1034837	-49.70588	0	10.32	4003	0	0	5	5	0.04047398	-0.05651212	3	10	0.03	2000	-4.300446	40.92395	-91.39364
372273	-336	-64	283	0.1804561	0.05994227	-49.74718	0	10.32	4002	0	0	5	5	0.04047398	-0.04976455	3	10	0.03	2000	-3.359131	40.92395	-91.39364
372366	165	11	-159	-0.01734702	0.122084	-49.73309	0	10.32	4003	0	0	5	5	0.04047398	-0.04858626	3	10	0.03	2000	-2.902466	40.92395	-91.39364
372439	107	292	148	-0.1480379	-0.05645987	-49.75438	0	10.32	4004	0	0	5	5	0.04047398	-0.05110288	3	10	0.03	2000	-3.958588	40.92395	-91.39364
372561	244	152	-536	-0.02329614	0.02666008	-49.72499	0	10.32	4002	0	0	5	5	0.04047398	-0.05374276	3	10	0.03	2000	-3.872894	40.92395	-91.39364
372683	51	-232	-1122	0.06886793	0.1393125	-49.76984	0	11	4004	0	0	5	5	0.02	-0.054189	6	10	0.03	2000	-3.850037	40.92395	-91.39364
372746	-103	90	171	0.07622074	0.4354769	-50.02676	0	11	4004	0	0	5	5	0.02565135	-0.05769915	6	10	0.03	2000	-4.106384	40.92395	-91.39364
372907	295	-88	25	0.1753245	0.3441021	-50.25045	0	11	4002	0	0	5	5	0.03260164	-0.06575324	6	10	0.03	2000	-4.697662	40.92395	-91.39364
372952	134	72	297	0.05132369	0.3926542	-50.36378	0	11	4003	0	0	5	5	0.03598732	-0.07112509	6	10	0.03	2000	-3.617828	40.92395	-91.39364
373138	572	-1031	48	-0.06709684	2.859026	-50.57101	0	11	4003	0	0	5	5	0.03978401	-0.08187965	6	10	0.03	2000	-3.928558	40.92395	-91.39364
373183	964	-138	427	0.1394796	3.168633	-50.62664	0	11	4003	0	0	5	5	0.04186335	-0.09067185	6	10	0.03	2000	-4.357056	40.92395	-91.39364
373292	-986	2440	-398	-0.006916912	1.015241	-50.61736	0	11	4004	0	0	5	5	0.0474835	-0.09245931	6	10	0.03	2000	-1.634277	40.92395	-91.39364
373407	-573	2688	884	-0.8464321	-3.224785	-49.64476	0	11	4003	0	0	5	5	0.0504131	-0.08126216	6	10	0.03	2000	-3.46405	40.92395	-91.39364
373494	-2258	3434	152	-2.790249	-6.316604	-49.7861	0	11	4003	0	0	5	5	0.05256521	-0.07708667	6	10	0.03	2000	-0.8330688	40.92395	-91.39364
373651	-697	-3554	-200	-1.019409	-5.929174	-48.17117	0	11.23	4004	0	0	5	5	0.06585166	-0.05125231	6	10	0.03	2000	-3.91452	40.92395	-91.39364
373777	720	1278	-300	-2.679074	-4.65459	-48.51058	0	11.23	4003	0	0	5	5	0.07958038	-0.04882996	6	10	0.03	2000	-5.079926	40.92395	-91.39364
373865	724	-1309	778	-1.543636	-3.982476	-49.34729	0	11.23	4004	0	0	5	5	0.1044879	-0.04484989	6	10	0.03	2000	-5.136963	40.92395	-91.39364
373936	-801	541	1674	-1.763139	-2.634247	-49.94909	0	11.23	4002	0	0	5	5	0.1225641	-0.03685979	6	10	0.03	2000	-2.264374	40.92395	-91.39364
374129	-4904	1043	1116	-2.015939	-2.784837	-49.72164	0	11.23	4004	300	0	5	5	0.2021267	-0.01272432	8	10	0.03	2000	-7.400391	40.92395	-91.39364
374160	-8844	-182	-1249	-5.673944	-3.547528	-49.84538	0	11.23	4003	300	0	5	5	0.2409491	0.00214914	8	10	0.03	2000	-7.400391	40.92395	-91.39364
374330	-4094	-639	1357	-12.08353	-2.541218	-49.21084	0	11.23	4004	300	0	5	5	0.2978666	0.0396668	8	10	0.03	2000	-13.11743	40.92395	-91.39364
374387	-2883	736	190	-14.7581	-2.26177	-49.39752	0	11.23	4003	300	0	5	5	0.327294	0.06142674	8	10	0.03	2000	-15.35431	40.92395	-91.39364
374482	-2298	-586	-1339	-16.76267	-2.551938	-49.23428	0	9.7	4002	30	0	5	5	0.3487466	0.08766641	8	10	0.03	2000	-20.77271	40.92395	-91.39364
374545	4914	-2054	-336	-12.31421	-2.215929	-47.81702	0	9.7	4003	0	0	5	5	0.3597112	0.1137894	8	10	0.03	2000	-21.1022	40.92395	-91.39364
374643	3503	1286	2148	-5.874671	-3.175503	-48.4333	0	9.7	4003	0	0	5	5	0.3757864	0.1817653	8	10	0.03	2000	-28.64075	40.92395	-91.39364
374694	5015	1479	1784	-1.20066	-4.430521	-49.54425	0	9.7	4003	0	0	5	5	0.3788532	0.1952882	8	10	0.03	2000	-23.75354	40.92395	-91.39364
374846	3303	1092	-464	12.62602	-6.879025	-49.59984	0	9.7	4002	-9	0	5	5	0.3901564	0.3273751	8	10	0.03	2000	-21.73895	40.92395	-91.39365
374900	4886	1548	-799	13.68693	-7.43717	-49.38974	0	9.7	4004	-9	0	5	5	0.3917863	0.3471793	8	10	0.03	2000	-15.96832	40.92395	-91.39365
375028	2788	1799	-1948	17.75559	-10.55716	-49.39208	0	9.7	4011	-10	0	5	5	0.3977932	0.4736597	8	10	0.03	2000	-6.358032	40.92395	-91.39365
375154	-1838	-1257	468	17.18075	-11.07914	-49.33536	0	9.7	4003	-10	0	5	5	0.4001406	0.5413466	8	10	0.03	2000	-1.443665	40.92395	-91.39365
375202	-2187	-163	-430	11.62544	-9.888372	-49.22434	0	9.7	4004	-11	0	5	5	0.400772	0.5741454	8	10	0.03	2000	2.47713	40.92395	-91.39365
375438	-1400	-1795	782	4.534564	-7.688131	-48.95548	0	10.49	4004	-21	0	5	5	0.4037369	0.7359063	8	10	0.03	2000	7.734635	40.92395	-91.39365
375562	-80	-293	1270	4.138741	-4.303477	-49.77294	0	10.49	4004	-22	0	5	5	0.40485	0.8380489	8	10	0.03	2000	8.898497	40.92395	-91.39365
375605	-818	-404	1538	3.764485	-3.8897	-49.98787	0	10.49	4002	-26	0	5	5	0.4050105	0.8732322	8	10	0.03	2000	8.912148	40.92395	-91.39365
375784	-5298	1579	2314	-4.074589	-2.543577	-49.51043	0	10.49	4003	-25	0	5	5	0.4055072	0.9868264	8	10	0.03	2000	11.84154	40.92395	-91.39365
375835	-4804	134	493	-6.715426	-2.89348	-49.69693	0	10.49	4003	-25	0	5	5	0.4056873	1.042675	8	10	0.03	2000	11.84154	40.92395	-91.39365
375947	2673	471	253	-6.37756	-4.617224	-49.86325	0	10.49	4003	-26	0	5	5	0.4058953	1.11685	8	10	0.03	2000	7.543962	40.92395	-91.39365
376028	1420	-274	424	-3.420207	-4.182259	-49.97143	0	10.49	4002	-27	0	5	5	0.4060878	1.224631	8	10	0.03	2000	5.736302	40.92395	-91.39365
