time(ms)	gyro_x(deg/s)	gyro_y(deg/s)	gyro_z(deg/s)	orientation_roll(deg)	orientation_pitch(deg)	orientation_yaw(deg)	throttle	battery(V)	loop_time(uS)	pid_output_roll	pid_output_pitch	pid_output_yaw	pid_output_throttle	ultrasonic_alt	baro_alt	flight_mode	p_gain_altitude	i_gain_altitude	d_gain_altitude	compass_heading	latitude	longitude
187522	-62	1	7	-1.014308	0.4368472	-20.38503	0	11.68	4002	0	0	5	5	1.073932	-0.3107687	3	10	0.03	2000	2.432673	40.92394	-91.39363
187630	-68	2	4	-0.9979653	0.450402	-20.40098	0	11.63	4004	0	0	5	5	1.073932	-0.3166756	3	10	0.03	2000	2.41119	40.92394	-91.39363
187694	-59	2	9	-0.9988338	0.4496821	-20.40519	0	11.63	4003	0	0	5	5	1.073932	-0.3223339	3	10	0.03	2000	2.405095	40.92394	-91.39363
187798	-70	-7	7	-0.9919559	0.4540692	-20.4185	0	11.63	4004	0	0	5	5	1.073932	-0.3292848	3	10	0.03	2000	2.406931	40.92394	-91.39363
187913	-63	0	5	-0.9953938	0.4503747	-20.43427	0	11.63	4002	0	0	5	5	1.073932	-0.3357568	3	10	0.03	2000	2.634073	40.92394	-91.39363
188017	-71	-3	8	-0.9919064	0.4507431	-20.44624	0	11.63	4003	0	0	5	5	1.073932	-0.3456339	3	10	0.03	2000	2.400574	40.92394	-91.39363
188146	-65	6	4	-0.9775413	0.458745	-20.46237	0	11.63	4003	0	0	5	5	1.073932	-0.3546682	3	10	0.03	2000	2.627558	40.92394	-91.39363
188218	-66	2	13	-0.972978	0.4630971	-20.47293	0	11.63	4004	0	0	5	5	1.073932	-0.3578615	3	10	0.03	2000	2.602715	40.92394	-91.39363
188328	-61	-1	6	-0.9763404	0.4644307	-20.48277	0	11.63	4003	0	0	5	5	1.073932	-0.3660732	3	10	0.03	2000	2.369708	40.92394	-91.39363
188417	-60	0	2	-0.9758918	0.4599877	-20.4931	0	11.63	4004	0	0	5	5	1.073932	-0.3711452	3	10	0.03	2000	2.349304	40.92394	-91.39363
188581	-66	2	5	-0.9773614	0.467028	-20.51442	0	11.57	4003	0	0	5	5	0.1073933	-0.3751206	6	10	0.03	2000	2.61257	40.92394	-91.39363
188628	-64	-3	3	-0.977656	0.4667205	-20.51944	0	11.57	4004	0	0	5	5	0.09754612	-0.3741307	6	10	0.03	2000	2.61257	40.92394	-91.39363
188745	-71	-2	8	-0.9753514	0.4653672	-20.53685	0	11.57	4003	0	0	5	5	0.0861695	-0.3769288	6	10	0.03	2000	2.367077	40.92394	-91.39363
188829	-71	2	6	-0.976171	0.4645945	-20.54394	0	11.57	4003	0	0	5	5	0.08035483	-0.3780157	6	10	0.03	2000	2.371583	40.92394	-91.39363
189005	-58	3	8	-0.9605501	0.4692375	-20.5641	0	11.57	4003	0	0	5	5	0.06834878	-0.3719136	6	10	0.03	2000	2.355525	40.92394	-91.39363
189093	-63	-1	7	-0.9598313	0.4628499	-20.57485	0	11.57	4004	0	0	5	5	0.06592005	-0.3706764	6	10	0.03	2000	2.342059	40.92394	-91.39363
189131	-60	-4	3	-0.9588235	0.4643033	-20.5768	0	11.57	4003	0	0	5	5	0.06488464	-0.3686298	6	10	0.03	2000	2.342059	40.92394	-91.39363
189247	-62	5	4	-0.9455678	0.4639541	-20.58603	0	11.57	4002	0	0	5	5	0.06117801	-0.3650571	6	10	0.03	2000	2.559715	40.92394	-91.39363
189381	-58	4	7	-0.9427696	0.457702	-20.60246	0	11.57	4004	0	0	5	5	0.05924804	-0.3626431	3	10	0.03	2000	2.322428	40.92394	-91.39363
189434	-61	-1	5	-0.9446854	0.4581778	-20.60966	0	11.57	4004	0	0	5	5	0.05854845	-0.3622868	3	10	0.03	2000	2.322428	40.92394	-91.39363
189544	-62	2	8	-0.94547	0.454956	-20.62152	0	11.74	4004	0	0	5	5	0.05774021	-0.363002	3	10	0.03	2000	2.325998	40.92394	-91.39363
189641	-59	4	5	-0.941931	0.4579556	-20.63141	0	11.74	4003	0	0	5	5	0.05732711	-0.3611196	3	10	0.03	2000	2.553854	40.92394	-91.39363
189816	-61	4	7	-0.9404359	0.4570437	-20.65397	0	11.74	4003	0	0	5	5	0.05650192	-0.355782	3	10	0.03	2000	2.318485	40.92394	-91.39363
189860	-55	0	4	-0.9348744	0.4604063	-20.66026	0	11.74	4002	0	0	5	5	0.02	-0.354515	6	10	0.03	2000	2.28453	40.92394	-91.39363
189968	-57	0	16	-0.9376248	0.4631388	-20.67414	0	11.74	4003	0	0	5	5	0.03202535	-0.3460305	6	10	0.03	2000	2.297944	40.92394	-91.39363
190056	-60	1	2	-0.9312578	0.4624282	-20.68391	0	11.74	4004	0	0	5	5	0.03614135	-0.3336734	6	10	0.03	2000	2.316614	40.92394	-91.39363
190141	-59	0	3	-0.9288154	0.4605263	-20.68714	0	11.74	4003	0	0	5	5	0.04111217	-0.323791	6	10	0.03	2000	2.29705	40.92394	-91.39363
190285	-54	3	2	-0.9321205	0.4570412	-20.70718	0	11.74	4004	0	0	5	5	0.04608284	-0.3144934	6	10	0.03	2000	2.544074	40.92394	-91.39363
190408	-53	-5	8	-0.924307	0.4587579	-20.72086	0	11.63	4004	0	0	5	5	0.04875431	-0.3060884	6	10	0.03	2000	2.299236	40.92394	-91.39363
190453	-62	2	14	-0.9235283	0.4559864	-20.73009	0	11.63	4004	0	0	5	5	0.04926398	-0.3059197	6	10	0.03	2000	2.518561	40.92394	-91.39363
190556	-59	0	5	-0.9229687	0.4576157	-20.7384	0	11.63	4003	0	0	5	5	0.05083291	-0.3004043	6	10	0.03	2000	2.269011	40.92394	-91.39363
190659	-61	-3	6	-0.9215784	0.457792	-20.7541	0	11.63	4007	0	0	5	5	0.05165081	-0.292878	6	10	0.03	2000	2.518282	40.92394	-91.39363
190775	-64	3	7	-0.9305458	0.4491715	-20.772	0	11.63	4003	0	0	5	5	0.05271183	-0.2851757	6	10	0.03	2000	2.286736	40.92394	-91.39363
190858	-61	-4	8	-0.9267697	0.4440664	-20.77976	0	11.63	4003	0	0	5	5	0.05319204	-0.2810313	6	10	0.03	2000	2.281948	40.92394	-91.39363
190968	-55	5	3	-0.9188252	0.4431756	-20.79345	0	11.63	4004	0	0	5	5	0.0536826	-0.2720519	6	10	0.03	2000	2.534976	40.92394	-91.39363
191055	-61	6	2	-0.9100526	0.4451986	-20.80347	0	11.63	4002	0	0	5	5	0.05364942	-0.2713348	6	10	0.03	2000	2.266379	40.92394	-91.39363
191159	-54	1	8	-0.912797	0.4447321	-20.81514	0	11.63	4004	0	0	5	5	0.05415851	-0.2615212	6	10	0.03	2000	2.030759	40.92394	-91.39363
191254	-52	0	9	-0.9100975	0.4451419	-20.82564	0	11.63	4003	0	0	5	5	0.0531877	-0.2558026	6	10	0.03	2000	2.248409	40.92394	-91.39363
191371	-56	3	5	-0.9031245	0.4439914	-20.84098	0	11.68	4003	0	0	5	5	0.0537998	-0.2530957	6	10	0.03	2000	2.483372	40.92394	-91.39363
191461	-52	0	9	-0.8961422	0.4452371	-20.8488	0	11.68	4004	0	0	5	5	0.05411174	-0.2515182	6	10	0.03	2000	2.480028	40.92394	-91.39363
191537	-52	2	5	-0.8937563	0.4428439	-20.85619	0	11.68	4004	0	0	5	5	0.05418225	-0.2517834	6	10	0.03	2000	2.25133	40.92394	-91.39363
191661	-58	3	4	-0.8902277	0.4391443	-20.86895	0	11.68	4003	0	0	5	5	0.05450809	-0.2555575	6	10	0.03	2000	2.45815	40.92394	-91.39363
191746	-52	-3	10	-0.8898702	0.4433773	-20.87561	0	11.68	4002	0	0	5	5	0.05470909	-0.2566419	6	10	0.03	2000	2.450514	40.92394	-91.39363
191872	-62	1	4	-0.8950186	0.4548858	-20.89045	0	11.68	4003	0	0	5	5	0.05483228	-0.2553807	6	10	0.03	2000	2.230487	40.92394	-91.39363
191992	-56	7	9	-0.8914723	0.4533323	-20.89948	0	11.68	4002	0	0	5	5	0.05473785	-0.2585788	6	10	0.03	2000	2.22823	40.92394	-91.39363
192084	-56	0	6	-0.8921238	0.4482829	-20.90914	0	11.68	4002	0	0	5	5	0.05430578	-0.2606846	6	10	0.03	2000	1.980491	40.92394	-91.39363
192150	-51	0	3	-0.8863612	0.4434313	-20.91604	0	11.68	4003	0	0	5	5	0.0544318	-0.2626177	6	10	0.03	2000	2.223562	40.92394	-91.39363
192249	-57	3	4	-0.8871235	0.4388627	-20.92575	0	11.74	4004	0	0	5	5	0.05415606	-0.2665702	6	10	0.03	2000	2.459866	40.92395	-91.39363
192357	-55	2	9	-0.8892059	0.438116	-20.93742	0	11.74	4003	0	0	5	5	0.05421586	-0.2785551	6	10	0.03	2000	2.221068	40.92395	-91.39363
192570	-60	3	7	-0.8847547	0.4333204	-20.96221	0	11.74	4002	0	0	5	5	0.05424616	-0.2818549	6	10	0.03	2000	2.211009	40.92395	-91.39363
192684	-51	6	7	-0.8839647	0.4323272	-20.97278	0	11.74	4004	0	0	5	5	0.05470005	-0.276121	6	10	0.03	2000	1.977237	40.92395	-91.39363
192762	-56	-1	5	-0.8796098	0.4256883	-20.97858	0	11.74	4002	0	0	5	5	0.05376698	-0.2749068	6	10	0.03	2000	2.451767	40.92395	-91.39363
192866	-45	2	5	-0.8676407	0.428382	-20.98994	0	11.74	4003	0	0	5	5	0.05269646	-0.2784313	6	10	0.03	2000	2.431305	40.92394	-91.39363
193003	-55	-1	7	-0.8684844	0.4320628	-21.00008	0	11.74	4003	0	0	5	5	0.05347411	-0.280715	6	10	0.03	2000	2.189258	40.92394	-91.39363
193072	-50	3	4	-0.8661254	0.4305106	-21.00723	0	11.74	4004	0	0	5	5	0.05354571	-0.2815521	6	10	0.03	2000	1.937627	40.92394	-91.39363
193174	-57	1	3	-0.8673507	0.4266391	-21.01542	0	11.74	4003	0	0	5	5	0.05356704	-0.2872727	6	10	0.03	2000	2.424	40.92394	-91.39363
193279	-56	5	5	-0.8659356	0.426055	-21.02916	0	11.74	4002	0	0	5	5	0.0536097	-0.2911452	6	10	0.03	2000	2.189018	40.92394	-91.39363
193367	-56	2	1	-0.8697396	0.4229323	-21.03636	0	11.74	4003	0	0	5	5	0.05362467	-0.291813	6	10	0.03	2000	2.427125	40.92394	-91.39363
193468	-46	2	5	-0.8666232	0.4288557	-21.0432	0	11.74	4002	0	0	5	5	0.05363733	-0.2919185	6	10	0.03	2000	2.424305	40.92394	-91.39363
193584	-47	-1	3	-0.8575497	0.4325283	-21.05206	0	11.74	4003	0	0	5	5	0.05416	-0.2950358	6	10	0.03	2000	2.422438	40.92394	-91.39363
193676	-58	5	10	-0.8547652	0.4332549	-21.06495	0	11.74	4002	0	0	5	5	0.05045109	-0.2948076	3	10	0.03	2000	2.168513	40.92394	-91.39363
193772	-54	2	4	-0.8556398	0.4349964	-21.07026	0	11.74	4002	0	0	5	5	0.0477473	-0.2950109	3	10	0.03	2000	2.398925	40.92394	-91.39363
193906	-59	2	8	-0.8471735	0.4311339	-21.08644	0	11.74	4003	0	0	5	5	0.04577623	-0.3004739	3	10	0.03	2000	2.163548	40.92394	-91.39363
194031	-56	1	6	-0.8496906	0.4329242	-21.09719	0	11.74	4004	0	0	5	5	0.04360491	-0.3043833	3	10	0.03	2000	2.168214	40.92394	-91.39363
194157	-53	-2	1	-0.8386488	0.4363305	-21.1066	0	11.68	4004	0	0	5	5	0.04275644	-0.2976128	3	10	0.03	2000	2.395028	40.92394	-91.39363
194230	-52	5	4	-0.8350681	0.4355981	-21.11484	0	11.68	4004	0	0	5	5	0.04213789	-0.2881564	3	10	0.03	2000	2.368095	40.92394	-91.39363
194379	-56	-1	5	-0.8264004	0.4416385	-21.13207	0	11.68	4003	0	0	5	5	0.04156568	-0.2726099	3	10	0.03	2000	2.348239	40.92394	-91.39363
194475	-45	2	2	-0.824455	0.4453842	-21.1364	0	11.68	4004	0	0	5	5	0.04126983	-0.2693842	3	10	0.03	2000	2.121544	40.92394	-91.39363
194637	-56	1	7	-0.8194736	0.4412915	-21.15148	0	11.68	4003	0	0	5	5	0.04094393	-0.2828841	3	10	0.03	2000	2.110811	40.92394	-91.39363
194709	-49	3	5	-0.8189241	0.4391627	-21.15692	0	11.68	4003	0	0	5	5	0.04081658	-0.2901415	3	10	0.03	2000	2.103632	40.92394	-91.39363
194788	-45	2	8	-0.8205252	0.4343039	-21.16901	0	11.68	4003	0	0	5	5	0.04075149	-0.2917435	3	10	0.03	2000	2.113833	40.92394	-91.39363
194875	-52	8	8	-0.8239568	0.428083	-21.17494	0	11.68	4002	0	0	5	5	0.04069876	-0.2935562	3	10	0.03	2000	2.352399	40.92394	-91.39363
194983	-51	3	6	-0.822417	0.4293576	-21.18556	0	11.63	4002	0	0	5	5	0.04065606	-0.2930686	3	10	0.03	2000	2.350106	40.92394	-91.39363
195132	-49	1	7	-0.825929	0.424027	-21.19839	0	11.63	4002	0	0	5	5	0.04057075	-0.2675085	3	10	0.03	2000	2.116163	40.92394	-91.39363
195278	-53	5	6	-0.8259695	0.427075	-21.21426	0	11.63	4004	0	0	5	5	0.04053748	-0.2564049	3	10	0.03	2000	2.11461	40.92394	-91.39363
195340	-50	3	1	-0.8208734	0.4269371	-21.21958	0	11.63	4007	0	0	5	5	0.04052542	-0.2514095	3	10	0.03	2000	2.35227	40.92394	-91.39363
195395	-53	1	5	-0.8209777	0.4301834	-21.22306	0	11.63	4002	0	0	5	5	0.04051565	-0.2447	3	10	0.03	2000	2.35227	40.92394	-91.39363
195525	-53	-4	4	-0.8151502	0.4352044	-21.23924	0	11.63	4002	0	0	5	5	0.04050133	-0.2377689	3	10	0.03	2000	2.341361	40.92394	-91.39363
195582	-46	0	6	-0.8112986	0.4323944	-21.24309	0	11.63	4004	0	0	5	5	0.04049859	-0.2385338	3	10	0.03	2000	2.341361	40.92394	-91.39363
195706	-55	3	2	-0.8147413	0.4256377	-21.25476	0	11.63	4003	0	0	5	5	0.04048852	-0.2493191	3	10	0.03	2000	2.090562	40.92394	-91.39363
195795	-47	5	8	-0.8143816	0.4272065	-21.2597	0	11.63	4004	0	0	5	5	0.04048576	-0.2507024	3	10	0.03	2000	2.328922	40.92394	-91.39363
195977	-49	2	2	-0.8107944	0.4389969	-21.27619	0	11.74	4004	0	0	5	5	0.04048095	-0.2562494	3	10	0.03	2000	2.089488	40.92394	-91.39363
196023	-42	-3	6	-0.8103379	0.4405352	-21.27937	0	11.74	4003	0	0	5	5	0.04048025	-0.2634484	3	10	0.03	2000	2.089488	40.92395	-91.39363
196122	-47	-5	5	-0.8074049	0.4418606	-21.2845	0	11.74	4003	0	0	5	5	0.04047855	-0.2698138	3	10	0.03	2000	1.849093	40.92395	-91.39363
196321	-50	4	7	-0.7937335	0.4384003	-21.30342	0	11.74	4004	0	0	5	5	0.04047642	-0.2731357	3	10	0.03	2000	2.058219	40.92394	-91.39363
196540	-43	0	4	-0.7839969	0.4295435	-21.31704	0	11.74	4003	0	0	5	5	0.04047516	-0.2653579	3	10	0.03	2000	2.29045	40.92394	-91.39363
196708	-53	4	5	-0.7819253	0.4272782	-21.3312	0	11.74	4004	0	0	5	5	0.04047468	-0.2508664	3	10	0.03	2000	2.271973	40.92394	-91.39363
196743	-46	1	9	-0.7846085	0.4294502	-21.33425	0	11.74	4003	0	0	5	5	0.04047462	-0.2480866	3	10	0.03	2000	2.271973	40.92394	-91.39363
196819	-43	5	0	-0.7858707	0.4324718	-21.3381	0	11.74	4003	0	0	5	5	0.0404745	-0.2413066	3	10	0.03	2000	2.288946	40.92394	-91.39363
196999	-46	3	4	-0.7669315	0.4328732	-21.353	0	11.68	4004	0	0	5	5	0.04047429	-0.2430381	3	10	0.03	2000	2.026195	40.92394	-91.39363
197033	-48	1	8	-0.7661939	0.4328003	-21.35666	0	11.68	4002	0	0	5	5	0.04047426	-0.2434904	3	10	0.03	2000	2.026195	40.92394	-91.39363
197141	-47	2	4	-0.7631332	0.433999	-21.36429	0	11.68	4003	0	0	5	5	0.04047419	-0.2436532	3	10	0.03	2000	2.255538	40.92394	-91.39363
197301	-44	0	5	-0.7550495	0.4346496	-21.37205	0	11.68	4002	0	0	5	5	0.04047411	-0.2439834	3	10	0.03	2000	1.995468	40.92394	-91.39363
197422	-40	-1	3	-0.753509	0.4388943	-21.37882	0	11.68	4004	0	0	5	5	0.04047408	-0.2506547	3	10	0.03	2000	1.995678	40.92394	-91.39363
197496	-43	2	5	-0.7537338	0.4336803	-21.38463	0	11.68	4003	0	0	5	5	0.04047405	-0.2580399	3	10	0.03	2000	1.748085	40.92394	-91.39363
197555	-42	1	8	-0.7532127	0.437298	-21.3892	0	11.68	4002	0	0	5	5	0.04047405	-0.2579214	3	10	0.03	2000	2.23075	40.92394	-91.39363
197638	-48	-6	1	-0.7527142	0.4422727	-21.39293	0	11.68	4004	0	0	5	5	0.04047403	-0.2624812	3	10	0.03	2000	2.229508	40.92394	-91.39363
197847	-50	4	11	-0.7519416	0.4428435	-21.4165	0	11.68	4003	0	0	5	5	0.04047401	-0.2669226	3	10	0.03	2000	1.983604	40.92394	-91.39363
198014	-36	2	10	-0.7470542	0.4425648	-21.42896	0	11.68	4003	0	0	5	5	0.04047401	-0.2629757	3	10	0.03	2000	1.986498	40.92394	-91.39363
198034	-47	1	8	-0.7478167	0.4423621	-21.43189	0	11.68	4004	0	0	5	5	0.04047401	-0.2607197	3	10	0.03	2000	1.986498	40.92394	-91.39363
198151	-45	4	1	-0.733721	0.4437965	-21.44038	0	11.68	4004	0	0	5	5	0.04047401	-0.2520759	3	10	0.03	2000	1.965069	40.92394	-91.39363
198297	-45	5	0	-0.7256134	0.4450157	-21.45406	0	11.68	4003	0	0	5	5	0.04047401	-0.2414724	3	10	0.03	2000	1.940494	40.92394	-91.39363
198481	-41	3	4	-0.7185261	0.4390121	-21.46835	0	11.68	4004	0	0	5	5	0.04047401	-0.2478672	3	10	0.03	2000	1.930558	40.92394	-91.39363
198593	-39	4	9	-0.7163615	0.4382621	-21.47873	0	11.68	4002	0	0	5	5	0.04047401	-0.2538426	3	10	0.03	2000	1.927071	40.92394	-91.39363
198645	-45	0	3	-0.715797	0.4358782	-21.48434	0	11.68	4003	0	0	5	5	0.04047401	-0.2525891	3	10	0.03	2000	1.690855	40.92394	-91.39363
198812	-43	-1	3	-0.7088054	0.4309874	-21.49533	0	11.74	4003	0	0	5	5	0.04047401	-0.2520995	3	10	0.03	2000	1.676602	40.92394	-91.39363
198887	-42	-8	1	-0.7123455	0.4358743	-21.50058	0	11.74	4003	0	0	5	5	0.04047401	-0.2492458	3	10	0.03	2000	1.926925	40.92394	-91.39363
199097	-41	1	1	-0.704875	0.436877	-21.51842	0	11.74	4003	0	0	5	5	0.04047401	-0.2530071	3	10	0.03	2000	1.930514	40.92394	-91.39363
199176	-42	0	8	-0.7013352	0.4372438	-21.52752	0	11.74	4003	0	0	5	5	0.04047401	-0.2583513	3	10	0.03	2000	1.901551	40.92394	-91.39363
199258	-42	2	2	-0.6985349	0.430205	-21.53283	0	11.74	4009	0	0	5	5	0.04047401	-0.2620902	3	10	0.03	2000	1.897707	40.92394	-91.39363
199301	-44	3	2	-0.7024705	0.4318263	-21.53875	0	11.74	4003	0	0	5	5	0.04047401	-0.2658603	3	10	0.03	2000	2.152715	40.92394	-91.39363
199487	-35	0	7	-0.6984316	0.4296645	-21.55451	0	11.74	4002	0	0	5	5	0.04047401	-0.2758948	3	10	0.03	2000	2.136884	40.92394	-91.39363
199585	-39	4	9	-0.6979947	0.4352155	-21.56134	0	11.68	4004	0	0	5	5	0.04047401	-0.2787509	3	10	0.03	2000	1.897212	40.92394	-91.39363
199649	-48	0	5	-0.6964772	0.4342014	-21.56641	0	11.68	4004	0	0	5	5	0.04047401	-0.2759856	3	10	0.03	2000	1.894891	40.92394	-91.39363
199695	-38	-3	5	-0.6985566	0.4284744	-21.57142	0	11.68	4003	0	0	5	5	0.04047401	-0.2774291	3	10	0.03	2000	1.898409	40.92394	-91.39363
199812	-40	2	6	-0.6914047	0.424358	-21.58083	0	11.68	4004	0	0	5	5	0.04047401	-0.2881011	3	10	0.03	2000	1.652567	40.92394	-91.39363
199986	-36	5	3	-0.6806524	0.4263475	-21.59792	0	11.68	4004	0	0	5	5	0.04047401	-0.2991796	3	10	0.03	2000	1.87571	40.92394	-91.39363
200152	-41	6	5	-0.6845324	0.4287215	-21.61147	0	11.68	4002	0	0	5	5	0.04047401	-0.3110014	3	10	0.03	2000	2.11218	40.92394	-91.39363
200206	-41	-4	8	-0.6811416	0.4326606	-21.61709	0	11.68	4002	0	0	5	5	0.04047401	-0.3126798	3	10	0.03	2000	2.106995	40.92394	-91.39363
200279	-40	0	-1	-0.6805221	0.4287072	-21.62192	0	11.68	4003	0	0	5	5	0.04047401	-0.3139752	3	10	0.03	2000	1.635665	40.92394	-91.39363
200384	-40	0	7	-0.677829	0.4257102	-21.62931	0	11.68	4003	0	0	5	5	0.04047401	-0.3114447	3	10	0.03	2000	1.871617	40.92394	-91.39363
200510	-39	0	6	-0.6623218	0.4264355	-21.63945	0	11.68	4004	0	0	5	5	0.04047401	-0.3078544	3	10	0.03	2000	1.849543	40.92394	-91.39363
200633	-38	-6	7	-0.6597424	0.4258271	-21.64915	0	11.68	4004	0	0	5	5	0.04047401	-0.3083063	3	10	0.03	2000	1.845132	40.92394	-91.39363
200713	-36	0	5	-0.6613759	0.4288219	-21.65312	0	11.68	4003	0	0	5	5	0.04047401	-0.3052641	3	10	0.03	2000	1.835918	40.92394	-91.39363
200770	-36	-1	7	-0.6601937	0.4302289	-21.65678	0	11.68	4003	0	0	5	5	0.04047401	-0.3040182	3	10	0.03	2000	1.594094	40.92394	-91.39363
200890	-37	0	-1	-0.6592376	0.4240403	-21.66435	0	11.68	4002	0	0	5	5	0.04047401	-0.2983711	3	10	0.03	2000	2.066155	40.92394	-91.39363
201095	-36	2	4	-0.6645285	0.4172126	-21.67619	0	11.68	4002	0	0	5	5	0.04047401	-0.2796082	3	10	0.03	2000	1.843561	40.92394	-91.39363
201243	-36	0	1	-0.6666799	0.4113866	-21.6903	0	11.68	4004	0	0	5	5	0.04047401	-0.2762181	3	10	0.03	2000	2.082453	40.92394	-91.39363
201345	-39	2	2	-0.6710598	0.4135394	-21.69848	0	11.68	4004	0	0	5	5	0.04047401	-0.278058	3	10	0.03	2000	1.615862	40.92394	-91.39363
201452	-39	1	3	-0.6681275	0.4158229	-21.70422	0	11.68	4003	0	0	5	5	0.04047401	-0.2815192	3	10	0.03	2000	1.85949	40.92394	-91.39363
201477	-39	1	3	-0.6681275	0.4158229	-21.70422	0	11.68	4003	0	0	5	5	0.04047401	-0.2839621	3	10	0.03	2000	1.85949	40.92394	-91.39363
201628	-39	3	2	-0.6608672	0.4188505	-21.71783	0	11.68	4003	0	0	5	5	0.04047401	-0.2895468	3	10	0.03	2000	2.073406	40.92394	-91.39363
201670	-34	-4	8	-0.6585066	0.4187621	-21.72058	0	11.68	4004	0	0	5	5	0.04047401	-0.2919299	3	10	0.03	2000	1.841597	40.92394	-91.39363
201779	-35	4	6	-0.6450218	0.4179726	-21.72815	0	11.68	4004	0	0	5	5	0.04047401	-0.2923197	3	10	0.03	2000	2.054004	40.92394	-91.39363
201891	-37	3	2	-0.6453689	0.4129535	-21.73303	0	11.68	4002	0	0	5	5	0.04047401	-0.2914762	3	10	0.03	2000	2.046095	40.92394	-91.39363
201959	-36	-3	0	-0.6437646	0.4162676	-21.73651	0	11.68	4004	0	0	5	5	0.04047401	-0.291217	3	10	0.03	2000	2.046095	40.92394	-91.39363
202089	-32	2	3	-0.6398516	0.4248408	-21.74793	0	11.68	4003	0	0	5	5	0.04047401	-0.2937226	3	10	0.03	2000	1.806602	40.92394	-91.39363
202243	-32	-3	3	-0.6405573	0.424941	-21.7596	0	11.68	4004	0	0	5	5	0.04047401	-0.2846552	3	10	0.03	2000	2.045654	40.92394	-91.39363
202335	-35	1	7	-0.6423655	0.4219822	-21.76564	0	11.68	4004	0	0	5	5	0.04047401	-0.2743593	3	10	0.03	2000	2.034879	40.92394	-91.39363
202444	-38	2	8	-0.6413261	0.4264859	-21.77272	0	11.68	4004	0	0	5	5	0.04047401	-0.2770106	3	10	0.03	2000	1.807116	40.92394	-91.39363
202638	-40	0	5	-0.6338894	0.4351526	-21.78475	0	11.68	4003	0	0	5	5	0.04047401	-0.2934548	3	10	0.03	2000	1.804892	40.92394	-91.39363
202760	-35	0	7	-0.6233798	0.4288769	-21.79134	0	11.68	4004	0	0	5	5	0.04047401	-0.2982826	3	10	0.03	2000	2.006946	40.92394	-91.39363
202886	-25	0	0	-0.6148046	0.4264728	-21.79782	0	11.68	4003	0	0	5	5	0.04047401	-0.2989601	3	10	0.03	2000	1.774226	40.92394	-91.39363
202943	-35	-2	3	-0.6101081	0.4222473	-21.80343	0	11.68	4004	0	0	5	5	0.04047401	-0.2993109	3	10	0.03	2000	1.983589	40.92394	-91.39363
203061	-31	2	6	-0.6071622	0.4206355	-21.80819	0	11.68	4002	0	0	5	5	0.04047401	-0.3051903	3	10	0.03	2000	1.742514	40.92394	-91.39363
203146	-35	3	1	-0.606103	0.4262331	-21.8096	0	11.68	4003	0	0	5	5	0.04047401	-0.302464	3	10	0.03	2000	1.742514	40.92394	-91.39363
203233	-34	1	7	-0.6108693	0.4302706	-21.81973	0	11.74	4003	0	0	5	5	0.04047401	-0.2965018	3	10	0.03	2000	1.75769	40.92394	-91.39363
203402	-32	2	3	-0.6078727	0.4211091	-21.82944	0	11.74	4002	0	0	5	5	0.04047401	-0.2887563	3	10	0.03	2000	1.747807	40.92394	-91.39363
203436	-31	0	7	-0.604637	0.418348	-21.83225	0	11.74	4004	0	0	5	5	0.04047401	-0.2868604	3	10	0.03	2000	1.743383	40.92394	-91.39363
203596	-32	0	12	-0.6037753	0.4132752	-21.84514	0	11.74	4003	0	0	5	5	0.04047401	-0.3001136	3	10	0.03	2000	1.987075	40.92394	-91.39363
203686	-41	0	5	-0.6065331	0.4157401	-21.85296	0	11.74	4003	0	0	5	5	0.04047401	-0.311132	3	10	0.03	2000	1.974215	40.92394	-91.39363
203731	-38	1	11	-0.6164963	0.4159833	-21.85729	0	11.74	4003	0	0	5	5	0.04047401	-0.3128233	3	10	0.03	2000	1.738294	40.92394	-91.39363
203821	-37	0	3	-0.6181585	0.420992	-21.86511	0	11.74	4002	0	0	5	5	0.04047401	-0.3176871	3	10	0.03	2000	1.755569	40.92394	-91.39363
203964	-35	2	3	-0.6100402	0.4216781	-21.87885	0	11.74	4003	0	0	5	5	0.04047401	-0.3225321	3	10	0.03	2000	1.984568	40.92394	-91.39363
204027	-35	3	7	-0.6102002	0.423267	-21.88135	0	11.74	4004	0	0	5	5	0.04047401	-0.3300626	3	10	0.03	2000	1.984568	40.92394	-91.39363
204163	-30	4	4	-0.609653	0.4210276	-21.88788	0	11.68	4003	0	0	5	5	0.04047401	-0.3369174	3	10	0.03	2000	1.757442	40.92393	-91.39363
204236	-39	3	7	-0.6118025	0.4172176	-21.89429	0	11.68	4003	0	0	5	5	0.04047401	-0.3387955	3	10	0.03	2000	1.751717	40.92393	-91.39363
204418	-39	1	4	-0.6110914	0.4144647	-21.90217	0	11.68	4004	0	0	5	5	0.04047401	-0.3447807	3	10	0.03	2000	1.751602	40.92393	-91.39363
204492	-33	-5	5	-0.607591	0.4068362	-21.90833	0	11.68	4004	0	0	5	5	0.04047401	-0.3514096	3	10	0.03	2000	1.761242	40.92393	-91.39363
204609	-29	1	3	-0.6024852	0.4054253	-21.91255	0	11.68	4004	0	0	5	5	0.04047401	-0.3554225	3	10	0.03	2000	1.986816	40.92393	-91.39363
204697	-32	0	4	-0.6018639	0.4027237	-21.92281	0	11.68	4004	0	0	5	5	0.04047401	-0.357234	3	10	0.03	2000	1.493572	40.92393	-91.39363
204768	-36	-3	3	-0.5966435	0.4018118	-21.92439	0	11.68	4004	0	0	5	5	0.04047401	-0.3668535	3	10	0.03	2000	1.735262	40.92393	-91.39363
204820	-28	1	7	-0.5958737	0.4032289	-21.92635	0	11.68	4002	0	0	5	5	0.04047401	-0.370172	3	10	0.03	2000	1.726876	40.92393	-91.39363
204960	-28	4	3	-0.5775635	0.400689	-21.93172	0	11.68	4002	0	0	5	5	0.04047401	-0.3747284	3	10	0.03	2000	1.705402	40.92393	-91.39363
205023	-23	-4	3	-0.5760708	0.405711	-21.93465	0	11.74	4002	0	0	5	5	0.04047401	-0.3756711	3	10	0.03	2000	1.939251	40.92393	-91.39363
205138	-36	-3	5	-0.5703948	0.4096529	-21.93868	0	11.74	4004	0	0	5	5	0.04047401	-0.3734293	3	10	0.03	2000	1.925047	40.92393	-91.39363
205245	-29	-2	1	-0.5752072	0.4125417	-21.94368	0	11.74	4004	0	0	5	5	0.04047401	-0.3685889	3	10	0.03	2000	1.69068	40.92393	-91.39363
205331	-28	0	3	-0.577362	0.4112327	-21.9482	0	11.74	4004	0	0	5	5	0.04047401	-0.3588682	3	10	0.03	2000	1.688758	40.92393	-91.39363
205458	-30	3	1	-0.5787997	0.4128411	-21.95644	0	11.74	4003	0	0	5	5	0.04047401	-0.3480074	3	10	0.03	2000	1.934841	40.92393	-91.39363
205534	-38	5	10	-0.5747336	0.4174205	-21.96041	0	11.74	4003	0	0	5	5	0.04047401	-0.3369353	3	10	0.03	2000	1.924419	40.92393	-91.39363
205636	-29	-1	0	-0.5696195	0.4156113	-21.96377	0	11.74	4003	0	0	5	5	0.04047401	-0.3266929	3	10	0.03	2000	2.153768	40.92393	-91.39363
205748	-34	3	-2	-0.5673151	0.4181559	-21.96932	0	11.74	4002	0	0	5	5	0.04047401	-0.3255444	3	10	0.03	2000	1.449194	40.92393	-91.39363
205855	-34	1	0	-0.5629693	0.416885	-21.97372	0	11.74	4002	0	0	5	5	0.04047401	-0.3216043	3	10	0.03	2000	1.676224	40.92393	-91.39363
205964	-26	4	0	-0.5608216	0.414339	-21.97616	0	11.74	4004	0	0	5	5	0.04047401	-0.3182653	3	10	0.03	2000	1.670413	40.92393	-91.39363
206078	-35	7	3	-0.5539156	0.4152892	-21.98055	0	11.74	4002	0	0	5	5	0.04047401	-0.3274255	3	10	0.03	2000	1.65216	40.92393	-91.39363
206219	-22	0	-2	-0.5463471	0.4135856	-21.98635	0	11.74	4004	0	0	5	5	0.04047401	-0.3311854	3	10	0.03	2000	1.642889	40.92393	-91.39363
206286	-31	0	4	-0.551325	0.4132796	-21.99301	0	11.74	4003	0	0	5	5	0.04047401	-0.3454037	3	10	0.03	2000	1.650927	40.92394	-91.39363
206353	-27	1	-2	-0.5501665	0.4137026	-21.99813	0	11.74	4002	0	0	5	5	0.04047401	-0.3535708	3	10	0.03	2000	1.891005	40.92394	-91.39363
206498	-23	3	2	-0.5519469	0.4130473	-22.00466	0	11.74	4003	0	0	5	5	0.04047401	-0.3556416	3	10	0.03	2000	1.659938	40.92394	-91.39363
206595	-30	4	4	-0.5423301	0.4050912	-22.00937	0	11.74	4002	0	0	5	5	0.04047401	-0.3470712	3	10	0.03	2000	1.881229	40.92394	-91.39363
206742	-24	0	3	-0.5383482	0.4053229	-22.01651	0	11.68	4004	0	0	5	5	0.04047401	-0.3404882	3	10	0.03	2000	1.629845	40.92394	-91.39363
206896	-28	0	3	-0.5355482	0.4105364	-22.02909	0	11.68	4003	0	0	5	5	0.04047401	-0.3377304	3	10	0.03	2000	1.633021	40.92393	-91.39363
206959	-33	1	1	-0.5354828	0.4120748	-22.03104	0	11.68	4002	0	0	5	5	0.04047401	-0.3366956	3	10	0.03	2000	1.853711	40.92393	-91.39363
207051	-31	1	1	-0.5306644	0.4079286	-22.03562	0	11.68	4004	0	0	5	5	0.04047401	-0.3348958	3	10	0.03	2000	1.617924	40.92393	-91.39363
207154	-31	-7	-3	-0.5337849	0.4126284	-22.03922	0	11.68	4004	0	0	5	5	0.04047401	-0.3276198	3	10	0.03	2000	1.613846	40.92393	-91.39363
207201	-27	3	4	-0.5345047	0.4158421	-22.04117	0	11.68	4003	0	0	5	5	0.04047401	-0.3245333	3	10	0.03	2000	1.623257	40.92393	-91.39363
207359	-25	0	1	-0.5240465	0.4188467	-22.05009	0	11.68	4003	0	0	5	5	0.04047401	-0.3248423	3	10	0.03	2000	1.607746	40.92393	-91.39363
207425	-26	-4	-1	-0.519966	0.4184465	-22.05063	0	11.68	4003	0	0	5	5	0.04047401	-0.3259968	3	10	0.03	2000	1.599754	40.92393	-91.39363
207500	-26	-1	0	-0.5180897	0.4189108	-22.0568	0	11.68	4002	0	0	5	5	0.04047401	-0.3285613	3	10	0.03	2000	1.830189	40.92393	-91.39363
207595	-25	2	8	-0.5202631	0.41792	-22.06467	0	11.74	4004	0	0	5	5	0.04047401	-0.3323649	3	10	0.03	2000	1.591866	40.92393	-91.39363
207695	-16	-1	-2	-0.517847	0.4218287	-22.06656	0	11.74	4002	0	0	5	5	0.04047401	-0.3347473	3	10	0.03	2000	1.582516	40.92393	-91.39363
207904	-22	-1	4	-0.5063827	0.4193061	-22.07774	0	11.74	4002	0	0	5	5	0.04047401	-0.3289958	3	10	0.03	2000	1.813605	40.92393	-91.39363
208071	-21	4	7	-0.4969871	0.4181562	-22.08451	0	11.74	4002	0	0	5	5	0.04047401	-0.3284141	3	10	0.03	2000	1.564467	40.92393	-91.39363
208111	-29	-2	7	-0.5029172	0.4200601	-22.08921	0	11.74	4003	0	0	5	5	0.04047401	-0.326659	3	10	0.03	2000	1.567184	40.92393	-91.39363
208250	-23	1	6	-0.4963344	0.4199177	-22.09446	0	11.74	4003	0	0	5	5	0.04047401	-0.3184385	3	10	0.03	2000	1.32049	40.92393	-91.39363
208358	-18	1	4	-0.4884206	0.4213557	-22.09928	0	11.74	4004	0	0	5	5	0.04047401	-0.317038	3	10	0.03	2000	1.798781	40.92393	-91.39363
208402	-21	3	6	-0.4777396	0.4190422	-22.1027	0	11.74	4004	0	0	5	5	0.04047401	-0.3139968	3	10	0.03	2000	1.537982	40.92393	-91.39363
208550	-31	2	0	-0.4750327	0.4169987	-22.10765	0	11.74	4003	0	0	5	5	0.04047401	-0.3033719	3	10	0.03	2000	1.758727	40.92393	-91.39363
208634	-20	-1	1	-0.4760046	0.4175291	-22.1146	0	11.74	4003	0	0	5	5	0.04047401	-0.3041008	3	10	0.03	2000	1.768727	40.92393	-91.39363
208763	-28	-1	3	-0.4712773	0.4157066	-22.12181	0	11.74	4002	0	0	5	5	0.04047401	-0.306913	3	10	0.03	2000	1.518057	40.92393	-91.39363
208816	-22	-2	2	-0.47675	0.4143059	-22.1234	0	11.74	4003	0	0	5	5	0.04047401	-0.3079731	3	10	0.03	2000	1.752012	40.92393	-91.39363
208993	-24	3	2	-0.4909889	0.4110574	-22.12937	0	11.74	4004	0	0	5	5	0.04047401	-0.3074009	3	10	0.03	2000	1.537866	40.92393	-91.39363
209056	-23	5	5	-0.4955153	0.4068929	-22.13266	0	11.74	4002	0	0	5	5	0.04047401	-0.3069076	3	10	0.03	2000	1.553816	40.92393	-91.39363
209116	-30	7	1	-0.4954951	0.4061104	-22.13401	0	11.74	4003	0	0	5	5	0.04047401	-0.3060639	3	10	0.03	2000	1.553816	40.92393	-91.39363
209351	-20	-5	3	-0.4989063	0.4015141	-22.14316	0	11.74	4004	0	0	5	5	0.04047401	-0.3041002	3	10	0.03	2000	1.568275	40.92393	-91.39363
209446	-24	2	3	-0.4935586	0.3942363	-22.14939	0	11.74	4003	0	0	5	5	0.04047401	-0.2969415	3	10	0.03	2000	1.562258	40.92393	-91.39363
209565	-18	0	4	-0.4886033	0.4002113	-22.15586	0	11.74	4002	0	0	5	5	0.04047401	-0.2964483	3	10	0.03	2000	1.788451	40.92393	-91.39363
209686	-21	3	5	-0.4805548	0.3988558	-22.16331	0	11.74	4004	0	0	5	5	0.04047401	-0.3028309	3	10	0.03	2000	1.531687	40.92393	-91.39363
209744	-16	1	3	-0.4766445	0.3975204	-22.16642	0	11.74	4003	0	0	5	5	0.04047401	-0.3112652	3	10	0.03	2000	1.525481	40.92393	-91.39363
209805	-17	3	1	-0.4702399	0.3956488	-22.16856	0	11.74	4004	0	0	5	5	0.04047401	-0.3147288	3	10	0.03	2000	1.281402	40.92393	-91.39363
210025	-17	-1	5	-0.4708605	0.3863284	-22.17826	0	11.74	4003	0	0	5	5	0.04047401	-0.3504456	3	10	0.03	2000	1.523903	40.92393	-91.39363
210127	-26	-1	2	-0.4753506	0.3872068	-22.18192	0	11.74	4003	0	0	5	5	0.04047401	-0.3641715	3	10	0.03	2000	1.277342	40.92393	-91.39363
210321	-21	3	3	-0.472472	0.3966623	-22.19169	0	11.74	4003	0	0	5	5	0.04047401	-0.3688347	3	10	0.03	2000	1.757626	40.92393	-91.39363
210463	-24	0	-2	-0.4740142	0.3904501	-22.1967	0	11.74	4003	0	0	5	5	0.04047401	-0.3561788	3	10	0.03	2000	1.284461	40.92393	-91.39363
210570	-17	-1	3	-0.4711834	0.3942504	-22.20116	0	11.74	4003	0	0	5	5	0.04047401	-0.342926	3	10	0.03	2000	1.518572	40.92393	-91.39363
210632	-19	4	3	-0.4680977	0.3971058	-22.20195	0	11.74	4003	0	0	5	5	0.04047401	-0.330472	3	10	0.03	2000	1.517301	40.92393	-91.39363
210722	-17	1	-1	-0.4650578	0.3978498	-22.20494	0	11.74	4002	0	0	5	5	0.04047401	-0.3166246	3	10	0.03	2000	1.501124	40.92393	-91.39363
210895	-22	0	0	-0.4623055	0.3950154	-22.20787	0	11.74	4003	0	0	5	5	0.04047401	-0.2920732	3	10	0.03	2000	1.502789	40.92393	-91.39363
211110	-19	0	10	-0.4538567	0.3981046	-22.21721	0	11.74	4003	0	0	5	5	0.04047401	-0.269558	3	10	0.03	2000	1.489058	40.92393	-91.39363
211279	-24	-2	5	-0.4571888	0.3983881	-22.22618	0	11.68	4004	0	0	5	5	0.04047401	-0.2681824	3	10	0.03	2000	1.50648	40.92393	-91.39363
211407	-23	0	3	-0.4540717	0.3958279	-22.23034	0	11.68	4002	0	0	5	5	0.04047401	-0.2646058	3	10	0.03	2000	1.725149	40.92393	-91.39363
211457	-17	4	-2	-0.4521449	0.3966438	-22.23186	0	11.68	4003	0	0	5	5	0.04047401	-0.2623151	3	10	0.03	2000	1.482576	40.92393	-91.39363
211560	-20	3	0	-0.4522165	0.3987537	-22.23528	0	11.68	4004	0	0	5	5	0.04047401	-0.259197	3	10	0.03	2000	1.239448	40.92393	-91.39363
211664	-20	2	1	-0.4465791	0.3960599	-22.23851	0	11.68	4003	0	0	5	5	0.04047401	-0.2618183	3	10	0.03	2000	1.482154	40.92393	-91.39363
211831	-22	-5	4	-0.4360334	0.3996322	-22.24615	0	11.68	4004	0	0	5	5	0.04047401	-0.265548	3	10	0.03	2000	1.463598	40.92393	-91.39363
211870	-23	1	0	-0.4362202	0.4006279	-22.24712	0	11.68	4003	0	0	5	5	0.04047401	-0.2691773	3	10	0.03	2000	1.450813	40.92393	-91.39363
212015	-16	2	5	-0.432057	0.4026209	-22.24999	0	11.68	4002	0	0	5	5	0.04047401	-0.2858144	3	10	0.03	2000	1.444566	40.92393	-91.39363
212190	-26	-6	0	-0.429185	0.4033911	-22.25591	0	11.74	4003	0	0	5	5	0.04047401	-0.3119423	3	10	0.03	2000	1.44193	40.92393	-91.39363
212336	-18	0	3	-0.4247023	0.4093654	-22.26458	0	11.74	4003	0	0	5	5	0.04047401	-0.3249072	3	10	0.03	2000	1.686743	40.92393	-91.39363
212399	-21	-1	5	-0.429824	0.410831	-22.26733	0	11.74	4003	0	0	5	5	0.04047401	-0.3286079	3	10	0.03	2000	1.686743	40.92393	-91.39363
212498	-13	1	6	-0.4317704	0.4098074	-22.27411	0	11.74	4002	0	0	5	5	0.04047401	-0.3343087	3	10	0.03	2000	1.447889	40.92393	-91.39363
212596	-24	-3	1	-0.4331076	0.4045603	-22.27771	0	11.74	4002	0	0	5	5	0.04047401	-0.3344565	3	10	0.03	2000	1.460944	40.92393	-91.39363
212695	-13	0	6	-0.4314685	0.4097145	-22.28229	0	11.74	4004	0	0	5	5	0.04047401	-0.336419	3	10	0.03	2000	1.683316	40.92393	-91.39363
212746	-23	1	1	-0.426112	0.4112116	-22.28589	0	11.74	4003	0	0	5	5	0.04047401	-0.3366478	3	10	0.03	2000	1.683614	40.92393	-91.39363
212877	-17	-1	7	-0.4261788	0.4058585	-22.29114	0	11.74	4003	0	0	5	5	0.04047401	-0.3354217	3	10	0.03	2000	1.438722	40.92393	-91.39363
212952	-12	7	0	-0.4294259	0.4028709	-22.29322	0	11.74	4002	0	0	5	5	0.04047401	-0.3348097	3	10	0.03	2000	1.207857	40.92393	-91.39363
213132	-28	0	3	-0.4301316	0.4003525	-22.30091	0	11.74	4004	0	0	5	5	0.04047401	-0.3504525	3	10	0.03	2000	1.438891	40.92393	-91.39363
213166	-11	2	2	-0.4277312	0.4012587	-22.30329	0	11.74	4003	0	0	5	5	0.04047401	-0.3560579	3	10	0.03	2000	1.445462	40.92393	-91.39363
213335	-21	3	8	-0.4171605	0.4019914	-22.31415	0	11.74	4003	0	0	5	5	0.04047401	-0.3704181	3	10	0.03	2000	1.412289	40.92393	-91.39363
213389	-18	3	3	-0.4189509	0.4031026	-22.31604	0	11.74	4002	0	0	5	5	0.04047401	-0.3753324	3	10	0.03	2000	1.412289	40.92393	-91.39363
213454	-25	-1	5	-0.4218048	0.4064908	-22.31855	0	11.74	4004	0	0	5	5	0.04047401	-0.3753572	3	10	0.03	2000	1.671388	40.92393	-91.39363
213548	-17	-3	-4	-0.425122	0.4105181	-22.32233	0	11.74	4003	0	0	5	5	0.04047401	-0.3780896	3	10	0.03	2000	1.437325	40.92393	-91.39363
213699	-24	-2	4	-0.4193716	0.4080001	-22.32758	0	11.74	4004	0	0	5	5	0.04047401	-0.3834276	3	10	0.03	2000	1.670707	40.92393	-91.39363
213761	-26	2	1	-0.4177163	0.4080401	-22.32899	0	11.74	4002	0	0	5	5	0.04047401	-0.3837351	3	10	0.03	2000	1.427897	40.92393	-91.39363
213923	-21	3	1	-0.4164246	0.4015081	-22.33362	0	11.74	4003	0	0	5	5	0.02675754	-0.3835914	6	10	0.03	2000	1.425335	40.92393	-91.39363
214006	-17	4	0	-0.4178588	0.3977161	-22.33753	0	11.8	4003	0	0	5	5	0.03185385	-0.3867137	6	10	0.03	2000	1.178701	40.92393	-91.39363
214081	-19	-2	0	-0.4201086	0.3901017	-22.33979	0	11.8	4003	0	0	5	5	0.03942779	-0.3894652	6	10	0.03	2000	1.184671	40.92393	-91.39363
214176	-19	-4	2	-0.4181859	0.3870971	-22.34009	0	11.8	4004	0	0	5	5	0.04249405	-0.3920058	6	10	0.03	2000	1.429834	40.92393	-91.39363
214275	-17	2	8	-0.4145707	0.3872828	-22.34284	0	11.8	4003	0	0	5	5	0.04564553	-0.3968171	6	10	0.03	2000	1.655576	40.92393	-91.39363
214366	-20	0	1	-0.4160107	0.3855959	-22.3465	0	11.8	4003	0	0	5	5	0.04833398	-0.409596	6	10	0.03	2000	1.655709	40.92393	-91.39363
214474	-21	6	1	-0.405109	0.385844	-22.35065	0	11.8	4002	0	0	5	5	0.05029386	-0.4174471	6	10	0.03	2000	1.641689	40.92393	-91.39363
214548	-18	2	3	-0.4048881	0.3888724	-22.35389	0	11.8	4003	0	0	5	5	0.05172261	-0.4208075	6	10	0.03	2000	1.408011	40.92393	-91.39363
214652	-12	0	-2	-0.398706	0.3881753	-22.35639	0	11.8	4002	0	0	5	5	0.05276417	-0.4191814	6	10	0.03	2000	1.396006	40.92393	-91.39363
214786	-20	-4	4	-0.4018165	0.3915098	-22.36463	0	11.8	4003	0	0	5	5	0.05352346	-0.4142552	6	10	0.03	2000	1.381052	40.92393	-91.39363
214902	-15	4	3	-0.4082075	0.3917226	-22.36854	0	11.8	4003	0	0	5	5	0.05298423	-0.4055438	6	10	0.03	2000	1.640658	40.92393	-91.39363
214963	-25	5	2	-0.4076923	0.3950641	-22.37288	0	11.74	4002	0	0	5	5	0.05334442	-0.4079087	6	10	0.03	2000	1.64507	40.92393	-91.39363
215056	-19	-1	0	-0.4074447	0.3981086	-22.37813	0	11.74	4004	0	0	5	5	0.05394647	-0.4113076	6	10	0.03	2000	1.419323	40.92393	-91.39363
215157	-14	0	2	-0.4040766	0.3976184	-22.38136	0	11.74	4002	0	0	5	5	0.05374018	-0.4073932	6	10	0.03	2000	1.411605	40.92393	-91.39363
215300	-12	-3	2	-0.3897907	0.3948297	-22.38692	0	11.74	4002	0	0	5	5	0.0510444	-0.3982805	6	10	0.03	2000	1.383358	40.92393	-91.39363
215422	-20	0	3	-0.3942525	0.3907626	-22.38954	0	11.74	4004	0	0	5	5	0.05242788	-0.3887651	6	10	0.03	2000	1.386007	40.92393	-91.39363
215475	-18	0	0	-0.3975371	0.3895583	-22.39314	0	11.74	4004	0	0	5	5	0.05257019	-0.386766	6	10	0.03	2000	1.379948	40.92393	-91.39363
215554	-20	-4	2	-0.3982087	0.394802	-22.39601	0	11.74	4004	0	0	5	5	0.05324314	-0.3856356	3	10	0.03	2000	1.151888	40.92393	-91.39363
215655	-16	0	1	-0.3985099	0.396501	-22.40029	0	11.74	4004	0	0	5	5	0.05387264	-0.3864558	3	10	0.03	2000	1.626851	40.92393	-91.39363
215760	-23	1	6	-0.396185	0.3901244	-22.40358	0	11.74	4003	0	0	5	5	0.05445498	-0.3916603	3	10	0.03	2000	1.389669	40.92393	-91.39363
215901	-10	5	0	-0.389164	0.388059	-22.41097	0	11.74	4002	0	0	5	5	0.05475607	-0.3960294	1	10	0.03	2000	1.388289	40.92393	-91.39363
216008	-15	-2	7	-0.3921057	0.3878707	-22.41665	0	11.74	4002	0	0	5	5	0.05497556	-0.3954589	1	10	0.03	2000	1.369343	40.92393	-91.39363
216068	-18	1	2	-0.390914	0.3865167	-22.41842	0	11.74	4003	0	0	5	5	0.05513557	-0.3835912	1	10	0.03	2000	1.369343	40.92393	-91.39363
216209	-11	-1	0	-0.3848794	0.3922017	-22.4258	0	11.74	4004	0	0	5	5	0.05525221	-0.3722697	3	10	0.03	2000	1.377741	40.92393	-91.39363
216255	-11	-1	0	-0.3848794	0.3922017	-22.4258	0	11.74	4004	0	0	5	5	0.05531183	-0.363034	3	10	0.03	2000	1.377741	40.92393	-91.39363
216352	-14	0	0	-0.3807046	0.393541	-22.43081	0	11.74	4002	0	0	5	5	0.05536012	-0.3512116	3	10	0.03	2000	1.368415	40.92393	-91.39363
216453	-13	3	1	-0.3759249	0.3896838	-22.43307	0	11.74	4003	0	0	5	5	0.05543092	-0.335975	3	10	0.03	2000	1.5916	40.92393	-91.39363
216584	-11	2	0	-0.360943	0.3906578	-22.44033	0	11.74	4002	0	0	5	5	0.05547737	-0.3341743	3	10	0.03	2000	1.564705	40.92393	-91.39363
216693	-20	-1	3	-0.3556508	0.3882509	-22.44448	0	11.74	4002	0	0	5	5	0.05550139	-0.3235357	3	10	0.03	2000	1.322105	40.92393	-91.39363
216790	-7	6	1	-0.3543334	0.390145	-22.44912	0	11.74	4003	0	0	5	5	0.05552361	-0.3117245	3	10	0.03	2000	1.55727	40.92393	-91.39363
216905	-12	0	5	-0.3541354	0.3789099	-22.45303	0	11.74	4004	0	0	5	5	0.0555351	-0.3064502	3	10	0.03	2000	1.316546	40.92393	-91.39363
216924	-13	4	6	-0.3555012	0.3755594	-22.45516	0	11.74	4004	0	0	5	5	0.05553818	-0.3044306	3	10	0.03	2000	1.316546	40.92393	-91.39363
217016	-14	2	1	-0.3570632	0.3770781	-22.45944	0	11.74	4003	0	0	5	5	0.05554775	-0.2987339	3	10	0.03	2000	1.317683	40.92393	-91.39363
217150	-11	4	-1	-0.3563872	0.3825639	-22.4642	0	11.74	4004	0	0	5	5	0.05555403	-0.2981662	3	10	0.03	2000	1.32659	40.92393	-91.39363
217239	-11	0	2	-0.3507819	0.3787135	-22.46902	0	11.74	4004	0	0	5	5	0.05555727	-0.300835	3	10	0.03	2000	1.570779	40.92393	-91.39363
217292	-17	3	3	-0.3490877	0.3786126	-22.47043	0	11.74	4003	0	0	5	5	0.05555893	-0.2998823	3	10	0.03	2000	1.316821	40.92393	-91.39363
217393	-16	25	39	-0.3443825	0.3801478	-22.48118	0	11.74	4003	0	0	5	5	0.05556027	-0.2969728	3	10	0.03	2000	1.54779	40.92393	-91.39363
217494	7	4	55	-0.3375595	0.3773845	-22.48712	0	11.74	4003	0	0	5	5	0.05556224	-0.2817596	3	10	0.03	2000	1.513031	40.92393	-91.39363
217626	-95	15	-29	-0.2987499	0.3632637	-22.4821	0	11.68	4004	0	0	5	5	0.05556326	-0.2717066	3	10	0.03	2000	1.029379	40.92393	-91.39363
217716	3	-52	8	-0.3383977	0.39451	-22.48914	0	11.68	4004	0	0	5	5	0.0555642	-0.2707774	3	10	0.03	2000	1.562684	40.92393	-91.39363
217874	-79	-92	18	-0.3810343	0.4181984	-22.51537	0	11.68	4003	0	0	5	5	0.05556482	-0.2793439	3	10	0.03	2000	1.859084	40.92393	-91.39363
217917	-44	31	119	-0.3933156	0.4648401	-22.52478	0	11.68	4003	0	0	5	5	0.05556494	-0.2804615	3	10	0.03	2000	1.157694	40.92393	-91.39363
217997	129	43	-8	-0.3799019	0.4700085	-22.51646	0	11.68	4002	0	0	5	5	0.05556531	-0.2797221	3	10	0.03	2000	1.932632	40.92393	-91.39363
218138	3	-105	74	-0.3661366	0.4193815	-22.52509	0	11.68	4002	0	0	5	5	0.0555655	-0.2761901	3	10	0.03	2000	0.9087391	40.92393	-91.39363
218205	87	-113	111	-0.4616016	0.437461	-22.52991	0	11.68	4003	0	0	5	5	0.05556563	-0.2762326	3	10	0.03	2000	2.056069	40.92393	-91.39363
218297	111	66	-15	-0.5212279	0.3841883	-22.52073	0	11.68	4003	0	0	5	5	0.05556573	-0.2718134	3	10	0.03	2000	1.889302	40.92393	-91.39363
218376	83	-54	17	-0.4905398	0.3991039	-22.53197	0	11.68	4004	0	0	5	5	0.05556578	-0.2726363	3	10	0.03	2000	1.898854	40.92393	-91.39363
218527	-143	57	-34	-0.4680794	0.4313569	-22.55048	0	11.63	4002	0	0	5	5	0.05556586	-0.283436	3	10	0.03	2000	1.284243	40.92394	-91.39363
218602	-5	89	-193	-0.4948926	0.3978031	-22.53906	0	11.63	4003	0	0	5	5	0.05556589	-0.2905834	3	10	0.03	2000	1.073175	40.92394	-91.39363
218704	-84	-113	68	-0.4896356	0.3741747	-22.5615	0	11.63	4002	0	0	5	5	0.05556592	-0.2980197	3	10	0.03	2000	1.906302	40.92394	-91.39363
218781	-38	-74	221	-0.4933841	0.3843881	-22.56109	0	11.63	4003	0	0	5	5	0.05556594	-0.2993478	3	10	0.03	2000	1.846306	40.92394	-91.39363
218882	103	52	-60	-0.4642202	0.3742391	-22.56549	0	11.63	4004	0	0	5	5	0.05556595	-0.2960404	3	10	0.03	2000	1.789699	40.92394	-91.39363
219054	-120	105	62	-0.4914014	0.4183784	-22.58572	0	11.63	4003	0	0	5	5	0.05556597	-0.2820481	3	10	0.03	2000	1.853816	40.92394	-91.39363
219153	-137	-108	55	-0.4994185	0.4265854	-22.61759	0	11.63	4003	0	0	5	5	0.05556598	-0.2784494	3	10	0.03	2000	1.543484	40.92394	-91.39363
219176	-137	-108	55	-0.4994185	0.4265854	-22.61759	0	11.63	4003	0	0	5	5	0.05556598	-0.2785395	3	10	0.03	2000	1.543484	40.92394	-91.39363
219305	27	73	-303	-0.4719323	0.4170764	-22.61703	0	11.63	4002	0	0	5	5	0.05556598	-0.2791907	3	10	0.03	2000	1.07909	40.92394	-91.39363
