time(ms)	gyro_x(deg/s)	gyro_y(deg/s)	gyro_z(deg/s)	orientation_roll(deg)	orientation_pitch(deg)	orientation_yaw(deg)	throttle	battery(V)	loop_time(uS)	pid_output_roll	pid_output_pitch	pid_output_yaw	pid_output_throttle	ultrasonic_alt	baro_alt	flight_mode	p_gain_altitude	i_gain_altitude	d_gain_altitude	compass_heading	latitude	longitude
125399	-232	84	-121	0.5323054	-0.01225113	1.402715	0	12.19	4002	0	0	5	5	0.05556598	-0.06236244	3	10	0.03	2000	-1.611542	40.92397	-91.39365
125519	-80	-72	-55	0.4877512	0.06849901	1.406365	0	12.19	4002	0	0	5	5	0.05556598	-0.05610941	3	10	0.03	2000	-1.198914	40.92397	-91.39365
125575	22	-34	-75	0.4789149	0.04784136	1.424332	0	12.19	4002	0	0	5	5	0.05556598	-0.05760812	3	10	0.03	2000	-1.314148	40.92397	-91.39365
125673	-29	46	-107	0.4676577	0.05039283	1.426157	0	12.19	4003	0	0	5	5	0.05556598	-0.06437102	3	10	0.03	2000	-1.054291	40.92397	-91.39365
125796	-39	-25	-27	0.3732166	0.08564822	1.443382	0	12.19	4003	0	0	5	5	0.05556598	-0.07152504	3	10	0.03	2000	-0.4401855	40.92397	-91.39365
125885	-26	44	49	0.3602568	0.06234989	1.475484	0	12.19	4004	0	0	5	5	0.05556598	-0.08067921	3	10	0.03	2000	-1.132111	40.92397	-91.39365
125940	86	83	143	0.3884248	0.03733533	1.47836	0	12.19	4002	0	0	5	5	0.05556598	-0.08615238	3	10	0.03	2000	-1.132111	40.92397	-91.39365
126091	-15	-24	25	0.4153458	0.01787298	1.479965	0	12.08	4003	0	0	5	5	0.05556598	-0.09084623	3	10	0.03	2000	-1.363495	40.92397	-91.39365
126144	-186	-60	-233	0.4058263	-0.006619814	1.504487	0	12.08	4004	0	0	5	5	0.05556598	-0.09694541	3	10	0.03	2000	-1.363495	40.92397	-91.39365
126291	176	-68	63	0.4682774	-0.02468665	1.492431	0	12.08	4004	0	0	5	5	0.05556598	-0.1034977	3	10	0.03	2000	-0.8099976	40.92397	-91.39365
126379	-98	71	-234	0.4598504	-0.03056006	1.507976	0	12.08	4003	0	0	5	5	0.05556598	-0.1031229	3	10	0.03	2000	-0.7741699	40.92397	-91.39365
126539	164	100	251	0.5069141	-0.01239445	1.494244	0	12.08	4003	0	0	5	5	0.05556598	-0.1026694	3	10	0.03	2000	-0.8128052	40.92397	-91.39365
126637	-46	44	186	0.4771863	0.04698339	1.491258	0	12.08	4004	0	0	5	5	0.05556598	-0.102845	3	10	0.03	2000	-1.070099	40.92397	-91.39365
126681	13	72	46	0.4747177	0.03359488	1.492974	0	12.08	4003	0	0	5	5	0.05556598	-0.1028785	3	10	0.03	2000	-1.508667	40.92397	-91.39365
126830	177	-76	-200	0.483741	0.02233852	1.516726	0	12.08	4003	0	0	5	5	0.05556598	-0.1107884	3	10	0.03	2000	-1.039978	40.92397	-91.39365
126923	-107	59	25	0.4478064	0.07017311	1.499906	0	12.08	4004	0	0	5	5	0.05556598	-0.1169894	3	10	0.03	2000	-0.3709106	40.92397	-91.39365
127023	-221	-86	95	0.4270756	0.05871152	1.513123	0	11.97	4003	0	0	5	5	0.05556598	-0.1200643	3	10	0.03	2000	-0.9617615	40.92397	-91.39365
127135	-44	-81	-87	0.4862694	0.08397427	1.496319	0	11.97	4004	0	0	5	5	0.05556598	-0.1249772	3	10	0.03	2000	-1.146454	40.92397	-91.39365
127220	166	50	52	0.5191295	0.04221169	1.477549	0	11.97	4002	0	0	5	5	0.05556598	-0.1240839	3	10	0.03	2000	-1.146454	40.92397	-91.39365
127384	283	18	127	0.5452586	0.0651945	1.470575	0	11.97	4004	0	0	5	5	0.05556598	-0.101697	3	10	0.03	2000	-1.397644	40.92397	-91.39365
127422	-86	74	-116	0.5259699	0.05498834	1.477729	0	11.97	4002	0	0	5	5	0.05556598	-0.09853111	3	10	0.03	2000	-1.397644	40.92397	-91.39365
127496	-120	70	-75	0.5209169	-0.01018622	1.473585	0	11.97	4002	0	0	5	5	0.05556598	-0.09189025	3	10	0.03	2000	-0.4169617	40.92397	-91.39365
127598	216	-105	1	0.5016871	-0.004742774	1.479134	0	11.97	4002	0	0	5	5	0.05556598	-0.08690745	3	10	0.03	2000	-0.8828125	40.92397	-91.39365
127734	-249	70	-91	0.4341336	-0.09141947	1.475337	0	11.97	4003	0	0	5	5	0.05556598	-0.0707988	3	10	0.03	2000	-1.268066	40.92397	-91.39365
127878	-16	-34	628	0.4302455	0.02941899	1.428864	0	11.97	4003	0	0	5	5	0.05556598	-0.05591733	3	10	0.03	2000	-1.418365	40.92397	-91.39365
127912	-16	-34	628	0.4302455	0.02941899	1.428864	0	11.97	4003	0	0	5	5	0.05556598	-0.05401403	3	10	0.03	2000	-1.418365	40.92397	-91.39365
128051	242	-8	-125	0.4293466	0.06726611	1.454122	0	12.08	4002	0	0	5	5	0.05556598	-0.05442073	3	10	0.03	2000	-0.7796021	40.92397	-91.39365
128104	229	-117	341	0.411415	0.1421518	1.443103	0	12.08	4004	0	0	5	5	0.05556598	-0.05523705	3	10	0.03	2000	-1.20517	40.92397	-91.39365
128267	97	-127	287	0.397955	0.1290007	1.460888	0	12.08	4004	0	0	5	5	0.05556598	-0.0538218	3	10	0.03	2000	-1.494354	40.92397	-91.39365
128336	-236	170	238	0.4024676	0.16141	1.449081	0	12.08	4003	0	0	5	5	0.05556598	-0.0480768	3	10	0.03	2000	-1.266144	40.92397	-91.39365
128390	-57	62	-277	0.458382	0.1969589	1.47849	0	12.08	4003	0	0	5	5	0.05556598	-0.04540307	3	10	0.03	2000	-0.8511963	40.92397	-91.39365
128585	-17	35	549	0.5499744	0.170249	1.466877	0	12.08	4004	0	0	5	5	0.05556598	-0.02766522	3	10	0.03	2000	-0.9275208	40.92397	-91.39365
128603	-17	35	549	0.5499744	0.170249	1.466877	0	12.08	4004	0	0	5	5	0.05556598	-0.02879692	3	10	0.03	2000	-0.9275208	40.92397	-91.39365
128724	-235	-36	245	0.5456253	0.2417405	1.465948	0	12.08	4003	0	0	5	5	0.05556598	-0.02904529	3	10	0.03	2000	-0.9977722	40.92397	-91.39365
128802	-58	214	230	0.5695451	0.2276784	1.465343	0	12.08	4002	0	0	5	5	0.05556598	-0.02115924	3	10	0.03	2000	-1.46991	40.92397	-91.39365
128954	37	-80	-301	0.4925744	0.169902	1.450362	0	12.08	4002	0	0	5	5	0.05556598	-0.01157341	3	10	0.03	2000	-1.430878	40.92397	-91.39365
129009	-228	-100	-217	0.4976675	0.3301353	1.472472	0	12.08	4004	0	0	5	5	0.05556598	-0.008222273	3	10	0.03	2000	-1.043488	40.92397	-91.39365
129210	-168	140	-61	0.6624781	0.1755664	1.474411	0	12.08	4003	0	0	5	5	0.05556598	-0.005344283	3	10	0.03	2000	-1.533997	40.92397	-91.39365
129259	-122	-24	-1010	0.6241498	0.2682596	1.495401	0	12.08	4004	0	0	5	5	0.05556598	-0.00567191	3	10	0.03	2000	-2.068115	40.92397	-91.39365
129314	205	155	-625	0.5764753	0.2228372	1.501927	0	12.08	4004	0	0	5	5	0.05556598	-0.005438886	3	10	0.03	2000	-2.068115	40.92397	-91.39365
129423	77	-65	-487	0.7588915	0.1435373	1.611148	0	12.08	4002	0	0	5	5	0.05556598	0.006652673	3	10	0.03	2000	-1.284393	40.92397	-91.39365
129618	25	-930	214	0.7255068	1.071373	1.738325	0	12.08	4003	0	0	5	5	0.05556598	0.02144356	3	10	0.03	2000	-1.920593	40.92397	-91.39365
129679	-1151	-285	-151	-0.04708578	2.567214	2.676774	0	12.08	4002	0	0	5	5	0.05556598	0.0306891	3	10	0.03	2000	-2.585052	40.92397	-91.39365
129777	-1167	-195	-893	-2.18048	2.826591	3.761468	0	12.08	4003	0	0	5	5	0.05556598	0.04120053	3	10	0.03	2000	-2.803772	40.92397	-91.39365
129825	-1479	-358	-1037	-2.872636	2.857381	4.126547	0	12.08	4003	0	0	5	5	0.05556598	0.04568872	3	10	0.03	2000	-2.803772	40.92397	-91.39365
129915	-532	-78	320	-3.309757	2.477256	4.177849	0	12.08	4003	0	0	5	5	0.05556598	0.06432521	3	10	0.03	2000	-4.753937	40.92397	-91.39365
130075	-2013	-8452	642	-0.8180785	2.754402	5.004664	0	12.08	4002	0	0	5	5	0.05556598	0.09102996	3	10	0.03	2000	-3.691315	40.92397	-91.39365
130179	-903	-5562	-1785	-2.85298	9.42172	4.84084	0	12.08	4004	0	0	5	5	0.05556598	0.09507523	3	10	0.03	2000	-5.744324	40.92397	-91.39365
130214	-1016	-285	-4448	-3.151186	13.58324	10.84746	0	12.08	4003	0	0	5	5	0.05556598	0.09562783	3	10	0.03	2000	-8.041443	40.92397	-91.39365
130359	-6420	314	-7456	-10.37576	16.71065	19.30979	0	12.08	4003	0	0	5	5	0.05556598	0.09087417	3	10	0.03	2000	-15.36664	40.92397	-91.39365
130418	-2792	1934	-9439	-12.73749	18.00337	29.59508	0	12.08	4004	0	0	5	5	0.05556598	0.07896892	3	10	0.03	2000	-23.81082	40.92397	-91.39365
130560	922	3246	-62	0.5977062	17.88677	48.18626	0	12.08	4004	0	0	5	5	0.05556598	0.04401191	3	10	0.03	2000	-39.90927	40.92397	-91.39365
130622	3029	3552	1000	4.52028	13.05927	49.09984	0	12.08	4003	0	0	5	5	0.05556598	0.03592229	3	10	0.03	2000	-42.98593	40.92397	-91.39365
130775	-515	-705	-42	7.301322	10.33183	49.02771	0	12.02	4002	0	0	5	5	0.05556598	-0.01389478	3	10	0.03	2000	-42.42422	40.92397	-91.39365
130840	-907	-1281	7	6.141568	12.52464	49.02838	0	12.02	4002	0	0	5	5	0.05556598	-0.03436542	3	10	0.03	2000	-43.90759	40.92397	-91.39365
131007	103	99	45	5.300345	14.34826	49.03408	0	12.02	4003	0	0	5	5	0.05556598	-0.08731099	3	10	0.03	2000	-44.49942	40.92397	-91.39365
131139	35	31	-38	5.560121	14.56041	49.03597	0	12.02	4003	0	0	5	5	0.05556598	-0.1157073	3	10	0.03	2000	-44.82449	40.92397	-91.39365
131208	31	-7	3	5.651366	14.68315	49.03119	0	12.02	4003	0	0	5	5	0.05556598	-0.1217157	3	10	0.03	2000	-45.39819	40.92397	-91.39365
131314	4	-18	0	5.837592	14.8736	49.02833	0	12.02	4004	0	0	5	5	0.05556598	-0.136375	3	10	0.03	2000	-44.43738	40.92397	-91.39365
131426	-8	-23	29	5.947143	14.98991	49.02056	0	12.02	4003	0	0	5	5	0.05556598	-0.1480218	3	10	0.03	2000	-43.99866	40.92397	-91.39365
131461	5	-12	10	5.985408	15.02835	49.01775	0	12.02	4003	0	0	5	5	0.05556598	-0.1503228	3	10	0.03	2000	-44.98309	40.92397	-91.39365
131534	14	2	1	6.052746	15.09772	49.01927	0	12.02	4003	0	0	5	5	0.05556598	-0.1570899	3	10	0.03	2000	-45.27301	40.92397	-91.39365
131636	11	5	-3	6.175018	15.20344	49.01426	0	12.14	4004	0	0	5	5	0.05556598	-0.166985	3	10	0.03	2000	-44.71799	40.92397	-91.39365
131751	10	-16	-7	6.279255	15.2997	49.01123	0	12.14	4004	0	0	5	5	0.05556598	-0.1645316	3	10	0.03	2000	-44.54581	40.92397	-91.39365
131876	15	3	-11	6.366467	15.38535	49.00805	0	12.14	4003	0	0	5	5	0.05556598	-0.1612953	3	10	0.03	2000	-45.13873	40.92397	-91.39365
131947	16	-1	5	6.403704	15.41882	49.00537	0	12.14	4002	0	0	5	5	0.05556598	-0.1579794	3	10	0.03	2000	-45.68048	40.92397	-91.39365
132019	24	-5	1	6.439492	15.45202	49.00513	0	12.14	4004	0	0	5	5	0.05556598	-0.154831	3	10	0.03	2000	-45.09872	40.92397	-91.39365
132124	21	-2	8	6.490743	15.49748	49.00439	0	12.14	4003	0	0	5	5	0.05556598	-0.1324084	3	10	0.03	2000	-45.65256	40.92397	-91.39365
132267	21	-5	0	6.554211	15.56067	49.00128	0	12.14	4004	0	0	5	5	0.05556598	-0.1153216	3	10	0.03	2000	-45.65582	40.92397	-91.39365
132379	20	-1	1	6.579721	15.58128	49.00092	0	12.14	4004	0	0	5	5	0.05556598	-0.1075686	3	10	0.03	2000	-45.44772	40.92397	-91.39365
132430	14	0	3	6.607993	15.61012	48.99939	0	12.14	4002	0	0	5	5	0.05556598	-0.1078852	3	10	0.03	2000	-45.48569	40.92397	-91.39365
132589	16	1	1	6.641444	15.64167	48.99866	0	12.08	4004	0	0	5	5	0.05556598	-0.1059076	3	10	0.03	2000	-45.50681	40.92397	-91.39365
132677	18	0	-2	6.662199	15.66826	48.99854	0	12.08	4003	0	0	5	5	0.05556598	-0.1050374	3	10	0.03	2000	-45.46078	40.92397	-91.39365
132739	26	-7	-1	6.680257	15.68087	48.99994	0	12.08	4004	0	0	5	5	0.05556598	-0.1070045	3	10	0.03	2000	-45.46429	40.92397	-91.39365
132840	20	-1	-2	6.699353	15.69772	49.00043	0	12.08	4004	0	0	5	5	0.05556598	-0.105148	3	10	0.03	2000	-45.76126	40.92397	-91.39365
132935	23	-7	-4	6.723638	15.72413	49.00031	0	12.08	4003	0	0	5	5	0.05556598	-0.1059564	3	10	0.03	2000	-45.55249	40.92397	-91.39365
133042	23	3	4	6.739148	15.74232	49.00067	0	12.08	4004	0	0	5	5	0.05556598	-0.1205649	3	10	0.03	2000	-45.4812	40.92397	-91.39365
133160	16	-1	8	6.757852	15.77247	49.0055	0	12.08	4004	0	0	5	5	0.05556598	-0.1396627	3	10	0.03	2000	-45.89316	40.92397	-91.39365
133286	13	1	-2	6.765857	15.7843	49.0077	0	12.08	4003	0	0	5	5	0.05556598	-0.1559366	3	10	0.03	2000	-45.70801	40.92397	-91.39365
133355	26	-3	3	6.773751	15.78322	49.00801	0	12.08	4002	0	0	5	5	0.05556598	-0.1626408	3	10	0.03	2000	-45.68192	40.92397	-91.39365
133470	16	-3	1	6.782884	15.79578	49.01204	0	12.14	4003	0	0	5	5	0.05556598	-0.1709697	3	10	0.03	2000	-45.47174	40.92397	-91.39365
133593	20	-7	6	6.791128	15.80858	49.01252	0	12.14	4002	0	0	5	5	0.05556598	-0.1723097	3	10	0.03	2000	-45.90796	40.92397	-91.39365
133644	23	-5	0	6.800935	15.80868	49.0132	0	12.14	4003	0	0	5	5	0.05556598	-0.1700062	3	10	0.03	2000	-45.67938	40.92397	-91.39365
133752	1176	1437	-255	6.875644	15.82679	49.08625	0	12.14	4003	0	0	5	5	0.05556598	-0.1685375	3	10	0.03	2000	-45.7132	40.92397	-91.39365
133898	1954	2909	165	12.68725	7.906281	48.98415	0	12.14	4004	0	0	5	5	0.05556598	-0.150268	3	10	0.03	2000	-41.52673	40.92397	-91.39365
134026	-7117	1802	2092	6.90898	4.303885	46.87523	0	12.14	4003	0	0	5	5	0.05556598	-0.1328275	3	10	0.03	2000	-35.97763	40.92397	-91.39365
134101	-1995	1408	920	-3.627909	1.989159	43.83739	0	12.14	4002	0	0	5	5	0.05556598	-0.1311663	3	10	0.03	2000	-33.55099	40.92397	-91.39365
134176	838	1486	1269	-2.768997	0.420002	43.18025	0	12.14	4004	0	0	5	5	0.05556598	-0.1276114	3	10	0.03	2000	-33.8649	40.92397	-91.39365
134297	2259	-1177	7428	3.560377	3.292872	36.21827	0	12.14	4004	0	0	5	5	0.05556598	-0.1224685	3	10	0.03	2000	-33.345	40.92397	-91.39365
134454	789	-1495	11002	5.419375	7.437791	12.83255	0	12.14	4003	0	0	5	5	0.05556598	-0.110851	3	10	0.03	2000	-21.53439	40.92397	-91.39365
134485	789	-1495	11002	5.419375	7.437791	12.83255	0	12.14	4003	0	0	5	5	0.05556598	-0.1063738	3	10	0.03	2000	-21.53439	40.92397	-91.39365
134611	-640	3755	-1934	0.238129	2.897742	-5.995641	0	12.14	4004	0	0	5	5	0.05556598	-0.09638652	3	10	0.03	2000	4.175263	40.92397	-91.39365
134673	-640	3755	-1934	0.238129	2.897742	-5.995641	0	12.14	4004	0	0	5	5	0.05556598	-0.09046578	3	10	0.03	2000	4.175263	40.92397	-91.39365
134816	-10	-271	-5	0.6131205	0.5795515	-0.1027213	0	12.14	4003	0	0	5	5	0.05556598	-0.07959338	3	10	0.03	2000	0.6310237	40.92397	-91.39365
134891	89	-132	4	0.161898	1.145548	-0.04452591	0	12.14	4004	0	0	5	5	0.05556598	-0.07731706	3	10	0.03	2000	-0.2151184	40.92397	-91.39365
134986	15	11	3	0.1805713	0.9616219	-0.00993737	0	12.14	4003	0	0	5	5	0.05556598	-0.07601736	3	10	0.03	2000	0.2244169	40.92397	-91.39365
135151	16	-4	-4	0.173846	0.7692965	0.01017732	0	12.14	4002	0	0	5	5	0.05556598	-0.0926692	3	10	0.03	2000	0.1696728	40.92397	-91.39365
135207	25	0	5	0.1489192	0.7200965	0.01341743	0	12.14	4003	0	0	5	5	0.05556598	-0.09744388	3	10	0.03	2000	0.4521998	40.92397	-91.39365
135271	20	-6	-1	0.1223563	0.6485952	0.0178192	0	12.14	4004	0	0	5	5	0.05556598	-0.1050802	3	10	0.03	2000	0.2480022	40.92397	-91.39365
135408	23	-6	-1	0.0931209	0.5897626	0.02050921	0	12.14	4004	0	0	5	5	0.05556598	-0.1233765	3	10	0.03	2000	0.2851121	40.92397	-91.39365
135465	22	1	-3	0.08099472	0.5578138	0.02142649	0	12.14	4002	0	0	5	5	0.05556598	-0.1263426	3	10	0.03	2000	0.3228156	40.92397	-91.39365
135592	31	1	-1	0.04883523	0.4977346	0.02741779	0	12.14	4002	0	0	5	5	0.05556598	-0.1317506	3	10	0.03	2000	0.3784044	40.92397	-91.39365
135676	28	-8	-5	0.03862887	0.4672629	0.02955767	0	12.14	4004	0	0	5	5	0.05556598	-0.1279078	3	10	0.03	2000	0.4037595	40.92397	-91.39365
135795	24	-5	-5	0.02177818	0.4215688	0.03481566	0	12.14	4003	0	0	5	5	0.05556598	-0.1063609	3	10	0.03	2000	0.4368997	40.92397	-91.39365
135864	26	-1	0	0.01968536	0.409898	0.03695533	0	12.14	4003	0	0	5	5	0.05556598	-0.1028312	3	10	0.03	2000	0.4503192	40.92397	-91.39365
136040	29	-3	-4	-0.002452075	0.3570241	0.04404753	0	12.14	4007	0	0	5	5	0.05556598	-0.07869467	3	10	0.03	2000	0.2405617	40.92397	-91.39365
136103	28	3	2	-0.003863883	0.3480431	0.04410866	0	12.14	4002	0	0	5	5	0.05556598	-0.0761757	3	10	0.03	2000	0.2405617	40.92397	-91.39365
136210	29	-3	6	-0.01715994	0.3214424	0.05010027	0	12.14	4004	0	0	5	5	0.05556598	-0.07308511	3	10	0.03	2000	0.5071549	40.92397	-91.39365
136278	23	-4	-4	-0.02431889	0.3116874	0.05217895	0	12.14	4004	0	0	5	5	0.05556598	-0.07243465	3	10	0.03	2000	0.5268946	40.92397	-91.39365
136438	29	-1	-3	-0.02634366	0.2944849	0.058232	0	12.14	4003	0	0	5	5	0.05556598	-0.07214005	3	10	0.03	2000	0.2968623	40.92397	-91.39365
136523	34	0	2	-0.0284459	0.2822182	0.06214482	0	12.14	4002	0	0	5	5	0.05556598	-0.07667205	3	10	0.03	2000	0.7839048	40.92397	-91.39365
136570	30	-2	0	-0.03752731	0.2715572	0.06330638	0	12.14	4004	0	0	5	5	0.05556598	-0.07843828	3	10	0.03	2000	0.5580346	40.92397	-91.39365
136701	32	5	-1	-0.04161157	0.2609684	0.06740227	0	12.14	4004	0	0	5	5	0.05556598	-0.08546336	3	10	0.03	2000	0.8040174	40.92397	-91.39365
136737	25	-3	0	-0.04023287	0.2616197	0.068992	0	12.14	4002	0	0	5	5	0.05556598	-0.08707261	3	10	0.03	2000	0.5686328	40.92397	-91.39365
136849	21	1	-8	-0.04381019	0.2535471	0.07180424	0	12.14	4003	0	0	5	5	0.05556598	-0.09145	3	10	0.03	2000	0.8148061	40.92397	-91.39365
136987	36	-7	0	-0.04637465	0.2459123	0.07541128	0	12.14	4002	0	0	5	5	0.05556598	-0.1032197	3	10	0.03	2000	0.5731928	40.92397	-91.39365
137092	23	1	-3	-0.05577175	0.2390901	0.07962953	0	12.14	4003	0	0	5	5	0.05556598	-0.1040806	3	10	0.03	2000	0.5858531	40.92397	-91.39365
137150	27	5	-2	-0.05879347	0.2324459	0.0831756	0	12.14	4003	0	0	5	5	0.05556598	-0.1030274	3	10	0.03	2000	0.3479058	40.92397	-91.39365
137272	27	-10	-78	-0.05803199	0.220503	0.09191643	0	12.14	4004	0	0	5	5	0.05556598	-0.08786239	3	10	0.03	2000	0.8401868	40.92396	-91.39365
137427	30	2	91	-0.03587017	0.2074864	0.09962003	0	12.14	4002	0	0	5	5	0.05556598	-0.07770719	3	10	0.03	2000	1.31355	40.92396	-91.39365
137493	-44	-84	69	-0.04466217	0.1936315	0.08897591	0	12.14	4002	0	0	5	5	0.05556598	-0.08149045	3	10	0.03	2000	0.3324397	40.92396	-91.39365
137616	23	0	-113	-0.06528074	0.2205676	0.09295639	0	12.14	4003	0	0	5	5	0.05556598	-0.08576948	3	10	0.03	2000	1.121569	40.92396	-91.39365
137678	-12	-139	191	-0.08767805	0.2553421	0.07424518	0	12.14	4002	0	0	5	5	0.05556598	-0.08574761	3	10	0.03	2000	0.3954044	40.92396	-91.39365
137787	-9	-101	-80	-0.1114733	0.2533938	0.09030249	0	12.14	4003	0	0	5	5	0.05556598	-0.08513976	3	10	0.03	2000	0.4162569	40.92396	-91.39365
137809	-9	-101	-80	-0.1114733	0.2533938	0.09030249	0	12.14	4003	0	0	5	5	0.05556598	-0.08562084	3	10	0.03	2000	0.4162569	40.92396	-91.39365
137929	7	123	-22	-0.1327749	0.3175616	0.0824794	0	12.14	4003	0	0	5	5	0.05556598	-0.08662762	3	10	0.03	2000	-0.05953979	40.92396	-91.39365
138086	154	-81	-394	-0.09300051	0.2298094	0.0884487	0	11.68	4003	0	0	5	5	0.05556598	-0.08572759	3	10	0.03	2000	-0.5435791	40.92396	-91.39365
138130	-203	-208	135	-0.1319513	0.1489175	0.04930088	0	11.68	4004	0	0	5	5	0.05556598	-0.08154991	3	10	0.03	2000	0.1226421	40.92396	-91.39365
138292	-122	-24	-40	-0.134922	0.1738128	0.01371495	0	11.68	4003	0	0	5	5	0.05556598	-0.05446737	3	10	0.03	2000	0.2291815	40.92396	-91.39365
138405	-222	47	710	-0.1610945	0.1647882	-0.000432916	0	11.68	4003	0	0	5	5	0.05556598	-0.03055376	3	10	0.03	2000	-0.06018066	40.92396	-91.39365
138465	37	-57	-255	-0.2010316	0.2683496	0.02999933	0	11.68	4003	0	0	5	5	0.05556598	-0.02666694	3	10	0.03	2000	0.4194208	40.92396	-91.39365
138548	282	-7	-604	-0.2049442	0.1789398	0.05686659	0	11.68	4002	0	0	5	5	0.05556598	-0.02821925	3	10	0.03	2000	0.09896901	40.92396	-91.39365
138630	-73	322	404	-0.2163206	0.1869806	0.03905718	0	11.68	4003	0	0	5	5	0.05556598	-0.02777776	3	10	0.03	2000	0.4579262	40.92396	-91.39365
138772	97	-13	5	-0.2032912	0.2532424	0.1047552	0	11.68	4003	0	0	5	5	0.05556598	-0.03015385	3	10	0.03	2000	0.08003229	40.92396	-91.39365
138869	116	-207	-201	-0.2868914	0.3888976	0.1022172	0	11.68	4004	0	0	5	5	0.05556598	-0.03260177	3	10	0.03	2000	0.7581944	40.92396	-91.39365
138969	152	120	125	-0.2348425	0.2768252	0.1070898	0	11.68	4004	0	0	5	5	0.05556598	-0.02844701	3	10	0.03	2000	0.395587	40.92396	-91.39365
139052	63	57	-311	-0.2337704	0.3824324	0.146204	0	11.68	4003	0	0	5	5	0.05556598	-0.02290125	3	10	0.03	2000	-0.0602417	40.92396	-91.39365
139102	118	-65	-386	-0.2372867	0.3615	0.1479258	0	11.68	4004	0	0	5	5	0.05556598	-0.02358549	3	10	0.03	2000	-0.0602417	40.92396	-91.39365
139262	-12	-235	-117	-0.2340711	0.3214699	0.1778828	0	11.68	4004	0	0	5	5	0.05556598	-0.02439449	3	10	0.03	2000	0.6235343	40.92396	-91.39365
139311	191	120	29	-0.174685	0.3994068	0.1754372	0	11.68	4004	0	0	5	5	0.05556598	-0.02192095	3	10	0.03	2000	0.1437222	40.92396	-91.39365
139461	76	24	-121	-0.2347461	0.4811486	0.1451022	0	11.68	4003	0	0	5	5	0.05556598	-0.01851124	3	10	0.03	2000	0.3852244	40.92396	-91.39365
139522	153	24	-44	-0.2180069	0.3968466	0.1423818	0	11.68	4003	0	0	5	5	0.05556598	-0.01708471	3	10	0.03	2000	-0.09783936	40.92396	-91.39365
139607	130	20	-246	-0.1835835	0.3386914	0.1258219	0	11.68	4004	0	0	5	5	0.05556598	-0.0167036	3	10	0.03	2000	0.4092334	40.92396	-91.39365
139748	233	46	-459	-0.1274783	0.2538432	0.1005147	0	11.68	4003	0	0	5	5	0.02643169	-0.01532302	6	10	0.03	2000	1.065086	40.92396	-91.39365
139825	-131	193	22	-0.1515994	0.2714073	0.1161994	0	12.14	4003	0	0	5	5	0.03181286	-0.01463256	6	10	0.03	2000	-0.01785278	40.92396	-91.39365
139927	34	-64	251	-0.1654828	0.2000457	0.1522221	0	12.14	4002	0	0	5	5	0.03536556	-0.004920219	6	10	0.03	2000	0.1536824	40.92396	-91.39365
140011	80	24	165	-0.1592662	0.2686567	0.1751059	0	12.14	4002	0	0	5	5	0.03933552	0.01615527	6	10	0.03	2000	0.2677758	40.92396	-91.39365
140235	-127	-22	134	-0.08325502	0.2879582	0.1266453	0	12.14	4004	0	0	5	5	0.0440062	0.02363924	6	10	0.03	2000	1.143036	40.92396	-91.39365
140406	-117	-83	624	-0.3714992	0.08591931	-0.06698538	0	12.14	4003	0	0	5	5	0.04366216	0.03065817	6	10	0.03	2000	0.4766472	40.92396	-91.39365
140439	-67	-501	-487	-0.3947225	-0.03384552	-0.2003658	0	12.14	4002	0	0	5	5	0.04324045	0.03248775	6	10	0.03	2000	0.4766472	40.92396	-91.39365
140524	-206	-1308	-266	-0.4398801	0.3676657	-0.2312742	0	12.14	4003	0	0	5	5	0.04272511	0.03172525	6	10	0.03	2000	0.907869	40.92396	-91.39365
140628	-920	-848	-573	-1.371549	2.900621	1.057358	0	12.14	4004	0	0	5	5	0.04360617	0.02404352	6	10	0.03	2000	1.718378	40.92396	-91.39365
140773	1306	3138	932	-0.5775285	-3.295539	0.9972975	0	11.34	4003	0	0	5	5	0.04750653	0.02319122	6	10	0.03	2000	0.2720715	40.92396	-91.39365
140839	461	41	-14	0.2461298	-5.10135	0.513799	0	11.34	4003	0	0	5	5	0.05229633	0.02439796	6	10	0.03	2000	0.6799683	40.92396	-91.39365
140925	168	-716	-180	0.3839993	-5.268798	-0.6005713	0	11.34	4003	0	0	5	5	0.06191999	0.01002385	6	10	0.03	2000	2.257339	40.92396	-91.39365
141095	986	109	-100	-0.846701	-4.893584	-0.1185346	0	11.34	4002	0	0	5	5	0.09405053	-0.001826562	6	10	0.03	2000	3.277094	40.92396	-91.39365
141227	-274	-1645	-169	-0.7561572	-3.793211	-0.3165307	0	11.34	4004	0	0	5	5	0.1289823	0.0105711	6	10	0.03	2000	5.214523	40.92396	-91.39365
141374	387	741	936	-0.3236	-4.88412	-1.281734	0	11.34	4002	0	0	5	5	0.1894573	0.03727121	6	10	0.03	2000	3.313075	40.92396	-91.39365
141432	1139	-852	-673	0.6670582	-4.631389	-0.7658753	0	11.34	4002	0	0	5	5	0.2642494	0.05071344	8	10	0.03	2000	4.454971	40.92396	-91.39365
141579	-902	-613	761	-0.26951	-2.035976	-0.4549882	0	11.8	4003	0	0	5	5	0.3948219	0.0881312	8	10	0.03	2000	4.644025	40.92396	-91.39365
141645	398	-87	-862	-0.09901669	-2.930616	-0.639737	0	11.8	4004	0	0	5	5	0.4136497	0.09429993	8	10	0.03	2000	2.590739	40.92396	-91.39365
141704	434	403	-737	0.1540325	-3.378795	-0.8878835	0	11.8	4002	0	0	5	5	0.4595707	0.1183153	8	10	0.03	2000	1.569778	40.92396	-91.39365
141811	2528	87	1190	0.7087013	-3.683522	-1.314923	0	11.8	4002	0	0	5	5	0.4930471	0.1537854	8	10	0.03	2000	0.9750177	40.92396	-91.39365
141966	-1121	-65	-1811	0.2938551	-6.962571	-0.08200569	0	11.8	4003	0	-9	5	5	0.5299247	0.2236973	8	10	0.03	2000	4.18119	40.92395	-91.39365
142042	2436	-24	-1752	0.7626953	-8.040527	0.632081	0	11.8	4003	0	-9	5	5	0.540028	0.25803	8	10	0.03	2000	5.18768	40.92395	-91.39365
142135	-1491	180	758	0.5747718	-8.43531	0.3750095	0	11.8	4002	0	-9	5	5	0.5482117	0.300028	8	10	0.03	2000	3.938277	40.92395	-91.39365
142167	-1631	-1640	-419	-0.5618695	-7.989762	0.2307869	0	11.8	4002	0	-9	5	5	0.5517005	0.3158847	8	10	0.03	2000	3.938277	40.92395	-91.39365
142267	272	-1101	-881	-0.6107916	-4.278381	-0.4400247	0	11.8	4004	0	-9	5	5	0.5624987	0.4053965	8	10	0.03	2000	3.848872	40.92395	-91.39365
142394	-902	-604	30	1.751908	-4.598561	-0.691143	0	11.8	4002	0	-10	5	5	0.5680817	0.504883	8	10	0.03	2000	2.991619	40.92395	-91.39365
142507	201	-1289	-982	-1.136022	-0.4520195	-0.1907511	0	11.4	4002	0	-10	5	5	0.5742318	0.7390866	8	10	0.03	2000	1.692082	40.92395	-91.39365
142553	651	-900	-88	-1.10542	0.3118417	-0.04494481	0	11.4	4002	0	-10	5	5	0.5751186	0.7556801	8	10	0.03	2000	1.382602	40.92395	-91.39365
142722	302	688	411	-0.6436448	-2.768749	-0.1949842	0	11.4	4002	18	-10	5	5	0.578387	0.9992329	8	10	0.03	2000	0.5438963	40.92395	-91.39364
142806	-732	1632	1116	-0.06703822	-4.630085	-0.4178463	0	11.4	4002	18	-11	5	5	0.5792825	1.051501	8	10	0.03	2000	0.5438963	40.92395	-91.39364
142903	41	2315	794	-1.121205	-5.417472	-0.837993	0	11.4	4004	19	-11	5	5	0.5805953	1.150115	8	10	0.03	2000	1.076015	40.92395	-91.39364
142938	-1339	3126	2966	-1.334755	-6.314258	-1.251022	0	11.4	4003	19	-11	5	5	0.5808458	1.170637	8	10	0.03	2000	1.076015	40.92395	-91.39364
143136	1435	2033	148	-1.481128	-11.76208	-1.240574	0	11.4	4002	20	-21	5	5	0.581902	1.44783	8	10	0.03	2000	-1.192261	40.92395	-91.39364
143232	-1882	-3305	-1067	-3.419352	-9.071438	0.5725223	0	11.4	4002	20	-21	5	5	0.5821296	1.604516	8	10	0.03	2000	-1.801056	40.92395	-91.39364
143267	-1882	-3305	-1067	-3.419352	-9.071438	0.5725223	0	11.4	4002	21	-22	5	5	0.5822266	1.621326	8	10	0.03	2000	-1.801056	40.92395	-91.39364
143353	199	980	1248	-3.788347	-7.741153	0.5325129	0	11.4	4003	21	-22	5	5	0.5824633	1.721995	8	10	0.03	2000	-0.7995911	40.92395	-91.39364
143446	968	-481	1110	-2.567314	-6.969743	-1.347165	0	11.34	4003	21	-22	5	5	0.5826358	1.808587	8	10	0.03	2000	0.6848294	40.92395	-91.39364
143570	261	200	1205	-1.511743	-5.797139	-1.151467	0	11.34	4003	22	-23	5	5	0.5827616	1.974005	8	10	0.03	2000	0.700227	40.92395	-91.39364
143685	-853	-1877	-578	-2.593344	-3.171044	-0.262026	0	11.34	4003	22	-23	5	5	0.5828781	2.08443	8	10	0.03	2000	3.623725	40.92395	-91.39364
143801	-400	1471	45	-2.130093	-5.351459	-0.4010625	0	11.34	4002	23	-24	5	5	0.5829382	2.16647	8	10	0.03	2000	4.528759	40.92395	-91.39364
143854	-418	-1797	606	-3.063135	-5.813151	-0.8053071	0	11.34	4002	26	-27	5	5	0.5829689	2.229682	8	10	0.03	2000	3.674365	40.92395	-91.39364
143963	558	-953	-353	-3.293589	-2.434415	-0.749615	0	11.34	4004	24	-25	5	5	0.583014	2.353238	8	10	0.03	2000	4.171221	40.92395	-91.39364
144067	539	-426	-484	-2.664186	-2.043661	-0.2894099	0	11.34	4002	42	-25	5	5	0.5830373	2.432558	8	10	0.03	2000	3.070427	40.92395	-91.39363
144276	344	27	-632	-2.333965	-7.24178	-0.4703598	0	11.34	4002	43	-26	5	5	0.5830666	2.562287	8	10	0.03	2000	3.203704	40.92395	-91.39363
144348	-908	-2958	492	-2.309568	-5.239161	-0.7811076	0	11.29	4003	45	-27	5	5	0.583073	2.605835	8	10	0.03	2000	2.481272	40.92395	-91.39363
144377	-461	571	966	-4.305074	-1.483545	-0.8110517	0	11.29	4002	45	-27	5	5	0.5830756	2.634993	8	10	0.03	2000	4.444183	40.92395	-91.39363
144475	-848	1524	70	-4.879217	-3.707115	-1.040885	0	11.29	4004	46	-27	5	5	0.583084	2.70642	8	10	0.03	2000	3.945503	40.92395	-91.39363
144619	-235	-580	345	-3.770078	-4.065074	-0.252361	0	11.29	4003	47	-28	5	5	0.5830884	2.771417	8	10	0.03	2000	2.656505	40.92395	-91.39363
144679	-1640	-1281	-344	-4.425204	-3.538507	-0.4162242	0	11.29	4003	48	-28	5	5	0.5830915	2.816175	8	10	0.03	2000	2.656505	40.92395	-91.39363
144784	918	-900	-96	-5.342742	-1.401369	-0.5673242	0	11.29	4003	49	-29	5	5	0.5830938	2.848554	8	10	0.03	2000	3.84691	40.92395	-91.39363
144974	-1874	-16	-80	-4.626601	-5.277968	-0.6006898	0	11.29	4004	50	-29	5	5	0.5830963	2.871134	8	10	0.03	2000	4.609666	40.92395	-91.39363
145007	-1061	430	-17	-5.428009	-5.191653	-0.6752681	0	11.29	4002	51	-30	5	5	0.5830967	2.876638	8	10	0.03	2000	4.609666	40.92395	-91.39363
145077	556	1204	-486	-5.530758	-6.151077	-0.6134302	0	11.29	4004	52	-30	5	5	0.5830973	2.879394	8	10	0.03	2000	3.597295	40.92395	-91.39363
145208	-980	859	458	-5.774684	-6.974691	-0.8962861	0	11.63	4003	54	-31	5	5	0.5830984	2.870669	8	10	0.03	2000	-0.4527893	40.92395	-91.39363
145332	1946	3326	1054	-5.319623	-9.554765	-0.04367659	0	11.63	4004	54	-31	5	5	0.5830988	2.851169	8	10	0.03	2000	0.6084234	40.92395	-91.39363
145393	-2013	4498	791	-5.020856	-13.23077	-0.2868241	0	11.63	4004	55	-32	5	5	0.5830991	2.840335	8	10	0.03	2000	-1.295959	40.92395	-91.39363
145509	512	-1234	-581	-5.302927	-13.08893	-0.1357877	0	11.63	4004	57	-32	5	5	0.5830992	2.799634	8	10	0.03	2000	-1.809998	40.92395	-91.39363
145627	-923	-2744	-46	-4.63714	-9.318631	0.3392403	0	11.63	4002	57	-33	5	5	0.5830994	2.738828	8	10	0.03	2000	-3.145203	40.92395	-91.39363
145776	-407	-1325	208	-4.831882	-4.400211	0.3483357	0	11.63	4003	58	-33	5	5	0.5830997	2.682128	8	10	0.03	2000	-3.892639	40.92395	-91.39363
145839	227	648	150	-4.593519	-3.997197	0.1912165	0	11.63	4003	59	-34	5	5	0.5830997	2.640643	8	10	0.03	2000	-3.870483	40.92395	-91.39363
145939	339	-696	-349	-4.166636	-4.668858	-0.5064903	0	11.63	4003	42	-34	5	5	0.5830997	2.559677	8	10	0.03	2000	-3.213776	40.92395	-91.39364
146090	-896	1039	-80	-3.822647	-5.960684	-1.045912	0	11.63	4004	43	-35	5	5	0.5830997	2.465429	8	10	0.03	2000	-3.662567	40.92395	-91.39364
146126	957	-32	-2143	-4.494723	-6.25211	-0.991146	0	11.63	4003	43	-35	5	5	0.5830997	2.444526	8	10	0.03	2000	-3.292419	40.92395	-91.39364
146216	-2551	373	1389	-3.846348	-5.301091	-0.717988	0	10.72	4003	44	-36	5	5	0.5830997	2.345794	8	10	0.03	2000	-4.610992	40.92395	-91.39364
146341	1996	391	-2212	-4.474458	-7.360827	-0.7643384	0	10.72	4003	44	-36	5	5	0.5830997	2.213438	8	10	0.03	2000	-5.097107	40.92395	-91.39364
146414	1633	-485	-1029	-2.710769	-7.732274	-0.3659905	0	10.72	4004	45	-37	5	5	0.5830997	2.157098	8	10	0.03	2000	-6.121277	40.92395	-91.39364
146509	3011	-140	-1034	-1.272046	-8.082124	-0.8182429	0	10.72	4002	45	-37	5	5	0.5830997	2.102987	8	10	0.03	2000	-4.502594	40.92395	-91.39364
146637	3621	-184	-384	2.041429	-8.728539	-1.070775	0	10.72	4003	28	-38	5	5	0.5830997	2.000683	8	10	0.03	2000	-3.553528	40.92395	-91.39365
146744	749	-194	-1410	4.389511	-7.457898	0.1835885	0	10.72	4003	28	-38	5	5	0.5830997	1.954716	8	10	0.03	2000	-0.2703552	40.92395	-91.39365
146783	913	-594	-520	4.290501	-7.311702	0.635465	0	10.72	4003	28	-38	5	5	0.5830997	1.913457	8	10	0.03	2000	-0.2703552	40.92395	-91.39365
146908	-2758	596	1540	3.12421	-6.30199	0.4354545	0	10.72	4002	28	-39	5	5	0.5830997	1.828426	8	10	0.03	2000	3.600943	40.92395	-91.39365
147008	51	-792	766	0.5579473	-5.765712	-1.232886	0	10.72	4003	28	-40	5	5	0.5830997	1.745509	8	10	0.03	2000	4.067122	40.92395	-91.39365
147129	-155	-2461	-2231	0.1095056	-2.513975	-1.231081	0	11.06	4004	28	-40	5	5	0.5830997	1.69671	8	10	0.03	2000	6.447406	40.92395	-91.39365
147183	-2056	1841	-127	-0.84159	-2.98381	-0.6458272	0	11.06	4003	28	-40	5	5	0.5830997	1.676012	8	10	0.03	2000	6.447406	40.92395	-91.39365
147326	-502	-308	-61	-3.152962	-6.066032	0.1525666	0	11.06	4004	28	-41	5	5	0.5830997	1.631688	8	10	0.03	2000	3.414437	40.92395	-91.39365
147376	2566	-255	973	-1.298362	-5.639899	0.1325096	0	11.06	4004	28	-45	5	5	0.5830997	1.623381	8	10	0.03	2000	4.277639	40.92395	-91.39365
147577	1676	2353	-65	3.791905	-5.490613	-1.338583	0	11.06	4004	28	-33	5	5	0.5830997	1.596924	8	10	0.03	2000	8.065927	40.92395	-91.39365
147593	1676	2353	-65	3.791905	-5.490613	-1.338583	0	11.06	4004	28	-33	5	5	0.5830997	1.593087	8	10	0.03	2000	8.065927	40.92395	-91.39365
147747	193	-919	-1818	3.750249	-7.115876	-0.3083992	0	11.06	4002	28	-34	5	5	0.5830997	1.582978	8	10	0.03	2000	9.995719	40.92395	-91.39365
147795	193	-919	-1818	3.750249	-7.115876	-0.3083992	0	11.06	4002	28	-34	5	5	0.5830997	1.585965	8	10	0.03	2000	9.995719	40.92395	-91.39365
147916	299	-432	-1035	-0.2967573	-4.959403	-0.1706367	0	11.06	4002	28	-34	5	5	0.5830997	1.593047	8	10	0.03	2000	8.624532	40.92395	-91.39365
148005	-659	-2668	-531	-0.633837	-5.643817	-0.7741832	0	11.4	4003	28	-34	5	5	0.5830997	1.608152	8	10	0.03	2000	9.394818	40.92395	-91.39365
148106	-543	663	1437	-0.6356616	-5.252765	-0.7792186	0	11.4	4004	28	-26	5	5	0.5830997	1.633608	8	10	0.03	2000	10.95654	40.92396	-91.39365
148230	207	-401	795	-1.350682	-3.891996	-1.655022	0	11.4	4007	28	-26	5	5	0.5830997	1.664306	8	10	0.03	2000	9.638907	40.92396	-91.39365
148365	-2471	216	-40	-2.119503	-4.925723	-0.8723879	0	11.4	4003	28	-26	5	5	0.5830997	1.75052	8	10	0.03	2000	9.978931	40.92396	-91.39365
148450	-20	1026	1451	-4.901846	-2.154335	0.2911258	0	11.4	4004	28	-26	5	5	0.5830997	1.779664	8	10	0.03	2000	8.432144	40.92396	-91.39365
148482	-964	218	784	-4.974048	-2.475098	0.04938371	0	11.4	4003	28	-26	5	5	0.5830997	1.789306	8	10	0.03	2000	8.432144	40.92396	-91.39365
148599	-438	2878	2061	-6.603031	-6.516756	-1.288209	0	11.4	4004	28	-26	5	5	0.5830997	1.839961	8	10	0.03	2000	8.121352	40.92396	-91.39365
148692	-1446	418	889	-6.31975	-7.26	-1.605584	0	11.4	4002	46	-17	5	5	0.5830997	1.904114	8	10	0.03	2000	6.423172	40.92397	-91.39364
148823	-1531	-1744	-1056	-10.02285	-3.068649	-0.1960123	0	11.4	4003	46	-8	5	5	0.5830997	1.97834	8	10	0.03	2000	3.791438	40.92397	-91.39364
148970	1544	30	596	-8.625972	-1.053029	-0.03163213	0	11.57	4004	47	-7	5	5	0.5830997	2.064919	8	10	0.03	2000	-0.341217	40.92397	-91.39364
149021	-9	-1507	330	-6.038125	-1.853562	-0.05200368	0	11.57	4003	51	-3	5	5	0.5830997	2.092181	8	10	0.03	2000	0.4936475	40.92397	-91.39364
149121	-599	-2405	-134	-5.670384	-0.2127779	-0.03486113	0	11.57	4003	48	-6	5	5	0.5830997	2.152935	8	10	0.03	2000	-0.3893127	40.92397	-91.39364
149248	-21	-229	453	-6.375114	1.12544	-0.3781686	0	11.57	4002	48	-6	5	5	0.5830997	2.196471	8	10	0.03	2000	-0.9103699	40.92397	-91.39364
149319	293	598	282	-4.97145	-1.979338	-0.9899029	0	11.57	4003	49	-5	5	5	0.5830997	2.244047	8	10	0.03	2000	-3.592133	40.92397	-91.39364
149414	715	370	-1210	-2.777742	-3.568115	-0.2676304	0	11.57	4004	49	-5	5	5	0.5830997	2.266765	8	10	0.03	2000	-4.547668	40.92397	-91.39364
149529	491	2753	1192	-3.977214	-8.199735	-0.222642	0	11.57	4003	50	-4	5	5	0.5830997	2.299215	8	10	0.03	2000	-7.473389	40.92397	-91.39364
149678	-496	-840	251	-3.588258	-7.598308	0.14283	0	11.57	4002	50	5	5	5	0.5830997	2.354816	8	10	0.03	2000	-8.553375	40.92397	-91.39364
149745	-39	-4308	-1108	-3.989744	-5.517673	0.003612459	0	11.57	4002	51	5	5	5	0.5830997	2.376748	8	10	0.03	2000	-8.553375	40.92397	-91.39364
149836	-1715	780	1252	-4.862868	-4.112742	-0.9784713	0	10.83	4003	51	6	5	5	0.5830997	2.403932	8	10	0.03	2000	-8.776917	40.92397	-91.39364
149965	-1021	-1923	-684	-4.165706	-6.31567	-0.9671508	0	10.83	4002	52	6	5	5	0.5830997	2.424682	8	10	0.03	2000	-11.58261	40.92397	-91.39364
150031	-1270	-4521	-1549	-4.745646	-5.05346	-0.3687572	0	10.83	4003	52	7	5	5	0.5830997	2.436954	8	10	0.03	2000	-11.58261	40.92397	-91.39364
150235	689	-1201	-772	-5.746578	-1.864748	-0.2960756	0	10.83	4004	53	9	5	5	0.5830997	2.514814	8	10	0.03	2000	-15.01743	40.92397	-91.39364
150276	574	-764	1207	-5.279552	-1.778186	-0.7632719	0	10.83	4002	53	9	5	5	0.5830997	2.538557	8	10	0.03	2000	-15.01743	40.92397	-91.39364
150395	-659	-2469	317	-5.558759	0.6741925	-1.147859	0	10.83	4004	54	10	5	5	0.5830997	2.575993	8	10	0.03	2000	-15.02573	40.92397	-91.39364
150437	182	-1202	247	-5.845007	2.827315	-0.6901457	0	10.83	4003	54	10	5	5	0.5830997	2.583442	8	10	0.03	2000	-17.02948	40.92397	-91.39364
150622	224	220	-136	-5.903024	2.767473	-0.177186	0	10.83	4002	55	12	5	5	0.5830997	2.634661	8	10	0.03	2000	-17.5069	40.92397	-91.39364
150682	224	220	-136	-5.903024	2.767473	-0.177186	0	10.83	4002	38	3	5	5	0.5830997	2.646123	8	10	0.03	2000	-17.5069	40.92397	-91.39365
150741	415	5197	1893	-6.203376	-0.5882208	-1.119378	0	11.34	4003	38	4	5	5	0.5830997	2.649144	8	10	0.03	2000	-14.21054	40.92397	-91.39365
150832	510	2066	292	-4.677509	-11.3801	-1.623473	0	11.34	4003	38	4	5	5	0.5830997	2.647485	8	10	0.03	2000	-17.39078	40.92397	-91.39365
150934	3552	826	367	-3.197403	-10.81018	-1.108213	0	11.34	4004	38	5	5	5	0.5830997	2.640629	8	10	0.03	2000	-15.14191	40.92397	-91.39365
151028	2749	3698	-607	1.63602	-13.28199	-1.073175	0	11.34	4002	38	5	5	5	0.5830997	2.636151	8	10	0.03	2000	-14.38596	40.92397	-91.39365
151108	3626	1751	421	6.646246	-18.4966	-0.7873762	0	11.34	4004	38	-3	5	5	0.5830997	2.624694	8	10	0.03	2000	-4.355835	40.92397	-91.39365
151329	-2838	80	461	5.944731	-15.50385	-0.5370385	0	11.34	4002	38	-11	5	5	0.5830997	2.535548	8	10	0.03	2000	8.347599	40.92396	-91.39365
151405	-1461	-1932	543	2.458818	-12.62036	-0.5624154	0	11.34	4003	20	-11	5	5	0.5830997	2.488489	8	10	0.03	2000	9.065113	40.92396	-91.39365
151440	-294	-2669	882	1.790347	-10.74777	-0.4564074	0	11.34	4003	20	-11	5	5	0.5830997	2.427879	8	10	0.03	2000	9.065113	40.92396	-91.39365
151560	957	2580	1200	1.79215	-10.84735	-0.5245964	0	11.34	4004	19	-11	5	5	0.5830997	2.260069	8	10	0.03	2000	11.32736	40.92395	-91.39365
151685	-1066	-3163	-290	-0.03852148	-7.426745	0.6658511	0	11.17	4003	18	-21	5	5	0.5830997	2.07321	8	10	0.03	2000	13.77659	40.92395	-91.39365
151795	-1633	-900	-670	-0.002675118	-4.437502	0.50417	0	11.17	4002	19	-29	5	5	0.5830997	1.975865	8	10	0.03	2000	9.207016	40.92395	-91.39365
151844	-1628	-1938	-842	-0.7739202	-3.894681	0.6259223	0	11.17	4004	18	-30	5	5	0.5830997	1.824882	8	10	0.03	2000	10.7876	40.92395	-91.39365
151934	2129	-868	611	-0.9480567	-3.565179	0.5595942	0	11.17	4002	17	-30	5	5	0.5830997	1.768778	8	10	0.03	2000	9.968191	40.92395	-91.39365
152025	-2040	943	1050	-2.191277	-5.355868	-0.3007228	0	11.17	4004	17	-31	5	5	0.5830997	1.683728	8	10	0.03	2000	12.07638	40.92395	-91.39365
152134	2301	-1292	91	-1.998313	-5.400766	-0.09991367	0	11.17	4003	16	-31	5	5	0.5830997	1.602775	8	10	0.03	2000	10.34153	40.92395	-91.39365
152282	-1951	201	-9	-1.607616	-3.251295	0.05026497	0	11.17	4002	16	-32	5	5	0.5830997	1.483917	8	10	0.03	2000	12.35531	40.92395	-91.39365
152369	-1609	-208	1494	-3.381378	-2.835817	-1.122579	0	11.17	4004	15	-32	5	5	0.5830997	1.445621	8	10	0.03	2000	12.75696	40.92395	-91.39365
152489	95	-695	-973	-1.289313	-2.596183	-0.977369	0	11.17	4002	15	-33	5	5	0.5830997	1.378589	8	10	0.03	2000	11.72459	40.92395	-91.39365
152639	-1118	1046	1169	-2.132362	-1.695463	-0.3037094	0	10.89	4003	14	-34	5	5	0.5830997	1.346216	8	10	0.03	2000	12.34683	40.92395	-91.39365
152702	-349	1650	625	-2.619326	-3.987321	-0.2202804	0	10.89	4002	13	-34	5	5	0.5830997	1.318978	8	10	0.03	2000	15.08227	40.92395	-91.39365
152789	132	-866	-483	-2.27247	-4.298118	-0.6851798	0	10.89	4002	13	-34	5	5	0.5830997	1.301988	8	10	0.03	2000	11.80294	40.92395	-91.39365
152878	719	139	769	-1.777203	-2.44559	-0.2916829	0	10.89	4004	13	-35	5	5	0.5830997	1.280525	8	10	0.03	2000	11.52903	40.92395	-91.39365
152946	309	64	476	-0.8122228	-2.582142	-0.5911168	0	10.89	4004	12	-44	5	5	0.5830997	1.268755	8	10	0.03	2000	10.97759	40.92395	-91.39365
153058	234	628	-656	0.07424174	-3.090477	-0.8043838	0	10.89	4004	12	-45	5	5	0.5830997	1.265143	8	10	0.03	2000	9.157701	40.92395	-91.39365
153153	136	-1573	-1194	-0.003984441	-3.957032	-0.7544694	0	10.89	4003	30	-46	5	5	0.5830997	1.278511	8	10	0.03	2000	9.532878	40.92395	-91.39365
153311	-261	-92	-406	-0.6919953	-4.798697	-0.6220565	0	10.89	4003	30	-47	5	5	0.5830997	1.321961	8	10	0.03	2000	8.255733	40.92395	-91.39365
153411	-439	-1153	-785	-0.7492312	-4.33948	-0.8336828	0	10.89	4003	30	-48	5	5	0.5830997	1.352238	8	10	0.03	2000	7.551417	40.92395	-91.39365
153483	-930	12	-886	-1.691614	-4.601897	-0.956012	0	11.17	4002	30	-57	5	5	0.5830997	1.390917	8	10	0.03	2000	6.755957	40.92394	-91.39365
153568	485	71	-701	-1.840161	-4.952269	-0.564257	0	11.17	4004	30	-58	5	5	0.5830997	1.43476	8	10	0.03	2000	6.607065	40.92394	-91.39365
153692	-1049	-1564	-748	-1.97199	-5.882034	-0.1995542	0	11.17	4004	48	-59	5	5	0.5830997	1.501105	8	10	0.03	2000	7.154693	40.92394	-91.39364
153874	344	2048	-464	-3.947519	-4.034251	-0.9348474	0	11.17	4003	49	-62	5	5	0.5830997	1.583045	8	10	0.03	2000	8.060755	40.92394	-91.39364
153994	206	801	-529	-3.348218	-5.465933	-0.7320271	0	11.17	4003	49	-62	5	5	0.5830997	1.658235	8	10	0.03	2000	6.7176	40.92394	-91.39364
154050	-1026	-1232	-87	-3.739023	-3.726568	-0.2506205	0	11.17	4002	49	-63	5	5	0.5830997	1.670342	8	10	0.03	2000	6.488281	40.92394	-91.39364
154164	-450	445	-397	-4.702799	-4.834776	-0.05881603	0	11.17	4003	50	-64	5	5	0.5830997	1.735355	8	10	0.03	2000	5.260047	40.92394	-91.39363
154263	-582	1320	1073	-4.906256	-5.779095	-0.07302444	0	11.17	4003	69	-65	5	5	0.5830997	1.776231	8	10	0.03	2000	4.206521	40.92394	-91.39363
154364	-160	676	377	-4.512973	-6.206474	-0.2896903	0	11.17	4003	70	-66	5	5	0.5830997	1.824358	8	10	0.03	2000	2.417539	40.92394	-91.39363
154509	-1062	113	58	-5.282824	-7.025795	-0.7981591	0	11.11	4003	71	-76	5	5	0.5830997	1.876315	8	10	0.03	2000	2.376749	40.92394	-91.39363
154606	-689	600	484	-4.78429	-7.312525	-0.2660002	0	11.11	4003	72	-78	5	5	0.5830997	1.918139	8	10	0.03	2000	0.5725872	40.92394	-91.39363
154723	-1124	-573	-42	-6.047869	-5.487963	-0.03357224	0	11.11	4004	73	-79	5	5	0.5830997	1.936275	8	10	0.03	2000	-1.483276	40.92394	-91.39363
154764	-1	1237	-1644	-6.442621	-5.839034	0.03316785	0	11.11	4002	73	-79	5	5	0.5830997	1.941395	8	10	0.03	2000	-1.483276	40.92394	-91.39363
154916	-1286	223	305	-6.327832	-7.881371	-0.6505956	0	11.11	4004	75	-81	5	5	0.5830997	1.942698	8	10	0.03	2000	-2.482269	40.92394	-91.39363
154990	212	-784	-557	-6.034804	-7.197003	-0.6602163	0	11.11	4003	93	-91	5	5	0.5830997	1.941119	8	10	0.03	2000	-2.543823	40.92393	-91.39362
155098	158	1509	615	-6.163812	-8.867269	-0.9112355	0	11.11	4003	95	-93	5	5	0.5830997	1.9354	8	10	0.03	2000	-4.120544	40.92393	-91.39362
155175	1499	686	-1413	-5.833812	-9.81308	-0.2005767	0	11.11	4002	96	-94	5	5	0.5830997	1.931815	8	10	0.03	2000	-4.30658	40.92393	-91.39362
155295	-416	116	-458	-6.748081	-11.19886	0.1285205	0	11.11	4002	98	-96	5	5	0.5830997	1.919405	8	10	0.03	2000	-6.407166	40.92393	-91.39362
155418	477	-155	1173	-6.33256	-9.283077	0.04954338	0	11.4	4005	100	-98	5	5	0.5830997	1.909365	8	10	0.03	2000	-7.26947	40.92393	-91.39362
155571	-1751	922	-951	-7.897509	-9.114269	-1.472176	0	11.4	4003	102	-100	5	5	0.5830997	1.90348	8	10	0.03	2000	-9.699615	40.92393	-91.39362
155607	-1865	651	-88	-8.630681	-9.544791	-1.858897	0	11.4	4002	103	-100	5	5	0.5830997	1.89738	8	10	0.03	2000	-9.699615	40.92393	-91.39362
155677	-1107	-168	-747	-9.075125	-10.03145	-1.930571	0	11.4	4003	104	-101	5	5	0.5830997	1.883595	8	10	0.03	2000	-9.224304	40.92393	-91.39362
