time(ms)	gyro_x(deg/s)	gyro_y(deg/s)	gyro_z(deg/s)	orientation_roll(deg)	orientation_pitch(deg)	orientation_yaw(deg)	throttle	battery(V)	loop_time(uS)	pid_output_roll	pid_output_pitch	pid_output_yaw	pid_output_throttle	ultrasonic_alt	baro_alt	flight_mode	p_gain_altitude	i_gain_altitude	d_gain_altitude	compass_heading	latitude	longitude
31554	50	-30	-213	0.619188	-0.03445461	0.7556502	0	12.36	4004	0	0	5	5	0.02	-0.0145442	3	10	0.03	1800	-1.440826	40.92394	-91.39362
31686	160	152	61	0.6533566	-0.0190352	0.7478731	0	12.36	4003	0	0	5	5	0.02	-0.01112156	3	10	0.03	1800	-1.112396	40.92394	-91.39362
31791	103	-5	-46	0.6400933	0.04081363	0.7468955	0	12.36	4004	0	0	5	5	0.02	-0.006516276	3	10	0.03	1800	-1.796051	40.92394	-91.39362
31906	10	170	-306	0.5640998	0.01816838	0.7654268	0	12.36	4003	0	0	5	5	0.02	0.009716048	3	10	0.03	1800	-1.060699	40.92394	-91.39362
32022	217	211	60	0.5393474	0.07948796	0.7458041	0	12.36	4002	0	0	5	5	0.02	0.01505964	3	10	0.03	1800	-1.197479	40.92394	-91.39362
32046	217	211	60	0.5393474	0.07948796	0.7458041	0	12.36	4002	0	0	5	5	0.02	0.01447149	3	10	0.03	1800	-1.197479	40.92394	-91.39362
32156	69	-167	168	0.4577918	0.1484132	0.7631605	0	12.36	4003	0	0	5	5	0.02	0.01077916	3	10	0.03	1800	-1.166351	40.92394	-91.39362
32284	112	39	153	0.4488637	0.1315423	0.7687689	0	12.25	4004	0	0	5	5	0.02	0.009746049	3	10	0.03	1800	-1.664734	40.92394	-91.39362
32393	80	-130	46	0.3924441	0.2122342	0.7622926	0	12.25	4004	0	0	5	5	0.02	0.01161235	3	10	0.03	1800	-0.6543579	40.92394	-91.39362
32481	-159	43	-17	0.3909213	0.1924137	0.7424245	0	12.25	4002	0	0	5	5	0.02	0.01239964	3	10	0.03	1800	-1.37619	40.92394	-91.39362
32557	-228	-71	-192	0.2466094	0.1789242	0.7554004	0	12.25	4003	0	0	5	5	0.02	0.0135151	3	10	0.03	1800	-0.7554932	40.92394	-91.39362
32676	-22	-82	75	0.3004559	0.15259	0.7498302	0	12.25	4002	0	0	5	5	0.02	0.01407228	3	10	0.03	1800	-0.3582153	40.92394	-91.39362
32764	183	29	174	0.2031163	0.1492796	0.7483603	0	12.25	4002	0	0	5	5	0.02	0.01264363	3	10	0.03	1800	-1.752716	40.92394	-91.39362
32869	-15	-162	-391	0.2823665	0.2056865	0.774784	0	12.25	4003	0	0	5	5	0.02	0.009561134	3	10	0.03	1800	-0.7236328	40.92394	-91.39362
33050	116	-59	34	0.3008931	0.09242157	0.7602944	0	12.25	4004	0	0	5	5	0.02	0.008374342	3	10	0.03	1800	-0.5491333	40.92394	-91.39362
33082	85	115	24	0.2592521	0.1285689	0.7473911	0	12.25	4002	0	0	5	5	0.02	0.008489832	3	10	0.03	1800	-1.384857	40.92394	-91.39362
33169	-36	-57	76	0.1676419	0.1493798	0.7435376	0	12.36	4003	0	0	5	5	0.02	0.007359576	3	10	0.03	1800	-1.02594	40.92394	-91.39362
33270	-88	-120	186	0.1557488	0.1533642	0.7289312	0	12.36	4003	0	0	5	5	0.02	0.007451395	3	10	0.03	1800	-0.3829956	40.92394	-91.39362
33324	-14	55	-47	0.09836796	0.1802228	0.7623767	0	12.36	4004	0	0	5	5	0.02	0.008391205	3	10	0.03	1800	-1.166962	40.92394	-91.39362
33428	-51	-84	-48	0.2231178	0.1308264	0.7528849	0	12.36	4003	0	0	5	5	0.02	0.007049327	3	10	0.03	1800	-0.4012756	40.92394	-91.39362
33565	206	-36	220	0.2051818	0.1554724	0.7238313	0	12.36	4004	0	0	5	5	0.02	0.007749043	3	10	0.03	1800	-0.5437622	40.92394	-91.39362
33649	-158	107	49	0.2824761	0.11926	0.7309357	0	12.36	4003	0	0	5	5	0.02	0.01703669	3	10	0.03	1800	-0.8047485	40.92394	-91.39362
33790	-37	-42	-306	0.2290702	0.143309	0.7189854	0	12.36	4004	0	0	5	5	0.02	0.01973283	3	10	0.03	1800	-1.211395	40.92394	-91.39362
33900	236	-274	-49	0.3246248	0.1112065	0.6949477	0	12.36	4003	0	0	5	5	0.02	0.01597321	3	10	0.03	1800	-0.6499329	40.92394	-91.39362
34002	-24	-282	-230	0.2210017	0.2183311	0.7002512	0	12.36	4002	0	0	5	5	0.02	0.008661575	3	10	0.03	1800	-0.4460754	40.92394	-91.39362
34073	-254	43	-422	0.3013949	0.2114536	0.7151217	0	12.19	4003	0	0	5	5	0.02	0.002429732	3	10	0.03	1800	-1.382996	40.92394	-91.39362
34189	96	129	101	0.3242471	0.1929937	0.6979363	0	12.19	4003	0	0	5	5	0.02	-0.004896608	3	10	0.03	1800	-1.257446	40.92394	-91.39362
34295	24	-175	-73	0.2306534	0.2662936	0.7133003	0	12.19	4002	0	0	5	5	0.02	-0.01257068	3	10	0.03	1800	-1.061157	40.92394	-91.39362
34347	-222	-122	-196	0.1879763	0.3184153	0.7251646	0	12.19	4004	0	0	5	5	0.02	-0.01566389	3	10	0.03	1800	-0.850769	40.92394	-91.39362
34495	-127	-160	-419	0.3596883	0.2052047	0.7234281	0	12.19	4004	0	0	5	5	0.02	-0.03619608	3	10	0.03	1800	-1.066406	40.92394	-91.39362
34602	322	50	-94	0.3703445	0.2058519	0.7306901	0	12.19	4002	0	0	5	5	0.02	-0.03873027	3	10	0.03	1800	-1.54541	40.92394	-91.39363
34641	-97	-327	-90	0.3649274	0.2182028	0.7551544	0	12.19	4004	0	0	5	5	0.02	-0.03715369	3	10	0.03	1800	-0.727356	40.92394	-91.39363
34748	149	-23	-578	0.5019706	0.3654675	0.8269879	0	12.19	4002	0	0	5	5	0.02	-0.03337973	3	10	0.03	1800	-0.8057251	40.92394	-91.39363
34840	-224	-208	-403	0.4618991	0.3019353	0.859141	0	12.19	4003	0	0	5	5	0.02	-0.03377758	3	10	0.03	1800	-1.501434	40.92394	-91.39363
34998	23	-168	178	0.5156758	0.3289392	0.8406718	0	12.36	4004	0	0	5	5	0.02	-0.04023351	3	10	0.03	1800	-1.393494	40.92394	-91.39363
35088	131	379	-222	0.5525056	0.3090576	0.8606607	0	12.36	4004	0	0	5	5	0.02	-0.04533319	3	10	0.03	1800	-1.603149	40.92394	-91.39363
35144	137	309	154	0.587484	0.3342009	0.8509329	0	12.36	4004	0	0	5	5	0.02	-0.04793967	3	10	0.03	1800	-1.283966	40.92394	-91.39363
35274	-189	-75	941	0.6299504	0.3275053	0.798351	0	12.36	4004	0	0	5	5	0.02	-0.04305843	3	10	0.03	1800	-2.147186	40.92394	-91.39363
35416	-285	77	269	0.614733	0.4396341	0.8317184	0	12.36	4004	0	0	5	5	0.02	-0.02904022	6	10	0.03	1800	-2.133728	40.92394	-91.39363
35526	-2463	-900	-642	-0.9833096	1.071196	0.3014161	0	12.36	4004	0	0	5	5	0.0265555	-0.01045263	6	10	0.03	1800	-0.2381287	40.92394	-91.39363
35601	-1225	-1782	767	-3.254399	2.03485	-0.1987368	0	12.36	4003	0	0	5	5	0.03526425	0.002759495	6	10	0.03	1800	-2.105774	40.92394	-91.39363
35716	481	-292	-170	-2.978952	2.57941	0.1938383	0	12.36	4004	0	0	5	5	0.04765886	0.01327577	6	10	0.03	1800	-2.354584	40.92394	-91.39363
35725	481	-292	-170	-2.978952	2.57941	0.1938383	0	12.36	4004	0	0	5	5	0.07843122	0.02337711	6	10	0.03	1800	-2.354584	40.92394	-91.39363
35829	-335	-823	184	-2.890783	4.14132	0.8365808	0	12.36	4004	0	0	5	5	0.0963098	0.03103415	6	10	0.03	1800	-3.311615	40.92394	-91.39363
35931	581	2116	42	-2.408233	1.502797	0.7914402	0	12.19	4003	0	0	5	5	0.1141766	0.03850079	6	10	0.03	1800	-5.158478	40.92394	-91.39363
36043	-3355	-8181	-2118	-8.792529	6.080951	1.509681	0	12.19	4004	0	0	5	5	0.1008346	0.03853038	6	10	0.03	1800	2.722955	40.92394	-91.39363
36125	3011	9334	-65	-2.952213	-0.1153977	3.972227	0	12.19	4002	0	0	5	5	0.09486781	0.03329466	6	10	0.03	1800	-6.457947	40.92394	-91.39363
36235	1976	3451	-437	1.356759	-13.52828	2.339575	0	12.19	4003	0	0	5	5	0.1180368	0.01772327	6	10	0.03	1800	-6.838531	40.92394	-91.39363
36329	102	-1236	1168	2.192422	-13.57241	0.9424145	0	12.19	4003	0	0	5	5	0.1559572	0.009509158	6	10	0.03	1800	-4.473389	40.92394	-91.39363
36437	416	2876	-907	2.596007	-14.26617	0.3510314	0	12.19	4004	0	0	5	5	0.206254	-0.005818041	6	10	0.03	1800	-1.03009	40.92394	-91.39363
36579	7466	-9025	842	14.64039	4.722936	-3.374481	0	12.19	4004	-300	300	5	5	0.2584635	-0.005536468	8	10	0.03	1800	0.2728455	40.92394	-91.39363
36712	-491	-1417	-1799	16.95928	10.50406	-0.966944	0	12.19	4002	-300	300	5	5	0.3159774	0.03671928	8	10	0.03	1800	10.12363	40.92394	-91.39363
36802	2382	-1134	-563	16.99292	9.7996	2.047562	0	12.08	4002	-300	300	5	5	0.3317344	0.05938111	8	10	0.03	1800	12.68453	40.92394	-91.39363
36857	-367	-1352	1689	16.88813	10.84889	2.50595	0	12.08	4004	-30	30	5	5	0.3499387	0.09670361	8	10	0.03	1800	16.62907	40.92394	-91.39363
36942	-7547	1572	772	10.82277	10.62919	1.42877	0	12.08	4003	0	0	5	5	0.359243	0.1112459	8	10	0.03	1800	24.62335	40.92394	-91.39363
37152	-3943	3433	1547	-7.074862	-9.461856	-0.1322736	0	12.08	4009	21	0	5	5	0.3754866	0.1616104	8	10	0.03	1800	22.96102	40.92394	-91.39362
37207	-5283	3858	926	-9.39105	-10.67304	-0.320555	0	12.08	4003	23	0	5	5	0.3818341	0.1911637	8	10	0.03	1800	17.62633	40.92394	-91.39362
37296	3124	5405	190	-10.11516	-15.3851	0.05838682	0	12.08	4004	28	0	5	5	0.3850783	0.2023315	8	10	0.03	1800	10.76416	40.92394	-91.39362
37343	3124	5405	190	-10.11516	-15.3851	0.05838682	0	12.08	4004	31	0	5	5	0.3864614	0.2142815	8	10	0.03	1800	10.76416	40.92394	-91.39362
37492	390	1115	1059	-4.561225	-14.38045	2.054436	0	12.08	4003	55	-9	5	5	0.3915588	0.2596747	8	10	0.03	1800	2.959915	40.92394	-91.39362
37598	-679	1179	1738	-4.065193	-15.12384	1.41823	0	12.08	4003	71	-13	5	5	0.3935507	0.2873601	8	10	0.03	1800	1.726017	40.92394	-91.39362
37654	-492	-436	1569	-2.832391	-13.95292	0.8865637	0	12.08	4002	73	-14	5	5	0.3950028	0.3134851	8	10	0.03	1800	0.7203776	40.92394	-91.39362
37784	-1779	-1549	1654	-3.829589	-9.59161	-0.1063319	0	11.17	4002	84	-16	5	5	0.3960614	0.3594794	8	10	0.03	1800	0.4920744	40.92394	-91.39362
37871	-439	-835	-1079	-5.122896	-7.395998	-0.3577657	0	11.17	4004	93	-18	5	5	0.3968331	0.4030648	8	10	0.03	1800	-0.6947632	40.92394	-91.39362
37956	-1890	-1846	-1211	-5.535889	-6.934762	-0.1587591	0	11.17	4003	103	-21	5	5	0.3972276	0.441628	8	10	0.03	1800	-2.31601	40.92394	-91.39362
38107	-548	-1593	-2471	-7.257893	-6.437667	0.8645061	0	11.17	4002	140	-24	5	5	0.3978058	0.5177598	8	10	0.03	1800	-5.705994	40.92394	-91.39361
38162	-448	-757	-2274	-7.549386	-6.262342	1.4153	0	11.17	4003	158	-27	5	5	0.3980154	0.551544	8	10	0.03	1800	-5.705994	40.92394	-91.39361
38321	-351	-4065	-524	-10.19616	-3.580417	0.8889958	0	11.17	4004	169	-17	5	5	0.3983814	0.610581	8	10	0.03	1800	-9.088623	40.92394	-91.39361
38358	-351	-4065	-524	-10.19616	-3.580417	0.8889958	0	11.17	4004	174	-17	5	5	0.3984341	0.6244435	8	10	0.03	1800	-9.088623	40.92394	-91.39361
38462	-1127	3241	736	-9.5783	-3.693695	0.5213686	0	11.17	4003	210	-17	5	5	0.3985243	0.6461858	8	10	0.03	1800	-11.81113	40.92394	-91.3936
38564	-1848	-1470	-3	-11.04264	-4.589663	0.9190586	0	11.17	4003	235	-17	5	5	0.3986819	0.6985582	8	10	0.03	1800	-14.31973	40.92394	-91.3936
38739	-2759	-1342	-279	-16.29662	-3.200303	0.4007124	0	12.14	4003	260	-17	5	5	0.39876	0.7286215	8	10	0.03	1800	-21.89111	40.92394	-91.3936
38858	511	1976	687	-15.81412	-3.685675	0.9745945	0	12.14	4002	294	-17	5	5	0.3988112	0.7475416	8	10	0.03	1800	-25.61676	40.92394	-91.3936
38878	2779	2537	481	-14.25806	-4.642554	1.299635	0	12.14	4004	294	-17	5	5	0.398821	0.7506554	8	10	0.03	1800	-27.10168	40.92394	-91.3936
39096	1970	1372	-462	-5.22631	-7.878421	1.55953	0	12.14	4002	300	-17	5	5	0.398857	0.7829594	8	10	0.03	1800	-31.6713	40.92394	-91.3936
39252	1627	-1083	903	-2.34538	-9.71905	0.9994324	0	12.14	4002	300	-5	5	5	0.3988813	0.8284786	8	10	0.03	1800	-28.80215	40.92395	-91.3936
39366	2804	765	-698	0.8834756	-9.267756	0.228412	0	12.14	4003	300	-2	5	5	0.3988909	0.8609775	8	10	0.03	1800	-26.66425	40.92395	-91.39361
39472	3362	81	803	3.227424	-9.769509	-0.07091077	0	12.14	4003	300	0	5	5	0.3988958	0.8851247	8	10	0.03	1800	-26.66425	40.92395	-91.39361
39520	2227	-2853	1098	5.921833	-8.161396	0.686694	0	12.14	4004	300	0	5	5	0.3988971	0.8901322	8	10	0.03	1800	-24.63113	40.92395	-91.39361
39576	1521	-3518	-1612	7.992616	-4.866884	1.392213	0	12.76	4003	300	2	5	5	0.3988994	0.9023455	8	10	0.03	1800	-23.60309	40.92395	-91.39361
39669	2209	-933	782	7.632031	-1.20888	0.796316	0	12.76	4003	300	14	5	5	0.398902	0.9078669	8	10	0.03	1800	-23.05753	40.92395	-91.39362
39865	-14759	19409	-3570	10.3134	-1.632107	0.04953372	0	12.76	4003	300	23	5	5	0.3989053	0.8661071	8	10	0.03	1800	-17.46561	40.92395	-91.39362
39965	-7189	2278	1482	-17.01067	-30.44011	-10.30849	0	12.76	4002	300	28	5	5	0.3989063	0.8097913	8	10	0.03	1800	-11.89096	40.92395	-91.39362
40113	10439	-10548	-5099	-6.637368	-7.077698	-1.716241	0	12.76	4002	300	45	5	5	0.3989072	0.7461706	8	10	0.03	1800	-12.60693	40.92395	-91.39363
40301	4038	-2793	-487	-5.467728	7.617096	4.50488	0	12.76	4002	300	71	5	5	0.398908	0.6710631	8	10	0.03	1800	-18.49393	40.92396	-91.39363
40436	470	-2265	1804	0.04161159	9.049689	1.575034	0	12.76	4004	300	83	5	5	0.3989083	0.6694721	8	10	0.03	1800	-16.79752	40.92396	-91.39363
40528	2074	-2964	-625	1.653323	10.81823	0.02401013	0	11.97	4004	300	94	5	5	0.3989086	0.6970599	8	10	0.03	1800	-15.81833	40.92396	-91.39363
40631	-411	-1409	-1709	0.3941265	9.269952	-0.3835045	0	11.97	4003	300	118	5	5	0.3989087	0.7361188	8	10	0.03	1800	-15.08035	40.92397	-91.39364
40673	1514	-2213	-1424	1.832845	9.503222	0.7934626	0	11.97	4004	300	122	5	5	0.3989087	0.7680385	8	10	0.03	1800	-15.08035	40.92397	-91.39364
40888	2929	1347	117	0.879567	6.299973	2.180416	0	11.97	4004	0	0	5	5	0.3989089	0.8498788	3	10	0.03	1800	-17.63351	40.92397	-91.39365
41006	3027	1731	734	8.407023	0.003961788	1.426225	0	11.97	4003	0	0	5	5	0.3989089	0.9236258	3	10	0.03	1800	-15.09689	40.92397	-91.39365
41079	1848	1692	6	9.267759	-1.560431	0.8933243	0	11.97	4003	0	0	5	5	0.3989089	0.9490535	3	10	0.03	1800	-6.298126	40.92397	-91.39365
41179	2625	2585	-956	10.04251	-4.683127	0.9087821	0	11.97	4003	0	0	5	5	0.3989089	0.969437	3	10	0.03	1800	-0.3120728	40.92397	-91.39365
41313	-1698	1511	-99	8.965279	-12.37209	0.6051924	0	11.97	4004	0	0	5	5	0.3989089	0.992466	3	10	0.03	1800	16.54553	40.92397	-91.39365
41431	288	-4009	-2436	2.339085	-10.35602	1.912845	0	10.66	4003	0	0	5	5	0.3989089	0.994988	3	10	0.03	1800	16.46432	40.92397	-91.39365
41505	-1462	-173	-1110	0.1028647	-7.985502	2.931907	0	10.66	4004	0	0	5	5	0.3989089	0.9845229	3	10	0.03	1800	17.05988	40.92397	-91.39366
41551	-312	768	1871	-0.02429022	-7.657191	2.812706	0	10.66	4002	0	0	5	5	0.3989089	0.9782101	3	10	0.03	1800	17.05988	40.92397	-91.39366
41667	-1258	-938	1059	-1.465451	-6.151465	0.3844504	0	10.66	4003	0	0	5	5	0.3989089	0.9649822	3	10	0.03	1800	16.68983	40.92397	-91.39366
41768	1675	118	945	-0.9479997	-5.663443	-0.3190557	0	10.66	4004	0	0	5	5	0.3989089	0.9517116	3	10	0.03	1800	16.87987	40.92397	-91.39366
41885	2920	-2784	-2235	5.085104	-4.501554	0.7234429	0	10.66	4004	0	0	5	5	0.3989089	0.9309325	3	10	0.03	1800	20.73906	40.92397	-91.39366
41960	1983	346	651	7.987641	-3.577712	0.849036	0	10.66	4003	0	0	5	5	0.3989089	0.9227767	3	10	0.03	1800	20.29345	40.92397	-91.39366
42136	-2864	-2292	-378	7.319185	-2.155267	0.6794994	0	10.66	4002	0	0	5	5	0.3989089	0.90461	3	10	0.03	1800	31.00519	40.92397	-91.39366
42167	-2864	-2292	-378	7.319185	-2.155267	0.6794994	0	10.66	4002	0	0	5	5	0.3989089	0.9014811	3	10	0.03	1800	31.00519	40.92397	-91.39366
42322	-1167	2030	502	3.637031	-2.248061	1.207219	0	11.46	4003	0	0	5	5	0.3989089	0.9046909	3	10	0.03	1800	32.51162	40.92397	-91.39366
42352	-2182	1108	-146	2.368703	-3.279906	1.109232	0	11.46	4002	0	0	5	5	0.3989089	0.9050692	3	10	0.03	1800	34.61071	40.92397	-91.39366
42451	539	2339	-266	-2.007589	-4.84215	1.051557	0	11.46	4004	0	0	5	5	0.3989089	0.9085858	3	10	0.03	1800	33.59891	40.92397	-91.39366
42562	-3482	2241	745	-4.056709	-8.78593	0.8400801	0	11.46	4004	0	0	5	5	0.3989089	0.9166372	3	10	0.03	1800	33.86464	40.92397	-91.39366
42725	-1968	-266	-387	-9.29911	-6.173312	0.9353039	0	11.46	4004	0	0	5	5	0.3989089	0.9156564	3	10	0.03	1800	26.61197	40.92397	-91.39365
42810	-2025	700	1146	-10.35556	-6.464699	0.91118	0	11.46	4004	0	0	5	5	0.3989089	0.9098936	3	10	0.03	1800	21.48151	40.92397	-91.39365
42890	-2493	811	1259	-12.23143	-6.577867	0.323915	0	11.46	4003	0	0	5	5	0.3989089	0.9023407	3	10	0.03	1800	18.58924	40.92397	-91.39365
43007	2404	-1409	-810	-6.708517	-6.681697	0.9345479	0	11.46	4003	0	0	5	5	0.3989089	0.8787419	3	10	0.03	1800	12.08867	40.92397	-91.39365
43087	1425	-1832	-1008	-4.744249	-4.940034	1.237172	0	11.46	4004	0	0	5	5	0.3989089	0.8649129	3	10	0.03	1800	12.38817	40.92396	-91.39365
43169	-605	6290	2193	-2.745291	-8.923425	1.219298	0	12.19	4003	0	0	5	5	0.3989089	0.8490037	3	10	0.03	1800	11.33566	40.92396	-91.39365
43284	2624	2357	1036	-0.8352131	-14.77227	0.3171142	0	12.19	4002	0	0	5	5	0.3989089	0.8163192	3	10	0.03	1800	8.077692	40.92396	-91.39365
43311	1434	373	518	0.5142385	-14.41287	0.4235056	0	12.19	4002	0	0	5	5	0.3989089	0.8038003	3	10	0.03	1800	8.077692	40.92396	-91.39365
43404	114	203	-1378	-1.659643	-12.02038	1.158892	0	12.19	4003	0	0	5	5	0.3989089	0.7728624	3	10	0.03	1800	7.371776	40.92396	-91.39365
43598	-2786	-2657	636	-5.525225	-6.30992	1.649506	0	12.19	4004	0	0	5	5	0.3989089	0.7475364	3	10	0.03	1800	4.569632	40.92396	-91.39365
43635	-1802	-226	-251	-7.606325	-5.809818	0.3013954	0	12.19	4004	0	0	5	5	0.3989089	0.7337207	3	10	0.03	1800	3.585918	40.92396	-91.39364
43703	2078	-543	1007	-5.933991	-5.239452	-0.4445724	0	12.19	4003	0	0	5	5	0.3989089	0.7246943	3	10	0.03	1800	2.647262	40.92396	-91.39364
43860	-131	2217	980	-1.082855	-0.7249757	0.6326033	0	12.19	4004	0	0	5	5	0.3989089	0.7171222	3	10	0.03	1800	1.329495	40.92396	-91.39364
43927	-493	2368	832	-0.5375926	-2.832894	0.7749016	0	12.19	4002	0	0	5	5	0.3989089	0.7136391	3	10	0.03	1800	1.487501	40.92396	-91.39364
44065	-558	923	287	-0.6931629	-4.913416	0.4966284	0	12.19	4003	0	0	5	5	0.3989089	0.7172772	3	10	0.03	1800	0.1948404	40.92396	-91.39364
44152	-977	-941	-35	-0.9788289	-5.191187	-0.1225395	0	11.91	4004	0	0	5	5	0.3989089	0.7214893	3	10	0.03	1800	1.148178	40.92396	-91.39363
44224	-648	-192	-1145	-1.932022	-4.830201	-1.170636	0	11.91	4002	0	0	5	5	0.3989089	0.7345031	3	10	0.03	1800	0.006035944	40.92396	-91.39363
44375	260	-1196	110	1.051841	-1.26378	0.4682	0	11.91	4004	0	0	5	5	0.3989089	0.7467434	3	10	0.03	1800	-2.750214	40.92396	-91.39363
44439	670	1715	45	-0.09843957	-3.465574	0.977011	0	11.91	4003	0	0	5	5	0.3989089	0.7618349	3	10	0.03	1800	-2.167755	40.92396	-91.39363
44526	-142	-1908	-637	1.082155	-3.404328	0.6116517	0	11.91	4004	0	0	5	5	0.3989089	0.7742749	3	10	0.03	1800	-2.028748	40.92396	-91.39363
44626	-685	2129	1731	0.1480812	-2.508977	0.07032777	0	11.91	4004	0	0	5	5	0.3989089	0.781423	3	10	0.03	1800	-2.289124	40.92396	-91.39363
44724	779	84	1043	0.5899127	-2.581907	0.02168386	0	11.91	4003	0	0	5	5	0.3989089	0.7976922	3	10	0.03	1800	-2.37323	40.92396	-91.39363
44889	806	-472	-855	0.5538393	-5.182266	2.230156	0	11.91	4004	0	0	5	5	0.3989089	0.8130119	3	10	0.03	1800	-1.872192	40.92396	-91.39363
44942	-1156	-3108	324	0.300925	-4.303858	2.256649	0	11.91	4002	0	0	5	5	0.3989089	0.8222466	3	10	0.03	1800	-1.872192	40.92396	-91.39363
45024	1232	-349	-965	-0.5190695	-1.362274	1.274525	0	11.91	4002	0	0	5	5	0.3989089	0.8487379	3	10	0.03	1800	-0.8247986	40.92396	-91.39363
45121	-726	2762	865	0.08954854	-3.391383	0.2732593	0	11.91	4003	0	0	5	5	0.3989089	0.883895	3	10	0.03	1800	-1.458527	40.92397	-91.39363
45239	360	61	-435	-1.581006	-6.177901	-0.01923102	0	11.91	4002	0	0	5	5	0.2804138	0.9358552	6	10	0.03	1800	1.39094	40.92397	-91.39363
45348	703	-2536	-223	-0.6414886	-4.365333	0.8558312	0	11.91	4004	0	0	5	5	0.5582937	0.9678915	8	10	0.03	1800	2.146719	40.92397	-91.39363
45426	-451	1511	11	-0.6126497	-4.74402	1.214955	0	11.91	4002	0	0	5	5	0.7003201	0.9880103	8	10	0.03	1800	2.113837	40.92397	-91.39363
45578	306	-2899	312	-0.1266665	-9.628864	1.200521	0	11.91	4003	0	0	5	5	0.9085449	1.025578	8	10	0.03	1800	1.558081	40.92397	-91.39363
45672	166	-4938	-660	-0.07059079	-4.464658	1.207501	0	11.91	4003	0	0	5	5	1.016201	1.042201	8	10	0.03	1800	1.558081	40.92397	-91.39363
45722	-1732	2071	494	-0.2573093	-4.311333	0.8268395	0	11.91	4003	0	0	5	5	1.045161	1.04524	8	10	0.03	1800	3.357311	40.92397	-91.39363
45826	1189	-861	521	-1.307551	-6.215635	0.6666195	0	11.91	4003	0	0	5	5	1.134795	1.054083	8	10	0.03	1800	4.982233	40.92397	-91.39363
45984	-1780	1318	21	-2.738162	-3.286811	0.6912092	0	11.11	4003	0	10	5	5	1.193604	1.059768	8	10	0.03	1800	6.168306	40.92397	-91.39363
46019	1294	1091	68	-4.376223	-4.479606	0.4920919	0	11.11	4003	0	14	5	5	1.232189	1.054413	8	10	0.03	1800	3.413571	40.92397	-91.39363
46099	1294	953	-154	-4.220314	-4.911054	0.7296861	0	11.11	4002	0	16	5	5	1.246175	1.044095	8	10	0.03	1800	3.413571	40.92397	-91.39363
46166	113	-95	135	-2.377192	-4.700357	1.594728	0	11.11	4003	0	18	5	5	1.257504	1.030267	8	10	0.03	1800	2.851115	40.92397	-91.39363
46321	-346	1301	1132	-3.260728	-4.571352	1.046803	0	11.11	4003	0	22	5	5	1.277282	0.9733389	8	10	0.03	1800	0.4786484	40.92397	-91.39363
46363	857	-588	-198	-2.856946	-5.546293	0.6078049	0	11.11	4002	0	22	5	5	1.280134	0.9617113	8	10	0.03	1800	2.167533	40.92397	-91.39363
46505	-684	1160	704	-0.8078142	-5.788055	0.7408332	0	11.11	4004	0	26	5	5	1.290645	0.862348	8	10	0.03	1800	1.703924	40.92397	-91.39363
46616	-360	-401	-82	-1.688114	-6.329939	0.8718004	0	11.11	4002	0	29	5	5	1.293525	0.8357683	8	10	0.03	1800	4.334	40.92397	-91.39363
46683	568	-237	-1302	-1.213626	-6.411945	0.8901553	0	11.11	4003	0	30	5	5	1.295857	0.7927894	8	10	0.03	1800	1.95716	40.92397	-91.39363
46777	-754	-3150	-691	-1.614092	-6.15403	0.5979938	0	11.11	4003	0	33	5	5	1.298552	0.7165827	8	10	0.03	1800	3.21196	40.92397	-91.39363
46865	2389	1580	-28	-0.5004328	-4.917404	0.485173	0	10.38	4003	0	35	5	5	1.300516	0.6519679	8	10	0.03	1800	5.144623	40.92397	-91.39362
46986	240	2220	725	-1.222889	-6.756938	0.2773023	0	10.38	4004	27	39	5	5	1.302334	0.5659983	8	10	0.03	1800	5.865958	40.92397	-91.39362
47066	1215	1351	1297	-0.7867045	-8.050098	0.425651	0	10.38	4004	10	40	5	5	1.302993	0.5158204	8	10	0.03	1800	6.85216	40.92397	-91.39363
47276	-933	-1678	1305	-1.098764	-5.924887	0.4248584	0	10.38	4003	10	35	5	5	1.304458	0.3755221	8	10	0.03	1800	6.654005	40.92397	-91.39363
47385	-1539	-125	1940	-3.678318	-0.8757433	-0.4120139	0	10.38	4003	10	35	5	5	1.304822	0.3161981	8	10	0.03	1800	7.143812	40.92397	-91.39363
47468	1959	-2018	-1102	-2.535495	-1.464041	-1.400919	0	10.38	4004	10	35	5	5	1.305087	0.2785271	8	10	0.03	1800	6.501918	40.92397	-91.39363
47608	-3171	3940	-287	-0.749267	-1.137067	0.7510445	0	10.38	4003	10	35	5	5	1.30528	0.2518714	8	10	0.03	1800	7.817284	40.92397	-91.39363
47664	-2975	3173	-1031	-2.151839	-2.82774	1.13577	0	10.38	4004	10	35	5	5	1.305422	0.2271702	8	10	0.03	1800	7.817284	40.92397	-91.39363
47814	-486	1772	721	-3.867736	-7.266484	1.355692	0	11.85	4003	28	25	5	5	1.305552	0.206102	8	10	0.03	1800	1.622635	40.92396	-91.39362
47909	261	1303	-238	-2.628904	-8.313139	0.3563823	0	11.85	4004	33	23	5	5	1.305599	0.2081082	8	10	0.03	1800	0.4502628	40.92396	-91.39362
48006	-994	1162	-861	-3.613238	-9.635386	0.007946588	0	11.85	4007	17	21	5	5	1.305669	0.2171786	8	10	0.03	1800	-0.6309204	40.92396	-91.39363
48076	1927	1582	-1128	-2.915467	-11.57673	0.7328623	0	11.85	4003	17	19	5	5	1.305694	0.223904	8	10	0.03	1800	-0.3700562	40.92396	-91.39363
48203	-245	2063	413	-1.924253	-11.56154	1.26748	0	11.85	4004	17	16	5	5	1.305723	0.2315802	8	10	0.03	1800	-2.550598	40.92396	-91.39363
48307	-471	1529	797	-1.940591	-13.58631	0.564984	0	11.85	4003	17	13	5	5	1.305744	0.2574197	8	10	0.03	1800	-3.380066	40.92396	-91.39363
48403	1740	-1270	-145	1.732834	-12.84705	0.357592	0	11.85	4004	17	11	5	5	1.305764	0.290958	8	10	0.03	1800	-5.673431	40.92396	-91.39363
48516	609	1953	-746	1.828598	-12.76113	0.7763665	0	11.85	4003	17	8	5	5	1.305771	0.3062655	8	10	0.03	1800	-2.909454	40.92396	-91.39363
48635	1502	-4356	-2416	0.8946086	-10.46509	1.994625	0	11.11	4002	17	-6	5	5	1.305781	0.3655608	8	10	0.03	1800	-3.757599	40.92395	-91.39363
48735	-44	-396	1057	0.3297222	-7.595299	2.451139	0	11.11	4003	17	-9	5	5	1.305786	0.428715	8	10	0.03	1800	-3.995026	40.92395	-91.39363
48779	-10	-236	1793	0.5376641	-5.594869	1.497769	0	11.11	4003	17	-13	5	5	1.305788	0.4432261	8	10	0.03	1800	-3.27356	40.92395	-91.39363
48883	-181	-2140	-355	0.3982654	-4.277325	0.8312234	0	11.11	4003	17	-17	5	5	1.305792	0.5115	8	10	0.03	1800	-2.069794	40.92395	-91.39363
49025	-664	940	-403	-2.057481	-0.921135	0.3951027	0	11.11	4004	17	-25	5	5	1.305795	0.5923556	8	10	0.03	1800	0.06575134	40.92395	-91.39363
49115	-782	1679	-475	-2.72889	-3.304004	0.4044078	0	11.11	4003	17	-28	5	5	1.305797	0.6472694	8	10	0.03	1800	1.023872	40.92395	-91.39363
49200	266	135	215	-3.171143	-4.267468	0.5480068	0	11.11	4004	17	-31	5	5	1.305798	0.6880592	8	10	0.03	1800	0.03805014	40.92395	-91.39363
49327	861	-1193	-465	-2.61657	-3.66197	1.270062	0	11.11	4004	17	-28	5	5	1.305799	0.7689078	8	10	0.03	1800	0.3520068	40.92396	-91.39363
49384	541	-1655	-615	-2.296071	-3.096355	1.455574	0	11.11	4004	17	-29	5	5	1.305799	0.8069634	8	10	0.03	1800	0.3520068	40.92396	-91.39363
49482	-129	-265	-606	-3.715324	-2.07386	1.03795	0	11.11	4004	17	-32	5	5	1.3058	0.8658149	8	10	0.03	1800	0.5616195	40.92396	-91.39363
49582	636	-884	-191	-2.65777	-2.62051	1.031058	0	12.25	4003	17	-34	5	5	1.3058	0.8967775	8	10	0.03	1800	-0.460022	40.92396	-91.39363
49694	561	2500	672	-1.893531	-2.935436	0.8432241	0	12.25	4004	17	-37	5	5	1.3058	0.9424686	8	10	0.03	1800	1.834395	40.92396	-91.39363
49789	-665	-310	-446	-1.716352	-6.050689	0.6408068	0	12.25	4002	17	-40	5	5	1.3058	0.9693182	8	10	0.03	1800	1.225415	40.92396	-91.39363
49883	1083	-1362	-825	-0.8091714	-4.093571	1.223303	0	12.25	4003	-3	-42	5	5	1.3058	0.9908429	8	10	0.03	1800	0.1960771	40.92396	-91.39364
49985	896	1814	246	-0.7641946	-6.591684	1.389385	0	12.25	4003	-8	-35	5	5	1.3058	1.005857	8	10	0.03	1800	2.402238	40.92397	-91.39364
50085	150	194	604	-0.4293315	-6.713986	1.590769	0	12.25	4002	-11	-35	5	5	1.3058	1.010026	8	10	0.03	1800	3.313082	40.92397	-91.39364
50188	412	-2495	682	-1.11806	-4.903067	0.594448	0	12.25	4003	-18	-35	5	5	1.3058	0.9999971	8	10	0.03	1800	4.646386	40.92397	-91.39364
50343	367	1607	-613	0.5193523	-4.078601	0.8064653	0	12.25	4004	-25	-35	5	5	1.3058	0.9627112	8	10	0.03	1800	5.755074	40.92397	-91.39364
50433	-67	1161	751	0.0433721	-5.200938	0.6838306	0	12.25	4003	-27	-35	5	5	1.3058	0.9394964	8	10	0.03	1800	8.081811	40.92397	-91.39364
50531	-114	1276	704	0.9761994	-5.954993	0.7758242	0	11.8	4003	-34	-35	5	5	1.3058	0.8997011	8	10	0.03	1800	6.849084	40.92397	-91.39364
50649	88	-1456	-666	1.394385	-6.484169	0.002901062	0	11.8	4004	-39	-35	5	5	1.3058	0.8267043	8	10	0.03	1800	7.124662	40.92397	-91.39364
50762	-221	-2355	-1054	2.433987	-3.64174	0.345311	0	11.8	4007	-64	-25	5	5	1.3058	0.7642184	8	10	0.03	1800	9.486988	40.92397	-91.39365
50803	91	430	-539	2.234338	-3.570802	0.3486358	0	11.8	4002	-73	-23	5	5	1.3058	0.7411375	8	10	0.03	1800	8.975189	40.92397	-91.39365
50930	2793	-1139	-2434	3.140067	-5.316101	1.214017	0	11.8	4003	-80	-21	5	5	1.3058	0.6643035	8	10	0.03	1800	9.012528	40.92397	-91.39365
51002	970	569	1731	5.626086	-5.386862	1.604571	0	11.8	4004	-86	-20	5	5	1.3058	0.6396709	8	10	0.03	1800	10.08582	40.92397	-91.39365
51141	-1212	-2449	-1721	5.651965	-7.531348	1.184317	0	11.8	4004	-102	-16	5	5	1.3058	0.5818768	8	10	0.03	1800	11.77972	40.92397	-91.39365
51217	389	-3970	-119	4.949022	-4.165619	0.8764572	0	11.8	4003	-109	-14	5	5	1.3058	0.541755	8	10	0.03	1800	13.05918	40.92397	-91.39365
51298	1711	-1147	1499	5.862621	-2.458859	0.2886185	0	11.8	4004	-97	-3	5	5	1.3058	0.5019343	8	10	0.03	1800	13.05918	40.92397	-91.39364
51401	-2126	-579	40	5.954782	-2.943862	-0.6189559	0	11.8	4003	-101	1	5	5	1.3058	0.4709216	8	10	0.03	1800	16.53603	40.92397	-91.39364
51546	-2412	604	-5346	-0.06176939	-4.887409	8.013964	0	10.94	4003	-107	7	5	5	1.3058	0.4001159	8	10	0.03	1800	13.38857	40.92397	-91.39364
51634	-8265	-2953	-602	-6.010541	-3.751801	11.36013	0	10.94	4004	-113	12	5	5	1.3058	0.3518142	8	10	0.03	1800	9.21331	40.92397	-91.39364
51694	-2494	-4016	4621	-14.96592	2.442881	6.919488	0	10.94	4004	-117	28	5	5	1.3058	0.3311118	8	10	0.03	1800	5.555624	40.92397	-91.39364
51854	6020	2787	2835	-8.944519	-1.482631	-1.888588	0	10.94	4004	-105	38	5	5	1.3058	0.2789794	8	10	0.03	1800	5.710449	40.92397	-91.39363
51912	3246	-1176	-1238	-0.2401218	-0.5270635	-2.455114	0	10.94	4002	-105	39	5	5	1.3058	0.2772377	8	10	0.03	1800	3.789434	40.92397	-91.39363
51987	666	252	-2044	1.801167	0.1933496	-0.9540237	0	10.94	4004	-105	47	5	5	1.3058	0.2722679	8	10	0.03	1800	5.031811	40.92397	-91.39363
52083	2137	-37	-1070	2.564118	0.131592	0.9482306	0	10.94	4002	-105	54	5	5	1.3058	0.2698234	8	10	0.03	1800	4.449822	40.92397	-91.39363
52224	1196	-1291	856	4.603933	1.161514	2.023709	0	10.94	4004	-105	66	5	5	1.3058	0.2698338	8	10	0.03	1800	8.279653	40.92397	-91.39363
52291	-1034	-165	978	3.760206	1.683409	0.5311662	0	10.94	4003	-105	68	5	5	1.3058	0.2801116	8	10	0.03	1800	11.43458	40.92397	-91.39363
52462	122	1160	1340	1.323698	-3.068325	-0.7450585	0	11.51	4003	-105	83	5	5	1.3058	0.2874515	8	10	0.03	1800	13.18436	40.92397	-91.39363
52544	-2769	-1331	-159	-0.3967888	-1.597858	0.1726264	0	11.51	4004	-105	88	5	5	1.3058	0.309851	8	10	0.03	1800	11.71409	40.92397	-91.39363
52589	-3362	329	1637	-2.104218	-1.34013	0.1418442	0	11.51	4004	-105	90	5	5	1.3058	0.3158162	8	10	0.03	1800	11.71409	40.92397	-91.39363
52715	-1705	-622	-1011	-4.02749	-1.639471	1.598294	0	11.51	4004	-105	100	5	5	1.3058	0.3609019	8	10	0.03	1800	8.714309	40.92397	-91.39363
52842	-621	3541	1368	-4.350023	-3.126391	2.083577	0	11.51	4002	-85	107	5	5	1.3058	0.4124639	8	10	0.03	1800	7.621426	40.92397	-91.39362
52952	-580	-1775	-238	-6.868741	-6.180287	0.9563262	0	11.51	4003	-77	119	5	5	1.3058	0.4789805	8	10	0.03	1800	4.299767	40.92397	-91.39362
53041	92	-1964	1561	-6.751471	-4.682906	0.725248	0	11.51	4003	-73	124	5	5	1.3058	0.5169826	8	10	0.03	1800	2.848122	40.92397	-91.39362
53092	759	909	792	-5.585894	-1.250238	0.8987405	0	11.51	4003	-71	127	5	5	1.3058	0.5570654	8	10	0.03	1800	1.149043	40.92397	-91.39362
53216	278	3510	135	-4.799812	-6.612669	0.9035699	0	11.51	4003	-43	136	5	5	1.3058	0.6318178	8	10	0.03	1800	2.560881	40.92397	-91.39362
53288	242	-1266	251	-4.354209	-8.67718	1.292824	0	11.85	4003	-33	134	5	5	1.3058	0.7036117	8	10	0.03	1800	-2.383636	40.92397	-91.39362
53384	2015	1906	22	-2.671503	-6.942388	1.590936	0	11.85	4004	-17	142	5	5	1.3058	0.7432969	8	10	0.03	1800	-2.235168	40.92397	-91.39362
53492	-1458	-1014	233	-2.550152	-9.032823	1.081891	0	11.85	4003	-18	141	5	5	1.3058	0.7881984	8	10	0.03	1800	-2.244141	40.92397	-91.39362
53696	116	4542	-363	-3.111201	-12.627	0.7016183	0	11.85	4002	3	138	5	5	1.3058	0.8841151	8	10	0.03	1800	-2.300018	40.92397	-91.39362
53745	116	4542	-363	-3.111201	-12.627	0.7016183	0	11.85	4002	7	140	5	5	1.3058	0.9143055	8	10	0.03	1800	-2.300018	40.92397	-91.39362
53830	-2227	-784	361	-7.274501	-12.61755	1.336864	0	11.85	4003	18	142	5	5	1.3058	0.9428747	8	10	0.03	1800	-2.877899	40.92397	-91.39362
53887	-1814	-420	26	-8.301546	-11.91397	1.348264	0	11.85	4003	22	133	5	5	1.3058	0.970845	8	10	0.03	1800	-2.877899	40.92397	-91.39362
54043	-426	3361	1068	-9.291642	-12.97755	1.300427	0	11.85	4004	37	124	5	5	1.3058	1.020022	8	10	0.03	1800	-6.708527	40.92396	-91.39362
54129	503	-3343	891	-7.925936	-13.2335	0.9091848	0	11.17	4003	49	120	5	5	1.3058	1.049143	8	10	0.03	1800	-7.710541	40.92396	-91.39362
54224	16	-5005	895	-7.354735	-10.54692	0.827325	0	11.17	4002	55	119	5	5	1.3058	1.071077	8	10	0.03	1800	-7.15979	40.92396	-91.39362
54306	808	-1501	-1053	-7.55122	-1.795063	0.8271264	0	11.17	4003	65	117	5	5	1.3058	1.078085	8	10	0.03	1800	-6.844177	40.92396	-91.39362
54406	-1981	-3225	-524	-6.306455	-2.236563	0.6982853	0	11.17	4003	74	114	5	5	1.3058	1.084	8	10	0.03	1800	-8.49231	40.92396	-91.39362
54482	1285	-2878	-269	-6.612951	1.980658	0.9093091	0	11.17	4005	81	113	5	5	1.3058	1.078918	8	10	0.03	1800	-7.397247	40.92396	-91.39362
54588	244	-1521	-1245	-5.71023	3.273342	1.091932	0	11.17	4004	91	110	5	5	1.3058	1.068508	8	10	0.03	1800	-8.824799	40.92396	-91.39362
54686	3940	2323	-1282	-4.467532	-1.893181	1.10965	0	11.17	4003	109	106	5	5	1.3058	1.049596	8	10	0.03	1800	-12.7587	40.92396	-91.39362
54837	776	1262	-239	0.815069	-8.679785	0.5334079	0	11.17	4004	112	95	5	5	1.3058	0.9971882	8	10	0.03	1800	-10.7132	40.92395	-91.39362
54977	-584	-136	-552	-0.4129916	-11.31278	1.092042	0	11.17	4003	136	83	5	5	1.3058	0.9171445	8	10	0.03	1800	-7.341736	40.92395	-91.39362
55033	3261	1587	-1430	1.142541	-11.02199	2.093542	0	11.17	4002	135	83	5	5	1.3058	0.9047884	8	10	0.03	1800	-7.611694	40.92395	-91.39362
55142	595	2775	1702	3.177083	-14.04362	1.438619	0	11.91	4002	142	80	5	5	1.3058	0.8532475	8	10	0.03	1800	-5.806885	40.92395	-91.39362
55181	1047	931	227	3.148268	-14.26595	1.389699	0	11.91	4004	130	75	5	5	1.3058	0.8127337	8	10	0.03	1800	-5.806885	40.92395	-91.39362
55286	-653	-6750	-689	0.9584984	-9.182995	1.075553	0	11.91	4004	133	72	5	5	1.3058	0.7561242	8	10	0.03	1800	-1.600647	40.92395	-91.39362
55515	-3427	1629	1692	-4.521259	-0.3809235	-0.5864049	0	11.91	4004	126	46	5	5	1.3058	0.6040184	8	10	0.03	1800	0.3493173	40.92395	-91.39363
55590	138	-1797	1023	-4.060155	-0.726543	-0.7909124	0	11.91	4003	125	39	5	5	1.3058	0.5616934	8	10	0.03	1800	-1.855591	40.92395	-91.39363
55695	-762	363	-1023	-6.060449	1.809874	-0.1693364	0	11.91	4003	125	33	5	5	1.3058	0.4968233	8	10	0.03	1800	-2.970886	40.92395	-91.39363
55803	-16419	-4251	5556	-17.78078	-0.8783745	-5.076463	0	11.91	4004	125	25	5	5	1.3058	0.4620744	8	10	0.03	1800	0.9263779	40.92395	-91.39363
55993	7146	-3047	-6531	-8.164696	-1.288213	-6.213294	0	11.74	4003	125	13	5	5	1.3058	0.3799726	8	10	0.03	1800	-3.285736	40.92395	-91.39363
56122	1238	1094	-2706	-1.320536	-1.813634	3.984135	0	11.74	4002	125	1	5	5	1.3058	0.3428044	8	10	0.03	1800	-8.917419	40.92395	-91.39363
56217	-371	-1386	1536	-2.756893	-2.150729	4.526459	0	11.74	4004	125	-3	5	5	1.3058	0.3300684	8	10	0.03	1800	-8.774994	40.92395	-91.39364
56385	4750	4921	499	1.981862	-2.87469	0.9560038	0	11.74	4003	100	-15	5	5	1.3058	0.3437044	8	10	0.03	1800	-5.886536	40.92395	-91.39364
56456	3636	2519	-1201	6.805473	-11.44776	-0.5967818	0	11.74	4002	95	-22	5	5	1.3058	0.3472696	8	10	0.03	1800	-2.22287	40.92395	-91.39364
56571	-22	2306	-2947	7.264254	-14.74446	0.4361214	0	11.74	4004	88	-34	5	5	1.3058	0.3722202	8	10	0.03	1800	5.003021	40.92395	-91.39365
56585	-22	2306	-2947	7.264254	-14.74446	0.4361214	0	11.74	4004	71	-31	5	5	1.3058	0.3722202	8	10	0.03	1800	5.003021	40.92395	-91.39365
56697	-329	1407	404	-0.7479989	-18.8018	1.902653	0	11.74	4004	60	-39	5	5	1.3058	0.4064775	8	10	0.03	1800	5.926295	40.92395	-91.39365
56807	-904	1693	1355	-1.688919	-19.60574	0.8351459	0	11.74	4004	48	-48	5	5	1.3058	0.472477	8	10	0.03	1800	6.590989	40.92395	-91.39365
56876	-664	915	-272	-2.121156	-21.05163	0.2843396	0	11.29	4003	45	-51	5	5	1.3058	0.5167378	8	10	0.03	1800	6.590989	40.92395	-91.39365
56989	-609	-533	234	-3.039419	-17.71843	0.463906	0	11.29	4002	32	-60	5	5	1.3058	0.5999048	8	10	0.03	1800	5.323856	40.92395	-91.39365
57069	-1149	2312	-9	-3.95747	-17.6197	0.5422818	0	11.29	4003	25	-65	5	5	1.3058	0.652131	8	10	0.03	1800	4.563381	40.92395	-91.39365
57279	519	-1366	-19	-2.621361	-17.7462	1.092571	0	11.29	4003	0	0	5	5	1.3058	0.7924892	3	10	0.03	1800	3.266352	40.92395	-91.39365
57322	-333	-252	-656	-2.568858	-17.28931	1.13176	0	11.29	4004	0	0	5	5	1.3058	0.8395163	3	10	0.03	1800	3.977546	40.92395	-91.39365
57414	1424	-106	72	-1.874257	-18.29569	1.248245	0	11.29	4004	0	0	5	5	1.3058	0.9136631	3	10	0.03	1800	3.520522	40.92395	-91.39365
57477	1090	-2465	-432	-1.241518	-16.83636	1.418493	0	11.29	4004	0	0	5	5	1.3058	0.9574282	3	10	0.03	1800	3.520522	40.92396	-91.39365
57571	21	-7474	-261	-1.04179	-6.66948	1.674062	0	11.29	4004	0	0	5	5	1.3058	0.9983916	3	10	0.03	1800	3.811115	40.92396	-91.39365
57694	-346	-5073	-287	-2.523914	6.622815	0.5675715	0	11.29	4002	0	0	5	5	1.3058	1.091893	3	10	0.03	1800	6.917943	40.92397	-91.39365
57776	1592	-2656	1217	-0.6093855	9.218911	0.3621377	0	11.29	4004	0	0	5	5	1.3058	1.138453	3	10	0.03	1800	8.014489	40.92397	-91.39365
57879	-785	-461	-334	-0.2366392	9.600224	0.1886411	0	11.57	4004	0	0	5	5	1.3058	1.185693	3	10	0.03	1800	8.290722	40.92397	-91.39365
58046	-760	1592	-728	-0.4971767	4.047293	0.5981604	0	11.57	4002	0	0	5	5	1.3058	1.283072	3	10	0.03	1800	10.37298	40.92397	-91.39365
58111	1377	500	-921	-0.7325895	0.6023995	1.487746	0	11.57	4003	0	0	5	5	1.3058	1.33331	3	10	0.03	1800	10.69657	40.92397	-91.39365
58176	-988	-394	471	-0.3975115	0.2442379	1.610032	0	11.57	4003	0	0	5	5	1.3058	1.348947	3	10	0.03	1800	10.69811	40.92397	-91.39365
58352	-1662	-3327	1156	-7.238301	6.417077	1.542474	0	11.57	4003	0	0	5	5	1.3058	1.403496	3	10	0.03	1800	9.83288	40.92398	-91.39365
58441	-2434	-4626	888	-8.98906	9.264019	1.429192	0	11.57	4003	0	0	5	5	1.3058	1.443773	3	10	0.03	1800	11.23306	40.92398	-91.39365
58518	-3285	-4116	187	-11.21913	11.84202	1.069415	0	11.57	4002	0	0	5	5	1.3058	1.462548	3	10	0.03	1800	10.31279	40.92398	-91.39365
58650	-965	1	2170	-10.81179	11.75471	1.153897	0	11.57	4002	0	0	5	5	1.3058	1.525763	3	10	0.03	1800	11.04969	40.92399	-91.39365
58754	2398	-2469	-1251	-8.266423	11.34481	-0.1365318	0	11.51	4004	0	0	5	5	1.3058	1.572566	3	10	0.03	1800	10.62647	40.92399	-91.39365
58775	2398	-2469	-1251	-8.266423	11.34481	-0.1365318	0	11.51	4004	0	0	5	5	1.3058	1.579567	3	10	0.03	1800	10.62647	40.92399	-91.39365
58887	1755	932	59	-2.741008	10.47064	0.4399098	0	11.51	4002	0	0	5	5	1.3058	1.615192	3	10	0.03	1800	-5.629089	40.92399	-91.39365
58974	1143	-1583	43	1.159043	8.821199	0.9883908	0	11.51	4004	0	0	5	5	1.3058	1.6369	3	10	0.03	1800	-15.51611	40.92399	-91.39365
59090	-399	4807	1627	0.2736415	3.846453	0.6776509	0	11.51	4002	0	0	5	5	1.3058	1.674499	3	10	0.03	1800	-7.237366	40.92399	-91.39365
59177	1708	3296	-468	1.788573	-0.8033195	1.001544	0	11.51	4002	0	0	5	5	1.3058	1.707405	3	10	0.03	1800	-13.19214	40.92399	-91.39365
59292	71	2310	-1403	-0.6110063	-6.681737	1.504136	0	11.51	4002	0	0	5	5	1.3058	1.744475	3	10	0.03	1800	0.2103989	40.92399	-91.39365
59386	619	5208	-239	-0.464504	-13.63795	1.20396	0	11.51	4003	0	0	5	5	1.3058	1.757169	3	10	0.03	1800	6.430566	40.92399	-91.39365
59464	450	2063	-191	-0.0606001	-16.13788	1.125078	0	11.51	4003	0	0	5	5	1.3058	1.762307	3	10	0.03	1800	2.59674	40.92399	-91.39365
59641	447	185	97	0.0774311	-15.12618	1.186223	0	11.51	4003	0	0	5	5	1.3058	1.753818	3	10	0.03	1800	4.45941	40.92398	-91.39365
59728	-258	-2357	35	0.02128558	-10.39816	1.185668	0	12.14	4004	0	0	5	5	1.3058	1.748955	3	10	0.03	1800	7.683006	40.92398	-91.39365
59806	-717	-2125	-455	-0.9283741	-6.961931	1.157199	0	12.14	4003	0	0	5	5	1.3058	1.73387	3	10	0.03	1800	8.880547	40.92397	-91.39365
59960	130	-574	-639	-0.6185167	-4.71271	0.5761952	0	12.14	4003	0	0	5	5	1.3058	1.69417	3	10	0.03	1800	7.711516	40.92397	-91.39365
60040	341	-1122	-977	-1.386903	-4.667825	0.4564082	0	12.14	4002	0	0	5	5	1.3058	1.674827	3	10	0.03	1800	13.32486	40.92397	-91.39365
60158	-827	3258	865	-0.9918504	-5.352365	0.5760627	0	12.14	4002	0	0	5	5	1.3058	1.637291	3	10	0.03	1800	12.69222	40.92397	-91.39365
60251	-2269	3949	297	-2.358489	-11.88446	-0.5648782	0	12.14	4003	0	0	5	5	1.3058	1.578347	3	10	0.03	1800	12.3449	40.92397	-91.39365
60347	572	1694	-766	-2.923972	-13.66255	-0.2691564	0	12.14	4003	0	0	5	5	1.3058	1.551704	3	10	0.03	1800	8.470326	40.92397	-91.39365
60457	-1767	2454	309	-1.48912	-12.99147	1.835946	0	12.14	4003	0	0	5	5	1.3058	1.491953	3	10	0.03	1800	3.740374	40.92397	-91.39365
60568	18	772	-775	-2.007228	-13.66504	1.677384	0	11.34	4004	0	0	5	5	1.3058	1.415615	3	10	0.03	1800	3.366416	40.92396	-91.39365
60689	-311	663	702	-0.2015522	-14.18299	1.915579	0	11.34	4003	0	0	5	5	1.3058	1.378376	3	10	0.03	1800	3.78399	40.92396	-91.39365
60735	171	1320	309	-0.2666515	-13.54787	2.024466	0	11.34	4004	0	0	5	5	1.3058	1.35506	3	10	0.03	1800	3.839828	40.92396	-91.39365
60982	-2860	-2737	72	-8.414592	-4.903854	0.3657021	0	11.34	4004	0	0	5	5	1.3058	1.265357	3	10	0.03	1800	4.65639	40.92395	-91.39365
61084	-1929	-2058	-664	-11.53994	-1.05957	0.3431467	0	11.34	4002	0	0	5	5	1.3058	1.235957	3	10	0.03	1800	4.001736	40.92395	-91.39365
61148	-2227	-2085	-239	-12.32104	-0.4454473	0.4201993	0	11.34	4004	0	0	5	5	1.3058	1.225155	3	10	0.03	1800	4.001736	40.92395	-91.39365
61245	1401	602	-446	-12.49443	0.3270613	1.135958	0	11.34	4002	0	0	5	5	1.3058	1.210613	3	10	0.03	1800	1.867967	40.92395	-91.39365
61346	2252	1798	316	-8.808356	-1.162933	1.085993	0	11.34	4002	0	0	5	5	1.3058	1.195762	3	10	0.03	1800	-1.519348	40.92395	-91.39365
61498	2371	920	561	-3.858602	-0.3096399	1.317831	0	10.94	4002	0	0	5	5	1.3058	1.173989	3	10	0.03	1800	-1.194061	40.92395	-91.39365
61550	675	1488	475	-1.879915	-1.82295	1.546884	0	10.94	4002	0	0	5	5	1.3058	1.168286	3	10	0.03	1800	-0.6486511	40.92395	-91.39365
61689	475	-1129	-582	-1.643937	-3.374623	1.529856	0	10.94	4002	0	0	5	5	1.3058	1.153957	3	10	0.03	1800	-0.2796631	40.92395	-91.39365
61885	2189	902	799	1.062336	-1.542422	1.073759	0	10.94	4004	0	0	5	5	1.3058	1.104525	3	10	0.03	1800	-1.000702	40.92395	-91.39365
61993	513	-1072	-259	2.689825	-1.984713	0.9298279	0	10.94	4002	0	0	5	5	1.3058	1.078169	3	10	0.03	1800	0.2422832	40.92395	-91.39365
62071	1495	-284	639	3.005617	-1.489498	0.9738837	0	10.94	4002	0	0	5	5	1.3058	1.049909	3	10	0.03	1800	2.436998	40.92395	-91.39365
62192	954	1622	428	5.181317	-0.8897951	1.995356	0	10.94	4002	0	0	5	5	1.3058	1.01067	3	10	0.03	1800	5.327818	40.92395	-91.39365
62249	-1533	2194	1391	4.8327	-1.831078	2.214128	0	10.94	4003	0	0	5	5	1.3058	0.9796597	3	10	0.03	1800	6.613671	40.92395	-91.39365
62438	-2147	1157	-338	0.7558946	-4.736774	0.2883704	0	11.63	4002	0	0	5	5	1.3058	0.9098614	3	10	0.03	1800	10.12865	40.92395	-91.39365
