time(ms)	gyro_x(deg/s)	gyro_y(deg/s)	gyro_z(deg/s)	orientation_roll(deg)	orientation_pitch(deg)	orientation_yaw(deg)	throttle	battery(V)	loop_time(uS)	pid_output_roll	pid_output_pitch	pid_output_yaw	pid_output_throttle	ultrasonic_alt	baro_alt	flight_mode	p_gain_altitude	i_gain_altitude	d_gain_altitude	compass_heading	latitude	longitude
62721	-368	-1495	-1684	-7.178935	-7.148256	0.4277746	0	11.63	4004	0	0	5	5	1.3058	0.8102108	3	10	0.03	1800	8.315785	40.92395	-91.39365
62807	-8	489	-866	-6.845324	-8.42738	1.038209	0	11.63	4003	0	0	5	5	1.3058	0.7631364	3	10	0.03	1800	2.689993	40.92395	-91.39365
62897	829	338	1359	-5.086219	-7.179509	1.065856	0	11.63	4002	0	0	5	5	1.3058	0.7488084	3	10	0.03	1800	4.2667	40.92395	-91.39365
62982	1956	2762	686	-2.780734	-8.133827	0.8046059	0	11.63	4004	0	0	5	5	1.3058	0.7297729	3	10	0.03	1800	2.876514	40.92394	-91.39365
63160	603	135	-820	-1.517051	-11.77742	1.592788	0	11.63	4002	0	0	5	5	1.3058	0.6840566	3	10	0.03	1800	4.09891	40.92394	-91.39365
63195	970	1299	614	-1.067435	-11.8446	1.545163	0	11.63	4003	0	0	5	5	1.3058	0.6706745	3	10	0.03	1800	3.808291	40.92394	-91.39365
63294	354	-686	-270	-1.390826	-14.43795	1.109952	0	10.66	4002	0	0	5	5	1.3058	0.6481774	3	10	0.03	1800	3.951326	40.92394	-91.39365
63439	277	-451	-704	-1.472334	-10.98546	1.263657	0	10.66	4003	0	0	5	5	1.3058	0.600175	3	10	0.03	1800	4.906886	40.92394	-91.39365
63593	-271	1427	-379	-1.744986	-14.58586	1.137185	0	10.66	4003	0	0	5	5	1.3058	0.5760266	3	10	0.03	1800	3.786694	40.92394	-91.39365
63640	722	-186	134	-1.661052	-14.71431	1.245218	0	10.66	4004	0	0	5	5	1.3058	0.5530907	3	10	0.03	1800	3.786694	40.92394	-91.39365
63699	79	-1185	374	-1.442459	-10.36671	1.390139	0	10.66	4010	0	0	5	5	1.3058	0.5493174	3	10	0.03	1800	4.926633	40.92394	-91.39365
63797	197	-2160	-1652	-0.8909511	-7.580264	1.903625	0	10.66	4004	0	0	5	5	1.3058	0.5234684	3	10	0.03	1800	4.926633	40.92394	-91.39365
63934	0	-1245	-985	-1.344575	-7.228661	1.585311	0	10.66	4004	0	0	5	5	1.3058	0.5004963	3	10	0.03	1800	4.199201	40.92394	-91.39365
64038	1713	-3512	-937	-0.2476584	-3.344451	1.280141	0	10.66	4003	0	0	5	5	1.3058	0.484438	3	10	0.03	1800	5.035188	40.92394	-91.39365
64108	1552	-4345	-448	1.559202	0.2818124	1.343573	0	10.66	4004	0	0	5	5	1.3058	0.4764107	3	10	0.03	1800	6.483839	40.92394	-91.39365
64213	-299	-1027	994	1.74001	3.33953	1.04735	0	10.66	4003	0	0	5	5	1.3058	0.4604138	3	10	0.03	1800	8.763981	40.92394	-91.39365
64323	-2786	-1931	-864	-0.5561646	3.898824	0.8274485	0	11.11	4003	0	0	5	5	1.3058	0.4393069	3	10	0.03	1800	10.58236	40.92395	-91.39365
64514	-3309	1074	488	-9.303118	1.370406	0.5797375	0	11.11	4004	0	0	5	5	1.3058	0.3890127	3	10	0.03	1800	9.092686	40.92395	-91.39365
64559	-2215	1270	117	-10.15008	0.7525663	0.7361642	0	11.11	4003	0	0	5	5	1.3058	0.3747324	3	10	0.03	1800	9.518926	40.92395	-91.39365
64672	-896	-1003	119	-12.55939	-0.4455281	1.016186	0	11.11	4003	0	0	5	5	1.3058	0.3504698	3	10	0.03	1800	3.727912	40.92395	-91.39365
64766	3213	2411	17	-8.453848	-1.437892	0.8527067	0	11.11	4004	0	0	5	5	1.3058	0.323031	3	10	0.03	1800	0.6036685	40.92395	-91.39365
64917	3427	1354	-844	-1.203683	-6.763436	1.283288	0	11.11	4002	0	0	5	5	1.3058	0.2941714	3	10	0.03	1800	-1.167664	40.92395	-91.39365
64950	2416	1148	-348	0.2188804	-7.558862	1.292897	0	11.11	4004	0	0	5	5	1.3058	0.2898435	3	10	0.03	1800	-2.123138	40.92395	-91.39365
65024	1126	285	578	2.000184	-6.839566	1.594084	0	11.11	4004	0	0	5	5	1.3058	0.2676304	3	10	0.03	1800	-1.451935	40.92395	-91.39365
65128	1333	765	-827	4.59113	-8.253605	1.494784	0	11.11	4004	0	0	5	5	1.3058	0.2591351	3	10	0.03	1800	0.2174022	40.92395	-91.39365
65252	-2486	-3975	-646	1.379411	-7.048167	1.479004	0	11.23	4003	0	0	5	5	1.3058	0.2460941	3	10	0.03	1800	2.521246	40.92395	-91.39365
65373	585	1844	50	1.099403	-4.770193	2.116785	0	11.23	4003	0	0	5	5	1.3058	0.2264967	3	10	0.03	1800	2.802219	40.92395	-91.39365
65440	-683	2144	742	0.7644885	-6.968649	1.750064	0	11.23	4003	0	0	5	5	1.3058	0.2165677	3	10	0.03	1800	5.722229	40.92395	-91.39364
65575	-1856	1851	1453	-2.252322	-10.53266	1.282004	0	11.23	4002	0	0	5	5	1.3058	0.2033267	3	10	0.03	1800	8.585623	40.92395	-91.39364
65698	-1254	-639	-1163	-5.674302	-11.58196	0.8904904	0	11.23	4004	0	0	5	5	1.3058	0.1974364	3	10	0.03	1800	4.443448	40.92395	-91.39364
65765	-3590	181	995	-7.116674	-10.95945	1.390325	0	11.23	4004	0	0	5	5	1.3058	0.1871297	3	10	0.03	1800	4.952615	40.92395	-91.39364
65938	1351	-485	1481	-7.164781	-9.897389	0.8528856	0	11.23	4004	0	0	5	5	1.3058	0.1590219	3	10	0.03	1800	-1.603699	40.92395	-91.39364
65974	1342	-619	1214	-6.013615	-9.046928	0.7278931	0	11.23	4003	0	0	5	5	1.3058	0.1517213	3	10	0.03	1800	-1.603699	40.92395	-91.39364
66052	2945	-418	647	-2.909086	-7.336877	0.9111735	0	11.23	4002	0	0	5	5	1.3058	0.1436466	3	10	0.03	1800	-3.462158	40.92395	-91.39364
66156	-133	2555	573	0.911109	-8.241523	0.4288197	0	11.51	4004	0	0	5	5	1.3058	0.1402616	3	10	0.03	1800	-2.171478	40.92395	-91.39364
66283	324	-901	-286	3.197032	-10.09171	0.307003	0	11.51	4004	0	0	5	5	1.3058	0.1262363	3	10	0.03	1800	1.49318	40.92395	-91.39364
66406	576	-574	-724	2.527261	-8.932119	2.077344	0	11.51	4002	0	0	5	5	1.3058	0.1242972	3	10	0.03	1800	1.815375	40.92395	-91.39364
66472	-1390	922	1193	0.3527111	-9.123739	1.767514	0	11.51	4003	0	0	5	5	1.3058	0.1239273	3	10	0.03	1800	0.6785908	40.92395	-91.39364
66558	44	1852	764	-0.01411	-9.395097	1.055629	0	11.51	4003	0	0	5	5	1.3058	0.1281431	3	10	0.03	1800	1.254517	40.92395	-91.39364
66662	752	-1776	-911	0.07224693	-10.86363	0.7099506	0	11.51	4003	0	0	5	5	1.3058	0.133063	3	10	0.03	1800	4.144475	40.92395	-91.39364
66765	-835	-2139	-748	-0.6228456	-5.872849	1.205759	0	11.51	4003	0	0	5	5	1.3058	0.1431894	3	10	0.03	1800	5.152434	40.92395	-91.39364
66903	-3143	458	1143	-3.290887	-5.690975	0.9575186	0	11.51	4003	0	0	5	5	1.3058	0.15933	3	10	0.03	1800	6.548469	40.92395	-91.39364
67050	-1499	-2556	-431	-9.326815	2.491406	0.925177	0	11.11	4003	0	0	5	5	1.3058	0.1625735	3	10	0.03	1800	5.394069	40.92395	-91.39364
67075	-1838	-418	46	-10.28775	2.828869	0.9714363	0	11.11	4004	0	0	5	5	1.3058	0.1609459	3	10	0.03	1800	4.499314	40.92395	-91.39364
67179	-291	2376	-278	-10.62634	1.142613	1.431091	0	11.11	4002	0	0	5	5	1.3058	0.1548853	3	10	0.03	1800	3.408304	40.92395	-91.39364
67345	2054	-10	807	-4.976554	-3.019362	1.309307	0	11.11	4002	0	0	5	5	1.3058	0.1242703	3	10	0.03	1800	0.3616663	40.92395	-91.39364
67398	485	-402	-682	-3.549811	-2.842658	1.382203	0	11.11	4002	0	0	5	5	1.3058	0.1208825	3	10	0.03	1800	-0.2005005	40.92395	-91.39364
67516	4318	9999	5109	1.042892	0.6562905	-4.800207	0	11.11	4004	0	0	5	5	1.3058	0.08841513	3	10	0.03	1800	1.727735	40.92395	-91.39364
67632	-1630	13260	-2039	1.933047	-16.71598	-6.478467	0	11.11	4003	0	0	5	5	1.3058	0.04274774	3	10	0.03	1800	5.742199	40.92395	-91.39364
67751	214	-1523	111	-0.01140561	-35.7858	-6.020101	0	11.11	4006	0	0	5	5	1.3058	-0.01026298	3	10	0.03	1800	4.263309	40.92395	-91.39364
67841	-433	-7577	66	0.76593	-31.67993	-6.09903	0	11.11	4004	0	0	5	5	1.3058	-0.03939924	3	10	0.03	1800	4.512731	40.92395	-91.39364
67900	-195	-4183	62	0.6611803	-28.6487	-6.147019	0	11.11	4002	0	0	5	5	1.3058	-0.06583104	3	10	0.03	1800	4.860322	40.92395	-91.39364
68004	74	-620	141	1.0208	-32.18716	-6.045035	0	11.91	4002	0	0	5	5	1.3058	-0.1034039	3	10	0.03	1800	4.834521	40.92395	-91.39364
68178	-120	-43	25	1.573671	-35.75373	-6.097554	0	11.91	4004	0	0	5	5	1.3058	-0.1355032	3	10	0.03	1800	5.077412	40.92395	-91.39364
68205	-120	-43	25	1.573671	-35.75373	-6.097554	0	11.91	4004	0	0	5	5	1.3058	-0.1444479	3	10	0.03	1800	5.077412	40.92395	-91.39364
68374	-103	-19	18	2.035335	-39.16451	-6.150686	0	11.91	4003	0	0	5	5	1.3058	-0.1712506	3	10	0.03	1800	5.474909	40.92395	-91.39364
68411	-64	10	-22	2.118193	-39.64568	-6.160529	0	11.91	4003	0	0	5	5	1.3058	-0.1773995	3	10	0.03	1800	5.474909	40.92395	-91.39364
68514	-107	-3	21	2.32548	-40.96321	-6.190304	0	11.91	4003	0	0	5	5	1.3058	-0.1914075	3	10	0.03	1800	5.621124	40.92395	-91.39364
68662	-106	12	8	2.528426	-42.47672	-6.229368	0	11.91	4002	0	0	5	5	1.3058	-0.1948592	3	10	0.03	1800	5.733182	40.92395	-91.39364
68783	-92	-15	27	2.712437	-43.74014	-6.2644	0	11.91	4003	0	0	5	5	1.3058	-0.1995846	1	10	0.03	1800	5.827106	40.92395	-91.39364
68838	-94	12	13	2.753317	-44.0212	-6.271492	0	11.91	4003	0	0	5	5	1.3058	-0.2044754	1	10	0.03	1800	5.827106	40.92395	-91.39364
68990	-90	8	-3	2.931714	-45.24571	-6.316123	0	11.91	4003	0	0	5	5	1.3058	-0.2100504	1	10	0.03	1800	5.796093	40.92395	-91.39364
69044	-82	-2	14	2.992253	-45.67453	-6.33208	0	11.91	4003	0	0	5	5	1.3058	-0.2138193	1	10	0.03	1800	6.0323	40.92395	-91.39364
69143	-83	4	15	3.064559	-46.24051	-6.357879	0	11.91	4004	0	0	5	5	1.3058	-0.2198385	1	10	0.03	1800	6.088449	40.92395	-91.39364
69270	-84	6	10	3.128291	-46.72554	-6.379156	0	11.91	4004	0	0	5	5	1.3058	-0.2264037	1	10	0.03	1800	6.178257	40.92395	-91.39364
69369	-88	2	10	3.174754	-47.0269	-6.396397	0	11.91	4004	0	0	5	5	1.3058	-0.2303576	1	10	0.03	1800	6.261851	40.92395	-91.39364
69488	-83	-6	12	3.269088	-47.63264	-6.43253	0	11.91	4004	0	0	5	5	1.3058	-0.2338284	1	10	0.03	1800	6.323511	40.92395	-91.39364
69629	-79	3	9	3.315803	-47.94326	-6.457596	0	11.91	4002	0	0	5	5	1.3058	-0.2265281	1	10	0.03	1800	6.359894	40.92395	-91.39364
69688	-87	2	10	3.357047	-48.21602	-6.482173	0	11.91	4003	0	0	5	5	1.3058	-0.2224787	1	10	0.03	1800	6.170128	40.92395	-91.39364
69798	-77	-11	-1	3.397684	-48.45515	-6.504978	0	11.91	4002	0	0	5	5	1.3058	-0.2215863	1	10	0.03	1800	6.427293	40.92395	-91.39364
69916	-88	-3	11	3.435321	-48.73109	-6.538971	0	11.97	4004	0	0	5	5	1.3058	-0.2177205	1	10	0.03	1800	6.467462	40.92395	-91.39364
69984	-86	1	15	3.4503	-48.78999	-6.547898	0	11.97	4004	0	0	5	5	1.3058	-0.212869	1	10	0.03	1800	6.467462	40.92395	-91.39364
70162	-88	3	16	3.496123	-49.05534	-6.588432	0	11.97	4003	0	0	5	5	1.3058	-0.2031961	1	10	0.03	1800	6.499777	40.92395	-91.39364
70202	-81	12	14	3.508467	-49.10023	-6.597236	0	11.97	4002	0	0	5	5	1.3058	-0.2018591	1	10	0.03	1800	6.499777	40.92395	-91.39364
70312	-88	23	13	3.541369	-49.31089	-6.636242	0	11.97	4003	0	0	5	5	1.3058	-0.2013953	1	10	0.03	1800	6.558598	40.92395	-91.39364
70407	-82	16	12	3.555036	-49.38263	-6.649878	0	11.97	4003	0	0	5	5	1.3058	-0.2100849	1	10	0.03	1800	6.575701	40.92395	-91.39364
70501	-76	0	10	3.576867	-49.48571	-6.6736	0	11.97	4003	0	0	5	5	1.3058	-0.2136799	1	10	0.03	1800	6.340265	40.92395	-91.39364
70587	-87	4	12	3.590448	-49.56845	-6.697323	0	11.97	4003	0	0	5	5	1.3058	-0.2176326	1	10	0.03	1800	6.368119	40.92395	-91.39364
70712	-80	4	11	3.602802	-49.64446	-6.719089	0	11.97	4004	0	0	5	5	1.3058	-0.2288412	1	10	0.03	1800	6.605778	40.92395	-91.39364
70825	-89	6	14	3.607006	-49.70178	-6.740792	0	11.97	4003	0	0	5	5	1.3058	-0.2403908	1	10	0.03	1800	6.35421	40.92395	-91.39364
70910	84	621	8	3.820169	-49.85016	-6.859838	0	11.97	4003	0	0	5	5	1.3058	-0.2482992	1	10	0.03	1800	6.599345	40.92395	-91.39364
71044	-51	407	-100	4.086483	-49.97595	-6.806161	0	11.97	4003	0	0	5	5	1.3058	-0.2574672	1	10	0.03	1800	6.710744	40.92395	-91.39364
71166	-713	-5968	-1117	3.591173	-47.30278	-6.08887	0	11.97	4002	0	0	5	5	1.3058	-0.2605275	1	10	0.03	1800	6.321683	40.92395	-91.39364
71248	1424	-10131	-938	2.644208	-35.70218	-3.96591	0	11.97	4003	0	0	5	5	1.3058	-0.2578974	1	10	0.03	1800	4.290287	40.92395	-91.39364
71338	1122	-5543	-438	6.175683	-23.00915	-3.596538	0	11.97	4002	0	0	5	5	1.3058	-0.2471884	1	10	0.03	1800	2.440068	40.92395	-91.39364
71447	-681	1065	-1077	6.160506	-20.0576	-2.640702	0	11.97	4002	0	0	5	5	1.3058	-0.2293032	1	10	0.03	1800	1.813098	40.92394	-91.39364
71526	-1437	-919	1555	4.545138	-19.57234	-2.381385	0	11.97	4002	0	0	5	5	1.3058	-0.215238	1	10	0.03	1800	0.9718125	40.92394	-91.39364
71641	-1502	-1419	-2028	2.808762	-15.57495	-3.341301	0	11.97	4004	0	0	5	5	1.3058	-0.1934239	1	10	0.03	1800	2.531533	40.92395	-91.39364
71739	-1283	-1079	-1563	0.5176749	-14.513	-1.533801	0	11.97	4003	0	0	5	5	1.3058	-0.1749477	1	10	0.03	1800	1.916273	40.92395	-91.39364
71884	5	-1731	112	-0.4829814	-10.60369	0.3801469	0	11.97	4002	0	0	5	5	1.3058	-0.1652205	1	10	0.03	1800	0.5676708	40.92395	-91.39364
71942	-38	-2029	-10	-0.3341968	-9.504069	0.3279368	0	11.97	4004	0	0	5	5	1.3058	-0.1532135	1	10	0.03	1800	0.6630449	40.92395	-91.39365
72156	-109	-136	-20	-0.6894328	-2.306773	0.7700733	0	11.97	4004	0	0	5	5	1.3058	-0.1444784	1	10	0.03	1800	0.5529104	40.92395	-91.39364
72266	-111	-148	32	-0.7832207	-1.74611	0.714992	0	11.97	4002	0	0	5	5	1.3058	-0.1378765	1	10	0.03	1800	0.6174137	40.92395	-91.39364
72429	-73	13	8	-0.7869301	-1.234311	0.6750067	0	11.97	4004	0	0	5	5	1.3058	-0.1233374	1	10	0.03	1800	0.6707085	40.92395	-91.39364
72512	-81	-3	15	-0.7803022	-1.120793	0.6623509	0	11.97	4004	0	0	5	5	1.3058	-0.1209515	1	10	0.03	1800	0.4113166	40.92395	-91.39364
72576	-82	0	17	-0.7815453	-0.9470629	0.6391782	0	11.97	4003	0	0	5	5	1.3058	-0.1230742	1	10	0.03	1800	0.6623891	40.92395	-91.39364
72668	-69	7	11	-0.7792298	-0.8947245	0.6318421	0	11.97	4003	0	0	5	5	1.3058	-0.1315785	1	10	0.03	1800	0.6573322	40.92395	-91.39364
72791	-79	6	11	-0.774101	-0.7135714	0.6068948	0	12.08	4003	0	0	5	5	1.3058	-0.1422891	1	10	0.03	1800	0.6483772	40.92395	-91.39365
72876	-81	10	15	-0.7731021	-0.5552998	0.5812154	0	12.08	4004	0	0	5	5	1.3058	-0.1486848	1	10	0.03	1800	0.3848014	40.92395	-91.39365
72952	-81	4	7	-0.7725682	-0.5202446	0.5741231	0	12.08	4002	0	0	5	5	1.3058	-0.1651223	1	10	0.03	1800	0.3895522	40.92395	-91.39365
73105	-75	0	12	-0.7618615	-0.3664533	0.5408019	0	12.08	4002	0	0	5	5	1.3058	-0.1784498	1	10	0.03	1800	0.6282415	40.92395	-91.39365
73172	-79	-2	14	-0.7630643	-0.3182212	0.5287576	0	12.08	4003	0	0	5	5	1.3058	-0.1791152	1	10	0.03	1800	0.6146604	40.92395	-91.39365
73256	-73	8	14	-0.7522268	-0.2714554	0.5157965	0	12.08	4004	0	0	5	5	1.3058	-0.1844706	1	10	0.03	1800	0.6032611	40.92395	-91.39365
73426	-87	-4	9	-0.7446818	-0.1480882	0.4769749	0	12.08	4004	0	0	5	5	1.3058	-0.2022822	1	10	0.03	1800	0.3474911	40.92395	-91.39365
73477	-79	2	10	-0.747638	-0.1291004	0.4692705	0	12.08	4003	0	0	5	5	1.3058	-0.2079727	1	10	0.03	1800	0.3474911	40.92395	-91.39364
73556	-77	8	12	-0.7430062	-0.07520755	0.4498901	0	12.08	4003	0	0	5	5	1.3058	-0.2149405	1	10	0.03	1800	0.5741778	40.92395	-91.39364
73675	-78	2	9	-0.748251	-0.03005961	0.4308763	0	12.02	4003	0	0	5	5	1.3058	-0.224579	1	10	0.03	1800	0.5744311	40.92395	-91.39364
73793	-81	4	14	-0.7482907	0.008316331	0.4111887	0	12.02	4002	0	0	5	5	1.3058	-0.2298794	1	10	0.03	1800	0.5787565	40.92395	-91.39364
73857	-87	2	8	-0.744533	0.03396736	0.3911357	0	12.02	4002	0	0	5	5	1.3058	-0.2330139	1	10	0.03	1800	0.5724488	40.92395	-91.39364
73960	-82	-1	7	-0.7395938	0.06216906	0.3721846	0	12.02	4002	0	0	5	5	1.3058	-0.2342387	1	10	0.03	1800	0.3257703	40.92395	-91.39364
74119	-77	3	13	-0.7354949	0.09712323	0.3379466	0	12.02	4003	0	0	5	5	1.3058	-0.2392559	1	10	0.03	1800	0.5583488	40.92395	-91.39364
74193	-75	0	8	-0.7338409	0.1103199	0.3245578	0	12.02	4004	0	0	5	5	1.3058	-0.23987	1	10	0.03	1800	0.5533297	40.92395	-91.39364
74260	-78	0	14	-0.7323421	0.118622	0.3099471	0	12.02	4003	0	0	5	5	1.3058	-0.2415504	1	10	0.03	1800	0.3130134	40.92395	-91.39364
74357	-77	4	11	-0.7299249	0.1252801	0.2909929	0	12.02	4004	0	0	5	5	1.3058	-0.2429333	1	10	0.03	1800	0.3083848	40.92395	-91.39364
74466	-81	7	7	-0.7293626	0.1405081	0.2714899	0	12.02	4004	0	0	5	5	1.3058	-0.2397565	1	10	0.03	1800	0.5468358	40.92395	-91.39364
74609	-82	6	16	-0.7254618	0.1624499	0.2452621	0	12.14	4004	0	0	5	5	1.3058	-0.2364065	1	10	0.03	1800	0.3007464	40.92395	-91.39364
74670	-80	0	15	-0.7199423	0.1703692	0.2294871	0	12.14	4003	0	0	5	5	1.3058	-0.2340787	1	10	0.03	1800	0.5292888	40.92395	-91.39364
74758	-74	4	11	-0.7217129	0.1808841	0.2178706	0	12.14	4002	0	0	5	5	1.3058	-0.2315556	1	10	0.03	1800	0.2972042	40.92395	-91.39364
74858	-73	4	10	-0.7196429	0.1868828	0.1978775	0	12.14	4003	0	0	5	5	1.3058	-0.230251	1	10	0.03	1800	0.5321003	40.92395	-91.39364
74966	-84	1	11	-0.715027	0.1967171	0.1762923	0	12.14	4003	0	0	5	5	1.3058	-0.2296499	1	10	0.03	1800	0.2842257	40.92395	-91.39364
75096	-73	4	11	-0.7146153	0.2075325	0.1473111	0	12.14	4004	0	0	5	5	1.3058	-0.2291933	1	10	0.03	1800	0.2901114	40.92395	-91.39364
75171	-79	0	11	-0.7144836	0.2123391	0.1417473	0	12.14	4003	0	0	5	5	1.3058	-0.2285289	1	10	0.03	1800	0.5178038	40.92395	-91.39364
75280	-78	4	14	-0.7139301	0.2151904	0.1163144	0	12.14	4004	0	0	5	5	1.3058	-0.2274114	3	10	0.03	1800	0.5189424	40.92395	-91.39364
75358	-66	2	14	-0.7066138	0.2190177	0.100234	0	12.14	4003	0	0	5	5	1.3058	-0.2244069	3	10	0.03	1800	0.2748934	40.92395	-91.39364
75461	-72	-2	10	-0.7044173	0.2211292	0.08030265	0	12.08	4008	0	0	5	5	1.3058	-0.2179148	3	10	0.03	1800	0.5115352	40.92395	-91.39364
75519	-80	6	14	-0.7077306	0.2217103	0.06948055	0	12.08	4003	0	0	5	5	1.3058	-0.2142469	3	10	0.03	1800	0.4992324	40.92395	-91.39364
75648	-75	0	8	-0.7026858	0.2171508	0.04728634	0	12.08	4003	0	0	5	5	1.3058	-0.2071021	3	10	0.03	1800	0.5063176	40.92395	-91.39364
75728	-76	3	14	-0.7036847	0.223067	0.02912754	0	12.08	4004	0	0	5	5	0.02	-0.2024965	6	10	0.03	1800	0.2658358	40.92395	-91.39364
75903	-66	3	7	-0.6898964	0.2227477	-0.001380383	0	12.08	4004	0	0	5	5	0.03575326	-0.2037534	6	10	0.03	1800	0.4813601	40.92395	-91.39364
75935	-72	6	11	-0.6896652	0.2218796	-0.006760475	0	12.08	4004	0	0	5	5	0.03752873	-0.2052809	6	10	0.03	1800	0.4813601	40.92395	-91.39364
76023	-74	10	11	-0.6850788	0.2260573	-0.02638674	0	12.08	4003	0	0	5	5	0.04314196	-0.2147232	3	10	0.03	1800	0.4677306	40.92395	-91.39364
76161	-74	9	11	-0.6741979	0.2335845	-0.04515564	0	12.08	4003	0	0	5	5	0.04604411	-0.2151586	3	10	0.03	1800	0.4522394	40.92395	-91.39364
76250	-80	-2	13	-0.6742774	0.2347029	-0.06160233	0	12.08	4005	0	0	5	5	0.04815977	-0.2182674	3	10	0.03	1800	0.4471567	40.92395	-91.39364
76332	-77	5	6	-0.6739944	0.232708	-0.07352564	0	12.08	4004	0	0	5	5	0.04924111	-0.2212964	3	10	0.03	1800	0.4498301	40.92395	-91.39364
76417	-78	-3	17	-0.6773112	0.2338533	-0.08434702	0	12.08	4003	0	0	5	5	0.05082645	-0.2306562	3	10	0.03	1800	0.4539467	40.92395	-91.39364
76572	-73	7	16	-0.6763632	0.2376919	-0.1193181	0	12.08	4004	0	0	5	5	0.02	-0.2317036	6	10	0.03	1800	0.4490034	40.92395	-91.39364
76664	-73	7	16	-0.6763632	0.2376919	-0.1193181	0	12.08	4004	0	0	5	5	0.02963839	-0.2349288	6	10	0.03	1800	0.4490034	40.92395	-91.39364
76726	-71	11	17	-0.6788723	0.2368537	-0.1482358	0	12.08	4003	0	0	5	5	0.0364744	-0.2279999	6	10	0.03	1800	0.4525164	40.92395	-91.39364
76837	-73	6	8	-0.6780044	0.2416983	-0.1648044	0	12.08	4003	0	0	5	5	0.04300286	-0.2202217	6	10	0.03	1800	0.4616047	40.92395	-91.39364
76926	-71	0	6	-0.675363	0.2432229	-0.182229	0	12.08	4004	0	0	5	5	0.04540014	-0.21622	6	10	0.03	1800	0.451825	40.92395	-91.39364
77014	-76	7	7	-0.672811	0.2431782	-0.1981243	0	12.08	4004	0	0	5	5	0.04742427	-0.2130113	6	10	0.03	1800	0.4470037	40.92395	-91.39364
77121	-73	3	8	-0.6777217	0.245826	-0.2228857	0	12.08	4003	0	0	5	5	0.04942488	-0.2073132	6	10	0.03	1800	0.2140424	40.92395	-91.39364
77217	-76	0	5	-0.677309	0.2426031	-0.2346843	0	12.08	4003	0	0	5	5	0.05138678	-0.1946615	6	10	0.03	1800	0.4532968	40.92395	-91.39364
77323	-64	4	17	-0.6659169	0.2427707	-0.252415	0	12.08	4004	0	0	5	5	0.05279821	-0.185351	6	10	0.03	1800	0.2087855	40.92395	-91.39364
77411	-76	3	11	-0.665049	0.2430071	-0.2701445	0	12.08	4003	0	0	5	5	0.05365118	-0.1708653	6	10	0.03	1800	0.1997195	40.92395	-91.39364
77498	-72	2	12	-0.6597153	0.2373535	-0.2887914	0	12.08	4003	0	0	5	5	0.05421051	-0.1665768	6	10	0.03	1800	0.1890469	40.92395	-91.39364
77603	-78	5	13	-0.667717	0.2377149	-0.3009576	0	12.08	4003	0	0	5	5	0.05415733	-0.1675253	6	10	0.03	1800	0.4289044	40.92395	-91.39364
77720	-73	3	8	-0.6711043	0.2313925	-0.3241906	0	12.08	4003	0	0	5	5	0.05127769	-0.1710304	6	10	0.03	1800	0.4488597	40.92395	-91.39364
77804	-75	0	8	-0.6739081	0.235485	-0.34235	0	12.08	4004	0	0	5	5	0.05183179	-0.1730463	6	10	0.03	1800	0.4424122	40.92395	-91.39364
77933	-66	7	8	-0.6672843	0.2379089	-0.3674775	0	12.08	4003	0	0	5	5	0.05172747	-0.1809124	6	10	0.03	1800	0.4364285	40.92395	-91.39364
78029	-76	4	5	-0.6657219	0.2345522	-0.3847184	0	12.08	4003	0	0	5	5	0.05086185	-0.1865741	6	10	0.03	1800	0.4402191	40.92395	-91.39364
78090	-72	-3	14	-0.6611837	0.2336143	-0.3898541	0	12.14	4010	0	0	5	5	0.05136462	-0.1885764	6	10	0.03	1800	0.4402191	40.92395	-91.39364
78201	-77	9	9	-0.6604307	0.2290372	-0.4155331	0	12.14	4002	0	0	5	5	0.05241845	-0.1936644	6	10	0.03	1800	0.4221448	40.92395	-91.39364
78315	-74	1	4	-0.6649991	0.2248441	-0.4313663	0	12.14	4003	0	0	5	5	0.05310474	-0.1973495	6	10	0.03	1800	0.4342551	40.92395	-91.39364
78502	-73	1	11	-0.6637914	0.2332164	-0.463833	0	12.14	4003	0	0	5	5	0.05411265	-0.2101258	6	10	0.03	1800	0.4341106	40.92395	-91.39364
78547	-69	5	8	-0.6639346	0.234753	-0.468846	0	12.14	4002	0	0	5	5	0.05438879	-0.2146287	6	10	0.03	1800	0.4348918	40.92395	-91.39364
78637	-72	4	9	-0.6595047	0.2428539	-0.4800339	0	12.14	4004	0	0	5	5	0.05470781	-0.2140765	6	10	0.03	1800	0.6643279	40.92395	-91.39364
78702	-74	2	8	-0.6598238	0.2459566	-0.4986191	0	12.14	4002	0	0	5	5	0.05487087	-0.2145496	3	10	0.03	1800	0.4272311	40.92395	-91.39364
78804	-81	3	13	-0.6608477	0.2417869	-0.5150646	0	12.14	4002	0	0	5	5	0.05500294	-0.2192101	3	10	0.03	1800	0.4221958	40.92395	-91.39364
78934	-65	3	12	-0.6548557	0.2395262	-0.5390302	0	12.14	4002	0	0	5	5	0.05523352	-0.2423484	3	10	0.03	1800	0.4193254	40.92395	-91.39364
79042	-65	6	10	-0.6530615	0.2375003	-0.5549262	0	12.14	4002	0	0	5	5	0.05532362	-0.2538404	3	10	0.03	1800	0.4141824	40.92395	-91.39364
79178	-59	3	9	-0.6430978	0.2432496	-0.5814601	0	12.08	4004	0	0	5	5	0.05540697	-0.2645567	3	10	0.03	1800	0.3980243	40.92395	-91.39364
79239	-71	2	10	-0.6397677	0.2436694	-0.5859236	0	12.08	4004	0	0	5	5	0.05543719	-0.2664259	3	10	0.03	1800	0.3969658	40.92395	-91.39364
79357	-71	5	9	-0.6417776	0.2452676	-0.5960116	0	12.08	4004	0	0	5	5	0.0554721	-0.2670742	3	10	0.03	1800	0.1574133	40.92395	-91.39364
79511	-71	0	11	-0.6322075	0.244577	-0.6303107	0	12.08	4002	0	0	5	5	0.05551055	-0.2555108	3	10	0.03	1800	0.1397492	40.92395	-91.39364
79583	-74	2	4	-0.6326558	0.24666	-0.6414397	0	12.08	4004	0	0	5	5	0.05552109	-0.2476331	3	10	0.03	1800	0.6116927	40.92395	-91.39364
79670	-70	0	9	-0.6343669	0.2448211	-0.6518331	0	12.08	4003	0	0	5	5	0.05552962	-0.2409616	3	10	0.03	1800	0.6116927	40.92395	-91.39364
79765	-69	1	6	-0.6210291	0.2488588	-0.6732931	0	12.08	4004	0	0	5	5	0.05553948	-0.2361917	3	10	0.03	1800	0.6060712	40.92395	-91.39364
79870	-69	3	9	-0.6142451	0.2405156	-0.6894329	0	12.08	4002	0	0	5	5	0.05554667	-0.2377203	3	10	0.03	1800	0.349831	40.92395	-91.39364
79962	-71	5	7	-0.6103631	0.2369294	-0.703984	0	12.08	4003	0	0	5	5	0.05555034	-0.2405875	3	10	0.03	1800	0.3444274	40.92395	-91.39364
80068	-67	8	12	-0.6095347	0.2392124	-0.7181672	0	12.08	4003	0	0	5	5	0.05555675	-0.2498545	3	10	0.03	1800	0.3421035	40.92395	-91.39364
80133	-69	0	11	-0.6088691	0.2438978	-0.7286221	0	12.08	4003	0	0	5	5	0.05555851	-0.2521569	3	10	0.03	1800	0.09605587	40.92395	-91.39364
80272	-72	1	5	-0.6119285	0.2473096	-0.7519144	0	12.08	4004	0	0	5	5	0.05556108	-0.248643	3	10	0.03	1800	0.3460745	40.92396	-91.39364
80308	-52	5	7	-0.605762	0.2484781	-0.7630435	0	12.08	4004	0	0	5	5	0.05556242	-0.2434886	3	10	0.03	1800	0.1052429	40.92396	-91.39364
80407	-67	6	6	-0.5951977	0.2409487	-0.7821788	0	12.08	4003	0	0	5	5	0.05556339	-0.2350171	3	10	0.03	1800	0.3166643	40.92396	-91.39364
80520	-62	4	11	-0.5923624	0.2401405	-0.7982579	0	12.08	4003	0	0	5	5	0.0555641	-0.2367733	3	10	0.03	1800	0.3152308	40.92396	-91.39364
80617	-67	5	15	-0.5890384	0.2442697	-0.8088968	0	12.08	4004	0	0	5	5	0.05556461	-0.2404823	3	10	0.03	1800	0.3033645	40.92396	-91.39364
80672	-68	10	9	-0.5880551	0.2465833	-0.8242428	0	12.08	4004	0	0	5	5	0.05556487	-0.2444181	3	10	0.03	1800	0.06533813	40.92396	-91.39364
80781	-66	1	10	-0.5821766	0.2511035	-0.8346357	0	12.08	4004	0	0	5	5	0.05556518	-0.2496076	3	10	0.03	1800	0.05717565	40.92396	-91.39364
80864	-66	-1	11	-0.5827848	0.2539434	-0.8514484	0	12.14	4004	0	0	5	5	0.0555654	-0.2564327	3	10	0.03	1800	0.2896478	40.92396	-91.39364
80981	-71	-1	10	-0.5787333	0.2500612	-0.8726021	0	12.14	4002	0	0	5	5	0.05556561	-0.2589786	3	10	0.03	1800	0.05164908	40.92396	-91.39364
81229	-63	3	10	-0.5790614	0.2552998	-0.912098	0	12.14	4002	0	0	5	5	0.05556581	-0.2604239	3	10	0.03	1800	0.282365	40.92396	-91.39364
81357	-64	4	12	-0.5774556	0.2482047	-0.9273216	0	12.14	4002	0	0	5	5	0.05556588	-0.2575406	3	10	0.03	1800	0.04488185	40.92396	-91.39364
81480	-59	0	12	-0.5721692	0.2393086	-0.9480497	0	12.14	4003	0	0	5	5	0.05556592	-0.2471076	3	10	0.03	1800	0.2727267	40.92396	-91.39364
81513	-61	0	8	-0.5689023	0.2405853	-0.9522066	0	12.14	4003	0	0	5	5	0.05556593	-0.2433998	3	10	0.03	1800	0.2727267	40.92396	-91.39364
81585	-67	-1	13	-0.5665655	0.2429581	-0.9699373	0	12.14	4003	0	0	5	5	0.05556595	-0.227448	3	10	0.03	1800	0.4988698	40.92396	-91.39364
81755	-65	0	10	-0.5562681	0.2423655	-0.9990399	0	12.19	4003	0	0	5	5	0.05556596	-0.2230289	3	10	0.03	1800	0.01119277	40.92396	-91.39364
81814	-73	6	10	-0.5529058	0.2406766	-1.004725	0	12.19	4003	0	0	5	5	0.05556597	-0.2268721	3	10	0.03	1800	0.01119277	40.92396	-91.39364
81908	-63	-2	8	-0.5468562	0.244129	-1.020866	0	12.19	4002	0	0	5	5	0.05556598	-0.2295504	3	10	0.03	1800	-0.004516602	40.92396	-91.39364
82103	-68	2	7	-0.5387654	0.2444257	-1.046238	0	12.19	4004	0	0	5	5	0.05556598	-0.2430849	3	10	0.03	1800	-0.01483154	40.92396	-91.39364
82200	-63	2	8	-0.5353596	0.2478939	-1.061767	0	12.19	4004	0	0	5	5	0.05556598	-0.2550862	3	10	0.03	1800	0.2167933	40.92396	-91.39364
82327	-65	0	8	-0.5294896	0.2525374	-1.080476	0	12.19	4004	0	0	5	5	0.05556598	-0.2626086	3	10	0.03	1800	-0.02908325	40.92396	-91.39364
82397	-59	9	8	-0.5295759	0.250329	-1.096495	0	12.19	4004	0	0	5	5	0.05556598	-0.2633198	3	10	0.03	1800	0.1994291	40.92396	-91.39364
82528	-69	0	10	-0.5251384	0.2512675	-1.119423	0	12.19	4003	0	0	5	5	0.05556598	-0.2710209	3	10	0.03	1800	0.1895598	40.92396	-91.39364
82585	-69	-3	11	-0.5298511	0.2475576	-1.123825	0	12.19	4002	0	0	5	5	0.05556598	-0.2713472	3	10	0.03	1800	0.1895598	40.92396	-91.39364
82739	-66	0	8	-0.5306804	0.235986	-1.147425	0	12.08	4004	0	0	5	5	0.05556598	-0.2691039	3	10	0.03	1800	0.2048644	40.92396	-91.39364
82815	-60	1	9	-0.5280207	0.2315088	-1.160631	0	12.08	4004	0	0	5	5	0.05556598	-0.2658032	3	10	0.03	1800	-0.03445435	40.92397	-91.39364
82892	-63	2	9	-0.5269856	0.2287748	-1.169863	0	12.08	4004	0	0	5	5	0.05556598	-0.2640968	3	10	0.03	1800	0.1983397	40.92397	-91.39364
82972	-58	-1	9	-0.5199834	0.2273387	-1.182518	0	12.08	4003	0	0	5	5	0.05556598	-0.2639336	3	10	0.03	1800	0.1946097	40.92397	-91.39364
83094	-68	0	8	-0.5234576	0.228055	-1.197008	0	12.08	4003	0	0	5	5	0.05556598	-0.2653708	3	10	0.03	1800	0.1876586	40.92397	-91.39364
83167	-68	0	8	-0.5234576	0.228055	-1.197008	0	12.08	4003	0	0	5	5	0.05556598	-0.2657307	3	10	0.03	1800	0.1876586	40.92397	-91.39364
83425	-54	0	11	-0.5172597	0.2330118	-1.241641	0	12.08	4004	0	0	5	5	0.05556598	-0.2804477	3	10	0.03	1800	0.1816614	40.92397	-91.39364
83634	-69	6	8	-0.5130132	0.2378322	-1.275879	0	12.14	4004	0	0	5	5	0.05556598	-0.2870625	3	10	0.03	1800	-0.06970215	40.92397	-91.39365
83772	-64	0	7	-0.5132843	0.2391483	-1.299539	0	12.14	4002	0	0	5	5	0.05556598	-0.2811497	3	10	0.03	1800	0.4096379	40.92397	-91.39365
83904	-58	4	7	-0.5064074	0.2375979	-1.315068	0	12.14	4003	0	0	5	5	0.05556598	-0.2729608	3	10	0.03	1800	-0.07086182	40.92397	-91.39365
84064	-57	-1	5	-0.4978273	0.2370796	-1.338422	0	12.14	4002	0	0	5	5	0.05556598	-0.2677348	3	10	0.03	1800	0.146059	40.92397	-91.39365
84166	-62	5	9	-0.496625	0.2327158	-1.349061	0	12.14	4003	0	0	5	5	0.05556598	-0.2700435	3	10	0.03	1800	0.1469199	40.92397	-91.39365
84338	-58	3	11	-0.49022	0.2368661	-1.372415	0	12.14	4003	0	0	5	5	0.05556598	-0.2632506	3	10	0.03	1800	0.1356964	40.92397	-91.39365
84419	-61	2	7	-0.4915094	0.2433574	-1.389474	0	12.14	4002	0	0	5	5	0.05556598	-0.2662959	3	10	0.03	1800	0.1355054	40.92397	-91.39365
84466	-57	-3	13	-0.4930021	0.2460842	-1.394548	0	12.14	4002	0	0	5	5	0.05556598	-0.2671132	3	10	0.03	1800	0.1355054	40.92397	-91.39365
84578	-71	-2	10	-0.4946544	0.2444665	-1.414662	0	12.14	4002	0	0	5	5	0.05556598	-0.2653536	3	10	0.03	1800	0.136123	40.92397	-91.39365
84720	-62	2	9	-0.4927828	0.2434099	-1.432943	0	12.14	4002	0	0	5	5	0.05556598	-0.2552198	3	10	0.03	1800	0.1415828	40.92397	-91.39365
84873	-62	3	7	-0.480768	0.2393117	-1.456909	0	12.14	4003	0	0	5	5	0.05556598	-0.2476584	3	10	0.03	1800	-0.1199341	40.92397	-91.39365
84954	-58	0	9	-0.4823456	0.2379811	-1.466812	0	12.14	4002	0	0	5	5	0.05556598	-0.2431935	3	10	0.03	1800	-0.1170044	40.92397	-91.39365
85007	-57	2	17	-0.4803507	0.2399614	-1.472131	0	12.14	4003	0	0	5	5	0.05556598	-0.2418215	3	10	0.03	1800	-0.1170044	40.92397	-91.39365
85110	-58	2	7	-0.4676997	0.2415358	-1.490412	0	12.14	4003	0	0	5	5	0.05556598	-0.2436527	3	10	0.03	1800	-0.1391602	40.92397	-91.39365
85189	-63	1	15	-0.4656146	0.2396383	-1.49946	0	12.14	4002	0	0	5	5	0.05556598	-0.247325	3	10	0.03	1800	0.09157027	40.92397	-91.39365
85285	-54	0	13	-0.4761637	0.2398282	-1.514073	0	12.14	4002	0	0	5	5	0.05556598	-0.2536562	3	10	0.03	1800	0.09475626	40.92397	-91.39365
85421	-54	-3	6	-0.4749041	0.2348545	-1.531865	0	12.14	4004	0	0	5	5	0.05556598	-0.2519259	3	10	0.03	1800	0.1102384	40.92397	-91.39365
85532	-59	4	14	-0.4696299	0.2325005	-1.544276	0	12.14	4003	0	0	5	5	0.05556598	-0.2522172	3	10	0.03	1800	-0.1364441	40.92397	-91.39365
85642	-58	5	9	-0.4654121	0.2351174	-1.556992	0	12.14	4002	0	0	5	5	0.05556598	-0.2564227	3	10	0.03	1800	0.09676445	40.92397	-91.39365
85684	-57	0	6	-0.458627	0.2368476	-1.570687	0	12.14	4004	0	0	5	5	0.05556598	-0.2574764	3	10	0.03	1800	0.08875719	40.92397	-91.39365
85833	-51	1	2	-0.459089	0.2338876	-1.58212	0	12.14	4002	0	0	5	5	0.05556598	-0.2652136	3	10	0.03	1800	0.3160606	40.92397	-91.39365
85906	-55	0	11	-0.4576679	0.2325243	-1.591229	0	12.14	4004	0	0	5	5	0.05556598	-0.2696215	3	10	0.03	1800	0.07651758	40.92397	-91.39365
86063	-52	5	10	-0.4529257	0.2315202	-1.614401	0	12.14	4002	0	0	5	5	0.05556598	-0.2714118	3	10	0.03	1800	0.06922091	40.92397	-91.39365
86117	-60	3	9	-0.4487765	0.2334423	-1.622777	0	12.14	4003	0	0	5	5	0.05556598	-0.2709666	3	10	0.03	1800	0.06439248	40.92397	-91.39365
86212	-55	-1	6	-0.4481796	0.2381866	-1.635248	0	12.14	4003	0	0	5	5	0.05556598	-0.2643544	3	10	0.03	1800	0.06268902	40.92397	-91.39365
86310	-59	0	6	-0.4419074	0.2398768	-1.648331	0	12.14	4003	0	0	5	5	0.05556598	-0.2587082	3	10	0.03	1800	0.05137779	40.92397	-91.39365
86403	-69	0	12	-0.4439108	0.2429878	-1.653467	0	12.14	4004	0	0	5	5	0.05556598	-0.2606046	3	10	0.03	1800	0.05137779	40.92397	-91.39365
86573	-55	-3	6	-0.4437304	0.2425057	-1.686298	0	12.14	4003	0	0	5	5	0.05556598	-0.2804733	3	10	0.03	1800	0.05529193	40.92397	-91.39365
86640	-57	0	10	-0.4393296	0.2434253	-1.695592	0	12.14	4002	0	0	5	5	0.05556598	-0.2880569	3	10	0.03	1800	-0.1932678	40.92397	-91.39365
86763	-62	0	9	-0.4337089	0.236881	-1.712832	0	12.14	4002	0	0	5	5	0.05556598	-0.3008684	3	10	0.03	1800	0.03310825	40.92397	-91.39365
86819	-59	5	7	-0.4351793	0.240924	-1.721697	0	12.14	4002	0	0	5	5	0.05556598	-0.3026812	3	10	0.03	1800	-0.1950378	40.92397	-91.39365
86953	-60	8	8	-0.4340356	0.2439542	-1.733925	0	12.14	4002	0	0	5	5	0.05556598	-0.30791	3	10	0.03	1800	0.03765538	40.92397	-91.39365
86992	-48	-1	10	-0.428721	0.2438045	-1.739061	0	12.14	4002	0	0	5	5	0.05556598	-0.3086589	3	10	0.03	1800	0.03765538	40.92397	-91.39365
87099	-54	-1	7	-0.4217445	0.2415494	-1.758197	0	12.14	4004	0	0	5	5	0.05556598	-0.3168313	3	10	0.03	1800	-0.2129517	40.92397	-91.39365
87258	-53	4	6	-0.4140611	0.2416612	-1.776965	0	12.08	4004	0	0	5	5	0.05556598	-0.319621	3	10	0.03	1800	0.004485909	40.92397	-91.39365
87301	-54	0	8	-0.4122796	0.2393802	-1.784669	0	12.08	4003	0	0	5	5	0.05556598	-0.3184769	3	10	0.03	1800	0.000127102	40.92397	-91.39365
87413	-52	0	7	-0.4090171	0.2363255	-1.797324	0	12.08	4003	0	0	5	5	0.05556598	-0.3172165	3	10	0.03	1800	-0.006958008	40.92397	-91.39365
87596	-48	2	13	-0.4075796	0.2419238	-1.825082	0	12.08	4003	0	0	5	5	0.05556598	-0.317516	3	10	0.03	1800	-0.008789063	40.92397	-91.39365
87658	-47	1	10	-0.4072681	0.2439527	-1.828566	0	12.08	4003	0	0	5	5	0.05556598	-0.3157828	3	10	0.03	1800	-0.009643555	40.92397	-91.39365
87706	-47	1	10	-0.4072681	0.2439527	-1.828566	0	12.08	4003	0	0	5	5	0.05556598	-0.3161041	3	10	0.03	1800	-0.009643555	40.92397	-91.39365
87844	-55	3	9	-0.4105793	0.2374504	-1.855651	0	12.08	4004	0	0	5	5	0.05556598	-0.3021813	3	10	0.03	1800	-0.006652832	40.92397	-91.39365
87969	-45	3	7	-0.4007523	0.2355537	-1.86959	0	12.08	4003	0	0	5	5	0.05556598	-0.3067241	3	10	0.03	1800	-0.01119995	40.92397	-91.39365
88070	-49	2	7	-0.3987421	0.2379908	-1.887259	0	12.08	4003	0	0	5	5	0.05556598	-0.3089265	3	10	0.03	1800	-0.02383423	40.92397	-91.39365
88146	-54	-3	4	-0.3976855	0.2403333	-1.891661	0	12.08	4003	0	0	5	5	0.05556598	-0.3052774	3	10	0.03	1800	-0.0249939	40.92397	-91.39365
88213	-56	0	4	-0.4043626	0.2378692	-1.904378	0	12.08	4005	0	0	5	5	0.05556598	-0.3052104	3	10	0.03	1800	-0.02157593	40.92397	-91.39365
88339	-49	5	8	-0.4038544	0.2372747	-1.915505	0	12.08	4002	0	0	5	5	0.05556598	-0.3049635	3	10	0.03	1800	-0.2468872	40.92397	-91.39365
88456	-56	1	8	-0.4007128	0.2368165	-1.930422	0	12.08	4002	0	0	5	5	0.05556598	-0.3073324	3	10	0.03	1800	-0.0138855	40.92397	-91.39365
88543	-52	0	0	-0.3987657	0.2322586	-1.93837	0	12.08	4002	0	0	5	5	0.05556598	-0.307245	3	10	0.03	1800	-0.260498	40.92397	-91.39365
88760	-55	6	5	-0.3966178	0.2350593	-1.968816	0	12.08	4002	0	0	5	5	0.05556598	-0.3070499	3	10	0.03	1800	-0.2631226	40.92397	-91.39365
88890	-49	0	5	-0.3917459	0.2355732	-1.985203	0	12.08	4003	0	0	5	5	0.05556598	-0.31409	3	10	0.03	1800	-0.02880859	40.92397	-91.39365
88927	-49	3	4	-0.3902324	0.2319163	-1.989055	0	12.08	4004	0	0	5	5	0.05556598	-0.3176129	3	10	0.03	1800	-0.03497314	40.92397	-91.39365
89019	-49	-1	11	-0.3841827	0.2358261	-1.994924	0	12.08	4003	0	0	5	5	0.05556598	-0.3262054	3	10	0.03	1800	-0.04376221	40.92397	-91.39365
89134	-53	5	7	-0.3831024	0.2386074	-2.012287	0	12.08	4003	0	0	5	5	0.05556598	-0.3347999	3	10	0.03	1800	-0.0480957	40.92397	-91.39365
89223	-59	2	7	-0.3825744	0.2376451	-2.019685	0	12.08	4002	0	0	5	5	0.05556598	-0.3400628	3	10	0.03	1800	-0.05279541	40.92397	-91.39365
89322	-51	5	14	-0.3869278	0.2414191	-2.030751	0	12.08	4003	0	0	5	5	0.05556598	-0.3465391	3	10	0.03	1800	0.1894745	40.92397	-91.39365
89530	-54	6	9	-0.3887464	0.2499306	-2.060099	0	12.08	4004	0	0	5	5	0.05556598	-0.3644765	3	10	0.03	1800	-0.2749023	40.92397	-91.39365
89620	-48	0	6	-0.3858358	0.2534694	-2.068475	0	12.08	4002	0	0	5	5	0.05556598	-0.3800711	3	10	0.03	1800	-0.03799438	40.92397	-91.39365
89700	-51	4	9	-0.3797631	0.2530464	-2.076729	0	12.08	4003	0	0	5	5	0.05556598	-0.3861075	3	10	0.03	1800	-0.05401611	40.92397	-91.39365
89763	-45	8	10	-0.3780728	0.2499245	-2.085716	0	12.08	4003	0	0	5	5	0.05556598	-0.3889744	3	10	0.03	1800	-0.06039429	40.92397	-91.39365
89802	-45	8	10	-0.3789479	0.253297	-2.094154	0	12.08	4003	0	0	5	5	0.05556598	-0.3884216	3	10	0.03	1800	-0.05892944	40.92397	-91.39365
89913	-52	-3	2	-0.3766138	0.2513855	-2.111212	0	12.14	4004	0	0	5	5	0.05556598	-0.3849233	3	10	0.03	1800	0.1743959	40.92397	-91.39365
90048	-55	0	8	-0.3769114	0.2483063	-2.127779	0	12.14	4004	0	0	5	5	0.05556598	-0.3848359	3	10	0.03	1800	-0.2997742	40.92397	-91.39365
90120	-45	0	2	-0.3753099	0.2519857	-2.134872	0	12.14	4004	0	0	5	5	0.05556598	-0.38531	3	10	0.03	1800	-0.2997742	40.92397	-91.39365
90213	-51	7	9	-0.3689542	0.248799	-2.146976	0	12.14	4002	0	0	5	5	0.05556598	-0.386632	3	10	0.03	1800	-0.3126831	40.92397	-91.39365
90366	-50	9	12	-0.3703223	0.2492646	-2.162016	0	12.14	4003	0	0	5	5	0.05556598	-0.3973089	3	10	0.03	1800	0.1579352	40.92397	-91.39365
90446	-49	2	6	-0.3615074	0.2463887	-2.172715	0	12.14	4003	0	0	5	5	0.05556598	-0.3989883	3	10	0.03	1800	-0.07769775	40.92397	-91.39365
90510	-49	8	3	-0.3603638	0.2483433	-2.175345	0	12.14	4003	0	0	5	5	0.05556598	-0.3979983	3	10	0.03	1800	-0.08914185	40.92397	-91.39365
90646	-56	-1	3	-0.362251	0.2438581	-2.193076	0	12.14	4004	0	0	5	5	0.05556598	-0.3911259	3	10	0.03	1800	-0.08071899	40.92397	-91.39365
90716	-44	2	3	-0.3592229	0.2407537	-2.196928	0	12.14	4003	0	0	5	5	0.05556598	-0.3867956	3	10	0.03	1800	-0.3266602	40.92397	-91.39365
90848	-51	-1	3	-0.349337	0.2442057	-2.21264	0	12.14	4003	0	0	5	5	0.05556598	-0.3794877	3	10	0.03	1800	-0.3432617	40.92397	-91.39365
90946	-47	7	9	-0.3564539	0.241993	-2.220527	0	12.14	4004	0	0	5	5	0.05556598	-0.3678678	3	10	0.03	1800	-0.3370056	40.92397	-91.39365
91032	-44	6	9	-0.3479541	0.2442067	-2.235811	0	12.14	4003	0	0	5	5	0.05556598	-0.3628412	3	10	0.03	1800	-0.1080322	40.92397	-91.39365
91144	-50	-1	7	-0.3448349	0.2452559	-2.243881	0	12.14	4004	0	0	5	5	0.05556598	-0.3573039	3	10	0.03	1800	-0.1127319	40.92397	-91.39365
91254	-45	2	4	-0.3469866	0.2448985	-2.257516	0	12.14	4003	0	0	5	5	0.05556598	-0.3606854	3	10	0.03	1800	-0.1101379	40.92397	-91.39365
91317	-54	-5	8	-0.3447285	0.2423612	-2.264669	0	12.14	4004	0	0	5	5	0.05556598	-0.3627746	3	10	0.03	1800	-0.1181946	40.92397	-91.39365
91438	-53	-1	9	-0.3454908	0.2406218	-2.270845	0	12.14	4002	0	0	5	5	0.05556598	-0.3703688	3	10	0.03	1800	-0.1181946	40.92397	-91.39365
91515	-48	8	6	-0.3425408	0.2400171	-2.283623	0	12.14	4002	0	0	5	5	0.05556598	-0.3695304	3	10	0.03	1800	-0.3500671	40.92397	-91.39365
91628	-47	1	10	-0.3399679	0.2353406	-2.294812	0	12.14	4002	0	0	5	5	0.05556598	-0.3656732	3	10	0.03	1800	-0.1235962	40.92397	-91.39365
91717	-48	-1	6	-0.3391581	0.2305014	-2.305878	0	12.14	4002	0	0	5	5	0.05556598	-0.3605053	3	10	0.03	1800	-0.1310425	40.92397	-91.39365
91822	-46	3	8	-0.3398291	0.2289094	-2.317006	0	12.14	4003	0	0	5	5	0.05556598	-0.3525013	3	10	0.03	1800	-0.1257019	40.92397	-91.39365
91920	-47	2	8	-0.3411882	0.2343643	-2.333391	0	12.14	4002	0	0	5	5	0.05556598	-0.3480127	3	10	0.03	1800	-0.1220703	40.92397	-91.39365
92048	-49	2	3	-0.3396114	0.2360469	-2.346476	0	12.14	4004	0	0	5	5	0.05556598	-0.3464468	3	10	0.03	1800	-0.1244812	40.92397	-91.39365
92122	-40	0	8	-0.3368952	0.2317502	-2.35583	0	12.14	4004	0	0	5	5	0.05556598	-0.3454627	3	10	0.03	1800	0.1018627	40.92397	-91.39365
92217	-41	6	2	-0.3416736	0.2258115	-2.363961	0	12.14	4003	0	0	5	5	0.05556598	-0.3376671	3	10	0.03	1800	-0.1306152	40.92397	-91.39365
92325	-49	0	7	-0.3375779	0.2221145	-2.373315	0	12.14	4003	0	0	5	5	0.05556598	-0.3289685	3	10	0.03	1800	-0.1290588	40.92397	-91.39365
92416	-47	6	9	-0.337247	0.2235673	-2.384197	0	12.14	4003	0	0	5	5	0.05556598	-0.3210385	3	10	0.03	1800	-0.1330872	40.92397	-91.39365
92531	-46	1	7	-0.3408889	0.2286884	-2.393062	0	12.14	4004	0	0	5	5	0.05556598	-0.3149903	3	10	0.03	1800	-0.1210938	40.92397	-91.39365
92626	-40	4	15	-0.3396682	0.2306757	-2.411464	0	12.14	4003	0	0	5	5	0.05556598	-0.3118633	3	10	0.03	1800	-0.3577271	40.92397	-91.39365
92733	-54	4	9	-0.3436998	0.2379001	-2.419474	0	12.08	4009	0	0	5	5	0.05556598	-0.3066915	3	10	0.03	1800	-0.1246338	40.92397	-91.39365
92844	-49	8	6	-0.3429632	0.2399142	-2.430846	0	12.08	4003	0	0	5	5	0.05556598	-0.304992	3	10	0.03	1800	-0.1178284	40.92397	-91.39365
92939	-46	2	9	-0.34005	0.2316412	-2.445396	0	12.08	4003	0	0	5	5	0.05556598	-0.3014737	3	10	0.03	1800	-0.1245728	40.92397	-91.39365
93049	-44	1	8	-0.3359635	0.2348196	-2.453894	0	12.08	4003	0	0	5	5	0.05556598	-0.2954616	3	10	0.03	1800	-0.1296997	40.92397	-91.39365
93146	-44	0	6	-0.3321474	0.2342849	-2.466428	0	12.08	4004	0	0	5	5	0.05556598	-0.2942242	3	10	0.03	1800	0.09581193	40.92397	-91.39365
93257	-44	3	10	-0.3323404	0.2336711	-2.480674	0	12.08	4003	0	0	5	5	0.05556598	-0.2886627	3	10	0.03	1800	-0.1384583	40.92397	-91.39365
93396	-44	-1	7	-0.3282352	0.2332514	-2.491312	0	12.08	4003	0	0	5	5	0.05556598	-0.2958044	3	10	0.03	1800	0.09716854	40.92397	-91.39365
93459	-47	-1	3	-0.3277668	0.2334474	-2.495164	0	12.08	4004	0	0	5	5	0.05556598	-0.2993818	3	10	0.03	1800	-0.1459961	40.92397	-91.39365
93624	-46	6	9	-0.3247778	0.2308901	-2.517051	0	12.14	4002	0	0	5	5	0.05556598	-0.3117208	3	10	0.03	1800	-0.3908691	40.92397	-91.39365
93770	-45	-4	10	-0.318621	0.2369746	-2.53631	0	12.14	4004	0	0	5	5	0.05556598	-0.3165632	3	10	0.03	1800	-0.1556091	40.92397	-91.39365
