time(ms)	gyro_x(deg/s)	gyro_y(deg/s)	gyro_z(deg/s)	orientation_roll(deg)	orientation_pitch(deg)	orientation_yaw(deg)	throttle	battery(V)	loop_time(uS)	pid_output_roll	pid_output_pitch	pid_output_yaw	pid_output_throttle	ultrasonic_alt	baro_alt	flight_mode	p_gain_altitude	i_gain_altitude	d_gain_altitude	compass_heading	latitude	longitude
219529	-257	-60	81	-0.466179	0.3872827	-22.64306	0	11.11	4003	0	0	5	5	0.05556598	-0.3022521	3	10	0.03	2000	1.304079	40.92394	-91.39363
219635	-99	23	-263	-0.497122	0.3934482	-22.6458	0	11.11	4003	0	0	5	5	0.05556598	-0.3167408	3	10	0.03	2000	1.851093	40.92394	-91.39363
219694	-5	-113	-91	-0.498917	0.4187159	-22.65111	0	11.11	4002	0	0	5	5	0.05556598	-0.3275316	3	10	0.03	2000	1.356902	40.92394	-91.39363
219808	69	108	-376	-0.5091783	0.4016754	-22.64475	0	11.11	4002	0	0	5	5	0.05556598	-0.3344358	3	10	0.03	2000	2.083097	40.92394	-91.39363
219914	-92	-65	493	-0.50115	0.4076804	-22.68321	0	11.11	4004	0	0	5	5	0.05556598	-0.3317128	3	10	0.03	2000	1.624675	40.92394	-91.39363
220036	1	-213	232	-0.4914937	0.3492377	-22.69572	0	11.11	4004	0	0	5	5	0.05556598	-0.3239189	3	10	0.03	2000	1.411715	40.92394	-91.39363
220115	76	12	-13	-0.4497548	0.4042341	-22.68561	0	11.11	4002	0	0	5	5	0.05556598	-0.3151242	3	10	0.03	2000	1.772727	40.92394	-91.39363
220282	-121	-82	326	-0.5414073	0.4033821	-22.71989	0	11.11	4003	0	0	5	5	0.05556598	-0.3015069	3	10	0.03	2000	0.9340864	40.92394	-91.39363
220349	91	88	-171	-0.5039851	0.3711664	-22.72095	0	11.63	4002	0	0	5	5	0.05556598	-0.2924832	3	10	0.03	2000	1.673853	40.92394	-91.39363
220412	-95	-39	-220	-0.5266464	0.3845018	-22.71495	0	11.63	4004	0	0	5	5	0.05556598	-0.2833633	3	10	0.03	2000	1.673853	40.92394	-91.39363
220516	4	83	110	-0.5591508	0.3932856	-22.74338	0	11.63	4003	0	0	5	5	0.05556598	-0.2784978	3	10	0.03	2000	1.438015	40.92394	-91.39363
220619	-184	77	-127	-0.5336044	0.3975663	-22.7541	0	11.63	4003	0	0	5	5	0.05556598	-0.2744587	3	10	0.03	2000	2.390552	40.92394	-91.39363
220768	51	-135	135	-0.5799729	0.4301853	-22.78851	0	11.63	4003	0	0	5	5	0.05556598	-0.2828346	3	10	0.03	2000	1.873635	40.92394	-91.39363
220827	26	-109	-129	-0.5684329	0.4139905	-22.77752	0	11.63	4002	0	0	5	5	0.05556598	-0.2821261	3	10	0.03	2000	1.983708	40.92394	-91.39363
220966	-250	75	351	-0.5760945	0.4479553	-22.80437	0	11.63	4003	0	0	5	5	0.05556598	-0.2755405	3	10	0.03	2000	2.230094	40.92394	-91.39363
221080	-85	163	165	-0.432345	0.3472393	-22.81103	0	11.63	4003	0	0	5	5	0.05556598	-0.2740138	3	10	0.03	2000	1.611093	40.92394	-91.39363
221172	0	10	63	-0.532575	0.4557689	-22.81623	0	11.63	4004	0	0	5	5	0.05556598	-0.2729751	3	10	0.03	2000	1.427254	40.92394	-91.39363
221237	-165	-113	-34	-0.5240872	0.4081671	-22.80546	0	11.63	4004	0	0	5	5	0.05556598	-0.275236	3	10	0.03	2000	0.9986655	40.92394	-91.39363
221373	174	-75	-376	-0.4943675	0.4314586	-22.78894	0	11.51	4004	0	0	5	5	0.05556598	-0.2827374	3	10	0.03	2000	1.866643	40.92394	-91.39363
221456	-250	-161	2	-0.5129125	0.4602273	-22.80749	0	11.51	4003	0	0	5	5	0.05556598	-0.2870802	3	10	0.03	2000	1.402276	40.92394	-91.39363
221558	283	44	-241	-0.5590587	0.4564783	-22.80448	0	11.51	4003	0	0	5	5	0.05556598	-0.2931581	3	10	0.03	2000	1.962112	40.92394	-91.39363
221659	-112	-29	-50	-0.4512282	0.4361208	-22.77856	0	11.51	4004	0	0	5	5	0.05556598	-0.3026048	3	10	0.03	2000	1.700015	40.92394	-91.39363
221803	-105	13	-160	-0.4331485	0.513701	-22.81898	0	11.51	4004	0	0	5	5	0.05556598	-0.3147577	3	10	0.03	2000	1.301184	40.92394	-91.39363
221870	-177	-59	256	-0.4491341	0.5673274	-22.83935	0	11.51	4003	0	0	5	5	0.05556598	-0.3127581	3	10	0.03	2000	1.775133	40.92394	-91.39363
221969	-4	67	-224	-0.5395758	0.5569324	-22.85017	0	11.51	4003	0	0	5	5	0.05556598	-0.295913	3	10	0.03	2000	1.822763	40.92394	-91.39363
222059	44	31	-405	-0.463211	0.5950735	-22.84245	0	11.51	4004	0	0	5	5	0.05556598	-0.2875214	3	10	0.03	2000	1.906561	40.92394	-91.39363
222169	-168	-27	179	-0.380442	0.4858879	-22.86941	0	11.51	4004	0	0	5	5	0.05556598	-0.2665516	3	10	0.03	2000	1.683809	40.92394	-91.39363
222286	-96	54	425	-0.4225882	0.3960294	-22.88636	0	11.51	4003	0	0	5	5	0.05556598	-0.2518727	3	10	0.03	2000	1.638069	40.92394	-91.39363
222370	-35	75	92	-0.3194439	0.2370782	-22.89761	0	11.51	4003	0	0	5	5	0.05556598	-0.2287655	3	10	0.03	2000	2.156494	40.92394	-91.39363
222474	-264	-136	611	-0.3234938	0.3793849	-22.92581	0	11.51	4003	0	0	5	5	0.02	-0.2104245	3	10	0.03	2000	1.415483	40.92394	-91.39363
222568	11	-124	675	-0.4914853	0.6317111	-22.94128	0	11.51	4004	0	0	5	5	0.02675754	-0.204237	6	10	0.03	2000	1.551905	40.92394	-91.39363
222698	5	165	192	-0.318983	0.2236329	-22.95764	0	11.51	4004	0	0	5	5	0.03666477	-0.2097463	6	10	0.03	2000	2.135184	40.92394	-91.39363
222808	-251	29	330	-0.306878	-0.3084976	-22.90266	0	11.51	4003	0	0	5	5	0.040072	-0.2120981	6	10	0.03	2000	1.822432	40.92394	-91.39363
222913	-263	-36	495	-0.3014928	-0.2223305	-22.93442	0	11.51	4002	0	0	5	5	0.042761	-0.2201869	6	10	0.03	2000	1.509127	40.92394	-91.39363
222966	-9	-19	700	-0.4548633	-0.2627493	-22.93248	0	11.51	4002	0	0	5	5	0.0423951	-0.2212894	6	10	0.03	2000	1.509127	40.92394	-91.39363
223082	265	161	-593	-0.3673871	-0.6219549	-22.89545	0	11.51	4004	0	0	5	5	0.04314907	-0.221712	6	10	0.03	2000	2.349243	40.92394	-91.39363
223182	12	-286	-194	-0.4400905	-0.7879651	-22.90522	0	11.4	4002	0	0	5	5	0.04639677	-0.2115135	6	10	0.03	2000	2.532019	40.92394	-91.39363
223262	-159	-142	-612	-0.6508167	-0.7359419	-22.92367	0	11.4	4003	0	0	5	5	0.04813892	-0.200701	6	10	0.03	2000	2.058346	40.92394	-91.39363
223441	-338	-166	702	-0.9621197	-0.8041258	-22.9723	0	11.4	4002	0	0	5	5	0.0513814	-0.1657423	6	10	0.03	2000	2.755329	40.92394	-91.39363
223470	51	-202	435	-0.9892091	-0.8570496	-22.96392	0	11.4	4004	0	0	5	5	0.05179986	-0.1626469	6	10	0.03	2000	3.171419	40.92394	-91.39363
223611	-79	-305	61	-0.7521479	-1.652432	-23.46934	0	11.4	4002	0	0	5	5	0.05282049	-0.1508789	6	10	0.03	2000	3.107135	40.92394	-91.39363
223691	-201	-93	-237	-0.9339033	-1.297814	-23.42358	0	11.4	4002	0	0	5	5	0.05532411	-0.1438852	6	10	0.03	2000	2.744446	40.92394	-91.39363
223772	874	-259	91	-0.5148104	-1.509397	-23.61834	0	11.4	4003	0	0	5	5	0.05610066	-0.1384954	6	10	0.03	2000	3.378275	40.92394	-91.39363
223910	598	-309	113	0.5361497	-0.8388278	-23.9381	0	11.4	4003	0	0	5	5	0.05409	-0.1175005	6	10	0.03	2000	4.222898	40.92394	-91.39363
224013	3166	353	-736	3.57999	-0.4329229	-23.92163	0	11.4	4004	0	0	5	5	0.05300187	-0.1154578	6	10	0.03	2000	8.04722	40.92394	-91.39363
224136	-2101	-1384	-234	3.982374	-0.1424674	-23.39671	0	11.06	4011	0	0	5	5	0.05600598	-0.1178283	6	10	0.03	2000	6.783361	40.92394	-91.39363
224212	-1909	802	-1428	2.138678	-0.6488209	-22.52436	0	11.06	4004	0	0	5	5	0.05898537	-0.1177238	6	10	0.03	2000	9.896054	40.92394	-91.39363
224271	-2653	3518	-565	-2.054188	-6.508842	-21.90788	0	11.06	4004	0	0	5	5	0.06090723	-0.1175805	6	10	0.03	2000	7.94193	40.92394	-91.39363
224373	-2651	-378	-464	-5.146241	-8.236927	-21.47717	0	11.06	4002	0	0	5	5	0.06868035	-0.1190648	6	10	0.03	2000	5.392758	40.92394	-91.39363
224480	-3156	-1531	-244	-7.860413	-7.62922	-21.16356	0	11.06	4003	0	0	5	5	0.07507233	-0.1246131	6	10	0.03	2000	3.892351	40.92394	-91.39363
224643	1291	427	1204	-3.847846	-6.179292	-21.1458	0	11.06	4004	0	0	5	5	0.09610238	-0.1040252	6	10	0.03	2000	0.3480972	40.92394	-91.39363
224708	434	-1824	-1005	-2.63976	-4.771124	-21.09285	0	11.06	4002	0	0	5	5	0.1084728	-0.08558068	6	10	0.03	2000	-0.2619324	40.92394	-91.39363
224788	811	994	696	-1.904669	-5.89358	-21.87996	0	11.06	4003	0	0	5	5	0.1357334	-0.06397588	6	10	0.03	2000	0.2382539	40.92394	-91.39363
224904	670	-1770	-1431	-0.592886	-2.942156	-21.74787	0	11.06	4003	0	0	5	5	0.1795132	-0.0457844	6	10	0.03	2000	-1.57962	40.92394	-91.39363
224981	2173	-78	-1306	-0.2871607	-2.313983	-22.24207	0	10.38	4003	0	0	5	5	0.2271288	-0.03512173	8	10	0.03	2000	-1.203278	40.92394	-91.39363
225085	-2259	24	-1811	2.98635	-6.364394	-21.9924	0	10.38	4003	0	-99	5	5	0.28214	-0.02077937	8	10	0.03	2000	0.8302231	40.92394	-91.39363
225303	-552	1037	83	1.28356	-7.084283	-22.96504	0	10.38	4003	0	-100	5	5	0.3514783	0.03244343	8	10	0.03	2000	0.8438734	40.92394	-91.39363
225430	1240	-1273	790	0.9928775	-6.477935	-22.97075	0	10.38	4004	0	0	5	5	0.3836837	0.0972615	8	10	0.03	2000	1.25635	40.92394	-91.39363
225568	-37	952	-37	-0.2586757	-2.978039	-21.31283	0	10.38	4004	0	0	5	5	0.3962684	0.1411774	8	10	0.03	2000	2.079658	40.92394	-91.39363
225602	19	-2620	-752	-0.4214339	-2.86992	-21.08412	0	10.38	4002	0	0	5	5	0.3996538	0.1524499	8	10	0.03	2000	2.079658	40.92394	-91.39363
225738	-686	613	1658	-1.35174	-2.313804	-21.97336	0	10.38	4002	0	0	5	5	0.4121308	0.2592147	8	10	0.03	2000	3.002689	40.92394	-91.39363
225819	-379	-513	-1007	-0.7743624	-2.657983	-22.65647	0	10.38	4003	0	0	5	5	0.4155492	0.3133821	8	10	0.03	2000	1.447997	40.92394	-91.39363
225882	822	-2484	-714	-0.5207002	-1.752373	-22.62974	0	10.38	4004	0	1	5	5	0.4194984	0.3886071	8	10	0.03	2000	1.447997	40.92394	-91.39363
225980	-672	-832	478	-0.3003275	-0.4686973	-23.07023	0	10.21	4003	0	1	5	5	0.4215169	0.4515428	8	10	0.03	2000	2.285519	40.92394	-91.39363
226083	-73	139	446	-1.260758	-1.861084	-23.19959	0	10.21	4003	0	2	5	5	0.4238489	0.6232592	8	10	0.03	2000	2.922526	40.92394	-91.39363
226267	-88	662	1732	0.2516252	-0.2008255	-22.28757	0	10.21	4004	0	4	5	5	0.4267882	0.7728579	8	10	0.03	2000	1.291886	40.92394	-91.39363
226300	-159	1116	553	0.632924	-1.08931	-22.1108	0	10.21	4004	0	4	5	5	0.4271215	0.9128202	8	10	0.03	2000	0.3112702	40.92395	-91.39363
226423	1231	-556	-1352	0.6416372	-3.799138	-22.31535	0	10.21	4003	0	6	5	5	0.4281534	1.024969	8	10	0.03	2000	-0.1072083	40.92395	-91.39363
226486	813	-645	-1019	1.412708	-3.863803	-22.25567	0	10.21	4011	0	7	5	5	0.4283503	1.149764	8	10	0.03	2000	-0.1072083	40.92395	-91.39363
226586	-386	122	-1169	0.9859552	-3.852463	-22.26472	0	10.21	4004	0	8	5	5	0.4288304	1.216442	8	10	0.03	2000	-0.7197266	40.92395	-91.39363
226694	137	-1564	966	0.3520666	-2.967296	-22.43212	0	10.21	4003	0	11	5	5	0.4292746	1.433229	8	10	0.03	2000	-0.375824	40.92395	-91.39363
226814	-642	2069	2186	0.7182819	-3.005666	-22.28002	0	10.6	4004	0	14	5	5	0.4295042	1.509341	8	10	0.03	2000	1.296513	40.92395	-91.39363
226891	-340	-2635	489	-0.3601759	-2.100736	-22.13676	0	10.6	4002	0	16	5	5	0.4296716	1.687459	8	10	0.03	2000	2.481402	40.92395	-91.39363
227027	521	-1067	-885	-0.1443172	-0.8348368	-21.91239	0	10.6	4004	0	19	5	5	0.4298265	1.804981	8	10	0.03	2000	1.847319	40.92395	-91.39363
227096	-309	490	95	-0.05301212	-2.522024	-21.99798	0	10.6	4002	0	20	5	5	0.4298561	1.951271	8	10	0.03	2000	2.267239	40.92395	-91.39363
227214	214	-1832	648	-0.3947458	-0.8717677	-22.01923	0	10.6	4004	0	22	5	5	0.4299475	2.026778	8	10	0.03	2000	2.689224	40.92395	-91.39363
227308	-529	207	1474	-0.2470736	-0.7845372	-22.13895	0	10.6	4002	0	25	5	5	0.4299807	2.081072	8	10	0.03	2000	2.914881	40.92395	-91.39363
227407	695	599	1336	-0.6327531	-1.961889	-22.06428	0	10.6	4003	0	27	5	5	0.430019	2.180331	8	10	0.03	2000	6.375738	40.92395	-91.39363
227510	-623	202	160	-0.6314399	-3.479455	-22.49359	0	10.6	4002	0	29	5	5	0.4300544	2.280351	8	10	0.03	2000	8.047501	40.92395	-91.39363
227610	609	1089	349	-0.1319511	-3.748147	-22.66323	0	10.6	4003	0	31	5	5	0.4300727	2.360255	8	10	0.03	2000	7.47785	40.92395	-91.39363
227715	-521	-1184	-699	-0.3407058	-4.631602	-22.76456	0	10.6	4002	0	33	5	5	0.4300861	2.455668	8	10	0.03	2000	5.225375	40.92395	-91.39363
227811	921	1037	505	-0.1929614	-2.80153	-21.96679	0	10.55	4002	0	36	5	5	0.4300958	2.536134	8	10	0.03	2000	11.58483	40.92395	-91.39363
227913	-360	-679	-654	-0.307529	-3.217757	-21.39521	0	10.55	4004	0	37	5	5	0.4301029	2.618886	8	10	0.03	2000	18.70932	40.92395	-91.39363
228015	869	1952	622	0.2856468	-3.94011	-20.9451	0	10.55	4002	0	39	5	5	0.4301081	2.708649	8	10	0.03	2000	16.32283	40.92395	-91.39363
228195	52	-603	-28	-0.5899768	-7.019836	-22.51547	0	10.55	4003	0	43	5	5	0.4301138	2.79537	8	10	0.03	2000	18.18144	40.92395	-91.39363
228288	1500	1705	-657	0.1463227	-8.64881	-22.15228	0	10.55	4003	0	45	5	5	0.4301166	2.877184	8	10	0.03	2000	17.49754	40.92395	-91.39363
228325	979	1380	-836	0.5464056	-9.060908	-21.91186	0	10.55	4004	0	45	5	5	0.4301172	2.905034	8	10	0.03	2000	15.52697	40.92394	-91.39363
228494	58	937	-272	-0.5193713	-10.4672	-21.98658	0	10.55	4003	0	46	5	5	0.4301188	2.962255	8	10	0.03	2000	16.05947	40.92394	-91.39362
228639	-574	348	93	-0.4688102	-9.311418	-22.37635	0	10.55	4003	1	47	5	5	0.4301199	3.008567	8	10	0.03	2000	14.91993	40.92394	-91.39362
228733	1059	4295	-75	-1.546008	-10.85436	-22.52544	0	11.46	4002	3	47	5	5	0.4301206	3.040911	8	10	0.03	2000	15.24485	40.92394	-91.39362
228827	-187	1890	-367	-0.5184452	-14.53472	-22.22763	0	11.46	4003	4	47	5	5	0.4301209	3.057373	8	10	0.03	2000	12.6034	40.92394	-91.39362
228931	-1069	-135	402	-1.319148	-14.19655	-22.0731	0	11.46	4004	5	47	5	5	0.4301212	3.073608	8	10	0.03	2000	12.54384	40.92393	-91.39362
229079	-677	1109	-305	-4.222684	-13.09357	-21.98187	0	11.46	4003	8	46	5	5	0.4301215	3.068949	8	10	0.03	2000	10.29815	40.92393	-91.39362
229181	607	1961	-58	-4.269831	-15.03892	-21.83161	0	11.46	4003	9	45	5	5	0.4301216	3.057504	8	10	0.03	2000	7.589551	40.92393	-91.39362
229258	1252	-2498	-123	-2.391847	-12.71591	-21.70588	0	11.46	4002	11	43	5	5	0.4301217	3.032334	8	10	0.03	2000	6.645055	40.92393	-91.39362
229386	-934	-2227	235	-2.048351	-7.089733	-22.20283	0	11.46	4003	14	42	5	5	0.4301218	2.983513	8	10	0.03	2000	6.645342	40.92393	-91.39362
229439	563	-132	1853	-2.270102	-5.48037	-22.39905	0	11.46	4004	15	41	5	5	0.4301218	2.957698	8	10	0.03	2000	6.785569	40.92393	-91.39362
229557	-591	-1083	691	-1.988294	-2.04192	-22.50077	0	11.46	4003	18	39	5	5	0.4301218	2.871332	8	10	0.03	2000	7.72889	40.92393	-91.39362
229670	-724	1114	-291	-2.566435	-1.936399	-22.71513	0	11.29	4004	22	38	5	5	0.4301218	2.805301	8	10	0.03	2000	8.03391	40.92393	-91.39362
229826	-3683	-2157	-1027	-3.203274	-3.19618	-23.05233	0	11.29	4003	26	35	5	5	0.4301218	2.669864	8	10	0.03	2000	5.292276	40.92393	-91.39362
229966	-774	-439	-1308	-7.839628	-2.239211	-22.78554	0	11.29	4002	30	33	5	5	0.4301218	2.46505	8	10	0.03	2000	4.461391	40.92393	-91.39362
230098	721	3463	-1	-8.21871	-2.587996	-21.32631	0	11.29	4008	34	31	5	5	0.4301218	2.378985	8	10	0.03	2000	0.2583782	40.92393	-91.39362
230251	-1403	-2359	-1043	-4.230897	-3.159792	-21.86155	0	11.29	4002	39	27	5	5	0.4301218	2.21928	8	10	0.03	2000	-2.938354	40.92393	-91.39361
230300	-1711	-1112	-148	-3.881685	-2.76262	-22.07032	0	11.29	4003	41	27	5	5	0.4301218	2.198379	8	10	0.03	2000	-4.065338	40.92393	-91.39361
230411	-383	-688	-812	-3.206546	-2.449028	-21.74697	0	11.29	4003	46	24	5	5	0.4301218	2.115703	8	10	0.03	2000	-4.691254	40.92393	-91.39361
230508	-793	-1674	-629	-4.493802	-2.501971	-22.00664	0	11.29	4003	51	21	5	5	0.4301218	2.028389	8	10	0.03	2000	-3.862915	40.92393	-91.39361
230666	-247	424	-435	-2.276804	-4.479901	-21.86902	0	10.72	4004	57	19	5	5	0.4301218	1.949137	8	10	0.03	2000	-5.888611	40.92393	-91.39361
230771	2156	535	-255	-1.032881	-5.63282	-22.82826	0	10.72	4004	61	16	5	5	0.4301218	1.869407	8	10	0.03	2000	-5.441772	40.92393	-91.39362
230857	2290	2819	15	3.078257	-8.1404	-22.42441	0	10.72	4003	63	14	5	5	0.4301218	1.825844	8	10	0.03	2000	-6.183502	40.92393	-91.39362
231036	679	-870	-1649	5.018654	-7.681408	-21.83051	0	10.72	4002	69	10	5	5	0.4301218	1.765729	8	10	0.03	2000	-4.334564	40.92393	-91.39362
231093	239	-107	1441	5.29891	-7.171657	-21.96572	0	10.72	4003	70	9	5	5	0.4301218	1.763026	8	10	0.03	2000	-2.545563	40.92393	-91.39362
231164	-1855	-4471	-203	4.636241	-4.341765	-21.87536	0	10.72	4002	72	8	5	5	0.4301218	1.757059	8	10	0.03	2000	-2.098877	40.92393	-91.39362
231272	-766	1359	-579	0.9303167	-3.286509	-22.32071	0	10.72	4003	76	5	5	5	0.4301218	1.763444	8	10	0.03	2000	-0.1089783	40.92393	-91.39362
231477	-2048	-1693	-228	-2.998959	-0.01060215	-21.35114	0	10.72	4003	81	2	5	5	0.4301218	1.800159	8	10	0.03	2000	-0.1329041	40.92393	-91.39362
231576	-907	267	662	-3.404998	-1.115462	-21.4485	0	10.15	4003	84	1	5	5	0.4301218	1.825337	8	10	0.03	2000	-3.187225	40.92393	-91.39362
231730	-776	-773	-534	-3.987307	-2.005463	-22.67275	0	10.15	4003	89	0	5	5	0.4301218	1.885532	8	10	0.03	2000	-5.429169	40.92393	-91.39362
231798	-1088	1315	1521	-4.09829	-2.542868	-22.61453	0	10.15	4002	90	0	5	5	0.4301218	1.93171	8	10	0.03	2000	-5.864716	40.92393	-91.39362
231878	-222	3451	-175	-4.584804	-5.883877	-22.2747	0	10.15	4003	92	-1	5	5	0.4301218	1.971871	8	10	0.03	2000	-6.950989	40.92393	-91.39362
232004	-707	-2858	-1935	-5.950443	-5.240012	-21.71516	0	10.15	4004	97	-2	5	5	0.4301218	2.074457	8	10	0.03	2000	-7.716919	40.92393	-91.39362
232101	415	2815	768	-5.815048	-4.4267	-21.64746	0	10.15	4004	98	-2	5	5	0.4301218	2.118366	8	10	0.03	2000	-9.269379	40.92393	-91.39362
232164	646	-2378	-71	-2.130489	-10.18954	-21.8317	0	10.15	4003	100	-3	5	5	0.4301218	2.180316	8	10	0.03	2000	-9.299774	40.92393	-91.39362
232266	-503	-4449	767	-1.780299	-5.633317	-21.74689	0	10.15	4004	101	-4	5	5	0.4301218	2.285041	8	10	0.03	2000	-8.947998	40.92393	-91.39362
232327	-358	-246	-98	-1.293019	-4.225268	-21.98269	0	10.15	4002	103	-5	5	5	0.4301218	2.338136	8	10	0.03	2000	-11.03458	40.92393	-91.39362
232441	1950	-2811	-2345	-0.994805	-4.419759	-22.4886	0	11.46	4003	104	-5	5	5	0.4301218	2.387847	8	10	0.03	2000	-9.306427	40.92394	-91.39362
232588	880	-467	-76	3.708465	-3.336604	-21.9193	0	11.46	4003	105	-5	5	5	0.4301218	2.478028	8	10	0.03	2000	-8.939575	40.92394	-91.39363
232667	1778	-783	-1448	3.613122	-2.359747	-21.70917	0	11.46	4004	105	-5	5	5	0.4301218	2.541486	8	10	0.03	2000	-7.327698	40.92394	-91.39363
232742	779	1285	-284	4.725517	-3.604209	-21.88644	0	11.46	4004	105	-5	5	5	0.4301218	2.57262	8	10	0.03	2000	-5.338959	40.92394	-91.39363
232883	-3279	-2782	-436	0.4585477	-1.504347	-22.08622	0	11.46	4004	105	-4	5	5	0.4301218	2.625129	8	10	0.03	2000	-0.9986572	40.92394	-91.39363
232935	-1485	-2069	488	-0.9763897	-0.347858	-21.98196	0	11.46	4003	105	-3	5	5	0.4301218	2.655607	8	10	0.03	2000	-0.001983643	40.92394	-91.39364
233060	-1440	471	92	-4.198021	-2.260026	-21.9439	0	11.46	4002	103	-2	5	5	0.4301218	2.699664	8	10	0.03	2000	-0.27948	40.92394	-91.39364
233133	-1247	-1944	0	-5.855485	-1.538895	-21.77821	0	11.46	4002	102	-2	5	5	0.4301218	2.715771	8	10	0.03	2000	-0.5558472	40.92394	-91.39364
233256	-977	795	84	-6.304807	-0.1847728	-21.65793	0	11.46	4003	101	-1	5	5	0.4301218	2.733516	8	10	0.03	2000	-0.6174011	40.92394	-91.39364
233362	-533	-169	-253	-7.749965	-1.491952	-21.82789	0	11.34	4002	99	0	5	5	0.4301218	2.747704	8	10	0.03	2000	-1.320282	40.92394	-91.39364
233422	-196	-110	-390	-7.854938	-1.728995	-21.64506	0	11.34	4002	98	0	5	5	0.4301218	2.751247	8	10	0.03	2000	-3.202057	40.92394	-91.39364
233623	2631	764	14	-0.0002232889	-11.10978	-22.58956	0	11.34	4002	92	1	5	5	0.4301218	2.718479	8	10	0.03	2000	-4.819641	40.92394	-91.39365
233805	1117	1183	559	6.056779	-9.581528	-22.12695	0	11.34	4003	86	2	5	5	0.4301218	2.659019	8	10	0.03	2000	-0.7720642	40.92394	-91.39365
233854	716	-13	-367	5.990397	-9.990041	-22.0831	0	11.34	4004	84	3	5	5	0.4301218	2.625971	8	10	0.03	2000	3.545678	40.92394	-91.39365
233923	782	-628	89	6.738764	-9.263389	-21.92464	0	11.34	4002	81	3	5	5	0.4301218	2.586325	8	10	0.03	2000	5.229818	40.92394	-91.39365
234009	-1457	-956	443	5.779362	-8.451708	-22.05904	0	11.34	4004	78	4	5	5	0.4301218	2.541888	8	10	0.03	2000	7.465169	40.92394	-91.39365
234177	-104	-1368	-1000	-0.8979815	-4.014488	-21.32868	0	11.23	4002	70	5	5	5	0.4301218	2.427572	8	10	0.03	2000	10.87747	40.92394	-91.39365
234241	-669	444	-380	-0.9619797	-4.189074	-21.25024	0	11.23	4003	68	5	5	5	0.4301218	2.368961	8	10	0.03	2000	11.84845	40.92394	-91.39365
234321	-1751	-316	589	-3.730313	-4.832344	-20.97398	0	11.23	4004	63	5	5	5	0.4301218	2.307321	8	10	0.03	2000	14.78118	40.92394	-91.39366
234437	-488	449	-360	-3.892561	-2.779369	-20.8103	0	11.23	4003	58	5	5	5	0.4301218	2.121217	8	10	0.03	2000	15.20066	40.92394	-91.39366
234518	1082	1476	-211	-4.435141	-4.019607	-21.17726	0	11.23	4003	54	5	5	5	0.4301218	2.065376	8	10	0.03	2000	11.28059	40.92394	-91.39366
234649	66	-1810	9	-3.895437	-3.588182	-21.33116	0	11.23	4002	44	6	5	5	0.4301218	1.937085	8	10	0.03	2000	13.17429	40.92394	-91.39366
234802	330	-2205	-1238	-4.914855	-6.047242	-22.65363	0	11.23	4003	37	7	5	5	0.4301218	1.784661	8	10	0.03	2000	10.91843	40.92394	-91.39366
234834	-28	237	644	-4.513543	-4.748618	-23.05923	0	11.23	4003	35	7	5	5	0.4301218	1.7415	8	10	0.03	2000	10.91843	40.92394	-91.39366
234946	40	-118	605	-2.515734	-4.593789	-22.3791	0	11.23	4002	28	8	5	5	0.4301218	1.663766	8	10	0.03	2000	10.44986	40.92394	-91.39366
235074	-1204	-1371	1438	-2.548449	-3.585438	-21.89251	0	11.23	4002	21	9	5	5	0.4301218	1.57941	8	10	0.03	2000	11.61199	40.92394	-91.39366
235199	1415	742	2057	-2.308368	-4.185726	-20.62173	0	10.66	4002	14	9	5	5	0.4301218	1.507577	8	10	0.03	2000	9.355938	40.92394	-91.39366
235234	219	-546	-1197	-1.549208	-4.228503	-20.83493	0	10.66	4003	12	9	5	5	0.4301218	1.471224	8	10	0.03	2000	10.12012	40.92394	-91.39366
235357	272	-1391	-1443	-2.581636	-3.579545	-21.35652	0	10.66	4003	4	9	5	5	0.4301218	1.433988	8	10	0.03	2000	16.73513	40.92394	-91.39366
235437	-1132	944	361	-0.4983941	-4.452116	-21.36775	0	10.66	4002	-1	9	5	5	0.4301218	1.407259	8	10	0.03	2000	12.86957	40.92394	-91.39366
235516	-720	-900	658	-1.550236	-4.741612	-22.05616	0	10.66	4003	-4	9	5	5	0.4301218	1.391327	8	10	0.03	2000	11.71952	40.92394	-91.39366
235657	-524	4814	-706	-1.450629	-8.230131	-22.86735	0	10.66	4004	-13	9	5	5	0.4301218	1.39357	8	10	0.03	2000	11.96543	40.92394	-91.39366
235775	1077	941	-76	-0.9815134	-14.98691	-22.68974	0	10.66	4003	-20	9	5	5	0.4301218	1.426851	8	10	0.03	2000	9.58211	40.92394	-91.39366
235910	531	-520	-1274	-0.9025744	-14.46712	-21.97912	0	10.66	4004	-24	8	5	5	0.4301218	1.46788	8	10	0.03	2000	6.253593	40.92393	-91.39365
235971	331	-3067	-331	-0.5261165	-13.57773	-21.78102	0	10.66	4004	-29	7	5	5	0.4301218	1.503173	8	10	0.03	2000	6.253593	40.92393	-91.39365
236076	-1749	-432	438	-0.2887854	-4.695024	-21.7698	0	10.77	4003	-33	7	5	5	0.4301218	1.582554	8	10	0.03	2000	7.729806	40.92393	-91.39365
236166	1575	-911	-2133	-0.7996147	-7.311172	-22.87228	0	10.77	4003	-36	6	5	5	0.4301218	1.623159	8	10	0.03	2000	7.642997	40.92393	-91.39365
236210	2246	-1328	-635	1.885289	-7.311172	-22.87228	0	10.77	4003	-37	6	5	5	0.4301218	1.636923	8	10	0.03	2000	7.642997	40.92393	-91.39365
236312	-434	-1498	-328	2.554654	-5.094805	-22.51976	0	10.77	4003	-43	5	5	5	0.4301218	1.712946	8	10	0.03	2000	7.896527	40.92393	-91.39365
236430	1415	-1093	-430	3.142835	-2.535953	-21.86153	0	10.77	4004	-49	5	5	5	0.4301218	1.810484	8	10	0.03	2000	8.975889	40.92394	-91.39365
236563	374	618	327	4.541152	-4.981071	-21.81745	0	10.77	4002	-54	5	5	5	0.4301218	1.8797	8	10	0.03	2000	10.53623	40.92394	-91.39365
236609	316	-612	132	4.679786	-4.876279	-21.91118	0	10.77	4002	-55	5	5	5	0.4301218	1.928522	8	10	0.03	2000	11.42098	40.92394	-91.39365
236741	-4401	-989	788	-2.942068	-1.480942	-22.63845	0	10.77	4003	-60	5	5	5	0.4301218	2.025029	8	10	0.03	2000	13.5824	40.92394	-91.39365
236818	-1880	1	910	-5.468797	-0.4112071	-22.30335	0	10.77	4005	-62	5	5	5	0.4301218	2.078016	8	10	0.03	2000	13.44313	40.92394	-91.39365
236916	-3105	352	426	-7.846224	-2.484963	-22.65719	0	10.77	4003	-65	5	5	5	0.4301218	2.168041	8	10	0.03	2000	10.84381	40.92394	-91.39365
237034	3328	-1727	-1984	-7.489713	-1.429963	-21.77262	0	10.6	4002	-68	5	5	5	0.4301218	2.249774	8	10	0.03	2000	5.750483	40.92394	-91.39365
237109	3939	-914	-1014	-4.972457	-1.24105	-21.61325	0	10.6	4002	-69	5	5	5	0.4301218	2.300272	8	10	0.03	2000	2.286206	40.92394	-91.39364
237261	1834	-757	-734	0.3129548	1.134011	-21.63392	0	10.6	4003	-71	6	5	5	0.4301218	2.40313	8	10	0.03	2000	3.425373	40.92394	-91.39364
237307	807	-1498	-642	1.552669	0.8002026	-21.82629	0	10.6	4003	-72	6	5	5	0.4301218	2.415654	8	10	0.03	2000	3.276044	40.92394	-91.39364
237491	1126	2520	823	2.137082	-1.418255	-22.40558	0	10.6	4004	-74	8	5	5	0.4301218	2.502823	8	10	0.03	2000	8.981308	40.92394	-91.39363
237637	-435	1735	26	3.087726	-6.859803	-22.42299	0	10.6	4003	-74	9	5	5	0.4301218	2.539824	8	10	0.03	2000	9.820028	40.92394	-91.39363
237728	-1539	-469	157	1.801268	-7.212725	-22.52301	0	10.6	4002	-74	9	5	5	0.4301218	2.565167	8	10	0.03	2000	10.92302	40.92394	-91.39363
237835	-2051	138	-406	-1.789244	-5.330313	-22.14241	0	10.6	4004	-74	10	5	5	0.4301218	2.572615	8	10	0.03	2000	10.01356	40.92394	-91.39363
237977	-1817	-1062	-549	-4.316113	-8.232612	-21.57766	0	10.09	4003	-72	10	5	5	0.4301218	2.563687	8	10	0.03	2000	6.866119	40.92394	-91.39362
238044	-2528	-1069	443	-6.124803	-6.863881	-21.61101	0	10.09	4003	-71	10	5	5	0.4301218	2.52327	8	10	0.03	2000	4.561709	40.92394	-91.39362
238186	3025	2062	-343	-7.966677	-8.513119	-22.1622	0	10.09	4002	-69	10	5	5	0.4301218	2.492785	8	10	0.03	2000	1.501483	40.92394	-91.39362
238235	3918	-772	1025	-5.382761	-8.458388	-22.13414	0	10.09	4003	-68	10	5	5	0.4301218	2.43084	8	10	0.03	2000	-0.1036682	40.92394	-91.39362
238388	1263	-686	-1468	-0.307308	-5.720049	-21.93335	0	10.09	4003	-64	10	5	5	0.4301218	2.346432	8	10	0.03	2000	-1.865112	40.92394	-91.39362
238474	-202	287	-290	2.701112	-3.89992	-21.66185	0	10.09	4002	-62	10	5	5	0.4301218	2.282617	8	10	0.03	2000	-3.511963	40.92394	-91.39362
238589	-909	-15	704	0.9325403	-3.839053	-22.48615	0	10.09	4003	-57	10	5	5	0.4301218	2.210665	8	10	0.03	2000	-0.6638794	40.92394	-91.39362
238665	1941	-847	138	2.239587	-2.762066	-22.03831	0	10.09	4002	-55	10	5	5	0.4301218	2.111256	8	10	0.03	2000	-0.6638794	40.92394	-91.39362
238710	802	-469	1787	4.370975	-2.295767	-21.89448	0	10.66	4002	-54	10	5	5	0.4301218	2.095219	8	10	0.03	2000	-3.10379	40.92394	-91.39361
238802	-1586	643	-531	1.955176	-2.72969	-21.75594	0	10.66	4004	-48	10	5	5	0.4301218	1.993037	8	10	0.03	2000	-1.28302	40.92394	-91.39361
238905	-2352	2466	1363	-1.427577	-4.054361	-22.63023	0	10.66	4002	-45	10	5	5	0.4301218	1.940665	8	10	0.03	2000	-2.228821	40.92393	-91.39361
238990	-1427	1083	711	-3.00048	-6.501692	-22.11156	0	10.66	4005	-43	10	5	5	0.4301218	1.891046	8	10	0.03	2000	-5.788696	40.92393	-91.39361
239088	-1267	-866	-895	-4.485745	-5.472764	-21.77612	0	10.66	4003	-36	9	5	5	0.4301218	1.806488	8	10	0.03	2000	-6.084473	40.92393	-91.3936
239191	-2413	1940	1629	-8.441133	-7.070128	-22.48378	0	10.66	4004	-33	8	5	5	0.4301218	1.736834	8	10	0.03	2000	-13.46933	40.92393	-91.3936
239299	3563	-1948	-743	-5.716632	-7.118285	-22.37722	0	10.66	4002	-24	7	5	5	0.4301218	1.693144	8	10	0.03	2000	-15.23221	40.92393	-91.3936
239398	3066	-262	549	-2.740601	-5.519011	-21.82634	0	10.66	4004	-19	7	5	5	0.4301218	1.65628	8	10	0.03	2000	-15.72278	40.92393	-91.3936
239570	-1954	-1406	-33	-0.9519414	-5.151105	-21.72985	0	10.66	4002	-9	6	5	5	0.4301218	1.609257	8	10	0.03	2000	-15.66174	40.92393	-91.3936
239612	733	-711	804	-1.687161	-4.064573	-22.28493	0	10.66	4002	-7	5	5	5	0.4301218	1.60314	8	10	0.03	2000	-14.77039	40.92393	-91.3936
239709	-1529	-755	563	0.4852732	-2.215994	-22.26124	0	10.21	4003	0	4	5	5	0.4301218	1.601749	8	10	0.03	2000	-16.95679	40.92393	-91.3936
239907	-231	675	152	-0.2893924	-4.787825	-22.15371	0	10.21	4002	8	3	5	5	0.4301218	1.600332	8	10	0.03	2000	-17.28314	40.92393	-91.3936
239958	-71	2786	-1600	-1.507555	-7.316378	-21.41337	0	10.21	4003	11	3	5	5	0.4301218	1.608645	8	10	0.03	2000	-15.66553	40.92393	-91.3936
240101	-2958	1012	-264	-3.946553	-11.28501	-21.59271	0	10.21	4002	20	1	5	5	0.4301218	1.62852	8	10	0.03	2000	-15.81134	40.92393	-91.3936
240155	2463	522	-985	-4.04947	-11.57392	-21.67732	0	10.21	4003	25	0	5	5	0.4301218	1.645085	8	10	0.03	2000	-15.28299	40.92393	-91.3936
240233	1106	2379	-1088	-1.387677	-13.53794	-21.74519	0	10.21	4003	29	0	5	5	0.4301218	1.673759	8	10	0.03	2000	-15.35239	40.92393	-91.3936
240322	623	2908	-377	-1.075676	-16.21753	-21.39386	0	10.21	4003	34	-1	5	5	0.4301218	1.706113	8	10	0.03	2000	-15.0405	40.92393	-91.3936
240442	-2452	-3958	1189	-3.180219	-10.2862	-21.70129	0	10.21	4003	40	-3	5	5	0.4301218	1.746116	8	10	0.03	2000	-13.89621	40.92393	-91.39361
240580	1385	1242	493	-3.561615	-5.295095	-21.47477	0	11.17	4003	46	-5	5	5	0.4301218	1.806178	8	10	0.03	2000	-14.2142	40.92393	-91.39361
240648	-297	277	1343	-2.080426	-5.43829	-20.88336	0	11.17	4002	47	-5	5	5	0.4301218	1.828156	8	10	0.03	2000	-14.94986	40.92393	-91.39361
240787	-1052	48	1416	-4.569495	-5.04275	-21.80371	0	11.17	4002	54	-7	5	5	0.4301218	1.932914	8	10	0.03	2000	-13.96207	40.92393	-91.39361
240834	577	396	1331	-4.366666	-5.214375	-22.19587	0	11.17	4003	56	-8	5	5	0.4301218	1.945534	8	10	0.03	2000	-13.58508	40.92393	-91.39361
240941	-335	228	-44	-3.991092	-8.330825	-22.9299	0	11.17	4003	62	-9	5	5	0.4301218	1.992351	8	10	0.03	2000	-12.98267	40.92393	-91.39362
241084	1840	-2636	-721	-0.8826919	-3.10842	-22.45289	0	11.17	4004	66	-10	5	5	0.4301218	2.079835	8	10	0.03	2000	-14.21878	40.92393	-91.39362
241117	2179	-1119	-1457	0.004452047	-2.993878	-22.3833	0	11.17	4004	67	-10	5	5	0.4301218	2.091939	8	10	0.03	2000	-12.32892	40.92393	-91.39362
241223	2512	-1972	-756	4.107211	-3.19365	-22.27235	0	11.17	4003	69	-11	5	5	0.4301218	2.137829	8	10	0.03	2000	-12.18408	40.92393	-91.39362
241358	2400	-1131	-1035	6.271182	-1.703976	-21.9411	0	11.17	4004	72	-11	5	5	0.4301218	2.195462	8	10	0.03	2000	-7.955505	40.92394	-91.39362
241417	956	869	-790	6.281223	-2.864133	-22.3914	0	11.17	4003	73	-11	5	5	0.4301218	2.203779	8	10	0.03	2000	-3.925293	40.92394	-91.39362
241540	33	-918	-893	4.615603	-4.568218	-22.53286	0	10.43	4002	75	-11	5	5	0.4301218	2.234826	8	10	0.03	2000	1.118916	40.92394	-91.39362
241622	-417	-1459	500	4.300382	-3.69209	-21.52017	0	10.43	4003	76	-11	5	5	0.4301218	2.23445	8	10	0.03	2000	0.8049947	40.92394	-91.39362
241775	-1368	2118	1474	0.2999509	-4.432131	-21.89124	0	10.43	4003	77	-10	5	5	0.4301218	2.22159	8	10	0.03	2000	2.647536	40.92394	-91.39363
241873	-2236	-655	1652	-2.031375	-4.224249	-22.76745	0	10.43	4002	77	-10	5	5	0.4301218	2.205167	8	10	0.03	2000	4.542241	40.92394	-91.39363
241986	302	241	965	-2.726731	-3.309567	-22.87761	0	10.43	4003	77	-9	5	5	0.4301218	2.157289	8	10	0.03	2000	4.207836	40.92394	-91.39363
242004	-764	-236	500	-2.673619	-3.655452	-22.73891	0	10.43	4003	77	-9	5	5	0.4301218	2.148988	8	10	0.03	2000	4.663002	40.92394	-91.39363
242114	-1431	581	461	-3.349935	-4.402506	-22.89958	0	10.43	4004	77	-8	5	5	0.4301218	2.114195	8	10	0.03	2000	1.960357	40.92394	-91.39363
242198	-694	175	1265	-5.260359	-3.65982	-22.02895	0	10.43	4004	77	-7	5	5	0.4301218	2.106823	8	10	0.03	2000	2.455655	40.92395	-91.39364
242350	-827	-475	650	-5.034815	-5.264261	-21.72026	0	10.43	4002	75	-5	5	5	0.4301218	2.032327	8	10	0.03	2000	-1.798615	40.92395	-91.39364
242489	-89	463	1072	-5.166409	-2.516582	-22.40872	0	10.83	4004	73	-3	5	5	0.4301218	1.977197	8	10	0.03	2000	-2.902802	40.92395	-91.39364
242545	-352	1120	1176	-5.143807	-2.943801	-22.39479	0	10.83	4004	72	-2	5	5	0.4301218	1.958742	8	10	0.03	2000	-3.778351	40.92395	-91.39364
242645	-899	-1445	-1894	-5.4239	-4.132759	-22.49423	0	10.83	4004	70	-1	5	5	0.4301218	1.924847	8	10	0.03	2000	-4.077271	40.92395	-91.39365
242743	561	-2924	-1731	-5.779136	-1.794588	-22.25094	0	10.83	4003	66	1	5	5	0.4301218	1.879197	8	10	0.03	2000	-6.708862	40.92395	-91.39365
242903	1095	1332	1299	-4.111609	-3.025635	-22.04865	0	10.83	4004	62	4	5	5	0.4301218	1.833615	8	10	0.03	2000	-8.470947	40.92395	-91.39365
243048	-349	156	-747	-5.223613	-2.284661	-22.00553	0	10.83	4003	57	8	5	5	0.4301218	1.78298	8	10	0.03	2000	-9.920685	40.92395	-91.39365
243091	-1484	-1273	-1306	-6.360531	-4.231238	-22.77872	0	10.83	4002	56	8	5	5	0.4301218	1.775969	8	10	0.03	2000	-11.55624	40.92395	-91.39365
243203	1865	344	537	-5.779249	-4.1524	-22.62204	0	10.83	4003	50	11	5	5	0.4301218	1.733011	8	10	0.03	2000	-12.50061	40.92395	-91.39365
243312	2621	1397	-884	-2.093976	-4.809024	-21.34575	0	11.23	4003	46	14	5	5	0.4301218	1.71395	8	10	0.03	2000	-12.72427	40.92395	-91.39365
243434	1567	2163	272	1.875902	-9.725237	-22.64012	0	11.23	4002	42	16	5	5	0.4301218	1.701023	8	10	0.03	2000	-8.136017	40.92395	-91.39366
243615	2453	97	-912	3.766185	-9.964311	-21.80515	0	11.23	4003	31	19	5	5	0.4301218	1.698111	8	10	0.03	2000	-4.565094	40.92395	-91.39366
243711	-108	2429	1026	5.256669	-12.8026	-21.01258	0	11.23	4003	24	21	5	5	0.4301218	1.700817	8	10	0.03	2000	4.11491	40.92395	-91.39366
243838	-1597	-2669	507	1.692407	-11.99983	-23.42958	0	11.23	4002	17	22	5	5	0.4301218	1.701693	8	10	0.03	2000	6.268826	40.92395	-91.39367
243989	693	-1904	-2337	0.09538973	-6.202282	-21.67513	0	11.23	4002	6	25	5	5	0.4301218	1.711189	8	10	0.03	2000	9.656324	40.92394	-91.39367
244148	-344	-1525	-214	-1.154802	-5.272635	-21.26774	0	11.23	4003	-5	26	5	5	0.4301218	1.726805	8	10	0.03	2000	12.72605	40.92394	-91.39367
244266	312	-2515	-711	-1.525656	-0.5538328	-22.58224	0	9.87	4003	-14	27	5	5	0.4301218	1.732026	8	10	0.03	2000	12.79619	40.92394	-91.39367
244325	883	-436	628	-1.131025	-0.08819474	-22.80752	0	9.87	4003	-17	27	5	5	0.4301218	1.732262	8	10	0.03	2000	17.47076	40.92394	-91.39367
244433	-58	2411	628	-0.6839546	-1.212781	-22.71546	0	9.87	4004	-28	28	5	5	0.4301218	1.727352	8	10	0.03	2000	18.37509	40.92394	-91.39368
244519	1180	3110	-188	-0.8777764	-4.744897	-22.22806	0	9.87	4004	-34	28	5	5	0.4301218	1.723426	8	10	0.03	2000	17.66955	40.92394	-91.39368
244562	2642	3495	-294	0.1603712	-6.345039	-21.76691	0	9.87	4004	-40	29	5	5	0.4301218	1.717422	8	10	0.03	2000	19.62649	40.92394	-91.39368
244705	1603	245	-229	4.339097	-11.10322	-21.7626	0	9.87	4002	-55	30	5	5	0.4301218	1.70855	8	10	0.03	2000	19.90315	40.92394	-91.39368
244837	608	1226	-1707	4.653836	-11.2458	-22.28398	0	9.87	4004	-63	31	5	5	0.4301218	1.703815	8	10	0.03	2000	22.02265	40.92394	-91.39368
244950	30	-2883	171	5.941777	-11.18503	-21.88624	0	9.87	4003	-74	31	5	5	0.4301218	1.702357	8	10	0.03	2000	21.07837	40.92394	-91.39368
244984	377	-1600	720	5.796863	-9.22506	-22.05683	0	9.87	4002	-77	31	5	5	0.4301218	1.701522	8	10	0.03	2000	20.20523	40.92394	-91.39368
245090	288	-1689	261	6.258634	-4.574771	-22.6358	0	9.87	4004	-86	31	5	5	0.4301218	1.699356	8	10	0.03	2000	22.47936	40.92394	-91.39368
245195	-2185	2999	75	5.742231	-5.715854	-22.8215	0	10.38	4004	-94	31	5	5	0.4301218	1.706748	8	10	0.03	2000	27.3454	40.92394	-91.39368
245350	-1602	3715	944	-3.120034	-12.60189	-22.50648	0	10.38	4003	-107	31	5	5	0.4301218	1.734161	8	10	0.03	2000	21.4909	40.92393	-91.39367
245416	-2063	2440	81	-4.290292	-13.70215	-22.42987	0	10.38	4003	-113	30	5	5	0.4301218	1.746604	8	10	0.03	2000	21.4909	40.92393	-91.39367
245554	-1158	1195	45	-7.438444	-16.4769	-22.42088	0	10.38	4003	-122	29	5	5	0.4301218	1.768558	8	10	0.03	2000	17.247	40.92393	-91.39367
245673	-2083	-1186	-964	-8.43156	-14.65909	-22.32033	0	10.38	4002	-130	28	5	5	0.4301218	1.791566	8	10	0.03	2000	12.40473	40.92393	-91.39366
245749	-2641	80	1559	-10.46549	-11.83318	-22.17678	0	10.38	4003	-137	28	5	5	0.4301218	1.808619	8	10	0.03	2000	10.62928	40.92393	-91.39366
245906	6017	-1777	-1084	-4.783009	-8.691759	-21.86612	0	10.38	4004	-143	27	5	5	0.4301218	1.845358	8	10	0.03	2000	8.006526	40.92393	-91.39365
245952	1827	-2546	-1313	-0.4662171	-7.927247	-22.11899	0	10.38	4003	-144	26	5	5	0.4301218	1.848148	8	10	0.03	2000	7.994194	40.92393	-91.39365
246035	2925	-1234	-753	2.756485	-6.921429	-22.10079	0	10.94	4002	-148	26	5	5	0.4301218	1.848712	8	10	0.03	2000	8.683393	40.92393	-91.39365
246186	-2682	-1102	-869	2.10037	-3.230976	-21.5702	0	10.94	4003	-156	25	5	5	0.4301218	1.840792	8	10	0.03	2000	11.08331	40.92394	-91.39365
246236	-3333	-2425	-119	-0.9663565	-2.769226	-21.80054	0	10.94	4003	-156	25	5	5	0.4301218	1.83563	8	10	0.03	2000	10.0848	40.92394	-91.39365
246344	-156	319	582	-2.657555	-1.927778	-21.98514	0	10.94	4002	-160	25	5	5	0.4301218	1.832715	8	10	0.03	2000	10.44455	40.92394	-91.39364
246461	-39	-1672	-589	-4.102424	-2.674212	-22.02625	0	10.94	4004	-162	25	5	5	0.4301218	1.82174	8	10	0.03	2000	7.137736	40.92394	-91.39364
246526	669	-1591	-1773	-2.509004	-1.885052	-21.62922	0	10.94	4002	-72	25	5	5	0.4301218	1.814447	8	10	0.03	2000	5.996926	40.92394	-91.39363
246677	-2503	-1442	-127	-3.544406	-1.503184	-22.44106	0	10.94	4004	-163	26	5	5	0.4301218	1.764551	8	10	0.03	2000	5.175838	40.92394	-91.39363
246751	-1945	-1167	-888	-6.345072	-0.7705533	-22.78662	0	10.94	4004	-163	26	5	5	0.4301218	1.726959	8	10	0.03	2000	4.404052	40.92394	-91.39363
246808	-1112	-753	-740	-6.693815	-0.7925175	-22.75662	0	10.94	4002	-163	27	5	5	0.4301218	1.71663	8	10	0.03	2000	2.025939	40.92394	-91.39363
246955	-1142	735	308	-5.565643	-1.560185	-21.6923	0	10.6	4002	-161	28	5	5	0.4301218	1.617415	8	10	0.03	2000	-2.242615	40.92395	-91.39362
247074	-1042	-1241	25	-6.066074	-0.9332758	-22.03378	0	10.6	4002	-159	30	5	5	0.4301218	1.558229	8	10	0.03	2000	-3.502594	40.92395	-91.39362
247226	2658	-180	833	-3.856618	-1.62625	-22.1971	0	10.6	4002	-154	34	5	5	0.4301218	1.446761	8	10	0.03	2000	-11.22769	40.92395	-91.39362
247302	4468	-1633	-1409	-0.315671	-0.9597896	-22.29339	0	10.6	4002	-153	35	5	5	0.4301218	1.396005	8	10	0.03	2000	-11.04486	40.92395	-91.39362
247416	-152	-1434	-115	4.860775	-0.4184787	-22.15426	0	10.6	4003	-149	38	5	5	0.4301218	1.302728	8	10	0.03	2000	-9.963989	40.92395	-91.39362
247549	-238	1344	-282	5.541716	-2.8153	-22.2368	0	10.6	4002	-147	39	5	5	0.4301218	1.189105	8	10	0.03	2000	-10.76324	40.92395	-91.39362
247624	-823	2779	878	5.048443	-4.042946	-22.38634	0	10.6	4004	-142	43	5	5	0.4301218	1.102504	8	10	0.03	2000	-7.584991	40.92395	-91.39361
247720	-364	681	-1430	3.234042	-8.462303	-21.51923	0	10.6	4004	-137	45	5	5	0.4301218	1.071978	8	10	0.03	2000	-8.459137	40.92395	-91.39361
247766	-2113	3238	1159	-0.3139336	-10.30806	-22.32321	0	10.32	4004	-134	47	5	5	0.4301218	1.005405	8	10	0.03	2000	-6.555328	40.92395	-91.39361
247872	-289	-128	-552	-1.04939	-10.51445	-22.52585	0	10.32	4002	-130	50	5	5	0.4301218	0.9593206	8	10	0.03	2000	-9.690247	40.92395	-91.39361
247956	-756	-247	171	-1.996693	-8.553384	-22.64726	0	10.32	4002	-125	52	5	5	0.4301218	0.9310096	8	10	0.03	2000	-8.878235	40.92395	-91.3936
248067	232	-102	-995	-1.505117	-8.47797	-22.48578	0	10.32	4003	-119	56	5	5	0.4301218	0.890568	8	10	0.03	2000	-8.0802	40.92395	-91.3936
248207	2408	-1837	-823	0.6298687	-5.173569	-21.0143	0	10.32	4003	-109	60	5	5	0.4301218	0.8508984	8	10	0.03	2000	-8.496094	40.92395	-91.3936
248257	2428	-3135	-408	2.100212	-3.791054	-20.9541	0	10.32	4003	-107	61	5	5	0.4301218	0.8381591	8	10	0.03	2000	-8.496094	40.92395	-91.3936
248362	800	-577	1314	4.489132	-2.175757	-22.47868	0	10.32	4003	-100	65	5	5	0.4301218	0.8243363	8	10	0.03	2000	-7.942505	40.92395	-91.3936
248517	-1129	-2677	-675	5.918602	-0.2535341	-23.07725	0	10.32	4002	-92	69	5	5	0.4301218	0.8300477	8	10	0.03	2000	-6.381744	40.92396	-91.3936
248572	-813	168	1643	4.702418	0.7614541	-22.87519	0	10.32	4003	0	0	5	5	0.4301218	0.8334328	3	10	0.03	2000	-4.283813	40.92396	-91.3936
248691	-1125	-736	257	1.69642	0.04401867	-22.21744	0	11.17	4003	0	0	5	5	0.4301218	0.8615172	3	10	0.03	2000	-3.816467	40.92396	-91.39359
248814	-2899	-1264	-64	-0.9823517	0.1387612	-21.93032	0	11.17	4002	0	0	5	5	0.4301218	0.8771198	3	10	0.03	2000	-4.352448	40.92396	-91.39359
248901	-6088	282	-47	-12.3701	2.30622	-21.88749	0	11.17	4003	0	0	5	5	0.4301218	0.8933374	3	10	0.03	2000	-4.918427	40.92396	-91.39359
248940	-4443	1755	823	-14.58064	1.806976	-21.98501	0	11.17	4003	0	0	5	5	0.4301218	0.9012216	3	10	0.03	2000	-13.22552	40.92396	-91.39359
249043	2478	-204	293	-13.47258	-0.7078857	-22.1774	0	11.17	4004	0	0	5	5	0.4301218	0.9046491	3	10	0.03	2000	-17.74249	40.92396	-91.39359
249174	1365	466	-259	-7.75041	-0.4929907	-22.46748	0	11.17	4004	0	0	5	5	0.4301218	0.8996635	3	10	0.03	2000	-23.53543	40.92396	-91.39359
249250	123	1605	-301	-5.771387	-1.870141	-22.64379	0	11.17	4004	0	0	5	5	0.4301218	0.8978395	3	10	0.03	2000	-26.57434	40.92396	-91.39359
249373	1075	950	1559	-3.018085	-2.068397	-22.20543	0	11.17	4004	0	0	5	5	0.4301218	0.8874244	3	10	0.03	2000	-31.23502	40.92396	-91.39359
249441	-1389	1822	932	-2.952803	-3.822381	-22.55141	0	11.17	4004	0	0	5	5	0.4301218	0.8811194	3	10	0.03	2000	-28.21466	40.92396	-91.39359
249544	197	1392	-1243	-3.987254	-5.5212	-22.29104	0	11.17	4003	0	0	5	5	0.4301218	0.871151	3	10	0.03	2000	-34.01593	40.92396	-91.39359
249643	-2397	-2147	-934	-6.046799	-7.488595	-22.61523	0	10.21	4003	0	0	5	5	0.4301218	0.8592922	3	10	0.03	2000	-32.52768	40.92396	-91.39359
249806	1078	2551	1656	-4.04703	-4.920847	-21.70221	0	10.21	4004	0	0	5	5	0.4301218	0.8429687	3	10	0.03	2000	-35.10062	40.92395	-91.39359
249976	1579	1071	749	-0.1389498	-7.73786	-22.79332	0	10.21	4003	0	0	5	5	0.4301218	0.8118676	3	10	0.03	2000	-28.59018	40.92395	-91.39359
250118	2665	1963	297	3.629341	-9.913967	-22.44952	0	10.21	4003	0	0	5	5	0.4301218	0.7799109	3	10	0.03	2000	-21.43765	40.92395	-91.3936
250221	2783	2156	-798	5.153031	-10.69961	-22.4972	0	10.21	4002	0	0	5	5	0.4301218	0.7556618	3	10	0.03	2000	-9.81604	40.92395	-91.3936
250248	2783	2156	-798	6.100199	-11.17224	-22.58068	0	10.21	4002	0	0	5	5	0.4301218	0.748264	3	10	0.03	2000	-9.81604	40.92394	-91.3936
250382	-1236	-911	646	4.57155	-12.18315	-22.98968	0	10.21	4002	0	0	5	5	0.4301218	0.7409486	3	10	0.03	2000	-3.578827	40.92394	-91.3936
250469	-1473	1618	-1438	1.535334	-13.64569	-22.79272	0	10.21	4002	0	0	5	5	0.4301218	0.7345664	3	10	0.03	2000	-3.433807	40.92394	-91.39361
250608	1249	-1573	-1103	0.5382541	-9.898246	-21.32973	0	10.55	4003	0	0	5	5	0.4301218	0.7177359	3	10	0.03	2000	-1.609741	40.92394	-91.39361
250722	-8	-1208	1011	1.150357	-7.413293	-21.39461	0	10.55	4003	0	0	5	5	0.4301218	0.6770464	3	10	0.03	2000	-0.8277893	40.92394	-91.39361
