time(ms)	gyro_x(deg/s)	gyro_y(deg/s)	gyro_z(deg/s)	orientation_roll(deg)	orientation_pitch(deg)	orientation_yaw(deg)	throttle	battery(V)	loop_time(uS)	pid_output_roll	pid_output_pitch	pid_output_yaw	pid_output_throttle	ultrasonic_alt	baro_alt	flight_mode	p_gain_altitude	i_gain_altitude	d_gain_altitude	compass_heading	latitude	longitude
501246	4304	-1145	-39	13.05635	-6.85037	-68.95641	0	10.15	4002	0	-30	5	5	0.4702529	2.157546	8	10	0.03	2000	-0.8380127	40.9239	-91.39365
501326	3369	1729	774	17.88545	-7.857233	-68.6938	0	10.6	4003	-4	-38	5	5	0.4702529	2.188097	8	10	0.03	2000	3.737343	40.9239	-91.39365
501396	2092	323	826	18.79522	-8.574714	-68.68977	0	10.6	4004	-1	-32	5	5	0.4702529	2.199762	8	10	0.03	2000	4.646452	40.9239	-91.39365
501506	-3932	-2097	-705	14.2207	-4.465654	-68.58864	0	10.6	4004	-2	-28	5	5	0.4702529	2.213727	8	10	0.03	2000	10.01046	40.9239	-91.39365
501594	-3472	927	-1350	8.390715	-5.103532	-68.84102	0	10.6	4004	-2	-29	5	5	0.4702529	2.208378	8	10	0.03	2000	10.79835	40.9239	-91.39365
501695	1301	401	-568	7.11132	-7.112414	-69.40562	0	10.6	4003	-12	-30	5	5	0.4702529	2.186413	8	10	0.03	2000	11.77017	40.9239	-91.39365
501771	-6828	-3222	-1156	2.220074	-5.934687	-69.42163	0	10.6	4002	-12	-31	5	5	0.4702529	2.178553	8	10	0.03	2000	12.3377	40.9239	-91.39365
501931	-3333	-4570	-875	-6.017856	0.8967174	-68.50435	0	10.6	4003	-13	-27	5	5	0.4702529	2.101225	8	10	0.03	2000	10.64915	40.92391	-91.39365
502041	-2129	-7565	-960	-11.89126	11.10796	-68.93296	0	10.6	4004	-5	-24	5	5	0.4702529	2.06951	8	10	0.03	2000	9.369537	40.92391	-91.39365
502096	1421	-1138	-638	-10.71348	14.29052	-69.00031	0	10.6	4004	-6	-24	5	5	0.4702529	2.022957	8	10	0.03	2000	10.14655	40.92391	-91.39365
502182	919	2798	-841	-4.604809	7.161009	-69.36568	0	10.6	4004	-6	-24	5	5	0.4702529	1.987225	8	10	0.03	2000	5.942926	40.92392	-91.39365
502286	-38	1052	715	-4.633597	3.305444	-69.94024	0	10.77	4002	-6	-20	5	5	0.4702529	1.943153	8	10	0.03	2000	4.797712	40.92392	-91.39365
502457	716	1619	454	-1.212571	-1.5924	-69.71629	0	10.77	4003	-7	-17	5	5	0.4702529	1.852374	8	10	0.03	2000	2.007917	40.92392	-91.39365
502540	155	-1613	-2187	-1.310573	-1.939524	-69.42854	0	10.77	4003	-7	-17	5	5	0.4702529	1.805261	8	10	0.03	2000	2.014107	40.92392	-91.39365
502594	95	1196	576	-0.5747476	-2.355498	-69.0302	0	10.77	4004	-8	-17	5	5	0.4702529	1.752374	8	10	0.03	2000	2.0925	40.92392	-91.39365
502698	859	-224	839	1.09465	-1.488339	-68.5771	0	10.77	4002	-8	-18	5	5	0.4702529	1.674992	8	10	0.03	2000	0.1642287	40.92392	-91.39365
502934	-255	-1488	499	1.916552	-3.440217	-69.22007	0	10.77	4004	0	-14	5	5	0.4702529	1.508027	8	10	0.03	2000	-1.849518	40.92392	-91.39364
503057	-1679	-304	-49	0.1950963	-2.560696	-69.63242	0	10.77	4004	0	-14	5	5	0.4702529	1.421861	8	10	0.03	2000	-0.4317627	40.92392	-91.39364
503129	226	-265	-1017	-0.3153144	-2.670516	-69.91664	0	10.77	4002	0	-10	5	5	0.4702529	1.338893	8	10	0.03	2000	-2.081299	40.92393	-91.39364
503248	-842	-562	-168	1.186059	-4.746551	-69.82357	0	9.75	4002	-1	-10	5	5	0.4702529	1.261082	8	10	0.03	2000	-2.713165	40.92393	-91.39364
503309	-1763	90	1391	0.9899071	-3.990769	-69.44337	0	9.75	4003	-1	-10	5	5	0.4702529	1.239181	8	10	0.03	2000	-3.331177	40.92393	-91.39364
503414	568	-1838	-1533	2.185847	-3.20316	-69.35036	0	9.75	4004	-1	-10	5	5	0.4702529	1.211657	8	10	0.03	2000	-4.082062	40.92393	-91.39364
503534	193	626	1404	2.627482	-3.870219	-70.04089	0	9.75	4002	6	-10	5	5	0.4702529	1.176364	8	10	0.03	2000	-5.343475	40.92393	-91.39363
503619	-499	-1866	-2515	2.093428	-3.221373	-69.57033	0	9.75	4002	6	-10	5	5	0.4702529	1.170394	8	10	0.03	2000	-5.484894	40.92393	-91.39363
503750	-215	346	1567	1.845168	-2.740791	-69.32491	0	9.75	4003	6	-11	5	5	0.4702529	1.168453	8	10	0.03	2000	-5.409851	40.92393	-91.39363
503836	-1497	-333	-1035	0.1417984	-3.730394	-69.7202	0	9.75	4003	6	-11	5	5	0.4702529	1.174029	8	10	0.03	2000	-7.125427	40.92393	-91.39363
503960	1314	-678	-1110	-0.1854908	-3.570528	-70.14181	0	9.75	4002	6	-6	5	5	0.4702529	1.188753	8	10	0.03	2000	-7.098267	40.92393	-91.39363
504074	-1062	258	1369	-1.016427	-4.000573	-70.14805	0	9.81	4004	16	-6	5	5	0.4702529	1.231722	8	10	0.03	2000	-8.232513	40.92393	-91.39362
504088	-1062	258	1369	-1.016427	-4.000573	-70.14805	0	9.81	4004	16	-6	5	5	0.4702529	1.240471	8	10	0.03	2000	-8.232513	40.92393	-91.39362
504188	675	-283	378	0.1583663	-2.329641	-69.03284	0	9.81	4002	16	-6	5	5	0.4702529	1.281423	8	10	0.03	2000	-10.15802	40.92393	-91.39362
504320	-825	-1868	-93	-0.3217224	-1.411575	-68.84905	0	9.81	4003	16	-6	5	5	0.4702529	1.311121	8	10	0.03	2000	-9.53183	40.92393	-91.39362
504416	391	-735	-654	0.3763279	-3.979432	-68.88419	0	9.81	4002	16	-6	5	5	0.4702529	1.34832	8	10	0.03	2000	-10.92029	40.92393	-91.39362
504493	389	-1279	-1405	0.1677265	-4.096028	-68.88419	0	9.81	4004	17	-6	5	5	0.4702529	1.394369	8	10	0.03	2000	-10.92029	40.92393	-91.39362
504666	222	-2160	-595	-0.1677241	-3.561023	-68.30097	0	9.81	4002	26	-6	5	5	0.4702529	1.435988	8	10	0.03	2000	-8.068054	40.92393	-91.39362
504797	-880	-415	289	-0.6231996	-3.070043	-68.71671	0	9.81	4002	27	-6	5	5	0.4702529	1.462957	8	10	0.03	2000	-8.152283	40.92393	-91.39362
504850	-457	1005	660	-1.711056	-3.157742	-69.21352	0	9.81	4004	27	-6	5	5	0.4702529	1.473835	8	10	0.03	2000	-4.863586	40.92393	-91.39362
504904	384	-1106	-175	-1.699201	-3.437389	-68.98684	0	9.81	4004	27	-6	5	5	0.4702529	1.495107	8	10	0.03	2000	-6.885834	40.92393	-91.39362
504989	-1203	-676	1497	-2.048597	-2.686839	-69.2659	0	10.66	4004	28	-6	5	5	0.4702529	1.515819	8	10	0.03	2000	-9.599365	40.92393	-91.39362
505173	-570	2228	540	-3.024857	-0.7953589	-69.47131	0	10.66	4004	29	-6	5	5	0.4702529	1.554063	8	10	0.03	2000	-10.64801	40.92393	-91.39362
505217	-4	649	-541	-3.598023	-3.456687	-69.57004	0	10.66	4004	29	-6	5	5	0.4702529	1.565012	8	10	0.03	2000	-7.288605	40.92393	-91.39362
505292	-472	94	-231	-3.15974	-4.108194	-69.42724	0	10.66	4003	29	-6	5	5	0.4702529	1.578156	8	10	0.03	2000	-9.330505	40.92393	-91.39362
505438	288	-1704	436	-4.005762	-1.485203	-69.02183	0	10.66	4004	30	-11	5	5	0.4702529	1.593116	8	10	0.03	2000	-9.426727	40.92393	-91.39362
505509	2120	-67	-558	-2.606477	-1.201073	-68.87662	0	10.66	4002	30	-11	5	5	0.4702529	1.600839	8	10	0.03	2000	-10.52527	40.92393	-91.39362
505593	-745	-659	-480	-2.689093	-2.745157	-69.28387	0	10.66	4004	31	-11	5	5	0.4702529	1.604191	8	10	0.03	2000	-13.54227	40.92393	-91.39362
505759	1419	2290	1361	-1.796851	-2.384583	-68.98844	0	10.66	4004	41	-16	5	5	0.4702529	1.618112	8	10	0.03	2000	-20.37598	40.92392	-91.39361
505883	-815	1609	-590	-2.269956	-5.480886	-68.83017	0	10.26	4003	42	-21	5	5	0.4702529	1.619452	8	10	0.03	2000	-19.01974	40.92392	-91.39361
505966	162	349	-257	-2.826442	-6.053152	-68.92422	0	10.26	4004	42	-21	5	5	0.4702529	1.61741	8	10	0.03	2000	-18.86276	40.92392	-91.39361
506035	-94	-508	-128	-3.137846	-5.237083	-68.95544	0	10.26	4003	43	-21	5	5	0.4702529	1.609848	8	10	0.03	2000	-17.2363	40.92392	-91.39361
506177	-1683	1252	436	-3.684478	-7.690103	-69.18124	0	10.26	4004	44	-22	5	5	0.4702529	1.598328	8	10	0.03	2000	-16.96259	40.92392	-91.39361
506297	-340	-1287	-489	-3.741966	-6.81484	-68.2821	0	10.26	4004	45	-32	5	5	0.4702529	1.583842	8	10	0.03	2000	-20.31674	40.92391	-91.39361
506416	-710	-442	-231	-3.713834	-4.734694	-68.25276	0	10.26	4002	46	-32	5	5	0.4702529	1.577356	8	10	0.03	2000	-19.21295	40.92391	-91.39361
506501	1580	2312	-238	-2.884084	-6.766561	-69.10587	0	10.26	4002	46	-33	5	5	0.4702529	1.577556	8	10	0.03	2000	-19.47467	40.92391	-91.39361
506663	-260	1121	703	-3.288203	-6.232294	-69.1238	0	10.26	4004	38	-43	5	5	0.4702529	1.573226	8	10	0.03	2000	-17.5462	40.9239	-91.39362
506739	689	447	-834	-3.587042	-7.893658	-68.78951	0	10.26	4003	39	-48	5	5	0.4702529	1.570019	8	10	0.03	2000	-14.56534	40.9239	-91.39362
506874	993	8763	691	-2.315108	-14.84437	-68.85553	0	10.72	4003	39	-49	5	5	0.4702529	1.566691	8	10	0.03	2000	-16.20621	40.9239	-91.39362
507021	-1560	1582	-1006	-3.463589	-22.08138	-69.00034	0	10.72	4002	40	-56	5	5	0.4702529	1.569081	8	10	0.03	2000	-12.13428	40.9239	-91.39362
507077	-1526	992	739	-4.314344	-21.62259	-69.05022	0	10.72	4003	40	-56	5	5	0.4702529	1.574466	8	10	0.03	2000	-12.13428	40.92389	-91.39362
507207	-213	-3138	63	-5.385443	-17.91387	-69.27525	0	10.72	4003	41	-62	5	5	0.4702529	1.583501	8	10	0.03	2000	-11.11566	40.92389	-91.39362
507280	-545	-1201	528	-5.381321	-10.75531	-69.15071	0	10.72	4004	41	-66	5	5	0.4702529	1.589849	8	10	0.03	2000	-9.791809	40.92389	-91.39362
507379	-107	-1566	-750	-5.638823	-9.595641	-69.22451	0	10.72	4002	42	-68	5	5	0.4702529	1.596903	8	10	0.03	2000	-9.835571	40.92389	-91.39362
507542	24	-2575	-268	-5.356193	-9.410701	-69.53685	0	10.72	4002	33	-70	5	5	0.4702529	1.608601	8	10	0.03	2000	-9.84433	40.92389	-91.39362
507594	2015	376	-336	-3.787129	-8.176063	-69.36819	0	10.72	4004	33	-71	5	5	0.4702529	1.610326	8	10	0.03	2000	-9.920013	40.92389	-91.39362
507727	1679	2461	-746	-2.321102	-15.40482	-69.22202	0	10.66	4002	34	-78	5	5	0.4702529	1.618923	8	10	0.03	2000	-10.92667	40.92389	-91.39362
507874	2532	-1337	-420	4.275558	-14.80607	-67.98171	0	10.66	4002	34	-78	5	5	0.4702529	1.633612	8	10	0.03	2000	-10.23499	40.92389	-91.39362
507903	2996	-1078	136	6.451202	-12.18706	-67.80651	0	10.66	4003	36	-90	5	5	0.4702529	1.636949	8	10	0.03	2000	-9.22583	40.92389	-91.39362
507983	4125	3041	433	9.453201	-12.08358	-68.06629	0	10.66	4003	35	-82	5	5	0.4702529	1.64288	8	10	0.03	2000	-7.029694	40.92389	-91.39362
508080	815	-1710	102	12.58368	-13.16527	-68.33641	0	10.66	4003	26	-82	5	5	0.4702529	1.650662	8	10	0.03	2000	-4.366394	40.92389	-91.39363
508249	-198	308	313	4.09221	-7.745734	-68.68529	0	10.66	4004	26	-80	5	5	0.4702529	1.6304	8	10	0.03	2000	-1.402496	40.92389	-91.39363
508289	5	618	-1250	3.595567	-8.351871	-68.81731	0	10.66	4010	26	-81	5	5	0.4702529	1.625422	8	10	0.03	2000	-2.235443	40.92389	-91.39363
508500	-674	-1215	-237	0.3583747	-8.155396	-69.23647	0	10.66	4007	26	-84	5	5	0.4702529	1.562878	8	10	0.03	2000	-0.7206116	40.92389	-91.39363
508572	-1248	-175	1232	-1.438426	-6.503394	-68.98963	0	10.66	4002	26	-85	5	5	0.4702529	1.547199	8	10	0.03	2000	-1.395416	40.92389	-91.39363
508620	361	-110	-93	-1.166747	-5.849049	-68.48489	0	10.04	4003	26	-80	5	5	0.4702529	1.541828	8	10	0.03	2000	-1.86496	40.92389	-91.39363
508722	-376	569	-257	-1.834283	-8.855034	-68.98078	0	10.04	4003	26	-82	5	5	0.4702529	1.516141	8	10	0.03	2000	-2.339142	40.92389	-91.39363
508790	-169	214	-121	-1.874947	-9.12288	-69.12218	0	10.04	4003	26	-79	5	5	0.4702529	1.482167	8	10	0.03	2000	-2.20636	40.9239	-91.39363
508891	-666	-351	1489	-2.214252	-8.40371	-68.95995	0	10.04	4003	26	-80	5	5	0.4702529	1.465672	8	10	0.03	2000	-1.342255	40.9239	-91.39363
509090	1038	-1271	-838	-0.8494245	-10.44639	-69.35593	0	10.04	4003	26	-77	5	5	0.4702529	1.425576	8	10	0.03	2000	-3.201996	40.9239	-91.39363
509178	-2120	210	1074	-2.571315	-9.33552	-69.54536	0	10.04	4002	26	-78	5	5	0.4702529	1.398729	8	10	0.03	2000	-3.462494	40.9239	-91.39363
509230	-251	1330	1261	-3.434767	-8.965227	-69.60352	0	10.04	4002	26	-79	5	5	0.4702529	1.39516	8	10	0.03	2000	-3.102722	40.9239	-91.39363
509280	1455	-342	-1297	-2.938551	-9.003486	-69.38526	0	10.04	4003	26	-79	5	5	0.4702529	1.382647	8	10	0.03	2000	-3.102722	40.9239	-91.39363
509402	-524	-1556	-1136	-1.80793	-7.917335	-68.98717	0	10.04	4004	26	-67	5	5	0.4702529	1.369868	8	10	0.03	2000	-4.659912	40.92391	-91.39363
509552	6	-3763	575	-1.039864	-7.853005	-69.6365	0	9.98	4004	35	300	5	5	0.4702529	1.370102	8	10	0.03	2000	-4.665222	40.92392	-91.39362
509654	222	-8041	923	0.08700988	3.51793	-69.34493	0	9.98	4003	35	300	5	5	0.4702529	1.380743	8	10	0.03	2000	-4.479858	40.92393	-91.39362
509770	-1221	-4817	1375	-1.821375	12.73105	-69.39793	0	9.98	4008	35	-47	5	5	0.4702529	1.402295	8	10	0.03	2000	-5.447876	40.92393	-91.39362
509787	-770	-2688	1279	-2.061694	14.11131	-69.65662	0	9.98	4003	35	-50	5	5	0.4702529	1.40806	8	10	0.03	2000	-5.447876	40.92393	-91.39362
509890	-1071	2816	732	-1.901155	9.13447	-70.20219	0	9.98	4004	35	-42	5	5	0.4702529	1.43396	8	10	0.03	2000	-7.208496	40.92393	-91.39362
509985	-271	3587	-1217	-1.249938	4.159029	-69.95454	0	9.98	4003	36	-41	5	5	0.4702529	1.453527	8	10	0.03	2000	-7.441864	40.92393	-91.39362
510164	89	517	543	-2.053489	1.981578	-68.82877	0	9.98	4003	36	-32	5	5	0.4702529	1.473878	8	10	0.03	2000	-10.68604	40.92394	-91.39362
510266	506	2831	1777	-0.9316863	-0.3687676	-68.98174	0	9.98	4004	45	300	5	5	0.4702529	1.475501	8	10	0.03	2000	-12.61218	40.92395	-91.39362
510308	-242	1073	992	-0.6153491	-1.542721	-68.98759	0	9.98	4003	46	300	5	5	0.4702529	1.475076	8	10	0.03	2000	-12.61218	40.92395	-91.39362
510392	-2149	952	2534	-2.685014	-0.2610361	-69.46883	0	9.98	4003	46	-22	5	5	0.4702529	1.470812	8	10	0.03	2000	-13.99408	40.92395	-91.39362
510556	837	-460	-499	-2.588766	-0.235958	-69.72061	0	9.58	4003	47	-16	5	5	0.4702529	1.46178	8	10	0.03	2000	-15.70837	40.92395	-91.39362
510596	-1728	-493	1041	-2.349703	-0.5414979	-69.57722	0	9.58	4003	47	-16	5	5	0.4702529	1.455151	8	10	0.03	2000	-16.92621	40.92396	-91.39362
510728	-1543	-140	-625	-2.815084	-2.32859	-69.12794	0	9.58	4002	48	-10	5	5	0.4702529	1.432219	8	10	0.03	2000	-23.26923	40.92396	-91.39362
510821	1058	-2699	-1467	-3.175066	-2.537817	-68.40736	0	9.58	4003	48	-5	5	5	0.4702529	1.412908	8	10	0.03	2000	-21.99597	40.92397	-91.39362
510940	-312	-2448	-723	-2.821589	0.7190101	-68.31925	0	9.58	4004	49	-4	5	5	0.4702529	1.370014	8	10	0.03	2000	-24.51663	40.92397	-91.39362
511030	1684	-3000	-926	-2.293678	2.702859	-68.35178	0	9.58	4002	49	1	5	5	0.4702529	1.342737	8	10	0.03	2000	-23.47217	40.92397	-91.39362
511131	1713	-2628	-820	0.2073378	5.013027	-68.09733	0	9.58	4003	50	1	5	5	0.4702529	1.292238	8	10	0.03	2000	-32.12796	40.92397	-91.39362
511254	-1404	-376	-220	0.01325518	4.044236	-68.48636	0	9.58	4003	50	7	5	5	0.4702529	1.265551	8	10	0.03	2000	-37.76263	40.92397	-91.39362
511311	-1885	897	695	-0.9938941	3.619246	-68.78324	0	9.58	4003	51	8	5	5	0.4702529	1.244763	8	10	0.03	2000	-37.76263	40.92397	-91.39362
511420	-775	-162	735	-1.923956	2.446779	-68.92784	0	9.81	4004	51	14	5	5	0.4702529	1.212275	8	10	0.03	2000	-40.69971	40.92397	-91.39362
511503	-1375	253	-530	-2.603296	2.338927	-69.13174	0	9.81	4003	51	15	5	5	0.4702529	1.205241	8	10	0.03	2000	-52.71371	40.92397	-91.39362
511608	-228	-1393	-167	-2.874999	1.23413	-68.902	0	9.81	4003	43	17	5	5	0.4702529	1.191801	8	10	0.03	2000	-57.07538	40.92397	-91.39362
511708	-1833	4589	1443	-3.310274	-1.533458	-69.06149	0	9.81	4004	43	18	5	5	0.4702529	1.179409	8	10	0.03	2000	-70.43225	40.92397	-91.39362
511868	3184	1696	-1774	-3.545146	-5.605338	-69.8289	0	9.81	4004	43	20	5	5	0.4702529	1.16601	8	10	0.03	2000	-64.56628	40.92397	-91.39362
511986	638	4149	402	0.5826479	-10.14728	-69.53011	0	9.81	4002	44	22	5	5	0.4702529	1.157199	8	10	0.03	2000	-48.45474	40.92397	-91.39362
512019	320	4698	-167	0.3727057	-12.21415	-69.09113	0	9.81	4003	44	23	5	5	0.4702529	1.156231	8	10	0.03	2000	-48.45474	40.92397	-91.39362
512101	2023	4744	312	2.129806	-16.03897	-68.6474	0	9.81	4004	35	19	5	5	0.4702529	1.158585	8	10	0.03	2000	-43.58841	40.92397	-91.39363
512203	3139	-243	-619	4.383642	-16.10842	-68.325	0	9.81	4002	35	20	5	5	0.4702529	1.171185	8	10	0.03	2000	-38.50949	40.92397	-91.39363
512319	545	2904	-878	5.404169	-16.65228	-69.22153	0	10.21	4002	35	17	5	5	0.4702529	1.19991	8	10	0.03	2000	-19.63071	40.92397	-91.39363
512397	183	874	710	5.182387	-17.62709	-69.70059	0	10.21	4003	35	18	5	5	0.4702529	1.225181	8	10	0.03	2000	-14.26126	40.92397	-91.39363
512501	678	-730	-1107	5.362055	-15.38731	-69.54093	0	10.21	4003	26	18	5	5	0.4702529	1.239671	8	10	0.03	2000	-11.7525	40.92397	-91.39364
512602	-1557	-1055	651	4.631246	-13.58533	-69.11327	0	10.21	4005	26	20	5	5	0.4702529	1.271496	8	10	0.03	2000	-6.396484	40.92397	-91.39364
512760	-1196	-1861	127	-0.02152945	-6.265913	-68.69998	0	10.21	4002	25	17	5	5	0.4702529	1.291962	8	10	0.03	2000	-5.166382	40.92397	-91.39364
512810	-332	429	904	-0.7010824	-4.063389	-68.80645	0	10.21	4003	25	17	5	5	0.4702529	1.297354	8	10	0.03	2000	-3.389465	40.92396	-91.39364
512916	1378	-1192	116	-0.499915	-3.208749	-68.60072	0	10.21	4003	25	14	5	5	0.4702529	1.307878	8	10	0.03	2000	-4.252502	40.92396	-91.39364
513021	-485	-1058	551	-0.3274349	-1.754771	-68.66989	0	10.21	4003	25	14	5	5	0.4702529	1.303976	8	10	0.03	2000	-2.042053	40.92396	-91.39364
513114	-1051	-1289	516	-2.390335	0.4616579	-69.23092	0	10.21	4004	25	15	5	5	0.4702529	1.302048	8	10	0.03	2000	-0.1792908	40.92396	-91.39364
513228	-98	-653	-609	-2.838264	0.8904494	-69.34017	0	10.21	4003	16	11	5	5	0.4702529	1.300181	8	10	0.03	2000	-0.6552429	40.92395	-91.39365
513367	-348	1167	-861	-2.772086	-0.002315854	-69.02946	0	10.49	4002	15	13	5	5	0.4702529	1.288051	8	10	0.03	2000	-1.273254	40.92395	-91.39365
513485	-236	-1840	470	-2.476842	-2.232605	-68.61949	0	10.49	4003	14	9	5	5	0.4702529	1.281431	8	10	0.03	2000	0.6641303	40.92395	-91.39365
513592	405	-1804	-702	-2.342004	-0.4013093	-68.7762	0	10.49	4004	14	9	5	5	0.4702529	1.268717	8	10	0.03	2000	1.007804	40.92395	-91.39365
513671	199	1506	-301	-0.7893671	-1.887345	-68.92068	0	10.49	4002	13	10	5	5	0.4702529	1.262167	8	10	0.03	2000	0.7611755	40.92395	-91.39365
513762	312	-873	-1463	-1.176491	-3.175493	-69.1288	0	10.49	4004	13	6	5	5	0.4702529	1.25391	8	10	0.03	2000	0.1458726	40.92395	-91.39365
513843	-103	1008	196	-1.091785	-3.035891	-69.36142	0	10.49	4004	12	7	5	5	0.4702529	1.250253	8	10	0.03	2000	0.8761939	40.92395	-91.39365
513924	770	1451	652	-1.038557	-3.728811	-69.24568	0	10.49	4004	12	7	5	5	0.4702529	1.244528	8	10	0.03	2000	2.663274	40.92394	-91.39365
514065	-1433	745	654	-1.848735	-5.827113	-69.02779	0	10.49	4003	11	3	5	5	0.4702529	1.228079	8	10	0.03	2000	2.704146	40.92394	-91.39365
514149	1360	2898	-68	-1.138135	-5.726738	-68.92854	0	10.49	4003	11	3	5	5	0.4702529	1.216137	8	10	0.03	2000	0.6440492	40.92394	-91.39365
514278	-2128	2392	-133	-2.388665	-8.60776	-69.54472	0	10.04	4002	10	4	5	5	0.4702529	1.196514	8	10	0.03	2000	0.04548349	40.92394	-91.39365
514322	642	1548	829	-2.761475	-9.555665	-69.56424	0	10.04	4003	10	0	5	5	0.4702529	1.189054	8	10	0.03	2000	0.1423604	40.92394	-91.39365
514475	742	-707	-1100	-2.946373	-8.360632	-69.39663	0	10.04	4003	9	0	5	5	0.4702529	1.177984	8	10	0.03	2000	-1.404388	40.92393	-91.39365
514527	-57	-1629	15	-2.644619	-7.500181	-69.10796	0	10.04	4004	9	-3	5	5	0.4702529	1.177201	8	10	0.03	2000	-1.404388	40.92393	-91.39365
514663	1410	-46	-100	-1.131913	-4.285779	-68.55326	0	10.04	4004	8	-3	5	5	0.4702529	1.172927	8	10	0.03	2000	-2.151703	40.92393	-91.39365
514771	-582	-2552	170	-0.8069125	-1.643072	-68.58211	0	10.04	4002	8	-8	5	5	0.4702529	1.170364	8	10	0.03	2000	-1.642792	40.92393	-91.39365
514880	490	-948	1209	-1.2622	0.5207525	-68.94753	0	10.04	4004	8	-8	5	5	0.4702529	1.176863	8	10	0.03	2000	-0.8931885	40.92393	-91.39365
514939	932	-264	725	-0.8798168	1.626824	-69.10928	0	10.04	4003	7	-8	5	5	0.4702529	1.183796	8	10	0.03	2000	-1.973724	40.92393	-91.39365
515027	-87	-71	362	-0.06806719	-0.09194072	-69.01277	0	10.04	4003	7	-12	5	5	0.4702529	1.194002	8	10	0.03	2000	-0.9585266	40.92393	-91.39365
515130	1323	1306	-397	0.2540229	-1.605861	-68.97701	0	10.6	4003	6	-12	5	5	0.4702529	1.207389	8	10	0.03	2000	-0.9083252	40.92393	-91.39365
515237	-499	-388	-59	1.186984	-7.00417	-68.75523	0	10.6	4003	6	-12	5	5	0.4702529	1.21571	8	10	0.03	2000	-1.609497	40.92393	-91.39365
515328	8	544	1569	1.467546	-5.822507	-68.40748	0	10.6	4004	5	-12	5	5	0.4702529	1.229115	8	10	0.03	2000	0.5433511	40.92393	-91.39365
515423	-551	-289	178	0.5011944	-5.69945	-68.43173	0	10.6	4003	14	-17	5	5	0.4702529	1.242005	8	10	0.03	2000	2.260675	40.92392	-91.39364
515518	-1433	-1883	908	-0.5302516	-3.318468	-69.11037	0	10.6	4002	13	-17	5	5	0.4702529	1.28821	8	10	0.03	2000	1.427221	40.92392	-91.39364
515628	-966	-1969	200	-1.359417	0.208628	-69.45428	0	10.6	4004	13	-22	5	5	0.4702529	1.320513	8	10	0.03	2000	-0.26651	40.92392	-91.39364
515723	703	-95	-131	-1.921248	1.306088	-69.34371	0	10.6	4004	13	-22	5	5	0.4702529	1.342452	8	10	0.03	2000	0.6176208	40.92392	-91.39364
515933	949	310	-269	-1.161006	0.2446266	-68.66681	0	10.6	4003	12	-23	5	5	0.4702529	1.376435	8	10	0.03	2000	-1.664703	40.92392	-91.39364
516126	221	343	-924	-2.643075	-3.254431	-68.84653	0	9.92	4003	21	-33	5	5	0.4702529	1.41276	8	10	0.03	2000	-2.042542	40.92391	-91.39363
516205	1294	575	120	-1.41113	-4.009455	-68.79263	0	9.92	4004	21	-33	5	5	0.4702529	1.427152	8	10	0.03	2000	-2.612274	40.92391	-91.39363
516277	-305	-363	-145	-0.9492227	-4.213971	-68.75314	0	9.92	4003	21	-34	5	5	0.4702529	1.435236	8	10	0.03	2000	-2.945892	40.92391	-91.39363
516361	-358	-1090	317	-1.318876	-2.810878	-69.08512	0	9.92	4003	21	-35	5	5	0.4702529	1.444514	8	10	0.03	2000	-2.423309	40.92391	-91.39363
516415	-26	-682	167	-1.226978	-2.181634	-69.11911	0	9.92	4003	21	-35	5	5	0.4702529	1.450621	8	10	0.03	2000	-2.423309	40.92391	-91.39363
516525	76	423	-1361	-1.527014	-2.940358	-69.20311	0	9.92	4004	21	-40	5	5	0.4702529	1.455374	8	10	0.03	2000	-3.679932	40.92391	-91.39363
516660	396	-881	-1414	-1.437642	-1.418579	-69.12537	0	9.92	4002	21	-41	5	5	0.4702529	1.455768	8	10	0.03	2000	-2.939362	40.9239	-91.39362
516763	-249	1115	1287	-1.276497	-1.647899	-69.30058	0	9.92	4004	30	-46	5	5	0.4702529	1.445368	8	10	0.03	2000	-2.742432	40.9239	-91.39362
516882	226	3332	767	-1.83522	-5.850554	-69.41719	0	9.92	4003	31	-47	5	5	0.4702529	1.428964	8	10	0.03	2000	-3.173584	40.9239	-91.39362
516920	432	1635	-94	-1.823139	-7.096616	-69.26788	0	9.92	4003	31	-48	5	5	0.4702529	1.41877	8	10	0.03	2000	-3.173584	40.9239	-91.39362
517107	-198	242	-154	-2.881354	-4.154459	-68.4706	0	9.53	4002	31	-54	5	5	0.4702529	1.37343	8	10	0.03	2000	-3.937805	40.9239	-91.39362
517127	361	469	-525	-2.296501	-5.09448	-68.41736	0	9.53	4003	31	-54	5	5	0.4702529	1.366608	8	10	0.03	2000	-3.937805	40.9239	-91.39362
517246	-1427	-915	801	-2.224142	-5.500544	-68.70203	0	9.53	4004	40	-59	5	5	0.4702529	1.32774	8	10	0.03	2000	-4.64389	40.9239	-91.39362
517354	13	116	-22	-1.501602	-8.861405	-69.29599	0	9.53	4004	41	-61	5	5	0.4702529	1.305308	8	10	0.03	2000	-7.216217	40.9239	-91.39362
517462	-281	-45	603	-3.543408	-7.411306	-69.97593	0	9.53	4004	42	-62	5	5	0.4702529	1.279853	8	10	0.03	2000	-6.006195	40.9239	-91.39362
517522	132	166	78	-4.09772	-5.467915	-69.72755	0	9.53	4004	42	-62	5	5	0.4702529	1.265604	8	10	0.03	2000	-7.700623	40.9239	-91.39362
517735	-1154	347	-521	-1.864608	-8.64137	-68.52658	0	9.53	4004	43	-70	5	5	0.4702529	1.220969	8	10	0.03	2000	-9.970612	40.92389	-91.39362
517864	-143	-807	1271	-1.955729	-6.838171	-68.68957	0	9.98	4002	53	-76	5	5	0.4702529	1.190175	8	10	0.03	2000	-10.59744	40.92389	-91.39361
517954	-2624	3	222	-2.611434	-6.217999	-69.34641	0	9.98	4003	53	-77	5	5	0.4702529	1.173976	8	10	0.03	2000	-10.97427	40.92389	-91.39361
518081	414	1771	252	-2.220619	-5.813993	-68.94958	0	9.98	4003	54	-79	5	5	0.4702529	1.147549	8	10	0.03	2000	-13.7218	40.92389	-91.39361
518170	-267	-579	767	-3.178295	-5.397409	-69.00388	0	9.98	4003	55	-84	5	5	0.4702529	1.11563	8	10	0.03	2000	-13.5592	40.92389	-91.39361
518241	-831	1101	797	-2.93075	-5.262383	-69.03345	0	9.98	4004	55	-85	5	5	0.4702529	1.105633	8	10	0.03	2000	-13.32138	40.92389	-91.39361
518359	-1622	315	968	-3.824702	-7.87163	-69.80599	0	9.98	4004	65	-87	5	5	0.4702529	1.091932	8	10	0.03	2000	-14.92084	40.92389	-91.3936
518443	206	913	429	-3.272267	-8.150674	-69.50494	0	9.98	4004	66	-88	5	5	0.4702529	1.082584	8	10	0.03	2000	-16.2103	40.92389	-91.3936
518653	-821	-1124	-571	-4.932396	-6.697937	-69.10972	0	9.98	4003	75	-101	5	5	0.4702529	1.064088	8	10	0.03	2000	-16.44089	40.92389	-91.3936
518760	1618	980	-989	-2.463172	-7.292961	-68.95551	0	9.58	4003	69	-93	5	5	0.4702529	1.056168	8	10	0.03	2000	-18.34122	40.92389	-91.3936
518915	-2925	-767	1064	-3.693492	-10.18612	-68.70499	0	9.58	4004	71	-95	5	5	0.4702529	1.03049	8	10	0.03	2000	-19.99933	40.92389	-91.3936
518938	-2889	-486	1734	-5.128037	-9.542582	-69.01344	0	9.58	4002	71	-95	5	5	0.4702529	1.025975	8	10	0.03	2000	-19.99933	40.92389	-91.3936
519069	705	906	235	-5.25725	-7.345757	-69.39569	0	9.58	4003	72	-97	5	5	0.4702529	1.024399	8	10	0.03	2000	-19.62881	40.92389	-91.3936
519141	-163	550	415	-4.645982	-7.575953	-69.00673	0	9.58	4003	73	-98	5	5	0.4702529	1.02574	8	10	0.03	2000	-19.13614	40.92389	-91.3936
519256	-1694	-125	125	-5.127269	-7.751726	-69.20645	0	9.58	4004	73	-99	5	5	0.4702529	1.035751	8	10	0.03	2000	-21.25504	40.92389	-91.3936
519346	-1179	-1164	-295	-5.670433	-7.945487	-69.36382	0	9.58	4002	75	-101	5	5	0.4702529	1.044954	8	10	0.03	2000	-21.25504	40.92389	-91.3936
519500	-705	1416	1153	-4.320324	-10.93696	-68.50023	0	9.58	4004	76	-99	5	5	0.4702529	1.057652	8	10	0.03	2000	-24.98083	40.92389	-91.3936
519546	-705	1416	1153	-4.320324	-10.93696	-68.50023	0	9.58	4004	77	-99	5	5	0.4702529	1.064419	8	10	0.03	2000	-24.98083	40.92389	-91.3936
519740	378	2182	1235	-4.81913	-13.13868	-69.01086	0	10.09	4004	69	-102	5	5	0.4702529	1.10153	8	10	0.03	2000	-24.41217	40.92389	-91.39361
519791	-354	-2690	993	-5.118943	-9.969247	-68.78385	0	10.09	4003	70	-103	5	5	0.4702529	1.116208	8	10	0.03	2000	-25.06952	40.92389	-91.39361
519894	700	-2387	-1916	-5.672911	-6.953728	-68.4314	0	10.09	4003	71	-104	5	5	0.4702529	1.173965	8	10	0.03	2000	-25.68729	40.92389	-91.39361
519940	-1357	932	-625	-5.339273	-7.012012	-68.61674	0	10.09	4003	76	-114	5	5	0.4702529	1.184647	8	10	0.03	2000	-26.5535	40.92389	-91.39361
520065	1544	256	-471	-5.950231	-8.714338	-68.18427	0	10.09	4003	63	-98	5	5	0.4702529	1.228705	8	10	0.03	2000	-26.72879	40.9239	-91.39362
520208	-313	540	235	-5.087274	-9.889147	-67.70114	0	10.09	4002	63	-99	5	5	0.4702529	1.311927	8	10	0.03	2000	-27.21729	40.9239	-91.39362
520251	-555	-100	110	-5.335538	-9.86563	-67.59976	0	10.09	4004	63	-99	5	5	0.4702529	1.322204	8	10	0.03	2000	-25.8313	40.9239	-91.39362
520343	-775	-965	-917	-6.4338	-8.880489	-67.84803	0	10.09	4003	55	-91	5	5	0.4702529	1.365303	8	10	0.03	2000	-25.58301	40.9239	-91.39362
520480	-104	117	100	-7.723688	-8.551019	-68.92154	0	10.09	4002	55	-93	5	5	0.4702529	1.447113	8	10	0.03	2000	-24.84067	40.9239	-91.39362
520548	532	-1037	-123	-7.505932	-7.75734	-68.89182	0	10.09	4004	47	-88	5	5	0.4702529	1.469005	8	10	0.03	2000	-24.85916	40.92391	-91.39363
520708	-1049	228	106	-6.556302	-8.449559	-68.48392	0	10.32	4003	47	-90	5	5	0.4702529	1.535052	8	10	0.03	2000	-24.23474	40.92392	-91.39363
520798	3002	-3628	-74	-5.765675	-5.39041	-68.74901	0	10.32	4002	47	-78	5	5	0.4702529	1.557408	8	10	0.03	2000	-25.19025	40.92392	-91.39363
520836	3033	-3760	-607	-4.4044	-3.624292	-68.71746	0	10.32	4004	47	-82	5	5	0.4702529	1.568184	8	10	0.03	2000	-25.19025	40.92392	-91.39363
521015	2031	-6538	919	0.1285374	5.695235	-69.54459	0	10.32	4004	37	-78	5	5	0.4702529	1.599543	8	10	0.03	2000	-22.06342	40.92392	-91.39364
521099	771	-5587	-226	1.256039	14.18787	-69.3012	0	10.32	4004	28	300	5	5	0.4702529	1.589358	8	10	0.03	2000	-23.59396	40.92393	-91.39365
521201	4116	-1295	11	3.450948	18.65528	-70.083	0	10.32	4004	28	-69	5	5	0.4702529	1.561801	8	10	0.03	2000	-30.22336	40.92393	-91.39365
521228	5251	1983	2459	5.07738	17.04976	-71.06338	0	10.32	4004	27	-69	5	5	0.4702529	1.54046	8	10	0.03	2000	-30.22336	40.92393	-91.39365
521387	8021	4750	793	10.6873	11.27243	-72.52435	0	10.32	4004	18	-65	5	5	0.4702529	1.31439	8	10	0.03	2000	-25.04602	40.92393	-91.39365
521447	-6102	-32758	10542	9.680882	42.94605	-83.80779	0	10.32	4004	-300	-61	5	5	0.4702529	1.282065	8	10	0.03	2000	-13.3649	40.92393	-91.39366
521573	-20386	-32758	10015	-32.46137	84.76937	-100.4104	0	10.49	4002	7	-60	5	5	0.4702529	1.080317	8	10	0.03	2000	-3.116425	40.92393	-91.39366
521662	-28187	-32758	8391	-71.70748	104.5178	-110.2484	0	10.49	4003	-300	-56	5	5	0.4702529	1.064663	8	10	0.03	2000	201.5408	40.92394	-91.39367
521772	32508	-32758	6961	-73.17386	131.0487	-125.8195	0	10.49	4002	-3	-54	5	5	0.4702529	0.8446411	8	10	0.03	2000	107.4221	40.92394	-91.39368
521845	32508	-32758	19542	-146.3451	76.36782	-172.1237	0	10.49	4002	-17	-50	5	5	0.4702529	0.6699768	8	10	0.03	2000	191.9457	40.92394	-91.39368
521962	32508	9590	-32751	-83.66703	38.17385	-203.3335	0	10.49	4003	-13	-51	5	5	0.4702529	0.5711175	8	10	0.03	2000	196.6621	40.92394	-91.39368
522079	32508	-6494	31167	-27.66718	-7.432258	-250.6387	0	10.49	4006	0	0	5	5	0.4702529	0.3583987	3	10	0.03	2000	100.8923	40.92394	-91.39368
522158	-5950	19374	12321	-23.33022	-28.91048	-266.8885	0	10.49	4003	0	0	5	5	0.4702529	0.3182683	3	10	0.03	2000	201.6066	40.92395	-91.39368
522233	7408	7548	14124	-3.313188	-56.50879	-289.7514	0	10.49	4003	0	0	5	5	0.4702529	0.2343484	3	10	0.03	2000	-89.13446	40.92395	-91.39368
522330	-863	4150	1961	9.79409	-61.67556	-297.3373	0	10.49	4003	0	0	5	5	0.4702529	0.1829182	3	10	0.03	2000	-71.49786	40.92395	-91.39368
522429	-1424	-7969	-3047	6.68445	-56.31461	-294.8284	0	10.6	4003	0	0	5	5	0.4702529	0.1178121	1	10	0.03	2000	-62.62607	40.92395	-91.39368
522536	152	-17754	-549	2.643432	-22.63869	-292.9987	0	10.6	4003	0	0	5	5	0.4702529	0.02362468	1	10	0.03	2000	-75.1925	40.92395	-91.39368
522648	483	3129	-314	1.903975	-16.08629	-293.5627	0	10.6	4003	0	0	5	5	0.4702529	-0.02210714	1	10	0.03	2000	-68.73547	40.92395	-91.39368
522750	-97	-10	45	1.328081	-14.57856	-293.3438	0	10.6	4004	0	0	5	5	0.4702529	-0.08655713	1	10	0.03	2000	-66.38754	40.92395	-91.39368
522817	-84	-9	20	0.9814904	-13.40285	-293.3634	0	10.6	4002	0	0	5	5	0.4702529	-0.1195464	1	10	0.03	2000	-62.3699	40.92395	-91.39368
522919	-80	-15	8	0.6727802	-12.34804	-293.3764	0	10.6	4003	0	0	5	5	0.4702529	-0.1538226	1	10	0.03	2000	-59.2131	40.92395	-91.39368
523027	-81	3	14	0.1386763	-10.51306	-293.4043	0	10.6	4003	0	0	5	5	0.4702529	-0.2017364	1	10	0.03	2000	-54.0538	40.92395	-91.39368
523168	-80	2	13	-0.3126031	-8.987632	-293.4361	0	10.6	4002	0	0	5	5	0.4702529	-0.2462607	1	10	0.03	2000	-50.08554	40.92395	-91.39368
523246	-77	4	12	-0.6079426	-8.018305	-293.4576	0	10.6	4004	0	0	5	5	0.4702529	-0.2641051	1	10	0.03	2000	-46.84009	40.92395	-91.39368
523347	-78	4	16	-0.8622389	-7.171477	-293.4792	0	10.6	4003	0	0	5	5	0.4702529	-0.2833859	1	10	0.03	2000	-45.77808	40.92395	-91.39368
523421	-73	4	12	-1.01169	-6.661495	-293.4935	0	10.6	4002	0	0	5	5	0.4702529	-0.2920114	1	10	0.03	2000	-44.59412	40.92395	-91.39368
523515	-71	4	16	-1.211213	-5.988444	-293.5144	0	10.6	4003	0	0	5	5	0.4702529	-0.3080766	1	10	0.03	2000	-43.82092	40.92395	-91.39368
523618	-75	3	12	-1.32459	-5.588577	-293.5286	0	10.6	4002	0	0	5	5	0.4702529	-0.3223455	1	10	0.03	2000	-42.93542	40.92395	-91.39368
523774	-85	1	11	-1.618359	-4.571568	-293.5696	0	10.6	4002	0	0	5	5	0.4702529	-0.3285299	1	10	0.03	2000	-40.61514	40.92395	-91.39368
523823	-80	2	14	-1.661545	-4.429687	-293.5768	0	10.6	4003	0	0	5	5	0.4702529	-0.3300056	1	10	0.03	2000	-39.81339	40.92395	-91.39368
523922	-79	2	20	-1.772228	-4.035237	-293.5986	0	10.6	4004	0	0	5	5	0.4702529	-0.3368341	1	10	0.03	2000	-39.49292	40.92395	-91.39368
524064	-81	8	7	-1.902414	-3.587402	-293.6267	0	10.6	4002	0	0	5	5	0.4702529	-0.3649305	1	10	0.03	2000	-38.83594	40.92395	-91.39368
524128	-73	0	15	-1.961898	-3.397738	-293.6427	0	10.6	4002	0	0	5	5	0.4702529	-0.3689381	1	10	0.03	2000	-38.23431	40.92395	-91.39368
524232	-77	4	17	-2.014952	-3.216331	-293.6554	0	10.6	4003	0	0	5	5	0.4702529	-0.3934657	1	10	0.03	2000	-37.72479	40.92395	-91.39368
524402	-76	1	14	-2.142117	-2.769373	-293.6985	0	10.66	4003	0	0	5	5	0.4702529	-0.4248341	1	10	0.03	2000	-36.90872	40.92395	-91.39368
524440	-76	1	14	-2.142117	-2.769373	-293.6985	0	10.66	4003	0	0	5	5	0.4702529	-0.4265512	1	10	0.03	2000	-36.90872	40.92395	-91.39368
524567	-78	3	12	-2.234911	-2.477118	-293.732	0	10.66	4003	0	0	5	5	0.4702529	-0.426432	1	10	0.03	2000	-36.47772	40.92395	-91.39368
524644	-77	1	8	-2.260829	-2.376619	-293.745	0	10.66	4002	0	0	5	5	0.4702529	-0.4215291	1	10	0.03	2000	-36.4592	40.92395	-91.39368
524786	-77	5	16	-2.311361	-2.206563	-293.7712	0	10.66	4004	0	0	5	5	0.4702529	-0.4013267	1	10	0.03	2000	-35.99612	40.92395	-91.39368
524866	-81	0	9	-2.339392	-2.101445	-293.7907	0	10.66	4002	0	0	5	5	0.4702529	-0.3901367	1	10	0.03	2000	-36.25833	40.92395	-91.39368
524937	-74	0	8	-2.356587	-2.036281	-293.802	0	10.66	4003	0	0	5	5	0.4702529	-0.3861938	1	10	0.03	2000	-35.75558	40.92395	-91.39368
525049	-77	1	11	-2.377603	-1.948604	-293.8214	0	10.66	4003	0	0	5	5	0.4702529	-0.3872412	1	10	0.03	2000	-35.39813	40.92395	-91.39368
525144	-76	4	13	-2.405035	-1.845503	-293.8468	0	10.66	4003	0	0	5	5	0.4702529	-0.3913575	1	10	0.03	2000	-35.76379	40.92395	-91.39368
525257	-72	2	11	-2.422681	-1.790305	-293.8679	0	10.72	4004	0	0	5	5	0.4702529	-0.396503	1	10	0.03	2000	-35.48257	40.92395	-91.39368
525352	-70	0	12	-2.429831	-1.758049	-293.8805	0	10.72	4003	0	0	5	5	0.4702529	-0.4027717	1	10	0.03	2000	-35.64465	40.92395	-91.39368
525449	-82	-4	10	-2.449063	-1.69093	-293.9054	0	10.72	4002	0	0	5	5	0.4702529	-0.4115776	1	10	0.03	2000	-35.15506	40.92395	-91.39368
525557	-74	3	17	-2.456093	-1.660655	-293.9178	0	10.72	4003	0	0	5	5	0.4702529	-0.41633	1	10	0.03	2000	-35.09567	40.92395	-91.39368
525686	-64	6	10	-2.47464	-1.587814	-293.9461	0	10.72	4003	0	0	5	5	0.4702529	-0.4074024	1	10	0.03	2000	-34.85089	40.92395	-91.39368
525758	-77	3	9	-2.477905	-1.583145	-293.9518	0	10.72	4004	0	0	5	5	0.4702529	-0.4046628	1	10	0.03	2000	-34.97034	40.92395	-91.39368
525970	-77	3	15	-2.489163	-1.523808	-293.9924	0	10.72	4005	0	0	5	5	0.4702529	-0.398015	1	10	0.03	2000	-34.9017	40.92395	-91.39368
526016	-67	5	10	-2.489613	-1.51531	-293.9986	0	10.72	4004	0	0	5	5	0.4702529	-0.3925158	1	10	0.03	2000	-34.9017	40.92395	-91.39368
526070	-72	3	12	-2.493898	-1.501935	-294.0108	0	10.72	4003	0	0	5	5	0.4702529	-0.3920562	1	10	0.03	2000	-34.87662	40.92395	-91.39368
526171	-71	-2	8	-2.495294	-1.488416	-294.0227	0	10.6	4004	0	0	5	5	0.4702529	-0.3908573	1	10	0.03	2000	-34.86011	40.92395	-91.39368
526284	-78	4	18	-2.49682	-1.465352	-294.0538	0	10.6	4003	0	0	5	5	0.4702529	-0.3866159	1	10	0.03	2000	-34.96823	40.92395	-91.39368
526353	-70	-1	12	-2.498191	-1.455276	-294.0662	0	10.6	4002	0	0	5	5	0.4702529	-0.3835548	1	10	0.03	2000	-34.79483	40.92395	-91.39368
526463	-74	-1	8	-2.49728	-1.449075	-294.0777	0	10.6	4004	0	0	5	5	0.4702529	-0.3716222	1	10	0.03	2000	-34.71655	40.92395	-91.39368
526630	-78	5	6	-2.50322	-1.418024	-294.1102	0	10.6	4002	0	0	5	5	0.4702529	-0.3600252	1	10	0.03	2000	-34.7608	40.92395	-91.39368
526674	-67	0	11	-2.503454	-1.412761	-294.116	0	10.6	4003	0	0	5	5	0.4702529	-0.3603989	1	10	0.03	2000	-34.5929	40.92395	-91.39368
526765	-72	7	10	-2.500683	-1.402115	-294.1305	0	10.6	4003	0	0	5	5	0.4702529	-0.3667662	1	10	0.03	2000	-34.88947	40.92395	-91.39368
526899	-77	2	13	-2.493814	-1.400644	-294.152	0	10.6	4003	0	0	5	5	0.4702529	-0.3738112	1	10	0.03	2000	-34.74582	40.92395	-91.39368
527001	-66	-3	15	-2.502592	-1.395572	-294.1726	0	10.6	4004	0	0	5	5	0.4702529	-0.3786976	1	10	0.03	2000	-34.65479	40.92395	-91.39368
527075	-70	6	8	-2.494613	-1.389454	-294.1834	0	10.72	4002	0	0	5	5	0.4702529	-0.3753908	1	10	0.03	2000	-34.72403	40.92395	-91.39368
527147	-68	1	7	-2.493572	-1.387815	-294.195	0	10.72	4004	0	0	5	5	0.4702529	-0.3730709	1	10	0.03	2000	-34.94946	40.92395	-91.39368
527249	-68	3	18	-2.493801	-1.389347	-294.2183	0	10.72	4004	0	0	5	5	0.4702529	-0.3658906	1	10	0.03	2000	-34.79678	40.92395	-91.39368
527359	-65	0	5	-2.484823	-1.393636	-294.2325	0	10.72	4002	0	0	5	5	0.4702529	-0.3683762	1	10	0.03	2000	-34.73862	40.92395	-91.39368
527445	-72	4	10	-2.484293	-1.39296	-294.2426	0	10.72	4004	0	0	5	5	0.4702529	-0.3728883	1	10	0.03	2000	-34.59644	40.92395	-91.39368
527554	-67	2	11	-2.480506	-1.374607	-294.2654	0	10.72	4004	0	0	5	5	0.4702529	-0.3834447	1	10	0.03	2000	-34.95328	40.92395	-91.39368
527692	-73	2	10	-2.467443	-1.374583	-294.2856	0	10.72	4004	0	0	5	5	0.4702529	-0.4004954	1	10	0.03	2000	-34.75006	40.92395	-91.39368
527741	-66	0	12	-2.466944	-1.3754	-294.2915	0	10.72	4004	0	0	5	5	0.4702529	-0.4077118	1	10	0.03	2000	-34.75006	40.92395	-91.39368
527891	-68	5	10	-2.459037	-1.369372	-294.3139	0	10.72	4003	0	0	5	5	0.4702529	-0.4295362	1	10	0.03	2000	-34.92667	40.92395	-91.39368
528007	-72	2	13	-2.452789	-1.367576	-294.3335	0	10.66	4003	0	0	5	5	0.4702529	-0.4441724	1	10	0.03	2000	-34.46295	40.92395	-91.39368
528105	-70	6	14	-2.452791	-1.368025	-294.3465	0	10.66	4002	0	0	5	5	0.4702529	-0.4490077	1	10	0.03	2000	-34.54788	40.92395	-91.39368
528150	-68	2	8	-2.448471	-1.364986	-294.3568	0	10.66	4003	0	0	5	5	0.4702529	-0.4497276	1	10	0.03	2000	-34.61862	40.92395	-91.39368
528234	-70	3	6	-2.449195	-1.366673	-294.3662	0	10.66	4004	0	0	5	5	0.4702529	-0.4505594	1	10	0.03	2000	-34.99396	40.92395	-91.39368
528337	-68	3	15	-2.442937	-1.3716	-294.3877	0	10.66	4004	0	0	5	5	0.4702529	-0.4513289	1	10	0.03	2000	-34.93253	40.92395	-91.39368
528445	-70	5	9	-2.442145	-1.371736	-294.3978	0	10.66	4004	0	0	5	5	0.4702529	-0.4495397	1	10	0.03	2000	-34.78354	40.92395	-91.39368
528548	-67	7	7	-2.438653	-1.368552	-294.4128	0	10.66	4004	0	0	5	5	0.4702529	-0.4389153	1	10	0.03	2000	-34.57648	40.92395	-91.39368
528724	-73	4	8	-2.452757	-1.369816	-294.4419	0	10.66	4004	0	0	5	5	0.4702529	-0.420984	1	10	0.03	2000	-34.55252	40.92395	-91.39368
528805	-64	0	6	-2.450673	-1.364265	-294.4526	0	10.66	4002	0	0	5	5	0.4702529	-0.4140432	1	10	0.03	2000	-34.76785	40.92395	-91.39368
528871	-73	1	15	-2.446929	-1.365127	-294.4658	0	10.66	4004	0	0	5	5	0.4702529	-0.3990178	1	10	0.03	2000	-34.77011	40.92395	-91.39368
528910	-62	3	7	-2.439846	-1.369586	-294.4751	0	10.66	4003	0	0	5	5	0.4702529	-0.3973675	1	10	0.03	2000	-34.7793	40.92395	-91.39368
529052	-68	0	13	-2.436325	-1.367208	-294.4947	0	10.66	4003	0	0	5	5	0.4702529	-0.3927583	1	10	0.03	2000	-35.01135	40.92395	-91.39368
529156	-69	0	9	-2.436915	-1.372371	-294.5099	0	10.66	4002	0	0	5	5	0.4702529	-0.3900367	1	10	0.03	2000	-34.79208	40.92395	-91.39368
529266	-67	-4	3	-2.441579	-1.384616	-294.5282	0	10.66	4002	0	0	5	5	0.4702529	-0.3873834	1	10	0.03	2000	-35.01355	40.92395	-91.39368
529306	-62	4	11	-2.44362	-1.386361	-294.5324	0	10.66	4002	0	0	5	5	0.4702529	-0.3861393	1	10	0.03	2000	-35.02368	40.92395	-91.39368
529412	-69	0	9	-2.443255	-1.386147	-294.5438	0	10.66	4003	0	0	5	5	0.4702529	-0.3822888	1	10	0.03	2000	-35.25223	40.92395	-91.39368
529592	-70	6	10	-2.442709	-1.385885	-294.5747	0	10.66	4003	0	0	5	5	0.4702529	-0.3781854	1	10	0.03	2000	-34.64984	40.92395	-91.39368
529689	-69	4	13	-2.442667	-1.388233	-294.5848	0	10.66	4003	0	0	5	5	0.4702529	-0.3711411	1	10	0.03	2000	-34.79974	40.92395	-91.39368
529715	-67	7	5	-2.433881	-1.384784	-294.5954	0	10.66	4004	0	0	5	5	0.4702529	-0.3680967	1	10	0.03	2000	-34.81046	40.92395	-91.39368
529817	-68	5	13	-2.4301	-1.388666	-294.6113	0	10.66	4004	0	0	5	5	0.4702529	-0.3668166	1	10	0.03	2000	-34.88528	40.92395	-91.39368
529919	-67	-2	8	-2.433854	-1.390524	-294.6189	0	10.66	4003	0	0	5	5	0.4702529	-0.3658046	1	10	0.03	2000	-34.60983	40.92395	-91.39368
530025	-64	1	10	-2.437396	-1.399322	-294.6378	0	10.66	4004	0	0	5	5	0.4702529	-0.3694401	1	10	0.03	2000	-34.67493	40.92395	-91.39368
530123	-70	2	11	-2.448827	-1.40958	-294.6528	0	10.66	4004	0	0	5	5	0.4702529	-0.3710336	1	10	0.03	2000	-35.19379	40.92395	-91.39368
530241	-73	-4	10	-2.448404	-1.409446	-294.672	0	10.66	4004	0	0	5	5	0.4702529	-0.3760658	1	10	0.03	2000	-34.81354	40.92395	-91.39368
530326	-66	1	8	-2.452037	-1.411145	-294.682	0	10.66	4003	0	0	5	5	0.4702529	-0.3728763	1	10	0.03	2000	-34.82108	40.92395	-91.39368
530432	-74	3	8	-2.440502	-1.406869	-294.6971	0	10.66	4002	0	0	5	5	0.4702529	-0.3668637	1	10	0.03	2000	-34.82516	40.92395	-91.39368
530597	-69	3	7	-2.436281	-1.410119	-294.7197	0	10.66	4002	0	0	5	5	0.4702529	-0.3483315	1	10	0.03	2000	-34.68411	40.92395	-91.39368
530645	-67	3	5	-2.435142	-1.41919	-294.7245	0	10.66	4004	0	0	5	5	0.4702529	-0.3424112	1	10	0.03	2000	-34.68411	40.92395	-91.39368
530737	-70	-3	9	-2.447596	-1.433599	-294.7441	0	10.77	4002	0	0	5	5	0.4702529	-0.3360803	1	10	0.03	2000	-34.63727	40.92395	-91.39368
530858	-72	1	7	-2.458151	-1.421048	-294.7594	0	10.77	4003	0	0	5	5	0.4702529	-0.3293178	1	10	0.03	2000	-34.63199	40.92395	-91.39368
530940	-63	8	8	-2.449806	-1.413033	-294.7689	0	10.77	4004	0	0	5	5	0.4702529	-0.3284457	1	10	0.03	2000	-34.82016	40.92395	-91.39368
531042	-69	-2	10	-2.446436	-1.411002	-294.7888	0	10.77	4002	0	0	5	5	0.4702529	-0.3240432	1	10	0.03	2000	-34.8205	40.92395	-91.39368
531152	-122	541	20	-2.489511	-1.511697	-294.8326	0	10.77	4002	0	0	5	5	0.4702529	-0.322326	1	10	0.03	2000	-34.40839	40.92395	-91.39368
531262	-29	-283	248	-2.294945	-1.604447	-294.7953	0	10.77	4002	0	0	5	5	0.4702529	-0.3157339	1	10	0.03	2000	-33.18124	40.92395	-91.39368
531339	-74	622	-64	-2.42086	-1.515053	-294.8062	0	10.77	4003	0	0	5	5	0.4702529	-0.3051267	1	10	0.03	2000	-33.98367	40.92395	-91.39368
531437	-91	-22	7	-2.638407	-2.255637	-294.9063	0	10.77	4004	0	0	5	5	0.4702529	-0.2941497	1	10	0.03	2000	-33.63669	40.92395	-91.39368
531537	-82	142	-27	-2.628897	-2.238697	-294.9019	0	10.77	4003	0	0	5	5	0.4702529	-0.2700305	1	10	0.03	2000	-33.75287	40.92395	-91.39368
531646	-13	-113	14	-2.637001	-2.318713	-294.8649	0	10.72	4003	0	0	5	5	0.4702529	-0.2533554	1	10	0.03	2000	-33.47607	40.92395	-91.39368
531740	-809	-28	31	-2.663386	-2.419402	-294.9276	0	10.72	4004	0	0	5	5	0.4702529	-0.2350309	1	10	0.03	2000	-33.84296	40.92395	-91.39368
