time(ms)	gyro_x(deg/s)	gyro_y(deg/s)	gyro_z(deg/s)	orientation_roll(deg)	orientation_pitch(deg)	orientation_yaw(deg)	throttle	battery(V)	loop_time(uS)	pid_output_roll	pid_output_pitch	pid_output_yaw	pid_output_throttle	ultrasonic_alt	baro_alt	flight_mode	p_gain_altitude	i_gain_altitude	d_gain_altitude	compass_heading	latitude	longitude
250884	1886	1076	-759	7.549806	-6.27791	-22.57092	0	10.55	4003	0	0	5	5	0.4301218	0.6133026	3	10	0.03	2000	3.394322	40.92394	-91.39362
251008	-1704	-2170	-79	4.749892	-6.59947	-23.10646	0	10.55	4003	0	0	5	5	0.4301218	0.5553938	3	10	0.03	2000	7.131081	40.92393	-91.39362
251040	-1488	-3914	-2211	3.459661	-5.098385	-22.98789	0	10.55	4004	0	0	5	5	0.4301218	0.5452905	3	10	0.03	2000	8.469808	40.92393	-91.39362
251135	-6049	1520	817	-2.03442	-4.023891	-22.62222	0	10.55	4004	0	0	5	5	0.4301218	0.5041181	3	10	0.03	2000	9.925568	40.92393	-91.39362
251236	-2749	-397	-1501	-10.73167	-5.215878	-21.38954	0	10.55	4002	0	0	5	5	0.4301218	0.4824151	3	10	0.03	2000	5.064044	40.92393	-91.39362
251346	950	-1996	-1656	-10.66354	-2.275042	-20.55154	0	10.55	4003	0	0	5	5	0.4301218	0.4695857	3	10	0.03	2000	3.370316	40.92393	-91.39362
251489	1683	152	40	-4.661103	-4.401307	-21.74031	0	11.11	4004	0	0	5	5	0.4301218	0.4334441	3	10	0.03	2000	0.1327613	40.92393	-91.39362
251523	1683	152	40	-4.661103	-4.401307	-21.74031	0	11.11	4004	0	0	5	5	0.4301218	0.4292384	3	10	0.03	2000	0.1327613	40.92393	-91.39362
251628	524	-859	755	-1.449134	-4.358648	-22.31312	0	11.11	4003	0	0	5	5	0.4301218	0.4164231	3	10	0.03	2000	-0.4233093	40.92393	-91.39362
251763	-375	345	-1738	-1.636171	-1.92625	-22.85401	0	11.11	4003	0	0	5	5	0.4301218	0.3908259	3	10	0.03	2000	0.1765104	40.92393	-91.39362
251828	535	-774	904	-1.491256	-2.607423	-22.94847	0	11.11	4002	0	0	5	5	0.4301218	0.3910516	3	10	0.03	2000	0.6397035	40.92393	-91.39362
251945	-97	-292	-429	-1.695767	-1.925904	-22.31309	0	11.11	4004	0	0	5	5	0.4301218	0.4012612	3	10	0.03	2000	1.919062	40.92393	-91.39362
252063	-217	-885	-447	-1.322445	-2.278165	-21.19281	0	11.11	4002	0	0	5	5	0.4301218	0.4112875	3	10	0.03	2000	2.363843	40.92393	-91.39362
252165	844	1403	272	-1.220548	-1.76738	-21.21534	0	11.11	4003	0	0	5	5	0.4301218	0.4221321	3	10	0.03	2000	0.7019859	40.92393	-91.39362
252246	946	1244	1658	-0.1896325	-3.231903	-21.2965	0	11.11	4003	0	0	5	5	0.4301218	0.4351146	3	10	0.03	2000	2.155092	40.92393	-91.39362
252423	-205	-833	905	-0.01149292	0.5043109	-22.11403	0	11.23	4004	0	0	5	5	0.4301218	0.4634463	3	10	0.03	2000	4.8878	40.92393	-91.39362
252446	138	-1378	-587	0.2507413	0.130484	-22.30948	0	11.23	4003	0	0	5	5	0.4301218	0.4634463	3	10	0.03	2000	7.321767	40.92393	-91.39362
252574	-107	306	-267	0.3737338	-1.767862	-23.5547	0	11.23	4003	0	0	5	5	0.4301218	0.4875494	3	10	0.03	2000	6.369173	40.92393	-91.39362
252656	264	168	329	-0.5212839	-2.161749	-23.49109	0	11.23	4004	0	0	5	5	0.4301218	0.5027894	3	10	0.03	2000	6.910989	40.92393	-91.39362
252811	-992	-1475	-1278	-2.551123	0.1598554	-22.98153	0	11.23	4003	0	0	5	5	0.4301218	0.5361841	3	10	0.03	2000	8.144559	40.92393	-91.39362
252885	1838	1478	-145	-0.8009027	-1.651456	-22.18488	0	11.23	4004	0	0	5	5	0.4301218	0.54839	3	10	0.03	2000	5.720379	40.92393	-91.39362
252962	2644	2077	-952	1.214161	-2.978372	-21.48714	0	11.23	4002	0	0	5	5	0.4301218	0.5497807	3	10	0.03	2000	6.655776	40.92393	-91.39362
253076	3725	3402	-991	6.642177	-6.763551	-20.07673	0	11.23	4002	0	0	5	5	0.4301218	0.5645089	3	10	0.03	2000	7.965217	40.92392	-91.39362
253194	4127	5078	-690	10.00823	-10.68544	-19.05375	0	11.23	4002	0	0	5	5	0.4301218	0.5672356	3	10	0.03	2000	12.65255	40.92392	-91.39362
253308	-998	9466	-8315	-13.97129	-11.68427	-23.25401	0	11.34	4002	0	0	5	5	0.4301218	0.5550202	3	10	0.03	2000	16.17173	40.92392	-91.39362
253475	8529	5541	907	6.989872	-16.3651	-20.28188	0	11.34	4002	0	0	5	5	0.4301218	0.5253407	3	10	0.03	2000	4.214251	40.92392	-91.39362
253524	6607	11323	-2619	11.00469	-21.20107	-19.96696	0	11.34	4002	0	0	5	5	0.4301218	0.5169622	3	10	0.03	2000	6.13534	40.92392	-91.39362
253586	6873	13576	-6020	13.51211	-28.33669	-17.13582	0	11.34	4004	0	0	5	5	0.4301218	0.5106601	3	10	0.03	2000	6.13534	40.92392	-91.39362
253700	218	-4867	2876	20.59974	-35.51979	-12.10541	0	11.34	4002	0	0	5	5	0.4301218	0.4946155	3	10	0.03	2000	8.044965	40.92392	-91.39362
253818	-9671	3042	1428	15.15942	-27.14724	-19.69607	0	11.34	4003	0	0	5	5	0.4301218	0.4685125	3	10	0.03	2000	8.3685	40.92392	-91.39362
253874	-10479	2317	2533	11.22154	-28.05967	-20.76359	0	11.34	4004	0	0	5	5	0.4301218	0.4415787	3	10	0.03	2000	8.154197	40.92392	-91.39362
253992	-11070	-6683	1136	-0.2343131	-26.22007	-25.22979	0	11.34	4002	0	0	5	5	0.4301218	0.4265922	3	10	0.03	2000	8.601998	40.92392	-91.39362
254074	-4918	-7147	-7599	-15.75919	-11.37055	-21.61448	0	11.34	4004	0	0	5	5	0.4301218	0.4125239	3	10	0.03	2000	4.87113	40.92392	-91.39362
254249	-2360	-3615	-9076	-18.91249	3.087213	-1.867231	0	11.34	4003	0	0	5	5	0.4301218	0.4016905	3	10	0.03	2000	-10.21155	40.92392	-91.39362
254297	-1427	208	-746	-20.22532	11.97277	10.62738	0	11.34	4004	0	0	5	5	0.4301218	0.4016905	3	10	0.03	2000	-19.09851	40.92392	-91.39362
254396	-893	9109	8579	-25.37021	1.243401	3.769727	0	11.34	4004	0	0	5	5	0.4301218	0.417476	3	10	0.03	2000	-27.51547	40.92392	-91.39362
254495	7381	307	3875	-20.97857	-8.160439	-2.564002	0	11.34	4002	0	0	5	5	0.4301218	0.4253492	3	10	0.03	2000	-25.92642	40.92392	-91.39362
254583	-3034	-297	2783	-13.36702	-10.50554	-13.06485	0	11.34	4002	0	0	5	5	0.4301218	0.4314013	3	10	0.03	2000	-13.15906	40.92392	-91.39362
254714	145	-5025	-1293	-19.55372	-5.802027	-12.56647	0	11.34	4004	0	0	5	5	0.4301218	0.4264876	3	10	0.03	2000	-8.04892	40.92392	-91.39362
254900	-8394	4539	5004	-14.31426	11.02933	-14.28731	0	11.34	4003	0	0	5	5	0.4301218	0.4124533	3	10	0.03	2000	-13.44476	40.92393	-91.39362
255003	-65	1183	3366	-20.91525	7.647463	-18.74823	0	11.34	4002	0	0	5	5	0.4301218	0.4073608	3	10	0.03	2000	-9.839478	40.92393	-91.39362
255168	741	-2149	-743	-14.00299	6.121654	-22.98046	0	11.34	4004	0	0	5	5	0.4301218	0.408105	3	10	0.03	2000	-1.847656	40.92393	-91.39362
255212	1684	-1171	-4432	-13.22711	8.218263	-19.81889	0	11.34	4003	0	0	5	5	0.4301218	0.4079241	3	10	0.03	2000	-1.432831	40.92393	-91.39362
255428	-601	1840	-691	-10.74477	13.51677	-8.94482	0	11.34	4003	0	0	5	5	0.4301218	0.4185925	3	10	0.03	2000	2.164088	40.92393	-91.39362
255584	-6967	2330	-2795	-16.67208	10.1647	-3.826419	0	11.34	4003	0	0	5	5	0.4301218	0.4243137	3	10	0.03	2000	2.806436	40.92393	-91.39362
255672	-6662	2177	-2265	-24.53922	7.83594	-0.970633	0	11.34	4002	0	0	5	5	0.4301218	0.4137093	3	10	0.03	2000	-1.988251	40.92393	-91.39363
255712	-4853	2038	2230	-29.73292	4.763317	-0.8665993	0	11.34	4002	0	0	5	5	0.4301218	0.4042476	3	10	0.03	2000	-7.292755	40.92393	-91.39363
255865	3183	1720	3140	-29.08333	-1.279805	-7.482671	0	11.34	4002	0	0	5	5	0.4301218	0.3871693	3	10	0.03	2000	-7.523346	40.92393	-91.39363
255960	3703	4999	2698	-20.78622	-6.602051	-12.26534	0	11.34	4003	0	0	5	5	0.4301218	0.3583908	3	10	0.03	2000	-7.6427	40.92393	-91.39363
256023	4125	-2466	5153	-14.52073	-8.779521	-16.44722	0	11.34	4004	0	0	5	5	0.4301218	0.3503804	3	10	0.03	2000	-9.609589	40.92393	-91.39363
256258	1148	5672	2601	-6.498644	-15.17227	-37.10999	0	11.34	4002	0	0	5	5	0.4301218	0.3393367	3	10	0.03	2000	7.44656	40.92393	-91.39363
256340	1661	3527	5651	-3.011584	-26.46696	-44.19476	0	11.34	4003	0	0	5	5	0.4301218	0.3300042	3	10	0.03	2000	14.62258	40.92393	-91.39363
256486	2884	5550	3599	6.635604	-36.88889	-55.50082	0	11.34	4004	0	0	5	5	0.4301218	0.3103431	3	10	0.03	2000	29.3581	40.92393	-91.39364
256554	-138	3230	1017	8.713899	-40.05372	-58.29554	0	11.34	4003	0	0	5	5	0.4301218	0.3063026	3	10	0.03	2000	33.24318	40.92393	-91.39364
256665	331	-944	-4925	3.852878	-41.08684	-54.31267	0	11.34	4003	0	0	5	5	0.4301218	0.2967106	3	10	0.03	2000	32.43937	40.92393	-91.39364
256773	1821	-52	-3871	-0.7285143	-41.96716	-46.27869	0	11.34	4003	0	0	5	5	0.4301218	0.2867358	3	10	0.03	2000	26.70312	40.92393	-91.39364
256842	4563	921	-1397	2.625679	-45.06924	-41.44213	0	11.34	4003	0	0	5	5	0.4301218	0.2791499	3	10	0.03	2000	18.73679	40.92393	-91.39364
256908	-45	305	-2897	3.22958	-46.14592	-39.62731	0	11.34	4003	0	0	5	5	0.4301218	0.2733178	3	10	0.03	2000	18.10532	40.92393	-91.39364
257060	1526	585	-3697	-9.018508	-45.09254	-28.50964	0	11.4	4003	0	0	5	5	0.4301218	0.2705458	1	10	0.03	2000	8.964213	40.92394	-91.39364
257112	2010	-1816	4282	-4.064118	-45.14705	-30.53329	0	11.4	4003	0	0	5	5	0.4301218	0.2705458	1	10	0.03	2000	5.22258	40.92394	-91.39364
257271	-1323	-9021	-2633	-5.18363	-33.68484	-32.13976	0	11.4	4004	0	0	5	5	0.4301218	0.277516	1	10	0.03	2000	15.59171	40.92394	-91.39364
257366	-7923	-5693	-6127	-18.03791	-12.35927	-20.47024	0	11.4	4003	0	0	5	5	0.4301218	0.2948747	1	10	0.03	2000	16.9734	40.92394	-91.39364
257404	-8977	-3538	-2783	-21.77826	-9.390453	-18.24045	0	11.4	4002	0	0	5	5	0.4301218	0.2978186	1	10	0.03	2000	16.9734	40.92394	-91.39364
257553	787	6355	812	-25.40421	-19.12471	-16.4184	0	11.4	4004	0	0	5	5	0.4301218	0.3176832	1	10	0.03	2000	1.998366	40.92394	-91.39364
257701	-528	1617	1612	-22.02585	-31.38776	-20.41972	0	11.4	4002	0	0	5	5	0.4301218	0.321961	1	10	0.03	2000	-15.47986	40.92394	-91.39364
257802	-1687	1607	2723	-20.39558	-34.73721	-27.53044	0	11.4	4002	0	0	5	5	0.4301218	0.3074405	1	10	0.03	2000	-12.46402	40.92394	-91.39364
257887	361	2114	3094	-18.86138	-37.88163	-30.60394	0	11.4	4002	0	0	5	5	0.4301218	0.2793284	1	10	0.03	2000	-11.49463	40.92394	-91.39364
257992	340	3152	369	-16.89206	-40.90479	-32.93277	0	11.4	4002	0	0	5	5	0.4301218	0.2458271	1	10	0.03	2000	-11.49463	40.92394	-91.39364
258097	457	-225	2756	-19.24911	-39.63719	-30.43721	0	11.4	4003	0	0	5	5	0.4301218	0.1834416	1	10	0.03	2000	-12.29321	40.92394	-91.39364
258263	7067	6164	-142	-6.591824	-43.67319	-36.93205	0	11.4	4004	0	0	5	5	0.4301218	0.09659529	1	10	0.03	2000	-3.398438	40.92394	-91.39364
258368	-383	-678	-709	4.768881	-55.30334	-36.1322	0	11.4	4003	0	0	5	5	0.4301218	0.04032044	1	10	0.03	2000	-1.937469	40.92394	-91.39364
258397	252	-1584	709	4.030804	-54.53515	-36.03635	0	11.4	4003	0	0	5	5	0.4301218	0.04032044	1	10	0.03	2000	-1.921844	40.92394	-91.39364
258523	-62	-5996	-342	3.378273	-47.24221	-35.7319	0	11.4	4003	0	0	5	5	0.4301218	-0.06640403	1	10	0.03	2000	-2.40033	40.92394	-91.39364
258589	85	-6568	-367	3.037985	-43.70565	-35.54774	0	11.4	4004	0	0	5	5	0.4301218	-0.1019201	1	10	0.03	2000	-2.40033	40.92394	-91.39363
258744	-268	-16384	-444	1.578897	-16.08589	-34.63619	0	11.4	4004	0	0	5	5	0.4301218	-0.1580694	1	10	0.03	2000	-2.830414	40.92393	-91.39363
258794	-369	-80	-2586	0.9699842	-7.039766	-31.97739	0	11.4	4002	0	0	5	5	0.4301218	-0.1723957	1	10	0.03	2000	-3.106293	40.92393	-91.39363
258917	-81	78	63	0.09901795	-4.015281	-31.33106	0	11.4	4004	0	0	5	5	0.4301218	-0.2046606	1	10	0.03	2000	-2.565277	40.92393	-91.39363
259008	-144	149	412	-0.1135451	-3.089613	-31.46115	0	11.4	4004	0	0	5	5	0.4301218	-0.234428	1	10	0.03	2000	-2.539612	40.92393	-91.39363
259116	-219	2860	-874	0.225817	-4.712606	-32.59646	0	11.4	4004	0	0	5	5	0.4301218	-0.2721543	1	10	0.03	2000	-1.325134	40.92393	-91.39363
259201	-381	72	-276	-0.4305125	-3.493739	-32.29548	0	11.4	4003	0	0	5	5	0.4301218	-0.3234747	1	10	0.03	2000	-1.19516	40.92393	-91.39363
259361	-89	-18	46	-0.5714378	-2.743992	-32.23742	0	11.4	4004	0	0	5	5	0.4301218	-0.3660116	1	10	0.03	2000	-0.6986084	40.92393	-91.39363
259466	-70	-7	12	-0.7089998	-2.186997	-32.26375	0	11.4	4002	0	0	5	5	0.4301218	-0.3844411	1	10	0.03	2000	-0.2705383	40.92393	-91.39363
259503	-70	-7	12	-0.7089998	-2.186997	-32.26375	0	11.4	4002	0	0	5	5	0.4301218	-0.394225	1	10	0.03	2000	-0.2705383	40.92393	-91.39363
259606	-70	7	6	-0.8180552	-1.638641	-32.28944	0	11.4	4003	0	0	5	5	0.4301218	-0.4054381	1	10	0.03	2000	-0.07077026	40.92393	-91.39363
259758	-71	2	12	-0.8948138	-1.294985	-32.31245	0	11.46	4003	0	0	5	5	0.4301218	-0.4217066	1	10	0.03	2000	0.09768989	40.92393	-91.39363
259829	-71	2	12	-0.8948138	-1.294985	-32.31245	0	11.46	4003	0	0	5	5	0.4301218	-0.422298	1	10	0.03	2000	0.09768989	40.92393	-91.39363
259905	-73	0	6	-0.9462199	-0.9969	-32.33186	0	11.46	4002	0	0	5	5	0.4301218	-0.4198623	1	10	0.03	2000	-0.0491333	40.92393	-91.39363
260042	-71	2	11	-0.9904898	-0.7513056	-32.3542	0	11.46	4002	0	0	5	5	0.4301218	-0.4025845	1	10	0.03	2000	0.04524334	40.92393	-91.39364
260138	-67	2	7	-1.024849	-0.5412334	-32.37434	0	11.46	4002	0	0	5	5	0.4301218	-0.3918374	1	10	0.03	2000	0.1087814	40.92393	-91.39364
260194	-72	8	7	-1.031527	-0.4924752	-32.37709	0	11.46	4003	0	0	5	5	0.4301218	-0.3750655	1	10	0.03	2000	0.1087814	40.92393	-91.39364
260328	-68	-1	13	-1.063479	-0.3384166	-32.39693	0	11.46	4004	0	0	5	5	0.4301218	-0.363121	1	10	0.03	2000	0.1802681	40.92393	-91.39364
260446	-70	4	8	-1.098577	-0.2146477	-32.41896	0	11.46	4004	0	0	5	5	0.4301218	-0.361708	1	10	0.03	2000	0.4802445	40.92393	-91.39364
260514	-71	4	9	-1.095014	-0.1632737	-32.42909	0	11.46	4004	0	0	5	5	0.4301218	-0.361708	1	10	0.03	2000	0.2428907	40.92393	-91.39364
260664	-66	-4	4	-1.129921	-0.1033142	-32.44496	0	11.46	4003	0	0	5	5	0.4301218	-0.3797032	1	10	0.03	2000	0.2646304	40.92393	-91.39364
260763	-70	-1	11	-1.140554	0.01835242	-32.46687	0	11.46	4003	0	0	5	5	0.4301218	-0.3855152	1	10	0.03	2000	0.3269375	40.92393	-91.39364
260804	-69	2	6	-1.137125	0.04165135	-32.47133	0	11.46	4003	0	0	5	5	0.4301218	-0.3878151	1	10	0.03	2000	0.3269375	40.92393	-91.39364
260978	-69	-1	5	-1.166295	0.1326005	-32.49416	0	11.46	4002	0	0	5	5	0.4301218	-0.3846774	1	10	0.03	2000	0.3356198	40.92393	-91.39364
261056	-65	4	7	-1.175349	0.1857863	-32.50801	0	11.46	4003	0	0	5	5	0.4301218	-0.3863441	1	10	0.03	2000	0.6285823	40.92393	-91.39364
261173	-69	-2	10	-1.172373	0.234277	-32.52767	0	11.46	4003	0	0	5	5	0.4301218	-0.3907092	1	10	0.03	2000	0.3716631	40.92393	-91.39364
261270	-64	6	10	-1.19091	0.2479879	-32.54226	0	11.46	4003	0	0	5	5	0.4301218	-0.3876987	1	10	0.03	2000	0.398775	40.92393	-91.39364
261320	-69	3	12	-1.199353	0.2633443	-32.55154	0	11.46	4002	0	0	5	5	0.4301218	-0.3843673	1	10	0.03	2000	0.6620016	40.92393	-91.39364
261433	-76	6	12	-1.205649	0.2695666	-32.55978	0	11.46	4003	0	0	5	5	0.4301218	-0.3749098	1	10	0.03	2000	0.433778	40.92393	-91.39364
261576	-73	-4	8	-1.228555	0.3041367	-32.58639	0	11.46	4003	0	0	5	5	0.4301218	-0.3566431	1	10	0.03	2000	0.7042133	40.92393	-91.39364
261665	-64	3	11	-1.229866	0.3168065	-32.59689	0	11.46	4004	0	0	5	5	0.4301218	-0.346831	1	10	0.03	2000	0.4893811	40.92393	-91.39364
261819	-68	3	7	-1.221851	0.3439328	-32.62454	0	11.46	4004	0	0	5	5	0.4301218	-0.3300243	1	10	0.03	2000	0.2306287	40.92393	-91.39364
261917	-73	-2	6	-1.236567	0.3547645	-32.64169	0	11.46	4004	0	0	5	5	0.4301218	-0.302643	1	10	0.03	2000	0.4764338	40.92393	-91.39364
261997	-70	6	3	-1.225515	0.3684644	-32.64975	0	11.46	4004	0	0	5	5	0.4301218	-0.2957047	1	10	0.03	2000	0.7234484	40.92393	-91.39364
262109	-64	1	3	-1.221973	0.3772045	-32.66959	0	11.46	4003	0	0	5	5	0.4301218	-0.297005	1	10	0.03	2000	0.9460518	40.92393	-91.39364
262184	-68	2	9	-1.221706	0.3723033	-32.67892	0	11.46	4003	0	0	5	5	0.4301218	-0.2937645	1	10	0.03	2000	0.459649	40.92393	-91.39364
262287	-62	-1	12	-1.215529	0.3800769	-32.69498	0	11.46	4004	0	0	5	5	0.4301218	-0.2915619	3	10	0.03	2000	0.4501159	40.92393	-91.39364
262387	-57	1	10	-1.211557	0.383728	-32.7084	0	11.46	4004	0	0	5	5	0.4301218	-0.2870358	3	10	0.03	2000	0.4506024	40.92393	-91.39363
262485	-63	-2	5	-1.209988	0.3987376	-32.72153	0	11.46	4002	0	0	5	5	0.4301218	-0.2849385	3	10	0.03	2000	0.6809043	40.92393	-91.39363
262628	-67	0	6	-1.199064	0.4147237	-32.74118	0	11.46	4003	0	0	5	5	0.4301218	-0.2770184	6	10	0.03	2000	0.1740311	40.92393	-91.39363
262683	-61	2	10	-1.191012	0.4198752	-32.74948	0	11.46	4003	0	0	5	5	0.0227677	-0.2733662	6	10	0.03	2000	0.413154	40.92393	-91.39363
262818	-66	7	4	-1.180412	0.4201063	-32.75784	0	11.46	4003	0	0	5	5	0.03077629	-0.2716444	6	10	0.03	2000	0.3964331	40.92393	-91.39364
262894	-68	-6	7	-1.177093	0.4249741	-32.77493	0	11.46	4003	0	0	5	5	0.0335964	-0.2740459	6	10	0.03	2000	0.3818032	40.92393	-91.39364
262978	-62	8	9	-1.170234	0.4256413	-32.7836	0	11.46	4003	0	0	5	5	0.03731929	-0.277548	6	10	0.03	2000	0.3818032	40.92393	-91.39364
263077	-75	-4	4	-1.172385	0.4281365	-32.79642	0	11.46	4002	0	0	5	5	0.04003328	-0.2791383	6	10	0.03	2000	0.6022976	40.92393	-91.39364
263179	-56	-1	7	-1.170376	0.4323251	-32.81357	0	11.46	4003	0	0	5	5	0.04108224	-0.2796087	3	10	0.03	2000	0.5995378	40.92393	91.37699
263377	-65	9	5	-1.161276	0.4336445	-32.84024	0	11.46	4003	0	0	5	5	0.0225276	-0.2980061	6	10	0.03	2000	0.5891762	40.92393	-91.39364
263410	-60	0	9	-1.158567	0.4326074	-32.84482	0	11.46	4004	0	0	5	5	0.02480244	-0.3009066	6	10	0.03	2000	0.5891762	40.92393	-91.39364
263477	-65	7	11	-1.156729	0.433605	-32.85226	0	11.46	4002	0	0	5	5	0.02908344	-0.3093908	6	10	0.03	2000	0.3505982	40.92393	-91.39364
263581	-64	-2	9	-1.154305	0.4379386	-32.86508	0	11.46	4003	0	0	5	5	0.03347162	-0.3171542	6	10	0.03	2000	0.3431336	40.92393	-91.39364
263674	-61	-3	5	-1.15245	0.436175	-32.87253	0	11.46	4002	0	0	5	5	0.03722832	-0.3223665	6	10	0.03	2000	0.5825521	40.92393	-91.39364
263815	-57	2	7	-1.143552	0.4306407	-32.89169	0	11.46	4004	0	0	5	5	0.04075646	-0.3289362	6	10	0.03	2000	0.5708893	40.92393	-91.39364
263878	-60	2	7	-1.139691	0.4303197	-32.89499	0	11.46	4004	0	0	5	5	0.04200619	-0.330185	6	10	0.03	2000	0.5708893	40.92393	-91.39364
264059	-63	-1	3	-1.124892	0.4427022	-32.92007	0	11.46	4002	0	0	5	5	0.04457788	-0.3234424	6	10	0.03	2000	0.2908921	40.92393	-91.39363
264214	-65	-7	10	-1.112906	0.4499787	-32.93765	0	11.46	4002	0	0	5	5	0.04552571	-0.3226135	6	10	0.03	2000	0.5145999	40.92393	-91.39363
264390	-59	3	7	-1.118866	0.4455635	-32.9642	0	11.4	4003	0	0	5	5	0.04612902	-0.3280112	6	10	0.03	2000	0.5163585	40.92393	-91.39363
264437	-57	-7	4	-1.11679	0.4503396	-32.96909	0	11.4	4002	0	0	5	5	0.04609729	-0.3296446	6	10	0.03	2000	0.5163585	40.92393	-91.39363
264489	-64	-4	13	-1.113897	0.4478706	-32.97769	0	11.4	4002	0	0	5	5	0.04622096	-0.3330133	6	10	0.03	2000	0.2689148	40.92393	-91.39363
264629	-57	-2	8	-1.108979	0.4467824	-32.99405	0	11.4	4002	0	0	5	5	0.04637643	-0.3516145	6	10	0.03	2000	0.267224	40.92393	-91.39363
264742	-62	0	10	-1.110164	0.4438791	-33.00974	0	11.4	4003	0	0	5	5	0.04662354	-0.3586689	6	10	0.03	2000	0.4992349	40.92393	-91.39363
264848	-61	6	6	-1.111721	0.4497202	-33.02121	0	11.4	4004	0	0	5	5	0.04616673	-0.3736449	6	10	0.03	2000	0.02567973	40.92393	-91.39363
264900	-63	0	9	-1.106776	0.4451725	-33.02969	0	11.4	4003	0	0	5	5	0.04628345	-0.3762153	6	10	0.03	2000	0.262578	40.92393	-91.39363
264976	-67	-4	7	-1.102163	0.4448751	-33.03873	0	11.4	4004	0	0	5	5	0.04648305	-0.3824138	6	10	0.03	2000	0.496661	40.92393	-91.39363
265070	-66	1	5	-1.110106	0.4433461	-33.05197	0	11.4	4002	0	0	5	5	0.04684087	-0.3858168	6	10	0.03	2000	0.5054053	40.92393	-91.39363
265226	-61	0	7	-1.106447	0.4520901	-33.06741	0	11.46	4003	0	0	5	5	0.04703546	-0.3838898	6	10	0.03	2000	0.2651106	40.92393	-91.39363
265300	-57	-2	8	-1.106544	0.4546162	-33.08237	0	11.46	4004	0	0	5	5	0.04709218	-0.3838202	6	10	0.03	2000	0.4945751	40.92393	-91.39363
265399	-66	5	5	-1.096621	0.45667	-33.09439	0	11.46	4004	0	0	5	5	0.0472933	-0.3900041	6	10	0.03	2000	0.2453654	40.92393	-91.39363
265506	-52	-4	8	-1.093459	0.4571173	-33.10831	0	11.46	4002	0	0	5	5	0.04707143	-0.3976556	3	10	0.03	2000	0.2432604	40.92393	-91.39363
265564	-58	-1	7	-1.099185	0.4473547	-33.1207	0	11.46	4003	0	0	5	5	0.04696049	-0.3988015	3	10	0.03	2000	0.2358879	40.92393	-91.39363
265706	-55	1	9	-1.089391	0.4514106	-33.13309	0	11.46	4003	0	0	5	5	0.0465516	-0.4025636	3	10	0.03	2000	0.2296695	40.92393	-91.39363
265835	-64	0	3	-1.087692	0.4401373	-33.15622	0	11.46	4003	0	0	5	5	0.04634884	-0.4072371	3	10	0.03	2000	0.4576878	40.92393	-91.39363
265906	-54	0	9	-1.089345	0.4348722	-33.1655	0	11.46	4004	0	0	5	5	0.04627534	-0.4087338	1	10	0.03	2000	0.2331639	40.92393	-91.39363
266000	-58	-1	1	-1.087062	0.4346588	-33.1785	0	11.46	4003	0	0	5	5	0.04619042	-0.407308	1	10	0.03	2000	0.4640692	40.92393	-91.39363
266041	-58	7	12	-1.082138	0.4341636	-33.18576	0	11.46	4003	0	0	5	5	0.04614702	-0.4056391	1	10	0.03	2000	0.4640692	40.92393	-91.39363
266143	-60	2	5	-1.081966	0.4364285	-33.19419	0	11.46	4003	0	0	5	5	0.04609688	-0.4044225	1	10	0.03	2000	0.2154327	40.92393	-91.39363
266284	-58	2	9	-1.069792	0.4335327	-33.21799	0	11.46	4003	0	0	5	5	0.04606032	-0.4062878	1	10	0.03	2000	-0.04669189	40.92393	-91.39363
266348	-52	-1	5	-1.066839	0.4353443	-33.2252	0	11.46	4002	0	0	5	5	0.04603368	-0.4096729	1	10	0.03	2000	0.1907518	40.92393	-91.39363
266469	-60	-4	6	-1.06207	0.4356411	-33.23539	0	11.46	4003	0	0	5	5	0.04601425	-0.4106691	1	10	0.03	2000	0.1824357	40.92393	-91.39363
266597	-61	-1	9	-1.06475	0.434846	-33.25059	0	11.46	4003	0	0	5	5	0.04599285	-0.4114328	1	10	0.03	2000	0.1811567	40.92393	-91.39363
266664	-56	3	5	-1.065174	0.4336124	-33.2584	0	11.46	4003	0	0	5	5	0.04598977	-0.4115992	1	10	0.03	2000	0.1932543	40.92393	-91.39363
266748	-54	0	8	-1.065274	0.4409787	-33.27293	0	11.46	4002	0	0	5	5	0.04598449	-0.4120052	1	10	0.03	2000	0.4194573	40.92393	-91.39363
266859	-57	-1	5	-1.067286	0.4436077	-33.2808	0	11.46	4002	0	0	5	5	0.04597528	-0.4155662	1	10	0.03	2000	0.4314619	40.92393	-91.39363
266934	-57	5	8	-1.06142	0.434049	-33.2963	0	11.46	4003	0	0	5	5	0.04597168	-0.4117754	1	10	0.03	2000	0.1867588	40.92393	-91.39363
267034	-56	0	1	-1.065916	0.4331872	-33.3082	0	11.51	4002	0	0	5	5	0.04596984	-0.4094169	1	10	0.03	2000	0.1813654	40.92393	-91.39363
267240	-59	-6	3	-1.062358	0.4495528	-33.33121	0	11.51	4003	0	0	5	5	0.04596617	-0.4146567	1	10	0.03	2000	0.1809111	40.92393	-91.39363
267282	-55	-4	12	-1.06298	0.4462061	-33.33433	0	11.51	4004	0	0	5	5	0.04596537	-0.4183542	1	10	0.03	2000	0.1809111	40.92393	-91.39363
267379	-56	0	4	-1.060691	0.4467767	-33.34684	0	11.51	4002	0	0	5	5	0.04596473	-0.4196993	1	10	0.03	2000	0.1876245	40.92393	-91.39363
267445	-55	2	3	-1.059798	0.4439645	-33.35661	0	11.51	4002	0	0	5	5	0.04596421	-0.4216517	1	10	0.03	2000	-0.05743408	40.92393	-91.39363
267547	-54	0	3	-1.056111	0.4426898	-33.36375	0	11.51	4003	0	0	5	5	0.04596345	-0.4374881	1	10	0.03	2000	-0.05987549	40.92393	-91.39363
267683	-57	-4	4	-1.051745	0.4437952	-33.37778	0	11.51	4004	0	0	5	5	0.04596306	-0.4451911	1	10	0.03	2000	0.1627287	40.92393	-91.39363
267779	-53	-1	7	-1.043386	0.4450533	-33.38987	0	11.51	4004	0	0	5	5	0.04596269	-0.4488358	1	10	0.03	2000	0.1511473	40.92393	-91.39363
267834	-54	-1	6	-1.043475	0.440411	-33.39689	0	11.51	4002	0	0	5	5	0.04596262	-0.44895	1	10	0.03	2000	0.1482712	40.92393	-91.39363
267973	-52	1	9	-1.041571	0.4447634	-33.41434	0	11.46	4003	0	0	5	5	0.04596241	-0.4485005	1	10	0.03	2000	0.3912528	40.92393	-91.39363
268046	-58	1	5	-1.038777	0.4412975	-33.42088	0	11.46	4003	0	0	5	5	0.0459623	-0.442986	1	10	0.03	2000	0.3856242	40.92393	-91.39363
268143	-45	-3	2	-1.035421	0.4382837	-33.42899	0	11.46	4004	0	0	5	5	0.04596224	-0.4357927	1	10	0.03	2000	0.1379839	40.92393	-91.39363
268284	-56	2	7	-1.037008	0.4314418	-33.44566	0	11.46	4003	0	0	5	5	0.04596214	-0.4174688	1	10	0.03	2000	0.1307924	40.92393	-91.39363
268364	-60	5	7	-1.02535	0.4273804	-33.45255	0	11.46	4002	0	0	5	5	0.04596211	-0.4148823	1	10	0.03	2000	0.1284199	40.92393	-91.39363
268516	-53	-1	5	-1.018101	0.4302778	-33.46842	0	11.46	4002	0	0	5	5	0.04596207	-0.4034162	1	10	0.03	2000	0.1058043	40.92393	-91.39363
268625	-57	2	2	-1.01447	0.4307481	-33.47825	0	11.46	4003	0	0	5	5	0.04596205	-0.3929255	1	10	0.03	2000	0.1076655	40.92393	-91.39363
268689	-48	-1	3	-1.014222	0.4346897	-33.48563	0	11.46	4004	0	0	5	5	0.04596204	-0.3866938	1	10	0.03	2000	0.09268275	40.92393	-91.39363
268782	-54	6	7	-1.012242	0.4365873	-33.49949	0	11.51	4004	0	0	5	5	0.04596202	-0.3846751	1	10	0.03	2000	-0.1418762	40.92393	-91.39363
268831	-51	3	3	-1.009314	0.4368648	-33.50724	0	11.51	4004	0	0	5	5	0.04596202	-0.3853979	1	10	0.03	2000	-0.1523438	40.92393	-91.39363
268939	-59	9	10	-1.007284	0.4367307	-33.51371	0	11.51	4003	0	0	5	5	0.04596201	-0.3879826	1	10	0.03	2000	0.09027495	40.92393	-91.39363
269028	-57	0	1	-1.005242	0.4346478	-33.5225	0	11.51	4002	0	0	5	5	0.04596201	-0.38721	1	10	0.03	2000	0.3207519	40.92393	-91.39363
269193	-46	0	10	-1.001243	0.4330631	-33.54185	0	11.51	4002	0	0	5	5	0.04596201	-0.3756809	1	10	0.03	2000	0.07383365	40.92393	-91.39363
269250	-54	1	-1	-0.9994568	0.4299725	-33.546	0	11.51	4005	0	0	5	5	0.04596201	-0.3706737	1	10	0.03	2000	0.07383365	40.92393	-91.39363
269334	-51	-1	7	-1.00124	0.4256081	-33.55418	0	11.51	4002	0	0	5	5	0.04596201	-0.3647893	1	10	0.03	2000	0.06985201	40.92393	-91.39363
269497	-48	-2	7	-1.000738	0.4261852	-33.57151	0	11.51	4003	0	0	5	5	0.04596201	-0.342837	1	10	0.03	2000	0.07466526	40.92393	-91.39363
269620	-56	-2	8	-1.00119	0.4292648	-33.58469	0	11.51	4002	0	0	5	5	0.04596201	-0.3392468	1	10	0.03	2000	0.3129227	40.92393	-91.39363
269677	-46	-2	0	-1.002068	0.4320645	-33.59049	0	11.51	4002	0	0	5	5	0.04596201	-0.3431097	1	10	0.03	2000	0.07483044	40.92393	-91.39363
269730	-47	2	3	-0.997014	0.4336569	-33.59757	0	11.51	4005	0	0	5	5	0.04596201	-0.3448919	1	10	0.03	2000	-0.17276	40.92393	-91.39363
269830	-50	0	6	-0.9957788	0.4369017	-33.60545	0	11.51	4002	0	0	5	5	0.04596201	-0.3556799	1	10	0.03	2000	-0.17276	40.92393	-91.39363
269944	-57	2	7	-0.988435	0.435564	-33.62101	0	11.51	4003	0	0	5	5	0.04596201	-0.3514643	1	10	0.03	2000	0.05342611	40.92393	-91.39363
270039	-53	4	6	-0.9879307	0.4304577	-33.63017	0	11.51	4003	0	0	5	5	0.04596201	-0.3492285	1	10	0.03	2000	0.05116198	40.92393	-91.39363
270123	-51	2	6	-0.9795098	0.4316175	-33.63688	0	11.51	4003	0	0	5	5	0.04596201	-0.3506691	3	10	0.03	2000	-0.2008667	40.92393	-91.39363
270232	-53	2	3	-0.9722661	0.4266547	-33.65	0	11.51	4003	0	0	5	5	0.04596201	-0.3522923	3	10	0.03	2000	0.2671058	40.92393	-91.39363
270357	-45	7	7	-0.9737961	0.4304186	-33.66361	0	11.51	4003	0	0	5	5	0.04596201	-0.358638	3	10	0.03	2000	-0.221283	40.92393	-91.39363
270453	-41	3	9	-0.9600349	0.4273703	-33.67515	0	11.51	4004	0	0	5	5	0.04596201	-0.3612795	3	10	0.03	2000	0.2559051	40.92393	-91.39363
270535	-51	5	18	-0.9561616	0.4250947	-33.68388	0	11.51	4003	0	0	5	5	0.04596201	-0.3638167	3	10	0.03	2000	-0.2435303	40.92393	-91.39363
270639	-48	-3	4	-0.955678	0.4313863	-33.69859	0	11.51	4002	0	0	5	5	0.04596201	-0.3595802	3	10	0.03	2000	0.002054582	40.92393	-91.39363
270757	-49	0	14	-0.9538283	0.4320646	-33.70671	0	11.51	4004	0	0	5	5	0.04596201	-0.3555602	3	10	0.03	2000	-0.004058838	40.92393	-91.39363
270833	-56	3	9	-0.9486697	0.4375085	-33.71922	0	11.51	4003	0	0	5	5	0.04596201	-0.3520169	3	10	0.03	2000	0.2247318	40.92393	-91.39363
270969	-48	2	4	-0.9468697	0.4336577	-33.73143	0	11.51	4003	0	0	5	5	0.04596201	-0.3519263	3	10	0.03	2000	-0.019104	40.92393	-91.39363
271030	-45	1	6	-0.9421425	0.4289984	-33.73832	0	11.51	4002	0	0	5	5	0.04596201	-0.3533567	1	10	0.03	2000	-0.02172852	40.92393	-91.39363
271152	-50	6	3	-0.9412531	0.4403856	-33.7512	0	11.51	4007	0	0	5	5	0.04596201	-0.3572257	1	10	0.03	2000	-0.0305481	40.92393	-91.39363
271280	-45	2	6	-0.9395317	0.4459006	-33.76365	0	11.51	4003	0	0	5	5	0.04596201	-0.351855	1	10	0.03	2000	-0.03540039	40.92393	-91.39363
271336	-49	-1	3	-0.9397752	0.4436047	-33.76872	0	11.51	4003	0	0	5	5	0.04596201	-0.3513885	1	10	0.03	2000	0.2131072	40.92393	-91.39363
271425	-40	6	8	-0.935922	0.4429272	-33.77507	0	11.51	4004	0	0	5	5	0.04596201	-0.3498909	1	10	0.03	2000	-0.03460693	40.92393	-91.39363
271616	-49	1	2	-0.9318977	0.4501609	-33.79246	0	11.46	4002	0	0	5	5	0.04596201	-0.3374983	1	10	0.03	2000	0.1869375	40.92393	-91.39363
271667	-45	-4	6	-0.9303886	0.4500039	-33.79551	0	11.46	4004	0	0	5	5	0.04596201	-0.3320118	1	10	0.03	2000	0.1869375	40.92393	-91.39363
271778	-48	-4	5	-0.9310153	0.4346336	-33.80919	0	11.46	4004	0	0	5	5	0.04596201	-0.3321015	1	10	0.03	2000	-0.04708862	40.92393	-91.39363
271956	-45	4	5	-0.9232378	0.4333132	-33.82775	0	11.46	4004	0	0	5	5	0.04596201	-0.3336916	1	10	0.03	2000	-0.05975342	40.92393	-91.39363
272113	-46	-4	8	-0.9198327	0.428284	-33.84185	0	11.46	4002	0	0	5	5	0.04596201	-0.3227444	1	10	0.03	2000	0.1757092	40.92393	-91.39363
272162	-47	2	7	-0.9216563	0.4296269	-33.84514	0	11.46	4004	0	0	5	5	0.04596201	-0.3198853	1	10	0.03	2000	0.1757092	40.92393	-91.39363
272284	-45	4	10	-0.9193029	0.4221534	-33.85686	0	11.46	4004	0	0	5	5	0.04596201	-0.3190201	1	10	0.03	2000	-0.05618286	40.92394	-91.39363
272435	-45	4	2	-0.9188691	0.4265545	-33.86821	0	11.46	4004	0	0	5	5	0.04596201	-0.3273925	1	10	0.03	2000	-0.06878662	40.92394	-91.39363
272604	-41	2	5	-0.9142909	0.4266907	-33.88726	0	11.51	4003	0	0	5	5	0.04596201	-0.3446023	1	10	0.03	2000	0.1627139	40.92394	-91.39363
272669	-43	4	4	-0.9107454	0.4286026	-33.89379	0	11.51	4002	0	0	5	5	0.04596201	-0.3504626	1	10	0.03	2000	-0.3266296	40.92394	-91.39363
272746	-47	1	8	-0.9071931	0.4265409	-33.90044	0	11.51	4004	0	0	5	5	0.04596201	-0.3592464	1	10	0.03	2000	0.1493378	40.92394	-91.39363
272816	-49	-3	7	-0.9134758	0.4353518	-33.90807	0	11.51	4003	0	0	5	5	0.04596201	-0.3652627	1	10	0.03	2000	-0.07809448	40.92394	-91.39363
272946	-45	-2	2	-0.9146216	0.4315369	-33.91832	0	11.51	4002	0	0	5	5	0.04596201	-0.3631494	1	10	0.03	2000	0.1682945	40.92394	-91.39363
273011	-42	1	3	-0.9139924	0.4290778	-33.92089	0	11.51	4004	0	0	5	5	0.04596201	-0.3621677	1	10	0.03	2000	0.1682945	40.92394	-91.39363
273113	-49	-2	4	-0.9142908	0.4286287	-33.93328	0	11.51	4003	0	0	5	5	0.04596201	-0.3599904	1	10	0.03	2000	0.1607237	40.92394	-91.39363
273249	-38	1	5	-0.9110057	0.4338015	-33.94793	0	11.51	4002	0	0	5	5	0.04596201	-0.3527007	1	10	0.03	2000	-0.09020996	40.92394	-91.39363
273387	-41	3	7	-0.923009	0.4295914	-33.95201	0	11.46	4003	0	0	5	5	0.04596201	-0.3481495	1	10	0.03	2000	-0.06866455	40.92394	-91.39363
273453	-38	0	5	-0.9114398	0.4312276	-33.96117	0	11.46	4004	0	0	5	5	0.04596201	-0.3483692	1	10	0.03	2000	-0.07620239	40.92394	-91.39363
273547	-37	1	9	-0.9004434	0.4410529	-33.9721	0	11.46	4002	0	0	5	5	0.04596201	-0.3511744	1	10	0.03	2000	-0.1022949	40.92394	-91.39363
273576	-37	2	7	-0.9009863	0.4400382	-33.97533	0	11.46	4004	0	0	5	5	0.04596201	-0.3511744	1	10	0.03	2000	-0.1022949	40.92394	-91.39363
273743	-43	5	12	-0.8974625	0.4317171	-33.99138	0	11.46	4003	0	0	5	5	0.04596201	-0.3549391	1	10	0.03	2000	-0.1173706	40.92394	-91.39363
273854	-40	-1	5	-0.8948759	0.4346309	-34.0009	0	11.46	4004	0	0	5	5	0.04596201	-0.3583516	1	10	0.03	2000	-0.1125488	40.92394	-91.39363
273918	-46	4	0	-0.8946402	0.43284	-34.00908	0	11.46	4003	0	0	5	5	0.04596201	-0.3640974	1	10	0.03	2000	-0.1089478	40.92394	-91.39363
274006	-38	-3	13	-0.8884002	0.4291399	-34.01647	0	11.46	4003	0	0	5	5	0.04596201	-0.3748477	1	10	0.03	2000	-0.1239014	40.92394	-91.39363
274095	-38	-9	4	-0.8878328	0.4230354	-34.02465	0	11.46	4003	0	0	5	5	0.04596201	-0.3811993	1	10	0.03	2000	0.1195173	40.92394	-91.39363
274176	-40	1	10	-0.8881814	0.4246841	-34.03307	0	11.46	4002	0	0	5	5	0.04596201	-0.3836974	1	10	0.03	2000	-0.1304626	40.92394	-91.39363
274300	-44	0	9	-0.8870186	0.420056	-34.0443	0	11.51	4004	0	0	5	5	0.04596201	-0.3949346	1	10	0.03	2000	-0.1191406	40.92394	-91.39363
274381	-53	-2	10	-0.8810332	0.4200496	-34.04833	0	11.51	4003	0	0	5	5	0.04596201	-0.3968267	1	10	0.03	2000	-0.3694458	40.92394	-91.39363
274489	-43	-2	5	-0.87751	0.4283069	-34.05883	0	11.51	4002	0	0	5	5	0.04596201	-0.3981918	1	10	0.03	2000	-0.1338196	40.92394	-91.39363
274535	-38	0	6	-0.8777438	0.4274462	-34.06206	0	11.51	4002	0	0	5	5	0.04596201	-0.3943381	1	10	0.03	2000	0.09663155	40.92394	-91.39363
274645	-40	0	9	-0.8724722	0.4304652	-34.0725	0	11.51	4003	0	0	5	5	0.04596201	-0.3857834	1	10	0.03	2000	0.09524989	40.92394	-91.39363
274813	-40	0	4	-0.8676215	0.4279383	-34.08751	0	11.51	4004	0	0	5	5	0.04596201	-0.3805399	1	10	0.03	2000	-0.1520081	40.92394	-91.39363
274913	-42	-5	4	-0.8596945	0.4306378	-34.09667	0	11.51	4003	0	0	5	5	0.04596201	-0.3778392	1	10	0.03	2000	-0.1648865	40.92394	-91.39363
274937	-39	-4	3	-0.8601966	0.4297397	-34.10234	0	11.51	4004	0	0	5	5	0.04596201	-0.3786537	1	10	0.03	2000	0.06762451	40.92394	-91.39363
275070	-38	-2	5	-0.854131	0.4319254	-34.10888	0	11.51	4002	0	0	5	5	0.04596201	-0.3739022	1	10	0.03	2000	-0.1746216	40.92394	-91.39363
275160	-43	-6	4	-0.8506191	0.4322622	-34.11473	0	11.46	4002	0	0	5	5	0.04596201	-0.3700517	1	10	0.03	2000	-0.4219666	40.92394	-91.39363
275295	-35	-3	8	-0.8455626	0.4339578	-34.127	0	11.46	4003	0	0	5	5	0.04596201	-0.3511414	1	10	0.03	2000	-0.196106	40.92394	-91.39363
275314	-32	4	3	-0.8391274	0.4302131	-34.13097	0	11.46	4004	0	0	5	5	0.04596201	-0.3441578	1	10	0.03	2000	-0.196106	40.92394	-91.39363
275426	-39	2	6	-0.8414906	0.4261045	-34.13897	0	11.46	4003	0	0	5	5	0.04596201	-0.3353738	1	10	0.03	2000	-0.1994019	40.92394	-91.39363
275535	-36	1	2	-0.8389916	0.4251261	-34.14415	0	11.46	4003	0	0	5	5	0.04596201	-0.3369735	1	10	0.03	2000	0.02782292	40.92394	-91.39363
275576	-42	3	4	-0.8417836	0.4263492	-34.14678	0	11.46	4004	0	0	5	5	0.04596201	-0.3382001	1	10	0.03	2000	0.02782292	40.92394	-91.39363
275705	-42	0	10	-0.8372054	0.4320591	-34.15502	0	11.46	4003	0	0	5	5	0.04596201	-0.3412398	1	10	0.03	2000	0.0229097	40.92394	-91.39363
275815	-40	-2	8	-0.8347226	0.435444	-34.16692	0	11.46	4003	0	0	5	5	0.04596201	-0.343122	1	10	0.03	2000	-0.2218018	40.92394	-91.39363
275898	-46	0	7	-0.8289443	0.4402634	-34.17113	0	11.46	4003	0	0	5	5	0.04596201	-0.3456443	1	10	0.03	2000	-0.4682312	40.92394	-91.39363
275980	-40	0	3	-0.8235245	0.4408361	-34.17797	0	11.57	4003	0	0	5	5	0.04596201	-0.3491941	1	10	0.03	2000	0.004512194	40.92394	-91.39363
276123	-34	4	3	-0.820183	0.431118	-34.1837	0	11.57	4003	0	0	5	5	0.04596201	-0.3478045	1	10	0.03	2000	-0.2380676	40.92394	-91.39363
276212	-42	3	2	-0.8158242	0.4228074	-34.18926	0	11.57	4004	0	0	5	5	0.04596201	-0.3458851	1	10	0.03	2000	-0.009979248	40.92394	-91.39363
276325	-33	2	-3	-0.8106148	0.4206183	-34.19982	0	11.57	4004	0	0	5	5	0.04596201	-0.3419577	1	10	0.03	2000	-0.2553101	40.92394	-91.39363
276419	-31	2	3	-0.8056816	0.4162986	-34.20403	0	11.57	4004	0	0	5	5	0.04596201	-0.3376505	1	10	0.03	2000	-0.2654724	40.92394	-91.39363
276483	-39	-6	2	-0.806298	0.4189138	-34.20922	0	11.57	4003	0	0	5	5	0.04596201	-0.3423357	1	10	0.03	2000	-0.02435303	40.92394	-91.39363
276633	-38	0	5	-0.7988958	0.4181606	-34.2202	0	11.57	4003	0	0	5	5	0.04596201	-0.3511736	1	10	0.03	2000	-0.2778625	40.92394	-91.39363
276695	-37	0	5	-0.7982707	0.4254704	-34.2238	0	11.57	4003	0	0	5	5	0.04596201	-0.3528948	1	10	0.03	2000	-0.2809448	40.92394	-91.39363
276812	-33	-2	5	-0.7964866	0.419695	-34.23192	0	11.57	4003	0	0	5	5	0.04596201	-0.3562385	1	10	0.03	2000	-0.2838135	40.92394	-91.39363
276964	-32	2	6	-0.801707	0.4263183	-34.24157	0	11.46	4004	0	0	5	5	0.04596201	-0.3584695	1	10	0.03	2000	-0.2791443	40.92394	-91.39363
277058	-27	3	-1	-0.7944624	0.4246275	-34.24779	0	11.46	4002	0	0	5	5	0.04596201	-0.3610343	1	10	0.03	2000	-0.2861328	40.92394	-91.39363
277211	-35	5	0	-0.8074799	0.4240554	-34.25212	0	11.46	4004	0	0	5	5	0.04596201	-0.3653389	1	10	0.03	2000	-0.5332336	40.92394	-91.39363
277379	-31	5	10	-0.8167214	0.4225292	-34.26971	0	11.46	4002	0	0	5	5	0.04596201	-0.3608229	1	10	0.03	2000	-0.2415466	40.92394	-91.39363
277540	-28	-1	4	-0.8056768	0.4163886	-34.28411	0	11.46	4004	0	0	5	5	0.04596201	-0.3512583	1	10	0.03	2000	-0.2649231	40.92394	-91.39363
277675	-39	0	4	-0.7987574	0.419084	-34.28961	0	11.46	4002	0	0	5	5	0.04596201	-0.3340175	1	10	0.03	2000	-0.2750244	40.92394	-91.39363
277836	-32	-2	0	-0.7892513	0.4177144	-34.30267	0	11.46	4002	0	0	5	5	0.04596201	-0.3160605	1	10	0.03	2000	-0.2966309	40.92394	-91.39363
277869	-36	-4	7	-0.791551	0.4226159	-34.30481	0	11.46	4002	0	0	5	5	0.04596201	-0.3121785	1	10	0.03	2000	-0.2966309	40.92394	-91.39363
278046	-32	4	3	-0.7893083	0.4208794	-34.31549	0	11.46	4004	0	0	5	5	0.04596201	-0.2901076	1	10	0.03	2000	-0.2937012	40.92394	-91.39363
278124	-37	1	1	-0.7848135	0.4206416	-34.31964	0	11.46	4003	0	0	5	5	0.04596201	-0.2799461	1	10	0.03	2000	-0.06759644	40.92394	-91.39363
278258	-37	0	10	-0.7698831	0.4215238	-34.33313	0	11.46	4002	0	0	5	5	0.04596201	-0.26415	1	10	0.03	2000	-0.5723877	40.92394	-91.39363
278328	-34	5	7	-0.7708344	0.4217486	-34.33764	0	11.46	4004	0	0	5	5	0.04596201	-0.2598062	1	10	0.03	2000	-0.0958252	40.92394	-91.39363
278386	-33	2	4	-0.7716247	0.4188946	-34.34076	0	11.46	4011	0	0	5	5	0.04596201	-0.2605882	1	10	0.03	2000	-0.0958252	40.92394	-91.39363
278479	-25	-5	6	-0.7633137	0.4190651	-34.35113	0	11.46	4003	0	0	5	5	0.04596201	-0.2625844	1	10	0.03	2000	-0.3239441	40.92394	-91.39363
278635	-27	0	5	-0.7598798	0.4184898	-34.36236	0	11.46	4002	0	0	5	5	0.04596201	-0.2659551	1	10	0.03	2000	-0.3490601	40.92394	-91.39363
278720	-39	2	-2	-0.7644457	0.4154967	-34.36932	0	11.51	4002	0	0	5	5	0.04596201	-0.2763698	1	10	0.03	2000	-0.5863953	40.92394	-91.39363
278823	-30	4	1	-0.7622299	0.4094488	-34.37689	0	11.51	4005	0	0	5	5	0.04596201	-0.2831289	1	10	0.03	2000	-0.5815735	40.92394	-91.39363
278941	-32	1	6	-0.7570717	0.4044983	-34.38427	0	11.51	4002	0	0	5	5	0.04596201	-0.2916557	1	10	0.03	2000	-0.3464661	40.92394	-91.39363
278993	-30	2	8	-0.7545161	0.41039	-34.38824	0	11.51	4002	0	0	5	5	0.04596201	-0.2983457	1	10	0.03	2000	-0.5930481	40.92394	-91.39363
279075	-28	-6	-5	-0.755549	0.4143969	-34.39013	0	11.51	4003	0	0	5	5	0.04596201	-0.3054897	1	10	0.03	2000	-0.12323	40.92394	-91.39363
279248	-33	0	12	-0.7536315	0.4100344	-34.40271	0	11.51	4004	0	0	5	5	0.04596201	-0.3316169	1	10	0.03	2000	-0.1247559	40.92394	-91.39363
279279	-33	0	12	-0.7536315	0.4100344	-34.40271	0	11.51	4004	0	0	5	5	0.04596201	-0.3352938	1	10	0.03	2000	-0.1247559	40.92394	-91.39363
279383	-31	0	7	-0.7574632	0.4121892	-34.40844	0	11.51	4002	0	0	5	5	0.04596201	-0.3440468	3	10	0.03	2000	-0.588501	40.92394	-91.39363
279510	-34	0	3	-0.7556293	0.4136701	-34.41919	0	11.51	4004	0	0	5	5	0.04596201	-0.3514129	3	10	0.03	2000	-0.1201172	40.92394	-91.39363
279630	-32	4	5	-0.7527986	0.4175698	-34.42736	0	11.51	4004	0	0	5	5	0.04596201	-0.3554954	3	10	0.03	2000	-0.3622131	40.92394	-91.39363
279679	-27	0	2	-0.7502058	0.41526	-34.43139	0	11.51	4002	0	0	5	5	0.04596201	-0.3610066	3	10	0.03	2000	-0.3623352	40.92394	-91.39363
279857	-24	0	5	-0.7463756	0.4156379	-34.44531	0	11.51	4004	0	0	5	5	0.04596201	-0.3684682	3	10	0.03	2000	-0.3688354	40.92394	-91.39363
279926	-22	-1	9	-0.7440208	0.4112159	-34.44952	0	11.51	4004	0	0	5	5	0.04596201	-0.3684397	3	10	0.03	2000	-0.3731384	40.92394	-91.39363
280012	-24	-10	-12	-0.7430373	0.4165798	-34.45276	0	11.51	4004	0	0	5	5	0.04596201	-0.3684174	3	10	0.03	2000	-0.380249	40.92394	-91.39363
280120	-92	45	40	-0.7346416	0.4155269	-34.45771	0	11.51	4003	0	0	5	5	0.04596201	-0.3680337	3	10	0.03	2000	-0.6057434	40.92394	-91.39363
280217	-76	49	31	-0.7738391	0.4408503	-34.46065	0	11.51	4004	0	0	5	5	0.04596201	-0.366672	3	10	0.03	2000	-0.5977173	40.92394	-91.39363
280250	-60	41	-26	-0.7738391	0.4408503	-34.46065	0	11.51	4004	0	0	5	5	0.04596201	-0.3668434	3	10	0.03	2000	-0.5977173	40.92394	-91.39363
280398	-70	-18	16	-0.7486298	0.4248714	-34.46922	0	11.51	4002	0	0	5	5	0.04596201	-0.3734975	3	10	0.03	2000	-0.3846741	40.92394	-91.39363
280496	-13	18	13	-0.7723911	0.4363923	-34.47453	0	11.51	4002	0	0	5	5	0.04596201	-0.3751869	3	10	0.03	2000	0.8341507	40.92394	-91.39363
280523	-13	-27	58	-0.7582192	0.42005	-34.49227	0	11.51	4004	0	0	5	5	0.04596201	-0.3745068	3	10	0.03	2000	-0.3553772	40.92394	-91.39363
280694	-24	-70	0	-0.7758725	0.4211296	-34.48548	0	11.51	4002	0	0	5	5	0.04596201	-0.3594371	3	10	0.03	2000	-0.5830078	40.92394	-91.39363
280770	-80	9	6	-0.7654708	0.4087614	-34.49918	0	11.51	4004	0	0	5	5	0.04596201	-0.3540987	3	10	0.03	2000	-0.5830078	40.92394	-91.39363
280839	-23	37	-20	-0.7641325	0.4131271	-34.50351	0	11.51	4003	0	0	5	5	0.04596201	-0.3536643	3	10	0.03	2000	0.1129446	40.92394	-91.39363
280959	-30	-8	-26	-0.7621351	0.4349402	-34.51042	0	11.51	4003	0	0	5	5	0.04596201	-0.3491862	3	10	0.03	2000	-0.3701477	40.92394	-91.39363
281099	-20	12	-7	-0.7705626	0.4312812	-34.52136	0	11.51	4003	0	0	5	5	0.04596201	-0.3316732	3	10	0.03	2000	-0.09121704	40.92394	-91.39363
281165	-54	15	37	-0.7533781	0.424297	-34.53205	0	11.51	4004	0	0	5	5	0.04596201	-0.3250769	3	10	0.03	2000	-0.09121704	40.92394	-91.39363
281282	-18	-11	29	-0.746008	0.4195401	-34.54049	0	11.51	4004	0	0	5	5	0.04596201	-0.3236445	3	10	0.03	2000	-0.3746643	40.92394	-91.39363
281358	-34	0	24	-0.7527271	0.4324776	-34.5531	0	11.51	4003	0	0	5	5	0.04596201	-0.3296083	3	10	0.03	2000	0.3414835	40.92394	-91.39363
281484	-87	-24	-85	-0.7609164	0.4251135	-34.55885	0	11.4	4003	0	0	5	5	0.04596201	-0.3387486	3	10	0.03	2000	0.122554	40.92394	-91.39363
281536	-40	6	51	-0.754136	0.4138159	-34.57034	0	11.4	4003	0	0	5	5	0.04596201	-0.3383592	3	10	0.03	2000	-0.119873	40.92394	-91.39363
281605	14	42	-48	-0.7612908	0.4321884	-34.57608	0	11.4	4002	0	0	5	5	0.04596201	-0.3369426	3	10	0.03	2000	-0.5806274	40.92394	-91.39363
