time(ms)	gyro_x(deg/s)	gyro_y(deg/s)	gyro_z(deg/s)	orientation_roll(deg)	orientation_pitch(deg)	orientation_yaw(deg)	throttle	battery(V)	loop_time(uS)	pid_output_roll	pid_output_pitch	pid_output_yaw	pid_output_throttle	ultrasonic_alt	baro_alt	flight_mode	p_gain_altitude	i_gain_altitude	d_gain_altitude	compass_heading	latitude	longitude
132	12	2	2	0.1582495	-0.009667119	-0.04731755	0	12.53	4003	0	0	5	5	0.02	-0.07948973	1	10	0.03	1800	-0.5020447	40.92395	-91.39362
204	14	1	-3	0.1568165	-0.006449074	-0.04725641	0	12.53	4004	0	0	5	5	0.02	-0.08100812	1	10	0.03	1800	-0.5020447	40.92395	-91.39362
358	9	0	-4	0.1509536	-0.008289728	-0.04419962	0	12.53	4003	0	0	5	5	0.02	-0.07785541	1	10	0.03	1800	-1.191193	40.92395	-91.39362
433	18	3	-1	0.1618559	-0.007191912	-0.04364955	0	12.53	4002	0	0	5	5	0.02	-0.07586882	1	10	0.03	1800	-0.9664307	40.92395	-91.39362
530	15	1	-2	0.1673474	-0.006844777	-0.0410818	0	12.53	4002	0	0	5	5	0.02	-0.07431468	1	10	0.03	1800	-0.7510986	40.92395	-91.39362
629	16	-4	-4	0.1720247	-0.009333796	-0.03998141	0	12.53	4002	0	0	5	5	0.02	-0.06673418	1	10	0.03	1800	-0.5221863	40.92395	-91.39362
705	18	0	-4	0.1739831	-0.01190148	-0.03631309	0	12.53	4004	0	0	5	5	0.02	-0.04725675	1	10	0.03	1800	-0.7615967	40.92395	-91.39362
825	9	-3	-4	0.1705001	-0.009360647	-0.03472355	0	12.53	4002	0	0	5	5	0.02	-0.0379449	1	10	0.03	1800	-0.991394	40.92395	-91.39362
913	10	0	0	0.1713227	-0.01202764	-0.03301164	0	12.53	4004	0	0	5	5	0.02	-0.03290518	1	10	0.03	1800	-0.7580261	40.92395	-91.39362
1135	13	0	0	0.1729887	-0.006086418	-0.0295269	0	12.53	4004	0	0	5	5	0.02	-0.0284108	1	10	0.03	1800	-0.7660217	40.92395	-91.39362
1337	13	0	0	0.1726523	-0.01028892	-0.02683712	0	12.53	4002	0	0	5	5	0.02	-0.03557802	1	10	0.03	1800	-0.7636719	40.92395	-91.39362
1430	11	-2	0	0.1723569	-0.01597462	-0.0257978	0	12.53	4004	0	0	5	5	0.02	-0.03133135	1	10	0.03	1800	-0.7624207	40.92395	-91.39362
1572	16	3	0	0.1611618	-0.01829836	-0.024086	0	12.53	4003	0	0	5	5	0.02	-0.02700537	1	10	0.03	1800	-0.749939	40.92394	-91.39362
1666	13	-3	-5	0.1554693	-0.02178727	-0.02292446	0	12.53	4004	0	0	5	5	0.02	-0.02973529	1	10	0.03	1800	-0.9779358	40.92394	-91.39362
1813	11	0	1	0.1653195	-0.02306066	-0.01992872	0	12.53	4002	0	0	5	5	0.02	-0.04680983	1	10	0.03	1800	-0.7468872	40.92394	-91.39362
1903	19	-4	0	0.1637455	-0.02483637	-0.01925628	0	12.53	4002	0	0	5	5	0.02	-0.05906167	1	10	0.03	1800	-0.7442322	40.92394	-91.39362
1967	10	1	-2	0.1664734	-0.02472842	-0.01791105	0	12.53	4003	0	0	5	5	0.02	-0.07235247	1	10	0.03	1800	-0.7486267	40.92394	-91.39362
2096	16	1	-1	0.1715559	-0.02369448	-0.01375375	0	12.53	4003	0	0	5	5	0.02	-0.07732517	1	10	0.03	1800	-0.7565613	40.92394	-91.39362
2215	8	-4	4	0.1779619	-0.01937132	-0.01210288	0	12.53	4003	0	0	5	5	0.02	-0.08063374	1	10	0.03	1800	-1.002197	40.92394	-91.39362
2282	15	-1	1	0.1787854	-0.01869244	-0.01063569	0	12.48	4002	0	0	5	5	0.02	-0.07732041	1	10	0.03	1800	-1.002197	40.92394	-91.39362
2394	13	-11	-2	0.1793001	-0.02072838	-0.007640063	0	12.48	4002	0	0	5	5	0.02	-0.07935651	1	10	0.03	1800	-0.7733765	40.92394	-91.39362
2423	14	0	0	0.1825664	-0.01804893	-0.007456475	0	12.48	4003	0	0	5	5	0.02	-0.07832223	1	10	0.03	1800	-0.7769775	40.92394	-91.39362
2583	14	0	1	0.1809517	-0.01402617	-0.004277269	0	12.48	4004	0	0	5	5	0.02	-0.06626087	1	10	0.03	1800	-0.7763062	40.92394	-91.39362
2708	17	6	-3	0.1802989	-0.02205296	0.0001248987	0	12.48	4004	0	0	5	5	0.02	-0.06375311	1	10	0.03	1800	-0.7814941	40.92394	-91.39362
2773	11	6	-3	0.1768741	-0.02085463	0.001042181	0	12.48	4004	0	0	5	5	0.02	-0.06510166	1	10	0.03	1800	-0.7742004	40.92394	-91.39362
2883	11	0	-1	0.1780445	-0.01684043	0.005077249	0	12.48	4002	0	0	5	5	0.02	-0.07162758	1	10	0.03	1800	-0.7720947	40.92394	-91.39362
2966	16	4	5	0.1762601	-0.01806444	0.006177311	0	12.48	4004	0	0	5	5	0.02	-0.08082947	1	10	0.03	1800	-0.7630005	40.92394	-91.39362
3035	16	5	-2	0.1769673	-0.01847115	0.005993876	0	12.48	4003	0	0	5	5	0.02	-0.0966704	1	10	0.03	1800	-0.7630005	40.92394	-91.39362
3114	20	-5	-1	0.1831783	-0.02192219	0.006972074	0	12.48	4004	0	0	5	5	0.02	-0.1048605	1	10	0.03	1800	-0.7785034	40.92394	-91.39362
3243	16	-1	-7	0.1908018	-0.02300653	0.01094581	0	12.53	4004	0	0	5	5	0.02	-0.1117627	1	10	0.03	1800	-0.7861938	40.92394	-91.39362
3347	16	-3	-1	0.1903955	-0.01926711	0.01400288	0	12.53	4003	0	0	5	5	0.02	-0.111162	1	10	0.03	1800	-0.7990112	40.92394	-91.39362
3408	12	-1	0	0.1847749	-0.0194079	0.01577565	0	12.53	4002	0	0	5	5	0.02	-0.1121882	1	10	0.03	1800	-1.021759	40.92394	-91.39362
3548	15	-1	-6	0.1913592	-0.01291737	0.01895507	0	12.53	4003	0	0	5	5	0.02	-0.1170582	1	10	0.03	1800	-0.5593262	40.92394	-91.39362
3623	12	4	-3	0.1904625	-0.01470421	0.02060567	0	12.53	4003	0	0	5	5	0.02	-0.1172359	1	10	0.03	1800	-0.7915649	40.92394	-91.39362
3774	19	0	2	0.1874735	-0.01210313	0.0231737	0	12.53	4003	0	0	5	5	0.02	-0.1370956	1	10	0.03	1800	-0.5480957	40.92394	-91.39362
3818	16	0	2	0.1915009	-0.01139445	0.02329599	0	12.53	4003	0	0	5	5	0.02	-0.1390827	1	10	0.03	1800	-0.795105	40.92394	-91.39362
3978	20	2	0	0.1962248	-0.0103543	0.02476341	0	12.53	4002	0	0	5	5	0.02	-0.1435009	1	10	0.03	1800	-0.5636902	40.92394	-91.39362
4089	17	4	-1	0.2053477	-0.01245182	0.02916529	0	12.53	4003	0	0	5	5	0.02	-0.1470252	1	10	0.03	1800	-0.8139343	40.92394	-91.39362
4107	14	-2	-2	0.2081319	-0.01303977	0.02959323	0	12.53	4004	0	0	5	5	0.02	-0.1470252	1	10	0.03	1800	-0.8139343	40.92394	-91.39362
4205	19	-2	0	0.2044422	-0.01260214	0.02959315	0	12.53	4003	0	0	5	5	0.02	-0.142265	1	10	0.03	1800	-1.04541	40.92394	-91.39362
4305	18	6	-3	0.1985562	-0.01687135	0.03436244	0	12.53	4004	0	0	5	5	0.02	-0.1412344	1	10	0.03	1800	-0.5736694	40.92394	-91.39362
4410	22	1	-2	0.2019215	-0.01452944	0.03589101	0	12.53	4002	0	0	5	5	0.02	-0.1381482	1	10	0.03	1800	-0.8071594	40.92394	-91.39362
4624	16	-2	0	0.20525	-0.00868683	0.0390707	0	12.53	4003	0	0	5	5	0.02	-0.1392609	1	10	0.03	1800	-0.8119812	40.92394	-91.39362
4717	18	2	-8	0.207459	-0.00736443	0.03907078	0	12.53	4004	0	0	5	5	0.02	-0.1439714	1	10	0.03	1800	-0.8184204	40.92394	-91.39362
4858	16	-4	-3	0.2114276	-0.01145269	0.04457346	0	12.53	4003	0	0	5	5	0.02	-0.1408687	1	10	0.03	1800	-0.8283386	40.92394	-91.39362
4920	17	-2	0	0.2025852	-0.01742353	0.04555186	0	12.53	4002	0	0	5	5	0.02	-0.1431399	1	10	0.03	1800	-0.8168335	40.92394	-91.39362
5033	20	-1	-1	0.2030219	-0.0201619	0.04653019	0	12.48	4003	0	0	5	5	0.02	-0.1487987	1	10	0.03	1800	-0.5769958	40.92394	-91.39362
5155	23	4	-1	0.1992624	-0.01448199	0.05044311	0	12.48	4003	0	0	5	5	0.02	-0.1506934	1	10	0.03	1800	-0.8085632	40.92394	-91.39362
5226	18	-4	-2	0.1997048	-0.01523599	0.0528277	0	12.48	4003	0	0	5	5	0.02	-0.1444063	1	10	0.03	1800	-1.04187	40.92394	-91.39362
5329	17	-1	-2	0.2028844	-0.01611814	0.05502845	0	12.48	4003	0	0	5	5	0.02	-0.1262433	1	10	0.03	1800	-0.803009	40.92394	-91.39362
5428	19	-2	-4	0.2046274	-0.01154528	0.0566792	0	12.48	4004	0	0	5	5	0.02	-0.1120396	1	10	0.03	1800	-0.8154907	40.92394	-91.39362
5546	22	0	0	0.2088128	-0.009504505	0.06053063	0	12.48	4003	0	0	5	5	0.02	-0.1026497	1	10	0.03	1800	-0.8165588	40.92394	-91.39362
5675	14	4	-5	0.2099658	-0.01168631	0.06322044	0	12.48	4002	0	0	5	5	0.02	-0.1006906	1	10	0.03	1800	-0.8192749	40.92394	-91.39362
5857	22	2	2	0.2206862	-0.01077219	0.06694972	0	12.48	4003	0	0	5	5	0.02	-0.1006449	1	10	0.03	1800	-0.833374	40.92394	-91.39362
5985	18	-5	1	0.2287005	-0.01717314	0.06957897	0	12.59	4002	0	0	5	5	0.02	-0.100513	1	10	0.03	1800	-1.088013	40.92394	-91.39362
6091	17	0	-3	0.2254709	-0.01844911	0.07208559	0	12.59	4002	0	0	5	5	0.02	-0.1040625	1	10	0.03	1800	-0.8547058	40.92394	-91.39362
6220	13	-3	-5	0.2222564	-0.01294641	0.07483669	0	12.59	4004	0	0	5	5	0.02	-0.09855498	1	10	0.03	1800	-0.8425293	40.92394	-91.39362
6253	14	0	-5	0.2206102	-0.01217878	0.07557044	0	12.59	4003	0	0	5	5	0.02	-0.095132	1	10	0.03	1800	-0.8425293	40.92394	-91.39362
6318	21	-1	-4	0.2191519	-0.01011303	0.0805226	0	12.59	4004	0	0	5	5	0.02	-0.08675414	1	10	0.03	1800	-0.8412476	40.92394	-91.39362
6430	8	2	0	0.223215	-0.007437803	0.08192878	0	12.59	4004	0	0	5	5	0.02	-0.07684374	1	10	0.03	1800	-0.8421936	40.92394	-91.39362
6575	16	-7	-4	0.2242282	-0.01208637	0.08486351	0	12.59	4002	0	0	5	5	0.02	-0.06004124	1	10	0.03	1800	-0.8413086	40.92394	-91.39362
6671	23	1	1	0.2233508	-0.005424484	0.0877372	0	12.59	4004	0	0	5	5	0.02	-0.06042589	1	10	0.03	1800	-0.8418274	40.92394	-91.39362
6708	19	5	-2	0.219547	-0.008066703	0.08785944	0	12.59	4002	0	0	5	5	0.02	-0.06362735	1	10	0.03	1800	-0.8418274	40.92394	-91.39362
6811	15	-1	-3	0.2166082	-0.003426834	0.09079403	0	12.59	4004	0	0	5	5	0.02	-0.06940214	1	10	0.03	1800	-0.8360291	40.92394	-91.39362
6919	13	7	0	0.2169289	-0.009423333	0.09458451	0	12.48	4004	0	0	5	5	0.02	-0.07083517	1	10	0.03	1800	-0.6034851	40.92394	-91.39362
6999	18	-1	-4	0.2166824	-0.01531125	0.09580735	0	12.48	4003	0	0	5	5	0.02	-0.07472294	1	10	0.03	1800	-1.079163	40.92394	-91.39362
7175	23	6	-4	0.2199458	-0.01637048	0.09947567	0	12.48	4003	0	0	5	5	0.02	-0.06788483	1	10	0.03	1800	-1.068481	40.92393	-91.39362
7214	18	0	0	0.2202142	-0.0159657	0.1011262	0	12.48	4004	0	0	5	5	0.02	-0.06526657	1	10	0.03	1800	-0.8446655	40.92393	-91.39362
7324	22	-7	-11	0.2213262	-0.01382217	0.1023489	0	12.48	4003	0	0	5	5	0.02	-0.05636903	1	10	0.03	1800	-1.077362	40.92393	-91.39362
7385	18	2	0	0.2198948	-0.01938979	0.1025323	0	12.48	4004	0	0	5	5	0.02	-0.05127786	1	10	0.03	1800	-0.8430481	40.92393	-91.39362
7491	20	0	-1	0.2212125	-0.0105968	0.105834	0	12.48	4004	0	0	5	5	0.02	-0.04254957	1	10	0.03	1800	-0.8468323	40.92393	-91.39362
7605	18	-1	-2	0.2224761	-0.006752404	0.1076071	0	12.48	4003	0	0	5	5	0.02	-0.02076389	1	10	0.03	1800	-1.08139	40.92393	-91.39362
7700	17	3	0	0.2211698	-0.008409111	0.111642	0	12.48	4004	0	0	5	5	0.02	-0.01425092	1	10	0.03	1800	-0.6105957	40.92393	-91.39362
7798	16	-3	1	0.2206333	-0.01557942	0.1137816	0	12.48	4004	0	0	5	5	0.02	-0.01480852	1	10	0.03	1800	-0.8473511	40.92393	-91.39362
7886	20	1	0	0.2270931	-0.01183195	0.1182443	0	12.48	4002	0	0	5	5	0.02	-0.02246873	1	10	0.03	1800	-0.8510132	40.92393	-91.39362
8039	15	5	-6	0.2363577	-0.01472487	0.1228908	0	12.48	4003	0	0	5	5	0.02	-0.03542963	1	10	0.03	1800	-0.874054	40.92393	-91.39362
8169	23	2	-2	0.241147	-0.0133885	0.1276593	0	12.48	4003	0	0	5	5	0.02	-0.05165819	1	10	0.03	1800	-1.108368	40.92393	-91.39362
8255	13	1	-1	0.247279	-0.01411515	0.1311442	0	12.48	4002	0	0	5	5	0.02	-0.05940335	1	10	0.03	1800	-0.6521912	40.92393	-91.39362
8351	19	2	-5	0.2528422	-0.006156352	0.1338954	0	12.48	4002	0	0	5	5	0.02	-0.06598271	1	10	0.03	1800	-0.8856812	40.92393	-91.39362
8500	20	3	0	0.2500094	-0.01008898	0.1393975	0	12.48	4004	0	0	5	5	0.02	-0.07894468	1	10	0.03	1800	-0.6509094	40.92393	-91.39362
8656	19	6	-3	0.2480442	-0.01096348	0.1436772	0	12.48	4004	0	0	5	5	0.02	-0.0778181	1	10	0.03	1800	-0.6630249	40.92393	-91.39362
8843	16	-5	-5	0.2476723	-0.01204338	0.1484461	0	12.48	4003	0	0	5	5	0.02	-0.07574292	1	10	0.03	1800	-1.114471	40.92393	-91.39362
8943	18	-3	2	0.2495808	-0.02174641	0.1518702	0	12.48	4004	0	0	5	5	0.02	-0.07453567	1	10	0.03	1800	-0.8926392	40.92393	-91.39362
9052	22	4	-5	0.2492113	-0.02446692	0.1548052	0	12.48	4004	0	0	5	5	0.02	-0.07104285	1	10	0.03	1800	-1.125305	40.92393	-91.39362
9124	15	-2	0	0.2557133	-0.02134349	0.1567006	0	12.48	4003	0	0	5	5	0.02	-0.07022995	1	10	0.03	1800	-1.129517	40.92393	-91.39362
9224	23	-7	-2	0.2548832	-0.01657688	0.1595127	0	12.48	4002	0	0	5	5	0.02	-0.07070428	1	10	0.03	1800	-0.9006958	40.92393	-91.39362
9391	21	-2	-2	0.2599832	-0.006769845	0.1634256	0	12.48	4002	0	0	5	5	0.02	-0.06998155	1	10	0.03	1800	-0.9111023	40.92393	-91.39362
9430	18	2	-3	0.2576222	-0.01173536	0.1642817	0	12.48	4003	0	0	5	5	0.02	-0.06782569	1	10	0.03	1800	-0.9111023	40.92393	-91.39362
9579	25	3	0	0.2610066	-0.008842306	0.1691726	0	12.42	4004	0	0	5	5	0.02	-0.0584789	1	10	0.03	1800	-0.9076233	40.92393	-91.39362
9631	16	2	-4	0.2622775	-0.008887351	0.1704566	0	12.42	4003	0	0	5	5	0.02	-0.05675688	1	10	0.03	1800	-0.9076233	40.92393	-91.39362
9726	20	0	-7	0.2609794	-0.01177529	0.1711291	0	12.42	4004	0	0	5	5	0.02	-0.05514122	1	10	0.03	1800	-1.145172	40.92393	-91.39362
9892	16	0	0	0.2552114	-0.02245714	0.1754092	0	12.42	4002	0	0	5	5	0.02	-0.06485525	1	10	0.03	1800	-0.907074	40.92393	-91.39362
10005	19	5	-4	0.255427	-0.02755717	0.1804224	0	12.42	4003	0	0	5	5	0.02	-0.07327935	1	10	0.03	1800	-1.141571	40.92393	-91.39362
10037	17	-1	-4	0.2563913	-0.02991785	0.1817062	0	12.42	4004	0	0	5	5	0.02	-0.07327935	1	10	0.03	1800	-1.141571	40.92393	-91.39362
10159	18	0	-4	0.2508962	-0.03108983	0.184824	0	12.42	4004	0	0	5	5	0.02	-0.07159072	1	10	0.03	1800	-0.9015198	40.92393	-91.39362
10231	25	0	-2	0.2578419	-0.02428522	0.1864137	0	12.42	4003	0	0	5	5	0.02	-0.07373399	1	10	0.03	1800	-0.9038086	40.92393	-91.39362
10324	20	-5	1	0.2575185	-0.02237154	0.1859855	0	12.42	4003	0	0	5	5	0.02	-0.08495663	1	10	0.03	1800	-0.9083557	40.92393	-91.39362
10434	18	-3	0	0.2620441	-0.01191216	0.1885533	0	12.48	4003	0	0	5	5	0.02	-0.08811054	1	10	0.03	1800	-0.6806641	40.92393	-91.39362
10507	22	-1	1	0.2667877	-0.00745978	0.1916712	0	12.48	4002	0	0	5	5	0.02	-0.09057461	1	10	0.03	1800	-0.9239502	40.92393	-91.39362
10644	16	0	-3	0.2616439	-0.01572173	0.1927105	0	12.48	4003	0	0	5	5	0.02	-0.09685553	1	10	0.03	1800	-0.9152832	40.92393	-91.39362
10741	19	-2	-5	0.2639058	-0.0143324	0.1956451	0	12.48	4004	0	0	5	5	0.02	-0.1037774	1	10	0.03	1800	-0.9090576	40.92393	-91.39362
10904	20	4	0	0.265915	-0.01406696	0.2017591	0	12.48	4003	0	0	5	5	0.02	-0.1085811	1	10	0.03	1800	-0.9169006	40.92393	-91.39362
10979	22	-1	2	0.2722653	-0.01464363	0.2012701	0	12.48	4003	0	0	5	5	0.02	-0.1170151	1	10	0.03	1800	-1.163574	40.92393	-91.39362
11062	18	0	2	0.2722571	-0.01202974	0.2031041	0	12.48	4002	0	0	5	5	0.02	-0.1330225	1	10	0.03	1800	-0.9295349	40.92393	-91.39362
11161	20	0	2	0.2675994	-0.018493	0.2049383	0	12.48	4003	0	0	5	5	0.02	-0.1405566	1	10	0.03	1800	-0.6924133	40.92393	-91.39362
11198	17	2	-8	0.2624702	-0.01700137	0.2059778	0	12.48	4003	0	0	5	5	0.02	-0.1454357	1	10	0.03	1800	-0.9158325	40.92393	-91.39362
11325	22	3	2	0.2647135	-0.0174007	0.2098903	0	12.53	4004	0	0	5	5	0.02	-0.1425575	1	10	0.03	1800	-1.141174	40.92393	-91.39362
11463	22	-1	1	0.2699963	-0.01948215	0.2138641	0	12.53	4004	0	0	5	5	0.02	-0.128044	1	10	0.03	1800	-1.150238	40.92393	-91.39362
11550	17	-1	-5	0.2653727	-0.01610664	0.2167377	0	12.53	4003	0	0	5	5	0.02	-0.1217773	1	10	0.03	1800	-0.9178772	40.92393	-91.39362
11682	19	-4	-4	0.263295	-0.01114502	0.2193055	0	12.53	4003	0	0	5	5	0.02	-0.1141009	1	10	0.03	1800	-0.9159241	40.92393	-91.39362
11905	18	-1	-2	0.2567084	-0.0141161	0.2254187	0	12.53	4004	0	0	5	5	0.02	-0.1171481	1	10	0.03	1800	-1.146393	40.92393	-91.39362
12039	20	-4	-3	0.2591668	-0.01577174	0.231227	0	12.53	4004	0	0	5	5	0.02	-0.1189267	1	10	0.03	1800	-1.141968	40.92393	-91.39362
12092	21	-6	-3	0.2625819	-0.01852207	0.2320218	0	12.53	4003	0	0	5	5	0.02	-0.1204276	1	10	0.03	1800	-1.141968	40.92393	-91.39362
12173	18	-4	-1	0.2700325	-0.01395283	0.2344061	0	12.53	4002	0	0	5	5	0.02	-0.1224927	1	10	0.03	1800	-1.15799	40.92393	-91.39362
12332	21	1	-2	0.2763678	-0.02104728	0.2355678	0	12.53	4002	0	0	5	5	0.02	-0.1209678	1	10	0.03	1800	-0.9395142	40.92393	-91.39362
12405	22	-3	6	0.2764811	-0.02316711	0.2375854	0	12.53	4002	0	0	5	5	0.02	-0.1136363	1	10	0.03	1800	-0.4691162	40.92393	-91.39362
12495	24	-1	0	0.2762205	-0.02723278	0.2404587	0	12.53	4004	0	0	5	5	0.02	-0.101464	1	10	0.03	1800	-0.7033386	40.92393	-91.39362
12570	25	4	-1	0.2744067	-0.02681033	0.24107	0	12.53	4003	0	0	5	5	0.02	-0.09690122	1	10	0.03	1800	-0.9396667	40.92393	-91.39362
12673	27	-1	0	0.2825456	-0.0252306	0.2443713	0	12.53	4002	0	0	5	5	0.02	-0.09518139	1	10	0.03	1800	-0.9412537	40.92393	-91.39362
12791	19	-2	-3	0.2820635	-0.01953732	0.2476726	0	12.53	4003	0	0	5	5	0.02	-0.09503894	1	10	0.03	1800	-0.9422607	40.92393	-91.39362
12912	14	2	-3	0.2830795	-0.02411498	0.2477948	0	12.53	4002	0	0	5	5	0.02	-0.0910214	1	10	0.03	1800	-0.9477234	40.92393	-91.39362
12987	21	3	-3	0.2798044	-0.02643204	0.2488339	0	12.53	4003	0	0	5	5	0.02	-0.08192824	1	10	0.03	1800	-0.9454956	40.92393	-91.39362
13119	18	-3	-1	0.2800412	-0.02745054	0.2504846	0	12.59	4004	0	0	5	5	0.02	-0.06838166	1	10	0.03	1800	-0.9513855	40.92393	-91.39362
13169	24	0	-4	0.2829009	-0.02750629	0.2516459	0	12.59	4002	0	0	5	5	0.02	-0.0667292	1	10	0.03	1800	-0.9450378	40.92393	-91.39362
13272	26	-8	0	0.2824565	-0.02567879	0.2551914	0	12.59	4003	0	0	5	5	0.02	-0.05707494	1	10	0.03	1800	-0.7173157	40.92393	-91.39362
13394	20	-1	0	0.2880421	-0.02897536	0.2582482	0	12.59	4002	0	0	5	5	0.02	-0.04784314	1	10	0.03	1800	-0.7151184	40.92393	-91.39362
13479	26	4	-2	0.2897119	-0.02561483	0.2584316	0	12.59	4004	0	0	5	5	0.02	-0.04255404	1	10	0.03	1800	-0.9617615	40.92393	-91.39362
13645	19	0	-5	0.2903064	-0.03232506	0.2652791	0	12.59	4003	0	0	5	5	0.02	-0.04449536	1	10	0.03	1800	-0.9638367	40.92393	-91.39362
13684	22	0	-4	0.2893053	-0.02994935	0.2666242	0	12.59	4003	0	0	5	5	0.02	-0.04450247	1	10	0.03	1800	-0.9638367	40.92393	-91.39362
13797	15	5	2	0.2861602	-0.02980018	0.2698644	0	12.59	4003	0	0	5	5	0.02	-0.04186345	1	10	0.03	1800	-0.9564209	40.92393	-91.39362
13903	20	2	1	0.2904746	-0.03248246	0.2724932	0	12.59	4004	0	0	5	5	0.02	-0.03793363	1	10	0.03	1800	-0.9536133	40.92393	-91.39362
14002	22	6	-5	0.2920098	-0.03556796	0.274633	0	12.59	4003	0	0	5	5	0.02	-0.03183807	1	10	0.03	1800	-0.9703674	40.92393	-91.39362
14154	24	0	-1	0.2889382	-0.03234986	0.2792183	0	12.53	4003	0	0	5	5	0.02	-0.02825638	1	10	0.03	1800	-1.190308	40.92393	-91.39362
14234	21	0	-3	0.2861492	-0.0344303	0.2810525	0	12.53	4003	0	0	5	5	0.02	-0.0277227	1	10	0.03	1800	-0.9598694	40.92393	-91.39362
14290	30	4	-2	0.2882985	-0.03406153	0.2830089	0	12.53	4002	0	0	5	5	0.02	-0.02733364	1	10	0.03	1800	-0.725708	40.92393	-91.39362
14470	22	1	-2	0.2923444	-0.02867413	0.2853932	0	12.53	4003	0	0	5	5	0.02	-0.01707868	1	10	0.03	1800	-0.7269592	40.92393	-91.39362
14522	21	1	-6	0.2982106	-0.02677109	0.2886339	0	12.53	4004	0	0	5	5	0.02	-0.008838565	1	10	0.03	1800	-1.196289	40.92393	-91.39362
14606	21	2	-6	0.2955719	-0.02146382	0.2901011	0	12.53	4004	0	0	5	5	0.02	-0.003290795	1	10	0.03	1800	-0.7397156	40.92393	-91.39362
14713	33	4	0	0.2963555	-0.02426815	0.292669	0	12.53	4004	0	0	5	5	0.02	0.004334893	1	10	0.03	1800	-0.9705505	40.92393	-91.39362
14798	26	-8	0	0.2960889	-0.02705516	0.2948088	0	12.53	4003	0	0	5	5	0.02	0.008261856	1	10	0.03	1800	-0.9761658	40.92393	-91.39362
14928	20	2	-1	0.2988569	-0.02957785	0.2996382	0	12.53	4002	0	0	5	5	0.02	0.007614128	1	10	0.03	1800	-0.9767456	40.92393	-91.39362
15009	19	-1	1	0.2914741	-0.03154081	0.3005555	0	12.48	4003	0	0	5	5	0.02	6.371606E-05	1	10	0.03	1800	-0.9767456	40.92393	-91.39362
15087	24	-4	1	0.2944183	-0.02799958	0.3016558	0	12.48	4004	0	0	5	5	0.02	-0.007763064	1	10	0.03	1800	-0.9685974	40.92393	-91.39362
15203	18	0	1	0.2880576	-0.03026693	0.3034289	0	12.48	4003	0	0	5	5	0.02	-0.02686318	1	10	0.03	1800	-0.7221375	40.92393	-91.39362
15287	17	-2	0	0.2882469	-0.02732395	0.307036	0	12.48	4002	0	0	5	5	0.02	-0.03503731	1	10	0.03	1800	-0.9599304	40.92393	-91.39362
15374	18	0	1	0.2894964	-0.02785235	0.3091758	0	12.48	4003	0	0	5	5	0.02	-0.03723624	1	10	0.03	1800	-0.9617004	40.92393	-91.39362
15552	19	4	0	0.30213	-0.02966222	0.3119268	0	12.48	4004	0	0	5	5	0.02	-0.03732176	1	10	0.03	1800	-0.742157	40.92393	-91.39362
15639	24	0	0	0.305479	-0.03104594	0.3130274	0	12.48	4004	0	0	5	5	0.02	-0.04506526	1	10	0.03	1800	-0.9797058	40.92393	-91.39362
15818	25	1	0	0.3124714	-0.02526297	0.3150449	0	12.48	4003	0	0	5	5	0.02	-0.06168976	1	10	0.03	1800	-1.224243	40.92393	-91.39362
15972	27	2	-3	0.3089883	-0.0260235	0.3174902	0	12.53	4003	0	0	5	5	0.02	-0.07823867	1	10	0.03	1800	-0.9935913	40.92393	-91.39362
16019	27	0	-9	0.3110717	-0.02580758	0.3181626	0	12.53	4002	0	0	5	5	0.02	-0.08067267	1	10	0.03	1800	-1.226685	40.92393	-91.39362
16106	26	0	0	0.3110062	-0.02910271	0.3195076	0	12.53	4003	0	0	5	5	0.02	-0.08708341	1	10	0.03	1800	-0.7639771	40.92393	-91.39362
16326	23	-6	0	0.2996563	-0.03451484	0.3251323	0	12.53	4002	0	0	5	5	0.02	-0.09174909	1	10	0.03	1800	-0.9811401	40.92393	-91.39362
16399	24	4	-1	0.2998445	-0.033942	0.3264162	0	12.53	4004	0	0	5	5	0.02	-0.09513529	1	10	0.03	1800	-0.9750977	40.92393	-91.39362
16504	24	-5	-5	0.3060518	-0.02837166	0.3281892	0	12.53	4003	0	0	5	5	0.02	-0.1079068	1	10	0.03	1800	-1.216461	40.92393	-91.39362
16676	22	-1	1	0.3096108	-0.01891329	0.3323467	0	12.53	4004	0	0	5	5	0.02	-0.1274514	1	10	0.03	1800	-0.7620239	40.92393	-91.39362
16766	23	-1	-3	0.3099827	-0.01803224	0.3344256	0	12.53	4004	0	0	5	5	0.02	-0.1236518	1	10	0.03	1800	-0.9954834	40.92393	-91.39362
16881	26	-1	2	0.3138515	-0.01640257	0.3361373	0	12.53	4004	0	0	5	5	0.02	-0.1180543	1	10	0.03	1800	-1.001862	40.92393	-91.39362
17024	25	0	0	0.3243179	-0.01841545	0.3420606	0	12.53	4002	0	0	5	5	0.02	-0.1155732	1	10	0.03	1800	-1.029846	40.92393	-91.39362
17084	28	0	-4	0.324827	-0.01421692	0.343161	0	12.53	4003	0	0	5	5	0.02	-0.1166776	1	10	0.03	1800	-1.015503	40.92393	-91.39362
17164	31	2	-3	0.3361801	-0.01207796	0.3468227	0	12.53	4003	0	0	5	5	0.02	-0.1166776	1	10	0.03	1800	-1.036072	40.92393	-91.39362
17288	27	-2	0	0.3281928	-0.007908495	0.3501852	0	12.53	4003	0	0	5	5	0.02	-0.1213835	1	10	0.03	1800	-1.029449	40.92393	-91.39362
17364	25	-2	0	0.3253757	-0.01140315	0.35098	0	12.53	4003	0	0	5	5	0.02	-0.1249885	1	10	0.03	1800	-1.262268	40.92393	-91.39362
17559	26	3	-3	0.3300523	-0.009401758	0.359356	0	12.53	4003	0	0	5	5	0.02	-0.1321455	1	10	0.03	1800	-0.7914734	40.92393	-91.39362
17627	23	2	-2	0.3349869	-0.00946722	0.3593559	0	12.53	4004	0	0	5	5	0.02	-0.1314279	1	10	0.03	1800	-1.035339	40.92393	-91.39362
17696	26	-7	-11	0.3364021	-0.002843414	0.3616793	0	12.53	4003	0	0	5	5	0.02	-0.1287831	1	10	0.03	1800	-1.040771	40.92393	-91.39362
17762	21	2	0	0.3367458	-0.003255764	0.3629633	0	12.53	4003	0	0	5	5	0.02	-0.1280585	1	10	0.03	1800	-1.04361	40.92393	-91.39362
17865	23	-1	1	0.3366543	-0.006033679	0.3660206	0	12.53	4003	0	0	5	5	0.02	-0.1272214	1	10	0.03	1800	-1.029633	40.92393	-91.39362
18010	34	0	2	0.3323213	-0.008857036	0.3701167	0	12.53	4003	0	0	5	5	0.02	-0.1334388	1	10	0.03	1800	-0.8112488	40.92393	-91.39362
18078	23	4	-4	0.3312342	-0.0112754	0.3726238	0	12.53	4004	0	0	5	5	0.02	-0.13496	1	10	0.03	1800	-1.034851	40.92393	-91.39362
18270	26	-3	0	0.3280431	-0.01364745	0.3785543	0	12.53	4002	0	0	5	5	0.02	-0.1399592	1	10	0.03	1800	-0.7903442	40.92393	-91.39362
18366	22	-3	-8	0.3281813	-0.0116258	0.3815501	0	12.53	4003	0	0	5	5	0.02	-0.1398252	1	10	0.03	1800	-1.023407	40.92393	-91.39362
18456	29	1	2	0.3279644	-0.01983103	0.3841791	0	12.53	4003	0	0	5	5	0.02	-0.1391323	1	10	0.03	1800	-1.260803	40.92393	-91.39362
18545	24	1	0	0.3325583	-0.0217402	0.3857687	0	12.53	4002	0	0	5	5	0.02	-0.1382188	1	10	0.03	1800	-0.7931213	40.92393	-91.39362
18624	23	-2	-1	0.3410848	-0.01984892	0.3868082	0	12.59	4003	0	0	5	5	0.02	-0.1372124	1	10	0.03	1800	-1.043579	40.92393	-91.39362
18777	30	-4	-1	0.3363664	-0.01702174	0.3887034	0	12.59	4002	0	0	5	5	0.02	-0.1481152	1	10	0.03	1800	-1.045044	40.92393	-91.39362
18956	31	-5	-4	0.3365851	-0.01702599	0.3931054	0	12.59	4004	0	0	5	5	0.02	-0.1577297	1	10	0.03	1800	-1.040649	40.92393	-91.39362
19102	27	-5	-1	0.3405752	-0.01949587	0.3975073	0	12.59	4004	0	0	5	5	0.02	-0.1562483	1	10	0.03	1800	-1.044159	40.92393	-91.39362
19171	25	0	-5	0.3345474	-0.01302781	0.4036818	0	12.59	4003	0	0	5	5	0.02	-0.1535359	1	10	0.03	1800	-1.277374	40.92393	-91.39362
19279	27	1	-2	0.3350532	-0.01409396	0.4047211	0	12.59	4004	0	0	5	5	0.02	-0.1493949	1	10	0.03	1800	-1.277374	40.92393	-91.39362
19362	27	-7	-5	0.3414487	-0.01478838	0.4081447	0	12.59	4004	0	0	5	5	0.02	-0.1504908	1	10	0.03	1800	-1.048187	40.92393	-91.39362
19470	26	2	-3	0.3454426	-0.02213277	0.4154813	0	12.48	4002	0	0	5	5	0.02	-0.1467402	1	10	0.03	1800	-1.072144	40.92393	-91.39362
19613	24	0	0	0.3467424	-0.01920669	0.4171931	0	12.48	4002	0	0	5	5	0.02	-0.1338025	1	10	0.03	1800	-1.057312	40.92393	-91.39362
19667	28	-5	1	0.3453711	-0.01752309	0.4192108	0	12.48	4003	0	0	5	5	0.02	-0.1329581	1	10	0.03	1800	-1.053345	40.92393	-91.39362
19740	28	-1	-2	0.3546883	-0.0132419	0.4222066	0	12.48	4002	0	0	5	5	0.02	-0.1293973	1	10	0.03	1800	-0.8400879	40.92393	-91.39362
19807	29	0	0	0.3562408	-0.01455316	0.4230014	0	12.48	4004	0	0	5	5	0.02	-0.1286077	1	10	0.03	1800	-1.298706	40.92393	-91.39362
19940	23	-6	-4	0.3585969	-0.009193586	0.4266087	0	12.48	4003	0	0	5	5	0.02	-0.1260758	1	10	0.03	1800	-1.077637	40.92393	-91.39362
20036	29	2	3	0.3571218	-0.01270789	0.4306436	0	12.48	4002	0	0	5	5	0.02	-0.1303561	1	10	0.03	1800	-0.84552	40.92393	-91.39362
20171	30	-7	-1	0.357537	-0.01882416	0.4340674	0	12.48	4003	0	0	5	5	0.02	-0.1328835	1	10	0.03	1800	-1.077942	40.92393	-91.39362
20294	22	2	1	0.3616165	-0.02043886	0.4351068	0	12.48	4002	0	0	5	5	0.02	-0.1289232	1	10	0.03	1800	-1.075256	40.92393	-91.39362
20351	27	1	0	0.364224	-0.02292614	0.4376745	0	12.59	4003	0	0	5	5	0.02	-0.1195247	1	10	0.03	1800	-1.082947	40.92393	-91.39362
20459	25	6	-4	0.3626448	-0.02696806	0.4441553	0	12.59	4003	0	0	5	5	0.02	-0.1079953	1	10	0.03	1800	-1.323761	40.92393	-91.39362
20518	31	-1	0	0.3651436	-0.02611958	0.4454391	0	12.59	4002	0	0	5	5	0.02	-0.1008931	1	10	0.03	1800	-1.323761	40.92393	-91.39362
20623	27	-3	-2	0.3580827	-0.02849965	0.4473955	0	12.59	4002	0	0	5	5	0.02	-0.091401	1	10	0.03	1800	-1.314331	40.92393	-91.39362
20684	20	-6	-3	0.3612048	-0.02590789	0.4492908	0	12.59	4003	0	0	5	5	0.02	-0.08935548	1	10	0.03	1800	-1.087341	40.92393	-91.39362
20831	32	-6	0	0.3648587	-0.02861634	0.4516141	0	12.59	4003	0	0	5	5	0.02	-0.08743304	1	10	0.03	1800	-0.8581238	40.92393	-91.39362
20887	26	3	-3	0.3671009	-0.03137774	0.4532648	0	12.59	4003	0	0	5	5	0.02	-0.08656267	1	10	0.03	1800	-1.326355	40.92393	-91.39362
21009	22	2	6	0.3576873	-0.03018091	0.4604791	0	12.59	4004	0	0	5	5	0.02	-0.09042394	1	10	0.03	1800	-0.6159668	40.92393	-91.39362
21118	31	0	-5	0.3595458	-0.02464591	0.4624355	0	12.59	4004	0	0	5	5	0.02	-0.09501945	1	10	0.03	1800	-0.847168	40.92393	-91.39362
21226	25	2	-3	0.360099	-0.03074337	0.4662259	0	12.59	4003	0	0	5	5	0.02	-0.09397265	1	10	0.03	1800	-1.081573	40.92393	-91.39362
21300	25	-2	-3	0.3583727	-0.02659404	0.4686104	0	12.48	4003	0	0	5	5	0.02	-0.09617295	1	10	0.03	1800	-1.081573	40.92393	-91.39362
21407	22	-7	-9	0.3614838	-0.02172382	0.4727676	0	12.48	4003	0	0	5	5	0.02	-0.09507062	1	10	0.03	1800	-1.086853	40.92393	-91.39362
21544	21	0	0	0.3623738	-0.02255215	0.477475	0	12.48	4004	0	0	5	5	0.02	-0.0916371	1	10	0.03	1800	-0.8579102	40.92393	-91.39362
21664	27	1	-5	0.3609802	-0.02818188	0.4834663	0	12.48	4003	0	0	5	5	0.02	-0.08418118	1	10	0.03	1800	-1.079376	40.92393	-91.39362
21707	23	-1	-3	0.3630612	-0.03080278	0.4842611	0	12.48	4003	0	0	5	5	0.02	-0.08179241	1	10	0.03	1800	-1.320862	40.92393	-91.39362
21823	28	-2	-2	0.3562694	-0.03346984	0.4876235	0	12.48	4003	0	0	5	5	0.02	-0.07429799	1	10	0.03	1800	-0.8459778	40.92393	-91.39362
21924	27	0	-2	0.3564373	-0.0356652	0.4901912	0	12.48	4004	0	0	5	5	0.02	-0.06141075	1	10	0.03	1800	-1.074738	40.92393	-91.39362
22043	25	-2	-3	0.3574707	-0.03813238	0.4942263	0	12.48	4004	0	0	5	5	0.02	-0.05688684	1	10	0.03	1800	-1.079742	40.92393	-91.39362
22114	30	-4	0	0.3583046	-0.03758173	0.4959382	0	12.48	4002	0	0	5	5	0.02	-0.05341713	1	10	0.03	1800	-1.077759	40.92393	-91.39362
22213	25	-3	-4	0.3622083	-0.02886926	0.5005845	0	12.53	4003	0	0	5	5	0.02	-0.06208693	1	10	0.03	1800	-1.318542	40.92393	-91.39362
22371	21	2	-2	0.364017	-0.02941362	0.5055371	0	12.53	4004	0	0	5	5	0.02	-0.07477808	1	10	0.03	1800	-1.319122	40.92393	-91.39362
22421	26	0	1	0.3606795	-0.02816745	0.5052314	0	12.53	4002	0	0	5	5	0.02	-0.07950079	1	10	0.03	1800	-1.319122	40.92393	-91.39362
22551	29	0	0	0.3646726	-0.02495306	0.5106115	0	12.53	4004	0	0	5	5	0.02	-0.08545349	1	10	0.03	1800	-1.089539	40.92393	-91.39362
22625	30	1	-2	0.3686166	-0.02373923	0.5121396	0	12.53	4003	0	0	5	5	0.02	-0.08599089	1	10	0.03	1800	-1.084656	40.92393	-91.39362
22726	27	0	-1	0.3703523	-0.01703849	0.5156245	0	12.53	4002	0	0	5	5	0.02	-0.08408195	1	10	0.03	1800	-1.098633	40.92393	-91.39362
22878	26	0	-4	0.3713777	-0.01826406	0.5186204	0	12.53	4004	0	0	5	5	0.02	-0.08678699	1	10	0.03	1800	-0.8674011	40.92393	-91.39362
23017	26	-4	-1	0.3780735	-0.02097576	0.5220441	0	12.53	4004	0	0	5	5	0.02	-0.08442706	1	10	0.03	1800	-1.109619	40.92393	-91.39362
23061	27	-7	-5	0.3809361	-0.01857084	0.5239393	0	12.53	4003	0	0	5	5	0.02	-0.08350488	1	10	0.03	1800	-1.121887	40.92393	-91.39362
23155	21	0	0	0.3866826	-0.02301235	0.5276079	0	12.48	4004	0	0	5	5	0.02	-0.08245991	1	10	0.03	1800	-0.8896179	40.92393	-91.39362
23232	26	-3	1	0.3858447	-0.01984448	0.5307871	0	12.48	4003	0	0	5	5	0.02	-0.08139258	1	10	0.03	1800	-0.8942261	40.92393	-91.39362
23389	32	-1	1	0.3857628	-0.02060883	0.5350063	0	12.48	4004	0	0	5	5	0.02	-0.08623785	1	10	0.03	1800	-0.8838501	40.92393	-91.39362
23470	29	1	0	0.391784	-0.02270909	0.5369014	0	12.48	4003	0	0	5	5	0.02	-0.09041981	1	10	0.03	1800	-1.358643	40.92393	-91.39362
23570	30	0	-1	0.391196	-0.0232907	0.5413644	0	12.48	4003	0	0	5	5	0.02	-0.09286001	1	10	0.03	1800	-1.129395	40.92393	-91.39362
23627	21	1	-1	0.3937705	-0.02154236	0.5435657	0	12.48	4003	0	0	5	5	0.02	-0.09341905	1	10	0.03	1800	-1.14386	40.92393	-91.39362
23738	31	-5	0	0.3850691	-0.02600037	0.5461951	0	12.48	4004	0	0	5	5	0.02	-0.09660531	1	10	0.03	1800	-0.8904114	40.92393	-91.39362
23868	33	-1	-3	0.3858681	-0.02623419	0.5476622	0	12.48	4003	0	0	5	5	0.02	-0.1037894	1	10	0.03	1800	-1.363586	40.92393	-91.39362
23932	26	1	0	0.3872041	-0.02689704	0.5491906	0	12.48	4004	0	0	5	5	0.02	-0.1080332	1	10	0.03	1800	-1.126404	40.92393	-91.39362
24041	27	2	-2	0.3835129	-0.02359758	0.552431	0	12.48	4006	0	0	5	5	0.02	-0.1185285	1	10	0.03	1800	-1.351624	40.92393	-91.39362
24174	33	-8	0	0.3842846	-0.03268192	0.5553045	0	12.48	4003	0	0	5	5	0.02	-0.1277258	1	10	0.03	1800	-1.122803	40.92393	-91.39362
24246	30	-3	1	0.3866988	-0.0321812	0.5566495	0	12.48	4003	0	0	5	5	0.02	-0.1259732	1	10	0.03	1800	-1.35379	40.92393	-91.39362
24362	34	1	1	0.3905988	-0.03198271	0.557628	0	12.48	4002	0	0	5	5	0.02	-0.1152872	1	10	0.03	1800	-1.362793	40.92393	-91.39362
24442	25	-7	-3	0.3895752	-0.03505014	0.5608072	0	12.48	4004	0	0	5	5	0.02	-0.1059311	1	10	0.03	1800	-1.132507	40.92393	-91.39362
24565	35	0	0	0.3931564	-0.03375665	0.564354	0	12.48	4003	0	0	5	5	0.02	-0.09150328	1	10	0.03	1800	-1.138947	40.92393	-91.39362
24672	26	-1	0	0.3985197	-0.0339206	0.5641705	0	12.48	4003	0	0	5	5	0.02	-0.08580869	1	10	0.03	1800	-1.143524	40.92393	-91.39362
24777	21	2	-2	0.3891019	-0.03210149	0.5678388	0	12.48	4004	0	0	5	5	0.02	-0.07725263	1	10	0.03	1800	-1.365723	40.92393	-91.39362
24844	20	-1	-2	0.3868383	-0.02825527	0.5690617	0	12.48	4002	0	0	5	5	0.02	-0.07379442	1	10	0.03	1800	-1.131042	40.92393	-91.39362
24937	33	0	0	0.3841287	-0.0256508	0.5706515	0	12.48	4004	0	0	5	5	0.02	-0.06775706	1	10	0.03	1800	-1.127838	40.92393	-91.39362
25069	19	-1	-2	0.3882435	-0.02563432	0.5755423	0	12.48	4002	0	0	5	5	0.02	-0.06439053	1	10	0.03	1800	-1.360596	40.92393	-91.39362
25193	29	0	-3	0.3920149	-0.03001744	0.5787826	0	12.48	4004	0	0	5	5	0.02	-0.05786999	1	10	0.03	1800	-1.131744	40.92393	-91.39362
25262	27	4	0	0.39423	-0.02885661	0.5798831	0	12.48	4002	0	0	5	5	0.02	-0.05195202	1	10	0.03	1800	-1.131744	40.92393	-91.39362
25437	26	2	-3	0.3935914	-0.03718352	0.5851412	0	12.48	4004	0	0	5	5	0.02	-0.02990521	1	10	0.03	1800	-0.9031982	40.92393	-91.39362
25503	27	4	-1	0.392144	-0.0326103	0.5859972	0	12.48	4002	0	0	5	5	0.02	-0.02359296	1	10	0.03	1800	-1.134827	40.92393	-91.39362
25583	26	-4	-2	0.3919982	-0.03162383	0.5861806	0	12.48	4003	0	0	5	5	0.02	-0.01805214	1	10	0.03	1800	-1.13916	40.92393	-91.39362
25641	35	-6	2	0.3919144	-0.03531877	0.5873421	0	12.48	4002	0	0	5	5	0.02	-0.01401288	1	10	0.03	1800	-1.369659	40.92393	-91.39362
25743	37	2	1	0.3858871	-0.03555512	0.5894821	0	12.48	4004	0	0	5	5	0.02	-0.01027615	1	10	0.03	1800	-1.135101	40.92393	-91.39362
25866	30	0	0	0.3887441	-0.03590501	0.5919888	0	12.48	4004	0	0	5	5	0.02	-0.007356741	1	10	0.03	1800	-1.125214	40.92393	-91.39362
25974	24	-3	-1	0.3913598	-0.04034302	0.593395	0	12.53	4004	0	0	5	5	0.02	-0.005247577	1	10	0.03	1800	-1.131866	40.92393	-91.39362
26101	31	3	1	0.3865362	-0.03911041	0.5940676	0	12.53	4003	0	0	5	5	0.02	0.0009934851	1	10	0.03	1800	-0.8968201	40.92393	-91.39362
26149	23	3	1	0.3940234	-0.03800919	0.5954128	0	12.53	4002	0	0	5	5	0.02	-0.0009116619	3	10	0.03	1800	-1.368347	40.92393	-91.39362
26396	36	-3	-2	0.3949561	-0.04263193	0.6006095	0	12.53	4003	0	0	5	5	0.02	-0.009650014	3	10	0.03	1800	-1.146973	40.92393	-91.39362
26460	31	-7	-5	0.393804	-0.03624379	0.6044614	0	12.53	4003	0	0	5	5	0.02	-0.01125877	3	10	0.03	1800	-1.133545	40.92393	-91.39362
26572	34	2	-3	0.4035341	-0.02949986	0.6058066	0	12.53	4003	0	0	5	5	0.02	-0.01231428	3	10	0.03	1800	-1.153503	40.92393	-91.39362
26661	31	0	1	0.4017423	-0.03532722	0.6081299	0	12.53	4003	0	0	5	5	0.02	-0.01995668	3	10	0.03	1800	-1.153259	40.92393	-91.39362
26817	27	-4	-2	0.4037431	-0.03289063	0.6108198	0	12.53	4003	0	0	5	5	0.02	-0.02889987	3	10	0.03	1800	-1.161469	40.92393	-91.39362
26916	34	0	-2	0.4073975	-0.03866952	0.6120427	0	12.53	4004	0	0	5	5	0.02	-0.04234302	3	10	0.03	1800	-1.166962	40.92393	-91.39362
26961	38	0	-1	0.4073952	-0.03988592	0.6128377	0	12.53	4003	0	0	5	5	0.02	-0.04551763	3	10	0.03	1800	-1.159027	40.92393	-91.39362
27053	25	-1	-1	0.4158098	-0.03852867	0.6152219	0	12.53	4002	0	0	5	5	0.02	-0.04918532	3	10	0.03	1800	-1.152893	40.92393	-91.39362
27147	31	-8	4	0.4149282	-0.04095614	0.6182786	0	12.53	4004	0	0	5	5	0.02	-0.05221878	3	10	0.03	1800	-1.174133	40.92393	-91.39362
27341	36	0	-1	0.4224226	-0.04091091	0.6209686	0	12.53	4004	0	0	5	5	0.02	-0.05217627	3	10	0.03	1800	-1.184113	40.92393	-91.39362
27392	32	0	-8	0.4277343	-0.03918845	0.6232309	0	12.53	4004	0	0	5	5	0.02	-0.04828131	3	10	0.03	1800	-1.426788	40.92393	-91.39362
27502	15	4	-3	0.427748	-0.04151033	0.6277547	0	12.53	4004	0	0	5	5	0.02	-0.04443188	3	10	0.03	1800	-1.19278	40.92393	-91.39362
27612	31	-4	0	0.4250601	-0.04303163	0.6304451	0	12.53	4004	0	0	5	5	0.02	-0.04058417	3	10	0.03	1800	-1.427246	40.92393	-91.39362
27682	35	-2	-3	0.4247	-0.04149604	0.6330737	0	12.53	4002	0	0	5	5	0.02	-0.03947153	3	10	0.03	1800	-0.9611206	40.92393	-91.39362
27792	31	1	2	0.4226874	-0.0476631	0.6361923	0	12.48	4002	0	0	5	5	0.02	-0.02830074	3	10	0.03	1800	-1.421051	40.92393	-91.39362
27816	31	1	2	0.4226874	-0.0476631	0.6361923	0	12.48	4002	0	0	5	5	0.02	-0.02240457	3	10	0.03	1800	-1.421051	40.92393	-91.39362
27937	31	5	1	0.4187617	-0.04532821	0.6374148	0	12.48	4003	0	0	5	5	0.02	-0.006947219	3	10	0.03	1800	-1.184296	40.92393	-91.39362
28109	35	3	-2	0.4195278	-0.05158544	0.6407166	0	12.48	4003	0	0	5	5	0.02	0.006555828	3	10	0.03	1800	-1.410858	40.92393	-91.39362
28192	31	4	-3	0.4168492	-0.05149775	0.6442016	0	12.48	4002	0	0	5	5	0.02	0.01166061	3	10	0.03	1800	-1.412903	40.92393	-91.39362
28268	31	4	-6	0.4170827	-0.05033676	0.6453021	0	12.48	4003	0	0	5	5	0.02	0.01413725	3	10	0.03	1800	-1.414642	40.92393	-91.39362
28328	38	2	-3	0.413234	-0.04861614	0.6490929	0	12.48	4003	0	0	5	5	0.02	0.01226877	3	10	0.03	1800	-1.186432	40.92393	-91.39362
28403	37	2	-2	0.411541	-0.05369614	0.6501324	0	12.48	4003	0	0	5	5	0.02	0.006121969	3	10	0.03	1800	-1.181244	40.92393	-91.39362
28558	29	0	-3	0.4172248	-0.05183886	0.6549009	0	12.48	4002	0	0	5	5	0.02	0.00850497	3	10	0.03	1800	-1.405396	40.92393	-91.39362
28637	35	-9	-2	0.4181869	-0.05046761	0.6592417	0	12.53	4004	0	0	5	5	0.02	0.018482	3	10	0.03	1800	-1.174469	40.92393	-91.39362
28703	33	5	4	0.425802	-0.05234341	0.6601589	0	12.53	4003	0	0	5	5	0.02	0.01706278	3	10	0.03	1800	-1.20047	40.92393	-91.39362
28761	34	-5	0	0.4290022	-0.05683438	0.6629099	0	12.53	4004	0	0	5	5	0.02	0.01354665	3	10	0.03	1800	-0.958252	40.92393	-91.39362
28841	33	3	-1	0.4349443	-0.05043916	0.6649274	0	12.53	4002	0	0	5	5	0.02	0.009022637	3	10	0.03	1800	-1.203461	40.92393	-91.39362
28988	28	-1	1	0.4380715	-0.04059929	0.669207	0	12.53	4003	0	0	5	5	0.02	0.004363591	3	10	0.03	1800	-1.207367	40.92393	-91.39362
29086	27	0	-2	0.4408023	-0.03559967	0.6707963	0	12.53	4002	0	0	5	5	0.02	0.005900962	3	10	0.03	1800	-1.221497	40.92393	-91.39362
29194	31	-1	0	0.4439037	-0.03194193	0.6737918	0	12.53	4003	0	0	5	5	0.02	0.009500447	3	10	0.03	1800	-1.228119	40.92393	-91.39362
29233	27	-1	2	0.4424081	-0.03534803	0.6739753	0	12.53	4002	0	0	5	5	0.02	0.01127221	3	10	0.03	1800	-1.228119	40.92393	-91.39362
29333	34	-4	-3	0.4492317	-0.03066225	0.6783163	0	12.53	4003	0	0	5	5	0.02	0.009255536	3	10	0.03	1800	-1.46405	40.92393	-91.39362
29430	29	0	-4	0.4490001	-0.03195743	0.6824738	0	12.53	4002	0	0	5	5	0.02	0.006190908	3	10	0.03	1800	-1.467255	40.92393	-91.39362
29546	36	-1	0	0.4471454	-0.04078482	0.6849195	0	12.53	4003	0	0	5	5	0.02	0.0006170386	3	10	0.03	1800	-1.463104	40.92393	-91.39362
29632	25	-6	-4	0.4495415	-0.03919549	0.6865093	0	12.53	4004	0	0	5	5	0.02	-0.006385595	3	10	0.03	1800	-1.233063	40.92393	-91.39362
29730	36	-1	-9	0.4478611	-0.03529481	0.6900551	0	12.53	4002	0	0	5	5	0.02	-0.008537988	3	10	0.03	1800	-0.9980774	40.92393	-91.39362
29931	35	-2	-3	0.4463875	-0.03771853	0.6979427	0	12.53	4003	0	0	5	5	0.02	-0.02465274	3	10	0.03	1800	-1.229767	40.92393	-91.39362
29990	29	-9	-2	0.4411312	-0.03351627	0.7008159	0	12.53	4003	0	0	5	5	0.02	-0.03105024	3	10	0.03	1800	-1.229767	40.92393	-91.39362
30144	37	1	-1	0.4402178	-0.03855466	0.7076022	0	12.53	4004	0	0	5	5	0.02	-0.03974262	3	10	0.03	1800	-0.9754944	40.92393	-91.39362
30225	38	0	-43	0.4395207	-0.03889157	0.7115154	0	12.53	4004	0	0	5	5	0.02	-0.03948921	3	10	0.03	1800	-1.216858	40.92393	-91.39362
30395	-22	-45	56	0.4408095	-0.0275269	0.7031406	0	12.53	4003	0	0	5	5	0.02	-0.02989412	3	10	0.03	1800	-1.23291	40.92393	-91.39362
30475	6	-110	53	0.4522941	-0.04440572	0.7144006	0	12.53	4004	0	0	5	5	0.02	-0.0315491	3	10	0.03	1800	-0.3274536	40.92393	-91.39362
30583	34	19	-25	0.4743212	-0.04241842	0.7175803	0	12.53	4003	0	0	5	5	0.02	-0.0286818	3	10	0.03	1800	-1.314484	40.92393	-91.39362
30626	78	-23	79	0.4798309	-0.03672134	0.71556	0	12.53	4003	0	0	5	5	0.02	-0.02687373	3	10	0.03	1800	-1.314484	40.92393	-91.39362
30721	-103	-7	95	0.4992349	-0.0657471	0.7211714	0	12.53	4003	0	0	5	5	0.02	-0.02086052	3	10	0.03	1800	-0.6393433	40.92393	-91.39362
30816	29	45	79	0.5141851	-0.02413779	0.7215867	0	12.53	4012	0	0	5	5	0.02	-0.02121632	3	10	0.03	1800	-1.354065	40.92394	-91.39362
30942	-169	-148	171	0.5136747	-0.05448207	0.7333434	0	12.53	4004	0	0	5	5	0.02	-0.02250084	3	10	0.03	1800	-0.9298096	40.92394	-91.39362
31076	-85	-33	58	0.5085002	-0.04699282	0.7450836	0	12.53	4003	0	0	5	5	0.02	-0.01223566	3	10	0.03	1800	-1.370697	40.92394	-91.39362
31134	18	-70	228	0.4853028	-0.05299799	0.7461275	0	12.53	4003	0	0	5	5	0.02	-0.01121122	3	10	0.03	1800	-0.8985596	40.92394	-91.39362
31222	-301	-49	-31	0.4953937	-0.05728193	0.7571346	0	12.53	4003	0	0	5	5	0.02	-0.01134439	3	10	0.03	1800	-1.327606	40.92394	-91.39362
31327	-236	-76	30	0.5063801	-0.04283351	0.7487664	0	12.36	4004	0	0	5	5	0.02	-0.01146702	3	10	0.03	1800	-1.351532	40.92394	-91.39362
