time(ms)	gyro_x(deg/s)	gyro_y(deg/s)	gyro_z(deg/s)	orientation_roll(deg)	orientation_pitch(deg)	orientation_yaw(deg)	throttle	battery(V)	loop_time(uS)	pid_output_roll	pid_output_pitch	pid_output_yaw	pid_output_throttle	ultrasonic_alt	baro_alt	flight_mode	p_gain_altitude	i_gain_altitude	d_gain_altitude	compass_heading	latitude	longitude
313803	-2000	1277	410	-7.044116	-1.805464	-33.87902	0	11.11	4004	0	0	5	5	0.2449019	0.6144904	3	10	0.03	2000	-5.815338	40.92392	-91.39365
313894	7630	-26	-3403	-4.555954	-1.066784	-30.89531	0	11.11	4002	0	0	5	5	0.2449019	0.6131963	3	10	0.03	2000	-8.663849	40.92392	-91.39365
313955	7516	1398	6810	2.784167	-3.713845	-34.2988	0	11.11	4004	0	0	5	5	0.2449019	0.6121161	3	10	0.03	2000	-2.773224	40.92392	-91.39365
314077	-11486	-446	2112	-2.071389	-4.616828	-39.56467	0	11.11	4002	0	0	5	5	0.2449019	0.6136737	3	10	0.03	2000	1.99312	40.92392	-91.39365
314260	-1756	4618	-1485	-20.20909	-7.929372	-46.49878	0	11.11	4002	0	0	5	5	0.2449019	0.5986946	3	10	0.03	2000	3.98852	40.92392	-91.39365
314293	-4934	6291	-4591	-22.79854	-9.828815	-44.74488	0	11.11	4004	0	0	5	5	0.2449019	0.5880064	3	10	0.03	2000	3.98852	40.92392	-91.39365
314363	-3873	5336	-2166	-29.58796	-14.10104	-39.78803	0	11.11	4002	0	0	5	5	0.2449019	0.567349	3	10	0.03	2000	2.480142	40.92392	-91.39365
314484	4480	3024	-4593	-26.78973	-21.13521	-35.16481	0	11.11	4003	0	0	5	5	0.2449019	0.5178568	3	10	0.03	2000	-10.19168	40.92392	-91.39365
314560	5858	3411	-1987	-21.38438	-22.80803	-30.72623	0	11.23	4004	0	0	5	5	0.2449019	0.4881997	3	10	0.03	2000	-14.55338	40.92392	-91.39365
314720	2536	2177	6200	3.387302	-32.12006	-41.56141	0	11.23	4003	0	0	5	5	0.2449019	0.4409096	3	10	0.03	2000	-15.72482	40.92392	-91.39365
314821	-2236	-1960	3934	7.061247	-28.65318	-50.78617	0	11.23	4003	0	0	5	5	0.2449019	0.4061112	3	10	0.03	2000	-3.298035	40.92392	-91.39365
314860	-3494	-3187	1845	5.437661	-26.70552	-52.35365	0	11.23	4002	0	0	5	5	0.2449019	0.3945989	3	10	0.03	2000	-3.298035	40.92392	-91.39365
314961	-1291	999	211	0.3824611	-28.19721	-49.19461	0	11.23	4002	0	0	5	5	0.2449019	0.3655026	3	10	0.03	2000	-1.002747	40.92392	-91.39365
315131	-548	-1192	-622	-1.443543	-30.98146	-48.5871	0	11.23	4004	0	0	5	5	0.2449019	0.3469596	3	10	0.03	2000	-3.203369	40.92392	-91.39365
315237	-1186	1427	-3195	-7.606332	-31.18476	-43.46838	0	11.23	4004	0	0	5	5	0.2449019	0.3275686	3	10	0.03	2000	-5.006348	40.92392	-91.39365
315316	-2088	2127	-2735	-11.14968	-32.63828	-40.19012	0	11.23	4002	0	0	5	5	0.2449019	0.3203133	3	10	0.03	2000	-9.446411	40.92392	-91.39365
315417	694	1465	-2714	-15.74316	-31.49932	-36.56216	0	11.23	4004	0	0	5	5	0.02	0.3109175	6	10	0.03	2000	-12.41522	40.92392	-91.39365
315596	2187	-3008	-811	-4.943325	-36.91204	-31.73822	0	11.23	4004	0	0	5	5	0.02	0.2938248	6	10	0.03	2000	-18.53049	40.92392	-91.39365
315723	-2006	610	-1986	-9.175422	-35.24225	-29.236	0	11.23	4003	0	0	5	5	0.02	0.2736917	6	10	0.03	2000	-20.36826	40.92392	-91.39365
315864	1407	-2570	-2062	-14.5996	-32.69614	-22.76342	0	11.23	4002	0	0	5	5	0.02	0.2585979	1	10	0.03	2000	-22.94754	40.92393	-91.39365
315938	1857	-525	106	-13.50907	-30.99887	-21.08886	0	11.23	4003	0	0	5	5	0.02	0.2560403	1	10	0.03	2000	-23.14499	40.92393	-91.39365
316075	-1693	-1224	4243	-8.372366	-30.6274	-27.82874	0	11.23	4002	0	0	5	5	0.02	0.2543914	1	10	0.03	2000	-23.04428	40.92393	-91.39365
316214	-3748	-5836	-1900	-10.96595	-19.72074	-25.56079	0	11.23	4004	0	0	5	5	0.02	0.269487	1	10	0.03	2000	-17.84933	40.92393	-91.39365
316328	-1388	-602	-1980	-17.98256	-15.97931	-20.95728	0	11.23	4004	0	0	5	5	0.02	0.2764878	1	10	0.03	2000	-20.79041	40.92393	-91.39365
316401	-1073	4949	-1268	-18.2175	-17.88587	-19.8504	0	11.29	4003	0	0	5	5	0.02	0.2825474	1	10	0.03	2000	-24.6907	40.92393	-91.39365
316567	-2391	8124	-2763	-24.52073	-33.50293	-12.54289	0	11.29	4004	0	0	5	5	0.02	0.2858204	1	10	0.03	2000	-41.81686	40.92393	-91.39364
316603	-3659	8215	-1655	-26.69479	-37.70444	-11.39011	0	11.29	4004	0	0	5	5	0.02	0.2826304	1	10	0.03	2000	-41.81686	40.92393	-91.39364
316706	-3519	7207	-3166	-40.30244	-49.54692	-5.475493	0	11.29	4003	0	0	5	5	0.02	0.2710914	1	10	0.03	2000	-65.58719	40.92393	-91.39364
316761	195	4212	-843	-42.53721	-53.43744	-3.102011	0	11.29	4004	0	0	5	5	0.02	0.2677402	1	10	0.03	2000	-77.19678	40.92393	-91.39364
316868	1227	-2289	1100	-37.92258	-55.27995	-3.73472	0	11.29	4002	0	0	5	5	0.02	0.2402386	1	10	0.03	2000	-80.63229	40.92393	-91.39364
317021	-1749	-3798	2914	-32.61697	-48.91113	-7.871251	0	11.29	4003	0	0	5	5	0.02	0.2227551	1	10	0.03	2000	-68.72116	40.92393	-91.39364
317070	-1423	-3873	3891	-30.41858	-46.77871	-11.73263	0	11.29	4004	0	0	5	5	0.02	0.2137158	1	10	0.03	2000	-61.14886	40.92393	-91.39364
317199	-4863	1363	2947	-29.54446	-47.60973	-20.09772	0	11.29	4004	0	0	5	5	0.02	0.2093351	1	10	0.03	2000	-47.13049	40.92393	-91.39364
317324	-4403	-2293	2342	-32.10337	-49.87266	-24.60306	0	11.34	4006	0	0	5	5	0.02	0.2037583	1	10	0.03	2000	-46.33734	40.92394	-91.39364
317403	-4770	44	-1633	-36.09395	-49.31125	-25.16116	0	11.34	4002	0	0	5	5	0.02	0.1964644	1	10	0.03	2000	-42.99301	40.92394	-91.39364
317478	-1752	872	-2275	-42.06858	-48.43782	-22.29201	0	11.34	4003	0	0	5	5	0.02	0.1846585	1	10	0.03	2000	-42.89114	40.92394	-91.39364
317637	1503	1312	1702	-40.69592	-53.44997	-25.10475	0	11.34	4003	0	0	5	5	0.02	0.1781881	1	10	0.03	2000	-49.65411	40.92394	-91.39364
317722	1321	1145	878	-33.84584	-56.33736	-26.36255	0	11.34	4004	0	0	5	5	0.02	0.1815449	1	10	0.03	2000	-49.54202	40.92394	-91.39364
317783	-1874	-1011	1028	-33.50851	-57.1032	-27.79554	0	11.34	4004	0	0	5	5	0.02	0.1820263	1	10	0.03	2000	-48.88293	40.92394	-91.39364
317913	-1600	-2660	1083	-34.1909	-55.24361	-28.8619	0	11.34	4008	0	0	5	5	0.02	0.1776945	1	10	0.03	2000	-46.28836	40.92394	-91.39364
318022	1071	611	559	-27.81029	-54.9551	-36.00631	0	11.34	4002	0	0	5	5	0.02	0.1614328	1	10	0.03	2000	-35.57486	40.92394	-91.39364
318119	-1490	-997	-328	-28.50206	-55.51039	-34.92366	0	11.34	4002	0	0	5	5	0.02	0.1455936	1	10	0.03	2000	-34.04956	40.92394	-91.39364
318193	-2237	-1694	-1160	-29.93613	-54.58332	-34.56628	0	11.34	4004	0	0	5	5	0.02	0.1058159	1	10	0.03	2000	-34.04956	40.92394	-91.39364
318301	6351	-1361	2307	-26.21964	-50.8955	-33.21481	0	11.29	4003	0	0	5	5	0.02	0.06834017	1	10	0.03	2000	-34.00943	40.92394	-91.39364
318431	6074	1649	1371	-9.812726	-51.84215	-41.09608	0	11.29	4003	0	0	5	5	0.02	0.02980324	1	10	0.03	2000	-19.23157	40.92394	-91.39364
318587	-2042	-1354	545	9.003951	-65.13754	-43.15876	0	11.29	4004	0	0	5	5	0.02	-0.03528284	1	10	0.03	2000	-17.79678	40.92394	-91.39364
318661	-148	4521	-103	9.58854	-63.41819	-44.96329	0	11.29	4003	0	0	5	5	0.02	-0.07077781	1	10	0.03	2000	-11.16141	40.92394	-91.39364
318752	-486	9730	-46	8.536425	-74.4967	-45.15319	0	11.29	4003	0	0	5	5	0.02	-0.09151445	1	10	0.03	2000	-8.801971	40.92394	-91.39364
318882	-318	11993	127	7.470088	-92.01373	-45.22809	0	11.29	4004	0	0	5	5	0.02	-0.1297612	1	10	0.03	2000	-6.310608	40.92394	-91.39364
318971	-395	11540	290	6.927696	-108.3208	-45.64409	0	11.29	4003	0	0	5	5	0.02	-0.1599783	1	10	0.03	2000	-1.469513	40.92394	-91.39364
319079	23598	217	-10	30.47321	-115.861	-53.12567	0	11.29	4003	0	0	5	5	0.02	-0.2073878	1	10	0.03	2000	28.82782	40.92394	-91.39364
319104	14892	8139	-1191	40.18421	-113.4579	-53.10923	0	11.29	4002	0	0	5	5	0.02	-0.2325905	1	10	0.03	2000	28.82782	40.92394	-91.39364
319222	-7003	-5607	-4843	21.70491	-103.4717	-48.38189	0	11.34	4003	0	0	5	5	0.02	-0.2618059	1	10	0.03	2000	21.69989	40.92394	-91.39364
319377	-4423	-18882	1654	-6.816607	-68.0134	-38.69423	0	11.34	4003	0	0	5	5	0.02	-0.3093312	1	10	0.03	2000	-22.39279	40.92393	-91.39363
319492	-3227	-21097	9126	-11.83473	-34.18443	-47.28249	0	11.34	4003	0	0	5	5	0.02	-0.3327718	1	10	0.03	2000	-16.18777	40.92393	-91.39363
319526	1071	-15604	4304	-9.998603	-26.33646	-51.60512	0	11.34	4004	0	0	5	5	0.02	-0.3349198	1	10	0.03	2000	-3.917999	40.92393	-91.39363
319645	469	-10492	-2112	-7.974503	0.1891724	-49.49174	0	11.34	4003	0	0	5	5	0.02	-0.3494946	1	10	0.03	2000	2.996145	40.92393	-91.39363
319739	140	-9213	-454	-6.615244	11.22013	-47.92737	0	11.34	4004	0	0	5	5	0.02	-0.3559003	1	10	0.03	2000	3.358068	40.92394	-91.39363
319883	-136	232	33	-4.125397	21.69871	-46.17597	0	11.34	4003	0	0	5	5	0.02	-0.3575443	1	10	0.03	2000	2.679097	40.92394	-91.39363
319933	-20	-154	-11	-4.062647	20.73452	-46.19376	0	11.34	4003	0	0	5	5	0.02	-0.3667511	1	10	0.03	2000	2.179127	40.92394	-91.39363
320002	-58	0	7	-3.754229	18.91727	-46.20073	0	11.34	4003	0	0	5	5	0.02	-0.3699728	1	10	0.03	2000	2.311045	40.92394	-91.39363
320175	-352	-118	209	-3.122784	14.99585	-46.25237	0	11.34	4004	0	0	5	5	0.02	-0.4058639	1	10	0.03	2000	1.671485	40.92393	-91.39363
320288	108	-187	52	-2.908994	12.95348	-46.26477	0	11.34	4004	0	0	5	5	0.02	-0.411258	1	10	0.03	2000	1.318489	40.92394	-91.39363
320309	-23	53	-14	-2.776133	12.40021	-46.28006	0	11.34	4004	0	0	5	5	0.02	-0.4107098	1	10	0.03	2000	1.318489	40.92394	-91.39363
320403	-48	-28	-61	-2.6287	11.2143	-46.28752	0	11.34	4002	0	0	5	5	0.02	-0.4054037	1	10	0.03	2000	0.957315	40.92394	-91.39363
320513	-283	488	357	-2.249115	7.594744	-46.08968	0	11.34	4004	0	0	5	5	0.02	-0.3869082	1	10	0.03	2000	0.5084187	40.92394	-91.39363
320608	-9	-35	41	-2.160918	8.68788	-46.1354	0	11.34	4003	0	0	5	5	0.02	-0.37194	1	10	0.03	2000	0.02050968	40.92394	-91.39363
320818	-49	34	2	-1.807509	6.444611	-46.09512	0	11.34	4003	0	0	5	5	0.02	-0.3261855	1	10	0.03	2000	-0.06369019	40.92394	-91.39363
320891	-74	-1	16	-1.718855	5.863465	-46.10746	0	11.34	4002	0	0	5	5	0.02	-0.3003412	1	10	0.03	2000	-0.02456665	40.92394	-91.39363
320981	-75	-2	13	-1.623426	5.108746	-46.12278	0	11.34	4003	0	0	5	5	0.02	-0.2870013	1	10	0.03	2000	-0.6622925	40.92394	-91.39363
321149	-64	0	7	-1.432671	3.865365	-46.15238	0	11.34	4002	0	0	5	5	0.02	-0.2854107	1	10	0.03	2000	-0.885437	40.92394	-91.39363
321281	-63	1	16	-1.364975	3.350249	-46.16813	0	11.34	4003	0	0	5	5	0.02	-0.284384	1	10	0.03	2000	-0.647583	40.92393	-91.39363
321441	-76	10	12	-1.27314	2.643257	-46.19632	0	11.34	4003	0	0	5	5	0.02	-0.3022896	1	10	0.03	2000	-0.7844238	40.92393	-91.39363
321529	-66	0	5	-1.227777	2.286962	-46.2103	0	11.34	4004	0	0	5	5	0.02	-0.3087705	1	10	0.03	2000	-1.137238	40.92393	-91.39363
321649	-71	-1	5	-1.146393	1.898533	-46.22928	0	11.34	4002	0	0	5	5	0.02	-0.3192823	1	10	0.03	2000	-1.215759	40.92394	-91.39364
321747	-67	5	9	-1.117321	1.725275	-46.23967	0	11.34	4003	0	0	5	5	0.02	-0.3352583	1	10	0.03	2000	-1.29248	40.92394	-91.39364
321822	-68	2	7	-1.091472	1.560124	-46.24894	0	11.34	4003	0	0	5	5	0.02	-0.3445276	1	10	0.03	2000	-1.352478	40.92394	-91.39364
321913	-70	0	12	-1.06873	1.287426	-46.27263	0	11.34	4003	0	0	5	5	0.02	-0.3573093	1	10	0.03	2000	-1.426544	40.92394	-91.39364
322053	-68	14	13	-1.037579	1.112115	-46.2893	0	11.34	4002	0	0	5	5	0.02	-0.3618666	1	10	0.03	2000	-1.504669	40.92394	-91.39364
322145	-68	0	12	-1.013336	0.9073454	-46.31188	0	11.34	4003	0	0	5	5	0.02	-0.3593735	1	10	0.03	2000	-1.788086	40.92394	-91.39364
322273	-79	1	11	-1.005135	0.7690777	-46.32647	0	11.34	4003	0	0	5	5	0.02	-0.3413951	1	10	0.03	2000	-2.055359	40.92394	-91.39364
322384	-65	0	13	-0.9776056	0.6573501	-46.33983	0	11.34	4003	0	0	5	5	0.02	-0.3396338	1	10	0.03	2000	-1.594971	40.92394	-91.39364
322436	-67	0	7	-0.9517294	0.5591766	-46.35454	0	11.34	4004	0	0	5	5	0.02	-0.3399885	1	10	0.03	2000	-1.664215	40.92394	-91.39364
322520	-67	-1	8	-0.9423963	0.5031826	-46.36211	0	11.34	4003	0	0	5	5	0.02	-0.3394361	1	10	0.03	2000	-1.710632	40.92394	-91.39364
322636	-66	0	11	-0.9243435	0.3936831	-46.38012	0	11.34	4003	0	0	5	5	0.02	-0.3442644	1	10	0.03	2000	-1.731628	40.92394	-91.39364
322721	-61	2	10	-0.9276127	0.3555092	-46.3897	0	11.34	4003	0	0	5	5	0.02	-0.356521	1	10	0.03	2000	-1.727783	40.92394	-91.39364
322829	-68	2	5	-0.9216889	0.2988781	-46.40636	0	11.34	4003	0	0	5	5	0.02	-0.3725585	1	10	0.03	2000	-1.738434	40.92394	-91.39364
322929	-65	-2	11	-0.9232553	0.2581346	-46.41753	0	11.34	4003	0	0	5	5	0.02	-0.3769501	1	10	0.03	2000	-1.73645	40.92394	-91.39364
323073	-73	1	7	-0.9036256	0.1551794	-46.44585	0	11.34	4003	0	0	5	5	0.02	-0.3957	1	10	0.03	2000	-1.781189	40.92394	-91.39364
323157	-73	9	9	-0.9047234	0.1277448	-46.4569	0	11.34	4004	0	0	5	5	0.02	-0.3970759	1	10	0.03	2000	-1.776123	40.92394	-91.39364
323235	-69	4	12	-0.8925207	0.1073538	-46.46655	0	11.34	4003	0	0	5	5	0.02	-0.3898209	1	10	0.03	2000	-1.803406	40.92394	-91.39364
323342	-62	0	9	-0.8625708	0.08084621	-46.48058	0	11.34	4004	0	0	5	5	0.02	-0.3866522	1	10	0.03	2000	-2.060608	40.92394	-91.39364
323465	-64	-1	10	-0.8588403	0.05948838	-46.49969	0	11.34	4004	0	0	5	5	0.02	-0.3808186	1	10	0.03	2000	-1.873108	40.92394	-91.39364
323530	-69	5	8	-0.8518921	0.04550989	-46.50951	0	11.34	4004	0	0	5	5	0.02	-0.3810943	1	10	0.03	2000	-1.873657	40.92394	-91.39364
323640	-67	-1	4	-0.8601797	0.01479586	-46.53204	0	11.34	4003	0	0	5	5	0.02	-0.3787783	3	10	0.03	2000	-2.349091	40.92394	-91.39364
323749	-66	0	9	-0.8567643	-0.006802953	-46.54754	0	11.29	4003	0	0	5	5	0.02	-0.3721742	3	10	0.03	2000	-2.115814	40.92394	-91.39364
323828	-69	3	3	-0.8586336	-0.01337843	-46.55713	0	11.29	4004	0	0	5	5	0.02	-0.3659017	3	10	0.03	2000	-1.878967	40.92394	-91.39364
323925	-66	-2	7	-0.8471943	-0.02527302	-46.5708	0	11.29	4003	0	0	5	5	0.02	-0.3629287	3	10	0.03	2000	-1.639984	40.92394	-91.39364
324104	-61	-1	5	-0.8299226	-0.0432777	-46.59558	0	11.29	4004	0	0	5	5	0.02	-0.3718915	3	10	0.03	2000	-2.162659	40.92394	-91.39364
324189	-58	0	8	-0.8248249	-0.04648532	-46.60803	0	11.29	4004	0	0	5	5	0.02	-0.372506	3	10	0.03	2000	-1.921722	40.92394	-91.39364
324239	-66	5	8	-0.82283	-0.0457394	-46.61383	0	11.29	4004	0	0	5	5	0.02	-0.3710537	3	10	0.03	2000	-2.408295	40.92394	-91.39364
324329	-60	0	9	-0.8208612	-0.05943008	-46.63	0	11.29	4002	0	0	5	5	0.02	-0.3654206	3	10	0.03	2000	-2.186523	40.92394	-91.39364
324446	-60	3	11	-0.8150358	-0.07737431	-46.64832	0	11.29	4002	0	0	5	5	0.02	-0.3560798	3	10	0.03	2000	-1.942322	40.92394	-91.39364
324590	-63	-2	3	-0.8091807	-0.07400233	-46.66632	0	11.29	4002	0	0	5	5	0.02	-0.3553817	3	10	0.03	2000	-2.18103	40.92394	-91.39364
324621	-59	3	12	-0.8048632	-0.08055622	-46.6756	0	11.29	4003	0	0	5	5	0.02	-0.3533918	3	10	0.03	2000	-1.957642	40.92394	-91.39364
324830	-73	0	3	-0.797375	-0.08706709	-46.70337	0	11.29	4003	0	0	5	5	0.0240745	-0.3428989	6	10	0.03	2000	-2.211426	40.92394	-91.39364
324882	-60	0	13	-0.8014023	-0.09237587	-46.7077	0	11.29	4004	0	0	5	5	0.02835207	-0.341032	6	10	0.03	2000	-2.211426	40.92393	-91.39364
324972	-66	4	7	-0.7985323	-0.0875741	-46.72186	0	11.29	4002	0	0	5	5	0.03065523	-0.3416891	3	10	0.03	2000	-1.988098	40.92393	-91.39364
325040	-64	2	9	-0.8045329	-0.0898993	-46.72638	0	11.29	4002	0	0	5	5	0.0325208	-0.3430746	3	10	0.03	2000	-1.988098	40.92394	-91.39364
325236	-56	0	4	-0.8134218	-0.1152551	-46.75049	0	11.29	4002	0	0	5	5	0.02356421	-0.3418227	6	10	0.03	2000	-1.956329	40.92394	-91.39364
325282	-66	3	13	-0.8104649	-0.1135706	-46.76233	0	11.29	4003	0	0	5	5	0.02508369	-0.3412415	6	10	0.03	2000	-2.448059	40.92394	-91.39364
325341	-62	0	6	-0.8092515	-0.1144233	-46.76636	0	11.29	4004	0	0	5	5	0.02662272	-0.3398748	6	10	0.03	2000	-2.448059	40.92394	-91.39364
325481	-63	-3	3	-0.8031397	-0.1137025	-46.78137	0	11.29	4003	0	0	5	5	0.0325322	-0.3430732	6	10	0.03	2000	-2.210693	40.92394	-91.39364
325581	-59	3	6	-0.8084766	-0.119197	-46.79443	0	11.34	4003	0	0	5	5	0.03468442	-0.3485729	6	10	0.03	2000	-1.975708	40.92394	-91.39364
325621	-63	4	7	-0.8106294	-0.1172765	-46.79877	0	11.34	4002	0	0	5	5	0.03526338	-0.3499873	6	10	0.03	2000	-1.965057	40.92394	-91.39364
325761	-57	0	-1	-0.7991726	-0.1127927	-46.81781	0	11.34	4002	0	0	5	5	0.03705531	-0.3602571	6	10	0.03	2000	-2.22525	40.92394	-91.39364
325875	-57	3	6	-0.7896689	-0.1150698	-46.83441	0	11.34	4003	0	0	5	5	0.03752558	-0.366537	6	10	0.03	2000	-2.465546	40.92394	-91.39364
325921	-62	2	7	-0.7858435	-0.1199499	-46.8371	0	11.34	4003	0	0	5	5	0.03813012	-0.3630669	6	10	0.03	2000	-2.000092	40.92394	-91.39364
326073	-64	-4	8	-0.7857689	-0.1212122	-46.8584	0	11.34	4004	0	0	5	5	0.03876531	-0.358497	6	10	0.03	2000	-2.012756	40.92394	-91.39364
326135	-62	1	5	-0.7827011	-0.1217247	-46.86292	0	11.34	4004	0	0	5	5	0.03893618	-0.3588178	6	10	0.03	2000	-2.012756	40.92394	-91.39364
326256	-64	0	7	-0.7831843	-0.1143147	-46.87445	0	11.34	4005	0	0	5	5	0.03946503	-0.3607168	6	10	0.03	2000	-2.014587	40.92394	-91.39364
326427	-61	4	5	-0.7806934	-0.1206049	-46.89911	0	11.34	4003	0	0	5	5	0.03903215	-0.3698432	6	10	0.03	2000	-2.016235	40.92394	-91.39364
326502	-60	6	11	-0.7769976	-0.1171033	-46.90753	0	11.34	4003	0	0	5	5	0.03891508	-0.3767968	6	10	0.03	2000	-2.012177	40.92394	-91.39364
326606	-59	0	9	-0.7726815	-0.1172134	-46.92554	0	11.34	4004	0	0	5	5	0.03945119	-0.3918343	6	10	0.03	2000	-2.271698	40.92394	-91.39364
326632	-58	3	13	-0.7675471	-0.1148054	-46.9306	0	11.34	4003	0	0	5	5	0.03955347	-0.3940762	6	10	0.03	2000	-2.271698	40.92394	-91.39364
326739	-57	5	7	-0.7631403	-0.1149035	-46.93921	0	11.34	4002	0	0	5	5	0.03933817	-0.4013748	6	10	0.03	2000	-2.28949	40.92394	-91.39364
326851	-53	-4	6	-0.7627484	-0.1151421	-46.95563	0	11.34	4003	0	0	5	5	0.03940294	-0.4050943	6	10	0.03	2000	-2.051453	40.92394	-91.39364
326959	-60	2	8	-0.7556987	-0.1105958	-46.96643	0	11.34	4004	0	0	5	5	0.03916326	-0.4027865	6	10	0.03	2000	-2.049683	40.92394	-91.39364
327008	-59	-4	7	-0.7500739	-0.1105382	-46.97455	0	11.34	4003	0	0	5	5	0.03888408	-0.4016808	6	10	0.03	2000	-2.056366	40.92394	-91.39364
327146	-62	8	10	-0.7468014	-0.1001439	-46.99005	0	11.34	4003	0	0	5	5	0.03903712	-0.3989424	6	10	0.03	2000	-2.089203	40.92394	-91.39364
327244	-61	-1	5	-0.7468997	-0.1083	-46.99713	0	11.34	4003	0	0	5	5	0.03942651	-0.3969502	6	10	0.03	2000	-2.085083	40.92393	-91.39364
327371	-55	0	6	-0.7429189	-0.1048858	-47.01721	0	11.34	4003	0	0	5	5	0.03958094	-0.3913986	6	10	0.03	2000	-2.081085	40.92393	-91.39364
327431	-63	0	3	-0.7448657	-0.1107282	-47.02057	0	11.34	4005	0	0	5	5	0.0393596	-0.3900953	6	10	0.03	2000	-2.326477	40.92393	-91.39364
327521	-57	3	5	-0.7442899	-0.1106605	-47.03687	0	11.34	4004	0	0	5	5	0.03957134	-0.3882386	6	10	0.03	2000	-2.302185	40.92393	-91.39364
327629	-65	3	6	-0.748117	-0.1106279	-47.04718	0	11.34	4004	0	0	5	5	0.03988176	-0.3886141	6	10	0.03	2000	-2.319916	40.92393	-91.39364
327781	-62	1	11	-0.7454113	-0.1010136	-47.06946	0	11.34	4003	0	0	5	5	0.04012429	-0.3874851	6	10	0.03	2000	-2.076569	40.92393	-91.39364
327845	-59	3	7	-0.7461305	-0.1014713	-47.07782	0	11.34	4003	0	0	5	5	0.04015926	-0.387888	6	10	0.03	2000	-2.314697	40.92393	-91.39364
327969	-56	-2	8	-0.7483379	-0.1015896	-47.09229	0	11.34	4004	0	0	5	5	0.04011665	-0.3897796	6	10	0.03	2000	-2.309479	40.92393	-91.39364
328026	-58	-3	6	-0.7463236	-0.1022627	-47.10138	0	11.34	4004	0	0	5	5	0.03998088	-0.389953	6	10	0.03	2000	-2.072235	40.92393	-91.39364
328127	-56	1	6	-0.7413214	-0.1049043	-47.10773	0	11.34	4003	0	0	5	5	0.04011452	-0.3857886	6	10	0.03	2000	-2.082214	40.92393	-91.39364
328250	-62	1	11	-0.7423511	-0.1047581	-47.12781	0	11.34	4003	0	0	5	5	0.03956676	-0.3776059	6	10	0.03	2000	-1.836395	40.92393	-91.39364
328365	-67	-3	4	-0.7434071	-0.1054712	-47.14191	0	11.34	4002	0	0	5	5	0.03955291	-0.3649468	6	10	0.03	2000	-2.317993	40.92393	-91.39364
328455	-56	-4	8	-0.743461	-0.1046413	-47.14941	0	11.34	4004	0	0	5	5	0.03972792	-0.3600295	6	10	0.03	2000	-2.07608	40.92393	-91.39364
328561	-54	4	5	-0.7275105	-0.1104046	-47.16461	0	11.34	4002	0	0	5	5	0.03998449	-0.355386	6	10	0.03	2000	-2.101776	40.92393	-91.39364
328621	-62	0	4	-0.7261114	-0.1094953	-47.16876	0	11.34	4004	0	0	5	5	0.03968648	-0.3527118	6	10	0.03	2000	-2.110474	40.92393	-91.39364
328730	-63	4	8	-0.7254663	-0.1130674	-47.18481	0	11.34	4004	0	0	5	5	0.03953902	-0.3483594	6	10	0.03	2000	-2.363098	40.92393	-91.39364
328818	-61	0	7	-0.7278222	-0.1148137	-47.19232	0	11.34	4002	0	0	5	5	0.03971666	-0.3471035	6	10	0.03	2000	-2.111237	40.92393	-91.39364
328981	-61	2	5	-0.7297607	-0.1081467	-47.21185	0	11.34	4003	0	0	5	5	0.0400268	-0.341564	6	10	0.03	2000	-2.349457	40.92393	-91.39364
329067	-59	4	8	-0.7234982	-0.1039043	-47.22406	0	11.34	4004	0	0	5	5	0.04011177	-0.3418954	6	10	0.03	2000	-2.590637	40.92393	-91.39364
329123	-58	2	4	-0.7253824	-0.1045644	-47.23285	0	11.34	4002	0	0	5	5	0.03978957	-0.3480524	6	10	0.03	2000	-2.114899	40.92393	-91.39364
329249	-56	7	5	-0.7235717	-0.1067103	-47.24976	0	11.34	4003	0	0	5	5	0.03987492	-0.3627346	6	10	0.03	2000	-2.342651	40.92393	-91.39364
329324	-60	-6	6	-0.7242092	-0.1069064	-47.2569	0	11.34	4002	0	0	5	5	0.03998874	-0.3727279	6	10	0.03	2000	-2.107666	40.92393	-91.39364
329463	-57	-1	9	-0.7170743	-0.1119992	-47.27289	0	11.34	4003	0	0	5	5	0.03940986	-0.3940878	6	10	0.03	2000	-2.117279	40.92393	-91.39364
329542	-59	0	9	-0.7207094	-0.1142368	-47.28595	0	11.34	4002	0	0	5	5	0.03961204	-0.3995526	6	10	0.03	2000	-2.358582	40.92393	-91.39364
329655	-56	0	3	-0.7177981	-0.1150155	-47.30011	0	11.34	4004	0	0	5	5	0.03789053	-0.4025173	6	10	0.03	2000	-2.366821	40.92393	-91.39364
329741	-49	-2	9	-0.7184677	-0.1166464	-47.30676	0	11.34	4004	0	0	5	5	0.03860749	-0.396137	6	10	0.03	2000	-2.354767	40.92393	-91.39364
329819	-56	7	10	-0.7134462	-0.1179397	-47.31494	0	11.34	4004	0	0	5	5	0.03863627	-0.3919595	6	10	0.03	2000	-2.354767	40.92393	-91.39364
329952	-55	5	8	-0.7062747	-0.1174854	-47.33276	0	11.34	4003	0	0	5	5	0.0389285	-0.388095	6	10	0.03	2000	-2.143463	40.92393	-91.39364
330054	-51	2	7	-0.7084009	-0.1159962	-47.33942	0	11.34	4002	0	0	5	5	0.03914327	-0.3806895	6	10	0.03	2000	-2.140625	40.92393	-91.39364
330174	-60	0	5	-0.7041442	-0.1233	-47.35468	0	11.4	4003	0	0	5	5	0.03950389	-0.3789581	6	10	0.03	2000	-2.150391	40.92393	-91.39364
330315	-57	-1	5	-0.6983429	-0.1237945	-47.37079	0	11.4	4002	0	0	5	5	0.03990116	-0.3707307	6	10	0.03	2000	-2.155701	40.92394	-91.39364
330407	-49	1	5	-0.6985246	-0.1255596	-47.38336	0	11.4	4004	0	0	5	5	0.04001	-0.3595325	6	10	0.03	2000	-2.41391	40.92394	-91.39364
330531	-58	4	4	-0.6914335	-0.1215087	-47.39105	0	11.4	4003	0	0	5	5	0.03987416	-0.3480435	6	10	0.03	2000	-2.412384	40.92394	-91.39364
330597	-55	0	6	-0.694314	-0.1231876	-47.39978	0	11.4	4004	0	0	5	5	0.03976264	-0.3468401	6	10	0.03	2000	-2.172302	40.92394	-91.39364
330696	-49	-1	5	-0.6984634	-0.1228297	-47.41443	0	11.4	4003	0	0	5	5	0.03962998	-0.3406847	6	10	0.03	2000	-2.417419	40.92394	-91.39364
330803	-56	0	2	-0.6971614	-0.1129532	-47.42108	0	11.4	4003	0	0	5	5	0.03955309	-0.3330705	6	10	0.03	2000	-2.17218	40.92394	-91.39364
330928	-52	2	6	-0.6821991	-0.1153631	-47.43866	0	11.4	4003	0	0	5	5	0.03922461	-0.3164973	6	10	0.03	2000	-2.416748	40.92394	-91.39364
331003	-52	-5	8	-0.6817037	-0.1173205	-47.44617	0	11.34	4003	0	0	5	5	0.03946199	-0.3101303	6	10	0.03	2000	-2.182648	40.92394	-91.39364
331138	-56	-2	6	-0.6817556	-0.1115245	-47.45532	0	11.34	4003	0	0	5	5	0.03954608	-0.3078005	6	10	0.03	2000	-1.946533	40.92394	-91.39364
331267	-48	-3	9	-0.6786921	-0.1149544	-47.4715	0	11.34	4003	0	0	5	5	0.03986519	-0.3134647	6	10	0.03	2000	-2.439697	40.92394	-91.39364
331358	-54	3	7	-0.6748019	-0.1167596	-47.48126	0	11.34	4003	0	0	5	5	0.04003018	-0.3152158	6	10	0.03	2000	-2.447845	40.92394	-91.39364
331409	-57	2	13	-0.6736898	-0.1167052	-47.48657	0	11.34	4002	0	0	5	5	0.04007456	-0.3150212	6	10	0.03	2000	-2.447968	40.92394	-91.39364
331510	-56	0	8	-0.6671942	-0.1104638	-47.50372	0	11.34	4004	0	0	5	5	0.03986001	-0.3145863	6	10	0.03	2000	-2.45871	40.92394	-91.39364
331607	-53	-5	9	-0.6650503	-0.1135045	-47.51019	0	11.34	4004	0	0	5	5	0.0400264	-0.3143666	6	10	0.03	2000	-2.220184	40.92394	-91.39364
331688	-59	6	10	-0.6664323	-0.1209876	-47.52057	0	11.34	4004	0	0	5	5	0.0399419	-0.3125572	6	10	0.03	2000	-2.462952	40.92394	-91.39364
331802	-50	6	7	-0.6593102	-0.1167066	-47.53162	0	11.34	4004	0	0	5	5	0.03985777	-0.3127505	6	10	0.03	2000	-2.220947	40.92394	-91.39364
331909	-55	-1	5	-0.6540699	-0.1169732	-47.54364	0	11.34	4002	0	0	5	5	0.04002477	-0.3129294	6	10	0.03	2000	-2.236969	40.92394	-91.39364
332168	-50	0	6	-0.6596615	-0.1188122	-47.57465	0	11.34	4004	0	0	5	5	0.03971343	-0.3175035	6	10	0.03	2000	-2.459625	40.92394	-91.39364
332275	-48	0	8	-0.6568593	-0.1223256	-47.58594	0	11.34	4003	0	0	5	5	0.03985794	-0.3222168	6	10	0.03	2000	-2.224609	40.92394	-91.39364
332374	-46	-1	7	-0.6559288	-0.1253267	-47.60144	0	11.34	4002	0	0	5	5	0.04002489	-0.3269603	6	10	0.03	2000	-2.474243	40.92394	-91.39364
332465	-51	4	9	-0.6465856	-0.1232226	-47.61163	0	11.34	4003	0	0	5	5	0.0401466	-0.3270727	6	10	0.03	2000	-2.502136	40.92394	-91.39364
332581	-57	0	4	-0.6437534	-0.1197494	-47.62537	0	11.34	4004	0	0	5	5	0.04001673	-0.3257949	6	10	0.03	2000	-2.504456	40.92394	-91.39364
332726	-56	0	7	-0.6476731	-0.1223376	-47.64099	0	11.34	4002	0	0	5	5	0.0397857	-0.3293089	6	10	0.03	2000	-2.263611	40.92394	-91.39364
332778	-53	-1	5	-0.6426137	-0.1234755	-47.64398	0	11.34	4004	0	0	5	5	0.03985453	-0.3307244	6	10	0.03	2000	-2.028046	40.92394	-91.39364
332942	-53	2	7	-0.6499159	-0.1299179	-47.65851	0	11.4	4003	0	0	5	5	0.03986176	-0.3406029	6	10	0.03	2000	-2.252197	40.92394	-91.39364
332996	-49	0	6	-0.6458685	-0.1332199	-47.66644	0	11.4	4003	0	0	5	5	0.03986098	-0.3402408	6	10	0.03	2000	-2.259399	40.92394	-91.39364
333090	-52	-1	12	-0.6433706	-0.1372022	-47.67737	0	11.4	4004	0	0	5	5	0.03997745	-0.3408016	6	10	0.03	2000	-2.49826	40.92394	-91.39364
333269	-51	-2	7	-0.6314938	-0.1353333	-47.69525	0	11.4	4002	0	0	5	5	0.04021012	-0.3422962	6	10	0.03	2000	-2.27829	40.92394	-91.39364
333304	-48	7	7	-0.6284077	-0.1358143	-47.69946	0	11.4	4002	0	0	5	5	0.0402365	-0.3411018	6	10	0.03	2000	-2.27829	40.92394	-91.39364
333381	-53	0	8	-0.6279788	-0.1321919	-47.70721	0	11.4	4003	0	0	5	5	0.04028163	-0.3397219	6	10	0.03	2000	-2.044861	40.92394	-91.39364
333510	-56	6	4	-0.6186935	-0.1345203	-47.72528	0	11.4	4002	0	0	5	5	0.03516975	-0.3355078	6	10	0.03	2000	-2.279205	40.92394	-91.39364
333671	-50	0	11	-0.6151547	-0.1329434	-47.74073	0	11.4	4003	0	0	5	5	0.03559029	-0.3203046	6	10	0.03	2000	-2.298431	40.92394	-91.39364
333742	-50	1	12	-0.6087648	-0.132909	-47.7519	0	11.4	4002	0	0	5	5	0.03651819	-0.3181067	6	10	0.03	2000	-2.579956	40.92394	-91.39364
333957	-49	0	1	-0.6021027	-0.1307452	-47.7674	0	11.4	4003	0	0	5	5	0.0377396	-0.2994123	6	10	0.03	2000	-2.819946	40.92394	-91.39364
334028	-53	0	2	-0.6016567	-0.1368348	-47.78009	0	11.4	4003	0	0	5	5	0.03810478	-0.2973157	6	10	0.03	2000	-2.333832	40.92394	-91.39364
334099	-48	1	4	-0.5999892	-0.137641	-47.78809	0	11.4	4003	0	0	5	5	0.03854104	-0.2949778	6	10	0.03	2000	-2.575012	40.92394	-91.39364
334209	-47	6	4	-0.6001714	-0.1383128	-47.79584	0	11.4	4004	0	0	5	5	0.03889817	-0.287488	6	10	0.03	2000	-2.337189	40.92394	-91.39364
334311	-54	-5	6	-0.6052543	-0.1395386	-47.81043	0	11.4	4004	0	0	5	5	0.03762186	-0.2815155	6	10	0.03	2000	-2.576782	40.92394	-91.39364
334360	-50	1	4	-0.6005246	-0.1395431	-47.81653	0	11.4	4004	0	0	5	5	0.03790707	-0.2791395	6	10	0.03	2000	-2.076172	40.92394	-91.39364
334483	-50	5	8	-0.5957426	-0.1394101	-47.82666	0	11.4	4002	0	0	5	5	0.03860271	-0.2738277	6	10	0.03	2000	-2.588654	40.92394	-91.39364
334566	-50	6	6	-0.5950131	-0.1439217	-47.8368	0	11.4	4004	0	0	5	5	0.03875245	-0.2721902	6	10	0.03	2000	-2.58667	40.92394	-91.39364
334685	-47	-7	8	-0.5970374	-0.1404074	-47.8498	0	11.4	4004	0	0	5	5	0.03919446	-0.2730818	6	10	0.03	2000	-2.351837	40.92394	-91.39364
334793	-44	-1	3	-0.5814141	-0.1383237	-47.86231	0	11.4	4004	0	0	5	5	0.0396345	-0.2778774	6	10	0.03	2000	-2.596771	40.92394	-91.39364
334886	-48	-2	3	-0.5804716	-0.1375871	-47.86994	0	11.4	4003	0	0	5	5	0.039862	-0.2811773	6	10	0.03	2000	-2.380463	40.92394	-91.39364
334977	-48	1	7	-0.5815511	-0.1419105	-47.87995	0	11.4	4004	0	0	5	5	0.03997828	-0.2797414	6	10	0.03	2000	-2.62442	40.92394	-91.39364
335078	-52	1	7	-0.5750233	-0.1388696	-47.8888	0	11.4	4002	0	0	5	5	0.03968399	-0.2746785	6	10	0.03	2000	-2.37915	40.92394	-91.39364
335169	-43	-1	3	-0.5688002	-0.1356776	-47.89881	0	11.4	4004	0	0	5	5	0.0398341	-0.2739471	6	10	0.03	2000	-2.626465	40.92394	-91.39364
335345	-49	-2	4	-0.567605	-0.1318424	-47.91315	0	11.4	4003	0	0	5	5	0.03590563	-0.2849929	6	10	0.03	2000	-2.384155	40.92394	-91.39365
335432	-42	-1	11	-0.5731174	-0.1310397	-47.92139	0	11.4	4003	0	0	5	5	0.03677362	-0.2896968	6	10	0.03	2000	-2.861176	40.92394	-91.39365
335462	-42	-2	6	-0.5732033	-0.1312638	-47.92475	0	11.4	4004	0	0	5	5	0.03638906	-0.2913343	6	10	0.03	2000	-2.861176	40.92394	-91.39365
335582	-42	-5	4	-0.5743663	-0.1321153	-47.93647	0	11.34	4004	0	0	5	5	0.03663254	-0.3027677	6	10	0.03	2000	-2.149017	40.92394	-91.39365
335666	-46	7	6	-0.5686885	-0.1310587	-47.94526	0	11.34	4003	0	0	5	5	0.03701669	-0.3050127	6	10	0.03	2000	-2.389038	40.92394	-91.39365
335787	-39	3	4	-0.5570019	-0.1378782	-47.95343	0	11.34	4002	0	0	5	5	0.03843249	-0.3099793	6	10	0.03	2000	-2.392822	40.92394	-91.39365
335862	-41	-4	8	-0.5543351	-0.1350958	-47.96326	0	11.34	4003	0	0	5	5	0.03882037	-0.3108712	6	10	0.03	2000	-2.414398	40.92394	-91.39365
336040	-46	-2	5	-0.5463519	-0.1360071	-47.97327	0	11.34	4002	0	0	5	5	0.03910653	-0.307197	6	10	0.03	2000	-2.415344	40.92394	-91.39365
336091	-45	1	3	-0.543753	-0.1322686	-47.97565	0	11.34	4002	0	0	5	5	0.03918113	-0.3062984	6	10	0.03	2000	-2.431824	40.92394	-91.39365
336227	-46	4	6	-0.5492492	-0.139905	-47.98755	0	11.34	4002	0	0	5	5	0.03962575	-0.3085906	6	10	0.03	2000	-2.177063	40.92394	-91.39365
336274	-39	-1	4	-0.5490242	-0.1414327	-47.99079	0	11.34	4003	0	0	5	5	0.03962575	-0.3085906	6	10	0.03	2000	-2.425079	40.92394	-91.39365
336423	-43	3	3	-0.5456817	-0.1401368	-48.00086	0	11.34	4003	0	0	5	5	0.0400232	-0.3156359	6	10	0.03	2000	-2.433533	40.92394	-91.39365
336488	-40	2	6	-0.5417488	-0.1396619	-48.00397	0	11.34	4003	0	0	5	5	0.04010885	-0.3149948	6	10	0.03	2000	-2.435089	40.92394	-91.39365
336576	-40	3	0	-0.5356922	-0.147314	-48.01447	0	11.34	4002	0	0	5	5	0.03946136	-0.3141674	6	10	0.03	2000	-2.69458	40.92394	-91.39365
336677	-51	0	2	-0.5310439	-0.1460793	-48.02137	0	11.34	4004	0	0	5	5	0.03953455	-0.3056302	6	10	0.03	2000	-2.69458	40.92395	-91.39365
336817	-43	1	9	-0.5233916	-0.1484006	-48.03742	0	11.34	4004	0	0	5	5	0.03946661	-0.2934223	6	10	0.03	2000	-2.71814	40.92395	-91.39365
336881	-41	6	0	-0.5230013	-0.1507486	-48.04285	0	11.34	4003	0	0	5	5	0.03943849	-0.2867866	6	10	0.03	2000	-2.712646	40.92395	-91.39365
337005	-44	-3	6	-0.5236729	-0.1462136	-48.05158	0	11.34	4004	0	0	5	5	0.03969133	-0.284617	6	10	0.03	2000	-2.464813	40.92395	-91.39365
337075	-48	0	11	-0.5255457	-0.148543	-48.06043	0	11.34	4002	0	0	5	5	0.03877674	-0.2859828	6	10	0.03	2000	-2.481232	40.92395	-91.39365
337178	-43	4	8	-0.5213128	-0.1465826	-48.06568	0	11.34	4003	0	0	5	5	0.03858528	-0.290599	6	10	0.03	2000	-2.462921	40.92395	-91.39365
337342	-45	0	10	-0.5149948	-0.1400614	-48.08051	0	11.34	4003	0	0	5	5	0.03923481	-0.2911034	6	10	0.03	2000	-2.240875	40.92395	-91.39365
337415	-37	0	5	-0.5168934	-0.1387201	-48.08948	0	11.34	4004	0	0	5	5	0.03917961	-0.2913002	6	10	0.03	2000	-2.483185	40.92395	-91.39365
337479	-43	0	5	-0.5168934	-0.1387201	-48.08948	0	11.34	4004	0	0	5	5	0.03924032	-0.2924452	6	10	0.03	2000	-2.483185	40.92395	-91.39365
337632	-44	0	10	-0.5060986	-0.1365464	-48.10871	0	11.34	4004	0	0	5	5	0.03966459	-0.2971411	6	10	0.03	2000	-2.473053	40.92395	-91.39365
337684	-40	0	6	-0.5081638	-0.133964	-48.11469	0	11.34	4004	0	0	5	5	0.03981837	-0.2981531	6	10	0.03	2000	-2.499329	40.92395	-91.39365
337841	-37	0	6	-0.506834	-0.1462745	-48.12397	0	11.34	4003	0	0	5	5	0.04008685	-0.3092959	6	10	0.03	2000	-2.48938	40.92395	-91.39365
337880	-40	0	7	-0.5127563	-0.1488703	-48.13385	0	11.34	4009	0	0	5	5	0.04012557	-0.3120051	6	10	0.03	2000	-2.74408	40.92395	-91.39365
337974	-38	-3	4	-0.5158297	-0.1466962	-48.1399	0	11.34	4004	0	0	5	5	0.04024539	-0.3248885	6	10	0.03	2000	-2.500519	40.92395	-91.39365
338102	-36	0	4	-0.5172853	-0.1474209	-48.14795	0	11.34	4003	0	0	5	5	0.04028883	-0.3305723	6	10	0.03	2000	-2.72995	40.92395	-91.39365
338191	-40	2	3	-0.5155326	-0.1461794	-48.15882	0	11.34	4002	0	0	5	5	0.03981559	-0.3321103	6	10	0.03	2000	-2.726471	40.92395	-91.39365
338291	-44	2	6	-0.5181702	-0.147127	-48.16364	0	11.34	4003	0	0	5	5	0.03977808	-0.3303676	6	10	0.03	2000	-2.484314	40.92395	-91.39365
338427	-36	1	5	-0.5274243	-0.1455873	-48.17786	0	11.4	4004	0	0	5	5	0.03993375	-0.3293743	6	10	0.03	2000	-2.219788	40.92395	-91.39365
338527	-36	-2	4	-0.5278493	-0.1492785	-48.18305	0	11.4	4002	0	0	5	5	0.03942846	-0.3301911	6	10	0.03	2000	-2.225616	40.92395	-91.39365
338571	-37	0	8	-0.5254826	-0.1514703	-48.18781	0	11.4	4003	0	0	5	5	0.03888131	-0.3304263	6	10	0.03	2000	-2.464203	40.92395	-91.39365
338672	-42	-1	0	-0.5217639	-0.149125	-48.19519	0	11.4	4004	0	0	5	5	0.03942904	-0.3300545	6	10	0.03	2000	-2.458588	40.92395	-91.39365
338773	-45	7	6	-0.5206049	-0.1475314	-48.20301	0	11.4	4004	0	0	5	5	0.03962758	-0.3314692	6	10	0.03	2000	-2.226349	40.92395	-91.39365
338942	-46	1	7	-0.5151904	-0.1438135	-48.21802	0	11.4	4003	0	0	5	5	0.03950943	-0.3340352	6	10	0.03	2000	-2.473145	40.92395	-91.39365
339043	-37	4	5	-0.5101014	-0.1435101	-48.22651	0	11.4	4003	0	0	5	5	0.03977083	-0.3320017	6	10	0.03	2000	-2.493591	40.92395	-91.39365
339069	-39	-2	5	-0.5055701	-0.1446615	-48.22943	0	11.4	4003	0	0	5	5	0.03984115	-0.3316957	6	10	0.03	2000	-2.493591	40.92395	-91.39365
339217	-41	1	5	-0.5012346	-0.1459495	-48.24671	0	11.4	4002	0	0	5	5	0.03959836	-0.3304051	6	10	0.03	2000	-2.262268	40.92395	-91.39365
339307	-35	-1	12	-0.5004081	-0.1415245	-48.25409	0	11.4	4004	0	0	5	5	0.03911879	-0.3316181	6	10	0.03	2000	-2.778198	40.92395	-91.39365
339457	-30	1	4	-0.5013868	-0.1381712	-48.26801	0	11.4	4003	0	0	5	5	0.03910949	-0.33259	6	10	0.03	2000	-2.754639	40.92395	-91.39365
339487	-36	-1	0	-0.4978745	-0.139598	-48.27057	0	11.4	4004	0	0	5	5	0.03910949	-0.33259	6	10	0.03	2000	-2.754639	40.92395	-91.39365
339548	-31	-3	8	-0.4897539	-0.1403655	-48.27851	0	11.4	4002	0	0	5	5	0.03936874	-0.3329392	6	10	0.03	2000	-2.531067	40.92395	-91.39365
339653	-34	-1	4	-0.483525	-0.1407713	-48.2854	0	11.4	4004	0	0	5	5	0.03974884	-0.3243155	6	10	0.03	2000	-2.530029	40.92395	-91.39365
339754	-39	0	11	-0.4819705	-0.1419269	-48.29218	0	11.4	4003	0	0	5	5	0.03988662	-0.318035	6	10	0.03	2000	-2.80249	40.92395	-91.39365
339854	-38	-1	4	-0.4835373	-0.1379282	-48.30036	0	11.4	4002	0	0	5	5	0.03979535	-0.3074766	6	10	0.03	2000	-2.770203	40.92395	-91.39365
339965	-41	4	1	-0.4812676	-0.129451	-48.30707	0	11.4	4004	0	0	5	5	0.03980776	-0.2883423	6	10	0.03	2000	-2.292297	40.92395	-91.39365
340044	-38	2	3	-0.4825387	-0.1293046	-48.30927	0	11.4	4004	0	0	5	5	0.03969505	-0.27715	6	10	0.03	2000	-2.534241	40.92395	-91.39365
340248	-34	-2	1	-0.4663407	-0.1307222	-48.33283	0	11.34	4004	0	0	5	5	0.03968357	-0.2675125	6	10	0.03	2000	-2.578766	40.92395	-91.39365
340287	-31	2	2	-0.4633764	-0.1328688	-48.3349	0	11.34	4003	0	0	5	5	0.03976262	-0.2657914	6	10	0.03	2000	-2.576141	40.92395	-91.39365
340337	-33	0	7	-0.4608394	-0.1303621	-48.34424	0	11.34	4004	0	0	5	5	0.03983375	-0.2639291	6	10	0.03	2000	-2.815002	40.92395	-91.39365
340498	-42	2	-2	-0.4653724	-0.1374272	-48.35596	0	11.34	4004	0	0	5	5	0.03219888	-0.2575629	6	10	0.03	2000	-2.834381	40.92395	-91.39365
340637	-42	1	3	-0.460149	-0.1311609	-48.3686	0	11.34	4003	0	0	5	5	0.03504752	-0.2643801	6	10	0.03	2000	-2.572784	40.92395	-91.39365
340667	-42	1	3	-0.460149	-0.1311609	-48.3686	0	11.34	4003	0	0	5	5	0.03559017	-0.2667373	6	10	0.03	2000	-2.572784	40.92395	-91.39365
340749	-32	-3	7	-0.4648066	-0.1348783	-48.3786	0	11.34	4002	0	0	5	5	0.03545479	-0.2755137	6	10	0.03	2000	-2.803986	40.92395	-91.39365
340835	-30	0	2	-0.4572914	-0.1350584	-48.38471	0	11.34	4003	0	0	5	5	0.03584804	-0.2918321	6	10	0.03	2000	-2.815521	40.92395	-91.39365
340981	-36	-1	4	-0.4519569	-0.1301211	-48.39515	0	11.34	4003	0	0	5	5	0.03686157	-0.2975447	6	10	0.03	2000	-2.611267	40.92395	-91.39365
341031	-41	2	1	-0.4479118	-0.1329235	-48.39978	0	11.34	4003	0	0	5	5	0.03636666	-0.2994321	6	10	0.03	2000	-2.602814	40.92395	-91.39365
341179	-40	4	2	-0.4454555	-0.1326829	-48.40808	0	11.4	4003	0	0	5	5	0.03661848	-0.2970268	6	10	0.03	2000	-2.865906	40.92395	-91.39365
341226	-38	0	6	-0.4445887	-0.1316757	-48.41449	0	11.4	4003	0	0	5	5	0.03649353	-0.3007699	6	10	0.03	2000	-2.607483	40.92395	-91.39365
341419	-29	-1	8	-0.4455905	-0.1251706	-48.42792	0	11.4	4003	0	0	5	5	0.03696381	-0.3215538	6	10	0.03	2000	-3.092529	40.92395	-91.39365
341485	-32	7	4	-0.4415312	-0.1281472	-48.43177	0	11.4	4003	0	0	5	5	0.0374764	-0.3255737	6	10	0.03	2000	-2.620239	40.92395	-91.39365
341603	-36	0	3	-0.450844	-0.1231944	-48.43933	0	11.4	4004	0	0	5	5	0.03804251	-0.3341628	6	10	0.03	2000	-2.596405	40.92395	-91.39365
341688	-35	0	2	-0.4531127	-0.1228202	-48.44806	0	11.4	4003	0	0	5	5	0.03850449	-0.3355938	6	10	0.03	2000	-2.584229	40.92395	-91.39365
341764	-33	-2	-1	-0.448279	-0.1245372	-48.45722	0	11.4	4003	0	0	5	5	0.03877123	-0.337986	6	10	0.03	2000	-2.860352	40.92395	-91.39365
341874	-33	5	2	-0.4414345	-0.1290527	-48.46283	0	11.4	4002	0	0	5	5	0.03902688	-0.3431696	6	10	0.03	2000	-2.853851	40.92395	-91.39365
341904	-35	3	8	-0.4419568	-0.1271439	-48.46497	0	11.4	4003	0	0	5	5	0.0389658	-0.347139	6	10	0.03	2000	-2.366302	40.92395	-91.39365
341999	-39	2	7	-0.44597	-0.1295051	-48.47303	0	11.4	4003	0	0	5	5	0.03925235	-0.3510711	6	10	0.03	2000	-2.838226	40.92395	-91.39365
342113	-37	0	4	-0.4442134	-0.1251997	-48.47779	0	11.4	4004	0	0	5	5	0.03967248	-0.3628021	6	10	0.03	2000	-2.854797	40.92395	-91.39365
342189	-45	-1	4	-0.4409008	-0.1282569	-48.48279	0	11.4	4004	0	0	5	5	0.03988969	-0.3741235	6	10	0.03	2000	-2.62027	40.92395	-91.39365
342310	-39	-1	6	-0.4450732	-0.1238921	-48.49231	0	11.4	4004	0	0	5	5	0.04004804	-0.3766682	6	10	0.03	2000	-2.369507	40.92395	-91.39365
342396	-31	1	8	-0.4416253	-0.1267125	-48.49591	0	11.4	4003	0	0	5	5	0.04012897	-0.3801457	6	10	0.03	2000	-2.854889	40.92395	-91.39365
342459	-38	0	7	-0.4396873	-0.127804	-48.50586	0	11.4	4003	0	0	5	5	0.04005212	-0.375858	6	10	0.03	2000	-2.620728	40.92395	-91.39365
342559	-32	-1	5	-0.436863	-0.1275577	-48.51307	0	11.4	4004	0	0	5	5	0.0400831	-0.370001	6	10	0.03	2000	-2.613739	40.92395	-91.39365
342685	-31	-3	8	-0.4299043	-0.1282071	-48.52173	0	11.4	4003	0	0	5	5	0.04021753	-0.3658973	6	10	0.03	2000	-2.640717	40.92395	-91.39365
342738	-45	3	2	-0.42907	-0.125152	-48.5224	0	11.4	4003	0	0	5	5	0.04024317	-0.3684525	6	10	0.03	2000	-2.880707	40.92395	-91.39365
342920	-32	0	3	-0.4273612	-0.1426123	-48.53992	0	11.4	4002	0	0	5	5	0.04035133	-0.3787598	6	10	0.03	2000	-2.884094	40.92395	-91.39365
343014	-41	4	5	-0.4246208	-0.1435677	-48.54877	0	11.4	4003	0	0	5	5	0.04004879	-0.3853485	6	10	0.03	2000	-2.64859	40.92395	-91.39365
343064	-30	0	9	-0.4226431	-0.1439577	-48.5517	0	11.4	4002	0	0	5	5	0.0400251	-0.3946154	6	10	0.03	2000	-2.64859	40.92395	-91.39365
343171	-35	7	6	-0.4208519	-0.1423832	-48.55902	0	11.4	4002	0	0	5	5	0.03993889	-0.4029672	6	10	0.03	2000	-2.635498	40.92395	-91.39365
343306	-33	2	6	-0.4245041	-0.146658	-48.57093	0	11.4	4003	0	0	5	5	0.03999789	-0.4161266	6	10	0.03	2000	-2.648132	40.92395	-91.39365
343346	-42	-4	1	-0.4214871	-0.1498167	-48.57447	0	11.4	4004	0	0	5	5	0.03937148	-0.4175681	6	10	0.03	2000	-2.89389	40.92395	-91.39365
343496	-36	-3	4	-0.4163876	-0.1479699	-48.58387	0	11.4	4003	0	0	5	5	0.03982297	-0.4124707	6	10	0.03	2000	-2.889008	40.92395	-91.39365
343583	-22	3	9	-0.4114163	-0.1578876	-48.59186	0	11.4	4002	0	0	5	5	0.03994667	-0.4078351	6	10	0.03	2000	-2.665527	40.92395	-91.39365
343667	-31	6	7	-0.4046596	-0.1609229	-48.59851	0	11.4	4002	0	0	5	5	0.04004686	-0.4035175	6	10	0.03	2000	-2.936432	40.92395	-91.39365
343750	-33	0	0	-0.4038632	-0.157042	-48.60547	0	11.4	4002	0	0	5	5	0.04016261	-0.3969284	6	10	0.03	2000	-2.938995	40.92395	-91.39365
343866	-29	0	-1	-0.4071633	-0.1556146	-48.61469	0	11.4	4003	0	0	5	5	0.0400412	-0.3883188	6	10	0.03	2000	-2.933075	40.92395	-91.39365
343967	-36	0	9	-0.405592	-0.1541281	-48.62299	0	11.4	4004	0	0	5	5	0.04004001	-0.3791956	6	10	0.03	2000	-2.695435	40.92395	-91.39365
344042	-29	-4	1	-0.4021263	-0.1551316	-48.63092	0	11.4	4004	0	0	5	5	0.04012247	-0.3745266	6	10	0.03	2000	-2.686646	40.92395	-91.39365
344109	-36	-5	3	-0.3985524	-0.1529991	-48.63672	0	11.4	4003	0	0	5	5	0.04021773	-0.3784042	6	10	0.03	2000	-2.930115	40.92395	-91.39365
344243	-37	-6	5	-0.3933107	-0.1516834	-48.65125	0	11.4	4004	0	0	5	5	0.03495884	-0.3893362	6	10	0.03	2000	-2.713043	40.92395	-91.39365
344346	-37	3	4	-0.3927112	-0.1565161	-48.66303	0	11.4	4002	0	0	5	5	0.03645345	-0.3795536	6	10	0.03	2000	-2.704987	40.92395	-91.39365
