time(ms)	gyro_x(deg/s)	gyro_y(deg/s)	gyro_z(deg/s)	orientation_roll(deg)	orientation_pitch(deg)	orientation_yaw(deg)	throttle	battery(V)	loop_time(uS)	pid_output_roll	pid_output_pitch	pid_output_yaw	pid_output_throttle	ultrasonic_alt	baro_alt	flight_mode	p_gain_altitude	i_gain_altitude	d_gain_altitude	compass_heading	latitude	longitude
407570	-1664	1070	271	-2.188971	-12.62086	-49.4944	0	10.38	4003	0	0	5	5	0.4064549	0.8642108	3	10	0.03	2000	0.5904655	40.92393	-91.39363
407683	-3028	2370	-528	-5.168706	-14.53353	-49.92244	0	10.43	4004	0	0	5	5	0.4064549	0.8967409	3	10	0.03	2000	0.1496174	40.92393	-91.39363
407745	-3933	32	-463	-8.411777	-16.01764	-49.60994	0	10.43	4004	0	0	5	5	0.4064549	0.9138911	3	10	0.03	2000	-1.978271	40.92393	-91.39362
407913	-2659	-1631	543	-14.20602	-13.93219	-49.73902	0	10.43	4003	0	0	5	5	0.4064549	0.9640154	3	10	0.03	2000	-6.610748	40.92393	-91.39362
407979	-3100	-1760	1157	-15.0408	-12.59217	-50.11654	0	10.43	4004	0	0	5	5	0.4064549	0.9876404	3	10	0.03	2000	-6.610748	40.92393	-91.39362
408100	2593	245	-764	-11.7342	-5.953316	-49.28633	0	10.43	4002	0	0	5	5	0.4064549	1.023894	3	10	0.03	2000	-9.465179	40.92393	-91.39362
408162	2949	423	-309	-9.85078	-5.919802	-48.93349	0	10.43	4003	0	0	5	5	0.4064549	1.075935	3	10	0.03	2000	-9.465179	40.92393	-91.39362
408282	1376	2217	112	-4.665598	-8.99061	-48.77967	0	10.43	4003	0	0	5	5	0.4064549	1.125559	3	10	0.03	2000	-11.45468	40.92393	-91.39362
408367	3214	736	621	-0.4475631	-11.74649	-49.64627	0	10.43	4002	0	0	5	5	0.4064549	1.170816	3	10	0.03	2000	-10.80582	40.92393	-91.39362
408468	42	289	-615	1.168835	-11.51623	-49.624	0	10.43	4004	0	0	5	5	0.4064549	1.254432	3	10	0.03	2000	-9.743958	40.92393	-91.39362
408622	-129	1741	-68	-0.990297	-14.45901	-49.32953	0	10.43	4004	0	0	5	5	0.4064549	1.351589	3	10	0.03	2000	-8.788788	40.92393	-91.39362
408681	389	1115	408	-0.9212671	-14.44413	-49.18689	0	10.43	4003	0	0	5	5	0.4064549	1.383183	3	10	0.03	2000	-9.859406	40.92394	-91.39362
408780	-822	-1986	104	-1.159021	-13.39411	-48.9913	0	10.43	4003	0	0	5	5	0.4064549	1.475205	3	10	0.03	2000	-9.173706	40.92394	-91.39362
408950	747	-1763	431	-1.298113	-6.088428	-49.76109	0	10.43	4004	0	0	5	5	0.4064549	1.599908	3	10	0.03	2000	-9.045044	40.92395	-91.39361
409072	1064	-5313	-1157	0.1980684	0.04293776	-49.42166	0	10.43	4003	0	0	5	5	0.4064549	1.779193	3	10	0.03	2000	-8.83371	40.92395	-91.39361
409106	979	-6794	-2555	0.5412217	2.59409	-49.14233	0	10.43	4004	0	0	5	5	0.4064549	1.811439	3	10	0.03	2000	-8.83371	40.92395	-91.39361
409223	411	-5118	1094	0.4155795	11.07491	-49.7252	0	10.43	4003	0	0	5	5	0.4064549	1.932041	3	10	0.03	2000	-10.27475	40.92395	-91.39361
409286	1604	-6305	-478	0.8469604	13.25369	-49.90465	0	10.43	4002	0	0	5	5	0.4064549	2.099753	3	10	0.03	2000	-10.86646	40.92396	-91.39361
409410	-807	-3140	792	1.038652	21.33598	-50.3467	0	10.43	4003	0	0	5	5	0.4064549	2.170411	3	10	0.03	2000	-9.544006	40.92397	-91.39361
409522	365	-3125	91	0.9657631	22.11251	-50.19636	0	10.43	4002	0	0	5	5	0.4064549	2.242584	3	10	0.03	2000	-12.15451	40.92397	-91.39361
409605	-855	-4382	-1158	0.9307496	24.8084	-49.17231	0	9.81	4002	0	0	5	5	0.4064549	2.275759	3	10	0.03	2000	-15.05283	40.92397	-91.39361
409689	-524	-2431	-665	0.772922	24.65798	-48.68082	0	9.81	4002	0	0	5	5	0.4064549	2.30308	3	10	0.03	2000	-24.47949	40.92397	-91.39361
409816	731	-3347	-869	0.782521	24.31888	-48.70064	0	9.81	4003	0	0	5	5	0.4064549	2.34849	3	10	0.03	2000	-31.66382	40.92398	-91.3936
409937	-77	266	-233	0.4448037	19.42666	-49.30773	0	9.81	4003	0	0	5	5	0.4064549	2.387438	3	10	0.03	2000	236.8109	40.92398	-91.3936
410016	-190	98	49	-0.1902445	16.61182	-49.32237	0	9.81	4003	0	0	5	5	0.4064549	2.404817	3	10	0.03	2000	213.6723	40.92398	-91.3936
410099	-606	-179	1065	-0.7123018	14.16128	-49.36211	0	9.81	4003	0	0	5	5	0.4064549	2.413118	3	10	0.03	2000	197.4935	40.92398	-91.3936
410203	-2353	2378	-210	-3.134238	8.997763	-49.55588	0	9.81	4002	0	0	5	5	0.4064549	2.42313	3	10	0.03	2000	186.5902	40.92398	-91.3936
410302	-3316	6047	-123	-10.51624	-1.493614	-49.60445	0	9.81	4003	0	0	5	5	0.4064549	2.426646	3	10	0.03	2000	185.5609	40.92398	-91.3936
410521	-470	4875	-16	-12.36593	-15.02378	-49.00142	0	10.83	4002	0	0	5	5	0.4064549	2.404968	3	10	0.03	2000	216.6155	40.92398	-91.3936
410656	1811	3875	405	-7.547877	-27.36249	-49.42997	0	10.83	4003	0	0	5	5	0.4064549	2.3766	3	10	0.03	2000	-62.40253	40.92397	-91.3936
410743	343	-272	939	-5.98553	-26.73486	-49.40178	0	10.83	4003	0	0	5	5	0.4064549	2.337232	3	10	0.03	2000	-41.38007	40.92397	-91.3936
410814	-233	-3912	-742	-5.480723	-22.36385	-49.42111	0	10.83	4003	0	0	5	5	0.4064549	2.309937	3	10	0.03	2000	-36.1239	40.92397	-91.3936
410926	-822	-6721	-1657	-3.026136	-9.264485	-49.24779	0	10.83	4003	0	0	5	5	0.4064549	2.275664	3	10	0.03	2000	-32.87503	40.92397	-91.3936
411047	-516	-4797	-680	-4.664743	0.02958132	-49.26802	0	10.83	4002	0	0	5	5	0.4064549	2.224091	3	10	0.03	2000	-32.90024	40.92397	-91.3936
411119	1913	-5047	-505	-3.683799	5.142463	-48.83064	0	10.83	4002	0	0	5	5	0.4064549	2.190838	3	10	0.03	2000	-36.72116	40.92397	-91.39361
411247	27	-3175	760	-1.477643	14.22653	-48.97741	0	10.83	4004	0	0	5	5	0.4064549	2.141355	3	10	0.03	2000	-55.03699	40.92397	-91.39361
411310	461	-1643	697	-2.089599	15.12544	-49.48989	0	10.83	4004	0	0	5	5	0.4064549	2.116963	3	10	0.03	2000	-71.16595	40.92396	-91.39361
411454	686	3770	570	-1.657028	11.5304	-50.03814	0	10.77	4004	0	0	5	5	0.4064549	2.088346	3	10	0.03	2000	249.1812	40.92395	-91.39361
411615	-2002	6597	-854	-4.125736	-4.930721	-49.7677	0	10.77	4004	0	0	5	5	0.4064549	2.048759	3	10	0.03	2000	-47.50061	40.92395	-91.39361
411679	-2741	5670	0	-6.752696	-10.36505	-49.77367	0	10.77	4003	0	0	5	5	0.4064549	2.024272	3	10	0.03	2000	-30.98303	40.92394	-91.39362
411751	-782	5963	-358	-8.703119	-17.41177	-49.32493	0	10.77	4003	0	0	5	5	0.4064549	1.990402	3	10	0.03	2000	-28.29785	40.92394	-91.39362
411842	-290	6256	-319	-8.613606	-22.04754	-48.94847	0	10.77	4003	0	0	5	5	0.4064549	1.908606	3	10	0.03	2000	-25.40442	40.92393	-91.39362
412001	1120	3823	-135	-8.835835	-30.80888	-48.78182	0	10.77	4003	0	0	5	5	0.4064549	1.774481	3	10	0.03	2000	-26.0882	40.92393	-91.39362
412117	286	1786	-387	-7.120596	-32.20728	-49.36473	0	10.77	4002	0	0	5	5	0.4064549	1.710949	3	10	0.03	2000	-22.22522	40.92393	-91.39362
412189	4442	-2196	45	-4.894873	-28.72036	-49.52044	0	10.77	4004	0	0	5	5	0.4064549	1.673846	3	10	0.03	2000	-20.01093	40.92393	-91.39362
412313	1352	-4957	-31	6.612646	-13.92589	-49.231	0	9.41	4002	0	0	5	5	0.4064549	1.583245	3	10	0.03	2000	-14.79013	40.92392	-91.39362
412426	4569	-7235	-1074	9.986291	-3.730208	-48.59106	0	9.41	4003	0	0	5	5	0.4064549	1.518445	3	10	0.03	2000	-12.86859	40.92392	-91.39362
412492	-1217	-2426	504	11.87189	4.729465	-48.59704	0	9.41	4003	0	0	5	5	0.4064549	1.485102	3	10	0.03	2000	-14.50839	40.92392	-91.39362
412593	-3913	1977	152	3.955778	2.054123	-49.79323	0	9.41	4003	0	0	5	5	0.4064549	1.458362	3	10	0.03	2000	-10.50623	40.92392	-91.39362
412708	-149	688	-266	1.266053	-1.128383	-49.67632	0	9.41	4004	0	0	5	5	0.4064549	1.429894	3	10	0.03	2000	-10.12134	40.92392	-91.39362
412783	-4654	1160	-115	-2.183592	-2.348464	-49.73812	0	9.41	4003	0	0	5	5	0.4064549	1.403211	3	10	0.03	2000	-8.912659	40.92392	-91.39362
412920	-974	929	896	-7.492728	-3.307498	-49.0462	0	9.41	4002	0	0	5	5	0.4064549	1.369673	3	10	0.03	2000	-9.318298	40.92392	-91.39362
412975	690	-935	-198	-5.442337	-2.834151	-48.75237	0	9.41	4004	0	0	5	5	0.4064549	1.353923	3	10	0.03	2000	-11.14484	40.92392	-91.39362
413091	547	882	-23	-3.963734	-3.168402	-48.82117	0	9.41	4002	0	0	5	5	0.4064549	1.34057	3	10	0.03	2000	-11.82864	40.92392	-91.39362
413196	623	-1195	354	-2.962139	-4.140928	-49.21433	0	9.41	4002	0	0	5	5	0.4064549	1.322307	3	10	0.03	2000	-12.42023	40.92392	-91.39362
413280	1204	-165	868	-2.064963	-1.654642	-49.37035	0	10.32	4004	0	0	5	5	0.4064549	1.308823	3	10	0.03	2000	-11.47293	40.92392	-91.39362
413403	-668	2417	502	-1.012474	-2.25138	-49.13102	0	10.32	4002	0	0	5	5	0.4064549	1.283833	3	10	0.03	2000	-12.09305	40.92392	-91.39362
413482	-1366	3031	1139	-1.328133	-3.519494	-49.4502	0	10.32	4003	0	0	5	5	0.4064549	1.255517	3	10	0.03	2000	-12.93469	40.92392	-91.39362
413578	-393	-806	1441	-3.198378	-3.074209	-49.13124	0	10.32	4002	0	0	5	5	0.4064549	1.227762	3	10	0.03	2000	-11.92667	40.92392	-91.39362
413682	-1070	-1237	1794	-2.455852	0.1063809	-48.39894	0	10.32	4002	0	0	5	5	0.4064549	1.206099	3	10	0.03	2000	-16.1608	40.92392	-91.39362
413789	690	-1514	-1514	-3.04489	-0.7341107	-49.09279	0	10.32	4002	0	0	5	5	0.4064549	1.181569	3	10	0.03	2000	-17.3046	40.92392	-91.39362
413886	-1417	-673	-803	-3.176302	-1.951228	-49.46348	0	10.32	4003	0	0	5	5	0.4064549	1.169173	3	10	0.03	2000	-19.24603	40.92393	-91.39362
413988	-230	1799	-101	-2.706118	-3.847366	-49.40413	0	10.32	4003	0	0	5	5	0.4064549	1.156598	3	10	0.03	2000	-18.88272	40.92393	-91.39362
414203	-572	-177	1360	-2.907196	-5.982489	-49.42173	0	9.3	4002	0	0	5	5	0.4064549	1.159988	3	10	0.03	2000	-19.24652	40.92393	-91.39362
414333	354	201	1074	-2.896075	-5.31995	-49.88709	0	9.3	4003	0	0	5	5	0.4064549	1.182552	3	10	0.03	2000	-19.20529	40.92393	-91.39362
414401	857	-2300	-1074	-2.435956	-4.483814	-49.96045	0	9.3	4003	0	0	5	5	0.4064549	1.185268	3	10	0.03	2000	-19.53775	40.92393	-91.39362
414555	506	-728	-1590	-0.3308037	-0.3258328	-48.87786	0	9.3	4004	0	0	5	5	0.4064549	1.199663	3	10	0.03	2000	-20.54303	40.92393	-91.39362
414635	-276	466	761	0.1284178	-1.475672	-48.71614	0	9.3	4004	0	0	5	5	0.4064549	1.205839	3	10	0.03	2000	-20.54303	40.92393	-91.39362
414707	-588	850	977	-0.262765	-2.683709	-48.94615	0	9.3	4003	0	0	5	5	0.4064549	1.212316	3	10	0.03	2000	-20.4635	40.92393	-91.39362
414811	-1812	1968	1438	-0.9023498	-4.135791	-49.77178	0	9.3	4004	0	0	5	5	0.4064549	1.238098	3	10	0.03	2000	-22.43823	40.92393	-91.39362
414915	-220	621	415	-1.803084	-4.860882	-50.25681	0	9.3	4004	0	0	5	5	0.4064549	1.253031	3	10	0.03	2000	-20.76373	40.92393	-91.39362
415024	1833	-1123	-2082	-0.6157002	-2.392896	-49.76928	0	9.3	4004	0	0	5	5	0.4064549	1.263271	3	10	0.03	2000	-20.92429	40.92393	-91.39362
415121	25	-78	-1406	0.6399774	-2.959791	-49.3585	0	10.66	4004	0	0	5	5	0.4064549	1.281045	3	10	0.03	2000	-20.78687	40.92393	-91.39362
415248	144	-1275	533	-0.3948517	-2.423276	-49.19122	0	10.66	4002	0	0	5	5	0.4064549	1.287978	3	10	0.03	2000	-21.71735	40.92393	-91.39362
415348	481	-768	-948	-0.4143998	-0.1837467	-49.41949	0	10.66	4003	0	0	5	5	0.4064549	1.301314	3	10	0.03	2000	-22.08963	40.92393	-91.39362
415428	143	1230	-178	0.4334044	-1.593586	-49.52797	0	10.66	4004	0	0	5	5	0.4064549	1.31303	3	10	0.03	2000	-21.38272	40.92393	-91.39362
415556	570	-2072	-244	-0.3094025	-1.470928	-49.41668	0	10.66	4003	0	0	5	5	0.4064549	1.339662	3	10	0.03	2000	-21.22711	40.92393	-91.39362
415625	570	-2072	-244	-0.3094025	-1.470928	-49.41668	0	10.66	4003	0	0	5	5	0.4064549	1.355472	3	10	0.03	2000	-21.22711	40.92393	-91.39362
415771	-772	-767	-325	-0.3315563	-7.60352	-49.66125	0	10.66	4004	0	0	5	5	0.4064549	1.394999	3	10	0.03	2000	-21.64603	40.92392	-91.39362
415851	835	-3228	-1064	0.07941508	-6.530265	-49.26181	0	10.66	4003	0	0	5	5	0.4064549	1.406828	3	10	0.03	2000	-21.64603	40.92392	-91.39362
415993	-582	3197	967	1.134054	-5.504129	-49.62214	0	10.21	4003	0	0	5	5	0.4064549	1.429641	3	10	0.03	2000	-27.08231	40.92392	-91.39362
416046	-651	502	-470	0.9070322	-7.556204	-49.89941	0	10.21	4003	0	0	5	5	0.4064549	1.433378	3	10	0.03	2000	-23.48132	40.92392	-91.39362
416206	-631	676	2126	-0.4936977	-5.643678	-49.72144	0	10.21	4004	0	0	5	5	0.4064549	1.464673	3	10	0.03	2000	-22.53687	40.92392	-91.39362
416357	-770	288	-1639	-3.000382	-12.52825	-48.98314	0	10.21	4004	0	0	5	5	0.4064549	1.488854	3	10	0.03	2000	-23.77072	40.92392	-91.39362
416449	-1957	2754	-134	-5.184406	-14.25478	-48.60886	0	10.21	4002	0	0	5	5	0.4064549	1.512048	3	10	0.03	2000	-25.92581	40.92392	-91.39361
416533	-1919	1203	468	-8.179975	-17.77476	-49.81075	0	10.21	4003	0	0	5	5	0.4064549	1.523408	3	10	0.03	2000	-23.57574	40.92392	-91.39361
416641	-746	938	-454	-9.509194	-14.83861	-49.33704	0	10.21	4003	0	0	5	5	0.4064549	1.532945	3	10	0.03	2000	-26.06049	40.92391	-91.39361
416692	-746	938	-454	-9.509194	-14.83861	-49.33704	0	10.21	4003	0	0	5	5	0.4064549	1.535277	3	10	0.03	2000	-26.06049	40.92391	-91.39361
416812	982	663	701	-5.652213	-14.80256	-49.0289	0	10.21	4002	0	0	5	5	0.4064549	1.541871	3	10	0.03	2000	-29.17966	40.92391	-91.39361
416892	78	1474	285	-3.608321	-15.724	-49.18962	0	10.49	4003	0	0	5	5	0.4064549	1.549123	3	10	0.03	2000	-29.23474	40.92391	-91.39361
417079	-1225	-407	159	-1.678137	-10.96215	-50.39439	0	10.49	4003	0	0	5	5	0.4064549	1.574689	3	10	0.03	2000	-27.44781	40.92391	-91.39361
417130	-779	31	-135	-1.934084	-10.66525	-50.68101	0	10.49	4004	0	0	5	5	0.4064549	1.588765	3	10	0.03	2000	-27.44781	40.92391	-91.39361
417191	316	-1252	1101	-1.085638	-5.864417	-50.10496	0	10.49	4003	0	0	5	5	0.4064549	1.611489	3	10	0.03	2000	-27.36917	40.92391	-91.39361
417223	1172	-444	-2214	-0.9062945	-4.786939	-49.45958	0	10.49	4003	0	0	5	5	0.4064549	1.636209	3	10	0.03	2000	-28.99554	40.92391	-91.39361
417341	918	-1490	-440	-0.7932411	-2.55959	-49.21985	0	10.49	4003	0	0	5	5	0.4064549	1.669994	3	10	0.03	2000	-30.21048	40.92391	-91.39361
417460	-154	47	-442	0.2710244	-2.926432	-49.012	0	10.49	4002	0	0	5	5	0.4064549	1.685704	3	10	0.03	2000	-29.02005	40.92391	-91.39361
417529	-867	-1517	-116	-0.09265568	-2.914641	-48.98404	0	10.49	4004	0	0	5	5	0.4064549	1.693667	3	10	0.03	2000	-28.89395	40.92392	-91.39361
417579	228	-1570	806	-0.9271978	0.635709	-49.2038	0	10.49	4002	0	0	5	5	0.4064549	1.697117	3	10	0.03	2000	-31.90265	40.92392	-91.39361
417682	34	746	815	-0.2037918	0.6136148	-49.27517	0	9.75	4003	0	0	5	5	0.4064549	1.699926	3	10	0.03	2000	-33.48904	40.92392	-91.39361
417793	108	707	-53	-0.4664034	-1.399757	-49.84113	0	9.75	4002	0	0	5	5	0.4064549	1.69763	3	10	0.03	2000	-33.50162	40.92392	-91.39361
417899	-716	3387	1207	0.007192663	-2.503343	-49.94128	0	9.75	4003	0	0	5	5	0.4064549	1.692572	3	10	0.03	2000	-32.6326	40.92392	-91.39361
417928	-151	1999	352	-0.1255672	-3.916155	-50.0372	0	9.75	4003	0	0	5	5	0.4064549	1.688868	3	10	0.03	2000	-31.89291	40.92392	-91.39361
418026	703	-2147	-1444	-0.3267636	-2.421308	-49.52598	0	9.75	4004	0	0	5	5	0.4064549	1.681948	3	10	0.03	2000	-33.30844	40.92392	-91.39362
418060	-1018	-218	-1073	-1.114213	-2.18065	-49.73898	0	9.75	4004	0	0	5	5	0.4064549	1.678304	3	10	0.03	2000	-31.68777	40.92392	-91.39362
418142	1099	920	-133	-0.0353512	-3.910879	-49.59488	0	9.75	4002	0	0	5	5	0.4064549	1.675913	3	10	0.03	2000	-33.46707	40.92392	-91.39362
418208	131	1664	-580	-0.1279642	-5.263551	-49.36801	0	9.75	4004	0	0	5	5	0.4064549	1.670717	3	10	0.03	2000	-31.36957	40.92392	-91.39362
418387	-824	1109	841	-0.7477309	-9.227734	-48.99475	0	9.75	4002	0	0	5	5	0.4064549	1.640994	3	10	0.03	2000	-27.30429	40.92392	-91.39362
418431	317	-653	726	-0.8559343	-8.315828	-48.99079	0	10.43	4002	0	0	5	5	0.4064549	1.618113	3	10	0.03	2000	-23.98239	40.92392	-91.39362
418548	774	-612	91	-0.2323705	-5.947548	-48.73162	0	10.43	4004	0	0	5	5	0.4064549	1.585973	3	10	0.03	2000	-25.01312	40.92392	-91.39362
418608	-425	-797	-252	-0.1735372	-5.358831	-48.69238	0	10.43	4002	0	0	5	5	0.4064549	1.559942	3	10	0.03	2000	-23.21698	40.92392	-91.39362
418731	127	1489	1034	-1.644495	-6.620512	-48.9053	0	10.43	4004	0	0	5	5	0.4064549	1.499879	3	10	0.03	2000	-22.05429	40.92392	-91.39362
418802	528	106	547	-1.317073	-7.208154	-49.28268	0	10.43	4003	0	0	5	5	0.4064549	1.477259	3	10	0.03	2000	-23.01187	40.92392	-91.39362
418929	555	360	695	-0.1690478	-3.659731	-49.2971	0	10.43	4003	0	0	5	5	0.4064549	1.416993	3	10	0.03	2000	-20.52795	40.92392	-91.39362
419071	-342	-1366	-430	-0.9518133	-5.375991	-49.3341	0	10.43	4004	0	0	5	5	0.4064549	1.311574	3	10	0.03	2000	-17.5517	40.92392	-91.39362
419125	-485	-1220	1661	-1.118697	-4.301221	-49.24349	0	10.43	4004	0	0	5	5	0.4064549	1.264603	3	10	0.03	2000	-17.5517	40.92392	-91.39362
419300	-1072	-1190	-178	-0.7493676	-2.34433	-49.36648	0	10.43	4003	0	0	5	5	0.4064549	1.157313	3	10	0.03	2000	-17.98813	40.92392	-91.39362
419355	743	-246	112	-0.7770932	-2.573144	-49.79749	0	9.64	4002	0	0	5	5	0.4064549	1.11559	3	10	0.03	2000	-17.98813	40.92392	-91.39362
419448	142	-1375	-765	0.2651157	-0.4518055	-49.87429	0	9.64	4004	0	0	5	5	0.4064549	1.057177	3	10	0.03	2000	-15.23172	40.92392	-91.39362
419498	-911	332	129	0.4928019	0.242487	-49.84669	0	9.64	4002	0	0	5	5	0.4064549	1.043054	3	10	0.03	2000	-17.47797	40.92392	-91.39362
419603	-356	3869	142	0.6657847	-2.018287	-49.90892	0	9.64	4004	0	0	5	5	0.4064549	0.979414	3	10	0.03	2000	-15.97128	40.92392	-91.39362
419716	-503	1866	-165	1.039674	-8.955138	-49.99871	0	9.64	4003	0	0	5	5	0.4064549	0.9260138	3	10	0.03	2000	-15.86813	40.92392	-91.39362
419876	-4	-157	317	0.5487049	-9.787929	-48.82845	0	9.64	4002	0	0	5	5	0.4064549	0.8760883	3	10	0.03	2000	-15.733	40.92392	-91.39362
419999	-1482	-164	-371	1.371234	-5.832953	-49.24472	0	9.64	4003	0	0	5	5	0.4064549	0.8470578	3	10	0.03	2000	-15.41205	40.92392	-91.39362
420032	-1116	-2222	-683	0.3580121	-5.540645	-49.58391	0	9.64	4004	0	0	5	5	0.4064549	0.8450021	3	10	0.03	2000	-15.41205	40.92392	-91.39362
420194	1554	1650	415	0.3659835	-4.397512	-48.83315	0	9.64	4003	0	0	5	5	0.4064549	0.8450317	3	10	0.03	2000	-14.58383	40.92392	-91.39362
420258	-2704	651	948	-0.6849411	-4.154997	-48.88755	0	8.96	4004	0	0	5	5	0.4064549	0.8548278	3	10	0.03	2000	-15.07556	40.92392	-91.39362
420336	-202	-2207	314	-1.944754	-2.316917	-49.41666	0	8.96	4002	0	0	5	5	0.4064549	0.8722138	3	10	0.03	2000	-13.12128	40.92392	-91.39362
420400	958	-574	-1448	-0.7707929	0.4636064	-49.75245	0	8.96	4004	0	0	5	5	0.4064549	0.895425	3	10	0.03	2000	-14.01837	40.92392	-91.39362
420503	587	745	719	0.7820037	-0.3497356	-49.68792	0	8.96	4002	0	0	5	5	0.4064549	0.9717873	3	10	0.03	2000	-12.89526	40.92392	-91.39362
420616	153	-2378	-1631	-0.6936055	0.1443839	-49.20223	0	8.96	4002	0	0	5	5	0.4064549	1.030954	3	10	0.03	2000	-13.12161	40.92392	-91.39362
420707	143	-985	175	1.023778	1.779635	-48.62099	0	8.96	4004	0	0	5	5	0.4064549	1.09552	3	10	0.03	2000	-15.01984	40.92392	-91.39362
420852	-63	-422	-643	0.3468515	1.974637	-49.0286	0	8.96	4004	0	0	5	5	0.4064549	1.1887	3	10	0.03	2000	-14.79501	40.92392	-91.39362
420906	651	-120	623	0.1010923	1.340569	-49.05848	0	8.96	4003	0	0	5	5	0.4064549	1.203114	3	10	0.03	2000	-14.29422	40.92392	-91.39362
421040	-1622	1602	-535	-0.1423036	-0.4427369	-49.47163	0	8.96	4002	0	0	5	5	0.4064549	1.302676	3	10	0.03	2000	-12.32904	40.92392	-91.39362
421117	-1579	1772	325	-6.022387	-8.364295	-50.43164	0	8.96	4004	0	0	5	5	0.4064549	1.374748	3	10	0.03	2000	-12.05923	40.92392	-91.39362
421243	1223	-1896	-424	-5.012661	-6.062581	-49.9461	0	10.94	4003	0	0	5	5	0.4064549	1.423573	3	10	0.03	2000	-14.30371	40.92392	-91.39362
421357	-501	997	218	-5.721583	-5.561779	-49.68314	0	10.94	4003	0	0	5	5	0.4064549	1.444906	3	10	0.03	2000	-14.65128	40.92392	-91.39362
421444	1500	-1077	-87	-4.72589	-5.515244	-49.48512	0	10.94	4003	0	0	5	5	0.4064549	1.487841	3	10	0.03	2000	-14.72214	40.92392	-91.39362
421505	878	-304	724	-2.424586	-3.989058	-49.26259	0	10.94	4004	0	0	5	5	0.4064549	1.500282	3	10	0.03	2000	-15.51404	40.92392	-91.39362
421608	-1071	437	-446	-2.040724	-4.996652	-49.52272	0	10.94	4004	0	0	5	5	0.4064549	1.51969	3	10	0.03	2000	-15.61063	40.92392	-91.39361
421719	-30	31	-161	-2.860423	-6.470248	-50.17997	0	10.94	4004	0	0	5	5	0.4064549	1.517838	3	10	0.03	2000	-15.83881	40.92392	-91.39361
421815	204	1480	1473	-0.7155511	-5.599305	-50.21103	0	10.94	4003	0	0	5	5	0.4064549	1.494978	3	10	0.03	2000	-14.12769	40.92392	-91.39361
421914	-3783	-2053	-1601	-3.960442	-5.973745	-49.25626	0	10.94	4002	0	0	5	5	0.4064549	1.483314	3	10	0.03	2000	-15.06866	40.92392	-91.39361
422026	-1547	-218	42	-5.790999	-4.504561	-48.81577	0	10.94	4004	0	0	5	5	0.4064549	1.455293	3	10	0.03	2000	-12.76288	40.92392	-91.39361
422121	-1858	-382	-702	-9.39083	-7.669104	-49.93906	0	9.47	4003	0	0	5	5	0.4064549	1.412482	3	10	0.03	2000	-17.49573	40.92392	-91.39361
422219	3740	-1537	268	-7.356081	-6.865202	-50.12297	0	9.47	4003	0	0	5	5	0.4064549	1.376542	3	10	0.03	2000	-19.53012	40.92392	-91.39361
422331	629	-1071	866	-3.781903	-2.151023	-50.54527	0	9.47	4002	0	0	5	5	0.4064549	1.325573	3	10	0.03	2000	-22.95316	40.92392	-91.3936
422427	1027	-1885	-766	-1.165442	-0.3787467	-50.18656	0	9.47	4004	0	0	5	5	0.4064549	1.305426	3	10	0.03	2000	-27.04471	40.92392	-91.3936
422560	1099	-249	-1520	0.05599886	-0.6185771	-50.02667	0	9.47	4004	0	0	5	5	0.4064549	1.268999	3	10	0.03	2000	-25.89874	40.92392	-91.3936
422701	-1118	-728	1456	-0.03108155	-1.334029	-49.33873	0	9.47	4003	0	0	5	5	0.4064549	1.242209	3	10	0.03	2000	-29.07275	40.92392	-91.3936
422837	-49	-1333	-1285	-0.3648335	-0.1245941	-49.75157	0	9.47	4003	0	0	5	5	0.4064549	1.209179	3	10	0.03	2000	-32.30173	40.92392	-91.3936
422950	-688	-1136	164	1.069898	-1.10337	-49.7322	0	9.47	4002	0	0	5	5	0.4064549	1.188769	3	10	0.03	2000	-31.73169	40.92392	-91.3936
423055	118	-1483	-105	0.2902115	0.1028986	-49.59329	0	9.81	4002	0	0	5	5	0.4064549	1.156536	3	10	0.03	2000	-30.11041	40.92392	-91.3936
423175	-2676	1734	440	-0.4670039	-3.135875	-48.76266	0	9.81	4003	0	0	5	5	0.4064549	1.139499	3	10	0.03	2000	-34.65137	40.92392	-91.3936
423307	-1377	-389	-467	-3.960129	-2.184404	-48.43031	0	9.81	4002	0	0	5	5	0.4064549	1.121877	3	10	0.03	2000	-35.32483	40.92391	-91.3936
423347	-1485	934	-199	-4.380342	-3.546414	-48.47018	0	9.81	4002	0	0	5	5	0.4064549	1.119199	3	10	0.03	2000	-35.32483	40.92391	-91.3936
423471	-1418	-583	-146	-4.714339	-8.46739	-49.15712	0	9.81	4002	0	0	5	5	0.4064549	1.097327	3	10	0.03	2000	-35.92532	40.92391	-91.3936
423575	1543	-529	-454	-3.657384	-6.567628	-49.01995	0	9.81	4003	0	0	5	5	0.4064549	1.083785	3	10	0.03	2000	-39.71567	40.92391	-91.3936
423648	105	19	-219	-2.773246	-6.997689	-49.40499	0	9.81	4004	0	0	5	5	0.4064549	1.077758	3	10	0.03	2000	-36.46378	40.92391	-91.3936
423752	597	-2128	-594	-2.067123	-4.346426	-49.47926	0	9.81	4004	0	0	5	5	0.4064549	1.056163	3	10	0.03	2000	-36.72034	40.92391	-91.3936
423860	996	-218	-289	-1.061725	-3.670727	-48.8591	0	9.81	4004	0	0	5	5	0.4064549	1.046187	3	10	0.03	2000	-40.79739	40.92391	-91.3936
423958	-591	-848	735	-0.7215543	-2.28772	-48.86931	0	10.26	4004	0	0	5	5	0.4064549	1.021706	3	10	0.03	2000	-39.64572	40.92391	-91.3936
424070	473	40	-336	-0.5077056	-2.034051	-48.93286	0	10.26	4003	0	0	5	5	0.4064549	0.9907454	3	10	0.03	2000	-38.5712	40.92391	-91.3936
424176	-50	1067	697	-1.166439	-2.340523	-49.68539	0	10.26	4003	0	0	5	5	0.4064549	0.936591	3	10	0.03	2000	-37.53415	40.92391	-91.3936
424315	-748	3880	1369	-1.094831	-7.868192	-50.33809	0	10.26	4003	0	0	5	5	0.4064549	0.9021722	3	10	0.03	2000	-37.22943	40.92391	-91.39361
424367	586	765	-735	-0.7970044	-8.818402	-50.20325	0	10.26	4003	0	0	5	5	0.4064549	0.8807026	3	10	0.03	2000	-36.29474	40.92391	-91.39361
424466	-530	-566	1041	0.004721507	-6.3723	-49.10081	0	10.26	4003	0	0	5	5	0.4064549	0.8620773	3	10	0.03	2000	-34.29431	40.92391	-91.39361
424600	478	188	899	-0.004372958	-2.319694	-48.55535	0	10.26	4003	0	0	5	5	0.4064549	0.8237039	3	10	0.03	2000	-37.22903	40.92391	-91.39362
424702	677	148	949	0.352372	-2.25942	-48.67996	0	10.26	4004	0	0	5	5	0.4064549	0.8125857	3	10	0.03	2000	-37.19333	40.92391	-91.39362
424772	-467	-1206	468	-0.1223142	-2.060121	-49.29086	0	10.26	4002	0	0	5	5	0.4064549	0.7988836	3	10	0.03	2000	-33.92908	40.9239	-91.39362
424874	-276	-1908	646	-0.3486888	-0.4115883	-49.75531	0	10.26	4004	0	0	5	5	0.4064549	0.7787392	3	10	0.03	2000	-33.21384	40.9239	-91.39362
424985	341	-2139	-14	-1.442607	4.982016	-50.42205	0	10.94	4004	0	0	5	5	0.4064549	0.7448646	3	10	0.03	2000	-32.40915	40.9239	-91.39362
425129	438	-623	245	-2.953489	8.830923	-51.0271	0	10.94	4003	0	0	5	5	0.4064549	0.7260931	3	10	0.03	2000	-33.25546	40.9239	-91.39362
425239	11677	5542	-1089	27.14892	-0.2789844	-37.10981	0	10.94	4002	0	0	5	5	0.4064549	0.6914675	3	10	0.03	2000	-23.49527	40.9239	-91.39362
425353	-2402	-812	-6811	29.26421	-5.584699	-37.26267	0	10.94	4003	0	0	5	5	0.4064549	0.6704013	3	10	0.03	2000	-9.188782	40.9239	-91.39362
425495	-9742	628	-698	5.678832	-11.39813	-18.35291	0	10.94	4002	0	0	5	5	0.4064549	0.6144125	3	10	0.03	2000	-24.15601	40.9239	-91.39362
425584	-11183	-2344	2114	-9.316965	-8.757771	-19.86604	0	10.94	4003	0	0	5	5	0.4064549	0.5374767	3	10	0.03	2000	-28.77393	40.9239	-91.39362
425646	-5614	-3466	1195	-17.4773	-5.101247	-21.3918	0	10.94	4002	0	0	5	5	0.4064549	0.5146264	3	10	0.03	2000	-28.77393	40.9239	-91.39362
425737	3743	-1420	6270	-13.82023	-0.2028562	-27.07024	0	10.94	4003	0	0	5	5	0.4064549	0.4831096	3	10	0.03	2000	-30.85718	40.9239	-91.39362
425849	-20	-460	7301	-8.576133	1.467567	-37.23396	0	11	4003	0	0	5	5	0.4064549	0.4317921	3	10	0.03	2000	-26.504	40.9239	-91.39362
425942	-3486	1564	5886	-12.53473	-1.248316	-48.99583	0	11	4002	0	0	5	5	0.4064549	0.4137405	3	10	0.03	2000	-14.26169	40.9239	-91.39363
426081	2346	1622	5095	-13.69182	-9.342964	-61.65046	0	11	4003	0	0	5	5	0.4064549	0.3934147	3	10	0.03	2000	-5.606628	40.9239	-91.39363
426154	4040	-977	4014	-9.148922	-11.46624	-66.25578	0	11	4002	0	0	5	5	0.4064549	0.3818938	3	10	0.03	2000	-1.200592	40.9239	-91.39363
426293	5996	-1812	6423	9.445042	-8.541471	-79.56643	0	11	4003	0	0	5	5	0.4064549	0.3586711	3	10	0.03	2000	7.804443	40.9239	-91.39363
426341	5121	-1487	6449	13.05349	-7.314062	-83.16376	0	11	4004	0	0	5	5	0.4064549	0.3552483	3	10	0.03	2000	7.804443	40.9239	-91.39363
426493	1761	1014	4588	23.07824	-6.749819	-97.74255	0	11	4003	0	0	5	5	0.4064549	0.343968	3	10	0.03	2000	26.10374	40.9239	-91.39363
426590	-669	1778	3247	24.29016	-8.024624	-104.46	0	11	4003	0	0	5	5	0.4064549	0.3464065	3	10	0.03	2000	32.12429	40.92391	-91.39363
426767	-2520	2065	880	11.61644	-10.61663	-111.0344	0	11	4004	0	0	5	5	0.4064549	0.3349352	3	10	0.03	2000	43.67787	40.92391	-91.39363
426884	2499	-380	1454	18.11283	-10.03133	-115.9884	0	11	4002	0	0	5	5	0.4064549	0.327075	3	10	0.03	2000	46.57071	40.92391	-91.39363
426925	2621	1262	211	20.12212	-9.691912	-116.4434	0	11	4002	0	0	5	5	0.4064549	0.3260665	3	10	0.03	2000	46.57071	40.92391	-91.39363
427028	1738	1133	-1069	23.22509	-11.35072	-115.4175	0	11	4003	0	0	5	5	0.4064549	0.3258496	3	10	0.03	2000	46.44332	40.92391	-91.39363
427129	-239	1831	1463	26.12924	-10.29905	-116.8074	0	11	4003	0	0	5	5	0.4064549	0.3203555	3	10	0.03	2000	42.3381	40.92391	-91.39363
427257	-8314	126	-5873	9.766713	-17.11818	-109.1462	0	11	4002	0	0	5	5	0.4064549	0.3184599	3	10	0.03	2000	39.02453	40.92392	-91.39363
427409	896	2305	-3392	1.074288	-17.59579	-104.8843	0	11	4003	0	0	5	5	0.4064549	0.3126462	1	10	0.03	2000	32.13431	40.92392	-91.39363
427516	-395	-2261	-3853	2.473372	-21.4878	-97.30237	0	11	4002	0	0	5	5	0.4064549	0.3024584	1	10	0.03	2000	29.83671	40.92392	-91.39363
427560	-1927	-2963	-3024	1.194327	-20.36766	-95.43084	0	11	4003	0	0	5	5	0.4064549	0.3028324	1	10	0.03	2000	27.7818	40.92392	-91.39363
427638	-2088	-420	-4154	-2.130999	-18.72096	-91.95749	0	11	4004	0	0	5	5	0.4064549	0.312176	1	10	0.03	2000	25.85109	40.92392	-91.39363
427740	-1299	-2194	-2220	-9.700658	-14.62177	-82.89444	0	11	4004	0	0	5	5	0.4064549	0.3292155	1	10	0.03	2000	17.80584	40.92392	-91.39363
427906	2071	-1458	1064	-5.57195	-8.692072	-80.70584	0	11	4004	0	0	5	5	0.4064549	0.3490618	1	10	0.03	2000	15.60558	40.92392	-91.39363
428005	1884	4383	666	-0.6912262	-10.67985	-82.31399	0	11	4002	0	0	5	5	0.4064549	0.3478469	1	10	0.03	2000	16.93439	40.92392	-91.39363
428031	1514	4613	995	0.8999019	-13.66294	-82.79298	0	11	4003	0	0	5	5	0.4064549	0.3462775	1	10	0.03	2000	16.93439	40.92392	-91.39363
428196	-278	1930	-1136	2.163012	-25.38185	-82.69242	0	11	4002	0	0	5	5	0.4064549	0.3264624	1	10	0.03	2000	16.04121	40.92393	-91.39362
428308	2815	-281	1345	5.779284	-26.73501	-84.14502	0	11	4002	0	0	5	5	0.4064549	0.3186929	1	10	0.03	2000	14.52143	40.92393	-91.39362
428358	1982	94	-1057	9.059255	-27.27249	-84.42183	0	11	4002	0	0	5	5	0.4064549	0.3174694	1	10	0.03	2000	15.55556	40.92393	-91.39362
428472	-1568	2169	-1197	6.950913	-28.39769	-82.54506	0	11	4003	0	0	5	5	0.4064549	0.3035569	1	10	0.03	2000	15.69335	40.92393	-91.39362
428589	1181	1476	-3383	4.163185	-33.60655	-77.08686	0	11	4003	0	0	5	5	0.4064549	0.2755198	1	10	0.03	2000	13.12913	40.92393	-91.39362
428622	1624	1681	-3394	4.136677	-34.64982	-75.22648	0	11	4004	0	0	5	5	0.4064549	0.2692843	1	10	0.03	2000	10.94344	40.92393	-91.39362
428700	-361	1206	-1272	2.888603	-39.11079	-71.90546	0	11	4003	0	0	5	5	0.4064549	0.235018	1	10	0.03	2000	8.634153	40.92393	-91.39362
428822	781	2939	345	3.624458	-42.41213	-71.55349	0	11	4003	0	0	5	5	0.4064549	0.214168	1	10	0.03	2000	6.743258	40.92393	-91.39362
428916	2244	309	-743	7.395507	-49.82203	-71.86272	0	11	4003	0	0	5	5	0.4064549	0.1952887	1	10	0.03	2000	8.574259	40.92393	-91.39362
429088	530	-23	-1129	13.04575	-53.82071	-71.66072	0	11	4003	0	0	5	5	0.4064549	0.1058112	1	10	0.03	2000	10.62205	40.92393	-91.39362
429148	-2741	-1126	-726	9.073213	-55.32493	-69.56921	0	11	4003	0	0	5	5	0.4064549	0.09417609	1	10	0.03	2000	8.063337	40.92393	-91.39362
429211	-2443	-893	-492	7.275552	-54.83734	-69.2891	0	11	4003	0	0	5	5	0.4064549	0.03675463	1	10	0.03	2000	8.063337	40.92393	-91.39362
429367	1102	-1174	431	6.336376	-56.53238	-66.9494	0	11	4004	0	0	5	5	0.4064549	-0.03415348	1	10	0.03	2000	3.450562	40.92393	-91.39362
429471	-1973	462	-687	7.942606	-54.22791	-69.1515	0	11.06	4003	0	0	5	5	0.4064549	-0.05831217	1	10	0.03	2000	6.603862	40.92393	-91.39362
429578	-1593	10011	-4189	-0.5927607	-63.27551	-64.33241	0	11.06	4003	0	0	5	5	0.4064549	-0.1192056	1	10	0.03	2000	4.806709	40.92393	-91.39362
429678	751	-4283	1	0.9992999	-64.0153	-62.60727	0	11.06	4002	0	0	5	5	0.4064549	-0.1539717	1	10	0.03	2000	-4.272186	40.92393	-91.39362
429769	-377	3233	217	0.7117134	-61.05507	-62.53686	0	11.06	4003	0	0	5	5	0.4064549	-0.1856671	1	10	0.03	2000	-4.506256	40.92393	-91.39362
429908	-2245	-6837	-1540	-0.8388689	-59.90327	-62.79839	0	11.06	4003	0	0	5	5	0.4064549	-0.2250507	1	10	0.03	2000	-3.971863	40.92393	-91.39362
429956	780	-3598	2640	-3.94717	-51.17802	-63.637	0	11.06	4004	0	0	5	5	0.4064549	-0.2377185	1	10	0.03	2000	-5.240479	40.92393	-91.39362
430016	1598	2810	1157	-0.08242413	-52.25881	-65.80919	0	11.06	4002	0	0	5	5	0.4064549	-0.2598349	1	10	0.03	2000	-1.000153	40.92393	-91.39362
430127	144	-1468	-430	-0.3782583	-51.17779	-66.07689	0	11.06	4004	0	0	5	5	0.4064549	-0.2784165	1	10	0.03	2000	0.6286342	40.92393	-91.39362
430326	-144	-8448	-1199	-1.089717	-24.9488	-64.28487	0	11.06	4004	0	0	5	5	0.4064549	-0.3077619	1	10	0.03	2000	1.420802	40.92393	-91.39362
430377	-331	-3161	-32	-1.250414	-16.21004	-63.94741	0	11.06	4004	0	0	5	5	0.4064549	-0.3122312	1	10	0.03	2000	2.473971	40.92393	-91.39362
430423	-206	-2720	-223	-1.358029	-12.35593	-63.77101	0	11.06	4003	0	0	5	5	0.4064549	-0.3255366	1	10	0.03	2000	2.557825	40.92393	-91.39362
430537	-132	-4167	-197	-1.380757	-7.709991	-63.66219	0	11.06	4002	0	0	5	5	0.4064549	-0.3372386	1	10	0.03	2000	2.823798	40.92393	-91.39362
430616	-51	-153	82	-1.461448	-4.289041	-63.66639	0	11.06	4003	0	0	5	5	0.4064549	-0.3455448	1	10	0.03	2000	2.945926	40.92393	-91.39362
430791	-101	-7	16	-1.397525	-3.283972	-63.71003	0	11.06	4003	0	0	5	5	0.4064549	-0.3578564	1	10	0.03	2000	2.913199	40.92393	-91.39362
430887	-98	-5	12	-1.388346	-2.966172	-63.72235	0	11.06	4004	0	0	5	5	0.4064549	-0.373448	1	10	0.03	2000	2.574794	40.92393	-91.39362
431010	-92	-2	12	-1.363974	-2.316197	-63.75569	0	11.06	4004	0	0	5	5	0.4064549	-0.3768532	1	10	0.03	2000	2.492712	40.92393	-91.39362
431060	-88	3	2	-1.356168	-2.201737	-63.76186	0	11.06	4003	0	0	5	5	0.4064549	-0.3815647	1	10	0.03	2000	2.461558	40.92393	-91.39362
431158	-100	3	9	-1.344511	-1.890494	-63.77901	0	11.06	4002	0	0	5	5	0.4064549	-0.3858531	1	10	0.03	2000	2.428026	40.92393	-91.39362
431220	-97	6	10	-1.340702	-1.796022	-63.7856	0	11.06	4002	0	0	5	5	0.4064549	-0.3884303	1	10	0.03	2000	2.406464	40.92393	-91.39362
431311	-94	2	13	-1.327761	-1.458824	-63.81435	0	11.06	4003	0	0	5	5	0.4064549	-0.3912146	1	10	0.03	2000	2.356287	40.92393	-91.39362
431413	-93	1	18	-1.325014	-1.312841	-63.82846	0	11.06	4004	0	0	5	5	0.4064549	-0.391791	1	10	0.03	2000	2.343294	40.92393	-91.39362
431516	-94	5	17	-1.313774	-1.053864	-63.85783	0	11.06	4003	0	0	5	5	0.4064549	-0.3881668	1	10	0.03	2000	2.289422	40.92393	-91.39362
431610	-86	11	-1	-1.301745	-0.9466465	-63.86534	0	11.06	4004	0	0	5	5	0.4064549	-0.3827863	1	10	0.03	2000	2.294003	40.92393	-91.39362
431731	-90	-1	12	-1.293081	-0.7088203	-63.89463	0	11.06	4002	0	0	5	5	0.4064549	-0.3823305	1	10	0.03	2000	2.223603	40.92393	-91.39362
431829	-93	2	7	-1.279869	-0.6281576	-63.90617	0	11.06	4003	0	0	5	5	0.4064549	-0.3837631	1	10	0.03	2000	2.204505	40.92393	-91.39362
431960	-101	6	11	-1.266202	-0.4480867	-63.94011	0	11.06	4002	0	0	5	5	0.4064549	-0.392352	1	10	0.03	2000	2.157582	40.92393	-91.39362
432015	-97	1	10	-1.260846	-0.3895222	-63.95262	0	11.06	4002	0	0	5	5	0.4064549	-0.3958868	1	10	0.03	2000	2.140285	40.92393	-91.39362
432103	-96	-3	8	-1.256121	-0.3352483	-63.96361	0	11.06	4003	0	0	5	5	0.4064549	-0.3984637	1	10	0.03	2000	2.381862	40.92393	-91.39362
432207	-95	1	8	-1.245956	-0.2618207	-63.98284	0	11.06	4004	0	0	5	5	0.4064549	-0.3995853	1	10	0.03	2000	2.118871	40.92393	-91.39362
432311	-95	0	12	-1.248603	-0.2025365	-64.00208	0	11.06	4002	0	0	5	5	0.4064549	-0.3976406	1	10	0.03	2000	2.1177	40.92393	-91.39362
432422	-97	2	14	-1.249442	-0.1458431	-64.02161	0	11.06	4003	0	0	5	5	0.4064549	-0.3987059	1	10	0.03	2000	2.12249	40.92393	-91.39362
432580	-98	12	11	-1.248351	-0.06448507	-64.05298	0	11.06	4003	0	0	5	5	0.4064549	-0.3940835	1	10	0.03	2000	2.104203	40.92393	-91.39362
432657	-91	1	11	-1.248436	-0.04128461	-64.06653	0	11.06	4004	0	0	5	5	0.4064549	-0.3928993	1	10	0.03	2000	2.118701	40.92393	-91.39362
432724	-97	3	11	-1.245774	-0.009319651	-64.08575	0	11.06	4003	0	0	5	5	0.4064549	-0.3919677	1	10	0.03	2000	2.34407	40.92393	-91.39362
432820	-92	0	12	-1.242778	0.01957977	-64.10486	0	11.06	4004	0	0	5	5	0.4064549	-0.3998823	1	10	0.03	2000	2.093463	40.92393	-91.39362
432921	-90	8	8	-1.236436	0.03433542	-64.11749	0	11.06	4004	0	0	5	5	0.4064549	-0.4111368	1	10	0.03	2000	2.082731	40.92393	-91.39362
433018	-85	3	8	-1.240491	0.0699791	-64.1457	0	11.06	4004	0	0	5	5	0.4064549	-0.419431	1	10	0.03	2000	2.318919	40.92393	-91.39362
433120	-94	0	12	-1.236879	0.07663703	-64.15205	0	11.06	4004	0	0	5	5	0.4064549	-0.4326023	1	10	0.03	2000	2.086302	40.92393	-91.39363
433295	-95	1	7	-1.230459	0.1199815	-64.19483	0	11.06	4004	0	0	5	5	0.4064549	-0.4425031	1	10	0.03	2000	2.304784	40.92393	-91.39363
433390	-95	1	13	-1.224243	0.1268328	-64.20826	0	11.06	4002	0	0	5	5	0.4064549	-0.4540183	1	10	0.03	2000	2.062556	40.92393	-91.39363
433482	-89	-1	11	-1.219454	0.1358111	-64.2273	0	11.06	4003	0	0	5	5	0.4064549	-0.4588076	1	10	0.03	2000	2.052443	40.92393	-91.39363
433521	-97	4	21	-1.222379	0.1473958	-64.24097	0	11.06	4004	0	0	5	5	0.4064549	-0.4600959	1	10	0.03	2000	2.052428	40.92393	-91.39363
433679	-91	5	1	-1.220949	0.163655	-64.26283	0	11.06	4002	0	0	5	5	0.4064549	-0.4628515	1	10	0.03	2000	2.050415	40.92393	-91.39363
433729	-92	-2	12	-1.216591	0.1692665	-64.26978	0	11.06	4003	0	0	5	5	0.4064549	-0.4616415	1	10	0.03	2000	2.045243	40.92393	-91.39363
433867	-94	11	8	-1.213405	0.1773614	-64.30042	0	11.06	4003	0	0	5	5	0.4064549	-0.4572578	1	10	0.03	2000	2.036328	40.92393	-91.39363
433983	-97	2	13	-1.21035	0.180729	-64.32032	0	11.06	4004	0	0	5	5	0.4064549	-0.4538564	1	10	0.03	2000	2.037563	40.92393	-91.39363
434067	-89	-9	11	-1.206744	0.1874856	-64.33973	0	11.06	4003	0	0	5	5	0.4064549	-0.4494462	1	10	0.03	2000	2.023154	40.92393	-91.39363
434127	-91	2	8	-1.200137	0.1944983	-64.35114	0	11.06	4002	0	0	5	5	0.4064549	-0.4487889	1	10	0.03	2000	2.267197	40.92393	-91.39363
434230	-91	6	13	-1.198244	0.1992668	-64.36231	0	11.06	4003	0	0	5	5	0.4064549	-0.4492313	1	10	0.03	2000	2.015481	40.92393	-91.39363
434428	-93	0	13	-1.180439	0.196506	-64.40278	0	11.06	4002	0	0	5	5	0.4064549	-0.4473647	1	10	0.03	2000	1.992339	40.92393	-91.39363
434476	-91	-1	11	-1.183702	0.1944653	-64.40827	0	11.06	4002	0	0	5	5	0.4064549	-0.4421421	1	10	0.03	2000	1.992339	40.92393	-91.39363
434548	-89	5	12	-1.187331	0.2016648	-64.42072	0	11.06	4002	0	0	5	5	0.4064549	-0.4380329	1	10	0.03	2000	1.99078	40.92393	-91.39363
434702	-93	2	10	-1.187365	0.2008531	-64.44898	0	11.06	4003	0	0	5	5	0.4064549	-0.4324938	1	10	0.03	2000	1.984598	40.92393	-91.39363
434745	-86	4	8	-1.186143	0.20657	-64.46033	0	11.06	4003	0	0	5	5	0.4064549	-0.4283661	1	10	0.03	2000	1.995005	40.92393	-91.39363
434887	-90	0	12	-1.17691	0.2112789	-64.47736	0	11.06	4003	0	0	5	5	0.4064549	-0.4173428	1	10	0.03	2000	1.980813	40.92393	-91.39363
434976	-96	4	11	-1.177854	0.2194238	-64.50251	0	11.06	4003	0	0	5	5	0.4064549	-0.4091831	1	10	0.03	2000	2.208591	40.92393	-91.39363
435028	-89	5	11	-1.181107	0.2192655	-64.50843	0	11.06	4003	0	0	5	5	0.4064549	-0.4024098	1	10	0.03	2000	2.208591	40.92393	-91.39363
435120	-88	4	14	-1.173298	0.2161895	-64.52253	0	11.06	4003	0	0	5	5	0.4064549	-0.398948	1	10	0.03	2000	1.97266	40.92393	-91.39363
435233	-92	6	8	-1.171332	0.2200545	-64.54353	0	11.06	4003	0	0	5	5	0.4064549	-0.3872416	1	10	0.03	2000	1.966906	40.92393	-91.39363
435338	-88	3	9	-1.168169	0.2209425	-64.55549	0	11.06	4004	0	0	5	5	0.4064549	-0.3813027	1	10	0.03	2000	1.958545	40.92393	-91.39363
435491	-92	5	10	-1.164619	0.2220414	-64.58375	0	11.06	4004	0	0	5	5	0.4064549	-0.3742642	1	10	0.03	2000	1.956297	40.92393	-91.39363
435569	-91	-1	9	-1.166834	0.2249942	-64.60114	0	11.06	4003	0	0	5	5	0.4064549	-0.3690799	1	10	0.03	2000	1.95743	40.92393	-91.39363
435622	-97	0	12	-1.164422	0.2234759	-64.607	0	11.06	4002	0	0	5	5	0.4064549	-0.3660003	1	10	0.03	2000	1.95743	40.92393	-91.39363
435725	-88	0	9	-1.165117	0.2211137	-64.6294	0	11.06	4004	0	0	5	5	0.4064549	-0.3672976	1	10	0.03	2000	1.954975	40.92393	-91.39363
435909	-96	0	13	-1.166364	0.2205718	-64.65485	0	11.11	4002	0	0	5	5	0.4064549	-0.3722386	1	10	0.03	2000	1.96044	40.92393	-91.39363
435944	-96	-4	8	-1.168792	0.2198539	-64.66035	0	11.11	4003	0	0	5	5	0.4064549	-0.3718922	1	10	0.03	2000	1.96044	40.92393	-91.39363
436031	-87	2	11	-1.171101	0.2132671	-64.68201	0	11.11	4003	0	0	5	5	0.4064549	-0.3731722	1	10	0.03	2000	1.96364	40.92393	-91.39363
436204	-84	-1	10	-1.159955	0.2162561	-64.70704	0	11.11	4004	0	0	5	5	0.4064549	-0.3842371	1	10	0.03	2000	2.192242	40.92393	-91.39363
436303	-89	0	8	-1.156125	0.2165165	-64.72919	0	11.11	4004	0	0	5	5	0.4064549	-0.3863779	1	10	0.03	2000	1.943042	40.92393	-91.39363
436348	-88	6	8	-1.156814	0.2179271	-64.73426	0	11.11	4004	0	0	5	5	0.4064549	-0.3819395	1	10	0.03	2000	1.943042	40.92393	-91.39363
436467	-87	-1	9	-1.149838	0.2117402	-64.75678	0	11.11	4004	0	0	5	5	0.4064549	-0.3528488	1	10	0.03	2000	1.937444	40.92393	-91.39363
436538	-90	0	11	-1.150659	0.2119831	-64.76722	0	11.11	4004	0	0	5	5	0.4064549	-0.3427826	1	10	0.03	2000	2.161782	40.92393	-91.39363
436647	-85	3	12	-1.147672	0.2170548	-64.7887	0	11.11	4003	0	0	5	5	0.4064549	-0.3320605	1	10	0.03	2000	1.930426	40.92393	-91.39363
436714	-85	2	9	-1.146208	0.2171016	-64.79395	0	11.11	4004	0	0	5	5	0.4064549	-0.3310405	1	10	0.03	2000	2.171329	40.92393	-91.39363
436825	-83	1	14	-1.137087	0.2235261	-64.81635	0	11.11	4004	0	0	5	5	0.4064549	-0.3318457	1	10	0.03	2000	1.901489	40.92393	-91.39363
436938	-85	0	9	-1.138741	0.2263623	-64.83161	0	11.11	4003	0	0	5	5	0.4064549	-0.3333895	1	10	0.03	2000	1.922121	40.92393	-91.39363
437030	-81	-8	9	-1.127167	0.227896	-64.85352	0	11.11	4003	0	0	5	5	0.4064549	-0.3320093	1	10	0.03	2000	1.882652	40.92393	-91.39363
437194	-85	4	9	-1.118781	0.2294923	-64.87598	0	11.11	4004	0	0	5	5	0.4064549	-0.3321632	1	10	0.03	2000	2.122746	40.92394	-91.39363
437272	-83	-1	2	-1.123248	0.2228689	-64.89051	0	11.11	4002	0	0	5	5	0.4064549	-0.3366967	1	10	0.03	2000	1.874373	40.92394	-91.39363
437317	-83	8	10	-1.125232	0.2229203	-64.89979	0	11.11	4002	0	0	5	5	0.4064549	-0.3403749	1	10	0.03	2000	1.88855	40.92394	-91.39363
437425	-85	0	11	-1.120876	0.2234015	-64.91578	0	11.11	4004	0	0	5	5	0.4064549	-0.3334896	1	10	0.03	2000	1.894009	40.92394	-91.39363
437536	-89	0	10	-1.122555	0.2224279	-64.93678	0	11.11	4003	0	0	5	5	0.4064549	-0.3216977	1	10	0.03	2000	1.881598	40.92394	-91.39363
437630	-97	5	16	-1.128793	0.2282354	-64.9488	0	11.11	4004	0	0	5	5	0.4064549	-0.2980178	1	10	0.03	2000	1.878192	40.92394	-91.39363
437686	-92	2	8	-1.13133	0.2239007	-64.96101	0	11.06	4004	0	0	5	5	0.4064549	-0.2937985	1	10	0.03	2000	1.896011	40.92394	-91.39363
437852	-89	6	9	-1.129389	0.2170877	-64.98884	0	11.06	4003	0	0	5	5	0.4064549	-0.2920994	1	10	0.03	2000	1.892832	40.92394	-91.39363
437955	-82	4	7	-1.126786	0.2196164	-65.00593	0	11.06	4003	0	0	5	5	0.4064549	-0.3002997	1	10	0.03	2000	1.879297	40.92394	-91.39363
