time(ms)	gyro_x(deg/s)	gyro_y(deg/s)	gyro_z(deg/s)	orientation_roll(deg)	orientation_pitch(deg)	orientation_yaw(deg)	throttle	battery(V)	loop_time(uS)	pid_output_roll	pid_output_pitch	pid_output_yaw	pid_output_throttle	ultrasonic_alt	baro_alt	flight_mode	p_gain_altitude	i_gain_altitude	d_gain_altitude
626943	-789	-380	-278	-0.05753785	-2.88885	-17.62433	0	9.98	4004	-106	155	5	2	0.7610084	0.1803021	4	10	0	1800
627024	-1039	221	1163	-0.9929317	-2.850973	-17.66635	0	9.98	4002	-55	168	17	2	0.7192448	0.1796373	4	10	0	1800
627131	304	1204	111	-3.218162	-5.378078	-18.50227	0	9.98	4002	-117	135	40	1	0.8937392	0.1826829	4	10	0	1800
627237	-469	2926	663	-1.661868	-9.976444	-18.79241	0	9.98	4003	-12	-21	40	0	0.9944869	0.1877294	4	10	0	1800
627356	125	754	1148	-1.85154	-10.2658	-18.48446	0	9.98	4003	25	-318	0	0	0.9436393	0.1952176	4	10	0	1800
627444	-1261	1783	-1070	-2.022291	-12.17873	-18.63823	0	9.98	4002	36	-199	22	0	1.073681	0.2018173	4	10	0	1800
627547	237	2863	1843	-1.810815	-14.43101	-19.15856	0	9.98	4003	-13	163	50	-1	1.12997	0.2078109	4	10	0	1800
627657	307	931	-16	-1.090958	-15.58888	-18.79681	0	9.92	4002	-23	22	31	-2	1.231406	0.2336579	4	10	0	1800
627758	-629	-3419	-1356	-1.604239	-12.62219	-18.20795	0	9.92	4003	-1	-151	0	-2	1.214977	0.2481129	4	10	0	1800
627855	530	-3113	-1158	-0.5851874	-7.789018	-17.64277	0	9.92	4002	-17	59	-17	-2	1.208544	0.2677917	4	10	0	1800
627987	-1015	-1449	-281	-0.07347646	-6.78449	-17.98525	0	9.92	4003	112	-177	2	-1	1.180543	0.2839945	4	10	0	1800
628061	-179	314	173	-0.1353354	-5.998027	-17.96895	0	9.92	4003	-40	244	0	-2	1.210142	0.2915301	4	10	0	1800
628165	553	448	831	1.058741	-6.583844	-18.08195	0	9.92	4002	-73	295	9	-1	1.146452	0.3155966	4	10	0	1800
628282	901	-418	673	1.44751	-4.179674	-17.56411	0	9.92	4004	-111	197	-2	-2	1.224679	0.339247	4	10	0	1800
628412	-805	-2315	-258	0.3905446	-2.960556	-17.59331	0	9.92	4003	-13	-209	-6	-3	1.292024	0.3646083	4	10	0	1800
628503	8	984	118	1.31736	-2.789669	-17.66706	0	9.92	4002	-79	205	10	-3	1.31565	0.3914644	4	10	0	1800
628588	-413	161	-108	0.7411109	-3.665654	-17.65625	0	10.66	4002	3	-48	-7	-3	1.326552	0.4039085	4	10	0	1800
628683	136	2505	-149	0.09513495	-6.153168	-17.515	0	10.66	4003	-55	171	-2	-3	1.305447	0.4267966	4	10	0	1800
628782	-885	-74	-193	-1.055106	-8.06453	-17.67658	0	10.66	4003	84	-196	-1	-3	1.31033	0.4450577	4	10	0	1800
628976	-110	488	292	1.324711	-8.940879	-17.17225	0	10.66	4004	130	-86	-10	-3	1.351379	0.4837494	4	10	0	1800
629041	-685	-2005	-133	0.1124904	-7.740744	-17.29537	0	10.66	4004	-78	89	-8	-3	1.345391	0.4969585	4	10	0	1800
629095	675	-1188	-145	0.2302223	-6.978799	-17.09918	0	10.66	4003	-34	-138	-18	-3	1.353472	0.5037996	4	10	0	1800
629272	-47	-1029	152	0.5470234	-6.371457	-17.83162	0	10.66	4002	-2	-36	4	-2	1.272515	0.5251095	4	10	0	1800
629310	-253	-1145	-273	0.6172061	-5.555431	-18.04155	0	10.66	4004	-6	-62	8	-2	1.280612	0.527211	4	10	0	1800
629407	-26	574	9	1.25908	-4.910383	-18.38326	0	10.66	4004	0	-5	13	-3	1.300907	0.5299903	4	10	0	1800
629509	286	430	-971	-0.08792418	-5.256161	-18.19675	0	10.09	4003	-67	158	20	-3	1.302132	0.5284635	4	10	0	1800
629607	1199	4331	161	0.7589552	-7.223642	-17.665	0	10.09	4002	-59	219	0	-2	1.285364	0.5247391	4	10	0	1800
629717	236	3487	571	0.7815728	-12.77097	-17.02371	0	10.09	4002	0	55	-16	-2	1.269523	0.5151826	4	10	0	1800
629821	-656	756	113	-1.003006	-12.30229	-17.30444	0	10.09	4002	-42	60	-12	-2	1.212017	0.4994997	4	10	0	1800
629939	553	3622	142	-1.142747	-14.58915	-17.48564	0	10.09	4003	-79	174	-2	-1	1.0798	0.4860484	4	10	0	1800
630023	1495	1941	-25	-0.5911435	-16.67313	-17.00555	0	10.09	4003	-111	-7	-13	0	1.004327	0.4817075	4	10	0	1800
630126	-743	1394	-297	-0.484601	-17.95579	-16.1336	0	10.09	4003	-134	132	-33	0	0.8814367	0.4653418	4	10	0	1800
630226	-332	2327	883	-1.689297	-18.60003	-16.32819	0	10.09	4003	73	13	-33	2	0.7494633	0.4464606	4	10	0	1800
630331	281	214	1329	-1.450141	-17.87142	-17.65459	0	10.09	4002	-22	-70	5	3	0.6055698	0.42961	4	10	0	1800
630432	-237	-6565	-317	-6.948925	-2.058985	-18.07248	0	10.15	4004	31	-38	14	5	0.4670224	0.4183822	4	10	0	1800
630527	1289	4265	1174	-5.219015	-2.851857	-19.37265	0	10.15	4003	-105	120	72	6	0.3643483	0.4082411	4	10	0	1800
630637	-3171	-1286	953	-7.209009	-7.983957	-20.74631	0	10.15	4002	22	101	72	6	0.3102273	0.3936466	4	10	0	1800
630747	1424	1896	91	-8.398802	-7.041538	-18.95354	0	10.15	4004	-43	83	26	7	0.2938957	0.3737383	4	10	0	1800
630843	1349	601	-773	-4.94391	-9.185842	-17.92639	0	10.15	4004	22	3	-9	6	0.3454996	0.3668217	4	10	0	1800
630946	-672	-950	-970	-3.778029	-10.4362	-17.65494	0	10.15	4004	80	-337	-3	0	0.3865581	0.3672833	3	10	0	1800
631050	612	-1802	-45	-2.873038	-9.433123	-17.25746	0	10.15	4004	-2	-10	1	0	0.4164897	0.3709624	3	10	0	1800
631152	2759	-897	-699	-0.4508108	-9.405129	-17.22347	0	10.15	4002	29	-214	-20	0	0.431788	0.3844823	3	10	0	1800
631249	2992	-1186	582	4.459788	-8.527505	-16.8083	0	10.15	4004	-3	-83	-18	0	0.4494624	0.3906499	3	10	0	1800
631368	-184	-7009	245	2.663682	2.236656	-17.45897	0	9.75	4004	-38	-67	-11	0	0.465813	0.4264322	3	10	0	1800
631463	124	-4473	366	2.805138	7.041327	-17.89412	0	9.75	4002	-43	-73	6	0	0.4742665	0.4623573	3	10	0	1800
631558	-490	-3108	-232	2.577588	9.591753	-18.20509	0	9.75	4002	28	-145	12	0	0.4785872	0.4755368	3	10	0	1800
631656	123	-2562	-64	2.199536	11.27888	-17.81918	0	9.75	4003	77	-217	-8	0	0.483579	0.5005577	3	10	0	1800
631772	-141	3343	-152	0.6540482	9.293374	-17.68989	0	9.75	4003	-26	-106	-6	0	0.4872179	0.5081967	3	10	0	1800
631863	10	2812	360	1.519717	2.635595	-17.88659	0	9.75	4002	24	-306	-3	0	0.4898708	0.5093183	3	10	0	1800
631960	-88	1671	452	0.8722687	-1.292706	-17.79885	0	9.75	4002	73	-151	-3	0	0.4923249	0.5095164	3	10	0	1800
632086	529	572	69	1.63036	-4.75522	-17.35876	0	9.75	4002	-158	112	-6	0	0.4939351	0.488517	3	10	0	1800
632170	-224	1336	-500	1.568509	-6.175309	-17.58178	0	9.75	4003	-16	101	0	0	0.4945188	0.4800634	3	10	0	1800
632271	-86	1738	-233	-0.09839258	-7.775446	-17.90313	0	9.75	4004	-19	149	14	0	0.4951931	0.4487969	3	10	0	1800
632372	698	5251	-167	0.3709038	-12.66114	-17.65628	0	10.77	4004	-50	-58	12	0	0.4956846	0.4273385	3	10	0	1800
632474	-2001	-897	363	-1.53845	-14.35884	-17.79559	0	10.77	4003	13	-71	4	0	0.496043	0.4042528	3	10	0	1800
632580	-274	91	-212	-3.173393	-12.15621	-18.00549	0	10.77	4003	16	-44	11	0	0.4963042	0.3821267	3	10	0	1800
632691	-1568	-1283	-229	-5.325087	-10.14797	-18.38058	0	10.77	4003	-20	-56	16	0	0.4964947	0.3549304	3	10	0	1800
632826	-690	-955	-1375	-6.360795	-5.660528	-18.25617	0	10.77	4003	11	-32	-3	0	0.4966708	0.3395889	3	10	0	1800
632908	-579	1789	717	-6.214694	-6.395327	-17.97068	0	10.77	4002	-54	189	11	0	0.4967619	0.3316618	3	10	0	1800
632981	-2063	-2839	-873	-8.120616	-4.853534	-17.49175	0	10.77	4004	-44	110	-5	0	0.4968085	0.3246481	3	10	0	1800
633088	1315	-854	-1147	-7.603792	-2.154289	-17.63613	0	10.77	4003	-104	188	13	0	0.4968623	0.3110256	3	10	0	1800
633188	-529	751	-540	-5.934721	-3.879248	-18.20305	0	10.77	4002	-45	79	7	0	0.4969015	0.2963577	3	10	0	1800
633293	1220	-2820	-1573	-5.651124	-3.44569	-18.4643	0	10.21	4002	-47	-33	5	0	0.4969301	0.2886929	3	10	0	1800
633403	1591	1907	-88	-1.580273	-3.806275	-17.6339	0	10.21	4003	-51	181	1	0	0.4969509	0.2790426	3	10	0	1800
633510	2100	882	-245	-0.6661147	-5.918197	-17.26224	0	10.21	4002	-115	91	-5	0	0.4969661	0.2757297	3	10	0	1800
633622	1835	1831	791	2.260338	-6.401175	-17.03488	0	10.21	4004	-34	108	-13	0	0.4969772	0.272109	3	10	0	1800
633730	-1406	-997	-48	1.359151	-7.301444	-16.65162	0	10.21	4003	-68	-12	-29	0	0.4969853	0.2573126	3	10	0	1800
633826	1557	2466	-338	2.17724	-8.051918	-16.25298	0	10.21	4003	-63	93	-31	0	0.4969912	0.2464089	3	10	0	1800
633925	-2500	-33	187	0.9505596	-9.260712	-16.52554	0	10.21	4003	-149	41	-29	0	0.4969954	0.234076	3	10	0	1800
634016	-2856	-1189	100	-1.809702	-7.058442	-16.71553	0	10.21	4004	-40	-135	-37	0	0.4969994	0.2201622	3	10	0	1800
634209	-1707	-475	-1443	-4.964291	-4.444753	-15.33825	0	10.66	4007	-92	124	-63	0	0.4970025	0.2144821	3	10	0	1800
634307	-1654	-363	-702	-6.528852	-4.721172	-14.13012	0	10.66	4002	91	-65	-92	0	0.4970037	0.2070265	3	10	0	1800
634362	-241	-1064	-1150	-6.651447	-4.316839	-13.62001	0	10.66	4002	2	-113	-109	0	0.4970044	0.2006507	3	10	0	1800
634437	1055	465	900	-5.072013	-3.837596	-13.89135	0	10.66	4003	-10	12	-91	0	0.4970049	0.1898072	3	10	0	1800
634517	2766	564	1328	-1.698735	-5.158002	-15.01855	0	10.66	4002	22	-139	-42	0	0.4970053	0.1726944	3	10	0	1800
634609	2152	-12	975	2.85369	-6.166829	-17.26564	0	10.66	4004	-14	-27	-4	0	0.4970057	0.1410162	3	10	0	1800
634710	1204	524	301	4.018096	-6.212049	-18.55211	0	10.66	4004	23	-110	28	0	0.4970061	0.1207879	3	10	0	1800
634818	86	3579	-261	6.63835	-12.12753	-17.87971	0	10.66	4002	52	-151	0	0	0.4970064	0.1119126	3	10	0	1800
634919	-91	2336	-595	5.719718	-15.35261	-17.29408	0	10.66	4002	-19	-100	-16	0	0.4970065	0.1127183	3	10	0	1800
635032	65	850	331	4.084283	-15.02188	-17.34887	0	10.66	4002	-53	7	-7	0	0.4970067	0.1133554	3	10	0	1800
635169	219	445	331	5.588502	-15.57822	-18.43006	0	9.64	4003	32	-199	24	0	0.4970068	0.1056267	3	10	0	1800
635265	-737	-2499	-676	4.525236	-13.76393	-18.49959	0	9.64	4002	-61	35	29	0	0.4970068	0.09745825	3	10	0	1800
635342	-1377	-7758	688	3.180484	-8.040021	-18.72036	0	9.64	4003	39	-114	34	0	0.4970068	0.09334502	3	10	0	1800
635456	-31	-8539	-8	1.875919	5.882507	-18.98215	0	9.64	4003	0	0	0	0	0.4970068	0.09022864	3	10	0	1800
635563	-8984	4550	-474	-2.21752	-3.811954	-16.62279	0	9.64	4002	0	0	0	0	0.4970068	0.09189182	3	10	0	1800
635667	-4194	5239	20	-6.256458	-12.45323	-18.52684	0	9.64	4003	0	0	0	0	0.4970068	0.08357135	3	10	0	1800
635743	-2639	3921	290	-13.72073	-22.75352	-18.76129	0	9.64	4003	0	0	0	0	0.4970068	0.07354029	3	10	0	1800
635871	589	-623	-114	-15.482	-24.66807	-18.98974	0	9.64	4002	0	0	0	0	0.4970068	0.05109499	3	10	0	1800
635964	-202	287	-105	-15.69177	-24.22948	-18.9543	0	9.64	4003	0	0	0	0	0.4970068	0.02915665	3	10	0	1800
636060	10	-149	46	-15.97576	-24.03289	-18.98322	0	10.94	4003	0	0	0	0	0.4970068	0.01112703	3	10	0	1800
636133	-46	-5	-8	-16.12093	-23.85497	-18.99807	0	10.94	4002	0	0	0	0	0.4970068	-0.01750248	3	10	0	1800
636235	-46	-62	26	-16.34809	-23.6442	-19.01042	0	10.94	4003	0	0	0	0	0.4970068	-0.05514814	3	10	0	1800
636335	-26	-15	-1	-16.53602	-23.42707	-19.02448	0	10.94	4003	0	0	0	0	0.4970068	-0.07179358	3	10	0	1800
636437	-76	-7	-7	-16.676	-23.25736	-19.04692	0	10.94	4003	0	0	0	0	0.4970068	-0.1068855	1	10	0	1800
636543	-88	12	35	-16.81271	-23.10794	-19.07535	0	10.94	4003	0	0	0	0	0.4970068	-0.1236763	1	10	0	1800
636655	-67	17	24	-16.96019	-22.93027	-19.09767	0	10.94	4002	0	0	0	0	0.4970068	-0.1573818	1	10	0	1800
636752	-53	-26	-24	-17.07104	-22.82191	-19.11882	0	10.94	4003	0	0	0	0	0.4970068	-0.1745097	1	10	0	1800
636863	-67	18	37	-17.1648	-22.72987	-19.14027	0	10.94	4003	0	0	0	0	0.4970068	-0.2020586	1	10	0	1800
636955	-69	10	8	-17.24636	-22.64151	-19.15831	0	10.94	4003	0	0	0	0	0.4970068	-0.2189014	1	10	0	1800
637069	-60	13	12	-17.33047	-22.55287	-19.18178	0	10.89	4002	0	0	0	0	0.4970068	-0.2411097	1	10	0	1800
637160	-63	0	-3	-17.35781	-22.52244	-19.19291	0	10.89	4004	0	0	0	0	0.4970068	-0.2576925	1	10	0	1800
637348	-58	-8	4	-17.44575	-22.41505	-19.23027	0	10.89	4003	0	0	0	0	0.4970068	-0.2748324	1	10	0	1800
637405	-61	3	11	-17.46383	-22.4018	-19.23645	0	10.89	4004	0	0	0	0	0.4970068	-0.2798869	1	10	0	1800
637466	-51	4	0	-17.49366	-22.37284	-19.24647	0	10.89	4004	0	0	0	0	0.4970068	-0.2842733	1	10	0	1800
637573	-54	4	14	-17.52881	-22.33618	-19.26248	0	10.89	4002	0	0	0	0	0.4970068	-0.2854412	1	10	0	1800
637671	-52	0	4	-17.54961	-22.30532	-19.27611	0	10.89	4002	0	0	0	0	0.4970068	-0.2802053	1	10	0	1800
637775	-53	4	10	-17.56947	-22.27313	-19.29256	0	10.89	4002	0	0	0	0	0.4970068	-0.2840936	1	10	0	1800
637875	-59	4	15	-17.59466	-22.24485	-19.3128	0	10.94	4003	0	0	0	0	0.4970068	-0.2985378	1	10	0	1800
637926	-54	-1	12	-17.60759	-22.22673	-19.3246	0	10.94	4003	0	0	0	0	0.4970068	-0.3073117	1	10	0	1800
638048	-61	0	8	-17.62406	-22.2032	-19.34184	0	10.94	4002	0	0	0	0	0.4970068	-0.3108017	1	10	0	1800
638137	-55	7	8	-17.62793	-22.18983	-19.35682	0	10.94	4002	0	0	0	0	0.4970068	-0.3144805	1	10	0	1800
638243	-58	1	7	-17.63848	-22.17096	-19.37528	0	10.94	4003	0	0	0	0	0.4970068	-0.3139692	1	10	0	1800
638345	-59	0	9	-17.6487	-22.15821	-19.38909	0	10.94	4002	0	0	0	0	0.4970068	-0.3165962	1	10	0	1800
638436	-52	4	10	-17.65085	-22.14467	-19.41201	0	10.94	4002	0	0	0	0	0.4970068	-0.3167576	1	10	0	1800
638556	-50	2	11	-17.66164	-22.13326	-19.42736	0	10.94	4004	0	0	0	0	0.4970068	-0.3194548	1	10	0	1800
638651	-53	3	9	-17.66131	-22.12326	-19.44208	0	10.94	4004	0	0	0	0	0.4970068	-0.3147238	1	10	0	1800
638764	-50	0	6	-17.66346	-22.12192	-19.45926	0	10.94	4002	0	0	0	0	0.4970068	-0.3124698	1	10	0	1800
638977	-47	-3	10	-17.66419	-22.10558	-19.49311	0	11	4002	0	0	0	0	0.4970068	-0.3154647	1	10	0	1800
639175	-47	4	10	-17.66544	-22.09079	-19.52306	0	11	4002	0	0	0	0	0.4970068	-0.3083489	1	10	0	1800
639373	-52	2	9	-17.66096	-22.08264	-19.54916	0	11	4003	0	0	0	0	0.4970068	-0.2914155	1	10	0	1800
639533	-45	1	11	-17.66263	-22.07997	-19.57398	0	11	4004	0	0	0	0	0.4970068	-0.2829802	1	10	0	1800
639628	-57	5	8	-17.65892	-22.07625	-19.5928	0	11	4002	0	0	0	0	0.4970068	-0.2761985	1	10	0	1800
655625	-264	2797	718	-53.49548	-49.82433	63.90157	0	11	4002	0	0	0	0	0.4970068	0.2499534	1	10	0	1800
655715	-264	2797	718	-53.49548	-49.82433	63.90157	0	11	4002	0	0	0	0	0.4970068	0.2499534	1	10	0	1800
655798	-264	2797	718	-53.49548	-49.82433	63.90157	0	11	4002	0	0	0	0	0.4970068	0.2499534	1	10	0	1800
655896	-264	2797	718	-53.49548	-49.82433	63.90157	0	11	4002	0	0	0	0	0.4970068	0.2499534	1	10	0	1800
655987	-264	2797	718	-53.49548	-49.82433	63.90157	0	11	4002	0	0	0	0	0.4970068	0.2499534	1	10	0	1800
656077	-264	2797	718	-53.49548	-49.82433	63.90157	0	11	4002	0	0	0	0	0.4970068	0.2499534	1	10	0	1800
656167	-264	2797	718	-53.49548	-49.82433	63.90157	0	11	4002	0	0	0	0	0.4970068	0.2499534	1	10	0	1800
656250	-264	2797	718	-53.49548	-49.82433	63.90157	0	11	4002	0	0	0	0	0.4970068	0.2499534	1	10	0	1800
656319	-264	2797	718	-53.49548	-49.82433	63.90157	0	11	4002	0	0	0	0	0.4970068	0.2499534	1	10	0	1800
656377	-264	2797	718	-53.49548	-49.82433	63.90157	0	11	4002	0	0	0	0	0.4970068	0.2499534	1	10	0	1800
656469	-264	2797	718	-53.49548	-49.82433	63.90157	0	11	4002	0	0	0	0	0.4970068	0.2499534	1	10	0	1800
656559	-264	2797	718	-53.49548	-49.82433	63.90157	0	11	4002	0	0	0	0	0.4970068	0.2499534	1	10	0	1800
656650	-264	2797	718	-53.49548	-49.82433	63.90157	0	11	4002	0	0	0	0	0.4970068	0.2499534	1	10	0	1800
656738	-264	2797	718	-53.49548	-49.82433	63.90157	0	11	4002	0	0	0	0	0.4970068	0.2499534	1	10	0	1800
656841	-264	2797	718	-53.49548	-49.82433	63.90157	0	11	4002	0	0	0	0	0.4970068	0.2499534	1	10	0	1800
656930	-264	2797	718	-53.49548	-49.82433	63.90157	0	11	4002	0	0	0	0	0.4970068	0.2499534	1	10	0	1800
657023	-264	2797	718	-53.49548	-49.82433	63.90157	0	11	4002	0	0	0	0	0.4970068	0.2499534	1	10	0	1800
657107	-264	2797	718	-53.49548	-49.82433	63.90157	0	11	4002	0	0	0	0	0.4970068	0.2499534	1	10	0	1800
657197	-264	2797	718	-53.49548	-49.82433	63.90157	0	11	4002	0	0	0	0	0.4970068	0.2499534	1	10	0	1800
657285	-264	2797	718	-53.49548	-49.82433	63.90157	0	11	4002	0	0	0	0	0.4970068	0.2499534	1	10	0	1800
657377	-264	2797	718	-53.49548	-49.82433	63.90157	0	11	4002	0	0	0	0	0.4970068	0.2499534	1	10	0	1800
657464	-264	2797	718	-53.49548	-49.82433	63.90157	0	11	4002	0	0	0	0	0.4970068	0.2499534	1	10	0	1800
657558	-264	2797	718	-53.49548	-49.82433	63.90157	0	11	4002	0	0	0	0	0.4970068	0.2499534	1	10	0	1800
657657	-264	2797	718	-53.49548	-49.82433	63.90157	0	11	4002	0	0	0	0	0.4970068	0.2499534	1	10	0	1800
657750	-264	2797	718	-53.49548	-49.82433	63.90157	0	11	4002	0	0	0	0	0.4970068	0.2499534	1	10	0	1800
657837	-264	2797	718	-53.49548	-49.82433	63.90157	0	11	4002	0	0	0	0	0.4970068	0.2499534	1	10	0	1800
657929	-264	2797	718	-53.49548	-49.82433	63.90157	0	11	4002	0	0	0	0	0.4970068	0.2499534	1	10	0	1800
658016	-264	2797	718	-53.49548	-49.82433	63.90157	0	11	4002	0	0	0	0	0.4970068	0.2499534	1	10	0	1800
658104	-264	2797	718	-53.49548	-49.82433	63.90157	0	11	4002	0	0	0	0	0.4970068	0.2499534	1	10	0	1800
658194	-264	2797	718	-53.49548	-49.82433	63.90157	0	11	4002	0	0	0	0	0.4970068	0.2499534	1	10	0	1800
658271	-264	2797	718	-53.49548	-49.82433	63.90157	0	11	4002	0	0	0	0	0.4970068	0.2499534	1	10	0	1800
658364	-264	2797	718	-53.49548	-49.82433	63.90157	0	11	4002	0	0	0	0	0.4970068	0.2499534	1	10	0	1800
658452	-264	2797	718	-53.49548	-49.82433	63.90157	0	11	4002	0	0	0	0	0.4970068	0.2499534	1	10	0	1800
658538	-264	2797	718	-53.49548	-49.82433	63.90157	0	11	4002	0	0	0	0	0.4970068	0.2499534	1	10	0	1800
658625	-264	2797	718	-53.49548	-49.82433	63.90157	0	11	4002	0	0	0	0	0.4970068	0.2499534	1	10	0	1800
658727	-264	2797	718	-53.49548	-49.82433	63.90157	0	11	4002	0	0	0	0	0.4970068	0.2499534	1	10	0	1800
658816	-264	2797	718	-53.49548	-49.82433	63.90157	0	11	4002	0	0	0	0	0.4970068	0.2499534	1	10	0	1800
658903	-264	2797	718	-53.49548	-49.82433	63.90157	0	11	4002	0	0	0	0	0.4970068	0.2499534	1	10	0	1800
658992	-264	2797	718	-53.49548	-49.82433	63.90157	0	11	4002	0	0	0	0	0.4970068	0.2499534	1	10	0	1800
659074	-264	2797	718	-53.49548	-49.82433	63.90157	0	11	4002	0	0	0	0	0.4970068	0.2499534	1	10	0	1800
659163	-264	2797	718	-53.49548	-49.82433	63.90157	0	11	4002	0	0	0	0	0.4970068	0.2499534	1	10	0	1800
659260	-264	2797	718	-53.49548	-49.82433	63.90157	0	11	4002	0	0	0	0	0.4970068	0.2499534	1	10	0	1800
659349	-264	2797	718	-53.49548	-49.82433	63.90157	0	11	4002	0	0	0	0	0.4970068	0.2499534	1	10	0	1800
659434	-264	2797	718	-53.49548	-49.82433	63.90157	0	11	4002	0	0	0	0	0.4970068	0.2499534	1	10	0	1800
659522	-264	2797	718	-53.49548	-49.82433	63.90157	0	11	4002	0	0	0	0	0.4970068	0.2499534	1	10	0	1800
659620	-264	2797	718	-53.49548	-49.82433	63.90157	0	11	4002	0	0	0	0	0.4970068	0.2499534	1	10	0	1800
659706	-264	2797	718	-53.49548	-49.82433	63.90157	0	11	4002	0	0	0	0	0.4970068	0.2499534	1	10	0	1800
659798	-264	2797	718	-53.49548	-49.82433	63.90157	0	11	4002	0	0	0	0	0.4970068	0.2499534	1	10	0	1800
659880	-264	2797	718	-53.49548	-49.82433	63.90157	0	11	4002	0	0	0	0	0.4970068	0.2499534	1	10	0	1800
659967	-264	2797	718	-53.49548	-49.82433	63.90157	0	11	4002	0	0	0	0	0.4970068	0.2499534	1	10	0	1800
660058	-264	2797	718	-53.49548	-49.82433	63.90157	0	11	4002	0	0	0	0	0.4970068	0.2499534	1	10	0	1800
660144	-264	2797	718	-53.49548	-49.82433	63.90157	0	11	4002	0	0	0	0	0.4970068	0.2499534	1	10	0	1800
660233	-264	2797	718	-53.49548	-49.82433	63.90157	0	11	4002	0	0	0	0	0.4970068	0.2499534	1	10	0	1800
660316	-264	2797	718	-53.49548	-49.82433	63.90157	0	11	4002	0	0	0	0	0.4970068	0.2499534	1	10	0	1800
660403	-264	2797	718	-53.49548	-49.82433	63.90157	0	11	4002	0	0	0	0	0.4970068	0.2499534	1	10	0	1800
660491	-264	2797	718	-53.49548	-49.82433	63.90157	0	11	4002	0	0	0	0	0.4970068	0.2499534	1	10	0	1800
660589	-264	2797	718	-53.49548	-49.82433	63.90157	0	11	4002	0	0	0	0	0.4970068	0.2499534	1	10	0	1800
660673	-264	2797	718	-53.49548	-49.82433	63.90157	0	11	4002	0	0	0	0	0.4970068	0.2499534	1	10	0	1800
660765	-264	2797	718	-53.49548	-49.82433	63.90157	0	11	4002	0	0	0	0	0.4970068	0.2499534	1	10	0	1800
660849	-264	2797	718	-53.49548	-49.82433	63.90157	0	11	4002	0	0	0	0	0.4970068	0.2499534	1	10	0	1800
660931	-264	2797	718	-53.49548	-49.82433	63.90157	0	11	4002	0	0	0	0	0.4970068	0.2499534	1	10	0	1800
661020	-264	2797	718	-53.49548	-49.82433	63.90157	0	11	4002	0	0	0	0	0.4970068	0.2499534	1	10	0	1800
661099	-264	2797	718	-53.49548	-49.82433	63.90157	0	11	4002	0	0	0	0	0.4970068	0.2499534	1	10	0	1800
661187	-264	2797	718	-53.49548	-49.82433	63.90157	0	11	4002	0	0	0	0	0.4970068	0.2499534	1	10	0	1800
661270	-264	2797	718	-53.49548	-49.82433	63.90157	0	11	4002	0	0	0	0	0.4970068	0.2499534	1	10	0	1800
661358	-264	2797	718	-53.49548	-49.82433	63.90157	0	11	4002	0	0	0	0	0.4970068	0.2499534	1	10	0	1800
661445	-264	2797	718	-53.49548	-49.82433	63.90157	0	11	4002	0	0	0	0	0.4970068	0.2499534	1	10	0	1800
661553	-264	2797	718	-53.49548	-49.82433	63.90157	0	11	4002	0	0	0	0	0.4970068	0.2499534	1	10	0	1800
661638	-264	2797	718	-53.49548	-49.82433	63.90157	0	11	4002	0	0	0	0	0.4970068	0.2499534	1	10	0	1800
661723	-264	2797	718	-53.49548	-49.82433	63.90157	0	11	4002	0	0	0	0	0.4970068	0.2499534	1	10	0	1800
661810	-264	2797	718	-53.49548	-49.82433	63.90157	0	11	4002	0	0	0	0	0.4970068	0.2499534	1	10	0	1800
661897	-264	2797	718	-53.49548	-49.82433	63.90157	0	11	4002	0	0	0	0	0.4970068	0.2499534	1	10	0	1800
661978	-264	2797	718	-53.49548	-49.82433	63.90157	0	11	4002	0	0	0	0	0.4970068	0.2499534	1	10	0	1800
662058	-264	2797	718	-53.49548	-49.82433	63.90157	0	11	4002	0	0	0	0	0.4970068	0.2499534	1	10	0	1800
662140	-264	2797	718	-53.49548	-49.82433	63.90157	0	11	4002	0	0	0	0	0.4970068	0.2499534	1	10	0	1800
662230	-264	2797	718	-53.49548	-49.82433	63.90157	0	11	4002	0	0	0	0	0.4970068	0.2499534	1	10	0	1800
662311	-264	2797	718	-53.49548	-49.82433	63.90157	0	11	4002	0	0	0	0	0.4970068	0.2499534	1	10	0	1800
662405	-264	2797	718	-53.49548	-49.82433	63.90157	0	11	4002	0	0	0	0	0.4970068	0.2499534	1	10	0	1800
662503	-264	2797	718	-53.49548	-49.82433	63.90157	0	11	4002	0	0	0	0	0.4970068	0.2499534	1	10	0	1800
662595	-264	2797	718	-53.49548	-49.82433	63.90157	0	11	4002	0	0	0	0	0.4970068	0.2499534	1	10	0	1800
662682	-264	2797	718	-53.49548	-49.82433	63.90157	0	11	4002	0	0	0	0	0.4970068	0.2499534	1	10	0	1800
662767	-264	2797	718	-53.49548	-49.82433	63.90157	0	11	4002	0	0	0	0	0.4970068	0.2499534	1	10	0	1800
662858	-264	2797	718	-53.49548	-49.82433	63.90157	0	11	4002	0	0	0	0	0.4970068	0.2499534	1	10	0	1800
662948	-264	2797	718	-53.49548	-49.82433	63.90157	0	11	4002	0	0	0	0	0.4970068	0.2499534	1	10	0	1800
663036	-264	2797	718	-53.49548	-49.82433	63.90157	0	11	4002	0	0	0	0	0.4970068	0.2499534	1	10	0	1800
663124	-264	2797	718	-53.49548	-49.82433	63.90157	0	11	4002	0	0	0	0	0.4970068	0.2499534	1	10	0	1800
663214	-264	2797	718	-53.49548	-49.82433	63.90157	0	11	4002	0	0	0	0	0.4970068	0.2499534	1	10	0	1800
663308	-264	2797	718	-53.49548	-49.82433	63.90157	0	11	4002	0	0	0	0	0.4970068	0.2499534	1	10	0	1800
663397	-264	2797	718	-53.49548	-49.82433	63.90157	0	11	4002	0	0	0	0	0.4970068	0.2499534	1	10	0	1800
663501	-264	2797	718	-53.49548	-49.82433	63.90157	0	11	4002	0	0	0	0	0.4970068	0.2499534	1	10	0	1800
663589	-264	2797	718	-53.49548	-49.82433	63.90157	0	11	4002	0	0	0	0	0.4970068	0.2499534	1	10	0	1800
663677	-264	2797	718	-53.49548	-49.82433	63.90157	0	11	4002	0	0	0	0	0.4970068	0.2499534	1	10	0	1800
663767	-264	2797	718	-53.49548	-49.82433	63.90157	0	11	4002	0	0	0	0	0.4970068	0.2499534	1	10	0	1800
663856	-264	2797	718	-53.49548	-49.82433	63.90157	0	11	4002	0	0	0	0	0.4970068	0.2499534	1	10	0	1800
663944	-264	2797	718	-53.49548	-49.82433	63.90157	0	11	4002	0	0	0	0	0.4970068	0.2499534	1	10	0	1800
664030	-264	2797	718	-53.49548	-49.82433	63.90157	0	11	4002	0	0	0	0	0.4970068	0.2499534	1	10	0	1800
664123	-264	2797	718	-53.49548	-49.82433	63.90157	0	11	4002	0	0	0	0	0.4970068	0.2499534	1	10	0	1800
664214	-264	2797	718	-53.49548	-49.82433	63.90157	0	11	4002	0	0	0	0	0.4970068	0.2499534	1	10	0	1800
664299	-264	2797	718	-53.49548	-49.82433	63.90157	0	11	4002	0	0	0	0	0.4970068	0.2499534	1	10	0	1800
664399	-264	2797	718	-53.49548	-49.82433	63.90157	0	11	4002	0	0	0	0	0.4970068	0.2499534	1	10	0	1800
664493	-264	2797	718	-53.49548	-49.82433	63.90157	0	11	4002	0	0	0	0	0.4970068	0.2499534	1	10	0	1800
664583	-264	2797	718	-53.49548	-49.82433	63.90157	0	11	4002	0	0	0	0	0.4970068	0.2499534	1	10	0	1800
664667	-264	2797	718	-53.49548	-49.82433	63.90157	0	11	4002	0	0	0	0	0.4970068	0.2499534	1	10	0	1800
664757	-264	2797	718	-53.49548	-49.82433	63.90157	0	11	4002	0	0	0	0	0.4970068	0.2499534	1	10	0	1800
664848	-264	2797	718	-53.49548	-49.82433	63.90157	0	11	4002	0	0	0	0	0.4970068	0.2499534	1	10	0	1800
664944	-264	2797	718	-53.49548	-49.82433	63.90157	0	11	4002	0	0	0	0	0.4970068	0.2499534	1	10	0	1800
665036	-264	2797	718	-53.49548	-49.82433	63.90157	0	11	4002	0	0	0	0	0.4970068	0.2499534	1	10	0	1800
665127	-264	2797	718	-53.49548	-49.82433	63.90157	0	11	4002	0	0	0	0	0.4970068	0.2499534	1	10	0	1800
665213	-264	2797	718	-53.49548	-49.82433	63.90157	0	11	4002	0	0	0	0	0.4970068	0.2499534	1	10	0	1800
665303	-264	2797	718	-53.49548	-49.82433	63.90157	0	11	4002	0	0	0	0	0.4970068	0.2499534	1	10	0	1800
665405	-264	2797	718	-53.49548	-49.82433	63.90157	0	11	4002	0	0	0	0	0.4970068	0.2499534	1	10	0	1800
665495	-264	2797	718	-53.49548	-49.82433	63.90157	0	11	4002	0	0	0	0	0.4970068	0.2499534	1	10	0	1800
665584	-264	2797	718	-53.49548	-49.82433	63.90157	0	11	4002	0	0	0	0	0.4970068	0.2499534	1	10	0	1800
665675	-264	2797	718	-53.49548	-49.82433	63.90157	0	11	4002	0	0	0	0	0.4970068	0.2499534	1	10	0	1800
665768	-264	2797	718	-53.49548	-49.82433	63.90157	0	11	4002	0	0	0	0	0.4970068	0.2499534	1	10	0	1800
665860	-264	2797	718	-53.49548	-49.82433	63.90157	0	11	4002	0	0	0	0	0.4970068	0.2499534	1	10	0	1800
665949	-264	2797	718	-53.49548	-49.82433	63.90157	0	11	4002	0	0	0	0	0.4970068	0.2499534	1	10	0	1800
666037	-264	2797	718	-53.49548	-49.82433	63.90157	0	11	4002	0	0	0	0	0.4970068	0.2499534	1	10	0	1800
666126	-264	2797	718	-53.49548	-49.82433	63.90157	0	11	4002	0	0	0	0	0.4970068	0.2499534	1	10	0	1800
666222	-264	2797	718	-53.49548	-49.82433	63.90157	0	11	4002	0	0	0	0	0.4970068	0.2499534	1	10	0	1800
666321	-264	2797	718	-53.49548	-49.82433	63.90157	0	11	4002	0	0	0	0	0.4970068	0.2499534	1	10	0	1800
666421	-264	2797	718	-53.49548	-49.82433	63.90157	0	11	4002	0	0	0	0	0.4970068	0.2499534	1	10	0	1800
666505	-264	2797	718	-53.49548	-49.82433	63.90157	0	11	4002	0	0	0	0	0.4970068	0.2499534	1	10	0	1800
666600	-264	2797	718	-53.49548	-49.82433	63.90157	0	11	4002	0	0	0	0	0.4970068	0.2499534	1	10	0	1800
666688	-264	2797	718	-53.49548	-49.82433	63.90157	0	11	4002	0	0	0	0	0.4970068	0.2499534	1	10	0	1800
666772	-264	2797	718	-53.49548	-49.82433	63.90157	0	11	4002	0	0	0	0	0.4970068	0.2499534	1	10	0	1800
666859	-264	2797	718	-53.49548	-49.82433	63.90157	0	11	4002	0	0	0	0	0.4970068	0.2499534	1	10	0	1800
666953	-264	2797	718	-53.49548	-49.82433	63.90157	0	11	4002	0	0	0	0	0.4970068	0.2499534	1	10	0	1800
667042	-264	2797	718	-53.49548	-49.82433	63.90157	0	11	4002	0	0	0	0	0.4970068	0.2499534	1	10	0	1800
667126	-264	2797	718	-53.49548	-49.82433	63.90157	0	11	4002	0	0	0	0	0.4970068	0.2499534	1	10	0	1800
667216	-264	2797	718	-53.49548	-49.82433	63.90157	0	11	4002	0	0	0	0	0.4970068	0.2499534	1	10	0	1800
667309	-264	2797	718	-53.49548	-49.82433	63.90157	0	11	4002	0	0	0	0	0.4970068	0.2499534	1	10	0	1800
667402	-264	2797	718	-53.49548	-49.82433	63.90157	0	11	4002	0	0	0	0	0.4970068	0.2499534	1	10	0	1800
667486	-264	2797	718	-53.49548	-49.82433	63.90157	0	11	4002	0	0	0	0	0.4970068	0.2499534	1	10	0	1800
667573	-264	2797	718	-53.49548	-49.82433	63.90157	0	11	4002	0	0	0	0	0.4970068	0.2499534	1	10	0	1800
667662	-264	2797	718	-53.49548	-49.82433	63.90157	0	11	4002	0	0	0	0	0.4970068	0.2499534	1	10	0	1800
667750	-264	2797	718	-53.49548	-49.82433	63.90157	0	11	4002	0	0	0	0	0.4970068	0.2499534	1	10	0	1800
667841	-264	2797	718	-53.49548	-49.82433	63.90157	0	11	4002	0	0	0	0	0.4970068	0.2499534	1	10	0	1800
667930	-264	2797	718	-53.49548	-49.82433	63.90157	0	11	4002	0	0	0	0	0.4970068	0.2499534	1	10	0	1800
668016	-264	2797	718	-53.49548	-49.82433	63.90157	0	11	4002	0	0	0	0	0.4970068	0.2499534	1	10	0	1800
668107	-264	2797	718	-53.49548	-49.82433	63.90157	0	11	4002	0	0	0	0	0.4970068	0.2499534	1	10	0	1800
668194	-264	2797	718	-53.49548	-49.82433	63.90157	0	11	4002	0	0	0	0	0.4970068	0.2499534	1	10	0	1800
668285	-264	2797	718	-53.49548	-49.82433	63.90157	0	11	4002	0	0	0	0	0.4970068	0.2499534	1	10	0	1800
668386	-264	2797	718	-53.49548	-49.82433	63.90157	0	11	4002	0	0	0	0	0.4970068	0.2499534	1	10	0	1800
668479	-264	2797	718	-53.49548	-49.82433	63.90157	0	11	4002	0	0	0	0	0.4970068	0.2499534	1	10	0	1800
668564	-264	2797	718	-53.49548	-49.82433	63.90157	0	11	4002	0	0	0	0	0.4970068	0.2499534	1	10	0	1800
668657	-264	2797	718	-53.49548	-49.82433	63.90157	0	11	4002	0	0	0	0	0.4970068	0.2499534	1	10	0	1800
668743	-264	2797	718	-53.49548	-49.82433	63.90157	0	11	4002	0	0	0	0	0.4970068	0.2499534	1	10	0	1800
668834	-264	2797	718	-53.49548	-49.82433	63.90157	0	11	4002	0	0	0	0	0.4970068	0.2499534	1	10	0	1800
668922	-264	2797	718	-53.49548	-49.82433	63.90157	0	11	4002	0	0	0	0	0.4970068	0.2499534	1	10	0	1800
669012	-264	2797	718	-53.49548	-49.82433	63.90157	0	11	4002	0	0	0	0	0.4970068	0.2499534	1	10	0	1800
669107	-264	2797	718	-53.49548	-49.82433	63.90157	0	11	4002	0	0	0	0	0.4970068	0.2499534	1	10	0	1800
669199	-264	2797	718	-53.49548	-49.82433	63.90157	0	11	4002	0	0	0	0	0.4970068	0.2499534	1	10	0	1800
669303	-264	2797	718	-53.49548	-49.82433	63.90157	0	11	4002	0	0	0	0	0.4970068	0.2499534	1	10	0	1800
669394	-264	2797	718	-53.49548	-49.82433	63.90157	0	11	4002	0	0	0	0	0.4970068	0.2499534	1	10	0	1800
669478	-264	2797	718	-53.49548	-49.82433	63.90157	0	11	4002	0	0	0	0	0.4970068	0.2499534	1	10	0	1800
669568	-264	2797	718	-53.49548	-49.82433	63.90157	0	11	4002	0	0	0	0	0.4970068	0.2499534	1	10	0	1800
669655	-264	2797	718	-53.49548	-49.82433	63.90157	0	11	4002	0	0	0	0	0.4970068	0.2499534	1	10	0	1800
669742	-264	2797	718	-53.49548	-49.82433	63.90157	0	11	4002	0	0	0	0	0.4970068	0.2499534	1	10	0	1800
669831	-264	2797	718	-53.49548	-49.82433	63.90157	0	11	4002	0	0	0	0	0.4970068	0.2499534	1	10	0	1800
669923	-264	2797	718	-53.49548	-49.82433	63.90157	0	11	4002	0	0	0	0	0.4970068	0.2499534	1	10	0	1800
670015	-264	2797	718	-53.49548	-49.82433	63.90157	0	11	4002	0	0	0	0	0.4970068	0.2499534	1	10	0	1800
670099	-264	2797	718	-53.49548	-49.82433	63.90157	0	11	4002	0	0	0	0	0.4970068	0.2499534	1	10	0	1800
670196	-264	2797	718	-53.49548	-49.82433	63.90157	0	11	4002	0	0	0	0	0.4970068	0.2499534	1	10	0	1800
670301	-264	2797	718	-53.49548	-49.82433	63.90157	0	11	4002	0	0	0	0	0.4970068	0.2499534	1	10	0	1800
670382	-264	2797	718	-53.49548	-49.82433	63.90157	0	11	4002	0	0	0	0	0.4970068	0.2499534	1	10	0	1800
670467	-264	2797	718	-53.49548	-49.82433	63.90157	0	11	4002	0	0	0	0	0.4970068	0.2499534	1	10	0	1800
670551	-264	2797	718	-53.49548	-49.82433	63.90157	0	11	4002	0	0	0	0	0.4970068	0.2499534	1	10	0	1800
670643	-264	2797	718	-53.49548	-49.82433	63.90157	0	11	4002	0	0	0	0	0.4970068	0.2499534	1	10	0	1800
670724	-264	2797	718	-53.49548	-49.82433	63.90157	0	11	4002	0	0	0	0	0.4970068	0.2499534	1	10	0	1800
670809	-264	2797	718	-53.49548	-49.82433	63.90157	0	11	4002	0	0	0	0	0.4970068	0.2499534	1	10	0	1800
670895	-264	2797	718	-53.49548	-49.82433	63.90157	0	11	4002	0	0	0	0	0.4970068	0.2499534	1	10	0	1800
670980	-264	2797	718	-53.49548	-49.82433	63.90157	0	11	4002	0	0	0	0	0.4970068	0.2499534	1	10	0	1800
671052	-264	2797	718	-53.49548	-49.82433	63.90157	0	11	4002	0	0	0	0	0.4970068	0.2499534	1	10	0	1800
671149	-264	2797	718	-53.49548	-49.82433	63.90157	0	11	4002	0	0	0	0	0.4970068	0.2499534	1	10	0	1800
671256	-264	2797	718	-53.49548	-49.82433	63.90157	0	11	4002	0	0	0	0	0.4970068	0.2499534	1	10	0	1800
671346	-264	2797	718	-53.49548	-49.82433	63.90157	0	11	4002	0	0	0	0	0.4970068	0.2499534	1	10	0	1800
671439	-264	2797	718	-53.49548	-49.82433	63.90157	0	11	4002	0	0	0	0	0.4970068	0.2499534	1	10	0	1800
