time(ms)	gyro_x(deg/s)	gyro_y(deg/s)	gyro_z(deg/s)	orientation_roll(deg)	orientation_pitch(deg)	orientation_yaw(deg)	throttle	battery(V)	loop_time(uS)	pid_output_roll	pid_output_pitch	pid_output_yaw	pid_output_throttle	ultrasonic_alt	baro_alt	flight_mode	p_gain_altitude	i_gain_altitude	d_gain_altitude
94033	-100	5	173	-3.451692	-6.161306	0.1748966	0	11.97	4003	49	91	17	0	0.1372001	0.2141166	3	5	0	20
94140	208	-47	109	-3.39384	-6.087063	0.202424	0	11.97	4003	41	99	20	0	0.1372001	0.2267666	3	5	0	20
94248	168	-185	172	-3.34297	-6.039448	0.1703217	0	11.97	4004	52	110	25	0	0.1372001	0.230636	3	5	0	20
94355	3	81	-94	-3.33583	-6.016397	0.2084019	0	11.97	4002	52	135	29	0	0.1372001	0.2312346	3	5	0	20
94482	58	-54	-140	-3.362715	-5.863445	0.2182969	0	11.97	4004	69	118	36	0	0.1372001	0.229682	3	5	0	20
94563	-17	-190	42	-3.260427	-5.884271	0.2110134	0	11.97	4003	0	0	0	0	0.1372001	0.2268779	3	5	0	20
94663	42	-14	-3	-3.352207	-5.788172	0.2215982	0	11.97	4003	0	0	0	0	0.1372001	0.2230096	3	5	0	20
94776	66	17	-39	-3.332747	-5.792904	0.2231874	0	11.97	4004	0	0	0	0	0.1372001	0.2293682	1	5	0	20
94861	4	11	4	-3.352651	-5.772499	0.2226374	0	11.97	4002	0	0	0	0	0.1372001	0.2361508	1	5	0	20
94970	41	6	-19	-3.341461	-5.757885	0.2247163	0	11.97	4002	0	0	0	0	0.1372001	0.2487842	1	5	0	20
95151	25	-7	0	-3.338799	-5.754505	0.2311357	0	11.97	4004	0	0	0	0	0.1372001	0.265714	1	5	0	20
95217	29	-8	13	-3.340089	-5.753182	0.2319928	0	11.97	4002	0	0	0	0	0.1372001	0.2739562	1	5	0	20
95291	26	0	-13	-3.347707	-5.74759	0.2355385	0	11.97	4003	0	0	0	0	0.1372001	0.2772863	1	5	0	20
95358	36	-1	6	-3.350968	-5.747223	0.2377394	0	11.97	4002	0	0	0	0	0.1372001	0.285286	1	5	0	20
95456	32	0	-6	-3.352692	-5.748096	0.2401846	0	11.97	4003	0	0	0	0	0.1372001	0.2934995	1	5	0	20
95565	28	-7	-1	-3.354984	-5.74626	0.2429968	0	11.97	4002	0	0	0	0	0.1372001	0.2986876	1	5	0	20
95669	36	0	0	-3.359149	-5.741926	0.2460536	0	11.97	4004	0	0	0	0	0.1372001	0.2996065	1	5	0	20
95773	29	0	0	-3.365581	-5.743376	0.2486826	0	11.97	4002	0	0	0	0	0.1372001	0.3026499	1	5	0	20
95879	34	-4	0	-3.36568	-5.739933	0.2494162	0	12.02	4004	0	0	0	0	0.1372001	0.30931	1	5	0	20
95986	33	0	-4	-3.366791	-5.736904	0.2516785	0	12.02	4004	0	0	0	0	0.1372001	0.3078174	1	5	0	20
96080	32	0	-4	-3.361628	-5.727601	0.2520453	0	12.02	4003	0	0	0	0	0.1372001	0.3067464	1	5	0	20
96218	31	0	-5	-3.353566	-5.725528	0.2562635	0	12.02	4004	0	0	0	0	0.1372001	0.3043165	1	5	0	20
96290	35	-5	-3	-3.353043	-5.727722	0.2581588	0	12.02	4003	0	0	0	0	0.1372001	0.3064482	1	5	0	20
96419	31	3	-1	-3.347098	-5.728098	0.2627442	0	12.02	4003	0	0	0	0	0.1372001	0.3093299	1	5	0	20
96494	30	-2	-3	-3.349211	-5.725755	0.2635388	0	12.02	4003	0	0	0	0	0.1372001	0.3108024	1	5	0	20
96594	26	-1	-4	-3.344043	-5.722682	0.2650065	0	12.02	4002	0	0	0	0	0.1372001	0.3126993	1	5	0	20
96695	39	1	-2	-3.343802	-5.716693	0.2681856	0	12.02	4003	0	0	0	0	0.1372001	0.3131226	1	5	0	20
96798	41	-3	-8	-3.342812	-5.715142	0.2730159	0	12.08	4004	0	0	0	0	0.1372001	0.307707	1	5	0	20
96923	29	-3	-1	-3.346321	-5.704866	0.2755222	0	12.08	4004	0	0	0	0	0.1372001	0.3070971	1	5	0	20
97005	43	-1	-7	-3.335315	-5.710746	0.2790682	0	12.08	4004	0	0	0	0	0.1372001	0.3034278	1	5	0	20
97109	28	-4	0	-3.327241	-5.710247	0.2832866	0	12.08	4004	0	0	0	0	0.1372001	0.3001091	1	5	0	20
97228	41	-4	-4	-3.325112	-5.705616	0.286649	0	12.08	4004	0	0	0	0	0.1372001	0.2915732	1	5	0	20
97310	39	-3	-3	-3.319559	-5.701765	0.290317	0	12.08	4003	0	0	0	0	0.1372001	0.2822053	1	5	0	20
97492	36	0	-4	-3.306259	-5.695709	0.2998543	0	12.08	4003	0	0	0	0	0.1372001	0.2868886	1	5	0	20
97571	30	-1	-3	-3.310854	-5.694506	0.3046841	0	12.08	4003	0	0	0	0	0.1372001	0.2913436	1	5	0	20
97625	37	-6	2	-3.302376	-5.692803	0.3086576	0	12.08	4004	0	0	0	0	0.1372001	0.2933907	1	5	0	20
97717	39	-2	-4	-3.301881	-5.693196	0.3109808	0	12.02	4004	0	0	0	0	0.1372001	0.2886073	1	5	0	20
97882	34	-9	-4	-3.295458	-5.682511	0.3196013	0	12.02	4004	0	0	0	0	0.1372001	0.2780216	1	5	0	20
97963	36	0	-3	-3.291195	-5.682554	0.3227804	0	12.02	4004	0	0	0	0	0.1372001	0.2770907	1	5	0	20
98023	35	-2	-6	-3.291609	-5.675654	0.3284051	0	12.02	4003	0	0	0	0	0.1372001	0.2764755	1	5	0	20
98204	48	-3	-4	-3.276394	-5.676074	0.3364135	0	12.02	4004	0	0	0	0	0.1372001	0.2623212	1	5	0	20
98245	41	-2	-3	-3.277753	-5.678938	0.3394705	0	12.02	4003	0	0	0	0	0.1372001	0.2608486	1	5	0	20
98333	38	-3	-3	-3.274108	-5.679891	0.343323	0	12.02	4002	0	0	0	0	0.1372001	0.2508962	1	5	0	20
98441	40	1	-6	-3.272292	-5.678138	0.3476028	0	12.02	4003	0	0	0	0	0.1372001	0.2489889	1	5	0	20
98537	37	-3	0	-3.274405	-5.679224	0.351821	0	12.02	4002	0	0	0	0	0.1372001	0.2471467	1	5	0	20
98674	46	-5	-1	-3.264193	-5.684216	0.3593406	0	12.08	4003	0	0	0	0	0.1372001	0.2472723	1	5	0	20
98748	45	-3	-2	-3.259667	-5.685515	0.3616642	0	12.08	4002	0	0	0	0	0.1372001	0.2505028	1	5	0	20
98849	41	-9	-3	-3.246619	-5.692357	0.3659439	0	12.08	4004	0	0	0	0	0.1372001	0.2582184	1	5	0	20
98950	31	0	-8	-3.246089	-5.688849	0.3724853	0	12.08	4003	0	0	0	0	0.1372001	0.2641996	1	5	0	20
99052	32	0	-5	-3.241496	-5.681587	0.3796389	0	12.08	4003	0	0	0	0	0.1372001	0.2678108	1	5	0	20
99159	36	0	-4	-3.24452	-5.677602	0.3835517	0	12.08	4002	0	0	0	0	0.1372001	0.2743108	1	5	0	20
99266	37	0	-1	-3.244871	-5.678768	0.3879538	0	12.08	4002	0	0	0	0	0.1372001	0.2798728	1	5	0	20
99373	42	-3	-6	-3.245772	-5.681697	0.3961459	0	12.08	4002	0	0	0	0	0.1372001	0.2814467	1	5	0	20
99481	47	-4	0	-3.244365	-5.680554	0.4014643	0	12.08	4003	0	0	0	0	0.1372001	0.2779523	1	5	0	20
99580	43	3	-5	-3.241872	-5.67732	0.4074558	0	12.08	4003	0	0	0	0	0.1372001	0.2743939	1	5	0	20
99678	42	0	-2	-3.242552	-5.674919	0.4124687	0	12.08	4002	0	0	0	0	0.1372001	0.2651601	1	5	0	20
99773	33	-2	-3	-3.244099	-5.66975	0.4181545	0	12.08	4003	0	0	0	0	0.1372001	0.2640369	1	5	0	20
99870	39	-4	0	-3.249743	-5.673079	0.4232286	0	12.08	4003	0	0	0	0	0.1372001	0.268363	1	5	0	20
100018	39	-3	-4	-3.243528	-5.67357	0.4324607	0	12.08	4003	0	0	0	0	0.1372001	0.2715615	1	5	0	20
100079	43	-1	1	-3.239149	-5.674422	0.4363124	0	12.08	4003	0	0	0	0	0.1372001	0.2796844	1	5	0	20
100259	43	-6	-1	-3.239643	-5.668188	0.4458501	0	12.08	4002	0	0	0	0	0.1372001	0.2954944	1	5	0	20
100317	35	-6	0	-3.239914	-5.664885	0.4474397	0	12.08	4003	0	0	0	0	0.1372001	0.2962104	1	5	0	20
100388	39	-3	-5	-3.237674	-5.664958	0.4512301	0	12.08	4002	0	0	0	0	0.1372001	0.293324	1	5	0	20
100488	43	0	0	-3.233314	-5.662694	0.455815	0	12.08	4003	0	0	0	0	0.1372001	0.2895977	1	5	0	20
100678	48	-1	-4	-3.23421	-5.656258	0.467614	0	12.08	4003	0	0	0	0	0.1372001	0.2842624	1	5	0	20
100752	44	-1	1	-3.231834	-5.653983	0.4723212	0	12.08	4003	0	0	0	0	0.1372001	0.2786697	1	5	0	20
100836	36	-1	0	-3.229128	-5.656434	0.4756226	0	12.08	4002	0	0	0	0	0.1372001	0.2738659	1	5	0	20
100885	39	-2	-5	-3.226148	-5.650689	0.4790462	0	12.08	4002	0	0	0	0	0.1372001	0.2703502	1	5	0	20
100979	43	-4	-5	-3.220077	-5.653208	0.4822254	0	12.08	4002	0	0	0	0	0.1372001	0.2707728	1	5	0	20
101092	34	-9	0	-3.216856	-5.649845	0.4877279	0	12.08	4002	0	0	0	0	0.1372001	0.2691075	1	5	0	20
101185	43	0	0	-3.215934	-5.646368	0.49213	0	12.08	4002	0	0	0	0	0.1372001	0.2666118	1	5	0	20
101288	50	0	-4	-3.217247	-5.646202	0.4980611	0	12.08	4004	0	0	0	0	0.1372001	0.2682692	1	5	0	20
101401	44	-1	-7	-3.214804	-5.646277	0.506743	0	12.08	4004	0	0	0	0	0.1372001	0.2697103	1	5	0	20
101497	36	-3	-3	-3.218512	-5.649525	0.5116951	0	12.08	4003	0	0	0	0	0.1372001	0.2674942	1	5	0	20
101602	54	-5	0	-3.213303	-5.649762	0.5173193	0	12.08	4003	0	0	0	0	0.1372001	0.2670908	1	5	0	20
101703	40	1	-1	-3.207143	-5.657496	0.5230055	0	12.08	4003	0	0	0	0	0.1372001	0.2691845	1	5	0	20
101805	40	-2	-4	-3.201242	-5.652788	0.5267348	0	12.08	4003	0	0	0	0	0.1372001	0.2775571	1	5	0	20
101918	37	0	-5	-3.198245	-5.647075	0.5352329	0	12.08	4002	0	0	0	0	0.1372001	0.2906415	1	5	0	20
102038	43	0	-3	-3.195202	-5.640263	0.5440362	0	12.08	4002	0	0	0	0	0.1372001	0.3045073	1	5	0	20
102104	45	1	-2	-3.197481	-5.637252	0.5497212	0	12.08	4002	0	0	0	0	0.1372001	0.3089255	1	5	0	20
102256	45	-11	-10	-3.202983	-5.630391	0.5587088	0	12.08	4004	0	0	0	0	0.1372001	0.3131895	1	5	0	20
102338	48	-2	-3	-3.204885	-5.627536	0.5623775	0	12.14	4003	0	0	0	0	0.1372001	0.3128978	1	5	0	20
102472	53	-2	-4	-3.201739	-5.633373	0.5711811	0	12.14	4003	0	0	0	0	0.1372001	0.3074411	1	5	0	20
102603	42	-4	-8	-3.199941	-5.630018	0.5785179	0	12.14	4003	0	0	0	0	0.1372001	0.2922561	1	5	0	20
102636	44	-11	-10	-3.195101	-5.629375	0.5816967	0	12.14	4004	0	0	0	0	0.1372001	0.2899662	1	5	0	20
102721	34	-5	-2	-3.199797	-5.623382	0.5901336	0	12.14	4004	0	0	0	0	0.1372001	0.2769131	1	5	0	20
102811	46	-6	-6	-3.202114	-5.62083	0.5953912	0	12.14	4003	0	0	0	0	0.1372001	0.2721025	1	5	0	20
102923	43	-5	-5	-3.198623	-5.611041	0.6004652	0	12.14	4002	0	0	0	0	0.1372001	0.270127	1	5	0	20
103033	48	0	-4	-3.197521	-5.611232	0.6073737	0	12.14	4002	0	0	0	0	0.1372001	0.2691389	1	5	0	20
103123	43	-7	-6	-3.201355	-5.61058	0.6129364	0	12.14	4002	0	0	0	0	0.1372001	0.2688418	1	5	0	20
103223	53	-36	14	-3.217127	-5.630901	0.6052324	0	12.14	4003	0	0	0	0	0.1372001	0.266933	1	5	0	20
103340	59	-27	1	-3.194692	-5.632144	0.5923954	0	12.08	4003	0	0	0	0	0.1372001	0.2630877	1	5	0	20
103433	39	12	15	-3.189012	-5.617049	0.5918455	0	12.08	4002	0	0	0	0	0.1372001	0.2551265	1	5	0	20
103524	3	36	23	-3.186245	-5.626159	0.6045609	0	12.08	4003	0	0	0	0	0.1372001	0.2507891	1	5	0	20
103645	-333	527	-8	-3.495728	-5.879733	0.7816039	0	12.08	4002	0	0	0	0	0.1372001	0.2514603	1	5	0	20
103749	-147	1680	-512	-4.052077	-8.340431	0.8168844	0	12.08	4002	0	0	0	0	0.1372001	0.2540874	1	5	0	20
103831	-1048	2555	-623	-6.417435	-9.999072	2.348254	0	12.08	4003	0	0	0	0	0.1372001	0.2555788	1	5	0	20
103928	379	1994	-478	-6.854932	-12.34232	3.345267	0	12.08	4003	0	0	0	0	0.1372001	0.2575738	1	5	0	20
104033	1019	-533	-1652	-6.151308	-13.54042	4.544964	0	12.08	4003	0	0	0	0	0.1372001	0.2593099	1	5	0	20
104136	2883	616	-1685	-3.553088	-14.5064	7.809047	0	12.08	4003	0	0	0	0	0.1372001	0.2624227	1	5	0	20
104250	4392	439	-880	2.374776	-14.61995	10.07861	0	12.14	4003	0	0	0	0	0.1372001	0.2614222	1	5	0	20
104344	2026	2241	-954	7.428205	-16.19378	11.57105	0	12.14	4003	0	0	0	0	0.1372001	0.2585663	1	5	0	20
104445	-837	2690	-620	7.238998	-19.7963	12.93384	0	12.14	4002	0	0	0	0	0.1372001	0.2599074	1	5	0	20
104542	-2327	-1731	957	3.481122	-18.59773	13.16011	0	12.14	4003	0	0	0	0	0.1372001	0.2647775	1	5	0	20
104650	-4812	-920	3615	-0.3245263	-14.59275	9.590765	0	12.14	4003	0	0	0	0	0.1372001	0.2724156	1	5	0	20
104748	-5537	-2771	6282	-5.607049	-12.49144	1.05277	0	12.14	4004	0	0	0	0	0.1372001	0.2872384	1	5	0	20
104874	-6297	-5342	6729	-11.32423	-7.828318	-9.808264	0	12.14	4004	0	0	0	0	0.1372001	0.309997	1	5	0	20
104959	-3398	-5177	5683	-15.87178	-2.56353	-20.18902	0	12.14	4002	0	0	0	0	0.1372001	0.3268463	1	5	0	20
105108	1956	-2706	2851	-14.12843	0.9560364	-29.49727	0	12.14	4002	0	0	0	0	0.1372001	0.3707366	1	5	0	20
105179	5644	1599	4189	-5.96742	-0.5141961	-35.22663	0	12.14	4003	0	0	0	0	0.1372001	0.3827556	1	5	0	20
105289	3273	41	5424	0.5339127	-2.686426	-42.80762	0	12.14	4003	0	0	0	0	0.1372001	0.4112995	1	5	0	20
105391	2949	929	7147	6.234705	-4.011446	-53.72304	0	12.14	4004	0	0	0	0	0.1372001	0.4334716	1	5	0	20
105484	-1277	-139	7652	7.134289	-3.645526	-61.81808	0	12.14	4004	0	0	0	0	0.1372001	0.4565083	1	5	0	20
105599	-6607	-4523	8284	-5.788393	0.6587187	-79.62115	0	12.14	4002	0	0	0	0	0.1372001	0.4722834	1	5	0	20
105660	-1898	-1595	9017	-10.0375	2.94259	-89.20835	0	12.14	4004	0	0	0	0	0.1372001	0.4831944	1	5	0	20
105773	1119	-273	7437	-8.592765	0.1191859	-103.1359	0	12.14	4003	0	0	0	0	0.1372001	0.499103	1	5	0	20
105915	-158	-2114	4868	-7.152764	3.692522	-115.2495	0	12.14	4004	0	0	0	0	0.1372001	0.5073017	1	5	0	20
105969	1281	-4390	3322	-5.474548	4.732678	-119.9998	0	12.14	4004	0	0	0	0	0.1372001	0.5125353	1	5	0	20
106146	7185	-5205	439	4.944578	17.25966	-122.9944	0	12.08	4003	0	0	0	0	0.1372001	0.5282943	1	5	0	20
106179	6250	-2958	412	7.781949	18.10588	-123.2231	0	12.08	4003	0	0	0	0	0.1372001	0.5319087	1	5	0	20
106385	-2867	4399	-1146	8.410694	9.028104	-122.5757	0	12.08	4004	0	0	0	0	0.1372001	0.5664068	1	5	0	20
106451	-6262	7042	-1573	-0.6982259	-1.107713	-120.1567	0	12.08	4002	0	0	0	0	0.1372001	0.5729586	1	5	0	20
106517	-7065	6852	-1762	-8.870234	-8.32897	-118.3566	0	12.08	4002	0	0	0	0	0.1372001	0.5778033	1	5	0	20
106576	-5575	4579	-2179	-15.46395	-13.25091	-116.1415	0	12.08	4003	0	0	0	0	0.1372001	0.5819917	1	5	0	20
106683	-6220	3427	-1897	-20.99536	-15.64463	-113.8227	0	12.08	4002	0	0	0	0	0.1372001	0.5862358	1	5	0	20
106797	-315	475	1980	-24.52487	-17.72695	-113.8612	0	12.08	4004	0	0	0	0	0.1372001	0.58872	1	5	0	20
106903	2282	-6	4366	-18.81275	-17.73885	-119.3282	0	12.08	4003	0	0	0	0	0.1372001	0.5911406	1	5	0	20
107086	2008	-5300	5996	-8.992675	-12.04621	-132.6171	0	12.19	4002	0	0	0	0	0.1372001	0.5873448	1	5	0	20
107143	827	-12575	3919	-5.688351	-3.660375	-138.2732	0	12.19	4002	0	0	0	0	0.1372001	0.5878908	1	5	0	20
107253	7168	-11404	1505	-0.06451468	13.98533	-142.2863	0	12.19	4003	0	0	0	0	0.1372001	0.5895005	1	5	0	20
107287	9455	-9913	1192	3.949263	18.38917	-143.0182	0	12.19	4003	0	0	0	0	0.1372001	0.5897021	1	5	0	20
107390	8343	-4200	-222	15.21383	24.89713	-143.9469	0	12.19	4004	0	0	0	0	0.1372001	0.5916567	1	5	0	20
107495	720	944	-1804	20.70772	22.15586	-141.9073	0	12.19	4002	0	0	0	0	0.1372001	0.5936196	1	5	0	20
107615	-9509	7733	402	6.864724	8.157339	-140.5706	0	12.19	4003	0	0	0	0	0.1372001	0.5997316	1	5	0	20
107703	-9975	8094	187	-5.184893	-0.7750773	-140.9534	0	12.19	4004	0	0	0	0	0.1372001	0.6023247	1	5	0	20
107912	-7589	7603	-4163	-35.96352	-16.25584	-130.1643	0	12.19	4004	0	0	0	0	0.1372001	0.6086754	1	5	0	20
107988	-4019	3775	-2837	-40.16837	-18.53466	-126.4273	0	12.08	4002	0	0	0	0	0.1372001	0.6122142	1	5	0	20
108115	8695	-460	3157	-25.07784	-15.77276	-125.4879	0	12.08	4003	0	0	0	0	0.1372001	0.6115604	1	5	0	20
108226	6507	-2655	8550	-6.966571	-16.21712	-136.0797	0	12.08	4003	0	0	0	0	0.1372001	0.6140898	1	5	0	20
108322	1200	-12686	8746	1.813214	-1.551221	-150.6634	0	12.08	4002	0	0	0	0	0.1372001	0.6149229	1	5	0	20
108421	2124	-11951	8622	1.340176	17.25793	-164.934	0	12.08	4003	0	0	0	0	0.1372001	0.6127584	1	5	0	20
108528	12	-4852	9465	-3.484726	27.21218	-179.7822	0	12.08	4004	0	0	0	0	0.1372001	0.6082398	1	5	0	20
108655	333	-2639	10451	-10.31137	27.93518	-196.2445	0	12.08	4002	0	0	0	0	0.1372001	0.6005833	1	5	0	20
108729	1309	-492	11202	-17.80837	24.63111	-214.1808	0	12.08	4003	0	0	0	0	0.1372001	0.5981414	1	5	0	20
108824	-1078	1310	11258	-22.11924	18.89782	-226.7105	0	12.08	4003	0	0	0	0	0.1372001	0.5961128	1	5	0	20
108946	1618	-2787	8674	-27.65822	11.1182	-254.0622	0	12.14	4004	0	0	0	0	0.1372001	0.6013688	1	5	0	20
109037	1809	-1853	8217	-26.00874	9.035361	-263.3054	0	12.14	4003	0	0	0	0	0.1372001	0.6025218	1	5	0	20
109149	3634	-2436	7447	-20.02974	5.975101	-280.4569	0	12.14	4004	0	0	0	0	0.1372001	0.603174	1	5	0	20
109236	3581	-3263	7420	-15.56849	6.314961	-288.5951	0	12.14	4003	0	0	0	0	0.1372001	0.5982199	1	5	0	20
109332	4308	-2983	5936	-9.125712	8.489421	-299.88	0	12.14	4003	0	0	0	0	0.1372001	0.5945882	1	5	0	20
109436	3874	-3827	4868	-0.06122845	12.08858	-308.4259	0	12.14	4003	0	0	0	0	0.1372001	0.5739187	1	5	0	20
109615	-92	207	1470	-1.562492	9.713449	-320.5525	0	12.14	4003	0	0	0	0	0.1372001	0.5264528	1	5	0	20
109663	2651	-154	-1490	0.5759732	8.517503	-320.3925	0	12.14	4003	0	0	0	0	0.1372001	0.4975066	1	5	0	20
109773	-37	-234	164	2.488914	5.994819	-317.9306	0	12.14	4004	0	0	0	0	0.1372001	0.4612623	1	5	0	20
109854	59	48	21	2.231639	5.27685	-317.8873	0	12.14	4003	0	0	0	0	0.1372001	0.4411715	1	5	0	20
109931	62	-18	-30	2.114181	4.863709	-317.8587	0	12.14	4003	0	0	0	0	0.1372001	0.415071	1	5	0	20
110019	49	-1	27	1.937708	4.280838	-317.8504	0	12.14	4003	0	0	0	0	0.1372001	0.3962322	1	5	0	20
110117	51	-1	-27	1.786478	3.776558	-317.8387	0	12.14	4003	0	0	0	0	0.1372001	0.3774131	1	5	0	20
110222	43	-6	12	1.648041	3.328328	-317.8337	0	12.14	4004	0	0	0	0	0.1372001	0.3534085	1	5	0	20
110346	43	2	-17	1.538541	2.937936	-317.8243	0	12.14	4004	0	0	0	0	0.1372001	0.3315797	1	5	0	20
110426	50	1	2	1.442301	2.59115	-317.8155	0	12.14	4004	0	0	0	0	0.1372001	0.3205897	1	5	0	20
110531	37	-3	-14	1.359736	2.302831	-317.8058	0	12.14	4003	0	0	0	0	0.1372001	0.3027593	1	5	0	20
110632	49	-1	-6	1.264454	1.963603	-317.7974	0	12.14	4003	0	0	0	0	0.1372001	0.2925116	1	5	0	20
110761	49	-2	-3	1.205494	1.749934	-317.7897	0	12.08	4004	0	0	0	0	0.1372001	0.2793865	1	5	0	20
110878	57	-1	-11	1.137144	1.508891	-317.7775	0	12.08	4003	0	0	0	0	0.1372001	0.274454	1	5	0	20
110952	57	-2	-5	1.112942	1.400891	-317.7727	0	12.08	4002	0	0	0	0	0.1372001	0.2792059	1	5	0	20
111084	57	-2	-6	1.072495	1.206283	-317.7623	0	12.08	4004	0	0	0	0	0.1372001	0.2735681	1	5	0	20
111180	57	0	-2	1.048035	1.087975	-317.754	0	12.08	4003	0	0	0	0	0.1372001	0.2683198	1	5	0	20
111221	58	0	-2	1.033298	1.015706	-317.7495	0	12.08	4004	0	0	0	0	0.1372001	0.2659407	1	5	0	20
111321	53	-5	-2	1.013764	0.9490802	-317.7457	0	12.08	4003	0	0	0	0	0.1372001	0.2547237	1	5	0	20
111430	57	2	-3	0.9805875	0.8421215	-317.736	0	12.08	4002	0	0	0	0	0.1372001	0.2545556	1	5	0	20
111530	54	0	-12	0.9731534	0.7941695	-317.7287	0	12.08	4003	0	0	0	0	0.1372001	0.259963	1	5	0	20
111636	54	-2	-4	0.9565158	0.7309721	-317.724	0	12.14	4002	0	0	0	0	0.1372001	0.2645918	1	5	0	20
111775	56	-2	-5	0.9330103	0.6550217	-317.7137	0	12.14	4002	0	0	0	0	0.1372001	0.2658176	1	5	0	20
111866	54	-1	-3	0.9065904	0.5903444	-317.7054	0	12.14	4004	0	0	0	0	0.1372001	0.2662162	1	5	0	20
111944	56	0	-7	0.9008926	0.5595575	-317.6995	0	12.14	4003	0	0	0	0	0.1372001	0.2663391	1	5	0	20
112100	53	0	0	0.8888645	0.5026745	-317.6848	0	12.14	4004	0	0	0	0	0.1372001	0.2718001	1	5	0	20
112152	52	1	-5	0.8854237	0.4924895	-317.6822	0	12.14	4003	0	0	0	0	0.1372001	0.2724343	1	5	0	20
112245	57	1	-3	0.884571	0.4579363	-317.6753	0	12.14	4003	0	0	0	0	0.1372001	0.273339	1	5	0	20
112356	54	-2	-5	0.8801193	0.4358786	-317.6658	0	12.14	4002	0	0	0	0	0.1372001	0.2765963	1	5	0	20
112461	52	0	-4	0.8762471	0.4152981	-317.6567	0	12.14	4002	0	0	0	0	0.1372001	0.2744199	1	5	0	20
112557	60	1	-8	0.8690195	0.3942586	-317.6472	0	12.14	4004	0	0	0	0	0.1372001	0.274766	1	5	0	20
112659	52	0	-1	0.8625296	0.3820989	-317.6373	0	12.14	4002	0	0	0	0	0.1372001	0.278313	1	5	0	20
112767	58	-4	-9	0.8581632	0.3661606	-317.6288	0	12.14	4002	0	0	0	0	0.1372001	0.2839325	1	5	0	20
112866	52	-6	-9	0.8613119	0.3557976	-317.6188	0	12.14	4004	0	0	0	0	0.1372001	0.2874216	1	5	0	20
113010	51	-1	-1	0.856365	0.3374387	-317.6074	0	12.14	4004	0	0	0	0	0.1372001	0.2963185	1	5	0	20
113096	59	0	-8	0.8513342	0.3252549	-317.5984	0	12.14	4004	0	0	0	0	0.1372001	0.2981408	1	5	0	20
113168	56	1	-7	0.8486346	0.3199121	-317.5925	0	12.14	4003	0	0	0	0	0.1372001	0.2977135	1	5	0	20
113281	63	-3	0	0.8466988	0.3094429	-317.5828	0	12.14	4003	0	0	0	0	0.1372001	0.2920874	1	5	0	20
113393	45	3	-5	0.8466986	0.3005268	-317.5702	0	12.14	4002	0	0	0	0	0.1372001	0.2858998	1	5	0	20
113473	44	-3	-8	0.8463556	0.3045705	-317.565	0	12.14	4003	0	0	0	0	0.1372001	0.2832177	1	5	0	20
113689	60	0	-11	0.8463272	0.2904621	-317.5473	0	12.14	4004	0	0	0	0	0.1372001	0.2700269	1	5	0	20
113871	58	-2	-4	0.845093	0.283046	-317.5234	0	12.14	4003	0	0	0	0	0.1372001	0.2560063	1	5	0	20
113928	46	-5	-6	0.8442081	0.2769644	-317.5183	0	12.14	4003	0	0	0	0	0.1372001	0.2500558	1	5	0	20
114006	55	-9	-5	0.8496882	0.2741714	-317.5113	0	12.14	4003	0	0	0	0	0.1372001	0.2427993	1	5	0	20
114132	58	-2	-6	0.8457222	0.2717045	-317.4985	0	12.14	4003	0	0	0	0	0.1372001	0.2358954	1	5	0	20
114194	63	-9	-6	0.8530947	0.2698797	-317.4944	0	12.14	4002	0	0	0	0	0.1372001	0.2353306	1	5	0	20
114264	54	-3	-6	0.8593504	0.2643933	-317.4886	0	12.14	4004	0	0	0	0	0.1372001	0.2335103	1	5	0	20
114364	52	0	0	0.8541193	0.2570759	-317.4814	0	12.14	4002	0	0	0	0	0.1372001	0.2315122	1	5	0	20
114464	46	-5	-7	0.8639162	0.2572595	-317.4703	0	12.14	4002	0	0	0	0	0.1372001	0.2333805	1	5	0	20
114579	50	-3	-4	0.8620303	0.2528116	-317.4614	0	12.14	4004	0	0	0	0	0.1372001	0.2322011	1	5	0	20
114678	55	0	-8	0.8553642	0.2592131	-317.4539	0	12.14	4002	0	0	0	0	0.1372001	0.2329444	1	5	0	20
133610	2	-2	0	0.1120429	-0.006317453	0.3069445	0	12.14	4004	0	0	0	0	0.1372001	0.1495617	1	6	0	100
133712	6	-1	-4	0.1163695	-0.007232551	0.3092065	0	12.14	4003	0	0	0	0	0.1372001	0.1501564	1	6	0	100
133808	8	0	0	0.1212305	-0.006614456	0.311652	0	12.14	4003	0	0	0	0	0.1372001	0.151703	1	6	0	100
133908	10	0	0	0.1201169	-0.007348443	0.3140974	0	12.14	4002	0	0	0	0	0.1372001	0.1530774	1	6	0	100
134014	18	-1	-2	0.1248238	-0.01072911	0.3191108	0	12.14	4002	0	0	0	0	0.1372001	0.1564802	1	6	0	100
134117	10	-2	0	0.1261677	-0.01366076	0.320578	0	12.14	4003	0	0	0	0	0.1372001	0.1561892	1	6	0	100
134215	8	0	-2	0.1197916	-0.01509749	0.3232682	0	12.14	4003	0	0	0	0	0.1372001	0.1595432	1	6	0	100
134321	7	1	-4	0.1182434	-0.01462995	0.3256524	0	12.14	4004	0	0	0	0	0.1372001	0.1626894	1	6	0	100
134504	16	-3	-4	0.1151248	-0.01322006	0.3301156	0	12.14	4003	0	0	0	0	0.1372001	0.1576395	1	6	0	100
134575	11	0	-7	0.1172445	-0.01145431	0.3319498	0	12.14	4002	0	0	0	0	0.1372001	0.1482845	1	6	0	100
134644	11	1	2	0.117731	-0.005150123	0.3358018	0	12.14	4003	0	0	0	0	0.1372001	0.1434342	1	6	0	100
134720	6	-2	0	0.1134082	0.001712113	0.3369025	0	12.14	4003	0	0	0	0	0.1372001	0.1429406	1	6	0	100
134835	19	-2	-6	0.1205022	-0.0008387374	0.3411821	0	12.14	4004	0	0	0	0	0.1372001	0.1503761	1	6	0	100
134922	10	3	-1	0.1224191	-0.005994292	0.3433216	0	12.14	4003	0	0	0	0	0.1372001	0.1510625	1	6	0	100
135075	4	-1	-2	0.1195013	-0.01678644	0.34864	0	12.14	4002	0	0	0	0	0.1372001	0.1501367	1	6	0	100
135171	8	0	-1	0.123414	-0.01319004	0.3516972	0	12.19	4002	0	0	0	0	0.1372001	0.1444853	1	6	0	100
135262	10	-3	-2	0.1215967	-0.01286998	0.3540813	0	12.19	4004	0	0	0	0	0.1372001	0.1263064	1	6	0	100
135416	10	0	0	0.1296837	-0.01185062	0.3581776	0	12.19	4004	0	0	0	0	0.1372001	0.1214452	1	6	0	100
135465	12	0	-4	0.1287481	-0.01221512	0.360562	0	12.19	4003	0	0	0	0	0.1372001	0.1206825	1	6	0	100
135535	8	1	-1	0.1314839	-0.01656296	0.3621515	0	12.19	4004	0	0	0	0	0.1372001	0.1190678	1	6	0	100
135643	11	-1	-2	0.1376248	-0.01933132	0.3656362	0	12.19	4003	0	0	0	0	0.1372001	0.1201349	1	6	0	100
135762	9	1	-2	0.1465948	-0.01311523	0.3697934	0	12.19	4003	0	0	0	0	0.1372001	0.1211839	1	6	0	100
135882	8	-5	1	0.140912	-0.01907992	0.3727888	0	12.19	4003	0	0	0	0	0.1372001	0.1168519	3	6	0	100
135957	11	-3	-1	0.1402619	-0.01707838	0.3748061	0	12.19	4002	0	0	0	0	0.1372001	0.1168902	3	6	0	100
136056	17	0	-3	0.1311026	-0.01239752	0.3782911	0	12.19	4003	0	0	0	0	0.1372001	0.1184243	3	6	0	100
136174	9	1	-2	0.1306457	-0.009144323	0.381409	0	12.19	4004	0	0	0	0	0.1372001	0.1167325	3	6	0	100
136320	6	1	-2	0.1314742	-0.01807748	0.3865446	0	12.19	4002	0	0	0	0	0.1372001	0.1095539	3	6	0	100
136355	19	0	-5	0.1312769	-0.01634054	0.3874616	0	12.19	4004	0	0	0	0	0.1372001	0.1089965	3	6	0	100
136422	16	2	-3	0.1337048	-0.02057082	0.3906405	0	12.19	4003	0	0	0	0	0.1372001	0.1030834	3	6	0	100
136570	13	-3	-1	0.1382971	-0.02023969	0.3938808	0	12.19	4004	0	0	0	0	0.1372001	0.09599164	3	6	0	100
136633	16	-1	-5	0.1392641	-0.02133729	0.3969987	0	12.19	4004	0	0	0	0	0.1372001	0.09162492	3	6	0	100
136737	19	-3	-2	0.1378977	-0.01915986	0.3983437	0	12.19	4003	0	0	0	0	0.1372001	0.08602048	3	6	0	100
136837	9	-2	0	0.1454005	-0.02728732	0.4006668	0	12.19	4002	0	0	0	0	0.1372001	0.0758705	3	6	0	100
136988	19	0	-1	0.1568869	-0.03419511	0.4058025	0	12.19	4002	0	0	0	0	0.1372001	0.07452832	3	6	0	100
137048	17	-2	-1	0.1587486	-0.03395148	0.4080035	0	12.14	4003	0	0	0	0	0.1372001	0.07965952	3	6	0	100
137150	12	6	0	0.1639351	-0.03440466	0.4114883	0	12.14	4004	0	0	0	0	0.1372001	0.07691221	3	6	0	100
137249	19	2	-4	0.1703863	-0.03471245	0.4130169	0	12.14	4003	0	0	0	0	0.1372001	0.07629457	3	6	0	100
137353	10	4	0	0.1744295	-0.03355668	0.4160124	0	12.14	4004	-2	0	0	0	0.1372001	0.07339561	3	6	0	100
137461	0	27	119	0.1661341	-0.03466542	0.4149713	0	12.14	4003	0	0	-1	0	0.1372001	0.06901889	3	6	0	100
137564	8	16	-37	0.1659434	-0.02840851	0.4309361	0	12.14	4003	-2	1	0	0	0.1372001	0.06976046	3	6	0	100
137673	-28	16	89	0.1578808	-0.0167629	0.4312977	0	12.14	4003	4	1	0	0	0.1372001	0.07240754	3	6	0	100
137776	16	-1	-132	0.1661643	-0.02486815	0.4399163	0	12.14	4003	2	2	0	0	0.1372001	0.07794073	3	6	0	100
137867	-23	5	52	0.1791665	-0.03633618	0.436922	0	12.14	4003	0	0	0	0	0.1372001	0.07885999	3	6	0	100
137984	9	-7	-3	0.1611016	-0.02350652	0.4379605	0	12.19	4003	0	0	0	0	0.1372001	0.07426666	3	6	0	100
138082	11	-8	1	0.1611917	-0.02005386	0.4421172	0	12.19	4003	0	0	0	0	0.1372001	0.07157829	3	6	0	100
138182	3	-9	-7	0.1711153	-0.01697011	0.4454174	0	12.19	4004	0	0	0	0	0.1372001	0.06631771	3	6	0	100
138280	20	-19	-14	0.1682612	-0.01679785	0.4501862	0	12.19	4003	-2	0	0	0	0.1372001	0.06573091	3	6	0	100
138382	52	2	17	0.1763979	-0.01516985	0.4538519	0	12.19	4002	0	-2	0	0	0.1372001	0.06430466	3	6	0	100
138489	7	-10	-47	0.1790501	-0.008968716	0.4624137	0	12.19	4003	0	-4	0	0	0.1372001	0.06528104	3	6	0	100
138590	-13	-37	-93	0.1460143	-0.01592653	0.4673665	0	12.19	4002	-6	-6	0	0	0.1372001	0.0646578	3	6	0	100
138692	-15	-50	156	0.1255426	-0.02106118	0.4624727	0	12.19	4002	6	-2	-1	0	0.1372001	0.06843401	3	6	0	100
138848	-108	-77	18	0.1342909	-0.004073102	0.4750471	0	12.19	4002	9	-1	-1	0	0.1372001	0.06940676	3	6	0	100
138944	70	-31	31	0.1360794	-0.01170284	0.4773636	0	12.14	4004	-13	-1	-2	0	0.1372001	0.06928021	3	6	0	100
139017	-35	13	76	0.1274066	-0.0110751	0.4710637	0	12.14	4002	-15	10	0	0	0.1372001	0.06901101	3	6	0	100
139094	53	85	-27	0.1284027	-0.005046024	0.4793788	0	12.14	4002	10	-16	0	0	0.1372001	0.06582881	3	6	0	100
139242	6	10	5	0.1168015	-0.005474855	0.4856795	0	12.14	4003	1	-2	0	0	0.1372001	0.06915287	3	6	0	100
139298	43	63	19	0.1120293	0.01179922	0.4941142	0	12.14	4002	-10	-3	-1	0	0.1372001	0.07527807	3	6	0	100
139444	6	-9	-13	0.1050999	0.01524872	0.5013272	0	12.14	4004	-13	5	0	0	0.1372001	0.07863887	3	6	0	100
139527	-65	6	29	0.09489084	0.01596909	0.5027361	0	12.14	4004	1	8	0	0	0.1372001	0.08343983	3	6	0	100
139613	162	-125	55	0.1055768	0.01837594	0.4996602	0	12.14	4004	-2	-25	0	0	0.1372001	0.08922501	3	6	0	100
139715	-53	-36	-216	0.1125115	0.01292335	0.5186222	0	12.14	4002	-3	-17	0	0	0.1372001	0.1022235	3	6	0	100
139816	30	-40	73	0.1124335	-0.001061446	0.5183328	0	12.14	4003	0	17	-2	0	0.1372001	0.111673	3	6	0	100
139919	203	29	-138	0.1008469	-0.008068427	0.5232261	0	12.14	4002	3	17	-2	0	0.1372001	0.1264703	3	6	0	100
140023	-140	-106	-7	0.07671291	-0.008801674	0.5227229	0	12.14	4004	-20	11	-1	0	0.1372001	0.1467741	3	6	0	100
140124	-478	-205	-180	0.002512018	0.02769602	0.5674177	0	12.14	4003	107	-55	2	0	0.1372001	0.158787	3	6	0	100
140232	211	-38	-431	0.1703589	-0.120712	0.570597	0	12.14	4002	-87	50	-7	0	0.1372001	0.1762285	3	6	0	100
140330	-229	-248	542	0.1811029	-0.0653602	0.5443275	0	12.14	4004	11	-41	-2	0	0.1372001	0.1862789	3	6	0	100
140454	56	293	106	0.171622	-0.2296769	0.5799978	0	12.14	4004	-15	6	-5	0	0.1372001	0.1903521	3	6	0	100
140533	7	-155	368	0.1886133	-0.1589278	0.5907789	0	12.14	4002	-2	-41	-6	0	0.1372001	0.1926881	3	6	0	100
140641	171	-95	37	0.2226368	-0.07052801	0.5841093	0	12.14	4004	-9	-6	-7	0	0.1372001	0.1954556	3	6	0	100
140744	-53	-383	-23	0.4555862	-0.03649257	0.5015855	0	12.14	4004	-3	-66	-5	0	0.1372001	0.2004955	3	6	0	100
140876	1311	1092	237	1.317452	1.945946	0.7560433	0	12.08	4004	-71	63	-22	0	0.1372001	0.2145313	3	6	0	100
140961	-1517	1196	1087	1.97002	-2.09936	-0.01391823	0	12.08	4003	93	-219	1	0	0.1372001	0.2239148	3	6	0	100
141046	-1104	-774	261	0.2690066	-2.534725	-0.1908161	0	12.08	4003	-27	-322	6	0	0.1372001	0.2361244	3	6	0	100
141147	263	2934	391	1.133713	-2.646587	-0.6675741	0	12.08	4003	15	-219	18	0	0.1372001	0.2561219	3	6	0	100
141250	-1145	460	-1684	-0.3706296	-7.043411	-0.1011419	0	12.08	4003	149	-166	2	0	0.1372001	0.2824399	3	6	0	100
141386	-932	1990	-974	-0.8771484	-9.600301	1.084105	0	12.08	4003	13	-254	-50	0	0.1372001	0.3225296	3	6	0	100
141450	853	3624	762	-0.2345296	-14.8798	1.284097	0	12.08	4002	-49	1	-14	0	0.1372001	0.3345742	3	6	0	100
141558	-148	442	-135	3.041397	-17.83637	0.9978033	0	12.08	4002	-76	100	-10	0	0.1372001	0.3657022	3	6	0	100
141725	573	-3866	325	2.581742	-13.27581	0.6875219	0	10.6	4004	-76	3	-1	0	0.1372001	0.4041454	3	6	0	100
141808	-595	-1647	336	3.919382	-8.387408	0.3014849	0	10.6	4002	0	-95	4	0	0.1372001	0.4206839	3	6	0	100
141876	-1516	-1736	318	2.445867	-6.786064	0.213478	0	10.6	4003	-58	6	9	0	0.1372001	0.4355052	3	6	0	100
141967	4	-2725	-894	1.719515	-3.718098	0.7069439	0	10.6	4004	14	-205	-18	0	0.1372001	0.4623016	3	6	0	100
142066	184	1875	-885	2.354463	-4.160883	1.257008	0	10.6	4002	-36	172	-43	0	0.1372001	0.4864778	3	6	0	100
142168	-1971	-1891	44	1.558504	-5.832442	1.520202	0	10.6	4004	-60	109	-22	0	0.1372001	0.5000328	3	6	0	100
142272	365	1109	1544	0.2979479	-3.148745	1.166782	0	10.6	4004	-26	215	0	0	0.1372001	0.5177016	3	6	0	100
142380	396	-43	-839	-0.8679688	-3.94672	0.1220113	0	10.6	4003	-96	9	20	0	0.1372001	0.5198221	3	6	0	100
142484	707	-624	-190	-0.1051208	-4.354099	-0.09195439	0	10.6	4002	28	-107	-11	0	0.1372001	0.5151201	3	6	0	100
142586	1762	-297	224	2.466947	-3.777785	0.444772	0	10.6	4003	20	-30	-6	0	0.1372001	0.5117863	3	6	0	100
142689	582	438	332	4.509357	-5.038219	0.2619936	0	11.29	4003	82	-237	14	0	0.1372001	0.5109198	3	6	0	100
142794	2478	-816	-27	3.508295	-4.376908	0.9852485	0	11.29	4004	-21	-89	-7	0	0.1372001	0.5252878	3	6	0	100
142892	558	-612	-199	4.996882	-4.716929	1.179756	0	11.29	4004	43	-205	-20	0	0.1372001	0.5344547	3	6	0	100
142999	1582	2309	902	6.148372	-8.670349	1.588132	0	11.29	4002	-72	-22	-21	0	0.1372001	0.5353068	3	6	0	100
143096	2031	-544	-2028	7.071917	-10.04561	2.080505	0	11.29	4002	-40	-268	-70	0	0.1372001	0.5433262	3	6	0	100
143194	229	2626	16	8.761671	-11.82775	1.914427	0	11.29	4002	104	-24	-39	0	0.1372001	0.5550225	3	6	0	100
143305	-421	-489	-237	7.952056	-15.58305	0.6238516	0	11.29	4003	-52	-74	-2	0	0.1372001	0.5658709	3	6	0	100
143407	-843	-7114	-2078	5.884146	-8.396248	0.7080591	0	11.29	4004	23	-369	-22	0	0.1372001	0.5722623	3	6	0	100
143502	-828	1247	39	4.172528	-6.959312	1.529457	0	11.29	4004	-159	264	-23	0	0.1372001	0.5701384	3	6	0	100
