time(ms)	gyro_x(deg/s)	gyro_y(deg/s)	gyro_z(deg/s)	orientation_roll(deg)	orientation_pitch(deg)	orientation_yaw(deg)	throttle	battery(V)	loop_time(uS)	pid_output_roll	pid_output_pitch	pid_output_yaw	pid_output_throttle	ultrasonic_alt	baro_alt	flight_mode	p_gain_altitude	i_gain_altitude	d_gain_altitude
126	66	-6	2	0.8907451	-0.1432097	0.7768368	0	12.59	4002	0	0	0	0	0.02	0.1761024	1	15	0.01	1700
213	67	-4	0	0.8900881	-0.1419754	0.7831333	0	12.59	4003	0	0	0	0	0.02	0.1720171	1	15	0.01	1700
335	73	3	-9	0.895117	-0.1456587	0.7941998	0	12.59	4002	0	0	0	0	0.02	0.1624347	1	15	0.01	1700
435	71	3	-2	0.8988722	-0.1452933	0.8013529	0	12.59	4004	0	0	0	0	0.02	0.1567568	1	15	0.01	1700
528	74	-3	-5	0.8993216	-0.1430632	0.8080776	0	12.59	4002	0	0	0	0	0.02	0.1567469	1	15	0.01	1700
599	69	-2	-9	0.9037289	-0.1453785	0.8141913	0	12.59	4004	0	0	0	0	0.02	0.158337	1	15	0.01	1700
808	65	-6	0	0.8966677	-0.1411762	0.8244008	0	12.53	4003	0	0	0	0	0.02	0.1685511	1	15	0.01	1700
856	77	-3	-3	0.8970264	-0.14876	0.8291089	0	12.53	4004	0	0	0	0	0.02	0.1717579	1	15	0.01	1700
927	70	-3	-2	0.8963329	-0.1487209	0.8333268	0	12.53	4002	0	0	0	0	0.02	0.1895718	1	15	0.01	1700
1011	64	-1	-5	0.8930029	-0.1501961	0.8382792	0	12.53	4002	0	0	0	0	0.02	0.2022073	1	15	0.01	1700
1134	71	3	-11	0.8969392	-0.1528686	0.8478161	0	12.53	4004	0	0	0	0	0.02	0.2131756	1	15	0.01	1700
1241	70	-1	-6	0.8975775	-0.1484112	0.8549088	0	12.53	4009	0	0	0	0	0.02	0.2232203	1	15	0.01	1700
1309	71	3	-6	0.9008595	-0.1480296	0.8604112	0	12.53	4002	0	0	0	0	0.02	0.2272668	1	15	0.01	1700
1452	74	-2	-7	0.9025911	-0.1497139	0.8691534	0	12.53	4004	0	0	0	0	0.02	0.2329944	1	15	0.01	1700
1511	66	-1	-8	0.9046608	-0.150245	0.8736165	0	12.53	4002	0	0	0	0	0.02	0.2343031	1	15	0.01	1700
1711	78	-5	-6	0.9168595	-0.1493416	0.8913469	0	12.53	4002	0	0	0	0	0.02	0.2496612	1	15	0.01	1700
1745	72	0	-5	0.9225253	-0.1521214	0.8964823	0	12.53	4004	0	0	0	0	0.02	0.2532025	1	15	0.01	1700
1858	70	2	-6	0.9212167	-0.1482435	0.9040027	0	12.53	4003	0	0	0	0	0.02	0.2566582	1	15	0.01	1700
1926	71	-4	-7	0.9187	-0.1533062	0.9109722	0	12.53	4002	0	0	0	0	0.02	0.2617709	1	15	0.01	1700
2077	67	-4	-9	0.9263159	-0.1574592	0.9233824	0	12.53	4002	0	0	0	0	0.02	0.2791376	1	15	0.01	1700
2131	66	-4	-6	0.9235027	-0.1567033	0.9286401	0	12.53	4002	0	0	0	0	0.02	0.2811448	1	15	0.01	1700
2262	82	-1	-10	0.9268271	-0.1624731	0.941969	0	12.53	4004	0	0	0	0	0.02	0.2954598	1	15	0.01	1700
2372	79	-8	-3	0.9347939	-0.1591621	0.9517508	0	12.53	4002	0	0	0	0	0.02	0.3026322	1	15	0.01	1700
2439	76	-3	-2	0.9390935	-0.1558483	0.9593937	0	12.53	4007	0	0	0	0	0.02	0.305957	1	15	0.01	1700
2553	74	-8	-9	0.9357035	-0.1586609	0.9685035	0	12.53	4004	0	0	0	0	0.02	0.3108271	1	15	0.01	1700
2660	78	0	-5	0.9379452	-0.1554758	0.977491	0	12.53	4003	0	0	0	0	0.02	0.3106186	1	15	0.01	1700
2881	83	-2	-2	0.9509394	-0.1522808	0.9938143	0	12.53	4003	0	0	0	0	0.02	0.2989274	1	15	0.01	1700
2997	69	-3	-5	0.9609397	-0.1555916	1.009282	0	12.53	4004	0	0	0	0	0.02	0.2902942	1	15	0.01	1700
3074	80	-5	-7	0.9615084	-0.1579517	1.014968	0	12.53	4002	0	0	0	0	0.02	0.2898507	1	15	0.01	1700
3148	78	-1	-5	0.9619216	-0.158277	1.021632	0	12.53	4002	0	0	0	0	0.02	0.2896977	1	15	0.01	1700
3250	76	0	-11	0.9592354	-0.1604126	1.031232	0	12.53	4004	0	0	0	0	0.02	0.2907621	1	15	0.01	1700
3357	78	0	-8	0.9625866	-0.1551657	1.045415	0	12.53	4003	0	0	0	0	0.02	0.2868299	1	15	0.01	1700
3458	78	0	-8	0.9625866	-0.1551657	1.045415	0	12.53	4003	0	0	0	0	0.02	0.2868299	1	15	0.01	1700
3625	78	0	-8	0.9625866	-0.1551657	1.045415	0	12.53	4003	0	0	0	0	0.02	0.2868299	1	15	0.01	1700
3720	78	0	-8	0.9625866	-0.1551657	1.045415	0	12.53	4003	0	0	0	0	0.02	0.2868299	1	15	0.01	1700
3779	78	0	-8	0.9625866	-0.1551657	1.045415	0	12.53	4003	0	0	0	0	0.02	0.2868299	1	15	0.01	1700
3883	78	0	-8	0.9625866	-0.1551657	1.045415	0	12.53	4003	0	0	0	0	0.02	0.2868299	1	15	0.01	1700
4035	78	0	-8	0.9625866	-0.1551657	1.045415	0	12.53	4003	0	0	0	0	0.02	0.2868299	1	15	0.01	1700
4120	78	0	-8	0.9625866	-0.1551657	1.045415	0	12.53	4003	0	0	0	0	0.02	0.2868299	1	15	0.01	1700
4159	78	0	-8	0.9625866	-0.1551657	1.045415	0	12.53	4003	0	0	0	0	0.02	0.2868299	1	15	0.01	1700
4287	78	0	-8	0.9625866	-0.1551657	1.045415	0	12.53	4003	0	0	0	0	0.02	0.2868299	1	15	0.01	1700
4423	78	0	-8	0.9625866	-0.1551657	1.045415	0	12.53	4003	0	0	0	0	0.02	0.2868299	1	15	0.01	1700
4491	78	0	-8	0.9625866	-0.1551657	1.045415	0	12.53	4003	0	0	0	0	0.02	0.2868299	1	15	0.01	1700
4574	78	0	-8	0.9625866	-0.1551657	1.045415	0	12.53	4003	0	0	0	0	0.02	0.2868299	1	15	0.01	1700
4679	78	0	-8	0.9625866	-0.1551657	1.045415	0	12.53	4003	0	0	0	0	0.02	0.2868299	1	15	0.01	1700
4780	78	0	-8	0.9625866	-0.1551657	1.045415	0	12.53	4003	0	0	0	0	0.02	0.2868299	1	15	0.01	1700
4888	78	0	-8	0.9625866	-0.1551657	1.045415	0	12.53	4003	0	0	0	0	0.02	0.2868299	1	15	0.01	1700
4988	78	0	-8	0.9625866	-0.1551657	1.045415	0	12.53	4003	0	0	0	0	0.02	0.2868299	1	15	0.01	1700
5090	78	0	-8	0.9625866	-0.1551657	1.045415	0	12.53	4003	0	0	0	0	0.02	0.2868299	1	15	0.01	1700
5196	78	0	-8	0.9625866	-0.1551657	1.045415	0	12.53	4003	0	0	0	0	0.02	0.2868299	1	15	0.01	1700
5288	78	0	-8	0.9625866	-0.1551657	1.045415	0	12.53	4003	0	0	0	0	0.02	0.2868299	1	15	0.01	1700
5399	78	0	-8	0.9625866	-0.1551657	1.045415	0	12.53	4003	0	0	0	0	0.02	0.2868299	1	15	0.01	1700
5490	78	0	-8	0.9625866	-0.1551657	1.045415	0	12.53	4003	0	0	0	0	0.02	0.2868299	1	15	0.01	1700
5595	78	0	-8	0.9625866	-0.1551657	1.045415	0	12.53	4003	0	0	0	0	0.02	0.2868299	1	15	0.01	1700
5716	78	0	-8	0.9625866	-0.1551657	1.045415	0	12.53	4003	0	0	0	0	0.02	0.2868299	1	15	0.01	1700
5794	78	0	-8	0.9625866	-0.1551657	1.045415	0	12.53	4003	0	0	0	0	0.02	0.2868299	1	15	0.01	1700
5896	78	0	-8	0.9625866	-0.1551657	1.045415	0	12.53	4003	0	0	0	0	0.02	0.2868299	1	15	0.01	1700
6011	78	0	-8	0.9625866	-0.1551657	1.045415	0	12.53	4003	0	0	0	0	0.02	0.2868299	1	15	0.01	1700
6103	78	0	-8	0.9625866	-0.1551657	1.045415	0	12.53	4003	0	0	0	0	0.02	0.2868299	1	15	0.01	1700
6209	78	0	-8	0.9625866	-0.1551657	1.045415	0	12.53	4003	0	0	0	0	0.02	0.2868299	1	15	0.01	1700
6313	78	0	-8	0.9625866	-0.1551657	1.045415	0	12.53	4003	0	0	0	0	0.02	0.2868299	1	15	0.01	1700
6417	78	0	-8	0.9625866	-0.1551657	1.045415	0	12.53	4003	0	0	0	0	0.02	0.2868299	1	15	0.01	1700
6521	78	0	-8	0.9625866	-0.1551657	1.045415	0	12.53	4003	0	0	0	0	0.02	0.2868299	1	15	0.01	1700
6620	78	0	-8	0.9625866	-0.1551657	1.045415	0	12.53	4003	0	0	0	0	0.02	0.2868299	1	15	0.01	1700
6729	78	0	-8	0.9625866	-0.1551657	1.045415	0	12.53	4003	0	0	0	0	0.02	0.2868299	1	15	0.01	1700
6826	78	0	-8	0.9625866	-0.1551657	1.045415	0	12.53	4003	0	0	0	0	0.02	0.2868299	1	15	0.01	1700
6934	78	0	-8	0.9625866	-0.1551657	1.045415	0	12.53	4003	0	0	0	0	0.02	0.2868299	1	15	0.01	1700
7075	78	0	-8	0.9625866	-0.1551657	1.045415	0	12.53	4003	0	0	0	0	0.02	0.2868299	1	15	0.01	1700
7179	78	0	-8	0.9625866	-0.1551657	1.045415	0	12.53	4003	0	0	0	0	0.02	0.2868299	1	15	0.01	1700
7278	78	0	-8	0.9625866	-0.1551657	1.045415	0	12.59	4003	0	0	0	0	0.02	0.2868299	1	15	0.01	1700
7319	78	0	-8	0.9625866	-0.1551657	1.045415	0	12.59	4003	0	0	0	0	0.02	0.2868299	1	15	0.01	1700
7421	78	0	-8	0.9625866	-0.1551657	1.045415	0	12.59	4003	0	0	0	0	0.02	0.2868299	1	15	0.01	1700
7587	78	0	-8	0.9625866	-0.1551657	1.045415	0	12.59	4003	0	0	0	0	0.02	0.2868299	1	15	0.01	1700
7679	78	0	-8	0.9625866	-0.1551657	1.045415	0	12.59	4003	0	0	0	0	0.02	0.2868299	1	15	0.01	1700
7755	78	0	-8	0.9625866	-0.1551657	1.045415	0	12.59	4003	0	0	0	0	0.02	0.2868299	1	15	0.01	1700
7852	78	0	-8	0.9625866	-0.1551657	1.045415	0	12.59	4003	0	0	0	0	0.02	0.2868299	1	15	0.01	1700
7919	78	0	-8	0.9625866	-0.1551657	1.045415	0	12.59	4003	0	0	0	0	0.02	0.2868299	1	15	0.01	1700
8024	78	0	-8	0.9625866	-0.1551657	1.045415	0	12.59	4003	0	0	0	0	0.02	0.2868299	1	15	0.01	1700
8141	78	0	-8	0.9625866	-0.1551657	1.045415	0	12.59	4003	0	0	0	0	0.02	0.2868299	1	15	0.01	1700
8230	78	0	-8	0.9625866	-0.1551657	1.045415	0	12.53	4003	0	0	0	0	0.02	0.2868299	1	15	0.01	1700
8338	78	0	-8	0.9625866	-0.1551657	1.045415	0	12.53	4003	0	0	0	0	0.02	0.2868299	1	15	0.01	1700
8433	78	0	-8	0.9625866	-0.1551657	1.045415	0	12.53	4003	0	0	0	0	0.02	0.2868299	1	15	0.01	1700
8577	78	0	-8	0.9625866	-0.1551657	1.045415	0	12.53	4003	0	0	0	0	0.02	0.2868299	1	15	0.01	1700
8654	78	0	-8	0.9625866	-0.1551657	1.045415	0	12.53	4003	0	0	0	0	0.02	0.2868299	1	15	0.01	1700
8745	78	0	-8	0.9625866	-0.1551657	1.045415	0	12.53	4003	0	0	0	0	0.02	0.2868299	1	15	0.01	1700
8836	78	0	-8	0.9625866	-0.1551657	1.045415	0	12.53	4003	0	0	0	0	0.02	0.2868299	1	15	0.01	1700
8937	78	0	-8	0.9625866	-0.1551657	1.045415	0	12.53	4003	0	0	0	0	0.02	0.2868299	1	15	0.01	1700
9038	78	0	-8	0.9625866	-0.1551657	1.045415	0	12.53	4003	0	0	0	0	0.02	0.2868299	1	15	0.01	1700
9200	78	0	-8	0.9625866	-0.1551657	1.045415	0	12.59	4003	0	0	0	0	0.02	0.2868299	1	15	0.01	1700
9242	78	0	-8	0.9625866	-0.1551657	1.045415	0	12.59	4003	0	0	0	0	0.02	0.2868299	1	15	0.01	1700
9352	78	0	-8	0.9625866	-0.1551657	1.045415	0	12.59	4003	0	0	0	0	0.02	0.2868299	1	15	0.01	1700
9457	78	0	-8	0.9625866	-0.1551657	1.045415	0	12.59	4003	0	0	0	0	0.02	0.2868299	1	15	0.01	1700
9556	78	0	-8	0.9625866	-0.1551657	1.045415	0	12.59	4003	0	0	0	0	0.02	0.2868299	1	15	0.01	1700
9695	78	0	-8	0.9625866	-0.1551657	1.045415	0	12.59	4003	0	0	0	0	0.02	0.2868299	1	15	0.01	1700
9756	78	0	-8	0.9625866	-0.1551657	1.045415	0	12.59	4003	0	0	0	0	0.02	0.2868299	1	15	0.01	1700
9855	78	0	-8	0.9625866	-0.1551657	1.045415	0	12.59	4003	0	0	0	0	0.02	0.2868299	1	15	0.01	1700
9961	78	0	-8	0.9625866	-0.1551657	1.045415	0	12.59	4003	0	0	0	0	0.02	0.2868299	1	15	0.01	1700
10062	78	0	-8	0.9625866	-0.1551657	1.045415	0	12.59	4003	0	0	0	0	0.02	0.2868299	1	15	0.01	1700
10309	78	0	-8	0.9625866	-0.1551657	1.045415	0	12.59	4003	0	0	0	0	0.02	0.2868299	1	15	0.01	1700
10445	78	0	-8	0.9625866	-0.1551657	1.045415	0	12.59	4003	0	0	0	0	0.02	0.2868299	1	15	0.01	1700
10460	78	0	-8	0.9625866	-0.1551657	1.045415	0	12.59	4003	0	0	0	0	0.02	0.2868299	1	15	0.01	1700
10585	78	0	-8	0.9625866	-0.1551657	1.045415	0	12.59	4003	0	0	0	0	0.02	0.2868299	1	15	0.01	1700
10669	78	0	-8	0.9625866	-0.1551657	1.045415	0	12.59	4003	0	0	0	0	0.02	0.2868299	1	15	0.01	1700
10775	78	0	-8	0.9625866	-0.1551657	1.045415	0	12.59	4003	0	0	0	0	0.02	0.2868299	1	15	0.01	1700
10912	78	0	-8	0.9625866	-0.1551657	1.045415	0	12.59	4003	0	0	0	0	0.02	0.2868299	1	15	0.01	1700
10981	78	0	-8	0.9625866	-0.1551657	1.045415	0	12.53	4003	0	0	0	0	0.02	0.2868299	1	15	0.01	1700
11066	78	0	-8	0.9625866	-0.1551657	1.045415	0	12.53	4003	0	0	0	0	0.02	0.2868299	1	15	0.01	1700
11165	78	0	-8	0.9625866	-0.1551657	1.045415	0	12.53	4003	0	0	0	0	0.02	0.2868299	1	15	0.01	1700
11274	78	0	-8	0.9625866	-0.1551657	1.045415	0	12.53	4003	0	0	0	0	0.02	0.2868299	1	15	0.01	1700
11380	78	0	-8	0.9625866	-0.1551657	1.045415	0	12.53	4003	0	0	0	0	0.02	0.2868299	1	15	0.01	1700
11528	78	0	-8	0.9625866	-0.1551657	1.045415	0	12.53	4003	0	0	0	0	0.02	0.2868299	1	15	0.01	1700
11594	78	0	-8	0.9625866	-0.1551657	1.045415	0	12.53	4003	0	0	0	0	0.02	0.2868299	1	15	0.01	1700
11685	78	0	-8	0.9625866	-0.1551657	1.045415	0	12.53	4003	0	0	0	0	0.02	0.2868299	1	15	0.01	1700
11779	6	-1	0	0.01637357	0.901598	0.6881799	0	12.53	4004	0	0	0	0	0.02	0.0793678	1	15	0.01	1700
11861	12	3	-1	0.02428707	0.7863562	0.6900139	0	12.65	4002	0	0	0	0	0.02	0.03943292	1	15	0.01	1700
11978	18	1	1	0.04136004	0.6908897	0.6905644	0	12.65	4003	0	0	0	0	0.02	0.0009723695	1	15	0.01	1700
12070	9	-1	-1	0.05593998	0.5999407	0.6922765	0	12.65	4002	0	0	0	0	0.02	-0.01765331	1	15	0.01	1700
12173	11	-4	2	0.06107408	0.5222828	0.6955779	0	12.65	4002	0	0	0	0	0.02	-0.03663686	1	15	0.01	1700
12275	17	2	-4	0.06787914	0.4517048	0.6967396	0	12.65	4002	0	0	0	0	0.02	-0.04234324	1	15	0.01	1700
12411	9	-1	3	0.06803118	0.3923972	0.6983904	0	12.65	4003	0	0	0	0	0.02	-0.04816058	1	15	0.01	1700
12533	1	0	-3	0.0698439	0.324961	0.7007137	0	12.65	4003	0	0	0	0	0.02	-0.05182579	1	15	0.01	1700
12612	1	-1	-1	0.07549111	0.2763298	0.7014475	0	12.65	4003	0	0	0	0	0.02	-0.06307489	1	15	0.01	1700
12685	10	-3	3	0.07895101	0.2547888	0.7010196	0	12.65	4003	0	0	0	0	0.02	-0.06694175	1	15	0.01	1700
12788	5	0	-1	0.08554687	0.2191994	0.7029761	0	12.65	4004	0	0	0	0	0.02	-0.06905767	1	15	0.01	1700
12966	12	0	5	0.0955524	0.1677216	0.7048103	0	12.53	4004	0	0	0	0	0.02	-0.06451434	1	15	0.01	1700
13053	6	1	0	0.09793927	0.1436717	0.7067668	0	12.53	4002	0	0	0	0	0.02	-0.06590389	1	15	0.01	1700
13089	4	-3	-3	0.09801524	0.1381931	0.7080505	0	12.53	4002	0	0	0	0	0.02	-0.06531967	1	15	0.01	1700
13187	6	1	-1	0.1056537	0.1215365	0.7073171	0	12.53	4004	0	0	0	0	0.02	-0.0680337	1	15	0.01	1700
13292	12	0	1	0.09755752	0.1044589	0.7078673	0	12.53	4002	0	0	0	0	0.02	-0.07341362	1	15	0.01	1700
13390	8	-2	2	0.1018436	0.08866797	0.7082953	0	12.53	4003	0	0	0	0	0.02	-0.08167993	1	15	0.01	1700
13472	10	-2	-1	0.09870303	0.07341527	0.708968	0	12.53	4002	0	0	0	0	0.02	-0.08412778	1	15	0.01	1700
13574	11	1	0	0.09549916	0.06674244	0.7100685	0	12.53	4004	0	0	0	0	0.02	-0.08558336	1	15	0.01	1700
13743	7	-7	0	0.1078023	0.0414711	0.7137973	0	12.59	4002	0	0	0	0	0.02	-0.08454368	1	15	0.01	1700
13819	10	-2	-7	0.1076629	0.03899243	0.7142861	0	12.59	4004	0	0	0	0	0.02	-0.08380502	1	15	0.01	1700
13942	8	-6	1	0.1128755	0.03675377	0.7155698	0	12.59	4002	0	0	0	0	0.02	-0.0884321	1	15	0.01	1700
13984	10	1	0	0.1145663	0.03161538	0.7158755	0	12.59	4004	0	0	0	0	0.02	-0.09373948	1	15	0.01	1700
14092	9	-1	0	0.1220651	0.02764917	0.71667	0	12.59	4002	0	0	0	0	0.02	-0.1007117	1	15	0.01	1700
14192	15	3	-1	0.1242676	0.01719792	0.7194211	0	12.59	4002	0	0	0	0	0.02	-0.1092458	1	15	0.01	1700
14296	9	-3	1	0.1276094	0.008159566	0.7213165	0	12.59	4003	0	0	0	0	0.02	-0.1324146	1	15	0.01	1700
14402	6	-1	1	0.1277169	0.007010615	0.7224779	0	12.59	4004	0	0	0	0	0.02	-0.1432174	1	15	0.01	1700
14526	5	-1	0	0.13189	-0.0001116228	0.7258402	0	12.59	4002	0	0	0	0	0.02	-0.1658841	1	15	0.01	1700
14613	12	5	2	0.1336747	-0.003346189	0.7283469	0	12.59	4003	0	0	0	0	0.02	-0.1727868	1	15	0.01	1700
14723	10	-1	6	0.1424815	-0.01365922	0.7290191	0	12.59	4004	0	0	0	0	0.02	-0.1994266	1	15	0.01	1700
14826	2	-1	-2	0.1361852	-0.01697488	0.7317095	0	12.59	4003	0	0	0	0	0.02	-0.2038817	3	15	0.01	1700
14918	10	1	-2	0.1408006	-0.02325848	0.7316486	0	12.59	4003	0	0	0	0	0.02	-0.2018149	3	15	0.01	1700
15086	16	0	2	0.1383703	-0.03132093	0.7339107	0	12.59	4003	0	0	0	0	0.02	-0.1824334	3	15	0.01	1700
15138	5	-3	0	0.1383667	-0.03193254	0.7342775	0	12.59	4009	0	0	0	0	0.02	-0.1748754	3	15	0.01	1700
15219	13	0	1	0.1400236	-0.02889672	0.7355615	0	12.59	4004	0	0	0	0	0.02	-0.1719943	3	15	0.01	1700
15318	15	0	1	0.1372309	-0.02688218	0.7345222	0	12.59	4004	0	0	0	0	0.02	-0.1726165	3	15	0.01	1700
15447	6	0	0	0.1342021	-0.02711197	0.7364175	0	12.59	4002	0	0	0	0	0.02	-0.1692857	3	15	0.01	1700
15527	11	3	-1	0.1402022	-0.03184335	0.7359895	0	12.59	4003	0	0	0	0	0.02	-0.1661115	3	15	0.01	1700
15628	11	-1	-1	0.1360984	-0.03222945	0.7389244	0	12.59	4004	0	0	0	0	0.02	-0.1618433	3	15	0.01	1700
15757	6	1	-1	0.1370381	-0.03415363	0.7408196	0	12.59	4003	0	0	0	0	0.02	-0.1606073	3	15	0.01	1700
15834	9	-7	0	0.1371041	-0.03691576	0.7435709	0	12.59	4003	0	0	0	0	0.02	-0.1641615	3	15	0.01	1700
15939	13	1	-5	0.1464333	-0.03295315	0.7446713	0	12.59	4003	0	0	0	0	0.02	-0.1625331	3	15	0.01	1700
16038	14	2	0	0.1459295	-0.02868604	0.7463833	0	12.59	4003	0	0	0	0	0.02	-0.1560457	3	15	0.01	1700
16143	15	-4	-1	0.1540708	-0.02786379	0.748034	0	12.59	4002	0	0	0	0	0.02	-0.1445147	3	15	0.01	1700
16243	12	0	0	0.1550851	-0.02391339	0.7492567	0	12.59	4002	0	0	0	0	0.02	-0.1364464	3	15	0.01	1700
16382	16	6	-1	0.167138	-0.03188502	0.7531696	0	12.59	4003	0	0	0	0	0.02	-0.1264129	3	15	0.01	1700
16457	15	0	-1	0.1687539	-0.03505674	0.7552481	0	12.59	4003	0	0	0	0	0.02	-0.1302148	3	15	0.01	1700
16548	14	-2	0	0.1665598	-0.03341536	0.7564099	0	12.59	4004	0	0	0	0	0.02	-0.1310631	3	15	0.01	1700
16648	12	2	0	0.1724815	-0.02818045	0.7565323	0	12.59	4003	0	0	0	0	0.02	-0.1351297	3	15	0.01	1700
16753	21	1	-1	0.1678695	-0.03225058	0.7587942	0	12.59	4004	0	0	0	0	0.02	-0.1396452	3	15	0.01	1700
16862	9	6	-3	0.1692049	-0.03768756	0.7606896	0	12.59	4002	0	0	0	0	0.02	-0.1414856	3	15	0.01	1700
16965	21	-2	0	0.1797934	-0.03063701	0.7607509	0	12.59	4004	-1	0	0	0	0.02	-0.1394009	3	15	0.01	1700
17060	9	59	69	0.170333	-0.03300896	0.7604434	0	12.59	4004	-3	10	-1	0	0.02	-0.1371639	3	15	0.01	1700
17221	55	26	51	0.1881495	-0.03823279	0.7636155	0	12.59	4003	1	0	0	0	0.02	-0.1414518	3	15	0.01	1700
17286	41	14	14	0.1929457	-0.01864117	0.757221	0	12.59	4003	-2	-3	3	0	0.02	-0.1427813	3	15	0.01	1700
17364	38	53	-12	0.1986356	-0.02873878	0.7599112	0	12.59	4002	-7	7	0	0	0.02	-0.1417902	3	15	0.01	1700
17467	-53	29	89	0.1946329	-0.03273521	0.7622368	0	12.48	4004	2	-7	0	0	0.02	-0.1377938	3	15	0.01	1700
17573	105	-3	-45	0.2170608	-0.02226215	0.7806371	0	12.48	4002	0	0	0	0	0.02	-0.1272036	3	15	0.01	1700
17682	27	4	48	0.2139245	-0.01710099	0.775685	0	12.48	4003	0	0	0	0	0.02	-0.1172142	3	15	0.01	1700
17825	16	10	31	0.2143255	-0.01579116	0.7766628	0	12.48	4002	0	0	0	0	0.02	-0.1010265	3	15	0.01	1700
17894	-5	13	26	0.1999106	-0.01782669	0.7798424	0	12.48	4003	-2	-1	0	0	0.02	-0.09809489	3	15	0.01	1700
18071	-9	23	3	0.2013651	-0.02655495	0.7844226	0	12.48	4002	4	-2	-1	0	0.02	-0.09074944	3	15	0.01	1700
18123	37	-17	14	0.2013651	-0.02655495	0.7844226	0	12.48	4002	0	4	0	0	0.02	-0.09103736	3	15	0.01	1700
18184	8	-35	60	0.21731	-0.02998636	0.786384	0	12.48	4003	-12	-11	0	0	0.02	-0.09429306	3	15	0.01	1700
18264	-9	24	-66	0.2183684	-0.03298014	0.7860736	0	12.48	4002	-26	-4	1	0	0.02	-0.09779439	3	15	0.01	1700
18374	42	9	23	0.1802863	-0.04003356	0.7926711	0	12.19	4003	-11	33	-1	0	0.02	-0.1007865	3	15	0.01	1700
18470	126	185	14	0.1624468	-0.02087247	0.7915717	0	12.19	4002	-5	4	0	0	0.02	-0.1053003	3	15	0.01	1700
18658	-78	-39	-65	0.1789548	-0.04717576	0.7921166	0	12.19	4004	4	1	-1	0	0.02	-0.1007698	3	15	0.01	1700
18697	95	126	58	0.138514	-0.04464269	0.7951146	0	12.19	4002	-17	0	0	0	0.02	-0.09857883	3	15	0.01	1700
18801	71	149	-56	0.1333837	-0.0493311	0.7968336	0	12.19	4002	9	-31	1	0	0.02	-0.09117006	3	15	0.01	1700
18865	82	-44	-14	0.1878501	-0.07762242	0.7966499	0	12.19	4003	-35	13	0	0	0.02	-0.08840853	3	15	0.01	1700
19013	-81	6	-151	0.1721497	-0.07106405	0.8040403	0	12.19	4002	21	13	0	0	0.02	-0.08819104	3	15	0.01	1700
19073	-68	-42	-79	0.1251301	-0.04819216	0.8059379	0	12.19	4004	3	-23	0	0	0.02	-0.08790649	3	15	0.01	1700
19175	-130	-34	-144	0.1063764	-0.06793907	0.8130453	0	12.19	4004	2	27	0	0	0.02	-0.08703841	3	15	0.01	1700
19276	-20	95	-57	0.0805517	-0.02718473	0.8139693	0	12.31	4003	0	-12	0	0	0.02	-0.09352345	3	15	0.01	1700
19378	109	-68	21	0.02785986	-0.01577332	0.7969283	0	12.31	4004	1	6	-1	0	0.02	-0.09539157	3	15	0.01	1700
19500	94	-129	508	-0.02222404	0.04500673	0.8082728	0	12.31	4004	10	-24	-8	0	0.02	-0.09977779	3	15	0.01	1700
19584	-62	96	-697	0.009497507	0.1199477	1.078473	0	12.31	4003	-18	16	0	0	0.02	-0.1028892	3	15	0.01	1700
19689	262	-102	324	0.06625147	0.162606	1.066627	0	12.31	4004	-35	5	-18	0	0.02	-0.09714586	3	15	0.01	1700
19789	-372	-969	197	0.1338371	1.055281	1.071298	0	12.31	4004	-39	-30	-10	0	0.02	-0.07724219	3	15	0.01	1700
19912	130	1371	-371	-0.1002779	-0.7387723	0.7115557	0	12.31	4002	87	-179	4	0	0.02	-0.06113556	3	15	0.01	1700
19996	146	2685	-333	0.06636961	-3.776654	0.4246773	0	12.31	4004	34	-170	-5	0	0.02	-0.03164053	3	15	0.01	1700
20219	577	498	-1468	0.3248737	-9.423619	0.5145435	0	12.08	4003	-60	85	0	0	0.02	0.04079048	3	15	0.01	1700
20364	-169	-3099	13	0.6086563	-8.197736	2.109081	0	12.08	4002	-13	-28	-32	0	0.02	0.0716679	3	15	0.01	1700
20432	-19	-3368	-325	0.1580722	-4.601674	2.138865	0	12.08	4002	28	-40	-31	0	0.02	0.1155648	3	15	0.01	1700
20493	-621	-1728	1274	-0.1644535	-2.670216	1.266934	0	12.08	4003	31	-87	2	0	0.02	0.1234215	3	15	0.01	1700
20672	-14	-1529	271	0.1219289	1.645941	0.6043387	0	12.08	4003	37	-105	0	0	0.02	0.186876	3	15	0.01	1700
20742	-742	-889	408	-0.4358009	2.058993	0.9343041	0	12.08	4002	37	-152	-17	0	0.02	0.2261764	3	15	0.01	1700
20798	542	318	-1126	-0.321812	1.492352	1.30216	0	12.08	4003	-23	-64	-24	0	0.02	0.2344356	3	15	0.01	1700
20961	-814	-1379	451	0.2618893	-3.023936	1.672511	0	12.08	4002	-29	43	-17	0	0.02	0.2950593	3	15	0.01	1700
21007	-1101	-990	1773	-0.8682805	-2.250225	1.060328	0	12.08	4002	-91	366	0	0	0.02	0.3169177	3	15	0.01	1700
21123	-96	-197	-65	-1.215024	-3.532709	1.418611	0	12.08	4002	-26	-77	-1	0	0.02	0.3579713	3	15	0.01	1700
21209	311	-1945	-643	-0.9166483	-3.741617	1.651482	0	11.85	4004	-46	56	-22	0	0.02	0.3758937	3	15	0.01	1700
21366	630	1285	254	0.7502933	-3.922105	1.94348	0	11.85	4003	-92	189	-27	0	0.02	0.4107398	3	15	0.01	1700
21432	215	-453	-146	1.209812	-4.030151	1.742854	0	11.85	4003	45	-127	-24	0	0.02	0.4329721	3	15	0.01	1700
21519	2510	2892	1222	1.603623	-4.71785	1.221696	0	11.85	4003	-161	301	-6	0	0.02	0.4682005	3	15	0.01	1700
21648	115	1096	-703	4.109798	-8.714913	1.603563	0	11.85	4003	-1	-129	-16	0	0.02	0.4869894	3	15	0.01	1700
21739	617	356	-7	3.28934	-10.26382	1.394863	0	11.85	4002	64	-170	-12	0	0.02	0.514636	3	15	0.01	1700
21827	-84	-1346	-529	3.65854	-9.573234	1.668726	0	11.85	4002	-55	-75	-34	0	0.02	0.5394793	3	15	0.01	1700
21930	-406	-2055	-137	2.525272	-6.006889	2.297386	0	11.85	4002	32	16	-34	0	0.02	0.5529281	3	15	0.01	1700
22044	-498	-339	185	1.239413	-6.260299	1.945481	0	11.85	4004	54	-104	-14	0	0.02	0.5671835	3	15	0.01	1700
22139	-1205	448	510	0.4829313	-5.496526	1.159634	0	12.08	4003	4	-35	-6	0	0.02	0.5812197	3	15	0.01	1700
22240	189	2630	206	-0.5154748	-7.440353	1.056015	0	12.08	4002	-115	130	-8	0	0.02	0.5867	3	15	0.01	1700
22344	-1390	350	-291	-0.4425096	-10.47987	1.183186	0	12.08	4002	75	-123	-15	0	0.02	0.5930686	3	15	0.01	1700
22451	1052	2361	-48	0.6623961	-12.43682	1.4252	0	12.08	4002	-71	28	-16	0	0.02	0.5908032	3	15	0.01	1700
22554	-494	-697	-140	1.538643	-12.8644	1.561841	0	12.08	4003	11	-96	-19	0	0.02	0.5826526	3	15	0.01	1700
22659	-592	-1905	46	1.207399	-11.10781	0.947118	0	12.08	4004	165	-193	-7	0	0.02	0.5684514	3	15	0.01	1700
22779	172	460	654	1.452826	-9.137464	0.7099553	0	12.08	4003	-67	126	9	0	0.02	0.5577595	3	15	0.01	1700
22863	-173	-993	-1128	0.4743003	-9.028365	1.23959	0	12.08	4004	-36	41	-16	0	0.02	0.5482482	3	15	0.01	1700
22966	-964	-1325	-256	0.8800511	-8.064028	1.709002	0	12.08	4004	84	-129	-25	0	0.02	0.5355874	3	15	0.01	1700
23101	-461	-840	-552	-0.169974	-6.795979	1.167241	0	11.91	4003	11	-117	1	0	0.02	0.5164164	3	15	0.01	1700
23181	646	2034	984	-0.5329342	-8.255821	0.556721	0	11.91	4003	0	170	13	0	0.02	0.5044566	3	15	0.01	1700
23270	-363	-1100	-640	-0.8737898	-8.252482	0.346547	0	11.91	4003	-39	-53	2	0	0.02	0.4921222	3	15	0.01	1700
23393	637	-1460	-1015	-1.094242	-8.683552	0.3782334	0	11.91	4002	-26	-208	10	0	0.02	0.4655936	3	15	0.01	1700
23466	-231	200	-455	-1.407288	-8.149739	0.1590872	0	11.91	4004	-40	-28	20	0	0.02	0.450045	3	15	0.01	1700
23578	410	13	730	0.08370427	-8.260427	0.3066404	0	11.91	4004	1	-230	10	0	0.02	0.4330332	3	15	0.01	1700
23728	-181	-1972	-291	-0.1784875	-3.530966	0.6258921	0	11.91	4004	-38	-25	1	0	0.02	0.4156915	3	15	0.01	1700
23821	-621	-655	-633	-0.3016941	-2.735039	0.7077708	0	11.91	4004	53	-64	-15	0	0.02	0.4018002	3	15	0.01	1700
23897	-432	-1840	-299	-0.6647171	-3.454495	0.8391239	0	11.91	4003	103	-308	-4	0	0.02	0.3934019	3	15	0.01	1700
23975	-259	27	104	-1.277098	-3.467606	1.193671	0	11	4004	10	71	4	0	0.02	0.3864763	3	15	0.01	1700
24070	613	1043	1798	-2.343771	-3.86155	0.8069569	0	11	4002	22	152	20	0	0.02	0.3846304	3	15	0.01	1700
24172	66	666	-874	-1.619325	-5.765757	0.1544901	0	11	4003	-9	-13	13	0	0.02	0.3825503	3	15	0.01	1700
24284	-348	-187	-1034	-1.212141	-8.324654	0.9698453	0	11	4003	-72	144	-1	0	0.02	0.3829987	3	15	0.01	1700
24465	-143	218	4	-0.4437852	-5.373745	0.881166	0	11	4002	-50	18	11	0	0.02	0.3899096	3	15	0.01	1700
24514	220	1706	-26	-0.4980796	-5.97878	0.9023352	0	11	4002	-93	-79	-11	0	0.02	0.3985751	3	15	0.01	1700
24573	325	-1112	-344	-0.11718	-6.447868	0.9078902	0	11	4004	85	-154	-3	0	0.02	0.406526	3	15	0.01	1700
24671	-479	2454	1012	-0.6336715	-7.03145	0.4142747	0	11	4004	-40	151	24	0	0.02	0.4120151	3	15	0.01	1700
24772	-15	654	-1436	-1.184321	-9.248734	0.4990185	0	11	4003	-71	77	-4	0	0.02	0.4193257	3	15	0.01	1700
24934	-311	891	-41	-1.338772	-12.2696	2.439781	0	12.25	4004	-93	126	-33	0	0.02	0.4490369	3	15	0.01	1700
24991	293	26	265	-1.377703	-11.86576	2.486757	0	12.25	4004	-113	110	-43	0	0.02	0.4677194	3	15	0.01	1700
25154	-318	-650	177	-1.295874	-10.93511	0.7831902	0	12.25	4004	62	-114	4	0	0.02	0.5113881	3	15	0.01	1700
25195	248	-29	123	-0.9473912	-11.28257	0.5531408	0	12.25	4002	25	-142	9	0	0.02	0.5305719	3	15	0.01	1700
25348	-565	-1314	-315	-2.235971	-9.607615	1.051516	0	12.25	4002	-50	15	-6	0	0.02	0.567922	3	15	0.01	1700
25454	-1079	165	-1358	-3.493314	-8.816943	1.700961	0	12.25	4004	20	22	-25	0	0.02	0.5855516	3	15	0.01	1700
25532	-2665	417	-353	-4.682385	-9.466328	1.856059	0	12.25	4002	79	-25	-34	0	0.02	0.5984865	3	15	0.01	1700
25582	-2239	-1188	462	-6.713954	-8.937033	1.759539	0	12.25	4002	-73	20	-28	0	0.02	0.6078063	3	15	0.01	1700
25684	1958	-1113	-622	-6.484766	-5.985749	1.647793	0	12.25	4002	-127	178	-8	0	0.02	0.6173227	3	15	0.01	1700
25791	547	549	212	-3.742499	-7.933464	1.127626	0	12.25	4002	-50	157	-5	0	0.02	0.6160141	3	15	0.01	1700
25929	-45	-1296	215	-3.460619	-4.734247	1.415495	0	11.57	4003	9	-143	-10	0	0.02	0.6103532	3	15	0.01	1700
26051	3933	-1758	-364	-1.185899	-0.5814094	1.514084	0	11.57	4004	-55	-39	-10	0	0.02	0.6052402	3	15	0.01	1700
26133	2756	1317	827	2.354879	-1.409099	1.444822	0	11.57	4003	-128	116	-6	0	0.02	0.601704	3	15	0.01	1700
26182	352	1472	216	3.465305	-2.343033	1.450007	0	11.57	4004	71	155	-16	0	0.02	0.5998488	3	15	0.01	1700
26281	-780	-625	572	1.307232	-3.815555	0.789537	0	11.57	4002	-114	131	5	0	0.02	0.6007626	3	15	0.01	1700
26372	503	-865	685	0.8280219	-2.183601	1.100471	0	11.57	4002	71	-123	-22	0	0.02	0.6013603	3	15	0.01	1700
26486	-80	2619	1052	-1.036725	-5.326991	0.8852106	0	11.57	4003	0	-25	4	0	0.02	0.59732	3	15	0.01	1700
26565	-492	343	-960	-1.624358	-6.848247	0.9739787	0	11.57	4004	67	-64	-15	0	0.02	0.5925049	3	15	0.01	1700
26731	-1148	957	-214	-1.575966	-9.938696	1.398237	0	12.19	4003	8	-60	-19	0	0.02	0.5853657	3	15	0.01	1700
26764	641	-873	-377	-1.512432	-9.884658	1.393275	0	12.19	4004	98	-147	-20	0	0.02	0.583952	3	15	0.01	1700
27016	-34	-322	0	-0.04307834	-4.360576	1.325373	0	12.19	4003	-12	110	-11	0	0.02	0.5724875	3	15	0.01	1700
27112	-428	-411	914	-0.9599953	-3.305676	0.7389374	0	12.19	4004	-25	58	10	0	0.02	0.5616079	3	15	0.01	1700
27177	864	640	94	-0.7709342	-3.425412	0.4962501	0	12.19	4004	-127	111	2	0	0.02	0.5538093	3	15	0.01	1700
27278	185	-803	-258	0.1302425	-4.40723	0.8477239	0	12.19	4004	110	-160	-8	0	0.02	0.5398543	3	15	0.01	1700
27435	-178	1270	668	-0.1108237	-4.233011	1.113698	0	12.19	4004	-88	63	1	0	0.02	0.5117128	3	15	0.01	1700
27505	251	2874	189	-0.6694496	-6.294224	0.818138	0	12.19	4004	-64	163	1	0	0.02	0.5067556	3	15	0.01	1700
27612	1184	1338	-345	1.070854	-11.32927	1.048996	0	12.19	4002	76	-180	-6	0	0.02	0.4996427	3	15	0.01	1700
27674	-156	654	-516	1.844558	-12.67894	1.531841	0	11.51	4002	-91	173	-17	0	0.02	0.4916869	3	15	0.01	1700
27775	-1370	-1217	-479	2.08597	-12.77597	1.613009	0	11.51	4004	22	-78	-25	0	0.02	0.4813291	3	15	0.01	1700
27881	406	2187	806	0.9888948	-10.01691	0.8214247	0	11.51	4002	32	-6	-12	0	0.02	0.478438	3	15	0.01	1700
27981	201	1219	420	0.1042332	-11.74455	0.4173508	0	11.51	4002	-20	-98	4	0	0.02	0.474254	3	15	0.01	1700
28085	-1406	-647	823	-0.3506543	-10.33257	0.5694955	0	11.51	4004	-3	-86	5	0	0.02	0.4679663	3	15	0.01	1700
28224	-714	619	-128	-3.982251	-8.18972	0.7274477	0	11.51	4004	-112	189	8	0	0.02	0.4574788	3	15	0.01	1700
28288	-872	-1640	-804	-4.875034	-8.224137	1.025731	0	11.51	4004	126	-153	-15	0	0.02	0.4480619	3	15	0.01	1700
28486	648	1332	-579	-2.788309	-9.548142	2.102318	0	11.51	4003	64	-114	-29	0	0.02	0.4271787	3	15	0.01	1700
28537	1200	355	594	-1.438459	-9.72722	1.906311	0	11.51	4002	161	-277	-28	0	0.02	0.4129401	3	15	0.01	1700
28695	-548	34	-268	0.4039526	-13.44797	1.80489	0	11.85	4002	30	-43	-21	0	0.02	0.3933965	3	15	0.01	1700
28836	-1684	973	576	0.9741005	-11.96024	1.855936	0	11.85	4004	-121	-25	-15	0	0.02	0.368954	3	15	0.01	1700
28890	330	2612	1114	1.102738	-13.29499	1.500645	0	11.85	4003	-59	148	-2	0	0.02	0.3650091	3	15	0.01	1700
28995	404	-31	1342	1.716965	-14.13426	1.160326	0	11.85	4003	-236	245	-9	0	0.02	0.3511017	3	15	0.01	1700
29091	-180	-401	223	1.229479	-12.16746	1.564282	0	11.85	4002	-83	-31	-15	0	0.02	0.3417888	3	15	0.01	1700
29205	-47	190	58	0.6756434	-10.73341	1.571256	0	11.85	4003	-14	-2	-23	0	0.02	0.3242036	3	15	0.01	1700
29306	-440	1768	-39	0.261618	-10.7538	0.926838	0	11.85	4003	56	-69	-3	0	0.02	0.3114077	3	15	0.01	1700
29399	979	920	-335	0.05929361	-12.08349	0.4126399	0	11.85	4002	73	87	6	0	0.02	0.3046466	3	15	0.01	1700
29562	73	-815	-937	1.19525	-13.87117	1.713227	0	11.51	4004	8	21	-31	0	0.02	0.3248036	3	15	0.01	1700
29744	1060	-830	-194	-0.5703561	-9.971047	1.10849	0	11.51	4003	-54	-147	-4	0	0.02	0.3502944	3	15	0.01	1700
29903	118	-1283	-949	-1.657273	-9.848044	0.6955009	0	11.51	4002	-22	-37	-1	0	0.02	0.4002263	3	15	0.01	1700
29936	854	-794	-180	-1.346294	-9.000054	0.8636913	0	11.51	4002	20	-149	0	0	0.02	0.4224916	3	15	0.01	1700
30059	-131	-757	70	-0.3113785	-7.822029	1.042742	0	11.51	4004	36	-55	-13	0	0.02	0.4578479	3	15	0.01	1700
30188	332	-1307	504	-0.6757379	-4.501636	1.135245	0	11.51	4004	22	32	0	0	0.02	0.480219	3	15	0.01	1700
30223	244	258	-472	-0.4141002	-4.14011	0.9077713	0	11.51	4004	-24	-64	-8	0	0.02	0.4876008	3	15	0.01	1700
30291	217	1165	-217	-0.007860802	-6.548922	0.5969784	0	11.51	4004	46	-124	0	0	0.02	0.4991462	3	15	0.01	1700
30414	-958	-1271	-669	-0.9537364	-8.687099	0.9941357	0	11.57	4002	58	-161	-13	0	0.02	0.5115479	3	15	0.01	1700
30588	-860	1339	1185	-1.675346	-8.196026	0.9368547	0	11.57	4002	-92	205	5	11	0.2600689	0.5223102	4	15	0.01	1700
30623	-817	317	-856	-2.113137	-8.618712	0.8972939	0	11.57	4003	-14	-116	1	8	0.3534946	0.5232506	4	15	0.01	1700
30696	-538	-584	-670	-1.673024	-7.675358	1.110008	0	11.57	4003	-34	107	-14	6	0.6246044	0.5294895	4	15	0.01	1700
30801	776	40	-135	-1.38702	-6.763729	1.748075	0	11.57	4004	-137	277	-35	4	0.7447137	0.5382767	4	15	0.01	1700
30908	93	-408	-222	-1.333093	-6.397221	2.929121	0	11.57	4004	28	154	-57	3	0.8069904	0.5465175	4	15	0.01	1700
31013	-654	-2551	1270	-1.336972	-5.643712	1.727402	0	11.57	4003	-43	-103	-3	3	0.8515325	0.5562378	4	15	0.01	1700
