time(ms)	gyro_x(deg/s)	gyro_y(deg/s)	gyro_z(deg/s)	orientation_roll(deg)	orientation_pitch(deg)	orientation_yaw(deg)	throttle	battery(V)	loop_time(uS)	pid_output_roll	pid_output_pitch	pid_output_yaw	pid_output_throttle	ultrasonic_alt	baro_alt	flight_mode	p_gain_altitude	i_gain_altitude	d_gain_altitude
62387	20	2	-3	0.2209109	-0.026064	0.9442235	0	12.19	4003	0	0	0	0	1.17992	0.06753762	1	15	0.01	1700
62495	13	0	-5	0.2239642	-0.02676024	0.9530885	0	12.19	4003	0	0	0	0	1.17992	0.06539659	1	15	0.01	1700
62606	23	-5	0	0.2309619	-0.02958859	0.9558401	0	12.19	4004	0	0	0	0	1.17992	0.05454528	1	15	0.01	1700
62805	10	-1	-1	0.229266	-0.02857784	0.9631156	0	12.19	4002	0	0	0	0	1.17992	0.05100178	1	15	0.01	1700
62940	23	-2	-6	0.2258088	-0.02884955	0.967701	0	12.19	4003	0	0	0	0	1.17992	0.05955917	1	15	0.01	1700
63030	24	-3	0	0.2333199	-0.02889296	0.9771159	0	12.19	4003	0	0	0	0	1.17992	0.06867561	1	15	0.01	1700
63108	26	1	-2	0.2312815	-0.0343048	0.9790112	0	12.19	4003	0	0	0	0	1.17992	0.07600362	1	15	0.01	1700
63216	18	-1	-4	0.2371811	-0.02888946	0.9831686	0	12.19	4002	0	0	0	0	1.17992	0.08049309	1	15	0.01	1700
63330	19	5	-4	0.2407282	-0.02415016	0.988793	0	12.19	4003	0	0	0	0	1.17992	0.08671661	1	15	0.01	1700
63444	28	-6	-3	0.2464063	-0.01728684	0.9960071	0	12.19	4003	0	0	0	0	1.17992	0.09734572	1	15	0.01	1700
63532	13	-5	0	0.244969	-0.01648209	0.9999815	0	12.19	4002	0	0	0	0	1.17992	0.102293	1	15	0.01	1700
63629	22	-3	-3	0.2417644	-0.01602265	1.006095	0	12.25	4004	0	0	0	0	1.17992	0.1056142	1	15	0.01	1700
63723	27	-5	-5	0.2395345	-0.01654728	1.011231	0	12.25	4003	0	0	0	0	1.17992	0.1100609	1	15	0.01	1700
63831	18	-2	-3	0.2444355	-0.02223958	1.014044	0	12.25	4004	0	0	0	0	1.17992	0.1117289	1	15	0.01	1700
63927	15	0	-2	0.2366227	-0.0250769	1.020035	0	12.25	4004	0	0	0	0	1.17992	0.1178749	1	15	0.01	1700
64114	14	-5	1	0.2521053	-0.01553304	1.027189	0	12.25	4003	0	0	0	0	1.17992	0.1186141	1	15	0.01	1700
64228	30	0	-7	0.2496265	-0.01481436	1.03049	0	12.25	4003	0	0	0	0	1.17992	0.1111094	1	15	0.01	1700
64265	18	0	-1	0.2549574	-0.01454771	1.035015	0	12.25	4003	0	0	0	0	1.17992	0.1090033	1	15	0.01	1700
64395	23	-1	-3	0.2615539	-0.02107982	1.039844	0	12.25	4004	0	0	0	0	1.17992	0.1003805	1	15	0.01	1700
64495	26	-6	0	0.2574287	-0.02273325	1.045347	0	12.25	4004	0	0	0	0	1.17992	0.09175038	1	15	0.01	1700
64527	25	-2	-2	0.2605806	-0.0163832	1.049749	0	12.19	4004	0	0	0	0	1.17992	0.08896451	1	15	0.01	1700
64665	24	-1	-4	0.2642254	-0.0224789	1.053417	0	12.19	4002	0	0	0	0	1.17992	0.07137894	1	15	0.01	1700
64778	23	-4	-1	0.2699774	-0.0240062	1.058492	0	12.19	4003	0	0	0	0	1.17992	0.05515276	1	15	0.01	1700
64858	26	-5	-9	0.2699429	-0.02065128	1.062404	0	12.19	4003	0	0	0	0	1.17992	0.05324616	1	15	0.01	1700
64929	16	3	-2	0.2757081	-0.02388591	1.064055	0	12.19	4003	0	0	0	0	1.17992	0.05245772	1	15	0.01	1700
65063	25	-3	-3	0.2788177	-0.02551513	1.070659	0	12.19	4003	0	0	0	0	1.17992	0.04387678	1	15	0.01	1700
65129	25	-4	-5	0.2821229	-0.02629251	1.071576	0	12.19	4002	0	0	0	0	1.17992	0.04029664	1	15	0.01	1700
65301	27	4	-2	0.278812	-0.02071776	1.076283	0	12.19	4003	0	0	0	0	1.17992	0.04433174	1	15	0.01	1700
65364	24	-1	-3	0.278295	-0.0238774	1.078361	0	12.19	4003	0	0	0	0	1.17992	0.0438216	1	15	0.01	1700
65445	25	-5	-3	0.2823492	-0.0267056	1.083436	0	12.19	4004	0	0	0	0	1.17992	0.04215411	1	15	0.01	1700
65548	28	0	0	0.28356	-0.02209944	1.086615	0	12.19	4002	0	0	0	0	1.17992	0.02966974	1	15	0.01	1700
65660	16	-6	-8	0.2912546	-0.02047838	1.090589	0	12.19	4004	0	0	0	0	1.17992	0.02363274	1	15	0.01	1700
65763	26	-3	-3	0.2884168	-0.02374979	1.095663	0	12.19	4003	0	0	0	0	1.17992	0.02269355	1	15	0.01	1700
65860	26	0	-4	0.2883596	-0.02604948	1.101104	0	12.19	4003	0	0	0	0	1.17992	0.01935466	1	15	0.01	1700
65945	24	2	-1	0.2896119	-0.02517832	1.102816	0	12.19	4003	0	0	0	0	1.17992	0.01547573	1	15	0.01	1700
66043	29	4	-2	0.2857358	-0.02609855	1.107034	0	12.19	4003	0	0	0	0	1.17992	0.0006499922	1	15	0.01	1700
66146	24	-1	-5	0.293174	-0.02592432	1.111008	0	12.19	4003	0	0	0	0	1.17992	-0.01266839	1	15	0.01	1700
66246	17	-1	-2	0.2952283	-0.02718643	1.115044	0	12.19	4002	0	0	0	0	1.17992	-0.01945807	1	15	0.01	1700
66403	29	-2	-2	0.3083687	-0.02507374	1.121586	0	12.19	4003	0	0	0	0	1.17992	-0.02981651	1	15	0.01	1700
66482	23	1	-3	0.3017783	-0.02600628	1.12501	0	12.19	4004	0	0	0	0	1.17992	-0.02912675	1	15	0.01	1700
66589	30	1	-1	0.3074629	-0.02958119	1.129656	0	12.19	4003	0	0	0	0	1.17992	-0.02562433	1	15	0.01	1700
66655	18	1	-5	0.3041265	-0.02708955	1.133018	0	12.19	4004	0	0	0	0	1.17992	-0.02348376	1	15	0.01	1700
66812	30	0	0	0.3079271	-0.03644258	1.13956	0	12.19	4003	0	0	0	0	1.17992	-0.02395704	1	15	0.01	1700
66873	36	0	-7	0.3056482	-0.04145937	1.143167	0	12.19	4003	0	0	0	0	1.17992	-0.02153978	1	15	0.01	1700
66966	32	-3	-1	0.3150561	-0.03812859	1.148792	0	12.19	4004	0	0	0	0	1.17992	-0.02081066	1	15	0.01	1700
67069	26	0	-5	0.3188267	-0.03658421	1.152399	0	12.19	4003	0	0	0	0	1.17992	-0.028748	1	15	0.01	1700
67169	29	-4	-3	0.3253924	-0.03715178	1.156129	0	12.19	4003	0	0	0	0	1.17992	-0.03479391	1	15	0.01	1700
67269	30	-1	-5	0.3354135	-0.03118362	1.162181	0	12.19	4003	0	0	0	0	1.17992	-0.04058052	1	15	0.01	1700
67377	30	0	-5	0.339878	-0.0302617	1.1675	0	12.19	4003	0	0	0	0	1.17992	-0.05015377	1	15	0.01	1700
67481	33	2	-2	0.3438111	-0.03457096	1.173125	0	12.19	4002	0	0	0	0	1.17992	-0.05327872	1	15	0.01	1700
67578	27	-5	-5	0.3562548	-0.03051454	1.179422	0	12.19	4004	0	0	0	0	1.17992	-0.05366252	1	15	0.01	1700
67684	31	-2	-7	0.3668817	-0.03330248	1.186697	0	12.19	4002	0	0	0	0	1.17992	-0.05110284	1	15	0.01	1700
67785	36	5	-4	0.3722357	-0.03668926	1.194951	0	12.19	4003	0	0	0	0	1.17992	-0.04784625	1	15	0.01	1700
67889	20	1	-7	0.3776807	-0.03811114	1.201004	0	12.19	4003	0	0	0	0	1.17992	-0.039939	1	15	0.01	1700
67990	33	-1	-6	0.3773784	-0.04036029	1.207851	0	12.19	4003	0	0	0	0	1.17992	-0.03127745	1	15	0.01	1700
68089	29	-4	-1	0.3823963	-0.03823545	1.215311	0	12.19	4004	0	0	0	0	1.17992	-0.02204096	1	15	0.01	1700
68198	39	-4	-7	0.3827224	-0.0353336	1.220079	0	12.19	4003	0	0	0	0	1.17992	-0.0199987	1	15	0.01	1700
68297	29	-3	1	0.3784953	-0.03678349	1.225215	0	12.31	4003	0	0	0	0	1.17992	-0.02106434	1	15	0.01	1700
68454	33	-3	-3	0.3814468	-0.03371223	1.233163	0	12.31	4003	0	0	0	0	1.17992	-0.02770819	1	15	0.01	1700
68500	31	-1	1	0.3822295	-0.03334393	1.237075	0	12.31	4002	0	0	0	0	1.17992	-0.02917351	1	15	0.01	1700
68606	32	6	-1	0.3890975	-0.0262526	1.241416	0	12.31	4003	0	0	0	0	1.17992	-0.03437627	1	15	0.01	1700
68707	35	2	-5	0.3983974	-0.03185108	1.246124	0	12.31	4003	0	0	0	0	1.17992	-0.03952474	1	15	0.01	1700
68812	30	-3	-8	0.4004155	-0.02870218	1.250525	0	12.31	4002	0	0	0	0	1.17992	-0.0391389	1	15	0.01	1700
68918	31	-3	-5	0.4084856	-0.02218858	1.256639	0	12.31	4002	0	0	0	0	1.17992	-0.03944094	1	15	0.01	1700
69046	33	1	-7	0.4171839	-0.02421344	1.26257	0	12.31	4003	0	0	0	0	1.17992	-0.03400698	1	15	0.01	1700
69138	24	0	-7	0.4095728	-0.0224117	1.268378	0	12.31	4003	0	0	0	0	1.17992	-0.02045762	1	15	0.01	1700
69223	30	0	-6	0.4065446	-0.01974718	1.275838	0	12.31	4003	0	0	0	0	1.17992	-0.01387511	1	15	0.01	1700
69327	29	-4	-7	0.4006586	-0.01951574	1.282441	0	12.31	4003	0	0	0	0	1.17992	-0.007012529	1	15	0.01	1700
69432	37	-2	-3	0.4027427	-0.02568365	1.288004	0	12.31	4003	0	0	0	0	1.17992	-0.006459466	1	15	0.01	1700
69543	41	4	-1	0.409668	-0.02250911	1.290511	0	12.31	4003	0	0	0	0	1.17992	-0.002703975	1	15	0.01	1700
69633	40	0	-3	0.4125682	-0.01844189	1.296869	0	12.31	4003	0	0	0	0	1.17992	0.003258407	1	15	0.01	1700
69734	37	-6	-6	0.4169241	-0.02202883	1.305062	0	12.31	4002	0	0	0	0	1.17992	0.006939786	1	15	0.01	1700
69845	34	-5	-7	0.4254355	-0.01910342	1.310809	0	12.31	4004	0	0	0	0	1.17992	0.01196114	1	15	0.01	1700
69988	38	2	0	0.4324379	-0.02534858	1.317227	0	12.31	4003	0	0	0	0	1.17992	0.01300134	1	15	0.01	1700
70088	27	-1	-1	0.4373048	-0.02710654	1.321079	0	12.31	4004	0	0	0	0	1.17992	0.0110646	1	15	0.01	1700
70193	36	-4	-3	0.4381514	-0.02480589	1.327071	0	12.25	4004	0	0	0	0	1.17992	0.01156248	1	15	0.01	1700
70324	32	0	-5	0.4412764	-0.02901217	1.336547	0	12.25	4002	0	0	0	0	1.17992	0.02144286	1	15	0.01	1700
70447	40	-1	-5	0.4414959	-0.02334521	1.342294	0	12.25	4002	0	0	0	0	1.17992	0.0337175	1	15	0.01	1700
70557	28	-2	-4	0.4479018	-0.03180104	1.349691	0	12.25	4004	0	0	0	0	1.17992	0.04126976	1	15	0.01	1700
70647	39	-1	-4	0.4405567	-0.0305816	1.353053	0	12.25	4003	0	0	0	0	1.17992	0.04345749	1	15	0.01	1700
70773	45	-4	-2	0.4418659	-0.02697747	1.360512	0	12.25	4002	0	0	0	0	1.17992	0.04627039	1	15	0.01	1700
70931	40	2	-8	0.444895	-0.03010133	1.371395	0	12.25	4002	0	0	0	0	1.17992	0.04508946	1	15	0.01	1700
71121	42	-4	-7	0.4585983	-0.03279452	1.383561	0	12.19	4003	0	0	0	0	1.17992	0.04838581	1	15	0.01	1700
71222	41	-3	-4	0.4521729	-0.03200725	1.393342	0	12.19	4004	0	0	0	0	1.17992	0.04743053	1	15	0.01	1700
71327	43	0	-2	0.4471958	-0.03544229	1.401351	0	12.19	4004	0	0	0	0	1.17992	0.05109718	1	15	0.01	1700
71514	35	-3	-4	0.4567936	-0.03868432	1.415352	0	12.19	4003	0	0	0	0	1.17992	0.07192569	1	15	0.01	1700
71548	42	0	-3	0.4571318	-0.04106307	1.419448	0	12.19	4003	0	0	0	0	1.17992	0.07450424	1	15	0.01	1700
71700	33	0	-2	0.4644174	-0.04481388	1.429596	0	12.19	4003	0	0	0	0	1.17992	0.08885457	1	15	0.01	1700
71753	36	-3	-6	0.4625863	-0.04200586	1.436138	0	12.19	4004	0	0	0	0	1.17992	0.09518837	1	15	0.01	1700
71824	38	0	-11	0.4688622	-0.03547945	1.442374	0	12.19	4002	0	0	0	0	1.17992	0.1024724	1	15	0.01	1700
71936	28	-2	-5	0.4764735	-0.03828018	1.450873	0	12.19	4003	0	0	0	0	1.17992	0.1103462	1	15	0.01	1700
72018	33	-5	-4	0.4762373	-0.03793939	1.456742	0	12.19	4002	0	0	0	0	1.17992	0.1149492	1	15	0.01	1700
72121	42	1	-7	0.4826675	-0.03829649	1.465119	0	12.19	4004	0	0	0	0	1.17992	0.1207321	1	15	0.01	1700
72262	44	4	-4	0.4834732	-0.04267886	1.47698	0	12.19	4003	0	0	0	0	1.17992	0.120861	1	15	0.01	1700
72329	42	-2	-3	0.4900617	-0.0451833	1.479731	0	12.19	4003	0	0	0	0	1.17992	0.121218	1	15	0.01	1700
72430	36	6	-7	0.4963822	-0.04932288	1.492018	0	12.19	4004	0	0	0	0	1.17992	0.121275	1	15	0.01	1700
72533	41	-3	-4	0.4983266	-0.04842848	1.499844	0	12.19	4004	0	0	0	0	1.17992	0.1214456	1	15	0.01	1700
72709	40	-2	-9	0.4992086	-0.04176034	1.513906	0	12.19	4003	0	0	0	0	1.17992	0.135518	1	15	0.01	1700
72756	41	-5	-3	0.4979959	-0.04373164	1.518553	0	12.19	4002	0	0	0	0	1.17992	0.1416654	1	15	0.01	1700
72827	48	-3	3	0.4969192	-0.04172983	1.522222	0	12.19	4003	0	0	0	0	1.17992	0.1467833	1	15	0.01	1700
72922	45	-5	-4	0.4977317	-0.04471513	1.52968	0	12.25	4002	0	0	0	0	1.17992	0.1550346	1	15	0.01	1700
73016	42	0	-2	0.501168	-0.04299265	1.536955	0	12.25	4003	0	0	0	0	1.17992	0.1508991	1	15	0.01	1700
73125	37	1	-3	0.5040315	-0.04684558	1.544964	0	12.25	4003	0	0	0	0	1.17992	0.1487023	1	15	0.01	1700
73221	51	3	-3	0.5067896	-0.04563202	1.553951	0	12.25	4003	0	0	0	0	1.17992	0.1485257	1	15	0.01	1700
73325	36	-5	-9	0.5075763	-0.04922478	1.558781	0	12.25	4003	0	0	0	0	1.17992	0.1491134	1	15	0.01	1700
73483	43	0	-1	0.5118813	-0.05244486	1.570458	0	12.25	4004	0	0	0	0	1.17992	0.142991	1	15	0.01	1700
73581	45	0	-3	0.5264977	-0.05167422	1.579384	0	12.25	4004	0	0	0	0	1.17992	0.1376517	1	15	0.01	1700
73671	40	0	-3	0.5263388	-0.04996945	1.586292	0	12.25	4004	0	0	0	0	1.17992	0.1377935	1	15	0.01	1700
73737	48	-4	-9	0.5337015	-0.05319362	1.593995	0	12.25	4002	0	0	0	0	1.17992	0.1401788	1	15	0.01	1700
73836	35	0	-8	0.5346074	-0.04920077	1.598825	0	12.14	4004	0	0	0	0	1.17992	0.1485407	1	15	0.01	1700
73937	50	-1	-6	0.5357531	-0.0507727	1.604878	0	12.14	4003	0	0	0	0	1.17992	0.1562948	1	15	0.01	1700
74039	39	-1	0	0.5440732	-0.05306898	1.614538	0	12.14	4002	0	0	0	0	1.17992	0.160121	1	15	0.01	1700
74215	37	-3	-1	0.5452199	-0.04895835	1.628294	0	12.14	4003	0	0	0	0	1.17992	0.1693924	1	15	0.01	1700
74373	43	2	-5	0.5554749	-0.04987784	1.63881	0	12.14	4003	0	0	0	0	1.17992	0.1767927	1	15	0.01	1700
74490	41	0	-6	0.5577904	-0.05019644	1.649204	0	12.14	4004	0	0	0	0	1.17992	0.1798354	1	15	0.01	1700
74537	50	-2	-7	0.5589725	-0.05322133	1.650855	0	12.14	4003	0	0	0	0	1.17992	0.1828668	1	15	0.01	1700
74692	46	-3	-6	0.5600408	-0.04770095	1.662165	0	12.25	4004	0	0	0	0	1.17992	0.1920019	1	15	0.01	1700
74865	43	0	-8	0.56003	-0.04574984	1.67586	0	12.25	4004	0	0	0	0	1.17992	0.1907758	1	15	0.01	1700
74934	37	1	-4	0.5654488	-0.04511336	1.682708	0	12.25	4003	0	0	0	0	1.17992	0.1865259	1	15	0.01	1700
75036	53	-2	-5	0.5663167	-0.04772619	1.688638	0	12.25	4003	0	0	0	0	1.17992	0.1841526	1	15	0.01	1700
75141	46	-1	-7	0.590781	-0.0435705	1.696533	0	12.25	4005	0	0	0	0	1.17992	0.1797044	1	15	0.01	1700
75234	42	-3	-5	0.591756	-0.04533065	1.702096	0	12.25	4004	0	0	0	0	1.17992	0.1788732	1	15	0.01	1700
75341	48	0	-4	0.6069492	-0.04405284	1.708299	0	12.25	4002	0	0	0	0	1.17992	0.1798683	1	5	0	20
75521	49	0	-8	0.6018828	-0.05083797	1.719303	0	12.25	4004	0	0	0	0	1.17992	0.1816369	1	5	0	20
75606	39	1	-1	0.5969827	-0.05667794	1.72884	0	12.25	4003	0	0	0	0	1.17992	0.17781	1	5	0	20
75709	49	5	-6	0.5857051	-0.06100365	1.734343	0	12.25	4003	0	0	0	0	1.17992	0.1805946	1	5	0	20
75779	43	-3	-6	0.5889538	-0.06434815	1.738011	0	12.25	4003	0	0	0	0	1.17992	0.187902	1	5	0	20
75844	43	0	-7	0.5813757	-0.06706857	1.743881	0	12.25	4003	0	0	0	0	1.17992	0.1882924	1	5	0	20
75945	43	-3	-2	0.5779337	-0.06438936	1.749506	0	12.25	4004	0	0	0	0	1.17992	0.1915548	1	5	0	20
76037	44	-3	-3	0.5730731	-0.06557164	1.760449	0	12.25	4002	0	0	0	0	1.17992	0.1967189	1	5	0	20
76123	49	-3	-5	0.575669	-0.06416755	1.766196	0	12.25	4002	0	0	0	0	1.17992	0.1979408	1	5	0	20
76217	40	-7	-8	0.5757178	-0.06442536	1.773288	0	12.25	4002	0	0	0	0	1.17992	0.2005052	1	5	0	20
76321	45	0	-6	0.5794803	-0.06028444	1.782825	0	12.25	4004	0	0	0	0	1.17992	0.2007429	1	5	0	20
76420	52	-2	-7	0.58227	-0.05858801	1.791506	0	12.25	4002	0	0	0	0	1.17992	0.1985259	1	5	0	20
76558	49	-3	-2	0.5956033	-0.05925641	1.800433	0	12.19	4003	0	0	0	0	1.17992	0.1981779	1	5	0	20
76685	43	-2	-6	0.5977887	-0.05642457	1.810704	0	12.19	4003	0	0	0	0	1.17992	0.1884182	1	5	0	20
76775	55	-3	-5	0.6026919	-0.05880166	1.819019	0	12.19	4003	0	0	0	0	1.17992	0.1818023	1	5	0	20
76910	55	-1	-5	0.6046842	-0.05761953	1.824094	0	12.19	4004	0	0	0	0	1.17992	0.1750986	1	5	0	20
76941	50	-3	-1	0.608826	-0.05907754	1.828434	0	12.19	4004	0	0	0	0	1.17992	0.1719109	1	5	0	20
77015	57	-3	-9	0.6112894	-0.05835044	1.836015	0	12.19	4002	0	0	0	0	1.17992	0.1700836	1	5	0	20
77115	44	0	-5	0.6185676	-0.05893895	1.843413	0	12.19	4002	0	0	0	0	1.17992	0.1731181	1	5	0	20
77219	52	-2	-5	0.6170478	-0.06011797	1.849282	0	12.19	4003	0	0	0	0	1.17992	0.17684	1	5	0	20
77318	48	1	-3	0.6241995	-0.05781979	1.856008	0	12.19	4003	0	0	0	0	1.17992	0.1803792	1	5	0	20
77423	40	-3	-9	0.6247396	-0.0602343	1.864322	0	12.19	4002	0	0	0	0	1.17992	0.1799654	1	5	0	20
77526	47	-5	-6	0.6289304	-0.05784408	1.872881	0	12.25	4003	0	0	0	0	1.17992	0.170964	1	5	0	20
77728	51	0	0	0.6274735	-0.06394645	1.884436	0	12.25	4004	0	0	0	0	1.17992	0.15128	1	5	0	20
77812	52	-5	-3	0.6295188	-0.06732847	1.890061	0	12.25	4004	0	0	0	0	1.17992	0.147181	1	5	0	20
77888	50	-9	-2	0.6333897	-0.070664	1.898376	0	12.25	4004	0	0	0	0	1.17992	0.1426398	1	5	0	20
77949	49	0	-6	0.6284745	-0.06964689	1.902411	0	12.25	4003	0	0	0	0	1.17992	0.1427046	1	5	0	20
78002	47	-3	-5	0.6302744	-0.07088431	1.904673	0	12.25	4004	0	0	0	0	1.17992	0.1421304	1	5	0	20
78101	51	4	-4	0.6332045	-0.0718919	1.912622	0	12.25	4003	0	0	0	0	1.17992	0.14156	1	5	0	20
78285	60	1	-1	0.6359197	-0.06487559	1.927355	0	12.25	4004	0	0	0	0	1.17992	0.1470404	3	5	0	20
78448	52	-1	-4	0.6314776	-0.07450597	1.939399	0	12.25	4004	0	0	0	0	1.17992	0.148398	3	5	0	20
78584	49	-3	-6	0.6288308	-0.08021783	1.950587	0	12.25	4004	0	0	0	0	1.17992	0.1443027	3	5	0	20
78630	50	-3	-4	0.6303266	-0.07689129	1.954806	0	12.25	4003	0	0	0	0	1.17992	0.1456533	3	5	0	20
78712	46	-2	-2	0.6302688	-0.07580941	1.958657	0	12.25	4002	0	0	0	0	1.17992	0.1515327	3	5	0	20
78797	43	-1	-3	0.6297486	-0.0710867	1.966483	0	12.25	4003	-2	0	0	0	1.17992	0.1573033	3	5	0	20
78913	55	45	-119	0.6364155	-0.07613116	1.970891	0	12.25	4003	0	2	0	0	1.17992	0.1577531	3	5	0	20
79012	28	-8	13	0.6405656	-0.07260861	1.97468	0	12.25	4003	1	-9	0	0	1.17992	0.1582401	3	5	0	20
79112	-10	-48	-71	0.6366395	-0.09878694	1.994791	0	12.25	4002	-17	8	-1	0	1.17992	0.1681149	3	5	0	20
79212	188	-87	51	0.6440315	-0.08166654	2.00542	0	12.25	4004	11	-7	0	0	1.17992	0.1716041	3	5	0	20
79312	67	-5	-15	0.6297456	-0.06337856	2.008789	0	12.25	4002	-23	3	0	0	1.17992	0.1751723	3	5	0	20
79406	-127	-111	-64	0.6007425	-0.06469443	2.014595	0	12.25	4002	-10	-15	0	0	1.17992	0.1850808	3	5	0	20
79517	86	104	71	0.6349237	-0.08360744	2.021442	0	12.25	4003	21	-5	-2	0	1.17992	0.1899562	3	5	0	20
79609	74	-51	30	0.5945005	-0.06652735	2.036218	0	12.25	4004	32	-5	0	0	1.17992	0.1908397	3	5	0	20
79709	163	10	144	0.6052397	-0.06868878	2.036931	0	12.25	4003	3	33	-3	0	1.17992	0.1899607	3	5	0	20
79817	179	-12	96	0.5872983	-0.05620582	2.04086	0	12.25	4002	-22	27	-3	0	1.17992	0.1879855	3	5	0	20
79909	134	-220	143	0.651449	-0.02949978	2.048986	0	12.25	4002	5	14	-2	0	1.17992	0.1910817	3	5	0	20
80019	179	-5	428	0.698882	0.01221251	2.057179	0	12.25	4004	9	-31	-6	0	1.17992	0.2036121	3	5	0	20
80104	-208	66	207	0.6550253	0.004668138	2.121892	0	12.25	4004	-30	-29	4	0	1.17992	0.2135964	3	5	0	20
80232	258	-761	387	0.764601	0.3788581	2.135713	0	11.85	4002	-46	-16	15	0	1.17992	0.2307895	3	5	0	20
80318	802	-1926	-633	0.7037749	1.639983	2.500738	0	11.85	4002	-116	18	17	0	1.17992	0.2387252	3	5	0	20
80409	-390	-238	-1012	0.573647	2.540082	3.326334	0	11.85	4004	-32	-194	0	0	1.17992	0.2548614	3	5	0	20
80614	-2440	1420	-141	-1.709168	-5.680814	5.590346	0	11.85	4004	13	201	7	0	1.17992	0.2892396	3	5	0	20
80698	-1818	1542	924	-3.728836	-7.29905	5.469218	0	11.85	4004	-43	128	29	0	1.17992	0.3094582	3	5	0	20
80751	960	-102	-531	-4.047103	-7.218235	5.936263	0	11.85	4003	-88	50	4	0	1.17992	0.3234631	3	5	0	20
80841	348	2915	126	-0.9645627	-10.81456	6.420668	0	11.85	4003	5	-72	-6	0	1.17992	0.335055	3	5	0	20
80895	-85	286	-84	-1.258978	-11.40759	6.734173	0	11.85	4002	24	-1	-9	0	1.17992	0.3551565	3	5	0	20
80996	3489	2786	155	1.358567	-12.30032	7.123377	0	11.85	4003	-40	128	-12	0	1.17992	0.3882983	3	5	0	20
81103	1783	1831	917	5.144945	-14.93648	6.947363	0	12.02	4003	-49	5	-16	0	1.17992	0.407065	3	5	0	20
81228	-238	-872	695	5.085385	-13.76394	6.40486	0	12.02	4002	46	-58	-5	0	1.17992	0.4410524	3	5	0	20
81306	-1044	-2609	620	3.006614	-9.906938	6.052149	0	12.02	4002	40	-48	6	0	1.17992	0.4594513	3	5	0	20
81527	388	1145	-212	1.018963	-6.575399	6.333445	0	12.02	4003	-34	161	3	0	1.17992	0.5011463	3	5	0	20
81691	-641	-319	741	0.8451489	-6.172256	6.635502	0	12.02	4004	-27	51	5	0	1.17992	0.5198961	3	5	0	20
81736	964	-592	331	0.7992504	-5.957253	6.365974	0	12.02	4004	143	-199	-11	0	1.17992	0.5249395	3	5	0	20
81825	-1065	-469	1050	1.043165	-4.904399	6.211201	0	12.02	4004	92	109	5	0	1.17992	0.5349405	3	5	0	20
81909	694	-783	-157	0.8881087	-4.837577	5.454654	0	12.02	4003	-5	-1	25	0	1.17992	0.5453798	3	5	0	20
82022	1236	-878	-780	2.57655	-3.453237	4.639717	0	11.91	4004	-135	-76	45	0	1.17992	0.555674	3	5	0	20
82130	-984	1576	-1237	4.18145	-5.111336	5.261549	0	11.91	4002	-10	50	11	0	1.17992	0.5556367	3	5	0	20
82220	330	-2809	-587	4.41346	-5.238737	6.29857	0	11.91	4003	46	37	1	0	1.17992	0.5587189	3	5	0	20
82323	-722	68	-293	3.591611	-3.809424	5.944851	0	11.91	4003	29	-124	17	0	1.17992	0.5625394	3	5	0	20
82426	-740	1722	1426	2.815181	-6.068052	5.441579	0	11.91	4004	45	-292	9	0	1.17992	0.5705869	3	5	0	20
82586	-1160	-3664	-1185	2.279381	-3.503233	5.931926	0	11.91	4003	-27	-120	2	0	1.17992	0.5856933	3	5	0	20
82671	188	-1219	672	0.4421222	-0.7313477	6.480381	0	11.91	4003	38	-165	-14	0	1.17992	0.586812	3	5	0	20
82729	-589	-641	-223	0.1535048	-0.4459191	6.40098	0	11.91	4004	43	-206	-1	0	1.17992	0.5837451	3	5	0	20
82827	-1555	-434	-1219	-1.976272	-2.432265	5.872493	0	11.91	4003	-35	-182	-4	0	1.17992	0.5752823	3	5	0	20
83043	-93	-61	1348	-0.8401839	-3.068751	6.482869	0	11.23	4004	-44	194	17	0	1.17992	0.5670375	3	5	0	20
83100	-425	787	833	-1.805441	-3.667275	6.214516	0	11.23	4004	-32	92	24	0	1.17992	0.567341	3	5	0	20
83147	1817	-817	289	-1.443625	-5.058602	5.702578	0	11.23	4003	101	-198	4	0	1.17992	0.5699624	3	5	0	20
83231	3175	974	-536	2.579008	-6.150239	5.836717	0	11.23	4004	79	-131	3	0	1.17992	0.5739721	3	5	0	20
83401	-279	174	680	2.933347	-4.233604	6.836121	0	11.23	4004	67	-98	-32	0	1.17992	0.5746548	3	5	0	20
83544	-249	443	481	1.087802	-3.178305	6.38542	0	11.23	4003	19	0	-11	0	1.17992	0.5654956	3	5	0	20
83642	4	2565	248	0.6732131	-4.792191	6.087422	0	11.23	4003	69	41	6	0	1.17992	0.5646841	3	5	0	20
83733	-363	1000	-583	-0.1984393	-7.963677	6.278424	0	11.23	4002	73	-60	-4	0	1.17992	0.5712785	3	5	0	20
83839	-215	516	218	-1.029968	-8.786736	6.254446	0	11.23	4004	-18	38	-1	0	1.17992	0.5838308	3	5	0	20
83943	386	2048	544	-1.514422	-8.624728	6.502914	0	11.51	4002	-79	120	7	0	1.17992	0.6006034	3	5	0	20
84079	-635	-400	-104	-2.155951	-10.60507	6.363642	0	11.51	4003	27	-141	-8	0	1.17992	0.6349553	3	5	0	20
84164	1079	1565	383	-0.7634181	-11.74466	6.49625	0	11.51	4003	-10	86	-16	0	1.17992	0.6680889	3	5	0	20
84246	-378	-206	-1269	-1.011163	-11.93203	6.46004	0	11.51	4003	51	132	1	0	1.17992	0.6943958	3	5	0	20
84365	241	356	-84	-0.01253595	-13.17537	6.043493	0	11.51	4002	39	-216	6	0	1.17992	0.7311392	3	5	0	20
84451	267	1376	-764	0.6496111	-15.00786	6.092702	0	11.51	4002	13	179	6	0	1.17992	0.7727749	3	5	0	20
84590	-16	-1127	-579	0.9769245	-14.2682	6.315455	0	11.51	4002	6	-102	4	0	1.17992	0.8442007	3	5	0	20
84664	-953	-713	-307	0.3967683	-11.9667	6.284968	0	11.51	4002	58	-74	-8	0	1.17992	0.8653836	3	5	0	20
84817	453	420	-411	-0.1892115	-13.10026	6.274796	0	11.29	4003	72	-148	0	0	1.17992	0.9384673	3	5	0	20
84945	512	-1557	-827	1.481876	-11.23906	7.47123	0	11.29	4003	93	-163	-40	0	1.17992	0.9738976	3	5	0	20
85009	-1263	-2632	87	1.382159	-9.620844	7.463198	0	11.29	4004	88	-108	-28	0	1.17992	0.9995379	3	5	0	20
85097	-345	-2539	1256	1.465178	-4.931041	7.088777	0	11.29	4002	-36	26	-8	0	1.17992	1.025808	3	5	0	20
85148	-764	-2993	-1187	0.9276456	-4.671342	6.85114	0	11.29	4003	-14	-86	5	0	1.17992	1.044209	3	5	0	20
85259	43	806	851	-0.3251577	-4.69025	6.072104	0	11.29	4002	-67	208	23	0	1.17992	1.078986	3	5	0	20
85373	-298	-319	-126	0.006585124	-6.63303	6.38453	0	11.29	4003	-24	179	13	0	1.17992	1.113821	3	5	0	20
85520	218	438	260	-0.09951019	-7.185937	6.678579	0	11.29	4002	54	-236	-21	0	1.17992	1.156513	3	5	0	20
85582	143	-271	59	0.2204871	-7.218787	6.989159	0	11.29	4003	-50	224	-6	0	1.17992	1.170891	3	5	0	20
85686	-115	-852	578	-0.6411554	-5.667488	6.743141	0	11.29	4003	-50	83	-3	0	1.17992	1.198179	3	5	0	20
85795	-453	451	-211	0.7885117	-7.035239	6.604725	0	11.23	4002	66	-142	-14	0	1.17992	1.220104	3	5	0	20
85862	273	-496	-618	0.9245676	-7.616512	6.768852	0	11.23	4002	-23	0	-18	0	1.17992	1.234686	3	5	0	20
85966	-20	-1328	1110	0.9645019	-5.592341	6.88815	0	11.23	4004	56	-125	-10	0	1.167812	1.256638	4	5	0	20
86084	-132	-352	-606	0.7823031	-4.626502	6.715669	0	11.23	4002	39	-69	-10	0	1.134443	1.284539	4	5	0	20
86165	172	362	628	0.3433693	-5.798337	6.422596	0	11.23	4004	-97	83	4	0	1.134045	1.297796	4	5	0	20
86268	-2017	-1651	44	-1.102481	-4.965689	6.405831	0	11.23	4004	-30	-47	5	0	1.161389	1.30852	4	5	0	20
86375	-1591	658	901	-4.183228	-2.909214	6.480158	0	11.23	4003	-4	-25	0	0	1.182632	1.320591	4	5	0	20
86494	1294	-1434	377	-4.639483	-4.301956	6.485579	0	11.23	4005	-39	-91	0	-1	1.19872	1.326568	4	5	0	20
86573	1166	-1295	-1217	-1.99181	-3.576712	6.864037	0	11.23	4004	-27	-122	-21	-1	1.234717	1.319532	4	5	0	20
86760	-643	-2292	-455	-1.918332	-0.8998466	6.927753	0	11.85	4003	-6	-41	-7	-1	1.203899	1.273247	4	5	0	20
86842	1235	-828	342	-2.395041	1.18578	6.345613	0	11.85	4004	-25	-123	-2	-1	1.203449	1.252326	4	5	0	20
86904	1131	967	394	-0.8773358	0.1915152	6.214707	0	11.85	4002	19	-140	0	-1	1.238055	1.187189	4	5	0	20
86954	385	293	-6	-0.4288626	-0.6576437	6.286365	0	11.85	4002	45	-80	-2	-1	1.25289	1.17296	4	5	0	20
87065	466	959	-327	-0.1300647	-1.187913	6.467635	0	11.85	4002	40	-97	-12	-1	1.365666	1.098085	4	5	0	20
87166	438	1053	347	-0.184553	-1.817544	6.39063	0	11.85	4003	48	-92	-6	-1	1.237802	1.013869	4	5	0	20
87244	739	2505	-1105	0.471904	-4.35685	6.784495	0	11.85	4004	12	-76	-10	-1	1.166913	0.9556913	4	5	0	20
87421	-5117	18567	6285	-2.619937	-14.69114	6.839389	0	11.85	4002	-46	400	-75	0	0.8357577	0.818483	4	5	0	20
87485	-3179	6201	3019	-4.230192	-23.60769	3.663109	0	11.85	4002	57	273	134	1	0.6997733	0.7633049	4	5	0	20
87545	434	1556	778	-5.990729	-27.94343	0.6505671	0	11.34	4004	58	347	150	1	0.6031812	0.711399	4	5	0	20
87649	792	-1569	-1581	-5.270172	-27.19668	1.75891	0	11.34	4004	80	12	43	2	0.4749445	0.6523305	4	5	0	20
87821	1478	-1323	1287	-2.006159	-5.551169	3.971204	0	11.34	4004	9	186	64	3	0.3206326	0.5495199	4	5	0	20
87989	3544	-9042	-1759	3.817826	8.566183	5.784593	0	11.34	4004	9	-240	4	3	0.2365215	0.4781065	4	5	0	20
88149	-4077	5589	214	3.850268	17.56545	6.788844	0	11.34	4003	0	0	0	0	0.1907114	0.4179866	4	5	0	20
88251	530	-791	1101	-0.1046759	6.45382	-1.499724	0	11.34	4002	0	0	0	0	0.1673618	0.3855379	4	5	0	20
88363	275	-2407	-59	-0.4796245	12.17654	0.1770693	0	11.34	4004	0	0	0	0	0.1516776	0.3466728	4	5	0	20
88499	32	-64	21	-0.7716772	9.209812	0.1865989	0	11.97	4004	0	0	0	0	0.1448158	0.2887381	4	5	0	20
88615	35	-2	-3	-1.205364	6.796963	0.1856829	0	11.97	4003	0	0	0	0	0.1421967	0.2472717	4	5	0	20
88646	33	-8	-2	-1.30311	6.259851	0.1904513	0	11.97	4003	0	0	0	0	0.1416971	0.2397949	4	5	0	20
88714	19	-1	-3	-1.473079	5.254547	0.1912457	0	11.97	4003	0	0	0	0	0.1408426	0.2178797	3	5	0	20
88815	24	-3	4	-1.713544	3.904197	0.1897782	0	11.97	4004	0	0	0	0	0.1395899	0.1783233	3	5	0	20
88931	26	-9	-5	-1.9838	2.360723	0.1896564	0	11.97	4003	0	0	0	0	0.1389422	0.148807	3	5	0	20
89019	23	-1	1	-2.10872	1.68856	0.1897176	0	11.97	4002	0	0	0	0	0.1384701	0.1258245	3	5	0	20
89133	29	-4	0	-2.268754	0.7886821	0.1881282	0	11.97	4004	0	0	0	0	0.1381259	0.1091506	3	5	0	20
89224	31	-5	-6	-2.44591	-0.2367136	0.1888007	0	11.97	4003	0	0	0	0	0.137875	0.09438628	3	5	0	20
89323	29	-8	-4	-2.524516	-0.6832289	0.1897178	0	12.02	4002	0	0	0	0	0.137692	0.09189786	3	5	0	20
89430	25	1	-7	-2.661521	-1.465316	0.1927136	0	12.02	4003	0	0	0	0	0.1375587	0.09091913	3	5	0	20
89530	29	-3	-2	-2.715183	-1.803088	0.1939975	0	12.02	4003	0	0	0	0	0.1374615	0.07887257	3	5	0	20
89633	34	-2	-3	-2.792902	-2.258754	0.1949754	0	12.02	4003	0	0	0	0	0.1373906	0.07056829	3	5	0	20
89733	29	0	-2	-2.860873	-2.665429	0.1949754	0	12.02	4002	9	8	0	0	0.137339	0.06499927	3	5	0	20
89880	-16	17	190	-2.99024	-3.180564	0.2048854	0	12.02	4003	9	16	-1	0	0.1372912	0.0626391	3	5	0	20
89953	-76	106	-96	-3.059636	-3.421751	0.1916885	0	12.02	4002	13	29	3	0	0.1372739	0.0610043	3	5	0	20
90039	-14	-131	-454	-3.15914	-3.774085	0.08682053	0	12.02	4003	20	28	2	0	0.1372539	0.05684529	3	5	0	20
90161	36	27	412	-3.044495	-4.300675	0.1880035	0	12.02	4004	6	32	-4	0	0.1372393	0.05566368	3	5	0	20
90304	273	404	86	-3.359599	-4.619715	0.1898189	0	11.57	4003	23	5	-1	0	0.1372232	0.05651313	3	5	0	20
90336	46	-76	64	-3.288526	-4.818281	0.2199009	0	11.57	4003	62	17	5	0	0.1372209	0.05765991	3	5	0	20
90436	-153	-461	296	-3.602107	-5.380764	0.06901035	0	11.57	4002	45	70	5	0	0.1372137	0.06793573	3	5	0	20
90504	436	-216	101	-3.604632	-5.415363	0.1393286	0	11.57	4002	60	55	1	0	0.1372111	0.07781626	3	5	0	20
90631	46	-128	-46	-3.41551	-5.445214	0.1585666	0	11.57	4004	26	42	0	0	0.1372073	0.08239046	3	5	0	20
90731	-209	-157	87	-3.45462	-5.355202	0.1362372	0	11.57	4004	59	37	2	0	0.1372053	0.08333741	3	5	0	20
90815	-402	-262	199	-3.340305	-5.420481	0.1228368	0	11.57	4002	1	79	-3	0	0.1372043	0.0803889	3	5	0	20
90926	-9	131	105	-3.251935	-5.53533	0.1822154	0	11.57	4003	21	48	-2	0	0.1372031	0.07440183	3	5	0	20
91008	-91	-240	88	-3.235882	-5.598451	0.1550183	0	11.57	4002	47	38	-1	0	0.1372023	0.07347389	3	5	0	20
91112	-110	395	-169	-3.347146	-5.644992	0.2000788	0	11.57	4003	32	65	5	0	0.1372017	0.06610337	3	5	0	20
91317	470	349	-358	-3.677552	-5.946971	0.2286702	0	11.63	4002	63	58	0	0	0.1372008	0.06338397	3	5	0	20
91415	501	58	-165	-3.584008	-5.944691	0.251595	0	11.63	4002	0	0	0	0	0.1372006	0.06506011	3	5	0	20
91614	69	3	-8	-3.466453	-5.822475	0.1935263	0	11.63	4002	0	0	0	0	0.1372003	0.07452096	3	5	0	20
91689	63	19	-44	-3.463059	-5.814564	0.1953654	0	11.63	4002	0	0	0	0	0.1372003	0.08412766	3	5	0	20
91772	51	-39	-42	-3.448752	-5.821558	0.1909058	0	11.63	4004	9	21	0	0	0.1372002	0.09237275	3	5	0	20
91815	61	-16	-32	-3.448013	-5.822908	0.1923747	0	11.63	4002	6	26	0	0	0.1372002	0.09451821	3	5	0	20
91902	21	84	-51	-3.492239	-5.822763	0.2036899	0	11.63	4004	15	33	0	0	0.1372001	0.09743425	3	5	0	20
92013	756	-875	285	-3.599969	-5.647277	0.3177242	0	11.63	4004	12	38	-10	0	0.1372001	0.1017353	3	5	0	20
92123	-11	417	-419	-3.369571	-5.942147	0.2334073	0	11.57	4002	11	75	-3	0	0.1372001	0.1054972	3	5	0	20
92334	257	372	331	-3.614152	-5.780599	0.1631641	0	11.57	4004	1	12	-5	0	0.1372001	0.1161681	3	5	0	20
92421	-155	186	500	-3.392906	-6.076097	0.2216689	0	11.57	4003	21	30	-1	0	0.1372001	0.1212779	3	5	0	20
92575	-504	-1169	436	-3.50221	-6.295793	0.3100513	0	11.57	4004	76	16	0	0	0.1372001	0.1456989	3	5	0	20
92614	-81	328	-847	-3.789027	-6.065851	0.1343052	0	11.57	4004	0	78	4	0	0.1372001	0.1480318	3	5	0	20
92764	54	-112	53	-3.432971	-6.280508	0.1190903	0	11.57	4003	27	106	-4	0	0.1372001	0.1607643	3	5	0	20
92917	997	-47	472	-3.30325	-6.148357	0.336975	0	11.57	4004	48	48	-2	0	0.1372001	0.1766375	3	5	0	20
92956	-108	276	-248	-3.222577	-5.978263	0.2383747	0	11.57	4002	68	78	1	0	0.1372001	0.1781238	3	5	0	20
93183	-64	175	-97	-3.587379	-5.877357	0.2503656	0	11.29	4004	-35	112	0	0	0.1372001	0.194732	3	5	0	20
93292	-847	344	-594	-3.442624	-6.147524	0.3837025	0	11.29	4002	-14	93	-2	0	0.1372001	0.2041659	3	5	0	20
93317	-847	344	-594	-3.49744	-6.040263	0.2145616	0	11.29	4002	31	88	-23	0	0.1372001	0.2054644	3	5	0	20
93458	138	161	159	-3.456707	-6.159513	0.1884194	0	11.29	4002	33	163	-5	0	0.1372001	0.2128435	3	5	0	20
93516	-571	-658	487	-3.310689	-6.370192	0.1909302	0	11.29	4002	59	77	6	0	0.1372001	0.2135138	3	5	0	20
93665	411	-306	29	-3.438663	-6.366645	0.2554688	0	11.29	4003	22	138	-5	0	0.1372001	0.2126005	3	5	0	20
93749	-615	-425	527	-3.314333	-6.48248	0.2229316	0	11.29	4003	52	74	4	0	0.1372001	0.2102813	3	5	0	20
93859	-47	14	217	-3.530216	-6.3881	0.1802681	0	11.29	4003	33	92	3	0	0.1372001	0.2042195	3	5	0	20
