time(ms)	gyro_x(deg/s)	gyro_y(deg/s)	gyro_z(deg/s)	orientation_roll(deg)	orientation_pitch(deg)	orientation_yaw(deg)	throttle	battery(V)	loop_time(uS)	pid_output_roll	pid_output_pitch	pid_output_yaw	pid_output_throttle	ultrasonic_alt	baro_alt	flight_mode	p_gain_altitude	i_gain_altitude	d_gain_altitude
206777	-71	0	7	-1.396126	-0.4087898	-3.265416	0	11.57	4002	0	0	0	0	0.3875899	0.09892005	1	6	0	600
206932	-69	-4	5	-1.392478	-0.403217	-3.286142	0	11.57	4003	0	0	0	0	0.3875899	0.08195814	1	6	0	600
206982	-68	-1	8	-1.391866	-0.4052894	-3.292623	0	11.57	4003	0	0	0	0	0.3875899	0.07130531	1	6	0	600
207081	-71	3	9	-1.387993	-0.3995537	-3.299592	0	11.57	4002	0	0	0	0	0.3875899	0.05736322	1	6	0	600
207188	-64	6	5	-1.387174	-0.4032544	-3.314571	0	11.63	4003	0	0	0	0	0.3875899	0.04321977	1	6	0	600
207292	-73	-1	5	-1.385923	-0.4007134	-3.322947	0	11.63	4004	0	0	0	0	0.3875899	0.03821015	1	6	0	600
207404	-69	4	9	-1.385548	-0.3941264	-3.335725	0	11.63	4003	0	0	0	0	0.3875899	0.04024182	1	6	0	600
207504	-68	5	7	-1.39072	-0.3952166	-3.34936	0	11.63	4003	0	0	0	0	0.3875899	0.04862577	1	6	0	600
207608	-67	0	8	-1.388692	-0.395427	-3.360364	0	11.63	4003	0	0	0	0	0.3875899	0.05392677	1	6	0	600
207727	-59	-1	7	-1.382697	-0.3948232	-3.377604	0	11.63	4004	0	0	0	0	0.3875899	0.05031693	1	6	0	600
207813	-67	4	6	-1.384925	-0.3985107	-3.385736	0	11.63	4002	0	0	0	0	0.3875899	0.04886305	1	6	0	600
207949	-57	-1	7	-1.381855	-0.3985167	-3.401509	0	11.63	4003	0	0	0	0	0.3875899	0.0471721	1	6	0	600
208021	-66	2	7	-1.379133	-0.3952695	-3.409334	0	11.63	4003	0	0	0	0	0.3875899	0.05646728	1	6	0	600
208120	-63	4	7	-1.379397	-0.3965914	-3.420645	0	11.63	4004	0	0	0	0	0.3875899	0.0603615	1	6	0	600
208230	-68	-2	7	-1.37828	-0.3931555	-3.440026	0	11.63	4004	0	0	0	0	0.3875899	0.06862422	1	6	0	600
208327	-64	-4	8	-1.375324	-0.3891191	-3.451825	0	11.63	4002	0	0	0	0	0.3875899	0.06797766	1	6	0	600
208432	-69	0	10	-1.370945	-0.3882255	-3.464236	0	11.63	4003	0	0	0	0	0.3875899	0.07034738	1	6	0	600
208546	-61	-1	4	-1.365324	-0.3860024	-3.475669	0	11.63	4004	0	0	0	0	0.3875899	0.06617629	1	6	0	600
208658	-67	-1	3	-1.367657	-0.390599	-3.487162	0	11.63	4004	0	0	0	0	0.3875899	0.06470944	1	6	0	600
208740	-63	6	5	-1.36425	-0.3902567	-3.4978	0	11.63	4002	0	0	0	0	0.3875899	0.06337195	1	6	0	600
208839	-66	2	5	-1.364504	-0.3953943	-3.508988	0	11.63	4004	0	0	0	0	0.3875899	0.06219104	1	6	0	600
208949	-65	-8	12	-1.359975	-0.397438	-3.521031	0	11.63	4004	0	0	0	0	0.3875899	0.0600963	1	6	0	600
209077	-63	6	5	-1.358564	-0.392276	-3.537722	0	11.63	4003	0	0	0	0	0.3875899	0.06819771	1	6	0	600
209172	-60	-2	7	-1.359914	-0.3948978	-3.549705	0	11.63	4004	0	0	0	0	0.3875899	0.07132704	1	6	0	600
209260	-70	-3	4	-1.365982	-0.3900698	-3.556613	0	11.63	4003	0	0	0	0	0.3875899	0.07772791	1	6	0	600
209335	-64	0	6	-1.36716	-0.386723	-3.564744	0	11.63	4002	0	0	0	0	0.3875899	0.09061512	1	6	0	600
209438	-64	0	7	-1.357017	-0.3941543	-3.576177	0	11.63	4003	0	0	0	0	0.3875899	0.1035436	1	6	0	600
209540	-67	0	6	-1.355725	-0.3915942	-3.59091	0	11.63	4004	0	0	0	0	0.3875899	0.1105035	1	6	0	600
209667	-62	2	7	-1.357695	-0.3950878	-3.603383	0	11.63	4004	0	0	0	0	0.3875899	0.1071713	1	6	0	600
209754	-70	2	10	-1.356414	-0.3886172	-3.615977	0	11.63	4002	0	0	0	0	0.3875899	0.1028321	1	6	0	600
209862	-63	1	4	-1.351648	-0.3927267	-3.62735	0	11.63	4003	0	0	0	0	0.3875899	0.09260926	1	6	0	600
209953	-58	-3	5	-1.347991	-0.3901646	-3.636153	0	11.68	4003	0	0	0	0	0.3875899	0.08664779	1	6	0	600
210063	-62	-1	3	-1.348907	-0.3906176	-3.647585	0	11.68	4002	0	0	0	0	0.3875899	0.08407065	1	6	0	600
210245	-66	2	10	-1.341401	-0.396634	-3.66666	0	11.68	4003	0	0	0	0	0.3875899	0.07516623	1	6	0	600
210278	-64	3	9	-1.336292	-0.3923669	-3.676198	0	11.68	4004	0	0	0	0	0.3875899	0.07246397	1	6	0	600
210358	-63	1	8	-1.340517	-0.395251	-3.682922	0	11.68	4003	0	0	0	0	0.3875899	0.0680038	1	6	0	600
210459	-52	-3	6	-1.334677	-0.3928598	-3.694232	0	11.68	4002	0	0	0	0	0.3875899	0.05350126	1	6	0	600
210560	-68	-2	0	-1.331201	-0.3940161	-3.705726	0	11.68	4004	0	0	0	0	0.3875899	0.03928244	1	6	0	600
210664	-66	3	7	-1.329595	-0.3895152	-3.717831	0	11.68	4003	0	0	0	0	0.3875899	0.02880641	1	6	0	600
210777	-62	-4	7	-1.322135	-0.388035	-3.728958	0	11.68	4003	0	0	0	0	0.3875899	0.01662793	1	6	0	600
210959	-58	0	8	-1.320957	-0.3929912	-3.747789	0	11.63	4003	0	0	0	0	0.3875899	0.004120924	1	6	0	600
211013	-62	-1	10	-1.317552	-0.3961738	-3.754941	0	11.63	4003	0	0	0	0	0.3875899	0.001858536	1	6	0	600
211070	-60	5	3	-1.322691	-0.3958992	-3.761727	0	11.63	4003	0	0	0	0	0.3875899	0.002247633	1	6	0	600
211179	-57	6	7	-1.321996	-0.4056845	-3.772059	0	11.63	4004	0	0	0	0	0.3875899	0.006366124	1	6	0	600
211291	-61	-2	6	-1.320316	-0.4114748	-3.786671	0	11.63	4002	0	0	0	0	0.3875899	0.007483918	1	6	0	600
211411	-61	4	5	-1.320504	-0.4000704	-3.801282	0	11.63	4003	0	0	0	0	0.3875899	0.01578133	1	6	0	600
211496	-65	0	14	-1.31755	-0.3997074	-3.813143	0	11.63	4003	0	0	0	0	0.3875899	0.01419204	1	6	0	600
211574	-57	3	7	-1.316233	-0.3988221	-3.820969	0	11.63	4004	0	0	0	0	0.3875899	0.01679923	1	6	0	600
211728	-62	8	6	-1.31713	-0.4025261	-3.835948	0	11.63	4003	0	0	0	0	0.3875899	0.01785927	1	6	0	600
211831	-62	5	7	-1.308257	-0.4032248	-3.847564	0	11.63	4004	0	0	0	0	0.3875899	0.01667992	1	6	0	600
211927	-56	1	5	-1.305806	-0.4107036	-3.857407	0	11.63	4003	0	0	0	0	0.3875899	0.01540784	1	6	0	600
211980	-57	2	6	-1.305767	-0.4106336	-3.864254	0	11.63	4002	0	0	0	0	0.3875899	0.0139119	1	6	0	600
212081	-56	6	0	-1.299703	-0.406989	-3.872936	0	11.63	4003	0	0	0	0	0.3875899	0.007967845	1	6	0	600
212221	-62	3	4	-1.299632	-0.3999183	-3.886203	0	11.63	4002	0	0	0	0	0.3875899	0.00397918	1	6	0	600
212295	-56	0	8	-1.296785	-0.3958498	-3.893356	0	11.63	4004	0	0	0	0	0.3875899	0.003921504	1	6	0	600
212387	-55	1	6	-1.290292	-0.390375	-3.901365	0	11.63	4003	0	0	0	0	0.3875899	-0.0002467487	1	6	0	600
212487	-53	2	10	-1.28702	-0.3928776	-3.911698	0	11.63	4004	0	0	0	0	0.3875899	-0.003147494	1	6	0	600
212667	-57	5	6	-1.288362	-0.398268	-3.928022	0	11.63	4004	0	0	0	0	0.3875899	-0.0005140728	1	6	0	600
212786	-55	-1	5	-1.286211	-0.3940739	-3.939882	0	11.63	4004	0	0	0	0	0.3875899	0.0004147803	1	6	0	600
212842	-61	0	6	-1.283014	-0.3921421	-3.94569	0	11.63	4003	0	0	0	0	0.3875899	-0.004360855	1	6	0	600
212953	-58	5	2	-1.282181	-0.4007775	-3.957489	0	11.63	4003	0	0	0	0	0.3875899	-0.008615386	1	6	0	600
213068	-63	4	5	-1.281219	-0.4022094	-3.968493	0	11.63	4004	0	0	0	0	0.3875899	-0.01063534	1	6	0	600
213134	-51	1	5	-1.28198	-0.4030409	-3.973812	0	11.63	4003	0	0	0	0	0.3875899	-0.008013169	1	6	0	600
213208	-58	1	10	-1.27818	-0.4015835	-3.984389	0	11.63	4004	0	0	0	0	0.3875899	-0.008907387	1	6	0	600
213269	-65	1	4	-1.278725	-0.4038295	-3.987262	0	11.63	4003	0	0	0	0	0.3875899	-0.009719488	1	6	0	600
213372	-51	3	6	-1.272613	-0.4056858	-3.997105	0	11.63	4002	0	0	0	0	0.3875899	-0.01039359	1	6	0	600
213481	-56	6	8	-1.261477	-0.4022731	-4.009884	0	11.63	4003	0	0	0	0	0.3875899	-0.01729544	1	6	0	600
213580	-54	-2	5	-1.25834	-0.4007343	-4.018198	0	11.63	4003	0	0	0	0	0.3875899	-0.02630606	1	6	0	600
213709	-52	5	1	-1.248899	-0.4109595	-4.029754	0	11.68	4003	0	0	0	0	0.3875899	-0.04635507	1	6	0	600
213785	-58	1	8	-1.248083	-0.4099211	-4.038252	0	11.68	4003	0	0	0	0	0.3875899	-0.04913095	1	6	0	600
213886	-55	-5	8	-1.251906	-0.4123819	-4.044306	0	11.68	4003	0	0	0	0	0.3875899	-0.0522859	1	6	0	600
213993	-49	0	7	-1.250642	-0.4173734	-4.056655	0	11.68	4003	0	0	0	0	0.3875899	-0.04806106	1	6	0	600
214088	-50	4	7	-1.244547	-0.4166531	-4.063013	0	11.68	4003	0	0	0	0	0.3875899	-0.04140621	1	6	0	600
214205	-51	1	2	-1.237699	-0.4134176	-4.074996	0	11.68	4004	0	0	0	0	0.3875899	-0.04157016	1	6	0	600
214299	-55	5	2	-1.237953	-0.4135194	-4.081293	0	11.68	4003	0	0	0	0	0.3875899	-0.03928416	1	6	0	600
214398	-63	0	6	-1.23878	-0.4166222	-4.089546	0	11.68	4003	0	0	0	0	0.3875899	-0.03539832	1	6	0	600
214503	-58	2	5	-1.236718	-0.4155516	-4.101162	0	11.68	4002	0	0	0	0	0.3875899	-0.02631737	1	6	0	600
214643	-54	3	7	-1.235686	-0.422175	-4.113268	0	11.68	4004	0	0	0	0	0.3875899	-0.01896374	1	6	0	600
214717	-46	7	4	-1.234945	-0.4199817	-4.125739	0	11.68	4002	0	0	0	0	0.3875899	-0.01347791	1	6	0	600
214805	-48	4	6	-1.224478	-0.4162488	-4.131363	0	11.68	4004	0	0	0	0	0.3875899	-0.01037492	1	6	0	600
214916	-60	-2	6	-1.221586	-0.4146629	-4.141146	0	11.68	4004	0	0	0	0	0.3875899	-0.01093887	1	6	0	600
215157	-50	1	9	-1.221496	-0.4172718	-4.163156	0	11.68	4004	0	0	0	0	0.3875899	-0.01345297	1	6	0	600
215238	-57	-2	3	-1.219048	-0.4168476	-4.169025	0	11.68	4002	0	0	0	0	0.3875899	-0.01458215	1	6	0	600
215363	-50	8	8	-1.208037	-0.4234114	-4.180334	0	11.68	4004	0	0	0	0	0.3875899	-0.0120575	1	6	0	600
215437	-49	2	3	-1.205765	-0.4198071	-4.186692	0	11.68	4003	0	0	0	0	0.3875899	-0.008923916	1	6	0	600
215528	-55	-1	5	-1.210406	-0.420846	-4.196045	0	11.63	4003	0	0	0	0	0.3875899	-0.005728469	1	6	0	600
215628	-51	3	11	-1.213146	-0.4214393	-4.206133	0	11.63	4003	0	0	0	0	0.3875899	-0.00399508	1	6	0	600
215754	-61	4	5	-1.215342	-0.4154479	-4.214876	0	11.63	4004	0	0	0	0	0.3875899	-0.002355684	1	6	0	600
215838	-54	1	5	-1.210062	-0.4065664	-4.222456	0	11.63	4004	0	0	0	0	0.3875899	0.001684545	1	6	0	600
215985	-55	0	8	-1.207763	-0.4097861	-4.239697	0	11.63	4003	0	0	0	0	0.3875899	0.002889625	1	6	0	600
216078	-52	3	7	-1.214183	-0.410165	-4.246728	0	11.63	4002	0	0	0	0	0.3875899	0.008160784	1	6	0	600
216141	-57	-5	10	-1.210738	-0.4060958	-4.250947	0	11.63	4003	0	0	0	0	0.3875899	0.009421427	1	6	0	600
216243	-54	3	11	-1.232881	-0.4089324	-4.25952	0	11.63	4002	0	0	0	0	0.3875899	0.01137019	1	6	0	600
216354	-52	-3	7	-1.224675	-0.4131526	-4.269975	0	11.63	4004	0	0	0	0	0.3875899	0.01068689	1	6	0	600
216461	-50	10	6	-1.240244	-0.4155641	-4.278611	0	11.68	4002	0	0	0	0	0.3875899	0.0185021	1	8	0	3000
216551	-45	0	9	-1.235124	-0.4228643	-4.290348	0	11.68	4004	0	0	0	0	0.3875899	0.02601386	1	8	0	3000
216665	-49	1	10	-1.224029	-0.4308498	-4.300436	0	11.68	4003	0	0	0	0	0.3875899	0.02973626	1	8	0	3000
216768	-48	2	5	-1.21692	-0.4336814	-4.311316	0	11.68	4003	0	0	0	0	0.3875899	0.02926015	1	8	0	3000
216860	-49	4	5	-1.198546	-0.4295616	-4.321952	0	11.68	4003	0	0	0	0	0.3875899	0.02305016	1	8	0	3000
216971	-47	-2	8	-1.191065	-0.436268	-4.328678	0	11.68	4002	0	0	0	0	0.3875899	0.01830475	1	8	0	3000
217116	-46	2	1	-1.1864	-0.4399904	-4.340782	0	11.68	4003	0	0	0	0	0.3875899	0.007361938	1	8	0	3000
217212	-55	-1	3	-1.182558	-0.4401708	-4.350564	0	11.68	4003	0	0	0	0	0.3875899	-0.002536409	1	8	0	3000
217301	-42	-2	3	-1.181747	-0.4426576	-4.357718	0	11.68	4003	0	0	0	0	0.3875899	-0.006074701	1	8	0	3000
217351	-49	2	9	-1.179797	-0.4385768	-4.360897	0	11.68	4003	0	0	0	0	0.3875899	-0.004697241	1	8	0	3000
217462	-45	-6	6	-1.174779	-0.4308834	-4.3708	0	11.63	4003	0	0	0	0	0.3875899	-0.006047901	1	8	0	3000
217570	-46	2	1	-1.163947	-0.4298258	-4.378381	0	11.63	4003	0	0	0	0	0.3875899	-0.007105354	1	8	0	3000
217655	-44	1	8	-1.163693	-0.4288985	-4.383089	0	11.63	4004	0	0	0	0	0.3875899	-0.003651898	1	8	0	3000
217762	-44	6	3	-1.156711	-0.4264714	-4.392993	0	11.63	4008	0	0	0	0	0.3875899	0.0001546558	1	8	0	3000
217865	-48	-4	4	-1.152285	-0.4267816	-4.401858	0	11.63	4004	0	0	0	0	0.3875899	-0.001008761	1	8	0	3000
217975	-46	-2	7	-1.146788	-0.4233983	-4.408703	0	11.63	4002	0	0	0	0	0.3875899	-0.001969012	1	8	0	3000
218072	-48	7	6	-1.144151	-0.4268472	-4.415917	0	11.63	4002	0	0	0	0	0.3875899	-0.002233883	1	8	0	3000
218177	-41	0	3	-1.147183	-0.4263475	-4.423743	0	11.63	4003	0	0	0	0	0.3875899	0.004267393	1	8	0	3000
218298	-43	2	6	-1.147455	-0.4163568	-4.433279	0	11.63	4002	0	0	0	0	0.3875899	-0.0005306729	1	8	0	3000
218382	-47	1	6	-1.14604	-0.4207304	-4.438476	0	11.63	4002	0	0	0	0	0.3875899	-0.004059367	1	8	0	3000
218488	-39	2	4	-1.137283	-0.4184217	-4.449602	0	11.63	4004	0	0	0	0	0.3875899	-0.002542051	1	8	0	3000
218579	-44	-3	6	-1.137565	-0.4198638	-4.456022	0	11.63	4003	0	0	0	0	0.3875899	-0.003661621	1	8	0	3000
218675	-42	3	8	-1.135025	-0.4180582	-4.464949	0	11.63	4004	0	0	0	0	0.3875899	-0.006232561	1	8	0	3000
218784	-51	0	9	-1.137753	-0.4184819	-4.471858	0	11.63	4002	0	0	0	0	0.3875899	0.004550981	1	8	0	3000
218871	-47	1	5	-1.136155	-0.4243361	-4.479561	0	11.63	4003	0	0	0	0	0.3875899	0.01277381	1	8	0	3000
218998	-45	2	11	-1.131596	-0.4269184	-4.488852	0	11.63	4002	0	0	0	0	0.3875899	0.01048589	1	8	0	3000
219107	-47	-1	4	-1.12849	-0.4258109	-4.497656	0	11.63	4004	0	0	0	0	0.3875899	0.007628116	1	8	0	3000
219181	-44	-2	1	-1.125361	-0.4273756	-4.504258	0	11.63	4004	0	0	0	0	0.3875899	0.004961699	1	8	0	3000
219302	-41	5	0	-1.121404	-0.4257984	-4.511838	0	11.68	4003	0	0	0	0	0.3875899	0.004457281	1	8	0	3000
219407	-39	1	6	-1.119502	-0.4253104	-4.519235	0	11.68	4003	0	0	0	0	0.3875899	0.006036697	1	8	0	3000
219490	-40	6	2	-1.124262	-0.4215889	-4.528161	0	11.68	4002	0	0	0	0	0.3875899	0.00615233	1	8	0	3000
219582	-38	5	7	-1.119419	-0.417459	-4.533846	0	11.68	4004	0	0	0	0	0.3875899	0.003623894	1	8	0	3000
219690	-48	4	3	-1.11272	-0.4180279	-4.544178	0	11.68	4002	0	0	0	0	0.3875899	-0.0007936883	1	8	0	3000
219798	-45	2	5	-1.110345	-0.4226258	-4.554631	0	11.68	4004	0	0	0	0	0.3875899	0.004975507	1	8	0	3000
219889	-42	1	4	-1.106652	-0.4244362	-4.559828	0	11.68	4002	0	0	0	0	0.3875899	7.15079E-05	1	8	0	3000
220016	-40	2	2	-1.097488	-0.424565	-4.570955	0	11.68	4004	0	0	0	0	0.3875899	-0.00761336	1	8	0	3000
220091	-43	2	9	-1.092201	-0.4230394	-4.576701	0	11.68	4003	0	0	0	0	0.3875899	-0.01533933	1	8	0	3000
220196	-43	-8	6	-1.091144	-0.4238876	-4.579573	0	11.63	4002	0	0	0	0	0.3875899	-0.01533933	1	8	0	3000
220352	-43	-8	6	-1.091144	-0.4238876	-4.579573	0	11.63	4002	0	0	0	0	0.3875899	-0.01533933	1	8	0	3000
220506	-43	-8	6	-1.091144	-0.4238876	-4.579573	0	11.63	4002	0	0	0	0	0.3875899	-0.01533933	1	8	0	3000
220559	-43	-8	6	-1.091144	-0.4238876	-4.579573	0	11.63	4002	0	0	0	0	0.3875899	-0.01533933	1	8	0	3000
220630	-43	-8	6	-1.091144	-0.4238876	-4.579573	0	11.63	4002	0	0	0	0	0.3875899	-0.01533933	1	8	0	3000
220715	-43	-8	6	-1.091144	-0.4238876	-4.579573	0	11.63	4002	0	0	0	0	0.3875899	-0.01533933	1	8	0	3000
220817	-43	-8	6	-1.091144	-0.4238876	-4.579573	0	11.63	4002	0	0	0	0	0.3875899	-0.01533933	1	8	0	3000
220937	-43	-8	6	-1.091144	-0.4238876	-4.579573	0	11.63	4002	0	0	0	0	0.3875899	-0.01533933	1	8	0	3000
221005	-43	-8	6	-1.091144	-0.4238876	-4.579573	0	11.63	4002	0	0	0	0	0.3875899	-0.01533933	1	8	0	3000
221107	-43	-8	6	-1.091144	-0.4238876	-4.579573	0	11.68	4002	0	0	0	0	0.3875899	-0.01533933	1	8	0	3000
221214	-43	-8	6	-1.091144	-0.4238876	-4.579573	0	11.68	4002	0	0	0	0	0.3875899	-0.01533933	1	8	0	3000
221316	-43	-8	6	-1.091144	-0.4238876	-4.579573	0	11.68	4002	0	0	0	0	0.3875899	-0.01533933	1	8	0	3000
221418	-43	-8	6	-1.091144	-0.4238876	-4.579573	0	11.68	4002	0	0	0	0	0.3875899	-0.01533933	1	8	0	3000
221528	-43	-8	6	-1.091144	-0.4238876	-4.579573	0	11.68	4002	0	0	0	0	0.3875899	-0.01533933	1	8	0	3000
221670	-43	-8	6	-1.091144	-0.4238876	-4.579573	0	11.68	4002	0	0	0	0	0.3875899	-0.01533933	1	8	0	3000
221730	-43	-8	6	-1.091144	-0.4238876	-4.579573	0	11.68	4002	0	0	0	0	0.3875899	-0.01533933	1	8	0	3000
221831	-43	-8	6	-1.091144	-0.4238876	-4.579573	0	11.68	4002	0	0	0	0	0.3875899	-0.01533933	1	8	0	3000
221928	-43	-8	6	-1.091144	-0.4238876	-4.579573	0	11.68	4002	0	0	0	0	0.3875899	-0.01533933	1	8	0	3000
222036	-43	-8	6	-1.091144	-0.4238876	-4.579573	0	11.68	4002	0	0	0	0	0.3875899	-0.01533933	1	8	0	3000
222132	-43	-8	6	-1.091144	-0.4238876	-4.579573	0	11.68	4002	0	0	0	0	0.3875899	-0.01533933	1	8	0	3000
222242	-43	-8	6	-1.091144	-0.4238876	-4.579573	0	11.68	4002	0	0	0	0	0.3875899	-0.01533933	1	8	0	3000
222346	-43	-8	6	-1.091144	-0.4238876	-4.579573	0	11.68	4002	0	0	0	0	0.3875899	-0.01533933	1	8	0	3000
222435	-43	-8	6	-1.091144	-0.4238876	-4.579573	0	11.68	4002	0	0	0	0	0.3875899	-0.01533933	1	8	0	3000
222558	-43	-8	6	-1.091144	-0.4238876	-4.579573	0	11.68	4002	0	0	0	0	0.3875899	-0.01533933	1	8	0	3000
222738	-43	-8	6	-1.091144	-0.4238876	-4.579573	0	11.68	4002	0	0	0	0	0.3875899	-0.01533933	1	8	0	3000
222783	-43	-8	6	-1.091144	-0.4238876	-4.579573	0	11.68	4002	0	0	0	0	0.3875899	-0.01533933	1	8	0	3000
222839	-43	-8	6	-1.091144	-0.4238876	-4.579573	0	11.68	4002	0	0	0	0	0.3875899	-0.01533933	1	8	0	3000
230458	11	0	-4	0.1528108	-0.06710517	0.5795368	0	11.68	4004	0	0	0	0	0.3875899	0.03249026	1	8	0	3000
230556	13	-1	-2	0.1510562	-0.06692819	0.5811876	0	11.68	4003	0	0	0	0	0.3875899	0.03665138	1	8	0	3000
230661	13	-1	0	0.1442771	-0.06016314	0.5817989	0	11.68	4002	0	0	0	0	0.3875899	0.04546994	1	8	0	3000
230765	13	4	2	0.149008	-0.05438458	0.5843053	0	11.68	4003	0	0	0	0	0.3875899	0.05288034	1	8	0	3000
230860	10	2	0	0.1461219	-0.04546711	0.5862006	0	11.68	4002	0	0	0	0	0.3875899	0.05892994	1	8	0	3000
230969	9	-11	2	0.1446039	-0.04578139	0.5873621	0	11.68	4002	0	0	0	0	0.3875899	0.06823178	1	8	0	3000
231090	10	9	-2	0.14713	-0.04671152	0.58938	0	11.68	4003	0	0	0	0	0.3875899	0.07473654	1	8	0	3000
231172	10	0	2	0.1433091	-0.04854676	0.5894412	0	11.68	4002	0	0	0	0	0.3875899	0.07443646	1	8	0	3000
231272	4	-3	2	0.1441075	-0.04481789	0.5891969	0	11.68	4003	0	0	0	0	0.3875899	0.07706436	1	8	0	3000
231375	9	-1	-2	0.1492493	-0.04463163	0.5905419	0	11.68	4003	0	0	0	0	0.3875899	0.07272606	1	8	0	3000
231562	9	5	1	0.1524658	-0.04721325	0.5934156	0	11.68	4004	0	0	0	0	0.3875899	0.06627258	1	8	0	3000
231616	6	2	0	0.1483131	-0.04552878	0.595005	0	11.68	4004	0	0	0	0	0.3875899	0.06251673	1	8	0	3000
231667	12	0	-3	0.1466237	-0.04609995	0.5953106	0	11.68	4002	0	0	0	0	0.3875899	0.05967619	1	8	0	3000
231768	18	0	2	0.1429831	-0.04111607	0.5954328	0	11.68	4002	0	0	0	0	0.3875899	0.05394346	1	8	0	3000
231936	7	-4	0	0.1391521	-0.0355394	0.5975728	0	11.74	4002	0	0	0	0	0.3875899	0.04435042	1	8	0	3000
231989	17	1	0	0.142025	-0.03200885	0.5981841	0	11.74	4003	0	0	0	0	0.3875899	0.04110552	1	8	0	3000
232077	14	2	-1	0.1473288	-0.02759095	0.5999569	0	11.74	4003	0	0	0	0	0.3875899	0.03860259	1	8	0	3000
232181	14	-1	-3	0.1539283	-0.02079115	0.6016688	0	11.74	4002	0	0	0	0	0.3875899	0.03548788	1	8	0	3000
232281	18	-1	-6	0.1508296	-0.02432523	0.603136	0	11.74	4003	0	0	0	0	0.3875899	0.03658262	1	8	0	3000
232386	9	-6	0	0.1487283	-0.02681326	0.6034416	0	11.74	4003	0	0	0	0	0.3875899	0.03753601	1	8	0	3000
232490	5	-2	0	0.1476814	-0.02838815	0.6052758	0	11.74	4003	0	0	0	0	0.3875899	0.040931	1	8	0	3000
232593	17	1	1	0.153721	-0.03494717	0.6066208	0	11.74	4003	0	0	0	0	0.3875899	0.04576227	1	8	0	3000
232705	11	2	-3	0.1605778	-0.02970862	0.6109615	0	11.74	4002	0	0	0	0	0.3875899	0.03446515	3	8	0	3000
232803	15	-4	-2	0.1613624	-0.03232063	0.612857	0	11.68	4004	0	0	0	0	0.3875899	0.024045	3	8	0	3000
232900	13	0	-1	0.164882	-0.02897664	0.6135903	0	11.68	4004	0	0	0	0	0.3875899	0.01544738	3	8	0	3000
232996	10	2	-4	0.1651302	-0.03149721	0.6140182	0	11.68	4002	0	0	0	0	0.3875899	0.002321759	3	8	0	3000
233095	8	6	-3	0.1641706	-0.03157334	0.6152411	0	11.68	4004	0	0	0	0	0.3875899	-0.00080242	3	8	0	3000
233238	16	3	7	0.169071	-0.02571233	0.6158524	0	11.68	4002	-1	0	0	0	0.3875899	-0.0004110695	3	8	0	3000
233297	4	31	23	0.1668862	-0.04500372	0.6217221	0	11.68	4003	-1	-5	-1	0	0.3875899	0.001100367	3	8	0	3000
233402	-33	6	-80	0.1655947	-0.03496917	0.6291214	0	11.68	4002	14	-3	1	0	0.3875899	0.002591731	3	8	0	3000
233504	89	8	2	0.1761591	-0.05409653	0.6301004	0	11.68	4003	0	0	-1	0	0.3875899	0.003266016	3	8	0	3000
233606	3	27	214	0.2096572	-0.05226276	0.6246099	0	11.68	4002	-5	16	-2	0	0.3875899	0.005311359	3	8	0	3000
233715	-98	-23	71	0.2353687	-0.02269809	0.6299891	0	11.4	4003	39	-14	0	0	0.3875899	0.00745533	3	8	0	3000
233813	-47	-19	-124	0.2901348	-0.05594611	0.6437487	0	11.4	4003	-4	-7	0	0	0.3875899	0.0183155	3	8	0	3000
233913	36	19	25	0.2989016	-0.06098577	0.6299692	0	11.4	4002	-38	0	-3	0	0.3875899	0.03177472	3	8	0	3000
234015	161	-11	136	0.2757932	-0.05940391	0.6231308	0	11.4	4002	46	16	-2	0	0.3875899	0.04217754	3	8	0	3000
234116	-12	130	-115	0.2866576	-0.06271104	0.6320561	0	11.4	4004	3	-5	-1	0	0.3875899	0.05259845	3	8	0	3000
234302	119	-60	127	0.2807056	-0.03599538	0.6470454	0	11.4	4002	-31	21	-3	0	0.3875899	0.05524135	3	8	0	3000
234326	119	-60	127	0.2807056	-0.03599538	0.6470454	0	11.4	4002	-35	-20	-1	0	0.3875899	0.05696575	3	8	0	3000
234425	143	117	-21	0.2709686	-0.08650291	0.6468626	0	11.4	4002	-12	3	-1	0	0.3875899	0.06144467	3	8	0	3000
234533	44	57	-131	0.2512743	-0.08972777	0.633055	0	11.4	4003	3	3	0	0	0.3875899	0.06597219	3	8	0	3000
234647	-28	-909	507	0.2565548	0.5897153	0.6068124	0	11.63	4004	-83	-18	5	0	0.3875899	0.06995087	3	8	0	3000
234735	-640	-901	149	-0.1564778	1.516306	0.7527707	0	11.63	4003	11	-150	-12	0	0.3875899	0.076987	3	8	0	3000
234840	-108	1223	-253	-0.29304	1.194373	0.9699829	0	11.63	4003	-83	123	21	0	0.3875899	0.09253759	3	8	0	3000
234953	-2002	3468	340	-0.9929342	-4.296267	-0.09125647	0	11.63	4002	64	-173	13	0	0.3875899	0.1365387	3	8	0	3000
235048	-1741	-950	-538	-3.54142	-5.507881	0.0856593	0	11.63	4004	102	-42	-6	0	0.3875899	0.1638187	3	8	0	3000
235154	634	728	-1015	-3.688799	-5.023844	0.6051002	0	11.63	4003	-74	-65	-23	0	0.3875899	0.200797	3	8	0	3000
235253	-967	-1256	-921	-1.534158	-6.70656	0.9722714	0	11.63	4003	79	-212	-29	0	0.3875899	0.2314039	3	8	0	3000
235355	-95	-105	-751	-1.426313	-7.98534	1.330668	0	11.63	4003	56	-291	-31	0	0.3875899	0.2630836	3	8	0	3000
235467	2610	257	-728	1.593556	-10.70441	1.210338	0	11.63	4003	-33	-98	-15	0	0.3875899	0.3271582	3	8	0	3000
235564	1723	284	635	5.342557	-10.39804	1.068635	0	10.89	4004	-80	-14	-2	0	0.3875899	0.3550581	3	8	0	3000
235660	-599	-84	148	6.35038	-9.916734	0.7020264	0	10.89	4004	129	-136	-2	0	0.3875899	0.4145367	3	8	0	3000
235780	-919	-1323	-491	4.32838	-8.118547	0.7256377	0	10.89	4003	109	-42	-12	0	0.3875899	0.4762542	3	8	0	3000
235872	-1062	-720	-1246	3.252926	-8.819464	1.078125	0	10.89	4003	111	-132	-26	0	0.3875899	0.5048974	3	8	0	3000
235971	256	2357	883	2.228977	-11.29787	0.3832018	0	10.89	4003	-23	19	15	0	0.3875899	0.529218	3	8	0	3000
236094	-985	-1713	-962	2.332367	-10.7007	0.3570068	0	10.89	4002	114	-190	-13	0	0.3875899	0.5854058	3	8	0	3000
236172	-957	2856	387	1.532736	-11.62988	0.377358	0	10.89	4002	61	-31	-12	0	0.3875899	0.6175033	3	8	0	3000
236279	2398	507	339	2.98934	-12.52622	0.9470559	0	10.89	4004	-61	-262	-10	0	0.3875899	0.6598978	3	8	0	3000
236395	-586	-1351	-232	3.56105	-10.84848	1.900626	0	10.89	4003	46	-104	-35	0	0.3875899	0.7230576	3	8	0	3000
236482	-1010	-1724	25	2.9994	-9.760852	1.806228	0	10.89	4004	-21	-65	-10	0	0.3875899	0.7561276	3	8	0	3000
236624	-742	-1119	243	3.833756	-5.99696	0.0361799	0	10.72	4004	56	-27	11	0	0.3875899	0.8131119	3	8	0	3000
236700	-768	-2470	-594	2.902884	-3.709855	0.05795374	0	10.72	4003	67	-131	-3	0	0.3875899	0.8430573	3	8	0	3000
236782	-247	-1709	-1214	3.807053	-2.727375	0.4531057	0	10.72	4003	149	-175	-15	0	0.3875899	0.8910099	3	8	0	3000
236889	1228	832	-203	5.156433	-3.516719	1.42297	0	10.72	4003	-65	-82	-21	0	0.3875899	0.9197648	3	8	0	3000
237068	-703	-590	676	4.539226	-4.126593	1.130061	0	10.72	4004	0	-113	-18	0	0.3875899	0.9813966	3	8	0	3000
237213	259	-1512	-226	2.409024	-3.588048	0.5642894	0	10.72	4003	84	-253	-5	0	0.3875899	1.008767	3	8	0	3000
237357	340	1357	308	2.889269	-5.015131	1.4077	0	10.72	4004	-91	83	-16	0	0.3875899	1.025631	3	8	0	3000
237545	76	-1799	-346	3.397846	-3.181537	1.353	0	11.46	4002	-1	-290	-22	0	0.3875899	1.029283	3	8	0	3000
237716	-392	-1414	-504	5.851437	-4.997633	0.004765917	0	11.46	4004	-3	-88	1	0	0.3875899	1.019024	3	8	0	3000
237858	-603	700	-416	5.543864	-5.775079	1.592806	0	11.46	4003	-6	-213	-32	0	0.3875899	1.015422	3	8	0	3000
237916	-635	-987	199	3.150696	-5.031969	1.478014	0	11.46	4004	16	62	-23	0	0.3875899	1.006099	3	8	0	3000
237987	419	2580	914	3.176385	-5.02973	1.407111	0	11.46	4004	-67	-235	-37	0	0.3875899	1.001343	3	8	0	3000
238091	178	2542	162	2.753602	-8.551189	0.9944413	0	11.46	4002	1	-389	-18	0	0.3875899	0.9969977	3	8	0	3000
238322	-314	2152	807	-0.4955265	-8.671682	0.5244384	0	11.46	4004	-119	175	13	0	0.3875899	0.9420742	3	8	0	3000
238434	63	-2929	-292	0.8587093	-8.19198	0.4327932	0	10.77	4004	49	-246	0	0	0.3875899	0.894527	3	8	0	3000
238509	158	-140	-269	-1.040986	-5.45854	0.04094711	0	10.77	4003	-67	208	14	0	0.3875899	0.8806731	3	8	0	3000
238610	-776	2529	-3	-1.545631	-7.844654	-0.3136432	0	10.77	4004	143	-173	11	0	0.3875899	0.8456911	3	8	0	3000
238712	591	1580	461	-2.15453	-10.52589	0.2139916	0	10.77	4003	-38	-68	15	0	0.3875899	0.8154111	3	8	0	3000
238906	2348	-352	-1304	-0.4967937	-11.27222	1.442055	0	10.77	4003	-5	-343	-26	0	0.3875899	0.7651094	3	8	0	3000
238961	3023	1812	611	2.891474	-11.91671	1.284877	0	10.77	4004	-75	64	-11	0	0.3875899	0.7482238	3	8	0	3000
238997	2982	902	561	4.134234	-12.24207	1.146401	0	10.77	4004	-64	-21	-11	0	0.3875899	0.7375984	3	8	0	3000
239099	763	531	768	5.319623	-8.977287	1.073661	0	10.77	4004	-69	208	-2	0	0.3875899	0.7087001	3	8	0	3000
239198	-1686	-570	-329	4.249648	-9.723187	0.8391683	0	10.77	4002	-30	69	-6	0	0.3875899	0.6905813	3	8	0	3000
239296	-344	-3535	-434	3.092252	-6.354452	1.246737	0	10.94	4004	161	-210	-23	0	0.3875899	0.6618102	3	8	0	3000
239404	715	1290	771	2.448369	-5.33321	1.450441	0	10.94	4002	18	-80	-18	0	0.3875899	0.6380872	3	8	0	3000
239505	2094	511	-926	4.353157	-6.10247	2.570008	0	10.94	4004	0	0	0	0	0.3875899	0.6117842	1	8	0	3000
239609	2618	1593	-34	6.288801	-7.014311	3.274016	0	10.94	4003	0	0	0	0	0.3875899	0.577662	1	8	0	3000
239742	2249	2047	-92	8.423493	-8.500302	3.45785	0	10.94	4004	0	0	0	0	0.3875899	0.5430743	1	8	0	3000
239808	2041	4138	-213	8.402957	-8.883982	3.422267	0	10.94	4003	0	0	0	0	0.3875899	0.5222231	1	8	0	3000
239947	1666	-13325	-6303	17.8483	-0.6832969	3.647009	0	10.94	4003	0	0	0	0	0.3875899	0.4524295	1	8	0	3000
240014	5532	-251	-938	19.28249	14.66436	3.44317	0	10.94	4004	0	0	0	0	0.3875899	0.4145167	1	8	0	3000
240135	-804	16811	1358	17.26398	0.6402881	1.734859	0	10.94	4003	0	0	0	0	0.3875899	0.3695255	1	8	0	3000
240217	-207	-1145	-14	15.41173	-4.954423	2.873891	0	11.51	4003	0	0	0	0	0.3875899	0.3129585	1	8	0	3000
240324	-9	-8	22	13.3099	-4.145441	2.810678	0	11.51	4004	0	0	0	0	0.3875899	0.2703961	1	8	0	3000
240438	-4	-1	4	11.47492	-3.631476	2.80542	0	11.51	4002	0	0	0	0	0.3875899	0.2269321	1	8	0	3000
240537	-5	-3	4	9.876743	-3.190449	2.802058	0	11.51	4004	0	0	0	0	0.3875899	0.1877632	1	8	0	3000
240636	-5	-3	-1	8.478096	-2.814024	2.799734	0	11.51	4003	0	0	0	0	0.3875899	0.1406773	3	8	0	3000
240723	0	0	1	7.648582	-2.586295	2.798451	0	11.51	4003	-24	7	0	0	0.3875899	0.1087737	3	8	0	3000
240822	49	200	-51	6.513536	-2.249748	2.84516	0	11.51	4004	-27	6	1	0	0.3875899	0.08284248	3	8	0	3000
240921	-74	86	145	5.532862	-1.884098	2.816228	0	11.51	4004	-32	2	-3	0	0.3875899	0.05638865	3	8	0	3000
241041	-80	-111	199	4.393095	-1.558279	2.804585	0	11.51	4002	-33	17	-1	0	0.3875899	0.04103294	3	8	0	3000
241174	166	-124	133	3.605582	-1.270849	2.78439	0	10.6	4004	-28	-17	-3	0	0.3875899	0.004667262	3	8	0	3000
241244	-169	-639	-356	2.801357	-0.2798372	2.778876	0	10.6	4010	0	0	0	0	0.3875899	-0.002428166	3	8	0	3000
241343	2	664	17	2.136155	-0.008597729	2.763759	0	10.6	4002	0	0	0	0	0.3875899	-0.01114218	1	8	0	3000
241424	53	91	-15	1.719615	-0.2598591	2.765533	0	10.6	4004	0	0	0	0	0.3875899	-0.01345291	1	8	0	3000
241521	31	77	24	1.297565	-0.2517093	2.756366	0	10.6	4002	0	0	0	0	0.3875899	-0.01670899	1	8	0	3000
241624	81	11	-32	1.052348	-0.260822	2.769451	0	10.6	4004	0	0	0	0	0.3875899	-0.02931374	1	8	0	3000
241727	39	18	-61	0.7297872	-0.2008372	2.776848	0	10.6	4002	0	0	0	0	0.3875899	-0.04190968	1	8	0	3000
241826	4	19	62	0.5510671	-0.1539876	2.775994	0	10.6	4003	0	0	0	0	0.3875899	-0.05079	1	8	0	3000
241933	19	-28	16	0.2471836	-0.09565961	2.770191	0	10.6	4002	0	0	0	0	0.3875899	-0.06073468	1	8	0	3000
242044	1	-11	-3	0.02261666	-0.0432159	2.768358	0	11.57	4002	0	0	0	0	0.3875899	-0.065905	1	8	0	3000
242137	9	6	0	-0.1639932	0.006109097	2.777225	0	11.57	4003	0	0	0	0	0.3875899	-0.06822383	1	8	0	3000
242243	9	2	-14	-0.307037	0.04373995	2.780158	0	11.57	4004	0	0	0	0	0.3875899	-0.06812655	1	8	0	3000
242342	4	-9	-12	-0.3968061	0.06161446	2.778629	0	11.57	4003	0	0	0	0	0.3875899	-0.06686996	1	8	0	3000
242447	1	4	-3	-0.5506284	0.1039065	2.775573	0	11.57	4003	0	0	0	0	0.3875899	-0.06220727	1	8	0	3000
242546	3	1	0	-0.6535283	0.130556	2.775818	0	11.57	4003	0	0	0	0	0.3875899	-0.06058875	1	8	0	3000
242653	4	5	0	-0.73656	0.1589686	2.774717	0	11.57	4002	0	0	0	0	0.3875899	-0.06264501	1	8	0	3000
242750	8	-1	0	-0.7885157	0.1757109	2.773433	0	11.57	4004	0	0	0	0	0.3875899	-0.06233345	1	8	0	3000
242851	2	4	0	-0.8539121	0.1854402	2.772333	0	11.57	4004	0	0	0	0	0.3875899	-0.0595414	1	8	0	3000
242955	2	1	0	-0.9323488	0.2060447	2.773494	0	11.57	4003	0	0	0	0	0.3875899	-0.05354311	1	8	0	3000
243054	8	2	0	-0.977617	0.2185205	2.772455	0	11.57	4003	0	0	0	0	0.3875899	-0.04632549	1	8	0	3000
243168	3	5	0	-1.042075	0.2291038	2.772149	0	11.57	4003	0	0	0	0	0.3875899	-0.04658496	1	8	0	3000
243371	12	0	0	-1.093631	0.2395961	2.768847	0	11.57	4002	0	0	0	0	0.3875899	-0.05141565	1	8	0	3000
243519	6	0	0	-1.131407	0.2486919	2.767318	0	11.57	4004	0	0	0	0	0.3875899	-0.05263373	1	8	0	3000
243567	0	7	0	-1.137895	0.2502192	2.767502	0	11.57	4003	0	0	0	0	0.3875899	-0.05184572	1	8	0	3000
243671	10	-2	-2	-1.159052	0.2573922	2.768907	0	11.57	4003	0	0	0	0	0.3875899	-0.04733126	1	8	0	3000
243780	5	-2	0	-1.176756	0.2653528	2.76903	0	11.57	4002	0	0	0	0	0.3875899	-0.04016251	1	8	0	3000
243877	8	-6	1	-1.191294	0.269218	2.768112	0	11.63	4004	0	0	0	0	0.3875899	-0.03389013	1	8	0	3000
243980	7	-1	0	-1.208342	0.2790335	2.769641	0	11.63	4004	0	0	0	0	0.3875899	-0.02614763	1	8	0	3000
244083	6	4	-2	-1.207716	0.2779964	2.771781	0	11.63	4003	0	0	0	0	0.3875899	-0.02571693	1	8	0	3000
244169	9	-2	-2	-1.214097	0.2762319	2.772943	0	11.63	4003	0	0	0	0	0.3875899	-0.02322153	1	8	0	3000
244276	5	1	0	-1.218447	0.2867575	2.775694	0	11.63	4003	0	0	0	0	0.3875899	-0.0196807	1	8	0	3000
244381	6	0	3	-1.228898	0.2867993	2.776427	0	11.63	4003	0	0	0	0	0.3875899	-0.01027393	1	8	0	3000
244528	6	0	1	-1.235134	0.2891321	2.77765	0	11.63	4003	0	0	0	0	0.3875899	-0.006828454	1	8	0	3000
244587	10	-3	-1	-1.237624	0.2910129	2.778078	0	11.63	4003	0	0	0	0	0.3875899	-0.004283614	1	8	0	3000
244684	2	3	0	-1.238742	0.3008605	2.78034	0	11.63	4003	0	0	0	0	0.3875899	0.001660529	1	8	0	3000
244802	10	-4	2	-1.237229	0.2975731	2.781684	0	11.63	4002	0	0	0	0	0.3875899	0.00223666	1	8	0	3000
244886	11	0	-4	-1.236364	0.2960094	2.783335	0	11.57	4003	0	0	0	0	0.3875899	-0.000403636	1	8	0	3000
244984	8	-3	0	-1.236032	0.2950583	2.785108	0	11.57	4003	0	0	0	0	0.3875899	-0.005663975	1	8	0	3000
245089	6	0	-8	-1.23957	0.2924913	2.786942	0	11.57	4004	0	0	0	0	0.3875899	-0.01438601	1	8	0	3000
245199	6	6	-3	-1.241106	0.2960866	2.787676	0	11.57	4003	0	0	0	0	0.3875899	-0.01769751	1	8	0	3000
245298	5	0	2	-1.246422	0.2877963	2.788899	0	11.57	4003	0	0	0	0	0.3875899	-0.01653659	1	8	0	3000
