time(ms)	gyro_x(deg/s)	gyro_y(deg/s)	gyro_z(deg/s)	orientation_roll(deg)	orientation_pitch(deg)	orientation_yaw(deg)	throttle	battery(V)	loop_time(uS)	pid_output_roll	pid_output_pitch	pid_output_yaw	pid_output_throttle	ultrasonic_alt	baro_alt	flight_mode	p_gain_altitude	i_gain_altitude	d_gain_altitude
143711	-1110	-881	1509	3.440169	-6.393948	0.5453027	0	11.51	4003	-34	139	22	0	0.1372001	0.5600827	3	6	0	100
143825	-657	171	273	1.870407	-5.887228	-1.067382	0	11.51	4002	25	49	45	0	0.1372001	0.5592332	3	6	0	100
143919	952	-430	370	1.17366	-6.19068	-1.477946	0	11.51	4002	-93	56	53	0	0.1372001	0.560702	3	6	0	100
144032	-797	1022	-64	0.1863119	-4.169797	-0.7471828	0	11.51	4003	-22	-23	15	0	0.1372001	0.5630227	3	6	0	100
144139	-535	1342	-536	-0.6689207	-3.849874	0.07082106	0	11.51	4004	76	-249	3	0	0.1372001	0.5565171	3	6	0	100
144231	3260	1672	-98	1.028066	-4.94784	0.1474216	0	11.51	4003	-185	25	15	0	0.1372001	0.5524012	3	6	0	100
144344	914	3261	846	5.190929	-8.891628	-0.5846759	0	11.51	4004	42	38	11	0	0.1372001	0.5486178	3	6	0	100
144445	-94	187	-445	5.690831	-12.5645	-1.053271	0	11.51	4003	-39	-104	40	0	0.1372001	0.5360021	3	6	0	100
144545	973	-155	-32	5.577161	-11.9032	-0.9985328	0	11.34	4004	27	-44	26	0	0.1372001	0.5151854	3	6	0	100
144647	170	-880	30	6.359663	-9.549664	-0.9617564	0	11.34	4004	101	-187	20	0	0.1372001	0.5086652	3	6	0	100
144748	-1802	-1731	-1296	3.053231	-7.186873	-0.2971821	0	11.34	4002	-39	-182	13	0	0.1372001	0.4909178	3	6	0	100
144857	-518	105	-966	1.661708	-6.573107	-0.03321372	0	11.34	4003	128	-354	-2	0	0.1372001	0.4611762	3	6	0	100
144958	-211	4693	726	1.009537	-11.76638	-0.004431594	0	11.34	4003	-22	304	16	0	0.1372001	0.451493	3	6	0	100
145057	1015	2639	116	1.186957	-16.1472	0.9221413	0	11.34	4002	-36	209	-20	0	0.1372001	0.4448285	3	6	0	100
145173	-124	2032	202	2.947614	-17.94708	1.215451	0	11.34	4003	102	192	-16	0	0.1372001	0.4461999	3	6	0	100
145265	-206	-6116	-662	2.560485	-14.28623	1.249299	0	11.34	4003	154	-375	-28	0	0.1372001	0.4430564	3	6	0	100
145477	106	-1463	-579	0.5030133	-5.870304	-0.4308634	0	11.34	4002	-2	-307	11	0	0.1372001	0.4506298	3	6	0	100
145629	596	2332	-1175	1.404254	-9.133086	-0.09816877	0	11.06	4003	-95	98	21	0	0.1372001	0.4606033	3	6	0	100
145687	-1470	-300	-1475	1.439643	-10.74651	0.04834721	0	11.06	4004	149	-231	-6	0	0.1372001	0.4650098	3	6	0	100
145784	141	-1242	-1407	1.460641	-11.07987	1.650097	0	11.06	4004	23	-64	-55	0	0.1372001	0.4755632	3	6	0	100
145882	1438	2050	204	2.531071	-12.44576	1.949064	0	11.06	4002	-68	175	-20	0	0.1372001	0.4812802	3	6	0	100
146049	-11	-1026	1100	2.260515	-8.504017	0.3198247	0	11.06	4002	-48	3	13	0	0.1372001	0.4993779	3	6	0	100
146172	-193	4089	-176	3.333988	-13.34076	0.2248022	0	11.06	4003	34	-102	-14	0	0.1372001	0.5143303	3	6	0	100
146211	-834	-387	-1648	3.468318	-14.62663	0.4451028	0	11.06	4003	47	-324	-14	0	0.1372001	0.5143303	3	6	0	100
146280	-616	-3688	-652	3.176803	-10.31237	1.22098	0	11.06	4004	123	-141	-41	0	0.1372001	0.5196561	3	6	0	100
146383	-161	-2824	-985	3.577813	-7.603058	1.485208	0	11.06	4004	109	-276	-36	0	0.1372001	0.5304977	3	6	0	100
146488	-2356	148	1660	2.360891	-6.768073	0.3500991	0	11.8	4003	-28	188	20	0	0.1372001	0.5405458	3	6	0	100
146590	1079	-1488	-196	-0.2432054	-4.208014	0.06377833	0	11.8	4004	-56	80	19	0	0.1372001	0.5484566	3	6	0	100
146727	-31	1195	-422	0.692995	-4.634308	-0.03491849	0	11.8	4002	-37	43	25	0	0.1372001	0.5566589	3	6	0	100
146872	1677	-348	-430	1.12366	-5.224136	0.6041335	0	11.8	4003	-100	-96	-1	0	0.1372001	0.5607046	3	6	0	100
146932	413	456	-1139	2.668419	-5.878189	0.6338168	0	11.8	4003	-19	-126	-21	0	0.1372001	0.5646856	3	6	0	100
147001	2457	749	-1142	4.440343	-9.045874	1.06499	0	11.8	4002	47	-145	-29	0	0.1372001	0.5652906	3	6	0	100
147110	1606	-460	-722	6.832797	-9.234275	2.098552	0	11.8	4003	-72	34	-42	0	0.1372001	0.568176	3	6	0	100
147274	-578	1102	397	7.000641	-11.72894	2.819182	0	11.8	4002	-93	274	-62	0	0.1372001	0.5765578	3	6	0	100
147359	-1953	367	596	6.299325	-13.75018	2.030977	0	11.8	4002	54	-21	-22	0	0.1372001	0.5899212	3	6	0	100
147472	-442	-2745	-1765	3.19366	-9.856204	1.571253	0	11.29	4004	-98	217	-23	0	0.1372001	0.5984969	3	6	0	100
147579	-785	271	-1146	2.686996	-11.65167	2.895342	0	11.29	4003	22	135	-71	0	0.1372001	0.6015886	3	6	0	100
147617	-776	-2299	-1271	2.407171	-11.66386	3.230613	0	11.29	4004	60	-222	-77	0	0.1372001	0.6022483	3	6	0	100
147776	-461	-19	1501	0.4673838	-7.060964	1.987541	0	11.29	4002	35	-135	-32	0	0.1372001	0.6067224	3	6	0	100
147850	622	694	675	0.395307	-6.864225	1.746254	0	11.29	4003	99	-400	-49	0	0.1372001	0.6065853	3	6	0	100
147957	-809	-44	-210	0.0153302	-8.93348	1.51324	0	11.29	4002	39	382	-27	0	0.1372001	0.609699	3	6	0	100
148031	735	574	1024	1.542479	-8.818568	1.13323	0	11.29	4003	5	-135	-25	0	0.1372001	0.6082217	3	6	0	100
148186	-376	2795	1022	1.869934	-10.46958	0.7318755	0	11.29	4004	-56	249	11	0	0.1372001	0.6156806	3	6	0	100
148295	2544	2723	957	4.278367	-11.467	0.3349769	0	11.29	4002	9	-31	-10	0	0.1372001	0.6279883	3	6	0	100
148410	1697	3246	-25	6.892117	-15.88634	0.7693516	0	11.29	4003	-167	103	-8	0	0.1372001	0.6376832	3	6	0	100
148442	1638	2856	-418	7.492436	-17.09619	1.238314	0	11.29	4002	-35	131	-38	0	0.1372001	0.6391279	3	6	0	100
148536	-1272	-1314	-2063	6.763965	-18.27766	2.651112	0	11.29	4003	156	-238	-65	0	0.1372001	0.6449442	3	6	0	100
148706	-291	-561	986	5.936528	-14.24323	3.237954	0	11.29	4003	-44	-81	-64	0	0.1372001	0.6387879	3	6	0	100
148852	71	-1531	-7	4.43308	-10.4748	1.599329	0	11.29	4004	-14	-2	-36	0	0.1372001	0.6300968	3	6	0	100
148965	-773	-561	-294	4.52966	-9.155677	1.257803	0	11.29	4003	58	-92	-25	5	0.1372001	0.6349135	3	6	0	100
149043	-374	-166	-154	3.202737	-8.221836	1.291298	0	11.29	4002	15	-68	-26	4	0.2691693	0.6358947	4	6	0	100
149145	-411	-787	-237	2.443034	-7.468951	1.136757	0	11.29	4003	11	-71	-17	3	0.4097745	0.6318787	4	6	0	100
149287	1899	1344	-483	3.752698	-7.884696	1.010484	0	11.97	4004	13	-200	-20	3	0.5062899	0.6255249	4	6	0	100
149363	1760	2343	256	7.337226	-13.05824	0.8513285	0	11.97	4004	-53	160	-6	2	0.5424859	0.6190994	4	6	0	100
149463	-1043	1275	734	7.227762	-17.4007	0.0776741	0	11.97	4003	-125	234	21	2	0.5442721	0.6147438	4	6	0	100
149563	-592	-910	662	4.933085	-14.00113	0.3699515	0	11.97	4003	-50	113	5	2	0.5118786	0.5933577	4	6	0	100
149726	-851	-1986	-614	1.664704	-10.89799	-0.1586107	0	11.97	4003	63	-192	3	3	0.4294165	0.552577	4	6	0	100
149793	-2975	-1534	-97	0.7770122	-9.869524	-0.03250545	0	11.97	4004	24	158	4	3	0.3834102	0.5357991	4	6	0	100
149871	324	-941	-1198	-3.970722	-6.057335	0.8547602	0	11.97	4002	-7	-29	-18	3	0.343401	0.5186568	4	6	0	100
149991	-339	1251	1247	-0.5143299	-7.295572	-0.3104568	0	11.97	4002	32	-262	4	4	0.2866926	0.4955251	4	6	0	100
150130	4362	-258	-1759	1.105469	-12.51257	-2.469154	0	11.97	4004	-67	168	88	4	0.2079902	0.4516829	4	6	0	100
150262	-2352	-2948	-1415	1.038389	-10.60936	0.1351426	0	11.85	4003	141	-254	-11	4	0.1856355	0.4213891	4	6	0	100
150333	-687	-1118	-41	-1.023969	-7.687186	1.538855	0	11.85	4003	53	-166	-42	4	0.1970265	0.4082123	4	6	0	100
150391	-266	-2500	-1413	-1.092939	-6.704484	1.872734	0	11.85	4003	69	-227	-49	4	0.2138678	0.4020598	4	6	0	100
150484	2496	-838	397	0.8198519	-4.904697	2.091672	0	11.85	4003	-116	71	-71	4	0.2343623	0.3974547	4	6	0	100
150614	-1383	-1858	747	2.4606	-3.723518	1.845595	0	11.85	4004	88	-141	-37	4	0.3091548	0.4075736	4	6	0	100
150697	-18	135	1962	2.073811	-3.00833	0.9577126	0	11.85	4003	-102	198	12	3	0.3536447	0.4167634	4	6	0	100
150793	-535	-795	492	0.023345	-1.553212	0.4247275	0	11.85	4003	105	-400	-15	3	0.437764	0.4297578	4	6	0	100
150895	-472	2581	519	0.1900698	-4.622306	0.2991457	0	11.85	4004	50	-258	8	3	0.5353386	0.4414002	4	6	0	100
151005	399	-3237	-1640	-0.2010362	-4.412256	1.320843	0	11.85	4002	-7	-58	-40	2	0.6023017	0.4621467	4	6	0	100
151106	302	-899	-1617	-0.08857108	-4.280289	1.387805	0	11.85	4002	38	-190	-41	2	0.6919101	0.4864752	4	6	0	100
151209	985	-109	415	-0.2336985	-5.068473	0.639793	0	11.51	4002	-97	266	-6	1	0.8485811	0.5243869	4	6	0	100
151280	1380	483	891	0.5836269	-4.930073	0.7933953	0	11.51	4004	-66	203	2	0	0.9353225	0.5428163	4	6	0	100
151411	2084	-404	-1435	-0.2917209	-4.125241	1.443513	0	11.51	4003	-97	-179	-38	0	0.9382145	0.5669023	4	6	0	100
151492	412	1168	301	1.394664	-4.530469	1.386341	0	11.51	4002	-59	41	-23	0	1.065902	0.5951864	4	6	0	100
151574	795	1218	1288	0.6481306	-4.470769	1.706079	0	11.51	4004	-11	-254	-44	0	0.9795259	0.6214563	4	6	0	100
151679	157	1022	482	0.8974822	-5.307894	1.255115	0	11.51	4003	-32	295	-12	0	0.9893822	0.6271542	4	6	0	100
151784	3362	-2210	-1390	3.071013	-4.498341	1.499367	0	11.51	4004	-58	-318	-29	0	1.001459	0.638731	4	6	0	100
151896	690	-595	512	6.781545	-4.040831	0.8197885	0	11.51	4002	13	-7	0	0	0.9978785	0.6721567	4	6	0	100
151990	638	-2149	-924	7.795907	-2.622903	0.5930032	0	11.51	4002	115	-146	-16	0	0.9978785	0.6721567	4	6	0	100
152093	1145	2249	-500	10.44801	-6.128994	1.337045	0	11.4	4002	-111	287	-20	0	1.14782	0.6966124	4	6	0	100
152195	558	2727	-867	11.06624	-13.00755	1.889199	0	11.4	4003	48	-110	-38	-1	1.205848	0.7032698	4	6	0	100
152296	1060	1586	-782	11.63846	-16.6265	1.929464	0	11.4	4003	175	-331	-40	-1	1.233124	0.7057055	4	6	0	100
152399	991	4202	532	12.48752	-19.45277	2.370013	0	11.4	4002	-102	258	-42	-1	1.262437	0.7005824	4	6	0	100
152506	72	213	864	12.28854	-19.9499	1.648013	0	11.4	4003	85	-144	-13	-1	1.292619	0.7012887	4	6	0	100
152634	-283	2789	-881	11.38741	-20.35878	-0.5636673	0	11.4	4003	25	-28	8	-1	1.358377	0.6987036	4	6	0	100
152716	-931	2512	-1331	9.629646	-23.22524	0.1127093	0	11.4	4004	-6	-60	-5	-1	1.306193	0.6984699	4	6	0	100
152811	-99	956	-902	6.643433	-24.36075	1.801562	0	11.4	4004	-119	181	-32	-2	1.380087	0.6998463	4	6	0	100
152914	-2265	2807	56	6.533952	-28.53642	2.082971	0	11.4	4002	97	37	-40	-2	1.450863	0.7058319	4	6	0	100
153017	-230	-1328	1095	5.197062	-28.18826	1.258482	0	11.68	4003	0	-25	-18	-2	1.410994	0.7135391	4	6	0	100
153129	-2821	-3291	-518	5.049867	-23.08703	0.8386229	0	11.68	4004	128	-279	-18	-2	1.384962	0.7233782	4	6	0	100
153222	-3254	-3935	-983	0.4714082	-16.08383	1.061441	0	11.68	4002	38	-24	-33	-2	1.37116	0.7298566	4	6	0	100
153332	-2502	-324	-382	-2.596988	-16.29998	1.487236	0	11.68	4002	182	-270	-18	-1	1.249698	0.7564608	4	6	0	100
153425	-1856	-3845	-199	-3.519503	-11.7922	1.126817	0	11.68	4002	73	-155	-16	-1	1.177983	0.7725037	4	6	0	100
153529	-3935	-3658	-581	-6.076144	-7.196393	0.3956044	0	11.68	4004	116	-318	-7	0	1.1225	0.7960668	4	6	0	100
153629	-2551	-760	761	-9.490121	-4.752476	0.05424226	0	11.68	4004	-6	-235	-5	0	1.120768	0.8101683	4	6	0	100
153732	-3677	-4369	-1552	-11.22688	-2.994799	0.1013793	0	11.68	4004	23	198	18	0	1.041445	0.819752	4	6	0	100
153833	-1031	969	412	-13.65676	-0.9687372	0.2638482	0	11.68	4003	50	-160	-12	0	1.074825	0.8188235	4	6	0	100
153949	1712	734	-1532	-6.229569	-5.504083	0.6863822	0	11.68	4004	11	51	-12	0	1.046932	0.8080286	4	6	0	100
154040	133	2477	200	-4.811334	-8.816712	0.7621257	0	11.68	4002	64	93	-17	0	1.005674	0.7999208	4	6	0	100
154148	1229	4251	422	-2.641204	-13.77002	0.52401	0	11.68	4004	-77	90	7	0	0.8824705	0.7830253	4	6	0	100
154254	-749	1467	551	-0.7933334	-17.72108	0.4631191	0	11.68	4002	127	-217	-1	1	0.7553945	0.759617	4	6	0	100
154353	1620	207	-1827	-1.47693	-17.84208	1.177324	0	11.68	4003	-104	-51	-13	2	0.6608706	0.7306659	4	6	0	100
154454	-6763	6819	-466	3.135981	-3.029855	0.9808202	0	11.68	4004	129	62	-36	2	0.5158067	0.6947719	4	6	0	100
154554	1402	-2661	-519	-3.106516	-6.590515	2.51879	0	11.68	4003	-111	123	-70	3	0.4001278	0.6656621	4	6	0	100
154661	-821	-636	1990	1.193022	0.3524601	2.653711	0	11.68	4003	97	-348	-28	4	0.3322207	0.6457958	4	6	0	100
154755	1009	1587	1625	-0.04771847	-4.186637	0.575993	0	11.68	4003	26	-254	-8	4	0.3330483	0.6207476	4	6	0	100
154879	-73	3004	-204	0.8883098	-5.574888	1.08592	0	11.63	4004	-98	107	-7	3	0.38668	0.6190629	4	6	0	100
154966	191	3644	315	0.3126997	-12.23359	1.195539	0	11.63	4002	-2	3	-5	3	0.4739203	0.6244757	4	6	0	100
155070	1048	-608	561	0.3849088	-12.93259	1.149929	0	11.63	4003	-177	256	-15	2	0.6141701	0.641425	4	6	0	100
155168	2494	-808	-650	3.933691	-10.70259	1.961765	0	11.63	4003	77	-26	-46	1	0.7148849	0.6585783	4	6	0	100
155273	3117	-1846	84	9.366503	-9.330752	1.182846	0	11.63	4003	49	-115	-16	0	0.9185728	0.6786417	4	6	0	100
155376	-221	-1691	539	10.94481	-4.671394	0.411041	0	11.63	4003	-46	-45	4	0	1.037919	0.7046394	4	6	0	100
155478	-1045	3710	793	7.525084	-6.844038	0.03811777	0	11.63	4003	1	-144	15	0	1.063295	0.7172313	4	6	0	100
155662	49	3700	536	5.829686	-15.73409	1.856633	0	11.63	4003	-11	-307	-43	0	1.134138	0.7439705	4	6	0	100
155684	-1219	2024	-891	5.637032	-17.53587	2.164488	0	11.63	4003	87	50	-48	0	1.18057	0.7655509	4	6	0	100
155783	-1189	3874	514	3.357656	-20.30811	2.1458	0	11.11	4003	-82	232	-35	-1	1.28794	0.7912406	4	6	0	100
155969	355	-1818	1955	0.6037476	-12.51101	2.556518	0	11.11	4002	-56	297	-25	-1	1.237806	0.8434477	4	6	0	100
156008	1507	1045	1804	0.9610319	-11.49129	1.409245	0	11.11	4003	71	-342	-40	-1	1.237951	0.8576378	4	6	0	100
156099	2897	-779	1374	3.104211	-10.63391	0.3402421	0	11.11	4003	-28	-7	16	-1	1.212914	0.8905895	4	6	0	100
156237	1725	-299	-152	7.219089	-5.750642	0.8836212	0	11.11	4003	-23	126	1	-1	1.171838	0.922511	4	6	0	100
156298	698	1028	238	7.977028	-5.860014	1.012421	0	11.11	4003	18	-160	-10	-1	1.227008	0.9502573	4	6	0	100
156401	557	1243	45	7.133269	-7.996011	1.316949	0	11.11	4004	-66	298	-23	0	1.10897	1.009719	4	6	0	100
156512	943	-916	270	5.629717	-8.626211	1.787923	0	11.11	4004	32	-229	-43	0	1.112971	1.045355	4	6	0	100
156620	-1371	-840	1099	5.225315	-7.649783	1.273425	0	11.11	4003	-106	114	-12	0	1.105129	1.069955	4	6	0	100
156723	-873	-599	-188	3.424735	-7.290893	0.9432519	0	11.51	4002	-105	140	-8	0	1.075709	1.086699	4	6	0	100
156812	-842	-986	135	2.532596	-7.17012	0.7526579	0	11.51	4003	8	-6	-8	0	1.062935	1.093229	4	6	0	100
156914	1141	1093	-1691	2.287221	-7.243766	0.4814007	0	11.51	4003	-125	53	10	0	1.082222	1.114069	4	6	0	100
157030	-1964	376	-1525	1.459214	-12.95078	0.2165197	0	11.51	4003	41	-230	-15	0	1.159324	1.146204	4	6	0	100
157135	-1654	-2500	-1342	-0.7673777	-12.33698	1.000554	0	11.51	4002	-36	337	-14	0	1.057501	1.157161	4	6	0	100
157236	-1452	1058	-648	-3.633467	-13.48984	0.9484238	0	11.51	4004	16	166	7	0	1.071118	1.190229	4	6	0	100
157333	-1136	1740	939	-3.939294	-14.91045	0.2439034	0	11.51	4004	-20	-32	9	0	1.084782	1.2044	4	6	0	100
157432	-1604	-807	929	-4.996777	-14.01295	0.1433504	0	11.51	4002	-17	0	20	0	1.102396	1.213719	4	6	0	100
157520	-331	694	129	-6.054488	-13.48163	-0.1565686	0	11.51	4002	-4	12	31	0	1.056582	1.221317	4	6	0	100
157643	1778	778	22	-3.000734	-12.58558	0.04249274	0	11	4002	-65	400	25	0	1.162442	1.236687	4	6	0	100
157726	-1191	-1455	-1358	-1.986189	-13.64614	0.2629777	0	11	4003	65	-385	-15	-1	1.186617	1.242082	4	6	0	100
157826	-469	-3790	-1148	-0.1013348	-9.593218	1.03592	0	11	4002	-54	-222	-19	-1	1.250613	1.256488	4	6	0	100
157929	503	-1224	302	1.034311	-8.299767	0.8244634	0	11	4004	-66	-98	-10	-1	1.233221	1.283659	4	6	0	100
158098	-1550	-579	-970	-0.2038718	-5.269376	0.5480779	0	11	4003	19	277	2	0	1.211561	1.308919	3	6	0	100
158133	-461	270	-190	-0.7470575	-6.295413	0.4019716	0	11	4004	27	42	-5	0	1.187302	1.321001	3	6	0	100
158224	1175	982	542	0.7580559	-6.907099	0.7305436	0	11	4004	-64	-34	2	0	1.159274	1.348903	3	6	0	100
158333	0	-2091	-31	1.559088	-6.306296	1.097129	0	11	4003	-52	7	-15	0	1.138842	1.378976	3	6	0	100
158437	81	-184	318	1.656247	-2.865185	1.073084	0	11	4003	61	-142	-18	0	1.123948	1.407655	3	6	0	100
158534	-774	3483	-532	2.473316	-6.93387	0.9283623	0	11	4002	193	-129	-17	0	1.113089	1.43011	3	6	0	100
158646	2957	939	-120	5.591197	-13.52539	1.499765	0	11.63	4004	-5	-45	-32	0	1.105174	1.453575	3	6	0	100
158761	-251	-545	390	7.45542	-12.58745	0.4954531	0	11.63	4003	107	-202	-1	0	1.099403	1.468512	3	6	0	100
158843	1469	33	-634	7.782423	-12.7305	0.2672297	0	11.63	4002	-191	273	17	0	1.095196	1.478041	3	6	0	100
158951	-1777	-775	-912	10.06806	-18.09023	0.1909696	0	11.63	4002	68	-69	0	0	1.09213	1.481785	3	6	0	100
159057	-820	-1442	264	6.528726	-15.39871	0.4480799	0	11.63	4003	203	-215	-11	0	1.089894	1.481168	3	6	0	100
159158	1728	2581	50	6.8	-14.86225	0.873188	0	11.63	4003	73	-39	-26	0	1.087826	1.472973	3	6	0	100
159251	329	1597	11	7.637335	-16.61731	0.9975834	0	11.63	4003	10	15	-30	0	1.086756	1.457541	3	6	0	100
159365	-178	-222	-154	7.855088	-17.0119	1.740271	0	11.63	4004	65	-275	-33	0	1.085977	1.441106	3	6	0	100
159486	-938	-1793	313	7.262204	-16.39257	1.701003	0	11.63	4003	136	-115	-33	0	1.085409	1.420577	3	6	0	100
159564	-2236	-2908	-607	5.121052	-12.98499	1.329312	0	11.23	4003	129	-261	-30	0	1.084994	1.383883	3	6	0	100
159655	-759	-90	491	3.232211	-9.632738	0.6815103	0	11.23	4004	85	-20	-12	0	1.084783	1.366288	3	6	0	100
159758	-2551	-586	-309	2.289566	-11.23404	0.04060125	0	11.23	4003	199	-133	2	0	1.084538	1.33328	3	6	0	100
159891	-376	-1537	-858	1.033497	-8.895569	0.6446016	0	11.23	4002	51	-223	-7	0	1.084312	1.28746	3	6	0	100
159978	83	1583	776	1.219738	-9.572647	0.6426901	0	11.23	4004	-109	-12	-1	0	1.084195	1.253927	3	6	0	100
160060	247	-1867	-496	1.498702	-9.466165	0.5127608	0	11.23	4004	-56	5	6	0	1.084135	1.23059	3	6	0	100
160219	-261	1291	842	0.8242076	-7.751365	0.1669997	0	11.23	4002	114	-191	-4	0	1.084031	1.170486	3	6	0	100
160258	1077	413	-259	1.057521	-8.353454	0.2962237	0	11.23	4004	38	170	4	0	1.084015	1.164021	3	6	0	100
160366	-336	-414	-116	1.247311	-8.652662	0.06874315	0	11.23	4004	24	87	0	0	1.083979	1.13826	3	6	0	100
160469	-5	-329	-362	1.734135	-7.343586	0.2828662	0	11.68	4003	-63	240	-9	0	1.083952	1.108712	3	6	0	100
160575	-429	844	686	1.218259	-5.723231	0.6209286	0	11.68	4003	20	92	10	0	1.083933	1.063248	3	6	0	100
160674	-500	-2094	-861	0.06271914	-5.762483	0.2182386	0	11.68	4002	-71	285	15	0	1.083918	1.024121	3	6	0	100
160767	-1162	48	-227	0.5689262	-4.757049	0.3505681	0	11.68	4004	-35	29	15	0	1.083905	0.9641172	3	6	0	100
160871	-114	583	1549	0.01972747	-4.341335	0.06279384	0	11.68	4003	75	-197	-10	0	1.083898	0.9298794	3	6	0	100
160972	879	2056	408	-0.2838779	-5.318347	-0.6219735	0	11.68	4002	13	96	18	0	1.083893	0.9009363	3	6	0	100
161085	144	-231	-1257	1.553556	-6.94078	-0.7061954	0	11.68	4004	-13	89	26	0	1.08389	0.8759742	3	6	0	100
161314	864	-848	-1078	2.588919	-7.871395	-0.1089333	0	11.68	4003	63	-254	13	0	1.083885	0.8231627	3	6	0	100
161525	-60	-1796	-338	1.917453	-9.244322	0.4451036	0	10.83	4003	81	91	2	0	1.083882	0.7534623	3	6	0	100
161605	283	-1532	-191	2.557304	-9.290737	-0.6475103	0	10.83	4003	-38	-237	39	0	1.083882	0.7376551	3	6	0	100
161685	531	2193	831	3.792042	-9.397528	-0.804795	0	10.83	4004	72	137	33	0	1.083881	0.7045418	3	6	0	100
161785	-222	-578	-1570	3.101393	-10.28121	-0.4894083	0	10.83	4004	-101	-172	9	0	1.083881	0.67919	3	6	0	100
161882	-2009	-998	-742	1.765676	-8.997443	-0.1839587	0	10.83	4003	127	-360	4	0	1.083881	0.6583822	3	6	0	100
161991	-612	2079	-428	1.443708	-10.54952	-0.1069366	0	10.83	4003	8	-17	0	0	1.08388	0.6262933	3	6	0	100
162094	-253	23	-1491	-0.1888355	-13.86806	0.2064376	0	10.83	4004	162	-332	-8	0	1.08388	0.5986919	3	6	0	100
162193	360	549	-65	0.3565037	-13.55049	1.171275	0	10.83	4004	-82	226	-21	0	1.08388	0.5775903	3	6	0	100
162298	-640	-229	-368	-0.122524	-12.7121	1.835702	0	11.29	4003	59	30	-31	0	1.08388	0.5402725	3	6	0	100
162458	1819	1840	1091	1.82969	-13.27092	1.01521	0	11.29	4003	-108	123	1	0	1.08388	0.4975764	3	6	0	100
162531	754	2647	464	3.637927	-15.39061	0.6904396	0	11.29	4004	-47	195	1	0	1.08388	0.4830503	3	6	0	100
162603	-744	539	-642	3.964027	-17.21806	0.509388	0	11.29	4004	109	-61	-8	0	1.08388	0.4478111	3	6	0	100
162706	-928	-1931	-497	4.438637	-15.75807	0.9125119	0	11.29	4004	-11	-59	-16	0	1.08388	0.4234191	3	6	0	100
162807	7613	7899	-106	1.688647	-3.390804	1.991453	0	11.29	4002	0	0	0	0	1.08388	0.4010986	3	6	0	100
162908	-629	-10299	1092	1.553163	-4.450147	1.408931	0	11.29	4003	0	0	0	0	1.08388	0.3730137	3	6	0	100
163015	-224	-20	-857	1.661119	-5.65435	1.989092	0	11.29	4002	0	0	0	0	1.08388	0.349587	3	6	0	100
163118	-25	71	-2	1.438053	-5.324391	2.220563	0	11.29	4002	0	0	0	0	1.08388	0.3243717	3	6	0	100
163222	-74	20	-151	1.148571	-4.63189	2.212918	0	11.63	4003	0	0	0	0	1.08388	0.2988981	3	6	0	100
163402	-59	-4	-36	0.6855429	-3.545005	2.171531	0	11.63	4003	0	0	0	0	1.08388	0.2430776	1	6	0	100
163428	-49	2	23	0.6160236	-3.392542	2.160772	0	11.63	4003	0	0	0	0	1.08388	0.2379611	1	6	0	100
163517	-52	-1	15	0.4366411	-2.979031	2.145793	0	11.63	4003	0	0	0	0	1.08388	0.2176582	1	6	0	100
163621	-51	25	16	0.2851748	-2.593014	2.132096	0	11.63	4004	0	0	0	0	1.08388	0.1979785	1	6	0	100
163723	-73	-1	-51	0.1868196	-2.381153	2.125429	0	11.63	4003	0	0	0	0	1.08388	0.1767953	1	6	0	100
163824	-49	-18	-4	0.07607184	-2.083963	2.113935	0	11.63	4004	0	0	0	0	1.08388	0.157355	1	6	0	100
163933	-32	35	-28	-0.06709874	-1.742582	2.094679	0	11.63	4003	0	0	0	0	1.08388	0.1398421	1	6	0	100
164032	-38	7	53	-0.1652569	-1.536625	2.082944	0	11.63	4003	0	0	0	0	1.08388	0.1246135	1	6	0	100
164143	-57	7	7	-0.2493906	-1.345379	2.069619	0	11.74	4004	0	0	0	0	1.08388	0.1167418	1	6	0	100
164246	-65	23	-22	-0.3120596	-1.176294	2.060447	0	11.74	4003	0	0	0	0	1.08388	0.1025704	1	6	0	100
164351	-64	-10	-14	-0.3663289	-1.041113	2.045897	0	11.74	4002	0	0	0	0	1.08388	0.08668457	1	6	0	100
164441	-33	4	20	-0.4043345	-0.9529938	2.038623	0	11.74	4003	0	0	0	0	1.08388	0.0737054	1	6	0	100
164542	-45	4	-3	-0.4573929	-0.8118911	2.025357	0	11.74	4002	0	0	0	0	1.08388	0.06190757	1	6	0	100
164657	-37	-4	-5	-0.4863738	-0.7170125	2.013619	0	11.74	4004	0	0	0	0	1.08388	0.05556622	1	6	0	100
164751	-42	-1	17	-0.5139706	-0.6316937	2.000592	0	11.74	4003	0	0	0	0	1.08388	0.05555524	1	6	0	100
164848	-48	1	22	-0.5426938	-0.5568099	1.991421	0	11.74	4003	0	0	0	0	1.08388	0.05553914	1	6	0	100
164963	-43	-4	6	-0.5595344	-0.4982311	1.980905	0	11.74	4007	0	0	0	0	1.08388	0.05067552	1	6	0	100
165057	-30	-2	-2	-0.5828886	-0.4473478	1.967027	0	11.74	4004	0	0	0	0	1.08388	0.05361135	1	6	0	100
165162	-47	-2	2	-0.5993374	-0.3967954	1.954555	0	11.8	4002	0	0	0	0	1.08388	0.05975855	1	6	0	100
165263	-36	2	12	-0.6120871	-0.3491331	1.945324	0	11.8	4003	0	0	0	0	1.08388	0.06365369	1	6	0	100
165392	-45	0	9	-0.6184239	-0.3124378	1.932423	0	11.8	4003	0	0	0	0	1.08388	0.06425178	1	6	0	100
165547	-45	1	5	-0.6281677	-0.2577273	1.912493	0	11.8	4004	0	0	0	0	1.08388	0.06488328	1	6	0	100
165608	-43	0	5	-0.636018	-0.2432796	1.906318	0	11.8	4003	0	0	0	0	1.08388	0.06679235	1	6	0	100
165796	-39	0	10	-0.6501476	-0.2048894	1.889384	0	11.8	4003	0	0	0	0	1.08388	0.07847422	1	6	0	100
166022	-39	-3	9	-0.6456679	-0.1664579	1.865174	0	11.8	4004	0	0	0	0	1.08388	0.1115023	1	6	0	100
166172	-40	-4	3	-0.6484714	-0.1469993	1.849218	0	11.8	4002	0	0	0	0	1.08388	0.1143072	1	6	0	100
166322	-41	4	6	-0.6535855	-0.1306609	1.839436	0	11.8	4003	0	0	0	0	1.08388	0.1036003	1	6	0	100
166373	-36	-2	4	-0.6502026	-0.1278811	1.83375	0	11.8	4003	0	0	0	0	1.08388	0.1013398	1	6	0	100
166461	-39	4	7	-0.6511188	-0.121906	1.827087	0	11.8	4002	0	0	0	0	1.08388	0.09991398	1	6	0	100
166599	-37	0	6	-0.65321	-0.1199288	1.813026	0	11.8	4002	0	0	0	0	1.08388	0.0965924	1	6	0	100
166679	-40	4	1	-0.6435378	-0.113159	1.807585	0	11.8	4002	0	0	0	0	1.08388	0.09957144	1	6	0	100
166775	-38	-1	5	-0.6445387	-0.1107403	1.801715	0	11.8	4004	0	0	0	0	1.08388	0.1032161	1	6	0	100
166973	-41	3	4	-0.6359432	-0.116838	1.787532	0	11.8	4002	0	0	0	0	1.08388	0.1108818	1	6	0	100
167095	-42	4	8	-0.6347622	-0.1056638	1.777995	0	11.8	4003	0	0	0	0	1.08388	0.1183794	1	6	0	100
167149	-38	0	5	-0.6292042	-0.1011231	1.772493	0	11.8	4002	0	0	0	0	1.08388	0.1225469	1	6	0	100
167306	-34	8	6	-0.6223181	-0.08960415	1.757452	0	11.8	4002	0	0	0	0	1.08388	0.1267706	1	6	0	100
167469	-46	1	8	-0.6194446	-0.09183156	1.748098	0	11.8	4002	0	0	0	0	1.08388	0.1271309	1	6	0	100
167558	-40	-5	4	-0.6211571	-0.08766681	1.741679	0	11.8	4003	0	0	0	0	1.08388	0.1223233	1	6	0	100
167649	-33	-1	2	-0.6183149	-0.087349	1.733793	0	11.8	4002	0	0	0	0	1.08388	0.1169602	1	6	0	100
167749	-27	0	0	-0.6168039	-0.09873239	1.726518	0	11.8	4003	0	0	0	0	1.08388	0.1065316	1	6	0	100
167853	-42	1	7	-0.6221994	-0.09348628	1.718753	0	11.85	4002	0	0	0	0	1.08388	0.09725853	1	6	0	100
167959	-32	-5	9	-0.6169432	-0.08667092	1.712027	0	11.85	4004	0	0	0	0	1.08388	0.09621548	1	6	0	100
168062	-34	-1	4	-0.6158047	-0.08809736	1.705607	0	11.85	4003	0	0	0	0	1.08388	0.1005731	1	6	0	100
168161	-33	5	5	-0.618594	-0.08756091	1.700227	0	11.85	4002	0	0	0	0	1.08388	0.1064126	1	6	0	100
168262	-42	0	2	-0.6231205	-0.0900875	1.692462	0	11.85	4003	0	0	0	0	1.08388	0.1085226	1	6	0	100
168368	-38	9	4	-0.6242289	-0.09748939	1.686471	0	11.85	4002	0	0	0	0	1.08388	0.1024894	1	6	0	100
168516	-33	-1	4	-0.6219808	-0.09364133	1.67626	0	11.85	4002	0	0	0	0	1.08388	0.08410354	1	6	0	100
168610	-41	1	0	-0.6212691	-0.0947436	1.672469	0	11.85	4002	0	0	0	0	1.08388	0.07993321	1	6	0	100
168676	-36	-2	3	-0.6179096	-0.09408206	1.669168	0	11.85	4003	0	0	0	0	1.08388	0.07896395	1	6	0	100
168788	-35	1	3	-0.6120511	-0.09207325	1.663421	0	11.74	4002	0	0	0	0	1.08388	0.08090642	1	6	0	100
168870	-33	1	7	-0.6078421	-0.09290063	1.659509	0	11.74	4003	0	0	0	0	1.08388	0.08668506	1	6	0	100
169005	-32	-1	4	-0.6127858	-0.09673829	1.649115	0	11.74	4003	0	0	0	0	1.08388	0.08609291	1	6	0	100
169078	-33	4	3	-0.6116534	-0.09764097	1.644469	0	11.74	4003	0	0	0	0	1.08388	0.08716335	1	6	0	100
169221	-34	3	4	-0.6093501	-0.09892531	1.636215	0	11.74	4002	0	0	0	0	1.08388	0.08346158	1	6	0	100
169313	-33	2	2	-0.6008468	-0.09229554	1.628573	0	11.74	4002	0	0	0	0	1.08388	0.07491302	1	6	0	100
169398	-39	-1	-1	-0.5994591	-0.0912493	1.624477	0	11.74	4007	0	0	0	0	1.08388	0.07050657	1	6	0	100
169496	-39	6	0	-0.5978429	-0.09187226	1.617751	0	11.74	4002	0	0	0	0	1.08388	0.06880081	1	6	0	100
169586	-34	-1	3	-0.5918544	-0.09466674	1.614144	0	11.74	4002	0	0	0	0	1.08388	0.07053467	1	6	0	100
169687	-35	2	4	-0.5843633	-0.09451581	1.60907	0	11.74	4003	0	0	0	0	1.08388	0.07134113	1	6	0	100
169921	-34	1	2	-0.5781795	-0.09905888	1.596965	0	11.8	4003	0	0	0	0	1.08388	0.07140432	1	6	0	100
170001	-31	5	0	-0.5773968	-0.09678093	1.595559	0	11.8	4004	0	0	0	0	1.08388	0.07382994	1	6	0	100
170101	-38	2	3	-0.5909481	-0.09700168	1.589828	0	11.8	4003	0	0	0	0	1.08388	0.0791529	1	6	0	100
170202	-33	-3	9	-0.5898892	-0.09446166	1.585182	0	11.8	4002	0	0	0	0	1.08388	0.08581372	1	6	0	100
170307	-33	-2	6	-0.6012772	-0.08996185	1.576272	0	11.8	4003	0	0	0	0	1.08388	0.09596702	1	6	0	600
170408	-30	-1	1	-0.6049813	-0.0911791	1.570831	0	11.8	4003	0	0	0	0	1.08388	0.1031687	1	6	0	600
170522	-28	-2	2	-0.5993705	-0.09203272	1.565511	0	11.8	4002	0	0	0	0	1.08388	0.1095013	1	6	0	600
170617	-33	3	9	-0.5973434	-0.0924858	1.55903	0	11.8	4002	0	0	0	0	1.08388	0.1114826	1	6	0	600
170717	-38	-4	4	-0.6007045	-0.09990164	1.553284	0	11.8	4003	0	0	0	0	1.08388	0.1136317	1	6	0	600
170815	-33	5	1	-0.6010999	-0.09610501	1.547354	0	11.8	4004	0	0	0	0	1.08388	0.1213978	1	6	0	600
170928	-35	-1	5	-0.6046479	-0.09734551	1.540934	0	11.8	4002	0	0	0	0	1.08388	0.1301421	1	6	0	600
171019	-30	6	-2	-0.6067661	-0.1008958	1.534881	0	11.8	4005	0	0	0	0	1.08388	0.1377959	1	6	0	600
171121	-40	2	2	-0.6085987	-0.09625238	1.531518	0	11.8	4004	0	0	0	0	1.08388	0.1439572	1	6	0	600
171223	-34	3	4	-0.6078961	-0.0866638	1.525894	0	11.8	4004	0	0	0	0	1.08388	0.1459689	1	6	0	600
171328	-30	4	4	-0.6077124	-0.088384	1.518435	0	11.8	4003	0	0	0	0	1.08388	0.1457503	1	6	0	600
171431	-33	8	1	-0.6060869	-0.08869411	1.51385	0	11.8	4004	0	0	0	0	1.08388	0.1452323	1	6	0	600
171534	-29	4	0	-0.5960343	-0.08330309	1.508776	0	11.8	4002	0	0	0	0	1.08388	0.1420193	1	6	0	600
171672	-41	0	2	-0.5919707	-0.08685352	1.502784	0	11.8	4002	0	0	0	0	1.08388	0.1326672	1	6	0	600
171733	-30	-2	7	-0.5933095	-0.08912226	1.498626	0	11.8	4003	0	0	0	0	1.08388	0.1300398	1	6	0	600
171834	-34	1	5	-0.5951413	-0.09483321	1.4897	0	11.8	4003	0	0	0	0	1.08388	0.1146669	1	6	0	600
171938	-34	0	7	-0.5848353	-0.09500416	1.485298	0	11.8	4003	0	0	0	0	1.08388	0.1069865	1	6	0	600
172037	-42	0	4	-0.5820275	-0.09858616	1.478878	0	11.8	4003	0	0	0	0	1.08388	0.1006928	1	6	0	600
172139	-25	4	0	-0.5792645	-0.09561279	1.474476	0	11.8	4004	0	0	0	0	1.08388	0.09715261	1	6	0	600
172254	-31	2	4	-0.5691664	-0.09222521	1.469035	0	11.8	4002	0	0	0	0	1.08388	0.0963733	1	6	0	600
172364	-34	0	6	-0.5630872	-0.09555755	1.4661	0	11.8	4004	0	0	0	0	1.08388	0.1026844	1	6	0	600
172441	-35	5	2	-0.5637428	-0.09456733	1.462982	0	11.8	4003	0	0	0	0	1.08388	0.1041718	1	6	0	600
172542	-37	1	1	-0.5599849	-0.09862305	1.459497	0	11.85	4003	0	0	0	0	1.08388	0.111375	1	6	0	600
172653	-26	6	0	-0.5513224	-0.09795096	1.454911	0	11.85	4004	0	0	0	0	1.08388	0.1180353	1	6	0	600
172761	-36	2	4	-0.549171	-0.1014741	1.450264	0	11.85	4003	0	0	0	0	1.08388	0.1303264	1	6	0	600
172843	-29	-4	0	-0.5476305	-0.09676066	1.447268	0	11.85	4003	0	0	0	0	1.08388	0.1444855	1	6	0	600
172941	-24	5	1	-0.547499	-0.09096619	1.443233	0	11.85	4003	0	0	0	0	1.08388	0.156371	1	6	0	600
173045	-27	-4	4	-0.5481672	-0.09526854	1.440054	0	11.85	4003	0	0	0	0	1.08388	0.1632544	1	6	0	600
173148	-38	-2	0	-0.5504847	-0.09965777	1.436385	0	11.85	4003	0	0	0	0	1.08388	0.1733487	1	6	0	600
173249	-29	-5	4	-0.5516886	-0.09789935	1.431555	0	11.85	4003	0	0	0	0	1.08388	0.1746011	1	6	0	600
173492	-28	3	3	-0.5483182	-0.09340651	1.426175	0	11.8	4003	0	0	0	0	1.08388	0.1702801	1	6	0	600
173561	-29	-2	5	-0.5448861	-0.09433344	1.421589	0	11.8	4003	0	0	0	0	1.08388	0.1742603	1	6	0	600
173659	-39	0	-2	-0.5497379	-0.09302814	1.419021	0	11.8	4003	0	0	0	0	1.08388	0.1714914	1	6	0	600
173758	-26	0	2	-0.5505932	-0.09433153	1.417615	0	11.8	4003	0	0	0	0	1.08388	0.1661344	1	6	0	600
173869	-31	1	0	-0.5406733	-0.09545016	1.415231	0	11.8	4003	0	0	0	0	1.08388	0.1654945	1	6	0	600
173965	-30	-1	3	-0.5389422	-0.09681959	1.413092	0	11.8	4002	0	0	0	0	1.08388	0.1648517	1	6	0	600
174084	-34	4	1	-0.5292306	-0.09526989	1.410402	0	11.8	4003	0	0	0	0	1.08388	0.1659865	3	6	0	600
174186	-25	4	5	-0.5210544	-0.09939027	1.40655	0	11.8	4002	0	0	0	0	1.08388	0.1669216	3	6	0	600
174282	-26	-3	3	-0.5303963	-0.0966714	1.402392	0	11.8	4004	0	0	0	0	1.08388	0.161543	3	6	0	600
174385	-29	2	1	-0.5251427	-0.09516549	1.400252	0	11.8	4003	0	0	0	0	1.08388	0.1549502	3	6	0	600
174506	-36	0	5	-0.5263402	-0.09501719	1.395666	0	11.8	4004	0	0	0	0	1.08388	0.1472103	3	6	0	600
174581	-27	3	2	-0.5214253	-0.09679295	1.39426	0	11.8	4002	0	0	0	0	1.08388	0.1455608	3	6	0	600
174679	-24	-2	3	-0.5215086	-0.09743663	1.394626	0	11.8	4004	1	0	0	0	1.08388	0.1373371	3	6	0	600
174790	-21	3	-63	-0.5162203	-0.08259176	1.395667	0	11.8	4003	0	-6	0	0	1.08388	0.1350088	3	6	0	600
174889	40	-3	46	-0.5136728	-0.07350964	1.38815	0	11.8	4002	-7	10	0	0	1.08388	0.1366781	3	6	0	600
174992	-36	35	-175	-0.4976013	-0.09021082	1.398721	0	11.8	4003	2	1	1	0	1.08388	0.1361251	3	6	0	600
175097	-133	-33	15	-0.5327027	-0.09847278	1.372185	0	11.8	4003	6	-1	0	0	1.08388	0.137395	3	6	0	600
175185	-159	72	-86	-0.5381792	-0.10231	1.362158	0	11.8	4003	10	0	0	0	1.08388	0.1358995	3	6	0	600
175283	-55	-4	-90	-0.5165814	-0.09950864	1.360632	0	11.91	4004	10	-19	1	0	1.08388	0.136568	3	6	0	600
