time(ms)	gyro_x(deg/s)	gyro_y(deg/s)	gyro_z(deg/s)	orientation_roll(deg)	orientation_pitch(deg)	orientation_yaw(deg)	throttle	battery(V)	loop_time(uS)	pid_output_roll	pid_output_pitch	pid_output_yaw	pid_output_throttle	ultrasonic_alt	baro_alt	flight_mode	p_gain_altitude	i_gain_altitude	d_gain_altitude
276661	12	-5	0	0.1042626	-0.01297391	0.029653	0	11.68	4004	0	0	0	0	0.3875899	-0.01559762	1	8	0	3000
276761	12	0	3	0.1070917	-0.007379234	0.02989758	0	11.68	4002	0	0	0	0	0.3875899	-0.01384855	1	8	0	3000
276859	8	3	0	0.1068281	-0.003437871	0.03142609	0	11.68	4003	0	0	0	0	0.3875899	-0.01557762	1	8	0	3000
276950	16	-2	-3	0.1074404	4.089352E-05	0.03429948	0	11.68	4004	0	0	0	0	0.3875899	-0.01798933	1	8	0	3000
277055	17	-2	-3	0.1168262	-0.00961473	0.0353388	0	11.68	4003	0	0	0	0	0.3875899	-0.02290053	1	8	0	3000
277156	6	-1	0	0.1173249	-0.02052815	0.0408413	0	11.68	4003	0	0	0	0	0.3875899	-0.0208755	1	8	0	3000
277249	10	1	0	0.1125439	-0.02172421	0.04243091	0	11.68	4004	0	0	0	0	0.3875899	-0.01804877	1	8	0	3000
277356	12	1	0	0.1086436	-0.02761731	0.04347018	0	11.63	4003	0	0	0	0	0.3875899	-0.01040572	1	8	0	3000
277408	15	-2	-4	0.1165395	-0.02798086	0.04524312	0	11.63	4002	0	0	0	0	0.3875899	0.002089933	1	8	0	3000
277482	9	-3	0	0.1226265	-0.02610965	0.04622108	0	11.63	4002	0	0	0	0	0.3875899	0.01398184	3	8	0	3000
277578	5	0	-3	0.1275472	-0.02302497	0.04866653	0	11.63	4002	0	0	0	0	0.3875899	0.01889901	3	8	0	3000
277685	21	0	0	0.134149	-0.02343239	0.05050091	0	11.63	4003	0	0	0	0	0.3875899	0.0209249	3	8	0	3000
277788	9	0	-2	0.1404624	-0.02876981	0.0530078	0	11.63	4004	0	0	0	0	0.3875899	0.02126927	3	8	0	3000
277888	12	1	-3	0.1430033	-0.02356802	0.05533087	0	11.63	4004	0	0	0	0	0.3875899	0.02758681	3	8	0	3000
277995	14	0	0	0.1488068	-0.02546031	0.05857133	0	11.63	4003	0	0	0	0	0.3875899	0.0409637	3	8	0	3000
278101	21	-9	-3	0.149572	-0.02369002	0.06254535	0	11.63	4004	0	0	0	0	0.3875899	0.05219561	3	8	0	3000
278196	14	-1	-4	0.1513561	-0.02884668	0.06529629	0	11.63	4002	0	0	0	0	0.3875899	0.06325346	3	8	0	3000
278303	13	0	0	0.1484017	-0.02547548	0.06596851	0	11.68	4003	0	0	0	0	0.3875899	0.07386069	3	8	0	3000
278406	17	3	-5	0.1534992	-0.02211701	0.06963671	0	11.68	4004	0	0	0	0	0.3875899	0.08410379	3	8	0	3000
278506	19	-17	29	0.1667401	-0.02139875	0.07183988	0	11.68	4002	-2	2	0	0	0.3875899	0.08621141	3	8	0	3000
278616	13	4	11	0.1704989	-0.04208887	0.06982263	0	11.68	4008	0	2	0	0	0.3875899	0.08607589	3	8	0	3000
278716	11	-16	-79	0.1858228	-0.04489171	0.07966027	0	11.68	4002	-4	-9	1	0	0.3875899	0.08680429	3	8	0	3000
278817	32	7	-81	0.1781695	-0.00898872	0.0874223	0	11.68	4003	-4	-4	-1	0	0.3875899	0.09652215	3	8	0	3000
278922	69	60	-97	0.2197717	-0.03949402	0.09414878	0	11.68	4002	-4	4	1	0	0.3875899	0.1187396	3	8	0	3000
279023	31	-47	-144	0.256966	-0.02926859	0.1016825	0	11.68	4004	-53	9	0	0	0.3875899	0.1351122	3	8	0	3000
279126	107	69	-56	0.2536804	-0.01355347	0.1064531	0	11.68	4002	-18	-19	0	0	0.3875899	0.1582289	3	8	0	3000
279231	-64	64	-63	0.1840552	-0.008348245	0.122037	0	11.63	4002	4	4	0	0	0.3875899	0.173718	3	8	0	3000
279349	51	66	66	0.144272	0.01991309	0.1215442	0	11.63	4003	1	-11	0	0	0.3875899	0.1841795	3	8	0	3000
279450	59	22	183	0.158953	0.01900127	0.1149509	0	11.63	4002	-13	-17	-1	0	0.3875899	0.1841426	3	8	0	3000
279535	-7	25	79	0.15032	0.02563599	0.1158158	0	11.63	4002	6	13	-1	0	0.3875899	0.1814517	3	8	0	3000
279637	-48	-162	-125	0.1176262	0.03139783	0.1080529	0	11.63	4002	-8	13	0	0	0.3875899	0.1805851	3	8	0	3000
279739	138	-28	-48	0.152607	0.01824679	0.1095949	0	11.63	4002	-35	-9	0	0	0.3875899	0.1708245	3	8	0	3000
279850	41	-47	-260	0.1606977	0.01045044	0.109913	0	11.63	4004	-32	8	1	0	0.3875899	0.1643907	3	8	0	3000
279946	176	-28	-240	0.1112361	0.01072009	0.1264694	0	11.63	4003	-6	15	1	0	0.3875899	0.1507147	3	8	0	3000
280053	16	-96	169	0.1240157	-0.06866932	0.09322646	0	11.63	4004	47	-17	0	0	0.3875899	0.1497064	3	8	0	3000
280158	12	10	465	-0.0009381085	-0.19204	0.09316376	0	11.46	4002	-8	11	2	0	0.3875899	0.1478533	3	8	0	3000
280257	-98	47	271	0.02696495	-0.1657606	0.1270909	0	11.46	4004	-11	-52	-2	0	0.3875899	0.1518359	3	8	0	3000
280351	-42	-586	262	0.2979959	0.02203621	0.1337687	0	11.46	4003	-22	-2	1	0	0.3875899	0.1578647	3	8	0	3000
280458	25	-2579	455	0.3078291	2.450957	0.2181978	0	11.46	4004	-69	-45	0	0	0.3875899	0.1673995	3	8	0	3000
280561	767	3224	331	1.640949	1.596543	0.3747629	0	11.46	4003	-18	65	-9	0	0.3875899	0.1751693	3	8	0	3000
280669	-447	3905	-242	1.91891	-5.671595	0.7535089	0	11.46	4002	-4	162	-13	0	0.3875899	0.1980687	3	8	0	3000
280771	-277	2450	-227	0.1348399	-10.96389	0.7309455	0	11.46	4003	-126	298	-18	0	0.3875899	0.2112304	3	8	0	3000
280871	-959	-835	151	-1.186773	-10.66114	1.149798	0	11.46	4004	-23	-70	-29	0	0.3875899	0.2201489	3	8	0	3000
280961	-778	-809	230	-2.235531	-8.962296	1.33419	0	11.46	4003	70	-205	-31	0	0.3875899	0.2345306	3	8	0	3000
281093	-178	-124	1028	-3.032956	-7.578553	0.1362871	0	10.89	4003	-87	0	1	0	0.3875899	0.2692653	3	8	0	3000
281173	11	-833	101	-3.831434	-7.102626	-0.3242109	0	10.89	4004	57	-264	10	0	0.3875899	0.2866647	3	8	0	3000
281273	-1936	659	-842	-2.14959	-10.32005	-0.2682786	0	10.89	4003	119	-108	4	0	0.3875899	0.3328328	3	8	0	3000
281397	1770	-135	-1759	-1.849977	-11.61448	0.2473481	0	10.89	4003	-67	-220	-13	0	0.3875899	0.3647099	3	8	0	3000
281509	189	-1099	-631	0.07182572	-9.24108	1.033668	0	10.89	4002	85	-102	-30	0	0.3875899	0.3868369	3	8	0	3000
281561	-79	1617	1094	-0.5049781	-9.355286	0.912079	0	10.89	4002	-33	53	-13	0	0.3875899	0.4001947	3	8	0	3000
281668	813	-209	-152	-0.2987407	-10.53172	0.368746	0	10.89	4003	-148	266	-1	0	0.3875899	0.4203571	3	8	0	3000
281767	-1016	-3637	-754	-0.6902063	-9.688383	0.1072442	0	10.89	4004	105	-354	-5	0	0.3875899	0.4343071	3	8	0	3000
281875	406	-1213	115	-0.721988	-5.524862	-0.1474579	0	10.89	4004	-53	59	18	0	0.3875899	0.457777	3	8	0	3000
281979	-459	-1931	172	-0.7422206	-3.354002	-0.7157485	0	10.94	4004	92	-209	16	0	0.3875899	0.4715511	3	8	0	3000
282089	147	1961	875	-1.075842	-3.26031	-0.4082967	0	10.94	4003	7	-299	10	0	0.3875899	0.487562	3	8	0	3000
282185	1007	1483	601	0.2787826	-5.465271	-0.03617834	0	10.94	4004	-58	-50	15	0	0.3875899	0.5006212	3	8	0	3000
282296	-2329	559	1492	-2.106281	-5.524898	-0.07224973	0	10.94	4004	129	-389	-2	0	0.3875899	0.5001211	3	8	0	3000
282388	403	2255	1355	-2.504951	-7.661347	-0.3924377	0	10.94	4002	40	57	12	0	0.3875899	0.504022	3	8	0	3000
282492	-1402	-1443	-814	-3.278184	-8.241677	-1.134011	0	10.94	4003	-83	19	36	0	0.3875899	0.5123335	3	8	0	3000
282588	1380	497	-677	-2.405226	-8.764723	-0.469712	0	10.94	4003	-95	104	18	0	0.3875899	0.5213426	3	8	0	3000
282708	-1571	2024	1230	-2.315947	-9.59185	-0.222754	0	10.94	4003	111	27	-3	0	0.3875899	0.5350928	3	8	0	3000
282799	-179	-1212	-467	-3.307873	-10.89069	-0.5481628	0	10.94	4003	-36	-276	22	0	0.3875899	0.5425923	3	8	0	3000
282908	-282	884	789	-1.942658	-9.197511	-0.9865479	0	10.94	4003	5	-2	19	0	0.3875899	0.5556049	3	8	0	3000
282999	1297	1532	415	-0.6543281	-9.669268	-1.07846	0	11.34	4003	-6	-60	12	0	0.3875899	0.5676924	3	8	0	3000
283103	-139	-152	472	-0.8573411	-8.411251	-0.2083644	0	11.34	4002	28	-346	5	0	0.3875899	0.5787067	3	8	0	3000
283211	-255	-376	986	-0.99451	-6.234591	0.2901134	0	11.34	4004	-35	-177	1	0	0.3875899	0.5976415	3	8	0	3000
283323	-836	-2120	-1038	-0.5318784	-5.572218	0.5380244	0	11.34	4002	123	-250	-17	0	0.3875899	0.6134234	3	8	0	3000
283422	1409	1870	691	-0.6721396	-5.736251	1.239707	0	11.34	4003	24	-148	-39	0	0.3875899	0.6309161	3	8	0	3000
283523	-773	1262	284	0.5943635	-8.023315	0.2771026	0	11.34	4003	-15	182	1	0	0.3875899	0.6310402	3	8	0	3000
283625	543	1696	-756	0.9726079	-10.5523	-0.2453936	0	11.34	4003	24	187	17	0	0.3875899	0.6169698	3	8	0	3000
283738	495	-1068	-1149	1.216383	-11.83554	0.2495701	0	11.34	4003	-66	-114	-11	0	0.3875899	0.6009857	3	8	0	3000
283837	-1558	-109	1109	0.76665	-11.27743	-0.1893322	0	11.34	4002	102	-78	-5	0	0.3875899	0.5899014	3	8	0	3000
283974	-584	-651	94	0.4217027	-9.452491	-0.8074702	0	10.6	4003	-6	-119	35	0	0.3875899	0.5672508	3	8	0	3000
284033	998	629	-283	0.4339683	-9.217797	-0.9093499	0	10.6	4002	19	53	18	0	0.3875899	0.5640696	3	8	0	3000
284124	1801	203	313	1.946988	-8.69758	-0.5018063	0	10.6	4004	-79	169	15	0	0.3875899	0.5688977	3	8	0	3000
284221	98	1122	372	3.108754	-6.666372	-0.05420592	0	10.6	4004	-28	273	5	0	0.3875899	0.5685018	3	8	0	3000
284331	441	1502	-81	2.437499	-7.811782	0.1952979	0	10.6	4003	32	63	-18	0	0.3875899	0.5731325	3	8	0	3000
284434	62	145	-681	2.832459	-7.62301	0.3885927	0	10.6	4002	-15	38	-7	0	0.3875899	0.5819911	3	8	0	3000
284538	24	1598	213	1.251269	-9.550556	0.1806369	0	10.6	4002	-2	-24	7	0	0.3875899	0.5961704	3	8	0	3000
284639	133	-1100	558	1.120707	-8.913892	0.4703551	0	10.6	4003	-52	9	0	0	0.3875899	0.6081707	3	8	0	3000
284763	-251	41	-595	0.6438887	-8.349813	-0.06870149	0	10.6	4002	-15	29	-4	0	0.3875899	0.6198048	3	8	0	3000
284872	-1155	894	-370	0.04305835	-11.5116	-0.5310181	0	10.66	4003	82	48	10	0	0.3875899	0.6278801	3	8	0	3000
285002	137	-911	-1282	-0.4551956	-9.732677	-0.05856917	0	10.66	4003	-42	73	21	0	0.3875899	0.6485223	3	8	0	3000
285068	-72	1029	-788	-0.2707543	-10.58291	0.1142639	0	10.66	4003	28	122	3	0	0.3875899	0.6619779	3	8	0	3000
285203	-1379	305	781	-1.504996	-11.20815	0.1417064	0	10.66	4004	-9	88	6	0	0.3875899	0.6884938	3	8	0	3000
285254	-1095	-764	-646	-2.007566	-11.20099	0.267814	0	10.66	4002	71	-51	-16	0	0.3875899	0.6929214	3	8	0	3000
285341	-36	-46	-746	-1.052973	-11.49723	0.4116817	0	10.66	4003	15	61	-16	0	0.3875899	0.7056856	3	8	0	3000
285441	323	-348	410	-1.527643	-10.28195	0.5782577	0	10.66	4003	24	-159	-11	0	0.3875899	0.7162752	3	8	0	3000
285549	-132	1730	1130	-0.5322072	-10.80131	0.4456255	0	10.66	4003	47	-310	-6	0	0.3875899	0.7268106	3	8	0	3000
285652	-828	-413	-444	-0.5978447	-11.1682	0.1801285	0	10.66	4004	64	-238	-6	0	0.3875899	0.7412192	3	8	0	3000
285754	-586	-854	-1356	-1.204906	-12.1396	0.004836418	0	10.94	4002	-14	-149	-6	3	0.7064345	0.7608726	4	8	0	3000
285909	55	1655	731	-0.3249505	-10.73005	0.489099	0	10.94	4002	-23	-159	-1	0	0.9537128	0.7769287	4	8	0	3000
285974	-474	-212	-1217	-0.09160868	-10.55156	0.6255696	0	10.94	4004	44	-101	-24	0	0.9172259	0.7828042	4	8	0	3000
286054	-53	-816	-1070	-0.5481797	-11.90494	0.3368081	0	10.94	4004	4	25	-14	0	1.000765	0.7877149	4	8	0	3000
286218	837	-951	-1562	-0.2467564	-8.043848	1.175057	0	10.94	4004	31	-134	-42	0	1.110234	0.8067811	4	8	0	3000
286252	850	-1238	-79	0.1325774	-8.246777	1.260303	0	10.94	4002	116	-314	-32	0	1.115111	0.8088273	4	8	0	3000
286352	-746	478	964	0.6799713	-8.230343	1.287935	0	10.94	4004	116	12	-22	0	1.014852	0.8124734	4	8	0	3000
286561	-224	369	1472	0.5663692	-5.199656	-0.2989838	0	10.94	4002	-76	85	28	0	1.035023	0.8324947	4	8	0	3000
286627	1225	1764	-651	1.280989	-6.445192	-0.1627489	0	10.94	4002	20	76	-4	0	1.047238	0.8459013	4	8	0	3000
286772	-1110	-2246	435	0.02179106	-4.413488	-0.3768082	0	10.6	4003	-9	139	3	0	1.116819	0.8688992	4	8	0	3000
286887	-996	-1252	690	-0.001364069	-2.764153	-0.5323079	0	10.6	4002	-8	46	30	-1	1.170555	0.8674124	4	8	0	3000
286954	-707	-3056	-1088	-0.4953091	-2.467281	-0.4821505	0	10.6	4004	6	-94	24	-1	1.217563	0.8655922	4	8	0	3000
287062	-338	-1293	-660	-1.148336	-2.344786	-0.552449	0	10.6	4002	31	84	22	-2	1.254549	0.8634737	4	8	0	3000
287189	72	-51	-181	-0.04820815	-3.28478	-0.1652522	0	10.6	4004	99	75	9	-1	1.201779	0.8592291	4	8	0	3000
287251	-508	539	162	-0.1438761	-3.251621	0.02624942	0	10.6	4003	67	48	3	-1	1.179238	0.8597155	4	8	0	3000
287338	944	1761	266	-0.4745468	-4.851252	0.1475444	0	10.6	4003	48	40	-2	-1	1.177804	0.8577009	4	8	0	3000
287435	224	2196	-151	0.4810884	-8.950879	-0.1360357	0	10.6	4002	42	-262	-3	-1	1.261023	0.853855	4	8	0	3000
287541	-777	1190	510	-0.200543	-11.03852	-0.6158264	0	9.81	4003	-1	136	30	-2	1.130789	0.8498393	4	8	0	3000
287642	1234	-953	-542	0.5051607	-10.17593	-0.09613059	0	9.81	4003	-6	-220	3	-1	1.162694	0.8484804	4	8	0	3000
287747	-838	261	-988	-0.1345618	-10.44305	-0.4548109	0	9.81	4003	65	-53	-6	-1	1.182792	0.8516365	4	8	0	3000
287849	-719	-222	173	1.235605	-10.21022	-0.02025216	0	9.81	4004	36	-179	8	-1	1.142788	0.8544027	4	8	0	3000
287951	-60	221	858	0.7205606	-9.204707	0.3262987	0	9.81	4003	-75	219	-2	-1	1.139351	0.8575215	4	8	0	3000
288111	-767	4711	438	0.08536717	-9.957644	0.6611695	0	9.81	4002	-135	84	-2	0	1.043802	0.8660724	4	8	0	3000
288164	748	2275	-415	1.040261	-13.95378	0.253411	0	9.81	4004	-7	188	4	0	1.069339	0.8712371	4	8	0	3000
288287	-245	243	-246	3.19242	-16.65512	0.7611872	0	9.81	4004	98	35	-28	-1	1.140355	0.8792263	4	8	0	3000
288386	-497	-1998	-684	1.188441	-14.63642	0.8237167	0	9.81	4003	142	-360	-23	-1	1.222654	0.903951	4	8	0	3000
288514	-480	130	320	1.28728	-11.55036	1.640583	0	11.4	4003	-176	10	-38	-1	1.056252	0.9471619	4	8	0	3000
288598	-3443	-2913	106	-0.40921	-11.07507	0.9987667	0	11.4	4003	206	-263	-26	0	1.057591	0.9795136	4	8	0	3000
288677	848	-992	1010	-0.9645033	-7.881822	1.307929	0	11.4	4003	88	-203	-38	0	1.030985	1.027488	4	8	0	3000
288763	157	-1645	-186	-0.5966801	-5.229805	0.8860626	0	11.4	4004	72	-176	-30	0	1.027768	1.052691	4	8	0	3000
288882	-684	-2021	-507	-0.8341401	-4.270524	0.07001897	0	11.4	4004	140	-217	-3	0	1.071397	1.127677	4	8	0	3000
288975	546	-623	-450	0.8604262	-5.958366	-0.01200623	0	11.4	4003	46	-217	-8	-1	1.14424	1.196735	4	8	0	3000
289144	-1178	-1454	-465	-0.09160091	-3.90928	1.277125	0	11.4	4002	13	31	-38	-1	1.265514	1.301895	4	8	0	3000
289200	-348	-1535	-1264	-1.707007	-2.899434	1.311846	0	11.4	4003	-68	-162	-28	-2	1.340163	1.346038	4	8	0	3000
289269	490	2182	664	-1.00109	-4.775366	0.7088515	0	11.4	4003	-172	261	-2	-3	1.348322	1.392813	4	8	0	3000
289351	550	-2536	-1213	0.2058366	-5.1279	0.6480451	0	11.4	4003	-26	13	-18	-2	1.307853	1.424532	4	8	0	3000
289452	-942	-582	123	0.03796728	-4.110983	0.4432356	0	11.06	4002	-9	114	-6	-2	1.288414	1.521496	4	8	0	3000
289556	997	-1752	-671	0.6860473	-4.331074	0.6353951	0	11.06	4003	-66	-112	-15	-2	1.307641	1.583668	4	8	0	3000
289665	-726	-1952	-985	0.4588141	-2.903181	0.9142211	0	11.06	4003	117	-301	-28	0	1.35808	1.642768	3	8	0	3000
289767	-364	-1264	-616	-0.2974081	-2.068504	0.8698531	0	11.06	4003	26	-20	-28	0	1.394851	1.70628	3	8	0	3000
289876	652	555	321	-0.3795567	-3.828811	-0.2715185	0	11.06	4004	-61	-5	19	0	1.421657	1.752824	3	8	0	3000
289987	-1439	1438	-60	0.139943	-4.967686	-0.1727488	0	11.06	4004	-14	249	13	0	1.441198	1.798194	3	8	0	3000
290094	-18	2732	-536	-2.078635	-8.72086	0.1122511	0	11.06	4002	-44	146	-4	0	1.455444	1.838933	3	8	0	3000
290318	-579	2703	-116	-2.102748	-13.64757	0.2867555	0	11.06	4002	62	-55	-1	0	1.473399	1.917917	3	8	0	3000
290387	-146	3089	101	-3.2141	-15.17936	0.01165013	0	10.72	4002	-1	-57	5	0	1.477269	1.94337	3	8	0	3000
290483	240	2974	-128	-2.898383	-17.84708	-0.2064513	0	10.72	4003	32	-18	11	0	1.481739	1.975808	3	8	0	3000
290588	-171	3720	255	-3.363909	-22.71955	-0.3152481	0	10.72	4002	-22	-51	14	0	1.485875	1.99988	3	8	0	3000
290693	282	3175	-434	-3.103282	-24.48036	-0.2107003	0	10.72	4003	-6	-21	11	0	1.488013	2.0053	3	8	0	3000
290796	714	3011	298	-2.44398	-26.67488	-0.1668335	0	10.72	4004	-6	-89	6	0	1.489572	2.010125	3	8	0	3000
290930	-29	-153	39	-2.987288	-27.30038	-0.1235383	0	10.72	4006	91	-138	2	0	1.491014	2.011012	3	8	0	3000
291003	454	-3876	197	-0.5337683	-21.86661	-0.7389454	0	10.72	4006	3	-8	14	0	1.491537	2.00982	3	8	0	3000
291141	-2011	-7868	219	0.5745862	-8.885784	-2.894984	0	10.72	4004	-38	-182	77	0	1.492303	2.025605	3	8	0	3000
291241	1152	-3017	171	1.069759	0.7396725	-2.336941	0	10.72	4004	-54	-43	60	0	1.492699	2.034149	3	8	0	3000
291320	-587	-2301	-1837	0.9381831	2.480428	-1.166038	0	10.32	4003	-51	-129	29	0	1.492902	2.030661	3	8	0	3000
291414	-115	2366	453	-0.2159255	0.7157387	0.05877838	0	10.32	4003	23	104	0	0	1.493136	2.003729	3	8	0	3000
291513	-555	-157	-1017	0.06504918	-1.867025	0.3732904	0	10.32	4002	-31	210	-5	0	1.493306	1.966576	3	8	0	3000
291619	1664	708	792	0.6764536	-2.033051	0.1208602	0	10.32	4003	78	-115	-14	0	1.493431	1.917983	3	8	0	3000
291714	2919	104	1129	3.598455	-2.512108	-0.1486059	0	10.32	4004	-70	-14	20	0	1.493521	1.851255	3	8	0	3000
291807	-388	-1706	646	4.525986	-1.126017	0.04109889	0	10.32	4004	-70	252	8	0	1.493587	1.802523	3	8	0	3000
291919	-424	-1400	758	1.880839	2.698804	0.1024737	0	10.32	4002	34	128	0	0	1.493648	1.739954	3	8	0	3000
292019	-523	29	896	1.683708	3.962094	-0.9702046	0	10.32	4004	102	-112	14	0	1.49368	1.686558	3	8	0	3000
292128	-1143	-1673	-67	1.028341	2.663375	-0.8094822	0	10.32	4004	113	-126	9	0	1.493703	1.631808	3	8	0	3000
292224	-598	-1343	102	-0.7018076	3.710185	-0.1273958	0	11.17	4003	3	10	1	0	1.49372	1.57263	3	8	0	3000
292325	986	13	-972	-0.2015088	2.540204	0.5520023	0	11.17	4004	-53	-59	-10	0	1.493732	1.481915	3	8	0	3000
292420	-1234	-608	-453	-0.8124435	0.7249532	0.1571663	0	11.17	4004	65	-134	-14	0	1.493738	1.426536	3	8	0	3000
292557	-142	1679	-197	-0.6350926	-3.632488	-0.3937406	0	11.17	4003	-29	-6	4	0	1.493747	1.328822	3	8	0	3000
292633	338	897	774	-0.7295812	-4.927534	-0.1745062	0	11.17	4003	-58	123	8	0	1.493751	1.264568	3	8	0	3000
292729	-1527	2808	-958	-2.285074	-7.46201	0.1878753	0	11.17	4003	-13	133	-23	0	1.493755	1.185001	3	8	0	3000
292835	-2146	2298	477	-3.758605	-10.69931	0.1995828	0	11.17	4003	-122	-37	-5	0	1.493758	1.073184	3	8	0	3000
292936	739	1029	-566	-3.723394	-13.70499	0.7442127	0	11.17	4002	-76	3	-9	0	1.49376	0.9991286	3	8	0	3000
293041	-1544	1016	1105	-4.339058	-15.59746	0.1410042	0	11.17	4002	55	-248	0	0	1.493761	0.9111844	3	8	0	3000
293163	622	-2768	297	-2.347	-12.9854	-0.3201559	0	10.6	4004	104	-101	12	0	1.493763	0.8402887	3	8	0	3000
293249	38	-4724	-612	-2.075807	-11.73391	-0.470977	0	10.6	4003	-53	262	34	0	1.493763	0.7983134	3	8	0	3000
293404	-1298	230	944	-1.992337	-4.997107	-0.8058009	0	10.6	4003	20	32	3	0	1.493764	0.7308884	3	8	0	3000
293470	-222	602	-257	-2.407264	-5.369015	-0.7143263	0	10.6	4003	-32	78	20	0	1.493764	0.7036864	3	8	0	3000
293549	421	2148	927	-1.570944	-6.637505	-0.5863284	0	10.6	4004	15	181	25	0	1.493764	0.6712953	3	8	0	3000
293652	-741	-100	-1051	-1.945492	-8.014757	-0.1832373	0	10.6	4003	100	-198	-10	0	1.493764	0.6421194	3	8	0	3000
293756	429	-1159	-274	-2.731655	-8.086263	0.1414146	0	10.6	4004	-32	-164	1	0	1.493764	0.6022767	3	8	0	3000
293859	-321	687	1112	-1.593611	-6.470556	0.3039164	0	10.6	4003	-79	276	9	0	1.493764	0.5834168	3	8	0	3000
293966	-408	-2579	-50	-1.848936	-5.686163	-0.001279012	0	10.6	4003	45	-173	13	0	1.493764	0.5583206	3	8	0	3000
294074	3313	1426	583	1.606326	-3.1552	0.03562812	0	10.6	4004	89	-217	-8	0	1.493764	0.5468501	3	8	0	3000
294176	-305	2091	-1175	1.747	-7.063088	0.6059782	0	11.06	4002	-66	128	-31	0	1.493764	0.5301576	3	8	0	3000
294280	-321	1328	-14	0.05062293	-9.904607	1.595777	0	11.06	4003	51	-98	-37	0	1.493764	0.5115288	3	8	0	3000
294426	-66	709	309	0.1279675	-12.29977	0.8271776	0	11.06	4003	-71	-11	-14	0	1.493764	0.4865402	3	8	0	3000
294494	133	1488	-203	0.1246413	-12.05504	0.6806356	0	11.06	4002	-84	38	-13	0	1.493764	0.4843712	3	8	0	3000
294577	2158	2009	470	1.079962	-14.3462	0.4340034	0	11.06	4004	2	-59	-7	0	1.493764	0.4806576	3	8	0	3000
294699	2320	48	-562	4.045157	-13.79304	0.4469048	0	11.06	4003	-1	-40	-15	0	1.493764	0.4757531	3	8	0	3000
294782	1849	-159	4	6.596162	-12.9854	0.5004586	0	11.06	4003	10	-91	-7	0	1.493764	0.4659542	3	8	0	3000
294870	-20901	-20206	465	-1.867155	-1.310546	-0.1227734	0	11.06	4003	0	0	0	0	1.493764	0.4488294	3	8	0	3000
294980	7758	-855	732	-1.259043	-2.368655	-2.392864	0	11.06	4002	0	0	0	0	1.493764	0.4123983	3	8	0	3000
295070	125	-171	115	-2.08107	-2.051709	-2.660144	0	11.34	4003	0	0	0	0	1.493764	0.3859374	3	8	0	3000
295162	-27	11	-18	-1.880638	-1.798359	-2.655268	0	11.34	4003	0	0	0	0	1.493764	0.3504569	3	8	0	3000
295286	-8	-51	-15	-1.750697	-1.547794	-2.666637	0	11.34	4006	0	0	0	0	1.493764	0.3065114	1	8	0	3000
295418	6	33	-5	-1.515602	-1.301629	-2.679175	0	11.34	4003	0	0	0	0	1.493764	0.2771526	1	8	0	3000
295496	-21	58	13	-1.392377	-1.134346	-2.690054	0	11.34	4003	0	0	0	0	1.493764	0.255014	1	8	0	3000
295584	-27	2	22	-1.312446	-1.045458	-2.699772	0	11.34	4003	0	0	0	0	1.493764	0.2275572	1	8	0	3000
295685	-51	-37	48	-1.211306	-0.911547	-2.716032	0	11.34	4002	0	0	0	0	1.493764	0.2098134	1	8	0	3000
295771	-43	-10	-1	-1.119663	-0.7882321	-2.725875	0	11.34	4004	0	0	0	0	1.493764	0.1963143	1	8	0	3000
295873	-37	-5	-7	-1.032764	-0.6876716	-2.734433	0	11.34	4004	0	0	0	0	1.493764	0.178052	1	8	0	3000
295971	-45	-9	8	-0.9530452	-0.5975022	-2.75088	0	11.4	4004	0	0	0	0	1.493764	0.1593039	1	8	0	3000
296089	-35	-24	-52	-0.8951886	-0.4975288	-2.755222	0	11.4	4002	0	0	0	0	1.493764	0.1485073	1	8	0	3000
296179	-37	3	-6	-0.8360285	-0.4234682	-2.76806	0	11.4	4002	0	0	0	0	1.493764	0.1445601	1	8	0	3000
296297	-60	-2	-2	-0.779485	-0.3529996	-2.781267	0	11.4	4004	0	0	0	0	1.493764	0.14022	1	8	0	3000
296384	-43	4	3	-0.728907	-0.294591	-2.790744	0	11.4	4002	0	0	0	0	1.493764	0.1405631	1	8	0	3000
296483	-21	13	18	-0.6940023	-0.2608761	-2.803888	0	11.4	4003	0	0	0	0	1.493764	0.1416311	1	8	0	3000
296585	-39	-1	-10	-0.6563724	-0.2183916	-2.813609	0	11.4	4004	0	0	0	0	1.493764	0.1367924	1	8	0	3000
296690	-44	-1	15	-0.6270387	-0.1927857	-2.826263	0	11.4	4003	0	0	0	0	1.493764	0.1285699	1	8	0	3000
296791	-31	1	-5	-0.6062609	-0.1678111	-2.83201	0	11.4	4002	0	0	0	0	1.493764	0.1267292	1	8	0	3000
296896	-28	2	11	-0.5673609	-0.1436849	-2.846683	0	11.46	4003	0	0	0	0	1.493764	0.1322354	1	8	0	3000
296996	-36	0	6	-0.5522942	-0.129972	-2.852063	0	11.46	4002	0	0	0	0	1.493764	0.1306665	1	8	0	3000
297101	-29	1	12	-0.5324289	-0.1100961	-2.862152	0	11.46	4004	0	0	0	0	1.493764	0.1320234	1	8	0	3000
297206	-30	0	2	-0.5079688	-0.09196833	-2.873952	0	11.46	4003	0	0	0	0	1.493764	0.1272569	1	8	0	3000
297306	-30	4	7	-0.4931537	-0.07854104	-2.879944	0	11.46	4004	0	0	0	0	1.493764	0.1239909	1	8	0	3000
297412	-30	1	3	-0.4705006	-0.05921358	-2.887035	0	11.46	4002	0	0	0	0	1.493764	0.122125	1	8	0	3000
297512	-32	-4	6	-0.4606892	-0.04910155	-2.893577	0	11.46	4002	0	0	0	0	1.493764	0.1231562	1	8	0	3000
297644	-24	0	8	-0.4482944	-0.03810066	-2.905377	0	11.46	4003	0	0	0	0	1.493764	0.1315969	1	8	0	3000
297713	-30	0	8	-0.4440107	-0.02911184	-2.912286	0	11.46	4004	0	0	0	0	1.493764	0.1337706	1	8	0	3000
297819	-32	3	2	-0.4318337	-0.02206379	-2.92005	0	11.46	4004	0	0	0	0	1.493764	0.1357533	1	8	0	3000
297922	-22	0	7	-0.4289538	-0.02073926	-2.926652	0	11.46	4002	0	0	0	0	1.493764	0.1318872	1	8	0	3000
298020	-31	-1	2	-0.4158695	-0.01921852	-2.93454	0	11.46	4003	0	0	0	0	1.493764	0.128444	1	8	0	3000
298126	-31	3	10	-0.4019113	-0.01831003	-2.94365	0	11.46	4003	0	0	0	0	1.493764	0.1305633	1	8	0	3000
298235	-26	-2	3	-0.3892815	-0.01269332	-2.955449	0	11.46	4004	0	0	0	0	1.493764	0.1318723	1	8	0	3000
298331	-23	5	2	-0.3794185	-0.01571342	-2.961808	0	11.46	4002	0	0	0	0	1.493764	0.1327825	1	8	0	3000
298432	-28	-4	9	-0.3740117	-0.01529535	-2.967616	0	11.46	4004	0	0	0	0	1.493764	0.1329444	1	8	0	3000
298543	-26	-1	4	-0.3670546	-0.01233096	-2.974096	0	11.46	4002	0	0	0	0	1.493764	0.1258364	1	8	0	3000
298651	-24	0	6	-0.3621947	-0.01656239	-2.983694	0	11.46	4002	0	0	0	0	1.493764	0.1171897	1	8	0	3000
298741	-20	2	4	-0.3585833	-0.01715938	-2.987362	0	11.46	4003	0	0	0	0	1.493764	0.1066273	1	8	0	3000
298844	-27	-2	0	-0.3551776	-0.01502407	-2.993415	0	11.46	4003	0	0	0	0	1.493764	0.09500349	1	8	0	3000
298952	-33	2	4	-0.3483581	-0.01430336	-2.999956	0	11.46	4003	0	0	0	0	1.493764	0.08474278	1	8	0	3000
299048	-27	0	5	-0.3439963	-0.0157893	-3.005948	0	11.46	4003	0	0	0	0	1.493764	0.07903071	1	8	0	3000
299147	-30	1	0	-0.3389272	-0.01455733	-3.01249	0	11.46	4003	0	0	0	0	1.493764	0.07373931	1	8	0	3000
299330	-20	3	2	-0.3316233	-0.004508483	-3.020254	0	11.46	4004	0	0	0	0	1.493764	0.06336512	1	8	0	3000
299417	-26	0	0	-0.3244106	-0.004354474	-3.02545	0	11.46	4002	0	0	0	0	1.493764	0.05816222	1	8	0	3000
299450	-26	2	6	-0.3198514	-0.003009094	-3.027344	0	11.46	4003	0	0	0	0	1.493764	0.0577761	1	8	0	3000
299553	-33	0	1	-0.3118433	-0.009709511	-3.033823	0	11.46	4004	0	0	0	0	1.493764	0.05919849	1	8	0	3000
299719	-28	-2	6	-0.3020034	-0.008694492	-3.045684	0	11.46	4003	0	0	0	0	1.493764	0.07473776	1	8	0	3000
299753	-28	1	2	-0.3009852	-0.008538437	-3.046173	0	11.46	4003	0	0	0	0	1.493764	0.0808446	1	8	0	3000
299855	-29	0	3	-0.2954718	-0.01023684	-3.051064	0	11.46	4004	0	0	0	0	1.493764	0.09008552	1	8	0	3000
299962	-27	2	1	-0.2924984	-0.004353737	-3.054977	0	11.46	4003	0	0	0	0	1.493764	0.09847417	1	8	0	3000
300068	-23	4	4	-0.2925138	-0.009117275	-3.061152	0	11.46	4002	0	0	0	0	1.493764	0.1001508	1	8	0	3000
300171	-27	1	4	-0.2946415	-0.01048665	-3.065736	0	11.46	4003	0	0	0	0	1.493764	0.1012766	1	8	0	3000
300274	-21	0	3	-0.2939833	-0.007005649	-3.070382	0	11.46	4004	0	0	0	0	1.493764	0.09384219	1	8	0	3000
300375	-28	-1	2	-0.2925435	-0.001653446	-3.07454	0	11.46	4003	0	0	0	0	1.493764	0.08520268	1	8	0	3000
300489	-25	-3	3	-0.2936831	-0.00394668	-3.077046	0	11.46	4002	0	0	0	0	1.493764	0.07551669	1	8	0	3000
300602	-28	3	4	-0.3033849	-0.006121033	-3.082304	0	11.46	4002	0	0	0	0	1.493764	0.06640858	1	8	0	3000
300701	-20	-2	0	-0.2988399	-0.009866212	-3.087439	0	11.46	4002	0	0	0	0	1.493764	0.05280866	1	8	0	3000
300777	-25	3	5	-0.2972228	-0.01172908	-3.091779	0	11.46	4002	0	0	0	0	1.493764	0.04668011	1	8	0	3000
300879	-23	5	3	-0.2933	-0.006117869	-3.096058	0	11.46	4004	0	0	0	0	1.493764	0.0405238	1	8	0	3000
300980	-28	-1	6	-0.2942819	-0.004682684	-3.098381	0	11.46	4002	0	0	0	0	1.493764	0.02533219	1	8	0	3000
301084	-22	-4	2	-0.2958678	-0.007734104	-3.105471	0	11.46	4003	0	0	0	0	1.493764	0.01585031	1	8	0	3000
301213	-24	-8	4	-0.2949865	-0.002006124	-3.111524	0	11.46	4003	0	0	0	0	1.493764	0.006627473	1	8	0	3000
301327	-22	0	7	-0.2855422	-0.004447187	-3.120143	0	11.46	4003	0	0	0	0	1.493764	0.0006272077	1	8	0	3000
301394	-25	-1	6	-0.2829675	-0.009802324	-3.125095	0	11.46	4004	0	0	0	0	1.493764	0.0004768085	1	8	0	3000
301485	-22	-1	3	-0.2853431	-0.01090382	-3.129558	0	11.46	4003	0	0	0	0	1.493764	-0.00354363	1	8	0	3000
301583	-23	3	2	-0.2874118	-0.007065543	-3.136159	0	11.51	4002	0	0	0	0	1.493764	-0.009462034	1	8	0	3000
301691	-23	1	5	-0.2868737	-0.00588483	-3.144718	0	11.51	4002	0	0	0	0	1.493764	-0.008581663	1	8	0	3000
301788	-21	1	4	-0.2792228	-0.005612792	-3.151015	0	11.51	4004	0	0	0	0	1.493764	-0.006932476	1	8	0	3000
301901	-21	-4	7	-0.2802567	-0.007370347	-3.15823	0	11.51	4003	0	0	0	0	1.493764	-0.003571127	1	8	0	3000
302002	-21	0	7	-0.2741063	-0.004090208	-3.164954	0	11.51	4003	0	0	0	0	1.493764	0.004926894	1	8	0	3000
302103	-28	2	3	-0.2755909	-0.007703118	-3.171923	0	11.51	4002	0	0	0	0	1.493764	0.007676047	1	8	0	3000
302203	-28	1	4	-0.2749757	-0.001247186	-3.176019	0	11.51	4004	0	0	0	0	1.493764	0.009620468	1	8	0	3000
302304	-29	4	5	-0.2825539	-0.0002156029	-3.179729	0	11.51	4003	0	0	0	0	1.493764	0.01000883	1	8	0	3000
302407	-22	6	0	-0.2768899	-0.00231591	-3.187371	0	11.51	4004	0	0	0	0	1.493764	0.006130907	1	8	0	3000
302514	-24	6	2	-0.2780327	-0.003986659	-3.19225	0	11.51	4002	0	0	0	0	1.493764	0.001386374	1	8	0	1400
302648	-20	6	3	-0.2771684	0.006804742	-3.198853	0	11.51	4003	0	0	0	0	1.493764	0.002909224	1	8	0	1400
302812	-23	-1	4	-0.2718771	0.005915228	-3.207596	0	11.51	4003	0	0	0	0	1.493764	0.01794319	1	8	0	1400
302898	-20	-4	4	-0.278397	0.01382754	-3.212426	0	11.51	4003	0	0	0	0	1.493764	0.03345421	1	8	0	1400
302967	-17	0	0	-0.2733453	0.01471864	-3.215361	0	11.51	4003	0	0	0	0	1.493764	0.03700593	1	8	0	1400
303042	-24	0	0	-0.2718382	0.01268367	-3.220435	0	11.51	4003	0	0	0	0	1.493764	0.04762814	1	8	0	1400
303104	-20	-2	1	-0.2702728	0.0131123	-3.222391	0	11.51	4004	0	0	0	0	1.493764	0.04683061	1	8	0	1400
303276	-18	-1	3	-0.2667575	0.01236743	-3.229482	0	11.51	4003	0	0	0	0	1.493764	0.06162062	1	8	0	1400
303311	-22	1	6	-0.2612415	0.009685677	-3.231806	0	11.51	4003	0	0	0	0	1.493764	0.06596851	1	8	0	1400
303405	-24	-1	0	-0.2602015	0.000599634	-3.235902	0	11.51	4004	0	0	0	0	1.493764	0.07432805	1	8	0	1400
303525	-15	6	-2	-0.2524038	-0.002751464	-3.241098	0	11.51	4002	0	0	0	0	1.493764	0.08983295	1	8	0	1400
303621	-25	0	5	-0.2506573	-0.002142703	-3.244155	0	11.51	4004	0	0	0	0	1.493764	0.09299773	1	8	0	1400
303723	-19	6	3	-0.2480533	-0.00356432	-3.250635	0	11.51	4004	0	0	0	0	1.493764	0.09161081	1	8	0	1400
303835	-18	0	3	-0.2440174	-0.001676535	-3.254181	0	11.51	4003	0	0	0	0	1.493764	0.08751822	1	8	0	1400
303942	-21	1	4	-0.2383678	-0.001337923	-3.259133	0	11.51	4002	0	0	0	0	1.493764	0.08951803	1	8	0	1400
304038	-23	-1	1	-0.2365661	-0.005542932	-3.261883	0	11.51	4002	0	0	0	0	1.493764	0.09789991	1	8	0	1400
304147	-26	-1	3	-0.2401182	-0.006673526	-3.266713	0	11.51	4004	0	0	0	0	1.493764	0.1054758	1	8	0	1400
304290	-18	2	-4	-0.2448906	0.001990465	-3.273315	0	11.51	4004	0	0	0	0	1.493764	0.1116426	1	8	0	1400
304349	-19	0	2	-0.2453458	0.002252473	-3.273804	0	11.51	4003	0	0	0	0	1.493764	0.1124975	1	8	0	1400
304442	-22	-1	0	-0.245187	0.000109027	-3.278694	0	11.51	4003	0	0	0	0	1.493764	0.1138236	1	8	0	1400
304544	-20	-1	0	-0.246241	0.001294994	-3.283097	0	11.51	4002	0	0	0	0	1.493764	0.12015	1	8	0	1400
304657	-17	0	5	-0.2366806	0.0002373556	-3.285053	0	11.51	4002	0	0	0	0	1.493764	0.1299182	1	8	0	1400
304752	-29	1	1	-0.2365093	-0.001285405	-3.289332	0	11.51	4002	0	0	0	0	1.493764	0.136312	1	8	0	1400
304852	-20	-2	3	-0.2398035	-0.005244102	-3.293489	0	11.51	4003	0	0	0	0	1.493764	0.1481893	1	8	0	1400
305084	-22	-3	4	-0.2416946	-0.001309004	-3.299113	0	11.51	4003	0	0	0	0	1.493764	0.1712314	1	8	0	1400
305244	-19	-1	0	-0.2380296	-0.0008690694	-3.304921	0	11.51	4004	0	0	0	0	1.493764	0.1928364	1	8	0	1400
305275	-17	-2	0	-0.2336426	-0.002070871	-3.305532	0	11.51	4003	0	0	0	0	1.493764	0.1950347	1	8	0	1400
305358	-19	-1	5	-0.2275813	-0.0006734696	-3.308589	0	11.51	4002	0	0	0	0	1.493764	0.1994521	1	8	0	1400
305462	-16	-4	0	-0.2201707	-0.003355861	-3.310606	0	11.51	4004	0	0	0	0	1.493764	0.2005153	1	8	0	1400
305573	-16	0	3	-0.2196677	-0.005884163	-3.314579	0	11.51	4006	0	0	0	0	1.493764	0.1990636	1	8	0	1400
305663	-14	0	1	-0.2250428	-0.008089301	-3.315925	0	11.51	4003	0	0	0	0	1.493764	0.197351	1	8	0	1400
305764	-19	0	0	-0.2238437	-0.01156981	-3.318554	0	11.51	4003	0	0	0	0	1.493764	0.1967485	1	8	0	1400
305892	-19	0	6	-0.2162492	-0.0108071	-3.323812	0	11.51	4004	0	0	0	0	1.493764	0.1899733	1	8	0	1400
305965	-16	-1	2	-0.2182459	-0.01033567	-3.326991	0	11.51	4003	0	0	0	0	1.493764	0.1804319	1	8	0	1400
306076	-21	-3	0	-0.2127879	-0.01411808	-3.329375	0	11.51	4003	0	0	0	0	1.493764	0.1669458	1	8	0	1400
306264	-20	5	-2	-0.2113516	-0.01782398	-3.334632	0	11.51	4003	0	0	0	0	1.493764	0.1463585	1	8	0	1400
306317	-28	-5	1	-0.208279	-0.01567708	-3.336467	0	11.51	4002	0	0	0	0	1.493764	0.1394654	1	8	0	1400
306401	-16	2	5	-0.2142852	-0.01226326	-3.340258	0	11.51	4004	0	0	0	0	1.493764	0.1288464	3	8	0	1400
306465	-21	-4	0	-0.2130112	-0.01179884	-3.34362	0	11.51	4003	0	0	0	0	1.493764	0.1254692	3	8	0	1400
306565	-25	-2	9	-0.2110154	-0.005663487	-3.349061	0	11.51	4004	0	0	0	0	1.493764	0.1235826	3	8	0	1400
306672	-24	1	1	-0.2147715	-0.001065116	-3.352668	0	11.51	4002	0	0	0	0	1.493764	0.1213867	3	8	0	1400
306781	-20	1	4	-0.2217139	0.002559104	-3.355969	0	11.51	4002	0	0	0	0	1.493764	0.1162004	3	8	0	1400
306882	-17	-2	1	-0.2186254	0.002780806	-3.359148	0	11.51	4003	0	0	0	0	1.493764	0.1053899	3	8	0	1400
306979	-19	-6	2	-0.2131832	0.003794514	-3.362571	0	11.51	4002	1	0	0	0	1.493764	0.09414761	3	8	0	1400
307129	22	-21	32	-0.2321847	0.01433267	-3.364577	0	10.89	4003	0	0	0	0	1.493764	0.09459281	3	8	0	1400
307199	-38	-89	214	-0.223723	0.01147489	-3.390316	0	10.89	4002	0	-4	0	0	1.493764	0.09513959	3	8	0	1400
307294	21	92	56	-0.1932015	0.01356992	-3.402051	0	10.89	4004	6	9	1	0	1.493764	0.08525988	3	8	0	1400
