time(ms)	gyro_x(deg/s)	gyro_y(deg/s)	gyro_z(deg/s)	orientation_roll(deg)	orientation_pitch(deg)	orientation_yaw(deg)	throttle	battery(V)	loop_time(uS)	pid_output_roll	pid_output_pitch	pid_output_yaw	pid_output_throttle	ultrasonic_alt	baro_alt	flight_mode	p_gain_altitude	i_gain_altitude	d_gain_altitude
529199	97	-452	1141	-0.3448298	0.05192859	-11.11121	0	10.77	4002	-82	88	21	28	0.2754693	0.2263637	4	40	0	1800
529302	523	1483	348	0.1110017	-0.9503757	-11.69461	0	10.77	4003	36	97	28	29	0.2510118	0.2296224	4	40	0	1800
529391	-1494	-2032	-1257	0.6714969	-1.147056	-11.5102	0	10.72	4003	63	-190	8	29	0.2530076	0.2303216	4	40	0	1800
529510	-883	892	-912	-1.370462	-1.576399	-10.93061	0	10.72	4004	-14	-176	2	28	0.3305273	0.2244744	4	40	0	1800
529601	225	1327	-1161	-2.55715	-7.324645	-10.1579	0	10.72	4003	-46	183	-23	25	0.3727811	0.21603	4	40	0	1800
529705	-1328	461	535	-3.238809	-7.486013	-9.749743	0	10.72	4002	16	-92	-14	23	0.4483681	0.2069927	4	40	0	1800
529810	-422	814	-131	-2.932715	-8.551434	-10.7303	0	10.72	4003	72	124	11	22	0.4725153	0.2047102	4	40	0	1800
529943	1055	-407	-729	-1.424038	-10.13756	-11.7714	0	10.72	4003	-158	51	37	16	0.6362101	0.214406	4	40	0	1800
530023	-112	-1206	-52	-0.6610689	-8.081789	-11.92028	0	10.72	4003	-36	-224	30	12	0.7024333	0.2189573	4	40	0	1800
530108	-1345	-257	-902	-1.094064	-7.130623	-11.92929	0	10.72	4003	51	-88	17	9	0.7790071	0.2246449	4	40	0	1800
530216	-450	906	1185	-1.204809	-7.370383	-11.79545	0	10.72	4003	22	-175	30	4	0.9156918	0.2394588	4	40	0	1800
530318	-119	-141	816	-1.911196	-8.673976	-11.42997	0	10.72	4003	-24	-33	35	1	0.9671334	0.245773	4	40	0	1800
530431	-536	-832	1285	-2.12991	-8.050249	-11.22559	0	10.49	4004	37	7	26	2	0.9733005	0.2789706	4	40	0	1800
530540	144	112	-458	-2.299796	-6.546342	-11.27503	0	10.49	4002	-45	36	24	0	1.032732	0.3159931	4	40	0	1800
530626	-676	-785	-269	-1.416797	-6.844753	-11.63307	0	10.49	4004	14	40	24	-1	1.069756	0.3312614	4	40	0	1800
530724	124	32	1202	-1.891197	-4.279207	-12.00247	0	10.49	4003	25	-211	48	-4	1.147467	0.3779328	4	40	0	1800
530839	1199	-1136	-298	-0.01547549	-4.564413	-11.46204	0	10.49	4004	89	-12	11	-8	1.204961	0.419524	4	40	0	1800
530931	-649	249	289	-0.5817107	-4.852655	-11.01241	0	10.49	4002	98	-88	-2	-10	1.29823	0.4670297	4	40	0	1800
531033	1987	228	-958	0.18965	-4.65801	-9.812752	0	10.49	4004	-78	124	-34	-13	1.325689	0.5044652	4	40	0	1800
531140	-835	-1855	691	0.004078422	-2.876445	-9.78008	0	10.49	4006	27	-68	-13	-12	1.317479	0.5259097	4	40	0	1800
531245	461	-1694	411	-1.026079	-0.6096356	-10.53342	0	10.49	4004	10	2	0	-15	1.406803	0.5499757	4	40	0	1800
531341	165	166	244	0.4701528	-0.7938032	-11.05727	0	10.89	4002	33	-140	15	-16	1.424049	0.5735866	4	40	0	1800
531451	665	-339	-765	-0.4719833	-0.6563902	-10.98279	0	10.89	4002	42	-157	-2	-13	1.341773	0.601667	4	40	0	1800
531545	1403	648	-568	0.6240777	-2.583446	-10.36695	0	10.89	4003	-33	-94	-14	-13	1.336307	0.6088542	4	40	0	1800
531644	-119	159	-728	1.520978	-3.099339	-9.645668	0	10.89	4003	-14	-40	-33	-13	1.329275	0.6121924	4	40	0	1800
531827	-288	1659	754	-0.9004455	-8.926665	-10.46761	0	10.89	4003	-9	-74	4	-12	1.306556	0.6041072	4	40	0	1800
531913	266	720	149	-1.062138	-9.310839	-10.93198	0	10.89	4003	-16	-9	4	-12	1.329548	0.5975452	4	40	0	1800
531969	186	54	-199	-1.211148	-9.379916	-10.94371	0	10.89	4004	74	-123	0	-12	1.281177	0.5899693	4	40	0	1800
532050	582	1762	21	-0.8310107	-9.575637	-10.78617	0	10.89	4002	-36	47	-1	-10	1.2942	0.5808324	4	40	0	1800
532157	431	1686	-372	-0.1000146	-12.92859	-10.71774	0	10.89	4002	51	-73	-4	-15	1.417561	0.5438194	4	40	0	1800
532326	292	-1090	21	-1.588327	-11.55186	-10.57279	0	10.43	4004	16	-132	-6	-12	1.29147	0.5116066	4	40	0	1800
532375	386	-2047	-78	-0.9570816	-9.508677	-10.50803	0	10.43	4004	98	-136	-6	-11	1.30579	0.491986	4	40	0	1800
532464	454	-979	148	-0.1331932	-7.776017	-10.84009	0	10.43	4003	15	-31	11	-13	1.337269	0.4431658	4	40	0	1800
532576	295	-893	607	-0.8905733	-5.288256	-11.40824	0	10.43	4003	-61	93	24	-11	1.248785	0.3989753	4	40	0	1800
532688	263	549	-571	-0.3709451	-4.199142	-11.5275	0	10.43	4003	-71	87	22	-7	1.112942	0.3579686	4	40	0	1800
532785	635	-405	-104	0.4320482	-3.96556	-10.72809	0	10.43	4003	5	-117	-8	3	0.9150876	0.3070349	4	40	0	1800
532911	-1046	397	-24	-3.79513	-3.15364	-11.31282	0	10.43	4003	0	-67	13	11	0.6698009	0.2450237	4	40	0	1800
532979	-76	-2167	-412	-4.76163	-1.749974	-10.6892	0	10.43	4003	-50	58	4	15	0.5683084	0.2067081	4	40	0	1800
533083	1446	3765	691	-1.485317	-1.929089	-11.19369	0	10.43	4003	-14	-244	23	20	0.4417179	0.1649093	4	40	0	1800
533199	-268	-2547	-851	-0.7086351	-4.79507	-10.80889	0	10.55	4003	-13	-190	-11	24	0.4053912	0.1337321	4	40	0	1800
533282	88	-261	156	0.07500775	-2.560367	-9.524254	0	10.55	4003	-3	227	-35	24	0.390807	0.1049053	4	40	0	1800
533387	275	1858	1380	0.2234872	-2.767679	-9.95601	0	10.55	4003	-48	129	-4	23	0.4463577	0.09228874	4	40	0	1800
533486	388	1890	1121	0.3822891	-4.244753	-11.10196	0	10.55	4003	2	90	13	19	0.5475524	0.08673151	4	40	0	1800
533662	-1032	-1916	-757	0.2695084	-4.706854	-10.41274	0	10.55	4003	-14	-138	-13	0	0.6590282	0.1028479	3	40	0	1800
533765	932	506	136	-0.1735047	-4.402974	-9.429171	0	10.55	4004	-57	42	-32	0	0.7025892	0.1238478	3	40	0	1800
533799	-648	25	172	-0.390176	-4.544706	-9.213254	0	10.55	4003	-55	-64	-36	0	0.7143073	0.1280231	3	40	0	1800
533895	-3827	-1678	451	-4.703011	-3.043758	-9.440782	0	10.55	4002	10	-56	-16	0	0.7428877	0.1432101	3	40	0	1800
534009	-2242	-1408	294	-9.044654	-0.1210048	-10.27296	0	10.55	4002	-42	-29	1	0	0.7693275	0.1721786	3	40	0	1800
534094	-2011	1897	-44	-11.86468	-0.3899555	-10.88763	0	10.6	4002	-43	-4	7	0	0.7789116	0.1868067	3	40	0	1800
534221	-1639	1106	169	-14.24516	-3.408442	-10.89424	0	10.6	4003	26	-61	11	0	0.7929628	0.2157062	3	40	0	1800
534304	-2530	805	79	-16.49226	-4.679513	-10.90847	0	10.6	4003	52	-129	10	0	0.7980562	0.2329073	3	40	0	1800
534405	639	3668	-1451	-15.89164	-8.706968	-10.64422	0	10.6	4002	14	229	-6	0	0.8039407	0.263758	3	40	0	1800
534509	3889	3183	-868	-12.37607	-10.99152	-10.45388	0	10.6	4002	-92	-155	-22	0	0.8093843	0.2958488	3	40	0	1800
534615	1421	1116	187	-6.00908	-13.31377	-9.912176	0	10.6	4002	-121	196	-15	0	0.8121989	0.3243056	3	40	0	1800
534734	3105	-1127	-441	-0.3740517	-8.838689	-9.650595	0	10.6	4003	-99	97	-33	0	0.8142506	0.3509649	3	40	0	1800
534841	279	-2492	-397	0.497726	-6.414614	-10.22248	0	10.6	4002	21	-206	-12	0	0.8157464	0.3701509	3	40	0	1800
534928	1633	-1179	220	2.020636	-5.193035	-10.52277	0	10.6	4004	8	-7	-3	0	0.8168368	0.3891966	3	40	0	1800
535029	-486	-1307	750	3.057115	-4.686292	-10.95197	0	10.72	4004	-14	-32	15	0	0.8176317	0.4101411	3	40	0	1800
535150	-278	-523	-792	0.3420491	-2.864887	-11.00089	0	10.72	4003	11	-77	0	0	0.8182112	0.4180255	3	40	0	1800
535221	438	644	-866	0.9509516	-3.765358	-10.87637	0	10.72	4003	78	-148	1	0	0.8185074	0.4252079	3	40	0	1800
535342	-552	1674	130	1.269338	-5.405571	-10.37108	0	10.72	4002	-8	98	-5	0	0.8189416	0.440986	3	40	0	1800
535461	-394	-148	-95	-0.1867153	-7.219017	-10.26766	0	10.72	4003	-92	20	-9	0	0.8192265	0.4419279	3	40	0	1800
535526	636	762	-954	-0.3841063	-8.236067	-10.14967	0	10.72	4002	-107	10	-16	0	0.8192809	0.4419144	3	40	0	1800
535641	-787	865	110	-0.6211764	-10.29592	-10.62793	0	10.72	4003	103	-174	4	0	0.8194135	0.4403661	3	40	0	1800
535773	1171	369	135	0.2257783	-8.185488	-10.60507	0	10.72	4002	13	36	-11	0	0.8195595	0.4309789	3	40	0	1800
535840	1209	789	-833	1.073788	-9.374222	-10.26027	0	10.72	4003	-23	150	1	0	0.8195994	0.425276	3	40	0	1800
535939	252	162	383	0.4695876	-10.24587	-10.39013	0	9.53	4004	95	-82	-15	0	0.8196457	0.4100935	3	40	0	1800
536044	1571	1541	-890	1.124203	-9.078319	-9.964652	0	9.53	4002	0	-79	-20	0	0.8196794	0.3924586	3	40	0	1800
536151	-276	3170	49	2.796467	-11.08979	-9.534191	0	9.53	4003	96	-43	-25	0	0.819704	0.3671824	3	40	0	1800
536255	89	-1009	774	2.119849	-10.13637	-9.66821	0	9.53	4002	-116	190	-29	0	0.8197219	0.3384116	3	40	0	1800
536371	-1624	-3769	-69	2.070439	-4.218583	-9.747774	0	9.53	4004	6	0	-20	0	0.819735	0.3180634	3	40	0	1800
536459	-1619	-3719	347	-0.2781726	-1.314909	-10.94108	0	9.53	4004	3	-240	19	0	0.8197445	0.3056145	3	40	0	1800
536578	-1156	-381	-999	-1.179093	-2.028889	-12.19664	0	9.53	4003	31	104	33	0	0.8197514	0.2994821	3	40	0	1800
536674	740	441	-876	-1.724698	-3.074655	-11.43576	0	9.53	4003	-34	-285	10	0	0.8197564	0.297498	3	40	0	1800
536772	-67	-272	444	-0.8410783	-2.103259	-11.0579	0	9.53	4003	-128	299	8	0	0.8197601	0.3022612	3	40	0	1800
536990	-1561	-1513	-132	-1.662073	-4.529966	-11.40471	0	10.43	4005	144	-223	11	0	0.8197647	0.3314831	3	40	0	1800
537089	-550	-72	92	-2.333743	-2.61306	-11.55373	0	10.43	4003	-4	-66	19	0	0.8197665	0.3566	3	40	0	1800
537205	-71	1507	-239	-0.5619812	-5.943767	-10.99994	0	10.43	4004	-87	211	8	0	0.8197675	0.3756159	3	40	0	1800
537295	247	335	-385	-1.270254	-6.166276	-10.62263	0	10.43	4003	-109	194	-5	0	0.8197681	0.3940789	3	40	0	1800
537411	114	1882	261	-1.084989	-8.617155	-10.77529	0	10.43	4003	-11	126	16	0	0.8197687	0.409972	3	40	0	1800
537509	648	2032	565	-0.2955071	-10.19545	-10.7902	0	10.43	4002	-88	-58	12	0	0.819769	0.4249795	3	40	0	1800
537610	-1	1841	523	0.5371547	-12.05349	-10.9904	0	10.43	4003	8	-123	16	0	0.8197693	0.4399829	3	40	0	1800
537718	106	1578	6	-0.3538277	-14.33191	-11.38814	0	10.43	4002	-93	58	23	0	0.8197694	0.4530278	3	40	0	1800
537808	-53	397	13	-1.134625	-14.34423	-11.3699	0	10.43	4003	-43	-29	21	0	0.8197696	0.4631347	3	40	0	1800
537922	-743	-105	-371	-2.896073	-13.31126	-11.15683	0	10.49	4002	17	-88	5	0	0.8197697	0.471297	3	40	0	1800
538014	-2571	-829	-260	-5.30625	-12.93967	-10.91292	0	10.49	4003	22	-61	-3	0	0.8197697	0.4737512	3	40	0	1800
538115	-532	-769	-657	-7.110157	-9.828277	-10.20541	0	10.49	4003	-110	145	-16	0	0.8197697	0.4777286	3	40	0	1800
538221	-1264	-1285	-847	-8.158757	-8.754725	-9.778845	0	10.49	4002	87	-152	-31	0	0.8197697	0.4805279	3	40	0	1800
538381	414	-1410	-174	-6.254043	-6.144682	-9.250409	0	10.49	4003	-90	176	-37	0	0.8197697	0.4926103	3	40	0	1800
538438	326	-2926	464	-5.972794	-4.68225	-9.239319	0	10.49	4002	-9	-100	-29	0	0.8197697	0.5049371	3	40	0	1800
538529	1290	48	-3	-4.434008	-2.127307	-9.169677	0	10.49	4004	22	-87	-37	0	0.8197697	0.516907	3	40	0	1800
538629	1075	1185	-111	-2.122382	-4.889175	-8.73781	0	10.49	4004	16	-136	-45	0	0.8197697	0.5241377	3	40	0	1800
538738	-115	-1450	-1	-1.741447	-4.510993	-8.809197	0	10.49	4004	26	-120	-43	0	0.8197697	0.5321931	3	40	0	1800
538885	966	257	-27	-1.532227	-3.936514	-9.034073	0	10.83	4002	26	-13	-39	0	0.8197697	0.5387343	3	40	0	1800
539067	1656	117	247	-1.038366	-3.668826	-9.585416	0	10.83	4003	-44	60	-8	0	0.8197697	0.516957	3	40	0	1800
539145	2276	507	703	2.540768	-4.753126	-10.53545	0	10.83	4002	-5	51	2	0	0.8197697	0.5055486	3	40	0	1800
539253	1895	531	-292	4.529029	-4.336633	-10.87796	0	10.83	4003	-30	71	3	0	0.8197697	0.4864584	3	40	0	1800
539354	3005	5147	214	7.668712	-8.475633	-10.67941	0	10.83	4003	-90	121	2	0	0.8197697	0.4595747	3	40	0	1800
539464	472	1672	716	7.443212	-12.81338	-10.43463	0	10.83	4003	-111	-11	4	0	0.8197697	0.425101	3	40	0	1800
539566	-1257	-125	1017	6.370261	-12.55917	-10.90252	0	10.83	4003	54	-131	24	0	0.8197697	0.3776129	3	40	0	1800
539674	-2983	-1580	332	1.795464	-11.40385	-12.1961	0	10.83	4004	75	-126	47	0	0.8197697	0.3309233	3	40	0	1800
539775	-3513	-3737	-1663	-4.104646	-7.487442	-12.59593	0	9.98	4002	-51	-45	53	0	0.8197697	0.285946	3	40	0	1800
539880	-3151	-803	-882	-8.519711	-6.077748	-12.52446	0	9.98	4004	-109	33	51	0	0.8197697	0.2466859	3	40	0	1800
539985	103	62	-49	-9.338178	-4.460115	-11.78804	0	9.98	4003	75	0	8	0	0.8197697	0.2051585	3	40	0	1800
540092	-36	1523	-487	-6.984432	-6.697866	-11.3169	0	9.98	4004	-2	181	11	0	0.8197697	0.1593675	3	40	0	1800
540204	-6037	-1209	-884	-1.624011	-3.263719	-13.22491	0	9.98	4004	0	0	0	0	0.8197697	0.1152428	3	40	0	1800
540309	161	845	966	0.05065105	-4.172976	-15.2848	0	9.98	4003	0	0	0	0	0.8197697	0.07462472	3	40	0	1800
540396	57	-38	18	0.437985	-3.662763	-15.7811	0	9.98	4003	0	0	0	0	0.8197697	0.02752393	3	40	0	1800
540476	-34	89	-102	0.2330886	-3.137083	-15.78678	0	9.98	4004	0	0	0	0	0.8197697	-0.01005372	3	40	0	1800
540582	-49	-26	41	0.0361165	-2.729862	-15.80555	0	9.98	4003	0	0	0	0	0.8197697	-0.05580634	1	40	0	1800
540683	-81	-10	48	-0.07355768	-2.460137	-15.81528	0	11	4004	0	0	0	0	0.8197697	-0.09749569	1	40	0	1800
540784	-91	28	139	-0.2225112	-2.142009	-15.8352	0	11	4002	0	0	0	0	0.8197697	-0.1426494	1	40	0	1800
540884	-107	1	-11	-0.3901891	-1.758029	-15.84903	0	11	4003	0	0	0	0	0.8197697	-0.1646808	1	40	0	1800
540983	-107	-30	25	-0.504118	-1.50722	-15.86369	0	11	4002	0	0	0	0	0.8197697	-0.1945328	1	40	0	1800
541087	-60	0	20	-0.6010391	-1.301658	-15.87996	0	11	4002	0	0	0	0	0.8197697	-0.2116134	1	40	0	1800
541191	-62	19	31	-0.6728244	-1.113506	-15.90049	0	11	4003	0	0	0	0	0.8197697	-0.2315072	1	40	0	1800
541293	-71	-17	-7	-0.7484027	-0.9514937	-15.92122	0	11	4004	0	0	0	0	0.8197697	-0.2471412	1	40	0	1800
541390	-72	-15	-33	-0.8082771	-0.8218386	-15.93308	0	11	4003	0	0	0	0	0.8197697	-0.2643689	1	40	0	1800
541498	-58	5	23	-0.8757805	-0.7040426	-15.94837	0	11	4002	0	0	0	0	0.8197697	-0.2771755	1	40	0	1800
541593	-74	-5	15	-0.9088804	-0.5860252	-15.96378	0	11.06	4004	0	0	0	0	0.8197697	-0.2885038	1	40	0	1800
541715	-81	-11	11	-0.9666551	-0.4636314	-15.98719	0	11.06	4003	0	0	0	0	0.8197697	-0.2942374	1	40	0	1800
541798	-51	5	11	-1.000357	-0.3740785	-16.00272	0	11.06	4002	0	0	0	0	0.8197697	-0.3021609	1	40	0	1800
541902	-69	2	38	-1.015237	-0.3262292	-16.01372	0	11.06	4004	0	0	0	0	0.8197697	-0.3089843	1	40	0	1800
542011	-52	1	5	-1.050634	-0.2427681	-16.03567	0	11.06	4002	0	0	0	0	0.8197697	-0.3113503	1	40	0	1800
542107	-72	1	4	-1.064924	-0.2065399	-16.04612	0	11.06	4004	0	0	0	0	0.8197697	-0.3155753	1	40	0	1800
542224	-67	8	11	-1.084072	-0.1490739	-16.06636	0	11.06	4004	0	0	0	0	0.8197697	-0.320209	1	40	0	1800
542320	-67	4	8	-1.098774	-0.1072215	-16.07626	0	11.06	4002	0	0	0	0	0.8197697	-0.3173027	1	40	0	1800
542420	-61	2	3	-1.106365	-0.07926484	-16.085	0	11.06	4003	0	0	0	0	0.8197697	-0.3110128	1	40	0	1800
542512	-68	-3	9	-1.114192	-0.04693319	-16.09857	0	11.06	4003	0	0	0	0	0.8197697	-0.3074498	1	40	0	1800
542613	-63	0	8	-1.130954	-0.01194255	-16.11366	0	11	4002	0	0	0	0	0.8197697	-0.2976652	1	40	0	1800
542716	-62	1	8	-1.129204	0.01088666	-16.1252	0	11	4003	0	0	0	0	0.8197697	-0.2991396	1	40	0	1800
542820	-62	0	7	-1.133911	0.03008531	-16.13614	0	11	4003	0	0	0	0	0.8197697	-0.3033778	1	40	0	1800
542935	-70	-1	9	-1.131298	0.04558578	-16.14884	0	11	4004	0	0	0	0	0.8197697	-0.2994042	1	40	0	1800
543030	-62	0	10	-1.132	0.05947	-16.16248	0	11	4004	0	0	0	0	0.8197697	-0.300835	1	40	0	1800
543144	-63	0	12	-1.132727	0.07208402	-16.17457	0	11	4002	0	0	0	0	0.8197697	-0.3054602	1	40	0	1800
543229	-63	7	7	-1.133475	0.08207761	-16.18557	0	11	4003	0	0	0	0	0.8197697	-0.3090534	1	40	0	1800
543336	-64	3	9	-1.135624	0.0898903	-16.19914	0	11	4003	0	0	0	0	0.8197697	-0.314623	1	40	0	1800
543437	-64	-2	3	-1.138054	0.09480025	-16.21203	0	11	4003	0	0	0	0	0.8197697	-0.3210482	1	40	0	1800
543555	-59	2	8	-1.133265	0.09863535	-16.22364	0	11.06	4002	0	0	0	0	0.8197697	-0.3270599	1	40	0	1800
543635	-60	1	2	-1.129773	0.1117247	-16.23488	0	11.06	4002	0	0	0	0	0.8197697	-0.3351282	1	40	0	1800
543735	-63	3	9	-1.127622	0.1087071	-16.24569	0	11.06	4002	0	0	0	0	0.8197697	-0.3449548	1	40	0	1800
543853	-60	1	11	-1.128262	0.1111832	-16.25791	0	11.06	4004	0	0	0	0	0.8197697	-0.3483278	1	40	0	1800
543945	-58	2	8	-1.130815	0.1235647	-16.26921	0	11.06	4003	0	0	0	0	0.8197697	-0.3516225	1	40	0	1800
544044	-63	-2	7	-1.128137	0.1262654	-16.2794	0	11.06	4003	0	0	0	0	0.8197697	-0.3520713	1	40	0	1800
544150	-59	6	6	-1.123715	0.1283494	-16.29107	0	11.06	4004	0	0	0	0	0.8197697	-0.3472873	1	40	0	1800
544253	-59	1	10	-1.118405	0.1244622	-16.30701	0	11.06	4003	0	0	0	0	0.8197697	-0.3446266	1	40	0	1800
544362	-63	5	9	-1.113458	0.1269147	-16.31948	0	11.06	4004	0	0	0	0	0.8197697	-0.3469275	1	40	0	1800
544454	-59	7	3	-1.116014	0.1298398	-16.32626	0	11.11	4003	0	0	0	0	0.8197697	-0.3439451	1	40	0	1800
544556	-59	3	5	-1.110738	0.1297483	-16.33737	0	11.11	4002	0	0	0	0	0.8197697	-0.3461769	1	40	0	1800
544662	-61	2	7	-1.110258	0.1382523	-16.34946	0	11.11	4004	0	0	0	0	0.8197697	-0.3453386	1	40	0	1800
544760	-59	5	7	-1.107962	0.1397364	-16.36144	0	11.11	4003	0	0	0	0	0.8197697	-0.3355808	1	40	0	1800
544873	-65	0	14	-1.111853	0.1412543	-16.37519	0	11.11	4003	0	0	0	0	0.8197697	-0.3300381	1	40	0	1800
544976	-61	2	2	-1.112795	0.1445014	-16.38893	0	11.11	4003	0	0	0	0	0.8197697	-0.3266625	1	40	0	1800
545078	-56	2	9	-1.1097	0.1454063	-16.40005	0	11.11	4002	0	0	0	0	0.8197697	-0.3256968	1	40	0	1800
545173	-57	5	7	-1.108725	0.1462097	-16.4075	0	11.11	4003	0	0	0	0	0.8197697	-0.3257395	1	40	0	1800
545276	-65	3	6	-1.109415	0.1406099	-16.41928	0	11.11	4004	0	0	0	0	0.8197697	-0.3223718	1	40	0	1800
545381	-58	1	9	-1.107491	0.1446235	-16.43022	0	11.11	4002	0	0	0	0	0.8197697	-0.3218663	1	40	0	1800
545484	-59	2	16	-1.107486	0.1448402	-16.44238	0	11.11	4003	0	0	0	0	0.8197697	-0.3218043	1	40	0	1800
545639	-57	2	3	-1.096525	0.1375097	-16.46027	0	11.11	4004	0	0	0	0	0.8197697	-0.3218304	1	40	0	1800
545723	-59	2	7	-1.094193	0.1418769	-16.46675	0	11.11	4002	0	0	0	0	0.8197697	-0.3233353	1	40	0	1800
545788	-62	1	6	-1.094404	0.1409092	-16.4786	0	11.11	4003	0	0	0	0	0.8197697	-0.3193141	1	40	0	1800
612504	5	-4	-2	-0.1788366	0.04435498	-17.70859	0	11.11	4003	0	0	0	0	0.8197697	-0.116844	3	10	0	1800
612609	13	-1	-2	-0.1718299	0.04471265	-17.70462	0	11.11	4003	0	0	0	0	0.8197697	-0.1236597	3	10	0	1800
612758	15	-1	0	-0.1733988	0.05108978	-17.70102	0	11.11	4002	0	0	0	0	0.8197697	-0.1261908	3	10	0	1800
612874	10	2	0	-0.1729835	0.05351984	-17.69864	0	11.11	4003	0	0	0	0	0.8197697	-0.1206347	3	10	0	1800
612967	8	3	0	-0.1716654	0.05223354	-17.69711	0	11.11	4003	0	0	0	0	0.8197697	-0.1179131	3	10	0	1800
613061	10	-1	-2	-0.174978	0.04795631	-17.69583	0	11.11	4002	0	0	0	0	0.8197697	-0.118041	3	10	0	1800
613149	13	0	0	-0.1652245	0.04737012	-17.69571	0	11.11	4003	0	0	0	0	0.8197697	-0.1207141	3	10	0	1800
613213	15	0	1	-0.1605196	0.04382621	-17.69431	0	11.11	4003	0	0	0	0	0.8197697	-0.1178715	3	10	0	1800
613296	18	0	4	-0.1593713	0.04452365	-17.69144	0	11.11	4003	0	0	0	0	0.8197697	-0.1166577	3	10	0	1800
613392	9	1	1	-0.1604679	0.04202886	-17.69095	0	11.11	4002	0	0	0	0	0.8197697	-0.1150005	3	10	0	1800
613608	8	1	-2	-0.1565924	0.03011111	-17.68429	0	11.11	4003	0	0	0	0	0.8197697	-0.1169525	3	10	0	1800
613680	10	-22	0	-0.1607253	0.03716735	-17.68174	0	11.11	4003	3	6	0	0	0.8197697	-0.1010984	3	10	0	1800
613798	30	-4	-36	-0.150001	0.01102265	-17.68193	0	11.11	4004	0	-3	1	0	0.8197697	-0.09114275	3	10	0	1800
613878	-4	-18	-19	-0.1247469	0.02306412	-17.66676	0	11.11	4004	0	-5	0	0	0.8197697	-0.08409069	3	10	0	1800
613966	29	33	47	-0.1290397	0.02692705	-17.65246	0	11.11	4003	0	-1	-1	0	0.8197697	-0.08177967	3	10	0	1800
614071	-32	-67	-28	-0.08291321	0.01725318	-17.65283	0	11.11	4002	-34	-3	-1	0	0.8197697	-0.07383549	3	10	0	1800
614176	-69	-30	-130	-0.08128688	0.02078984	-17.63602	0	11.11	4004	-2	18	0	0	0.8197697	-0.0699557	3	10	0	1800
614279	-13	10	-28	-0.05201176	0.03184548	-17.65948	0	11.11	4006	-9	-20	0	0	0.8197697	-0.06530576	3	10	0	1800
614377	-9	-12	22	-0.06052825	0.04447488	-17.65581	0	11.11	4003	9	-15	0	0	0.8197697	-0.05718742	3	10	0	1800
614482	-82	-119	-54	-0.06989277	0.04584628	-17.66602	0	11.11	4004	-13	-2	0	0	0.8197697	-0.06190285	3	10	0	1800
614606	-24	70	72	-0.07445521	0.02106913	-17.67152	0	10.72	4002	-6	1	0	0	0.8197697	-0.06056017	3	10	0	1800
614707	-33	26	101	-0.2107627	0.09110513	-17.69434	0	10.72	4002	-8	-11	0	0	0.8197697	-0.05811555	3	10	0	1800
614785	-33	-117	-29	-0.1310853	0.08538761	-17.69569	0	10.72	4003	-6	-6	1	0	0.8197697	-0.05505059	3	10	0	1800
614911	-143	-61	257	-0.1517048	0.1116553	-17.71595	0	10.72	4003	-4	-17	-4	0	0.8197697	-0.05639395	3	10	0	1800
615004	141	88	42	-0.3024667	0.1482685	-17.71462	0	10.72	4002	-10	15	-1	0	0.8197697	-0.0521556	3	10	0	1800
615110	-136	-224	-133	-0.2568945	0.1912717	-17.75418	0	10.72	4004	22	-33	3	0	0.8197697	-0.03825907	3	10	0	1800
615210	-97	-855	-221	-0.3913945	0.7531951	-17.62255	0	10.72	4004	58	-55	2	0	0.8197697	-0.03724302	3	10	0	1800
615289	1273	-57	591	0.02573502	1.308555	-17.70084	0	10.72	4003	-2	-189	8	0	0.8197697	-0.03556072	3	10	0	1800
615395	573	1563	899	1.377524	-0.625671	-18.37134	0	10.72	4003	-5	-114	18	0	0.8197697	-0.02168979	3	10	0	1800
615492	-1928	2616	1397	-0.4373426	-3.244431	-19.14684	0	9.87	4004	55	-158	36	0	0.8197697	-0.006848902	3	10	0	1800
615599	666	2859	172	-0.7257656	-6.512558	-18.20206	0	9.87	4003	-67	-164	6	0	0.8197697	0.008020146	3	10	0	1800
615703	-2477	630	182	-4.049786	-9.335505	-17.92001	0	9.87	4004	19	-38	11	0	0.8197697	0.02345248	3	10	0	1800
615803	273	321	-191	-4.761829	-8.601379	-17.03719	0	9.87	4003	-26	30	-15	0	0.8197697	0.04357429	3	10	0	1800
615918	421	11	100	-4.616185	-8.023521	-16.9074	0	9.87	4002	-6	-114	-18	0	0.8197697	0.07605327	3	10	0	1800
616005	-18	-2160	731	-2.863107	-7.145688	-17.40968	0	9.87	4004	-4	-65	4	0	0.8197697	0.109301	3	10	0	1800
616199	-307	3343	1167	-1.13887	-6.586261	-18.44197	0	9.87	4004	14	-208	16	0	0.8197697	0.14057	3	10	0	1800
616289	-1058	-1469	-166	-1.474877	-9.013452	-18.22831	0	9.87	4004	52	-230	4	0	0.8197697	0.1572997	3	10	0	1800
616339	-604	158	418	-2.020212	-8.180187	-18.04885	0	9.87	4004	-29	185	12	0	0.8197697	0.1723326	3	10	0	1800
616429	435	-37	-492	-1.765921	-7.703493	-17.54941	0	10.72	4003	0	-222	-5	0	0.8197697	0.1906007	3	10	0	1800
616540	106	-3181	-700	-2.070426	-4.998162	-17.91146	0	10.72	4004	1	-144	-5	0	0.8197697	0.2084122	3	10	0	1800
616602	1438	-1556	1030	-0.9168677	-2.091641	-17.84499	0	10.72	4004	-67	124	12	0	0.8197697	0.2187723	3	10	0	1800
616712	687	-120	129	-0.6806895	-1.77076	-18.07536	0	10.72	4004	-89	56	25	0	0.8197697	0.2396568	3	10	0	1800
616801	500	-1504	-686	0.6178653	-1.252773	-18.57562	0	10.72	4002	85	-135	15	0	0.8197697	0.2606717	3	10	0	1800
616907	835	-47	51	1.126399	-2.746701	-19.36487	0	10.72	4004	-16	49	39	0	0.8197697	0.2849058	3	10	0	1800
617007	-685	-1736	-333	0.9042251	-2.118377	-19.06823	0	10.72	4003	-32	-179	30	0	0.8197697	0.3196139	3	10	0	1800
617117	-19	918	-586	0.7769964	-0.8873542	-18.5809	0	10.72	4003	-112	-5	29	0	0.8197697	0.3424983	3	10	0	1800
617213	-662	729	217	0.1746256	-2.255527	-19.23508	0	10.72	4003	55	165	35	0	0.8197697	0.375999	3	10	0	1800
617316	-380	1088	-65	-1.395424	-6.161471	-20.08714	0	10.94	4003	7	67	68	0	0.8197697	0.3960996	3	10	0	1800
617470	524	810	-13	0.3935049	-7.294981	-19.13047	0	10.94	4002	-63	-89	31	0	0.8197697	0.4051184	3	10	0	1800
617609	-1889	-3407	-117	-0.3809475	-4.861479	-19.57407	0	10.94	4003	141	-202	51	0	0.8197697	0.3961819	3	10	0	1800
617674	494	-276	-409	-1.912687	-3.816125	-19.90827	0	10.94	4004	-54	220	53	0	0.8197697	0.3836438	3	10	0	1800
617757	-677	-843	-466	0.1771215	-3.092378	-19.5808	0	10.94	4004	-33	-212	45	0	0.8197697	0.3681956	3	10	0	1800
617807	18	238	212	0.223911	-2.723275	-19.41388	0	10.94	4003	19	139	30	0	0.8197697	0.3576455	3	10	0	1800
617922	-834	-413	-1435	1.083724	-3.882495	-18.2677	0	10.94	4004	-27	51	24	0	0.8197697	0.3452266	3	10	0	1800
618007	179	-28	-389	0.5200419	-5.010678	-17.92078	0	10.94	4004	-51	83	5	0	0.8197697	0.3413752	3	10	0	1800
618126	369	-1084	-353	1.196662	-3.232556	-17.46101	0	10.94	4004	-74	173	10	0	0.8197697	0.334038	3	10	0	1800
618225	-38	439	455	1.983565	-3.823064	-18.78212	0	10.94	4002	0	-258	42	0	0.8197697	0.3359568	3	10	0	1800
618320	-43	-767	517	0.7986091	-4.623094	-19.45458	0	10.94	4004	39	57	42	0	0.8197697	0.3409761	3	10	0	1800
618430	-312	299	-118	0.5168471	-4.524587	-19.47236	0	10.94	4003	-92	-117	52	0	0.8197697	0.344928	3	10	0	1800
618522	-661	-289	567	0.9907432	-5.944177	-19.56168	0	10.94	4004	-36	-83	56	0	0.8197697	0.3429974	3	10	0	1800
618622	-179	-1336	-994	0.07491728	-5.391659	-18.75831	0	10.94	4002	-53	-137	23	0	0.8197697	0.3440909	3	10	0	1800
618730	-898	1264	964	0.2959602	-7.600422	-17.93829	0	10.94	4003	83	-283	6	0	0.8197697	0.3440466	3	10	0	1800
618870	426	-1786	-392	-1.019671	-6.71348	-17.3286	0	10.94	4004	36	-111	-8	0	0.8197697	0.3370953	3	10	0	1800
618929	231	245	616	-0.5549231	-6.110498	-17.32724	0	10.94	4002	46	-131	-19	0	0.8197697	0.3369905	3	10	0	1800
619033	-307	1227	909	-1.045253	-7.787841	-17.41751	0	10.94	4004	-74	124	-20	0	0.8197697	0.3352761	3	10	0	1800
619136	700	1191	905	0.07647015	-8.869145	-17.30832	0	10.94	4003	50	-152	-2	0	0.8197697	0.3406939	3	10	0	1800
619237	24	-2270	-366	-0.4415211	-7.690123	-17.46976	0	10.43	4004	-6	67	10	0	0.8197697	0.3465551	3	10	0	1800
619345	1056	-387	-810	0.4102906	-6.861474	-18.36527	0	10.43	4003	-15	132	10	0	0.8197697	0.3532144	3	10	0	1800
619445	2055	1201	-34	2.39384	-7.528144	-18.19003	0	10.43	4003	-84	244	7	0	0.8197697	0.3596347	3	10	0	1800
619544	1035	-174	-360	4.214226	-8.645737	-17.83843	0	10.43	4002	-13	-122	11	0	0.8197697	0.3736271	3	10	0	1800
619649	-851	-1691	83	3.576471	-8.216233	-17.77104	0	10.43	4003	-2	-155	1	0	0.8197697	0.3828521	3	10	0	1800
619749	-46	22	1164	1.985111	-6.155771	-17.54276	0	10.43	4003	-28	9	5	0	0.8197697	0.3879209	3	10	0	1800
619856	-39	1721	515	1.730967	-7.096643	-17.59852	0	10.43	4004	-76	72	8	0	0.8197697	0.4010157	3	10	0	1800
619976	296	512	32	1.363987	-8.523689	-17.09386	0	10.43	4003	-36	-114	-21	1	0.9341431	0.4186348	4	10	0	1800
620063	-471	-614	-603	0.9238546	-9.369636	-16.88796	0	10.43	4004	70	-136	-22	0	1.022429	0.4289377	4	10	0	1800
620183	-490	-2078	429	0.4935623	-6.10696	-17.2973	0	10.21	4003	-21	-43	-3	-1	1.160308	0.4463152	4	10	0	1800
620269	1615	-376	241	1.456838	-5.034923	-16.92494	0	10.21	4004	-18	-199	-29	-2	1.226197	0.4532839	4	10	0	1800
620423	-689	-1491	391	1.191053	-4.26509	-17.0927	0	10.21	4004	58	-154	-4	-2	1.239767	0.457374	4	10	0	1800
620478	-1474	-2982	304	0.5199615	-3.532618	-17.23428	0	10.21	4004	107	-230	-9	-2	1.251377	0.4545511	4	10	0	1800
620583	1703	2217	-281	1.054234	-3.409704	-16.87833	0	10.21	4004	-127	123	-37	-2	1.248996	0.4440354	4	10	0	1800
620679	-1041	142	-110	1.586592	-6.638577	-16.51766	0	10.21	4004	43	-49	-26	-2	1.238609	0.434645	4	10	0	1800
620786	-434	-524	380	-0.6205834	-5.39013	-16.81286	0	10.21	4004	-47	185	-12	-1	1.188962	0.4206807	4	10	0	1800
620892	-1038	1987	235	-2.992235	-8.560225	-18.18766	0	10.21	4004	-103	179	13	0	1.008835	0.4076587	4	10	0	1800
621003	-1047	-673	-1796	-4.986209	-8.509496	-17.50314	0	10.21	4003	5	-155	-23	0	0.9737725	0.3918984	4	10	0	1800
621097	920	-938	215	-3.87057	-7.188806	-17.09962	0	10.21	4002	-5	-216	-12	0	0.8832375	0.3747148	4	10	0	1800
621207	608	-434	-132	-1.910833	-7.608863	-16.74882	0	10.21	4003	-24	38	-23	2	0.7777324	0.3474278	4	10	0	1800
621307	-468	-2936	-321	-1.600443	-5.352729	-16.32645	0	10.21	4004	75	-116	-33	3	0.6686575	0.3275602	4	10	0	1800
621413	1052	1825	635	-2.181575	-5.327447	-15.88436	0	10.21	4003	53	-142	-39	4	0.5575345	0.3058392	4	10	0	1800
621516	-541	2163	-268	0.5115296	-7.34712	-15.72752	0	10.21	4003	57	-93	-48	5	0.4256437	0.2626453	4	10	0	1800
621610	-536	-1701	464	0.262716	-6.945177	-16.46222	0	10.21	4003	142	-299	-19	6	0.3647786	0.2495878	4	10	0	1800
621714	-900	1094	1519	-0.7120213	-5.515802	-17.83047	0	10.21	4003	121	-126	23	7	0.2691305	0.2142713	4	10	0	1800
621824	1016	4265	580	-1.020573	-9.352569	-18.06939	0	10.21	4003	-105	101	8	7	0.2140431	0.1837728	4	10	0	1800
621927	355	-668	-127	0.09422415	-10.00549	-17.70883	0	10.21	4003	-58	152	-2	7	0.2133894	0.1546149	4	10	0	1800
622015	-1120	911	-179	-0.3552669	-10.288	-17.77383	0	10.04	4004	79	-161	-8	7	0.232085	0.1307724	4	10	0	1800
622122	-766	1116	-789	-0.4290574	-12.19201	-17.79981	0	10.04	4004	-51	65	-3	7	0.2738869	0.1094828	4	10	0	1800
622217	1204	-374	1072	-0.6139925	-11.42242	-18.24454	0	10.04	4004	37	-238	16	6	0.3417132	0.1021207	4	10	0	1800
622344	-659	-251	-1348	0.02572395	-11.76915	-18.09676	0	10.04	4003	9	-128	-6	5	0.4487303	0.1106276	4	10	0	1800
622421	-292	-485	931	-0.7003028	-12.14342	-17.74576	0	10.04	4003	-123	186	-8	5	0.4742131	0.1185099	4	10	0	1800
622523	292	-832	-476	-0.4802873	-11.69234	-17.33781	0	10.04	4004	54	3	-11	4	0.5803912	0.1312515	4	10	0	1800
622632	-1318	-2089	-474	-0.07125597	-8.708041	-17.94005	0	10.04	4004	53	-94	6	3	0.6616305	0.1598392	4	10	0	1800
622724	-209	444	-306	-1.365544	-7.033364	-18.42823	0	10.04	4003	-6	-96	9	2	0.7286009	0.1790243	4	10	0	1800
622826	-1717	-3621	188	-2.475912	-5.462682	-18.99844	0	10.04	4003	67	-234	20	1	0.840521	0.206725	4	10	0	1800
622932	-639	-702	-219	-3.637992	-1.728427	-18.31305	0	9.81	4003	-49	210	19	0	0.9274989	0.2385258	4	10	0	1800
623030	-894	-723	-1480	-5.023335	-2.998633	-17.63358	0	9.81	4002	-53	138	15	0	0.8819014	0.2674565	4	10	0	1800
623128	-681	-1857	-180	-5.557655	-2.768221	-17.36553	0	9.81	4004	56	-116	-11	1	0.9197249	0.308946	4	10	0	1800
623231	176	-85	273	-5.639905	-1.860068	-17.81176	0	9.81	4010	-89	-60	13	0	0.9928079	0.3306635	4	10	0	1800
623342	-31	1392	876	-2.532657	-6.379257	-18.71272	0	9.81	4003	32	-43	34	0	1.104331	0.351679	4	10	0	1800
623430	1432	-826	-1154	-1.417081	-7.701521	-18.12436	0	9.81	4002	55	-31	-1	-1	1.191556	0.3666665	4	10	0	1800
623573	-795	360	-173	-0.75255	-9.117734	-17.69999	0	9.81	4004	77	-139	-6	-2	1.242484	0.3917114	4	10	0	1800
623638	1064	1716	-458	-0.313085	-9.269617	-17.5096	0	9.81	4004	-82	19	4	-2	1.260575	0.4123202	4	10	0	1800
623740	-1017	-253	1056	0.4169222	-10.11388	-17.53311	0	9.81	4003	87	-138	6	-2	1.22682	0.4356726	4	10	0	1800
623841	463	-2003	-479	-0.1367359	-9.241089	-17.27555	0	9.81	4004	47	-92	-15	-2	1.261051	0.4430563	4	10	0	1800
623945	1300	993	-129	1.216403	-8.772511	-17.07635	0	9.64	4003	-180	121	-11	-2	1.253008	0.4443512	4	10	0	1800
624079	78	-1800	109	-0.1201625	-6.39683	-17.44462	0	9.64	4004	6	-55	-5	-3	1.372961	0.4570922	4	10	0	1800
624150	1123	1405	482	0.5714911	-6.660748	-17.44602	0	9.64	4004	-14	-233	0	-4	1.409664	0.4647997	4	10	0	1800
624275	-151	-670	12	1.290748	-8.620117	-17.09014	0	9.64	4004	93	-228	-9	-4	1.410306	0.480487	4	10	0	1800
624355	735	-1098	444	1.07598	-7.953699	-17.02772	0	9.64	4003	101	-141	-11	-4	1.421602	0.4837005	4	10	0	1800
624461	1045	779	417	1.836364	-6.565002	-17.09081	0	9.64	4002	-19	11	-11	-4	1.455701	0.483056	4	10	0	1800
624565	-862	-342	-194	0.8791086	-6.819112	-17.54091	0	9.64	4004	-49	83	-1	-3	1.356404	0.4714169	4	10	0	1800
624665	530	886	-405	0.2728955	-7.583671	-16.93084	0	9.64	4003	-63	137	-26	-3	1.349797	0.4641417	4	10	0	1800
624763	91	2106	-116	-0.07459792	-9.168735	-16.41884	0	9.64	4003	-37	123	-38	-3	1.322773	0.4501247	4	10	0	1800
624881	-58	-179	478	0.1057928	-10.61745	-16.23987	0	10.38	4004	78	-170	-24	-3	1.336249	0.4328634	4	10	0	1800
624969	-440	-230	1009	-0.7734597	-9.75856	-16.68701	0	10.38	4003	39	-178	-12	-3	1.197535	0.4061012	4	10	0	1800
625074	822	2315	146	-0.5796286	-10.92847	-17.561	0	10.38	4002	-43	31	1	-2	1.187216	0.3789996	4	10	0	1800
625175	-448	-983	110	-1.155997	-10.46084	-17.69311	0	10.38	4003	-51	-13	2	-1	1.161521	0.364634	4	10	0	1800
625391	-255	-611	-63	-1.296344	-7.997749	-17.06287	0	10.38	4003	15	-66	-18	-1	1.098666	0.3286438	4	10	0	1800
625483	-1331	-2113	579	-2.903281	-5.674984	-17.06526	0	10.38	4004	-63	-91	-13	0	1.04149	0.3208595	4	10	0	1800
625616	-1899	-978	546	-5.4668	-3.33942	-17.81093	0	10.38	4003	-9	53	7	0	0.9125136	0.3073314	4	10	0	1800
625697	-422	-572	900	-7.059472	-3.223563	-18.42141	0	10.38	4003	10	-122	36	1	0.7817854	0.2898813	4	10	0	1800
625800	920	1869	557	-5.211707	-5.056061	-18.75197	0	10.04	4002	-46	250	27	3	0.6455853	0.273298	4	10	0	1800
625897	-530	2107	-1665	-3.208627	-6.429079	-18.17612	0	10.04	4003	-1	60	-15	4	0.5039089	0.2461208	4	10	0	1800
626006	2359	-815	-1337	0.5719513	-8.159267	-15.53434	0	10.04	4003	-56	25	-73	5	0.4258273	0.2269395	4	10	0	1800
626105	-1621	-1481	582	-0.3003511	-3.822891	-14.60467	0	10.04	4003	-51	-16	-62	6	0.3455893	0.2091604	4	10	0	1800
626254	147	117	1502	-0.09201771	-3.471956	-16.60122	0	10.04	4008	-93	-23	-8	7	0.3021314	0.1954758	4	10	0	1800
626379	789	2575	379	-0.3150412	-5.602124	-17.39294	0	10.04	4003	-89	90	-26	6	0.3089907	0.1913863	4	10	0	1800
626446	-997	-1386	-635	-0.5303996	-5.041543	-16.0391	0	10.04	4003	70	-20	-70	6	0.3468367	0.1850225	4	10	0	1800
626505	-476	-370	-779	-1.342565	-4.912245	-15.22029	0	10.04	4004	71	-263	-65	6	0.3859266	0.1851855	4	10	0	1800
626610	707	108	177	-0.4895257	-5.20178	-15.35879	0	10.04	4004	3	-105	-62	5	0.4581333	0.185646	4	10	0	1800
626715	454	-158	9	-0.1460419	-5.617246	-16.85567	0	9.98	4002	50	-130	-19	5	0.5320123	0.1838671	4	10	0	1800
