time(ms)	gyro_x(deg/s)	gyro_y(deg/s)	gyro_z(deg/s)	orientation_roll(deg)	orientation_pitch(deg)	orientation_yaw(deg)	throttle	battery(V)	loop_time(uS)	pid_output_roll	pid_output_pitch	pid_output_yaw	pid_output_throttle	ultrasonic_alt	baro_alt	flight_mode	p_gain_altitude	i_gain_altitude	d_gain_altitude	compass_heading	latitude	longitude
793581	-36	5	2	-2.641081	0.7130997	-1.009427	0	11.11	4002	0	0	5	5	0.2685689	-0.1347901	1	6	0.04	1800	-87.29935	40.92376	-91.39366
793714	-36	1	2	-2.639353	0.7137539	-1.013829	0	11.11	4004	0	0	5	5	0.2685689	-0.1241052	1	6	0.04	1800	-87.28455	40.92376	-91.39366
793855	-29	4	2	-2.637175	0.7129857	-1.020065	0	11.11	4002	0	0	5	5	0.2685689	-0.1196503	1	6	0.04	1800	-87.28586	40.92376	-91.39366
793933	-32	-1	3	-2.640881	0.7198303	-1.023855	0	11.11	4002	0	0	5	5	0.2685689	-0.122492	1	6	0.04	1800	-87.58191	40.92376	-91.39366
794007	-40	6	-1	-2.646461	0.7194198	-1.025689	0	11.11	4002	0	0	5	5	0.2685689	-0.1323673	1	6	0.04	1800	-87.2952	40.92376	-91.39366
794108	-32	5	0	-2.646775	0.7156892	-1.028196	0	11.11	4003	0	0	5	5	0.2685689	-0.1388473	1	6	0.04	1800	-87.30429	40.92376	-91.39366
794245	-31	4	2	-2.630597	0.7135012	-1.035045	0	11.11	4004	0	0	5	5	0.2685689	-0.1453254	1	6	0.04	1800	-87.28595	40.92376	-91.39366
794334	-30	-4	-3	-2.631967	0.7073156	-1.034923	0	11.11	4003	0	0	5	5	0.2685689	-0.1568681	1	6	0.04	1800	-87.63437	40.92376	-91.39366
794449	-34	3	0	-2.631194	0.7078238	-1.037796	0	11.11	4003	0	0	5	5	0.2685689	-0.1618441	1	6	0.04	1800	-87.328	40.92376	-91.39366
794578	-39	4	2	-2.626315	0.7022109	-1.044889	0	11.11	4002	0	0	5	5	0.2685689	-0.1728168	1	6	0.04	1800	-87.32141	40.92376	-91.39366
794716	-37	2	1	-2.627421	0.6950287	-1.048313	0	11.11	4003	0	0	5	5	0.2685689	-0.1881818	1	6	0.04	1800	-87.33554	40.92376	-91.39366
794878	-31	-2	7	-2.619426	0.6960359	-1.051186	0	11.11	4002	0	0	5	5	0.2685689	-0.1953145	1	6	0.04	1800	-87.33768	40.92376	-91.39366
795018	-35	2	5	-2.628368	0.7052416	-1.057789	0	11.11	4002	0	0	5	5	0.2685689	-0.1961322	1	6	0.04	1800	-87.616	40.92376	-91.39366
795103	-29	3	2	-2.627605	0.7064182	-1.060907	0	11.11	4004	0	0	5	5	0.2685689	-0.1967561	1	6	0.04	1800	-87.31693	40.92376	-91.39366
795254	-38	1	3	-2.632524	0.7093455	-1.065982	0	11.11	4004	0	0	5	5	0.2685689	-0.1988259	1	6	0.04	1800	-87.29382	40.92376	-91.39366
795391	-28	0	5	-2.632738	0.7067068	-1.072707	0	11.11	4003	0	0	5	5	0.2685689	-0.2013425	1	6	0.04	1800	-87.6265	40.92376	-91.39366
795443	-31	2	-1	-2.625859	0.7112972	-1.07558	0	11.11	4002	0	0	5	5	0.2685689	-0.201628	1	6	0.04	1800	-87.30728	40.92376	-91.39366
795528	-33	-4	2	-2.624367	0.7060062	-1.077047	0	11.11	4004	0	0	5	5	0.2685689	-0.20268	1	6	0.04	1800	-87.29507	40.92376	-91.39366
795677	-32	1	1	-2.620858	0.7040548	-1.083284	0	11.11	4003	0	0	5	5	0.2685689	-0.202645	1	6	0.04	1800	-87.61023	40.92376	-91.39366
795746	-31	2	-3	-2.618237	0.7025189	-1.084813	0	11.11	4002	0	0	5	5	0.2685689	-0.1976065	1	6	0.04	1800	-87.32489	40.92376	-91.39366
795878	-39	-4	4	-2.615144	0.6941794	-1.089337	0	11.11	4004	0	0	5	5	0.2685689	-0.2039478	1	6	0.04	1800	-87.33746	40.92376	-91.39366
795909	-29	2	-5	-2.613697	0.6957529	-1.090132	0	11.11	4003	0	0	5	5	0.2685689	-0.2039951	1	6	0.04	1800	-87.33746	40.92376	-91.39366
795982	-42	6	3	-2.616971	0.6951255	-1.094106	0	11.11	4003	0	0	5	5	0.2685689	-0.2044225	1	6	0.04	1800	-87.34601	40.92376	-91.39366
796069	-34	0	4	-2.618341	0.6944809	-1.095819	0	11.06	4004	0	0	5	5	0.2685689	-0.2084351	1	6	0.04	1800	-87.03116	40.92376	-91.39366
796271	-36	0	4	-2.614802	0.7062261	-1.096063	0	11.06	4003	0	0	5	5	0.2685689	-0.2172727	1	6	0.04	1800	-87.32962	40.92376	-91.39366
796334	-24	-3	3	-2.611724	0.7098116	-1.098753	0	11.06	4003	0	0	5	5	0.2685689	-0.2163406	1	6	0.04	1800	-87.62262	40.92376	-91.39366
796431	-33	8	4	-2.612369	0.7142788	-1.101994	0	11.06	4004	0	0	5	5	0.2685689	-0.2128172	1	6	0.04	1800	-87.30338	40.92376	-91.39366
796548	-31	5	4	-2.605744	0.7170111	-1.105235	0	11.06	4003	0	0	5	5	0.2685689	-0.2165994	1	6	0.04	1800	-87.60367	40.92376	-91.39366
796629	-14	-43	21	-2.54296	0.7974653	-1.131035	0	11.06	4002	0	0	5	5	0.2685689	-0.214547	1	6	0.04	1800	-87.10803	40.92376	-91.39366
796725	20	-31	-26	-2.414364	0.9719231	-1.128163	0	11.06	4002	0	0	5	5	0.2685689	-0.2100588	1	6	0.04	1800	-87.59705	40.92376	-91.39366
796791	98	-155	-33	-2.341686	1.047158	-1.117464	0	11.06	4002	0	0	5	5	0.2685689	-0.2088567	1	6	0.04	1800	-87.99161	40.92376	-91.39366
796837	3	-18	-12	-2.307983	1.095419	-1.118687	0	11.06	4004	0	0	5	5	0.2685689	-0.2092777	1	6	0.04	1800	-87.44934	40.92376	-91.39366
796990	-128	127	24	-2.437257	0.9210107	-1.129813	0	11.11	4003	0	0	5	5	0.2685689	-0.2029572	1	6	0.04	1800	-87.64862	40.92376	-91.39366
797115	-19	-15	3	-2.42426	0.9361838	-1.126697	0	11.11	4002	0	0	5	5	0.2685689	-0.2001091	1	6	0.04	1800	-87.33881	40.92376	-91.39366
797175	-45	13	4	-2.423633	0.9435745	-1.127308	0	11.11	4003	0	0	5	5	0.2685689	-0.2008707	1	6	0.04	1800	-87.73639	40.92376	-91.39366
797242	-29	3	2	-2.423741	0.9360595	-1.130242	0	11.11	4004	0	0	5	5	0.2685689	-0.2027448	1	6	0.04	1800	-87.45581	40.92376	-91.39366
797391	-25	-2	0	-2.419828	0.9282523	-1.132627	0	11.11	4002	0	0	5	5	0.2685689	-0.2113373	1	6	0.04	1800	-87.16763	40.92376	-91.39366
797470	-34	2	6	-2.423232	0.9267283	-1.133177	0	11.11	4004	0	0	5	5	0.2685689	-0.2232956	1	6	0.04	1800	-87.16473	40.92376	-91.39366
797572	-39	3	-3	-2.426925	0.9320271	-1.134278	0	11.11	4003	0	0	5	5	0.2685689	-0.2275236	1	6	0.04	1800	-87.45889	40.92376	-91.39366
797639	-26	3	-2	-2.42811	0.9328486	-1.134523	0	11.11	4003	0	0	5	5	0.2685689	-0.2302419	1	6	0.04	1800	-87.45889	40.92376	-91.39366
797750	-32	1	0	-2.428626	0.9352988	-1.136357	0	11.11	4003	0	0	5	5	0.2685689	-0.234114	1	6	0.04	1800	-87.46414	40.92376	-91.39366
797890	-33	3	1	-2.426082	0.9357255	-1.138254	0	11.11	4004	0	0	5	5	0.2685689	-0.2472641	1	6	0.04	1800	-87.46442	40.92376	-91.39366
797948	-35	2	4	-2.429768	0.9368553	-1.138315	0	11.11	4002	0	0	5	5	0.2685689	-0.2498349	1	6	0.04	1800	-87.147	40.92376	-91.39366
798170	-26	1	-1	-2.417535	0.942176	-1.143695	0	11.11	4004	0	0	5	5	0.2685689	-0.2654895	1	6	0.04	1800	-87.44165	40.92376	-91.39366
798337	-26	7	-1	-2.407093	0.9392726	-1.150297	0	11.11	4004	0	0	5	5	0.2685689	-0.2608156	1	6	0.04	1800	-87.74588	40.92376	-91.39366
798411	-32	0	3	-2.409463	0.9411007	-1.149992	0	11.11	4002	0	0	5	5	0.2685689	-0.2475234	1	6	0.04	1800	-87.1319	40.92376	-91.39366
798470	-32	0	-2	-2.41161	0.9429225	-1.150236	0	11.11	4003	0	0	5	5	0.2685689	-0.2375889	1	6	0.04	1800	-87.1319	40.92376	-91.39366
798552	-37	2	0	-2.405901	0.9372367	-1.152987	0	11.11	4003	0	0	5	5	0.2685689	-0.2254458	1	6	0.04	1800	-87.44467	40.92376	-91.39366
798648	-27	-1	5	-2.407436	0.9301937	-1.155311	0	11.11	4003	0	0	5	5	0.2685689	-0.2105805	1	6	0.04	1800	-87.47168	40.92377	-91.39366
798818	-25	3	3	-2.403378	0.9243893	-1.159896	0	11.06	4003	0	0	5	5	0.2685689	-0.1658355	1	6	0.04	1800	-87.47263	40.92377	-91.39366
798838	-26	6	2	-2.402359	0.9256456	-1.160997	0	11.06	4004	0	0	5	5	0.2685689	-0.1610451	1	6	0.04	1800	-87.77808	40.92377	-91.39366
798879	-32	3	0	-2.397091	0.9288606	-1.163014	0	11.06	4002	0	0	5	5	0.2685689	-0.1472557	1	6	0.04	1800	-87.16071	40.92377	-91.39366
799020	-20	5	0	-2.396473	0.9333387	-1.165827	0	11.06	4003	0	0	5	5	0.2685689	-0.1182707	1	6	0.04	1800	-87.46179	40.92377	-91.39367
799039	-30	6	1	-2.396317	0.930835	-1.168089	0	11.06	4004	0	0	5	5	0.2685689	-0.1143031	1	6	0.04	1800	-87.47183	40.92377	-91.39367
799097	-32	-6	0	-2.393507	0.9286112	-1.170718	0	11.06	4004	0	0	5	5	0.2685689	-0.08996963	1	6	0.04	1800	-87.46893	40.92377	-91.39367
799213	-31	-4	5	-2.390939	0.9298068	-1.172675	0	11.06	4003	0	0	5	5	0.2685689	-0.07090984	1	6	0.04	1800	-87.4671	40.92377	-91.39367
799285	-16	2	2	-2.37677	0.9323688	-1.175487	0	11.06	4003	0	0	5	5	0.2685689	-0.0610141	1	6	0.04	1800	-87.77618	40.92377	-91.39367
799304	-33	2	3	-2.375245	0.928136	-1.178055	0	11.06	4003	0	0	5	5	0.2685689	-0.05833475	1	6	0.04	1800	-87.17871	40.92377	-91.39367
799324	-31	0	3	-2.377621	0.9283052	-1.17885	0	11.17	4003	0	0	5	5	0.2685689	-0.0577255	1	6	0.04	1800	-87.17871	40.92377	-91.39367
799498	-34	1	4	-2.371405	0.9288108	-1.182518	0	11.17	4003	0	0	5	5	0.2685689	-0.06642006	1	6	0.04	1800	-87.48663	40.92377	-91.39367
799532	-23	6	-4	-2.3757	0.9323075	-1.18533	0	11.17	4003	0	0	5	5	0.2685689	-0.08463261	1	6	0.04	1800	-87.47418	40.92377	-91.39367
799587	-33	3	-2	-2.38121	0.9317977	-1.187775	0	11.17	4004	0	0	5	5	0.2685689	-0.1069479	1	6	0.04	1800	-87.4689	40.92377	-91.39367
799670	-19	3	0	-2.375293	0.9367376	-1.191383	0	11.17	4003	0	0	5	5	0.2685689	-0.1157514	1	6	0.04	1800	-87.45605	40.92377	-91.39367
799839	-31	1	-3	-2.371494	0.9273797	-1.195785	0	11.17	4003	0	0	5	5	0.2685689	-0.1473596	1	6	0.04	1800	-87.47229	40.92377	-91.39367
799911	-18	2	-3	-2.363944	0.9197967	-1.199331	0	11.17	4004	0	0	5	5	0.2685689	-0.152244	1	6	0.04	1800	-87.17664	40.92377	-91.39367
799944	-197	229	110	-2.424345	0.8418397	-1.279177	0	11.17	4003	0	0	5	5	0.2685689	-0.1491636	1	6	0.04	1800	-87.33453	40.92377	-91.39367
799971	-178	161	14	-2.535197	0.6800312	-1.307729	0	11.17	4003	0	0	5	5	0.2685689	-0.1428903	1	6	0.04	1800	-87.46338	40.92377	-91.39367
800039	-787	822	133	-3.122328	0.01039288	-1.477267	0	11.17	4003	0	0	5	5	0.2685689	-0.1294367	1	6	0.04	1800	-87.26028	40.92377	-91.39367
800140	-795	-5564	1437	-4.187075	3.877036	-2.296164	0	11.17	4002	0	0	5	5	0.2685689	-0.09796324	1	6	0.04	1800	-85.80853	40.92377	-91.39367
800210	4	-5350	5124	-4.838965	11.27495	-5.726415	0	11.17	4003	0	0	5	5	0.2685689	-0.08582123	1	6	0.04	1800	-85.80853	40.92377	-91.39367
800270	2464	-2212	10277	-4.161162	13.40497	-23.85621	0	11.17	4002	0	0	5	5	0.2685689	-0.07400484	1	6	0.04	1800	-74.32153	40.92377	-91.39366
800304	2680	86	11223	-3.107355	16.37235	-48.95719	0	11.17	4002	0	0	5	5	0.2685689	-0.05088572	1	6	0.04	1800	-47.58679	40.92377	-91.39366
800356	1849	-1314	10026	-2.091163	15.27028	-72.39825	0	11.17	4003	0	0	5	5	0.2685689	-0.03249688	1	6	0.04	1800	-23.08487	40.92377	-91.39366
800496	-283	736	4055	-3.814878	10.69793	-89.02325	0	11.11	4002	0	0	5	5	0.2685689	0.01353497	1	6	0.04	1800	-7.195038	40.92377	-67.4473
800571	910	-21	2030	-2.52935	6.11456	-92.87453	0	11.11	4003	0	0	5	5	0.2685689	0.02895027	1	6	0.04	1800	-4.779602	40.92377	-51.48304
800630	536	801	-1075	-0.7385089	4.023789	-99.20502	0	11.11	4003	0	0	5	5	0.2685689	0.04557061	1	6	0.04	1800	-3.790833	40.92377	-51.48304
800686	220	695	-299	-0.66958	3.591919	-98.07291	0	11.11	4002	0	0	5	5	0.2685689	0.04679599	1	6	0.04	1800	-2.589417	40.92377	-51.48304
800723	-9	214	29	-0.3987458	2.69803	-98.13811	0	11.11	4003	0	0	5	5	0.2685689	0.03957086	1	6	0.04	1800	-4.222595	40.92377	-51.48304
800788	-44	32	-6	-0.2356461	2.346434	-98.22356	0	11.11	4003	0	0	5	5	0.2685689	0.03284305	1	6	0.04	1800	-4.629028	40.92377	-67.44729
800822	-38	82	7	-0.04965121	2.304585	-98.23754	0	11.11	4002	0	0	5	5	0.2685689	0.02070699	1	6	0.04	1800	-4.588837	40.92377	-91.39366
800851	-26	46	6	0.07273398	2.273702	-98.24419	0	11.11	4002	0	0	5	5	0.2685689	0.009276908	1	6	0.04	1800	-4.950439	40.92377	-91.39366
800882	-27	53	7	0.2333807	2.236766	-98.25353	0	11.11	4003	0	0	5	5	0.2685689	0.001453504	1	6	0.04	1800	-5.328033	40.92377	-91.39366
800945	-30	33	1	0.3716607	2.216371	-98.25866	0	11.06	4003	0	0	5	5	0.2685689	-0.02386645	1	6	0.04	1800	-5.592133	40.92378	-91.39366
801030	-21	37	3	0.5794932	2.166318	-98.26598	0	11.06	4003	0	0	5	5	0.2685689	-0.05779725	1	6	0.04	1800	-5.865601	40.92378	-91.39366
801063	-31	25	0	0.6492753	2.145612	-98.26696	0	11.06	4003	0	0	5	5	0.2685689	-0.08307559	1	6	0.04	1800	-5.933319	40.92378	-91.39367
801119	-18	28	-1	0.7120036	2.128742	-98.2683	0	11.06	4003	0	0	5	5	0.2685689	-0.0951681	1	6	0.04	1800	-6.019135	40.92378	-91.39367
801190	-20	22	0	0.88206	2.090514	-98.27349	0	11.06	4003	0	0	5	5	0.2685689	-0.1134663	1	6	0.04	1800	-6.503204	40.92378	-91.39367
801329	-33	22	-3	1.005429	2.064378	-98.27593	0	11.06	4003	0	0	5	5	0.2685689	-0.1339908	1	6	0.04	1800	-6.665405	40.92379	-91.39367
801350	-24	8	0	1.022581	2.061859	-98.27636	0	11.06	4002	0	0	5	5	0.2685689	-0.1347	1	6	0.04	1800	-6.665405	40.92379	-91.39367
801435	-21	9	1	1.070893	2.048923	-98.27734	0	11.17	4002	0	0	5	5	0.2685689	-0.1348957	1	6	0.04	1800	-6.734955	40.92379	-91.39366
801461	-22	17	1	1.105033	2.044154	-98.2788	0	11.17	4004	0	0	5	5	0.2685689	-0.1367751	1	6	0.04	1800	-6.770508	40.92379	-91.39366
801585	-16	9	4	1.145886	2.027539	-98.27868	0	11.17	4003	0	0	5	5	0.2685689	-0.1291026	1	6	0.04	1800	-6.575653	40.92379	-91.39366
801695	-18	10	0	1.178275	2.002835	-98.2788	0	11.17	4002	0	0	5	5	0.2685689	-0.1155228	1	6	0.04	1800	-7.051788	40.92379	-91.39366
801778	-20	6	1	1.193274	1.997004	-98.27813	0	11.17	4003	0	0	5	5	0.2685689	-0.1095572	1	6	0.04	1800	-6.897797	40.92379	-91.39366
801857	-25	12	-2	1.222074	1.986992	-98.27929	0	11.17	4002	0	0	5	5	0.2685689	-0.1052083	1	6	0.04	1800	-6.716095	40.92379	-91.39366
801923	-14	10	-2	1.230695	1.984868	-98.27959	0	11.17	4003	0	0	5	5	0.2685689	-0.1062196	1	6	0.04	1800	-6.716095	40.92379	-91.39366
802015	-18	14	2	1.260652	1.95727	-98.2802	0	11.17	4002	0	0	5	5	0.2685689	-0.1125418	1	6	0.04	1800	-6.971222	40.92379	-91.39366
802106	-16	6	0	1.271393	1.947	-98.28161	0	11.17	4003	0	0	5	5	0.2685689	-0.1184887	1	6	0.04	1800	-6.587616	40.92379	-91.39366
802216	-9	7	3	1.281736	1.927049	-98.28332	0	11.17	4003	0	0	5	5	0.2685689	-0.1181784	1	6	0.04	1800	-7.018646	40.92379	-91.39366
802382	-10	9	-4	1.29983	1.910455	-98.28393	0	11.23	4004	0	0	5	5	0.2685689	-0.1130177	1	6	0.04	1800	-7.064423	40.92379	-91.39366
802535	-21	6	2	1.323729	1.878073	-98.28527	0	11.23	4004	0	0	5	5	0.2685689	-0.118847	1	6	0.04	1800	-7.045044	40.92379	-91.39366
802690	-21	2	-1	1.341768	1.858047	-98.28619	0	11.23	4004	0	0	5	5	0.2685689	-0.1329607	1	6	0.04	1800	-7.052368	40.92379	-91.39366
802756	-21	3	1	1.34222	1.85321	-98.2868	0	11.23	4002	0	0	5	5	0.2685689	-0.1422058	1	6	0.04	1800	-6.882935	40.92379	-91.39366
802863	-16	0	0	1.343003	1.846719	-98.28765	0	11.23	4004	0	0	5	5	0.2685689	-0.1485338	1	6	0.04	1800	-6.862122	40.92379	-91.39366
802980	-16	7	-2	1.348323	1.825065	-98.28936	0	11.23	4002	0	0	5	5	0.2685689	-0.1571934	1	6	0.04	1800	-7.071075	40.92379	-91.39366
803072	-21	7	2	1.350121	1.819052	-98.28838	0	11.23	4002	0	0	5	5	0.2685689	-0.1597635	1	6	0.04	1800	-7.101288	40.92379	-91.39366
803154	-20	6	0	1.364666	1.805751	-98.28881	0	11.17	4004	0	0	5	5	0.2685689	-0.1577184	1	6	0.04	1800	-7.287903	40.92379	-91.39366
803299	-22	13	0	1.364978	1.804507	-98.28796	0	11.17	4004	0	0	5	5	0.2685689	-0.1531111	1	6	0.04	1800	-7.11731	40.92379	-91.39366
803491	-25	8	3	1.368846	1.769252	-98.28832	0	11.17	4004	0	0	5	5	0.2685689	-0.1345186	1	6	0.04	1800	-7.102448	40.91792	-98.83127
803605	-27	0	3	1.363636	1.749171	-98.28735	0	11.17	4004	0	0	5	5	0.2685689	-0.123069	1	6	0.04	1800	-6.902863	40.9062	101.0419
803757	-12	0	4	1.371196	1.7424	-98.28979	0	11.17	4003	0	0	5	5	0.2685689	-0.1263839	1	6	0.04	1800	-7.106689	40.9062	101.0419
803842	-21	4	-1	1.369825	1.728272	-98.28808	0	11.17	4003	0	0	5	5	0.2685689	-0.1287721	1	6	0.04	1800	-7.119598	40.9062	101.0419
803927	-8	4	0	1.371562	1.716482	-98.28905	0	11.17	4008	0	0	5	5	0.2685689	-0.1340947	1	6	0.04	1800	-7.093842	40.9062	101.0419
804015	-13	0	0	1.371169	1.711018	-98.28747	0	11.17	4004	0	0	5	5	0.2685689	-0.1319766	1	6	0.04	1800	-7.112793	40.9062	101.0419
804069	1	7	2	1.379453	1.708241	-98.28722	0	11.11	4002	0	0	5	5	0.2685689	-0.1276218	1	6	0.04	1800	-7.112793	40.90913	104.7607
804265	-10	4	-3	1.397425	1.690326	-98.2832	0	11.11	4003	0	0	5	5	0.2685689	-0.1333694	1	6	0.04	1800	-7.132629	40.92379	-91.39366
804387	-8	3	1	1.394448	1.68791	-98.28222	0	11.11	4002	0	0	5	5	0.2685689	-0.138292	1	6	0.04	1800	-7.12854	40.92379	-91.39366
804458	-12	7	2	1.394417	1.680395	-98.28216	0	11.11	4003	0	0	5	5	0.2685689	-0.1411014	1	6	0.04	1800	-7.354797	40.92379	-91.39366
804612	-13	4	-5	1.401903	1.662315	-98.28075	0	11.11	4002	0	0	5	5	0.2685689	-0.1408366	1	6	0.04	1800	-7.354706	40.92379	-91.39366
804681	-16	8	0	1.403274	1.661478	-98.27972	0	11.11	4004	0	0	5	5	0.2685689	-0.1383451	1	6	0.04	1800	-7.143982	40.92379	-91.39366
804773	-12	8	-3	1.414454	1.64737	-98.2785	0	11.11	4004	0	0	5	5	0.2685689	-0.1349715	1	6	0.04	1800	-7.128479	40.92379	-91.39366
804825	-14	2	-2	1.414793	1.648582	-98.2774	0	11.11	4002	0	0	5	5	0.2685689	-0.1312552	1	6	0.04	1800	-7.158203	40.92379	-91.39366
804949	-16	0	-1	1.411051	1.638193	-98.27428	0	11.11	4003	0	0	5	5	0.2685689	-0.1273215	1	6	0.04	1800	-7.15799	40.92379	-51.48722
805128	-19	4	-6	1.406384	1.637198	-98.27251	0	11.11	4004	0	0	5	5	0.2685689	-0.1185962	1	6	0.04	1800	-7.13028	40.92379	-43.50593
805209	-20	5	-3	1.395633	1.634328	-98.27178	0	11.11	4004	0	0	5	5	0.2685689	-0.1157676	1	6	0.04	1800	-7.150024	40.92379	-43.50593
805361	-4	2	3	1.398568	1.621363	-98.26952	0	11.11	4003	0	0	5	5	0.2685689	-0.114154	1	6	0.04	1800	-7.366913	40.92379	-43.50593
805486	-22	-1	0	1.400986	1.615583	-98.26763	0	11.11	4003	0	0	5	5	0.2685689	-0.1145122	1	6	0.04	1800	-6.944275	40.92379	-51.48722
805549	-10	5	1	1.403219	1.61161	-98.26763	0	11.11	4002	0	0	5	5	0.2685689	-0.117495	1	6	0.04	1800	-7.12558	40.92379	-59.46851
805656	-15	1	-4	1.393665	1.600599	-98.26574	0	11.11	4003	0	0	5	5	0.2685689	-0.1250267	1	6	0.04	1800	-7.321198	40.92379	-91.39366
805714	-12	4	-3	1.397913	1.599161	-98.2647	0	11.11	4002	0	0	5	5	0.2685689	-0.1258473	1	6	0.04	1800	-7.169983	40.92379	-91.39366
805824	-7	-1	-1	1.397602	1.591518	-98.26537	0	11.11	4003	0	0	5	5	0.2685689	-0.1281294	1	6	0.04	1800	-7.143738	40.92379	-91.39366
805966	-8	7	1	1.40561	1.587252	-98.26244	0	11.06	4002	0	0	5	5	0.2685689	-0.1330592	1	6	0.04	1800	-7.135101	40.92379	-91.39366
806038	-7	-6	0	1.405707	1.589097	-98.26183	0	11.06	4004	0	0	5	5	0.2685689	-0.1361039	1	6	0.04	1800	-7.108734	40.92379	-91.39366
806088	-16	-2	0	1.409932	1.580648	-98.2597	0	11.06	4004	0	0	5	5	0.2685689	-0.1383415	1	6	0.04	1800	-7.140625	40.92379	-91.39366
806199	-13	2	0	1.412336	1.567945	-98.2575	0	11.06	4003	0	0	5	5	0.2685689	-0.1406685	1	6	0.04	1800	-7.164032	40.92379	-91.39366
806313	-10	11	0	1.406384	1.56441	-98.25695	0	11.06	4002	0	0	5	5	0.2685689	-0.1458926	1	6	0.04	1800	-7.13623	40.92379	-91.39366
806427	-8	8	-2	1.420303	1.557666	-98.25719	0	11.06	4003	0	0	5	5	0.2685689	-0.1511094	1	6	0.04	1800	-7.140961	40.92379	-91.39366
806535	-4	4	-3	1.425551	1.550362	-98.25665	0	11.06	4003	0	0	5	5	0.2685689	-0.149643	1	6	0.04	1800	-7.15625	40.92379	-91.39366
806670	-11	9	0	1.412737	1.542436	-98.25677	0	11.06	4003	0	0	5	5	0.2685689	-0.151431	1	6	0.04	1800	-7.118774	40.92379	-91.39366
806780	-6	-1	0	1.417401	1.542335	-98.2561	0	11.11	4004	0	0	5	5	0.2685689	-0.149977	1	6	0.04	1800	-7.34671	40.92379	-91.39366
806811	-7	5	0	1.418371	1.542692	-98.25573	0	11.11	4004	0	0	5	5	0.2685689	-0.1497674	1	6	0.04	1800	-7.161041	40.92379	-91.39366
806872	-12	0	-2	1.417683	1.541153	-98.25488	0	11.11	4002	0	0	5	5	0.2685689	-0.1542426	1	6	0.04	1800	-7.383789	40.92379	-91.39366
807044	-11	5	-2	1.398831	1.543284	-98.25347	0	11.11	4004	0	0	5	5	0.2685689	-0.1539434	1	6	0.04	1800	-7.13623	40.92379	-91.39366
807127	-20	6	-1	1.394603	1.535866	-98.25195	0	11.11	4002	0	0	5	5	0.2685689	-0.1454857	1	6	0.04	1800	-7.130096	40.92379	-91.39366
807209	-14	-3	0	1.392494	1.530444	-98.25304	0	11.11	4003	0	0	5	5	0.2685689	-0.1424782	1	6	0.04	1800	-7.150665	40.92379	-91.39366
807277	-12	8	2	1.397519	1.530589	-98.25237	0	11.11	4003	0	0	5	5	0.2685689	-0.1402857	1	6	0.04	1800	-6.922943	40.92379	-91.39366
807378	-18	0	4	1.398769	1.524768	-98.25176	0	11.11	4003	0	0	5	5	0.2685689	-0.1309347	1	6	0.04	1800	-7.161713	40.92379	-91.39366
807492	-19	1	0	1.392363	1.518947	-98.25207	0	11.11	4003	0	0	5	5	0.2685689	-0.1171937	1	6	0.04	1800	-7.125671	40.92379	-91.39366
807567	-15	1	-1	1.392488	1.514161	-98.25091	0	11.11	4004	0	0	5	5	0.2685689	-0.1056738	1	6	0.04	1800	-7.175781	40.92379	-91.39366
807698	-12	2	6	1.392969	1.514162	-98.25011	0	11.06	4004	0	0	5	5	0.2685689	-0.1062762	1	6	0.04	1800	-7.129883	40.9238	-91.39366
807769	-11	-4	0	1.391483	1.514568	-98.24926	0	11.06	4003	0	0	5	5	0.2685689	-0.1098658	1	6	0.04	1800	-6.899414	40.92379	-91.39366
807873	0	2	0	1.399086	1.505718	-98.24737	0	11.06	4002	0	0	5	5	0.2685689	-0.1207065	1	6	0.04	1800	-7.157013	40.92379	-91.39366
808059	-10	-1	-2	1.393714	1.488049	-98.24456	0	11.06	4002	0	0	5	5	0.2685689	-0.1479648	1	6	0.04	1800	-7.325836	40.92379	-91.39365
808145	-21	5	1	1.39526	1.481696	-98.24145	0	11.06	4004	0	0	5	5	0.2685689	-0.1577406	1	6	0.04	1800	-7.314667	40.92379	-91.39365
808217	-10	5	1	1.396079	1.479927	-98.24023	0	11.06	4004	0	0	5	5	0.2685689	-0.1621627	1	6	0.04	1800	-7.315613	40.92379	-91.39365
808356	-15	2	0	1.39822	1.477572	-98.2365	0	11.06	4004	0	0	5	5	0.2685689	-0.1645294	1	6	0.04	1800	-7.332489	40.92379	-91.39365
808449	-14	9	1	1.404105	1.470617	-98.23693	0	11.06	4002	0	0	5	5	0.2685689	-0.165703	1	6	0.04	1800	-7.141388	40.92379	-91.39365
808671	-1	2	1	1.405855	1.468456	-98.23986	0	11.06	4004	0	0	5	5	0.2685689	-0.1704245	1	6	0.04	1800	-7.153107	40.92379	-91.39365
808829	-19	7	3	1.401088	1.460161	-98.23913	0	11.06	4003	0	0	5	5	0.2685689	-0.1851931	3	6	0.04	1800	-6.921326	40.92379	-91.39365
808922	-17	0	0	1.399717	1.455434	-98.23876	0	11.06	4002	0	0	5	5	0.2685689	-0.1885669	3	6	0.04	1800	-7.1492	40.92379	-91.39365
809010	-6	-2	3	1.402698	1.460409	-98.23772	0	11.06	4002	0	0	5	5	0.2685689	-0.1852525	3	6	0.04	1800	-7.323456	40.92379	-91.39365
809091	-4	6	1	1.417352	1.460358	-98.23656	0	11.06	4003	0	0	5	5	0.2685689	-0.1794794	3	6	0.04	1800	-7.362152	40.92379	-91.39365
809252	-5	0	6	1.411366	1.452772	-98.23504	0	11.06	4002	0	0	5	5	0.2685689	-0.1685161	3	6	0.04	1800	-7.138458	40.92379	-91.39365
809394	-3	4	-2	1.427952	1.447245	-98.23595	0	11.06	4002	0	0	5	5	0.2685689	-0.1558925	3	6	0.04	1800	-7.384308	40.92379	-91.39365
809545	-6	2	-1	1.434188	1.44483	-98.23638	0	11.06	4003	0	0	5	5	0.2685689	-0.1377718	3	6	0.04	1800	-7.359528	40.92379	-91.39365
809629	-4	3	2	1.436548	1.442887	-98.23516	0	11.06	4002	0	0	5	5	0.2685689	-0.1346205	3	6	0.04	1800	-7.16571	40.92379	-91.39365
809733	-6	2	0	1.433946	1.438907	-98.23388	0	11.06	4003	0	0	5	5	0.2685689	-0.1402951	3	6	0.04	1800	-7.169922	40.92379	-91.39365
809913	-21	4	-4	1.435427	1.4403	-98.23437	0	11.06	4002	0	0	5	5	0.2685689	-0.1439095	3	6	0.04	1800	-7.141144	40.92379	-91.39365
810004	-2	6	0	1.428795	1.437798	-98.23211	0	11.06	4002	0	0	5	5	0.2685689	-0.1410343	3	6	0.04	1800	-7.19101	40.92379	-91.39365
810055	-3	-3	-4	1.438624	1.436752	-98.23144	0	11.06	4004	0	0	5	5	0.2685689	-0.1406679	3	6	0.04	1800	-7.400085	40.92379	-91.39365
810211	-17	0	0	1.437273	1.43369	-98.23077	0	11.06	4002	0	0	5	5	0.2685689	-0.1487701	3	6	0.04	1800	-7.191498	40.92379	-91.39365
810380	-15	-7	-1	1.436347	1.418296	-98.22662	0	11.17	4004	0	0	5	5	0.2685689	-0.1566	3	6	0.04	1800	-7.17392	40.92379	-91.39365
810478	-3	3	1	1.43628	1.403437	-98.22698	0	11.17	4003	0	0	5	5	0.2685689	-0.1569437	3	6	0.04	1800	-7.196381	40.92379	-91.39365
810579	-10	0	-2	1.437176	1.399891	-98.22759	0	11.17	4004	0	0	5	5	0.2685689	-0.1559306	1	6	0.04	1800	-7.403015	40.92379	-91.39365
810676	7	-3	-2	1.449088	1.402054	-98.22601	0	11.17	4004	0	0	5	5	0.2685689	-0.1570981	1	6	0.04	1800	-7.160614	40.92379	-91.39365
810767	-4	-1	0	1.451359	1.404423	-98.22631	0	11.17	4003	0	0	5	5	0.2685689	-0.1652585	1	6	0.04	1800	-6.977112	40.92379	-91.39365
810857	0	-2	0	1.450723	1.405514	-98.22564	0	11.17	4003	0	0	5	5	0.2685689	-0.1648869	1	6	0.04	1800	-7.189423	40.92379	-91.39365
810935	-11	3	-1	1.456605	1.395822	-98.22582	0	11.17	4003	0	0	5	5	0.2685689	-0.1668783	1	6	0.04	1800	-7.405273	40.92379	-91.39365
810979	-4	0	-2	1.462956	1.398021	-98.22601	0	11.17	4002	0	0	5	5	0.2685689	-0.1679105	1	6	0.04	1800	-7.181732	40.92379	-91.39365
811046	-9	1	-3	1.467873	1.390814	-98.22552	0	11.17	4003	0	0	5	5	0.2685689	-0.1716206	1	6	0.04	1800	-7.218689	40.92379	-91.39365
811206	-4	2	0	1.471718	1.390052	-98.22112	0	11.11	4002	0	0	5	5	0.2685689	-0.1745337	1	6	0.04	1800	-7.226807	40.92379	-91.39365
811350	2	-1	0	1.468865	1.391971	-98.21624	0	11.11	4002	0	0	5	5	0.2685689	-0.1646538	1	6	0.04	1800	-7.247498	40.92379	-91.39365
811497	8	3	0	1.479978	1.393643	-98.21398	0	11.11	4003	0	0	5	5	0.2685689	-0.1536913	1	6	0.04	1800	-7.428253	40.92379	-91.39365
811619	-5	1	0	1.487192	1.386131	-98.21032	0	11.11	4005	0	0	5	5	0.2685689	-0.1538365	1	6	0.04	1800	-7.268799	40.92379	-91.39365
811688	-2	-2	-2	1.485364	1.385996	-98.20989	0	11.11	4003	0	0	5	5	0.2685689	-0.156223	1	6	0.04	1800	-7.468506	40.92379	-91.39365
811730	-16	-1	0	1.482891	1.390324	-98.20855	0	11.11	4002	0	0	5	5	0.2685689	-0.1581561	1	6	0.04	1800	-7.434937	40.92379	-91.39365
811920	3	5	0	1.482056	1.387366	-98.20678	0	11.11	4003	0	0	5	5	0.2685689	-0.1704949	1	6	0.04	1800	-7.441986	40.92379	-91.39365
811997	0	0	0	1.48446	1.3832	-98.20568	0	11.11	4003	0	0	5	5	0.2685689	-0.1761276	1	6	0.04	1800	-7.426819	40.92379	-91.39365
812220	-2	1	-7	1.485354	1.366768	-98.20226	0	11.11	4002	0	0	5	5	0.2685689	-0.2119696	1	6	0.04	1800	-7.222656	40.92379	-91.39365
812339	-13	-3	0	1.488621	1.361806	-98.19823	0	11.11	4004	0	0	5	5	0.2685689	-0.2253988	1	6	0.04	1800	-7.455963	40.92379	-91.39365
812561	7	-1	-2	1.498636	1.361944	-98.19445	0	11.11	4002	0	0	5	5	0.2685689	-0.2429383	1	6	0.04	1800	-7.261536	40.92379	-91.39365
812630	-1	1	-2	1.497294	1.36291	-98.19164	0	11.11	4004	0	0	5	5	0.2685689	-0.2387569	1	6	0.04	1800	-7.466156	40.92379	-91.39365
812804	2	3	2	1.502267	1.359739	-98.18975	0	11.11	4004	0	0	5	5	0.2685689	-0.2251065	1	6	0.04	1800	-7.269989	40.92379	-91.39365
812904	3	1	-2	1.507344	1.357237	-98.18859	0	11.11	4004	0	0	5	5	0.2685689	-0.2140131	1	6	0.04	1800	-7.248291	40.92379	-91.39365
812991	5	-1	-5	1.504544	1.358507	-98.18786	0	11.06	4004	0	0	5	5	0.2685689	-0.2092925	1	6	0.04	1800	-7.274536	40.92379	-91.39365
813093	0	3	0	1.49972	1.360879	-98.18584	0	11.06	4002	0	0	5	5	0.2685689	-0.2019201	1	6	0.04	1800	-7.471588	32.73372	-67.45479
813250	5	-3	-5	1.504705	1.353305	-98.18462	0	11.06	4004	0	0	5	5	0.2685689	-0.1906818	1	6	0.04	1800	-7.470581	24.54365	-43.51591
813267	1	-2	-2	1.505173	1.355516	-98.18285	0	11.06	4004	0	0	5	5	0.2685689	-0.1906818	1	6	0.04	1800	-7.047119	24.54365	-43.51591
813386	2	-3	2	1.507767	1.35492	-98.18279	0	11.06	4002	0	0	5	5	0.2685689	-0.188595	1	6	0.04	1800	-7.047119	24.54365	-43.51591
813550	-5	-2	5	1.518479	1.35083	-98.17981	0	11.06	4002	0	0	5	5	0.2685689	-0.1927048	1	6	0.04	1800	-7.494873	24.54365	-43.51591
813588	0	0	-3	1.520173	1.349895	-98.17835	0	11.06	4009	0	0	5	5	0.2685689	-0.1950472	1	6	0.04	1800	-7.489929	24.54365	-43.51591
813832	2	3	0	1.5304	1.333095	-98.17652	0	11.06	4003	0	0	5	5	0.2685689	-0.1894524	1	6	0.04	1800	-7.511902	30.0037	-59.47516
814007	0	0	2	1.528892	1.324658	-98.17591	0	11.11	4004	0	0	5	5	0.2685689	-0.1973077	1	6	0.04	1800	-7.263397	40.92379	-91.39365
814183	-1	0	-2	1.522661	1.327206	-98.1731	0	11.11	4003	0	0	5	5	0.2685689	-0.2038893	1	6	0.04	1800	-7.299286	40.92379	-91.39366
814353	-3	1	2	1.534334	1.321829	-98.17152	0	11.11	4002	0	0	5	5	0.2685689	-0.2030018	1	6	0.04	1800	-7.489563	40.92379	-91.39366
814415	6	3	2	1.529997	1.319181	-98.17237	0	11.11	4002	0	0	5	5	0.2685689	-0.2039048	1	6	0.04	1800	-7.487976	40.92379	-91.39366
814546	-1	2	2	1.527506	1.315753	-98.16859	0	11.11	4002	0	0	5	5	0.2685689	-0.2063042	1	6	0.04	1800	-7.484131	40.92379	-91.39366
814638	11	0	1	1.526625	1.324604	-98.16749	0	11.11	4003	0	0	5	5	0.2685689	-0.2023438	1	6	0.04	1800	-7.48114	40.92379	-91.39366
814729	-9	-4	2	1.531049	1.320999	-98.16615	0	11.17	4003	0	0	5	5	0.2685689	-0.1973716	1	6	0.04	1800	-7.492889	40.92379	-91.39366
814822	12	0	-5	1.535824	1.319405	-98.16419	0	11.17	4003	0	0	5	5	0.2685689	-0.2014031	1	6	0.04	1800	-7.464417	40.92379	-91.39366
814982	6	1	0	1.531946	1.314774	-98.16138	0	11.17	4003	0	0	5	5	0.2685689	-0.2085753	1	6	0.04	1800	-7.31662	40.92379	-91.39366
815044	-3	1	-1	1.536183	1.310377	-98.15986	0	11.17	4003	0	0	5	5	0.2685689	-0.2118396	1	6	0.04	1800	-7.519745	40.92379	-91.39366
815107	4	1	0	1.536879	1.31023	-98.15852	0	11.17	4003	0	0	5	5	0.2685689	-0.2177811	1	6	0.04	1800	-7.502319	40.92379	-91.39366
815237	7	2	0	1.527332	1.309722	-98.15888	0	11.17	4002	0	0	5	5	0.2685689	-0.2217404	1	6	0.04	1800	-7.062927	40.92379	-91.39366
815376	7	-1	3	1.531506	1.305446	-98.15766	0	11.17	4003	0	0	5	5	0.2685689	-0.2096005	1	6	0.04	1800	-7.293701	40.92379	-91.39366
815492	10	4	-1	1.539156	1.302281	-98.15479	0	11.17	4003	0	0	5	5	0.2685689	-0.2013744	3	6	0.04	1800	-7.522644	40.92379	-91.39366
815557	1	-1	0	1.537767	1.303201	-98.15327	0	11.17	4002	0	0	5	5	0.2685689	-0.2001651	3	6	0.04	1800	-7.50061	40.92379	-91.39366
815675	8	-1	1	1.530583	1.300874	-98.15125	0	11.11	4004	0	0	5	5	0.2685689	-0.2068492	3	6	0.04	1800	-7.498108	40.92379	-91.39366
815760	0	-5	-4	1.527134	1.303983	-98.1493	0	11.11	4002	0	0	5	5	0.2685689	-0.2173678	3	6	0.04	1800	-7.482422	40.92379	-91.39366
815812	-5	3	1	1.527542	1.304237	-98.14881	0	11.11	4003	0	0	5	5	0.2685689	-0.2197529	3	6	0.04	1800	-7.310577	40.92379	-91.39366
815921	3	2	1	1.526204	1.296415	-98.14924	0	11.11	4003	0	0	5	5	0.2685689	-0.2285433	3	6	0.04	1800	-7.485077	40.92379	-91.39366
816107	-3	5	3	1.544114	1.295889	-98.14594	0	11.11	4002	0	0	5	5	0.2685689	-0.2301153	3	6	0.04	1800	-7.525879	40.92379	-91.39366
816173	-2	0	0	1.538447	1.296794	-98.14527	0	11.11	4002	0	0	5	5	0.2685689	-0.2312628	3	6	0.04	1800	-7.510712	40.92379	-91.39366
816210	1	0	-4	1.536405	1.294402	-98.14454	0	11.11	4003	0	0	5	5	0.2685689	-0.2336007	3	6	0.04	1800	-7.524994	40.92379	-91.39366
816316	-3	2	-2	1.544912	1.292765	-98.14356	0	11.11	4003	0	0	5	5	0.2685689	-0.2357628	3	6	0.04	1800	-7.295868	40.92379	-91.39366
816378	8	-5	3	1.54499	1.289502	-98.14362	0	11.11	4002	0	0	5	5	0.2685689	-0.2372413	3	6	0.04	1800	-7.305603	40.92379	-91.39366
816548	13	3	-2	1.552774	1.290855	-98.14387	0	11.23	4003	0	0	5	5	0.2685689	-0.2383309	3	6	0.04	1800	-7.323486	40.92379	-91.39366
816584	7	2	-6	1.555562	1.290981	-98.14301	0	11.23	4002	0	0	5	5	0.2685689	-0.2420616	3	6	0.04	1800	-7.323486	40.92379	-91.39366
816677	-2	0	-4	1.554188	1.288511	-98.13844	0	11.23	4004	0	0	5	5	0.2685689	-0.249332	3	6	0.04	1800	-7.546478	40.92379	-91.39366
816851	11	-5	153	1.536833	1.293951	-98.13915	0	11.23	4002	0	0	5	5	0.2685689	-0.2577493	3	6	0.04	1800	-7.155518	40.92379	-91.39366
816990	5	-8	79	1.486643	1.293946	-98.11973	0	11.23	4003	0	0	5	5	0.2685689	-0.2561179	3	6	0.04	1800	-7.96991	40.92379	-91.39366
817085	63	27	0	1.485339	1.289942	-98.12927	0	11.23	4004	0	0	5	5	0.2685689	-0.2596352	3	6	0.04	1800	-7.509644	40.92379	-91.39366
817138	100	69	-93	1.489695	1.272843	-98.13081	0	11.23	4003	0	0	5	5	0.2685689	-0.263632	3	6	0.04	1800	-7.443115	40.92379	-91.39366
817302	-13	9	59	1.494395	1.269993	-98.12595	0	11.23	4010	0	0	5	5	0.2685689	-0.2654229	3	6	0.04	1800	-6.928589	40.92379	-91.39366
817404	25	-24	56	1.473818	1.305254	-98.12498	0	11.06	4003	0	0	5	5	0.2685689	-0.2574088	3	6	0.04	1800	-7.68103	40.92379	-91.39366
817558	-7	18	-15	1.467337	1.325735	-98.12118	0	11.06	4004	0	0	5	5	0.2685689	-0.2503376	3	6	0.04	1800	-7.748199	40.92379	-91.39366
817658	-7	-7	-103	1.247834	1.429658	-98.1106	0	11.06	4003	0	0	5	5	0.2685689	-0.2503485	3	6	0.04	1800	-7.372314	40.92379	-91.39366
817738	74	9	55	1.262783	1.412236	-98.11037	0	11.06	4003	0	0	5	5	0.2685689	-0.2500014	3	6	0.04	1800	-7.115265	40.92379	-91.39366
817805	73	51	63	1.317004	1.41314	-98.11111	0	11.06	4004	0	0	5	5	0.2685689	-0.2493946	3	6	0.04	1800	-6.919647	40.92379	-91.39366
817955	-10	-43	58	1.373314	1.408183	-98.11148	0	11.06	4002	0	0	5	5	0.2685689	-0.2359625	3	6	0.04	1800	-7.303284	40.92379	-91.39366
818104	-141	-139	142	1.338486	1.436395	-98.09372	0	11.06	4002	0	0	5	5	0.2685689	-0.2249447	3	6	0.04	1800	-7.327911	40.92379	-91.39366
818242	-34	-94	152	1.16977	1.487747	-98.10602	0	11.06	4002	0	0	5	5	0.2685689	-0.2316623	3	6	0.04	1800	-7.050049	40.92379	-91.39366
818306	95	66	-161	1.228486	1.45657	-98.09271	0	11.11	4003	0	0	5	5	0.2685689	-0.2314015	3	6	0.04	1800	-7.168365	40.92379	-91.39366
818503	-13	-113	-319	1.234462	1.401513	-98.05868	0	11.11	4003	0	0	5	5	0.2685689	-0.2117921	3	6	0.04	1800	-7.455994	40.92379	-91.39365
818690	-48	-176	199	1.139142	1.402374	-98.07667	0	11.11	4004	0	0	5	5	0.2685689	-0.2052003	3	6	0.04	1800	-7.149231	40.92379	-91.39365
818886	67	103	137	1.10028	1.389171	-98.07941	0	11.11	4003	0	0	5	5	0.2685689	-0.2052404	3	6	0.04	1800	-7.031281	40.92379	-91.39365
819007	-30	95	101	1.124214	1.319233	-98.07491	0	11.11	4002	0	0	5	5	0.2685689	-0.2303831	3	6	0.04	1800	-7.062439	40.92379	-91.39365
819055	-27	88	192	1.145002	1.301153	-98.09138	0	11.11	4003	0	0	5	5	0.2685689	-0.2367036	3	6	0.04	1800	-6.826813	40.92379	-91.39365
819131	-5	71	73	1.120084	1.324047	-98.0844	0	11.11	4003	0	0	5	5	0.2685689	-0.2459246	3	6	0.04	1800	-6.685974	40.92379	-91.39365
819265	-78	79	297	1.089528	1.307115	-98.09573	0	11.11	4003	0	0	5	5	0.2685689	-0.2396873	3	6	0.04	1800	-7.035065	40.92379	-91.39365
819333	153	133	143	1.102665	1.270049	-98.08878	0	11.11	4002	0	0	5	5	0.2685689	-0.2359297	3	6	0.04	1800	-6.942566	40.92379	-91.39365
819549	-55	-43	301	1.055996	1.267114	-98.13068	0	11.11	4002	0	0	5	5	0.2685689	-0.2275189	3	6	0.04	1800	-7.262604	40.92379	-91.39365
819709	-9	-132	-181	1.111675	1.259584	-98.09592	0	11.11	4003	0	0	5	5	0.2685689	-0.227451	3	6	0.04	1800	-7.286194	40.92379	-91.39365
819849	70	70	-90	1.097935	1.230848	-98.12724	0	11.11	4004	0	0	5	5	0.2685689	-0.2200441	3	6	0.04	1800	-7.133118	40.92379	-91.39365
819951	-110	-175	-52	1.058034	1.264347	-98.14117	0	11.11	4002	0	0	5	5	0.2685689	-0.2007431	3	6	0.04	1800	-7.112976	40.92379	-91.39365
820070	-83	21	85	0.9848638	1.261941	-98.17175	0	11.11	4003	0	0	5	5	0.2685689	-0.1802928	3	6	0.04	1800	-6.925873	40.92379	-91.39366
820204	40	108	487	1.04098	1.350774	-98.20554	0	10.83	4003	0	0	5	5	0.2685689	-0.1578863	3	6	0.04	1800	-6.502899	40.92379	-91.39366
820223	2	-53	-103	1.04098	1.350774	-98.20554	0	10.83	4003	0	0	5	5	0.2685689	-0.1578863	3	6	0.04	1800	-6.502899	40.92379	-91.39366
820322	-20	68	-241	1.084983	1.401197	-98.20023	0	10.83	4002	0	0	5	5	0.2685689	-0.1483915	3	6	0.04	1800	-7.494873	40.92379	-91.39366
820421	66	78	-494	1.015859	1.473737	-98.18976	0	10.83	4002	0	0	5	5	0.2685689	-0.1287102	3	6	0.04	1800	-6.824951	40.92379	-91.39366
820556	23	17	-685	1.074005	1.468392	-98.17702	0	10.83	4004	0	0	5	5	0.2685689	-0.1104418	3	6	0.04	1800	-7.021057	40.92379	-91.39366
820688	-23	-43	-343	1.087796	1.492793	-98.16975	0	10.83	4004	0	0	5	5	0.2685689	-0.09617176	3	6	0.04	1800	-7.264893	40.92379	-91.39366
820832	-112	-88	495	0.9579069	1.528563	-98.22387	0	10.83	4003	0	0	5	5	0.2685689	-0.08660134	3	6	0.04	1800	-7.43634	40.92379	-91.39366
820948	-12	80	385	0.9748992	1.521685	-98.19624	0	10.83	4003	0	0	5	5	0.2685689	-0.08316538	3	6	0.04	1800	-7.098114	40.92379	-91.39366
821005	0	103	44	0.9871445	1.591031	-98.16689	0	11.11	4004	0	0	5	5	0.2685689	-0.07895449	3	6	0.04	1800	-7.098114	40.92379	-91.39366
821109	-20	-54	701	0.9020979	1.568645	-98.201	0	11.11	4003	0	0	5	5	0.2685689	-0.07138097	3	6	0.04	1800	-7.023895	40.92378	-91.39366
821254	-29	170	-842	0.8114755	1.519144	-98.12292	0	11.11	4003	0	0	5	5	0.2685689	-0.05684042	3	6	0.04	1800	-7.469025	40.92378	-91.39366
821405	128	-107	-529	0.7714587	1.541054	-98.14275	0	11.11	4003	0	0	5	5	0.2685689	-0.04228427	3	6	0.04	1800	-7.081543	40.92378	-91.39365
821461	47	212	216	0.6076964	1.465659	-98.12887	0	11.11	4004	0	0	5	5	0.2685689	-0.0417425	3	6	0.04	1800	-7.709961	40.92378	-91.39365
821579	-92	282	-518	0.5174482	1.380949	-98.15755	0	11.11	4003	0	0	5	5	0.2685689	-0.04782005	3	6	0.04	1800	-7.047272	40.92378	-91.39366
821668	153	-1	-399	0.4410826	1.301271	-98.20388	0	11.11	4004	0	0	5	5	0.2685689	-0.05080355	3	6	0.04	1800	-6.91449	40.92378	-91.39366
821744	23	-166	410	0.3801036	1.309185	-98.18752	0	11.11	4002	0	0	5	5	0.2685689	-0.04741319	3	6	0.04	1800	-6.955536	40.92378	-91.39366
821838	112	68	133	0.393612	1.294162	-98.15466	0	11.06	4003	0	0	5	5	0.2685689	-0.04339481	3	6	0.04	1800	-6.951416	40.92378	-91.39366
821924	-41	28	-22	0.2492914	1.393304	-98.14401	0	11.06	4003	0	0	5	5	0.2685689	-0.04536375	3	6	0.04	1800	-7.023438	40.92379	-91.39366
822006	147	-93	489	0.05121752	1.53903	-98.15227	0	11.06	4002	0	0	5	5	0.2685689	-0.04133963	3	6	0.04	1800	-6.380798	40.92379	-91.39366
822180	16	-66	-289	0.1429006	1.414144	-98.11693	0	11.06	4004	0	0	5	5	0.2685689	-0.05446324	3	6	0.04	1800	-7.305023	40.92379	-91.39366
822336	22	-26	-121	0.3066899	1.348514	-98.1666	0	11.06	4004	0	0	5	5	0.2685689	-0.06365727	3	6	0.04	1800	-6.855621	40.92378	-91.39366
822411	68	16	-96	0.3310609	1.173202	-98.16322	0	11.06	4002	0	0	5	5	0.2685689	-0.06432574	3	6	0.04	1800	-6.984131	40.92378	-91.39366
822484	-66	-8	-196	0.2040128	1.115983	-98.17142	0	11.06	4003	0	0	5	5	0.2685689	-0.06109415	3	6	0.04	1800	-7.474091	40.92378	-91.39366
822579	100	-84	-183	0.09336546	1.042305	-98.15658	0	11.06	4003	0	0	5	5	0.2685689	-0.04948256	3	6	0.04	1800	-6.624939	40.92378	-91.39366
822657	-158	-5	496	-0.1344562	0.9384466	-98.14385	0	11.06	4004	0	0	5	5	0.2685689	-0.04216059	3	6	0.04	1800	-6.335388	40.92378	-91.39366
822825	-14	63	-254	-0.2241691	1.051327	-98.13672	0	10.89	4003	0	0	5	5	0.2685689	-0.02659381	3	6	0.04	1800	-6.841095	40.92378	-91.39366
822954	-72	123	225	-0.1722686	1.25054	-98.12253	0	10.89	4003	0	0	5	5	0.2685689	-0.03857617	3	6	0.04	1800	-6.85553	40.92378	-91.39366
822989	-51	77	134	-0.1549967	1.277966	-98.11826	0	10.89	4002	0	0	5	5	0.2685689	-0.04124448	3	6	0.04	1800	-6.85553	40.92378	-91.39366
823133	12	-71	-374	-0.07071049	1.178239	-98.09116	0	10.89	4002	0	0	5	5	0.2685689	-0.05656006	3	6	0.04	1800	-7.406525	40.92378	-91.39366
823264	-228	-16	362	-0.4937692	0.7119101	-98.12169	0	10.89	4004	0	0	5	5	0.2685689	-0.06674559	3	6	0.04	1800	-6.204987	40.92378	-91.39366
823332	510	-370	250	-0.3313718	0.8979809	-98.1349	0	10.89	4003	0	0	5	5	0.2534426	-0.07063074	8	6	0.04	1800	-5.709564	40.92378	-91.39366
823511	-420	38	1054	-0.4594352	0.8584015	-98.16637	0	10.89	4003	0	0	5	5	0.1896546	-0.08126394	8	6	0.04	1800	-6.072876	40.92378	-91.39366
823658	-138	-215	203	-0.7610579	0.7291933	-98.16339	0	10.72	4002	0	0	5	5	0.1600271	-0.08764401	8	6	0.04	1800	-7.170776	40.92378	-91.39366
823737	20	297	296	-0.7349796	0.7374548	-98.17542	0	10.72	4004	0	2	5	5	0.1519101	-0.09032042	8	6	0.04	1800	-6.548981	40.92378	-91.39366
823905	-149	301	-371	-0.6192929	0.8831327	-98.1352	0	10.72	4003	0	0	5	5	0.135696	-0.09797774	8	6	0.04	1800	-6.256256	40.92378	-91.39366
824020	-76	-76	-370	-0.5967091	0.7409499	-98.09187	0	10.72	4004	0	0	5	5	0.1307123	-0.09720045	8	6	0.04	1800	-7.216278	40.92378	-91.39366
824112	-71	35	178	-0.5429637	0.3593476	-98.16638	0	10.72	4004	0	0	5	5	0.1281651	-0.09553576	8	6	0.04	1800	-7.418274	40.92378	-91.39366
824208	14	-17	-769	-0.5237017	0.2462614	-98.12455	0	10.72	4002	0	0	5	5	0.1244307	-0.1055638	8	6	0.04	1800	-7.476868	40.92378	-91.39366
824365	128	-23	-528	-0.5884071	0.2572494	-98.17514	0	10.72	4003	0	0	5	5	0.1219805	-0.11138	8	6	0.04	1800	-7.391174	40.92378	-91.39366
824515	31	-296	49	-0.6874651	0.1493743	-98.19936	0	10.94	4003	0	0	5	5	0.1200662	-0.1254622	8	6	0.04	1800	-7.598877	40.92378	-91.39366
824616	109	-74	537	-0.6716496	-0.3115821	-98.24655	0	10.94	4004	0	3	5	5	0.1193182	-0.1357074	8	6	0.04	1800	-6.569366	40.92378	-91.39366
824724	-185	-17	191	-0.6849526	-0.1921152	-98.31911	0	10.94	4002	0	0	5	5	0.1186262	-0.1457991	8	6	0.04	1800	-6.611237	40.92378	-91.39366
824803	170	-46	-430	-0.7799215	-0.06843247	-98.27905	0	10.94	4003	0	0	5	5	0.1182684	-0.1498978	8	6	0.04	1800	-6.896881	40.92378	-91.39366
824839	318	-92	32	-0.7122782	0.0542461	-98.28049	0	10.94	4002	0	0	5	5	0.1181722	-0.1498117	8	6	0.04	1800	-6.829437	40.92378	-91.39366
