time(ms)	gyro_x(deg/s)	gyro_y(deg/s)	gyro_z(deg/s)	orientation_roll(deg)	orientation_pitch(deg)	orientation_yaw(deg)	throttle	battery(V)	loop_time(uS)	pid_output_roll	pid_output_pitch	pid_output_yaw	pid_output_throttle	ultrasonic_alt	baro_alt	flight_mode	p_gain_altitude	i_gain_altitude	d_gain_altitude	compass_heading	latitude	longitude
32959	6	-6	0	0.05489231	0.02101807	-1.685951	0	12.31	4004	0	0	5	5	0.02	0.2189613	1	15	0.04	1800	-0.9823914	40.92365	-91.39365
33202	2	1	3	0.04996207	0.02510699	-1.698607	0	12.31	4003	0	0	5	5	0.02	0.2225563	1	15	0.04	1800	-0.9769592	40.92365	-91.39365
33324	5	2	5	0.05011499	0.01924873	-1.705272	0	12.36	4004	0	0	5	5	0.02	0.2254484	1	15	0.04	1800	-0.9824524	40.92365	-91.39365
33477	4	4	4	0.0496656	0.01828478	-1.710591	0	12.36	4004	0	0	5	5	0.02	0.2367234	1	15	0.04	1800	-0.9748535	40.92364	-91.39365
33703	2	0	1	0.05307438	0.01423311	-1.720373	0	12.36	4002	0	0	5	5	0.02	0.252171	1	15	0.04	1800	-1.199921	40.92363	-91.39364
33820	4	-6	2	0.05185948	0.01863681	-1.726915	0	12.36	4003	0	0	5	5	0.02	0.2528152	1	15	0.04	1800	-0.9777832	40.92363	-91.39364
34054	8	2	4	0.04730939	0.0121636	-1.73572	0	12.36	4002	0	0	5	5	0.02	0.2579254	1	15	0.04	1800	-0.9777222	40.92363	-91.39363
34196	3	-8	4	0.05100856	0.01951286	-1.742018	0	12.36	4003	0	0	5	5	0.02	0.2578543	1	15	0.04	1800	-0.9779053	40.92363	-91.39363
34318	0	-2	3	0.05583619	0.01816892	-1.745564	0	12.36	4003	0	0	5	5	0.02	0.2568294	1	15	0.04	1800	-0.7602234	40.92363	-91.39362
34374	-2	-6	0	0.05331261	0.01918274	-1.747337	0	12.36	4002	0	0	5	5	0.02	0.2553484	1	15	0.04	1800	-0.9806213	40.92363	-91.39362
34565	2	-1	2	0.04397719	0.02329708	-1.75504	0	12.36	4003	0	0	5	5	0.02	0.2524664	1	15	0.04	1800	-0.9646912	40.92362	-91.39362
34722	7	-6	5	0.03734114	0.01897794	-1.762193	0	12.36	4002	0	0	5	5	0.02	0.2600397	1	15	0.04	1800	-0.9562683	40.92362	-91.3936
34978	1	0	4	0.02689985	0.01014248	-1.775155	0	12.36	4002	0	0	5	5	0.02	0.2817138	1	15	0.04	1800	-0.9371033	40.92362	-91.3936
35209	6	0	5	0.01774067	0.00797123	-1.785916	0	12.36	4003	0	0	5	5	0.02	0.2923072	1	15	0.04	1800	-0.9256592	40.92363	-91.39359
35338	3	-5	3	0.02279948	0.006268367	-1.791235	0	12.36	4003	0	0	5	5	0.02	0.2902771	1	15	0.04	1800	-0.9324646	40.92363	-91.3936
35466	0	1	0	0.02812186	0.002454572	-1.795269	0	12.36	4003	0	0	5	5	0.02	0.2870721	1	15	0.04	1800	-0.9390869	40.92363	-91.3936
35520	-4	0	5	0.02665019	0.005160824	-1.799243	0	12.36	4003	0	0	5	5	0.02	0.2861408	1	15	0.04	1800	-0.9406738	40.92363	-91.3936
35625	4	2	4	0.02601471	0.009640553	-1.804501	0	12.36	4003	0	0	5	5	0.02	0.2781961	1	15	0.04	1800	-0.9406738	40.92363	-91.39359
35844	3	3	1	0.02336162	0.004679174	-1.8152	0	12.36	4004	0	0	5	5	0.02	0.271023	1	15	0.04	1800	-0.7067871	40.92363	-91.39359
35962	5	-1	2	0.02939225	0.01030862	-1.820214	0	12.36	4003	0	0	5	5	0.02	0.2654294	1	15	0.04	1800	-0.939209	40.92363	-91.39359
36041	1	-3	0	0.02411056	0.01157005	-1.82541	0	12.36	4003	0	0	5	5	0.02	0.2694323	1	15	0.04	1800	-0.9351501	40.92363	-91.39359
36144	-1	-4	0	0.027725	0.01016798	-1.830485	0	12.36	4003	0	0	5	5	0.02	0.2773751	1	15	0.04	1800	-0.9377441	40.92363	-91.39359
36247	0	2	3	0.02610875	0.007682754	-1.832992	0	12.36	4002	0	0	5	5	0.02	0.2850605	1	15	0.04	1800	-0.9377441	40.92363	-91.39359
36403	2	-2	7	0.01790174	0.008288983	-1.841613	0	12.36	4004	0	0	5	5	0.02	0.2938347	1	15	0.04	1800	-0.7084961	40.92362	-91.39359
36592	1	0	4	0.005021177	0.01126493	-1.849989	0	12.36	4004	0	0	5	5	0.02	0.2916915	1	15	0.04	1800	-0.9070129	40.92361	-91.39359
36784	0	0	5	0.002101202	0.0188024	-1.863194	0	12.36	4002	0	0	5	5	0.02	0.2796911	1	15	0.04	1800	-0.9041443	40.92361	-91.39358
36996	5	-2	3	0.003131901	0.01259924	-1.872548	0	12.36	4003	0	0	5	5	0.02	0.2760108	1	15	0.04	1800	-0.9092102	40.92361	-91.39358
37177	0	3	-1	0.00169847	0.0155661	-1.883797	0	12.31	4002	0	0	5	5	0.02	0.2787882	1	15	0.04	1800	-0.9008484	40.9236	-91.39358
37322	-4	-6	-1	-0.01167138	0.01876496	-1.89309	0	12.31	4003	0	0	5	5	0.02	0.2822608	1	15	0.04	1800	-0.6590576	40.9236	-91.39357
37345	-4	-6	-1	-0.01167138	0.01876496	-1.89309	0	12.31	4003	0	0	5	5	0.02	0.2858306	1	15	0.04	1800	-0.6590576	40.9236	-91.39357
37467	2	-3	4	-0.006626747	0.02119556	-1.901772	0	12.31	4003	0	0	5	5	0.02	0.3042239	1	15	0.04	1800	-0.8856812	40.9236	-91.39357
37602	-11	-2	5	-0.00361089	0.0215702	-1.90972	0	12.31	4002	0	0	5	5	0.02	0.3092965	1	15	0.04	1800	-0.8941956	40.9236	-91.39356
37653	-1	-2	6	-0.004149855	0.01957431	-1.917117	0	12.31	4003	0	0	5	5	0.02	0.3083073	1	15	0.04	1800	-0.8958435	40.9236	-91.39356
37818	-9	-1	7	-0.009766074	0.02602072	-1.927021	0	12.31	4002	0	0	5	5	0.02	0.2977545	1	15	0.04	1800	-0.8913574	40.92359	-91.39357
37919	0	-5	5	-0.008185281	0.02918713	-1.933319	0	12.31	4003	0	0	5	5	0.02	0.2825218	1	15	0.04	1800	-0.8836975	40.92359	-91.39357
38004	0	-4	1	-0.004661579	0.0286537	-1.937537	0	12.36	4004	0	0	5	5	0.02	0.2726232	1	15	0.04	1800	-1.109192	40.92359	-91.39358
38170	-2	3	2	-0.01071884	0.02610515	-1.944507	0	12.36	4002	0	0	5	5	0.02	0.2650582	1	15	0.04	1800	-0.875885	40.92359	-91.39358
38407	-2	0	7	-0.006503475	0.02034159	-1.957653	0	12.36	4004	0	0	5	5	0.02	0.2714007	1	15	0.04	1800	-0.8887634	40.92358	-91.39359
38528	4	0	3	-0.004288279	0.01763497	-1.969209	0	12.36	4002	0	0	5	5	0.02	0.2732932	1	15	0.04	1800	-0.8909607	40.92358	-91.39359
38681	-5	-5	0	-0.01760107	0.01953777	-1.979051	0	12.36	4002	0	0	5	5	0.02	0.2713045	1	15	0.04	1800	-0.8867188	40.92358	-91.39359
38761	-3	0	3	-0.0243709	0.01957507	-1.983514	0	12.36	4003	0	0	5	5	0.02	0.2733396	1	15	0.04	1800	-0.8623352	40.92358	-91.3936
38855	7	1	7	-0.02152771	0.02516846	-1.985776	0	12.36	4002	0	0	5	5	0.02	0.2804295	1	15	0.04	1800	-0.8625793	40.92358	-91.3936
39030	-1	-3	9	-0.01306341	0.02792006	-1.998798	0	12.31	4004	0	0	5	5	0.02	0.2851622	1	15	0.04	1800	-0.6384583	40.92358	-91.3936
39144	-1	0	4	-0.01391098	0.03065683	-2.006378	0	12.31	4003	0	0	5	5	0.02	0.2827062	1	15	0.04	1800	-0.8786926	40.92358	-91.3936
39291	0	3	7	-0.01928537	0.03237704	-2.017505	0	12.31	4003	0	0	5	5	0.02	0.2847647	1	15	0.04	1800	-0.6526489	40.92358	-91.3936
39389	-4	2	2	-0.02784495	0.02791451	-2.026125	0	12.31	4002	0	0	5	5	0.02	0.2893382	1	15	0.04	1800	-0.6304016	40.92358	-91.3936
39454	-5	2	3	-0.02839324	0.02846725	-2.02802	0	12.31	4002	0	0	5	5	0.02	0.2926496	1	15	0.04	1800	-0.6304016	40.92358	-91.3936
39577	-2	-4	6	-0.02628509	0.02995764	-2.036396	0	12.31	4003	0	0	5	5	0.02	0.2955445	1	15	0.04	1800	-0.85672	40.92358	-91.3936
39733	-1	0	6	-0.02472341	0.03344196	-2.047646	0	12.31	4003	0	0	5	5	0.02	0.292722	1	15	0.04	1800	-0.8613586	40.92358	-91.3936
39861	-5	-1	3	-0.02177167	0.04438516	-2.056267	0	12.31	4003	0	0	5	5	0.02	0.2827375	1	15	0.04	1800	-0.6358337	40.92359	-91.3936
39961	-3	0	4	-0.02402174	0.03504995	-2.06611	0	12.31	4004	0	0	5	5	0.02	0.2780424	1	15	0.04	1800	-0.8629456	40.92359	-91.39359
40105	-3	2	0	-0.02879217	0.03441151	-2.074241	0	12.31	4003	0	0	5	5	0.02	0.2743742	1	15	0.04	1800	-0.8616333	40.91137	-76.90676
40152	-6	-1	3	-0.03494638	0.03349549	-2.081516	0	12.31	4002	0	0	5	5	0.02	0.2706339	1	15	0.04	1800	-0.6207275	40.90526	-69.66335
40337	-7	-2	4	-0.03925943	0.03446476	-2.096555	0	12.31	4003	0	0	5	5	0.02	0.2508182	1	15	0.04	1800	-0.84375	40.89304	-55.17651
40397	-4	-4	4	-0.03828406	0.03347049	-2.100224	0	12.31	4002	0	0	5	5	0.02	0.2363869	1	15	0.04	1800	-0.8379822	40.89304	-55.17651
40508	-9	-1	2	-0.03592228	0.03002239	-2.108416	0	12.31	4004	0	0	5	5	0.02	0.2232088	1	15	0.04	1800	-0.8453064	40.89304	-55.17651
40557	-2	3	5	-0.04367182	0.02988437	-2.115936	0	12.31	4003	0	0	5	5	0.02	0.2172773	1	15	0.04	1800	-0.8338013	40.89304	-55.17651
40642	-3	0	6	-0.04657781	0.03293166	-2.118381	0	12.31	4003	0	0	5	5	0.02	0.208853	1	15	0.04	1800	-0.8338013	40.89304	-55.17651
40808	-8	-5	3	-0.05196487	0.03950943	-2.13391	0	12.36	4002	0	0	5	5	0.02	0.2001133	1	15	0.04	1800	-0.594696	40.91137	-76.90676
40908	-4	0	6	-0.04940953	0.04036348	-2.140757	0	12.36	4003	0	0	5	5	0.02	0.1935412	1	15	0.04	1800	-0.8197327	40.92359	-91.3936
41003	0	-3	9	-0.0522319	0.03798984	-2.150172	0	12.36	4003	0	0	5	5	0.02	0.1864744	1	15	0.04	1800	-0.809021	40.9236	-91.3936
41098	-2	-4	0	-0.05121101	0.03568972	-2.153473	0	12.36	4003	0	0	5	5	0.02	0.1830098	1	15	0.04	1800	-0.8156433	40.9236	-91.3936
41162	-10	-1	12	-0.05113691	0.03888961	-2.156958	0	12.36	4003	0	0	5	5	0.02	0.1814747	1	15	0.04	1800	-0.8156433	40.9236	-91.3936
41301	0	1	5	-0.04439588	0.04486198	-2.171569	0	12.36	4002	0	0	5	5	0.02	0.1854349	1	15	0.04	1800	-0.8305969	40.92361	-91.3936
41340	0	0	4	-0.045691	0.04549024	-2.175238	0	12.36	4003	0	0	5	5	0.02	0.185901	1	15	0.04	1800	-0.8305969	40.92361	-91.3936
41393	-3	0	9	-0.05322772	0.05049197	-2.18074	0	12.36	4002	0	0	5	5	0.02	0.1863499	1	15	0.04	1800	-0.8226013	40.92361	-91.3936
41543	-4	0	6	-0.05181465	0.04270166	-2.1937	0	12.36	4004	0	0	5	5	0.02	0.1902635	1	15	0.04	1800	-0.8155212	40.92361	-91.3936
41627	3	-1	3	-0.05630677	0.0380855	-2.200364	0	12.36	4003	0	0	5	5	0.02	0.1933958	1	15	0.04	1800	-0.811615	40.92361	-91.3936
41686	-6	2	1	-0.05678698	0.03386842	-2.202503	0	12.36	4004	0	0	5	5	0.02	0.198347	1	15	0.04	1800	-0.811615	40.92362	-91.3936
41804	-2	-2	4	-0.0587029	0.03171039	-2.211001	0	12.36	4004	0	0	5	5	0.02	0.2026332	1	15	0.04	1800	-0.8093567	40.92362	-91.3936
41892	-8	1	6	-0.06215267	0.0247205	-2.220538	0	12.36	4002	0	0	5	5	0.02	0.2005855	1	15	0.04	1800	-0.8062134	40.92363	-91.3936
41996	-2	-1	7	-0.06510983	0.02540911	-2.224818	0	12.36	4004	0	0	5	5	0.02	0.1931759	1	15	0.04	1800	-0.3482056	40.92363	-91.3936
42164	-2	1	0	-0.0745893	0.02604139	-2.235149	0	12.36	4003	0	0	5	5	0.02	0.1853767	1	15	0.04	1800	-0.7845764	40.92363	-91.3936
42210	0	0	3	-0.0751483	0.02498784	-2.243526	0	12.36	4004	0	0	5	5	0.02	0.1847239	1	15	0.04	1800	-0.786438	40.92363	-91.3936
42322	-3	-5	5	-0.08020535	0.02453772	-2.250373	0	12.36	4003	0	0	5	5	0.02	0.1874812	1	15	0.04	1800	-0.7727966	40.92363	-91.3936
42429	-5	1	6	-0.08152362	0.02746567	-2.25936	0	12.36	4003	0	0	5	5	0.02	0.1957047	1	15	0.04	1800	-0.7728271	40.92364	-91.3936
42581	0	-1	4	-0.08427139	0.02617236	-2.269508	0	12.36	4002	0	0	5	5	0.02	0.2065591	1	15	0.04	1800	-0.7653809	40.92364	-91.39359
42634	-5	4	8	-0.08432849	0.03047987	-2.276844	0	12.36	4003	0	0	5	5	0.02	0.2082993	1	15	0.04	1800	-0.7658081	40.92364	-91.39359
42831	-1	-1	0	-0.08838963	0.03328388	-2.290601	0	12.36	4004	0	0	5	5	0.02	0.2286628	1	15	0.04	1800	-0.7565002	40.92364	-91.39359
42964	2	-4	5	-0.08924571	0.03854542	-2.300382	0	12.36	4002	0	0	5	5	0.02	0.2481699	1	15	0.04	1800	-0.756134	40.92364	-91.39359
43021	-4	0	2	-0.08154477	0.0344029	-2.305578	0	12.36	4003	0	0	5	5	0.02	0.2539823	1	15	0.04	1800	-0.7746582	40.92364	-91.39359
43153	0	2	4	-0.07913317	0.0280237	-2.314992	0	12.36	4003	0	0	5	5	0.02	0.2584853	1	15	0.04	1800	-0.7714539	40.92364	-91.39359
43237	-3	3	6	-0.07827068	0.02659479	-2.323613	0	12.36	4004	0	0	5	5	0.02	0.2582854	1	15	0.04	1800	-0.7831116	40.92364	-91.39359
43305	-9	2	4	-0.07793813	0.02764966	-2.326486	0	12.36	4003	0	0	5	5	0.02	0.258182	1	15	0.04	1800	-0.7831116	40.92364	-91.39359
43461	-3	0	9	-0.07513343	0.0306515	-2.339692	0	12.36	4003	0	0	5	5	0.02	0.2576643	1	15	0.04	1800	-0.7806091	40.92364	-91.3936
43553	-8	0	3	-0.07225809	0.03102826	-2.347946	0	12.36	4004	0	0	5	5	0.02	0.2550011	1	15	0.04	1800	-0.786499	40.92364	-91.3936
43687	6	1	-1	-0.07198656	0.0301309	-2.362006	0	12.36	4004	0	0	5	5	0.02	0.2511224	1	15	0.04	1800	-0.7791748	40.92364	-91.3936
43776	1	-3	5	-0.0679864	0.03111591	-2.366346	0	12.36	4002	0	0	5	5	0.02	0.2496936	1	15	0.04	1800	-0.783783	40.92364	-91.3936
43862	0	1	0	-0.06844479	0.02890809	-2.37301	0	12.36	4004	0	0	5	5	0.02	0.2516167	1	15	0.04	1800	-0.7945862	40.92365	-91.39359
43981	-5	0	0	-0.07168711	0.01861282	-2.380835	0	12.36	4004	0	0	5	5	0.02	0.2359928	1	15	0.04	1800	-0.7885437	40.92365	-91.39359
44077	-3	6	9	-0.06860533	0.02017362	-2.387926	0	12.36	4002	0	0	5	5	0.02	0.2317302	1	15	0.04	1800	-0.7903748	40.92365	-91.39359
44285	-4	-2	2	-0.05979645	0.0219639	-2.398562	0	12.36	4002	0	0	5	5	0.02	0.2278499	1	15	0.04	1800	-1.028351	40.92365	-91.39359
44444	-4	0	1	-0.06333902	0.0263898	-2.412135	0	12.36	4003	0	0	5	5	0.02	0.2311547	1	15	0.04	1800	-0.7961426	40.92365	-91.39359
44546	-6	1	1	-0.06651253	0.02721275	-2.417087	0	12.36	4003	0	0	5	5	0.02	0.230251	1	15	0.04	1800	-0.5739746	40.92365	-91.39359
44644	-5	0	0	-0.07296128	0.03253012	-2.42106	0	12.36	4004	0	0	5	5	0.02	0.2193859	1	15	0.04	1800	-0.7944336	40.92365	-91.39359
44720	-3	-2	11	-0.07979108	0.03691519	-2.431819	0	12.36	4004	0	0	5	5	0.02	0.2137637	1	15	0.04	1800	-0.5566711	40.92365	-91.39359
44753	-1	-1	4	-0.07972814	0.03671793	-2.433103	0	12.36	4002	0	0	5	5	0.02	0.2075889	1	15	0.04	1800	-0.5516052	40.92365	-91.39359
44883	-1	-6	1	-0.07929519	0.03657708	-2.439522	0	12.36	4004	0	0	5	5	0.02	0.2011115	1	15	0.04	1800	-0.7722473	40.92365	-91.39359
44932	-11	-1	-1	-0.07602403	0.03587763	-2.442823	0	12.36	4002	0	0	5	5	0.02	0.2005174	1	15	0.04	1800	-0.7762451	40.92365	-91.39359
45204	-10	1	5	-0.07716925	0.03181764	-2.463792	0	12.36	4004	0	0	5	5	0.02	0.1965383	1	15	0.04	1800	-0.7772217	40.92365	-91.39359
45269	-7	-1	6	-0.07848217	0.03010989	-2.472473	0	12.36	4004	0	0	5	5	0.02	0.191999	1	15	0.04	1800	-0.7760315	40.92364	-82.25423
45360	-8	0	5	-0.08265916	0.02682779	-2.477058	0	12.36	4004	0	0	5	5	0.02	0.183691	1	15	0.04	1800	-0.7721558	40.92364	-63.97551
45513	-8	1	2	-0.08413959	0.03087967	-2.488125	0	12.36	4004	0	0	5	5	0.02	0.1764486	1	15	0.04	1800	-0.7749329	40.92364	-45.6968
45544	-7	0	0	-0.08356071	0.03354359	-2.487635	0	12.36	4003	0	0	5	5	0.02	0.1766626	1	15	0.04	1800	-0.7714233	40.92364	-45.6968
45658	-4	-2	0	-0.08125956	0.03825448	-2.494849	0	12.36	4002	0	0	5	5	0.02	0.1790054	1	15	0.04	1800	-0.5492859	40.92363	-45.6968
45746	-3	-4	4	-0.08391534	0.03580435	-2.499495	0	12.36	4002	0	0	5	5	0.02	0.1870877	1	15	0.04	1800	-0.5386353	40.92363	-45.6968
45887	0	-2	5	-0.08696741	0.03885805	-2.508971	0	12.36	4004	0	0	5	5	0.02	0.1949953	1	15	0.04	1800	-0.7675781	40.92363	-45.69679
45977	-2	-2	4	-0.08755339	0.04088055	-2.518202	0	12.36	4003	0	0	5	5	0.02	0.2058548	1	15	0.04	1800	-0.7626648	40.92363	-73.11488
46042	-4	3	2	-0.08810728	0.03777674	-2.522359	0	12.36	4003	0	0	5	5	0.02	0.2119121	1	15	0.04	1800	-0.7590942	40.92363	-91.39359
46161	-2	-1	6	-0.09190204	0.03926033	-2.530917	0	12.36	4004	0	0	5	5	0.02	0.2194348	1	15	0.04	1800	-0.7562256	40.92363	-91.39359
46301	-9	-2	4	-0.09968008	0.03922379	-2.539537	0	12.36	4003	0	0	5	5	0.02	0.2240111	1	15	0.04	1800	-0.7498169	40.92363	-91.39358
46509	-11	-3	1	-0.0937639	0.03835345	-2.555494	0	12.36	4003	0	0	5	5	0.02	0.2252644	1	15	0.04	1800	-0.749176	40.92363	-91.39358
46689	-2	1	2	-0.09641957	0.04231491	-2.566315	0	12.36	4003	0	0	5	5	0.02	0.2476146	1	15	0.04	1800	-0.5239258	40.92363	-91.39358
46769	0	-2	10	-0.09213592	0.04643363	-2.575058	0	12.36	4003	0	0	5	5	0.02	0.2586403	1	15	0.04	1800	-0.7502136	40.92363	-91.39358
46868	-6	0	3	-0.09914263	0.04217215	-2.585635	0	12.36	4003	0	0	5	5	0.02	0.269309	1	15	0.04	1800	-0.5292053	40.92365	-91.39358
46941	-7	1	1	-0.09759568	0.04271938	-2.591687	0	12.42	4004	0	0	5	5	0.02	0.2740125	1	15	0.04	1800	-0.7480774	40.92365	-91.39358
47128	-6	-1	8	-0.1018472	0.04338833	-2.607644	0	12.42	4003	0	0	5	5	0.02	0.2913312	1	15	0.04	1800	-0.7390442	40.92367	-91.39358
47189	-10	-4	7	-0.1030632	0.04445051	-2.610945	0	12.42	4003	0	0	5	5	0.02	0.2948875	1	15	0.04	1800	-0.7390442	40.92367	-91.39358
47279	-8	-1	1	-0.103283	0.03942208	-2.617976	0	12.42	4003	0	0	5	5	0.02	0.3027838	1	15	0.04	1800	-0.7386475	40.92368	-91.39358
47418	-3	2	6	-0.1045912	0.03484141	-2.626596	0	12.42	4004	0	0	5	5	0.02	0.3120138	1	15	0.04	1800	-0.739624	40.92369	-91.39358
47484	-1	0	9	-0.1033415	0.03542132	-2.629714	0	12.42	4003	0	0	5	5	0.02	0.3202446	1	15	0.04	1800	-0.7370911	40.92369	-91.39358
47695	-7	-5	6	-0.09561504	0.04100924	-2.646586	0	12.42	4004	0	0	5	5	0.02	0.3338777	1	15	0.04	1800	-0.7481079	40.92371	-91.39358
47866	-3	0	0	-0.09030817	0.03966597	-2.65869	0	12.36	4004	0	0	5	5	0.02	0.3295093	1	15	0.04	1800	-0.7544861	40.92371	-91.39359
47947	-4	3	0	-0.09546719	0.0426251	-2.670063	0	12.36	4004	0	0	5	5	0.02	0.3278005	1	15	0.04	1800	-0.7603455	40.92371	-91.39359
48013	-2	-5	2	-0.09199294	0.04618632	-2.674525	0	12.36	4004	0	0	5	5	0.02	0.3212727	1	15	0.04	1800	-0.5235291	40.92371	-91.3936
48178	-1	2	3	-0.08033206	0.04324663	-2.685531	0	12.36	4003	0	0	5	5	0.02	0.317494	1	15	0.04	1800	-0.7685547	40.92371	-91.39361
48331	-3	-4	7	-0.07362517	0.03626579	-2.700266	0	12.36	4003	0	0	5	5	0.02	0.3093513	1	15	0.04	1800	-0.7762451	40.92371	-91.39362
48362	-2	0	3	-0.07059944	0.0359572	-2.702834	0	12.36	4002	0	0	5	5	0.02	0.3067509	1	15	0.04	1800	-0.7762451	40.92371	-91.39362
48464	-9	3	3	-0.0690979	0.0328541	-2.711148	0	12.36	4002	0	0	5	5	0.02	0.3011204	1	15	0.04	1800	-0.5662231	40.92371	-91.39362
48619	-8	0	9	-0.07519538	0.02946523	-2.727837	0	12.36	4003	0	0	5	5	0.02	0.3006871	1	15	0.04	1800	-0.5589294	40.92371	-91.39362
48685	-8	-3	5	-0.075904	0.03138224	-2.736212	0	12.36	4004	0	0	5	5	0.02	0.2982215	1	15	0.04	1800	-0.7747498	40.92371	-91.39363
48768	-8	1	7	-0.07339139	0.03342507	-2.743488	0	12.36	4003	0	0	5	5	0.02	0.282953	1	15	0.04	1800	-0.7776794	40.92371	-91.39363
48872	-7	-3	3	-0.08271569	0.03915078	-2.753331	0	12.36	4002	0	0	5	5	0.02	0.2731304	1	15	0.04	1800	-0.545105	40.9237	-91.39363
48959	0	0	4	-0.08106777	0.03902515	-2.759261	0	12.36	4003	0	0	5	5	0.02	0.2703658	1	15	0.04	1800	-0.5445862	40.92369	-91.39363
49051	-2	-5	6	-0.0881148	0.04101714	-2.770999	0	12.36	4003	0	0	5	5	0.02	0.2687609	1	15	0.04	1800	-0.7641296	40.92369	-91.39363
49205	-3	-8	11	-0.08415534	0.03219697	-2.786161	0	12.36	4004	0	0	5	5	0.02	0.2621788	1	15	0.04	1800	-0.7633362	40.92368	-91.39363
49377	-8	-2	4	-0.0818124	0.03596222	-2.795883	0	12.36	4004	0	0	5	5	0.02	0.2653615	1	15	0.04	1800	-0.5466919	40.92367	-91.39362
49506	2	-3	6	-0.0815556	0.0355236	-2.812329	0	12.36	4004	0	0	5	5	0.02	0.2556264	1	15	0.04	1800	-0.77005	40.92366	-91.39362
49579	-2	-2	2	-0.08348797	0.03083786	-2.818748	0	12.36	4002	0	0	5	5	0.02	0.2526815	1	15	0.04	1800	-0.7731628	40.92366	-91.39362
49739	-1	0	9	-0.07548032	0.03446234	-2.833421	0	12.31	4003	0	0	5	5	0.02	0.231791	1	15	0.04	1800	-0.7836609	40.92365	-91.39362
49962	-6	-3	6	-0.05824669	0.03570805	-2.849745	0	12.31	4003	0	0	5	5	0.02	0.2183304	1	15	0.04	1800	-0.5793457	40.92365	-91.39362
50098	-4	1	8	-0.06118673	0.03351251	-2.861422	0	12.31	4002	0	0	5	5	0.02	0.2037419	1	15	0.04	1800	-0.8013611	40.92365	-91.39362
50139	-3	-1	9	-0.05434348	0.03285916	-2.865579	0	12.31	4004	0	0	5	5	0.02	0.1979359	1	15	0.04	1800	-0.8060303	40.92364	-91.39362
50238	-2	-1	7	-0.05753771	0.03597839	-2.874627	0	12.31	4003	0	0	5	5	0.02	0.1948375	1	15	0.04	1800	-0.8092651	40.92364	-91.39362
50351	-7	0	9	-0.06530306	0.03084587	-2.884286	0	12.31	4004	0	0	5	5	0.02	0.1892594	1	15	0.04	1800	-0.7978516	40.92364	-91.39362
50475	-7	1	9	-0.06688643	0.0349654	-2.895535	0	12.31	4003	0	0	5	5	0.02	0.1824757	1	15	0.04	1800	-0.7901611	40.92363	-91.39362
50551	-4	-1	6	-0.06973027	0.03380193	-2.89908	0	12.36	4003	0	0	5	5	0.02	0.1824361	1	15	0.04	1800	-0.7950134	40.92363	-91.39362
50666	-8	4	9	-0.0712505	0.03372393	-2.907089	0	12.36	4002	0	0	5	5	0.02	0.1918628	1	15	0.04	1800	-0.5609741	40.92363	-91.39362
50728	-2	-1	4	-0.07475295	0.02965658	-2.915831	0	12.36	4002	0	0	5	5	0.02	0.2011732	1	15	0.04	1800	-0.5620728	40.92363	-91.39362
50812	-3	-3	4	-0.07656518	0.02958018	-2.920966	0	12.36	4003	0	0	5	5	0.02	0.2069093	1	15	0.04	1800	-0.5569763	40.92363	-91.39362
50923	1	-2	0	-0.07052959	0.0282445	-2.926713	0	12.36	4004	0	0	5	5	0.02	0.2151954	1	15	0.04	1800	-0.7832336	40.92363	-91.39361
51060	-10	2	-1	-0.06807882	0.02409992	-2.936678	0	12.36	4003	0	0	5	5	0.02	0.236827	1	15	0.04	1800	-0.790802	40.92362	-91.39361
51118	-6	-6	10	-0.06786662	0.02718	-2.938756	0	12.36	4004	0	0	5	5	0.02	0.2433064	1	15	0.04	1800	-0.790802	40.92362	-91.39361
51208	-3	0	6	-0.07074579	0.02396742	-2.948905	0	12.36	4003	0	0	5	5	0.02	0.2544029	1	15	0.04	1800	-0.5735474	40.92361	-91.3936
51383	0	-3	4	-0.07633576	0.02569273	-2.95997	0	12.36	4003	0	0	5	5	0.02	0.2663898	1	15	0.04	1800	-0.7795715	40.92361	-91.3936
51422	-7	-1	7	-0.07514773	0.02613998	-2.964433	0	12.31	4002	0	0	5	5	0.02	0.2660169	1	15	0.04	1800	-0.780304	40.92361	-91.39359
51497	-4	-3	3	-0.07647141	0.03481493	-2.972932	0	12.31	4004	0	0	5	5	0.02	0.2666163	1	15	0.04	1800	-0.7780762	40.9236	-91.39359
51681	-1	-3	4	-0.07370898	0.0338023	-2.986198	0	12.31	4003	0	0	5	5	0.02	0.2774046	1	15	0.04	1800	-0.7855835	40.9236	-91.39359
51737	-3	-1	4	-0.07688456	0.03152302	-2.989011	0	12.31	4004	0	0	5	5	0.02	0.2788371	1	15	0.04	1800	-0.7823181	40.9236	-91.39359
51772	0	-7	7	-0.07528992	0.03168007	-2.992006	0	12.31	4003	0	0	5	5	0.02	0.2788266	1	15	0.04	1800	-0.7823181	40.92359	-91.39359
51928	-3	0	5	-0.06408253	0.03589148	-3.005456	0	12.31	4003	0	0	5	5	0.02	0.2816714	1	15	0.04	1800	-0.8013306	40.92359	-91.39359
52075	-7	0	8	-0.0553158	0.04267839	-3.014993	0	12.31	4004	0	0	5	5	0.02	0.2828032	1	15	0.04	1800	-0.8117065	40.9236	-91.39358
52213	-6	4	2	-0.05847649	0.04240824	-3.028382	0	12.31	4004	0	0	5	5	0.02	0.2741913	1	15	0.04	1800	-0.7990112	40.9236	-91.39358
52325	-2	2	8	-0.06005464	0.03535992	-3.040793	0	12.31	4004	0	0	5	5	0.02	0.2763649	1	15	0.04	1800	-0.58078	40.9236	-91.39358
52380	-4	-3	5	-0.0609519	0.03328369	-3.046417	0	12.31	4003	0	0	5	5	0.02	0.2762926	1	15	0.04	1800	-0.8047791	40.9236	-91.39358
52489	-3	0	7	-0.05726715	0.032249	-3.052592	0	12.31	4004	0	0	5	5	0.02	0.2701208	1	15	0.04	1800	-0.5811462	40.9236	-91.39358
52576	-5	3	8	-0.05354754	0.03025513	-3.06329	0	12.31	4003	0	0	5	5	0.02	0.267789	1	15	0.04	1800	-1.035278	40.92361	-91.39358
52689	0	0	6	-0.05549362	0.02978172	-3.072277	0	12.31	4003	0	0	5	5	0.02	0.2628313	1	15	0.04	1800	-0.8111572	40.92361	-91.39358
52755	-3	-3	7	-0.05336147	0.0242114	-3.082609	0	12.31	4003	0	0	5	5	0.02	0.2622972	1	15	0.04	1800	-0.8160706	38.19009	-83.8798
52977	2	-5	5	-0.05034369	0.0212491	-3.097772	0	12.31	4002	0	0	5	5	0.02	0.266336	1	15	0.04	1800	-0.8135986	27.25603	-53.82465
53089	-3	3	4	-0.04322108	0.01946779	-3.109204	0	12.31	4004	0	0	5	5	0.02	0.2624976	1	15	0.04	1800	-0.8317261	27.25603	-53.82465
53162	-1	1	1	-0.03666121	0.0157664	-3.114645	0	12.31	4003	0	0	5	5	0.02	0.2639497	1	15	0.04	1800	-0.8339233	27.25603	-53.82465
53255	-8	1	1	-0.04037535	0.01428662	-3.121737	0	12.36	4003	0	0	5	5	0.02	0.2606466	1	15	0.04	1800	-0.8470459	27.25603	-53.82465
53456	4	-1	6	-0.03934313	0.0063724	-3.137325	0	12.36	4004	0	0	5	5	0.02	0.2527031	1	15	0.04	1800	-0.8366394	32.72306	-61.33844
53543	-1	0	4	-0.03744446	0.002908739	-3.147107	0	12.36	4004	0	0	5	5	0.02	0.2496924	1	15	0.04	1800	-0.8388977	38.19009	-83.8798
53611	-1	0	7	-0.0341384	0.003315018	-3.151815	0	12.36	4003	0	0	5	5	0.02	0.2453406	1	15	0.04	1800	-0.8374634	40.9236	-91.39359
53667	-5	3	4	-0.03514697	0.003880343	-3.16123	0	12.36	4003	0	0	5	5	0.02	0.2390844	1	15	0.04	1800	-0.6188965	40.9236	-91.39359
53732	0	-2	4	-0.03673392	0.004445789	-3.163859	0	12.36	4004	0	0	5	5	0.02	0.238019	1	15	0.04	1800	-0.6188965	40.9236	-91.39359
53870	2	0	0	-0.03887176	0.01161055	-3.17523	0	12.36	4002	0	0	5	5	0.02	0.2370335	1	15	0.04	1800	-0.834198	40.9236	-91.39359
53984	-10	-3	8	-0.03815983	0.01298282	-3.184584	0	12.36	4004	0	0	5	5	0.02	0.2322089	1	15	0.04	1800	-0.8329163	40.9236	-91.39359
54143	2	-5	5	-0.02766116	0.01210745	-3.19669	0	12.36	4004	0	0	5	5	0.02	0.2309088	1	15	0.04	1800	-0.8528748	40.9236	-91.39359
54284	1	-4	4	-0.02858158	0.01834084	-3.208305	0	12.36	4003	0	0	5	5	0.02	0.235289	1	15	0.04	1800	-0.8598633	40.9236	-91.3936
54395	-6	-5	6	-0.02338075	0.01447339	-3.218821	0	12.36	4002	0	0	5	5	0.02	0.2367423	1	15	0.04	1800	-0.8568726	40.9236	-91.3936
54483	0	4	1	-0.02708532	0.01696807	-3.223038	0	12.36	4004	0	0	5	5	0.02	0.2362709	1	15	0.04	1800	-0.8600769	40.9236	-91.3936
54575	-4	-3	4	-0.03016018	0.01778556	-3.230069	0	12.36	4003	0	0	5	5	0.02	0.2225667	1	15	0.04	1800	-0.8457947	40.92361	-91.3936
54643	2	0	0	-0.02903936	0.01847982	-3.232637	0	12.36	4002	0	0	5	5	0.02	0.2137491	1	15	0.04	1800	-0.6253357	40.92361	-91.3936
54725	-1	-5	3	-0.02791301	0.02251108	-3.241623	0	12.36	4002	0	0	5	5	0.02	0.2065881	1	15	0.04	1800	-0.8488464	40.92361	-91.3936
54798	2	3	8	-0.03103684	0.02542232	-3.245965	0	12.36	4004	0	0	5	5	0.02	0.1943894	1	15	0.04	1800	-0.857666	40.92361	-91.3936
54878	0	6	1	-0.03175458	0.0208673	-3.252261	0	12.36	4004	0	0	5	5	0.02	0.1907712	1	15	0.04	1800	-0.8562927	40.92361	-91.3936
54939	7	-2	4	-0.03128877	0.01847171	-3.253973	0	12.36	4003	0	0	5	5	0.02	0.190571	1	15	0.04	1800	-0.6252136	40.92361	-91.3936
55133	3	-7	5	-0.03695654	0.02163082	-3.266872	0	12.36	4003	0	0	5	5	0.02	0.1956987	1	15	0.04	1800	-0.8384094	40.92362	-91.3936
55242	2	3	1	-0.03250298	0.02060229	-3.276531	0	12.36	4004	0	0	5	5	0.02	0.2047421	1	15	0.04	1800	-0.8414612	40.92362	-91.39359
55376	0	-3	6	-0.0311206	0.02240713	-3.286741	0	12.36	4003	0	0	5	5	0.02	0.2071076	1	15	0.04	1800	-0.848175	40.92363	-91.39359
55539	-1	-1	4	-0.03293447	0.02079371	-3.295117	0	12.36	4003	0	0	5	5	0.02	0.2081507	1	15	0.04	1800	-0.8429871	40.92363	-91.39359
55736	-1	2	1	-0.02583292	0.0219503	-3.307099	0	12.36	4003	0	0	5	5	0.02	0.2052541	1	15	0.04	1800	-0.8566895	40.92363	-91.3936
55883	-1	-1	8	-0.03028438	0.01724594	-3.314925	0	12.36	4004	0	0	5	5	0.02	0.1927636	1	15	0.04	1800	-0.8564758	40.92363	-91.3936
56044	0	2	0	-0.02890455	0.009257802	-3.324278	0	12.36	4002	0	0	5	5	0.02	0.1853151	1	15	0.04	1800	-0.8500977	40.92363	-91.3936
56143	-1	4	1	-0.01548456	0.0008587046	-3.332042	0	12.36	4002	0	0	5	5	0.02	0.1850113	1	15	0.04	1800	-0.870697	40.92363	-91.39361
56252	7	-3	4	-0.02144169	-0.0004675164	-3.337361	0	12.36	4002	0	0	5	5	0.02	0.1895521	1	15	0.04	1800	-0.8702393	40.92363	-91.39361
56305	-2	4	3	-0.02085043	0.002219266	-3.339929	0	12.36	4003	0	0	5	5	0.02	0.1905512	1	15	0.04	1800	-0.8686523	40.92363	-91.39361
56470	2	-3	1	-0.0186878	0.004157916	-3.349342	0	12.36	4004	0	0	5	5	0.02	0.1873188	1	15	0.04	1800	-0.6361084	40.92363	-91.39361
56564	2	-1	2	-0.01612484	0.00347791	-3.353071	0	12.36	4004	0	0	5	5	0.02	0.1865162	1	15	0.04	1800	-0.8629456	40.92364	-91.39361
56699	-1	0	1	-0.01371835	0.000654955	-3.360468	0	12.36	4002	0	0	5	5	0.02	0.1848693	1	15	0.04	1800	-0.8770142	40.92364	-91.39362
56773	2	-1	3	-0.01290625	0.0004507636	-3.364625	0	12.36	4004	0	0	5	5	0.02	0.1772801	1	15	0.04	1800	-0.8753357	40.92365	-91.39362
56851	10	3	6	-0.007135952	0.005412941	-3.370311	0	12.36	4004	0	0	5	5	0.02	0.1686248	1	15	0.04	1800	-0.8792419	40.92365	-91.39362
56904	3	-1	2	-0.004348813	0.004751109	-3.373673	0	12.36	4002	0	0	5	5	0.02	0.1639748	1	15	0.04	1800	-0.6642456	40.92365	-91.39362
57001	9	-1	2	-0.008897644	0.0035297	-3.377158	0	12.36	4003	0	0	5	5	0.02	0.1643269	1	15	0.04	1800	-0.8840637	40.92365	-91.39362
57123	2	-3	1	-0.0124517	0.00403495	-3.384494	0	12.36	4003	0	0	5	5	0.02	0.1639291	1	15	0.04	1800	-0.8771973	40.92365	-91.39362
57145	0	-3	0	-0.009902901	0.004968555	-3.385533	0	12.36	4003	0	0	5	5	0.02	0.1654621	1	15	0.04	1800	-0.8771973	40.92365	-91.39362
57245	4	-2	-4	-0.004840469	0.008003292	-3.39024	0	12.36	4003	0	0	5	5	0.02	0.1718278	1	15	0.04	1800	-0.8873291	40.92365	-91.39362
57427	-2	-2	7	0.002609958	0.005449977	-3.395253	0	12.36	4003	0	0	5	5	0.02	0.1893627	1	15	0.04	1800	-0.9002991	40.92365	-91.39362
57519	6	-5	3	6.293278E-05	0.001259877	-3.402833	0	12.36	4002	0	0	5	5	0.02	0.2023372	1	15	0.04	1800	-0.8944702	40.92365	-91.39362
57594	-1	-3	5	-0.003654474	0.0008401807	-3.405768	0	12.31	4003	0	0	5	5	0.02	0.2095587	1	15	0.04	1800	-0.8904724	40.92365	-91.39362
57788	-6	-2	3	-0.01087094	0.007004528	-3.41561	0	12.31	4002	0	0	5	5	0.02	0.2454843	1	15	0.04	1800	-0.8921509	40.92364	-91.39362
57993	6	-4	3	-0.0004871144	0.009837528	-3.428875	0	12.31	4002	0	0	5	5	0.02	0.2787243	1	15	0.04	1800	-0.670105	40.92363	-91.39361
58075	-3	-1	5	-0.004180808	0.009879693	-3.434621	0	12.31	4002	0	0	5	5	0.02	0.2900854	1	15	0.04	1800	-0.8852844	40.92363	-91.39361
58280	1	2	9	-0.008725236	0.01298312	-3.446238	0	12.31	4003	0	0	5	5	0.02	0.2989309	1	15	0.04	1800	-0.8804016	40.92363	-91.39362
58459	-2	1	2	-0.007606606	0.01532395	-3.457363	0	12.31	4003	0	0	5	5	0.02	0.2917097	1	15	0.04	1800	-0.6690369	40.92363	-91.39362
58643	1	-1	-1	-0.008240837	0.01946467	-3.4658	0	12.31	4004	0	0	5	5	0.02	0.2786591	1	15	0.04	1800	-0.6563721	40.92364	-91.39362
58690	-1	-5	1	-0.01044966	0.01775748	-3.467023	0	12.31	4004	0	0	5	5	0.02	0.2768465	1	15	0.04	1800	-0.6600037	40.92364	-91.39362
58745	5	-3	8	-0.001433138	0.0194674	-3.471363	0	12.31	4004	0	0	5	5	0.02	0.2777359	1	15	0.04	1800	-0.8972778	40.92365	-91.39362
58981	2	2	-2	-0.001440726	0.01688788	-3.480411	0	12.31	4003	0	0	5	5	0.02	0.269702	1	15	0.04	1800	-0.8941345	40.92365	-91.39362
59177	1	0	2	0.003009561	0.01939242	-3.491965	0	12.31	4003	0	0	5	5	0.02	0.2650928	1	15	0.04	1800	-0.9042358	40.92366	-91.39362
59314	0	-2	1	0.00979711	0.01794369	-3.501563	0	12.31	4002	0	0	5	5	0.02	0.2493449	1	15	0.04	1800	-0.9078979	40.92366	-91.39362
59408	1	3	4	0.00633622	0.01362304	-3.504192	0	12.31	4003	0	0	5	5	0.02	0.2254869	1	15	0.04	1800	-0.9062805	40.92367	-91.39363
59463	2	-3	11	0.007579038	0.01697833	-3.507676	0	12.31	4004	0	0	5	5	0.02	0.2254869	1	15	0.04	1800	-0.907196	40.92367	-91.39363
59528	-5	-3	4	0.008376623	0.01555532	-3.51385	0	12.31	4002	0	0	5	5	0.02	0.2124572	1	15	0.04	1800	-0.9125671	40.92367	-91.39363
59649	0	-3	5	0.005306679	0.02012705	-3.51813	0	12.31	4002	0	0	5	5	0.02	0.1925432	1	15	0.04	1800	-0.9086914	40.92367	-91.39363
59773	4	1	1	0.009769978	0.02371315	-3.52791	0	12.31	4003	0	0	5	5	0.02	0.1904567	1	15	0.04	1800	-0.9119568	40.92368	-91.39363
59871	5	0	2	0.006009878	0.02258882	-3.537202	0	12.31	4004	0	0	5	5	0.02	0.19169	1	15	0.04	1800	-1.131073	40.92368	-91.39364
60056	-1	-1	-1	0.0100374	0.02359774	-3.544294	0	12.31	4004	0	0	5	5	0.02	0.1946923	1	15	0.04	1800	-0.9100647	40.92369	-91.39364
60197	3	-5	2	0.01374076	0.02388383	-3.552058	0	12.31	4004	0	0	5	5	0.02	0.2069326	1	15	0.04	1800	-0.6957703	40.92369	-91.39364
60235	0	-3	5	0.01271551	0.02386096	-3.555359	0	12.36	4002	0	0	5	5	0.02	0.213743	1	15	0.04	1800	-0.6957703	40.92369	-91.39364
60370	3	0	4	0.01869411	0.02124293	-3.563489	0	12.36	4003	0	0	5	5	0.02	0.2212453	1	15	0.04	1800	-0.9306335	40.92369	-91.39365
60522	4	0	3	0.01845954	0.01900299	-3.569543	0	12.36	4004	0	0	5	5	0.02	0.221573	1	15	0.04	1800	-0.9291687	40.92369	-91.39365
60568	3	-5	1	0.0197332	0.02202177	-3.574494	0	12.36	4003	0	0	5	5	0.02	0.2211182	1	15	0.04	1800	-0.9302368	40.92369	-91.39365
60624	2	0	5	0.01904328	0.01906057	-3.578529	0	12.36	4002	0	0	5	5	0.02	0.2186169	1	15	0.04	1800	-0.9321899	40.92368	-91.39365
60756	0	0	5	0.01561722	0.01694418	-3.585314	0	12.36	4002	0	0	5	5	0.02	0.2160106	1	15	0.04	1800	-0.7013245	40.92368	-91.39365
60890	10	2	5	0.01525225	0.01633323	-3.589288	0	12.36	4002	0	0	5	5	0.02	0.2125162	1	15	0.04	1800	-0.920105	40.92367	-91.39365
60982	0	-1	4	0.01393243	0.01465271	-3.597602	0	12.36	4003	0	0	5	5	0.02	0.215155	1	15	0.04	1800	-0.9209595	40.92367	-91.39365
61038	5	0	8	0.0159864	0.01851576	-3.599987	0	12.36	4002	0	0	5	5	0.02	0.2158576	1	15	0.04	1800	-0.9205627	40.92367	-91.39365
61206	-2	-1	6	0.01542395	0.01445007	-3.610441	0	12.36	4004	0	0	5	5	0.02	0.2103914	1	15	0.04	1800	-0.9251709	40.92367	-91.39365
61246	0	-3	1	0.01055531	0.0142072	-3.613987	0	12.36	4002	0	0	5	5	0.02	0.2077258	1	15	0.04	1800	-0.9221802	40.92367	-91.39365
61389	-4	-5	3	0.01687329	0.01673172	-3.625053	0	12.36	4002	0	0	5	5	0.02	0.1936142	1	15	0.04	1800	-0.9209595	40.92367	-91.39365
61534	6	-4	4	0.01220416	0.01458821	-3.63563	0	12.36	4002	0	0	5	5	0.02	0.1830728	1	15	0.04	1800	-0.9172058	40.92367	-91.39364
61737	2	-1	6	0.01212612	0.02378554	-3.649265	0	12.36	4002	0	0	5	5	0.02	0.1547892	1	15	0.04	1800	-0.9100952	40.92366	-91.39363
61869	2	-1	4	0.01686708	0.03057169	-3.653789	0	12.36	4004	0	0	5	5	0.02	0.148847	1	15	0.04	1800	-0.9180298	40.92366	-91.39363
61942	-1	-3	2	0.02036336	0.02964072	-3.658313	0	12.36	4003	0	0	5	5	0.02	0.1478148	1	15	0.04	1800	-0.9223022	40.92366	-91.39363
62025	1	-3	4	0.02386118	0.02883847	-3.661308	0	12.36	4002	0	0	5	5	0.02	0.1480312	1	15	0.04	1800	-0.9328613	40.92366	-91.39363
62112	-1	-4	8	0.01979583	0.02846725	-3.666139	0	12.36	4003	0	0	5	5	0.02	0.141634	1	15	0.04	1800	-0.9311218	40.92365	-91.39363
62197	0	-3	1	0.01255224	0.02589098	-3.670846	0	12.36	4002	0	0	5	5	0.02	0.1322172	1	15	0.04	1800	-0.9171448	40.92365	-91.39362
62382	0	-2	3	0.0197505	0.02884393	-3.6813	0	12.36	4004	0	0	5	5	0.02	0.1344021	1	15	0.04	1800	-0.7088318	40.92365	-91.39363
62410	0	-3	6	0.01982043	0.02753255	-3.683012	0	12.36	4004	0	0	5	5	0.02	0.1344021	1	15	0.04	1800	-0.698822	40.92365	-91.39363
62511	1	2	4	0.01544882	0.03697526	-3.69255	0	12.36	4002	0	0	5	5	0.02	0.1464242	1	15	0.04	1800	-0.9269409	40.92365	-91.39363
62615	-1	-6	4	0.007399052	0.03833599	-3.698053	0	12.36	4004	0	0	5	5	0.02	0.155843	1	15	0.04	1800	-0.9215088	40.92365	-91.39363
62791	3	-4	6	0.002162404	0.04261376	-3.713031	0	12.36	4004	0	0	5	5	0.02	0.1699494	1	15	0.04	1800	-0.9035645	40.92365	-91.39364
62826	0	1	4	-0.0001559437	0.04103139	-3.714926	0	12.36	4003	0	0	5	5	0.02	0.1697457	1	15	0.04	1800	-0.8973389	40.92365	-91.39364
62917	4	0	3	-0.00223821	0.0416128	-3.720795	0	12.36	4004	0	0	5	5	0.02	0.1698082	1	15	0.04	1800	-0.8968201	40.92365	-91.39365
63094	4	-8	0	0.005435572	0.03771858	-3.735163	0	12.42	4002	0	0	5	5	0.02	0.186537	1	15	0.04	1800	-0.6784973	40.92366	-91.39365
63164	1	1	-1	0.002289405	0.03875126	-3.73877	0	12.42	4002	0	0	5	5	0.02	0.1917296	1	15	0.04	1800	-0.6784973	40.92366	-91.39365
63274	0	0	3	0.009400338	0.03463926	-3.744883	0	12.42	4003	0	0	5	5	0.02	0.2016023	1	15	0.04	1800	-0.9065247	40.92366	-91.39365
63374	-3	3	3	0.006128445	0.02877487	-3.751791	0	12.42	4002	0	0	5	5	0.02	0.2164745	1	15	0.04	1800	-0.9092407	40.92366	-91.39365
63478	-1	0	5	-0.006828922	0.03031461	-3.758271	0	12.42	4003	0	0	5	5	0.02	0.2251932	1	15	0.04	1800	-0.8956299	40.92367	-91.39365
63634	-1	-2	3	-0.01167699	0.03379121	-3.776123	0	12.42	4003	0	0	5	5	0.02	0.2363817	1	15	0.04	1800	-0.6634216	40.92367	-91.39365
63705	0	-6	9	-0.01442982	0.03348166	-3.784131	0	12.42	4004	0	0	5	5	0.02	0.2447639	1	15	0.04	1800	-0.8776855	40.92367	-91.39365
63832	4	0	4	-0.0136413	0.03377527	-3.791284	0	12.31	4002	0	0	5	5	0.02	0.257877	1	15	0.04	1800	-0.8795471	40.92367	-91.39365
63867	-1	0	6	-0.01253386	0.03461581	-3.793974	0	12.31	4004	0	0	5	5	0.02	0.2579957	1	15	0.04	1800	-0.8795471	40.92367	-91.39365
64005	0	0	8	-0.007899892	0.02856174	-3.805896	0	12.31	4003	0	0	5	5	0.02	0.2588268	1	15	0.04	1800	-0.6556091	40.92368	-91.39365
64092	1	-2	4	-0.01340691	0.03085413	-3.81311	0	12.31	4004	0	0	5	5	0.02	0.2689523	1	15	0.04	1800	-0.880188	40.92368	-91.39365
64173	2	-2	9	-0.0166918	0.02993179	-3.816839	0	12.31	4002	0	0	5	5	0.02	0.2812083	1	15	0.04	1800	-0.8716431	40.92369	-91.39365
64228	-2	-12	0	-0.01160599	0.03183128	-3.82332	0	12.31	4002	0	0	5	5	0.02	0.2876456	1	15	0.04	1800	-0.8769836	40.92369	-91.39366
64346	5	0	5	-0.01293651	0.02139909	-3.831084	0	12.31	4003	0	0	5	5	0.02	0.2936008	1	15	0.04	1800	-0.8703613	40.92369	-91.39366
64425	2	0	0	-0.01199627	0.01966995	-3.834385	0	12.31	4004	0	0	5	5	0.02	0.2985888	1	15	0.04	1800	-0.875885	40.92369	-91.39366
64559	0	-7	5	-0.00466968	0.01798459	-3.845206	0	12.31	4003	0	0	5	5	0.02	0.3075354	1	15	0.04	1800	-0.8901367	40.92369	-91.39365
64672	2	-1	3	0.004001171	0.01970023	-3.855416	0	12.36	4002	0	0	5	5	0.02	0.304962	1	15	0.04	1800	-0.901001	40.9237	-91.39365
64768	7	1	6	0.01019357	0.01770202	-3.866299	0	12.36	4003	0	0	5	5	0.02	0.3003787	1	15	0.04	1800	-0.9033813	40.9237	-91.39365
64875	5	-5	6	0.01223594	0.01325629	-3.872657	0	12.36	4004	0	0	5	5	0.02	0.2960878	1	15	0.04	1800	-0.915863	40.92371	-91.39365
64998	4	0	4	0.006878118	0.01568049	-3.880237	0	12.36	4003	0	0	5	5	0.02	0.2864784	1	15	0.04	1800	-0.9068909	40.92371	-91.39365
65092	2	-2	4	0.0008827829	0.02231443	-3.886412	0	12.36	4004	0	0	5	5	0.02	0.2826118	1	15	0.04	1800	-0.9081726	40.9237	-91.39365
65287	-1	-3	1	0.00104435	0.01354191	-3.898089	0	12.36	4002	0	0	5	5	0.02	0.271029	1	15	0.04	1800	-0.8983459	40.92369	-91.39365
65469	4	1	4	0.008673833	0.01537461	-3.912028	0	12.36	4003	0	0	5	5	0.02	0.2532545	1	15	0.04	1800	-0.9138184	40.92367	-91.39365
65675	2	-5	0	0.01036827	0.01378276	-3.923155	0	12.36	4004	0	0	5	5	0.02	0.2409281	1	15	0.04	1800	-0.9145813	40.92366	-91.39365
65948	1	-4	8	0.009987499	0.02565691	-3.945225	0	12.36	4004	0	0	5	5	0.02	0.246742	1	15	0.04	1800	-0.9115601	40.92365	-91.39364
66100	2	-2	5	0.009631876	0.02218365	-3.950849	0	12.36	4003	0	0	5	5	0.02	0.2475382	1	15	0.04	1800	-0.9092712	40.92364	-91.39364
66140	2	-5	4	0.009324101	0.02194002	-3.952989	0	12.36	4004	0	0	5	5	0.02	0.245643	1	15	0.04	1800	-0.9092712	40.92364	-91.39364
66328	1	-3	5	0.008187175	0.02085854	-3.964727	0	12.36	4002	0	0	5	5	0.02	0.2361382	1	15	0.04	1800	-0.6803284	40.92363	-91.39365
66403	8	0	3	0.008347543	0.02003781	-3.966805	0	12.36	4004	0	0	5	5	0.02	0.2327493	1	15	0.04	1800	-0.9063721	40.92363	-91.39364
66482	1	-7	3	0.009793963	0.01995059	-3.975731	0	12.36	4002	0	0	5	5	0.02	0.2305259	1	15	0.04	1800	-0.9119263	40.92363	-91.39364
66574	5	-2	6	0.008218745	0.02298538	-3.980622	0	12.36	4003	0	0	5	5	0.02	0.2193234	1	15	0.04	1800	-0.6850891	40.92363	-91.39364
66780	2	-4	5	0.02410722	0.01531539	-3.991993	0	12.36	4004	0	0	5	5	0.02	0.2059496	1	15	0.04	1800	-0.9267273	40.92363	-91.39363
66833	2	0	4	0.02305274	0.0125081	-3.996089	0	12.36	4003	0	0	5	5	0.02	0.2059224	1	15	0.04	1800	-0.9332581	40.92363	-91.39363
66885	4	-1	1	0.02302891	0.01340178	-3.998167	0	12.36	4002	0	0	5	5	0.02	0.2091317	1	15	0.04	1800	-0.9341736	40.92363	-91.39363
66985	4	1	8	0.02594426	0.0213932	-4.005443	0	12.36	4004	0	0	5	5	0.02	0.2182748	1	15	0.04	1800	-0.9349976	40.92363	-91.39362
67194	3	-2	3	0.03101745	0.02022645	-4.014919	0	12.36	4003	0	0	5	5	0.02	0.2487667	1	15	0.04	1800	-0.9416199	40.92363	-91.39362
67281	9	0	6	0.0326802	0.01338122	-4.021032	0	12.36	4003	0	0	5	5	0.02	0.2507846	1	15	0.04	1800	-0.9469604	40.92363	-91.39362
67373	12	-3	-3	0.03981376	0.01411474	-4.029163	0	12.36	4002	0	0	5	5	0.02	0.2500483	1	15	0.04	1800	-0.7266235	40.92364	-91.39362
67481	4	-8	3	0.04134784	0.01156118	-4.035277	0	12.36	4002	0	0	5	5	0.02	0.246145	1	15	0.04	1800	-0.7374268	40.92364	-91.39362
67697	9	0	3	0.04114661	0.0161896	-4.044325	0	12.36	4002	0	0	5	5	0.02	0.2429791	1	15	0.04	1800	-0.9608154	40.92365	-91.39362
67796	4	3	-1	0.04774391	0.01412151	-4.049216	0	12.36	4002	0	0	5	5	0.02	0.2461759	1	15	0.04	1800	-0.9678955	40.92365	-91.39363
67854	9	-3	8	0.04921282	0.01159902	-4.052946	0	12.36	4002	0	0	5	5	0.02	0.2447772	1	15	0.04	1800	-0.9736633	40.92365	-91.39363
