time(ms)	gyro_x(deg/s)	gyro_y(deg/s)	gyro_z(deg/s)	orientation_roll(deg)	orientation_pitch(deg)	orientation_yaw(deg)	throttle	battery(V)	loop_time(uS)	pid_output_roll	pid_output_pitch	pid_output_yaw	pid_output_throttle	ultrasonic_alt	baro_alt	flight_mode	p_gain_altitude	i_gain_altitude	d_gain_altitude	compass_heading	latitude	longitude
625133	-162	-305	-520	0.0721187	-3.303743	268.0717	0	11	4002	0	0	5	5	0.5237607	-0.009507306	8	15	0.04	1200	-85.34378	40.92374	-91.39363
625219	78	-287	252	-0.9207025	-2.594099	268.3237	0	11	4003	0	0	5	5	0.5237607	-0.002645527	8	15	0.04	1200	-84.94528	40.92374	-91.39363
625382	5786	1166	-2210	-6.876065	-10.5617	261.4342	0	11	4002	0	0	5	5	0.5237607	-0.0004471181	8	15	0.04	1200	-69.99072	40.92374	-91.39363
625436	6820	-89	-2730	-3.267308	-10.66647	262.5962	0	11	4003	0	0	5	5	0.5237607	-0.001547201	8	15	0.04	1200	-69.96399	40.92374	-91.39363
625707	1582	1918	478	2.066493	-6.428598	272.4338	0	11	4003	0	0	5	5	0.5237607	0.007837332	8	15	0.04	1200	-87.24539	40.92374	-91.39363
625826	189	20	1295	2.3469	-8.229879	269.8389	0	11	4004	0	0	5	5	0.5237607	0.02268955	8	15	0.04	1200	-75.99655	40.92374	-91.39363
625860	74	-3238	2731	2.556821	-7.070321	268.8563	0	11	4002	0	0	5	5	0.5237607	0.02501692	8	15	0.04	1200	-75.99655	40.92374	-91.39363
625952	598	-1228	405	3.422288	-2.387857	267.0383	0	11	4002	0	0	5	5	0.5237607	0.03578297	8	15	0.04	1200	-75.96548	40.92374	-91.39363
626080	-465	1875	-2598	2.114594	-4.431805	267.5408	0	11	4004	0	0	5	5	0.5237607	0.05129769	8	15	0.04	1200	-78.99988	40.92374	-91.39363
626150	-2879	-2072	-831	-1.109805	-6.958093	268.9113	0	11.06	4004	0	0	5	5	0.5237607	0.06828206	8	15	0.04	1200	-83.24075	40.92374	-91.39363
626336	940	-25	-23	-1.982042	-3.275386	269.093	0	11.06	4003	0	0	5	5	0.5237607	0.1032796	8	15	0.04	1200	-92.51144	40.92374	-91.39363
626415	-566	-1971	912	-1.88049	-2.409085	267.9351	0	11.06	4003	0	0	5	5	0.5237607	0.1057897	8	15	0.04	1200	-92.00858	40.92374	-91.39363
626616	-426	2290	-619	-0.5990224	-6.497147	267.3299	0	11.06	4004	0	0	5	5	0.5237607	0.127538	8	15	0.04	1200	-96.93985	40.92374	-91.39363
626742	-3211	3874	3826	-3.074049	-11.65694	268.2048	0	11.06	4004	0	0	5	5	0.5237607	0.1281742	8	15	0.04	1200	-91.73254	40.92374	-91.39363
626837	1387	-224	-317	-0.2702327	-10.98248	267.2094	0	11.06	4002	0	0	5	5	0.5237607	0.1181433	8	15	0.04	1200	-85.28369	40.92374	-91.39363
626927	-1312	-41	-1671	-0.6096694	-8.444283	272.3771	0	11.06	4002	0	0	5	5	0.5237607	0.09381442	8	15	0.04	1200	-90.04651	40.92374	-91.39363
626973	-814	897	-1545	-1.131393	-8.257797	273.1318	0	11.06	4003	0	0	5	5	0.5237607	0.08416986	8	15	0.04	1200	-90.04651	40.92374	-91.39363
627035	1416	636	2256	-1.56611	-7.361461	273.4814	0	9.7	4004	0	0	5	5	0.5237607	0.0785153	8	15	0.04	1200	-87.47253	40.92374	-91.39363
627221	2997	2310	-1216	3.379215	-12.68818	270.7457	0	9.7	4008	0	0	5	5	0.5237607	0.06741185	8	15	0.04	1200	-90.34213	40.92374	-91.39363
627301	1582	-486	1545	5.410005	-12.30258	270.244	0	9.7	4004	0	0	5	5	0.5237607	0.07188033	8	15	0.04	1200	-80.14182	40.92374	-91.39363
627509	-497	-59	-565	0.1429432	-3.973561	267.0945	0	9.7	4004	0	0	5	5	0.5237607	0.1077232	8	15	0.04	1200	-75.11945	40.92374	-91.39363
627564	-972	497	649	-0.4557598	-4.443186	267.4692	0	9.7	4004	0	0	5	5	0.5237607	0.1235338	8	15	0.04	1200	-82.73563	40.92374	-91.39363
627695	-3365	-935	416	-6.689144	-2.334163	268.1699	0	9.7	4003	0	0	5	5	0.5237607	0.1630519	8	15	0.04	1200	-87.9809	40.92373	-91.39363
627729	-1683	-166	-101	-9.497091	-1.818036	268.1223	0	9.7	4002	0	0	5	5	0.5237607	0.1722865	8	15	0.04	1200	-90.35181	40.92373	-91.39363
627909	1151	194	63	-7.484605	-3.112601	267.5642	0	10.83	4002	0	0	5	5	0.5237607	0.216875	8	15	0.04	1200	-90.23969	40.92373	-91.39363
627997	1273	-10	-1097	-5.931756	-3.550685	267.6885	0	10.83	4003	0	0	5	5	0.5237607	0.2458122	8	15	0.04	1200	-90.7933	40.92373	-91.39363
628135	-665	481	169	-3.356826	-7.552509	267.8435	0	10.83	4002	0	0	5	5	0.5237607	0.2703294	8	15	0.04	1200	-88.70291	40.92373	-91.39363
628212	500	46	218	-3.45962	-7.716892	268.0495	0	10.83	4003	0	0	5	5	0.5237607	0.2741834	8	15	0.04	1200	-88.70291	40.92373	-91.39363
628248	688	-397	422	-2.865479	-7.218878	268.0947	0	10.83	4004	0	0	5	5	0.5237607	0.2725565	8	15	0.04	1200	-91.12585	40.92373	-91.39363
628400	481	-777	335	-2.641522	-5.161536	267.9073	0	10.83	4002	0	0	5	5	0.5237607	0.2476917	8	15	0.04	1200	-88.26718	40.92373	-91.39363
628510	-4928	7147	-1182	-8.5645	-13.67316	268.8252	0	10.83	4002	0	0	5	5	0.5237607	0.2237177	8	15	0.04	1200	-70.7406	40.92373	-91.39363
628574	4549	-3635	-964	-7.916332	-13.91568	269.3036	0	10.83	4002	0	0	5	5	0.5237607	0.2209588	8	15	0.04	1200	-70.14163	40.92373	-91.39363
628735	173	-2393	-336	-2.008863	-6.713153	268.7082	0	10.83	4002	0	0	5	5	0.5237607	0.1928757	8	15	0.04	1200	-71.09656	40.92373	-91.39363
628816	1724	-364	1324	0.9248447	-5.516825	268.641	0	11.29	4002	0	0	5	5	0.5237607	0.1866831	8	15	0.04	1200	-72.93451	40.92373	-91.39363
628985	3227	-1048	-393	6.541574	-5.870511	268.4104	0	11.29	4004	0	0	5	5	0.5237607	0.1755253	8	15	0.04	1200	-76.0654	40.92373	-91.39363
629111	-619	-2806	833	7.594541	-1.350383	268.4792	0	11.29	4002	0	0	5	5	0.5237607	0.1540271	8	15	0.04	1200	-79.39767	40.92373	-91.39363
629170	-338	-1246	-135	4.621072	-0.1743636	267.8977	0	11.29	4002	0	0	5	5	0.5237607	0.150701	8	15	0.04	1200	-85.6564	40.92373	-91.39363
629350	-1533	-681	171	1.482942	-2.317949	267.5484	0	11.29	4003	0	0	5	5	0.5237607	0.1332597	8	15	0.04	1200	-89.05475	40.92374	-91.39362
629474	577	-156	-1067	0.4786511	-2.605927	267.7276	0	11.29	4003	0	0	5	5	0.5237607	0.1071422	8	15	0.04	1200	-92.78326	40.92374	-91.39362
629628	3174	-2419	-2408	-5.770579	-14.10209	272.9302	0	11.29	4004	0	0	5	5	0.5237607	0.08593696	8	15	0.04	1200	-89.3172	40.92374	-91.39362
629756	-445	-2564	1193	-4.576747	-1.082872	272.0085	0	10.94	4003	0	0	5	5	0.5237607	0.04836343	8	15	0.04	1200	259.8184	40.92374	-91.39362
629845	2514	1232	2611	-2.758307	-1.28352	269.549	0	10.94	4004	0	0	5	5	0.5237607	0.04062164	8	15	0.04	1200	-98.39542	40.92374	-91.39362
630031	345	193	-12	3.531185	-1.439968	265.5097	0	10.94	4002	0	0	5	5	0.5237607	0.0009897142	8	15	0.04	1200	-97.12311	40.92374	-91.39362
630129	821	2455	-2643	3.373191	-4.612035	266.7569	0	10.94	4003	0	0	5	5	0.5237607	-0.01045881	8	15	0.04	1200	257.5719	40.92374	-91.39362
630224	1331	3403	-2534	4.553127	-10.88227	272.0462	0	10.94	4004	0	0	5	5	0.5237607	-0.0120505	8	15	0.04	1200	258.5491	40.92374	-91.39362
630335	-4003	-354	1979	1.349766	-12.20733	272.6504	0	10.94	4003	0	0	5	5	0.5237607	-0.003451397	8	15	0.04	1200	-92.15652	40.92374	-91.39362
630418	-4222	-3924	2656	-2.526926	-9.493516	271.0885	0	10.94	4004	0	0	5	5	0.5237607	0.01064281	8	15	0.04	1200	-89.95413	40.92374	-91.39362
630671	-1966	1307	985	-4.524391	-5.90505	266.5231	0	10.32	4003	0	0	5	5	0.5237607	0.02907611	8	15	0.04	1200	-88.23477	40.92374	-91.39362
630831	-289	2733	81	-5.538054	-8.62447	267.9396	0	10.32	4002	0	0	5	5	0.5237607	0.05723727	8	15	0.04	1200	-88.71515	40.92374	-91.39362
630931	-1398	207	542	-6.357307	-9.576618	268.3237	0	10.32	4003	0	0	5	5	0.5237607	0.07503675	8	15	0.04	1200	-89.63525	40.92374	-91.39362
631110	-1084	-1343	391	-4.940306	-12.29332	268.6459	0	10.32	4003	0	0	5	5	0.5237607	0.0936942	8	15	0.04	1200	-86.89905	40.92373	-91.39362
631157	-718	-2186	-121	-5.326088	-10.73357	268.4862	0	10.32	4003	0	0	5	5	0.5237607	0.09594513	8	15	0.04	1200	-86.25757	40.92373	-91.39362
631314	303	-1446	-448	-3.67161	-5.234148	267.2146	0	10.32	4004	0	0	5	5	0.5237607	0.08131904	8	15	0.04	1200	-84.71002	40.92373	-91.39362
631398	605	-1542	-396	-2.967711	-3.873139	267.3495	0	10.32	4004	0	0	5	5	0.5237607	0.06916924	8	15	0.04	1200	-83.45709	40.92373	-91.39362
631521	-1797	-1456	-413	-2.923686	-7.611141	265.8958	0	10.32	4002	0	0	5	5	0.5237607	0.03884236	8	15	0.04	1200	-93.04562	40.92373	-91.39362
631650	686	1186	-1377	-1.411526	-6.339715	267.8168	0	11.23	4004	0	0	5	5	0.5237607	0.03657953	8	15	0.04	1200	-81.23309	40.92373	-91.39362
631741	-2803	-2100	-739	-2.576117	-3.760439	269.8143	0	11.23	4002	0	0	5	5	0.5237607	0.02349907	8	15	0.04	1200	-81.31659	40.92373	-91.39362
631860	-1484	294	1040	-5.952769	-1.462476	269.2982	0	11.23	4002	0	0	5	5	0.5237607	0.02186914	8	15	0.04	1200	-86.49707	40.92374	-91.39362
631972	1427	200	4	-0.7199128	-4.508639	268.5762	0	11.23	4003	0	0	5	5	0.5237607	0.02937913	8	15	0.04	1200	-81.39557	40.92374	-91.39362
632166	-649	-1294	403	2.062205	-7.957968	268.8531	0	11.23	4002	0	0	5	5	0.5237607	0.03333255	8	15	0.04	1200	-84.91461	40.92374	-91.39362
632289	2384	1219	-1869	3.038398	-8.746559	269.102	0	11.23	4002	0	0	5	5	0.5237607	0.03866551	8	15	0.04	1200	-93.02948	40.92374	-91.39362
632429	-386	-886	-610	3.735902	-12.54487	269.895	0	11.23	4004	0	0	5	5	0.5237607	0.06707861	8	15	0.04	1200	-90.34668	40.92374	-91.39362
632650	-1154	-1766	1054	0.4719124	-8.333259	266.9848	0	10.83	4003	0	0	5	5	0.5237607	0.09857266	8	15	0.04	1200	-86.93323	40.92374	-91.39362
632766	-312	-1172	-165	0.07138095	-5.873702	267.3159	0	10.83	4002	0	0	5	5	0.5237607	0.1097696	8	15	0.04	1200	-94.8988	40.92374	-91.39362
632910	-1095	-2177	155	-2.11488	-4.985674	268.2691	0	10.83	4003	0	0	5	5	0.5237607	0.1355966	8	15	0.04	1200	-95.03381	40.92374	-91.39362
633083	752	5450	1131	-2.511547	-6.070136	268.1072	0	10.83	4002	0	0	5	5	0.5237607	0.1396074	8	15	0.04	1200	-99.40805	40.92374	-91.39363
633201	-603	539	181	-1.845913	-10.93123	268.2014	0	10.83	4002	0	0	5	5	0.5237607	0.1311048	8	15	0.04	1200	-93.51019	40.92374	-91.39363
633282	1723	245	449	-1.222906	-9.579679	268.5717	0	10.83	4002	0	0	5	5	0.5237607	0.1135277	8	15	0.04	1200	-92.48611	40.92374	-91.39363
633417	-7889	-8972	979	1.149987	-10.36545	268.1898	0	11.23	4004	0	0	5	5	0.5237607	0.09267652	8	15	0.04	1200	-93.71954	40.92374	-91.39363
633447	1601	-1375	-713	-1.065926	-3.882672	268.0983	0	11.23	4004	0	0	5	5	0.5237607	0.0914121	8	15	0.04	1200	258.3502	40.92374	-91.39363
633606	-156	1978	-103	0.7417342	-3.523526	268.6562	0	11.23	4004	0	0	5	5	0.5237607	0.08500041	8	15	0.04	1200	-98.45526	40.92374	-91.39363
633695	-802	-755	-47	-0.4612079	-4.226993	268.5479	0	11.23	4003	0	0	5	5	0.5237607	0.08885349	8	15	0.04	1200	-92.75061	40.92374	-91.39363
633774	1783	2248	-1994	2.244103	-5.85749	270.9332	0	11.23	4003	0	0	5	5	0.5237607	0.08520411	8	15	0.04	1200	-98.89847	40.92374	-91.39363
633884	-3820	367	1233	-0.8052015	-6.811956	269.9598	0	11.23	4002	0	0	5	5	0.5237607	0.0842008	8	15	0.04	1200	-96.8862	40.92374	-91.39363
633953	-3735	-554	1513	-4.588292	-6.256743	268.2182	0	11.23	4002	0	0	5	5	0.5237607	0.08141106	8	15	0.04	1200	-96.43298	40.92374	-91.39363
634091	-1112	2673	-1548	-6.514994	-8.979243	267.4129	0	11.23	4004	0	0	5	5	0.5237607	0.07811064	8	15	0.04	1200	-91.87857	40.92374	-91.39363
634257	712	-164	-452	-3.576805	-12.9839	270.7726	0	10.77	4004	0	0	5	5	0.5237607	0.1080211	8	15	0.04	1200	-92.16873	40.92374	-91.39363
634374	242	-1804	1233	-2.921917	-10.20514	269.7964	0	10.77	4004	0	0	5	5	0.5237607	0.1261482	8	15	0.04	1200	-91.90765	40.92374	-91.39363
634425	977	-665	-114	-1.038477	-8.080446	268.3577	0	10.77	4002	0	0	5	5	0.5237607	0.1359484	8	15	0.04	1200	-93.2395	40.92374	-91.39363
634497	-432	-39	659	-0.6100745	-7.265502	267.6514	0	10.77	4004	0	0	5	5	0.5237607	0.1409574	8	15	0.04	1200	-90.401	40.92374	-91.39363
634614	-47	-466	-1355	-1.954504	-6.400292	267.5541	0	10.77	4004	0	0	5	5	0.5237607	0.1517224	8	15	0.04	1200	-87.89215	40.92374	-91.39363
634675	752	314	-1292	-1.718134	-5.986547	267.9025	0	10.77	4003	0	0	5	5	0.5237607	0.1596105	8	15	0.04	1200	-90.42722	40.92374	-91.39363
634834	-294	1426	-477	-1.352354	-8.461816	268.9013	0	10.77	4003	0	0	5	5	0.5237607	0.1647335	8	15	0.04	1200	-93.27328	40.92374	-91.39364
634984	-561	-2449	255	-2.729318	-8.933752	268.0928	0	10.77	4003	0	0	5	5	0.5237607	0.1520348	8	15	0.04	1200	-84.96365	40.92374	-91.39364
635191	-112	726	298	0.6656971	-10.16783	268.3647	0	11.34	4002	0	0	5	5	0.5237607	0.1099116	8	15	0.04	1200	-90.29288	40.92374	-91.39364
635393	1885	-652	-813	-1.394235	-7.00191	271.2881	0	11.34	4003	0	0	5	5	0.5237607	0.04725922	8	15	0.04	1200	-88.94534	40.92374	-76.90675
635554	663	-1809	-104	0.9132885	-7.235427	269.7727	0	11.34	4003	0	0	5	5	0.5237607	0.001996437	8	15	0.04	1200	-93.0416	40.92374	-47.93299
635649	-1417	-927	-931	-1.301941	-5.88752	269.7503	0	11.34	4003	0	0	5	5	0.5237607	-0.01001966	8	15	0.04	1200	-90.67111	40.92374	-47.93299
635739	1444	-775	-564	-0.8174862	-5.758669	270.6919	0	11.34	4004	0	0	5	5	0.5237607	-0.007221406	8	15	0.04	1200	-94.95813	40.92374	-47.93299
635785	-1573	-3165	1316	-0.960861	-4.100436	268.5129	0	11.34	4002	0	0	5	5	0.5237607	-0.001228486	8	15	0.04	1200	-93.18866	40.92374	-47.93299
635876	996	-1267	-1430	-0.05738601	-1.453295	267.0898	0	11.34	4004	0	0	5	5	0.5237607	0.0315958	8	15	0.04	1200	-99.72043	40.92374	-47.93299
636031	-1278	3950	1117	-2.108413	-4.753446	267.2801	0	9.58	4003	0	0	5	5	0.5237607	0.08401552	8	15	0.04	1200	-98.20349	40.92374	-76.90675
636137	-582	1622	336	-3.074194	-8.986434	268.3756	0	9.58	4003	0	0	5	5	0.5237607	0.1186029	8	15	0.04	1200	-94.70758	40.92374	-91.39364
636212	-459	1125	238	-2.94765	-10.20558	269.3281	0	9.58	4004	0	0	5	5	0.5237607	0.1352991	8	15	0.04	1200	-95.13852	40.92374	-91.39364
636354	-351	489	810	-3.704286	-12.007	268.8129	0	9.58	4003	0	0	5	5	0.5237607	0.1890608	8	15	0.04	1200	-95.54385	40.92374	-91.39364
636428	1056	1071	-848	-3.091521	-12.42446	268.6824	0	9.58	4004	0	0	5	5	0.5237607	0.2214683	8	15	0.04	1200	-91.28592	40.92373	-91.39364
636610	854	1140	288	-2.36159	-14.44109	268.81	0	9.58	4003	0	0	5	5	0.5237607	0.2995832	8	15	0.04	1200	-84.20779	40.92373	-91.39364
636673	746	197	146	-1.801342	-14.09636	268.7675	0	9.58	4002	0	0	5	5	0.5237607	0.3139146	8	15	0.04	1200	-84.20779	40.92373	-91.39364
636835	-239	-1779	393	-2.661251	-5.573807	267.9627	0	9.58	4003	0	0	5	5	0.5237607	0.3349679	8	15	0.04	1200	-82.2912	40.92373	-91.39364
636867	-239	-1779	393	-2.661251	-5.573807	267.9627	0	9.58	4003	0	0	5	5	0.5237607	0.3367178	8	15	0.04	1200	-82.2912	40.92373	-91.39364
637038	-428	-3123	-210	-1.606139	-3.981737	268.0754	0	10.38	4003	0	0	5	5	0.5237607	0.3354771	8	15	0.04	1200	-85.96973	40.92373	-91.39364
637117	92	-2054	-1847	-1.822979	-2.400088	268.4036	0	10.38	4002	0	0	5	5	0.5237607	0.318808	8	15	0.04	1200	-89.00974	40.92373	-91.39364
637247	873	1291	1037	-1.146233	-2.245273	268.5655	0	10.38	4002	0	0	5	5	0.5237607	0.2666318	8	15	0.04	1200	-98.83902	40.92373	-91.39364
637516	-6929	5289	-228	-7.31376	-16.22456	266.7646	0	10.38	4002	0	0	5	5	0.5237607	0.1811623	8	15	0.04	1200	-88.49313	40.92374	-91.39365
637606	-850	-2694	9	-11.63706	-16.13282	265.273	0	10.38	4004	0	0	5	5	0.5237607	0.1199354	8	15	0.04	1200	-81.98642	40.92374	-91.39365
637765	2390	-834	-2603	-0.191416	-7.065699	267.0836	0	10.38	4002	0	0	5	5	0.5237607	0.06976984	8	15	0.04	1200	-79.75076	40.92374	-91.39365
637950	484	2288	-223	2.721818	-3.478022	273.901	0	9.47	4002	0	0	5	5	0.5237607	0.04541292	8	15	0.04	1200	-90.84567	40.92375	-91.39365
638039	1198	551	188	3.499578	-3.893944	272.7999	0	9.47	4002	0	0	5	5	0.5237607	0.06907028	8	15	0.04	1200	-95.89734	40.92375	-91.39365
638108	-933	869	2591	4.114324	-6.663579	269.963	0	9.47	4003	0	0	5	5	0.5237607	0.0846394	8	15	0.04	1200	-91.85275	40.92375	-91.39365
638205	2820	-1437	-3001	3.656041	-6.38796	269.2286	0	9.47	4004	0	0	5	5	0.5237607	0.1213945	8	15	0.04	1200	-95.68665	40.92375	-73.11492
638248	-273	-76	-973	4.088398	-6.206912	270.2914	0	9.47	4004	0	0	5	5	0.5237607	0.1519315	8	15	0.04	1200	-95.68665	40.92375	-63.97555
638343	148	-394	-561	-1.142019	-7.985399	272.5011	0	9.47	4003	0	0	5	5	0.5237607	0.1845101	8	15	0.04	1200	256.7224	40.92375	-36.55746
638482	-967	341	1889	-0.1661037	-8.962826	270.5856	0	9.47	4004	0	0	5	5	0.5237607	0.2758322	8	15	0.04	1200	-86.17801	40.92375	-36.55746
638679	-496	365	201	-3.79487	-8.913654	267.2047	0	10.26	4003	0	0	5	5	0.5237607	0.4137321	8	15	0.04	1200	-78.67712	40.92375	-36.55746
638792	-1049	1997	-1041	-4.020648	-10.67827	268.6837	0	10.26	4002	0	0	5	5	0.5237607	0.4853599	8	15	0.04	1200	-83.56836	40.92375	-36.55746
638963	-2154	-2125	813	-8.329853	-10.77009	268.252	0	10.26	4003	0	0	5	5	0.5237607	0.6027384	8	15	0.04	1200	-78.38638	40.92375	-82.25428
639162	-458	266	-96	-10.29762	-7.829445	267.1503	0	10.26	4002	0	0	5	5	0.5237607	0.762163	8	15	0.04	1200	-78.96985	40.92374	-91.39364
639320	1129	-565	139	-6.672814	-5.024589	267.6921	0	10.26	4002	0	0	5	5	0.5237607	0.8270541	8	15	0.04	1200	-79.75244	40.92374	-91.39364
639399	544	-793	-94	-4.774803	-4.453135	268.412	0	10.26	4003	0	0	5	5	0.5237607	0.843516	8	15	0.04	1200	-80.83282	40.92374	-91.39364
639504	504	-1174	106	-4.200015	-3.167968	268.3016	0	10.26	4004	0	0	5	5	0.5237607	0.8808766	8	15	0.04	1200	-83.32803	40.92374	-91.39364
639557	867	-1180	411	-3.319856	-2.508195	268.0868	0	10.26	4002	0	0	5	5	0.5237607	0.8916823	8	15	0.04	1200	-87.70233	40.92374	-91.39364
639725	-550	-327	-572	-2.969513	-3.563995	268.8424	0	11.23	4003	0	0	5	5	0.5237607	0.8893268	8	15	0.04	1200	-87.08813	40.92374	-91.39363
639863	2192	1283	-588	-3.39525	-5.742183	270.7369	0	11.23	4003	0	0	5	5	0.5237607	0.8822547	8	15	0.04	1200	-93.11749	40.92374	-91.39363
639916	2371	-434	-185	-2.227213	-6.240398	270.7429	0	11.23	4004	0	0	5	5	0.5237607	0.8785271	8	15	0.04	1200	-91.42209	40.92374	-91.39363
640018	-3610	2030	1594	-2.295851	-5.690462	269.1251	0	11.23	4004	0	0	5	5	0.5237607	0.8707443	8	15	0.04	1200	-92.09308	40.92374	-91.39363
640176	93	-2421	1458	-14.32438	-40.57868	263.6698	0	11.23	4003	0	0	5	5	0.5237607	0.783898	8	15	0.04	1200	-55.9072	40.92374	-91.39363
640360	1339	-6180	-1789	-3.983742	5.785096	272.2494	0	11.23	4003	0	0	5	5	0.5237607	0.6515069	8	15	0.04	1200	-55.4682	40.92373	-91.39363
640482	6500	-366	306	-0.2523101	6.903127	272.6939	0	11.23	4004	0	0	5	5	0.5237607	0.6087934	8	15	0.04	1200	-61.04086	40.92373	-91.39363
640631	-729	-8384	1263	9.427084	14.19029	269.3625	0	11.17	4003	0	0	5	5	0.5237607	0.5474724	8	15	0.04	1200	-63.96744	40.92373	-91.39364
640797	-2065	2384	1445	9.034358	21.05803	267.5114	0	11.17	4002	0	0	5	5	0.5237607	0.4889418	8	15	0.04	1200	-78.87976	40.92371	-91.39364
640906	203	3785	-1850	6.567537	7.288159	267.9414	0	11.17	4003	0	0	5	5	0.5237607	0.4599485	8	15	0.04	1200	-89.72198	40.92371	-91.39364
641126	1435	1477	344	5.475977	-7.00493	268.015	0	11.17	4002	0	0	5	5	0.5237607	0.3544663	3	15	0.04	1200	-86.59723	40.92369	-91.39363
641269	-5936	6798	3309	-5.853142	-22.82455	269.0537	0	11.17	4002	0	0	5	5	0.5237607	0.3144834	3	15	0.04	1200	-89.5209	40.92369	-91.39363
641326	-2411	-2706	2492	-9.666294	-23.40662	265.622	0	11.17	4004	0	0	5	5	0.5237607	0.2907198	3	15	0.04	1200	-78.79584	40.92368	-91.39363
641426	8332	-10715	1036	-2.230018	-9.650067	263.7201	0	11.34	4002	0	0	5	5	0.5237607	0.2330482	3	15	0.04	1200	-66.16962	40.92368	-91.39362
641566	-2069	-32753	-2439	0.4648332	2.950164	264.7507	0	11.34	4003	0	0	5	5	0.5237607	0.1872097	3	15	0.04	1200	-83.55157	40.92367	-91.39362
641641	-2939	2713	759	-6.348807	-6.121947	262.881	0	11.34	4003	0	0	5	5	0.5237607	0.1364477	3	15	0.04	1200	-46.31601	40.92367	-91.39362
641771	7615	-2952	-368	-3.838556	-4.119527	262.2337	0	11.34	4004	0	0	5	5	0.5237607	0.04694935	3	15	0.04	1200	-46.33667	40.92367	-91.39362
641878	-1161	1404	21	-1.798035	-2.571741	262.3553	0	11.34	4003	0	0	5	5	0.5237607	-0.004558018	3	15	0.04	1200	-49.09665	40.92366	-91.39361
641973	-151	45	-20	-2.370399	-3.753825	262.3077	0	11.34	4002	0	0	5	5	0.5237607	-0.05783587	3	15	0.04	1200	-49.67337	40.92366	-91.3936
642069	-125	12	-76	-2.65511	-4.539218	262.2894	0	11.34	4003	0	0	5	5	0.5237607	-0.08264353	3	15	0.04	1200	-49.80447	40.92365	-91.3936
642121	-157	18	47	-2.815516	-4.985366	262.2728	0	11.34	4003	0	0	5	5	0.5237607	-0.09793415	3	15	0.04	1200	-50.85458	40.92365	-91.39359
642253	-164	-9	138	-3.106086	-5.759873	262.2413	0	11.34	4002	0	0	5	5	0.5237607	-0.1619174	3	15	0.04	1200	-51.41888	40.92365	-91.39359
642335	-101	57	-47	-3.209663	-6.078537	262.2227	0	11.4	4003	0	0	5	5	0.5237607	-0.1842276	3	15	0.04	1200	-52.92374	40.92365	-91.39359
642486	-178	-89	206	-3.440618	-6.704223	262.1755	0	11.4	4003	0	0	5	5	0.5237607	-0.2171859	3	15	0.04	1200	-54.35098	40.92365	-91.39359
642655	79	-248	-343	-3.281879	-6.870169	262.2096	0	11.4	4004	0	0	5	5	0.5237607	-0.2783883	3	15	0.04	1200	-53.92133	40.92364	-91.39359
642711	87	-260	-46	-3.090825	-6.716369	262.2072	0	11.4	4004	0	0	5	5	0.5237607	-0.2841741	3	15	0.04	1200	-54.66772	40.92364	-91.39359
642895	30	-176	117	-2.783692	-6.297704	262.2058	0	11.4	4002	0	0	5	5	0.5237607	-0.313183	3	15	0.04	1200	-56.56503	40.92364	-91.39359
642980	-47	-222	164	-2.656293	-6.20279	262.2084	0	11.4	4003	0	0	5	5	0.5237607	-0.311196	3	15	0.04	1200	-56.56503	40.92364	-91.39359
643182	143	-452	-456	-1.965961	-5.226936	262.2945	0	11.4	4003	0	0	5	5	0.5237607	-0.2886529	3	15	0.04	1200	-58.82401	40.92365	-91.39359
643336	-277	-926	-129	-1.567162	-4.198742	262.3803	0	10.66	4004	0	0	5	5	0.5237607	-0.2570974	3	15	0.04	1200	-58.90115	40.92365	-91.39359
643387	-183	-1350	-1	-1.509585	-3.683221	262.4131	0	10.66	4004	0	0	5	5	0.5237607	-0.2467522	3	15	0.04	1200	-58.90115	40.92365	-91.39359
643471	-104	-2316	169	-1.427083	-2.054277	262.4884	0	10.66	4003	0	0	5	5	0.5237607	-0.2439238	3	15	0.04	1200	-61.75888	40.92365	-91.39359
643573	468	-1745	1206	-1.303374	2.380761	262.3793	0	10.66	4002	0	0	5	5	0.5237607	-0.2365641	3	15	0.04	1200	-66.22394	40.92365	-91.39359
643788	-992	2280	-777	-3.387596	-7.768996	262.4233	0	10.66	4002	0	0	5	5	0.5237607	-0.1883122	3	15	0.04	1200	-69.55356	40.92365	-91.39359
643949	-257	-1228	479	-2.485257	-10.72086	262.6917	0	10.66	4002	0	0	5	5	0.5237607	-0.1505653	3	15	0.04	1200	-60.07938	40.92365	-91.39359
644043	3522	-2085	-773	-0.8674081	-8.138581	263.3332	0	10.66	4004	0	0	5	5	0.5237607	-0.1086892	3	15	0.04	1200	-63.04495	40.92365	-91.39359
644172	-1252	-5417	481	1.308873	-2.941946	263.2739	0	11.23	4003	0	0	5	5	0.5237607	-0.06566978	3	15	0.04	1200	-63.35425	40.92365	-91.39359
644367	458	-401	1007	1.644036	8.468678	262.3523	0	11.23	4002	0	0	5	5	0.5237607	0.001247874	3	15	0.04	1200	-83.26187	40.92365	-91.39359
644427	1116	1164	-1029	3.109521	5.120932	262.5867	0	11.23	4002	0	0	5	5	0.5237607	0.007249109	3	15	0.04	1200	-95.73523	40.92365	-91.39359
644555	-345	965	119	0.480135	2.914111	262.7255	0	11.23	4003	0	0	5	5	0.5237607	0.0596463	3	15	0.04	1200	-95.59854	40.92365	-91.39359
644646	-3674	-465	-3447	1.086276	0.5899823	263.3637	0	11.23	4002	0	0	5	5	0.5237607	0.09335915	3	15	0.04	1200	259.3445	40.92365	-91.3936
644721	-2794	2985	-2057	-1.142819	-2.737612	265.995	0	11.23	4003	0	0	5	5	0.5237607	0.1296352	3	15	0.04	1200	255.7565	40.92365	-91.3936
644815	-2260	2309	-722	-4.833156	-2.916348	267.5328	0	11.23	4004	0	0	5	5	0.5237607	0.1764404	3	15	0.04	1200	255.2126	40.92365	-91.3936
644917	1438	5644	1593	-5.93648	-5.225208	266.1643	0	11.23	4003	0	0	5	5	0.5237607	0.2269539	3	15	0.04	1200	255.6582	40.92365	-91.3936
644995	1448	2559	1278	-3.243342	-9.401417	264.3487	0	11.23	4004	0	0	5	5	0.5237607	0.2576281	3	15	0.04	1200	-93.34116	40.92365	-91.3936
645106	-557	1456	596	0.9004719	-14.79759	262.6817	0	11.34	4004	0	0	5	5	0.5237607	0.3020873	3	15	0.04	1200	-80.64798	40.92365	-91.3936
645161	581	2311	-1115	1.439178	-17.4767	263.496	0	11.34	4004	0	0	5	5	0.5237607	0.3387657	3	15	0.04	1200	-78.14651	40.92365	-91.3936
645292	43	1121	726	2.324644	-19.4122	264.9071	0	11.34	4003	0	0	5	5	0.5237607	0.4112837	3	15	0.04	1200	-72.19675	40.92365	-91.3936
645409	-3572	-1491	492	-1.167204	-16.32564	263.9419	0	11.34	4003	0	0	5	5	0.5237607	0.4768719	3	15	0.04	1200	-64.7287	40.92365	-91.39361
645443	-3480	-272	494	-3.065933	-15.22662	263.494	0	11.34	4004	0	0	5	5	0.5237607	0.4890915	3	15	0.04	1200	-64.7287	40.92365	-91.39361
645539	-2419	-881	789	-7.486808	-13.21602	262.6597	0	11.34	4002	0	0	5	5	0.5237607	0.5407264	3	15	0.04	1200	-62.54739	40.92365	-91.39361
645665	-2356	-521	430	-9.713586	-9.270856	262.9494	0	11.34	4003	0	0	5	5	0.5237607	0.6028675	3	15	0.04	1200	-63.61234	40.92364	-91.39361
645700	-984	-2948	-694	-11.86885	-6.073116	262.9246	0	11.34	4004	0	0	5	5	0.5237607	0.6122463	3	15	0.04	1200	-65.92206	40.92364	-91.39362
645804	2476	-757	-644	-10.36967	-4.688233	262.9736	0	11.34	4002	0	0	5	5	0.5237607	0.6506032	3	15	0.04	1200	-68.23969	40.92364	-91.39362
645955	554	-1494	-724	-8.490237	-1.685172	264.6397	0	10.66	4002	0	0	5	5	0.5237607	0.6972383	3	15	0.04	1200	-63.93317	40.92364	-91.39362
646139	184	-2899	-395	2.761998	2.137117	265.0799	0	10.66	4002	0	0	5	5	0.5237607	0.7362047	3	15	0.04	1200	-67.05127	40.92365	-91.39362
646229	617	-1986	-420	3.136235	3.618225	264.93	0	10.66	4003	0	0	5	5	0.5237607	0.7468488	3	15	0.04	1200	-73.89578	40.92365	-91.39362
646302	1538	-3064	-346	3.932729	5.655153	264.6921	0	10.66	4003	0	0	5	5	0.5237607	0.7608091	3	15	0.04	1200	-73.91583	40.92365	-91.39362
646443	844	-449	-59	4.390527	9.086891	264.0974	0	10.66	4003	0	0	5	5	0.5237607	0.7778717	3	15	0.04	1200	-85.95444	40.92365	-91.39362
646535	-134	2101	-125	4.461459	5.219406	264.323	0	10.66	4004	0	0	5	5	0.5237607	0.7871715	3	15	0.04	1200	-95.53281	40.92365	-91.39362
646594	-339	793	-195	3.839565	2.07268	264.8567	0	10.66	4004	0	0	5	5	0.5237607	0.7879706	3	15	0.04	1200	259.1403	40.92365	-91.39362
646721	-815	6329	1625	1.511888	-3.024636	264.9527	0	10.66	4002	0	0	5	5	0.5237607	0.7789003	3	15	0.04	1200	254.6748	40.92365	-91.39362
646855	1114	3049	-6	2.190656	-6.638164	267.4012	0	10.77	4003	0	0	5	5	0.5237607	0.7498076	3	15	0.04	1200	-94.57791	40.92365	-91.39362
646957	971	4164	1139	0.2475249	-14.42251	267.2299	0	10.77	4002	0	0	5	5	0.5237607	0.7225792	3	15	0.04	1200	-86.03134	40.92365	-91.39362
647031	500	1448	-12	0.4415393	-17.62538	266.9769	0	10.77	4004	0	0	5	5	0.5237607	0.6859311	3	15	0.04	1200	-76.50641	40.92365	-91.39362
647139	-1302	-3716	-659	1.102394	-15.46198	267.7628	0	10.77	4003	0	0	5	5	0.5237607	0.655648	3	15	0.04	1200	-74.00204	40.92365	-91.39362
647175	-2061	-4193	-1023	0.6541126	-13.98938	267.9527	0	10.77	4003	0	0	5	5	0.5237607	0.638544	3	15	0.04	1200	-74.00204	40.92365	-91.39362
647301	-1821	-1337	-228	-3.28761	-7.772288	268.1171	0	10.77	4002	0	0	5	5	0.5237607	0.6033604	3	15	0.04	1200	-79.29562	40.92365	-91.39362
647448	-2740	-1258	-871	-6.881052	-7.71284	269.3807	0	10.77	4002	0	0	5	5	0.5237607	0.5748659	3	15	0.04	1200	-81.82898	40.92366	-91.39362
647531	-4482	-1274	1587	-9.250979	-3.951297	269.6426	0	10.77	4004	0	0	5	5	0.5237607	0.5523462	3	15	0.04	1200	-80.86084	40.92366	-91.39363
647611	2904	848	-279	-5.631114	-3.37024	268.7884	0	10.77	4003	0	0	5	5	0.5237607	0.5344476	3	15	0.04	1200	-82.14471	40.92366	-91.39363
647781	2735	1497	-888	-1.191738	-3.053859	271.1774	0	11	4003	0	0	5	5	0.5237607	0.4800605	3	15	0.04	1200	-79.6261	40.92366	-91.39363
647908	3898	235	-806	5.441464	-5.357475	275.6719	0	11	4002	0	0	5	5	0.5237607	0.4644449	3	15	0.04	1200	-80.16425	40.92366	-91.39363
647941	1138	-31	941	6.052933	-5.284391	275.8868	0	11	4003	0	0	5	5	0.5237607	0.4541845	3	15	0.04	1200	-81.54001	40.92366	-91.39363
648084	-2901	-2646	1849	3.203392	-3.679595	274.3927	0	11	4004	0	0	5	5	0.5237607	0.4334254	3	15	0.04	1200	-83.12463	40.92366	-91.39364
648265	-5580	211	1356	-4.485811	-2.649603	272.4284	0	11	4002	0	0	5	5	0.5237607	0.4347506	3	15	0.04	1200	-88.46405	40.92366	-91.39364
648410	-1280	-468	-1968	-9.677343	-2.604442	272.9491	0	11	4003	0	0	5	5	0.5237607	0.4353856	3	15	0.04	1200	-96.89682	40.92366	-91.39364
648508	-1735	1455	-933	-9.502331	-5.312207	274.4662	0	11	4003	0	0	5	5	0.5237607	0.4282625	3	15	0.04	1200	-96.9957	40.92366	-91.39364
648606	-254	2406	-1972	-9.325374	-8.262446	275.1544	0	10.26	4003	0	0	5	5	0.5237607	0.417522	3	15	0.04	1200	259.7595	40.92366	-91.39364
648731	976	5112	-805	-2.864203	-21.36337	277.4034	0	10.26	4004	0	0	5	5	0.5237607	0.4049426	3	15	0.04	1200	-98.7074	40.92365	-91.39364
648762	-261	1297	732	-2.143631	-22.68448	277.5165	0	10.26	4004	0	0	5	5	0.5237607	0.3966787	3	15	0.04	1200	-89.95575	40.92365	-91.39364
648839	-33	-2571	2422	-1.854044	-19.80029	276.7505	0	10.26	4003	0	0	5	5	0.5237607	0.3840858	3	15	0.04	1200	-83.0813	40.92365	-91.39364
648939	1852	-3411	313	0.2345082	-16.52752	275.9312	0	10.26	4002	0	0	5	5	0.5237607	0.3571805	3	15	0.04	1200	-83.61539	40.92365	-91.39364
649091	437	-5378	-2479	0.4283728	-4.6521	275.2783	0	10.26	4002	0	0	5	5	0.5237607	0.322048	3	15	0.04	1200	-87.64719	40.92365	-91.39364
649157	364	-462	-984	1.019008	-1.553034	276.7802	0	10.26	4003	0	0	5	5	0.5237607	0.3059687	3	15	0.04	1200	-95.74365	40.92365	-91.39364
649324	479	-475	1366	-3.890085	0.1039424	277.3802	0	10.26	4004	0	0	5	5	0.5237607	0.2718908	3	15	0.04	1200	257.9734	40.92365	-91.39364
649401	192	-35	108	-3.802358	-9.453079	276.2498	0	10.26	4003	0	0	5	5	0.5237607	0.2653992	3	15	0.04	1200	-92.83096	40.92365	-91.39364
649514	-2545	468	-1594	-2.102745	-8.329346	278.5074	0	11.23	4003	0	0	5	5	0.5237607	0.2409788	3	15	0.04	1200	-97.06079	40.92365	-91.39365
649597	-1072	1095	-219	-4.823585	-9.327866	278.7829	0	11.23	4004	0	0	5	5	0.5237607	0.2178717	3	15	0.04	1200	-96.5553	40.92365	-91.39365
649700	78	-485	-178	-4.761898	-9.047441	278.8656	0	11.23	4010	0	0	5	5	0.5237607	0.1803804	3	15	0.04	1200	-97.13275	40.92365	-91.39365
649767	-151	10	108	-4.600664	-8.218313	278.8008	0	11.23	4003	0	0	5	5	0.5237607	0.1322981	3	15	0.04	1200	-93.46017	40.92365	-91.39365
649833	-123	17	-30	-4.592459	-7.879522	278.7822	0	11.23	4003	0	0	5	5	0.5237607	0.1151298	3	15	0.04	1200	-92.82858	40.92365	-91.39365
650029	-116	29	58	-4.610794	-7.06051	278.7174	0	11.23	4004	0	0	5	5	0.5237607	0.03928109	1	15	0.04	1200	-91.88431	40.92365	-91.39365
650220	-129	6	-19	-4.586792	-6.433787	278.6658	0	11.23	4003	0	0	5	5	0.5237607	-0.03151452	1	15	0.04	1200	-87.16293	40.92366	-91.39365
650370	-133	13	-55	-4.61321	-6.072447	278.6329	0	11.34	4004	0	0	5	5	0.5237607	-0.08146453	1	15	0.04	1200	-87.37622	40.92366	-91.39365
650544	-125	29	36	-4.577268	-5.667606	278.5863	0	11.34	4003	0	0	5	5	0.5237607	-0.1296348	1	15	0.04	1200	-87.91119	40.92366	-91.39365
650621	-150	12	15	-4.571219	-5.562166	278.5669	0	11.34	4003	0	0	5	5	0.5237607	-0.1483422	1	15	0.04	1200	-87.14978	40.92366	-91.39365
650707	-130	12	27	-4.551769	-5.403427	278.5487	0	11.34	4003	0	0	5	5	0.5237607	-0.1833206	1	15	0.04	1200	-87.25955	40.92366	-91.39365
650941	-133	10	-4	-4.524754	-5.107552	278.4994	0	11.34	4003	0	0	5	5	0.5237607	-0.2127958	1	15	0.04	1200	-84.64151	40.92366	-91.39365
651075	-144	11	23	-4.519476	-5.022463	278.4768	0	11.34	4002	0	0	5	5	0.5237607	-0.2158385	1	15	0.04	1200	-86.42105	40.92366	-91.39365
651152	-128	15	-8	-4.5285	-4.912694	278.4442	0	11.34	4003	0	0	5	5	0.5237607	-0.2193422	1	15	0.04	1200	-84.55573	40.92366	-91.39365
651264	-131	1	11	-4.53045	-4.865724	278.4293	0	11.34	4002	0	0	5	5	0.5237607	-0.2202685	1	15	0.04	1200	-85.38379	40.92367	-91.39365
651415	-135	5	10	-4.517385	-4.767654	278.3929	0	11.34	4003	0	0	5	5	0.5237607	-0.2249054	1	15	0.04	1200	-85.94077	40.92367	-91.39365
651566	-127	4	15	-4.50229	-4.691487	278.367	0	11.34	4003	0	0	5	5	0.5237607	-0.2268973	1	15	0.04	1200	-86.24252	40.92367	-91.39365
651641	-136	-1	11	-4.497648	-4.648793	278.3382	0	11.34	4003	0	0	5	5	0.5237607	-0.2277122	1	15	0.04	1200	-86.09857	40.92367	-91.39365
651735	-131	2	12	-4.494896	-4.618934	278.3167	0	11.34	4003	0	0	5	5	0.5237607	-0.2414273	1	15	0.04	1200	-85.63919	40.92367	-91.39365
651753	-131	1	15	-4.492929	-4.606341	278.3103	0	11.34	4003	0	0	5	5	0.5237607	-0.250436	1	15	0.04	1200	-85.55371	40.92367	-91.39365
651881	-129	11	11	-4.492604	-4.557749	278.2848	0	11.34	4003	0	0	5	5	0.5237607	-0.2633598	1	15	0.04	1200	-85.74597	40.92367	-91.39365
651982	-131	3	14	-4.487794	-4.542477	278.2621	0	11.34	4003	0	0	5	5	0.5237607	-0.2753779	1	15	0.04	1200	-85.79105	40.92367	-91.39365
652082	-132	7	13	-4.481014	-4.517283	278.233	0	11.34	4002	0	0	5	5	0.5237607	-0.2798888	1	15	0.04	1200	-85.73767	40.92367	-91.39365
652151	-125	5	9	-4.48017	-4.499922	278.2118	0	11.4	4004	0	0	5	5	0.5237607	-0.2731722	1	15	0.04	1200	-85.3457	40.92367	-91.39365
652243	-125	6	10	-4.470411	-4.484277	278.1928	0	11.4	4004	0	0	5	5	0.5237607	-0.2654245	1	15	0.04	1200	-85.30588	40.92367	-91.39365
652310	-142	9	14	-4.473946	-4.471885	278.1734	0	11.4	4003	0	0	5	5	0.5237607	-0.250702	1	15	0.04	1200	-85.2482	40.92367	-91.39365
652386	-134	10	17	-4.471874	-4.467245	278.1611	0	11.4	4003	0	0	5	5	0.5237607	-0.2461236	1	15	0.04	1200	-85.28619	40.92367	-91.39365
652532	-127	8	16	-4.460243	-4.451495	278.1333	0	11.4	4004	0	0	5	5	0.5237607	-0.2415443	1	15	0.04	1200	-85.1387	40.92367	-91.39365
652619	-125	1	13	-4.450274	-4.449636	278.1143	0	11.4	4003	0	0	5	5	0.5237607	-0.2403578	1	15	0.04	1200	-85.18619	40.92367	-91.39365
652783	-123	4	13	-4.440513	-4.436904	278.0779	0	11.4	4002	0	0	5	5	0.5237607	-0.2302637	1	15	0.04	1200	-85.50885	40.92367	-91.39365
652861	-114	4	10	-4.43996	-4.432448	278.0655	0	11.4	4003	0	0	5	5	0.5237607	-0.2230953	1	15	0.04	1200	-85.20978	40.92367	-91.39365
652956	-130	1	9	-4.433508	-4.429056	278.0475	0	11.4	4004	0	0	5	5	0.5237607	-0.2127858	1	15	0.04	1200	-85.51089	40.92368	-91.39365
653068	-122	14	13	-4.435337	-4.426675	278.0249	0	11.4	4003	0	0	5	5	0.5237607	-0.1959873	1	15	0.04	1200	-85.09845	40.92368	-91.39365
653126	-127	6	8	-4.436437	-4.425147	278.0194	0	11.4	4004	0	0	5	5	0.5237607	-0.1889865	1	15	0.04	1200	-85.09845	40.92368	-91.39365
653278	-125	3	13	-4.443902	-4.427207	277.9877	0	11.4	4002	0	0	5	5	0.5237607	-0.1697158	1	15	0.04	1200	-85.15033	40.92368	-91.39365
653374	-135	2	10	-4.447745	-4.429655	277.9689	0	11.4	4002	0	0	5	5	0.5237607	-0.1565289	1	15	0.04	1200	-85.07706	40.92368	-91.39365
653425	-129	6	13	-4.445362	-4.432649	277.9504	0	11.4	4004	0	0	5	5	0.5237607	-0.1491393	1	15	0.04	1200	-85.13226	40.92368	-91.39365
653503	-133	1	11	-4.442122	-4.432327	277.9376	0	11.4	4004	0	0	5	5	0.5237607	-0.1423032	1	15	0.04	1200	-85.49103	40.92368	-91.39365
653601	-130	4	9	-4.438647	-4.432686	277.9181	0	11.4	4003	0	0	5	5	0.5237607	-0.1423032	1	15	0.04	1200	-85.16348	40.92368	-91.39365
653754	-126	7	12	-4.425835	-4.429348	277.8872	0	11.4	4002	0	0	5	5	0.5237607	-0.1415701	1	15	0.04	1200	-85.50873	40.92368	-91.39365
653825	-121	8	14	-4.418662	-4.434897	277.8751	0	11.4	4002	0	0	5	5	0.5237607	-0.1442975	1	15	0.04	1200	-84.76816	40.92368	-91.39365
653953	-119	5	11	-4.420411	-4.444235	277.8489	0	11.4	4004	0	0	5	5	0.5237607	-0.1512293	1	15	0.04	1200	-85.20224	40.92368	-91.39365
654037	-127	6	8	-4.417959	-4.44211	277.8312	0	11.4	4002	0	0	5	5	0.5237607	-0.1553475	1	15	0.04	1200	-85.24957	40.92368	-91.39365
654106	-117	1	12	-4.418287	-4.434779	277.8145	0	11.4	4004	0	0	5	5	0.5237607	-0.1585575	1	15	0.04	1200	-85.14691	40.92368	-91.39365
654164	-125	12	10	-4.414518	-4.437589	277.8037	0	11.4	4003	0	0	5	5	0.5237607	-0.1615647	1	15	0.04	1200	-85.16153	40.92369	-91.39365
654226	-123	6	11	-4.416634	-4.436953	277.7976	0	11.4	4003	0	0	5	5	0.5237607	-0.1627644	1	15	0.04	1200	-85.16153	40.92369	-91.39365
654328	-121	6	8	-4.410918	-4.433814	277.7819	0	11.4	4002	0	0	5	5	0.5237607	-0.1589367	1	15	0.04	1200	-85.52008	40.92369	-91.39365
654516	-122	2	8	-4.408515	-4.42977	277.7456	0	11.4	4002	0	0	5	5	0.5237607	-0.1479107	1	15	0.04	1200	-85.13953	40.92369	-91.39365
654643	-136	7	8	-4.410122	-4.43008	277.723	0	11.4	4003	0	0	5	5	0.5237607	-0.1414706	1	15	0.04	1200	-84.79953	40.92369	-91.39365
654753	-129	7	9	-4.40562	-4.422054	277.701	0	11.34	4004	0	0	5	5	0.5237607	-0.1338416	1	15	0.04	1200	-84.77518	40.92369	-91.39365
654866	-126	3	10	-4.413746	-4.421777	277.6863	0	11.34	4002	0	0	5	5	0.5237607	-0.1251602	1	15	0.04	1200	-84.82748	40.92369	-91.39365
654985	-123	8	10	-4.413776	-4.413951	277.6657	0	11.34	4003	0	0	5	5	0.5237607	-0.103183	1	15	0.04	1200	-85.09424	40.92369	-91.39365
655067	-131	0	6	-4.413778	-4.416344	277.6559	0	11.34	4002	0	0	5	5	0.5237607	-0.08738905	1	15	0.04	1200	-85.09424	40.92369	-91.39365
655127	-124	3	13	-4.410343	-4.414135	277.6455	0	11.34	4002	0	0	5	5	0.5237607	-0.07759231	1	15	0.04	1200	-85.07651	40.92369	-91.39365
655230	-125	11	14	-4.404329	-4.412661	277.6347	0	11.34	4002	0	0	5	5	0.5237607	-0.05888185	1	15	0.04	1200	-85.44901	40.92369	-91.39365
655363	-127	1	14	-4.396248	-4.418766	277.6079	0	11.34	4002	0	0	5	5	0.5237607	-0.04024991	1	15	0.04	1200	-85.49207	40.92369	-91.39365
655515	-138	4	9	-4.385909	-4.411444	277.584	0	11.34	4003	0	0	5	5	0.5237607	-0.03984354	1	15	0.04	1200	-85.11426	40.92369	-91.39365
655600	-127	8	13	-4.384074	-4.41512	277.5677	0	11.46	4004	0	0	5	5	0.5237607	-0.05410545	1	15	0.04	1200	-84.76236	40.92369	-91.39365
655711	-121	-2	10	-4.381864	-4.415384	277.5525	0	11.46	4003	0	0	5	5	0.5237607	-0.06357315	1	15	0.04	1200	-85.44763	40.92369	-91.39365
655772	-126	5	12	-4.386589	-4.416423	277.5481	0	11.46	4004	0	0	5	5	0.5237607	-0.06553364	1	15	0.04	1200	-85.44763	40.92369	-91.39365
655885	-120	3	11	-4.381124	-4.421605	277.5226	0	11.46	4003	0	0	5	5	0.5237607	-0.07291708	1	15	0.04	1200	-85.08975	40.92369	-91.39365
655970	-129	13	11	-4.377255	-4.425011	277.5085	0	11.46	4002	0	0	5	5	0.5237607	-0.08085941	1	15	0.04	1200	-85.13232	40.9237	-91.39365
656052	-122	8	9	-4.373699	-4.420398	277.4917	0	11.46	4003	0	0	5	5	0.5237607	-0.08591827	1	15	0.04	1200	-84.83655	40.9237	-91.39365
656101	-120	10	7	-4.374543	-4.421041	277.487	0	11.46	4002	0	0	5	5	0.5237607	-0.08920057	1	15	0.04	1200	-84.83655	40.9237	-91.39365
656199	-124	3	9	-4.379077	-4.429481	277.466	0	11.46	4003	0	0	5	5	0.5237607	-0.09361143	1	15	0.04	1200	-85.19565	40.9237	-91.39365
656296	-122	5	7	-4.377884	-4.432132	277.457	0	11.46	4003	0	0	5	5	0.5237607	-0.0971984	1	15	0.04	1200	-85.11755	40.9237	-91.39365
656416	-123	1	12	-4.372425	-4.431624	277.4417	0	11.46	4003	0	0	5	5	0.5237607	-0.1048684	1	15	0.04	1200	-85.49399	40.9237	-91.39365
656555	-127	3	9	-4.387948	-4.439985	277.4148	0	11.4	4003	0	0	5	5	0.5237607	-0.1152482	1	15	0.04	1200	-84.86871	40.9237	-91.39365
656604	-120	10	10	-4.387	-4.437336	277.4048	0	11.4	4004	0	0	5	5	0.5237607	-0.1146056	1	15	0.04	1200	-84.86948	40.9237	-91.39365
656672	-120	10	8	-4.381656	-4.435592	277.3957	0	11.4	4002	0	0	5	5	0.5237607	-0.1113799	1	15	0.04	1200	-85.2399	40.9237	-91.39365
656753	-130	-1	10	-4.378815	-4.435332	277.3847	0	11.4	4003	0	0	5	5	0.5237607	-0.1156385	1	15	0.04	1200	-84.78302	40.9237	-91.39365
656971	-131	4	8	-4.370224	-4.438069	277.3555	0	11.4	4003	0	0	5	5	0.5237607	-0.1395906	1	15	0.04	1200	-84.82452	40.9237	-91.39365
657123	-123	9	9	-4.371518	-4.441448	277.3306	0	11.4	4003	0	0	5	5	0.5237607	-0.1525127	1	15	0.04	1200	-85.17197	40.9237	-91.39365
657253	-124	5	10	-4.374299	-4.431611	277.3107	0	11.4	4003	0	0	5	5	0.5237607	-0.1586812	1	15	0.04	1200	-85.12048	40.9237	-91.39365
657309	-115	2	9	-4.367579	-4.434824	277.294	0	11.4	4003	0	0	5	5	0.5237607	-0.1619748	1	15	0.04	1200	-85.12646	40.9237	-91.39365
657461	-131	9	14	-4.362041	-4.439515	277.279	0	11.46	4003	0	0	5	5	0.5237607	-0.1699967	1	15	0.04	1200	-84.79166	40.9237	-91.39365
657578	-122	2	7	-4.366907	-4.44214	277.254	0	11.46	4003	0	0	5	5	0.5237607	-0.1774832	1	15	0.04	1200	-85.17606	40.9237	-91.39365
657637	-115	2	8	-4.369302	-4.44118	277.2486	0	11.46	4003	0	0	5	5	0.5237607	-0.1807943	1	15	0.04	1200	-85.17606	40.9237	-91.39365
657886	-133	-5	14	-4.356606	-4.444489	277.2148	0	11.46	4003	0	0	5	5	0.5237607	-0.2102361	1	15	0.04	1200	-84.81543	40.95309	101.0669
657990	-124	1	7	-4.356287	-4.439866	277.1911	0	11.46	4003	0	0	5	5	0.5237607	-0.2140956	1	15	0.04	1200	-84.83313	40.95309	101.0669
658079	-126	6	10	-4.355221	-4.439147	277.1824	0	11.46	4002	0	0	5	5	0.5237607	-0.220098	1	15	0.04	1200	-85.17136	40.95309	101.0669
658135	-124	5	11	-4.355979	-4.439876	277.1785	0	11.46	4003	0	0	5	5	0.5237607	-0.2272245	1	15	0.04	1200	-85.17136	40.95309	101.0669
658264	-114	5	9	-4.34867	-4.441713	277.153	0	11.51	4002	0	0	5	5	0.5237607	-0.2327266	1	15	0.04	1200	-85.22809	40.95309	101.0669
658424	-127	1	11	-4.340967	-4.438508	277.1275	0	11.51	4002	0	0	5	5	0.5237607	-0.2439456	1	15	0.04	1200	-85.21988	40.9335	-98.82293
658462	-124	9	9	-4.340801	-4.43963	277.1209	0	11.51	4003	0	0	5	5	0.5237607	-0.2554244	1	15	0.04	1200	-85.16888	40.9286	-95.10829
658533	-118	1	8	-4.340316	-4.440546	277.1112	0	11.51	4003	0	0	5	5	0.5237607	-0.2614147	1	15	0.04	1200	-85.11374	40.92371	-91.39365
658743	-119	4	10	-4.335336	-4.455192	277.0818	0	11.51	4002	0	0	5	5	0.5237607	-0.268253	1	15	0.04	1200	-84.87784	40.92371	-91.39365
658805	-115	8	7	-4.330475	-4.454237	277.0732	0	11.51	4004	0	0	5	5	0.5237607	-0.2677796	1	15	0.04	1200	-84.85941	40.92371	-91.39365
658883	-115	8	11	-4.326846	-4.462932	277.0632	0	11.51	4003	0	0	5	5	0.5237607	-0.2612723	1	15	0.04	1200	-85.20621	40.92371	-91.39365
658923	-124	8	7	-4.329047	-4.47225	277.0487	0	11.51	4003	0	0	5	5	0.5237607	-0.2557001	1	15	0.04	1200	-84.81052	40.92371	-91.39365
659077	-121	6	12	-4.330665	-4.477192	277.0307	0	11.51	4004	0	0	5	5	0.5237607	-0.2388298	1	15	0.04	1200	-84.94962	40.92371	-91.39365
659124	-119	8	7	-4.331776	-4.476948	277.0254	0	11.51	4003	0	0	5	5	0.5237607	-0.2373493	1	15	0.04	1200	-84.94962	40.92371	-91.39365
