time(ms)	gyro_x(deg/s)	gyro_y(deg/s)	gyro_z(deg/s)	orientation_roll(deg)	orientation_pitch(deg)	orientation_yaw(deg)	throttle	battery(V)	loop_time(uS)	pid_output_roll	pid_output_pitch	pid_output_yaw	pid_output_throttle	ultrasonic_alt	baro_alt	flight_mode	p_gain_altitude	i_gain_altitude	d_gain_altitude	compass_heading	latitude	longitude
333467	36	-3	-2	0.4708833	-0.05099723	1.605435	0	11.91	4003	0	0	5	5	0.6873717	0.1273059	1	15	0.04	1900	-1.820282	40.9236	-91.39362
333713	39	0	-3	0.476463	-0.04611999	1.623776	0	11.91	4003	0	0	5	5	0.6873717	0.1405325	1	15	0.04	1900	-1.60144	40.9236	-91.39362
333771	30	-2	-3	0.4722527	-0.05103792	1.62775	0	11.91	4004	0	0	5	5	0.6873717	0.1447537	1	15	0.04	1900	-1.60144	40.9236	-91.39362
333951	33	-5	-7	0.477833	-0.04654473	1.636371	0	11.91	4002	0	0	5	5	0.6873717	0.1596323	1	15	0.04	1900	-1.610565	40.9236	-91.39362
334100	34	-2	-2	0.4786884	-0.04558551	1.64383	0	11.91	4004	0	0	5	5	0.6873717	0.1655506	1	15	0.04	1900	-1.601929	40.9236	-91.39362
334174	34	0	-8	0.4858679	-0.04214143	1.651289	0	11.91	4002	0	0	5	5	0.6873717	0.1652397	1	15	0.04	1900	-1.831848	40.9236	-91.39362
334336	32	0	3	0.4916514	-0.04612783	1.659664	0	11.91	4003	0	0	5	5	0.6873717	0.1605706	1	15	0.04	1900	-1.83493	40.9236	-91.39362
334383	39	2	-5	0.4857826	-0.04732058	1.666634	0	11.91	4004	0	0	5	5	0.6873717	0.160137	1	15	0.04	1900	-2.058777	40.9236	-91.39362
334545	30	0	2	0.4855092	-0.05425114	1.673482	0	11.91	4003	0	0	5	5	0.6873717	0.1638666	1	15	0.04	1900	-1.611115	40.9236	-91.39362
334634	38	1	-4	0.4812512	-0.05471527	1.678067	0	11.91	4003	0	0	5	5	0.6873717	0.1633997	1	15	0.04	1900	-1.612549	40.9236	-91.39362
334749	37	-4	-1	0.4792315	-0.05793177	1.687482	0	11.91	4004	0	0	5	5	0.6873717	0.16085	1	15	0.04	1900	-1.825653	40.9236	-91.39362
334839	38	-4	-1	0.482995	-0.05794931	1.692924	0	11.91	4003	0	0	5	5	0.6873717	0.1623882	1	15	0.04	1900	-1.61792	40.9236	-91.39362
334930	38	-2	-2	0.4867911	-0.05772061	1.699711	0	11.91	4002	0	0	5	5	0.6873717	0.1617629	1	15	0.04	1900	-1.842712	40.9236	-91.39362
335040	27	0	-4	0.4864912	-0.0553195	1.705641	0	11.97	4003	0	0	5	5	0.6873717	0.1623423	1	15	0.04	1900	-1.622467	40.9236	-91.39362
335088	26	-5	-5	0.4832152	-0.05545462	1.707414	0	11.97	4003	0	0	5	5	0.6873717	0.1647146	1	15	0.04	1900	-1.624359	40.9236	-91.39362
335315	32	1	-3	0.4778915	-0.05920262	1.717686	0	11.97	4004	0	0	5	5	0.6873717	0.1917735	1	15	0.04	1900	-1.603302	40.9236	-91.39362
335441	35	1	-3	0.4694072	-0.05330372	1.726245	0	11.97	4004	0	0	5	5	0.6873717	0.196681	1	15	0.04	1900	-1.589203	40.9236	-91.39362
335564	34	0	-3	0.4731256	-0.05174158	1.730341	0	11.97	4002	0	0	5	5	0.6873717	0.2043964	1	15	0.04	1900	-1.603455	40.9236	-91.39362
335616	31	1	-1	0.4747105	-0.04967888	1.734254	0	11.97	4004	0	0	5	5	0.6873717	0.2040801	1	15	0.04	1900	-1.82135	40.9236	-91.39362
335757	34	0	0	0.4808379	-0.04827306	1.741529	0	11.97	4003	0	0	5	5	0.6873717	0.1920885	1	15	0.04	1900	-1.828064	40.9236	-91.39362
335861	41	1	-11	0.4781394	-0.05109179	1.747154	0	11.97	4004	0	0	5	5	0.6873717	0.1843769	1	15	0.04	1900	-1.607605	40.9236	-91.39362
335909	33	6	-3	0.4776919	-0.04917389	1.748805	0	11.97	4004	0	0	5	5	0.6873717	0.1843363	1	15	0.04	1900	-1.604675	40.9236	-91.39362
335980	33	-1	-6	0.4747666	-0.04819641	1.754063	0	11.97	4002	0	0	5	5	0.6873717	0.1882809	1	15	0.04	1900	-1.603943	40.9236	-91.39362
336178	34	7	-7	0.4763302	-0.05341945	1.760911	0	11.97	4003	0	0	5	5	0.6873717	0.1882558	1	15	0.04	1900	-1.824005	40.9236	-91.39362
336334	38	0	-2	0.4711947	-0.06134128	1.771855	0	11.97	4002	0	0	5	5	0.6873717	0.1805297	1	15	0.04	1900	-1.599487	40.9236	-91.39362
336470	36	-3	-6	0.4701678	-0.06693293	1.77913	0	11.97	4003	0	0	5	5	0.6873717	0.1850104	1	15	0.04	1900	-1.59256	40.9236	-91.39362
336695	31	1	-6	0.4626739	-0.06627461	1.787444	0	11.97	4003	0	0	5	5	0.6873717	0.2042732	1	15	0.04	1900	-1.579315	40.9236	-91.39362
336821	28	0	-2	0.4452179	-0.06132038	1.795392	0	11.97	4003	0	0	5	5	0.6873717	0.2160934	1	15	0.04	1900	-1.551361	40.9236	-91.39362
336903	36	2	-6	0.4458594	-0.06018762	1.798632	0	11.97	4002	0	0	5	5	0.6873717	0.2198234	1	15	0.04	1900	-1.551361	40.9236	-91.39362
337036	26	-2	-3	0.4469999	-0.05388005	1.805235	0	11.97	4002	0	0	5	5	0.6873717	0.223254	1	15	0.04	1900	-1.777466	40.9236	-91.39362
337071	27	-1	-3	0.4459068	-0.05345899	1.807436	0	11.97	4003	0	0	5	5	0.6873717	0.2264942	1	15	0.04	1900	-1.779297	40.9236	-91.39362
337213	30	0	-4	0.4432013	-0.0517613	1.811839	0	11.97	4004	0	0	5	5	0.6873717	0.2259462	1	15	0.04	1900	-1.556183	40.9236	-91.39362
337292	29	-2	-4	0.4454527	-0.05423911	1.816119	0	11.97	4003	0	0	5	5	0.6873717	0.2152642	1	15	0.04	1900	-1.551422	40.9236	-91.39362
337413	27	5	0	0.4444767	-0.05248302	1.820398	0	11.97	4003	0	0	5	5	0.6873717	0.2038235	1	15	0.04	1900	-1.559113	40.9236	-91.39362
337470	32	3	-8	0.4431202	-0.05564685	1.824066	0	11.97	4003	0	0	5	5	0.6873717	0.200759	1	15	0.04	1900	-1.553009	40.9236	-91.39362
337597	32	-1	-3	0.4447178	-0.0530507	1.83067	0	11.97	4004	0	0	5	5	0.6873717	0.1890943	1	15	0.04	1900	-1.766632	40.9236	-91.39362
337677	30	3	-1	0.4429038	-0.0570806	1.834339	0	11.97	4003	0	0	5	5	0.6873717	0.1831853	1	15	0.04	1900	-1.559174	40.9236	-91.39362
337784	32	0	-2	0.4425965	-0.06693912	1.842592	0	11.91	4004	0	0	5	5	0.6873717	0.1757373	1	15	0.04	1900	-1.55304	40.9236	-91.39362
337904	31	-3	-3	0.4461665	-0.0679249	1.844549	0	11.91	4002	0	0	5	5	0.6873717	0.1703427	1	15	0.04	1900	-1.774323	40.9236	-91.39362
337957	36	1	-7	0.4496973	-0.06805682	1.850601	0	11.91	4003	0	0	5	5	0.6873717	0.1632072	1	15	0.04	1900	-1.564362	40.9236	-91.39362
338138	34	3	0	0.4460586	-0.06069377	1.853903	0	11.91	4003	0	0	5	5	0.6873717	0.1455032	1	15	0.04	1900	-1.779053	40.9236	-91.39362
338223	30	-2	0	0.4453795	-0.05907182	1.85855	0	11.91	4002	0	0	5	5	0.6873717	0.1413154	1	15	0.04	1900	-1.783752	40.9236	-91.39362
338289	33	1	1	0.4449566	-0.06475903	1.860812	0	11.91	4004	0	0	5	5	0.6873717	0.1405185	1	15	0.04	1900	-1.564423	40.9236	-91.39362
338378	31	0	1	0.4462105	-0.07076892	1.863197	0	11.91	4003	0	0	5	5	0.6873717	0.1341502	1	15	0.04	1900	-1.783264	40.9236	-91.39362
338455	30	1	1	0.4485322	-0.07517445	1.866498	0	11.91	4002	0	0	5	5	0.6873717	0.129931	1	15	0.04	1900	-1.561371	40.9236	-91.39362
338530	28	0	-3	0.4482368	-0.07152089	1.871206	0	11.91	4004	0	0	5	5	0.6873717	0.1298203	1	15	0.04	1900	-1.561127	40.9236	-91.39362
338651	35	-3	-6	0.450689	-0.0701058	1.874324	0	11.97	4003	0	0	5	5	0.6873717	0.131033	1	15	0.04	1900	-1.781921	40.9236	-91.39362
338851	29	1	-9	0.443542	-0.070881	1.883739	0	11.97	4003	0	0	5	5	0.6873717	0.1323895	1	15	0.04	1900	-1.784515	40.9236	-91.39362
339027	27	-2	-3	0.4371759	-0.06726802	1.893399	0	11.97	4004	0	0	5	5	0.6873717	0.1215036	1	15	0.04	1900	-1.545166	40.9236	-91.39362
339078	23	-4	1	0.4391873	-0.06459644	1.895295	0	11.97	4004	0	0	5	5	0.6873717	0.1194864	1	15	0.04	1900	-1.547211	40.9236	-91.39362
339230	30	2	-2	0.4310561	-0.05737887	1.89933	0	11.97	4004	0	0	5	5	0.6873717	0.1276633	1	15	0.04	1900	-1.543701	40.9236	-91.39362
339296	31	-2	-7	0.4305749	-0.06141153	1.903304	0	11.97	4004	0	0	5	5	0.6873717	0.1380888	1	15	0.04	1900	-1.539703	40.9236	-91.39362
339493	32	-1	0	0.4372933	-0.06085345	1.91541	0	11.97	4003	0	0	5	5	0.6873717	0.1444263	1	15	0.04	1900	-1.540955	40.9236	-91.39362
339608	25	0	-2	0.4447457	-0.05966924	1.91969	0	11.97	4004	0	0	5	5	0.6873717	0.1452084	1	15	0.04	1900	-1.770782	40.9236	-91.39362
339636	29	0	-4	0.4429323	-0.05975196	1.920851	0	11.97	4003	0	0	5	5	0.6873717	0.1426525	1	15	0.04	1900	-1.773499	40.9236	-91.39362
339799	34	2	-6	0.4397323	-0.07185611	1.925681	0	11.97	4002	0	0	5	5	0.6873717	0.1339326	1	15	0.04	1900	-1.552094	40.9236	-91.39362
339855	31	-1	-7	0.4395395	-0.07321884	1.928127	0	11.97	4002	0	0	5	5	0.6873717	0.1350267	1	15	0.04	1900	-1.551239	40.9236	-91.39362
339957	32	-2	-1	0.4353863	-0.06561527	1.933935	0	11.97	4002	0	0	5	5	0.6873717	0.1273052	1	15	0.04	1900	-1.55072	40.9236	-91.39362
340086	34	-5	-8	0.439844	-0.06569856	1.939438	0	11.97	4004	0	0	5	5	0.6873717	0.1140883	1	15	0.04	1900	-1.766846	40.9236	-91.39362
340219	30	-8	-2	0.4369057	-0.07022176	1.948365	0	11.97	4003	0	0	5	5	0.6873717	0.1089069	1	15	0.04	1900	-1.545471	40.9236	-91.39362
340313	25	-1	-2	0.4297394	-0.06371856	1.949466	0	11.97	4003	0	0	5	5	0.6873717	0.1027993	1	15	0.04	1900	-1.545013	40.9236	-91.39362
340399	38	-4	-4	0.4370925	-0.06248401	1.954663	0	11.91	4003	0	0	5	5	0.6873717	0.1010244	1	15	0.04	1900	-1.759583	40.9236	-91.39362
340447	34	0	-1	0.4402027	-0.06198873	1.95882	0	11.91	4003	0	0	5	5	0.6873717	0.1002794	1	15	0.04	1900	-1.766296	40.9236	-91.39362
340502	30	1	1	0.4405345	-0.06487799	1.960776	0	11.91	4003	0	0	5	5	0.6873717	0.10036	1	15	0.04	1900	-1.766296	40.9236	-91.39362
340673	29	1	-3	0.4409115	-0.06309146	1.968907	0	11.91	4002	0	0	5	5	0.6873717	0.09786564	1	15	0.04	1900	-1.569794	40.9236	-91.39362
340717	30	-1	0	0.4373693	-0.06252992	1.972759	0	11.91	4003	0	0	5	5	0.6873717	0.09384255	1	15	0.04	1900	-1.550507	40.9236	-91.39362
340856	32	-5	-4	0.4413869	-0.06319512	1.9771	0	11.91	4003	0	0	5	5	0.6873717	0.08278865	1	15	0.04	1900	-1.550476	40.9236	-91.39362
341002	33	2	-1	0.4436048	-0.06863488	1.982969	0	11.91	4003	0	0	5	5	0.6873717	0.07575503	1	15	0.04	1900	-1.545471	40.9236	-91.39362
341065	32	5	-5	0.4451308	-0.07239101	1.988411	0	11.91	4004	0	0	5	5	0.6873717	0.07547722	1	15	0.04	1900	-1.785126	40.9236	-91.39362
341214	31	-5	-4	0.4472672	-0.06649046	1.992446	0	11.91	4004	0	0	5	5	0.6873717	0.07512707	1	15	0.04	1900	-1.558807	40.9236	-91.39362
341356	31	8	-4	0.441301	-0.06535651	2.00076	0	11.91	4003	0	0	5	5	0.6873717	0.07099018	1	15	0.04	1900	-1.551147	40.9236	-91.39362
341498	22	-1	-4	0.4422918	-0.06314496	2.007607	0	11.91	4002	0	0	5	5	0.6873717	0.06559236	1	15	0.04	1900	-1.766876	40.9236	-91.39362
341641	30	-3	-2	0.4515411	-0.06148687	2.013293	0	11.91	4004	0	0	5	5	0.6873717	0.05976448	1	15	0.04	1900	-1.56427	40.9236	-91.39362
341688	27	-2	0	0.4518301	-0.06356791	2.013537	0	11.91	4004	0	0	5	5	0.6873717	0.05828308	1	15	0.04	1900	-1.56427	40.9236	-91.39362
341809	26	-6	-3	0.4509474	-0.05957216	2.018857	0	11.91	4004	0	0	5	5	0.6873717	0.06051736	1	15	0.04	1900	-1.790436	40.9236	-91.39362
341962	28	-1	-2	0.4403998	-0.05523152	2.025337	0	11.91	4002	0	0	5	5	0.6873717	0.06826856	1	15	0.04	1900	-1.767883	40.9236	-91.39362
342005	33	2	-7	0.4393888	-0.05311761	2.028027	0	11.91	4003	0	0	5	5	0.6873717	0.07095861	1	15	0.04	1900	-1.552277	40.9236	-91.39362
342217	24	1	-4	0.4282322	-0.05527117	2.040622	0	11.91	4003	0	0	5	5	0.6873717	0.07429883	1	15	0.04	1900	-1.53775	40.9236	-91.39362
342337	29	2	2	0.4263713	-0.04638609	2.046612	0	11.91	4004	0	0	5	5	0.6873717	0.08021198	1	15	0.04	1900	-1.52652	40.9236	-91.39362
342491	24	0	-5	0.4188296	-0.04730367	2.051748	0	11.91	4003	0	0	5	5	0.6873717	0.08048061	1	15	0.04	1900	-1.528534	40.9236	-91.39362
342578	29	-1	-6	0.422813	-0.05213637	2.056639	0	11.91	4003	0	0	5	5	0.6873717	0.08208887	1	15	0.04	1900	-1.740479	40.9236	-91.39362
342649	22	2	5	0.4263689	-0.04871992	2.059819	0	11.91	4003	0	0	5	5	0.6873717	0.08867797	1	15	0.04	1900	-1.523773	40.9236	-91.39362
342749	24	2	-11	0.4167376	-0.0511785	2.065077	0	11.91	4004	0	0	5	5	0.6873717	0.09350138	1	15	0.04	1900	-1.507263	40.9236	-91.39362
342876	23	-2	-8	0.4159982	-0.05494523	2.072107	0	11.91	4003	0	0	5	5	0.6873717	0.09769569	1	15	0.04	1900	-1.517303	40.9236	-91.39362
342906	29	-2	-5	0.4114547	-0.05536745	2.073452	0	11.91	4003	0	0	5	5	0.6873717	0.0971417	1	15	0.04	1900	-1.517303	40.9236	-91.39362
343093	24	1	-4	0.4058107	-0.06155345	2.082377	0	11.91	4004	0	0	5	5	0.6873717	0.096797	1	15	0.04	1900	-1.506317	40.9236	-91.39362
343199	37	5	-1	0.4112471	-0.06290334	2.084822	0	11.97	4002	0	0	5	5	0.6873717	0.095971	1	15	0.04	1900	-1.721863	40.9236	-91.39362
343316	24	7	0	0.4100929	-0.05422501	2.087818	0	11.97	4004	0	0	5	5	0.6873717	0.0955614	1	15	0.04	1900	-1.501038	40.9236	-91.39362
343414	30	0	-3	0.4085009	-0.0483355	2.093503	0	11.97	4002	0	0	5	5	0.6873717	0.09635983	1	15	0.04	1900	-1.505402	40.9236	-91.39362
343581	22	-3	-1	0.4070092	-0.05561703	2.098698	0	11.97	4002	0	0	5	5	0.6873717	0.09678173	1	15	0.04	1900	-1.499542	40.9236	-91.39362
343644	35	0	-2	0.4088308	-0.05687651	2.103039	0	11.97	4004	0	0	5	5	0.6873717	0.09310379	1	15	0.04	1900	-1.500305	40.9236	-91.39362
343779	29	0	-2	0.4122196	-0.053778	2.113249	0	11.97	4002	0	0	5	5	0.6873717	0.08905218	1	15	0.04	1900	-1.729462	40.9236	-91.39362
344029	29	0	-2	0.4127278	-0.05378543	2.123031	0	11.97	4002	0	0	5	5	0.6873717	0.0948853	1	15	0.04	1900	-1.730072	40.9236	-91.39362
344156	27	-4	-5	0.4209574	-0.05002909	2.128961	0	11.97	4002	0	0	5	5	0.6873717	0.1087627	1	15	0.04	1900	-1.517975	40.9236	-91.39362
344327	26	-5	-9	0.4196632	-0.05015986	2.137765	0	11.97	4003	0	0	5	5	0.6873717	0.1262968	1	15	0.04	1900	-1.517303	40.9236	-91.39362
344481	31	1	-3	0.4206345	-0.05370664	2.144062	0	11.97	4003	0	0	5	5	0.6873717	0.1496708	1	15	0.04	1900	-1.740479	40.9236	-91.39362
344544	32	-6	0	0.424098	-0.05688979	2.14608	0	11.97	4003	0	0	5	5	0.6873717	0.1587531	1	15	0.04	1900	-1.739746	40.9236	-91.39362
344607	35	-7	-3	0.4288925	-0.0519641	2.151032	0	11.97	4002	0	0	5	5	0.6873717	0.1770884	1	15	0.04	1900	-1.535675	40.9236	-91.39362
344674	26	0	-2	0.4237328	-0.0488881	2.153477	0	11.97	4004	0	0	5	5	0.6873717	0.1870811	1	15	0.04	1900	-1.52771	40.9236	-91.39362
344840	25	0	-2	0.4198503	-0.0490669	2.158184	0	11.97	4003	0	0	5	5	0.6873717	0.2001774	1	15	0.04	1900	-1.742188	40.9236	-91.39362
345000	32	2	-2	0.4187423	-0.0527678	2.163626	0	11.91	4004	0	0	5	5	0.6873717	0.2131044	1	15	0.04	1900	-1.511627	40.9236	-91.39362
345152	12	-2	0	0.4224477	-0.0598877	2.171021	0	11.91	4004	0	0	5	5	0.6873717	0.2050559	1	15	0.04	1900	-1.515442	40.9236	-91.39362
345226	21	-7	2	0.4190229	-0.0528938	2.174079	0	11.91	4002	0	0	5	5	0.6873717	0.2011985	1	15	0.04	1900	-1.521393	40.9236	-91.39362
345297	18	1	-6	0.4096705	-0.05114545	2.18111	0	11.91	4004	0	0	5	5	0.6873717	0.1943274	1	15	0.04	1900	-1.715851	40.9236	-91.39362
345407	30	1	0	0.4175407	-0.05077663	2.187224	0	11.91	4003	0	0	5	5	0.6873717	0.1945318	1	15	0.04	1900	-1.525238	40.9236	-91.39362
345482	27	-3	-5	0.415718	-0.05354373	2.193276	0	11.91	4004	0	0	5	5	0.6873717	0.1945812	1	15	0.04	1900	-1.723633	40.9236	-91.39362
345598	45	8	-9	0.3966737	-0.05797964	2.200001	0	11.91	4002	0	0	5	5	0.6873717	0.196407	1	15	0.04	1900	-1.72348	40.9236	-91.39362
345643	37	-1	-10	0.4278301	-0.07207137	2.205564	0	11.91	4004	0	0	5	5	0.6873717	0.1968238	1	15	0.04	1900	-1.49234	40.9236	-91.39362
345766	27	-1	-5	0.4396661	-0.08603785	2.212595	0	11.91	4003	0	0	5	5	0.6873717	0.2073394	1	15	0.04	1900	-1.539246	40.9236	-91.39362
345880	21	1	1	0.4428904	-0.08426448	2.216508	0	12.02	4003	0	0	5	5	0.6873717	0.2183457	1	15	0.04	1900	-1.554474	40.9236	-91.39362
346008	29	-2	-1	0.4461059	-0.08486146	2.218158	0	12.02	4002	0	0	5	5	0.6873717	0.2241078	1	15	0.04	1900	-1.556427	40.9236	-91.39362
346060	32	-5	-2	0.4495743	-0.08406893	2.21932	0	12.02	4003	0	0	5	5	0.6873717	0.2281428	1	15	0.04	1900	-1.556427	40.9236	-91.39362
346186	28	3	0	0.4552202	-0.08303868	2.225189	0	12.02	4002	0	0	5	5	0.6873717	0.2360024	1	15	0.04	1900	-1.793945	40.9236	-91.39362
346268	30	-3	1	0.4609105	-0.09110653	2.228063	0	12.02	4003	0	0	5	5	0.6873717	0.2320593	1	15	0.04	1900	-1.564636	40.9236	-91.39362
346374	29	-1	-6	0.4621541	-0.09425406	2.234361	0	12.02	4003	0	0	5	5	0.6873717	0.2201766	1	15	0.04	1900	-1.592987	40.9236	-91.39362
346502	347	-361	31	0.321938	-0.1837783	2.234915	0	12.02	4003	0	0	5	5	0.6873717	0.2186569	1	15	0.04	1900	-1.655609	40.9236	-91.39362
346557	119	-63	44	0.4272657	-0.0533779	2.257841	0	12.02	4004	0	0	5	5	0.6873717	0.2213478	1	15	0.04	1900	-1.655609	40.92361	-91.39362
346693	-22	98	-71	0.447092	-0.09958953	2.264751	0	12.02	4003	0	0	5	5	0.6873717	0.2299404	1	15	0.04	1900	-1.53476	40.92361	-91.39362
346729	140	-120	73	0.1994233	-0.3576365	2.233571	0	11.97	4004	0	0	5	5	0.6873717	0.2309653	1	15	0.04	1900	-1.834442	40.92361	-91.39362
346851	77	-7	34	0.1701442	-0.2841564	2.258642	0	11.97	4002	0	0	5	5	0.6873717	0.2319323	1	15	0.04	1900	-1.579987	40.92361	-91.39362
346926	59	42	-35	0.1612759	-0.3634542	2.264633	0	11.97	4003	0	0	5	5	0.6873717	0.2309681	1	15	0.04	1900	-1.747131	40.92361	-91.39362
347115	117	-2	11	0.3441306	-0.06441016	2.291711	0	11.97	4004	0	0	5	5	0.6873717	0.2421707	1	15	0.04	1900	-1.653595	40.92361	-91.39362
347257	-4	56	-15	0.5192022	-0.0912908	2.290486	0	11.97	4003	0	0	5	5	0.6873717	0.2600925	1	15	0.04	1900	-1.657715	40.9236	-91.39362
347356	-131	8	-19	0.3305148	-0.264434	2.364032	0	11.97	4003	0	0	5	5	0.6873717	0.2720846	1	15	0.04	1900	-1.567413	40.9236	-91.39362
347536	95	-7	-95	0.2863996	-0.1836535	2.501711	0	11.97	4003	0	0	5	5	0.6873717	0.2823709	1	15	0.04	1900	-1.646301	40.92358	-91.39361
347718	-70	-22	-17	0.1124681	-0.1595789	3.909431	0	11.91	4002	0	0	5	5	0.6873717	0.290014	1	15	0.04	1900	-2.64328	40.92358	-91.39361
347834	66	-37	-24	0.01151838	-0.1332313	3.979796	0	11.91	4003	0	0	5	5	0.6873717	0.3037833	1	15	0.04	1900	-2.67157	40.92358	-91.39361
347974	96	-35	8	0.08044578	-0.02829413	3.976862	0	11.91	4002	0	0	5	5	0.6873717	0.3246729	1	15	0.04	1900	-2.700745	40.92357	-91.39361
348009	96	-35	8	0.08044578	-0.02829413	3.976862	0	11.91	4002	0	0	5	5	0.6873717	0.3246729	1	15	0.04	1900	-2.700745	40.92357	-91.39361
348078	96	-35	8	0.08044578	-0.02829413	3.976862	0	11.91	4002	0	0	5	5	0.6873717	0.3246729	1	15	0.04	1900	-2.700745	40.92357	-91.39361
348165	96	-35	8	0.08044578	-0.02829413	3.976862	0	11.91	4002	0	0	5	5	0.6873717	0.3246729	1	15	0.04	1900	-2.700745	40.92357	-91.39361
348256	96	-35	8	0.08044578	-0.02829413	3.976862	0	11.91	4002	0	0	5	5	0.6873717	0.3246729	1	15	0.04	1900	-2.700745	40.92357	-91.39361
348346	96	-35	8	0.08044578	-0.02829413	3.976862	0	11.91	4002	0	0	5	5	0.6873717	0.3246729	1	15	0.04	1900	-2.700745	40.92357	-91.39361
348434	96	-35	8	0.08044578	-0.02829413	3.976862	0	11.91	4002	0	0	5	5	0.6873717	0.3246729	1	15	0.04	1900	-2.700745	40.92357	-91.39361
348524	96	-35	8	0.08044578	-0.02829413	3.976862	0	11.91	4002	0	0	5	5	0.6873717	0.3246729	1	15	0.04	1900	-2.700745	40.92357	-91.39361
348616	96	-35	8	0.08044578	-0.02829413	3.976862	0	11.91	4002	0	0	5	5	0.6873717	0.3246729	1	15	0.04	1900	-2.700745	40.92357	-91.39361
348708	96	-35	8	0.08044578	-0.02829413	3.976862	0	11.91	4002	0	0	5	5	0.6873717	0.3246729	1	15	0.04	1900	-2.700745	40.92357	-91.39361
348799	96	-35	8	0.08044578	-0.02829413	3.976862	0	11.91	4002	0	0	5	5	0.6873717	0.3246729	1	15	0.04	1900	-2.700745	40.92357	-91.39361
348890	96	-35	8	0.08044578	-0.02829413	3.976862	0	11.91	4002	0	0	5	5	0.6873717	0.3246729	1	15	0.04	1900	-2.700745	40.92357	-91.39361
348981	96	-35	8	0.08044578	-0.02829413	3.976862	0	11.91	4002	0	0	5	5	0.6873717	0.3246729	1	15	0.04	1900	-2.700745	40.92357	-91.39361
349062	96	-35	8	0.08044578	-0.02829413	3.976862	0	11.91	4002	0	0	5	5	0.6873717	0.3246729	1	15	0.04	1900	-2.700745	40.92357	-91.39361
349153	96	-35	8	0.08044578	-0.02829413	3.976862	0	11.91	4002	0	0	5	5	0.6873717	0.3246729	1	15	0.04	1900	-2.700745	40.92357	-91.39361
349243	96	-35	8	0.08044578	-0.02829413	3.976862	0	11.91	4002	0	0	5	5	0.6873717	0.3246729	1	15	0.04	1900	-2.700745	40.92357	-91.39361
349335	96	-35	8	0.08044578	-0.02829413	3.976862	0	11.91	4002	0	0	5	5	0.6873717	0.3246729	1	15	0.04	1900	-2.700745	40.92357	-91.39361
349427	96	-35	8	0.08044578	-0.02829413	3.976862	0	11.91	4002	0	0	5	5	0.6873717	0.3246729	1	15	0.04	1900	-2.700745	40.92357	-91.39361
349519	96	-35	8	0.08044578	-0.02829413	3.976862	0	11.91	4002	0	0	5	5	0.6873717	0.3246729	1	15	0.04	1900	-2.700745	40.92357	-91.39361
349611	96	-35	8	0.08044578	-0.02829413	3.976862	0	11.91	4002	0	0	5	5	0.6873717	0.3246729	1	15	0.04	1900	-2.700745	40.92357	-91.39361
349703	96	-35	8	0.08044578	-0.02829413	3.976862	0	11.91	4002	0	0	5	5	0.6873717	0.3246729	1	15	0.04	1900	-2.700745	40.92357	-91.39361
349795	96	-35	8	0.08044578	-0.02829413	3.976862	0	11.91	4002	0	0	5	5	0.6873717	0.3246729	1	15	0.04	1900	-2.700745	40.92357	-91.39361
349887	96	-35	8	0.08044578	-0.02829413	3.976862	0	11.91	4002	0	0	5	5	0.6873717	0.3246729	1	15	0.04	1900	-2.700745	40.92357	-91.39361
349979	96	-35	8	0.08044578	-0.02829413	3.976862	0	11.91	4002	0	0	5	5	0.6873717	0.3246729	1	15	0.04	1900	-2.700745	40.92357	-91.39361
350071	96	-35	8	0.08044578	-0.02829413	3.976862	0	11.91	4002	0	0	5	5	0.6873717	0.3246729	1	15	0.04	1900	-2.700745	40.92357	-91.39361
350163	96	-35	8	0.08044578	-0.02829413	3.976862	0	11.91	4002	0	0	5	5	0.6873717	0.3246729	1	15	0.04	1900	-2.700745	40.92357	-91.39361
350260	96	-35	8	0.08044578	-0.02829413	3.976862	0	11.91	4002	0	0	5	5	0.6873717	0.3246729	1	15	0.04	1900	-2.700745	40.92357	-91.39361
350342	96	-35	8	0.08044578	-0.02829413	3.976862	0	11.91	4002	0	0	5	5	0.6873717	0.3246729	1	15	0.04	1900	-2.700745	40.92357	-91.39361
350433	96	-35	8	0.08044578	-0.02829413	3.976862	0	11.91	4002	0	0	5	5	0.6873717	0.3246729	1	15	0.04	1900	-2.700745	40.92357	-91.39361
350537	96	-35	8	0.08044578	-0.02829413	3.976862	0	11.91	4002	0	0	5	5	0.6873717	0.3246729	1	15	0.04	1900	-2.700745	40.92357	-91.39361
350623	96	-35	8	0.08044578	-0.02829413	3.976862	0	11.91	4002	0	0	5	5	0.6873717	0.3246729	1	15	0.04	1900	-2.700745	40.92357	-91.39361
350712	96	-35	8	0.08044578	-0.02829413	3.976862	0	11.91	4002	0	0	5	5	0.6873717	0.3246729	1	15	0.04	1900	-2.700745	40.92357	-91.39361
350801	96	-35	8	0.08044578	-0.02829413	3.976862	0	11.91	4002	0	0	5	5	0.6873717	0.3246729	1	15	0.04	1900	-2.700745	40.92357	-91.39361
350890	96	-35	8	0.08044578	-0.02829413	3.976862	0	11.91	4002	0	0	5	5	0.6873717	0.3246729	1	15	0.04	1900	-2.700745	40.92357	-91.39361
350978	96	-35	8	0.08044578	-0.02829413	3.976862	0	11.91	4002	0	0	5	5	0.6873717	0.3246729	1	15	0.04	1900	-2.700745	40.92357	-91.39361
351067	96	-35	8	0.08044578	-0.02829413	3.976862	0	11.91	4002	0	0	5	5	0.6873717	0.3246729	1	15	0.04	1900	-2.700745	40.92357	-91.39361
351156	96	-35	8	0.08044578	-0.02829413	3.976862	0	11.91	4002	0	0	5	5	0.6873717	0.3246729	1	15	0.04	1900	-2.700745	40.92357	-91.39361
351243	96	-35	8	0.08044578	-0.02829413	3.976862	0	11.91	4002	0	0	5	5	0.6873717	0.3246729	1	15	0.04	1900	-2.700745	40.92357	-91.39361
351330	96	-35	8	0.08044578	-0.02829413	3.976862	0	11.91	4002	0	0	5	5	0.6873717	0.3246729	1	15	0.04	1900	-2.700745	40.92357	-91.39361
351420	96	-35	8	0.08044578	-0.02829413	3.976862	0	11.91	4002	0	0	5	5	0.6873717	0.3246729	1	15	0.04	1900	-2.700745	40.92357	-91.39361
351512	96	-35	8	0.08044578	-0.02829413	3.976862	0	11.91	4002	0	0	5	5	0.6873717	0.3246729	1	15	0.04	1900	-2.700745	40.92357	-91.39361
351602	96	-35	8	0.08044578	-0.02829413	3.976862	0	11.91	4002	0	0	5	5	0.6873717	0.3246729	1	15	0.04	1900	-2.700745	40.92357	-91.39361
351682	96	-35	8	0.08044578	-0.02829413	3.976862	0	11.91	4002	0	0	5	5	0.6873717	0.3246729	1	15	0.04	1900	-2.700745	40.92357	-91.39361
351773	96	-35	8	0.08044578	-0.02829413	3.976862	0	11.91	4002	0	0	5	5	0.6873717	0.3246729	1	15	0.04	1900	-2.700745	40.92357	-91.39361
351864	96	-35	8	0.08044578	-0.02829413	3.976862	0	11.91	4002	0	0	5	5	0.6873717	0.3246729	1	15	0.04	1900	-2.700745	40.92357	-91.39361
351955	96	-35	8	0.08044578	-0.02829413	3.976862	0	11.91	4002	0	0	5	5	0.6873717	0.3246729	1	15	0.04	1900	-2.700745	40.92357	-91.39361
352046	96	-35	8	0.08044578	-0.02829413	3.976862	0	11.91	4002	0	0	5	5	0.6873717	0.3246729	1	15	0.04	1900	-2.700745	40.92357	-91.39361
352137	96	-35	8	0.08044578	-0.02829413	3.976862	0	11.91	4002	0	0	5	5	0.6873717	0.3246729	1	15	0.04	1900	-2.700745	40.92357	-91.39361
352229	96	-35	8	0.08044578	-0.02829413	3.976862	0	11.91	4002	0	0	5	5	0.6873717	0.3246729	1	15	0.04	1900	-2.700745	40.92357	-91.39361
352320	96	-35	8	0.08044578	-0.02829413	3.976862	0	11.91	4002	0	0	5	5	0.6873717	0.3246729	1	15	0.04	1900	-2.700745	40.92357	-91.39361
352409	96	-35	8	0.08044578	-0.02829413	3.976862	0	11.91	4002	0	0	5	5	0.6873717	0.3246729	1	15	0.04	1900	-2.700745	40.92357	-91.39361
352497	96	-35	8	0.08044578	-0.02829413	3.976862	0	11.91	4002	0	0	5	5	0.6873717	0.3246729	1	15	0.04	1900	-2.700745	40.92357	-91.39361
352585	96	-35	8	0.08044578	-0.02829413	3.976862	0	11.91	4002	0	0	5	5	0.6873717	0.3246729	1	15	0.04	1900	-2.700745	40.92357	-91.39361
352673	96	-35	8	0.08044578	-0.02829413	3.976862	0	11.91	4002	0	0	5	5	0.6873717	0.3246729	1	15	0.04	1900	-2.700745	40.92357	-91.39361
352762	96	-35	8	0.08044578	-0.02829413	3.976862	0	11.91	4002	0	0	5	5	0.6873717	0.3246729	1	15	0.04	1900	-2.700745	40.92357	-91.39361
352851	96	-35	8	0.08044578	-0.02829413	3.976862	0	11.91	4002	0	0	5	5	0.6873717	0.3246729	1	15	0.04	1900	-2.700745	40.92357	-91.39361
352940	96	-35	8	0.08044578	-0.02829413	3.976862	0	11.91	4002	0	0	5	5	0.6873717	0.3246729	1	15	0.04	1900	-2.700745	40.92357	-91.39361
353019	96	-35	8	0.08044578	-0.02829413	3.976862	0	11.91	4002	0	0	5	5	0.6873717	0.3246729	1	15	0.04	1900	-2.700745	40.92357	-91.39361
353108	96	-35	8	0.08044578	-0.02829413	3.976862	0	11.91	4002	0	0	5	5	0.6873717	0.3246729	1	15	0.04	1900	-2.700745	40.92357	-91.39361
353197	96	-35	8	0.08044578	-0.02829413	3.976862	0	11.91	4002	0	0	5	5	0.6873717	0.3246729	1	15	0.04	1900	-2.700745	40.92357	-91.39361
353283	96	-35	8	0.08044578	-0.02829413	3.976862	0	11.91	4002	0	0	5	5	0.6873717	0.3246729	1	15	0.04	1900	-2.700745	40.92357	-91.39361
353367	96	-35	8	0.08044578	-0.02829413	3.976862	0	11.91	4002	0	0	5	5	0.6873717	0.3246729	1	15	0.04	1900	-2.700745	40.92357	-91.39361
353451	96	-35	8	0.08044578	-0.02829413	3.976862	0	11.91	4002	0	0	5	5	0.6873717	0.3246729	1	15	0.04	1900	-2.700745	40.92357	-91.39361
353539	96	-35	8	0.08044578	-0.02829413	3.976862	0	11.91	4002	0	0	5	5	0.6873717	0.3246729	1	15	0.04	1900	-2.700745	40.92357	-91.39361
353626	96	-35	8	0.08044578	-0.02829413	3.976862	0	11.91	4002	0	0	5	5	0.6873717	0.3246729	1	15	0.04	1900	-2.700745	40.92357	-91.39361
353721	96	-35	8	0.08044578	-0.02829413	3.976862	0	11.91	4002	0	0	5	5	0.6873717	0.3246729	1	15	0.04	1900	-2.700745	40.92357	-91.39361
353808	96	-35	8	0.08044578	-0.02829413	3.976862	0	11.91	4002	0	0	5	5	0.6873717	0.3246729	1	15	0.04	1900	-2.700745	40.92357	-91.39361
353894	96	-35	8	0.08044578	-0.02829413	3.976862	0	11.91	4002	0	0	5	5	0.6873717	0.3246729	1	15	0.04	1900	-2.700745	40.92357	-91.39361
353980	96	-35	8	0.08044578	-0.02829413	3.976862	0	11.91	4002	0	0	5	5	0.6873717	0.3246729	1	15	0.04	1900	-2.700745	40.92357	-91.39361
354067	96	-35	8	0.08044578	-0.02829413	3.976862	0	11.91	4002	0	0	5	5	0.6873717	0.3246729	1	15	0.04	1900	-2.700745	40.92357	-91.39361
354154	96	-35	8	0.08044578	-0.02829413	3.976862	0	11.91	4002	0	0	5	5	0.6873717	0.3246729	1	15	0.04	1900	-2.700745	40.92357	-91.39361
354241	96	-35	8	0.08044578	-0.02829413	3.976862	0	11.91	4002	0	0	5	5	0.6873717	0.3246729	1	15	0.04	1900	-2.700745	40.92357	-91.39361
354318	96	-35	8	0.08044578	-0.02829413	3.976862	0	11.91	4002	0	0	5	5	0.6873717	0.3246729	1	15	0.04	1900	-2.700745	40.92357	-91.39361
354406	96	-35	8	0.08044578	-0.02829413	3.976862	0	11.91	4002	0	0	5	5	0.6873717	0.3246729	1	15	0.04	1900	-2.700745	40.92357	-91.39361
354492	96	-35	8	0.08044578	-0.02829413	3.976862	0	11.91	4002	0	0	5	5	0.6873717	0.3246729	1	15	0.04	1900	-2.700745	40.92357	-91.39361
354580	96	-35	8	0.08044578	-0.02829413	3.976862	0	11.91	4002	0	0	5	5	0.6873717	0.3246729	1	15	0.04	1900	-2.700745	40.92357	-91.39361
354666	96	-35	8	0.08044578	-0.02829413	3.976862	0	11.91	4002	0	0	5	5	0.6873717	0.3246729	1	15	0.04	1900	-2.700745	40.92357	-91.39361
354752	96	-35	8	0.08044578	-0.02829413	3.976862	0	11.91	4002	0	0	5	5	0.6873717	0.3246729	1	15	0.04	1900	-2.700745	40.92357	-91.39361
354838	96	-35	8	0.08044578	-0.02829413	3.976862	0	11.91	4002	0	0	5	5	0.6873717	0.3246729	1	15	0.04	1900	-2.700745	40.92357	-91.39361
354923	96	-35	8	0.08044578	-0.02829413	3.976862	0	11.91	4002	0	0	5	5	0.6873717	0.3246729	1	15	0.04	1900	-2.700745	40.92357	-91.39361
355007	96	-35	8	0.08044578	-0.02829413	3.976862	0	11.91	4002	0	0	5	5	0.6873717	0.3246729	1	15	0.04	1900	-2.700745	40.92357	-91.39361
355091	96	-35	8	0.08044578	-0.02829413	3.976862	0	11.91	4002	0	0	5	5	0.6873717	0.3246729	1	15	0.04	1900	-2.700745	40.92357	-91.39361
355175	96	-35	8	0.08044578	-0.02829413	3.976862	0	11.91	4002	0	0	5	5	0.6873717	0.3246729	1	15	0.04	1900	-2.700745	40.92357	-91.39361
355260	96	-35	8	0.08044578	-0.02829413	3.976862	0	11.91	4002	0	0	5	5	0.6873717	0.3246729	1	15	0.04	1900	-2.700745	40.92357	-91.39361
355344	96	-35	8	0.08044578	-0.02829413	3.976862	0	11.91	4002	0	0	5	5	0.6873717	0.3246729	1	15	0.04	1900	-2.700745	40.92357	-91.39361
355433	96	-35	8	0.08044578	-0.02829413	3.976862	0	11.91	4002	0	0	5	5	0.6873717	0.3246729	1	15	0.04	1900	-2.700745	40.92357	-91.39361
355512	96	-35	8	0.08044578	-0.02829413	3.976862	0	11.91	4002	0	0	5	5	0.6873717	0.3246729	1	15	0.04	1900	-2.700745	40.92357	-91.39361
355601	96	-35	8	0.08044578	-0.02829413	3.976862	0	11.91	4002	0	0	5	5	0.6873717	0.3246729	1	15	0.04	1900	-2.700745	40.92357	-91.39361
355689	96	-35	8	0.08044578	-0.02829413	3.976862	0	11.91	4002	0	0	5	5	0.6873717	0.3246729	1	15	0.04	1900	-2.700745	40.92357	-91.39361
355777	96	-35	8	0.08044578	-0.02829413	3.976862	0	11.91	4002	0	0	5	5	0.6873717	0.3246729	1	15	0.04	1900	-2.700745	40.92357	-91.39361
355865	96	-35	8	0.08044578	-0.02829413	3.976862	0	11.91	4002	0	0	5	5	0.6873717	0.3246729	1	15	0.04	1900	-2.700745	40.92357	-91.39361
355954	96	-35	8	0.08044578	-0.02829413	3.976862	0	11.91	4002	0	0	5	5	0.6873717	0.3246729	1	15	0.04	1900	-2.700745	40.92357	-91.39361
356042	96	-35	8	0.08044578	-0.02829413	3.976862	0	11.91	4002	0	0	5	5	0.6873717	0.3246729	1	15	0.04	1900	-2.700745	40.92357	-91.39361
356120	96	-35	8	0.08044578	-0.02829413	3.976862	0	11.91	4002	0	0	5	5	0.6873717	0.3246729	1	15	0.04	1900	-2.700745	40.92357	-91.39361
356206	96	-35	8	0.08044578	-0.02829413	3.976862	0	11.91	4002	0	0	5	5	0.6873717	0.3246729	1	15	0.04	1900	-2.700745	40.92357	-91.39361
356293	96	-35	8	0.08044578	-0.02829413	3.976862	0	11.91	4002	0	0	5	5	0.6873717	0.3246729	1	15	0.04	1900	-2.700745	40.92357	-91.39361
356380	96	-35	8	0.08044578	-0.02829413	3.976862	0	11.91	4002	0	0	5	5	0.6873717	0.3246729	1	15	0.04	1900	-2.700745	40.92357	-91.39361
356467	96	-35	8	0.08044578	-0.02829413	3.976862	0	11.91	4002	0	0	5	5	0.6873717	0.3246729	1	15	0.04	1900	-2.700745	40.92357	-91.39361
356554	96	-35	8	0.08044578	-0.02829413	3.976862	0	11.91	4002	0	0	5	5	0.6873717	0.3246729	1	15	0.04	1900	-2.700745	40.92357	-91.39361
356639	96	-35	8	0.08044578	-0.02829413	3.976862	0	11.91	4002	0	0	5	5	0.6873717	0.3246729	1	15	0.04	1900	-2.700745	40.92357	-91.39361
356724	96	-35	8	0.08044578	-0.02829413	3.976862	0	11.91	4002	0	0	5	5	0.6873717	0.3246729	1	15	0.04	1900	-2.700745	40.92357	-91.39361
356799	96	-35	8	0.08044578	-0.02829413	3.976862	0	11.91	4002	0	0	5	5	0.6873717	0.3246729	1	15	0.04	1900	-2.700745	40.92357	-91.39361
356888	96	-35	8	0.08044578	-0.02829413	3.976862	0	11.91	4002	0	0	5	5	0.6873717	0.3246729	1	15	0.04	1900	-2.700745	40.92357	-91.39361
356976	96	-35	8	0.08044578	-0.02829413	3.976862	0	11.91	4002	0	0	5	5	0.6873717	0.3246729	1	15	0.04	1900	-2.700745	40.92357	-91.39361
357064	96	-35	8	0.08044578	-0.02829413	3.976862	0	11.91	4002	0	0	5	5	0.6873717	0.3246729	1	15	0.04	1900	-2.700745	40.92357	-91.39361
357153	96	-35	8	0.08044578	-0.02829413	3.976862	0	11.91	4002	0	0	5	5	0.6873717	0.3246729	1	15	0.04	1900	-2.700745	40.92357	-91.39361
357242	96	-35	8	0.08044578	-0.02829413	3.976862	0	11.91	4002	0	0	5	5	0.6873717	0.3246729	1	15	0.04	1900	-2.700745	40.92357	-91.39361
357330	96	-35	8	0.08044578	-0.02829413	3.976862	0	11.91	4002	0	0	5	5	0.6873717	0.3246729	1	15	0.04	1900	-2.700745	40.92357	-91.39361
357419	96	-35	8	0.08044578	-0.02829413	3.976862	0	11.91	4002	0	0	5	5	0.6873717	0.3246729	1	15	0.04	1900	-2.700745	40.92357	-91.39361
357513	96	-35	8	0.08044578	-0.02829413	3.976862	0	11.91	4002	0	0	5	5	0.6873717	0.3246729	1	15	0.04	1900	-2.700745	40.92357	-91.39361
357600	96	-35	8	0.08044578	-0.02829413	3.976862	0	11.91	4002	0	0	5	5	0.6873717	0.3246729	1	15	0.04	1900	-2.700745	40.92357	-91.39361
357687	96	-35	8	0.08044578	-0.02829413	3.976862	0	11.91	4002	0	0	5	5	0.6873717	0.3246729	1	15	0.04	1900	-2.700745	40.92357	-91.39361
357774	96	-35	8	0.08044578	-0.02829413	3.976862	0	11.91	4002	0	0	5	5	0.6873717	0.3246729	1	15	0.04	1900	-2.700745	40.92357	-91.39361
357862	96	-35	8	0.08044578	-0.02829413	3.976862	0	11.91	4002	0	0	5	5	0.6873717	0.3246729	1	15	0.04	1900	-2.700745	40.92357	-91.39361
357954	96	-35	8	0.08044578	-0.02829413	3.976862	0	11.91	4002	0	0	5	5	0.6873717	0.3246729	1	15	0.04	1900	-2.700745	40.92357	-91.39361
358031	96	-35	8	0.08044578	-0.02829413	3.976862	0	11.91	4002	0	0	5	5	0.6873717	0.3246729	1	15	0.04	1900	-2.700745	40.92357	-91.39361
358118	96	-35	8	0.08044578	-0.02829413	3.976862	0	11.91	4002	0	0	5	5	0.6873717	0.3246729	1	15	0.04	1900	-2.700745	40.92357	-91.39361
358205	96	-35	8	0.08044578	-0.02829413	3.976862	0	11.91	4002	0	0	5	5	0.6873717	0.3246729	1	15	0.04	1900	-2.700745	40.92357	-91.39361
358293	96	-35	8	0.08044578	-0.02829413	3.976862	0	11.91	4002	0	0	5	5	0.6873717	0.3246729	1	15	0.04	1900	-2.700745	40.92357	-91.39361
358377	96	-35	8	0.08044578	-0.02829413	3.976862	0	11.91	4002	0	0	5	5	0.6873717	0.3246729	1	15	0.04	1900	-2.700745	40.92357	-91.39361
358472	96	-35	8	0.08044578	-0.02829413	3.976862	0	11.91	4002	0	0	5	5	0.6873717	0.3246729	1	15	0.04	1900	-2.700745	40.92357	-91.39361
358576	96	-35	8	0.08044578	-0.02829413	3.976862	0	11.91	4002	0	0	5	5	0.6873717	0.3246729	1	15	0.04	1900	-2.700745	40.92357	-91.39361
358664	96	-35	8	0.08044578	-0.02829413	3.976862	0	11.91	4002	0	0	5	5	0.6873717	0.3246729	1	15	0.04	1900	-2.700745	40.92357	-91.39361
358700	96	-35	8	0.08044578	-0.02829413	3.976862	0	11.91	4002	0	0	5	5	0.6873717	0.3246729	1	15	0.04	1900	-2.700745	40.92357	-91.39361
358766	96	-35	8	0.08044578	-0.02829413	3.976862	0	11.91	4002	0	0	5	5	0.6873717	0.3246729	1	15	0.04	1900	-2.700745	40.92357	-91.39361
358813	96	-35	8	0.08044578	-0.02829413	3.976862	0	11.91	4002	0	0	5	5	0.6873717	0.3246729	1	15	0.04	1900	-2.700745	40.92357	-91.39361
358906	96	-35	8	0.08044578	-0.02829413	3.976862	0	11.91	4002	0	0	5	5	0.6873717	0.3246729	1	15	0.04	1900	-2.700745	40.92357	-91.39361
358993	96	-35	8	0.08044578	-0.02829413	3.976862	0	11.91	4002	0	0	5	5	0.6873717	0.3246729	1	15	0.04	1900	-2.700745	40.92357	-91.39361
359081	96	-35	8	0.08044578	-0.02829413	3.976862	0	11.91	4002	0	0	5	5	0.6873717	0.3246729	1	15	0.04	1900	-2.700745	40.92357	-91.39361
359159	96	-35	8	0.08044578	-0.02829413	3.976862	0	11.91	4002	0	0	5	5	0.6873717	0.3246729	1	15	0.04	1900	-2.700745	40.92357	-91.39361
359246	96	-35	8	0.08044578	-0.02829413	3.976862	0	11.91	4002	0	0	5	5	0.6873717	0.3246729	1	15	0.04	1900	-2.700745	40.92357	-91.39361
359333	96	-35	8	0.08044578	-0.02829413	3.976862	0	11.91	4002	0	0	5	5	0.6873717	0.3246729	1	15	0.04	1900	-2.700745	40.92357	-91.39361
359422	96	-35	8	0.08044578	-0.02829413	3.976862	0	11.91	4002	0	0	5	5	0.6873717	0.3246729	1	15	0.04	1900	-2.700745	40.92357	-91.39361
359510	96	-35	8	0.08044578	-0.02829413	3.976862	0	11.91	4002	0	0	5	5	0.6873717	0.3246729	1	15	0.04	1900	-2.700745	40.92357	-91.39361
359704	0	0	0	0	0	0	0	0	0	0	0	0	0	0	0	0	15	0.04	1900	0	0	0
359762	0	0	0	0	0	0	0	0	0	0	0	0	0	0	0	0	15	0.04	1900	0	0	0
359868	0	0	0	0	0	0	0	0	0	0	0	0	0	0	0	0	15	0.04	1900	0	0	0
359969	0	0	0	0	0	0	0	0	0	0	0	0	0	0	0	0	15	0.04	1900	0	0	0
360003	0	0	0	0	0	0	0	0	0	0	0	0	0	0	0	0	15	0.04	1900	0	0	0
360194	0	0	0	0	0	0	0	0	0	0	0	0	0	0	0	0	15	0.04	1900	0	0	0
360234	0	0	0	0	0	0	0	0	0	0	0	0	0	0	0	0	15	0.04	1900	0	0	0
360350	0	0	0	0	0	0	0	0	0	0	0	0	0	0	0	0	15	0.04	1900	0	0	0
360492	0	0	0	0	0	0	0	11.97	0	0	0	0	0	0	0	0	15	0.04	1900	0	0	0
360568	0	0	0	0	0	0	0	11.97	0	0	0	0	0	0	0	0	15	0.04	1900	0	0	0
360627	0	0	0	0	0	0	0	11.97	0	0	0	0	0	0	0	0	15	0.04	1900	0	0	0
360660	0	0	0	0	0	0	0	11.97	0	0	0	0	0	0	0	0	15	0.04	1900	0	0	0
360815	0	0	0	0	0	0	0	11.97	0	0	0	0	0	0	0	0	15	0.04	1900	0	0	0
360871	0	0	0	0	0	0	0	11.97	0	0	0	0	0	0	0	0	15	0.04	1900	0	0	0
361018	0	0	0	0	0	0	0	11.97	0	0	0	0	0	0	0	0	15	0.04	1900	0	0	0
361111	0	0	0	0	0	0	0	11.97	0	0	0	0	0	0	0	0	15	0.04	1900	0	0	0
361246	0	0	0	0	0	0	0	11.97	0	0	0	0	0	0	0	0	15	0.04	1900	0	0	0
361312	0	0	0	0	0	0	0	11.97	0	0	0	0	0	0	0	0	15	0.04	1900	0	0	0
361354	0	0	0	0	0	0	0	11.91	0	0	0	0	0	0	0	0	15	0.04	1900	0	0	0
361409	0	0	0	0	0	0	0	11.91	0	0	0	0	0	0	0	0	15	0.04	1900	0	0	0
361465	0	0	0	0	0	0	0	11.91	0	0	0	0	0	0	0	0	15	0.04	1900	0	0	0
361684	0	0	0	0	0	0	0	11.91	0	0	0	0	0	0	0	0	15	0.04	1900	0	0	0
361799	0	0	0	0	0	0	0	11.91	0	0	0	0	0	0	0	0	15	0.04	1900	0	0	0
361866	0	0	0	0	0	0	0	11.91	0	0	0	0	0	0	0	0	15	0.04	1900	0	0	0
361971	0	0	0	0	0	0	0	11.91	0	0	0	0	0	0	0	0	15	0.04	1900	0	0	0
362038	0	0	0	0	0	0	0	11.91	0	0	0	0	0	0	0	0	15	0.04	1900	0	0	0
362146	0	0	0	0	0	0	0	11.97	0	0	0	0	0	0	0	0	15	0.04	1900	0	0	0
362234	0	0	0	0	0	0	0	11.97	0	0	0	0	0	0	0	0	15	0.04	1900	0	0	0
362318	0	0	0	0	0	0	0	11.97	0	0	0	0	0	0	0	0	15	0.04	1900	0	0	0
362370	0	0	0	0	0	0	0	11.97	0	0	0	0	0	0	0	0	15	0.04	1900	0	0	0
362512	0	0	0	0	0	0	0	11.97	0	0	0	0	0	0	0	0	15	0.04	1900	0	0	0
362631	0	0	0	0	0	0	0	11.97	0	0	0	0	0	0	0	0	15	0.04	1900	0	0	0
362694	0	0	0	0	0	0	0	11.97	0	0	0	0	0	0	0	0	15	0.04	1900	0	0	0
362779	0	0	0	0	0	0	0	11.97	0	0	0	0	0	0	0	0	15	0.04	1900	0	0	0
362898	0	0	0	0	0	0	0	11.97	0	0	0	0	0	0	0	0	15	0.04	1900	0	0	0
362990	0	0	0	0	0	0	0	11.91	0	0	0	0	0	0	0	0	15	0.04	1900	0	0	0
363117	0	0	0	0	0	0	0	11.91	0	0	0	0	0	0	0	0	15	0.04	1900	0	0	0
363163	0	0	0	0	0	0	0	11.91	0	0	0	0	0	0	0	0	15	0.04	1900	0	0	0
363303	0	0	0	0	0	0	0	11.91	0	0	0	0	0	0	0	0	15	0.04	1900	0	0	0
