time(ms)	gyro_x(deg/s)	gyro_y(deg/s)	gyro_z(deg/s)	orientation_roll(deg)	orientation_pitch(deg)	orientation_yaw(deg)	throttle	battery(V)	loop_time(uS)	pid_output_roll	pid_output_pitch	pid_output_yaw	pid_output_throttle	ultrasonic_alt	baro_alt	flight_mode	p_gain_altitude	i_gain_altitude	d_gain_altitude	compass_heading	latitude	longitude
301738	14	1	-5	0.2217455	-0.02028706	0.0191995	0	11.97	4002	0	0	5	5	0.6873717	0.03673571	1	15	0.04	1800	-1.224274	40.9236	-91.39362
301822	11	4	2	0.2161711	-0.02370044	0.02476287	0	11.97	4004	0	0	5	5	0.6873717	0.03839765	1	15	0.04	1800	-1.434631	40.9236	-91.39362
301975	16	-1	-1	0.2119	-0.0197243	0.02953164	0	11.97	4003	0	0	5	5	0.6873717	0.04390356	1	15	0.04	1800	-1.41452	40.9236	-91.39362
302083	19	0	2	0.211759	-0.02072359	0.03228283	0	11.97	4002	0	0	5	5	0.6873717	0.04203662	1	15	0.04	1800	-1.204285	40.9236	-91.39362
302167	19	3	-6	0.2144877	-0.02077207	0.03546188	0	11.97	4004	0	0	5	5	0.6873717	0.03108486	1	15	0.04	1800	-1.206665	40.9236	-91.39362
302250	19	1	-3	0.2142825	-0.01929535	0.03888544	0	11.97	4002	0	0	5	5	0.6873717	0.02606443	1	15	0.04	1800	-1.420929	40.9236	-91.39362
302348	11	0	0	0.2109381	-0.01448249	0.04212576	0	11.97	4003	0	0	5	5	0.6873717	0.02284902	1	15	0.04	1800	-1.419769	40.9236	-91.39362
302482	13	0	1	0.2083987	-0.01367673	0.0455495	0	11.97	4003	0	0	5	5	0.6873717	0.02629729	1	15	0.04	1800	-1.637726	40.9236	-91.39362
302573	19	1	0	0.2096787	-0.01444016	0.05111269	0	11.97	4004	0	0	5	5	0.6873717	0.02492488	1	15	0.04	1800	-1.196045	40.9236	-91.39362
302663	14	2	0	0.2072757	-0.01574008	0.05355809	0	11.97	4002	0	0	5	5	0.6873717	0.01704457	1	15	0.04	1800	-1.419281	40.9236	-91.39362
302826	17	-1	-5	0.2003155	-0.02137177	0.05606467	0	11.97	4004	0	0	5	5	0.6873717	0.009066708	1	15	0.04	1800	-1.401978	40.9236	-91.39362
303009	14	1	-3	0.2008154	-0.01642257	0.06162791	0	11.97	4003	0	0	5	5	0.6873717	0.01074473	1	15	0.04	1800	-1.181458	40.9236	-91.39362
303106	13	-3	-3	0.207325	-0.02707426	0.06499033	0	11.97	4003	0	0	5	5	0.6873717	0.008301132	1	15	0.04	1800	-1.414581	40.9236	-91.39362
303152	19	0	-3	0.206478	-0.02789319	0.06602965	0	11.97	4002	0	0	5	5	0.6873717	0.007294399	1	15	0.04	1800	-1.638702	40.9236	-91.39362
303347	13	-1	-2	0.1998976	-0.01564908	0.072877	0	11.97	4003	0	0	5	5	0.6873717	0.0093993	1	15	0.04	1800	-1.188293	40.9236	-91.39362
303420	10	0	-3	0.1974034	-0.01716334	0.07434423	0	11.97	4002	0	0	5	5	0.6873717	0.009398022	1	15	0.04	1800	-1.401855	40.9236	-91.39362
303551	20	0	-3	0.1958375	-0.02063093	0.07813455	0	11.97	4002	0	0	5	5	0.6873717	0.01328853	1	15	0.04	1800	-1.394684	40.9236	-91.39362
303690	14	4	0	0.1932383	-0.03010377	0.08119151	0	11.97	4003	0	0	5	5	0.6873717	0.02623367	1	15	0.04	1800	-1.171936	40.9236	-91.39362
303833	17	0	-6	0.1992334	-0.03705853	0.08681567	0	11.97	4004	0	0	5	5	0.6873717	0.03077661	1	15	0.04	1800	-1.401794	40.9236	-91.39362
303913	19	-3	-4	0.202477	-0.03341537	0.0880386	0	11.97	4003	0	0	5	5	0.6873717	0.03019088	1	15	0.04	1800	-1.406219	40.9236	-91.39362
304095	18	-2	0	0.2102957	-0.03013911	0.09189019	0	11.97	4003	0	0	5	5	0.6873717	0.02805743	1	15	0.04	1800	-1.197723	40.9236	-91.39362
304206	12	-2	-2	0.2098323	-0.03008266	0.0944582	0	11.97	4004	0	0	5	5	0.6873717	0.02032101	1	15	0.04	1800	-1.644989	40.9236	-91.39362
304303	13	2	0	0.2124414	-0.03120233	0.09788169	0	11.97	4002	0	0	5	5	0.6873717	0.01417387	1	15	0.04	1800	-1.20105	40.9236	-91.39362
304472	12	6	-4	0.2105933	-0.0323035	0.09837052	0	11.97	4003	0	0	5	5	0.6873717	0.01555888	1	15	0.04	1800	-1.418671	40.9236	-91.39362
304646	16	-2	0	0.2199683	-0.03254402	0.1055847	0	11.97	4002	0	0	5	5	0.6873717	0.02019397	1	15	0.04	1800	-1.213257	40.9236	-91.39362
304733	11	2	-2	0.2192214	-0.03714339	0.1070526	0	11.97	4003	0	0	5	5	0.6873717	0.0267196	1	15	0.04	1800	-1.219025	40.9236	-91.39362
304807	14	0	-5	0.2253664	-0.04469535	0.1118824	0	11.97	4002	0	0	5	5	0.6873717	0.03024845	1	15	0.04	1800	-1.44574	40.9236	-91.39362
305010	19	0	0	0.2289887	-0.04266506	0.1211146	0	11.97	4002	0	0	5	5	0.6873717	0.03427273	1	15	0.04	1800	-1.225433	40.9236	-91.39362
305098	15	4	-3	0.2339476	-0.03531055	0.1238047	0	11.97	4004	0	0	5	5	0.6873717	0.03242777	1	15	0.04	1800	-1.456879	40.9236	-91.39362
305190	20	-4	-2	0.2424949	-0.02905525	0.1264336	0	11.97	4004	0	0	5	5	0.6873717	0.0334401	1	15	0.04	1800	-1.455261	40.9236	-91.39362
305312	17	0	-3	0.2414352	-0.03261645	0.1287571	0	11.97	4004	0	0	5	5	0.6873717	0.04086505	1	15	0.04	1800	-1.240936	40.9236	-91.39362
305366	12	0	-4	0.2391837	-0.03027276	0.1323641	0	11.97	4002	0	0	5	5	0.6873717	0.04147406	1	15	0.04	1800	-1.462769	40.9236	-91.39362
305438	10	0	-5	0.2403744	-0.03035385	0.1366434	0	11.97	4004	0	0	5	5	0.6873717	0.03862795	1	15	0.04	1800	-1.245026	40.9236	-91.39362
305633	21	1	0	0.2498687	-0.02527447	0.1458855	0	11.97	4004	0	0	5	5	0.6873717	0.0189375	1	15	0.04	1800	-1.4758	40.9236	-91.39362
305759	16	5	0	0.2545763	-0.02337627	0.1483309	0	11.97	4003	0	0	5	5	0.6873717	0.01127164	1	15	0.04	1900	-1.270325	40.9236	-91.39362
305966	20	1	-5	0.2676891	-0.02182734	0.1616035	0	11.97	4004	0	0	5	5	0.6873717	0.01219227	1	15	0.04	1900	-1.285614	40.9236	-91.39362
306109	15	0	0	0.2607469	-0.02191958	0.1709569	0	11.97	4003	0	0	5	5	0.6873717	0.01473468	1	15	0.04	1900	-1.288818	40.9236	-91.39362
306172	19	3	-3	0.2597174	-0.01589368	0.1740136	0	11.97	4004	0	0	5	5	0.6873717	0.01583575	1	15	0.04	1900	-1.277069	40.9236	-91.39362
306240	19	7	-2	0.2610814	-0.01856098	0.1779268	0	11.97	4004	0	0	5	5	0.6873717	0.02721873	1	15	0.04	1900	-1.274963	40.9236	-91.39362
306296	17	3	0	0.2576908	-0.02031066	0.1784159	0	11.97	4004	0	0	5	5	0.6873717	0.02930795	1	15	0.04	1900	-1.274963	40.9236	-91.39362
306463	22	7	0	0.257742	-0.01348022	0.1843462	0	11.97	4002	0	0	5	5	0.6873717	0.04293665	1	15	0.04	1900	-1.49411	40.9236	-91.39362
306579	21	-2	-4	0.265521	-0.02146401	0.1905212	0	11.97	4004	0	0	5	5	0.6873717	0.0493338	1	15	0.04	1900	-1.499298	40.9236	-91.39362
306662	19	4	-1	0.2680028	-0.01745301	0.1938225	0	11.97	4002	0	0	5	5	0.6873717	0.05356096	1	15	0.04	1900	-1.284851	40.9236	-91.39362
306779	15	-3	-6	0.263509	-0.01268169	0.1990192	0	11.97	4004	0	0	5	5	0.6873717	0.05521487	1	15	0.04	1900	-1.502991	40.9236	-91.39362
306844	18	2	0	0.2624467	-0.0127054	0.2050108	0	11.91	4002	0	0	5	5	0.6873717	0.05649956	1	15	0.04	1900	-1.498474	40.9236	-91.39362
306966	11	-2	-1	0.2535177	-0.01654352	0.2094127	0	11.91	4003	0	0	5	5	0.6873717	0.06160973	1	15	0.04	1900	-1.495667	40.9236	-91.39362
307107	18	-1	-2	0.2559826	-0.0174156	0.2149764	0	11.91	4003	0	0	5	5	0.6873717	0.0758011	1	15	0.04	1900	-1.271759	40.9236	-91.39362
307277	17	-4	-7	0.2570207	-0.01688158	0.2205397	0	11.91	4002	0	0	5	5	0.6873717	0.09278852	1	15	0.04	1900	-1.274567	40.9236	-91.39362
307340	21	-3	0	0.2567206	-0.01756255	0.2231683	0	11.91	4003	0	0	5	5	0.6873717	0.09832433	1	15	0.04	1900	-1.486145	40.9236	-91.39362
307453	17	0	-1	0.2523158	-0.0174418	0.2274479	0	11.91	4003	0	0	5	5	0.6873717	0.1024267	1	15	0.04	1900	-1.265289	40.9236	-91.39362
307574	18	1	-2	0.2549055	-0.02067547	0.2320939	0	11.91	4003	0	0	5	5	0.6873717	0.1090701	1	15	0.04	1900	-1.267456	40.9236	-91.39362
307669	17	1	-2	0.2560658	-0.01824841	0.2368624	0	11.91	4002	0	0	5	5	0.6873717	0.1061652	1	15	0.04	1900	-1.271942	40.9236	-91.39362
307764	17	0	-4	0.2587385	-0.0194041	0.2419367	0	11.91	4004	0	0	5	5	0.6873717	0.1045437	1	15	0.04	1900	-1.266632	40.9236	-91.39362
307956	17	0	-1	0.2476553	-0.02154127	0.2510454	0	11.91	4004	0	0	5	5	0.6873717	0.0988717	1	15	0.04	1900	-1.269897	40.9236	-91.39362
308010	19	1	-2	0.2465509	-0.02351355	0.2541636	0	11.91	4004	0	0	5	5	0.6873717	0.09662314	1	15	0.04	1900	-1.485107	40.9236	-91.39362
308072	21	0	-2	0.2489894	-0.02165052	0.2573428	0	11.91	4004	0	0	5	5	0.6873717	0.09429219	1	15	0.04	1900	-1.477417	40.9236	-91.39362
308210	21	-2	-6	0.2482824	-0.02693804	0.2646175	0	11.91	4002	0	0	5	5	0.6873717	0.09592265	1	15	0.04	1900	-1.478027	40.9236	-91.39362
308343	16	0	-2	0.2528027	-0.03016335	0.2731766	0	11.91	4003	0	0	5	5	0.6873717	0.1021111	1	15	0.04	1900	-1.483826	40.9236	-91.39362
308470	20	-4	0	0.2516586	-0.03212672	0.2775783	0	11.91	4003	0	0	5	5	0.6873717	0.1091124	1	15	0.04	1900	-1.261383	40.9236	-91.39362
308568	18	1	-3	0.2501976	-0.03553489	0.282836	0	11.91	4003	0	0	5	5	0.6873717	0.1116378	1	15	0.04	1900	-1.487366	40.9236	-91.39362
308709	23	1	-5	0.2460255	-0.0366777	0.2866877	0	11.91	4002	0	0	5	5	0.6873717	0.1169149	1	15	0.04	1900	-1.478973	40.9236	-91.39362
308840	20	-1	-2	0.2491658	-0.0337254	0.2919458	0	11.91	4002	0	0	5	5	0.6873717	0.1237392	1	15	0.04	1900	-1.475433	40.9236	-91.39362
308884	14	0	-1	0.2533078	-0.0337342	0.2935352	0	11.91	4002	0	0	5	5	0.6873717	0.131644	1	15	0.04	1900	-1.266418	40.9236	-91.39362
309021	15	-6	-1	0.2545353	-0.03784699	0.2950026	0	11.91	4003	0	0	5	5	0.6873717	0.1432895	1	15	0.04	1900	-1.493378	40.9236	-91.39362
309098	22	-2	-1	0.2532805	-0.04041407	0.300811	0	11.91	4004	0	0	5	5	0.6873717	0.1447246	1	15	0.04	1900	-1.262878	40.9236	-91.39362
309218	18	3	-1	0.2595781	-0.04103218	0.3057022	0	11.91	4002	0	0	5	5	0.6873717	0.1459785	1	15	0.04	1900	-1.264832	40.9236	-91.39362
309248	20	0	0	0.2611477	-0.04205162	0.3073529	0	11.91	4003	0	0	5	5	0.6873717	0.1470041	1	15	0.04	1900	-1.498016	40.9236	-91.39362
309374	17	2	-6	0.2589955	-0.03789702	0.3157894	0	11.91	4003	0	0	5	5	0.6873717	0.1443087	1	15	0.04	1900	-1.27829	40.9236	-91.39362
309476	26	5	-5	0.2629077	-0.03401792	0.3190906	0	11.91	4003	0	0	5	5	0.6873717	0.1433955	1	15	0.04	1900	-1.492493	40.9236	-91.39362
309612	21	-2	-2	0.2602228	-0.03540716	0.3245317	0	11.91	4003	0	0	5	5	0.6873717	0.1462798	1	15	0.04	1900	-1.491455	40.9236	-91.39362
309690	22	-1	0	0.2612307	-0.03333612	0.3268552	0	11.91	4004	0	0	5	5	0.6873717	0.1453596	1	15	0.04	1900	-1.278564	40.9236	-91.39362
309768	23	-2	-3	0.2654453	-0.0303963	0.3297285	0	11.91	4003	0	0	5	5	0.6873717	0.1362538	1	15	0.04	1900	-1.2771	40.9236	-91.39362
309895	22	0	-3	0.2701471	-0.02536641	0.334436	0	11.91	4002	0	0	5	5	0.6873717	0.1217367	1	15	0.04	1900	-1.505402	40.9236	-91.39362
309953	20	0	3	0.2706158	-0.0295392	0.336209	0	11.91	4003	0	0	5	5	0.6873717	0.1152972	1	15	0.04	1900	-1.292877	40.9236	-91.39362
310084	18	-2	-2	0.2746284	-0.03161939	0.3424446	0	11.91	4002	0	0	5	5	0.6873717	0.109989	1	15	0.04	1900	-1.305573	40.9236	-91.39362
310158	20	0	-5	0.2795147	-0.02984207	0.3449517	0	11.91	4002	0	0	5	5	0.6873717	0.1033063	1	15	0.04	1900	-1.522064	40.9236	-91.39362
310299	24	-5	-5	0.2777511	-0.03577521	0.3505763	0	11.91	4003	0	0	5	5	0.6873717	0.1010045	1	15	0.04	1900	-1.520874	40.9236	-91.39362
310431	17	-5	-5	0.2764752	-0.04354677	0.3547947	0	11.97	4002	0	0	5	5	0.6873717	0.1132472	1	15	0.04	1900	-1.524445	40.9236	-91.39362
310473	20	-5	-5	0.2764752	-0.04354677	0.3547947	0	11.97	4002	0	0	5	5	0.6873717	0.1178009	1	15	0.04	1900	-1.524445	40.9236	-91.39362
310644	18	0	-7	0.2843654	-0.04719931	0.3657381	0	11.97	4004	0	0	5	5	0.6873717	0.1337704	1	15	0.04	1900	-1.31192	40.9236	-91.39362
310717	30	1	2	0.2885368	-0.04785835	0.3681837	0	11.97	4002	0	0	5	5	0.6873717	0.1434189	1	15	0.04	1900	-1.316681	40.9236	-91.39362
310772	20	0	-7	0.2945001	-0.05033697	0.3722798	0	11.97	4004	0	0	5	5	0.6873717	0.1439166	1	15	0.04	1900	-1.543182	40.9236	-91.39362
310966	21	0	-6	0.2962447	-0.04675979	0.3813896	0	11.97	4002	0	0	5	5	0.6873717	0.1325359	1	15	0.04	1900	-1.326263	40.9236	-91.39362
311106	18	0	-3	0.3014571	-0.04811513	0.3854248	0	11.97	4003	0	0	5	5	0.6873717	0.1172368	1	15	0.04	1900	-1.557953	40.9236	-91.39362
311226	18	3	-5	0.2931466	-0.05383908	0.3893989	0	11.97	4004	0	0	5	5	0.6873717	0.1105472	1	15	0.04	1900	-1.325348	40.9236	-91.39362
311289	18	2	-3	0.2935101	-0.04926071	0.3941065	0	11.97	4008	0	0	5	5	0.6873717	0.09723342	1	15	0.04	1900	-1.544006	40.9236	-91.39362
311334	26	1	-1	0.2941393	-0.04665291	0.3980189	0	11.97	4003	0	0	5	5	0.6873717	0.08862598	1	15	0.04	1900	-1.76947	40.9236	-91.39362
311490	20	2	-2	0.2984332	-0.03834793	0.4071284	0	11.97	4002	0	0	5	5	0.6873717	0.07022194	1	15	0.04	1900	-1.331512	40.9236	-91.39362
311520	20	2	-2	0.2984332	-0.03834793	0.4071284	0	11.97	4002	0	0	5	5	0.6873717	0.06862882	1	15	0.04	1900	-1.331512	40.9236	-91.39362
311637	29	1	-1	0.3025102	-0.04189391	0.4146481	0	11.97	4003	0	0	5	5	0.6873717	0.06257953	1	15	0.04	1900	-1.335052	40.9236	-91.39362
311700	25	0	0	0.3008366	-0.04206039	0.4180713	0	11.97	4003	0	0	5	5	0.6873717	0.05575011	1	15	0.04	1900	-1.784698	40.9236	-91.39362
311800	22	4	-7	0.3017388	-0.03919324	0.4221675	0	11.97	4003	0	0	5	5	0.6873717	0.05757453	1	15	0.04	1900	-1.554047	40.9236	-91.39362
311925	21	3	0	0.2995099	-0.04223442	0.4280979	0	11.97	4002	0	0	5	5	0.6873717	0.0655465	1	15	0.04	1900	-1.327972	40.9236	-91.39362
312027	23	-4	-4	0.3027839	-0.04079868	0.4341506	0	11.97	4004	0	0	5	5	0.6873717	0.07693538	1	15	0.04	1900	-1.338409	40.9236	-91.39362
312100	23	-2	2	0.3055354	-0.03826496	0.4362291	0	11.97	4003	0	0	5	5	0.6873717	0.08466606	1	15	0.04	1900	-1.342316	40.9236	-91.39362
312153	28	-9	-9	0.3126931	-0.03571145	0.4365349	0	11.97	4003	0	0	5	5	0.6873717	0.08614094	1	15	0.04	1900	-1.573669	40.9236	-91.39362
312203	27	5	0	0.3100597	-0.0359764	0.4380631	0	11.97	4003	0	0	5	5	0.6873717	0.09182899	1	15	0.04	1900	-1.573669	40.9236	-91.39362
312338	19	1	-11	0.3091817	-0.02929277	0.4475393	0	11.97	4004	0	0	5	5	0.6873717	0.09762247	1	15	0.04	1900	-1.568573	40.9236	-91.39362
312509	26	0	-3	0.3090737	-0.03715325	0.4547538	0	11.97	4004	0	0	5	5	0.6873717	0.09743912	1	15	0.04	1900	-1.352448	40.9236	-91.39362
312558	23	-1	-5	0.3175415	-0.03678803	0.4584831	0	11.97	4002	0	0	5	5	0.6873717	0.09600187	1	15	0.04	1900	-1.354156	40.9236	-91.39362
312705	21	0	-4	0.3160042	-0.03808498	0.462029	0	11.97	4003	0	0	5	5	0.6873717	0.09828559	1	15	0.04	1900	-1.361176	40.9236	-91.39362
312741	25	6	-1	0.3165804	-0.04175308	0.4658802	0	11.97	4003	0	0	5	5	0.6873717	0.09877121	1	15	0.04	1900	-1.585541	40.9236	-91.39362
312893	27	-4	0	0.3202982	-0.04728958	0.4730332	0	11.91	4002	0	0	5	5	0.6873717	0.1127343	1	15	0.04	1900	-1.366974	40.9236	-91.39362
312970	24	-5	-2	0.3231226	-0.04974968	0.4768236	0	11.91	4003	0	0	5	5	0.6873717	0.1265758	1	15	0.04	1900	-1.591339	40.9236	-91.39362
313032	25	-5	-2	0.3242958	-0.05071227	0.4835479	0	11.91	4004	0	0	5	5	0.6873717	0.1294135	1	15	0.04	1900	-1.80545	40.9236	-91.39362
313143	26	-3	-5	0.3298115	-0.05150018	0.4886224	0	11.91	4003	0	0	5	5	0.6873717	0.1396237	1	15	0.04	1900	-1.600647	40.9236	-91.39362
313238	23	-3	-1	0.3347132	-0.05145873	0.4921072	0	11.91	4004	0	0	5	5	0.6873717	0.1464462	1	15	0.04	1900	-1.599213	40.9236	-91.39362
313305	29	0	-2	0.340445	-0.05172417	0.4962032	0	11.91	4004	0	0	5	5	0.6873717	0.146334	1	15	0.04	1900	-1.620178	40.9236	-91.39362
313426	21	-1	-6	0.3459975	-0.04689738	0.5050076	0	11.91	4003	0	0	5	5	0.6873717	0.1455829	1	15	0.04	1900	-1.409119	40.9236	-91.39362
313522	30	-2	-4	0.3459182	-0.04409725	0.5114264	0	11.91	4004	0	0	5	5	0.6873717	0.1390728	1	15	0.04	1900	-1.841888	40.9236	-91.39362
313640	28	-2	-9	0.3500189	-0.043904	0.5182127	0	11.91	4003	0	0	5	5	0.6873717	0.1329948	1	15	0.04	1900	-1.628632	40.9236	-91.39362
313672	31	0	-3	0.3532149	-0.04709395	0.5204746	0	11.91	4002	0	0	5	5	0.6873717	0.1316882	1	15	0.04	1900	-1.415497	40.9236	-91.39362
313810	24	0	-6	0.3582672	-0.05113906	0.5297059	0	11.97	4003	0	0	5	5	0.6873717	0.1271023	1	15	0.04	1900	-1.428467	40.9236	-91.39362
313924	28	5	-10	0.3665358	-0.05330824	0.5378979	0	11.97	4004	0	0	5	5	0.6873717	0.1226737	1	15	0.04	1900	-1.649841	40.9236	-91.39362
313988	27	-1	-2	0.3646276	-0.05399744	0.5393649	0	11.97	4003	0	0	5	5	0.6873717	0.1192951	1	15	0.04	1900	-1.433258	40.9236	-91.39362
314110	33	0	-2	0.3724722	-0.05540067	0.546029	0	11.97	4003	0	0	5	5	0.6873717	0.1141939	1	15	0.04	1900	-1.441345	40.9236	-91.39362
314180	23	0	-7	0.378126	-0.04883242	0.552815	0	11.97	4004	0	0	5	5	0.6873717	0.1104801	1	15	0.04	1900	-1.449158	40.9236	-91.39362
314309	26	-1	-10	0.3853672	-0.05458661	0.5612519	0	11.97	4004	0	0	5	5	0.6873717	0.105146	1	15	0.04	1900	-1.470184	40.9236	-91.39362
314339	29	-1	-6	0.3881178	-0.05456858	0.5669374	0	11.97	4004	0	0	5	5	0.6873717	0.1007288	1	15	0.04	1900	-1.92334	40.9236	-91.39362
314454	29	0	-3	0.3862459	-0.04902494	0.5703608	0	11.97	4002	0	0	5	5	0.6873717	0.08816397	1	15	0.04	1900	-1.689178	40.9236	-91.39362
314561	30	4	-4	0.3875833	-0.04361881	0.5724396	0	11.97	4002	0	0	5	5	0.6873717	0.08201435	1	15	0.04	1900	-1.680359	40.9236	-91.39362
314696	31	1	2	0.3875723	-0.05488085	0.5811213	0	11.97	4003	0	0	5	5	0.6873717	0.07483338	1	15	0.04	1900	-1.689362	40.9236	-91.39362
314778	28	-3	-7	0.390885	-0.05239409	0.5874185	0	11.97	4003	0	0	5	5	0.6873717	0.06504953	1	15	0.04	1900	-1.693939	40.9236	-91.39362
314841	28	-2	-3	0.3944977	-0.05807524	0.5934715	0	11.97	4003	0	0	5	5	0.6873717	0.06073314	1	15	0.04	1900	-1.482208	40.9236	-91.39362
314916	30	1	-6	0.3936521	-0.05947821	0.597323	0	11.97	4002	0	0	5	5	0.6873717	0.05358323	1	15	0.04	1900	-1.481995	40.9236	-91.39362
314968	34	0	-1	0.3994889	-0.05816	0.6010522	0	11.97	4003	0	0	5	5	0.6873717	0.0537428	1	15	0.04	1900	-1.485229	40.9236	-91.39362
315060	26	0	1	0.4010485	-0.05882685	0.6042922	0	11.97	4003	0	0	5	5	0.6873717	0.05660893	1	15	0.04	1900	-1.485229	40.9236	-91.39362
315279	29	-1	-1	0.4103172	-0.05851394	0.6148079	0	11.97	4003	0	0	5	5	0.6873717	0.06819151	1	15	0.04	1900	-1.721588	40.9236	-91.39362
315318	27	1	1	0.4155586	-0.06352159	0.6238565	0	11.97	4002	0	0	5	5	0.6873717	0.08465502	1	15	0.04	1900	-1.510834	40.9236	-91.39362
315454	26	-4	-7	0.414481	-0.06071042	0.6290529	0	11.91	4002	0	0	5	5	0.6873717	0.09801716	1	15	0.04	1900	-1.506287	40.9236	-91.39362
315542	29	-1	-9	0.4148425	-0.05646909	0.6349218	0	11.91	4002	0	0	5	5	0.6873717	0.1181788	1	15	0.04	1900	-1.512299	40.9236	-91.39362
315603	28	2	-7	0.4144414	-0.0508141	0.639936	0	11.91	4003	0	0	5	5	0.6873717	0.1269432	1	15	0.04	1900	-1.512299	40.9236	-91.39362
315708	24	1	-2	0.4130127	-0.04758524	0.6465386	0	11.91	4003	0	0	5	5	0.6873717	0.1395841	1	15	0.04	1900	-1.735657	40.9236	-91.39362
315853	31	-2	-6	0.4259934	-0.04841516	0.6583379	0	11.91	4003	0	0	5	5	0.6873717	0.1633582	1	15	0.04	1900	-1.743866	40.9236	-91.39362
316011	28	-9	-6	0.4271665	-0.05254304	0.6714818	0	11.91	4003	0	0	5	5	0.6873717	0.1723953	1	15	0.04	1900	-1.534851	40.9236	-91.39362
316208	24	-1	-4	0.4178994	-0.05255602	0.6815086	0	11.91	4004	0	0	5	5	0.6873717	0.1834354	1	15	0.04	1900	-1.734894	40.9236	-91.39362
316351	33	-4	-7	0.4177591	-0.05460413	0.6945915	0	11.91	4004	0	0	5	5	0.6873717	0.1787541	1	15	0.04	1900	-1.51358	40.9236	-91.39362
316401	33	7	-8	0.4174287	-0.05357719	0.6975871	0	11.91	4002	0	0	5	5	0.6873717	0.1773542	1	15	0.04	1900	-1.511566	40.9236	-91.39362
316475	29	-1	0	0.4200684	-0.05671675	0.7026007	0	11.91	4004	0	0	5	5	0.6873717	0.1772412	1	15	0.04	1900	-1.733765	40.9236	-91.39362
316596	30	-10	-7	0.4167493	-0.06076823	0.7095702	0	11.91	4003	0	0	5	5	0.6873717	0.1791673	1	15	0.04	1900	-1.51181	40.9236	-91.39362
316678	34	1	-3	0.4242527	-0.0549744	0.7174577	0	11.91	4003	0	0	5	5	0.6873717	0.1769028	1	15	0.04	1900	-1.734192	40.9236	-91.39362
316783	33	2	-2	0.4207685	-0.05786509	0.722593	0	11.91	4003	0	0	5	5	0.6873717	0.1767062	1	15	0.04	1900	-1.517639	40.9236	-91.39362
316888	31	-1	-3	0.4219121	-0.0628458	0.728951	0	11.91	4002	0	0	5	5	0.6873717	0.1779406	1	15	0.04	1900	-1.741638	40.9236	-91.39362
316985	30	-6	0	0.4264837	-0.06240486	0.7360432	0	11.91	4003	0	0	5	5	0.6873717	0.1834241	1	15	0.04	1900	-1.522949	40.9236	-91.39362
317095	35	1	-8	0.4273973	-0.06404635	0.7419125	0	11.91	4003	0	0	5	5	0.6873717	0.1859051	1	15	0.04	1900	-1.521698	40.9236	-91.39362
317176	29	3	-7	0.4235524	-0.06226363	0.7463144	0	11.91	4003	0	0	5	5	0.6873717	0.1856333	1	15	0.04	1900	-1.53476	40.9236	-91.39362
317279	34	4	-4	0.4214915	-0.0630071	0.7559745	0	11.97	4003	0	0	5	5	0.6873717	0.1800048	1	15	0.04	1900	-1.740601	40.9236	-91.39362
317412	34	-11	-7	0.4212911	-0.06168087	0.7639227	0	11.97	4003	0	0	5	5	0.6873717	0.1508157	1	15	0.04	1900	-1.739777	40.9236	-91.39362
317511	27	-1	0	0.4182812	-0.06065561	0.773887	0	11.97	4003	0	0	5	5	0.6873717	0.1382909	1	15	0.04	1900	-1.741425	40.9236	-91.39362
317669	32	-5	-3	0.4128227	-0.06173142	0.7817127	0	11.97	4003	0	0	5	5	0.6873717	0.118685	1	15	0.04	1900	-1.513428	40.9236	-91.39362
317739	32	-4	-9	0.4160624	-0.0588517	0.7889881	0	11.97	4003	0	0	5	5	0.6873717	0.11976	1	15	0.04	1900	-1.733093	40.9236	-91.39362
317850	28	0	-4	0.4186026	-0.05371975	0.7968754	0	11.97	4003	0	0	5	5	0.6873717	0.1268463	1	15	0.04	1900	-1.51059	40.9236	-91.39362
317868	28	0	-4	0.4186026	-0.05371975	0.7968754	0	11.97	4003	0	0	5	5	0.6873717	0.1268463	1	15	0.04	1900	-1.51059	40.9236	-91.39362
318044	34	-5	-2	0.424283	-0.04848113	0.8091022	0	11.97	4003	0	0	5	5	0.6873717	0.1283111	1	15	0.04	1900	-1.74469	40.9236	-91.39362
318152	27	0	-2	0.4191969	-0.04466508	0.8189455	0	11.97	4004	0	0	5	5	0.6873717	0.1296453	1	15	0.04	1900	-1.738708	40.9236	-91.39362
318197	29	0	0	0.4169611	-0.04708432	0.8201684	0	11.97	4004	0	0	5	5	0.6873717	0.1305207	1	15	0.04	1900	-1.738708	40.9236	-91.39362
318248	29	1	-3	0.4168185	-0.04608953	0.8252426	0	11.97	4003	0	0	5	5	0.6873717	0.1301052	1	15	0.04	1900	-1.513214	40.9236	-91.39362
318424	38	-1	-2	0.4134459	-0.04432507	0.8333119	0	11.97	4002	0	0	5	5	0.6873717	0.1257101	1	15	0.04	1900	-1.507813	40.9236	-91.39362
318514	33	1	0	0.4154439	-0.04337509	0.8387535	0	11.97	4004	0	0	5	5	0.6873717	0.1281545	1	15	0.04	1900	-1.732269	40.9236	-91.39362
318606	26	0	-5	0.4186512	-0.04413225	0.8432166	0	11.97	4003	0	0	5	5	0.6873717	0.1306673	1	15	0.04	1900	-1.519379	40.9236	-91.39362
318700	28	-4	-2	0.4123851	-0.04296754	0.8504919	0	11.97	4003	0	0	5	5	0.6873717	0.1311912	1	15	0.04	1900	-1.508667	40.9236	-91.39362
318826	30	1	1	0.4116888	-0.04708717	0.8574619	0	11.97	4004	0	0	5	5	0.6873717	0.1352895	1	15	0.04	1900	-1.721344	40.9236	-91.39362
318858	24	-3	-2	0.4130521	-0.05026875	0.8591127	0	11.97	4004	0	0	5	5	0.6873717	0.1367533	1	15	0.04	1900	-1.721344	40.9236	-91.39362
318966	26	2	-6	0.4106298	-0.04850934	0.8653489	0	11.97	4004	0	0	5	5	0.6873717	0.1388995	1	15	0.04	1900	-1.500397	40.9236	-91.39362
319115	27	3	-2	0.4135958	-0.05550617	0.8769035	0	11.91	4004	0	0	5	5	0.6873717	0.1440561	1	15	0.04	1900	-1.954407	40.9236	-91.39362
319190	23	-1	0	0.4112398	-0.05820189	0.879043	0	11.91	4002	0	0	5	5	0.6873717	0.1436211	1	15	0.04	1900	-1.720795	40.9236	-91.39362
319276	28	-2	-9	0.40863	-0.06150738	0.886196	0	11.91	4004	0	0	5	5	0.6873717	0.1401213	1	15	0.04	1900	-1.735352	40.9236	-91.39362
319360	26	0	-1	0.408554	-0.05680456	0.8891302	0	11.91	4003	0	0	5	5	0.6873717	0.1333235	1	15	0.04	1900	-1.727539	40.9236	-91.39362
319435	27	-3	-4	0.4178391	-0.0580984	0.8970782	0	11.91	4003	0	0	5	5	0.6873717	0.1282337	1	15	0.04	1900	-1.740509	40.9236	-91.39362
319519	33	-2	-5	0.4175802	-0.05625943	0.9000737	0	11.91	4003	0	0	5	5	0.6873717	0.1303092	1	15	0.04	1900	-1.514618	40.9236	-91.39362
319595	31	-2	-6	0.4186906	-0.05712122	0.9034977	0	11.91	4004	0	0	5	5	0.6873717	0.1302324	1	15	0.04	1900	-1.519287	40.9236	-91.39362
319637	33	-2	-3	0.4212683	-0.05642943	0.905821	0	11.91	4003	0	0	5	5	0.6873717	0.1294663	1	15	0.04	1900	-1.516815	40.9236	-91.39362
319718	31	-2	-6	0.4191947	-0.06314557	0.911935	0	11.91	4003	0	0	5	5	0.6873717	0.134271	1	15	0.04	1900	-1.744751	40.9236	-91.39362
319882	24	-2	-1	0.4199352	-0.05680245	0.9206169	0	11.97	4003	0	0	5	5	0.6873717	0.1351984	1	15	0.04	1900	-1.737854	40.9236	-91.39362
319971	30	-2	-1	0.4201157	-0.05441175	0.9239188	0	11.97	4003	0	0	5	5	0.6873717	0.1456974	1	15	0.04	1900	-1.742828	40.9236	-91.39362
320075	30	-2	-3	0.4229887	-0.05340487	0.9300934	0	11.97	4003	0	0	5	5	0.6873717	0.1567219	1	15	0.04	1900	-1.957581	40.9236	-91.39362
320121	25	-1	-2	0.4201225	-0.05309702	0.9343117	0	11.97	4003	0	0	5	5	0.6873717	0.1659081	1	15	0.04	1900	-1.744537	40.9236	-91.39362
320234	30	1	-3	0.4198396	-0.05422152	0.937185	0	11.97	4003	0	0	5	5	0.6873717	0.1804042	1	15	0.04	1900	-1.732849	40.9236	-91.39362
320388	31	-6	-2	0.4194236	-0.05563215	0.948679	0	11.97	4003	0	0	5	5	0.6873717	0.2038023	1	15	0.04	1900	-1.516266	40.9236	-91.39362
320536	30	-1	-1	0.4209079	-0.06672294	0.9609057	0	11.97	4003	0	0	5	5	0.6873717	0.2191611	1	15	0.04	1900	-1.525085	40.9236	-91.39362
320629	33	0	-2	0.421951	-0.06482625	0.9667748	0	11.97	4004	0	0	5	5	0.6873717	0.2222443	1	15	0.04	1900	-1.52124	40.9236	-91.39362
320684	27	-2	-1	0.4190342	-0.06267578	0.9692203	0	11.97	4003	0	0	5	5	0.6873717	0.2265283	1	15	0.04	1900	-1.529297	40.9236	-91.39362
320791	31	-1	0	0.4268074	-0.05857779	0.9744782	0	11.97	4003	0	0	5	5	0.6873717	0.2330787	1	15	0.04	1900	-1.534393	40.9236	-91.39362
320936	28	1	-10	0.431765	-0.06186187	0.9813862	0	11.97	4004	0	0	5	5	0.6873717	0.2294034	1	15	0.04	1900	-1.532013	40.9236	-91.39362
321028	35	-3	1	0.4318416	-0.06304843	0.9829757	0	11.97	4002	0	0	5	5	0.6873717	0.2186753	1	15	0.04	1900	-1.756042	40.9236	-91.39362
321187	33	3	-3	0.4313377	-0.06270438	0.992879	0	11.97	4002	0	0	5	5	0.6873717	0.2012877	1	15	0.04	1900	-1.76062	40.9236	-91.39362
321359	28	1	-8	0.4379491	-0.06214912	1.005963	0	11.97	4002	0	0	5	5	0.6873717	0.1894536	1	15	0.04	1900	-1.768311	40.9236	-91.39362
321504	31	-7	-3	0.4476093	-0.06468242	1.014829	0	11.97	4003	0	0	5	5	0.6873717	0.1826217	1	15	0.04	1900	-1.561493	40.9236	-91.39362
321572	34	4	-4	0.4458144	-0.06426651	1.017091	0	11.97	4003	0	0	5	5	0.6873717	0.1834847	1	15	0.04	1900	-1.778473	40.9236	-91.39362
321694	29	0	-2	0.4367996	-0.07141729	1.026689	0	11.91	4003	0	0	5	5	0.6873717	0.1841139	1	15	0.04	1900	-1.557678	40.9236	-91.39362
321722	33	-2	-5	0.4388754	-0.0775177	1.028523	0	11.91	4003	0	0	5	5	0.6873717	0.1867361	1	15	0.04	1900	-1.760773	40.9236	-91.39362
321851	34	-3	-9	0.4419364	-0.08554395	1.035493	0	11.91	4004	0	0	5	5	0.6873717	0.1954068	1	15	0.04	1900	-1.769897	40.9236	-91.39362
321910	33	-3	-5	0.4441218	-0.08637454	1.037082	0	11.91	4004	0	0	5	5	0.6873717	0.196199	1	15	0.04	1900	-1.769897	40.9236	-91.39362
322074	30	0	-3	0.4411824	-0.07689946	1.043808	0	11.91	4003	0	0	5	5	0.6873717	0.2060635	1	15	0.04	1900	-1.775665	40.9236	-91.39362
322117	34	0	-10	0.4414462	-0.0674879	1.0498	0	11.91	4002	0	0	5	5	0.6873717	0.2059661	1	15	0.04	1900	-1.548431	40.9236	-91.39362
322249	27	-2	-3	0.4365264	-0.06735769	1.056647	0	11.91	4003	0	0	5	5	0.6873717	0.1974563	1	15	0.04	1900	-1.773407	40.9236	-91.39362
322360	33	5	-2	0.4363187	-0.07279346	1.063984	0	11.91	4003	0	0	5	5	0.6873717	0.1905513	1	15	0.04	1900	-1.763672	40.9236	-91.39362
322465	35	3	-5	0.4342445	-0.07051245	1.068142	0	11.91	4004	0	0	5	5	0.6873717	0.182864	1	15	0.04	1900	-1.547668	40.9236	-91.39362
322572	29	0	-6	0.4357142	-0.07364888	1.073216	0	11.97	4002	0	0	5	5	0.6873717	0.1748737	1	15	0.04	1900	-1.76004	40.9236	-91.39362
322645	33	-2	-3	0.438794	-0.07630934	1.078597	0	11.97	4003	0	0	5	5	0.6873717	0.1726661	1	15	0.04	1900	-1.559845	40.9236	-91.39362
322781	32	2	-6	0.4414996	-0.07680402	1.089175	0	11.97	4004	0	0	5	5	0.6873717	0.168827	1	15	0.04	1900	-1.769897	40.9236	-91.39362
322810	31	-1	0	0.4411341	-0.07639078	1.091498	0	11.97	4004	0	0	5	5	0.6873717	0.165928	1	15	0.04	1900	-1.769897	40.9236	-91.39362
322952	34	-5	-1	0.4393739	-0.06973024	1.096817	0	11.97	4003	0	0	5	5	0.6873717	0.1526199	1	15	0.04	1900	-1.77652	40.9236	-91.39362
323020	36	0	-6	0.435618	-0.06909257	1.100302	0	11.97	4003	0	0	5	5	0.6873717	0.1481535	1	15	0.04	1900	-1.545868	40.9236	-91.39362
323121	29	-5	2	0.4445433	-0.06806974	1.106477	0	11.97	4003	0	0	5	5	0.6873717	0.1395122	1	15	0.04	1900	-1.55542	40.9236	-91.39362
323209	28	-2	-4	0.4426423	-0.06726163	1.108678	0	11.97	4004	0	0	5	5	0.6873717	0.1222725	1	15	0.04	1900	-1.778259	40.9236	-91.39362
323334	31	-1	0	0.4344726	-0.06614542	1.116565	0	11.97	4004	0	0	5	5	0.6873717	0.1091065	1	15	0.04	1900	-1.775055	40.9236	-91.39362
323450	40	-8	-1	0.432576	-0.06542385	1.121028	0	11.91	4002	0	0	5	5	0.6873717	0.1045185	1	15	0.04	1900	-1.775055	40.9236	-91.39362
323564	25	2	-8	0.4346636	-0.07216178	1.127936	0	11.91	4002	0	0	5	5	0.6873717	0.1064957	1	15	0.04	1900	-1.547302	40.9236	-91.39362
323637	31	-2	-1	0.4412908	-0.07042303	1.131972	0	11.91	4004	0	0	5	5	0.6873717	0.1085385	1	15	0.04	1900	-1.556335	40.9236	-91.39362
323711	28	-2	-4	0.4428864	-0.06384876	1.135579	0	11.91	4002	0	0	5	5	0.6873717	0.1130627	1	15	0.04	1900	-1.559784	40.9236	-91.39362
323747	29	0	-6	0.4448089	-0.06306972	1.139125	0	11.91	4004	0	0	5	5	0.6873717	0.1123915	1	15	0.04	1900	-1.559784	40.9236	-91.39362
323877	27	-3	-1	0.4377042	-0.05942227	1.144689	0	11.91	4003	0	0	5	5	0.6873717	0.1084798	1	15	0.04	1900	-1.549042	40.9236	-91.39362
323941	34	-2	-4	0.4359885	-0.06247487	1.146339	0	11.91	4002	0	0	5	5	0.6873717	0.1069634	1	15	0.04	1900	-1.767395	40.9236	-91.39362
324052	33	-2	-4	0.4365688	-0.06412686	1.148663	0	11.91	4002	0	0	5	5	0.6873717	0.1128596	1	15	0.04	1900	-1.767395	40.9236	-91.39362
324211	27	-4	-3	0.4272339	-0.05498189	1.157101	0	11.91	4003	0	0	5	5	0.6873717	0.1224571	1	15	0.04	1900	-1.755463	40.9236	-91.39362
324323	28	-3	3	0.426657	-0.05441073	1.161136	0	11.91	4002	0	0	5	5	0.6873717	0.1287247	1	15	0.04	1900	-1.521149	40.9236	-91.39362
324399	30	-2	2	0.421466	-0.05128555	1.164314	0	11.91	4003	0	0	5	5	0.6873717	0.1358367	1	15	0.04	1900	-1.5354	40.9236	-91.39362
324539	24	2	-5	0.4210518	-0.04638372	1.172691	0	11.91	4002	0	0	5	5	0.6873717	0.1405703	1	15	0.04	1900	-1.744354	40.9236	-91.39362
324655	31	0	-6	0.4279059	-0.05384084	1.178438	0	11.91	4002	0	0	5	5	0.6873717	0.1411918	1	15	0.04	1900	-1.535889	40.9236	-91.39362
324777	31	-2	-2	0.4289297	-0.05260666	1.182228	0	11.91	4003	0	0	5	5	0.6873717	0.1398376	1	15	0.04	1900	-1.75058	40.9236	-91.39362
324819	30	2	-4	0.4342256	-0.04948946	1.18339	0	11.91	4004	0	0	5	5	0.6873717	0.1387927	1	15	0.04	1900	-1.538879	40.9236	-91.39362
324922	33	3	-3	0.429038	-0.04877345	1.18871	0	11.91	4004	0	0	5	5	0.6873717	0.1228059	1	15	0.04	1900	-1.536682	40.9236	-91.39362
325114	28	1	-5	0.4166634	-0.04822065	1.197697	0	11.91	4003	0	0	5	5	0.6873717	0.1088723	1	15	0.04	1900	-1.516022	40.9236	-91.39362
325194	32	2	0	0.4147919	-0.05000861	1.20106	0	11.91	4003	0	0	5	5	0.6873717	0.09743273	1	15	0.04	1900	-1.509369	40.9236	-91.39362
325347	33	0	0	0.4152623	-0.04570945	1.208824	0	11.91	4004	0	0	5	5	0.6873717	0.090771	1	15	0.04	1900	-1.728241	40.9236	-91.39362
325478	34	-2	-2	0.4168984	-0.0474518	1.217934	0	11.91	4004	0	0	5	5	0.6873717	0.08277687	1	15	0.04	1900	-1.73819	40.9236	-91.39362
325614	33	3	-5	0.4186006	-0.05205121	1.221296	0	11.91	4003	0	0	5	5	0.6873717	0.0842607	1	15	0.04	1900	-1.747711	40.9236	-91.39362
325687	29	0	-2	0.4235373	-0.05108336	1.229794	0	11.91	4004	0	0	5	5	0.6873717	0.08092895	1	15	0.04	1900	-1.520874	40.9236	-91.39362
325757	32	1	-5	0.4288781	-0.05202963	1.233157	0	11.91	4002	0	0	5	5	0.6873717	0.07851709	1	15	0.04	1900	-1.523254	40.9236	-91.39362
325824	36	-1	0	0.4240347	-0.05312559	1.237742	0	11.91	4002	0	0	5	5	0.6873717	0.07676238	1	15	0.04	1900	-1.750427	40.9236	-91.39362
326017	31	0	-1	0.4250198	-0.04268412	1.247098	0	11.91	4004	0	0	5	5	0.6873717	0.07559151	1	15	0.04	1900	-1.527832	40.9236	-91.39362
326140	28	0	-1	0.4269426	-0.04714092	1.253517	0	11.91	4003	0	0	5	5	0.6873717	0.0864963	1	15	0.04	1900	-1.523071	40.9236	-91.39362
326181	31	1	0	0.4291271	-0.04987701	1.257246	0	11.91	4004	0	0	5	5	0.6873717	0.08840499	1	15	0.04	1900	-1.756622	40.9236	-91.39362
326313	28	-2	-6	0.4304601	-0.04816906	1.265928	0	11.91	4002	0	0	5	5	0.6873717	0.1034283	1	15	0.04	1900	-1.746765	40.9236	-91.39362
326423	28	-1	-5	0.43604	-0.04943484	1.271186	0	11.91	4004	0	0	5	5	0.6873717	0.1098897	1	15	0.04	1900	-1.533691	40.9236	-91.39362
326454	28	-1	-5	0.43604	-0.04943484	1.271186	0	11.91	4004	0	0	5	5	0.6873717	0.1113359	1	15	0.04	1900	-1.533691	40.9236	-91.39362
326617	32	0	-3	0.4299802	-0.05748486	1.278706	0	11.91	4002	0	0	5	5	0.6873717	0.1096235	1	15	0.04	1900	-1.764801	40.9236	-91.39362
326672	28	4	-2	0.4319098	-0.06026137	1.280785	0	11.91	4003	0	0	5	5	0.6873717	0.109132	1	15	0.04	1900	-1.533691	40.9236	-91.39362
326763	31	0	-4	0.4307976	-0.06396513	1.284026	0	11.91	4004	0	0	5	5	0.6873717	0.1080497	1	15	0.04	1900	-1.538757	40.9236	-91.39362
326928	27	-1	-8	0.4366628	-0.06439017	1.291117	0	11.97	4003	0	0	5	5	0.6873717	0.1070718	1	15	0.04	1900	-1.764618	40.9236	-91.39362
327011	30	1	-7	0.4390644	-0.06656097	1.29393	0	11.97	4004	0	0	5	5	0.6873717	0.109997	1	15	0.04	1900	-1.550598	40.9236	-91.39362
327087	32	0	-5	0.4389365	-0.06632692	1.297476	0	11.97	4003	0	0	5	5	0.6873717	0.1090844	1	15	0.04	1900	-1.754822	40.9236	-91.39362
327157	35	1	-8	0.4433548	-0.06661344	1.300594	0	11.97	4002	0	0	5	5	0.6873717	0.1069493	1	15	0.04	1900	-1.766235	40.9236	-91.39362
327306	33	2	0	0.4466003	-0.06397477	1.30414	0	11.97	4002	0	0	5	5	0.6873717	0.1002005	1	15	0.04	1900	-1.776489	40.9236	-91.39362
327470	34	-1	-10	0.4483746	-0.06207807	1.310682	0	11.97	4003	0	0	5	5	0.6873717	0.09404496	1	15	0.04	1900	-1.778381	40.9236	-91.39362
327613	34	-1	-1	0.4517475	-0.05800124	1.316002	0	11.97	4004	0	0	5	5	0.6873717	0.1018523	1	15	0.04	1900	-1.791504	40.9236	-91.39362
327748	28	5	-5	0.4568383	-0.05729236	1.322237	0	11.97	4003	0	0	5	5	0.6873717	0.1171138	1	15	0.04	1900	-1.783142	40.9236	-91.39362
327815	32	0	-1	0.4576897	-0.05572206	1.326455	0	11.91	4003	0	0	5	5	0.6873717	0.1199979	1	15	0.04	1900	-1.577759	40.9236	-91.39362
327895	34	-2	-4	0.4583442	-0.05715694	1.330857	0	11.91	4004	0	0	5	5	0.6873717	0.1299621	1	15	0.04	1900	-1.574951	40.9236	-91.39362
328037	32	3	-5	0.4537448	-0.05768202	1.336482	0	11.91	4004	0	0	5	5	0.6873717	0.1321657	1	15	0.04	1900	-1.573303	40.9236	-91.39362
328114	33	-1	0	0.4541152	-0.0592296	1.340578	0	11.91	4004	0	0	5	5	0.6873717	0.13492	1	15	0.04	1900	-1.564758	40.9236	-91.39362
328249	33	-2	-5	0.4589301	-0.06237736	1.345164	0	11.91	4004	0	0	5	5	0.6873717	0.1451714	1	15	0.04	1900	-1.578369	40.9236	-91.39362
328342	34	2	0	0.4559749	-0.06508343	1.351156	0	11.91	4003	0	0	5	5	0.6873717	0.15327	1	15	0.04	1900	-1.575409	40.9236	-91.39362
328381	35	3	-1	0.4550586	-0.06440429	1.352867	0	11.91	4003	0	0	5	5	0.6873717	0.1539395	1	15	0.04	1900	-1.575409	40.9236	-91.39362
328484	35	0	5	0.447333	-0.06373847	1.356413	0	11.91	4004	0	0	5	5	0.6873717	0.1552125	1	15	0.04	1900	-1.779205	40.9236	-91.39362
328691	32	1	-2	0.4491201	-0.06286742	1.366563	0	11.91	4002	0	0	5	5	0.6873717	0.1514114	1	15	0.04	1900	-1.560913	40.9236	-91.39362
328821	36	1	-3	0.4518238	-0.05993971	1.372065	0	11.91	4003	0	0	5	5	0.6873717	0.1533731	1	15	0.04	1900	-1.779541	40.9236	-91.39362
328925	34	1	0	0.455362	-0.05669692	1.377262	0	11.91	4003	0	0	5	5	0.6873717	0.1459934	1	15	0.04	1900	-1.580048	40.9236	-91.39362
329022	29	5	-2	0.4513231	-0.05688687	1.384966	0	11.91	4003	0	0	5	5	0.6873717	0.1387268	1	15	0.04	1900	-1.566376	40.9236	-91.39362
329189	34	-3	-5	0.4515075	-0.05720242	1.391019	0	11.91	4002	0	0	5	5	0.6873717	0.1266352	1	15	0.04	1900	-1.556122	40.9236	-91.39362
329286	33	-5	1	0.4499052	-0.05862186	1.392547	0	11.91	4004	0	0	5	5	0.6873717	0.122264	1	15	0.04	1900	-1.563293	40.9236	-91.39362
329380	38	0	-8	0.4531385	-0.05625065	1.39646	0	11.91	4004	0	0	5	5	0.6873717	0.1195206	1	15	0.04	1900	-1.568176	40.9236	-91.39362
329485	31	4	-1	0.4560528	-0.05555496	1.402269	0	11.91	4002	0	0	5	5	0.6873717	0.113418	1	15	0.04	1900	-1.560822	40.9236	-91.39362
329591	36	-4	-6	0.4524231	-0.05501515	1.406671	0	11.91	4003	0	0	5	5	0.6873717	0.1119344	1	15	0.04	1900	-1.567871	40.9236	-91.39362
329768	36	-2	0	0.4713718	-0.05746509	1.416393	0	11.91	4002	0	0	5	5	0.6873717	0.1091462	1	15	0.04	1900	-1.818817	40.9236	-91.39362
329828	31	-9	-4	0.4668	-0.05723081	1.417616	0	11.91	4003	0	0	5	5	0.6873717	0.109666	1	15	0.04	1900	-1.818817	40.9236	-91.39362
329928	30	3	0	0.4627752	-0.05398545	1.423974	0	11.91	4003	0	0	5	5	0.6873717	0.10526	1	15	0.04	1900	-1.589783	40.9236	-91.39362
329988	35	-3	4	0.4628103	-0.05474058	1.427581	0	11.91	4002	0	0	5	5	0.6873717	0.1029138	1	15	0.04	1900	-1.801086	40.9236	-91.39362
330063	35	-1	0	0.4616181	-0.05744871	1.428926	0	11.91	4002	0	0	5	5	0.6873717	0.0962157	1	15	0.04	1900	-1.583038	40.9236	-91.39362
330204	41	-4	-1	0.4691011	-0.05705705	1.433695	0	11.91	4002	0	0	5	5	0.6873717	0.08681554	1	15	0.04	1900	-1.595276	40.9236	-91.39362
330371	27	-3	1	0.467861	-0.05864824	1.44091	0	11.91	4002	0	0	5	5	0.6873717	0.08613356	1	15	0.04	1900	-1.807129	40.9236	-91.39362
330513	31	-3	0	0.4659794	-0.05543024	1.447697	0	11.97	4002	0	0	5	5	0.6873717	0.07985453	1	15	0.04	1900	-1.804138	40.9236	-91.39362
330586	33	0	1	0.4639399	-0.05421455	1.450692	0	11.97	4003	0	0	5	5	0.6873717	0.06845776	1	15	0.04	1900	-1.80191	40.9236	-91.39362
330739	36	-2	-6	0.4530907	-0.05279905	1.458884	0	11.97	4003	0	0	5	5	0.6873717	0.05182442	1	15	0.04	1900	-1.789398	40.9236	-91.39362
330868	32	-2	-4	0.4624128	-0.05673347	1.467872	0	11.97	4003	0	0	5	5	0.6873717	0.04035438	1	15	0.04	1900	-1.79776	40.9236	-91.39362
330924	37	-10	-3	0.4668325	-0.05896921	1.469034	0	11.97	4003	0	0	5	5	0.6873717	0.03416496	1	15	0.04	1900	-1.585327	40.9236	-91.39362
331085	40	-4	-2	0.4611469	-0.06842082	1.480283	0	11.97	4004	0	0	5	5	0.6873717	0.02328283	1	15	0.04	1900	-1.578583	40.9236	-91.39362
331205	27	0	-2	0.4671863	-0.06216144	1.485541	0	11.97	4003	0	0	5	5	0.6873717	0.01573977	1	15	0.04	1900	-1.5961	40.9236	-91.39362
331264	33	-4	-8	0.4646035	-0.0612751	1.488109	0	11.97	4004	0	0	5	5	0.6873717	0.01427171	1	15	0.04	1900	-1.591461	40.9236	-91.39362
331374	35	2	-5	0.4555587	-0.07073627	1.493306	0	11.85	4003	0	0	5	5	0.6873717	0.02175838	1	15	0.04	1900	-1.58609	40.9236	-91.39362
331436	32	2	-3	0.4592033	-0.06720543	1.496792	0	11.85	4004	0	0	5	5	0.6873717	0.02994774	1	15	0.04	1900	-1.800995	40.9236	-91.39362
331572	35	0	-1	0.4659191	-0.0681642	1.504496	0	11.85	4003	0	0	5	5	0.6873717	0.04038979	1	15	0.04	1900	-1.81076	40.9236	-91.39362
331712	31	1	-5	0.4617369	-0.06496166	1.509386	0	11.85	4003	0	0	5	5	0.6873717	0.05460663	1	15	0.04	1900	-1.802643	40.9236	-91.39362
331871	37	-2	-9	0.468676	-0.06295057	1.520208	0	11.85	4002	0	0	5	5	0.6873717	0.06988169	1	15	0.04	1900	-1.806854	40.9236	-91.39362
331955	33	-3	-4	0.4686888	-0.05191812	1.523754	0	11.85	4003	0	0	5	5	0.6873717	0.08003013	1	15	0.04	1900	-1.817535	40.9236	-91.39362
331997	35	-2	-7	0.4688175	-0.05622678	1.526872	0	11.85	4003	0	0	5	5	0.6873717	0.08167258	1	15	0.04	1900	-1.817535	40.9236	-91.39362
332191	31	-6	-7	0.472785	-0.05521538	1.538548	0	11.85	4003	0	0	5	5	0.6873717	0.07865895	1	15	0.04	1900	-1.820892	40.9236	-91.39362
332226	33	0	-3	0.4732935	-0.05919211	1.541972	0	11.91	4003	0	0	5	5	0.6873717	0.07629905	1	15	0.04	1900	-1.823914	40.9236	-91.39362
332277	38	2	-1	0.4720473	-0.0649706	1.544051	0	11.91	4002	0	0	5	5	0.6873717	0.07529298	1	15	0.04	1900	-1.820251	40.9236	-91.39362
332380	37	-2	-4	0.4781773	-0.0639991	1.54882	0	11.91	4002	0	0	5	5	0.6873717	0.0741546	1	15	0.04	1900	-1.603699	40.9236	-91.39362
332530	38	-4	-1	0.4843402	-0.06386847	1.558969	0	11.91	4004	0	0	5	5	0.6873717	0.07680268	1	15	0.04	1900	-1.616608	40.9236	-91.39362
332572	31	1	-4	0.4834357	-0.0667097	1.560254	0	11.91	4004	0	0	5	5	0.6873717	0.07610635	1	15	0.04	1900	-1.616608	40.9236	-91.39362
332672	31	-3	-6	0.4831672	-0.06699151	1.563555	0	11.91	4002	0	0	5	5	0.6873717	0.07609527	1	15	0.04	1900	-1.614655	40.9236	-91.39362
332820	32	1	-1	0.4773156	-0.06348354	1.569608	0	11.91	4004	0	0	5	5	0.6873717	0.1013463	1	15	0.04	1900	-1.60556	40.9236	-91.39362
332894	34	3	-1	0.4797672	-0.06377365	1.573277	0	11.91	4003	0	0	5	5	0.6873717	0.1075002	1	15	0.04	1900	-1.605835	40.9236	-91.39362
333002	35	-3	-4	0.4813345	-0.06083877	1.581775	0	11.91	4003	0	0	5	5	0.6873717	0.1190954	1	15	0.04	1900	-1.604645	40.9236	-91.39362
333070	33	0	-3	0.4814384	-0.060153	1.584342	0	11.91	4003	0	0	5	5	0.6873717	0.1182379	1	15	0.04	1900	-1.822357	40.9236	-91.39362
333174	35	2	-9	0.4797329	-0.05677965	1.589967	0	11.91	4003	0	0	5	5	0.6873717	0.1166569	1	15	0.04	1900	-1.822357	40.9236	-91.39362
333337	36	-3	0	0.477354	-0.05538838	1.599872	0	11.91	4002	0	0	5	5	0.6873717	0.1202927	1	15	0.04	1900	-1.619324	40.9236	-91.39362
