time(ms)	gyro_x(deg/s)	gyro_y(deg/s)	gyro_z(deg/s)	orientation_roll(deg)	orientation_pitch(deg)	orientation_yaw(deg)	throttle	battery(V)	loop_time(uS)	pid_output_roll	pid_output_pitch	pid_output_yaw	pid_output_throttle	ultrasonic_alt	baro_alt	flight_mode	p_gain_altitude	i_gain_altitude	d_gain_altitude	compass_heading	latitude	longitude
101222	5	-1	6	-0.009717291	0.006903523	-5.84962	0	12.31	4003	0	0	5	5	0.02	0.3417876	1	15	0.04	1800	-0.8782349	40.92356	-91.39355
101303	-1	5	0	-0.01146651	0.01055696	-5.854573	0	12.31	4003	0	0	5	5	0.02	0.3391134	1	15	0.04	1800	-0.6581421	40.92356	-91.39355
101413	0	-2	2	-0.01444354	0.006074569	-5.864049	0	12.31	4003	0	0	5	5	0.02	0.3367118	1	15	0.04	1800	-0.871582	40.92356	-91.39355
101525	1	0	5	-0.01911995	0.005375734	-5.869857	0	12.36	4003	0	0	5	5	0.02	0.3336121	1	15	0.04	1800	-0.8773193	40.92356	-91.39355
101662	0	-1	5	-0.02389973	0.00613893	-5.878722	0	12.36	4003	0	0	5	5	0.02	0.3308777	1	15	0.04	1800	-0.867981	40.92356	-91.39355
101700	0	-2	6	-0.02266194	0.007008468	-5.8797	0	12.36	4004	0	0	5	5	0.02	0.3320456	1	15	0.04	1800	-0.8607788	40.92356	-91.39355
101855	0	-4	-2	-0.0183575	0.008134558	-5.885448	0	12.36	4003	0	0	5	5	0.02	0.3311707	1	15	0.04	1800	-0.8649597	40.92357	-91.39355
101983	3	-4	6	-0.02556941	0.01164608	-5.899936	0	12.36	4002	0	0	5	5	0.02	0.3294361	1	15	0.04	1800	-0.8636169	40.92357	-91.39355
102040	-3	0	6	-0.02459728	0.01336661	-5.902137	0	12.36	4002	0	0	5	5	0.02	0.3287582	1	15	0.04	1800	-0.6365967	40.92357	-91.39355
102189	-1	0	5	-0.0348139	0.006713251	-5.913387	0	12.36	4003	0	0	5	5	0.02	0.3300433	1	15	0.04	1800	-0.8457336	40.92358	-91.39355
102256	2	-4	4	-0.03252275	0.004667934	-5.917973	0	12.36	4004	0	0	5	5	0.02	0.3324418	1	15	0.04	1800	-0.6234436	40.92358	-91.39355
102349	0	-1	2	-0.03048447	0.008874911	-5.925613	0	12.36	4003	0	0	5	5	0.02	0.3341903	1	15	0.04	1800	-0.8503723	40.92359	-91.39355
102375	0	-1	2	-0.03048447	0.008874911	-5.925613	0	12.36	4003	0	0	5	5	0.02	0.3346607	1	15	0.04	1800	-0.8503723	40.92359	-91.39355
102492	4	2	7	-0.03030371	0.005412265	-5.932828	0	12.31	4002	0	0	5	5	0.02	0.3403227	1	15	0.04	1800	-0.8478699	40.92359	-91.39355
102660	-3	0	2	-0.02874693	0.008764206	-5.943404	0	12.31	4004	0	0	5	5	0.02	0.3383211	1	15	0.04	1800	-0.8528748	40.92359	-91.39356
102761	-3	0	8	-0.0301828	0.01167256	-5.948295	0	12.31	4004	0	0	5	5	0.02	0.3338763	1	15	0.04	1800	-0.8525696	40.92359	-91.39356
102851	0	-2	4	-0.02531224	0.018896	-5.954469	0	12.31	4002	0	0	5	5	0.02	0.3342746	1	15	0.04	1800	-0.8518066	40.92359	-91.39356
102883	0	4	2	-0.0277488	0.02055568	-5.955692	0	12.31	4003	0	0	5	5	0.02	0.334621	1	15	0.04	1800	-0.8569641	40.92359	-91.39356
103069	-1	0	1	-0.02657189	0.01746349	-5.96798	0	12.31	4004	0	0	5	5	0.02	0.3385233	1	15	0.04	1800	-0.8568726	40.92359	-91.39357
103136	0	0	6	-0.02657282	0.0157128	-5.973361	0	12.31	4003	0	0	5	5	0.02	0.3357612	1	15	0.04	1800	-0.6307983	40.92359	-91.39357
103303	-5	5	2	-0.03341138	0.01485976	-5.987422	0	12.31	4004	0	0	5	5	0.02	0.3297744	1	15	0.04	1800	-0.8473511	40.92358	-91.39356
103410	3	-2	8	-0.03545475	0.009233125	-5.995307	0	12.36	4004	0	0	5	5	0.02	0.3309664	1	15	0.04	1800	-0.8479309	40.92358	-91.39356
103517	-7	0	0	-0.03402264	0.01448274	-6.007778	0	12.36	4003	0	0	5	5	0.02	0.3363862	1	15	0.04	1800	-0.8425903	40.92358	-91.39355
103568	-1	-3	7	-0.03509684	0.01569617	-6.010101	0	12.36	4003	0	0	5	5	0.02	0.3375484	1	15	0.04	1800	-0.8425903	40.92357	-91.39355
103693	1	1	9	-0.03829159	0.01842239	-6.02245	0	12.36	4002	0	0	5	5	0.02	0.337312	1	15	0.04	1800	-0.8349915	40.92357	-91.39355
103840	-1	-5	8	-0.04125623	0.02149515	-6.030826	0	12.36	4003	0	0	5	5	0.02	0.3333291	1	15	0.04	1800	-0.8364563	40.92357	-91.39354
103892	-1	4	8	-0.04347049	0.02123833	-6.038284	0	12.36	4004	0	0	5	5	0.02	0.3332947	1	15	0.04	1800	-0.831604	40.92356	-91.39354
104042	3	-4	1	-0.03900385	0.0244052	-6.046597	0	12.36	4004	0	0	5	5	0.02	0.3290489	1	15	0.04	1800	-0.8367004	40.92356	-91.39353
104216	-4	1	2	-0.03611549	0.02435179	-6.060719	0	12.31	4003	0	0	5	5	0.02	0.3163108	1	15	0.04	1800	-0.832489	40.92356	-91.39352
104280	-1	1	5	-0.0341644	0.02156306	-6.070377	0	12.31	4004	0	0	5	5	0.02	0.3097932	1	15	0.04	1800	-0.8383179	40.92355	-91.39352
104427	-1	6	5	-0.03569173	0.02144262	-6.075023	0	12.31	4004	0	0	5	5	0.02	0.3101636	1	15	0.04	1800	-0.8441467	40.92355	-91.39352
104502	-2	3	6	-0.03930771	0.01532606	-6.086395	0	12.31	4003	0	0	5	5	0.02	0.3079166	1	15	0.04	1800	-0.8349915	40.92355	-91.39352
104569	-1	0	4	-0.04355983	0.01474614	-6.092814	0	12.31	4004	0	0	5	5	0.02	0.3024416	1	15	0.04	1800	-0.8349915	40.92355	-91.39352
104641	1	0	5	-0.04238597	0.01243237	-6.097704	0	12.31	4003	0	0	5	5	0.02	0.300209	1	15	0.04	1800	-0.8310547	40.92355	-91.39352
104739	-7	0	5	-0.0460661	0.01147822	-6.102229	0	12.31	4003	0	0	5	5	0.02	0.293933	1	15	0.04	1800	-0.8295288	40.92355	-91.39352
104825	-1	4	2	-0.05330264	0.01138317	-6.114028	0	12.31	4003	0	0	5	5	0.02	0.2942052	1	15	0.04	1800	-0.8168945	40.92355	-91.39352
104980	-2	2	0	-0.0563757	0.01980903	-6.124238	0	12.31	4004	0	0	5	5	0.02	0.3011037	1	15	0.04	1800	-0.8163757	40.92355	-91.39352
105144	0	6	6	-0.05046315	0.01431722	-6.136098	0	12.36	4003	0	0	5	5	0.02	0.3125396	1	15	0.04	1800	-0.591095	40.92355	-91.39353
105322	0	0	3	-0.04977177	0.01952578	-6.151322	0	12.36	4003	0	0	5	5	0.02	0.3254503	1	15	0.04	1800	-0.8269653	40.92355	-91.39352
105410	-1	-10	5	-0.04833687	0.01669423	-6.159942	0	12.36	4003	0	0	5	5	0.02	0.3344627	1	15	0.04	1800	-0.8202515	40.92355	-91.39352
105470	0	2	9	-0.05359701	0.01780726	-6.166851	0	12.36	4003	0	0	5	5	0.02	0.3350693	1	15	0.04	1800	-0.8216553	40.92355	-91.39352
105540	-2	-4	3	-0.05588714	0.01604526	-6.171252	0	12.36	4002	0	0	5	5	0.02	0.3349252	1	15	0.04	1800	-0.8110657	40.92356	-91.39352
105612	0	0	6	-0.05715426	0.01510041	-6.17816	0	12.36	4004	0	0	5	5	0.02	0.3359011	1	15	0.04	1800	-0.8063049	40.92356	-91.39352
105788	-4	0	5	-0.07092397	0.01992143	-6.190939	0	12.36	4003	0	0	5	5	0.02	0.3483968	1	15	0.04	1800	-0.7946777	40.92356	-91.39352
105836	-3	-6	7	-0.06988646	0.02064251	-6.19479	0	12.36	4003	0	0	5	5	0.02	0.3511355	1	15	0.04	1800	-0.7946777	40.92356	-91.39352
106004	-2	0	11	-0.05946306	0.01869964	-6.208239	0	12.36	4002	0	0	5	5	0.02	0.3348116	1	15	0.04	1800	-0.8021545	40.92356	-91.39352
106148	-7	-1	2	-0.06216282	0.02307973	-6.217958	0	12.31	4003	0	0	5	5	0.02	0.3185569	1	15	0.04	1800	-0.7971497	40.92356	-91.39352
106230	-2	1	0	-0.066115	0.02128875	-6.226334	0	12.31	4004	0	0	5	5	0.02	0.3103855	1	15	0.04	1800	-0.7966919	40.92356	-91.39352
106282	1	3	15	-0.06255686	0.0228438	-6.228962	0	12.31	4003	0	0	5	5	0.02	0.3083621	1	15	0.04	1800	-0.7966919	40.92356	-91.39352
106419	0	0	4	-0.0714591	0.02789085	-6.243207	0	12.31	4004	0	0	5	5	0.02	0.3058047	1	15	0.04	1800	-0.7944031	40.92356	-91.39352
106551	-4	2	8	-0.07285921	0.02068138	-6.252927	0	12.31	4002	0	0	5	5	0.02	0.3014125	1	15	0.04	1800	-0.7825317	40.92356	-91.39352
106596	-3	-1	8	-0.0761017	0.0199446	-6.256045	0	12.31	4004	0	0	5	5	0.02	0.2999547	1	15	0.04	1800	-0.7825317	40.92355	-91.39352
106698	-3	6	6	-0.07496487	0.01437079	-6.268273	0	12.31	4003	0	0	5	5	0.02	0.2999958	1	15	0.04	1800	-0.789978	40.92355	-91.39352
106895	-8	0	2	-0.07644184	0.02126489	-6.284839	0	12.31	4003	0	0	5	5	0.02	0.3037043	1	15	0.04	1800	-0.777771	40.92355	-91.39353
106950	0	3	2	-0.0733375	0.02285871	-6.288691	0	12.31	4004	0	0	5	5	0.02	0.3049748	1	15	0.04	1800	-0.7842712	40.92355	-91.39354
107100	-7	-1	10	-0.07888245	0.02885999	-6.295538	0	12.31	4004	0	0	5	5	0.02	0.3004509	1	15	0.04	1800	-0.7809143	40.92355	-91.39354
107216	-7	-4	1	-0.07410427	0.0258741	-6.3107	0	12.31	4003	0	0	5	5	0.02	0.2968064	1	15	0.04	1800	-0.7790222	40.92355	-91.39354
107368	-6	-11	3	-0.0680206	0.0260788	-6.324213	0	12.31	4002	0	0	5	5	0.02	0.2913101	1	15	0.04	1800	-0.7912903	40.92356	-91.39354
107405	-5	1	2	-0.07391561	0.02716697	-6.326231	0	12.31	4002	0	0	5	5	0.02	0.2885347	1	15	0.04	1800	-0.7864075	40.92356	-91.39354
107487	-3	-2	2	-0.0700499	0.03090284	-6.330448	0	12.31	4003	0	0	5	5	0.02	0.2885513	1	15	0.04	1800	-0.7908936	40.92356	-91.39354
107624	-9	0	7	-0.06799188	0.03473564	-6.346097	0	12.31	4003	0	0	5	5	0.02	0.2797975	1	15	0.04	1800	-0.7842102	40.92356	-91.39354
107723	0	4	2	-0.06834513	0.03158247	-6.351598	0	12.31	4004	0	0	5	5	0.02	0.2756245	1	15	0.04	1800	-0.7876587	40.92357	-91.39354
107792	-5	0	-1	-0.06739178	0.02917127	-6.357346	0	12.31	4004	0	0	5	5	0.02	0.273968	1	15	0.04	1800	-0.7941284	40.92357	-91.39354
108020	-4	-2	4	-0.07315689	0.03116796	-6.373301	0	12.31	4004	0	0	5	5	0.02	0.26127	1	15	0.04	1800	-0.7879639	40.92357	-91.39355
108131	0	0	9	-0.06859791	0.03276606	-6.382409	0	12.31	4003	0	0	5	5	0.02	0.2714792	1	15	0.04	1800	-0.7893677	40.92357	-91.39355
108201	-4	0	2	-0.06382166	0.03270635	-6.387543	0	12.31	4002	0	0	5	5	0.02	0.2772717	1	15	0.04	1800	-0.5644836	40.92357	-91.39354
108365	-4	0	-1	-0.06866394	0.02736678	-6.396531	0	12.31	4004	0	0	5	5	0.02	0.2982831	1	15	0.04	1800	-0.7982788	40.92358	-91.39354
108459	1	2	9	-0.06676123	0.02920938	-6.403133	0	12.31	4003	0	0	5	5	0.02	0.314159	1	15	0.04	1800	-0.7921143	40.92358	-91.39354
108580	-4	0	-1	-0.07292258	0.02785208	-6.414138	0	12.31	4004	0	0	5	5	0.02	0.3297192	1	15	0.04	1800	-0.7911072	40.92358	-91.39353
108661	-3	0	8	-0.06904585	0.02579084	-6.419396	0	12.31	4003	0	0	5	5	0.02	0.3347731	1	15	0.04	1800	-0.7826538	40.92358	-91.39353
108725	-3	-2	5	-0.07038912	0.02499495	-6.424227	0	12.31	4002	0	0	5	5	0.02	0.3365417	1	15	0.04	1800	-0.7893677	40.92358	-91.39352
108857	-3	-5	5	-0.06922104	0.02527929	-6.43401	0	12.36	4004	0	0	5	5	0.02	0.3376941	1	15	0.04	1800	-0.7847595	40.92358	-91.39352
108965	-2	-2	12	-0.06853826	0.02387845	-6.444282	0	12.36	4004	0	0	5	5	0.02	0.3341673	1	15	0.04	1800	-0.3423157	40.92358	-91.39352
109020	-6	-1	5	-0.07016275	0.02067706	-6.450272	0	12.36	4003	0	0	5	5	0.02	0.3352045	1	15	0.04	1800	-0.7889709	40.92358	-91.39352
109122	-3	-3	2	-0.06521805	0.01652313	-6.457424	0	12.36	4004	0	0	5	5	0.02	0.3406854	1	15	0.04	1800	-0.7912598	40.92359	-91.39352
109165	-5	-2	10	-0.06689692	0.01305919	-6.461154	0	12.36	4004	0	0	5	5	0.02	0.3419463	1	15	0.04	1800	-0.800354	40.92359	-91.39352
109265	-10	-1	5	-0.06764324	0.008603908	-6.469773	0	12.36	4004	0	0	5	5	0.02	0.3477095	1	15	0.04	1800	-0.7925415	40.92359	-91.39352
109385	-7	1	3	-0.06686911	0.002584327	-6.475643	0	12.36	4002	0	0	5	5	0.02	0.3488007	1	15	0.04	1800	-0.7918091	40.92359	-91.39352
109520	-2	2	7	-0.07242276	0.00802926	-6.48628	0	12.36	4002	0	0	5	5	0.02	0.3222786	1	15	0.04	1800	-0.7835693	40.92359	-91.39353
109601	-4	-2	8	-0.07253401	0.01655744	-6.49056	0	12.36	4003	0	0	5	5	0.02	0.3161827	1	15	0.04	1800	-0.7830811	40.92359	-91.39353
109750	-1	-3	4	-0.07464064	0.01790638	-6.499547	0	12.36	4003	0	0	5	5	0.02	0.2973153	1	15	0.04	1800	-0.7790527	40.9236	-91.39354
109896	0	-1	6	-0.06733219	0.01363951	-6.510246	0	12.36	4004	0	0	5	5	0.02	0.2922823	1	15	0.04	1800	-0.79422	40.9236	-91.39354
110003	1	-3	3	-0.06843194	0.01713699	-6.520639	0	12.36	4002	0	0	5	5	0.02	0.2933117	1	15	0.04	1800	-1.014709	40.9236	-91.39354
110083	3	-3	13	-0.06921507	0.01779549	-6.526021	0	12.36	4003	0	0	5	5	0.02	0.3047176	1	15	0.04	1800	-1.015015	40.9236	-91.39354
110180	-1	1	5	-0.06824343	0.0168903	-6.533967	0	12.36	4002	0	0	5	5	0.02	0.3104142	1	15	0.04	1800	-0.7910767	40.9236	-91.39354
110342	-3	1	7	-0.06402266	0.01941624	-6.54638	0	12.36	4003	0	0	5	5	0.02	0.3296506	1	15	0.04	1800	-0.7957153	40.9236	-91.39354
110394	-2	0	11	-0.05999996	0.01906334	-6.55072	0	12.36	4002	0	0	5	5	0.02	0.3306268	1	15	0.04	1800	-0.8024902	40.9236	-91.39355
110510	3	5	4	-0.06235087	0.01501852	-6.559217	0	12.36	4002	0	0	5	5	0.02	0.3299538	1	15	0.04	1800	-0.7987671	40.9236	-91.39355
110553	-7	1	5	-0.05707834	0.0158559	-6.560685	0	12.36	4003	0	0	5	5	0.02	0.3293829	1	15	0.04	1800	-0.5843201	40.9236	-91.39355
110727	-4	-1	3	-0.06790069	0.01725292	-6.578108	0	12.36	4002	0	0	5	5	0.02	0.323055	1	15	0.04	1800	-0.789093	40.9236	-91.39355
110881	-1	0	4	-0.06884624	0.02093482	-6.592844	0	12.36	4002	0	0	5	5	0.02	0.3113976	1	15	0.04	1800	-0.7915649	40.9236	-91.39355
111042	-5	2	6	-0.07303527	0.01696136	-6.603482	0	12.36	4004	0	0	5	5	0.02	0.2819014	1	15	0.04	1800	-0.7819824	40.78654	-61.35841
111122	-1	-1	1	-0.06998236	0.01565056	-6.611124	0	12.36	4003	0	0	5	5	0.02	0.2556172	1	15	0.04	1800	-0.7877197	40.71801	-46.34084
111183	-8	1	1	-0.07223295	0.01607957	-6.616809	0	12.36	4003	0	0	5	5	0.02	0.2513335	1	15	0.04	1800	-0.7908936	40.71801	-46.34085
111268	-3	-3	6	-0.0726172	0.01622912	-6.621517	0	12.36	4002	0	0	5	5	0.02	0.2255075	1	15	0.04	1800	-0.7831726	40.71801	-46.34085
111367	0	0	10	-0.07392772	0.01982115	-6.633378	0	12.36	4003	0	0	5	5	0.02	0.2109697	1	15	0.04	1800	-0.7854004	40.71801	-46.34085
111575	-5	1	1	-0.06673405	0.01905616	-6.647806	0	12.36	4003	0	0	5	5	0.02	0.1968269	1	15	0.04	1800	-0.5697937	40.71801	-46.34086
111691	-5	-5	11	-0.07110547	0.02187818	-6.657526	0	12.36	4004	0	0	5	5	0.02	0.1936502	1	15	0.04	1800	-0.7941589	40.85507	-76.37601
111861	-3	0	6	-0.07722292	0.0154041	-6.672199	0	12.36	4004	0	0	5	5	0.02	0.1867076	1	15	0.04	1800	-0.778595	40.9236	-91.39359
111935	-1	2	3	-0.07983506	0.01106607	-6.678619	0	12.36	4003	0	0	5	5	0.02	0.187921	1	15	0.04	1800	-0.788269	40.9236	-91.39359
111968	-8	-7	4	-0.08184748	0.009540861	-6.680943	0	12.36	4005	0	0	5	5	0.02	0.1900067	1	15	0.04	1800	-0.7721252	40.9236	-91.39359
112093	-3	-2	3	-0.08625606	0.005481231	-6.694026	0	12.36	4004	0	0	5	5	0.02	0.1972306	1	15	0.04	1800	-0.7641907	40.9236	-91.39359
112179	-1	1	2	-0.08248794	8.337497E-05	-6.697816	0	12.36	4004	0	0	5	5	0.02	0.1977846	1	15	0.04	1800	-0.7649536	40.9236	-91.39359
112234	-3	-3	4	-0.07782977	0.00306638	-6.705214	0	12.36	4003	0	0	5	5	0.02	0.1996888	1	15	0.04	1800	-0.7780151	40.9236	-91.39359
112409	0	-4	3	-0.08377299	0.0007310057	-6.714996	0	12.36	4003	0	0	5	5	0.02	0.2033689	1	15	0.04	1800	-0.7734375	40.92361	-91.39358
112500	1	1	0	-0.08024372	0.004263122	-6.725327	0	12.36	4003	0	0	5	5	0.02	0.2028536	1	15	0.04	1800	-0.7731628	40.92361	-91.39358
112540	-7	0	0	-0.08324365	0.00537717	-6.727773	0	12.36	4002	0	0	5	5	0.02	0.2015388	1	15	0.04	1800	-0.7731628	40.92361	-91.39358
112680	-5	1	3	-0.08021208	0.003869674	-6.736087	0	12.36	4011	0	0	5	5	0.02	0.185528	1	15	0.04	1800	-0.7717285	40.92361	-91.39358
112747	-5	1	3	-0.08021208	0.002976902	-6.737309	0	12.36	4011	0	0	5	5	0.02	0.1799846	1	15	0.04	1800	-0.7730103	40.92361	-91.39358
112836	-2	-2	5	-0.07436718	-0.004127963	-6.752959	0	12.36	4004	0	0	5	5	0.02	0.1758628	1	15	0.04	1800	-0.7834778	40.92361	-91.39358
112944	-2	-2	4	-0.07492796	0.0006692095	-6.759317	0	12.36	4002	0	0	5	5	0.02	0.1766277	1	15	0.04	1800	-0.7869568	40.92362	-91.39358
113062	-4	-4	7	-0.07790782	0.003653708	-6.76977	0	12.36	4004	0	0	5	5	0.02	0.1841294	1	15	0.04	1800	-0.7794189	40.92362	-91.39357
113202	-2	-3	7	-0.07993224	-0.0001122581	-6.778999	0	12.36	4003	0	0	5	5	0.02	0.1904728	1	15	0.04	1800	-0.7759094	40.92362	-91.39357
113371	-7	0	4	-0.08549054	0.003689528	-6.793916	0	12.36	4003	0	0	5	5	0.02	0.1905655	1	15	0.04	1800	-0.769104	40.92363	-91.39357
113552	-3	1	4	-0.07264671	0.005509945	-6.809871	0	12.36	4004	0	0	5	5	0.02	0.1724306	1	15	0.04	1800	-0.782196	40.92363	-91.39358
113655	0	2	10	-0.07401089	0.002581767	-6.816535	0	12.36	4004	0	0	5	5	0.02	0.1732726	1	15	0.04	1800	-0.7831421	40.92363	-91.39358
113814	-6	-2	6	-0.07556149	0.008239194	-6.832429	0	12.36	4003	0	0	5	5	0.02	0.1763112	1	15	0.04	1800	-0.7788086	40.92364	-91.39358
113902	-5	3	8	-0.07380625	0.007037678	-6.836465	0	12.36	4003	0	0	5	5	0.02	0.1778129	1	15	0.04	1800	-0.7788086	40.92364	-91.39358
114098	4	-6	4	-0.07277884	0.01722494	-6.850649	0	12.36	4003	0	0	5	5	0.02	0.1905078	1	15	0.04	1800	-0.7817688	40.92364	-91.39358
114165	-5	-3	2	-0.07690705	0.01586357	-6.855113	0	12.36	4002	0	0	5	5	0.02	0.1934081	1	15	0.04	1800	-0.7812805	40.92364	-91.39358
114219	-2	-3	10	-0.06559416	0.02139583	-6.863427	0	12.36	4003	0	0	5	5	0.02	0.1955224	1	15	0.04	1800	-0.7912292	40.92364	-91.39358
114322	-3	7	3	-0.06995046	0.0214664	-6.873759	0	12.36	4003	0	0	5	5	0.02	0.1952114	1	15	0.04	1800	-0.7889099	40.92364	-91.39358
114533	-5	-3	5	-0.06546351	0.01519006	-6.892346	0	12.36	4002	0	0	5	5	0.02	0.201154	1	15	0.04	1800	-0.800354	40.92363	-91.39358
114649	-3	1	4	-0.07386741	0.02827499	-6.903902	0	12.36	4002	0	0	5	5	0.02	0.2051971	1	15	0.04	1800	-0.7825317	40.92363	-91.39358
114808	1	-2	6	-0.07026439	0.02845977	-6.915578	0	12.36	4002	0	0	5	5	0.02	0.2114847	1	15	0.04	1800	-0.7919006	40.92363	-91.39357
114935	-2	-4	2	-0.06804316	0.03447867	-6.926276	0	12.36	4002	0	0	5	5	0.02	0.2124579	1	15	0.04	1800	-0.7906494	40.92362	-91.39357
115078	0	-4	4	-0.06494193	0.04189133	-6.939665	0	12.31	4003	0	0	5	5	0.02	0.2152314	1	15	0.04	1800	-0.7875061	40.92361	-91.39357
115138	-3	0	3	-0.05857423	0.04534046	-6.94584	0	12.31	4004	0	0	5	5	0.02	0.2162719	1	15	0.04	1800	-0.8019714	40.92361	-91.39357
115316	0	-7	1	-0.06304371	0.0390814	-6.958985	0	12.31	4003	0	0	5	5	0.02	0.2259548	1	15	0.04	1800	-0.5750427	40.92361	-91.39358
115376	-6	-3	3	-0.06628762	0.04136071	-6.961431	0	12.31	4003	0	0	5	5	0.02	0.2317673	1	15	0.04	1800	-0.5750427	40.92361	-91.39358
115487	-2	5	5	-0.06161243	0.03974346	-6.972313	0	12.31	4003	0	0	5	5	0.02	0.2339087	1	15	0.04	1800	-0.7998352	40.92361	-91.39358
115674	5	-1	4	-0.05893374	0.02490254	-6.984724	0	12.31	4004	0	0	5	5	0.02	0.2186462	1	15	0.04	1800	-0.5822144	40.92361	-91.39358
115750	0	-3	7	-0.04906542	0.02966083	-6.993038	0	12.31	4002	0	0	5	5	0.02	0.2069354	1	15	0.04	1800	-0.8227539	40.92361	-91.39358
115870	-5	2	2	-0.04451307	0.02600227	-7.001535	0	12.31	4003	0	0	5	5	0.02	0.1969241	1	15	0.04	1800	-0.8257751	40.92361	-91.39358
115956	-7	-5	1	-0.05522676	0.02847217	-7.008748	0	12.31	4004	0	0	5	5	0.02	0.1874255	1	15	0.04	1800	-0.8215027	40.92361	-91.39358
116019	-4	-1	9	-0.05856458	0.02546621	-7.017552	0	12.31	4009	0	0	5	5	0.02	0.1624469	1	15	0.04	1800	-0.8087463	40.92361	-91.39358
116184	-6	-1	2	-0.06196119	0.01756633	-7.026358	0	12.31	4003	0	0	5	5	0.02	0.1434844	1	15	0.04	1800	-0.8067627	40.92361	-91.39358
116297	-3	-1	5	-0.06603287	0.01576841	-7.038405	0	12.31	4004	0	0	5	5	0.02	0.1363141	1	15	0.04	1800	-0.7949524	40.92361	-91.39358
116356	-4	-2	4	-0.0617713	0.01344345	-7.0425	0	12.31	4004	0	0	5	5	0.02	0.1339334	1	15	0.04	1800	-0.7996826	40.92361	-91.39358
116453	-4	1	3	-0.05780509	0.01766701	-7.048552	0	12.31	4003	0	0	5	5	0.02	0.12167	1	15	0.04	1800	-0.8081055	40.92361	-91.39359
116576	1	-1	5	-0.06772171	0.01256038	-7.063041	0	12.31	4002	0	0	5	5	0.02	0.1060272	1	15	0.04	1800	-0.7901306	40.92362	-91.39359
116644	-2	0	5	-0.06968853	0.01311945	-7.066587	0	12.31	4002	0	0	5	5	0.02	0.09931958	1	15	0.04	1800	-0.7938232	40.92362	-91.39359
116778	-9	-2	6	-0.07603355	0.01613165	-7.079058	0	12.31	4002	0	0	5	5	0.02	0.09193052	1	15	0.04	1800	-0.7825928	40.92362	-91.39359
116954	-6	1	8	-0.0722739	0.019809	-7.094219	0	12.31	4003	0	0	5	5	0.02	0.1097677	1	15	0.04	1800	-0.7808228	40.92363	-54.83614
117017	3	-1	6	-0.07182524	0.0183387	-7.099721	0	12.31	4003	0	0	5	5	0.02	0.1150522	1	15	0.04	1800	-0.7868958	40.92363	-36.55742
117083	-3	2	6	-0.07179707	0.02027149	-7.110176	0	12.31	4003	0	0	5	5	0.02	0.1193326	1	15	0.04	1800	-0.5662842	40.92363	-36.55741
117243	-7	2	6	-0.07347959	0.02552558	-7.122771	0	12.31	4003	0	0	5	5	0.02	0.1405449	1	15	0.04	1800	-0.7784119	40.92362	-36.5574
117289	-3	-1	3	-0.07223974	0.02002747	-7.124788	0	12.31	4004	0	0	5	5	0.02	0.1462169	1	15	0.04	1800	-0.7784119	40.92362	-36.5574
117345	-1	-5	8	-0.0779402	0.02163087	-7.130841	0	12.31	4004	0	0	5	5	0.02	0.1462791	1	15	0.04	1800	-0.7820435	40.92362	-36.5574
117540	-1	3	0	-0.07742929	0.01597147	-7.149671	0	12.31	4004	0	0	5	5	0.02	0.1365075	1	15	0.04	1800	-0.7743835	40.92361	-54.83612
117620	-6	-1	0	-0.07484106	0.01874477	-7.156457	0	12.31	4003	0	0	5	5	0.02	0.1250952	1	15	0.04	1800	-0.7774658	40.92361	-82.25421
117664	-6	-1	2	-0.0768441	0.02225981	-7.159331	0	12.31	4003	0	0	5	5	0.02	0.1187592	1	15	0.04	1800	-0.7818909	40.92361	-91.39357
117733	-4	-9	4	-0.07481292	0.02908353	-7.164038	0	12.31	4002	0	0	5	5	0.02	0.1155582	1	15	0.04	1800	-0.7790527	40.92361	-91.39357
117913	-4	-5	6	-0.07493707	0.02994068	-7.175103	0	12.31	4003	0	0	5	5	0.02	0.1172688	1	15	0.04	1800	-0.7787781	40.92361	-91.39357
117962	-5	-6	9	-0.07299057	0.03292819	-7.182013	0	12.31	4002	0	0	5	5	0.02	0.1179931	1	15	0.04	1800	-0.7854309	40.92361	-91.39357
118048	-4	-6	6	-0.07822654	0.03261875	-7.189288	0	12.31	4002	0	0	5	5	0.02	0.1177308	1	15	0.04	1800	-0.7768555	40.92361	-91.39357
118270	-4	-1	2	-0.08125363	0.02703062	-7.207018	0	12.31	4004	0	0	5	5	0.02	0.1178082	1	15	0.04	1800	-0.771698	40.92361	-91.39358
118420	-7	2	8	-0.08585721	0.02434028	-7.221264	0	12.31	4004	0	0	5	5	0.02	0.1240338	1	15	0.04	1800	-0.54245	40.92362	-91.39358
118475	-7	-5	8	-0.08756116	0.02217031	-7.224076	0	12.31	4003	0	0	5	5	0.02	0.1242315	1	15	0.04	1800	-0.54245	40.92362	-91.39358
118580	-4	-5	13	-0.08707653	0.02112054	-7.235997	0	12.31	4003	0	0	5	5	0.02	0.127268	1	15	0.04	1800	-0.7565308	40.92363	-91.39358
118717	-2	-1	3	-0.09105727	0.02770893	-7.247063	0	12.36	4003	0	0	5	5	0.02	0.1325199	1	15	0.04	1800	-0.7577515	40.92363	-91.39358
118830	-11	-6	3	-0.1031698	0.02895207	-7.256783	0	12.36	4004	0	0	5	5	0.02	0.1390198	1	15	0.04	1800	-0.7468872	40.92363	-91.39359
118914	-6	-3	4	-0.105197	0.02532623	-7.263814	0	12.36	4002	0	0	5	5	0.02	0.1393825	1	15	0.04	1800	-0.9641113	40.92363	-91.39359
119021	-8	-10	4	-0.1020857	0.02643923	-7.269621	0	12.36	4004	0	0	5	5	0.02	0.1358245	1	15	0.04	1800	-0.7341614	40.92363	-91.39359
119157	-3	2	6	-0.09552602	0.02832971	-7.283375	0	12.36	4003	0	0	5	5	0.02	0.1278243	1	15	0.04	1800	-0.7459412	40.92363	-91.3936
119222	-6	3	8	-0.09178454	0.02870397	-7.289488	0	12.36	4003	0	0	5	5	0.02	0.1246452	1	15	0.04	1800	-0.7572021	40.92363	-91.39361
119353	-5	1	4	-0.09435301	0.02477604	-7.302877	0	12.36	4003	0	0	5	5	0.02	0.121546	1	15	0.04	1800	-0.7490845	40.92364	-91.39362
119428	-5	-2	6	-0.09731223	0.02428598	-7.307094	0	12.36	4004	0	0	5	5	0.02	0.1179489	1	15	0.04	1800	-0.7490845	40.92364	-91.39362
119609	-6	-2	5	-0.1038293	0.01989536	-7.322377	0	12.31	4004	0	0	5	5	0.02	0.1161352	1	15	0.04	1800	-0.7374268	40.92364	-91.39362
119702	-2	-6	9	-0.1038144	0.02609439	-7.330386	0	12.31	4002	0	0	5	5	0.02	0.1157776	1	15	0.04	1800	-0.7424622	40.92364	-91.39362
119768	-5	0	1	-0.1023077	0.02415519	-7.336072	0	12.31	4003	0	0	5	5	0.02	0.1148188	1	15	0.04	1800	-0.7391357	40.92364	-91.39362
119835	-8	-1	4	-0.1057201	0.02680837	-7.344632	0	12.31	4003	0	0	5	5	0.02	0.1135193	1	15	0.04	1800	-0.7340698	40.92364	-91.39362
120014	-10	-7	2	-0.1044033	0.02409919	-7.356249	0	12.31	4002	0	0	5	5	0.02	0.1159106	1	15	0.04	1800	-0.7362976	40.92364	-91.39362
120093	-5	-1	3	-0.1037748	0.02343482	-7.365358	0	12.31	4002	0	0	5	5	0.02	0.1078748	1	15	0.04	1800	-0.7375793	40.92365	-91.39362
120233	0	0	5	-0.1002427	0.03265146	-7.378076	0	12.31	4004	0	0	5	5	0.02	0.1000784	1	15	0.04	1800	-0.7384644	40.92365	-91.39362
120394	-6	-10	4	-0.09854529	0.03112148	-7.39171	0	12.31	4003	0	0	5	5	0.02	0.08898321	1	15	0.04	1800	-0.7361755	40.92365	-91.39362
120539	-7	0	3	-0.102769	0.03325554	-7.405772	0	12.31	4003	0	0	5	5	0.02	0.08210249	1	15	0.04	1800	-0.5159912	40.92365	-91.39362
120715	-10	0	8	-0.106638	0.02948734	-7.418366	0	12.31	4004	0	0	5	5	0.02	0.08438493	1	15	0.04	1800	-0.7340393	40.92365	-91.39361
120763	-7	-5	12	-0.1120466	0.02744597	-7.423501	0	12.31	4003	0	0	5	5	0.02	0.08484536	1	15	0.04	1800	-0.5064697	40.92365	-91.39361
120845	-2	-1	4	-0.1076811	0.02597755	-7.433528	0	12.31	4002	0	0	5	5	0.02	0.08381736	1	15	0.04	1800	-0.73172	40.92365	-91.39361
121027	-11	-1	7	-0.1025596	0.02365067	-7.444225	0	12.31	4003	0	0	5	5	0.02	0.07461079	1	15	0.04	1800	-0.7390137	40.92366	-91.39361
121089	-12	-3	6	-0.1033725	0.02294633	-7.452417	0	12.31	4002	0	0	5	5	0.02	0.07279021	1	15	0.04	1800	-0.7361145	40.92366	-91.39361
121199	-7	0	3	-0.1081868	0.0220219	-7.460487	0	12.31	4002	0	0	5	5	0.02	0.07714901	1	15	0.04	1800	-0.7326355	40.92366	-91.39362
121345	-8	2	4	-0.1079677	0.02065971	-7.473449	0	12.31	4003	0	0	5	5	0.02	0.096213	1	15	0.04	1800	-0.7330017	40.92366	-91.39362
121498	-6	-1	7	-0.1102915	0.03000802	-7.488304	0	12.36	4002	0	0	5	5	0.02	0.1226814	1	15	0.04	1800	-0.7421265	40.92367	-91.39362
121613	-8	-7	6	-0.1050736	0.03270291	-7.496861	0	12.36	4004	0	0	5	5	0.02	0.119525	1	15	0.04	1800	-0.730072	40.92367	-91.39362
121679	-5	7	4	-0.1056916	0.0249106	-7.503708	0	12.36	4003	0	0	5	5	0.02	0.1168179	1	15	0.04	1800	-0.7329407	40.92367	-91.39362
121795	-10	-4	3	-0.1058944	0.02298697	-7.514345	0	12.36	4004	0	0	5	5	0.02	0.1067469	1	15	0.04	1800	-0.5110474	40.92367	-91.39362
121854	-9	1	8	-0.1041533	0.01872562	-7.518443	0	12.36	4003	0	0	5	5	0.02	0.1037084	1	15	0.04	1800	-0.5141296	40.92367	-91.39362
122006	-5	-3	1	-0.1055857	0.02108414	-7.528347	0	12.36	4004	0	0	5	5	0.02	0.0972048	1	15	0.04	1800	-0.7392273	40.92367	-91.39362
122091	-6	-5	3	-0.1049314	0.02320452	-7.53226	0	12.36	4003	0	0	5	5	0.02	0.09790297	1	15	0.04	1800	-0.7382507	40.92368	-91.39362
122150	-9	1	0	-0.1117885	0.01959874	-7.540573	0	12.36	4003	0	0	5	5	0.02	0.1005027	1	15	0.04	1800	-0.5044556	40.92368	-91.39362
122275	-3	-2	4	-0.1045839	0.01672588	-7.549194	0	12.36	4003	0	0	5	5	0.02	0.09998679	1	15	0.04	1800	-0.7354126	40.92368	-91.39362
122358	-5	-3	1	-0.1016616	0.02277267	-7.555552	0	12.36	4004	0	0	5	5	0.02	0.09649368	1	15	0.04	1800	-0.7409058	40.92368	-91.39362
122479	-3	0	9	-0.09483373	0.03283196	-7.567168	0	12.36	4004	0	0	5	5	0.02	0.09261279	1	15	0.04	1800	-0.7489929	40.92368	-91.39362
122634	-5	-5	2	-0.0960396	0.03966198	-7.580556	0	12.36	4004	0	0	5	5	0.02	0.1035566	1	15	0.04	1800	-0.7540894	40.92368	-91.39362
122746	-6	-1	1	-0.09782791	0.0419457	-7.588809	0	12.36	4004	0	0	5	5	0.02	0.1226457	1	15	0.04	1800	-0.7471924	40.92368	-91.39362
122789	-9	-1	6	-0.09813041	0.0366495	-7.592416	0	12.36	4009	0	0	5	5	0.02	0.1259897	1	15	0.04	1800	-0.7463684	40.92367	-91.39362
122919	-4	-12	4	-0.09892967	0.03208173	-7.601524	0	12.36	4004	0	0	5	5	0.02	0.1339916	1	15	0.04	1800	-0.7402039	40.92367	-91.39362
123009	-13	-2	5	-0.09615786	0.03242888	-7.606782	0	12.36	4002	0	0	5	5	0.02	0.132348	1	15	0.04	1800	-0.7496643	40.92367	-91.39362
123097	-8	-2	3	-0.09690218	0.02113197	-7.61693	0	12.36	4004	0	0	5	5	0.02	0.1378048	1	15	0.04	1800	-0.7448425	40.92367	-91.39362
123169	-7	5	3	-0.09836874	0.02398808	-7.621271	0	12.31	4004	0	0	5	5	0.02	0.1418779	1	15	0.04	1800	-0.7485657	40.92367	-91.39362
123346	-10	-1	4	-0.09899025	0.02847958	-7.641383	0	12.31	4003	0	0	5	5	0.02	0.1481687	1	15	0.04	1800	-0.5252686	40.92367	-91.39362
123417	-7	0	10	-0.1023482	0.02764604	-7.647924	0	12.31	4002	0	0	5	5	0.02	0.1494352	1	15	0.04	1800	-0.7395935	40.92366	-91.39362
123573	-5	-4	1	-0.09652614	0.0195589	-7.659295	0	12.31	4003	0	0	5	5	0.02	0.1399205	1	15	0.04	1800	-0.7474976	40.92366	-91.39362
123611	-4	2	6	-0.09900814	0.02125669	-7.665042	0	12.31	4004	0	0	5	5	0.02	0.1376297	1	15	0.04	1800	-0.7428589	40.92366	-91.39362
123713	-4	-7	3	-0.09922174	0.02380458	-7.669933	0	12.31	4004	0	0	5	5	0.02	0.1196957	1	15	0.04	1800	-0.7428589	40.92366	-91.39362
123916	-4	-3	6	-0.09993461	0.02262176	-7.686687	0	12.31	4004	0	0	5	5	0.02	0.09506622	1	15	0.04	1800	-0.7447205	40.92365	-91.39362
123997	-6	2	2	-0.09601337	0.02397615	-7.692555	0	12.31	4003	0	0	5	5	0.02	0.09073625	1	15	0.04	1800	-0.743927	40.92365	-91.39362
124076	-10	-4	3	-0.09639754	0.02492038	-7.698913	0	12.42	4004	0	0	5	5	0.02	0.0858055	1	15	0.04	1800	-0.7483521	40.92365	-91.39362
124150	-7	1	7	-0.0958631	0.02173801	-7.705394	0	12.42	4004	0	0	5	5	0.02	0.07574422	1	15	0.04	1800	-0.7445068	40.92365	-91.39362
124306	-3	0	5	-0.1022419	0.01474232	-7.717923	0	12.42	4004	0	0	5	5	0.02	0.05980646	1	15	0.04	1800	-0.7471924	40.92365	-91.39362
124416	-4	-4	9	-0.1009815	0.01032321	-7.726483	0	12.42	4002	0	0	5	5	0.02	0.05461302	1	15	0.04	1800	-0.5188293	40.92365	-91.39362
124604	-6	-1	4	-0.09807532	0.007533952	-7.736142	0	12.42	4004	0	0	5	5	0.02	0.05562592	1	15	0.04	1800	-0.7415771	40.92365	-91.39362
124723	-2	-4	5	-0.1050296	0.008709453	-7.749286	0	12.42	4003	0	0	5	5	0.02	0.06158166	1	15	0.04	1800	-0.7416382	40.92365	-91.39362
124827	-9	-3	3	-0.108468	0.007802079	-7.755094	0	12.42	4003	0	0	5	5	0.02	0.06472169	1	15	0.04	1800	-0.7349243	40.92365	-91.39362
124943	-1	-3	3	-0.1076357	0.006607286	-7.766099	0	12.31	4004	0	0	5	5	0.02	0.05722323	1	15	0.04	1800	-0.723999	40.92365	-91.39362
125063	-9	0	2	-0.104785	0.003544231	-7.771295	0	12.31	4003	0	0	5	5	0.02	0.05398023	1	15	0.04	1800	-0.7353821	40.92365	-91.39362
125095	-9	0	2	-0.104785	0.003544231	-7.771295	0	12.31	4003	0	0	5	5	0.02	0.05406087	1	15	0.04	1800	-0.7353821	40.92365	-91.39362
125291	-4	-5	6	-0.1001324	0.01173015	-7.784009	0	12.31	4004	0	0	5	5	0.02	0.03993234	1	15	0.04	1800	-0.7469788	40.92365	-91.39362
125444	-13	-1	13	-0.1010813	0.0136674	-7.796358	0	12.31	4002	0	0	5	5	0.02	0.02226294	1	15	0.04	1800	-0.7429504	40.92365	-91.39362
125558	-10	-1	7	-0.1066561	0.0157124	-7.805285	0	12.31	4002	0	0	5	5	0.02	0.01315137	1	15	0.04	1800	-0.7392883	40.92365	-91.39362
125635	-15	-6	8	-0.1077973	0.01820262	-7.810787	0	12.31	4002	0	0	5	5	0.02	0.009722549	1	15	0.04	1800	-0.5094604	40.92365	-91.39362
125705	-15	1	4	-0.1044396	0.02360149	-7.815434	0	12.31	4002	0	0	5	5	0.02	0.004201935	1	15	0.04	1800	-0.7311707	40.92365	-91.39362
125794	-11	1	2	-0.105615	0.02741237	-7.826559	0	12.31	4002	0	0	5	5	0.02	-0.0006909744	1	15	0.04	1800	-0.9588623	40.92365	-91.39362
125911	-5	0	0	-0.1119028	0.02081485	-7.832489	0	12.31	4002	0	0	5	5	0.02	0.008813727	1	15	0.04	1800	-0.4985352	40.92365	-91.39362
125981	-7	-4	3	-0.1105874	0.01564153	-7.83903	0	12.31	4002	0	0	5	5	0.02	0.0141274	1	15	0.04	1800	-0.7265625	40.92365	-91.39362
126043	-3	4	7	-0.1114105	0.01381611	-7.849975	0	12.31	4003	0	0	5	5	0.02	0.01740484	1	15	0.04	1800	-0.7281799	40.92365	-91.39362
126112	-7	-6	7	-0.1076036	0.009642364	-7.854193	0	12.31	4003	0	0	5	5	0.02	0.01995847	1	15	0.04	1800	-0.7304688	40.92365	-91.39362
126211	-2	-3	12	-0.1166116	0.01357014	-7.863116	0	12.31	4003	0	0	5	5	0.02	0.02427484	1	15	0.04	1800	-0.7155762	40.92365	-91.39362
126250	-5	0	4	-0.1173939	0.0105462	-7.865806	0	12.31	4003	0	0	5	5	0.02	0.02363683	1	15	0.04	1800	-0.7155762	40.92365	-91.39362
126354	-3	5	5	-0.1133956	0.01734605	-7.872652	0	12.31	4002	0	0	5	5	0.02	0.02413659	1	15	0.04	1800	-0.7135925	40.92365	-91.39362
126550	-2	0	2	-0.1119877	0.01750623	-7.891787	0	12.31	4003	0	0	5	5	0.02	0.02570338	1	15	0.04	1800	-0.7216492	40.92365	-91.39362
126565	-2	0	2	-0.1119877	0.01750623	-7.891787	0	12.31	4003	0	0	5	5	0.02	0.02410007	1	15	0.04	1800	-0.7216492	40.92365	-91.39362
126688	-6	0	0	-0.105584	0.01500803	-7.902362	0	12.31	4004	0	0	5	5	0.02	0.01128725	1	15	0.04	1800	-0.7327576	40.92365	-91.39362
126795	-5	-1	-1	-0.1043135	0.01316596	-7.909392	0	12.31	4003	0	0	5	5	0.02	0.008335827	1	15	0.04	1800	-0.5101624	40.92365	-91.39362
126898	-6	-2	0	-0.1071327	0.01286789	-7.915446	0	12.31	4002	0	0	5	5	0.02	0.004751971	1	15	0.04	1800	-0.7345581	40.92365	-91.39361
127069	-6	4	6	-0.1072036	0.01287356	-7.926877	0	12.31	4002	0	0	5	5	0.02	0.0121724	1	15	0.04	1800	-0.7270203	40.92366	-91.3936
127100	-5	0	5	-0.10801	0.01598769	-7.928528	0	12.31	4003	0	0	5	5	0.02	0.0139865	1	15	0.04	1800	-0.7270203	40.92366	-91.39359
127164	-4	0	7	-0.1007724	0.01545447	-7.934947	0	12.31	4003	0	0	5	5	0.02	0.01654462	1	15	0.04	1800	-0.5166321	40.92367	-91.39359
127321	-2	5	-1	-0.09029095	0.01239214	-7.948704	0	12.31	4003	0	0	5	5	0.02	0.02196823	1	15	0.04	1800	-0.7489929	40.92368	-91.39359
127454	-3	-5	5	-0.08904881	0.007523892	-7.95775	0	12.31	4003	0	0	5	5	0.02	0.02561	1	15	0.04	1800	-0.7523804	40.92368	-91.39358
127488	0	0	0	-0.08974481	0.01094315	-7.959401	0	12.31	4003	0	0	5	5	0.02	0.02656201	1	15	0.04	1800	-0.758606	40.92368	-91.39358
127568	-12	-6	1	-0.08706846	0.006818551	-7.964108	0	12.36	4002	0	0	5	5	0.02	0.02834536	1	15	0.04	1800	-0.7606506	40.92369	-63.9755
127769	-8	-4	11	-0.07914975	0.01237351	-7.979084	0	12.36	4002	0	0	5	5	0.02	0.03168993	1	15	0.04	1800	-0.7763367	40.92369	-45.69679
127944	-5	5	5	-0.07651868	0.01707556	-7.993328	0	12.36	4003	0	0	5	5	0.02	0.02751867	1	15	0.04	1800	-0.7749329	40.92369	-45.69679
127974	-7	0	5	-0.07706068	0.01657252	-7.995834	0	12.36	4003	0	0	5	5	0.02	0.02710941	1	15	0.04	1800	-0.780426	40.92369	-45.69679
128080	-7	0	2	-0.08105924	0.01576186	-8.001579	0	12.36	4003	0	0	5	5	0.02	0.02549358	1	15	0.04	1800	-0.7826843	40.92369	-45.69679
128177	-6	-1	5	-0.0787934	0.01594045	-8.007199	0	12.36	4002	0	0	5	5	0.02	0.02795964	1	15	0.04	1800	-0.776947	40.92369	-45.6968
128266	-5	1	5	-0.08275139	0.01649141	-8.011232	0	12.36	4004	0	0	5	5	0.02	0.03220296	1	15	0.04	1800	-0.7652893	40.92369	-73.11488
128427	-7	1	5	-0.08523133	0.01972592	-8.021989	0	12.36	4004	0	0	5	5	0.02	0.02552867	1	15	0.04	1800	-0.7612	40.92369	-91.39359
128582	-9	5	6	-0.08934107	0.01833577	-8.03415	0	12.31	4003	0	0	5	5	0.02	0.02408159	1	15	0.04	1800	-0.7649536	40.92369	-91.39359
128751	-4	0	9	-0.0833608	0.01724342	-8.050964	0	12.31	4004	0	0	5	5	0.02	0.02606483	1	15	0.04	1800	-0.7655334	40.92368	-91.39359
128835	-3	-3	10	-0.08530889	0.01753462	-8.056526	0	12.31	4004	0	0	5	5	0.02	0.02503155	1	15	0.04	1800	-0.7641602	40.92368	-91.39359
129033	-4	5	9	-0.08502984	0.01348809	-8.069485	0	12.31	4003	0	0	5	5	0.02	0.02730561	1	15	0.04	1800	-0.7722473	40.92367	-91.39359
129118	-7	3	4	-0.08578854	0.005819192	-8.07517	0	12.31	4003	0	0	5	5	0.02	0.03600799	1	15	0.04	1800	-0.7682495	40.92367	-91.39358
129189	-8	2	7	-0.08556703	0.001799542	-8.079267	0	12.31	4004	0	0	5	5	0.02	0.04589455	1	15	0.04	1800	-0.7624817	40.92367	-91.39358
129232	-3	2	0	-0.08342606	-0.0004318631	-8.08214	0	12.31	4002	0	0	5	5	0.02	0.04804338	1	15	0.04	1800	-0.7624817	40.92367	-91.39358
129350	-9	2	6	-0.09251508	0.00649479	-8.091063	0	12.36	4003	0	0	5	5	0.02	0.06192149	1	15	0.04	1800	-0.7637634	40.92366	-91.39357
129435	-9	4	1	-0.09253896	0.007193568	-8.092591	0	12.36	4003	0	0	5	5	0.02	0.06448729	1	15	0.04	1800	-0.7556458	40.92365	-91.39356
129569	2	2	5	-0.09797172	0.01266272	-8.102431	0	12.36	4004	0	0	5	5	0.02	0.06997276	1	15	0.04	1800	-0.5238037	40.92364	-91.39355
129740	0	5	1	-0.08946727	0.007624642	-8.119119	0	12.36	4004	0	0	5	5	0.02	0.08524768	1	15	0.04	1800	-0.7562866	40.92363	-91.39355
129848	-5	3	6	-0.09344998	0.009857392	-8.128659	0	12.36	4002	0	0	5	5	0.02	0.0891799	1	15	0.04	1800	-0.7588501	40.92362	-91.39355
129980	-9	1	2	-0.08776695	0.007663332	-8.141188	0	12.36	4003	0	0	5	5	0.02	0.1050323	1	15	0.04	1800	-0.7629089	40.92362	-91.39355
130041	-2	-5	1	-0.09265808	0.005128411	-8.146262	0	12.36	4003	0	0	5	5	0.02	0.1088038	1	15	0.04	1800	-0.5300598	40.92361	-91.39355
130186	-7	2	5	-0.09280428	0.01618286	-8.155552	0	12.36	4004	0	0	5	5	0.02	0.1189191	1	15	0.04	1800	-0.7528687	40.92361	-91.39356
130260	-6	-5	6	-0.09030101	0.01284906	-8.162948	0	12.36	4004	0	0	5	5	0.02	0.1288188	1	15	0.04	1800	-0.7602844	40.92361	-91.39356
130333	-6	-5	4	-0.08888778	0.01329231	-8.167103	0	12.36	4003	0	0	5	5	0.02	0.1379858	1	15	0.04	1800	-0.7618103	40.9236	-91.39357
130450	-3	1	7	-0.08730477	0.01827725	-8.174984	0	12.36	4003	0	0	5	5	0.02	0.1446582	1	15	0.04	1800	-0.7601013	40.9236	-91.39357
130532	-1	-6	3	-0.08308814	0.01550573	-8.18024	0	12.36	4002	0	0	5	5	0.02	0.1481907	1	15	0.04	1800	-0.7640991	40.92359	-91.39358
130661	-7	0	5	-0.0886647	0.01508934	-8.185128	0	12.36	4003	0	0	5	5	0.02	0.1493928	1	15	0.04	1800	-0.7671814	40.92358	-91.39358
130825	0	3	1	-0.09167346	0.01718589	-8.199553	0	12.36	4004	0	0	5	5	0.02	0.1585569	1	15	0.04	1800	-0.7494507	40.92358	-91.39357
130970	-8	3	-3	-0.09747563	0.0133854	-8.207928	0	12.36	4004	0	0	5	5	0.02	0.1622805	1	15	0.04	1800	-0.9676208	40.9236	-91.39356
131114	-10	5	4	-0.1018677	0.0172443	-8.214405	0	12.36	4004	0	0	5	5	0.02	0.170469	1	15	0.04	1800	-0.9677124	40.92361	-91.39356
131167	-3	-3	2	-0.1028831	0.01992447	-8.223574	0	12.42	4003	0	0	5	5	0.02	0.1726287	1	15	0.04	1800	-1.606964	40.92362	-91.39356
131219	-2	0	2	-0.1002882	0.0208496	-8.225406	0	12.42	4002	0	0	5	5	0.02	0.1755931	1	15	0.04	1800	-1.606964	40.92363	-91.39356
131410	0	-2	10	-0.09329183	0.01873128	-8.2391	0	12.42	4004	0	0	5	5	0.02	0.1758426	1	15	0.04	1800	-2.225189	40.92363	-91.39356
131476	-10	0	7	-0.08842993	0.0211606	-8.243314	0	12.42	4002	0	0	5	5	0.02	0.1736235	1	15	0.04	1800	-2.448059	40.92363	-91.39356
131609	-2	-2	2	-0.0835355	0.02497436	-8.252173	0	12.42	4004	0	0	5	5	0.02	0.1577664	1	15	0.04	1800	-2.661926	40.92363	-91.39356
131745	-7	-6	2	-0.08727699	0.02679369	-8.259325	0	12.42	4003	0	0	5	5	0.02	0.1533413	1	15	0.04	1800	-1.867462	40.92363	-91.39356
131882	-3	-2	12	-0.0854257	0.03009056	-8.271733	0	12.42	4003	0	0	5	5	0.02	0.1400097	1	15	0.04	1800	-1.87442	40.92363	-91.39356
131913	-2	2	2	-0.08238395	0.02791176	-8.274056	0	12.42	4002	0	0	5	5	0.02	0.1386476	1	15	0.04	1800	-2.088654	40.92363	-91.39356
131993	-3	-2	5	-0.08040097	0.02602264	-8.280538	0	12.42	4004	0	0	5	5	0.02	0.134207	1	15	0.04	1800	-1.879852	40.92363	-91.39356
132093	-3	1	-2	-0.08340557	0.02433215	-8.286101	0	12.31	4003	0	0	5	5	0.02	0.1266097	1	15	0.04	1800	-1.878357	40.92363	-91.39356
132292	-1	-1	4	-0.08035398	0.02866167	-8.301444	0	12.31	4003	0	0	5	5	0.02	0.1111782	1	15	0.04	1800	-1.6492	40.92363	-91.39356
132321	5	-1	1	-0.07914069	0.0317456	-8.303216	0	12.31	4004	0	0	5	5	0.02	0.1111574	1	15	0.04	1800	-1.6492	40.92363	-91.39356
132422	-1	-2	7	-0.08515774	0.02769335	-8.308289	0	12.31	4003	0	0	5	5	0.02	0.1162665	1	15	0.04	1800	-1.644775	40.92363	-91.39356
132563	-44	29	10	-0.1054883	-0.01907809	-8.322598	0	12.31	4004	0	0	5	5	0.02	0.1429359	1	15	0.04	1800	-1.850372	40.92363	-91.39356
132597	26	-42	0	-0.1362764	-0.052088	-8.325285	0	12.31	4004	0	0	5	5	0.02	0.147966	1	15	0.04	1800	-2.029327	40.92363	-91.39356
132702	-615	254	-54	-0.1274371	-0.06696474	-8.359337	0	12.31	4004	0	0	5	5	0.02	0.1751084	1	15	0.04	1800	-1.781067	40.92363	-91.39356
132875	-422	-1422	-231	-2.716399	0.08281262	-8.256326	0	12.31	4003	0	0	5	5	0.02	0.2001514	1	15	0.04	1800	-2.155487	40.92363	-91.39356
133042	1197	-869	-2871	-1.519076	3.397092	-2.420691	0	12.36	4004	0	0	5	5	0.02	0.2136846	1	15	0.04	1800	-4.12384	40.92363	-91.39356
133122	2195	-92	-2059	1.593451	5.350556	0.3313147	0	12.36	4003	0	0	5	5	0.02	0.2243185	1	15	0.04	1800	-6.625793	40.92363	-91.39357
133158	1270	1290	-771	2.766725	5.531584	1.104025	0	12.36	4003	0	0	5	5	0.02	0.2329483	1	15	0.04	1800	-8.738281	40.92363	-91.39357
133250	-596	-1630	4737	1.754727	8.691947	-4.266937	0	12.36	4002	0	0	5	5	0.02	0.2424605	1	15	0.04	1800	-4.145782	40.92363	-91.39357
133355	-693	-2266	4367	-0.8954276	12.82345	-9.460609	0	12.36	4004	0	0	5	5	0.02	0.2757524	1	15	0.04	1800	0.9614536	40.92362	-91.39357
133458	-369	-1422	738	-4.48933	12.30501	-14.42826	0	12.36	4003	0	0	5	5	0.02	0.3111939	1	15	0.04	1800	5.143991	40.92361	-91.39358
133561	1145	-856	-289	-2.038333	11.14032	-14.68786	0	12.36	4004	0	0	5	5	0.02	0.3315557	1	15	0.04	1800	4.911391	40.92361	-91.39358
133668	-584	1625	1204	-1.537937	8.029981	-14.645	0	12.36	4003	0	0	5	5	0.02	0.3623236	1	15	0.04	1800	4.679409	40.9236	-91.39357
133878	210	277	-22	-1.404404	2.713118	-18.00475	0	12.31	4003	0	0	5	5	0.02	0.3983648	1	15	0.04	1800	7.175714	40.92359	-91.39357
