time(ms)	gyro_x(deg/s)	gyro_y(deg/s)	gyro_z(deg/s)	orientation_roll(deg)	orientation_pitch(deg)	orientation_yaw(deg)	throttle	battery(V)	loop_time(uS)	pid_output_roll	pid_output_pitch	pid_output_yaw	pid_output_throttle	ultrasonic_alt	baro_alt	flight_mode	p_gain_altitude	i_gain_altitude	d_gain_altitude	compass_heading	latitude	longitude
55	5	1	4	0.02728229	0.005462006	-0.520032	0	12.36	4003	0	0	5	5	0.02	0.1256428	1	15	0.04	1800	-0.9365234	40.92359	-91.39362
199	10	0	0	0.03977863	0.01130687	-0.5257183	0	12.36	4004	0	0	5	5	0.02	0.1309996	1	15	0.04	1800	-0.9502869	40.92359	-91.39362
288	1	1	1	0.03514889	0.01513422	-0.5279193	0	12.36	4002	0	0	5	5	0.02	0.1280104	1	15	0.04	1800	-0.9549255	40.92359	-91.39362
410	5	0	3	0.0425284	0.0121628	-0.534094	0	12.36	4004	0	0	5	5	0.02	0.131041	1	15	0.04	1800	-0.9652405	40.92358	-91.39362
461	-1	-8	-1	0.04301465	0.01571848	-0.5351945	0	12.36	4003	0	0	5	5	0.02	0.1322163	1	15	0.04	1800	-0.7424011	40.92358	-91.39362
621	7	0	4	0.04975293	0.01714857	-0.5424085	0	12.36	4002	0	0	5	5	0.02	0.134669	1	15	0.04	1800	-0.7400513	40.92358	-91.39362
680	2	0	-2	0.05463417	0.01889443	-0.5461991	0	12.36	4002	0	0	5	5	0.02	0.1331521	1	15	0.04	1800	-0.9769287	40.92358	-91.39362
823	11	2	2	0.05653165	0.01733592	-0.5526189	0	12.36	4002	0	0	5	5	0.02	0.1285396	1	15	0.04	1800	-0.9836426	40.92358	-91.39362
866	8	-5	3	0.05813678	0.01692901	-0.5549423	0	12.36	4002	0	0	5	5	0.02	0.1268072	1	15	0.04	1800	-0.762207	40.92357	-91.39362
1047	7	-4	4	0.05651766	0.007260035	-0.5600775	0	12.36	4003	0	0	5	5	0.02	0.1253787	1	15	0.04	1800	-0.9862976	40.92357	-91.39362
1169	4	-5	0	0.05306966	0.004245379	-0.5638069	0	12.36	4002	0	0	5	5	0.02	0.1069659	1	15	0.04	1800	-0.9811707	40.92357	-91.39362
1212	2	-1	3	0.05438689	0.001657879	-0.5654575	0	12.36	4002	0	0	5	5	0.02	0.1035867	1	15	0.04	1800	-0.9811707	40.92357	-91.39362
1332	1	-2	4	0.04781203	-0.004119311	-0.5726107	0	12.36	4003	0	0	5	5	0.02	0.08438	1	15	0.04	1800	-0.9714355	40.92357	-91.39362
1410	0	-4	3	0.04188444	-0.007849916	-0.574873	0	12.36	4003	0	0	5	5	0.02	0.06999534	1	15	0.04	1800	-0.9710693	40.92357	-91.39362
1527	8	-1	4	0.04623686	-0.003125308	-0.578541	0	12.36	4004	0	0	5	5	0.02	0.05714448	1	15	0.04	1800	-0.9649963	40.92357	-91.39362
1591	0	3	-1	0.04648587	-0.002374012	-0.5798861	0	12.36	4002	0	0	5	5	0.02	0.0503021	1	15	0.04	1800	-0.9742432	40.92357	-91.39362
1790	-2	-3	-2	0.04567616	-0.004089482	-0.5860615	0	12.36	4002	0	0	5	5	0.02	0.05003453	1	15	0.04	1800	-0.9690552	40.92357	-91.39362
1995	2	-2	7	0.04014981	0.001245361	-0.5918087	0	12.36	4003	0	0	5	5	0.02	0.05063327	1	15	0.04	1800	-0.9586487	40.92356	-91.39362
2154	5	-4	5	0.04479959	0.004293004	-0.5999401	0	12.36	4003	0	0	5	5	0.02	0.03973946	1	15	0.04	1800	-0.9677124	40.92356	-91.39362
2216	5	-1	4	0.04132131	0.003994239	-0.6029968	0	12.36	4003	0	0	5	5	0.02	0.03854881	1	15	0.04	1800	-0.7375488	40.92356	-91.39362
2316	7	0	6	0.03107796	0.01266602	-0.6107613	0	12.36	4004	0	0	5	5	0.02	0.04313646	1	15	0.04	1800	-0.4996033	40.92356	-91.39362
2368	-3	-1	6	0.02935651	0.01322452	-0.6127179	0	12.36	4004	0	0	5	5	0.02	0.04547321	1	15	0.04	1800	-0.4996033	40.92356	-91.39362
2482	6	0	6	0.02605819	0.01671382	-0.6187707	0	12.36	4003	0	0	5	5	0.02	0.04622547	1	15	0.04	1800	-0.9425049	40.92356	-91.39362
2606	3	1	3	0.01775305	0.01275915	-0.6248854	0	12.36	4003	0	0	5	5	0.02	0.0520891	1	15	0.04	1800	-1.146362	40.92356	-91.39362
2738	0	0	4	0.01806143	0.01387595	-0.6335067	0	12.36	4003	0	0	5	5	0.02	0.04720692	1	15	0.04	1800	-0.9287109	40.92357	-91.39362
2791	7	2	2	0.01668702	0.01175649	-0.6349738	0	12.36	4003	0	0	5	5	0.02	0.0426076	1	15	0.04	1800	-0.9287109	40.92357	-91.39362
2910	4	-4	2	0.01811667	0.01511614	-0.6422489	0	12.36	4003	0	0	5	5	0.02	0.02451666	1	15	0.04	1800	-0.928833	40.92357	-91.39362
2985	-2	-10	4	0.01754761	0.01945852	-0.6444495	0	12.36	4003	0	0	5	5	0.02	0.01786024	1	15	0.04	1800	-0.9200134	40.92357	-91.39362
3061	2	-3	2	0.0234702	0.02354074	-0.65038	0	12.36	4004	0	0	5	5	0.02	0.01016998	1	15	0.04	1800	-0.7110291	40.92357	-91.39362
3182	2	1	4	0.02305394	0.01932683	-0.6553931	0	12.36	4002	0	0	5	5	0.02	-0.01365234	1	15	0.04	1800	-0.706543	40.92358	-91.39362
3289	3	-1	8	0.02433507	0.01910323	-0.6588778	0	12.36	4003	0	0	5	5	0.02	-0.02740138	1	15	0.04	1800	-0.7092285	40.92358	-91.39362
3370	-2	-3	8	0.02358593	0.01647476	-0.6659083	0	12.36	4002	0	0	5	5	0.02	-0.03691442	1	15	0.04	1800	-0.9377136	40.92358	-91.39362
3491	9	-4	6	0.02587057	0.011564	-0.6700047	0	12.36	4003	0	0	5	5	0.02	-0.04246783	1	15	0.04	1800	-0.7127686	40.92358	-91.39362
3599	-6	0	0	0.02449671	0.01984633	-0.6776466	0	12.36	4003	0	0	5	5	0.02	-0.04179741	1	15	0.04	1800	-0.7131653	40.92358	-91.39362
3694	9	-3	3	0.02578383	0.0200202	-0.6827824	0	12.42	4003	0	0	5	5	0.02	-0.04580419	1	15	0.04	1800	-0.7118225	40.92358	-91.39363
3754	1	0	0	0.02735239	0.02250437	-0.6866339	0	12.42	4003	0	0	5	5	0.02	-0.0492105	1	15	0.04	1800	-0.7148132	40.92358	-91.39363
3895	3	4	-4	0.02934937	0.01655366	-0.6931753	0	12.42	4002	0	0	5	5	0.02	-0.0523024	1	15	0.04	1800	-0.9416809	40.92358	-91.39364
4058	0	-3	-2	0.0260583	0.019991	-0.7037514	0	12.42	4004	0	0	5	5	0.02	-0.06437785	1	15	0.04	1800	-0.9338074	40.92359	-91.39365
4113	0	-2	4	0.02960112	0.01807845	-0.7063193	0	12.42	4003	0	0	5	5	0.02	-0.06914967	1	15	0.04	1800	-0.7196045	40.92359	-91.39365
4199	2	0	5	0.02421729	0.01771064	-0.7076644	0	12.42	4004	0	0	5	5	0.02	-0.0701976	1	15	0.04	1800	-0.7196045	40.92359	-91.39365
4251	3	1	1	0.02153973	0.02072275	-0.7108435	0	12.42	4003	0	0	5	5	0.02	-0.06945767	1	15	0.04	1800	-0.9322815	40.92359	-91.39365
4415	5	-7	6	0.02498694	0.02444824	-0.7172631	0	12.42	4003	0	0	5	5	0.02	-0.07756735	1	15	0.04	1800	-0.4836426	40.92359	-91.39365
4450	3	1	0	0.03012977	0.02281304	-0.7184247	0	12.42	4004	0	0	5	5	0.02	-0.07942366	1	15	0.04	1800	-0.4836426	40.9236	-91.39365
4554	3	-6	-2	0.03291105	0.01823872	-0.7252727	0	12.42	4002	0	0	5	5	0.02	-0.09167152	1	15	0.04	1800	-0.9479675	40.9236	-91.39365
4719	5	-4	1	0.03277335	0.01331368	-0.7302858	0	12.42	4004	0	0	5	5	0.02	-0.1010341	1	15	0.04	1800	-0.9546814	40.9236	-91.39365
4778	7	0	6	0.03588541	0.01243944	-0.7338319	0	12.42	4004	0	0	5	5	0.02	-0.1008905	1	15	0.04	1800	-0.9502869	40.9236	-91.39365
4885	1	2	3	0.03848493	0.008711306	-0.7392122	0	12.42	4003	0	0	5	5	0.02	-0.1016803	1	15	0.04	1800	-0.949707	40.9236	-91.39365
4961	5	1	4	0.03538236	0.003500617	-0.7437979	0	12.42	4004	0	0	5	5	0.02	-0.104117	1	15	0.04	1800	-0.9584961	40.9236	-91.39365
5167	9	2	3	0.03195827	0.006141011	-0.7508286	0	12.42	4004	0	0	5	5	0.02	-0.1346278	1	15	0.04	1800	-0.94104	40.9236	-91.39365
5321	3	-4	6	0.02829706	0.001773762	-0.7563308	0	12.42	4002	0	0	5	5	0.02	-0.1455876	1	15	0.04	1800	-0.7295837	40.92361	-91.39365
5369	3	-1	6	0.0287853	0.00111958	-0.7573702	0	12.42	4002	0	0	5	5	0.02	-0.1461505	1	15	0.04	1800	-0.9439697	40.92361	-91.39365
5489	3	-3	0	0.02253627	0.004652043	-0.7604273	0	12.42	4003	0	0	5	5	0.02	-0.1393402	1	15	0.04	1800	-0.9399109	40.92361	-91.39365
5642	12	1	1	0.03152207	0.009190978	-0.7653795	0	12.42	4003	0	0	5	5	0.02	-0.13593	1	15	0.04	1800	-0.9423523	40.92361	-91.39364
5723	4	1	5	0.02821706	0.01043767	-0.7685586	0	12.42	4003	0	0	5	5	0.02	-0.1385505	1	15	0.04	1800	-0.9421692	40.92361	-91.39364
5834	8	-2	7	0.02500217	0.008171886	-0.7717991	0	12.42	4004	0	0	5	5	0.02	-0.1474104	1	15	0.04	1800	-0.9379272	40.92361	-91.39364
5903	-1	-2	4	0.02652665	0.01340648	-0.7735112	0	12.42	4003	0	0	5	5	0.02	-0.1492685	1	15	0.04	1800	-0.7157898	40.92361	-91.39363
5952	0	2	1	0.02236459	0.01166941	-0.7758954	0	12.42	4004	0	0	5	5	0.02	-0.1488861	1	15	0.04	1800	-0.9358826	40.92361	-91.39363
6016	5	-4	5	0.02257649	0.0114094	-0.7776074	0	12.42	4003	0	0	5	5	0.02	-0.1483385	1	15	0.04	1800	-0.9358826	40.92362	-91.39363
6225	5	-2	-2	0.03605708	0.00739381	-0.7848216	0	12.42	4004	0	0	5	5	0.02	-0.1558865	1	15	0.04	1800	-0.7279053	40.92362	-91.39363
6258	3	-4	-1	0.03398951	0.006671994	-0.7851273	0	12.42	4003	0	0	5	5	0.02	-0.1570063	1	15	0.04	1800	-0.9550171	40.92362	-91.39363
6325	3	-2	0	0.03439373	0.006902794	-0.7865335	0	12.42	4002	0	0	5	5	0.02	-0.1593775	1	15	0.04	1800	-0.9480286	40.92362	-91.39363
6429	4	-6	1	0.03174834	0.01146718	-0.7903234	0	12.31	4003	0	0	5	5	0.02	-0.1520007	1	15	0.04	1800	-0.9521179	40.92362	-91.39363
6589	8	-4	3	0.04230278	0.01126212	-0.7938083	0	12.31	4004	0	0	5	5	0.02	-0.1417604	1	15	0.04	1800	-0.9538269	40.92362	-91.39363
6653	5	-2	3	0.04003657	0.01207247	-0.7942974	0	12.31	4003	0	0	5	5	0.02	-0.1321515	1	15	0.04	1800	-0.9538269	40.92362	-91.39363
6796	6	-3	4	0.04434269	0.01209415	-0.7990662	0	12.31	4004	0	0	5	5	0.02	-0.1237578	1	15	0.04	1800	-0.7393799	40.92362	-91.39363
6871	3	-7	6	0.04168034	0.01411363	-0.8033462	0	12.31	4003	0	0	5	5	0.02	-0.1079686	1	15	0.04	1800	-0.9654541	40.92361	-91.39363
6981	8	0	4	0.04763925	0.01618502	-0.8048748	0	12.31	4003	0	0	5	5	0.02	-0.09733126	1	15	0.04	1800	-0.969574	40.92361	-91.39364
7012	3	0	2	0.04987818	0.01601539	-0.8065867	0	12.31	4004	0	0	5	5	0.02	-0.09474269	1	15	0.04	1800	-0.9706116	40.92361	-91.39364
7130	4	-1	2	0.05396672	0.01283927	-0.8092768	0	12.31	4004	0	0	5	5	0.02	-0.08424766	1	15	0.04	1800	-0.9760742	40.92361	-91.39364
7212	3	-3	8	0.05106123	0.01195799	-0.8098882	0	12.31	4004	0	0	5	5	0.02	-0.08161563	1	15	0.04	1800	-0.7539063	40.92361	-91.39364
7373	6	0	3	0.05067778	0.01521657	-0.8138013	0	12.36	4002	0	0	5	5	0.02	-0.07779416	1	15	0.04	1800	-0.75354	40.92361	-55.17645
7413	9	-4	0	0.05496311	0.01707036	-0.8144128	0	12.36	4004	0	0	5	5	0.02	-0.07687662	1	15	0.04	1800	-0.75354	40.92361	-47.93302
7525	11	3	0	0.06291918	0.01542672	-0.8176527	0	12.36	4004	0	0	5	5	0.02	-0.07444526	1	15	0.04	1800	-0.9836426	40.92361	-47.93301
7620	4	4	-1	0.06767859	0.005378486	-0.82236	0	12.36	4004	0	0	5	5	0.02	-0.07108479	1	15	0.04	1800	-0.9978333	40.92361	-47.93301
7727	10	0	4	0.06751917	0.003485985	-0.8260893	0	12.36	4003	0	0	5	5	0.02	-0.07166354	1	15	0.04	1800	-1.004028	40.92361	-47.93301
7825	11	0	0	0.0658113	0.01019984	-0.8284734	0	12.36	4003	0	0	5	5	0.02	-0.07656357	1	15	0.04	1800	-0.9959106	40.92361	-47.93301
7920	7	2	1	0.06629456	0.01339706	-0.8300633	0	12.36	4003	0	0	5	5	0.02	-0.07999758	1	15	0.04	1800	-0.9959106	40.92361	-55.17643
8049	8	2	3	0.06544666	0.01586043	-0.8349544	0	12.36	4003	0	0	5	5	0.02	-0.07500525	1	15	0.04	1800	-0.997406	40.92361	-84.15018
8118	2	0	1	0.06522177	0.01032815	-0.8370942	0	12.36	4002	0	0	5	5	0.02	-0.07297805	1	15	0.04	1800	-0.9982605	40.92361	-91.39362
8221	6	1	4	0.06845474	0.01011831	-0.8385618	0	12.36	4002	0	0	5	5	0.02	-0.05947925	1	15	0.04	1800	-0.995636	40.92361	-91.39361
8314	3	0	-1	0.06981828	0.009298125	-0.8400294	0	12.36	4003	0	0	5	5	0.02	-0.04854573	1	15	0.04	1800	-1.007629	40.92361	-91.39361
8416	5	-3	1	0.06965992	0.007658829	-0.8435758	0	12.36	4002	0	0	5	5	0.02	-0.04182319	1	15	0.04	1800	-0.7797546	40.92361	-91.39361
8547	7	-2	5	0.07048222	0.01046692	-0.8471216	0	12.36	4004	0	0	5	5	0.02	-0.02710242	1	15	0.04	1800	-1.005493	40.92361	-91.39361
8679	3	2	0	0.06805055	0.01672489	-0.8512179	0	12.36	4004	0	0	5	5	0.02	-0.01561789	1	15	0.04	1800	-1.00116	40.92362	-91.39361
8763	8	0	2	0.06803474	0.009828719	-0.8558029	0	12.36	4003	0	0	5	5	0.02	-0.003592978	1	15	0.04	1800	-1.002716	40.92362	-91.39361
8822	3	-3	5	0.07253101	0.009215733	-0.8569645	0	12.36	4003	0	0	5	5	0.02	-0.0005119743	1	15	0.04	1800	-1.006561	40.92362	-91.39361
8900	12	-1	4	0.07480513	0.004264092	-0.8587984	0	12.36	4002	0	0	5	5	0.02	0.001495318	1	15	0.04	1800	-1.015045	35.45959	-76.36103
9036	0	-3	0	0.07594572	0.008083058	-0.8602047	0	12.36	4004	0	0	5	5	0.02	0.009100172	1	15	0.04	1800	-1.013977	24.53153	-46.29588
9117	10	-6	-1	0.07662761	0.01228343	-0.8622832	0	12.42	4004	0	0	5	5	0.02	0.01027677	1	15	0.04	1800	-0.7852478	24.53153	-46.29588
9203	7	0	1	0.07714684	0.01417051	-0.8630781	0	12.42	4004	0	0	5	5	0.02	0.01051027	1	15	0.04	1800	-0.7948608	24.53154	-46.29588
9280	7	-4	3	0.07688514	0.01365399	-0.8650956	0	12.42	4003	0	0	5	5	0.02	0.01089403	1	15	0.04	1800	-1.010773	24.53154	-46.29588
9448	3	1	3	0.07633531	0.0132493	-0.8683358	0	12.42	4004	0	0	5	5	0.02	0.006257668	1	15	0.04	1800	-1.014984	24.53154	-46.29588
9494	12	3	1	0.07394001	0.0143748	-0.8693752	0	12.42	4004	0	0	5	5	0.02	0.004268388	1	15	0.04	1800	-1.014374	27.26356	-53.81217
9571	8	-2	0	0.0779956	0.01016367	-0.8721875	0	12.42	4002	0	0	5	5	0.02	0.002714767	1	15	0.04	1800	-0.7945557	32.72759	-68.84475
9683	6	-4	6	0.07483743	0.006385133	-0.8754888	0	12.42	4002	0	0	5	5	0.02	-0.001009711	1	15	0.04	1800	-1.011108	40.92365	-91.39362
9775	2	0	0	0.07201352	0.007024834	-0.8762837	0	12.42	4004	0	0	5	5	0.02	-0.008108935	1	15	0.04	1800	-1.005829	40.92365	-91.39362
9877	0	-4	0	0.06827991	0.006701077	-0.8786682	0	12.42	4004	0	0	5	5	0.02	-0.01441407	1	15	0.04	1800	-0.7781982	40.92364	-91.39362
10064	5	-2	-2	0.05972607	0.007484856	-0.8829478	0	12.36	4004	0	0	5	5	0.02	-0.02625147	1	15	0.04	1800	-0.9886169	40.92364	-91.3936
10142	1	2	4	0.06168463	0.004480476	-0.8849041	0	12.36	4003	0	0	5	5	0.02	-0.03508354	1	15	0.04	1800	-0.991272	40.92364	-91.3936
10293	3	2	5	0.06192439	-0.005455834	-0.8888776	0	12.36	4002	0	0	5	5	0.02	-0.05196699	1	15	0.04	1800	-0.9954834	40.92363	-91.3936
10418	3	2	4	0.05274908	-0.003281955	-0.8937691	0	12.36	4002	0	0	5	5	0.02	-0.06037795	1	15	0.04	1800	-0.9857483	40.92363	-91.39359
10498	2	0	0	0.05161573	-0.001844679	-0.896153	0	12.36	4003	0	0	5	5	0.02	-0.06119147	1	15	0.04	1800	-0.9796143	40.92363	-91.39359
10556	14	-4	3	0.05373246	8.390277E-05	-0.8962753	0	12.36	4003	0	0	5	5	0.02	-0.06371014	1	15	0.04	1800	-0.9796143	40.92363	-91.39359
10676	9	-2	2	0.05818804	-0.0007396981	-0.899761	0	12.36	4002	0	0	5	5	0.02	-0.07098886	1	15	0.04	1800	-0.9915466	40.92363	-91.39359
10764	3	5	4	0.05567587	-0.0002535074	-0.9009226	0	12.36	4002	0	0	5	5	0.02	-0.07622974	1	15	0.04	1800	-0.9868774	40.92363	-91.39359
10906	8	-2	-3	0.06304991	-0.001295983	-0.9044073	0	12.42	4004	0	0	5	5	0.02	-0.07420718	1	15	0.04	1800	-0.9869995	40.92363	-91.39359
10965	7	-1	4	0.06258408	-0.0004187891	-0.9050186	0	12.42	4002	0	0	5	5	0.02	-0.07102296	1	15	0.04	1800	-0.9869995	40.92363	-91.39359
11110	6	-2	5	0.07189408	0.003047062	-0.9092368	0	12.42	4002	0	0	5	5	0.02	-0.0736144	1	15	0.04	1800	-1.007568	40.92363	-91.39358
11157	3	-2	2	0.06677385	0.002861912	-0.9101539	0	12.42	4003	0	0	5	5	0.02	-0.07347028	1	15	0.04	1800	-1.007568	40.92363	-91.39358
11255	4	-1	2	0.06162381	0.002290948	-0.9143111	0	12.42	4003	0	0	5	5	0.02	-0.07503372	1	15	0.04	1800	-0.7738647	40.92363	-91.39359
11375	5	0	-1	0.06416342	0.005750772	-0.9194469	0	12.42	4003	0	0	5	5	0.02	-0.07600784	1	15	0.04	1800	-0.9955444	40.92363	-91.39359
11495	12	0	3	0.06426952	-0.003109184	-0.9231151	0	12.42	4002	0	0	5	5	0.02	-0.07740162	1	15	0.04	1800	-0.9990845	40.92363	-91.39359
11603	3	0	6	0.05827589	-0.007225778	-0.9262947	0	12.42	4004	0	0	5	5	0.02	-0.08246453	1	15	0.04	1800	-0.9945679	40.92363	-91.3936
11716	4	4	3	0.05673899	-0.006092013	-0.9280061	0	12.42	4002	0	0	5	5	0.02	-0.08437075	1	15	0.04	1800	-0.9808044	40.92363	-91.39361
11747	3	1	-1	0.05764102	-0.006952582	-0.9287396	0	12.42	4003	0	0	5	5	0.02	-0.08518109	1	15	0.04	1800	-0.9862061	40.92363	-91.39361
11969	5	-2	2	0.06143685	-0.008862672	-0.9322857	0	12.42	4003	0	0	5	5	0.02	-0.09044045	1	15	0.04	1800	-0.9942322	40.92364	-91.39362
12040	3	-5	2	0.06367278	-0.008435859	-0.9341197	0	12.42	4002	0	0	5	5	0.02	-0.08789516	1	15	0.04	1800	-1.001953	40.92364	-91.39362
12181	4	-1	4	0.06151958	-0.008376416	-0.9366875	0	12.42	4003	0	0	5	5	0.02	-0.0897867	1	15	0.04	1800	-0.9878235	40.92364	-91.39362
12227	3	-1	1	0.06233328	-0.01034368	-0.9371772	0	12.42	4002	0	0	5	5	0.02	-0.08949524	1	15	0.04	1800	-0.7744141	40.92364	-91.39362
12330	4	-5	5	0.05853933	-0.001582374	-0.9403565	0	12.42	4002	0	0	5	5	0.02	-0.08357187	1	15	0.04	1800	-0.7707825	40.92364	-91.39362
12476	9	0	2	0.05613629	0.002128951	-0.9445745	0	12.42	4003	0	0	5	5	0.02	-0.0715479	1	15	0.04	1800	-0.9814758	40.92364	-91.39362
12552	11	0	0	0.05747124	-0.0009528154	-0.9472647	0	12.42	4002	0	0	5	5	0.02	-0.0591374	1	15	0.04	1800	-0.9803162	40.92364	-91.39363
12695	6	-2	1	0.06245884	0.001806815	-0.9516669	0	12.36	4002	0	0	5	5	0.02	-0.04931124	1	15	0.04	1800	-0.7715454	40.92364	-91.39363
12797	3	-8	0	0.06605145	0.004170869	-0.9554575	0	12.36	4003	0	0	5	5	0.02	-0.04234533	1	15	0.04	1800	-0.9927063	40.92364	-91.39363
12832	4	-5	0	0.06547756	0.006212128	-0.9559466	0	12.36	4003	0	0	5	5	0.02	-0.04067365	1	15	0.04	1800	-1.000854	40.92364	-91.39363
12963	7	-4	5	0.06585984	0.005872343	-0.9596152	0	12.36	4003	0	0	5	5	0.02	-0.03843846	1	15	0.04	1800	-0.779541	40.92363	-91.39363
13042	1	0	3	0.06102755	0.00894857	-0.9615716	0	12.36	4002	0	0	5	5	0.02	-0.03673384	1	15	0.04	1800	-0.9994812	40.92363	-91.39363
13182	1	-2	-2	0.05415555	0.01439805	-0.9632831	0	12.36	4003	0	0	5	5	0.02	-0.04056174	1	15	0.04	1800	-0.9877319	40.92363	-91.39363
13256	10	-2	3	0.05707192	0.01604696	-0.9659117	0	12.36	4004	0	0	5	5	0.02	-0.04355712	1	15	0.04	1800	-0.9857178	40.92363	-91.39362
13366	13	-2	5	0.0586303	0.01586136	-0.966523	0	12.36	4003	0	0	5	5	0.02	-0.05170707	1	15	0.04	1800	-0.9888306	40.92362	-91.39362
13433	-1	2	0	0.05966397	0.01946482	-0.9682961	0	12.36	4004	0	0	5	5	0.02	-0.05643022	1	15	0.04	1800	-0.7632446	40.92362	-91.39362
13689	2	-5	-2	0.05315348	0.01864614	-0.9753269	0	12.42	4003	0	0	5	5	0.02	-0.0631512	1	15	0.04	1800	-0.9829407	40.92361	-91.39362
13873	3	-5	2	0.06074211	0.01906499	-0.9780158	0	12.42	4002	0	0	5	5	0.02	-0.04125864	1	15	0.04	1800	-0.5426331	40.9236	-91.39362
13999	9	-2	0	0.06661487	0.0186546	-0.9807673	0	12.42	4003	0	0	5	5	0.02	-0.03162968	1	15	0.04	1800	-1.002075	40.92359	-91.39361
14107	6	1	0	0.06360308	0.01610501	-0.9816841	0	12.42	4003	0	0	5	5	0.02	-0.01732308	1	15	0.04	1800	-0.7721252	40.92358	-91.39361
14165	2	1	-1	0.05852964	0.02143964	-0.9827235	0	12.42	4002	0	0	5	5	0.02	-0.01199865	1	15	0.04	1800	-0.9964905	40.92358	-91.3936
14257	1	0	1	0.05434531	0.03072656	-0.9878588	0	12.42	4004	0	0	5	5	0.02	-0.007940219	1	15	0.04	1800	-0.9815674	40.92357	-91.3936
14350	3	4	2	0.05451603	0.028829	-0.9894481	0	12.42	4002	0	0	5	5	0.02	-0.004890138	1	15	0.04	1800	-0.9784851	40.92357	-91.39359
14446	5	-7	-1	0.06181029	0.03232232	-0.9912822	0	12.42	4003	0	0	5	5	0.02	-0.007128571	1	15	0.04	1800	-0.9953003	40.92356	-91.39359
14559	8	5	5	0.06391297	0.04029908	-0.9939721	0	12.36	4002	0	0	5	5	0.02	-0.01236904	1	15	0.04	1800	-0.9957886	40.92356	-91.39359
14639	9	0	-5	0.06693038	0.04075865	-0.9934828	0	12.36	4003	0	0	5	5	0.02	-0.0171989	1	15	0.04	1800	-0.9957886	40.92356	-91.39359
14771	8	0	1	0.07184976	0.03881411	-0.9982516	0	12.36	4003	0	0	5	5	0.02	-0.02595675	1	15	0.04	1800	-1.003876	40.92356	-91.39359
14888	7	-1	0	0.06940261	0.03249707	-0.9999636	0	12.36	4004	0	0	5	5	0.02	-0.04009683	1	15	0.04	1800	-1.001617	40.92356	-91.39359
15041	3	0	3	0.06508378	0.03485419	-1.005038	0	12.36	4003	0	0	5	5	0.02	-0.06047481	1	15	0.04	1800	-0.997345	40.92357	-91.39359
15089	9	1	0	0.06345773	0.0330338	-1.005466	0	12.36	4004	0	0	5	5	0.02	-0.06103172	1	15	0.04	1800	-1.002106	40.92357	-91.39359
15222	9	1	0	0.064984	0.02663635	-1.009134	0	12.36	4002	0	0	5	5	0.02	-0.05970475	1	15	0.04	1800	-0.7681274	40.92357	-91.39358
15268	10	-4	4	0.06385981	0.02346746	-1.010173	0	12.36	4002	0	0	5	5	0.02	-0.0588227	1	15	0.04	1800	-1.000732	40.92357	-91.39358
15349	6	-4	2	0.06871674	0.01818738	-1.011579	0	12.36	4002	0	0	5	5	0.02	-0.05947961	1	15	0.04	1800	-0.7770386	40.92357	-91.39358
15585	2	-6	0	0.07513006	0.01248157	-1.018671	0	12.36	4002	0	0	5	5	0.02	-0.06973311	1	15	0.04	1800	-1.008606	40.92357	-91.39358
15636	8	1	0	0.07492273	0.01068303	-1.019344	0	12.36	4002	0	0	5	5	0.02	-0.0739591	1	15	0.04	1800	-0.7871704	40.92357	-91.39358
15732	10	-1	0	0.08002267	0.01472412	-1.020077	0	12.36	4004	0	0	5	5	0.02	-0.0786399	1	15	0.04	1800	-0.7958984	40.92357	-91.39358
15831	4	0	-3	0.07455582	0.0087223	-1.020872	0	12.36	4004	0	0	5	5	0.02	-0.0864584	1	15	0.04	1800	-1.020691	40.92358	-91.39358
16047	5	0	3	0.07140147	0.007562356	-1.029677	0	12.36	4003	0	0	5	5	0.02	-0.120499	1	15	0.04	1800	-1.008331	40.92358	-91.39358
16202	1	-3	1	0.06992029	0.01422551	-1.03414	0	12.36	4004	0	0	5	5	0.02	-0.1461159	1	15	0.04	1800	-0.7803345	40.92358	-91.39358
16330	5	-1	-2	0.06819374	0.01950646	-1.038909	0	12.36	4003	0	0	5	5	0.02	-0.153502	1	15	0.04	1800	-1.001953	40.92359	-91.39358
16406	7	1	1	0.07015353	0.01890635	-1.042332	0	12.36	4003	0	0	5	5	0.02	-0.1552064	1	15	0.04	1800	-1.00354	40.92359	-91.39358
16538	9	-4	-5	0.07009677	0.009028323	-1.045572	0	12.36	4002	0	0	5	5	0.02	-0.1569704	1	15	0.04	1800	-1.009033	40.9236	-91.39358
16731	5	-3	0	0.07138219	0.00193492	-1.052726	0	12.36	4003	0	0	5	5	0.02	-0.1538854	1	15	0.04	1800	-0.7789001	40.9236	-91.39358
16862	6	2	3	0.07071285	0.001186601	-1.056577	0	12.36	4003	0	0	5	5	0.02	-0.1433151	1	15	0.04	1800	-1.009491	40.9236	-91.39358
16912	3	0	2	0.06909521	-0.002288227	-1.058779	0	12.36	4004	0	0	5	5	0.02	-0.1401782	1	15	0.04	1800	-1.009491	40.9236	-91.39358
17061	7	0	2	0.06915344	-0.006989683	-1.063181	0	12.36	4003	0	0	5	5	0.02	-0.1219456	1	15	0.04	1800	-1.004547	40.9236	-91.39358
17147	3	-2	2	0.06607835	-0.01046932	-1.064649	0	12.36	4003	0	0	5	5	0.02	-0.107623	1	15	0.04	1800	-1.001953	40.9236	-91.39358
17197	7	0	4	0.06866045	-0.01229597	-1.067155	0	12.36	4003	0	0	5	5	0.02	-0.09148937	1	15	0.04	1800	-0.7783203	40.9236	-91.39358
17326	8	2	3	0.06982083	-0.01551379	-1.069418	0	12.36	4004	0	0	5	5	0.02	-0.07588835	1	15	0.04	1800	-1.005157	40.9236	-91.39358
17412	8	-4	6	0.07319093	-0.01495739	-1.072169	0	12.36	4004	0	0	5	5	0.02	-0.0647564	1	15	0.04	1800	-1.01123	40.92359	-91.39359
17541	2	1	-3	0.07006773	-0.01138556	-1.078099	0	12.36	4003	0	0	5	5	0.02	-0.05365559	1	15	0.04	1800	-1.005066	40.92359	-91.39359
17684	9	0	2	0.07026833	-0.00832465	-1.082991	0	12.36	4004	0	0	5	5	0.02	-0.0318355	1	15	0.04	1800	-0.7792969	40.92359	-91.39359
17769	6	0	0	0.06738494	-0.005080633	-1.085681	0	12.36	4002	0	0	5	5	0.02	-0.02133076	1	15	0.04	1800	-1.008972	40.92359	-91.39359
17865	10	-1	3	0.07225523	-0.001920905	-1.088738	0	12.36	4003	0	0	5	5	0.02	-0.01145379	1	15	0.04	1800	-1.00235	40.92359	-91.39359
17955	8	-3	0	0.08352804	-0.003391801	-1.089349	0	12.36	4002	0	0	5	5	0.02	-0.008170821	1	15	0.04	1800	-1.012268	40.92359	-91.39359
18050	7	-1	1	0.07975557	-0.001095445	-1.093017	0	12.36	4002	0	0	5	5	0.02	-0.008075058	1	15	0.04	1800	-0.8000183	40.92359	-91.3936
18101	9	3	1	0.08238502	0.0005459581	-1.093995	0	12.36	4004	0	0	5	5	0.02	-0.007501238	1	15	0.04	1800	-0.8000183	40.9236	-91.3936
18220	6	-3	0	0.08045705	-0.008558102	-1.098886	0	12.36	4002	0	0	5	5	0.02	-0.0006846946	1	15	0.04	1800	-1.027313	40.9236	-91.39361
18338	3	-2	0	0.08032008	-0.007572901	-1.103533	0	12.36	4002	0	0	5	5	0.02	0.008257348	1	15	0.04	1800	-1.017578	40.9236	-91.39361
18396	4	2	-2	0.07691205	-0.007301141	-1.103533	0	12.36	4003	0	0	5	5	0.02	0.01486803	1	15	0.04	1800	-1.017578	40.9236	-91.39361
18444	5	1	3	0.0826157	-0.00931331	-1.104817	0	12.36	4002	0	0	5	5	0.02	0.01801189	1	15	0.04	1800	-1.232666	40.9236	-91.39362
18637	1	2	3	0.08927683	-0.01450209	-1.112032	0	12.36	4004	0	0	5	5	0.02	0.0387693	1	15	0.04	1800	-0.8124084	40.92361	-91.39362
18719	6	-6	2	0.08968893	-0.01310876	-1.115883	0	12.36	4004	0	0	5	5	0.02	0.04506613	1	15	0.04	1800	-0.8108521	40.92361	-91.39362
18796	16	-5	2	0.09274738	-0.011849	-1.119551	0	12.36	4003	0	0	5	5	0.02	0.04913634	1	15	0.04	1800	-1.043762	40.92361	-91.39362
18968	8	-1	1	0.09563275	-0.008039588	-1.126827	0	12.36	4002	0	0	5	5	0.02	0.06073661	1	15	0.04	1800	-1.046417	40.92361	-91.39362
19092	8	0	0	0.08981105	-0.003620105	-1.133491	0	12.31	4003	0	0	5	5	0.02	0.07024495	1	15	0.04	1800	-1.038727	40.92361	-91.39362
19163	14	0	6	0.08882235	-0.003599663	-1.135447	0	12.31	4003	0	0	5	5	0.02	0.07187285	1	15	0.04	1800	-1.039978	40.92361	-91.39362
19237	8	-2	0	0.08303247	-0.007300726	-1.13826	0	12.31	4006	0	0	5	5	0.02	0.07687489	1	15	0.04	1800	-1.029114	40.92361	-91.39362
19384	7	0	2	0.08445052	-0.009819462	-1.140216	0	12.31	4004	0	0	5	5	0.02	0.07525377	1	15	0.04	1800	-1.025909	40.92361	-91.39362
19477	8	-6	0	0.08032884	-0.00231315	-1.145229	0	12.31	4002	0	0	5	5	0.02	0.0707497	1	15	0.04	1800	-1.023773	40.92362	-91.39362
19670	13	-1	3	0.08565286	-0.003080024	-1.154157	0	12.31	4004	0	0	5	5	0.02	0.06690405	1	15	0.04	1800	-0.7950439	40.92362	-91.39362
19828	6	3	1	0.08433298	-0.005003258	-1.156235	0	12.31	4002	0	0	5	5	0.02	0.06129371	1	15	0.04	1800	-1.022675	40.92362	-91.39362
19991	1	1	5	0.07558005	-0.007248306	-1.162839	0	12.36	4010	0	0	5	5	0.02	0.05318664	1	15	0.04	1800	-1.020844	40.92362	-91.39362
20044	4	-7	3	0.0818252	-0.00816916	-1.163756	0	12.36	4002	0	0	5	5	0.02	0.04848158	1	15	0.04	1800	-1.017242	40.92362	-91.39362
20145	11	-6	1	0.08627087	-0.003164679	-1.168953	0	12.36	4003	0	0	5	5	0.02	0.05116914	1	15	0.04	1800	-1.032166	40.92362	-91.39362
20176	2	-6	3	0.08535253	0.004502038	-1.170665	0	12.36	4002	0	0	5	5	0.02	0.05508802	1	15	0.04	1800	-1.032166	40.92362	-91.39362
20266	3	0	4	0.08603695	0.0002287832	-1.173722	0	12.36	4002	0	0	5	5	0.02	0.05324923	1	15	0.04	1800	-1.034546	40.92361	-91.39362
20367	9	-2	-1	0.08570533	-0.003936964	-1.176656	0	12.36	4004	0	0	5	5	0.02	0.05108226	1	15	0.04	1800	-1.034302	40.92361	-91.39362
20609	8	-2	4	0.08111759	0.0006456567	-1.184666	0	12.36	4004	0	0	5	5	0.02	0.05643004	1	15	0.04	1800	-1.024567	40.92361	-91.39362
20708	5	4	6	0.08456431	0.001574929	-1.1876	0	12.36	4003	0	0	5	5	0.02	0.05802512	1	15	0.04	1800	-1.025604	40.92361	-91.39361
20781	3	-3	2	0.08208961	0.007749585	-1.190596	0	12.42	4003	0	0	5	5	0.02	0.05819503	1	15	0.04	1800	-1.034119	40.9236	-91.39361
20878	6	-2	0	0.08060275	0.008326632	-1.197137	0	12.42	4002	0	0	5	5	0.02	0.06175731	1	15	0.04	1800	-0.7991943	40.9236	-91.3936
21014	5	-2	0	0.0737943	0.009721301	-1.200439	0	12.42	4002	0	0	5	5	0.02	0.06536799	1	15	0.04	1800	-0.7860413	40.9236	-91.3936
21208	3	1	-3	0.06834365	0.007137457	-1.203068	0	12.42	4002	0	0	5	5	0.02	0.05903361	1	15	0.04	1800	-1.003143	40.92359	-91.39359
21334	1	1	0	0.06744451	0.009695886	-1.209732	0	12.42	4003	0	0	5	5	0.02	0.06689588	1	15	0.04	1800	-1.004517	40.92358	-91.39359
21375	5	-1	0	0.06850991	0.01380677	-1.21016	0	12.42	4003	0	0	5	5	0.02	0.06780631	1	15	0.04	1800	-1.007996	40.92358	-91.39359
21460	9	0	2	0.06595537	0.009422358	-1.212851	0	12.42	4004	0	0	5	5	0.02	0.06862035	1	15	0.04	1800	-0.9985962	40.92358	-91.39359
21626	8	0	-1	0.06099438	0.005438537	-1.216764	0	12.42	4002	0	0	5	5	0.02	0.05414515	1	15	0.04	1800	-0.9953308	40.92358	-91.39359
21723	8	-3	2	0.0583283	0.00392371	-1.22245	0	12.36	4003	0	0	5	5	0.02	0.04919672	1	15	0.04	1800	-0.9888306	40.92358	-91.39359
21818	8	-2	-1	0.05656092	0.01025858	-1.225201	0	12.36	4003	0	0	5	5	0.02	0.03562872	1	15	0.04	1800	-0.9840393	40.92358	-91.39359
21857	8	-2	-1	0.05656092	0.01025858	-1.225201	0	12.36	4003	0	0	5	5	0.02	0.02761706	1	15	0.04	1800	-0.9840393	40.92358	-91.39359
21956	2	-2	3	0.05710233	0.009873891	-1.230826	0	12.36	4004	0	0	5	5	0.02	0.02103116	1	15	0.04	1800	-0.9882813	40.92358	-91.39359
22056	18	-1	3	0.05957918	0.008791627	-1.236267	0	12.36	4003	0	0	5	5	0.02	0.006234206	1	15	0.04	1800	-0.7532959	40.92358	-91.39359
22129	11	-4	6	0.06090583	0.007275763	-1.241098	0	12.36	4004	0	0	5	5	0.02	0.001247689	1	15	0.04	1800	-0.9981079	40.92358	-91.39359
22254	13	-8	2	0.067214	0.01276747	-1.247273	0	12.36	4004	0	0	5	5	0.02	-0.002924499	1	15	0.04	1800	-0.9911194	40.92358	-91.39359
22364	6	-4	-1	0.06937246	0.01018322	-1.251736	0	12.36	4004	0	0	5	5	0.02	-0.006802076	1	15	0.04	1800	-0.555481	40.92358	-91.39359
22548	7	0	-4	0.07809525	0.01015863	-1.258217	0	12.36	4003	0	0	5	5	0.02	-0.01077938	1	15	0.04	1800	-1.019684	40.92358	-91.39359
22756	11	-2	-1	0.0902845	0.01376378	-1.262742	0	12.36	4004	0	0	5	5	0.02	-0.01505269	1	15	0.04	1800	-1.041595	40.92359	-91.39359
22884	7	-4	3	0.09085156	0.009049756	-1.265799	0	12.36	4002	0	0	5	5	0.02	-0.02225745	1	15	0.04	1800	-1.033173	40.92359	-91.39359
22940	10	-3	1	0.09540415	0.00779054	-1.269284	0	12.36	4002	0	0	5	5	0.02	-0.02132626	1	15	0.04	1800	-1.031921	40.9236	-91.3936
23023	9	-5	4	0.09199598	0.009277959	-1.271607	0	12.36	4003	0	0	5	5	0.02	-0.01247	1	15	0.04	1800	-1.040283	40.9236	-91.3936
23177	10	-4	2	0.09052671	0.01031825	-1.281144	0	12.36	4003	0	0	5	5	0.02	0.005532723	1	15	0.04	1800	-0.8106384	40.9236	-91.3936
23260	7	-5	3	0.08880431	0.01131421	-1.2831	0	12.36	4004	0	0	5	5	0.02	0.01377404	1	15	0.04	1800	-0.8136292	40.92361	-91.3936
23448	9	1	3	0.09063985	0.006222602	-1.288175	0	12.36	4004	0	0	5	5	0.02	0.0416984	1	15	0.04	1800	-1.03656	40.92361	-91.39361
23620	12	3	2	0.08526365	0.001214197	-1.293432	0	12.36	4003	0	0	5	5	0.02	0.05504053	1	15	0.04	1800	-0.8059998	40.92361	-91.39362
23842	10	2	1	0.07999201	0.001990282	-1.300096	0	12.36	4003	0	0	5	5	0.02	0.05407988	1	15	0.04	1800	-1.026947	40.92361	-91.39362
24021	3	0	3	0.07868572	0.001420973	-1.306026	0	12.36	4003	0	0	5	5	0.02	0.05815202	1	15	0.04	1800	-1.014587	40.9236	-91.39362
24209	6	-3	0	0.08536121	0.005980057	-1.310734	0	12.36	4003	0	0	5	5	0.02	0.07305109	1	15	0.04	1800	-1.032806	40.9236	-91.39362
24380	3	-3	1	0.09253211	0.008612525	-1.314403	0	12.42	4002	0	0	5	5	0.02	0.09882225	1	15	0.04	1800	-0.8068848	40.9236	-91.39362
24557	-1	-2	0	0.08879358	0.01032492	-1.317949	0	12.42	4004	0	0	5	5	0.02	0.1088504	1	15	0.04	1800	-1.038269	40.9236	-91.39361
24637	6	1	-3	0.09221472	0.01279879	-1.322718	0	12.42	4004	0	0	5	5	0.02	0.1117482	1	15	0.04	1800	-1.034332	40.9236	-91.39361
24772	8	-3	3	0.08987727	0.01410986	-1.329015	0	12.42	4003	0	0	5	5	0.02	0.1084583	1	15	0.04	1800	-1.039673	40.92361	-91.39361
24930	6	1	-4	0.0849978	0.01903619	-1.334579	0	12.42	4003	0	0	5	5	0.02	0.09492628	1	15	0.04	1800	-0.8034973	40.92361	-91.39362
25001	7	-6	1	0.08457348	0.02415118	-1.338247	0	12.42	4003	0	0	5	5	0.02	0.09243276	1	15	0.04	1800	-1.026123	40.92361	-91.39362
25154	7	5	1	0.08370226	0.01755618	-1.347234	0	12.42	4002	0	0	5	5	0.02	0.09515412	1	15	0.04	1800	-0.8034058	40.92362	-91.39362
25187	3	2	6	0.08392356	0.01927978	-1.348518	0	12.42	4003	0	0	5	5	0.02	0.09772044	1	15	0.04	1800	-1.02713	40.92362	-91.39362
25263	2	-6	0	0.07869587	0.01923835	-1.351392	0	12.36	4003	0	0	5	5	0.02	0.103752	1	15	0.04	1800	-1.021332	40.92363	-91.39362
25466	8	-4	0	0.07225426	0.01687898	-1.357261	0	12.36	4004	0	0	5	5	0.02	0.1127585	1	15	0.04	1800	-1.006256	40.92364	-91.39362
25533	0	2	2	0.07126839	0.01457643	-1.358667	0	12.36	4003	0	0	5	5	0.02	0.1118786	1	15	0.04	1800	-1.010284	40.92364	-91.39362
25561	5	-3	-1	0.06755854	0.01454755	-1.360073	0	12.36	4004	0	0	5	5	0.02	0.1127646	1	15	0.04	1800	-1.002319	40.92364	-91.39362
25645	6	-3	2	0.06268735	0.01329191	-1.362458	0	12.36	4004	0	0	5	5	0.02	0.1166798	1	15	0.04	1800	-0.9943542	40.92365	-91.39362
25757	4	1	-1	0.06233627	0.008705354	-1.366921	0	12.36	4002	0	0	5	5	0.02	0.1182948	1	15	0.04	1800	-0.9972839	40.92365	-91.39362
25853	8	0	5	0.06600323	0.002670085	-1.370284	0	12.36	4004	0	0	5	5	0.02	0.1121709	1	15	0.04	1800	-0.7684326	40.92365	-91.39362
25986	6	-1	1	0.06627581	0.007435566	-1.375176	0	12.36	4003	0	0	5	5	0.02	0.0962664	1	15	0.04	1800	-1.001343	40.92365	-91.39362
26159	10	-1	10	0.06818533	0.01442197	-1.384346	0	12.31	4003	0	0	5	5	0.02	0.07675346	1	15	0.04	1800	-0.9996338	40.92365	-91.39362
26320	4	-7	2	0.06201439	0.01826099	-1.391928	0	12.31	4003	0	0	5	5	0.02	0.08587576	1	15	0.04	1800	-0.9927063	40.92365	-91.39362
26419	-3	-5	3	0.06048652	0.01629642	-1.395902	0	12.31	4002	0	0	5	5	0.02	0.1003782	1	15	0.04	1800	-0.9885254	40.92365	-91.39362
26470	7	0	1	0.0621152	0.01573445	-1.396392	0	12.31	4002	0	0	5	5	0.02	0.1106796	1	15	0.04	1800	-0.9885254	40.92365	-91.39362
26666	4	-1	3	0.05169024	0.01703853	-1.406418	0	12.31	4002	0	0	5	5	0.02	0.1358386	1	15	0.04	1800	-0.9823914	40.92365	-91.39361
26808	6	-3	7	0.04946744	0.01036265	-1.41296	0	12.31	4003	0	0	5	5	0.02	0.1472498	1	15	0.04	1800	-0.9749146	40.92365	-91.3936
26849	1	-5	2	0.0489359	0.01090846	-1.415283	0	12.31	4002	0	0	5	5	0.02	0.1521477	1	15	0.04	1800	-0.9749146	40.92365	-91.39359
26994	7	3	-1	0.04691152	0.01693921	-1.421581	0	12.31	4004	0	0	5	5	0.02	0.1597181	1	15	0.04	1800	-0.9687805	40.92365	-91.39359
27152	0	-5	1	0.04916774	0.02327427	-1.426961	0	12.36	4004	0	0	5	5	0.02	0.1753061	1	15	0.04	1800	-0.9675293	40.92365	-91.39358
27199	0	0	8	0.04442315	0.02419578	-1.429834	0	12.36	4002	0	0	5	5	0.02	0.1818175	1	15	0.04	1800	-0.9728394	40.92365	-91.39358
27318	6	-3	0	0.04161443	0.02205842	-1.436254	0	12.36	4004	0	0	5	5	0.02	0.19354	1	15	0.04	1800	-0.9598694	40.92365	-91.39358
27354	3	0	4	0.04260105	0.02133739	-1.437538	0	12.36	4004	0	0	5	5	0.02	0.1954942	1	15	0.04	1800	-0.7362061	40.92365	-91.39358
27437	4	4	-1	0.04371452	0.02050974	-1.441084	0	12.36	4003	0	0	5	5	0.02	0.200497	1	15	0.04	1800	-0.9656372	40.92365	-91.39358
27541	0	1	0	0.03458661	0.02115401	-1.445913	0	12.36	4003	0	0	5	5	0.02	0.2071934	1	15	0.04	1800	-0.7380981	40.92365	-91.39358
27693	0	1	6	0.03354258	0.0226575	-1.45105	0	12.36	4003	0	0	5	5	0.02	0.217332	1	15	0.04	1800	-0.948822	40.92365	-91.39358
27784	2	1	0	0.02712992	0.02485873	-1.456858	0	12.36	4002	0	0	5	5	0.02	0.2226535	1	15	0.04	1800	-0.9425659	40.92365	-91.39359
27856	4	-3	5	0.03157593	0.0265522	-1.461994	0	12.36	4003	0	0	5	5	0.02	0.2238113	1	15	0.04	1800	-0.9443665	40.92365	-91.39359
27958	6	0	2	0.03595479	0.02941853	-1.466762	0	12.36	4004	0	0	5	5	0.02	0.2285116	1	15	0.04	1800	-0.9496765	40.92365	-91.39359
28040	0	-7	5	0.03317561	0.03127016	-1.472142	0	12.36	4002	0	0	5	5	0.02	0.2298959	1	15	0.04	1800	-0.7301636	40.92365	-91.3936
28146	6	4	8	0.03490324	0.03107109	-1.474527	0	12.36	4003	0	0	5	5	0.02	0.2311168	1	15	0.04	1800	-0.9502563	40.92365	-91.3936
28255	7	-1	-1	0.04429817	0.02854822	-1.479846	0	12.36	4002	0	0	5	5	0.02	0.2304723	1	15	0.04	1800	-0.9604187	40.92365	-91.39361
28370	1	-1	5	0.04031253	0.02925319	-1.482598	0	12.36	4003	0	0	5	5	0.02	0.2326253	1	15	0.04	1800	-0.9681091	40.92365	-91.39361
28400	3	-1	8	0.04474167	0.03235877	-1.484432	0	12.36	4004	0	0	5	5	0.02	0.2340037	1	15	0.04	1800	-0.9681091	40.92365	-91.39361
28501	-2	-1	2	0.03980672	0.02806696	-1.490301	0	12.36	4004	0	0	5	5	0.02	0.2311273	1	15	0.04	1800	-0.9613037	40.92365	-91.39361
28583	6	-6	0	0.03843272	0.03169068	-1.492441	0	12.36	4002	0	0	5	5	0.02	0.2268514	1	15	0.04	1800	-0.9528503	40.92365	-91.39361
28731	6	0	8	0.03608653	0.03113309	-1.50094	0	12.36	4002	0	0	5	5	0.02	0.21473	1	15	0.04	1800	-0.7294006	40.92365	-91.39361
28793	6	-2	-4	0.03716344	0.03357883	-1.501674	0	12.36	4004	0	0	5	5	0.02	0.2154219	1	15	0.04	1800	-0.9556274	40.92365	-91.39361
28906	2	-3	1	0.03702454	0.03551788	-1.505159	0	12.36	4003	0	0	5	5	0.02	0.2275507	1	15	0.04	1800	-0.9543762	40.92365	-91.39361
29056	3	-1	8	0.04003458	0.02686506	-1.509317	0	12.36	4003	0	0	5	5	0.02	0.2403298	1	15	0.04	1800	-0.9662476	40.92365	-91.39362
29096	3	5	2	0.03541478	0.02761732	-1.511335	0	12.36	4003	0	0	5	5	0.02	0.2415012	1	15	0.04	1800	-0.9584656	40.92365	-91.39362
29189	6	-6	5	0.03852334	0.03003979	-1.515248	0	12.36	4002	0	0	5	5	0.02	0.2401105	1	15	0.04	1800	-0.9589539	40.92365	-91.39362
29472	4	-2	4	0.03330771	0.01874131	-1.527293	0	12.36	4003	0	0	5	5	0.02	0.2344482	1	15	0.04	1800	-0.951416	40.92366	-91.39362
29647	5	0	3	0.03325167	0.01934325	-1.535547	0	12.36	4003	0	0	5	5	0.02	0.2359921	1	15	0.04	1800	-0.9474487	40.92366	-91.39363
29754	3	-4	1	0.03124638	0.02147159	-1.542884	0	12.31	4002	0	0	5	5	0.02	0.2380655	1	15	0.04	1800	-0.9512329	40.92367	-91.39363
29914	3	-6	5	0.03173774	0.01440824	-1.5523	0	12.31	4004	0	0	5	5	0.02	0.2343589	1	15	0.04	1800	-0.9460754	40.92367	-91.39363
30078	7	0	7	0.02831938	0.01946052	-1.559575	0	12.31	4003	0	0	5	5	0.02	0.2200391	1	15	0.04	1800	-0.9417114	40.92367	-91.39363
30134	5	-5	3	0.0300588	0.02089681	-1.564038	0	12.31	4003	0	0	5	5	0.02	0.2161611	1	15	0.04	1800	-0.9411011	40.92367	-91.39363
30221	1	-4	5	0.03028959	0.0225855	-1.56789	0	12.31	4004	0	0	5	5	0.02	0.2183716	1	15	0.04	1800	-0.9429626	40.92367	-91.39363
30283	9	-8	7	0.03140225	0.02690119	-1.570763	0	12.31	4003	0	0	5	5	0.02	0.2190083	1	15	0.04	1800	-0.9429626	40.92367	-91.39363
30383	1	1	1	0.03779624	0.02105366	-1.579323	0	12.31	4003	0	0	5	5	0.02	0.2211915	1	15	0.04	1800	-0.9519043	40.92367	-91.39363
30497	5	-5	8	0.03799021	0.01618959	-1.584948	0	12.31	4004	0	0	5	5	0.02	0.2240915	1	15	0.04	1800	-0.733429	40.92368	-91.39363
30630	4	0	-1	0.04103105	0.02279541	-1.592774	0	12.31	4004	0	0	5	5	0.02	0.225235	1	15	0.04	1800	-0.9618835	40.92368	-91.39364
30670	2	0	4	0.04086901	0.02207704	-1.593997	0	12.36	4003	0	0	5	5	0.02	0.224879	1	15	0.04	1800	-0.9616394	40.92368	-91.39364
30853	3	-1	-5	0.04356228	0.01503414	-1.600477	0	12.36	4004	0	0	5	5	0.02	0.2264848	1	15	0.04	1800	-0.9680481	40.92369	-91.39364
30903	6	3	2	0.04223445	0.01408138	-1.603228	0	12.36	4004	0	0	5	5	0.02	0.224857	1	15	0.04	1800	-0.967865	40.92369	-91.39365
31039	2	0	3	0.04305552	0.01866668	-1.609709	0	12.36	4002	0	0	5	5	0.02	0.217808	1	15	0.04	1800	-0.9644165	40.92369	-91.39365
31082	4	-2	5	0.04316655	0.02237784	-1.613133	0	12.36	4003	0	0	5	5	0.02	0.217087	1	15	0.04	1800	-0.9640503	40.92369	-91.39365
31199	5	-5	9	0.03728301	0.01792702	-1.617535	0	12.36	4004	0	0	5	5	0.02	0.2038764	1	15	0.04	1800	-0.9580078	40.92369	-91.39364
31324	4	3	6	0.04121142	0.01703971	-1.622609	0	12.36	4003	0	0	5	5	0.02	0.1947866	1	15	0.04	1800	-0.9651794	40.92369	-91.39364
31405	4	-2	1	0.04045067	0.01631455	-1.624933	0	12.36	4004	0	0	5	5	0.02	0.1873126	1	15	0.04	1800	-0.9576111	40.92369	-91.39364
31538	8	-6	7	0.0480998	0.01748097	-1.630374	0	12.42	4004	0	0	5	5	0.02	0.1768268	1	15	0.04	1800	-0.9640198	40.92368	-91.39364
31668	-1	-3	-1	0.04987319	0.01336563	-1.636917	0	12.42	4003	0	0	5	5	0.02	0.170505	1	15	0.04	1800	-0.9790649	40.92368	-91.39363
31702	2	2	1	0.04456912	0.0132245	-1.639669	0	12.42	4002	0	0	5	5	0.02	0.1704135	1	15	0.04	1800	-0.9709167	40.92368	-91.39364
31770	9	-2	0	0.05403085	0.01627542	-1.643337	0	12.42	4002	0	0	5	5	0.02	0.1706297	1	15	0.04	1800	-0.7456055	40.92368	-91.39364
31925	3	2	2	0.04823046	0.01359663	-1.647189	0	12.42	4003	0	0	5	5	0.02	0.197599	1	15	0.04	1800	-0.7490234	40.92367	-91.39364
32033	1	-5	0	0.05086192	0.01897467	-1.650246	0	12.42	4004	0	0	5	5	0.02	0.2071477	1	15	0.04	1800	-0.9796753	40.92367	-91.39364
32194	7	-3	1	0.05691415	0.0225612	-1.653547	0	12.42	4004	0	0	5	5	0.02	0.2257225	1	15	0.04	1800	-0.7583618	40.92366	-91.39365
32360	3	-3	0	0.04786019	0.02242341	-1.660211	0	12.42	4004	0	0	5	5	0.02	0.2300455	1	15	0.04	1800	-0.7457275	40.92366	-91.39365
32410	4	-3	5	0.0447817	0.02065231	-1.661312	0	12.42	4003	0	0	5	5	0.02	0.2288848	1	15	0.04	1800	-0.7457275	40.92366	-91.39365
32472	2	-2	2	0.0473714	0.02019619	-1.664675	0	12.31	4003	0	0	5	5	0.02	0.2258064	1	15	0.04	1800	-0.9761353	40.92365	-91.39365
32652	2	0	0	0.04901033	0.01630696	-1.673051	0	12.31	4003	0	0	5	5	0.02	0.2167658	1	15	0.04	1800	-0.9665222	40.92365	-91.39365
