time(ms)	gyro_x(deg/s)	gyro_y(deg/s)	gyro_z(deg/s)	orientation_roll(deg)	orientation_pitch(deg)	orientation_yaw(deg)	throttle	battery(V)	loop_time(uS)	pid_output_roll	pid_output_pitch	pid_output_yaw	pid_output_throttle	ultrasonic_alt	baro_alt	flight_mode	p_gain_altitude	i_gain_altitude	d_gain_altitude	compass_heading	latitude	longitude
725148	122	-179	-499	2.462174	-1.380812	-1.31734	0	11.23	4002	0	0	5	5	0.06962903	0.08477791	3	9	0.04	1800	-78.89859	40.92377	-91.39368
725335	-118	6	0	2.342678	-0.8288796	-1.302798	0	11.23	4003	0	0	5	5	0.06962903	0.07460075	3	9	0.04	1800	-81.21167	40.92377	-91.39368
725508	197	-168	118	2.232457	-0.4177561	-1.276633	0	11.23	4003	0	0	5	5	0.06962903	0.0918406	3	9	0.04	1800	-81.67459	40.92377	-91.39368
725567	25	-186	81	2.264562	-0.3221005	-1.2537	0	11.23	4004	0	0	5	5	0.06962903	0.09406859	3	9	0.04	1800	-79.80417	40.92377	-91.39368
725729	195	-93	119	2.302761	-0.1564108	-1.27334	0	10.94	4004	0	0	5	5	0.06962903	0.1068803	3	9	0.04	1800	-79.50809	40.92377	-91.39368
725841	-89	-188	256	2.25462	-0.1400981	-1.303335	0	10.94	4002	0	0	5	5	0.06962903	0.1092828	3	9	0.04	1800	-79.13654	40.92377	-91.39368
725943	-179	-223	415	2.192682	-0.154946	-1.339583	0	10.94	4003	0	0	5	5	0.06962903	0.1200455	3	9	0.04	1800	-81.5719	40.92377	-91.39368
726081	-104	-60	514	2.143999	-0.1221396	-1.328135	0	10.94	4003	0	0	5	5	0.06962903	0.1381035	3	9	0.04	1800	-78.75208	40.92377	-91.39368
726267	-111	237	-95	2.243289	0.02080669	-1.277372	0	10.94	4002	0	0	5	5	0.06962903	0.1548625	3	9	0.04	1800	-79.43591	40.92377	-91.39368
726404	-27	-353	525	2.343004	0.1116721	-1.319133	0	10.94	4003	0	0	5	5	0.06962903	0.1534033	3	9	0.04	1800	-80.67786	40.92377	-91.39369
726478	-118	-84	161	2.333679	0.1198143	-1.302235	0	10.94	4002	0	0	5	5	0.06962903	0.1500595	3	9	0.04	1800	-80.20102	40.92377	-91.39369
726616	-47	132	2	2.39733	0.2812702	-1.276697	0	10.89	4002	0	0	5	5	0.07281893	0.1452248	3	9	0.04	1800	-79.29123	40.92377	-91.39369
726699	278	-786	-191	2.394931	0.6385722	-1.47084	0	10.89	4003	0	0	5	5	0.07827365	0.1418809	6	9	0.04	1800	-80.21606	40.92377	-91.39369
726756	-217	-1199	445	2.30088	0.9813878	-1.524073	0	10.89	4002	0	0	5	5	0.08445157	0.1413266	6	9	0.04	1800	-80.27792	40.92377	-91.39369
726872	-70	-229	358	2.077096	2.343801	-1.393781	0	10.89	4003	0	0	5	5	0.09230588	0.1419282	6	9	0.04	1800	-81.96771	40.92377	-91.39369
727010	-180	-393	250	1.542932	2.660254	-1.440611	0	10.89	4003	0	0	5	5	0.09790828	0.1459025	6	9	0.04	1800	-83.74506	40.92377	-91.39369
727105	95	-217	-405	1.631674	2.94066	-1.461917	0	10.89	4010	0	0	5	5	0.09788685	0.157323	6	9	0.04	1800	-82.83829	40.92377	-91.39369
727187	-1176	-710	-36	0.104849	4.108212	-1.510746	0	10.89	4003	0	0	5	5	0.1266669	0.160833	6	9	0.04	1800	-82.34109	40.92377	-91.39369
727265	-1220	773	87	-2.276486	3.023822	-0.9524448	0	10.89	4004	0	0	5	5	0.1337892	0.1667885	6	9	0.04	1800	-84.08582	40.92377	-91.39369
727355	-788	1073	-147	-2.784101	2.477505	-0.9391842	0	10.89	4003	0	0	5	5	0.1184448	0.1723076	6	9	0.04	1800	-84.08582	40.92377	-91.39369
727394	-596	763	593	-3.469211	1.612816	-1.466149	0	10.89	4003	0	0	5	5	0.1150725	0.1713744	6	9	0.04	1800	-84.96701	40.92377	-91.39369
727578	-710	214	2523	-6.856212	-1.315402	-6.136936	0	10.66	4003	0	0	5	5	0.1132399	0.1722095	6	9	0.04	1800	-78.60187	40.92377	-91.39369
727660	-1716	-764	1685	-9.104799	-0.8068489	-8.719827	0	10.66	4002	0	0	5	5	0.1280235	0.1838542	6	9	0.04	1800	-75.01221	40.92377	-91.39369
727745	3960	3353	-1030	-7.891643	-2.240058	-8.54277	0	10.66	4003	0	0	5	5	0.129791	0.1878818	6	9	0.04	1800	-75.01221	40.92377	-91.39369
727878	4796	-5160	-2304	6.852841	0.6599294	-0.8107871	0	10.66	4004	0	0	5	5	0.1156912	0.1936869	6	9	0.04	1800	-79.66672	40.92377	-91.39369
727972	-1723	-1207	188	8.064217	2.917487	-0.2376429	0	10.66	4003	0	0	5	5	0.1308527	0.2052716	6	9	0.04	1800	-85.62619	40.92377	-91.39369
728066	-2617	-265	-1115	2.170554	2.257635	-0.7071952	0	10.66	4004	0	0	5	5	0.1443106	0.218093	6	9	0.04	1800	-83.80536	40.92377	-91.39369
728165	539	2823	-587	2.793204	-2.124418	-0.3455134	0	10.66	4002	0	0	5	5	0.1870431	0.2469766	8	9	0.04	1800	-94.16849	40.92377	-91.39369
728259	-913	-1028	-569	2.267423	-2.384017	0.2430638	0	10.66	4004	0	0	5	5	0.2091366	0.2661095	8	9	0.04	1800	-85.81192	40.92377	-91.39369
728417	-1383	-1471	-410	-1.60057	1.328296	1.435702	0	11.17	4003	0	0	5	5	0.2334748	0.2978466	8	9	0.04	1800	-93.86337	40.92377	-91.39369
728460	187	1178	751	-1.548073	0.7716565	0.975765	0	11.17	4003	0	0	5	5	0.2369842	0.3082004	8	9	0.04	1800	-99.02005	40.92377	-91.39369
728577	-403	-1212	-1225	1.904744	-0.04218023	2.942221	0	11.17	4004	0	0	5	5	0.2478462	0.3362445	8	9	0.04	1800	-98.90091	40.92377	-91.39369
728702	5741	3735	-1212	4.262571	0.02398477	5.723567	0	11.17	4002	0	0	5	5	0.2534621	0.3574479	8	9	0.04	1800	253.5184	40.92377	-91.39369
728768	3450	7134	3135	8.412813	-3.451866	5.501521	0	11.17	4003	0	0	5	5	0.257556	0.3900271	8	9	0.04	1800	257.8759	40.92377	-91.39369
728934	-2294	3322	4918	5.340855	-7.19951	1.734034	0	11.17	4003	0	0	5	5	0.2613434	0.4607112	8	9	0.04	1800	-86.38727	40.92377	-91.39369
729006	-1430	262	2427	1.809149	-7.842882	-3.127454	0	11.17	4003	0	0	5	5	0.2633015	0.522832	8	9	0.04	1800	-79.41541	40.92377	-91.39369
729118	-383	-2642	286	1.727565	-4.006349	-2.683507	0	11.17	4003	0	0	5	5	0.264729	0.5850365	8	9	0.04	1800	-76.13181	40.92377	-91.39369
729174	-236	423	-1851	-0.8690212	-2.125826	-0.9450501	0	11.17	4004	0	0	5	5	0.265113	0.6183664	8	9	0.04	1800	-80.01776	40.92377	-91.39369
729267	892	-142	-1325	0.7663194	-3.261495	0.5697941	0	10.77	4003	0	0	5	5	0.2663015	0.7138332	8	9	0.04	1800	-82.04044	40.92377	-91.39369
729480	-508	-2240	582	-1.08436	1.472568	-0.6010929	0	10.77	4004	0	0	5	5	0.267364	0.8338151	8	9	0.04	1800	-87.00897	40.92377	-91.39369
729554	-478	-1532	-294	-1.445471	3.294331	-1.523649	0	10.77	4003	0	0	5	5	0.2675929	0.8855596	8	9	0.04	1800	-89.3558	40.92376	-91.39368
729615	412	-706	-124	-1.464164	3.508108	-1.585541	0	10.77	4003	0	0	5	5	0.2677784	0.9365095	8	9	0.04	1800	-89.3558	40.92376	-91.39368
729724	1509	121	-312	1.398101	2.495695	-0.5275298	0	10.77	4002	0	0	5	5	0.2679926	1.004888	8	9	0.04	1800	-94.87814	40.92376	-91.39368
729795	1918	128	-434	2.979746	2.381825	-0.3127307	0	10.77	4004	0	0	5	5	0.2681488	1.068688	8	9	0.04	1800	-96.28384	40.92376	-91.39368
729863	2558	-800	569	5.485915	2.606249	-0.3935292	0	10.77	4002	0	0	5	5	0.2682287	1.117998	8	9	0.04	1800	-97.65259	40.92376	-91.39368
729965	548	518	-440	7.740871	3.614086	-0.7622369	0	10.77	4002	0	0	5	5	0.2682934	1.162383	8	9	0.04	1800	-98.298	40.92376	-91.39368
730134	-1316	-303	496	3.862837	1.783481	-0.9612957	0	10.77	4004	0	0	5	5	0.2684225	1.287977	8	9	0.04	1800	256.7587	40.92376	-91.39368
730317	755	3236	-295	3.342804	-0.97616	-0.8397325	0	10.94	4004	0	0	5	5	0.2684825	1.346528	8	9	0.04	1800	256.6298	40.92376	-91.39368
730444	-602	2793	-32	2.865373	-3.893574	-0.8461706	0	10.94	4004	0	0	5	5	0.2685122	1.375886	8	9	0.04	1800	258.5842	40.92376	-91.39368
730547	857	1928	180	4.847548	-10.42058	-0.6888521	0	10.94	4003	0	0	5	5	0.2685317	1.369321	8	9	0.04	1800	-98.02258	40.92376	-91.39367
730695	-854	-635	-653	2.886279	-11.47807	-0.4443404	0	10.94	4003	0	0	5	5	0.2685418	1.354037	8	9	0.04	1800	-88.96909	40.92376	-91.39367
730848	-804	788	1189	2.199109	-5.754943	0.4266025	0	10.94	4004	0	0	5	5	0.268553	1.299715	8	9	0.04	1800	-88.9975	40.92376	-91.39367
730927	-1803	-53	1639	0.9155307	-6.602967	-0.1508364	0	10.94	4004	0	0	5	5	0.2685573	1.273212	8	9	0.04	1800	-93.34409	40.92376	-91.39367
730967	208	47	211	0.5628833	-6.83688	-0.3183654	0	10.94	4004	0	0	5	5	0.2685585	1.252659	8	9	0.04	1800	-92.33301	40.92376	-91.39367
731069	3476	-493	-796	3.58068	-2.775137	-0.4479823	0	10.72	4004	0	0	5	5	0.2685613	1.210653	8	9	0.04	1800	-93.70587	40.92376	-91.39367
731257	2234	-1876	-1152	13.37382	-3.756536	0.3004492	0	10.72	4003	0	0	5	5	0.2685645	1.134433	8	9	0.04	1800	-91.53085	40.92376	-91.39367
731336	-2326	566	-428	12.19484	-3.298734	-0.1692783	0	10.72	4004	0	0	5	5	0.2685657	1.06949	8	9	0.04	1800	-97.00137	40.92376	-91.39367
731493	-2617	-437	-606	7.477369	-2.818518	-0.062838	0	10.72	4003	0	0	5	5	0.2685668	1.001787	8	9	0.04	1800	-96.16959	40.92376	-91.39366
731630	-5978	441	1359	-4.176071	-2.663429	-0.7932189	0	10.72	4003	0	0	5	5	0.2685677	0.9394988	8	9	0.04	1800	-90.5488	40.92376	-91.39366
731723	-3120	-2541	-1004	-8.371922	-0.5401579	-0.1470348	0	10.72	4004	0	0	5	5	0.2685681	0.8863849	8	9	0.04	1800	-87.96078	40.92376	-91.39366
731804	4449	3854	-29	-4.429843	-2.120191	0.5668024	0	10.72	4004	0	0	5	5	0.2685682	0.8598425	8	9	0.04	1800	-92.33279	40.92376	-91.39366
731876	-1879	10089	-5300	-0.2332222	-11.69925	1.018617	0	10.72	4003	0	0	5	5	0.2685685	0.8264508	8	9	0.04	1800	-88.79514	40.92376	-91.39366
732107	3429	37	348	-1.412591	1.308512	2.779752	0	10.04	4002	0	0	5	5	0.2685687	0.7290803	8	9	0.04	1800	-92.20279	40.92376	-91.39365
732243	-258	-1051	1076	3.647703	-1.189394	0.2367612	0	10.04	4004	0	0	5	5	0.2685688	0.676253	8	9	0.04	1800	-94.41077	40.92376	-91.39365
732445	2947	2252	1197	6.5709	5.629034	-0.6775309	0	10.04	4003	0	0	5	5	0.2685689	0.603781	8	9	0.04	1800	-98.13684	40.92376	-91.39365
732524	509	192	-1771	8.61202	-0.7885205	0.6956605	0	10.04	4003	0	0	5	5	0.2685689	0.5914497	8	9	0.04	1800	259.3437	40.92376	-91.39365
732624	-1285	518	-866	6.202185	-0.1982042	2.011032	0	10.04	4003	0	0	5	5	0.2685689	0.5918493	8	9	0.04	1800	254.9749	40.92376	-91.39365
732726	4088	3160	-497	7.133935	-1.582386	3.689321	0	10.04	4004	0	0	5	5	0.2685689	0.6030747	8	9	0.04	1800	251.3247	40.92376	-91.39365
732756	-1224	854	1125	9.766601	-3.761288	3.234948	0	10.04	4003	0	0	5	5	0.2685689	0.6069293	8	9	0.04	1800	250.3441	40.92376	-91.39365
732854	-1860	-1514	1707	7.122141	-2.115615	1.310889	0	10.04	4002	0	0	5	5	0.2685689	0.6273508	8	9	0.04	1800	259.9651	40.92376	-91.39365
733063	-613	831	942	3.597708	2.805145	-1.944601	0	10.04	4004	0	0	5	5	0.2685689	0.6915461	8	9	0.04	1800	256.3681	40.92376	-91.39365
733144	-2664	1289	-1890	1.64644	0.3471148	-1.836125	0	10.04	4003	0	0	5	5	0.2685689	0.7197528	8	9	0.04	1800	256.7845	40.92376	-91.39365
733222	872	2136	-650	-2.655168	-0.4736556	0.7615529	0	10.04	4003	0	0	5	5	0.2685689	0.7543015	8	9	0.04	1800	250.8686	40.92376	-91.39365
733304	-356	1815	-821	-1.860415	-3.564664	1.66575	0	10.04	4004	0	0	5	5	0.2685689	0.8322263	8	9	0.04	1800	253.7458	40.92376	-91.39365
733360	420	38	-566	-0.6768712	-5.648068	1.786606	0	10.04	4003	0	0	5	5	0.2685689	0.8466206	8	9	0.04	1800	254.2016	40.92376	-91.39365
733472	-339	-2323	1194	1.655854	-2.839249	0.1060979	0	10.04	4003	0	0	5	5	0.2685689	0.9050289	8	9	0.04	1800	-99.93668	40.92376	-91.39365
733570	-789	-1659	817	1.13022	-0.2001394	-1.004114	0	10.04	4002	0	0	5	5	0.2685689	0.9870715	8	9	0.04	1800	259.3087	40.92376	-91.39365
733773	926	2578	-665	1.230986	-0.6842009	-1.547786	0	10.04	4002	0	0	5	5	0.2685689	1.087487	8	9	0.04	1800	-99.00436	40.92376	-91.39365
733866	-16	401	-1035	3.029558	-5.232299	0.3384306	0	10.66	4003	0	0	5	5	0.2685689	1.141162	8	9	0.04	1800	-99.2099	40.92375	-91.39365
733989	-1259	-3163	-401	0.4501252	-1.379377	0.50152	0	10.66	4002	0	0	5	5	0.2685689	1.220671	8	9	0.04	1800	259.6985	40.92375	-91.39365
734174	2271	-579	691	7.288231	-3.201304	-0.4733027	0	10.66	4004	0	0	5	5	0.2685689	1.300607	8	9	0.04	1800	255.5444	40.92375	-91.39365
734328	1741	969	266	10.19525	0.06711318	-1.399686	0	10.66	4002	0	0	5	5	0.2685689	1.363773	8	9	0.04	1800	253.7592	40.92375	-91.39365
734476	852	3	212	12.46149	-1.247199	-1.017367	0	10.66	4003	0	0	5	5	0.2685689	1.39277	8	9	0.04	1800	255.8273	40.92375	-91.39365
734650	-98	242	130	5.439824	-0.7378334	-0.9966989	0	10.66	4002	0	0	5	5	0.2685689	1.417291	8	9	0.04	1800	251.7097	40.92375	-91.39365
734705	763	1248	652	5.408827	-1.359349	-0.8373225	0	10.66	4002	0	0	5	5	0.2685689	1.428133	8	9	0.04	1800	248.6001	40.92375	-91.39365
734866	-238	1806	879	3.285416	-1.614869	-1.258287	0	10.83	4003	0	0	5	5	0.2685689	1.434047	8	9	0.04	1800	250.961	40.92375	-91.39365
734961	1529	6404	861	3.638525	-5.711013	-1.600198	0	10.83	4003	0	0	5	5	0.2685689	1.413766	8	9	0.04	1800	252.4941	40.92375	-91.39365
735164	-656	1216	-961	1.178602	-11.93075	-0.9577483	0	10.83	4002	0	0	5	5	0.2685689	1.334667	8	9	0.04	1800	-92.79541	40.92375	-91.39365
735184	-452	-857	-542	0.9400857	-11.18814	-0.7518491	0	10.83	4003	0	0	5	5	0.2685689	1.305155	8	9	0.04	1800	-92.79541	40.92375	-91.39365
735302	-394	-226	-262	0.6726395	-5.455743	-0.5467238	0	10.83	4002	0	0	5	5	0.2685689	1.275235	8	9	0.04	1800	-92.79224	40.92375	-91.39365
735358	212	-82	-237	0.5072425	-5.390613	-0.5038767	0	10.83	4003	0	0	5	5	0.2685689	1.210201	8	9	0.04	1800	-92.79224	40.92375	-91.39365
735506	-3730	-3774	-890	-0.7818287	-2.998877	0.03192263	0	10.83	4003	0	0	5	5	0.2685689	1.114175	8	9	0.04	1800	-97.17331	40.92375	-91.39365
735620	3272	1132	-1557	-0.6125253	0.7093473	2.66509	0	10.83	4002	0	0	5	5	0.2685689	0.9701422	8	9	0.04	1800	-96.65933	40.92375	-91.39365
735733	-3224	221	-73	-1.048158	1.953753	4.321177	0	10.77	4002	0	0	5	5	0.2685689	0.8921748	8	9	0.04	1800	254.2724	40.92375	-91.39365
735757	6416	4667	161	-1.986266	2.190759	3.236154	0	10.77	4002	0	0	5	5	0.2685689	0.8555848	8	9	0.04	1800	-99.50455	40.92375	-91.39365
735855	3546	7875	2415	1.68085	-0.4326298	3.624372	0	10.77	4003	0	0	5	5	0.2685689	0.7871895	8	9	0.04	1800	-99.50455	40.92375	-91.39366
736052	1057	-326	768	3.529893	-0.7895293	-1.683183	0	10.77	4003	0	0	5	5	0.2685689	0.6847122	8	9	0.04	1800	-80.98416	40.92375	-91.39366
736098	2925	-148	306	4.800229	-0.6470341	-1.665908	0	10.77	4004	0	0	5	5	0.2685689	0.6401464	8	9	0.04	1800	-80.98416	40.92375	-91.39366
736183	-5692	1445	-716	1.491539	-1.22219	-1.727707	0	10.77	4002	0	0	5	5	0.2685689	0.590616	8	9	0.04	1800	-81.87344	40.92375	-91.39366
736296	1765	3160	-1983	-1.099022	-7.616533	0.2628044	0	10.77	4002	0	0	5	5	0.2685689	0.5406774	8	9	0.04	1800	-79.34009	40.92375	-91.39366
736466	-489	-4057	-187	-3.304281	-7.325492	2.501199	0	10.77	4004	0	0	5	5	0.2685689	0.5365825	8	9	0.04	1800	-67.94122	40.92375	-91.39366
736566	-2401	-934	2059	-3.936337	-2.979226	-1.677592	0	9.7	4004	0	0	5	5	0.2685689	0.5591842	8	9	0.04	1800	-66.43958	40.92375	-91.39366
736681	2667	-949	-983	-2.45936	1.998461	-2.179866	0	9.7	4003	0	0	5	5	0.2685689	0.5940682	8	9	0.04	1800	-65.87048	40.92375	-91.39366
736795	2203	195	-69	1.817734	2.790502	-1.542995	0	9.7	4004	0	0	5	5	0.2685689	0.6530938	8	9	0.04	1800	-68.00415	40.92374	-91.39366
736850	2909	-254	-3340	2.731708	2.715672	-0.577702	0	9.7	4002	0	0	5	5	0.2685689	0.6779822	8	9	0.04	1800	-71.03174	40.92374	-91.39366
736957	-1554	-2039	-237	7.07105	0.3134921	2.077392	0	9.7	4004	0	0	5	5	0.2685689	0.7539032	8	9	0.04	1800	-76.27649	40.92373	-91.39365
737051	100	-1904	1044	4.829071	3.695284	0.9982659	0	9.7	4003	0	0	5	5	0.2685689	0.8013009	8	9	0.04	1800	-78.13635	40.92373	-91.39365
737151	1727	-601	1777	6.635283	4.927162	-1.563316	0	9.7	4002	0	0	5	5	0.2685689	0.8667373	8	9	0.04	1800	-80.12262	40.92373	-91.39365
737249	-1956	-115	626	5.479656	4.632076	-2.669944	0	9.7	4003	0	0	5	5	0.2685689	0.9669976	8	9	0.04	1800	-78.05469	40.92373	-91.39365
737402	-750	650	-238	2.577558	3.996934	-1.445577	0	9.7	4004	0	0	5	5	0.2685689	1.039645	8	9	0.04	1800	-86.50705	40.92372	-91.39365
737490	-757	-1189	-588	1.567653	1.434075	-0.302782	0	10.83	4002	0	0	5	5	0.2685689	1.149517	8	9	0.04	1800	-89.31412	40.92372	-91.39365
737549	-1430	-2548	422	1.047216	1.7865	-0.2911702	0	10.83	4003	0	0	5	5	0.2685689	1.205582	8	9	0.04	1800	-89.31412	40.92372	-91.39365
737644	-992	-2720	287	-0.1508604	5.405992	-0.682559	0	10.83	4004	0	0	5	5	0.2685689	1.261753	8	9	0.04	1800	258.3122	40.92372	-91.39365
737869	847	1741	-64	-1.158136	2.135546	-1.680399	0	10.83	4003	0	0	5	5	0.2685689	1.420967	8	9	0.04	1800	255.913	40.92372	-91.39365
737957	-168	276	-338	-0.8712725	1.313562	-1.518968	0	10.83	4003	0	0	5	5	0.2685689	1.463369	8	9	0.04	1800	253.782	40.92372	-91.39364
738110	-738	327	-674	-0.8386556	0.1587692	-1.089787	0	10.83	4004	0	0	5	5	0.2685689	1.536879	8	9	0.04	1800	250.5596	40.92372	-91.39364
738154	-293	553	238	-0.8904191	-0.01954326	-1.01209	0	10.83	4003	0	0	5	5	0.2685689	1.55743	8	9	0.04	1800	250.5596	40.92372	-91.39364
738333	1218	2778	-1704	3.281828	-4.162601	0.01889061	0	10.83	4002	0	0	5	5	0.2685689	1.569327	8	9	0.04	1800	248.7112	40.92372	-91.39363
738450	-3140	-3126	635	1.649368	-5.28156	1.264272	0	10.49	4003	0	0	5	5	0.2685689	1.539866	8	9	0.04	1800	250.8533	40.92372	-91.39363
738530	-790	-414	1328	-0.7496412	-2.829597	1.213133	0	10.49	4004	0	0	5	5	0.2685689	1.485626	8	9	0.04	1800	249.7104	40.92372	-91.39363
738665	-436	1574	-190	0.7747254	-5.297797	0.6684845	0	10.49	4004	0	0	5	5	0.2685689	1.409403	8	9	0.04	1800	252.024	40.92372	-91.39362
738870	-478	-1047	188	0.6907267	-6.073977	3.096716	0	10.49	4003	0	0	5	5	0.2685689	1.285446	8	9	0.04	1800	256.2559	40.92373	-91.39362
739036	1039	-3597	1504	9.098719	-5.076314	2.09237	0	10.49	4003	0	0	5	5	0.2685689	1.160338	8	9	0.04	1800	256.2581	40.92373	-91.39362
739101	1066	-3774	2120	10.55146	-1.747961	-0.3475271	0	10.49	4002	0	0	5	5	0.2685689	1.142808	8	9	0.04	1800	-97.79172	40.92373	-91.39362
739166	1707	-2352	583	10.95371	2.001181	-2.116202	0	10.49	4004	0	0	5	5	0.2685689	1.053007	8	9	0.04	1800	-98.12244	40.92373	-91.39362
739310	-1515	674	-614	10.42532	2.7066	-2.114399	0	10.09	4003	0	0	5	5	0.2685689	0.9257674	8	9	0.04	1800	258.7994	40.92373	-91.39362
739416	1438	-3748	-1781	8.029392	3.100925	-0.3999342	0	10.09	4003	0	0	5	5	0.2685689	0.8555502	8	9	0.04	1800	-99.48059	40.92373	-91.39362
739505	-17	3023	2043	7.958399	5.180073	-0.212731	0	10.09	4002	0	0	5	5	0.2685689	0.8058761	8	9	0.04	1800	258.5552	40.92373	-91.39362
739572	-2517	603	648	4.83733	1.699094	-2.768975	0	10.09	4004	0	0	5	5	0.2685689	0.7765973	8	9	0.04	1800	253.2225	40.92373	-91.39362
739670	4092	952	-274	6.573884	-0.7221597	-2.588385	0	10.09	4004	0	0	5	5	0.2685689	0.698404	8	9	0.04	1800	-97.98334	40.92373	-91.39362
739797	-953	-3643	-1896	6.937848	0.8383013	-1.441397	0	10.09	4002	0	0	5	5	0.2685689	0.6311778	8	9	0.04	1800	-89.16379	40.92373	-91.39362
739934	-1811	-832	422	0.5824828	1.379178	-0.2109136	0	10.09	4003	0	0	5	5	0.2685689	0.5896054	8	9	0.04	1800	-92.74509	40.92373	-91.39362
740036	-9	513	733	-0.5377022	0.3885034	-0.9955466	0	10.09	4003	0	0	5	5	0.2685689	0.5541875	8	9	0.04	1800	-94.21991	40.92373	-91.39362
740104	2585	2314	-2117	0.1477807	-0.581562	-0.4112701	0	10.09	4004	0	0	5	5	0.2685689	0.5416237	8	9	0.04	1800	-95.0957	40.92373	-91.39362
740225	-752	-2101	-416	2.102746	1.189462	0.9348947	0	10.66	4003	0	0	5	5	0.2685689	0.5352648	8	9	0.04	1800	-91.17764	40.92373	-91.39362
740279	580	-1980	-2290	0.8254145	2.072191	1.162588	0	10.66	4002	0	0	5	5	0.2685689	0.5351911	8	9	0.04	1800	-91.17291	40.92373	-91.39362
740354	3246	2259	-1011	1.808729	1.253074	2.61589	0	10.66	4003	0	0	5	5	0.2685689	0.5324243	8	9	0.04	1800	-99.81802	40.92373	-91.39362
740452	-2434	-4397	951	4.126758	2.285255	3.241782	0	10.66	4002	0	0	5	5	0.2685689	0.5399099	8	9	0.04	1800	-93.69937	40.92373	-91.39362
740513	-2256	-140	4049	3.398886	3.800186	2.563432	0	10.66	4003	0	0	5	5	0.2685689	0.5492828	8	9	0.04	1800	-94.06738	40.92373	-91.39362
740706	2648	1967	172	-2.747806	9.141498	-1.51221	0	10.66	4003	0	0	5	5	0.2685689	0.6088362	8	9	0.04	1800	259.6045	40.92373	-91.39362
740778	-1179	2468	-171	0.899662	4.491417	-1.407496	0	10.66	4002	0	0	5	5	0.2685689	0.6431978	8	9	0.04	1800	-97.84857	40.92373	-91.39362
740904	2067	1729	-1270	2.51047	2.980582	3.900094	0	10.66	4009	0	0	5	5	0.2685689	0.7467708	8	9	0.04	1800	256.0093	40.92373	-91.39362
740958	1092	2390	-1106	3.455201	0.6535136	4.527089	0	10.66	4003	0	0	5	5	0.2685689	0.7658406	8	9	0.04	1800	256.0093	40.92373	-91.39362
741100	-1130	806	2901	3.399576	-4.182642	1.754753	0	10.04	4003	0	0	5	5	0.2685689	0.8841967	8	9	0.04	1800	258.5919	40.92373	-91.39362
741151	-864	-828	1178	2.252043	-4.022624	-1.459596	0	10.04	4002	0	0	5	5	0.2685689	1.032035	8	9	0.04	1800	-94.61343	40.92373	-91.39362
741249	-1123	-2149	305	1.999801	-0.8773864	-2.484194	0	10.04	4003	0	0	5	5	0.2685689	1.088527	8	9	0.04	1800	-91.43277	40.92372	-91.39362
741310	-1145	-1528	-353	1.350246	0.2293132	-2.369536	0	10.04	4002	0	0	5	5	0.2685689	1.134512	8	9	0.04	1800	-92.84436	40.92372	-91.39362
741552	-2464	-1890	170	-2.945637	2.96669	-0.1419975	0	10.04	4003	0	0	5	5	0.2685689	1.284336	8	9	0.04	1800	259.2682	40.92372	-91.39363
741700	-500	-1014	291	-2.786616	4.869918	-0.5314608	0	10.04	4004	0	0	5	5	0.2685689	1.458666	8	9	0.04	1800	254.3881	40.92371	-91.39363
741734	-596	-1360	695	-2.83838	5.47807	-0.7073513	0	10.04	4003	0	0	5	5	0.2685689	1.496009	8	9	0.04	1800	253.9728	40.92371	-91.39363
741863	-112	2175	-218	-2.821198	4.730978	-1.461968	0	10.04	4004	0	0	5	5	0.2685689	1.579651	8	9	0.04	1800	251.2052	40.92371	-91.39363
741979	-466	4238	-209	-2.793425	-0.8524516	-1.530593	0	10.38	4003	0	0	5	5	0.2685689	1.647058	8	9	0.04	1800	257.3091	40.92371	-91.39363
742000	-198	3576	-1294	-2.872522	-2.625003	-1.389801	0	10.38	4008	0	0	5	5	0.2685689	1.657594	8	9	0.04	1800	257.3091	40.92371	-91.39363
742122	801	29	-496	-1.704984	-4.225022	-0.8399416	0	10.38	4003	0	0	5	5	0.2685689	1.699594	8	9	0.04	1800	259.5541	40.92371	-91.39363
742240	-24	-1766	-355	-1.638058	-2.51102	-0.9043983	0	10.38	4004	0	0	5	5	0.2685689	1.723165	8	9	0.04	1800	258.9069	40.92371	-91.39363
742279	525	-1916	-82	-0.9080636	-0.1827666	-0.9833201	0	10.38	4004	0	0	5	5	0.2685689	1.724187	8	9	0.04	1800	258.9228	40.92371	-91.39363
742376	144	-793	181	-0.7127131	1.882263	-1.048962	0	10.38	4004	0	0	5	5	0.2685689	1.715028	8	9	0.04	1800	258.5156	40.92371	-91.39364
742498	427	-964	-216	0.9261801	2.733884	-0.8723906	0	10.38	4004	0	0	5	5	0.2685689	1.679196	8	9	0.04	1800	257.0021	40.92371	-91.39364
742593	1836	126	-595	2.402437	3.913062	-0.3953222	0	10.38	4002	0	0	5	5	0.2685689	1.653501	8	9	0.04	1800	255.2477	40.92371	-91.39364
742741	64	-1031	474	4.995119	4.298468	-0.9782616	0	10.38	4004	0	0	5	5	0.2685689	1.590761	8	9	0.04	1800	253.3071	40.92371	-91.39365
742798	-1365	-15	-36	4.202217	4.603493	-1.2115	0	10.38	4003	0	0	5	5	0.2685689	1.552849	8	9	0.04	1800	253.3071	40.92371	-91.39365
742870	-1431	3295	905	1.801334	2.325828	-1.669297	0	10.38	4003	0	0	5	5	0.2685689	1.510955	8	9	0.04	1800	251.8478	40.92372	-91.39365
743142	1097	-856	-1952	0.9444346	-8.319889	0.5747097	0	11.51	4002	0	0	5	5	0.2685689	1.367214	8	9	0.04	1800	-98.9079	40.92372	-91.39365
743325	741	-3592	72	1.821112	-6.972189	2.89605	0	11.51	4004	0	0	5	5	0.2685689	1.239927	8	9	0.04	1800	-95.50412	40.92373	-91.39365
743492	-1509	3965	1186	8.65162	-10.42394	1.9243	0	11.51	4003	0	0	5	5	0.2685689	1.133288	8	9	0.04	1800	-87.99869	40.92373	-91.39365
743679	-1613	-5061	-477	0.08846161	-0.3489265	-0.9889726	0	11.51	4003	0	0	5	5	0.2685689	0.9789909	8	9	0.04	1800	-71.69403	40.92373	-91.39365
743781	3192	-1889	-1018	-1.078807	8.949894	-2.291261	0	11.51	4003	0	0	5	5	0.2685689	0.883743	8	9	0.04	1800	-84.28366	40.92373	-91.39366
743917	-2033	-4904	-2014	-3.940308	13.53101	0.6934608	0	10.6	4003	0	0	5	5	0.2685689	0.8115731	8	9	0.04	1800	-86.9877	40.92373	-91.39366
744078	-3256	-1250	-114	-1.464787	13.66388	3.192972	0	10.6	4004	0	0	5	5	0.2685689	0.7711746	8	9	0.04	1800	252.326	40.92373	-91.39366
744216	526	6276	224	3.608826	4.689852	6.431706	0	10.6	4003	0	0	5	5	0.2685689	0.7462796	8	9	0.04	1800	246.3747	40.92373	-91.39366
744342	-708	4755	2701	6.691305	-4.915037	3.232766	0	10.6	4003	0	0	5	5	0.2685689	0.7590444	8	9	0.04	1800	258.8563	40.92373	-91.39366
744420	-4585	-6453	-132	2.751241	-6.79744	-0.9479066	0	10.6	4002	0	0	5	5	0.2685689	0.7745767	8	9	0.04	1800	-87.09979	40.92373	-91.39366
744498	379	-785	-531	-1.976808	0.1398172	-1.089581	0	10.6	4004	0	0	5	5	0.2685689	0.789694	8	9	0.04	1800	-83.30151	40.92373	-91.39366
744641	-1305	1316	-495	-4.129754	-5.321177	-0.2468969	0	10.6	4003	0	0	5	5	0.2685689	0.8527433	8	9	0.04	1800	-77.76804	40.92373	-91.39367
744746	413	1517	108	-3.763112	-5.741935	-0.1080335	0	10.26	4004	0	0	5	5	0.2685689	0.9150699	8	9	0.04	1800	-74.31177	40.92374	-91.39367
744841	-653	6	1048	-1.999157	-5.53266	-0.520003	0	10.26	4003	0	0	5	5	0.2685689	0.9723046	8	9	0.04	1800	-71.27771	40.92374	-91.39367
745000	635	-364	337	1.061798	-7.731174	-0.828216	0	10.26	4004	0	0	5	5	0.2685689	1.065658	8	9	0.04	1800	-71.89337	40.92374	-91.39367
745164	27	-966	157	2.369491	-6.928215	-0.2095954	0	10.26	4004	0	0	5	5	0.2685689	1.205135	8	9	0.04	1800	-73.46005	40.92374	-91.39367
745321	-151	-887	-228	1.578712	-2.846236	-0.9016097	0	10.26	4004	0	0	5	5	0.2685689	1.31577	8	9	0.04	1800	-74.32318	40.92374	-91.39367
745390	-1612	-957	251	1.154177	-2.341451	-1.169202	0	10.26	4003	0	0	5	5	0.2685689	1.359765	8	9	0.04	1800	-78.23343	40.92374	-91.39367
745445	-1308	-3621	655	0.1646087	-1.058522	-1.291653	0	10.26	4002	0	0	5	5	0.2685689	1.387517	8	9	0.04	1800	-79.02771	40.92374	-91.39367
745573	230	-2386	604	0.4386569	5.272607	-1.448691	0	10.38	4003	0	0	5	5	0.2685689	1.478031	8	9	0.04	1800	-85.44055	40.92374	-91.39367
745653	1940	3632	-979	0.8408549	1.237835	-1.716333	0	10.38	4004	0	0	5	5	0.2685689	1.511477	8	9	0.04	1800	-90.10309	40.92374	-91.39367
745748	2347	916	-861	3.870371	-2.871842	-1.052243	0	10.38	4002	0	0	5	5	0.2685689	1.545409	8	9	0.04	1800	-90.10309	40.92374	-91.39367
745913	744	-1535	212	7.26835	-2.09482	-0.3658573	0	10.38	4003	0	0	5	5	0.2685689	1.583135	8	9	0.04	1800	-90.74542	40.92373	-91.39367
745989	1937	96	-157	8.697767	-1.195731	-0.7652218	0	10.38	4002	0	0	5	5	0.2685689	1.614898	8	9	0.04	1800	-92.12622	40.92373	-91.39367
746055	27	-519	36	8.996182	-1.587466	-1.257115	0	10.38	4003	0	0	5	5	0.2685689	1.624249	8	9	0.04	1800	-91.36591	40.92373	-91.39367
746170	-772	2252	-728	5.112875	-1.18987	-0.4787086	0	10.38	4004	0	0	5	5	0.2685689	1.623896	8	9	0.04	1800	-99.87778	40.92373	-91.39367
746268	1611	3106	-1548	4.964254	-5.040232	0.007840239	0	10.38	4003	0	0	5	5	0.2685689	1.603348	8	9	0.04	1800	258.9792	40.92373	-91.39367
746352	-1864	1416	479	4.939926	-8.362217	1.387611	0	10.38	4004	0	0	5	5	0.2685689	1.578842	8	9	0.04	1800	-98.61969	40.92373	-91.39366
746410	1049	478	681	3.310462	-7.555516	0.9728951	0	10.15	4002	0	0	5	5	0.2685689	1.571999	8	9	0.04	1800	-96.80008	40.92374	-91.39366
746540	2022	991	122	3.238179	-7.278842	0.8463689	0	10.15	4003	0	0	5	5	0.2685689	1.49609	8	9	0.04	1800	-96.67438	40.92374	-91.39366
746574	-71	-1648	-753	3.496677	-6.607951	1.176531	0	10.15	4002	0	0	5	5	0.2685689	1.483982	8	9	0.04	1800	-96.67438	40.92374	-91.39366
746667	-2914	-4072	249	1.357247	-2.771227	1.8992	0	10.15	4004	0	0	5	5	0.2685689	1.433687	8	9	0.04	1800	-99.83173	40.92374	-91.39366
746761	65	-1332	1023	-1.909935	3.672264	1.099689	0	10.15	4003	0	0	5	5	0.2685689	1.397187	8	9	0.04	1800	254.2315	40.92374	-91.39366
746909	1521	4617	785	0.3922189	-1.619715	-1.463768	0	10.15	4002	0	0	5	5	0.2685689	1.29921	8	9	0.04	1800	254.5555	40.92374	-91.39366
746948	-1813	-2507	-1282	-0.05300189	-3.57805	-1.343187	0	10.15	4003	0	0	5	5	0.2685689	1.287221	8	9	0.04	1800	256.077	40.92374	-91.39366
747081	-1216	-3988	-2256	-4.711414	0.9046353	2.16252	0	10.15	4003	0	0	5	5	0.2685689	1.22545	8	9	0.04	1800	249.9579	40.92374	-91.39366
747204	1123	2306	1052	0.9104903	-2.286689	2.815898	0	10.15	4004	0	0	5	5	0.2685689	1.159345	8	9	0.04	1800	250.746	40.92373	-91.39365
747335	-1223	1027	-769	1.03154	-2.81084	0.2995501	0	10.04	4002	0	0	5	5	0.2685689	1.104211	8	9	0.04	1800	259.9191	40.92373	-91.39365
747439	-171	-2135	-143	1.551323	-1.565137	-0.2698494	0	10.04	4003	0	0	5	5	0.2685689	1.08095	8	9	0.04	1800	-98.10571	40.92373	-91.39365
747511	-3165	-4276	-1306	-1.20878	2.717761	0.382537	0	10.04	4003	0	0	5	5	0.2685689	1.063543	8	9	0.04	1800	256.7563	40.92373	-91.39365
747579	292	146	-372	-1.854952	3.569123	0.8011523	0	10.04	4003	0	0	5	5	0.2685689	1.039517	8	9	0.04	1800	258.0579	40.92373	-91.39365
747707	-1164	1350	1686	-1.051455	1.086785	-0.1814715	0	10.04	4002	0	0	5	5	0.2685689	1.031754	8	9	0.04	1800	-99.62009	40.92373	-91.39365
747801	1450	681	-429	-2.007455	0.5035139	-1.237288	0	10.04	4002	0	0	5	5	0.2685689	1.031081	8	9	0.04	1800	258.7657	40.92373	-91.39365
747885	-950	-1099	447	0.216336	-0.08935871	-1.023879	0	10.04	4002	0	0	5	5	0.2685689	1.032479	8	9	0.04	1800	-98.68024	40.92373	-91.39365
747976	-840	-468	-1960	-0.6356834	-0.4595069	-0.3311698	0	10.04	4003	0	0	5	5	0.2685689	1.046822	8	9	0.04	1800	254.3376	40.92373	-91.39365
748064	-1045	-1074	562	-2.299203	-1.213072	-0.1239681	0	10.04	4002	0	0	5	5	0.2685689	1.064832	8	9	0.04	1800	254.318	40.92373	-91.39365
748151	580	-292	636	-1.660237	-1.075388	-0.9998684	0	10.72	4004	0	0	5	5	0.2685689	1.095463	8	9	0.04	1800	258.8905	40.92373	-91.39365
748210	2024	1371	387	0.147185	-2.984849	-0.9794683	0	10.72	4004	0	0	5	5	0.2685689	1.108778	8	9	0.04	1800	258.7458	40.92373	-91.39365
748373	-174	307	-543	3.136814	-6.067826	-0.06879486	0	10.72	4003	0	0	5	5	0.2685689	1.17388	8	9	0.04	1800	258.6605	40.92373	-91.39365
748517	-667	-698	153	1.095465	-5.375401	-0.7373895	0	10.72	4004	0	0	5	5	0.2685689	1.197224	8	9	0.04	1800	259.0072	40.92373	-91.39365
748663	136	-720	-856	0.675645	-4.97073	-1.290103	0	10.72	4003	0	0	5	5	0.2685689	1.218511	8	9	0.04	1800	257.7007	40.92373	-91.39365
748827	739	1549	-1029	3.457076	-10.14767	0.4974748	0	10.72	4004	0	0	5	5	0.2685689	1.234102	8	9	0.04	1800	-99.96432	40.92373	-91.39365
748869	603	1670	275	3.792809	-10.52012	0.8003515	0	10.72	4003	0	0	5	5	0.2685689	1.238139	8	9	0.04	1800	-97.38263	40.92373	-91.39365
748952	-27	-664	1401	4.313982	-7.877091	0.1673356	0	10.72	4003	0	0	5	5	0.2685689	1.242096	8	9	0.04	1800	-98.82892	40.92373	-91.39365
749068	57	2107	1143	5.54738	-7.737014	-0.8938774	0	9.98	4003	0	0	5	5	0.2685689	1.252864	8	9	0.04	1800	-99.32779	40.92373	-91.39365
749178	-1189	-2160	-1094	3.719286	-6.916073	-0.7031903	0	9.98	4002	0	0	5	5	0.2685689	1.263693	8	9	0.04	1800	-90.16827	40.92373	-91.39365
749271	-3670	-4159	-1661	0.8409017	-3.460919	0.6167683	0	9.98	4003	0	0	5	5	0.2685689	1.269143	8	9	0.04	1800	-98.18491	40.92373	-91.39365
749434	370	290	1825	1.776893	-2.801133	1.084231	0	9.98	4002	0	0	5	5	0.2685689	1.278208	8	9	0.04	1800	258.2464	40.92373	-91.39365
749491	453	-2155	2189	2.61869	-1.655146	-0.542534	0	9.98	4002	0	0	5	5	0.2685689	1.281559	8	9	0.04	1800	-98.43979	40.92373	-91.39365
749645	-459	-1594	-1657	2.92187	0.8507459	-2.358532	0	9.98	4004	0	0	5	5	0.2685689	1.266981	8	9	0.04	1800	-96.9704	40.92374	-91.39365
749795	-2239	-289	-1942	2.584563	-3.135729	1.009166	0	9.98	4003	0	0	5	5	0.2685689	1.234664	8	9	0.04	1800	-99.90262	40.92374	-91.39365
749854	160	-1205	-609	1.96357	-2.803411	1.325248	0	9.98	4002	0	0	5	5	0.2685689	1.212528	8	9	0.04	1800	258.5351	40.92374	-91.39365
749935	807	-1398	586	3.267774	-1.405628	0.3023753	0	10.26	4003	0	0	5	5	0.2685689	1.196627	8	9	0.04	1800	-99.25897	40.92374	-91.39365
750044	530	44	1925	4.59254	0.6270356	-1.638076	0	10.26	4002	0	0	5	5	0.2685689	1.168573	8	9	0.04	1800	-98.42792	40.92374	-91.39365
750162	2286	2544	75	6.29865	-1.520244	-2.010259	0	10.26	4003	0	0	5	5	0.2685689	1.134792	8	9	0.04	1800	-98.27869	40.92374	-91.39365
750341	688	-1244	826	3.415657	3.342793	2.994961	0	10.26	4002	0	0	5	5	0.2685689	1.075111	8	9	0.04	1800	256.2059	40.92374	-91.39365
750400	126	-1380	302	3.765479	3.575686	2.555241	0	10.26	4003	0	0	5	5	0.2685689	1.058489	8	9	0.04	1800	256.2059	40.92374	-91.39365
750513	1156	3122	1845	7.070373	-0.03848389	-1.350543	0	10.26	4004	0	0	5	5	0.2685689	1.017759	8	9	0.04	1800	253.5738	40.92374	-91.39365
750638	4378	4071	-1605	9.219952	-3.386018	0.7328094	0	10.26	4002	0	0	5	5	0.2685689	0.9843698	8	9	0.04	1800	255.3006	40.92374	-91.39365
750794	-4057	-1947	-1276	8.650537	-4.941973	2.077924	0	10.26	4003	0	0	5	5	0.2685689	0.9394917	8	9	0.04	1800	256.3086	40.92374	-91.39365
750862	-1002	-890	-1359	3.998423	-3.383121	2.213403	0	10.04	4004	0	0	5	5	0.2685689	0.9190303	8	9	0.04	1800	252.1296	40.92374	-91.39365
750912	-2415	-1158	1567	2.449404	-1.850194	1.068831	0	10.04	4004	0	0	5	5	0.2685689	0.9151266	8	9	0.04	1800	256.6329	40.92374	-91.39365
751086	-1166	-904	12	2.632857	-5.385667	-0.9329838	0	10.04	4004	0	0	5	5	0.2685689	0.9043242	8	9	0.04	1800	-95.90866	40.92374	-91.39365
751120	-1586	-830	-1702	1.959336	-5.016757	-0.9212154	0	10.04	4004	0	0	5	5	0.2685689	0.909234	8	9	0.04	1800	-95.90866	40.92374	-91.39365
751241	-1876	-3167	-584	-1.072118	0.2640878	1.366283	0	10.04	4003	0	0	5	5	0.2685689	0.9270477	8	9	0.04	1800	258.308	40.92374	-91.39365
751356	-693	-172	1206	-1.065325	-0.7279599	0.4429509	0	10.04	4002	0	0	5	5	0.2685689	0.9457968	8	9	0.04	1800	-99.50671	40.92374	-91.39365
751464	-257	201	1653	0.7627175	-0.9855812	-1.544732	0	10.04	4002	0	0	5	5	0.2685689	0.9934702	8	9	0.04	1800	-94.04315	40.92374	-91.39365
751585	563	-748	-1217	0.7687508	-0.7973039	-2.571544	0	10.04	4003	0	0	5	5	0.2685689	1.029865	8	9	0.04	1800	-94.96808	40.92374	-91.39365
751724	70	2972	-2757	2.45513	-3.564816	-1.2974	0	10.04	4004	0	0	5	5	0.2685689	1.088238	8	9	0.04	1800	-95.92459	40.92374	-91.39365
751759	70	2972	-2757	1.748776	-5.423454	-0.6893188	0	10.04	4004	0	0	5	5	0.2685689	1.095109	8	9	0.04	1800	-99.84753	40.92374	-91.39365
751876	2001	1739	89	2.124236	-8.658104	0.1177324	0	9.75	4004	0	0	5	5	0.2685689	1.130168	8	9	0.04	1800	-95.2471	40.92374	-91.39365
751968	1151	1702	519	4.018095	-9.335318	0.988483	0	9.75	4004	0	0	5	5	0.2685689	1.165002	8	9	0.04	1800	-93.02789	40.92374	-91.39365
752090	-1301	-1726	100	1.546866	-7.36842	0.01450702	0	9.75	4004	0	0	5	5	0.2685689	1.191714	8	9	0.04	1800	-87.98871	40.92374	-91.39365
752238	30	64	-770	1.229098	-3.905924	-1.217883	0	9.75	4004	0	0	5	5	0.2685689	1.249455	8	9	0.04	1800	-91.53445	40.92374	-91.39365
752359	0	427	1261	0.834059	-3.107978	-0.1787026	0	9.75	4003	0	0	5	5	0.2685689	1.280987	8	9	0.04	1800	-91.01813	40.92374	-91.39365
752560	-2231	-3470	603	1.303365	-3.12668	-1.329943	0	9.75	4003	0	0	5	5	0.2685689	1.32089	8	9	0.04	1800	-90.81235	40.92374	-91.39365
752646	239	73	1518	0.4871134	0.298341	-1.612373	0	9.75	4003	0	0	5	5	0.2685689	1.343394	8	9	0.04	1800	-92.72556	40.92374	-91.39365
752790	866	1961	358	1.059597	-3.883424	-1.741282	0	11	4002	0	0	5	5	0.2685689	1.349904	8	9	0.04	1800	-90.80884	40.92374	-91.39365
752865	-657	-2799	-1544	1.039207	-3.114912	-0.9392139	0	11	4002	0	0	5	5	0.2685689	1.346525	8	9	0.04	1800	-89.90341	40.92374	-91.39365
753068	-150	-3	-573	1.177733	-4.623513	-0.6776139	0	11	4004	0	0	5	5	0.2685689	1.331576	8	9	0.04	1800	-90.45294	40.92374	-91.39365
753221	-4491	-2153	-1149	0.2328796	-2.237204	0.6493118	0	11	4002	0	0	5	5	0.2685689	1.319373	8	9	0.04	1800	-92.72784	40.92374	-91.39365
753336	-482	-1569	992	-1.445871	0.6725777	-1.354058	0	11	4004	0	0	5	5	0.2685689	1.311121	8	9	0.04	1800	-93.05264	40.92374	-91.39365
753427	3582	21	-2084	2.17761	-0.6468897	-1.733212	0	11	4004	0	0	5	5	0.2685689	1.305506	8	9	0.04	1800	-89.9682	40.92374	-91.39365
753534	2825	3949	-2117	3.856576	-1.379411	-0.9546538	0	11	4003	0	0	5	5	0.2685689	1.285365	8	9	0.04	1800	-89.9682	40.92374	-91.39365
753640	-972	-3045	1647	7.964599	-0.2754103	-0.02257948	0	10.49	4004	0	0	5	5	0.2685689	1.271819	8	9	0.04	1800	-87.16324	40.92374	-91.39365
753661	-928	-1970	1575	7.320327	1.570654	-0.3958312	0	10.49	4004	0	0	5	5	0.2685689	1.262686	8	9	0.04	1800	-87.16324	40.92374	-91.39365
753887	865	4603	-363	8.955827	-3.88053	0.6138591	0	10.49	4002	0	0	5	5	0.2685689	1.235528	8	9	0.04	1800	-87.38666	40.92374	-91.39365
753997	-3018	-1946	-61	3.625046	-1.837144	1.666611	0	10.49	4003	0	0	5	5	0.2685689	1.21739	8	9	0.04	1800	-86.72229	40.92374	-91.39365
754116	-740	-1068	-848	3.89603	-0.633179	2.103744	0	10.49	4003	0	0	5	5	0.2685689	1.208361	8	9	0.04	1800	-82.77621	40.92374	-91.39365
754268	-603	178	567	0.7277678	1.536581	-0.0772268	0	10.49	4004	0	0	5	5	0.2685689	1.208015	8	9	0.04	1800	-88.83923	40.92374	-91.39365
754416	-2941	-275	1686	-1.137491	2.765806	-0.950948	0	10.49	4004	0	0	5	5	0.2685689	1.222812	8	9	0.04	1800	-91.65829	40.92374	-91.39365
754494	-3897	-809	-213	-3.071436	2.034662	-1.592654	0	9.98	4004	0	0	5	5	0.2685689	1.253721	8	9	0.04	1800	-89.4985	40.92374	-91.39365
754622	-2117	-1455	-1723	-6.184719	1.147663	-1.298443	0	9.98	4003	0	0	5	5	0.2685689	1.308113	8	9	0.04	1800	-91.70731	40.92374	-91.39365
754726	-2327	-1115	-2376	-6.784216	-1.090928	0.006075263	0	9.98	4004	0	0	5	5	0.2685689	1.33769	8	9	0.04	1800	-94.94034	40.92373	-91.39364
754857	30	-604	1407	-4.780187	-0.8360866	1.798049	0	9.98	4004	0	0	5	5	0.2685689	1.390321	8	9	0.04	1800	-99.86105	40.92373	-91.39364
755036	1293	-2864	1026	-1.982565	4.524035	-1.738292	0	9.98	4003	0	0	5	5	0.2685689	1.428555	8	9	0.04	1800	-99.8139	40.92373	-91.39364
755236	62	-33	-46	1.480594	0.4970387	-0.1656618	0	9.98	4003	0	0	5	5	0.2685689	1.450267	8	9	0.04	1800	253.1372	40.92373	-91.39364
755365	-44	344	307	-0.6619841	2.564418	-0.1948012	0	10.43	4002	0	0	5	5	0.2685689	1.447708	8	9	0.04	1800	249.949	40.92373	-91.39363
755387	-44	344	307	-0.6619841	2.564418	-0.1948012	0	10.43	4002	0	0	5	5	0.2685689	1.441726	8	9	0.04	1800	249.949	40.92373	-91.39363
755491	1845	-2146	518	3.315241	-1.353748	-1.138667	0	10.43	4004	0	0	5	5	0.2685689	1.438639	8	9	0.04	1800	250.9522	40.92373	-91.39363
755643	1934	1418	-106	5.097676	0.4337651	-2.006463	0	10.43	4003	0	0	5	5	0.2685689	1.435806	8	9	0.04	1800	252.0537	40.92373	-91.39363
755799	1369	-685	-652	6.792286	0.3847223	1.477472	0	10.43	4003	0	0	5	5	0.2685689	1.436078	8	9	0.04	1800	251.0916	40.92373	-91.39363
755916	1748	2329	869	8.988378	0.01200654	-0.6474645	0	10.43	4002	0	0	5	5	0.2685689	1.442674	8	9	0.04	1800	255.1455	40.92373	-91.39363
756004	2252	2444	-1003	10.93369	-2.181042	-0.7298753	0	10.43	4002	0	0	5	5	0.2685689	1.436989	8	9	0.04	1800	252.2534	40.92373	-91.39363
756227	928	900	-192	4.389084	-0.3342733	-0.4955846	0	10.38	4003	0	0	5	5	0.2685689	1.431672	8	9	0.04	1800	254.6001	40.92373	-91.39363
756334	-650	574	857	4.888162	-3.760126	0.9362171	0	10.38	4002	0	0	5	5	0.2685689	1.426768	8	9	0.04	1800	253.7386	40.92373	-91.39363
756444	-1402	760	-690	4.740193	-2.917247	1.696319	0	10.38	4003	0	0	5	5	0.2685689	1.426092	8	9	0.04	1800	252.5786	40.92374	-91.39364
756525	-1077	963	611	1.553833	0.6759144	1.407397	0	10.38	4003	0	0	5	5	0.2685689	1.425733	8	9	0.04	1800	253.2565	40.92374	-91.39364
756614	-630	-330	-141	1.698742	-0.07286054	0.5866479	0	10.38	4004	0	0	5	5	0.2685689	1.425604	8	9	0.04	1800	259.7267	40.92374	-91.39364
756697	454	-1942	898	2.832817	-0.5897758	-0.4386285	0	10.38	4002	0	0	5	5	0.2685689	1.426799	8	9	0.04	1800	259.7267	40.92374	-91.39364
756870	-943	1388	324	1.79887	-0.9756356	-0.1414161	0	10.38	4002	0	0	5	5	0.2685689	1.429621	8	9	0.04	1800	257.1205	40.92374	-91.39364
756925	-710	159	-99	1.698068	-1.212566	0.1471442	0	10.38	4002	0	0	5	5	0.2685689	1.429425	8	9	0.04	1800	255.5667	40.92374	-91.39365
757048	-1464	-1097	458	1.778927	0.2466844	-0.4297003	0	10.38	4002	0	0	5	5	0.2685689	1.432663	8	9	0.04	1800	255.8358	40.92374	-91.39365
757157	120	-266	268	1.640979	1.714194	-1.274348	0	10.38	4002	0	0	5	5	0.2685689	1.432235	8	9	0.04	1800	258.6802	40.92374	-91.39365
757195	1113	47	930	2.084226	1.001545	-1.541994	0	10.38	4004	0	0	5	5	0.2685689	1.432647	8	9	0.04	1800	253.9766	40.92374	-91.39365
757370	-554	-533	-1401	2.447972	-1.291281	-0.9780675	0	10.38	4003	0	0	5	5	0.2685689	1.433249	8	9	0.04	1800	255.9528	40.92374	-91.39365
757468	532	3164	-1329	3.102464	-6.229726	1.336022	0	10.38	4003	0	0	5	5	0.2685689	1.43095	8	9	0.04	1800	250.7263	40.92374	-91.39365
757546	-1823	-1344	614	1.7794	-5.804422	1.381556	0	10.38	4003	0	0	5	5	0.2685689	1.429138	8	9	0.04	1800	255.4347	40.92374	-91.39365
757608	-256	1	1530	-0.07496977	-3.812602	0.6466947	0	10.38	4003	0	0	5	5	0.2685689	1.428718	8	9	0.04	1800	254.9834	40.92374	-91.39365
757761	-890	-346	946	1.812622	-5.722618	-0.7909567	0	10.38	4004	0	0	5	5	0.2685689	1.437489	8	9	0.04	1800	-96.58112	40.92374	-91.39365
757918	-665	-43	-962	2.125337	-4.766522	-1.234718	0	10.38	4003	0	0	5	5	0.2685689	1.421132	8	9	0.04	1800	-96.55762	40.92374	-91.39365
758002	-1080	-61	-209	0.9300196	-4.439209	-1.440806	0	10.38	4004	0	0	5	5	0.2685689	1.401146	8	9	0.04	1800	-94.35406	40.92374	-91.39365
758051	402	-279	428	0.4573974	-4.279579	-1.495953	0	10.49	4002	0	0	5	5	0.2685689	1.397363	8	9	0.04	1800	-94.35406	40.92374	-91.39365
758218	-834	348	-1343	1.476984	-3.18548	-0.5642881	0	10.49	4003	0	0	5	5	0.2685689	1.352776	8	9	0.04	1800	-90.5878	40.92374	-91.39365
758292	-828	-866	-276	1.412378	-4.525938	0.2836681	0	10.49	4002	0	0	5	5	0.2685689	1.342494	8	9	0.04	1800	-93.78421	40.92374	-91.39365
758370	-477	-2255	-118	0.7872503	-2.486397	0.2384139	0	10.49	4003	0	0	5	5	0.2685689	1.316255	8	9	0.04	1800	-97.63782	40.92374	-91.39366
758448	-363	1107	75	0.8244929	-1.254676	-0.2196869	0	10.49	4003	0	0	5	5	0.2685689	1.302181	8	9	0.04	1800	-94.98346	40.92374	-91.39366
758596	104	-1430	-1928	0.5366379	-1.890298	-1.09595	0	10.49	4004	0	0	5	5	0.2685689	1.28225	8	9	0.04	1800	-97.40805	40.92374	-91.39366
