time(ms)	gyro_x(deg/s)	gyro_y(deg/s)	gyro_z(deg/s)	orientation_roll(deg)	orientation_pitch(deg)	orientation_yaw(deg)	throttle	battery(V)	loop_time(uS)	pid_output_roll	pid_output_pitch	pid_output_yaw	pid_output_throttle	ultrasonic_alt	baro_alt	flight_mode	p_gain_altitude	i_gain_altitude	d_gain_altitude	compass_heading	latitude	longitude
201961	-13	1	-3	-0.09424725	-0.02176643	0.2159483	0	12.31	4003	0	0	5	5	0.02	0.05380341	1	15	0.04	1800	1.899135	40.92354	-91.39362
202032	-6	0	-2	-0.09388772	-0.01478068	0.2158262	0	12.31	4004	0	0	5	5	0.02	0.05464472	1	15	0.04	1800	1.910543	40.92353	-91.39362
202126	-10	0	-6	-0.0949168	-0.01571493	0.2155815	0	12.31	4003	0	0	5	5	0.02	0.0568805	1	15	0.04	1800	1.906968	40.92353	-91.39362
202205	-7	-3	-3	-0.1006192	-0.008488072	0.2179658	0	12.31	4003	0	0	5	5	0.02	0.05431581	1	15	0.04	1800	1.913243	40.92353	-91.39362
202307	-8	2	-2	-0.1000124	-0.00287216	0.2168043	0	12.31	4003	0	0	5	5	0.02	0.05400524	1	15	0.04	1800	1.91428	40.92353	-91.39362
202488	-11	-1	1	-0.1052837	0.009925421	0.2227346	0	12.31	4003	0	0	5	5	0.02	0.05857959	1	15	0.04	1800	1.915082	40.92353	-91.39362
202577	-10	-2	2	-0.1023538	0.01496064	0.2227955	0	12.31	4003	0	0	5	5	0.02	0.05662629	1	15	0.04	1800	1.917955	40.92352	-91.39362
202684	-6	5	-5	-0.1074985	0.01860251	0.2259746	0	12.25	4002	0	0	5	5	0.02	0.05107244	1	15	0.04	1800	1.938354	40.92352	-91.39362
202783	-12	0	-2	-0.1101413	0.02131604	0.2267084	0	12.25	4003	0	0	5	5	0.02	0.05149113	3	15	0.04	1800	1.672724	40.92352	-91.39362
202870	-6	3	0	-0.110343	0.01566237	0.2291538	0	12.25	4002	0	0	5	5	0.02	0.06026895	3	15	0.04	1800	1.932086	40.92352	-91.39362
202935	-11	3	-3	-0.1112785	0.01272769	0.2318435	0	12.25	4002	0	0	5	5	0.02	0.06373541	3	15	0.04	1800	1.930154	40.92352	-91.39362
202979	-6	1	2	-0.1155574	0.01412114	0.2335554	0	12.25	4003	0	0	5	5	0.02	0.06686734	3	15	0.04	1800	1.944167	40.92352	-91.39362
203105	-6	-3	4	-0.118186	0.007969023	0.2344112	0	12.25	4002	0	0	5	5	0.02	0.07224087	3	15	0.04	1800	1.940612	40.92352	-91.39362
203243	-14	9	2	-0.1185827	0.003633292	0.2349615	0	12.25	4002	0	0	5	5	0.02	0.0772621	3	15	0.04	1800	1.940681	40.92352	-91.39362
203286	-17	4	-2	-0.1254179	0.0009115924	0.2353284	0	12.25	4003	0	0	5	5	0.02	0.07719771	3	15	0.04	1800	1.951602	40.92352	-91.39362
203437	-15	-1	-2	-0.1274748	-0.003930889	0.2371627	0	12.25	4004	0	0	5	5	0.02	0.07943821	3	15	0.04	1800	1.959885	40.92352	-91.39362
203496	-11	-7	-34	-0.1182973	-0.003971283	0.2378346	0	12.31	4003	0	0	5	5	0.02	0.07958463	3	15	0.04	1800	1.947042	40.92352	-91.39362
203643	-13	0	17	-0.1179861	0.005058042	0.2453526	0	12.31	4002	0	0	5	5	0.02	0.08101595	3	15	0.04	1800	1.96454	40.92353	-91.39362
203693	-6	-9	-10	-0.11641	0.007631336	0.2471862	0	12.31	4003	0	0	5	5	0.02	0.08027586	3	15	0.04	1800	1.937407	40.92353	-91.39362
203823	-25	3	-42	-0.1223188	0.004273095	0.2460781	0	12.31	4003	0	0	5	5	0.02	0.07603917	3	15	0.04	1800	1.962016	40.92353	-91.39362
203952	-21	5	132	-0.126657	0.001311391	0.236475	0	12.31	4004	0	0	5	5	0.02	0.06909718	3	15	0.04	1800	2.782199	40.92353	-91.39362
204065	-24	3	18	-0.1197731	0.001910367	0.2506013	0	12.31	4004	0	0	5	5	0.02	0.06177879	3	15	0.04	1800	2.450102	40.92353	-91.39362
204083	-24	3	18	-0.1197731	0.001910367	0.2506013	0	12.31	4004	0	0	5	5	0.02	0.06094873	3	15	0.04	1800	2.450102	40.92353	-91.39362
204216	12	-31	-34	-0.1408568	0.01400001	0.2510306	0	12.31	4004	0	0	5	5	0.02	0.05237914	3	15	0.04	1800	2.72307	40.92353	-91.39362
204318	-19	-6	-45	-0.109203	0.01743267	0.2562907	0	12.31	4002	0	0	5	5	0.02	0.04543018	3	15	0.04	1800	2.967886	40.92353	-91.39362
204486	-17	-58	-2	-0.1268015	0.03392924	0.256171	0	12.31	4002	0	0	5	5	0.02	0.04388981	3	15	0.04	1800	2.718915	40.92353	-91.39362
204562	-17	38	-10	-0.1254057	0.03613451	0.25721	0	12.31	4002	0	0	5	5	0.02	0.03829597	3	15	0.04	1800	2.210917	40.92353	-91.39362
204613	-46	0	-49	-0.1401377	0.05580768	0.2519547	0	12.31	4002	0	0	5	5	0.02	0.0363432	3	15	0.04	1800	2.74602	40.92353	-91.39362
204709	-34	-16	21	-0.144893	0.02841101	0.2559913	0	12.31	4003	0	0	5	5	0.02	0.01973226	3	15	0.04	1800	2.491805	40.92353	-91.39363
204894	21	-28	-12	-0.2248204	0.0932532	0.2555608	0	12.31	4002	0	0	5	5	0.02	0.005393611	3	15	0.04	1800	2.080293	40.92353	-91.39363
205045	23	64	-58	-0.2086927	0.1011167	0.2548323	0	12.31	4004	0	0	5	5	0.02	-0.002249775	3	15	0.04	1800	2.802061	40.92353	-91.39363
205205	52	70	-17	-0.1750968	0.05167006	0.2529974	0	12.31	4002	0	0	5	5	0.02	0.008034186	3	15	0.04	1800	2.631661	40.92353	-91.39363
205308	-124	35	-43	-0.1840325	0.008761482	0.2511024	0	12.31	4003	0	0	5	5	0.02	0.01530707	3	15	0.04	1800	2.663029	40.92353	-91.39362
205423	-56	-71	5	-0.1995102	0.05662967	0.25318	0	12.31	4004	0	0	5	5	0.02	0.02498209	3	15	0.04	1800	2.789778	40.92353	-91.39362
205522	-8	-102	87	-0.2227494	0.05903437	0.2534802	0	12.31	4003	0	0	5	5	0.02	0.0307782	3	15	0.04	1800	3.151446	40.92353	-91.39362
205597	86	-157	106	-0.3130483	0.05637724	0.2510969	0	12.31	4003	0	0	5	5	0.02	0.04020793	3	15	0.04	1800	2.247748	40.92352	-91.39362
205732	111	-86	0	-0.3209665	0.04147557	0.2496451	0	12.31	4002	0	0	5	5	0.02	0.04962278	3	15	0.04	1800	3.047538	40.92352	-91.39362
205860	-119	81	-24	-0.4073761	0.07569296	0.2341721	0	12.31	4002	0	0	5	5	0.02	0.04705397	3	15	0.04	1800	2.900815	40.92352	-91.39362
206011	-16	-177	129	-0.516453	0.1151121	0.21951	0	12.31	4004	0	0	5	5	0.02	0.0316007	3	15	0.04	1800	2.613208	40.92352	-91.39362
206148	-17	-72	198	-0.5721168	0.1684217	0.2480039	0	12.31	4003	0	0	5	5	0.02	0.02696811	3	15	0.04	1800	3.546569	40.92351	-91.39362
206324	37	-79	-44	-0.6330911	0.1930965	0.2779025	0	12.31	4002	0	0	5	5	0.02	0.01877503	3	15	0.04	1800	3.075182	40.92351	-91.39362
206490	24	-172	123	-0.5902067	0.1651467	0.278566	0	12.31	4003	0	0	5	5	0.02	0.02957856	3	15	0.04	1800	3.199752	40.9235	-91.39362
206554	-7	-37	119	-0.5547527	0.1540006	0.2871241	0	12.31	4003	0	0	5	5	0.02	0.03678749	3	15	0.04	1800	3.316808	40.9235	-91.39362
206677	6	-174	168	-0.5570474	0.2076906	0.273596	0	12.31	4002	0	0	5	5	0.02	0.03735093	3	15	0.04	1800	3.624541	40.92351	-91.39362
206755	-36	-93	-134	-0.5824918	0.1985682	0.2778807	0	12.31	4003	0	0	5	5	0.02	0.03983839	3	15	0.04	1800	3.638996	40.92351	-91.39362
206862	173	11	48	-0.6413212	0.1652014	0.2700553	0	12.31	4003	0	0	5	5	0.02	0.04755913	3	15	0.04	1800	3.654883	40.92351	-91.39362
206881	173	11	48	-0.6413212	0.1652014	0.2700553	0	12.31	4003	0	0	5	5	0.02	0.04755913	3	15	0.04	1800	3.654883	40.92351	-91.39362
207058	-75	-116	-30	-0.7461965	0.1787885	0.2439761	0	12.31	4002	0	0	5	5	0.02	0.06384476	3	15	0.04	1800	4.050838	40.92352	-91.39363
207130	-70	-190	41	-0.7718124	0.1871231	0.2337037	0	12.31	4004	0	0	5	5	0.02	0.06877019	3	15	0.04	1800	2.804675	40.92352	-91.39363
207201	-17	31	46	-0.7897059	0.20929	0.2316305	0	12.14	4002	0	0	5	5	0.02	0.07541756	3	15	0.04	1800	3.897226	40.92353	-91.39364
207308	-43	-104	35	-0.7861428	0.129246	0.2228207	0	12.14	4003	0	0	5	5	0.02	0.08260915	3	15	0.04	1800	3.361336	40.92353	-91.39364
207444	35	114	-103	-0.7140484	0.05329574	0.2160946	0	12.14	4003	0	0	5	5	0.02	0.09204858	3	15	0.04	1800	3.360844	40.92353	-91.39365
207620	81	80	-32	-0.6982036	0.06891967	0.1948858	0	12.14	4002	0	0	5	5	0.02	0.09552427	3	15	0.04	1800	3.920979	40.92354	-91.39365
207710	19	41	-15	-0.7577025	0.07754014	0.1999588	0	12.14	4004	0	0	5	5	0.02	0.09370474	3	15	0.04	1800	3.759662	40.92354	-91.39365
207881	-154	-126	86	-0.8273034	0.1006429	0.1704353	0	12.14	4004	0	0	5	5	0.02	0.09665914	3	15	0.04	1800	4.251421	40.92355	-91.39364
207955	-24	-18	-112	-0.797997	0.09696009	0.153621	0	12.14	4002	0	0	5	5	0.02	0.1000463	3	15	0.04	1800	3.538111	40.92355	-91.39364
208010	30	-133	-74	-0.8183224	0.1103775	0.1490515	0	12.14	4004	0	0	5	5	0.02	0.1156518	3	15	0.04	1800	3.089291	40.92355	-91.39363
208060	-16	-26	-73	-0.8551984	0.1278598	0.1515062	0	12.19	4002	0	0	5	5	0.02	0.117688	3	15	0.04	1800	4.261249	40.92355	-91.39363
208270	-163	-120	270	-0.9245718	0.1456253	0.1247332	0	12.19	4002	0	0	5	5	0.02	0.1146978	3	15	0.04	1800	3.59665	40.92355	-91.39363
208328	117	6	-263	-0.8805937	0.1457925	0.1307166	0	12.19	4003	0	0	5	5	0.02	0.1247308	3	15	0.04	1800	3.59665	40.92356	-91.39363
208419	57	44	-168	-1.034077	0.1414761	0.1444077	0	12.19	4004	0	0	5	5	0.02	0.1404345	3	15	0.04	1800	4.499658	40.92356	-91.39363
208475	17	-108	278	-0.9160053	0.04180664	0.1112112	0	12.19	4002	0	0	5	5	0.02	0.1447493	3	15	0.04	1800	3.67698	40.92356	-91.39363
208536	-47	-68	-306	-0.9773647	0.0445738	0.1236758	0	12.19	4002	0	0	5	5	0.02	0.158669	3	15	0.04	1800	3.56318	40.92357	-91.39363
208778	-41	27	-103	-1.162633	-0.005428142	0.1628766	0	12.19	4004	0	0	5	5	0.02	0.1776076	3	15	0.04	1800	4.193413	40.92358	-91.39364
208937	121	-39	118	-1.363835	-0.03796891	0.1527111	0	12.19	4004	0	0	5	5	0.02	0.1798486	3	15	0.04	1800	5.009198	40.92358	-91.39364
208979	-204	-9	374	-1.330384	0.05447026	0.1588229	0	12.19	4004	0	0	5	5	0.02	0.1773597	3	15	0.04	1800	4.323861	40.92358	-91.39364
209101	-177	-149	-311	-1.121685	0.02875494	0.1756984	0	12.19	4002	0	0	5	5	0.02	0.1788595	3	15	0.04	1800	3.868063	40.92358	-91.39364
209198	34	69	-66	-1.128774	0.1781065	0.1268674	0	12.19	4004	0	0	5	5	0.02	0.1764338	3	15	0.04	1800	3.744613	40.92358	-91.39364
209370	98	69	-421	-1.188238	0.02847218	0.1167865	0	12.19	4004	0	0	5	5	0.02	0.1689438	3	15	0.04	1800	4.775681	40.92359	-91.39363
209520	-47	123	-432	-1.073052	0.07102783	0.09909647	0	12.19	4003	0	0	5	5	0.02	0.1624631	3	15	0.04	1800	4.249594	40.92359	-91.39363
209654	-90	-171	-76	-0.9120854	-0.06858706	0.03339241	0	12.19	4003	0	0	5	5	0.02	0.1560185	3	15	0.04	1800	3.891209	40.92359	-91.39363
209745	167	304	-31	-0.9432916	0.07887802	0.04024117	0	12.19	4004	0	0	5	5	0.02	0.1475053	3	15	0.04	1800	3.372566	40.92359	-91.39362
209837	-247	-152	-47	-1.048002	0.1575203	0.08982824	0	12.19	4003	0	0	5	5	0.02	0.1465491	3	15	0.04	1800	3.541968	40.92359	-91.39362
209906	21	-17	42	-0.9368805	-0.06059618	0.06506457	0	12.19	4003	0	0	5	5	0.02	0.1457193	3	15	0.04	1800	3.772845	40.92358	-91.39362
210010	42	11	-286	-1.125612	0.00150826	0.09834364	0	12.19	4002	0	0	5	5	0.02	0.1515685	3	15	0.04	1800	4.249072	40.92358	-91.39362
210106	65	-121	386	-1.212432	0.1838673	0.03201003	0	12.19	4003	0	0	5	5	0.02	0.1529642	3	15	0.04	1800	4.322422	40.92358	-91.39362
210190	17	250	-391	-1.161697	0.1309784	0.0561454	0	12.19	4003	0	0	5	5	0.02	0.15332	3	15	0.04	1800	4.53311	40.92359	-91.39362
210257	-65	11	-506	-1.143161	-0.06477305	0.007354561	0	12.19	4002	0	0	5	5	0.02	0.1499882	3	15	0.04	1800	4.42878	40.92359	-91.39362
210319	144	211	273	-1.156443	0.05668675	0.009424239	0	12.19	4004	0	0	5	5	0.02	0.1486412	3	15	0.04	1800	4.355426	40.92359	-91.39363
210406	113	170	-682	-1.051188	0.07909673	0.03972352	0	12.19	4003	0	0	5	5	0.02	0.1489477	3	15	0.04	1800	4.833927	40.9236	-91.39363
210603	-45	154	-257	-1.00664	-0.2581177	-0.04783025	0	12.19	4004	0	0	5	5	0.02	0.1470519	3	15	0.04	1800	4.575866	40.9236	-91.39364
210664	-98	-46	-422	-0.996197	-0.2305488	-0.06767237	0	12.19	4003	0	0	5	5	0.02	0.1458978	3	15	0.04	1800	4.65185	40.92361	-91.39364
210782	125	214	-164	-0.8984374	-0.245439	-0.1292101	0	12.19	4004	0	0	5	5	0.02	0.1530748	3	15	0.04	1800	4.448959	40.92361	-91.39365
210815	255	220	592	-0.8155596	-0.4371369	-0.2238628	0	12.19	4003	0	0	5	5	0.02	0.1584506	3	15	0.04	1800	4.448959	40.92361	-91.39365
210902	-136	10	-426	-0.8263314	-0.4223318	-0.2219898	0	12.19	4003	0	0	5	5	0.02	0.1639954	3	15	0.04	1800	5.003201	40.92361	-91.39365
211014	-102	-94	-109	-0.8465278	-0.4590293	-0.3005495	0	12.19	4004	0	0	5	5	0.0228363	0.1568286	6	15	0.04	1800	3.851169	40.92361	-91.39365
211111	-274	-118	342	-0.9455175	-0.4775501	-0.3611951	0	12.19	4002	0	0	5	5	0.02768637	0.1481905	6	15	0.04	1800	4.42965	40.92362	-91.39364
211213	81	264	-149	-1.16027	-1.285416	-0.4326191	0	12.19	4003	0	0	5	5	0.03128908	0.1302025	6	15	0.04	1800	5.152483	40.92362	-91.39364
211398	-354	-40	311	-1.078641	-2.014186	-0.4641815	0	12.19	4003	0	0	5	5	0.03882446	0.1292823	6	15	0.04	1800	5.518527	40.92362	-91.39365
211457	-286	0	174	-1.074088	-2.397633	-0.4717152	0	12.19	4002	0	0	5	5	0.04063678	0.1259312	6	15	0.04	1800	5.662173	40.92362	-91.39365
211637	-163	-168	382	-1.139087	-3.066848	-0.5498891	0	12.19	4002	0	0	5	5	0.04394335	0.09752087	6	15	0.04	1800	5.349555	40.92363	-91.39365
211789	270	380	-59	-0.5141951	-4.474675	-0.7999647	0	12.08	4003	0	0	5	5	0.04580075	0.06356795	6	15	0.04	1800	5.903054	40.92363	-91.39365
211833	-214	-147	476	-0.6102732	-4.783081	-0.904806	0	12.08	4004	0	0	5	5	0.04694877	0.06167206	6	15	0.04	1800	5.618368	40.92363	-91.39365
211990	2329	-169	-17	0.07764815	-5.647563	-1.023641	0	12.08	4003	0	0	5	5	0.04927764	0.06086753	6	15	0.04	1800	8.019135	40.92364	-91.39366
212081	2932	-987	-187	5.928935	-6.030358	-0.8821326	0	12.08	4004	0	0	5	5	0.05008141	0.07394539	6	15	0.04	1800	9.220743	40.92365	-91.39366
212146	2718	-2765	-665	10.00126	-4.730663	-1.03831	0	12.08	4002	0	0	5	5	0.05698645	0.07525408	6	15	0.04	1800	9.438079	40.92365	-91.39366
212234	1916	-3556	-1274	12.53345	-1.724879	0.5692326	0	12.08	4002	0	0	5	5	0.06685823	0.08384813	6	15	0.04	1800	13.13547	40.92365	-91.39366
212276	-5641	855	-3175	13.57457	1.127265	5.73801	0	12.08	4002	0	0	5	5	0.07053101	0.09154915	6	15	0.04	1800	7.858201	40.92365	-91.39366
212404	-6348	-1582	826	-3.95545	-2.893212	5.341622	0	12.08	4003	0	0	5	5	0.09262697	0.1191364	6	15	0.04	1800	7.955566	40.92365	-91.39367
212539	-4849	-152	1710	-11.29362	-4.170695	0.09443982	0	12.08	4003	0	0	5	5	0.1152892	0.1436282	6	15	0.04	1800	6.278295	40.92366	-91.39368
212572	-1297	1340	-670	-12.51702	-5.528572	-0.2696721	0	10.49	4004	0	0	5	5	0.1776182	0.1614254	6	15	0.04	1800	8.097828	40.92366	-91.39368
212673	1331	-1261	-1442	-9.77348	-8.829545	1.0806	0	10.49	4003	-6	4	5	5	0.2744714	0.178536	8	15	0.04	1800	2.684252	40.92366	-91.39368
212789	10144	3788	-296	0.825109	-11.32682	2.233253	0	10.49	4004	-12	3	5	5	0.4164679	0.2158567	8	15	0.04	1800	0.3358514	40.92366	-91.39368
212960	2436	2396	-1461	15.22519	-16.03771	2.412714	0	10.49	4004	-10	-1	5	5	0.5274059	0.2514214	8	15	0.04	1800	6.609347	40.92366	-91.39368
212998	-6703	805	732	11.41164	-15.87481	3.114486	0	10.49	4004	-9	-7	5	5	0.5434025	0.2573523	8	15	0.04	1800	10.25002	40.92366	-91.39368
213072	-1635	-364	2042	5.414501	-13.88185	1.900848	0	10.49	4002	-4	-4	5	5	0.5824183	0.2824922	8	15	0.04	1800	13.12546	40.92366	-91.39368
213166	-1040	-2646	1366	6.672595	-10.42729	1.067429	0	10.49	4004	-6	-3	5	5	0.6023595	0.2953508	8	15	0.04	1800	13.05818	40.92365	-91.39368
213308	-7311	-1084	-49	-13.88422	-1.273063	0.6799946	0	10.49	4002	-1	-27	5	5	0.6371729	0.3341808	8	15	0.04	1800	13.22861	40.92365	-91.39368
213450	-4726	-2896	-392	-20.48252	-2.302562	-0.2482294	0	11.68	4004	-7	-10	5	5	0.6544363	0.3837882	8	15	0.04	1800	9.003082	40.92365	-91.39368
213509	3666	-1139	-1219	-20.72467	1.455374	0.972978	0	11.68	4003	-10	-13	5	5	0.6633619	0.4278594	8	15	0.04	1800	0.08235148	40.92365	-91.39368
213601	3100	-1848	-1986	-11.01205	-0.3533556	1.614866	0	11.68	4003	-13	-18	5	5	0.6679238	0.4646601	8	15	0.04	1800	-1.94931	40.92365	-91.39368
213655	793	-2580	937	-9.136744	0.05561656	1.528794	0	11.68	4003	-15	-15	5	5	0.671619	0.5057822	8	15	0.04	1800	-2.753754	40.92365	-91.39368
213812	6248	2717	-1135	-4.117747	-8.198087	0.7744647	0	11.68	4002	-30	-18	5	5	0.67807	0.6195854	8	15	0.04	1800	-5.388123	40.92365	-91.3937
213924	636	-2389	-1236	0.4575299	-8.069273	1.967271	0	11.68	4004	-43	-24	5	5	0.6805909	0.6902109	8	15	0.04	1800	-1.959198	40.92365	-91.3937
213981	2249	1254	-370	0.6333169	-8.556612	1.997882	0	11.68	4004	-45	-21	5	5	0.6818793	0.749438	8	15	0.04	1800	-1.959198	40.92365	-91.3937
214041	256	322	455	4.249222	-11.08587	1.571035	0	11.68	4002	-48	-19	5	5	0.6824285	0.7910632	8	15	0.04	1800	1.057796	40.92365	-91.39371
214234	197	588	1277	1.637255	-10.48634	0.7977372	0	11.68	4003	-45	-27	5	5	0.6847448	1.036103	8	15	0.04	1800	5.599895	40.92364	-91.39371
214266	80	-893	-854	1.19619	-9.6923	0.4984635	0	11.68	4004	-40	-31	5	5	0.6850076	1.075468	8	15	0.04	1800	7.855131	40.92364	-91.3937
214397	1317	-958	-833	2.285847	-9.499229	1.085868	0	12.14	4003	-40	-37	5	5	0.6859758	1.293583	8	15	0.04	1800	8.754522	40.92364	-91.3937
214549	325	-1083	-452	0.993698	-7.007154	2.322597	0	12.14	4002	-33	-39	5	5	0.686456	1.398955	8	15	0.04	1800	12.44628	40.92363	-91.3937
214649	358	-1525	-25	1.159378	-4.185978	1.647801	0	12.14	4002	-18	-46	5	5	0.6867042	1.493137	8	15	0.04	1800	13.35022	40.92363	-91.39369
214797	-2118	2563	-482	-1.647103	-7.418052	0.591497	0	12.14	4004	-15	-46	5	5	0.6869339	1.590468	8	15	0.04	1800	20.10549	40.92363	-91.39368
214959	-2777	1870	-69	-8.276314	-14.4861	0.6925826	0	12.14	4002	4	-54	5	5	0.6871392	1.769385	8	15	0.04	1800	19.21392	40.92362	-91.39367
215073	1156	-2436	-266	-8.76671	-11.8896	1.790858	0	12.14	4003	25	-57	5	5	0.6872193	1.854187	8	15	0.04	1800	12.27604	40.92362	-91.39366
215178	-413	-1225	907	-6.666178	-8.418563	1.41573	0	12.14	4004	37	-63	5	5	0.6872483	1.901895	8	15	0.04	1800	11.60979	40.92362	-91.39365
215272	-641	-1536	937	-6.808646	-7.38317	0.8767428	0	11.97	4003	45	-64	5	5	0.6872908	1.978106	8	15	0.04	1800	11.71811	40.92361	-91.39365
215365	-2431	4	211	-6.406169	-6.616528	0.684199	0	11.97	4002	64	-78	5	5	0.6873063	2.009777	8	15	0.04	1800	11.96575	40.92361	-91.39363
215446	-4696	-22	-164	-8.977951	-6.859674	0.3701692	0	11.97	4004	70	-75	5	5	0.6873187	2.032249	8	15	0.04	1800	12.81197	40.92361	-91.39363
215593	643	892	-1755	-16.33875	-7.087476	0.9044955	0	11.97	4003	96	-82	5	5	0.6873405	2.055463	8	15	0.04	1800	5.689867	40.92361	-91.39362
215692	-1060	935	538	-10.47225	-12.34743	1.01012	0	11.97	4004	111	-87	5	5	0.6873513	2.033572	8	15	0.04	1800	-0.3278198	40.9236	-91.39361
215861	1388	-1430	874	-10.76889	-9.073997	-2.021519	0	11.97	4003	117	-88	5	5	0.6873584	1.973089	8	15	0.04	1800	-4.136658	40.9236	-91.39359
215988	3020	663	960	-8.805028	-8.798821	-4.108829	0	11.97	4003	133	-91	5	5	0.687364	1.860523	8	15	0.04	1800	-2.559784	40.9236	-91.39359
216118	3589	287	-672	-1.169459	-9.812851	-3.990825	0	11.97	4002	148	-91	5	5	0.6873661	1.766736	8	15	0.04	1800	-3.412872	40.9236	-91.39358
216201	-2697	1855	-1349	1.523678	-12.29555	-0.1816764	0	11	4006	154	-91	5	5	0.6873673	1.715989	8	15	0.04	1800	5.381621	40.9236	-91.39358
216377	-1481	-794	1521	-5.839634	-12.82551	0.2799436	0	11	4002	162	-90	5	5	0.6873695	1.553323	8	15	0.04	1800	4.262439	40.9236	-91.39357
216554	-4468	-4299	-253	-11.96174	-2.042869	-0.6937152	0	11	4004	174	-87	5	5	0.6873705	1.420039	8	15	0.04	1800	6.131531	40.9236	-91.39356
216728	-5114	16204	2620	-9.574172	-6.719045	-6.996404	0	11	4003	183	-85	5	5	0.6873712	1.138463	8	15	0.04	1800	12.03878	40.9236	-91.39355
216825	-4569	-220	-4605	-17.72853	-17.49417	-7.305222	0	11	4004	192	-79	5	5	0.6873713	0.9806553	8	15	0.04	1800	3.231812	40.92361	-91.39355
216926	-2013	-5339	-1440	-17.48086	-4.722022	3.314273	0	11	4003	198	-79	5	5	0.6873715	0.9341393	8	15	0.04	1800	-5.241211	40.92361	-91.39354
217029	903	492	1629	-19.99363	-0.3925587	3.771201	0	11	4004	211	-73	5	5	0.6873717	0.841584	8	15	0.04	1800	-9.115723	40.92361	-91.39354
217215	4800	-1651	-323	-10.33826	3.135205	1.10995	0	11.51	4002	219	-72	5	5	0.6873717	0.7969592	8	15	0.04	1800	-7.871979	40.92361	-91.39353
217280	5975	-568	458	-4.319718	3.171914	0.9023713	0	11.51	4004	218	-70	5	5	0.6873717	0.8033216	8	15	0.04	1800	-8.605499	40.92361	-91.39353
217461	-894	492	-975	3.863345	-0.6217589	0.1522605	0	11.51	4003	221	-72	5	5	0.6873717	0.8672749	8	15	0.04	1800	-3.535828	40.92362	-91.39353
217535	241	1329	-999	3.587274	-3.724094	0.004620958	0	11.51	4003	220	-57	5	5	0.6873717	0.9116547	8	15	0.04	1800	-2.531189	40.92362	-91.39353
217622	2593	943	-688	3.326831	-4.908133	0.6969059	0	11.51	4004	219	-58	5	5	0.6873717	0.9655955	8	15	0.04	1800	-1.347931	40.92362	-91.39353
217838	933	-4936	-633	8.720797	-2.102819	3.178824	0	11.51	4003	210	-52	5	5	0.6873717	1.120084	8	15	0.04	1800	3.310555	40.92363	-91.39354
217976	-4306	-9403	1341	-5.305788	17.61315	1.44867	0	11.51	4002	192	-51	5	5	0.6873717	1.293002	8	15	0.04	1800	8.207843	40.92363	-91.39354
218049	-126	-6011	337	-7.783465	22.34082	0.5179334	0	11.57	4003	193	-66	5	5	0.6873717	1.354101	8	15	0.04	1800	8.737048	40.92363	-91.39355
218139	-2973	-4361	-15	-11.27822	24.41279	-0.4399845	0	11.57	4002	183	-58	5	5	0.6873717	1.412027	8	15	0.04	1800	12.18396	40.92362	-91.39355
218361	276	5345	-2189	-7.407515	7.157387	1.961355	0	11.57	4003	174	-66	5	5	0.6873717	1.54719	8	15	0.04	1800	23.7829	40.92361	-91.39356
218522	4739	4789	953	-4.555909	-7.974382	2.716395	0	11.57	4003	171	-76	5	5	0.6873717	1.646562	8	15	0.04	1800	25.96326	40.92361	-91.39356
218646	2293	5797	292	5.179502	-19.77992	2.703307	0	11.57	4002	199	-93	5	5	0.6873717	1.693311	8	15	0.04	1800	29.79828	40.92361	-91.39356
218667	-1737	4569	922	4.259242	-22.26771	2.423499	0	11.57	4003	169	-90	5	5	0.6873717	1.693311	8	15	0.04	1800	29.79828	40.9236	-91.39356
218868	-2465	-1762	711	-7.46042	-11.94944	0.3956558	0	11.57	4004	171	-93	5	5	0.6873717	1.719766	8	15	0.04	1800	26.87445	40.9236	-91.39356
219044	-2353	-2065	32	-10.51395	-9.861345	0.4464522	0	11.29	4002	171	-100	5	5	0.6873717	1.727775	8	15	0.04	1800	24.82835	40.9236	-91.39356
219142	-1839	-1748	539	-14.90984	-5.128929	1.45262	0	11.29	4002	171	-103	5	5	0.6873717	1.724365	8	15	0.04	1800	26.11734	40.9236	-91.39356
219232	-1030	532	-703	-16.57204	-4.008266	1.096537	0	11.29	4004	169	-99	5	5	0.6873717	1.718986	8	15	0.04	1800	25.5187	40.9236	-91.39356
219287	1782	1961	-361	-15.46737	-5.073961	1.029734	0	11.29	4002	169	-99	5	5	0.6873717	1.717139	8	15	0.04	1800	20.17823	40.9236	-91.39356
219342	4426	8067	1034	-8.902822	-13.65757	1.263296	0	11.29	4004	168	-93	5	5	0.6873717	1.715757	8	15	0.04	1800	17.63474	40.9236	-91.39356
219431	1497	4875	-1223	-6.404467	-19.09636	1.865367	0	11.29	4004	168	-94	5	5	0.6873717	1.719278	8	15	0.04	1800	14.52551	40.9236	-91.39356
219596	1349	2308	637	-7.678873	-18.65951	4.668758	0	11.29	4003	169	-84	5	5	0.6873717	1.718887	8	15	0.04	1800	11.84196	40.9236	-91.39356
219643	-1739	2295	444	-6.68024	-19.94726	3.613147	0	11.29	4002	169	-82	5	5	0.6873717	1.716854	8	15	0.04	1800	10.45602	40.9236	-91.39356
219770	-1998	-6558	726	-8.474545	-17.23686	1.068177	0	11.29	4002	171	-76	5	5	0.6873717	1.703225	8	15	0.04	1800	11.81605	40.92361	-91.39356
219915	-353	-242	525	-10.64609	-8.803929	1.276047	0	11.11	4002	177	-75	5	5	0.6873717	1.671762	8	15	0.04	1800	11.72583	40.92361	-91.39356
219956	-1574	-1120	-392	-11.75015	-8.671718	1.327677	0	11.11	4004	178	-78	5	5	0.6873717	1.657311	8	15	0.04	1800	10.5852	40.92361	-91.39356
220039	-624	-3182	-2013	-11.94314	-6.404656	2.084191	0	11.11	4003	175	-91	5	5	0.6873717	1.619953	8	15	0.04	1800	9.866488	40.92361	-91.39356
220168	-1610	1625	957	-14.57691	-5.936983	0.9073995	0	11.11	4002	171	-79	5	5	0.6873717	1.597213	8	15	0.04	1800	6.222847	40.92361	-91.39356
220327	-2762	-881	-65	-14.16207	-8.980327	0.7915066	0	11.11	4004	166	-88	5	5	0.6873717	1.563199	8	15	0.04	1800	3.805765	40.9236	-91.39356
220402	686	-623	297	-14.06098	-7.48836	0.9555661	0	11.11	4003	165	-99	5	5	0.6873717	1.55378	8	15	0.04	1800	0.4455304	40.9236	-91.39357
220493	2914	3085	683	-9.898046	-7.270642	0.7237021	0	11.11	4002	156	-97	5	5	0.6873717	1.542878	8	15	0.04	1800	-1.086823	40.9236	-91.39357
220651	3375	-309	-2740	-2.030048	-13.08778	1.888965	0	11.11	4004	147	-108	5	5	0.6873717	1.545394	8	15	0.04	1800	-2.838837	40.92359	-91.39358
220829	1697	1024	216	2.218517	-14.40165	2.51509	0	11.97	4004	145	-114	5	5	0.6873717	1.569113	8	15	0.04	1800	5.228209	40.92359	-91.39358
220974	-206	-3360	96	4.269529	-10.63499	1.406814	0	11.97	4003	142	-121	5	5	0.6873717	1.594071	8	15	0.04	1800	10.65561	40.92358	-91.39358
221043	1365	-1676	115	4.336524	-8.55062	1.434143	0	11.97	4003	141	-126	5	5	0.6873717	1.599876	8	15	0.04	1800	11.7542	40.92358	-91.39358
221133	-1909	2037	467	3.468153	-8.823236	1.786009	0	11.97	4003	141	-139	5	5	0.6873717	1.595988	8	15	0.04	1800	13.52195	40.92357	-91.39358
221287	-1280	401	970	-3.766252	-12.41004	0.8172916	0	11.97	4003	141	-144	5	5	0.6873717	1.576731	8	15	0.04	1800	13.96919	40.92356	-91.39358
221412	-677	3113	-563	-6.602507	-15.18083	0.8079835	0	11.97	4003	133	-151	5	5	0.6873717	1.542268	8	15	0.04	1800	13.08439	40.92356	-91.39359
221503	-1040	-1966	-1392	-8.911427	-15.50909	2.089359	0	11.97	4004	130	-148	5	5	0.6873717	1.515405	8	15	0.04	1800	13.29161	40.92356	-91.39359
221598	-970	-2224	-667	-9.924001	-8.742312	2.999707	0	10.72	4004	127	-157	5	5	0.6873717	1.492945	8	15	0.04	1800	9.935497	40.92356	-91.39359
221707	216	-936	621	-11.42375	-5.866682	1.807629	0	10.72	4003	115	-154	5	5	0.6873717	1.465157	8	15	0.04	1800	8.121179	40.92356	-91.39359
221853	239	-546	1082	-12.31913	-3.556281	1.052927	0	10.72	4003	109	-153	5	5	0.6873717	1.44925	8	15	0.04	1800	9.030241	40.92356	-91.3936
221937	557	-2165	-669	-10.86036	4.38058	1.633493	0	10.72	4002	106	-147	5	5	0.6873717	1.447144	8	15	0.04	1800	8.549716	40.92356	-91.39361
222097	316	1612	2016	-10.42882	1.637642	0.8904057	0	10.72	4003	99	-147	5	5	0.6873717	1.45064	8	15	0.04	1800	8.789227	40.92356	-91.39362
222241	1903	-3572	-2068	-6.447844	3.608326	1.608339	0	10.72	4002	96	-147	5	5	0.6873717	1.457624	8	15	0.04	1800	11.50992	40.92356	-91.39362
222348	1720	-1729	-61	-5.85422	4.213448	1.685727	0	10.72	4004	94	-147	5	5	0.6873717	1.462637	8	15	0.04	1800	16.34291	40.92356	-91.39362
222423	4081	-814	1770	-3.233935	5.463835	1.811471	0	10.72	4003	120	-176	5	5	0.6873717	1.467174	8	15	0.04	1800	16.34291	40.92356	-91.39362
222579	3018	4755	1916	5.904057	-1.04412	1.489846	0	11.23	4004	103	-148	5	5	0.6873717	1.467341	8	15	0.04	1800	35.41684	40.92356	-91.39361
222678	2565	5624	1383	10.58932	-7.829096	0.4528635	0	11.23	4002	111	-150	5	5	0.6873717	1.45919	8	15	0.04	1800	36.20647	40.92356	-91.39361
222758	900	2722	-1585	10.15208	-13.98687	0.3286844	0	11.23	4004	115	-147	5	5	0.6873717	1.450623	8	15	0.04	1800	45.5962	40.92356	-91.3936
222834	-2343	1590	-141	7.598678	-15.63511	1.859275	0	11.23	4003	118	-145	5	5	0.6873717	1.434621	8	15	0.04	1800	45.43228	40.92356	-91.3936
222906	-3748	218	814	5.100413	-15.37223	1.835514	0	11.23	4004	115	-148	5	5	0.6873717	1.420939	8	15	0.04	1800	46.825	40.92356	-91.3936
223026	-2357	2419	2823	-6.68262	-7.791565	3.734692	0	11.23	4002	111	-144	5	5	0.6873717	1.388269	8	15	0.04	1800	41.48801	40.92356	-91.3936
223138	387	2415	1489	-5.875794	-10.63982	2.853226	0	11.23	4003	108	-135	5	5	0.6873717	1.363477	8	15	0.04	1800	47.61005	40.92357	-91.3936
223187	-139	3953	2428	-5.410565	-11.0206	2.103456	0	11.23	4002	111	-129	5	5	0.6873717	1.363477	8	15	0.04	1800	41.10423	40.92357	-91.3936
223382	627	868	-563	-4.182754	-10.33823	1.421308	0	11.51	4004	99	-120	5	5	0.6873717	1.285132	8	15	0.04	1800	36.60867	40.92358	-91.39361
223433	-1816	1009	196	-4.710083	-10.7747	2.303079	0	11.51	4002	100	-115	5	5	0.6873717	1.279557	8	15	0.04	1800	31.11578	40.92358	-91.39361
223594	923	4823	514	-8.23962	-13.01674	1.799604	0	11.51	4003	97	-118	5	5	0.6873717	1.241189	8	15	0.04	1800	27.4805	40.92358	-91.39362
223668	-2446	3277	1504	-6.967877	-16.24072	1.172243	0	11.51	4002	93	-108	5	5	0.6873717	1.23591	8	15	0.04	1800	24.68137	40.92359	-91.39362
223764	-29	-1326	-147	-8.706613	-12.80396	0.9172604	0	11.51	4004	94	-109	5	5	0.6873717	1.223823	8	15	0.04	1800	19.131	40.92359	-91.39362
223852	-1030	-2004	-806	-9.314135	-9.638574	0.8529055	0	11.51	4004	90	-105	5	5	0.6873717	1.218667	8	15	0.04	1800	15.43428	40.92359	-91.39362
223921	811	-117	971	-9.076549	-7.356056	1.025019	0	11.51	4003	93	-112	5	5	0.6873717	1.216092	8	15	0.04	1800	13.92905	40.92359	-91.39362
224027	807	2412	-1260	-6.675605	-9.351411	1.441384	0	11.51	4007	91	-106	5	5	0.6873717	1.2237	8	15	0.04	1800	13.6459	40.92359	-91.39362
224096	-1046	2578	-1069	-5.77037	-12.99977	1.586395	0	11.51	4003	91	-106	5	5	0.6873717	1.233955	8	15	0.04	1800	10.31869	40.92359	-91.39362
224234	1024	686	721	-8.213849	-10.22094	0.7053478	0	11.8	4004	91	-106	5	5	0.6873717	1.253096	8	15	0.04	1800	10.32567	40.92359	-91.39362
224309	538	1357	822	-6.94747	-10.0207	0.9483414	0	11.8	4003	91	-106	5	5	0.6873717	1.263884	8	15	0.04	1800	10.15563	40.92359	-91.39362
224379	-2052	-1416	662	-7.578231	-8.916322	1.189543	0	11.8	4003	96	-111	5	5	0.6873717	1.274953	8	15	0.04	1800	8.038043	40.92359	-91.39362
224515	-1485	-982	-67	-9.196167	-4.805174	0.5964286	0	11.8	4003	93	-111	5	5	0.6873717	1.289258	8	15	0.04	1800	8.177338	40.92358	-91.39362
224600	1557	2223	154	-9.325603	-6.430149	0.5347108	0	11.8	4003	56	-70	5	5	0.6873717	1.290357	8	15	0.04	1800	7.614987	40.92358	-91.39362
224682	3266	4623	-1059	-6.081621	-9.610954	1.874458	0	11.8	4003	96	-123	5	5	0.6873717	1.282323	8	15	0.04	1800	6.658099	40.92358	-91.39362
224779	-1863	-1260	-334	-5.479731	-12.11995	2.418279	0	11.8	4002	61	-76	5	5	0.6873717	1.265254	8	15	0.04	1800	6.940463	40.92358	-91.39362
224836	192	1051	-172	-7.663011	-11.52209	1.507664	0	11.8	4003	105	-132	5	5	0.6873717	1.245327	8	15	0.04	1800	7.737874	40.92357	-91.39361
224912	-138	555	-898	-6.487211	-13.34543	1.26896	0	11.8	4002	105	-126	5	5	0.6873717	1.214022	8	15	0.04	1800	6.251516	40.92357	-91.39361
225077	278	-773	-497	-7.412124	-10.36094	1.440068	0	11.11	4004	112	-129	5	5	0.6873717	1.156029	8	15	0.04	1800	5.067978	40.92357	-91.3936
225151	-798	-4143	2017	-8.102324	-5.591389	1.056859	0	11.11	4002	123	-129	5	5	0.6873717	1.112472	8	15	0.04	1800	4.547526	40.92357	-91.3936
225227	-154	-2610	1830	-8.249144	-1.225368	0.8320729	0	11.11	4003	124	-129	5	5	0.6873717	1.072612	8	15	0.04	1800	5.508124	40.92357	-91.39359
225272	-1464	-3721	-1098	-9.254942	1.839368	0.3247334	0	11.11	4003	133	-129	5	5	0.6873717	1.041462	8	15	0.04	1800	6.462674	40.92357	-91.39359
225471	-2231	1546	259	-10.79865	1.774836	-0.5148495	0	11.11	4004	138	-138	5	5	0.6873717	0.9203447	8	15	0.04	1800	7.919424	40.92357	-91.39359
225535	-1008	3851	1048	-15.04123	-5.351624	-2.505238	0	11.11	4003	150	-150	5	5	0.6873717	0.8575127	8	15	0.04	1800	4.470349	40.92356	-91.39358
225653	1872	-748	-1074	-11.0156	-7.675401	-1.44419	0	11.11	4004	154	-138	5	5	0.6873717	0.8301826	8	15	0.04	1800	-0.6002808	40.92356	-91.39358
225710	3737	1579	50	-10.19936	-7.007531	-1.114391	0	11.11	4002	156	-136	5	5	0.6873717	0.8206246	8	15	0.04	1800	-3.741943	40.92357	-91.39358
225794	1094	-828	-307	-5.475309	-8.794719	0.8826229	0	11.11	4002	157	-129	5	5	0.6873717	0.813193	8	15	0.04	1800	-3.670959	40.92358	-91.39358
225969	3560	-1653	-976	-2.810503	-6.947187	2.232354	0	10.6	4003	150	-79	5	5	0.6873717	0.8153616	8	15	0.04	1800	-4.275665	40.9236	-91.39358
226042	1951	1541	183	2.641646	-8.525537	3.565436	0	10.6	4002	151	-69	5	5	0.6873717	0.8142489	8	15	0.04	1800	-0.8771667	40.92361	-91.39358
226209	3117	-2715	1192	0.5188605	-2.735824	0.521217	0	10.6	4003	145	-31	5	5	0.6873717	0.8176928	8	15	0.04	1800	4.975494	40.92363	-91.39358
226283	1205	-2581	19	2.959337	2.2111	0.09764097	0	10.6	4003	142	-39	5	5	0.6873717	0.8206046	8	15	0.04	1800	9.091582	40.92364	-91.39358
226379	228	-364	1430	2.382428	1.959603	0.08898358	0	10.6	4003	141	-18	5	5	0.6873717	0.833091	8	15	0.04	1800	11.23121	40.92364	-91.39358
226569	-1349	-1815	-179	1.981177	2.801078	1.214616	0	10.6	4003	126	-13	5	5	0.6873717	0.8667573	8	15	0.04	1800	18.39	40.92365	-91.39359
226654	-569	2121	880	1.077309	1.964223	1.672215	0	10.6	4004	126	-30	5	5	0.6873717	0.9260716	8	15	0.04	1800	20.20162	40.92365	-91.39359
226710	-3213	2979	593	-1.701422	-2.176832	1.042642	0	10.6	4004	120	-21	5	5	0.6873717	0.936293	8	15	0.04	1800	21.10595	40.92365	-91.39359
226890	-1327	-2094	-872	-2.350885	-7.624823	2.685724	0	10.72	4003	117	-27	5	5	0.6873717	1.045682	8	15	0.04	1800	19.59275	40.92364	-91.3936
226980	-1696	384	-587	-7.067943	-5.731581	3.359771	0	10.72	4004	109	-36	5	5	0.6873717	1.097465	8	15	0.04	1800	18.81639	40.92364	-91.3936
227135	-2475	-4343	-601	-6.515772	-4.541902	1.815446	0	10.72	4004	109	-52	5	5	0.6873717	1.188277	8	15	0.04	1800	18.13458	40.92363	-91.3936
227297	-533	2984	-764	-5.993677	-12.17381	1.61365	0	10.72	4004	109	-73	5	5	0.6873717	1.275328	8	15	0.04	1800	17.01912	40.92361	-91.3936
227469	-1300	-20	-445	-8.356986	-10.72072	1.547004	0	10.72	4003	117	-93	5	5	0.6873717	1.357094	8	15	0.04	1800	16.15929	40.9236	-91.3936
227525	53	2953	1204	-8.847618	-12.05179	1.284775	0	10.72	4003	114	-96	5	5	0.6873717	1.412676	8	15	0.04	1800	13.06902	40.9236	-91.3936
227657	-1606	-2416	-1347	-8.970735	-12.02903	1.707044	0	10.72	4002	127	-109	5	5	0.6873717	1.507326	8	15	0.04	1800	10.79346	40.92359	-91.39359
227748	-1312	-21	-43	-10.97873	-9.573581	1.189198	0	11.34	4002	130	-117	5	5	0.6873717	1.578742	8	15	0.04	1800	9.963284	40.92358	-91.39359
227811	-805	-1662	-717	-11.20211	-7.750363	0.9554202	0	11.34	4002	133	-121	5	5	0.6873717	1.616064	8	15	0.04	1800	8.497271	40.92358	-91.39359
227966	359	1470	-240	-11.12675	-5.539311	0.8278779	0	11.34	4004	141	-129	5	5	0.6873717	1.734106	8	15	0.04	1800	8.044703	40.92358	-91.39359
228078	-939	539	-626	-11.58495	-8.318377	0.4052786	0	11.34	4003	144	-139	5	5	0.6873717	1.846814	8	15	0.04	1800	4.807869	40.92357	-91.39358
228231	-342	134	-92	-11.59897	-8.213636	0.8424777	0	11.34	4003	151	-142	5	5	0.6873717	1.967335	8	15	0.04	1800	1.811226	40.92356	-91.39358
228355	-1354	205	441	-12.80717	-8.705358	1.260454	0	11.34	4003	160	-150	5	5	0.6873717	2.05138	8	15	0.04	1800	-0.3939819	40.92356	-91.39357
228441	-865	775	102	-13.53736	-8.774857	1.039452	0	11.34	4002	159	-162	5	5	0.6873717	2.078776	8	15	0.04	1800	-1.322357	40.92356	-91.39357
228524	-1109	927	197	-13.95195	-10.39149	0.5326295	0	11.34	4004	160	-160	5	5	0.6873717	2.145299	8	15	0.04	1800	-1.693604	40.92355	-91.39357
228630	1609	184	65	-13.23777	-10.69032	0.5814582	0	11.46	4002	160	-169	5	5	0.6873717	2.182365	8	15	0.04	1800	-2.804932	40.92355	-91.39357
228713	1025	-655	119	-10.02945	-9.930234	0.5542344	0	11.46	4004	159	-175	5	5	0.6873717	2.191712	8	15	0.04	1800	-4.57135	40.92355	-91.39357
228765	289	-2048	-647	-9.399562	-7.777872	0.8366084	0	11.46	4003	157	-174	5	5	0.6873717	2.196911	8	15	0.04	1800	-2.295044	40.92355	-91.39357
228876	1535	-3529	-1020	-9.03995	-1.978089	1.462798	0	11.46	4003	156	-180	5	5	0.6873717	2.195883	8	15	0.04	1800	-2.820038	40.92354	-91.39358
228986	-942	673	-342	-7.131185	-6.420247	1.218199	0	11.46	4002	156	-183	5	5	0.6873717	2.182199	8	15	0.04	1800	-2.820374	40.92354	-91.39358
229145	-1181	-101	449	-11.07604	-5.394196	1.349717	0	11.46	4002	157	-184	5	5	0.6873717	2.114568	8	15	0.04	1800	-1.542267	40.92354	-91.39357
229328	3243	-990	18	-6.904456	-5.160355	1.640414	0	11.46	4003	159	-180	5	5	0.6873717	1.979954	8	15	0.04	1800	-2.022705	40.92354	-91.39357
229516	2017	1106	1161	1.828078	-1.777648	2.646801	0	11.8	4004	158	-179	5	5	0.6873717	1.712492	8	15	0.04	1800	2.108508	40.92354	-91.39358
229625	1691	-1021	-720	5.351368	-2.232195	-0.2444733	0	11.8	4003	148	-178	5	5	0.6873717	1.636243	8	15	0.04	1800	10.89945	40.92354	-91.39358
229749	-1910	2544	1683	5.036968	-5.912253	-3.142814	0	11.8	4003	145	-177	5	5	0.6873717	1.427974	8	15	0.04	1800	16.92164	40.92354	-91.39358
229805	-832	673	-3898	1.662401	-7.833149	-1.378107	0	11.8	4003	144	-171	5	5	0.6873717	1.265554	8	15	0.04	1800	0.1081662	40.92355	-91.39358
229903	-3717	-489	-1210	1.159514	-8.317277	1.166229	0	11.8	4003	141	-166	5	5	0.6873717	1.06813	8	15	0.04	1800	-3.403137	40.92355	-91.39358
230059	-1685	457	1083	-6.74453	-9.164167	2.06766	0	11.8	4004	141	-163	5	5	0.6873717	0.9557199	8	15	0.04	1800	-7.123657	40.92356	-91.39358
230143	-739	-1503	424	-7.25357	-10.4419	0.08213153	0	11.8	4002	138	-142	5	5	0.6873717	0.8874427	8	15	0.04	1800	-7.123657	40.92356	-91.39359
230295	2480	997	-1515	0.3431854	-12.81326	0.7984201	0	11.8	4003	142	-130	5	5	0.6873717	0.8506501	8	15	0.04	1800	-4.835083	40.92357	-91.39358
230376	4309	-1628	-601	2.476753	-11.21458	1.627738	0	11.34	4004	141	-129	5	5	0.6873717	0.848818	8	15	0.04	1800	-3.993164	40.92357	-91.39358
230433	3973	826	1266	4.543547	-10.82406	1.438184	0	11.34	4004	145	-124	5	5	0.6873717	0.8592715	8	15	0.04	1800	-3.993164	40.92358	-91.39358
230538	-2878	-3220	577	3.043514	-5.784399	1.782144	0	11.34	4004	148	-121	5	5	0.6873717	0.8830679	8	15	0.04	1800	0.6827483	40.92358	-91.39358
230659	-1208	2293	487	2.303804	-6.334559	1.035276	0	11.34	4004	160	-115	5	5	0.6873717	0.9246503	8	15	0.04	1800	-1.056152	40.92358	-91.39357
230708	1198	2489	-330	1.137912	-7.710422	1.427302	0	11.34	4002	159	-118	5	5	0.6873717	0.9660465	8	15	0.04	1800	4.848912	40.92358	-91.39357
230828	-1043	-301	-1858	-0.4083212	-8.96062	2.241879	0	11.34	4003	175	-117	5	5	0.6873717	1.054471	8	15	0.04	1800	5.183671	40.92358	-91.39356
230862	-2548	-1869	687	-1.964736	-8.476359	1.993599	0	11.34	4003	174	-117	5	5	0.6873717	1.095746	8	15	0.04	1800	6.933257	40.92358	-91.39356
230948	-529	-1358	1395	-4.599031	-7.706316	1.067703	0	11.34	4004	184	-114	5	5	0.6873717	1.26283	8	15	0.04	1800	7.849938	40.92358	-91.39355
231067	-418	5	-1256	-5.484842	-7.495378	0.2553491	0	11.34	4002	185	-117	5	5	0.6873717	1.351084	8	15	0.04	1800	8.979947	40.92358	-91.39355
231159	-1361	-2694	435	-6.94439	-7.931342	0.188406	0	11.34	4003	0	0	5	5	0.6873717	1.435253	3	15	0.04	1800	7.821995	40.92358	-91.39355
231379	-470	-983	223	-1.677295	1.168487	0.3512785	0	11.17	4002	0	0	5	5	0.6873717	1.607325	3	15	0.04	1800	11.23091	40.92358	-91.39355
231588	345	-5346	436	-3.570735	7.487676	0.227198	0	11.17	4004	0	0	5	5	0.6873717	1.766487	3	15	0.04	1800	15.16556	40.92358	-91.39355
231759	1200	-2629	29	-3.253983	15.51147	0.9000364	0	11.17	4002	0	0	5	5	0.6873717	1.913004	3	15	0.04	1800	30.40259	40.92359	-91.39355
231913	1438	2944	-1308	-2.251058	8.457975	1.209099	0	11.17	4002	0	0	5	5	0.6873717	1.966119	3	15	0.04	1800	70.05235	40.92359	-91.39355
231981	1467	4511	-389	-0.7802668	0.7379869	1.10729	0	11.17	4004	0	0	5	5	0.6873717	1.972066	3	15	0.04	1800	70.05235	40.92359	-91.39355
232043	843	2255	79	-0.3827041	-1.628196	0.8988103	0	11.17	4002	0	0	5	5	0.6873717	1.972882	3	15	0.04	1800	56.69595	40.9236	-91.39355
232194	3413	2778	195	4.165668	-11.05744	0.6117351	0	11.11	4002	0	0	5	5	0.6873717	1.942219	3	15	0.04	1800	46.01031	40.9236	-91.39356
232321	-1889	-1720	-34	4.257265	-9.587852	-0.1663812	0	11.11	4004	0	0	5	5	0.6873717	1.877953	3	15	0.04	1800	45.65362	40.9236	-91.39356
232380	-1925	-1971	561	2.874228	-8.705541	-0.2804748	0	11.11	4004	0	0	5	5	0.6873717	1.839122	3	15	0.04	1800	45.65362	40.9236	-91.39356
232425	-2313	-974	156	0.8872884	-7.066863	-0.4902107	0	11.11	4003	0	0	5	5	0.6873717	1.824528	3	15	0.04	1800	46.09096	40.9236	-91.39357
232606	-2694	-119	-862	-6.402862	-8.287856	0.5224942	0	11.11	4003	0	0	5	5	0.6873717	1.675371	3	15	0.04	1800	45.55392	40.9236	-91.39357
232639	559	1865	1712	-6.764952	-7.465973	0.7425448	0	11.11	4003	0	0	5	5	0.6873717	1.65672	3	15	0.04	1800	44.0251	40.9236	-91.39357
232726	97	2495	-2023	-6.040043	-6.475578	1.112881	0	11.11	4004	0	0	5	5	0.6873717	1.601705	3	15	0.04	1800	38.52385	40.9236	-91.39357
232883	-4483	-4120	1150	-5.17675	-10.77167	2.881054	0	11.11	4003	0	0	5	5	0.6873717	1.47662	3	15	0.04	1800	29.86593	40.9236	-91.39357
233050	-448	4328	935	-9.13431	-6.284017	2.394721	0	11.68	4003	0	0	5	5	0.6873717	1.243842	3	15	0.04	1800	27.14163	40.92361	-91.39357
233227	-1570	642	561	-10.13076	-10.39949	0.03141633	0	11.68	4002	0	0	5	5	0.6873717	1.11902	3	15	0.04	1800	19.37036	40.92361	-91.39357
233265	251	3643	500	-10.25336	-11.56026	-0.133633	0	11.68	4002	0	0	5	5	0.6873717	1.101255	3	15	0.04	1800	17.49591	40.92361	-91.39357
233414	-41	3195	-583	-9.085115	-18.99867	0.4094603	0	11.68	4002	0	0	5	5	0.6873717	0.9758	3	15	0.04	1800	12.70951	40.92361	-91.39357
233537	4028	1196	-2649	-1.036797	-23.91662	5.236347	0	11.68	4002	0	0	5	5	0.6873717	0.906416	3	15	0.04	1800	5.70381	40.92361	-91.39356
233598	4028	1196	-2649	-1.036797	-23.91662	5.236347	0	11.68	4002	0	0	5	5	0.6873717	0.8416392	3	15	0.04	1800	5.70381	40.92361	-91.39356
233752	-2419	-3327	3021	-1.108966	-11.16296	2.193173	0	11.68	4003	0	0	5	5	0.6873717	0.747519	3	15	0.04	1800	7.622586	40.92361	-91.39356
233902	-5677	-918	-10	-9.3262	-2.802932	-2.051051	0	11.68	4002	0	0	5	5	0.6873717	0.6592946	3	15	0.04	1800	10.71666	40.92361	-91.39356
234045	-3090	-3114	-1213	-16.36003	-1.5208	1.152356	0	11.46	4002	0	0	5	5	0.6873717	0.5987712	3	15	0.04	1800	6.898823	40.92361	-91.39356
234162	2786	-170	128	-16.9155	0.7592403	1.796545	0	11.46	4002	0	0	5	5	0.6873717	0.5586457	3	15	0.04	1800	1.097297	40.92361	-91.39356
234273	3473	1947	-2176	-6.036252	-4.77984	1.824211	0	11.46	4003	0	0	5	5	0.6873717	0.4925934	3	15	0.04	1800	-0.5280151	40.92361	-91.39356
234359	366	-32	-294	-2.231657	-7.030814	3.351192	0	11.46	4003	0	0	5	5	0.6873717	0.4576638	3	15	0.04	1800	-2.504913	40.92361	-91.39356
234515	-479	-3057	1904	-8.313159	0.2445281	2.112916	0	11.46	4003	0	0	5	5	0.6873717	0.3829567	3	15	0.04	1800	-2.966888	40.92361	-91.39355
234567	728	-3717	1950	-7.75903	0.7663221	0.8433828	0	11.46	4003	0	0	5	5	0.6873717	0.365862	3	15	0.04	1800	-2.966888	40.92361	-91.39355
234683	-1147	-962	-725	-4.008814	1.303222	-2.846228	0	11.46	4004	0	0	5	5	0.6873717	0.3299417	3	15	0.04	1800	-1.40448	40.92362	-91.39356
234726	-1801	-390	760	-4.797256	0.7350047	-3.488013	0	11.46	4003	0	0	5	5	0.6873717	0.3238939	3	15	0.04	1800	0.5538461	40.92362	-91.39356
234865	79	1812	-204	-3.675473	-0.4893542	-1.978921	0	11.46	4003	0	0	5	5	0.6873717	0.3163095	3	15	0.04	1800	0.7846088	40.92362	-91.39356
