time(ms)	gyro_x(deg/s)	gyro_y(deg/s)	gyro_z(deg/s)	orientation_roll(deg)	orientation_pitch(deg)	orientation_yaw(deg)	throttle	battery(V)	loop_time(uS)	pid_output_roll	pid_output_pitch	pid_output_yaw	pid_output_throttle	ultrasonic_alt	baro_alt	flight_mode	p_gain_altitude	i_gain_altitude	d_gain_altitude	compass_heading	latitude	longitude
556552	525	-1336	-1699	-1.63151	-1.67776	2.972554	0	10.21	4003	3	25	5	5	0.5237607	0.6963632	8	15	0.04	1900	-22.31241	40.92379	-91.3936
556730	-568	-2011	1140	-1.825576	-0.3371315	2.620253	0	11.06	4003	4	24	5	5	0.5237607	0.9548834	8	15	0.04	1900	-25.85394	40.92379	-91.3936
556815	516	-1054	1114	-0.4967274	1.364818	-0.5307379	0	11.06	4002	4	21	5	5	0.5237607	1.01282	8	15	0.04	1900	-26.91791	40.92379	-91.3936
556969	-169	-808	219	-1.0376	2.715518	-1.081463	0	11.06	4004	4	24	5	5	0.5237607	1.244726	8	15	0.04	1900	-26.42899	40.92378	-91.39359
557160	239	356	-657	-0.8658335	1.743523	0.2914301	0	11.06	4004	4	23	5	5	0.5237607	1.381236	8	15	0.04	1900	-28.97354	40.92378	-91.39359
557344	-417	2164	353	-3.052609	-6.759518	0.249365	0	11.06	4003	4	19	5	5	0.5237607	1.525767	8	15	0.04	1900	-27.55515	40.92378	-91.39359
557484	-788	1248	108	-4.892647	-8.760655	-0.4204327	0	11.06	4003	5	26	5	5	0.5237607	1.585233	8	15	0.04	1900	-22.42624	40.92378	-91.39359
557557	377	741	-913	-4.851446	-9.692746	-0.4305993	0	10.77	4004	4	25	5	5	0.5237607	1.61452	8	15	0.04	1900	-23.07141	40.92378	-91.39359
557668	983	38	-690	-5.085216	-10.20081	-0.2645304	0	10.77	4004	5	26	5	5	0.5237607	1.640771	8	15	0.04	1900	-22.01648	40.92378	-91.39359
557804	-650	-1228	140	-2.841486	-10.0024	0.09284515	0	10.77	4004	4	22	5	5	0.5237607	1.64265	8	15	0.04	1900	-20.61835	40.92378	-91.39359
557916	2067	2591	-298	-1.57916	-9.626106	0.2847338	0	10.77	4003	4	18	5	5	0.5237607	1.637502	8	15	0.04	1900	-22.29306	40.92378	-91.3936
558093	-362	-1055	628	-1.86928	-12.18801	0.02215307	0	10.77	4003	0	28	5	5	0.5237607	1.587174	8	15	0.04	1900	-16.68506	40.92378	-91.3936
558188	12	462	-84	-1.545995	-10.23505	-0.04021228	0	10.77	4002	3	22	5	5	0.5237607	1.557201	8	15	0.04	1900	-17.14679	40.92378	-91.3936
558265	-279	356	-448	-2.148831	-10.58185	-0.1060637	0	10.77	4002	0	29	5	5	0.5237607	1.52097	8	15	0.04	1900	-15.22232	40.92378	-91.3936
558326	610	-1677	-972	-1.577403	-9.4599	0.2061008	0	10.77	4002	3	23	5	5	0.5237607	1.459499	8	15	0.04	1900	-16.06381	40.92378	-91.3936
558448	697	-658	66	-0.9809743	-7.856887	0.5409757	0	10.77	4002	3	26	5	5	0.5237607	1.393039	8	15	0.04	1900	-15.57111	40.92378	-91.3936
558627	1434	559	-1972	0.5154409	-9.97839	3.42518	0	10.83	4003	2	24	5	5	0.5237607	1.236238	8	15	0.04	1900	-15.59619	40.92379	-91.3936
558706	2250	2982	-729	2.007163	-9.873856	6.108382	0	10.83	4003	2	28	5	5	0.5237607	1.052835	8	15	0.04	1900	-17.18161	40.92379	-91.3936
558796	-95	-384	2787	3.798597	-9.532784	5.525621	0	10.83	4002	2	25	5	5	0.5237607	1.013446	8	15	0.04	1900	-15.16519	40.92379	-91.3936
558981	-710	-1710	-516	0.8720876	-2.578556	-0.1809997	0	10.83	4004	2	26	5	5	0.5237607	0.9256968	8	15	0.04	1900	-13.68546	40.92379	-91.3936
559074	-1107	-4179	618	0.1844954	-0.9634064	-0.8566062	0	10.83	4003	2	30	5	5	0.5237607	0.8736708	8	15	0.04	1900	-11.86313	40.92379	-91.3936
559242	-881	1879	1514	-1.353507	2.336856	0.6476824	0	10.83	4004	2	31	5	5	0.5237607	0.7456249	8	15	0.04	1900	-16.61566	40.92379	-91.3936
559344	-1057	-2761	-318	-2.743952	2.445699	0.3793608	0	10.83	4003	3	28	5	5	0.5237607	0.6935276	8	15	0.04	1900	-17.67172	40.92379	-91.3936
559392	-4	-2423	-479	-3.179347	3.340863	0.3243372	0	10.94	4002	3	28	5	5	0.5237607	0.6567791	8	15	0.04	1900	-17.67172	40.92379	-91.3936
559488	3327	1681	-2259	-1.336471	1.938989	0.7135196	0	10.94	4002	3	29	5	5	0.5237607	0.5567807	8	15	0.04	1900	-20.30667	40.92379	-91.3936
559662	-2938	-156	2535	-1.752056	-1.568423	3.63238	0	10.94	4003	4	29	5	5	0.5237607	0.4901188	8	15	0.04	1900	-27.34052	40.92379	-91.3936
559770	1395	432	1087	-0.3689264	-0.4313086	0.55318	0	10.94	4002	7	36	5	5	0.5237607	0.4155222	8	15	0.04	1900	-23.49509	40.9238	-91.39359
559919	2163	4439	-659	0.04792827	-5.169625	-1.037333	0	10.94	4002	5	26	5	5	0.5237607	0.3463953	8	15	0.04	1900	-24.78235	40.9238	-91.39359
560055	-1851	-5338	-1403	4.824327	-11.49105	4.337416	0	10.94	4003	6	29	5	5	0.5237607	0.3172777	8	15	0.04	1900	-19.13382	40.92379	-91.39359
560121	-6639	-9115	-908	1.843875	-8.104284	4.242841	0	10.94	4002	6	29	5	5	0.5237607	0.3194669	8	15	0.04	1900	-18.07437	40.92379	-91.39359
560199	-1085	-2614	1984	-6.170849	3.273021	3.289331	0	10.94	4002	6	29	5	5	0.5237607	0.3301227	8	15	0.04	1900	-17.6478	40.92379	-91.39359
560353	1120	3439	2819	-3.983637	-0.8210478	-0.4184782	0	11.34	4002	6	25	5	5	0.5237607	0.3970255	8	15	0.04	1900	-21.20404	40.92379	-91.39359
560549	-326	-1495	-94	-1.535915	2.170731	0.6553485	0	11.34	4003	11	23	5	5	0.5237607	0.5169184	8	15	0.04	1900	-22.8981	40.92379	-91.39359
560700	38	-468	-16	-0.08474222	-0.8330014	2.106721	0	11.34	4003	8	24	5	5	0.5237607	0.6316092	8	15	0.04	1900	-29.93356	40.92378	-91.39359
560739	-455	-509	648	-0.1684916	-0.3858507	1.85409	0	11.34	4004	9	19	5	5	0.5237607	0.6914064	8	15	0.04	1900	-29.93356	40.92378	-91.39359
560852	-304	-541	931	-0.5935358	0.4160009	0.752633	0	11.34	4002	9	18	5	5	0.5237607	0.7712503	8	15	0.04	1900	-37.24472	40.92378	-91.39359
560934	-223	571	46	-0.3704535	0.5927342	0.03716541	0	11.34	4003	10	19	5	5	0.5237607	0.9332755	8	15	0.04	1900	-34.29391	40.92377	-91.39359
561128	-657	2600	-1102	-1.449279	-4.134992	0.7860925	0	11.34	4003	10	13	5	5	0.5237607	1.11731	8	15	0.04	1900	-38.80212	40.92377	-91.39359
561322	-2041	3182	1238	-5.985936	-12.33099	0.1294699	0	11.46	4004	11	13	5	5	0.5237607	1.327407	8	15	0.04	1900	-30.89728	40.92376	-91.39358
561472	-1482	3341	126	-7.872825	-15.97668	-0.3893299	0	11.46	4004	11	7	5	5	0.5237607	1.420861	8	15	0.04	1900	-27.89935	40.92376	-91.39358
561575	-1288	2182	-285	-8.928709	-17.48468	-0.2980438	0	11.46	4004	11	9	5	5	0.5237607	1.474512	8	15	0.04	1900	-29.07309	40.92375	-91.39358
561652	-1123	2133	224	-10.07634	-19.74469	0.2402388	0	11.46	4004	13	5	5	5	0.5237607	1.529441	8	15	0.04	1900	-28.94083	40.92375	-91.39358
561710	-635	2282	401	-9.715533	-20.74288	0.1784053	0	11.46	4002	11	3	5	5	0.5237607	1.558302	8	15	0.04	1900	-28.94083	40.92375	-91.39358
561916	-358	27	145	-4.370425	-17.52787	-0.2376596	0	11.46	4004	300	-300	5	5	0.5237607	1.601011	8	15	0.04	1900	-27.46814	40.92374	-73.11568
562071	-2942	-798	386	-14.67637	-12.18857	-0.8101223	0	11.46	4003	300	-300	5	5	0.5237607	1.607317	8	15	0.04	1900	-27.2691	40.92374	-45.69883
562163	-3631	2411	-523	-16.02061	-13.98166	-0.4279468	0	10.32	4004	300	1	5	5	0.5237607	1.590396	8	15	0.04	1900	-30.22861	40.92374	-45.69883
562251	-1338	1161	-2805	-17.4005	-15.0199	0.69044	0	10.32	4003	300	0	5	5	0.5237607	1.573473	8	15	0.04	1900	-33.56619	40.92374	-45.69883
562334	-3809	-5042	-1203	-17.09902	-10.01825	2.771767	0	10.32	4003	300	-1	5	5	0.5237607	1.534395	8	15	0.04	1900	-33.88043	40.92373	-45.69883
562411	354	2882	1566	-17.69378	-9.645916	2.318372	0	10.32	4002	300	-5	5	5	0.5237607	1.502351	8	15	0.04	1900	-36.59341	40.92373	-45.69883
562500	1002	-4845	3217	-14.48651	-3.922837	0.7368094	0	10.32	4004	300	-5	5	5	0.5237607	1.455662	8	15	0.04	1900	-34.5368	40.92373	-54.83778
562533	-529	-3822	467	-14.48651	-3.922837	0.7368094	0	10.32	4003	-300	-2	5	5	0.5237607	1.447201	8	15	0.04	1900	-34.5368	40.92373	-63.97673
562673	2954	4169	689	-11.59066	-3.438271	-2.584879	0	10.32	4003	10	-2	5	5	0.5237607	1.399822	8	15	0.04	1900	-32.89359	40.92373	-91.39359
562741	7284	5839	-570	-7.144161	-8.953737	-2.508327	0	10.32	4003	10	-5	5	5	0.5237607	1.391088	8	15	0.04	1900	-31.77585	40.92373	-91.39359
562905	6506	4008	-913	9.598593	-15.1851	3.077126	0	10.32	4002	8	0	5	5	0.5237607	1.340939	8	15	0.04	1900	-32.44553	40.92374	-91.39359
562988	5816	3711	-376	14.65291	-20.68375	2.471144	0	9.87	4002	4	3	5	5	0.5237607	1.323492	8	15	0.04	1900	-28.75723	40.92374	-91.39359
563175	-22351	-32753	-32750	-9.663429	-23.47939	39.13387	0	9.87	4004	3	5	5	5	0.5237607	1.248579	8	15	0.04	1900	-34.28595	40.92374	-91.39359
563279	-22351	-32753	-32750	-9.663429	-23.47939	39.13387	0	9.87	4004	3	5	5	5	0.5237607	1.207246	8	15	0.04	1900	-34.28595	40.92375	-91.3936
563327	-22351	-32753	-32750	-9.663429	-23.47939	39.13387	0	9.87	4004	3	5	5	5	0.5237607	1.207246	8	15	0.04	1900	-34.28595	40.92375	-91.3936
563437	32404	-32753	-18432	130.4944	47.09048	163.8643	0	9.87	4004	0	10	5	5	0.5237607	1.03347	8	15	0.04	1900	169.2303	40.92376	-91.39361
563566	25945	-32753	-30430	180.6266	28.18184	187.2285	0	9.87	4002	0	0	5	5	0.5237607	0.9275998	1	15	0.04	1900	2.687884	40.92376	-91.39362
563640	-16535	-32753	-7836	153.8308	32.73065	196.9177	0	9.87	4002	0	0	5	5	0.5237607	0.9014457	1	15	0.04	1900	94.52042	40.92377	-91.39362
563814	-17707	-1716	2708	62.47494	54.48115	194.8568	0	9.87	4003	0	0	5	5	0.5237607	0.6519467	1	15	0.04	1900	161.4589	40.92377	-91.39362
563905	-16338	-19649	1088	34.08584	66.72282	193.1937	0	11.51	4002	0	0	5	5	0.5237607	0.5816537	1	15	0.04	1900	176.607	40.92377	-91.39362
563971	-6298	6189	5931	-13.92383	86.80727	185.2222	0	11.51	4003	0	0	5	5	0.5237607	0.4161156	1	15	0.04	1900	195.8976	40.92377	-91.39362
564129	4940	8481	3252	-24.42779	56.90932	175.195	0	11.51	4003	0	0	5	5	0.5237607	0.3258056	1	15	0.04	1900	208.8556	40.92378	-91.39362
564322	29	-1787	655	-12.33662	48.78648	163.5339	0	11.51	4004	0	0	5	5	0.5237607	0.2114518	1	15	0.04	1900	215.4651	40.92379	-91.39362
564488	205	-565	395	-15.7925	35.2302	165.3348	0	11.51	4002	0	0	5	5	0.5237607	0.09602188	1	15	0.04	1900	235.01	40.9238	-91.39362
564636	-13	-102	106	-17.62402	29.28522	165.4066	0	11.51	4003	0	0	5	5	0.5237607	0.03382806	1	15	0.04	1900	246.2536	33.89978	-62.41988
564735	-64	0	24	-18.77197	25.58094	165.3897	0	11.51	4002	0	0	5	5	0.5237607	-0.02681081	1	15	0.04	1900	253.805	32.14378	-55.17644
564821	-80	-4	21	-19.44947	23.37906	165.382	0	11.51	4003	0	0	5	5	0.5237607	-0.05107387	1	15	0.04	1900	253.805	32.14379	-55.17644
565028	-86	-2	9	-21.146	17.86197	165.3465	0	11.51	4002	0	0	5	5	0.5237607	-0.1209563	1	15	0.04	1900	-96.90082	32.14379	-55.17645
565104	-91	4	15	-21.61698	16.33263	165.335	0	11.51	4003	0	0	5	5	0.5237607	-0.1452965	1	15	0.04	1900	-94.33505	32.14379	-55.17645
565179	-93	6	13	-22.44218	13.64952	165.3112	0	11.51	4002	0	0	5	5	0.5237607	-0.1656	1	15	0.04	1900	-90.11923	32.1438	-55.17645
565244	-88	0	16	-22.80368	12.48279	165.2999	0	11.51	4003	0	0	5	5	0.5237607	-0.1763773	1	15	0.04	1900	-88.43951	35.65581	-69.66332
565312	-87	2	15	-23.1314	11.41709	165.2855	0	11.51	4002	0	0	5	5	0.5237607	-0.1831213	1	15	0.04	1900	-87.11612	39.16782	-84.15019
565448	-89	3	14	-23.70204	9.555337	165.2641	0	11.51	4003	0	0	5	5	0.5237607	-0.1940299	1	15	0.04	1900	-84.49078	40.92383	-91.39363
565499	-90	-1	7	-23.82816	9.141052	165.2584	0	11.51	4003	0	0	5	5	0.5237607	-0.1967047	1	15	0.04	1900	-84.49078	40.92383	-91.39363
565669	-87	3	13	-24.48165	6.998132	165.2231	0	11.63	4002	0	0	5	5	0.5237607	-0.2081268	1	15	0.04	1900	-81.71323	40.92384	-91.39363
565796	-90	5	10	-24.83611	5.859084	165.2011	0	11.63	4004	0	0	5	5	0.5237607	-0.2017187	1	15	0.04	1900	-80.24274	40.92384	-91.39364
565866	-87	2	8	-24.9859	5.367298	165.1897	0	11.63	4003	0	0	5	5	0.5237607	-0.195723	1	15	0.04	1900	-79.59601	40.92384	-91.39364
565961	-89	0	10	-25.12211	4.914314	165.179	0	11.63	4003	0	0	5	5	0.5237607	-0.1855806	1	15	0.04	1900	-79.24786	40.92385	-91.39364
566121	-87	0	16	-25.42456	3.940197	165.1506	0	11.63	4003	0	0	5	5	0.5237607	-0.1543503	1	15	0.04	1900	-78.0423	40.92385	-91.39363
566236	-82	0	11	-25.65799	3.167244	165.1224	0	11.63	4003	0	0	5	5	0.5237607	-0.1411224	1	15	0.04	1900	-77.13437	40.92386	-91.39363
566341	-91	0	10	-25.74561	2.908273	165.1118	0	11.63	4003	0	0	5	5	0.5237607	-0.1280922	1	15	0.04	1900	-76.70135	40.92386	-91.39363
566460	-91	2	14	-25.88218	2.448771	165.0903	0	11.63	4003	0	0	5	5	0.5237607	-0.1194293	1	15	0.04	1900	-76.43475	40.92387	-91.39363
566521	-91	2	14	-25.88218	2.448771	165.0903	0	11.63	4003	0	0	5	5	0.5237607	-0.1181257	1	15	0.04	1900	-76.43475	40.92387	-91.39363
566594	-89	5	14	-26.00826	2.063972	165.068	0	11.57	4003	0	0	5	5	0.5237607	-0.128631	1	15	0.04	1900	-75.89212	40.92387	-91.39363
566759	-95	0	11	-26.12704	1.673836	165.0402	0	11.57	4004	0	0	5	5	0.5237607	-0.136729	1	15	0.04	1900	-75.50122	40.92387	-91.39363
566802	-90	1	10	-26.17208	1.537874	165.0311	0	11.57	4003	0	0	5	5	0.5237607	-0.1364029	1	15	0.04	1900	-75.45303	40.92387	-91.39363
566983	-84	4	10	-26.24972	1.300163	165.009	0	11.57	4002	0	0	5	5	0.5237607	-0.1323573	1	15	0.04	1900	-75.33493	40.92389	-91.39363
567079	-85	2	8	-26.30805	1.107342	164.9901	0	11.57	4004	0	0	5	5	0.5237607	-0.1289075	1	15	0.04	1900	-75.29929	40.92389	-91.39364
567180	-80	5	12	-26.34983	0.9819664	164.9722	0	11.57	4002	0	0	5	5	0.5237607	-0.1291856	1	15	0.04	1900	-75.18045	40.92389	-91.39364
567267	-89	1	9	-26.3858	0.9102024	164.9616	0	11.57	4003	0	0	5	5	0.5237607	-0.1296642	1	15	0.04	1900	-75.00848	40.9239	-91.39364
567355	-86	2	11	-26.41491	0.7797654	164.9418	0	11.57	4004	0	0	5	5	0.5237607	-0.1286847	1	15	0.04	1900	-75.00955	40.9239	-91.39364
567415	-89	5	4	-26.42165	0.7513078	164.9376	0	11.57	4004	0	0	5	5	0.5237607	-0.1293214	1	15	0.04	1900	-75.00955	40.92391	-91.39364
567606	-85	6	6	-26.47444	0.5832124	164.9071	0	11.63	4004	0	0	5	5	0.5237607	-0.1259881	1	15	0.04	1900	-74.51678	40.92391	-91.39364
567760	-82	-3	10	-26.49828	0.5083268	164.887	0	11.63	4004	0	0	5	5	0.5237607	-0.124184	1	15	0.04	1900	-74.65228	40.92392	-91.39364
567794	-84	6	7	-26.50486	0.4690381	164.877	0	11.63	4003	0	0	5	5	0.5237607	-0.124184	1	15	0.04	1900	-74.38953	40.92392	-91.39364
567854	-83	0	3	-26.51249	0.4401183	164.8696	0	11.63	4003	0	0	5	5	0.5237607	-0.1222761	1	15	0.04	1900	-74.38953	40.92392	-91.39364
567977	-90	7	6	-26.52446	0.3992847	164.856	0	11.63	4002	0	0	5	5	0.5237607	-0.1212109	1	15	0.04	1900	-74.37296	40.92392	-91.39364
568142	-80	6	15	-26.5385	0.3431719	164.8327	0	11.63	4003	0	0	5	5	0.5237607	-0.1346158	1	15	0.04	1900	-74.30731	40.92392	-91.39364
568176	-90	3	10	-26.54266	0.3330926	164.8291	0	11.63	4003	0	0	5	5	0.5237607	-0.1423986	1	15	0.04	1900	-74.47876	40.92392	-91.39364
568336	-95	5	7	-26.55792	0.2864514	164.8001	0	11.63	4002	0	0	5	5	0.5237607	-0.1581827	1	15	0.04	1900	-74.37848	40.92392	-91.39364
568379	-87	0	11	-26.56191	0.2753223	164.7959	0	11.57	4003	0	0	5	5	0.5237607	-0.1643506	1	15	0.04	1900	-74.37848	40.92392	-91.39364
568450	-80	5	7	-26.57022	0.2610037	164.7881	0	11.57	4002	0	0	5	5	0.5237607	-0.1684999	1	15	0.04	1900	-74.23016	40.92392	-91.39364
568633	-86	2	7	-26.572	0.231468	164.7645	0	11.57	4003	0	0	5	5	0.5237607	-0.1772215	1	15	0.04	1900	-74.33127	40.92392	-91.39364
568770	-80	2	6	-26.57735	0.2194844	164.7478	0	11.57	4003	0	0	5	5	0.5237607	-0.1856724	1	15	0.04	1900	-74.30179	40.92392	-91.39364
568874	-86	6	4	-26.58099	0.1999715	164.7298	0	11.57	4003	0	0	5	5	0.5237607	-0.1950066	1	15	0.04	1900	-74.34271	40.92392	-91.39364
569022	-92	0	12	-26.58904	0.1886416	164.7132	0	11.57	4004	0	0	5	5	0.5237607	-0.1997959	1	15	0.04	1900	-74.19666	40.92392	-91.39364
569160	-87	0	14	-26.59838	0.1785307	164.6928	0	11.57	4002	0	0	5	5	0.5237607	-0.1972885	1	15	0.04	1900	-74.34085	40.92392	-91.39364
569312	-85	4	6	-26.60211	0.1694663	164.6671	0	11.63	4003	0	0	5	5	0.5237607	-0.2003056	1	15	0.04	1900	-74.46609	40.92392	-91.39364
569377	-91	4	7	-26.60352	0.1646367	164.658	0	11.63	4003	0	0	5	5	0.5237607	-0.1986124	1	15	0.04	1900	-74.17929	40.92392	-91.39364
569497	-83	4	7	-26.6072	0.1526111	164.6419	0	11.63	4002	0	0	5	5	0.5237607	-0.1959887	1	15	0.04	1900	-74.30356	40.92392	-91.39364
569554	-83	0	15	-26.60449	0.1532813	164.6364	0	11.63	4004	0	0	5	5	0.5237607	-0.1884603	1	15	0.04	1900	-74.29684	40.92392	-91.39364
569634	-87	0	8	-26.60029	0.1439181	164.6176	0	11.63	4004	0	0	5	5	0.5237607	-0.1780507	1	15	0.04	1900	-74.11694	40.92392	-91.39364
569812	-85	3	6	-26.59976	0.1421852	164.5947	0	11.63	4002	0	0	5	5	0.5237607	-0.1695098	1	15	0.04	1900	-74.17084	40.92392	-91.39364
569895	-88	1	8	-26.60056	0.1422701	164.5853	0	11.63	4004	0	0	5	5	0.5237607	-0.173561	1	15	0.04	1900	-74.17328	40.92392	-91.39364
569959	-83	2	10	-26.60252	0.1401831	164.5755	0	11.63	4003	0	0	5	5	0.5237607	-0.1756106	1	15	0.04	1900	-74.30255	40.92392	-91.39364
570140	-88	-1	7	-26.61095	0.1372551	164.5517	0	11.63	4003	0	0	5	5	0.5237607	-0.1864582	1	15	0.04	1900	-74.43423	40.92392	-91.39364
570219	-86	3	8	-26.60515	0.1299513	164.5381	0	11.57	4004	0	0	5	5	0.5237607	-0.1913206	1	15	0.04	1900	-74.31372	40.92392	-91.39364
570251	-83	3	8	-26.60626	0.1262429	164.5333	0	11.57	4002	0	0	5	5	0.5237607	-0.1938446	1	15	0.04	1900	-74.31372	40.92392	-91.39364
570348	-82	-1	8	-26.60445	0.1238072	164.5243	0	11.57	4003	0	0	5	5	0.5237607	-0.2127043	1	15	0.04	1900	-74.11914	40.92392	-91.39364
570464	-87	10	9	-26.60655	0.1246074	164.5056	0	11.57	4002	0	0	5	5	0.5237607	-0.2352912	1	15	0.04	1900	-74.10263	40.92392	-91.39364
570615	-84	0	7	-26.61021	0.1251421	164.4974	0	11.57	4004	0	0	5	5	0.5237607	-0.2632434	1	15	0.04	1900	-74.42041	40.92392	-91.39364
570703	-80	0	9	-26.61109	0.1229479	164.4743	0	11.57	4002	0	0	5	5	0.5237607	-0.2687326	1	15	0.04	1900	-74.30762	40.92392	-91.39364
570821	-82	9	9	-26.61496	0.1185827	164.4571	0	11.57	4003	0	0	5	5	0.5237607	-0.2738322	1	15	0.04	1900	-74.26764	40.92392	-91.39364
570948	-83	6	9	-26.61746	0.1215505	164.4411	0	11.57	4002	0	0	5	5	0.5237607	-0.273759	1	15	0.04	1900	-74.09857	40.92392	-91.39364
571046	-82	5	7	-26.62011	0.1209516	164.425	0	11.63	4003	0	0	5	5	0.5237607	-0.2675613	1	15	0.04	1900	-74.1185	40.92392	-91.39364
571099	-78	2	5	-26.62312	0.1214692	164.4209	0	11.63	4003	0	0	5	5	0.5237607	-0.2662737	1	15	0.04	1900	-74.28912	40.92392	-91.39364
571189	-102	0	0	-26.6245	0.1192495	164.4162	0	11.63	4002	0	0	5	5	0.5237607	-0.2721554	1	15	0.04	1900	-74.00803	40.92392	-91.39364
571416	-87	1	6	-26.62838	0.1200261	164.3889	0	11.63	4002	0	0	5	5	0.5237607	-0.2901173	1	15	0.04	1900	-74.23303	40.92392	-91.39364
571554	-87	1	7	-26.63471	0.1177489	164.3712	0	11.63	4002	0	0	5	5	0.5237607	-0.2848369	1	15	0.04	1900	-74.11963	40.92392	-91.39364
571725	-359	533	522	-26.82107	-0.2717932	163.81	0	11.63	4002	0	0	5	5	0.5237607	-0.2675265	1	15	0.04	1900	-74.25433	40.92392	-91.39364
571848	2322	-7477	4002	-24.38575	4.995416	160.4666	0	11.63	4002	0	0	5	5	0.5237607	-0.2461814	1	15	0.04	1900	-72.01724	40.92392	-91.39364
571998	10280	178	9403	-13.9949	3.964582	141.6375	0	11.63	4004	0	0	5	5	0.5237607	-0.2209527	1	15	0.04	1900	-43.04599	40.92392	-91.39364
572088	6725	1250	8975	-7.707196	-2.043006	131.1389	0	11.63	4003	0	0	5	5	0.5237607	-0.2201031	1	15	0.04	1900	-31.944	40.92392	-91.39364
572171	-3425	-2536	-870	-9.809583	-6.021766	122.3093	0	11.63	4004	0	0	5	5	0.5237607	-0.2240309	1	15	0.04	1900	-25.34717	40.92392	-91.39364
572219	-4368	-1506	-2246	-13.58574	-6.066525	123.2266	0	11.63	4004	0	0	5	5	0.5237607	-0.2306495	1	15	0.04	1900	-25.11929	40.92392	-91.39364
572361	-1519	2228	-4999	-27.09456	-9.745564	131.7727	0	11.63	4010	0	0	5	5	0.5237607	-0.2378183	1	15	0.04	1900	-34.41064	40.92392	-91.39364
572415	40	2558	-5836	-31.18495	-11.74886	137.8123	0	11.63	4004	0	0	5	5	0.5237607	-0.2426793	1	15	0.04	1900	-40.60718	40.92392	-91.39364
572504	6062	-713	-5731	-31.61478	-11.02422	147.6232	0	11.63	4002	0	0	5	5	0.5237607	-0.2384205	1	15	0.04	1900	-48.16498	40.92392	-91.39364
572657	13169	-9620	-3331	-13.71709	-0.6243748	158.6308	0	11.63	4002	0	0	5	5	0.5237607	-0.2208699	1	15	0.04	1900	-56.44479	40.92392	-91.39364
572702	12932	-12876	-3042	-8.497702	4.464312	160.4151	0	11.63	4004	0	0	5	5	0.5237607	-0.1881521	1	15	0.04	1900	-56.44479	40.92392	-91.39364
572777	10379	-13776	-567	-0.04956593	16.55468	162.4627	0	11.63	4002	0	0	5	5	0.5237607	-0.1550682	1	15	0.04	1900	-55.8754	40.92392	-91.39364
572869	189	-15312	4023	-3.999476	39.37378	156.5272	0	11.63	4004	0	0	5	5	0.5237607	-0.1321189	1	15	0.04	1900	-49.68427	40.92392	-91.39364
573027	-3750	-9906	9620	-29.44212	50.00251	141.1832	0	11.63	4003	0	0	5	5	0.5237607	-0.04977301	1	15	0.04	1900	-25.88086	40.92392	-91.39364
573199	-2705	6275	6595	-69.17754	22.45384	112.9295	0	11.63	4003	0	0	5	5	0.5237607	0.06573233	1	15	0.04	1900	9.743114	40.92392	-91.39364
573362	-2933	-3152	-1963	-71.37924	8.993562	108.7218	0	11.63	4003	0	0	5	5	0.5237607	0.1350911	1	15	0.04	1900	9.379298	40.92392	-91.39364
573463	-7741	-4675	-705	-78.47875	16.37832	112.1567	0	11.63	4003	0	0	5	5	0.5237607	0.1490333	1	15	0.04	1900	10.83892	40.92392	-91.39364
573626	-1275	1335	3243	-92.28834	0.9215478	104.074	0	11.63	4002	0	0	5	5	0.5237607	0.1755592	1	15	0.04	1900	12.18657	40.92392	-91.39364
573706	-1241	242	-1022	-91.2012	-5.987547	102.1741	0	11.63	4003	0	0	5	5	0.5237607	0.1874793	1	15	0.04	1900	7.119638	40.92392	-91.39364
573837	3211	-3505	-4817	-84.57726	2.402289	109.0443	0	11.63	4002	0	0	5	5	0.5237607	0.2146033	1	15	0.04	1900	0.03055755	40.92392	-91.39364
573959	4348	-6582	-7378	-64.91562	26.6908	124.5268	0	11.63	4004	0	0	5	5	0.5237607	0.2313096	1	15	0.04	1900	-3.818726	40.92392	-91.39364
574103	7115	-1444	-722	-51.6309	35.23933	130.4655	0	11.63	4004	0	0	5	5	0.5237607	0.2742141	1	15	0.04	1900	-8.80777	40.92392	-91.39364
574206	3183	-7787	-5212	-39.60188	40.61325	135.6743	0	11.63	4004	0	0	5	5	0.5237607	0.2875724	1	15	0.04	1900	-8.13385	40.92392	-91.39364
574277	5226	-4962	-5086	-31.99985	49.2897	141.7615	0	11.63	4004	0	0	5	5	0.5237607	0.3066307	1	15	0.04	1900	-8.730011	40.92392	-91.39364
574411	6355	-2675	-4068	-12.66054	52.40627	150.6359	0	11.63	4003	0	0	5	5	0.5237607	0.330123	1	15	0.04	1900	-18.5679	40.92392	-91.39364
574461	3686	-4367	-5453	-4.237354	54.84712	156.3566	0	11.63	4002	0	0	5	5	0.5237607	0.3405335	1	15	0.04	1900	-19.44202	40.92392	-91.39364
574632	-1182	-111	698	-1.935223	55.06451	161.6071	0	11.63	4004	0	0	5	5	0.5237607	0.3562743	1	15	0.04	1900	-19.03418	40.92392	-91.39364
574757	-9741	4929	3724	-30.07412	42.50541	153.592	0	11.63	4004	0	0	5	5	0.5237607	0.3730997	1	15	0.04	1900	2.931491	40.92392	-91.39364
574823	-7988	5043	3350	-43.91091	33.40919	149.5421	0	11.63	4003	0	0	5	5	0.5237607	0.3790909	1	15	0.04	1900	17.06956	40.92392	-91.39364
575038	3770	-1832	-2790	-58.08667	13.45758	144.4026	0	11.63	4003	0	0	5	5	0.5237607	0.4251645	1	15	0.04	1900	73.7854	40.92392	-91.39364
575165	8984	-2331	-3671	-39.07331	31.01155	152.6555	0	11.63	4003	0	0	5	5	0.5237607	0.4595501	1	15	0.04	1900	80.5549	40.92392	-91.39364
575335	7221	-3567	-3614	-13.96198	39.21508	162.2914	0	11.63	4003	0	0	5	5	0.5237607	0.4817755	1	15	0.04	1900	81.70107	40.92392	-91.39364
575496	2852	4587	634	2.392691	40.58422	168.9372	0	11.63	4004	0	0	5	5	0.5237607	0.4969838	1	15	0.04	1900	80.19549	40.92392	-91.39364
575556	2593	6140	2597	2.82808	37.48171	167.9866	0	11.63	4003	0	0	5	5	0.5237607	0.5044364	1	15	0.04	1900	80.2104	40.92392	-91.39364
575681	620	4852	2658	0.5299463	19.49781	160.4288	0	11.57	4004	0	0	5	5	0.5237607	0.5106913	1	15	0.04	1900	86.29366	40.92392	-91.39364
575735	-1038	3495	2710	-1.170256	14.661	157.3557	0	11.57	4002	0	0	5	5	0.5237607	0.5141267	1	15	0.04	1900	85.76383	40.92392	-91.39364
575794	-720	3847	3016	-2.18641	12.36496	155.7932	0	11.57	4003	0	0	5	5	0.5237607	0.5114186	1	15	0.04	1900	85.87677	40.92392	-91.39364
575955	-2366	4013	119	-9.548493	-0.1253055	150.9074	0	11.57	4004	0	0	5	5	0.5237607	0.5088727	1	15	0.04	1900	84.47231	40.92392	-91.39364
576011	-2859	3188	-957	-12.74157	-4.374832	151.1952	0	11.57	4003	0	0	5	5	0.5237607	0.5037796	1	15	0.04	1900	78.57269	40.92392	-91.39364
576081	-2388	1463	-4340	-17.20973	-6.448572	154.1556	0	11.57	4004	0	0	5	5	0.5237607	0.5034721	1	15	0.04	1900	73.0117	40.92392	-91.39364
576177	2353	-1334	-4427	-16.07946	0.1130928	164.5874	0	11.57	4002	0	0	5	5	0.5237607	0.5050123	1	15	0.04	1900	70.36697	40.92392	-91.39364
576293	-9	529	-4797	-15.58981	1.395788	169.5488	0	11.57	4004	0	0	5	5	0.5237607	0.5057418	1	15	0.04	1900	69.52387	40.92392	-91.39364
576376	799	-597	-3289	-13.10195	3.114475	178.095	0	11.57	4003	0	0	5	5	0.5237607	0.5094512	1	15	0.04	1900	65.20506	40.92392	-91.39364
576516	-713	658	-2315	-13.57128	4.136735	183.4894	0	11.68	4004	0	0	5	5	0.5237607	0.5077183	1	15	0.04	1900	62.47307	40.92392	-91.39364
576613	1109	-471	-2661	-13.39488	3.982399	187.9924	0	11.68	4004	0	0	5	5	0.5237607	0.4900911	1	15	0.04	1900	56.29663	40.92392	-91.39364
576654	2825	-930	-1701	-10.70514	5.357686	190.5146	0	11.68	4003	0	0	5	5	0.5237607	0.487244	1	15	0.04	1900	54.17404	40.92392	-91.39364
576758	1330	-2165	-2128	-7.752466	7.220187	192.4809	0	11.68	4003	0	0	5	5	0.5237607	0.4775698	1	15	0.04	1900	53.37992	40.92392	-91.39364
576952	160	-1479	-1719	-3.318998	14.57316	198.9643	0	11.68	4004	0	0	5	5	0.5237607	0.4819939	1	15	0.04	1900	52.50866	40.92392	-91.39364
577023	-926	-2866	-4270	-2.949677	17.98785	204.1873	0	11.68	4004	0	0	5	5	0.5237607	0.4850889	1	15	0.04	1900	50.29098	40.92392	-91.39364
577091	-1207	-2747	-5077	-2.135317	21.59591	209.3775	0	11.68	4002	0	0	5	5	0.5237607	0.4898825	1	15	0.04	1900	46.81852	40.92392	-91.39364
577148	-2187	-1162	-5722	-1.483354	23.57717	215.3625	0	11.68	4003	0	0	5	5	0.5237607	0.4898825	1	15	0.04	1900	41.80738	40.92392	-91.39364
577310	-2760	-245	-4895	-0.965745	24.72026	231.9581	0	11.68	4002	0	0	5	5	0.5237607	0.4964515	1	15	0.04	1900	27.39317	40.92392	-91.39364
577467	-2801	2066	-4334	-3.661412	24.07205	242.359	0	11.68	4002	0	0	5	5	0.5237607	0.4934054	1	15	0.04	1900	19.08861	40.92392	-91.39364
577592	-2358	1273	-2203	-7.983662	20.26605	248.1091	0	11.68	4002	0	0	5	5	0.5237607	0.4991868	1	15	0.04	1900	9.876281	40.92392	-91.39364
577634	-431	822	-2625	-8.153542	20.26605	248.1091	0	11.68	4002	0	0	5	5	0.5237607	0.5007917	1	15	0.04	1900	9.876281	40.92392	-91.39364
577762	339	345	-1759	-5.59653	20.53067	254.5133	0	11.68	4003	0	0	5	5	0.5237607	0.5078949	1	15	0.04	1900	3.860354	40.92392	-91.39364
577825	810	-1165	-2472	-2.903368	21.9903	257.716	0	11.68	4004	0	0	5	5	0.5237607	0.5066434	1	15	0.04	1900	-1.968781	40.92392	-91.39364
578005	3528	-3331	1408	8.218395	30.0672	259.6654	0	11.68	4002	0	0	5	5	0.5237607	0.50139	1	15	0.04	1900	-7.329865	40.92392	-91.39364
578072	4274	-1848	3896	11.14767	32.72369	256.7254	0	11.68	4002	0	0	5	5	0.5237607	0.5051929	1	15	0.04	1900	-4.313904	40.92392	-91.39364
578129	966	1002	1458	12.61771	33.52909	253.1227	0	11.68	4004	0	0	5	5	0.5237607	0.504492	1	15	0.04	1900	-0.1436462	40.92392	-91.39364
578316	-922	-769	-2068	15.90771	28.87296	256.2854	0	11.68	4003	0	0	5	5	0.5237607	0.4909094	1	15	0.04	1900	-2.323151	40.92392	-91.39364
578423	-2150	184	-1720	12.50426	28.4599	258.8441	0	11.68	4004	0	0	5	5	0.5237607	0.486405	1	15	0.04	1900	-3.046356	40.92392	-91.39364
578590	-717	1035	-1356	16.30361	26.21679	267.2527	0	11.68	4002	0	0	5	5	0.5237607	0.4724876	1	15	0.04	1900	-13.47992	40.92392	-91.39364
578681	-1102	1313	-2032	16.02948	22.83515	269.3876	0	11.68	4004	0	0	5	5	0.5237607	0.4699102	1	15	0.04	1900	-18.04321	40.92392	-91.39364
578800	-224	-491	-1724	16.08944	20.47771	274.0363	0	11.68	4002	0	0	5	5	0.5237607	0.4714921	1	15	0.04	1900	-19.79434	40.92392	-91.39364
578875	-227	-2254	-149	15.99166	22.79964	275.5307	0	11.68	4004	0	0	5	5	0.5237607	0.4695073	1	15	0.04	1900	-20.58716	40.92392	-91.39364
578983	204	-3089	-765	15.3152	26.96399	275.8209	0	11.68	4003	0	0	5	5	0.5237607	0.4606433	1	15	0.04	1900	-20.96451	40.92392	-91.39364
579060	-501	-3667	-935	15.33552	30.20191	276.8891	0	11.68	4003	0	0	5	5	0.5237607	0.4523003	1	15	0.04	1900	-20.55237	40.92392	-91.39364
579209	-4021	-3680	-4857	11.81569	35.93894	281.8175	0	11.68	4003	0	0	5	5	0.5237607	0.4386631	1	15	0.04	1900	-21.7305	40.92392	-91.39364
579264	-2723	-1507	-5927	11.38452	38.18446	287.9609	0	11.68	4002	0	0	5	5	0.5237607	0.4357794	1	15	0.04	1900	-27.70828	40.92392	-91.39364
579379	-4412	-3224	-3620	8.389154	42.05113	300.6091	0	11.68	4003	0	0	5	5	0.5237607	0.4313506	1	15	0.04	1900	-34.58441	40.92392	-91.39364
579523	-5162	5004	5956	-3.725483	40.72509	297.1725	0	11.68	4002	0	0	5	5	0.5237607	0.4256673	1	15	0.04	1900	-31.87799	40.92392	-91.39364
579569	-2563	6754	8104	-10.11405	33.18156	289.0878	0	11.68	4003	0	0	5	5	0.5237607	0.4247502	1	15	0.04	1900	-28.82117	40.92392	-91.39364
579711	826	4563	5848	-10.98192	15.69485	273.2419	0	11.68	4003	0	0	5	5	0.5237607	0.4312516	1	15	0.04	1900	-23.31195	40.92392	-91.39364
579826	3350	3241	5286	-5.541558	7.724581	264.2837	0	11.68	4002	0	0	5	5	0.5237607	0.4332509	1	15	0.04	1900	-20.23135	40.92392	-91.39364
579894	2474	-2659	3961	-1.128036	6.96894	256.9592	0	11.68	4002	0	0	5	5	0.5237607	0.4325009	1	15	0.04	1900	-13.37457	40.92392	-91.39364
579957	2604	-2434	2442	1.508928	10.40403	253.4459	0	11.68	4003	0	0	5	5	0.5237607	0.413507	1	15	0.04	1900	-10.43185	40.92392	-91.39364
580137	-2112	1971	720	1.22655	7.085671	250.0761	0	11.63	4003	0	0	5	5	0.5237607	0.3740675	1	15	0.04	1900	-7.83374	40.92392	-91.39364
580186	-1726	-951	-3404	-1.675997	7.13513	252.5027	0	11.63	4003	0	0	5	5	0.5237607	0.3590849	1	15	0.04	1900	-7.844238	40.92392	-91.39364
580390	-3339	5212	-1334	-2.211165	-1.160658	258.2274	0	11.63	4002	0	0	5	5	0.5237607	0.2879463	1	15	0.04	1900	-16.052	40.92392	-91.39364
580600	781	-1036	-434	-6.843545	-6.657176	259.4777	0	11.63	4002	0	0	5	5	0.5237607	0.2011627	1	15	0.04	1900	-15.81039	40.92392	-91.39364
580720	-232	112	-48	-7.228981	-7.333797	259.3817	0	11.63	4002	0	0	5	5	0.5237607	0.1616252	1	15	0.04	1900	-15.93506	40.92392	-91.39364
580782	-119	79	-22	-7.283974	-7.447419	259.3914	0	11.63	4004	0	0	5	5	0.5237607	0.1176421	1	15	0.04	1900	-15.68515	40.92392	-91.39364
580960	-46	-27	16	-7.379379	-7.635894	259.3705	0	11.68	4003	0	0	5	5	0.5237607	0.06099524	1	15	0.04	1900	-15.6087	40.92392	-91.39364
581032	-101	42	-6	-7.4074	-7.710664	259.3655	0	11.68	4003	0	0	5	5	0.5237607	0.03136855	1	15	0.04	1900	-15.56223	40.92392	-91.39364
581144	-88	17	5	-7.456576	-7.826136	259.3555	0	11.68	4002	0	0	5	5	0.5237607	-0.006599274	1	15	0.04	1900	-15.67563	40.92392	-91.39364
581221	-57	-16	13	-7.481594	-7.882574	259.3474	0	11.68	4004	0	0	5	5	0.5237607	-0.02999967	1	15	0.04	1900	-15.55829	40.92392	-91.39364
581329	-59	-14	8	-7.522698	-7.990296	259.3363	0	11.68	4004	0	0	5	5	0.5237607	-0.04408012	1	15	0.04	1900	-15.582	40.92392	-91.39364
581400	-86	15	1	-7.526842	-8.011624	259.3338	0	11.68	4004	0	0	5	5	0.5237607	-0.04883379	1	15	0.04	1900	-15.582	40.92392	-91.39364
581545	-72	-10	11	-7.585596	-8.138526	259.3122	0	11.68	4004	0	0	5	5	0.5237607	-0.06356481	1	15	0.04	1900	-15.76944	40.92392	-91.39364
581597	-78	7	-1	-7.590536	-8.14917	259.3092	0	11.68	4004	0	0	5	5	0.5237607	-0.06858061	1	15	0.04	1900	-15.45169	40.92392	-91.39364
581696	-79	19	0	-7.613999	-8.206457	259.2957	0	11.68	4002	0	0	5	5	0.5237607	-0.07695207	1	15	0.04	1900	-15.48563	40.92392	-91.39364
581752	-68	-4	7	-7.628252	-8.235738	259.2898	0	11.68	4003	0	0	5	5	0.5237607	-0.07985666	1	15	0.04	1900	-15.47556	40.92392	-91.39364
581952	-72	-3	6	-7.642167	-8.313687	259.2694	0	11.68	4002	0	0	5	5	0.5237607	-0.08250171	1	15	0.04	1900	-15.70966	40.92392	-91.39364
582164	-64	-8	6	-7.656811	-8.349448	259.2585	0	11.68	4003	0	0	5	5	0.5237607	-0.07745028	1	15	0.04	1900	-15.39975	40.92392	-91.39364
582362	-65	-6	12	-7.676116	-8.389417	259.2404	0	11.68	4003	0	0	5	5	0.5237607	-0.08544943	1	15	0.04	1900	-15.51685	40.92392	-91.39364
582503	-72	3	4	-7.686516	-8.413835	259.2257	0	11.68	4004	0	0	5	5	0.5237607	-0.09190067	1	15	0.04	1900	-15.68524	40.92392	-91.39364
582561	-73	-1	6	-7.689785	-8.423603	259.22	0	11.68	4003	0	0	5	5	0.5237607	-0.09770618	1	15	0.04	1900	-15.45642	40.92392	-91.39364
582675	-63	6	4	-7.694562	-8.433137	259.2121	0	11.68	4002	0	0	5	5	0.5237607	-0.1094243	1	15	0.04	1900	-15.53	40.92392	-91.39364
582824	-68	2	8	-7.696426	-8.45344	259.2009	0	11.68	4003	0	0	5	5	0.5237607	-0.1366479	1	15	0.04	1900	-15.4537	40.92392	-91.39364
582926	-67	0	9	-7.698236	-8.46186	259.1917	0	11.68	4004	0	0	5	5	0.5237607	-0.1558258	1	15	0.04	1900	-15.47516	40.92392	-91.39364
583078	-81	6	8	-7.697172	-8.477315	259.1753	0	11.68	4003	0	0	5	5	0.5237607	-0.1872876	1	15	0.04	1900	-15.46173	40.92392	-91.39364
583191	-73	1	3	-7.708722	-8.482327	259.1603	0	11.68	4003	0	0	5	5	0.5237607	-0.1947944	1	15	0.04	1900	-15.62378	40.92392	-91.39364
583285	-74	3	0	-7.710907	-8.484102	259.1554	0	11.68	4003	0	0	5	5	0.5237607	-0.1963799	1	15	0.04	1900	-15.69952	40.92392	-91.39364
583451	-69	-1	7	-7.713912	-8.489518	259.1425	0	11.68	4004	0	0	5	5	0.5237607	-0.1963749	1	15	0.04	1900	-15.67398	40.92392	-91.39364
583681	-78	2	3	-7.703532	-8.498693	259.1226	0	11.68	4002	0	0	5	5	0.5237607	-0.2006772	1	15	0.04	1900	-15.69318	40.92392	-91.39364
583886	-73	1	2	-7.701705	-8.493633	259.1043	0	11.68	4002	0	0	5	5	0.5237607	-0.2135787	1	15	0.04	1900	-15.54831	40.92392	-91.39364
584070	-64	9	2	-7.701551	-8.493154	259.0921	0	11.68	4002	0	0	5	5	0.5237607	-0.2103684	1	15	0.04	1900	-15.54407	40.92392	-91.39364
584175	-74	1	6	-7.69803	-8.499281	259.085	0	11.68	4002	0	0	5	5	0.5237607	-0.2096011	1	15	0.04	1900	-15.47266	40.92392	-91.39364
584329	-74	5	3	-7.700361	-8.497787	259.0733	0	11.68	4004	0	0	5	5	0.5237607	-0.2077023	1	15	0.04	1900	-15.51077	40.92392	-91.39364
584394	-71	0	6	-7.702672	-8.494348	259.0641	0	11.68	4003	0	0	5	5	0.5237607	-0.2105823	1	15	0.04	1900	-15.46332	40.92392	-91.39364
584446	-75	-1	3	-7.698258	-8.499872	259.0584	0	11.68	4002	0	0	5	5	0.5237607	-0.2112715	1	15	0.04	1900	-15.46332	40.92392	-91.39364
584601	-64	6	6	-7.701667	-8.498789	259.0484	0	11.63	4002	0	0	5	5	0.5237607	-0.2102255	1	15	0.04	1900	-15.41092	40.92392	-91.39364
584679	-74	-1	0	-7.70448	-8.499281	259.0435	0	11.63	4003	0	0	5	5	0.5237607	-0.2096059	1	15	0.04	1900	-15.48395	40.92392	-91.39364
584806	-71	3	2	-7.702991	-8.50106	259.0358	0	11.63	4002	0	0	5	5	0.5237607	-0.2081795	1	15	0.04	1900	-15.48682	40.92392	-91.39364
584965	-66	2	6	-7.699804	-8.507236	259.0237	0	11.63	4004	0	0	5	5	0.5237607	-0.2186053	1	15	0.04	1900	-15.4938	40.92392	-91.39364
585071	-72	-1	1	-7.698692	-8.509317	259.0174	0	11.63	4003	0	0	5	5	0.5237607	-0.2236591	1	15	0.04	1900	-15.47388	40.92392	-91.39364
585150	-69	4	5	-7.701827	-8.510348	259.0127	0	11.63	4006	0	0	5	5	0.5237607	-0.2265236	1	15	0.04	1900	-15.49597	40.92392	-91.39364
585399	-73	2	4	-7.70398	-8.50585	258.9936	0	11.63	4004	0	0	5	5	0.5237607	-0.2303661	1	15	0.04	1900	-15.69992	40.92392	-91.39364
585599	-71	0	0	-7.706349	-8.507375	258.9812	0	11.68	4003	0	0	5	5	0.5237607	-0.2371436	1	15	0.04	1900	-15.71365	40.92392	-91.39364
585682	-73	-1	7	-7.704062	-8.505558	258.9777	0	11.68	4003	0	0	5	5	0.5237607	-0.2346667	1	15	0.04	1900	-15.54767	40.92392	-91.39364
585740	-73	0	3	-7.705379	-8.503137	258.9738	0	11.68	4003	0	0	5	5	0.5237607	-0.234013	1	15	0.04	1900	-15.75433	40.92392	-91.39364
585838	-69	3	3	-7.699282	-8.503841	258.9691	0	11.68	4003	0	0	5	5	0.5237607	-0.2326981	1	15	0.04	1900	-15.53033	40.92392	-91.39364
586043	-68	0	2	-7.704554	-8.502282	258.9608	0	11.68	4002	0	0	5	5	0.5237607	-0.2275022	1	15	0.04	1900	-15.56799	40.92392	-91.39364
586102	-72	5	6	-7.698439	-8.505484	258.9577	0	11.68	4003	0	0	5	5	0.5237607	-0.2316331	1	15	0.04	1900	-15.55783	40.92392	-91.39364
586178	-63	5	2	-7.696332	-8.507492	258.9475	0	11.68	4003	0	0	5	5	0.5237607	-0.2390199	1	15	0.04	1900	-15.78763	40.92392	-91.39364
586300	-66	4	-3	-7.693577	-8.506132	258.9429	0	11.68	4003	0	0	5	5	0.5237607	-0.2452554	1	15	0.04	1900	-15.64438	40.92392	-91.39364
586444	-67	1	1	-7.695674	-8.507339	258.9394	0	11.68	4004	0	0	5	5	0.5237607	-0.2537014	1	15	0.04	1900	-15.48358	40.92392	-91.39364
586594	-67	4	3	-7.691829	-8.506207	258.9256	0	11.68	4004	0	0	5	5	0.5237607	-0.2396313	1	15	0.04	1900	-15.56555	40.92392	-91.39364
586747	-74	4	6	-7.685551	-8.509619	258.9161	0	11.68	4004	0	0	5	5	0.5237607	-0.2376231	1	15	0.04	1900	-15.43127	40.92392	-91.39364
586907	-69	6	5	-7.676354	-8.518817	258.9059	0	11.68	4003	0	0	5	5	0.5237607	-0.2457297	1	15	0.04	1900	-15.75751	40.92392	-91.39364
587019	-68	2	4	-7.674269	-8.51778	258.8991	0	11.68	4004	0	0	5	5	0.5237607	-0.2428375	1	15	0.04	1900	-15.74002	40.92392	-91.39364
587167	-69	-2	12	-7.669028	-8.515701	258.8894	0	11.68	4003	0	0	5	5	0.5237607	-0.2387211	1	15	0.04	1900	-15.74667	40.92392	-91.39364
587203	-73	4	0	-7.671487	-8.515701	258.8894	0	11.68	4004	0	0	5	5	0.5237607	-0.2393569	1	15	0.04	1900	-15.74667	40.92392	-91.39364
587327	-62	0	1	-7.67182	-8.514262	258.8784	0	11.68	4004	0	0	5	5	0.5237607	-0.2355855	1	15	0.04	1900	-15.59982	40.92392	-91.39364
587481	-72	2	2	-7.666101	-8.518664	258.8651	0	11.68	4002	0	0	5	5	0.5237607	-0.230996	1	15	0.04	1900	-15.54733	40.92392	-91.39364
587539	-65	6	3	-7.658674	-8.521085	258.8611	0	11.68	4004	0	0	5	5	0.5237607	-0.2296222	1	15	0.04	1900	-15.54733	40.92392	-91.39364
587620	-64	3	7	-7.654181	-8.516177	258.8513	0	11.68	4002	0	0	5	5	0.5237607	-0.230634	1	15	0.04	1900	-15.7879	40.92392	-91.39364
587760	-63	0	1	-7.651952	-8.516831	258.8427	0	11.68	4003	0	0	5	5	0.5237607	-0.2331689	1	15	0.04	1900	-15.54343	40.92392	-91.39364
587845	-66	0	4	-7.644511	-8.516437	258.8365	0	11.68	4002	0	0	5	5	0.5237607	-0.2287579	1	15	0.04	1900	-15.64026	40.92392	-91.39364
587920	-69	5	3	-7.645844	-8.511882	258.8322	0	11.68	4003	0	0	5	5	0.5237607	-0.2252769	1	15	0.04	1900	-15.78635	40.92392	-91.39364
588054	-71	1	0	-7.643596	-8.520518	258.8233	0	11.68	4003	0	0	5	5	0.5237607	-0.2163559	1	15	0.04	1900	-15.78851	40.92392	-91.39364
588125	-65	4	3	-7.642694	-8.522135	258.8159	0	11.68	4003	0	0	5	5	0.5237607	-0.2154364	1	15	0.04	1900	-15.53934	40.92392	-91.39364
588194	-65	2	2	-7.634612	-8.526162	258.8125	0	11.68	4004	0	0	5	5	0.5237607	-0.2190211	1	15	0.04	1900	-15.80994	40.92392	-91.39364
588329	-65	-1	6	-7.640318	-8.527707	258.8051	0	11.68	4004	0	0	5	5	0.5237607	-0.2338984	1	15	0.04	1900	-15.50656	40.92392	-91.39364
588407	-71	6	6	-7.637782	-8.519158	258.7978	0	11.68	4004	0	0	5	5	0.5237607	-0.2362043	1	15	0.04	1900	-15.58829	40.92389	-91.39363
588552	-74	0	5	-7.64106	-8.514452	258.7883	0	11.68	4002	0	0	5	5	0.5237607	-0.2293727	1	15	0.04	1900	-15.56271	40.92381	-91.39362
588749	-61	-1	5	-7.631181	-8.521084	258.776	0	11.68	4004	0	0	5	5	0.5237607	-0.2138182	1	15	0.04	1900	-15.57336	40.92371	-91.39362
588908	-65	9	5	-7.631125	-8.525124	258.7664	0	11.68	4002	0	0	5	5	0.5237607	-0.218906	1	15	0.04	1900	-15.7804	40.92363	-91.39361
588987	-67	4	5	-7.631763	-8.52611	258.7615	0	11.68	4004	0	0	5	5	0.5237607	-0.223254	1	15	0.04	1900	-15.57462	40.92358	-91.39361
589072	-67	3	8	-7.633934	-8.519628	258.7523	0	11.63	4004	0	0	5	5	0.5237607	-0.2317838	1	15	0.04	1900	-15.57266	40.92358	-91.39361
589229	-62	3	9	-7.633757	-8.526057	258.7462	0	11.63	4002	0	0	5	5	0.5237607	-0.2406297	1	15	0.04	1900	-15.57224	40.92358	-91.3936
589404	-62	4	7	-7.637448	-8.523538	258.7318	0	11.63	4004	0	0	5	5	0.5237607	-0.2452587	1	15	0.04	1900	-15.59048	40.92358	-91.3936
589460	-64	8	4	-7.637046	-8.525229	258.7294	0	11.63	4004	0	0	5	5	0.5237607	-0.2500503	1	15	0.04	1900	-15.79816	40.92358	-91.3936
589633	-60	4	4	-7.64573	-8.523862	258.7168	0	11.63	4003	0	0	5	5	0.5237607	-0.2679762	1	15	0.04	1900	-15.61679	40.92358	-91.3936
589768	-66	6	6	-7.64536	-8.525225	258.7134	0	11.63	4003	0	0	5	5	0.5237607	-0.2721984	1	15	0.04	1900	-15.57959	40.92358	-91.3936
589818	-64	0	1	-7.634912	-8.528845	258.7055	0	11.63	4003	0	0	5	5	0.5237607	-0.2682475	1	15	0.04	1900	-15.65802	40.92358	-91.3936
589945	-62	6	4	-7.630619	-8.535285	258.6987	0	11.63	4003	0	0	5	5	0.5237607	-0.2539695	1	15	0.04	1900	-15.51602	40.92358	-91.3936
590066	-61	0	7	-7.617216	-8.53471	258.6884	0	11.63	4002	0	0	5	5	0.5237607	-0.2447692	1	15	0.04	1900	-15.52991	40.92358	-91.3936
590133	-72	7	0	-7.624545	-8.536191	258.6841	0	11.63	4004	0	0	5	5	0.5237607	-0.2295328	1	15	0.04	1900	-15.62167	40.92358	-91.3936
590272	-72	1	2	-7.612285	-8.534155	258.6782	0	11.63	4003	0	0	5	5	0.5237607	-0.2100983	1	15	0.04	1900	-15.60284	40.92358	-91.39361
590508	-57	4	1	-7.609379	-8.525444	258.6617	0	11.63	4003	0	0	5	5	0.5237607	-0.2055069	1	15	0.04	1900	-15.85367	40.92358	-91.39361
590679	-62	1	2	-7.598538	-8.528046	258.6513	0	11.63	4003	0	0	5	5	0.5237607	-0.1870477	1	15	0.04	1900	-15.74368	40.92358	-91.39361
590861	-62	0	6	-7.59139	-8.526573	258.6423	0	11.63	4003	0	0	5	5	0.5237607	-0.1715966	1	15	0.04	1900	-15.81754	40.92358	-91.39362
590942	-64	1	1	-7.600568	-8.53015	258.6365	0	11.63	4004	0	0	5	5	0.5237607	-0.1665389	1	15	0.04	1900	-15.65082	40.92358	-91.39362
591034	-58	1	0	-7.600215	-8.531427	258.6335	0	11.63	4004	0	0	5	5	0.5237607	-0.1505736	1	15	0.04	1900	-15.64362	40.92358	-91.39362
591083	-59	2	0	-7.599726	-8.532922	258.6291	0	11.63	4002	0	0	5	5	0.5237607	-0.1418268	1	15	0.04	1900	-15.85413	40.92358	-91.39362
591217	-68	2	3	-7.607229	-8.530816	258.6237	0	11.63	4002	0	0	5	5	0.5237607	-0.1346516	1	15	0.04	1900	-15.62228	40.92357	-91.39362
