time(ms)	gyro_x(deg/s)	gyro_y(deg/s)	gyro_z(deg/s)	orientation_roll(deg)	orientation_pitch(deg)	orientation_yaw(deg)	throttle	battery(V)	loop_time(uS)	pid_output_roll	pid_output_pitch	pid_output_yaw	pid_output_throttle	ultrasonic_alt	baro_alt	flight_mode	p_gain_altitude	i_gain_altitude	d_gain_altitude	compass_heading	latitude	longitude
692066	-831	-984	541	0.04358198	1.186105	-0.03689279	0	10.72	4004	0	0	5	5	0.06962903	0.5067091	8	15	0.04	2100	-96.34967	40.92379	-91.39367
692159	-1443	-247	-658	-6.017037	-12.68987	0.940802	0	10.72	4002	0	0	5	5	0.06962903	0.4701321	8	15	0.04	2100	-97.56589	40.92379	-91.39367
692288	2540	-1391	108	1.21175	-3.199806	2.569698	0	10.04	4004	0	0	5	5	0.06962903	0.4054742	8	15	0.04	2100	-89.96814	40.92379	-91.39367
692335	-1041	-1071	-210	1.487396	-2.848881	2.437325	0	10.04	4004	0	0	5	5	0.06962903	0.3840667	8	15	0.04	2100	-89.96814	40.92379	-91.39367
692449	6	-1753	1550	0.9339345	-3.559481	0.1540217	0	10.04	4002	0	0	5	5	0.06962903	0.3636084	8	15	0.04	2100	-90.98978	40.92379	-91.39367
692503	2535	-2102	911	1.830985	-1.720249	-0.5825098	0	10.04	4003	0	0	5	5	0.06962903	0.3625119	8	15	0.04	2100	-92.34247	40.92379	-91.39366
692687	441	-138	93	5.103369	-0.7586176	0.3328263	0	10.04	4003	0	0	5	5	0.06962903	0.3926938	8	15	0.04	2100	-96.12643	40.92379	-91.39366
692770	2198	100	625	6.951087	-2.967282	0.5594621	0	10.04	4002	0	0	5	5	0.06962903	0.4190418	8	15	0.04	2100	-99.77136	40.92379	-91.39366
692840	-299	-878	78	7.712608	-3.489047	0.7627314	0	10.04	4003	0	0	5	5	0.06962903	0.4474297	8	15	0.04	2100	-99.94189	40.92379	-91.39366
693027	-165	-2048	504	2.676523	1.048434	-0.06134646	0	10.04	4002	0	0	5	5	0.06962903	0.5273843	8	15	0.04	2100	256.8251	40.92379	-91.39366
693187	-556	398	-485	0.8269662	2.03289	-0.1377741	0	11.29	4004	0	0	5	5	0.06962903	0.5627486	8	15	0.04	2100	254.9123	40.9238	-91.39366
693231	-381	153	498	0.5815951	1.510279	-0.1396532	0	11.29	4004	0	0	5	5	0.06962903	0.5719208	8	15	0.04	2100	251.69	40.9238	-91.39366
693297	557	98	-249	0.48873	0.6927891	0.1173684	0	11.29	4002	0	0	5	5	0.06962903	0.5787559	8	15	0.04	2100	251.422	40.9238	-91.39366
693401	-563	-769	696	0.2421637	1.085883	0.1599202	0	11.29	4004	0	0	5	5	0.06962903	0.5832599	8	15	0.04	2100	248.8936	40.92381	-91.39366
693529	207	-19	282	0.5065752	0.2652886	0.06559123	0	11.29	4002	0	0	5	5	0.06962903	0.5700564	8	15	0.04	2100	247.4057	40.92381	-91.39366
693614	124	1777	-630	0.4615256	-0.9919997	0.2453858	0	11.29	4003	0	0	5	5	0.06962903	0.5628458	8	15	0.04	2100	244.3928	40.92381	-91.39366
693700	-924	197	262	0.8400509	-4.711391	0.2731113	0	11.29	4003	0	0	5	5	0.06962903	0.5497662	8	15	0.04	2100	248.3717	40.92381	-91.39366
693826	-4587	8245	341	-5.578343	-12.76145	-2.002497	0	11.29	4004	0	0	5	5	0.06962903	0.5027667	8	15	0.04	2100	249.6346	40.92381	-91.39366
693947	3616	-5546	153	-6.899321	-12.6695	-2.798187	0	11.29	4003	0	0	5	5	0.06962903	0.4535149	8	15	0.04	2100	-90.45337	40.92381	-91.39366
694052	2039	1047	-899	0.2525049	-4.005879	-0.1621078	0	10.66	4003	0	0	5	5	0.06962903	0.4147639	8	15	0.04	2100	-98.04922	40.92381	-91.39366
694197	-122	-2281	-567	1.196827	-3.444769	1.348822	0	10.66	4004	0	0	5	5	0.06962903	0.3803934	8	15	0.04	2100	-98.19125	40.92381	-91.39366
694231	440	-645	704	0.5504324	-1.5932	1.697154	0	10.66	4003	0	0	5	5	0.06962903	0.3810858	8	15	0.04	2100	-98.19125	40.92381	-91.39366
694405	189	-2463	94	3.8274	-4.462564	0.8091602	0	10.66	4003	0	0	5	5	0.06962903	0.4145731	8	15	0.04	2100	-99.07809	40.92381	-91.39366
694477	-1003	-2906	663	3.134376	-0.4607571	1.404543	0	10.66	4003	0	0	5	5	0.06962903	0.4358294	8	15	0.04	2100	254.4138	40.92381	-91.39366
694615	-2184	-1776	-487	3.752199	-0.590624	2.066087	0	10.66	4003	0	0	5	5	0.06962903	0.4999582	8	15	0.04	2100	256.5768	40.92381	-91.39366
694712	-828	-852	886	-0.2772477	2.091354	2.771997	0	10.66	4002	0	0	5	5	0.06962903	0.5414891	8	15	0.04	2100	249.6689	40.92381	-91.39366
694846	159	-309	1970	-0.6219499	1.315019	1.020779	0	10.66	4003	0	0	5	5	0.06962903	0.5934844	8	15	0.04	2100	247.4535	40.92381	-91.39366
694948	699	-468	-360	0.7727157	2.808736	-1.049571	0	10.66	4002	0	0	5	5	0.06962903	0.6074133	8	15	0.04	2100	250.4495	40.92382	-91.39366
695141	-118	458	-297	-0.04591092	3.050575	-0.160125	0	10.66	4002	0	0	5	5	0.06962903	0.6742128	8	15	0.04	2100	248.6045	40.92382	-91.39366
695292	-827	1756	862	0.06051155	1.25931	-0.1325915	0	10.66	4004	0	0	5	5	0.06962903	0.677745	8	15	0.04	2100	249.3356	40.92382	-91.39366
695378	162	2582	16	-0.7443913	-1.494474	-0.4550477	0	10.66	4003	0	0	5	5	0.06962903	0.671016	8	15	0.04	2100	247.5481	40.92382	-91.39366
695505	182	325	-1008	0.8495887	-5.663932	-0.4252838	0	10.66	4004	0	0	5	5	0.06962903	0.642069	8	15	0.04	2100	255.5671	40.92382	-91.39366
695555	-460	-1265	-448	0.6266535	-4.892826	-0.2536169	0	10.66	4003	0	0	5	5	0.06962903	0.618458	8	15	0.04	2100	256.6658	40.92382	-91.39366
695606	-99	-1624	-100	0.5532698	-4.06861	0.07007242	0	10.66	4002	0	0	5	5	0.06962903	0.6095499	8	15	0.04	2100	256.6658	40.92383	-91.39366
695757	3071	2361	572	-4.927346	-14.39278	0.695309	0	10.66	4003	0	0	5	5	0.06962903	0.5044014	8	15	0.04	2100	-92.00467	40.92383	-91.39366
695834	5127	-2879	-823	0.5997229	-12.37479	1.299167	0	10.66	4002	0	0	5	5	0.06962903	0.475859	8	15	0.04	2100	-89.56085	40.92383	-91.39366
695990	3539	2753	126	1.652895	-4.397759	4.207887	0	10.66	4007	0	0	5	5	0.06962903	0.3968018	8	15	0.04	2100	-94.1774	40.92382	-91.39366
696062	2803	1135	2887	6.239399	-5.094169	3.005881	0	10.66	4004	0	0	5	5	0.06962903	0.3815241	8	15	0.04	2100	-94.1774	40.92382	-91.39366
696215	300	-607	548	8.529844	-1.292378	0.3783365	0	10.66	4003	0	0	5	5	0.06962903	0.3746629	8	15	0.04	2100	-88.0369	40.92382	-91.39366
696406	-946	134	-577	5.859632	-0.2797836	1.829361	0	10.66	4002	0	0	5	5	0.06962903	0.4019983	8	15	0.04	2100	-94.09256	40.92382	-91.39367
696503	-370	-1054	505	2.05807	-0.6156279	1.733807	0	10.66	4003	0	0	5	5	0.06962903	0.4479271	8	15	0.04	2100	-98.7301	40.92382	-91.39367
696565	-418	-536	531	2.426713	-1.080118	1.439853	0	10.66	4002	0	0	5	5	0.06962903	0.4755605	8	15	0.04	2100	-99.39795	40.92382	-91.39367
696638	-600	-1418	158	1.910484	-0.5633349	0.9244785	0	10.66	4003	0	0	5	5	0.06962903	0.5048786	3	15	0.04	2100	259.2467	40.92382	-91.39367
696691	-915	-1791	944	1.213114	0.8225799	0.3528115	0	10.66	4003	0	0	5	5	0.06962903	0.5399122	3	15	0.04	2100	259.2467	40.92382	-91.39367
696826	-1637	-1503	754	-1.567448	3.797	-0.2608258	0	11.11	4003	0	0	5	5	0.06962903	0.5986003	3	15	0.04	2100	248.2583	40.92382	-91.39366
696961	-777	-798	179	-2.961983	5.086112	-0.4522021	0	11.11	4004	0	0	5	5	0.06962903	0.6948062	3	15	0.04	2100	244.8397	40.92382	-91.39366
697071	-223	4651	1239	-4.326211	0.1521521	-0.6008985	0	11.11	4003	0	0	5	5	0.06962903	0.7614223	3	15	0.04	2100	235.94	40.92382	-91.39366
697089	-223	4651	1239	-4.326211	0.1521521	-0.6008985	0	11.11	4003	0	0	5	5	0.06962903	0.7844164	3	15	0.04	2100	235.94	40.92382	-91.39366
697289	684	3156	-1361	-3.945562	2.336114	0.7093078	0	11.11	4002	0	0	5	5	0.06962903	0.8883059	3	15	0.04	2100	241.5579	40.92382	-91.39366
697366	246	2278	34	-2.866829	-0.5032409	1.33367	0	11.11	4003	0	0	5	5	0.06962903	0.9067524	3	15	0.04	2100	243.5245	40.92382	-91.39366
697449	346	-1060	712	-1.636025	-0.7434047	0.8423089	0	11.11	4004	0	0	5	5	0.06962903	0.925842	3	15	0.04	2100	245.0455	40.92382	-91.39366
697557	924	-708	215	-0.2189957	0.694943	-0.1386983	0	11.11	4004	0	0	5	5	0.06962903	0.9466162	3	15	0.04	2100	244.4951	40.92382	-91.39365
697591	1483	384	-460	0.7320413	0.5288097	-0.2196386	0	11.11	4003	0	0	5	5	0.06962903	0.9480411	3	15	0.04	2100	244.8916	40.92382	-91.39365
697750	-1043	614	-564	-0.1064642	-0.6319117	-0.7027178	0	10.43	4003	0	0	5	5	0.06962903	0.9476214	3	15	0.04	2100	247.7939	40.92382	-91.39366
697858	-126	5537	-57	-1.55139	-4.083513	0.2389787	0	10.43	4003	0	0	5	5	0.06962903	0.9341955	3	15	0.04	2100	241.5531	40.83299	-67.36729
697945	1390	653	866	-1.750975	-7.666727	1.140222	0	10.43	4002	0	0	5	5	0.06962903	0.9182686	3	15	0.04	2100	251.5181	40.77244	-51.3497
698052	3376	4427	-211	-1.594297	-7.908495	0.6072012	0	10.43	4004	0	0	5	5	0.06962903	0.9033756	3	15	0.04	2100	254.7284	40.77244	-51.3497
698137	-2475	-1223	322	0.9747365	-11.31912	2.131496	0	10.43	4004	0	0	5	5	0.06962903	0.8902126	3	15	0.04	2100	-95.14474	40.77244	-51.3497
698186	-2840	208	790	-1.162431	-10.69007	2.023018	0	10.43	4003	0	0	5	5	0.06962903	0.8744746	3	15	0.04	2100	-93.1329	40.77244	-51.3497
698243	1637	-1006	-1366	-3.113824	-8.606473	2.916397	0	10.43	4003	0	0	5	5	0.06962903	0.8529006	3	15	0.04	2100	-93.48846	40.77244	-51.3497
698347	-1289	-2190	221	-3.338224	-3.579755	3.815395	0	10.43	4004	0	0	5	5	0.06962903	0.8384167	3	15	0.04	2100	-91.98685	40.77244	-51.34971
698483	975	-3053	1205	-2.621131	3.101609	1.99865	0	10.43	4003	0	0	5	5	0.06962903	0.8199959	3	15	0.04	2100	-93.70715	40.86327	-75.37608
698636	-221	-2571	-215	-0.1143665	3.258587	-0.2740952	0	11	4004	0	0	5	5	0.06962903	0.8189274	3	15	0.04	2100	-97.59039	40.92382	-91.39367
698709	1072	-1342	-849	0.3894008	5.078475	-0.156463	0	11	4003	0	0	5	5	0.06962903	0.8332005	3	15	0.04	2100	-99.36667	40.92382	-91.39367
698754	258	-65	-475	1.738509	4.674765	0.02620404	0	11	4003	0	0	5	5	0.06962903	0.8417463	3	15	0.04	2100	256.9019	40.92382	-91.39367
698909	110	1452	866	-0.1880563	6.41933	0.4054826	0	11	4003	0	0	5	5	0.06962903	0.847	3	15	0.04	2100	250.5618	40.92382	-91.39367
698965	-577	1659	611	-0.02358713	3.589628	0.1429843	0	11	4004	0	0	5	5	0.06962903	0.8436673	3	15	0.04	2100	251.2389	40.92382	-91.39367
699053	-183	-61	-9	-0.2519907	2.060286	-0.1218069	0	11	4003	0	0	5	5	0.06962903	0.838531	3	15	0.04	2100	251.9961	40.92381	-91.39367
699112	1061	3545	245	0.2341503	0.7483254	0.2637878	0	11	4003	0	0	5	5	0.06962903	0.8285076	3	15	0.04	2100	251.9961	40.92381	-91.39367
699353	894	-496	-37	4.154672	-3.926473	0.3450978	0	11	4003	0	0	5	5	0.06962903	0.8048499	3	15	0.04	2100	252.919	40.92381	-91.39368
699518	-1192	4395	2038	1.319159	-6.356442	-1.508475	0	10.49	4003	0	0	5	5	0.06962903	0.7694039	3	15	0.04	2100	-97.67102	40.92382	-91.39368
699757	-4108	-3832	-1284	1.028411	-6.214423	2.62721	0	10.49	4002	0	0	5	5	0.06962903	0.7189298	3	15	0.04	2100	258.1037	40.92382	-91.39368
699891	1529	1861	1824	-3.968005	1.466367	1.953752	0	10.49	4002	0	0	5	5	0.06962903	0.7068	3	15	0.04	2100	-91.64575	40.92382	-91.39368
699999	1808	-163	167	-0.1745324	-0.6214858	0.08680278	0	10.49	4004	0	0	5	5	0.06962903	0.6977735	3	15	0.04	2100	-89.79886	40.92382	-91.39368
700036	468	-40	617	0.3026458	-0.4749388	-0.4362236	0	10.49	4003	0	0	5	5	0.06962903	0.6985615	3	15	0.04	2100	-87.49088	40.92382	-91.39368
700169	3073	3425	797	2.519312	-1.955626	-0.4791499	0	10.49	4002	0	0	5	5	0.06962903	0.7039029	3	15	0.04	2100	-90.51437	40.92382	-91.39368
700315	1338	2200	-451	7.378406	-10.04552	0.905668	0	10.49	4002	0	0	5	5	0.06962903	0.7123942	3	15	0.04	2100	-87.20184	40.92381	-91.39368
700488	347	861	884	8.584554	-10.90936	1.063315	0	10.94	4003	0	0	5	5	0.06962903	0.7125468	3	15	0.04	2100	-86.89624	40.92381	-91.39368
700518	347	861	884	8.584554	-10.90936	1.063315	0	10.94	4003	0	0	5	5	0.06962903	0.713734	3	15	0.04	2100	-86.89624	40.92381	-91.39368
700680	1062	-3163	10	5.978462	-4.037519	0.9182003	0	10.94	4004	0	0	5	5	0.06962903	0.708634	3	15	0.04	2100	-82.47986	40.92381	-91.39368
700743	726	-2495	-149	7.430595	-2.098893	0.7299676	0	10.94	4003	0	0	5	5	0.06962903	0.7030712	3	15	0.04	2100	-93.06329	40.92381	-91.39368
700882	-200	-273	-321	6.8675	-3.280782	0.9873085	0	10.94	4003	0	0	5	5	0.06962903	0.6868445	3	15	0.04	2100	-93.00604	40.92381	-91.39368
701018	-1515	224	198	4.856352	-2.143661	0.4972448	0	10.94	4003	0	0	5	5	0.06962903	0.6453512	3	15	0.04	2100	-93.56076	40.92381	-91.39368
701090	-728	1961	-978	2.250825	-4.131118	-0.04128728	0	10.94	4003	0	0	5	5	0.06962903	0.6110603	3	15	0.04	2100	-96.21378	30.00938	-59.36185
701149	-4096	-326	-1350	0.6286795	-4.343783	-0.2448812	0	10.94	4003	0	0	5	5	0.06962903	0.583822	3	15	0.04	2100	-91.03348	27.28077	-51.35389
701264	-897	1929	-680	-2.814566	-6.595979	0.5351509	0	10.94	4002	0	0	5	5	0.06962903	0.5507742	3	15	0.04	2100	-84.41473	27.28077	-51.35389
701409	-342	-1498	278	-0.4030444	-3.586454	0.8343124	0	11.11	4003	0	0	5	5	0.06962903	0.4965598	3	15	0.04	2100	-83.50925	27.28077	-51.35389
701469	-1505	-2311	440	-1.371832	-1.463797	0.2124623	0	11.11	4003	0	0	5	5	0.06962903	0.4865334	3	15	0.04	2100	-88.02493	27.28077	-51.35389
701551	-264	-1174	265	-2.282112	0.2692429	-0.09550724	0	11.11	4003	0	0	5	5	0.06962903	0.471323	3	15	0.04	2100	-85.30429	27.28077	-51.35389
701588	872	1454	412	-1.541358	0.1488199	-0.4624117	0	11.11	4002	0	0	5	5	0.06962903	0.471323	3	15	0.04	2100	-85.30429	27.28078	-51.35389
701784	1021	-4683	-147	-0.4997881	-13.05741	-0.3575101	0	11.11	4004	0	0	5	5	0.06962903	0.4319181	3	15	0.04	2100	-81.67807	38.19521	-83.38573
701867	-438	493	7	1.398533	-7.286966	-0.313257	0	11.11	4002	0	0	5	5	0.06962903	0.4122168	3	15	0.04	2100	-84.7923	40.92381	-91.39368
701953	-19	-17	6	1.525805	-6.917946	-0.3288454	0	11.11	4003	0	0	5	5	0.06962903	0.3764657	3	15	0.04	2100	-84.90881	40.92381	-91.39368
702037	-72	85	34	1.528792	-6.670618	-0.327309	0	11.11	4002	0	0	5	5	0.06962903	0.3593367	3	15	0.04	2100	-83.26385	40.92381	-91.39368
702088	-77	6	-54	1.64158	-6.326497	-0.326944	0	11.11	4003	0	0	5	5	0.06962903	0.3352702	3	15	0.04	2100	-81.61987	40.92381	-91.39368
702212	-67	-28	31	1.680079	-5.984389	-0.3480358	0	11.17	4004	0	0	5	5	0.06962903	0.3142193	3	15	0.04	2100	-83.25815	40.92381	-91.39368
702275	-32	50	4	1.750883	-5.695609	-0.3616059	0	11.17	4002	0	0	5	5	0.06962903	0.3092378	3	15	0.04	2100	-81.93259	40.92381	-91.39368
702367	-32	10	42	1.785093	-5.509707	-0.3719352	0	11.17	4003	0	0	5	5	0.06962903	0.2747929	1	15	0.04	2100	-79.56302	40.92381	-91.39368
702488	-41	6	-15	1.834085	-5.206677	-0.3756662	0	11.17	4002	0	0	5	5	0.06962903	0.2525399	1	15	0.04	2100	-81.34396	40.92381	-91.39368
702571	-28	-8	-2	1.894135	-5.01254	-0.3924753	0	11.17	4002	0	0	5	5	0.06962903	0.2382275	1	15	0.04	2100	-79.93869	40.92381	-91.39368
702675	-50	10	24	1.911688	-4.899638	-0.4077589	0	11.17	4004	0	0	5	5	0.06962903	0.2089845	1	15	0.04	2100	-79.67178	40.92381	-91.39368
702791	-43	3	28	1.949874	-4.74563	-0.4180271	0	11.17	4003	0	0	5	5	0.06962903	0.1920435	1	15	0.04	2100	-79.5195	40.92381	-91.39368
702982	-34	3	6	2.002332	-4.493475	-0.4412522	0	11.17	4002	0	0	5	5	0.06962903	0.1515833	1	15	0.04	2100	-79.13821	40.92381	-91.39368
703013	-38	-4	0	2.020639	-4.421127	-0.448467	0	11.17	4003	0	0	5	5	0.06962903	0.1378621	1	15	0.04	2100	-79.20541	40.92381	-91.39368
703095	-33	-9	2	2.060816	-4.272094	-0.4625884	0	11.23	4007	0	0	5	5	0.06962903	0.1228728	1	15	0.04	2100	-77.50302	40.92381	-91.39368
703233	-32	9	-2	2.087956	-4.172762	-0.4729815	0	11.23	4003	0	0	5	5	0.06962903	0.1148646	1	15	0.04	2100	-77.52426	40.92381	-91.39368
703321	-36	-1	5	2.09798	-4.112541	-0.4787889	0	11.23	4002	0	0	5	5	0.06962903	0.10997	1	15	0.04	2100	-76.69531	40.92381	-91.39368
703358	-34	8	2	2.098951	-4.092955	-0.4814791	0	11.23	4004	0	0	5	5	0.06962903	0.1080062	1	15	0.04	2100	-76.69531	40.92381	-91.39368
703475	-30	1	6	2.114878	-4.037155	-0.4929731	0	11.23	4003	0	0	5	5	0.06962903	0.09970976	1	15	0.04	2100	-76.79004	40.92381	-91.39368
703620	-34	0	9	2.136426	-3.987343	-0.5047112	0	11.23	4003	0	0	5	5	0.06962903	0.08711395	1	15	0.04	2100	-76.99008	40.92381	-91.39368
703663	-29	0	2	2.139127	-3.973262	-0.5069733	0	11.23	4002	0	0	5	5	0.06962903	0.08368987	1	15	0.04	2100	-77.14655	40.92381	-91.39368
703830	-29	8	5	2.168077	-3.918448	-0.5176104	0	11.23	4002	0	0	5	5	0.06962903	0.07589288	1	15	0.04	2100	-76.84341	40.92381	-91.39368
703875	-33	1	2	2.170435	-3.899848	-0.521462	0	11.29	4002	0	0	5	5	0.06962903	0.07463752	1	15	0.04	2100	-76.54263	40.92381	-91.39368
704103	-32	0	7	2.189912	-3.856078	-0.535646	0	11.29	4002	0	0	5	5	0.06962903	0.0500985	1	15	0.04	2100	-76.41101	40.92381	-91.39368
704211	-26	0	3	2.18884	-3.839861	-0.5413318	0	11.29	4002	0	0	5	5	0.06962903	0.04449842	1	15	0.04	2100	-76.94781	40.92381	-91.39368
704276	-26	0	3	2.199275	-3.831617	-0.5450002	0	11.29	4004	0	0	5	5	0.06962903	0.03797137	1	15	0.04	2100	-76.34454	40.92381	-91.39368
704450	-33	1	0	2.201716	-3.809634	-0.5563104	0	11.29	4002	0	0	5	5	0.06962903	0.0317996	1	15	0.04	2100	-76.13031	40.92381	-91.39368
704536	-23	0	6	2.219989	-3.795362	-0.5651746	0	11.29	4002	0	0	5	5	0.06962903	0.02695491	1	15	0.04	2100	-76.81897	40.92381	-91.39368
704656	-27	0	4	2.228799	-3.787957	-0.5726335	0	11.29	4002	0	0	5	5	0.06962903	0.02159232	1	15	0.04	2100	-76.31747	40.92381	-91.39368
704775	-36	14	5	2.232491	-3.777967	-0.5832102	0	11.29	4004	0	0	5	5	0.06962903	0.02615154	1	15	0.04	2100	-76.603	35.65579	-69.66312
704976	-31	2	6	2.229282	-3.761626	-0.5947643	0	11.34	4002	0	0	5	5	0.06962903	0.02638472	1	15	0.04	2100	-76.164	30.38777	-47.93257
705082	-25	-3	5	2.229211	-3.760554	-0.5975155	0	11.34	4003	0	0	5	5	0.06962903	0.02393272	1	15	0.04	2100	-76.54388	30.38777	-47.93257
705269	-23	1	4	2.232911	-3.753971	-0.6095594	0	11.34	4003	0	0	5	5	0.06962903	0.02438704	1	15	0.04	2100	-76.52542	30.38777	-47.93257
705367	-31	1	2	2.234274	-3.747038	-0.6131056	0	11.34	4003	0	0	5	5	0.06962903	0.02459807	1	15	0.04	2100	-76.79663	32.14378	-55.17609
705478	-27	3	2	2.243296	-3.743826	-0.618363	0	11.34	4003	0	0	5	5	0.06962903	0.02989776	1	15	0.04	2100	-76.53024	37.4118	-76.90665
705708	-28	0	10	2.24975	-3.734402	-0.6314466	0	11.34	4004	0	0	5	5	0.06962903	0.05960436	1	15	0.04	2100	-76.5249	40.92381	-91.39368
705747	-32	5	3	2.247551	-3.729682	-0.637255	0	11.34	4004	0	0	5	5	0.06962903	0.06037852	1	15	0.04	2100	-76.22653	40.92381	-91.39368
705774	-29	2	9	2.24854	-3.723278	-0.6411678	0	11.34	4003	0	0	5	5	0.06962903	0.05779326	1	15	0.04	2100	-75.90503	40.92381	-91.39368
705937	-27	0	5	2.246598	-3.718534	-0.6472201	0	11.34	4003	0	0	5	5	0.06962903	0.04989397	1	15	0.04	2100	-76.21021	40.92381	-91.39368
706105	-31	0	0	2.251061	-3.725559	-0.6570017	0	11.34	4002	0	0	5	5	0.06962903	0.04888143	1	15	0.04	2100	-76.47372	40.92381	-91.39368
706215	-34	-6	1	2.254536	-3.720989	-0.6612813	0	11.34	4004	0	0	5	5	0.06962903	0.05869704	1	15	0.04	2100	-76.17331	40.92381	-91.39368
706379	-18	-1	2	2.254318	-3.718416	-0.6736308	0	11.34	4004	0	0	5	5	0.06962903	0.06710477	1	15	0.04	2100	-76.21201	40.92381	-91.39368
706458	-27	0	2	2.254957	-3.712956	-0.6753426	0	11.34	4002	0	0	5	5	0.06962903	0.06040785	1	15	0.04	2100	-76.15601	40.92381	-91.39368
706601	-29	2	4	2.25108	-3.714267	-0.6817617	0	11.34	4004	0	0	5	5	0.06962903	0.05807666	1	15	0.04	2100	-76.2471	40.92381	-91.39368
706744	-28	3	7	2.246291	-3.71551	-0.6869581	0	11.34	4003	0	0	5	5	0.06962903	0.05402173	1	15	0.04	2100	-76.20633	40.92381	-91.39368
706843	-24	0	1	2.24342	-3.719183	-0.6915434	0	11.34	4002	0	0	5	5	0.06962903	0.05007943	1	15	0.04	2100	-76.45874	40.92381	-91.39368
706917	-19	6	6	2.240826	-3.719815	-0.6991854	0	11.34	4002	0	0	5	5	0.06962903	0.05042862	1	15	0.04	2100	-76.46542	40.92381	-91.39368
706965	-29	1	5	2.240389	-3.720595	-0.7000414	0	11.34	4003	0	0	5	5	0.06962903	0.05187997	1	15	0.04	2100	-76.46542	40.92381	-91.39368
707152	-26	6	0	2.244869	-3.718239	-0.7112288	0	11.34	4003	0	0	5	5	0.06962903	0.04931163	1	15	0.04	2100	-76.48804	40.92381	-91.39368
707223	-20	2	5	2.247539	-3.719147	-0.7143467	0	11.34	4002	0	0	5	5	0.06962903	0.05490709	1	15	0.04	2100	-76.21967	40.92381	-91.39368
707337	-23	-5	1	2.250185	-3.721181	-0.7178318	0	11.34	4002	0	0	5	5	0.06962903	0.06294087	1	15	0.04	2100	-76.73279	40.92381	-91.39368
707418	-34	3	1	2.248719	-3.719399	-0.7225394	0	11.34	4003	0	0	5	5	0.06962903	0.0745415	1	15	0.04	2100	-76.16599	40.92381	-91.39368
707519	-31	4	5	2.248591	-3.720688	-0.725107	0	11.34	4003	0	0	5	5	0.06962903	0.07634793	1	15	0.04	2100	-76.11777	40.92381	-91.39368
707615	-24	-6	3	2.257186	-3.726164	-0.7320159	0	11.34	4004	0	0	5	5	0.06962903	0.07766481	1	15	0.04	2100	-76.19711	40.92381	-91.39368
707729	-29	1	3	2.254608	-3.73034	-0.7344005	0	11.34	4003	0	0	5	5	0.06962903	0.08595928	1	15	0.04	2100	-75.92822	40.92381	-91.39368
707851	-29	0	4	2.258962	-3.73582	-0.7410645	0	11.34	4003	0	0	5	5	0.06962903	0.1009469	1	15	0.04	2100	-76.22137	40.92381	-91.39368
708057	-20	-3	-2	2.251032	-3.725048	-0.7483394	0	11.34	4003	0	0	5	5	0.06962903	0.1158653	1	15	0.04	2100	-76.44424	40.92381	-91.39368
708256	-29	2	1	2.254024	-3.714307	-0.7602001	0	11.34	4003	0	0	5	5	0.06962903	0.1066703	1	15	0.04	2100	-76.45734	40.92381	-91.39368
708475	-28	-1	4	2.269472	-3.715141	-0.7703494	0	11.34	4002	0	0	5	5	0.06962903	0.08396625	1	15	0.04	2100	-76.18735	40.92381	-91.39368
708664	-22	2	3	2.260511	-3.718865	-0.7779915	0	11.34	4002	0	0	5	5	0.06962903	0.08368357	1	15	0.04	2100	-75.90829	40.92381	-91.39368
708819	-30	-2	4	2.268515	-3.724908	-0.7820263	0	11.34	4002	0	0	5	5	0.06962903	0.08503056	1	15	0.04	2100	-76.21072	40.92381	-91.39368
708882	-15	-1	0	2.271466	-3.725164	-0.7840438	0	11.34	4004	0	0	5	5	0.06962903	0.08883988	1	15	0.04	2100	-76.29538	40.92381	-91.39368
708972	-24	1	1	2.274617	-3.719321	-0.7872225	0	11.34	4003	0	0	5	5	0.06962903	0.09516968	1	15	0.04	2100	-75.91727	40.92381	-91.39368
709072	-23	6	3	2.267305	-3.723784	-0.7925418	0	11.34	4003	0	0	5	5	0.06962903	0.09779453	1	15	0.04	2100	-76.43341	40.92381	-91.39368
709118	-18	6	0	2.265893	-3.722387	-0.7952932	0	11.34	4003	0	0	5	5	0.06962903	0.09829531	1	15	0.04	2100	-76.18225	40.92381	-91.39368
709227	-18	6	5	2.270629	-3.724101	-0.7986561	0	11.34	4004	0	0	5	5	0.06962903	0.1022448	1	15	0.04	2100	-76.22568	40.92381	-91.39368
709338	-21	-1	1	2.275216	-3.73097	-0.8028744	0	11.34	4003	0	0	5	5	0.06962903	0.1007166	1	15	0.04	2100	-76.2359	40.92381	-91.39368
709578	-18	1	2	2.274015	-3.722947	-0.8114952	0	11.34	4002	0	0	5	5	0.06962903	0.09364825	1	15	0.04	2100	-76.48608	40.92381	-91.39368
709658	-19	-7	0	2.276752	-3.726552	-0.8135127	0	11.34	4003	0	0	5	5	0.06962903	0.09522248	1	15	0.04	2100	-76.23074	40.92381	-91.39368
709766	-25	-2	-3	2.27579	-3.730248	-0.8184652	0	11.34	4003	0	0	5	5	0.06962903	0.09508899	1	15	0.04	2100	-76.21777	40.92381	-91.39368
709862	-23	-1	1	2.271862	-3.727373	-0.8226836	0	11.34	4004	0	0	5	5	0.06962903	0.0947116	1	15	0.04	2100	-76.20929	40.92381	-91.39368
709897	-30	1	0	2.265653	-3.729302	-0.822867	0	11.34	4004	0	0	5	5	0.06962903	0.09746866	1	15	0.04	2100	-76.21283	40.92381	-91.39368
710018	-20	2	1	2.263003	-3.735295	-0.8270247	0	11.34	4004	0	0	5	5	0.06962903	0.1036035	1	15	0.04	2100	-76.23907	40.92381	-91.39368
710146	-14	3	3	2.258585	-3.73191	-0.8286753	0	11.34	4002	0	0	5	5	0.06962903	0.1083709	1	15	0.04	2100	-76.49646	40.92381	-91.39368
710250	-23	0	3	2.260378	-3.72673	-0.8298367	0	11.34	4003	0	0	5	5	0.06962903	0.1108403	1	15	0.04	2100	-76.20914	40.9238	-91.39368
710408	-25	0	0	2.26254	-3.726688	-0.8336882	0	11.34	4002	0	0	5	5	0.06962903	0.116463	1	15	0.04	2100	-76.21063	40.9238	-91.39368
710561	-21	11	0	2.263551	-3.736626	-0.8385792	0	11.34	4004	0	0	5	5	0.06962903	0.1200018	1	15	0.04	2100	-75.93735	40.9238	-91.39368
710624	-21	-5	0	2.273125	-3.735551	-0.8398024	0	11.34	4003	0	0	5	5	0.06962903	0.1192466	1	15	0.04	2100	-76.22626	40.9238	-91.39368
710738	-32	4	-1	2.267344	-3.739011	-0.8423092	0	11.34	4002	0	0	5	5	0.06962903	0.1132553	1	15	0.04	2100	-76.21204	40.9238	-91.39368
710892	-27	-2	0	2.274526	-3.733762	-0.8471392	0	11.34	4003	0	0	5	5	0.06962903	0.101622	1	15	0.04	2100	-76.22748	40.9238	-91.39368
711020	-35	-2	4	2.265307	-3.733008	-0.8522746	0	11.34	4004	0	0	5	5	0.06962903	0.09229502	1	15	0.04	2100	-76.24615	40.9238	-91.39368
711058	-20	2	0	2.270804	-3.740412	-0.8530088	0	11.34	4002	0	0	5	5	0.06962903	0.08594534	1	15	0.04	2100	-76.23032	40.9238	-91.39368
711170	-28	3	2	2.273451	-3.738048	-0.855393	0	11.34	4003	0	0	5	5	0.06962903	0.06175155	1	15	0.04	2100	-76.24216	40.9238	-91.39368
711276	-16	4	1	2.276767	-3.7352	-0.8582052	0	11.34	4002	0	0	5	5	0.06962903	0.05051132	1	15	0.04	2100	-75.93182	40.9238	-91.39368
711368	-12	-2	0	2.274428	-3.738847	-0.8597338	0	11.34	4003	0	0	5	5	0.06962903	0.04245388	1	15	0.04	2100	-76.23627	40.9238	-91.39368
711471	-12	5	2	2.280273	-3.743798	-0.8600395	0	11.34	4003	0	0	5	5	0.06962903	0.03976386	1	15	0.04	2100	-76.51791	40.9238	-91.39368
711575	-11	0	0	2.290179	-3.747084	-0.8619346	0	11.34	4003	0	0	5	5	0.06962903	0.03803449	1	15	0.04	2100	-76.23129	40.9238	-91.39368
711675	-25	3	1	2.288918	-3.745777	-0.8634632	0	11.34	4004	0	0	5	5	0.06962903	0.03693554	1	15	0.04	2100	-76.27438	40.9238	-91.39368
711852	-22	0	6	2.291114	-3.754773	-0.8663976	0	11.46	4002	0	0	5	5	0.06962903	0.04645061	1	15	0.04	2100	-76.27615	40.9238	-91.39368
711962	-29	-4	-1	2.287245	-3.750485	-0.870127	0	11.46	4004	0	0	5	5	0.06962903	0.0616422	1	15	0.04	2100	-76.25043	40.9238	-91.39368
712047	-10	1	1	2.291817	-3.74877	-0.8720224	0	11.46	4004	0	0	5	5	0.06962903	0.07136809	1	15	0.04	2100	-76.26352	40.9238	-91.39368
712153	-6	1	3	2.303331	-3.741221	-0.8737345	0	11.46	4003	0	0	5	5	0.06962903	0.08159918	1	15	0.04	2100	-75.96655	40.9238	-91.39368
712202	-22	-3	-1	2.305072	-3.740626	-0.8742238	0	11.46	4004	0	0	5	5	0.06962903	0.08841754	1	15	0.04	2100	-75.96655	40.9238	-91.39368
712268	-26	0	0	2.304885	-3.740782	-0.8762415	0	11.46	4002	0	0	5	5	0.06962903	0.08737103	1	15	0.04	2100	-76.31537	40.9238	-91.39368
712490	-26	7	0	2.299525	-3.741533	-0.8814998	0	11.46	4003	0	0	5	5	0.06962903	0.08211579	1	15	0.04	2100	-76.51608	40.9238	-91.39368
712655	-14	4	0	2.29454	-3.742295	-0.8865739	0	11.46	4002	0	0	5	5	0.06962903	0.07456133	1	15	0.04	2100	-76.52777	40.9238	-91.39368
712683	-15	1	2	2.297425	-3.742776	-0.8876133	0	11.46	4004	0	0	5	5	0.06962903	0.0734779	1	15	0.04	2100	-76.27173	40.9238	-91.39368
712750	-24	-7	0	2.294394	-3.738698	-0.8899364	0	11.34	4003	0	0	5	5	0.06962903	0.07301602	1	15	0.04	2100	-76.24283	40.9238	-91.39368
712916	-18	-2	-1	2.279016	-3.738243	-0.8950556	0	11.34	4003	0	0	5	5	0.06962903	0.05595584	1	15	0.04	2100	-76.60141	40.9238	-91.39368
713028	-19	0	5	2.275442	-3.738213	-0.897562	0	11.34	4004	0	0	5	5	0.06962903	0.04621098	1	9	0.04	1800	-76.23465	40.9238	-91.39368
713147	-18	-1	2	2.272675	-3.740607	-0.9008023	0	11.34	4004	0	0	5	5	0.06962903	0.02681062	1	9	0.04	1800	-76.23447	40.9238	-91.39368
713260	-15	2	4	2.282332	-3.738996	-0.9051425	0	11.34	4002	0	0	5	5	0.06962903	0.006752517	1	9	0.04	1800	-76.23868	40.9238	-91.39368
713350	-20	4	3	2.282712	-3.734593	-0.9063043	0	11.34	4004	0	0	5	5	0.06962903	0.001882385	1	9	0.04	1800	-76.22754	40.92379	-91.39368
713439	-20	-1	4	2.286136	-3.735734	-0.9102783	0	11.34	4004	0	0	5	5	0.06962903	0.007740462	1	9	0.04	1800	-75.95404	40.92379	-91.39368
713589	-23	-1	0	2.28156	-3.740709	-0.9149248	0	11.34	4002	0	0	5	5	0.06962903	0.01107143	1	9	0.04	1800	-76.2009	40.92379	-91.39368
713681	-22	0	3	2.285707	-3.735484	-0.9166979	0	11.34	4002	0	0	5	5	0.06962903	0.02270439	1	9	0.04	1800	-76.51456	40.92379	-91.39368
713777	-25	0	5	2.28643	-3.738803	-0.9196329	0	11.34	4003	0	0	5	5	0.06962903	0.02871194	1	9	0.04	1800	-76.23798	40.92379	-91.39368
713873	-24	0	5	2.284194	-3.736512	-0.924279	0	11.34	4002	0	0	5	5	0.06962903	0.0389053	1	9	0.04	1800	-75.9715	40.92379	-91.39368
713980	-17	-1	4	2.293467	-3.739148	-0.9275194	0	11.34	4002	0	0	5	5	0.06962903	0.06389221	1	9	0.04	1800	-75.96182	40.92379	-91.39368
714153	-9	1	1	2.304134	-3.745188	-0.9308212	0	11.34	4003	0	0	5	5	0.06962903	0.0946566	1	9	0.04	1800	-76.23337	39.16778	-84.15016
714218	-29	0	2	2.299061	-3.740906	-0.9330832	0	11.34	4002	0	0	5	5	0.06962903	0.1042963	1	9	0.04	1800	-76.25827	35.65575	-69.66312
714391	-30	8	5	2.295285	-3.746448	-0.939197	0	11.34	4004	0	0	5	5	0.06962903	0.1040604	1	9	0.04	1800	-75.95303	30.3877	-47.93256
714528	-25	5	0	2.287655	-3.751251	-0.9432933	0	11.34	4003	0	0	5	5	0.06962903	0.09894052	1	9	0.04	1800	-76.28748	30.3877	-47.93256
714581	-18	-3	1	2.28817	-3.74828	-0.9444548	0	11.34	4003	0	0	5	5	0.06962903	0.09803734	1	9	0.04	1800	-76.26071	30.3877	-47.93256
714756	-27	1	3	2.293396	-3.756656	-0.9504462	0	11.34	4005	0	0	5	5	0.06962903	0.08734711	1	9	0.04	1800	-76.27597	30.3877	-47.93256
714945	-18	0	0	2.295942	-3.757984	-0.9555817	0	11.34	4002	0	0	5	5	0.06962903	0.09122437	1	9	0.04	1800	-76.56119	40.92379	-91.39368
715098	-19	-2	0	2.30241	-3.760244	-0.9617563	0	11.34	4004	0	0	5	5	0.06962903	0.08956787	1	9	0.04	1800	-76.56592	40.92379	-91.39368
715154	-20	-12	3	2.30289	-3.756815	-0.9635291	0	11.34	4003	0	0	5	5	0.06962903	0.0923492	1	9	0.04	1800	-76.56592	40.92379	-91.39368
715329	-24	7	0	2.291793	-3.757229	-0.9668915	0	11.34	4002	0	0	5	5	0.06962903	0.08870703	1	9	0.04	1800	-76.2821	40.92379	-91.39368
715472	-21	1	4	2.294337	-3.757087	-0.9687869	0	11.34	4003	0	0	5	5	0.06962903	0.09077002	1	9	0.04	1800	-76.34189	40.92379	-91.39368
715534	-22	0	2	2.296277	-3.766345	-0.9712937	0	11.34	4004	0	0	5	5	0.06962903	0.09244932	1	9	0.04	1800	-76.58759	40.92379	-91.39368
715633	-18	9	2	2.297571	-3.768493	-0.9733115	0	11.34	4003	0	0	5	5	0.06962903	0.1093279	1	9	0.04	1800	-76.27728	40.92379	-91.39368
715786	-12	0	0	2.300878	-3.770987	-0.9772856	0	11.34	4002	0	0	5	5	0.06962903	0.1121243	1	9	0.04	1800	-76.58282	40.92379	-91.39368
715954	-11	7	4	2.312259	-3.775427	-0.9799148	0	11.34	4002	0	0	5	5	0.06962903	0.1045486	1	9	0.04	1800	-76.40363	40.92379	-91.39368
716022	-20	-3	4	2.31406	-3.776141	-0.9825438	0	11.34	4004	0	0	5	5	0.06962903	0.1043886	1	9	0.04	1800	-76.33902	40.92379	-91.39368
716136	-23	-2	-1	2.308796	-3.769821	-0.9848059	0	11.34	4003	0	0	5	5	0.06962903	0.1001325	1	9	0.04	1800	-76.30569	40.92379	-91.39368
716239	-13	1	4	2.309602	-3.769706	-0.9889628	0	11.34	4002	0	0	5	5	0.06962903	0.09849431	1	9	0.04	1800	-76.32712	40.92379	-91.39368
716330	-13	2	-2	2.306219	-3.772105	-0.9900635	0	11.34	4003	0	0	5	5	0.06962903	0.1007464	1	9	0.04	1800	-76.61121	40.92379	-91.39368
716414	-11	-3	-1	2.30624	-3.772592	-0.9935483	0	11.34	4003	0	0	5	5	0.06962903	0.1047966	3	9	0.04	1800	-76.31204	40.92379	-91.39368
716502	-18	4	8	2.314303	-3.76393	-0.9987447	0	11.34	4002	0	0	5	5	0.06962903	0.1013736	3	9	0.04	1800	-76.37006	40.92379	-91.39368
716593	-27	3	0	2.319422	-3.760491	-1.001802	0	11.34	4003	0	0	5	5	0.06962903	0.0950828	3	9	0.04	1800	-76.01456	40.92379	-91.39368
716655	-20	-1	1	2.323382	-3.762502	-1.00223	0	11.34	4003	0	0	5	5	0.06962903	0.09388442	3	9	0.04	1800	-76.29755	40.92379	-91.39368
716712	-12	1	4	2.325181	-3.760495	-1.003514	0	11.34	4004	0	0	5	5	0.06962903	0.09347893	3	9	0.04	1800	-76.29755	40.92379	-91.39368
716873	-19	1	1	2.321007	-3.768341	-1.008405	0	11.34	4004	0	0	5	5	0.06962903	0.08991004	3	9	0.04	1800	-76.58859	40.92379	-91.39368
717013	-20	3	2	2.31664	-3.761862	-1.011279	0	11.34	4003	0	0	5	5	0.06962903	0.08634616	3	9	0.04	1800	-76.29541	40.92379	-91.39368
717090	-15	3	2	2.315089	-3.763212	-1.012501	0	11.34	4003	0	0	5	5	0.06962903	0.08505984	3	9	0.04	1800	-76.32047	40.92379	-91.39368
717248	-13	3	-1	2.316144	-3.767243	-1.013052	0	11.34	4009	0	0	5	5	0.06962903	0.0851737	3	9	0.04	1800	-76.02026	40.92379	-91.39368
717429	-20	2	0	2.321033	-3.761803	-1.019961	0	11.34	4002	0	0	5	5	0.06962903	0.0958472	3	9	0.04	1800	-76.27621	40.92379	-91.39368
717556	-16	2	3	2.312531	-3.764052	-1.023507	0	11.34	4003	0	0	5	5	0.06962903	0.1037521	3	9	0.04	1800	-76.03635	40.92379	-91.39368
717613	-8	0	5	2.314598	-3.763737	-1.024913	0	11.34	4003	0	0	5	5	0.06962903	0.106488	3	9	0.04	1800	-75.99698	40.92379	-91.39368
717771	-12	1	-2	2.320672	-3.763817	-1.027481	0	11.34	4004	0	0	5	5	0.06962903	0.1065704	3	9	0.04	1800	-76.36508	40.92379	-91.39368
717818	-23	0	3	2.322405	-3.764507	-1.029805	0	11.34	4002	0	0	5	5	0.06962903	0.1068344	3	9	0.04	1800	-76.29993	40.92379	-91.39368
717969	-19	-3	0	2.325818	-3.764486	-1.032495	0	11.34	4004	0	0	5	5	0.06962903	0.105973	3	9	0.04	1800	-76.30597	40.92379	-91.39368
718003	-20	0	5	2.324672	-3.762768	-1.035002	0	11.34	4002	0	0	5	5	0.06962903	0.1066904	3	9	0.04	1800	-76.32178	40.92379	-91.39368
718102	-12	-1	2	2.325115	-3.760019	-1.036468	0	11.34	4004	0	0	5	5	0.06962903	0.1108485	3	9	0.04	1800	-76.31973	40.92379	-91.39368
718162	-15	0	2	2.329728	-3.761005	-1.036591	0	11.34	4003	0	0	5	5	0.06962903	0.1154186	3	9	0.04	1800	-76.27713	40.92379	-91.39368
718326	-26	-53	-168	2.367682	-3.787183	-1.025468	0	11.34	4003	0	0	5	5	0.06962903	0.1237261	3	9	0.04	1800	-77.79919	40.92379	-91.39368
718365	-91	16	68	2.340695	-3.784158	-1.042156	0	11.34	4004	0	0	5	5	0.06962903	0.1247836	3	9	0.04	1800	-77.35126	40.92379	-91.39368
718586	-36	-18	221	2.333024	-3.757577	-1.037444	0	11.34	4004	0	0	5	5	0.06962903	0.1339	3	9	0.04	1800	-77.49933	40.92379	-91.39368
718708	25	0	54	2.32249	-3.736939	-1.057125	0	11.34	4004	0	0	5	5	0.06962903	0.1454863	3	9	0.04	1800	-78.99448	40.92379	-91.39368
718784	147	55	204	2.262953	-3.703567	-1.070407	0	11.34	4003	0	0	5	5	0.06962903	0.1474122	3	9	0.04	1800	-77.22064	40.92379	-91.39368
718936	19	46	53	2.238211	-3.689099	-1.069489	0	11.23	4003	0	0	5	5	0.06962903	0.1534161	3	9	0.04	1800	-76.89023	40.92379	-91.39368
718995	18	49	125	2.304639	-3.704586	-1.086851	0	11.23	4003	0	0	5	5	0.06962903	0.155189	3	9	0.04	1800	-76.64435	40.92379	-91.39368
719067	7	25	56	2.287601	-3.716021	-1.086182	0	11.23	4003	0	0	5	5	0.06962903	0.153993	3	9	0.04	1800	-77.49805	40.92379	-91.39368
719218	-27	-27	37	2.2963	-3.719105	-1.084411	0	11.23	4004	0	0	5	5	0.06962903	0.1501153	3	9	0.04	1800	-76.59335	40.92379	-91.39368
719342	-45	0	61	2.252745	-3.729086	-1.084657	0	11.23	4004	0	0	5	5	0.06962903	0.1430164	3	9	0.04	1800	-77.81586	40.92379	-91.39368
719434	-4	0	-2	2.216045	-3.712065	-1.095534	0	11.23	4004	0	0	5	5	0.06962903	0.1364237	3	9	0.04	1800	-78.94986	40.92379	-91.39368
719515	-18	34	52	2.19781	-3.706882	-1.101893	0	11.23	4004	0	0	5	5	0.06962903	0.1282524	3	9	0.04	1800	-78.94986	40.92379	-91.39368
719677	-13	26	-10	2.240811	-3.688924	-1.115889	0	11.23	4002	0	0	5	5	0.06962903	0.1238162	3	9	0.04	1800	-77.68939	40.92379	-91.39368
719837	33	-25	-35	2.224395	-3.675513	-1.100598	0	11.4	4003	0	0	5	5	0.06962903	0.1231904	3	9	0.04	1800	-77.34894	40.92379	-91.39368
719933	-11	24	90	2.214276	-3.661169	-1.086729	0	11.4	4004	0	0	5	5	0.06962903	0.1259153	3	9	0.04	1800	-77.42624	40.92379	-91.39368
720079	24	30	-11	2.268727	-3.665713	-1.092906	0	11.4	4002	0	0	5	5	0.06962903	0.1267319	3	9	0.04	1800	-75.96371	40.92378	-91.39368
720231	-27	-9	10	2.303427	-3.703084	-1.109774	0	11.4	4004	0	0	5	5	0.06962903	0.1197684	3	9	0.04	1800	-77.17996	40.92378	-91.39368
720395	-16	-21	74	2.305215	-3.724953	-1.115952	0	11.4	4004	0	0	5	5	0.06962903	0.1102695	3	9	0.04	1800	-77.50287	40.92378	-91.39368
720479	-25	18	-23	2.279884	-3.731117	-1.124694	0	11.4	4003	0	0	5	5	0.06962903	0.1038812	3	9	0.04	1800	-75.94031	40.92378	-91.39368
720558	-21	-8	22	2.27388	-3.719003	-1.131791	0	11.4	4003	0	0	5	5	0.06962903	0.09537074	3	9	0.04	1800	-76.74072	40.92378	-91.39368
720657	-23	-19	-16	2.298796	-3.739349	-1.135022	0	11.4	4003	0	0	5	5	0.06962903	0.08499198	3	9	0.04	1800	-77.70938	40.92378	-91.39368
720729	-46	-17	59	2.301239	-3.725229	-1.136794	0	11.4	4003	0	0	5	5	0.06962903	0.07884334	3	9	0.04	1800	-77.70938	40.92378	-91.39368
720804	5	-4	34	2.310555	-3.740646	-1.141319	0	11.4	4004	0	0	5	5	0.06962903	0.07504158	3	9	0.04	1800	-77.43155	40.92378	-91.39368
720933	27	-38	-103	2.306236	-3.72519	-1.143516	0	11.4	4002	0	0	5	5	0.06962903	0.06219371	3	9	0.04	1800	-78.17096	40.92378	-91.39368
721097	-35	-24	50	2.270115	-3.711712	-1.16295	0	11.4	4003	0	0	5	5	0.06962903	0.0483029	3	9	0.04	1800	-77.2247	40.92378	-91.39368
721221	-76	-60	-36	2.259854	-3.685137	-1.161666	0	11.4	4002	0	0	5	5	0.06962903	0.03730078	3	9	0.04	1800	-77.4743	40.92378	-91.39368
721295	-55	-7	39	2.280569	-3.695359	-1.16295	0	11.4	4002	0	0	5	5	0.06962903	0.03568571	3	9	0.04	1800	-78.66537	40.92378	-91.39368
721390	4	25	-1	2.287686	-3.702423	-1.169001	0	11.4	4004	0	0	5	5	0.06962903	0.03760617	3	9	0.04	1800	-78.05402	40.92378	-91.39369
721582	-72	19	0	2.285058	-3.696255	-1.176031	0	11.34	4004	0	0	5	5	0.06962903	0.04037677	3	9	0.04	1800	-77.827	40.92378	-91.39369
721628	59	33	16	2.29478	-3.695771	-1.178414	0	11.34	4003	0	0	5	5	0.06962903	0.03936647	3	9	0.04	1800	-77.65289	40.92378	-91.39369
721804	-56	-44	-22	2.260646	-3.67165	-1.181168	0	11.34	4004	0	0	5	5	0.06962903	0.0497553	3	9	0.04	1800	-78.78632	40.92378	-91.39369
721973	-12	-17	13	2.289671	-3.67382	-1.190216	0	11.34	4004	0	0	5	5	0.06962903	0.07287118	3	9	0.04	1800	-77.43179	40.92378	-91.39369
722042	-50	-73	-2	2.278855	-3.67374	-1.190828	0	11.34	4003	0	0	5	5	0.06962903	0.0792191	3	9	0.04	1800	-77.25195	40.92378	-91.39369
722090	-10	52	64	2.290305	-3.676267	-1.200852	0	11.34	4002	0	0	5	5	0.06962903	0.08436091	3	9	0.04	1800	-78.44211	40.92378	-91.39369
722192	-10	14	-31	2.299803	-3.693952	-1.197185	0	11.34	4004	0	0	5	5	0.06962903	0.09246915	3	9	0.04	1800	-78.73502	40.92378	-91.39369
722299	7	-12	-4	2.294136	-3.698674	-1.198534	0	11.34	4004	0	0	5	5	0.06962903	0.09409446	3	9	0.04	1800	-77.2417	40.92378	-91.39369
722360	-40	40	-38	2.246326	-3.698043	-1.196885	0	11.34	4003	0	0	5	5	0.06962903	0.09983449	3	9	0.04	1800	-77.2417	40.92378	-91.39369
722452	-19	-20	27	2.284056	-3.719107	-1.205383	0	11.4	4004	0	0	5	5	0.06962903	0.1016238	3	9	0.04	1800	-78.29456	40.92378	-91.39368
722560	-17	-20	44	2.320645	-3.749787	-1.207345	0	11.4	4004	0	0	5	5	0.06962903	0.09562351	3	9	0.04	1800	-78.34659	40.92378	-91.39368
722680	-21	32	-16	2.298727	-3.713698	-1.212115	0	11.4	4004	0	0	5	5	0.06962903	0.09058966	3	9	0.04	1800	-78.08585	40.92378	-91.39368
722753	-60	-48	32	2.279203	-3.689651	-1.210711	0	11.4	4004	0	0	5	5	0.06962903	0.08877894	3	9	0.04	1800	-79.43732	40.92378	-91.39368
722925	-31	30	-135	2.243857	-3.636654	-1.18718	0	11.4	4003	0	0	5	5	0.06962903	0.08437579	3	9	0.04	1800	-78.28781	40.92378	-91.39368
723063	-110	45	-80	2.231087	-3.595687	-1.187731	0	11.4	4003	0	0	5	5	0.06962903	0.06862599	3	9	0.04	1800	-78.71741	40.92378	-91.39368
723083	-127	56	-100	2.282108	-3.582377	-1.20305	0	11.4	4004	0	0	5	5	0.06962903	0.07005847	3	9	0.04	1800	-77.97552	40.92378	-91.39368
723113	-189	25	107	2.223828	-3.571612	-1.207824	0	11.34	4003	0	0	5	5	0.06962903	0.06810228	3	9	0.04	1800	-77.48892	40.92378	-91.39368
723133	-59	-30	333	2.206285	-3.582808	-1.227573	0	11.34	4003	0	0	5	5	0.06962903	0.05565891	3	9	0.04	1800	-78.23474	40.92378	-91.39368
723290	-120	127	-350	1.951982	-3.461256	-1.195908	0	11.34	4003	0	0	5	5	0.06962903	0.05638238	3	9	0.04	1800	-77.88062	40.92378	-91.39368
723405	-43	57	-359	1.991779	-3.424176	-1.202271	0	11.34	4004	0	0	5	5	0.06962903	0.06023058	3	9	0.04	1800	-78.42072	40.92378	-91.39368
723485	63	-96	-47	2.031889	-3.383527	-1.195281	0	11.34	4002	0	0	5	5	0.06962903	0.05823988	3	9	0.04	1800	-78.42072	40.92378	-91.39368
723560	-5	7	85	2.106966	-3.453118	-1.195904	0	11.34	4004	0	0	5	5	0.06962903	0.04810549	3	9	0.04	1800	-77.3782	40.92378	-73.11495
723650	112	43	180	2.122916	-3.461013	-1.214101	0	11.34	4004	0	0	5	5	0.06962903	0.0386489	3	9	0.04	1800	-77.78189	40.92378	-54.83621
723707	163	-12	-446	2.194088	-3.435201	-1.211275	0	11.34	4003	0	0	5	5	0.06962903	0.03629821	3	9	0.04	1800	-77.23605	40.92378	-36.55747
723812	-48	-78	25	2.254972	-3.331379	-1.236929	0	11.34	4002	0	0	5	5	0.06962903	0.03253242	3	9	0.04	1800	-78.78247	40.92378	-36.55747
723962	-19	-42	-158	2.269777	-3.261437	-1.233021	0	11.4	4004	0	0	5	5	0.06962903	0.02852204	3	9	0.04	1800	-77.65848	40.92378	-36.55747
724036	-50	-68	244	2.328397	-3.180019	-1.274692	0	11.4	4003	0	0	5	5	0.06962903	0.02189216	3	9	0.04	1800	-78.33038	40.92378	-36.55747
724217	-16	-4	-554	2.371597	-2.897742	-1.286834	0	11.4	4003	0	0	5	5	0.06962903	0.01840588	3	9	0.04	1800	-78.74701	40.92378	-63.97558
724362	13	34	-219	2.44341	-2.792148	-1.316735	0	11.4	4003	0	0	5	5	0.06962903	0.02200688	3	9	0.04	1800	-79.54681	40.92378	-91.39368
724437	16	-59	-33	2.432569	-2.70021	-1.30664	0	11.4	4004	0	0	5	5	0.06962903	0.02314193	3	9	0.04	1800	-77.90085	40.92377	-91.39368
724536	50	-136	295	2.440063	-2.55239	-1.326996	0	11.4	4003	0	0	5	5	0.06962903	0.0372524	3	9	0.04	1800	-80.70798	40.92377	-91.39368
724595	-33	-222	465	2.474	-2.432842	-1.330969	0	11.4	4003	0	0	5	5	0.06962903	0.04406437	3	9	0.04	1800	-80.64505	40.92377	-91.39368
724711	31	-38	-157	2.47524	-2.366416	-1.349015	0	11.4	4004	0	0	5	5	0.06962903	0.06247896	3	9	0.04	1800	-79.17551	40.92377	-91.39368
724815	9	-177	140	2.477555	-2.227517	-1.3592	0	11.23	4002	0	0	5	5	0.06962903	0.07351253	3	9	0.04	1800	-79.2327	40.92377	-91.39368
724895	-13	-214	504	2.469951	-2.117995	-1.359035	0	11.23	4003	0	0	5	5	0.06962903	0.08671362	3	9	0.04	1800	-80.26563	40.92377	-91.39368
725010	-62	180	-354	2.439862	-1.945416	-1.326569	0	11.23	4002	0	0	5	5	0.06962903	0.08838369	3	9	0.04	1800	-79.27881	40.92377	-91.39368
