time(ms)	gyro_x(deg/s)	gyro_y(deg/s)	gyro_z(deg/s)	orientation_roll(deg)	orientation_pitch(deg)	orientation_yaw(deg)	throttle	battery(V)	loop_time(uS)	pid_output_roll	pid_output_pitch	pid_output_yaw	pid_output_throttle	ultrasonic_alt	baro_alt	flight_mode	p_gain_altitude	i_gain_altitude	d_gain_altitude	compass_heading	latitude	longitude
363593	0	0	0	0	0	0	0	11.91	0	0	0	0	0	0	0	0	15	0.04	1900	0	0	0
363684	0	0	0	0	0	0	0	11.91	0	0	0	0	0	0	0	0	15	0.04	1900	0	0	0
363733	0	0	0	0	0	0	0	11.91	0	0	0	0	0	0	0	0	15	0.04	1900	0	0	0
363962	0	0	0	0	0	0	0	11.91	0	0	0	0	0	0	0	0	15	0.04	1900	0	0	0
364071	0	0	0	0	0	0	0	11.91	0	0	0	0	0	0	0	0	15	0.04	1900	0	0	0
364209	0	-3	14	0.0003717136	-0.001725607	-0.003546198	0	11.91	4003	0	0	5	5	0	0	1	15	0.04	1900	0	0	0
364286	3	-1	14	0.01264268	-0.01120156	-0.02286501	0	11.91	4004	0	0	5	5	0.02	-0.006675158	1	15	0.04	1900	-2.899292	0	0
364356	-1	1	13	0.01832474	-0.01518107	-0.03912736	0	11.91	4004	0	0	5	5	0.02	-0.01013397	1	15	0.04	1900	-3.14859	0	0
364598	-2	-2	15	0.06287058	-0.03283732	-0.09959121	0	11.91	4003	0	0	5	5	0.02	-0.008478798	1	15	0.04	1900	-3.213837	0	0
364710	5	-3	16	0.07465096	-0.03150183	-0.1251461	0	11.91	4003	0	0	5	5	0.02	-0.002177557	1	15	0.04	1900	-2.773102	0	0
364821	4	0	15	0.09119251	-0.03333022	-0.1570582	0	11.91	4003	0	0	5	5	0.02	0.002632043	1	15	0.04	1900	-3.241547	0	0
364877	6	0	16	0.09321922	-0.03360178	-0.1651899	0	11.91	4003	0	0	5	5	0.02	0.003956372	1	15	0.04	1900	-2.822052	0	0
364988	3	0	14	0.1003469	-0.03635309	-0.197897	0	11.91	4002	0	0	5	5	0.02	0.004526657	1	15	0.04	1900	-3.056152	0	0
365176	2	-3	19	0.1088842	-0.03430311	-0.2372689	0	11.91	4003	0	0	5	5	0.02	0.009710355	1	15	0.04	1900	-3.311066	0	0
365240	4	-1	16	0.107919	-0.03702714	-0.2547539	0	11.91	4003	0	0	5	5	0.02	0.01176628	1	15	0.04	1900	-3.286133	0	0
365341	1	-6	13	0.1108871	-0.04054537	-0.2812872	0	11.91	4003	0	0	5	5	0.02	0.02151701	1	15	0.04	1900	-3.082092	0	0
365451	0	2	11	0.1207308	-0.04396068	-0.3060471	0	11.91	4004	0	0	5	5	0.02	0.02859915	1	15	0.04	1900	-3.086456	0	0
365483	-5	1	15	0.1169518	-0.04552684	-0.3146056	0	11.91	4004	0	0	5	5	0.02	0.0287662	1	15	0.04	1900	-3.086456	0	0
365574	1	-4	16	0.1217451	-0.03449468	-0.350005	0	11.91	4003	0	0	5	5	0.02	0.03137405	1	15	0.04	1900	-3.067352	0	0
365748	7	-1	13	0.1338159	-0.04176391	-0.3887044	0	11.91	4004	0	0	5	5	0.02	0.03335256	1	15	0.04	1900	-3.096466	0	0
365800	2	0	14	0.1377687	-0.04450477	-0.3980576	0	11.91	4004	0	0	5	5	0.02	0.03413718	1	15	0.04	1900	-2.896179	0	0
365954	2	0	13	0.1477353	-0.04547092	-0.4291763	0	11.91	4003	0	0	5	5	0.02	0.03395481	1	15	0.04	1900	-3.113098	0	0
366008	8	-1	11	0.157162	-0.04697961	-0.4528348	0	11.91	4003	0	0	5	5	0.02	0.02961287	1	15	0.04	1900	-2.90918	0	0
366112	3	1	15	0.1586968	-0.04347611	-0.4782658	0	11.91	4003	0	0	5	5	0.02	0.0264476	1	15	0.04	1900	-2.923218	0	0
366238	1	1	13	0.1629502	-0.04095127	-0.5104857	0	11.91	4002	0	0	5	5	0.02	0.03410743	1	15	0.04	1900	-3.152557	0	0
366407	1	2	13	0.1614276	-0.0428121	-0.5531581	0	11.91	4002	0	0	5	5	0.02	0.04654175	1	15	0.04	1900	-3.360626	0	0
366511	7	1	15	0.1679024	-0.04914592	-0.5859869	0	11.91	4003	0	0	5	5	0.02	0.04992728	1	15	0.04	1900	-2.934021	0	0
366698	5	1	13	0.1672027	-0.04501899	-0.6181437	0	11.91	4003	0	0	5	5	0.02	0.05431005	1	15	0.04	1900	-2.925873	0	0
366808	11	3	10	0.1658791	-0.03999832	-0.6476125	0	11.91	4003	0	0	5	5	0.02	0.06926696	1	15	0.04	1900	-3.155457	0	0
366913	5	-1	18	0.176289	-0.03588017	-0.6788549	0	11.91	4002	0	0	5	5	0.02	0.09068467	1	15	0.04	1900	-3.185425	0	0
366989	5	-9	13	0.1764992	-0.03811744	-0.6951163	0	11.91	4002	0	0	5	5	0.02	0.09629261	1	15	0.04	1900	-3.185425	0	0
367074	10	-4	13	0.1816001	-0.03961242	-0.7179192	0	11.91	4003	0	0	5	5	0.02	0.09810477	1	15	0.04	1900	-3.17984	0	0
367151	4	-2	14	0.1798923	-0.04302335	-0.733448	0	11.91	4003	0	0	5	5	0.02	0.1041374	1	15	0.04	1900	-3.176544	0	0
367306	4	-5	16	0.1675623	-0.04165576	-0.7734299	0	11.91	4003	0	0	5	5	0.02	0.1177184	1	15	0.04	1900	-3.168762	0	0
367432	2	-4	18	0.1783138	-0.04242601	-0.7972738	0	11.91	4003	0	0	5	5	0.02	0.1341512	1	15	0.04	1900	-2.954681	0	0
367504	3	0	16	0.1809533	-0.0419644	-0.8195885	0	11.91	4003	0	0	5	5	0.02	0.1383639	1	15	0.04	1900	-3.180359	0	0
367655	4	6	14	0.1760876	-0.0374539	-0.8511344	0	11.91	4003	0	0	5	5	0.02	0.1364137	1	15	0.04	1900	-3.175201	0	0
367762	4	-2	16	0.1783526	-0.05348554	-0.882804	0	11.91	4004	0	0	5	5	0.02	0.123229	1	15	0.04	1900	-3.177948	0	0
367850	4	0	14	0.1743381	-0.05081586	-0.8980258	0	11.91	4003	0	0	5	5	0.02	0.1091154	1	15	0.04	1900	-3.174713	0	0
367978	4	0	12	0.1823433	-0.05633656	-0.9300004	0	11.91	4003	0	0	5	5	0.02	0.1044176	1	15	0.04	1900	-2.96991	0	0
368052	5	4	13	0.1850587	-0.05557108	-0.9451622	0	11.91	4002	0	0	5	5	0.02	0.1009069	1	15	0.04	1900	-3.185547	0	0
368191	2	4	13	0.1857888	-0.06821685	-0.9829446	0	11.91	4003	0	0	5	5	0.02	0.09667409	1	15	0.04	1900	-3.192627	0	0
368321	10	0	19	0.1776744	-0.06631315	-1.006972	0	11.91	4003	0	0	5	5	0.02	0.08822537	1	15	0.04	1900	-2.966644	0	0
368394	6	0	18	0.1786001	-0.06379392	-1.030937	0	11.91	4003	0	0	5	5	0.02	0.0782063	1	15	0.04	1900	-3.194061	0	0
368480	8	-2	18	0.1816953	-0.06526418	-1.045243	0	11.91	4002	0	0	5	5	0.02	0.05603794	1	15	0.04	1900	-2.970154	0	0
368594	4	-2	17	0.1816346	-0.06582891	-1.066824	0	11.91	4002	0	0	5	5	0.02	0.04666704	1	15	0.04	1900	-3.195801	0	0
368685	8	-2	10	0.1836547	-0.05808283	-1.090179	0	11.91	4002	0	0	5	5	0.02	0.04297956	1	15	0.04	1900	-3.159668	0	0
368750	9	3	13	0.1876021	-0.05251421	-1.105157	0	11.91	4003	0	0	5	5	0.02	0.04138306	1	15	0.04	1900	-3.402649	0	0
368854	8	4	15	0.1847968	-0.05028212	-1.134808	0	11.91	4003	0	0	5	5	0.02	0.03902996	1	15	0.04	1900	-3.397583	0	0
368960	10	2	19	0.1849864	-0.05136244	-1.15113	0	11.91	4003	0	0	5	5	0.02	0.03178234	1	15	0.04	1900	-2.953552	0	0
369065	7	1	20	0.1778228	-0.04821792	-1.184204	0	11.91	4003	0	0	5	5	0.02	0.03300146	1	15	0.04	1900	-2.957733	0	0
369164	5	-6	10	0.1794668	-0.04942973	-1.199121	0	11.91	4004	0	0	5	5	0.02	0.03789851	1	15	0.04	1900	-3.413544	0	0
369265	4	0	13	0.1901374	-0.04924696	-1.229077	0	11.91	4003	0	0	5	5	0.02	0.04003065	1	15	0.04	1900	-3.184784	0	0
369374	5	1	15	0.1915374	-0.05309904	-1.25292	0	11.91	4003	0	0	5	5	0.02	0.03471579	1	15	0.04	1900	-3.200287	0	0
369528	1	-2	12	0.1892727	-0.04681619	-1.280797	0	11.91	4004	0	0	5	5	0.02	0.03373172	1	15	0.04	1900	-3.199127	0	0
369624	4	-7	16	0.1788319	-0.04650209	-1.311304	0	11.91	4002	0	0	5	5	0.02	0.03977857	1	15	0.04	1900	-3.187561	0	0
369709	2	-1	17	0.1763522	-0.04705696	-1.327567	0	11.91	4003	0	0	5	5	0.02	0.04341539	1	15	0.04	1900	-3.165375	0	0
369805	7	3	8	0.1779739	-0.04587701	-1.341873	0	11.91	4003	0	0	5	5	0.02	0.04493871	1	15	0.04	1900	-2.964325	0	0
369870	6	0	10	0.1879136	-0.05576152	-1.363944	0	11.91	4003	0	0	5	5	0.02	0.05006936	1	15	0.04	1900	-3.190765	0	0
370093	2	4	7	0.1934831	-0.0563226	-1.414686	0	11.91	4004	0	0	5	5	0.02	0.05413017	1	15	0.04	1900	-3.423401	0	0
370264	3	-3	11	0.1962207	-0.05274323	-1.45198	0	11.91	4003	0	0	5	5	0.02	0.05889172	1	15	0.04	1900	-2.978424	0	0
370331	8	-1	11	0.1938013	-0.04847632	-1.467937	0	11.91	4003	0	0	5	5	0.02	0.07212816	1	15	0.04	1900	-3.204437	0	0
370439	5	2	13	0.1836385	-0.05064995	-1.491414	0	11.91	4004	0	0	5	5	0.02	0.08169066	1	15	0.04	1900	-3.188873	0	0
370537	5	1	14	0.1833679	-0.05653156	-1.521677	0	11.91	4003	0	0	5	5	0.02	0.08147878	1	15	0.04	1900	-3.410065	0	0
370615	7	-3	16	0.1911523	-0.05914858	-1.535802	0	11.91	4004	0	0	5	5	0.02	0.08371896	1	15	0.04	1900	-3.198822	0	0
370713	5	3	12	0.1863848	-0.05811166	-1.550291	0	11.91	4003	0	0	5	5	0.02	0.08724304	1	15	0.04	1900	-2.968414	0	0
370801	7	1	5	0.1872478	-0.06649499	-1.580555	0	11.91	4004	0	0	5	5	0.02	0.09131126	1	15	0.04	1900	-2.976166	0	0
370869	4	-2	11	0.1947463	-0.07042731	-1.595656	0	11.91	4003	0	0	5	5	0.02	0.09211837	1	15	0.04	1900	-2.958221	0	0
370971	7	0	10	0.1961545	-0.06502589	-1.611307	0	11.91	4003	0	0	5	5	0.02	0.09542327	1	15	0.04	1900	-3.193268	0	0
371173	8	2	16	0.1936603	-0.05517736	-1.654655	0	11.91	4004	0	0	5	5	0.02	0.08826372	1	15	0.04	1900	-3.217377	0	0
371301	8	3	10	0.191782	-0.05393963	-1.685163	0	11.97	4003	0	0	5	5	0.02	0.08056404	1	15	0.04	1900	-2.978302	0	0
371461	13	2	10	0.1936748	-0.0527599	-1.723007	0	11.97	4002	0	0	5	5	0.02	0.06699363	1	15	0.04	1900	-3.198822	0	0
371518	8	7	15	0.1975976	-0.0588705	-1.738108	0	11.97	4003	0	0	5	5	0.02	0.06101425	1	15	0.04	1900	-3.190125	0	0
371625	6	-1	12	0.1921346	-0.05816565	-1.76134	0	11.97	4004	0	0	5	5	0.02	0.05250171	1	15	0.04	1900	-3.190613	0	0
371689	11	0	14	0.1960773	-0.05619264	-1.778154	0	11.97	4003	0	0	5	5	0.02	0.05138438	1	15	0.04	1900	-2.982819	0	0
371817	8	1	11	0.2014345	-0.05901055	-1.80542	0	11.97	4003	0	0	5	5	0.02	0.0539562	1	15	0.04	1900	-3.224823	0	0
371864	9	0	19	0.2075634	-0.05909517	-1.819237	0	11.97	4004	0	0	5	5	0.02	0.05462733	1	15	0.04	1900	-3.21228	0	0
371971	6	-7	14	0.2080794	-0.06169426	-1.833419	0	11.97	4002	0	0	5	5	0.02	0.05608546	1	15	0.04	1900	-3.213806	0	0
372068	7	-2	14	0.2059827	-0.05893371	-1.865578	0	11.97	4003	0	0	5	5	0.02	0.0577163	1	15	0.04	1900	-3.217896	0	0
372218	16	0	17	0.2130991	-0.06048653	-1.893883	0	11.91	4002	0	0	5	5	0.02	0.05461988	1	15	0.04	1900	-3.220215	0	0
372379	12	-1	14	0.2282002	-0.06012468	-1.928486	0	11.91	4004	0	0	5	5	0.02	0.03342399	1	15	0.04	1900	-3.268646	0	0
372493	9	-1	12	0.2273601	-0.05593761	-1.950433	0	11.91	4003	0	0	5	5	0.02	0.03023827	1	15	0.04	1900	-3.227692	0	0
372576	11	0	12	0.224974	-0.05717313	-1.980878	0	11.91	4004	0	0	5	5	0.02	0.03487452	1	15	0.04	1900	-3.242004	0	0
372663	9	2	10	0.2264346	-0.05983865	-1.995246	0	11.91	4003	0	0	5	5	0.02	0.04000296	1	15	0.04	1900	-3.253601	0	0
372775	8	-4	12	0.2290101	-0.05463111	-2.016888	0	11.91	4003	0	0	5	5	0.02	0.04683813	1	15	0.04	1900	-3.029327	0	0
372917	3	4	12	0.2300676	-0.05047777	-2.047455	0	11.91	4002	0	0	5	5	0.02	0.05759246	1	15	0.04	1900	-3.037659	0	0
373046	5	2	12	0.2255986	-0.04591714	-2.068485	0	11.91	4002	0	0	5	5	0.02	0.0546385	1	15	0.04	1900	-3.25354	0	0
373058	5	2	12	0.2255986	-0.04591714	-2.068485	0	11.91	4002	0	0	5	5	0.02	0.05410585	1	15	0.04	1900	-3.25354	0	0
373186	9	-3	10	0.2255491	-0.04080635	-2.112443	0	11.97	4003	0	0	5	5	0.02	0.04694379	1	15	0.04	1900	-3.249084	0	0
373283	7	-1	14	0.2243989	-0.03823201	-2.12791	0	11.97	4002	0	0	5	5	0.02	0.04014688	1	15	0.04	1900	-3.249084	0	0
373404	6	2	12	0.214967	-0.03666288	-2.166058	0	11.97	4004	0	0	5	5	0.02	0.03029795	1	15	0.04	1900	-3.011078	0	0
373585	4	0	17	0.2118093	-0.02768078	-2.20751	0	11.97	4003	0	0	5	5	0.02	0.02188682	1	15	0.04	1900	-3.232025	0	0
373751	0	-7	12	0.2027799	-0.03044934	-2.247247	0	11.97	4002	0	0	5	5	0.02	0.02474102	1	15	0.04	1900	-3.241455	0	0
373901	6	-7	18	0.1949656	-0.02990996	-2.288942	0	11.97	4002	0	0	5	5	0.02	0.02899137	1	15	0.04	1900	-2.984772	0	0
373980	8	1	16	0.1973576	-0.03578697	-2.303432	0	11.91	4002	0	0	5	5	0.02	0.02714306	1	15	0.04	1900	-3.441193	0	0
374068	4	1	12	0.1998197	-0.04141134	-2.317556	0	11.91	4002	0	0	5	5	0.02	0.01687254	1	15	0.04	1900	-3.209808	0	0
374155	4	-4	14	0.2015928	-0.04505532	-2.34201	0	11.91	4003	0	0	5	5	0.02	0.01765643	1	15	0.04	1900	-2.987549	0	0
374284	4	0	15	0.1995784	-0.04115316	-2.37105	0	11.91	4002	0	0	5	5	0.02	0.01697088	1	15	0.04	1900	-3.208405	0	0
374449	3	-1	12	0.2045934	-0.04003745	-2.408772	0	11.91	4003	0	0	5	5	0.02	0.01216279	1	15	0.04	1900	-3.219635	0	0
374517	3	2	14	0.1995507	-0.04346662	-2.423873	0	11.91	4002	0	0	5	5	0.02	0.01364259	1	15	0.04	1900	-3.219635	0	0
374642	4	0	16	0.2012174	-0.04517713	-2.45548	0	11.91	4002	0	0	5	5	0.02	0.02490637	1	15	0.04	1900	-3.219452	0	0
374676	5	-4	12	0.197328	-0.04208054	-2.463184	0	11.91	4004	0	0	5	5	0.02	0.02490637	1	15	0.04	1900	-3.197144	0	0
374842	1	0	12	0.1878287	-0.04350153	-2.502434	0	11.91	4004	0	0	5	5	0.02	0.03443601	1	15	0.04	1900	-2.988525	0	0
374918	6	4	13	0.1900457	-0.03814517	-2.517597	0	11.91	4003	0	0	5	5	0.02	0.04250552	1	15	0.04	1900	-3.194702	0	0
374946	7	0	14	0.1898086	-0.03741849	-2.525545	0	11.91	4004	0	0	5	5	0.02	0.04467625	1	15	0.04	1900	-3.420074	0	0
375111	4	0	17	0.1898877	-0.03671169	-2.542176	0	11.91	4004	0	0	5	5	0.02	0.05033038	1	15	0.04	1900	-2.982941	0	0
375265	4	0	17	0.1898877	-0.03671169	-2.542176	0	11.91	4004	0	0	5	5	0.02	0.05033038	1	15	0.04	1900	-2.982941	0	0
375416	4	0	17	0.1898877	-0.03671169	-2.542176	0	11.91	4004	0	0	5	5	0.02	0.05033038	1	15	0.04	1900	-2.982941	0	0
375476	4	0	17	0.1898877	-0.03671169	-2.542176	0	11.91	4004	0	0	5	5	0.02	0.05033038	1	15	0.04	1900	-2.982941	0	0
375555	4	0	17	0.1898877	-0.03671169	-2.542176	0	11.91	4004	0	0	5	5	0.02	0.05033038	1	15	0.04	1900	-2.982941	0	0
375690	4	0	17	0.1898877	-0.03671169	-2.542176	0	11.91	4004	0	0	5	5	0.02	0.05033038	1	15	0.04	1900	-2.982941	0	0
375851	4	0	17	0.1898877	-0.03671169	-2.542176	0	11.97	4004	0	0	5	5	0.02	0.05033038	1	15	0.04	1900	-2.982941	0	0
375996	4	0	17	0.1898877	-0.03671169	-2.542176	0	11.97	4004	0	0	5	5	0.02	0.05033038	1	15	0.04	1900	-2.982941	0	0
376052	4	0	17	0.1898877	-0.03671169	-2.542176	0	11.97	4004	0	0	5	5	0.02	0.05033038	1	15	0.04	1900	-2.982941	0	0
376100	4	0	17	0.1898877	-0.03671169	-2.542176	0	11.97	4004	0	0	5	5	0.02	0.05033038	1	15	0.04	1900	-2.982941	0	0
376155	4	0	17	0.1898877	-0.03671169	-2.542176	0	11.97	4004	0	0	5	5	0.02	0.05033038	1	15	0.04	1900	-2.982941	0	0
376267	4	0	17	0.1898877	-0.03671169	-2.542176	0	11.97	4004	0	0	5	5	0.02	0.05033038	1	15	0.04	1900	-2.982941	0	0
376401	4	0	17	0.1898877	-0.03671169	-2.542176	0	11.97	4004	0	0	5	5	0.02	0.05033038	1	15	0.04	1900	-2.982941	0	0
376471	4	0	17	0.1898877	-0.03671169	-2.542176	0	11.97	4004	0	0	5	5	0.02	0.05033038	1	15	0.04	1900	-2.982941	0	0
376607	4	0	17	0.1898877	-0.03671169	-2.542176	0	11.91	4004	0	0	5	5	0.02	0.05033038	1	15	0.04	1900	-2.982941	0	0
376684	4	0	17	0.1898877	-0.03671169	-2.542176	0	11.91	4004	0	0	5	5	0.02	0.05033038	1	15	0.04	1900	-2.982941	0	0
376786	4	0	17	0.1898877	-0.03671169	-2.542176	0	11.91	4004	0	0	5	5	0.02	0.05033038	1	15	0.04	1900	-2.982941	0	0
376866	4	0	17	0.1898877	-0.03671169	-2.542176	0	11.91	4004	0	0	5	5	0.02	0.05033038	1	15	0.04	1900	-2.982941	0	0
376956	4	0	17	0.1898877	-0.03671169	-2.542176	0	11.91	4004	0	0	5	5	0.02	0.05033038	1	15	0.04	1900	-2.982941	0	0
377082	4	0	17	0.1898877	-0.03671169	-2.542176	0	11.91	4004	0	0	5	5	0.02	0.05033038	1	15	0.04	1900	-2.982941	0	0
377154	4	0	17	0.1898877	-0.03671169	-2.542176	0	11.91	4004	0	0	5	5	0.02	0.05033038	1	15	0.04	1900	-2.982941	0	0
377212	4	0	17	0.1898877	-0.03671169	-2.542176	0	11.91	4004	0	0	5	5	0.02	0.05033038	1	15	0.04	1900	-2.982941	0	0
377263	4	0	17	0.1898877	-0.03671169	-2.542176	0	11.91	4004	0	0	5	5	0.02	0.05033038	1	15	0.04	1900	-2.982941	0	0
377446	4	0	17	0.1898877	-0.03671169	-2.542176	0	11.91	4004	0	0	5	5	0.02	0.05033038	1	15	0.04	1900	-2.982941	0	0
377521	4	0	17	0.1898877	-0.03671169	-2.542176	0	11.91	4004	0	0	5	5	0.02	0.05033038	1	15	0.04	1900	-2.982941	0	0
377596	4	0	17	0.1898877	-0.03671169	-2.542176	0	11.91	4004	0	0	5	5	0.02	0.05033038	1	15	0.04	1900	-2.982941	0	0
377714	4	0	17	0.1898877	-0.03671169	-2.542176	0	11.91	4004	0	0	5	5	0.02	0.05033038	1	15	0.04	1900	-2.982941	0	0
377763	4	0	17	0.1898877	-0.03671169	-2.542176	0	11.91	4004	0	0	5	5	0.02	0.05033038	1	15	0.04	1900	-2.982941	0	0
377893	4	0	17	0.1898877	-0.03671169	-2.542176	0	11.91	4004	0	0	5	5	0.02	0.05033038	1	15	0.04	1900	-2.982941	0	0
377932	4	0	17	0.1898877	-0.03671169	-2.542176	0	11.91	4004	0	0	5	5	0.02	0.05033038	1	15	0.04	1900	-2.982941	0	0
378050	4	0	17	0.1898877	-0.03671169	-2.542176	0	11.91	4004	0	0	5	5	0.02	0.05033038	1	15	0.04	1900	-2.982941	0	0
378093	4	0	17	0.1898877	-0.03671169	-2.542176	0	11.91	4004	0	0	5	5	0.02	0.05033038	1	15	0.04	1900	-2.982941	0	0
378268	4	0	17	0.1898877	-0.03671169	-2.542176	0	11.91	4004	0	0	5	5	0.02	0.05033038	1	15	0.04	1900	-2.982941	0	0
378313	4	0	17	0.1898877	-0.03671169	-2.542176	0	11.91	4004	0	0	5	5	0.02	0.05033038	1	15	0.04	1900	-2.982941	0	0
378403	4	0	17	0.1898877	-0.03671169	-2.542176	0	11.91	4004	0	0	5	5	0.02	0.05033038	1	15	0.04	1900	-2.982941	0	0
378545	4	0	17	0.1898877	-0.03671169	-2.542176	0	11.91	4004	0	0	5	5	0.02	0.05033038	1	15	0.04	1900	-2.982941	0	0
378646	4	0	17	0.1898877	-0.03671169	-2.542176	0	11.91	4004	0	0	5	5	0.02	0.05033038	1	15	0.04	1900	-2.982941	0	0
378716	4	0	17	0.1898877	-0.03671169	-2.542176	0	11.91	4004	0	0	5	5	0.02	0.05033038	1	15	0.04	1900	-2.982941	0	0
378864	4	0	17	0.1898877	-0.03671169	-2.542176	0	11.91	4004	0	0	5	5	0.02	0.05033038	1	15	0.04	1900	-2.982941	0	0
378926	4	0	17	0.1898877	-0.03671169	-2.542176	0	11.91	4004	0	0	5	5	0.02	0.05033038	1	15	0.04	1900	-2.982941	0	0
378998	4	0	17	0.1898877	-0.03671169	-2.542176	0	11.91	4004	0	0	5	5	0.02	0.05033038	1	15	0.04	1900	-2.982941	0	0
379069	4	0	17	0.1898877	-0.03671169	-2.542176	0	11.91	4004	0	0	5	5	0.02	0.05033038	1	15	0.04	1900	-2.982941	0	0
379169	4	0	17	0.1898877	-0.03671169	-2.542176	0	11.97	4004	0	0	5	5	0.02	0.05033038	1	15	0.04	1900	-2.982941	0	0
379329	4	0	17	0.1898877	-0.03671169	-2.542176	0	11.97	4004	0	0	5	5	0.02	0.05033038	1	15	0.04	1900	-2.982941	0	0
379430	4	0	17	0.1898877	-0.03671169	-2.542176	0	11.97	4004	0	0	5	5	0.02	0.05033038	1	15	0.04	1900	-2.982941	0	0
379563	4	0	17	0.1898877	-0.03671169	-2.542176	0	11.97	4004	0	0	5	5	0.02	0.05033038	1	15	0.04	1900	-2.982941	0	0
379692	4	0	17	0.1898877	-0.03671169	-2.542176	0	11.97	4004	0	0	5	5	0.02	0.05033038	1	15	0.04	1900	-2.982941	0	0
379829	4	0	17	0.1898877	-0.03671169	-2.542176	0	11.97	4004	0	0	5	5	0.02	0.05033038	1	15	0.04	1900	-2.982941	0	0
379904	4	0	17	0.1898877	-0.03671169	-2.542176	0	11.97	4004	0	0	5	5	0.02	0.05033038	1	15	0.04	1900	-2.982941	0	0
379988	4	0	17	0.1898877	-0.03671169	-2.542176	0	11.97	4004	0	0	5	5	0.02	0.05033038	1	15	0.04	1900	-2.982941	0	0
380139	4	0	17	0.1898877	-0.03671169	-2.542176	0	11.97	4004	0	0	5	5	0.02	0.05033038	1	15	0.04	1900	-2.982941	0	0
380232	4	0	17	0.1898877	-0.03671169	-2.542176	0	11.97	4004	0	0	5	5	0.02	0.05033038	1	15	0.04	1900	-2.982941	0	0
380346	4	0	17	0.1898877	-0.03671169	-2.542176	0	11.97	4004	0	0	5	5	0.02	0.05033038	1	15	0.04	1900	-2.982941	0	0
380513	4	0	17	0.1898877	-0.03671169	-2.542176	0	11.97	4004	0	0	5	5	0.02	0.05033038	1	15	0.04	1900	-2.982941	0	0
380562	4	0	17	0.1898877	-0.03671169	-2.542176	0	11.97	4004	0	0	5	5	0.02	0.05033038	1	15	0.04	1900	-2.982941	0	0
380676	4	0	17	0.1898877	-0.03671169	-2.542176	0	11.97	4004	0	0	5	5	0.02	0.05033038	1	15	0.04	1900	-2.982941	0	0
380718	4	0	17	0.1898877	-0.03671169	-2.542176	0	11.97	4004	0	0	5	5	0.02	0.05033038	1	15	0.04	1900	-2.982941	0	0
380885	4	0	17	0.1898877	-0.03671169	-2.542176	0	11.97	4004	0	0	5	5	0.02	0.05033038	1	15	0.04	1900	-2.982941	0	0
380961	4	0	17	0.1898877	-0.03671169	-2.542176	0	11.91	4004	0	0	5	5	0.02	0.05033038	1	15	0.04	1900	-2.982941	0	0
381030	4	0	17	0.1898877	-0.03671169	-2.542176	0	11.91	4004	0	0	5	5	0.02	0.05033038	1	15	0.04	1900	-2.982941	0	0
381070	4	0	17	0.1898877	-0.03671169	-2.542176	0	11.91	4004	0	0	5	5	0.02	0.05033038	1	15	0.04	1900	-2.982941	0	0
381195	4	0	17	0.1898877	-0.03671169	-2.542176	0	11.91	4004	0	0	5	5	0.02	0.05033038	1	15	0.04	1900	-2.982941	0	0
381255	4	0	17	0.1898877	-0.03671169	-2.542176	0	11.91	4004	0	0	5	5	0.02	0.05033038	1	15	0.04	1900	-2.982941	0	0
381347	4	0	17	0.1898877	-0.03671169	-2.542176	0	11.91	4004	0	0	5	5	0.02	0.05033038	1	15	0.04	1900	-2.982941	0	0
381444	4	0	17	0.1898877	-0.03671169	-2.542176	0	11.91	4004	0	0	5	5	0.02	0.05033038	1	15	0.04	1900	-2.982941	0	0
381572	4	0	17	0.1898877	-0.03671169	-2.542176	0	11.91	4004	0	0	5	5	0.02	0.05033038	1	15	0.04	1900	-2.982941	0	0
381652	4	0	17	0.1898877	-0.03671169	-2.542176	0	11.91	4004	0	0	5	5	0.02	0.05033038	1	15	0.04	1900	-2.982941	0	0
381767	4	0	17	0.1898877	-0.03671169	-2.542176	0	11.91	4004	0	0	5	5	0.02	0.05033038	1	15	0.04	1900	-2.982941	0	0
381842	4	0	17	0.1898877	-0.03671169	-2.542176	0	11.97	4004	0	0	5	5	0.02	0.05033038	1	15	0.04	1900	-2.982941	0	0
382025	4	0	17	0.1898877	-0.03671169	-2.542176	0	11.97	4004	0	0	5	5	0.02	0.05033038	1	15	0.04	1900	-2.982941	0	0
382076	4	0	17	0.1898877	-0.03671169	-2.542176	0	11.97	4004	0	0	5	5	0.02	0.05033038	1	15	0.04	1900	-2.982941	0	0
382167	4	0	17	0.1898877	-0.03671169	-2.542176	0	11.97	4004	0	0	5	5	0.02	0.05033038	1	15	0.04	1900	-2.982941	0	0
382269	4	0	17	0.1898877	-0.03671169	-2.542176	0	11.97	4004	0	0	5	5	0.02	0.05033038	1	15	0.04	1900	-2.982941	0	0
382385	4	0	17	0.1898877	-0.03671169	-2.542176	0	11.97	4004	0	0	5	5	0.02	0.05033038	1	15	0.04	1900	-2.982941	0	0
382520	4	0	17	0.1898877	-0.03671169	-2.542176	0	11.97	4004	0	0	5	5	0.02	0.05033038	1	15	0.04	1900	-2.982941	0	0
382616	4	0	17	0.1898877	-0.03671169	-2.542176	0	11.97	4004	0	0	5	5	0.02	0.05033038	1	15	0.04	1900	-2.982941	0	0
382698	4	0	17	0.1898877	-0.03671169	-2.542176	0	11.91	4004	0	0	5	5	0.02	0.05033038	1	15	0.04	1900	-2.982941	0	0
382877	4	2	0	0.7893685	-0.009391333	0.2752481	0	11.91	4002	0	0	5	5	0.02	0.05594383	1	15	0.04	1900	-4.142426	0	0
382966	0	-4	-2	0.663155	-0.006942077	0.2779381	0	11.91	4003	0	0	5	5	0.02	0.05717355	1	15	0.04	1900	-4.023346	0	0
383106	1	2	1	0.5577196	-0.006329476	0.2781825	0	11.91	4003	0	0	5	5	0.02	0.05919528	1	15	0.04	1900	-3.607697	0	0
383234	1	-3	0	0.4906899	-0.01189825	0.2785492	0	11.91	4004	0	0	5	5	0.02	0.05346608	1	15	0.04	1900	-3.444	0	0
383309	2	1	1	0.4331872	-0.01222362	0.2790384	0	11.91	4003	0	0	5	5	0.02	0.04623051	1	15	0.04	1900	-3.374969	0	0
383402	-1	-2	2	0.3807974	-0.01637764	0.2813002	0	11.91	4003	0	0	5	5	0.02	0.03814318	1	15	0.04	1900	-3.507996	0	0
383581	6	1	-6	0.2928282	-0.01403351	0.2837457	0	11.91	4004	0	0	5	5	0.02	0.008404879	1	15	0.04	1900	-3.399261	0	0
383634	3	0	-2	0.2840679	-0.01456874	0.2842959	0	11.91	4002	0	0	5	5	0.02	0.0004994329	1	15	0.04	1900	-3.129517	0	0
383724	2	0	0	0.2567516	-0.01223037	0.2851519	0	11.91	4002	0	0	5	5	0.02	-0.001039001	1	15	0.04	1900	-3.551208	0	0
383786	1	3	-3	0.2339333	-0.01289126	0.2857634	0	11.91	4003	0	0	5	5	0.02	-0.002416013	1	15	0.04	1900	-3.081604	0	0
383906	1	0	1	0.1956663	-0.01323065	0.2853355	0	11.91	4003	0	0	5	5	0.02	-0.004316433	1	15	0.04	1900	-3.221252	0	0
384096	3	0	0	0.1460053	-0.009632706	0.2861916	0	11.91	4003	0	0	5	5	0.02	0.01031982	1	15	0.04	1900	-2.910553	0	0
384175	-3	0	-1	0.1353306	-0.008453688	0.2859471	0	11.91	4004	0	0	5	5	0.02	0.01077029	1	15	0.04	1900	-3.115112	0	0
384350	4	0	-3	0.1189614	-0.0107513	0.287231	0	11.91	4004	0	0	5	5	0.02	-0.0009247803	1	15	0.04	1900	-3.091125	0	0
384407	3	-3	-6	0.1146725	-0.01242851	0.2901653	0	11.91	4003	0	0	5	5	0.02	-0.00506647	1	15	0.04	1900	-3.082703	0	0
384478	0	2	2	0.1141767	-0.01406715	0.2906545	0	11.97	4003	0	0	5	5	0.02	-0.01238459	1	15	0.04	1900	-3.078217	0	0
384613	1	0	3	0.1045736	-0.01877114	0.2901652	0	11.97	4003	0	0	5	5	0.02	-0.03222936	1	15	0.04	1900	-3.053741	0	0
384771	3	0	-3	0.08607797	-0.02076275	0.289982	0	11.97	4003	0	0	5	5	0.02	-0.04891673	1	15	0.04	1900	-3.052673	0	0
384807	6	0	2	0.07828647	-0.0215833	0.2913271	0	11.97	4003	0	0	5	5	0.02	-0.05135881	1	15	0.04	1900	-3.246674	0	0
384906	3	1	3	0.07261486	-0.02057373	0.2895542	0	11.97	4003	0	0	5	5	0.02	-0.05641779	1	15	0.04	1900	-3.031342	0	0
384981	1	-1	0	0.06669117	-0.02023254	0.2902876	0	11.97	4004	0	0	5	5	0.02	-0.06331876	1	15	0.04	1900	-2.99939	0	0
385078	2	-3	0	0.05852094	-0.01606274	0.2901653	0	11.97	4002	0	0	5	5	0.02	-0.07063529	1	15	0.04	1900	-3.001465	0	0
385211	3	2	-2	0.05317292	-0.009412042	0.2902263	0	11.97	4002	0	0	5	5	0.02	-0.08772469	1	15	0.04	1900	-2.983246	0	0
385374	-1	2	4	0.0465912	-0.01395789	0.2940781	0	11.91	4004	0	0	5	5	0.02	-0.08909492	1	15	0.04	1900	-3.195557	0	0
385439	3	2	-2	0.04600176	-0.007278742	0.2943837	0	11.91	4003	0	0	5	5	0.02	-0.09090273	1	15	0.04	1900	-2.746918	0	0
385615	0	0	1	0.02981259	-0.007064868	0.2919993	0	11.91	4002	0	0	5	5	0.02	-0.117466	1	15	0.04	1900	-2.942322	0	0
385744	1	-1	1	0.0275582	-0.006333062	0.2931606	0	11.91	4004	0	0	5	5	0.02	-0.120433	1	15	0.04	1900	-2.712189	0	0
385811	-2	2	0	0.0264111	-0.006600722	0.2935275	0	11.91	4002	0	0	5	5	0.02	-0.1152256	1	15	0.04	1900	-2.948456	0	0
385878	-2	0	-2	0.02783488	-0.009185639	0.2933442	0	11.91	4003	0	0	5	5	0.02	-0.1017517	1	15	0.04	1900	-2.929718	0	0
385967	7	1	-3	0.02941717	-0.01044973	0.2940167	0	11.91	4004	0	0	5	5	0.02	-0.09276529	1	15	0.04	1900	-2.938934	0	0
386043	-1	0	-3	0.02143176	-0.01198999	0.295056	0	11.91	4003	0	0	5	5	0.02	-0.08149454	1	15	0.04	1900	-2.936279	0	0
386128	4	-4	-1	0.0186026	-0.01342548	0.2959121	0	11.91	4002	0	0	5	5	0.02	-0.08015566	1	15	0.04	1900	-2.918365	0	0
386290	1	1	0	0.01906923	-0.0105707	0.2968902	0	11.91	4002	0	0	5	5	0.02	-0.07687459	1	15	0.04	1900	-2.93457	0	0
386474	-1	-4	-4	0.01506205	-0.005412533	0.2995191	0	11.91	4003	0	0	5	5	0.02	-0.09600509	1	15	0.04	1900	-3.132324	0	0
515658	-3	-1	4	-0.03181798	0.007059583	-0.08044208	0	11.91	4003	0	0	5	5	0.02	-0.03201346	1	15	0.04	1900	-3.052948	40.92367	-91.39362
515689	-5	-1	0	-0.03247487	0.007227639	-0.07964737	0	11.91	4003	0	0	5	5	0.02	-0.0357077	1	15	0.04	1900	-2.822479	40.92367	-91.39362
515849	0	-2	0	-0.03529012	0.005810333	-0.0838654	0	11.91	4002	0	0	5	5	0.02	-0.04966322	1	15	0.04	1900	-2.625031	40.92367	-91.39362
515952	-4	0	2	-0.03494212	0.009125699	-0.08545495	0	11.91	4002	0	0	5	5	0.02	-0.05560273	1	15	0.04	1900	-2.840179	40.92367	-91.39362
516043	-2	3	0	-0.03231642	0.001021984	-0.0857608	0	11.91	4003	0	0	5	5	0.02	-0.0630071	1	15	0.04	1900	-2.845428	40.92367	-91.39362
516090	-1	-1	-4	-0.02922068	0.005695576	-0.08637208	0	11.91	4003	0	0	5	5	0.02	-0.06504341	1	15	0.04	1900	-2.845428	40.92367	-91.39362
516150	-3	0	4	-0.02680969	0.003959341	-0.08704462	0	11.91	4004	0	0	5	5	0.02	-0.0726723	1	15	0.04	1900	-2.849731	40.92367	-91.39362
516246	-2	1	0	-0.03045522	0.001043745	-0.08820612	0	11.91	4003	0	0	5	5	0.02	-0.0786368	1	15	0.04	1900	-2.627441	40.92367	-91.39362
516370	-8	0	-1	-0.03290702	0.003295013	-0.08851167	0	11.91	4003	0	0	5	5	0.02	-0.08056526	1	15	0.04	1900	-2.837982	40.92367	-91.39362
516508	-3	2	3	-0.03249149	0.01054856	-0.0926074	0	11.91	4002	0	0	5	5	0.02	-0.07487719	1	15	0.04	1900	-2.833008	40.92367	-91.39362
516574	-4	-4	-2	-0.03268747	0.01232787	-0.09236301	0	11.91	4004	0	0	5	5	0.02	-0.07356268	1	15	0.04	1900	-2.833008	40.92367	-91.39362
516630	-2	0	1	-0.02934285	0.01155208	-0.09462498	0	11.91	4002	0	0	5	5	0.02	-0.07415777	1	15	0.04	1900	-2.620575	40.92367	-91.39362
516732	-4	0	0	-0.03244949	0.00488449	-0.09407483	0	11.91	4004	0	0	5	5	0.02	-0.08295218	1	15	0.04	1900	-3.287384	40.92367	-91.39362
516848	-6	0	0	-0.03160644	0.008662984	-0.09444169	0	11.91	4002	0	0	5	5	0.02	-0.09134919	1	15	0.04	1900	-3.079773	40.92367	-91.39362
516934	-9	2	2	-0.03137438	0.009099884	-0.09633671	0	11.91	4003	0	0	5	5	0.02	-0.09831519	1	15	0.04	1900	-2.620422	40.92367	-91.39362
517056	-6	-1	1	-0.0298929	0.005649965	-0.09810951	0	11.91	4004	0	0	5	5	0.02	-0.1137534	1	15	0.04	1900	-2.842377	40.92367	-91.39362
517155	-4	-2	1	-0.03296862	0.002772173	-0.09872083	0	11.91	4002	0	0	5	5	0.02	-0.1237305	1	15	0.04	1900	-2.848114	40.92367	-91.39362
517243	-10	-3	3	-0.03104324	0.007780872	-0.100555	0	11.91	4003	0	0	5	5	0.02	-0.1323291	1	15	0.04	1900	-2.846924	40.92367	-91.39362
517426	-6	0	2	-0.03439932	0.01876207	-0.1001881	0	11.91	4002	0	0	5	5	0.02	-0.1344175	1	15	0.04	1900	-2.619629	40.92367	-91.39362
517490	-4	-3	-1	-0.02978194	0.01892978	-0.09963796	0	11.91	4002	0	0	5	5	0.02	-0.1369281	1	15	0.04	1900	-2.828308	40.92367	-91.39362
517545	-6	-4	3	-0.03007025	0.018862	-0.09865972	0	11.91	4002	0	0	5	5	0.02	-0.1355142	1	15	0.04	1900	-2.848602	40.92367	-91.39362
517679	1	3	0	-0.02222314	0.01504252	-0.09719253	0	11.91	4004	0	0	5	5	0.02	-0.130851	1	15	0.04	1900	-2.869751	40.92367	-91.39362
517831	0	1	3	-0.01901953	0.01742682	-0.09798749	0	11.91	4003	0	0	5	5	0.02	-0.1274588	1	15	0.04	1900	-2.86319	40.92367	-91.39362
517941	-7	-1	2	-0.01910057	0.02680636	-0.09810985	0	11.91	4004	0	0	5	5	0.02	-0.129498	1	15	0.04	1900	-2.64502	40.92367	-91.39362
518049	-1	-1	-1	-0.01958037	0.02494216	-0.1003721	0	11.91	4002	0	0	5	5	0.02	-0.1353296	1	15	0.04	1900	-2.852386	40.92367	-91.39362
518120	-3	-2	0	-0.01840943	0.02640852	-0.09963841	0	11.91	4002	0	0	5	5	0.02	-0.1406354	1	15	0.04	1900	-2.852386	40.92367	-91.39362
518325	-2	-2	2	-0.01423442	0.02780639	-0.09829369	0	11.91	4003	0	0	5	5	0.02	-0.1612249	1	15	0.04	1900	-2.644287	40.92367	-91.39362
518404	-2	-3	1	-0.006573896	0.02734824	-0.0980492	0	11.91	4002	0	0	5	5	0.02	-0.1743486	1	15	0.04	1900	-2.660065	40.92367	-91.39361
518517	0	3	-2	0.002300323	0.02621507	-0.09652101	0	11.91	4004	0	0	5	5	0.02	-0.1827592	1	15	0.04	1900	-2.68573	40.92366	-91.39361
518552	-2	-2	-7	0.004231679	0.02487194	-0.09499257	0	11.91	4003	0	0	5	5	0.02	-0.185633	1	15	0.04	1900	-2.68573	40.92366	-91.39361
518723	-5	2	-1	-0.00929631	0.02533045	-0.09279144	0	11.91	4004	0	0	5	5	0.02	-0.186274	1	15	0.04	1900	-2.885864	40.92366	-91.39361
518848	-2	-1	3	-0.009290397	0.02708156	-0.0922412	0	11.91	4004	0	0	5	5	0.02	-0.178885	1	15	0.04	1900	-2.657806	40.92366	-91.39361
519002	1	5	0	-0.006209685	0.01172558	-0.09187415	0	11.91	4002	0	0	5	5	0.02	-0.1673004	1	15	0.04	1900	-2.879486	40.92366	-91.39361
519066	2	-3	3	-0.007563935	0.01476959	-0.09242433	0	11.91	4003	0	0	5	5	0.02	-0.1609742	1	15	0.04	1900	-2.895905	40.92367	-91.39361
519183	0	-3	-5	-0.007174198	0.01760304	-0.09107953	0	11.91	4004	0	0	5	5	0.02	-0.1488602	1	15	0.04	1900	-2.650482	40.92367	-91.39361
519350	-1	-1	-2	-0.00833208	0.02024509	-0.08955097	0	11.91	4004	0	0	5	5	0.02	-0.1339311	1	15	0.04	1900	-2.88681	40.92367	-91.39361
519495	-3	2	0	-0.006754245	0.009715977	-0.08533257	0	11.85	4002	0	0	5	5	0.02	-0.1103933	1	15	0.04	1900	-2.8862	40.92367	-91.39361
519622	-3	-3	4	-0.0007891915	0.01018548	-0.08453781	0	11.85	4003	0	0	5	5	0.02	-0.09512234	1	15	0.04	1900	-2.89209	40.92367	-91.39361
519682	-2	0	3	0.001798877	0.01070222	-0.08606614	0	11.85	4002	0	0	5	5	0.02	-0.08728365	1	15	0.04	1900	-2.687958	40.92367	-91.39361
519788	-1	0	0	-0.003040419	0.006673332	-0.08576058	0	11.85	4002	0	0	5	5	0.02	-0.08244922	1	15	0.04	1900	-2.902405	40.92367	-91.39361
519859	-1	0	0	-0.0003012233	0.01195704	-0.08594387	0	11.85	4002	0	0	5	5	0.02	-0.08123232	1	15	0.04	1900	-2.902405	40.92367	-91.39361
519996	0	0	-4	-0.001593534	0.008391289	-0.08533265	0	11.85	4003	0	0	5	5	0.02	-0.07171584	1	15	0.04	1900	-2.682526	40.92367	-91.39361
520041	0	-1	-3	0.003135178	0.007013874	-0.08404879	0	11.85	4002	0	0	5	5	0.02	-0.07133861	1	15	0.04	1900	-2.88855	40.92367	-91.39361
520182	-1	1	1	0.009267283	0.007975824	-0.08209254	0	11.85	4002	0	0	5	5	0.02	-0.07040952	1	15	0.04	1900	-2.90506	40.92367	-82.25424
520252	-6	0	-1	0.007266408	0.007707138	-0.08239828	0	11.85	4003	0	0	5	5	0.02	-0.07019347	1	15	0.04	1900	-2.915466	40.92367	-63.9755
520367	-3	0	2	0.003040658	0.007574027	-0.08178692	0	11.91	4004	0	0	5	5	0.02	-0.07787533	1	15	0.04	1900	-2.678528	40.92367	-36.5574
520420	-4	0	4	0.001840424	0.009188849	-0.08282627	0	11.91	4004	0	0	5	5	0.02	-0.08488743	1	15	0.04	1900	-2.678528	40.92367	-36.5574
520484	0	-3	-2	0.004786693	0.007088551	-0.08355996	0	11.91	4002	0	0	5	5	0.02	-0.08550704	1	15	0.04	1900	-2.897919	40.92367	-36.5574
520601	0	-1	-2	0.0004469786	0.01460147	-0.08453823	0	11.91	4003	0	0	5	5	0.02	-0.08400767	1	15	0.04	1900	-2.673889	40.92367	-36.5574
520706	0	-4	-2	0.005949559	0.01837934	-0.084844	0	11.91	4003	0	0	5	5	0.02	-0.07632635	1	15	0.04	1900	-2.910309	40.92367	-36.5574
520801	0	-1	0	0.007460118	0.02013418	-0.08594444	0	11.91	4004	0	0	5	5	0.02	-0.07187793	1	15	0.04	1900	-2.916138	40.92367	-36.5574
520965	-5	2	0	0.008167887	0.01876175	-0.0862501	0	11.91	4003	0	0	5	5	0.02	-0.05937552	1	15	0.04	1900	-2.908142	40.92367	-82.25424
521080	0	-2	2	0.007623579	0.01768898	-0.08563862	0	11.91	4002	0	0	5	5	0.02	-0.05606257	1	15	0.04	1900	-2.92981	40.92367	-91.39361
521191	0	-2	0	0.008994914	0.01609654	-0.08429361	0	11.91	4004	0	0	5	5	0.02	-0.04555771	1	15	0.04	1900	-2.90683	40.92367	-91.39361
521290	2	-4	1	0.009693753	0.01676392	-0.08484383	0	11.91	4004	0	0	5	5	0.02	-0.03590343	1	15	0.04	1900	-2.909271	40.92368	-91.39361
521481	0	1	-2	0.01096298	0.01374787	-0.08557753	0	11.91	4002	0	0	5	5	0.02	-0.03409799	1	15	0.04	1900	-2.916656	40.92368	-91.3936
521595	-1	0	0	0.01317001	0.006242395	-0.08606662	0	11.91	4002	0	0	5	5	0.02	-0.02343634	1	15	0.04	1900	-2.692596	40.92368	-91.3936
521717	0	-5	-4	0.01727125	0.009059404	-0.08722834	0	11.91	4004	0	0	5	5	0.02	-0.01467047	1	15	0.04	1900	-2.909637	40.92368	-91.3936
521854	2	0	-1	0.0158098	0.009529997	-0.08912347	0	11.91	4003	0	0	5	5	0.02	-0.01157738	1	15	0.04	1900	-2.918396	40.92367	-91.3936
521987	1	-1	2	0.01122588	0.00472929	-0.08838984	0	11.91	4002	0	0	5	5	0.02	-0.01017778	1	15	0.04	1900	-2.687439	40.92368	-91.3936
522073	0	0	-1	0.005193119	0.001468781	-0.08655582	0	11.91	4003	0	0	5	5	0.02	-0.00948374	1	15	0.04	1900	-2.688019	40.92368	-91.3936
522233	1	1	-1	0.01386578	0.00311636	-0.08686192	0	11.91	4003	0	0	5	5	0.02	-0.01400985	1	15	0.04	1900	-2.916656	40.92368	-91.3936
522288	2	0	0	0.01920635	0.003284896	-0.086801	0	11.91	4004	0	0	5	5	0.02	-0.01582753	1	15	0.04	1900	-2.916656	40.92368	-91.3936
522333	0	1	-1	0.01601389	0.002114771	-0.08729009	0	11.91	4002	0	0	5	5	0.02	-0.01617922	1	15	0.04	1900	-2.936859	40.92368	-91.3936
522451	0	0	3	0.0135663	0.006860674	-0.08606748	0	11.91	4004	0	0	5	5	0.02	-0.01868772	1	15	0.04	1900	-2.928192	40.92368	-91.3936
522543	-4	-2	0	0.01717683	0.006464529	-0.08551726	0	11.91	4003	0	0	5	5	0.02	-0.0140228	1	15	0.04	1900	-2.921722	40.92368	-91.3936
522622	-1	0	-2	0.01870802	0.00115905	-0.08551718	0	11.91	4003	0	0	5	5	0.02	-0.005874533	1	15	0.04	1900	-2.924469	40.92368	-91.3936
522743	0	1	5	0.0230508	-0.0008580729	-0.08508909	0	11.91	4003	0	0	5	5	0.02	0.006668879	1	15	0.04	1900	-2.70752	40.92368	-91.3936
522851	0	0	0	0.02092117	-0.004391687	-0.08417209	0	11.91	4003	0	0	5	5	0.02	0.01926084	1	15	0.04	1900	-2.930786	40.92368	-91.3936
522949	-3	1	-3	0.02202793	-0.003236531	-0.0837441	0	11.91	4002	0	0	5	5	0.02	0.02395307	1	15	0.04	1900	-2.724304	40.92368	-91.3936
523000	2	3	-2	0.02197445	-0.006285639	-0.0828883	0	11.91	4004	0	0	5	5	0.02	0.02851404	1	15	0.04	1900	-2.707123	40.92368	-91.3936
523129	-3	0	0	0.02847011	-0.001721816	-0.08184814	0	11.91	4003	0	0	5	5	0.02	0.0577478	1	15	0.04	1900	-2.949127	40.92368	-91.3936
523187	0	-1	0	0.02494019	-0.004482772	-0.08129804	0	11.91	4003	0	0	5	5	0.02	0.06110321	1	15	0.04	1900	-2.726807	40.92368	-91.3936
523231	-1	0	-2	0.02165632	-0.003025895	-0.08129801	0	11.91	4003	0	0	5	5	0.02	0.05908548	1	15	0.04	1900	-3.144653	40.92368	-91.3936
523258	-3	6	0	0.02146383	-0.0007150464	-0.08135904	0	11.91	4004	0	0	5	5	0.02	0.05977903	1	15	0.04	1900	-2.70752	40.92368	-91.3936
523295	-1	-2	-1	0.01970872	-0.004070725	-0.08166467	0	11.91	4002	0	0	5	5	0.02	0.05563968	1	15	0.04	1900	-2.70752	40.92368	-91.3936
523386	2	-5	0	0.02488949	-0.001863265	-0.08264293	0	11.91	4003	0	0	5	5	0.02	0.0486739	1	15	0.04	1900	-2.927185	40.92368	-91.3936
523487	1	-3	2	0.02361679	-0.00143468	-0.08086976	0	11.91	4002	0	0	5	5	0.02	0.04755122	1	15	0.04	1900	-3.169739	40.92368	-91.3936
523576	-1	-2	0	0.02496754	-0.001466825	-0.08056429	0	11.91	4004	0	0	5	5	0.02	0.03931222	1	15	0.04	1900	-3.155975	40.92368	-91.3936
523651	-5	2	1	0.02720705	-0.001441135	-0.08044205	0	11.91	4004	0	0	5	5	0.02	0.03587894	1	15	0.04	1900	-2.722656	40.92368	-91.3936
523755	-5	-1	0	0.02460533	0.001430102	-0.08087003	0	11.91	4003	0	0	5	5	0.02	0.03231766	1	15	0.04	1900	-2.944763	40.92368	-91.3936
523859	2	2	1	0.02040156	0.004854464	-0.08148157	0	11.91	4004	0	0	5	5	0.02	0.03087099	1	15	0.04	1900	-2.920959	40.92368	-91.3936
523964	-1	-4	-3	0.01851118	0.002225132	-0.08093124	0	11.91	4002	0	0	5	5	0.02	0.0283143	1	15	0.04	1900	-2.706329	40.92368	-91.3936
524073	0	-3	0	0.01823611	-0.001310721	-0.0810535	0	11.91	4003	0	0	5	5	0.02	0.01929768	1	15	0.04	1900	-2.706329	40.92368	-91.3936
