time(ms)	gyro_x(deg/s)	gyro_y(deg/s)	gyro_z(deg/s)	orientation_roll(deg)	orientation_pitch(deg)	orientation_yaw(deg)	throttle	battery(V)	loop_time(uS)	pid_output_roll	pid_output_pitch	pid_output_yaw	pid_output_throttle	ultrasonic_alt	baro_alt	flight_mode	p_gain_altitude	i_gain_altitude	d_gain_altitude	compass_heading	latitude	longitude
524341	2	-1	2	0.01578706	-0.002233167	-0.08252065	0	11.91	4003	0	0	5	5	0.02	0.01457958	1	15	0.04	1900	-2.9198	40.92368	-91.3936
524403	1	0	0	0.01160416	0.0001547	-0.08160385	0	11.91	4004	0	0	5	5	0.02	0.01535142	1	15	0.04	1900	-2.916168	40.92368	-91.3936
524485	1	-5	-1	0.006258246	-0.0009322041	-0.08123701	0	11.91	4002	0	0	5	5	0.02	0.01200251	1	15	0.04	1900	-2.909668	40.92368	-91.3936
524585	-2	-1	1	0.005335208	-0.0003752125	-0.08294872	0	11.91	4004	0	0	5	5	0.02	0.006906484	1	15	0.04	1900	-2.897644	40.92368	-91.3936
524687	0	0	-5	-0.002611126	0.002853016	-0.0828262	0	11.85	4004	0	0	5	5	0.02	-0.006811366	1	15	0.04	1900	-2.905029	40.92368	-91.39359
524813	-2	-4	-1	0.004385186	0.007590991	-0.08270393	0	11.85	4003	0	0	5	5	0.02	-0.034576	1	15	0.04	1900	-2.910675	40.92368	-91.39359
524886	-3	-1	-2	0.004564587	0.008837293	-0.08355974	0	11.85	4003	0	0	5	5	0.02	-0.0506018	1	15	0.04	1900	-2.900879	40.92368	-91.39359
524996	-4	-1	-3	0.001041721	0.01092345	-0.08313201	0	11.85	4002	0	0	5	5	0.02	-0.05738005	1	15	0.04	1900	-2.890106	40.92368	-91.39359
525097	3	0	-2	0.002172953	0.009238905	-0.08325431	0	11.85	4002	0	0	5	5	0.02	-0.06533793	1	15	0.04	1900	-2.905731	40.92368	-91.39359
525205	1	2	2	0.001847502	0.01112837	-0.08484365	0	11.85	4004	0	0	5	5	0.02	-0.0718204	1	15	0.04	1900	-2.895172	40.92368	-91.39359
525308	-5	0	-1	0.0001748973	0.009310855	-0.08453797	0	11.85	4002	0	0	5	5	0.02	-0.08346105	1	15	0.04	1900	-2.887024	40.92368	-91.39359
525410	0	1	1	0.009099862	0.00942238	-0.08209287	0	11.85	4003	0	0	5	5	0.02	-0.1007295	1	15	0.04	1900	-2.673798	40.92368	-91.39359
525528	0	0	-1	0.0156188	0.00703762	-0.08276532	0	11.85	4003	0	0	5	5	0.02	-0.1084282	1	15	0.04	1900	-2.925446	40.92368	-91.39359
525619	0	-2	-3	0.01322056	0.007654832	-0.08148149	0	11.85	4003	0	0	5	5	0.02	-0.1142853	1	15	0.04	1900	-2.925171	40.92368	-91.39359
525729	4	3	4	0.01114855	0.009821131	-0.08093116	0	11.85	4004	0	0	5	5	0.02	-0.1096243	1	15	0.04	1900	-2.69046	40.92368	-91.39359
525829	0	-3	-4	0.01470314	0.01023055	-0.08111461	0	11.85	4002	0	0	5	5	0.02	-0.1070033	1	15	0.04	1900	-2.70459	40.92369	-91.39359
525941	-3	-5	0	0.01151626	0.00644984	-0.08111449	0	11.85	4003	0	0	5	5	0.02	-0.09966487	1	15	0.04	1900	-2.912231	40.92369	-91.39359
526038	1	-4	1	0.005795558	0.005275761	-0.07940265	0	11.85	4002	0	0	5	5	0.02	-0.09083595	1	15	0.04	1900	-2.903351	40.92369	-91.39359
526140	2	0	0	0.007564615	0.008877228	-0.08007533	0	11.85	4010	0	0	5	5	0.02	-0.08440713	1	15	0.04	1900	-2.674805	40.92369	-91.39359
526244	0	-1	0	0.01036205	0.004137307	-0.07830246	0	11.85	4003	0	0	5	5	0.02	-0.07857116	1	15	0.04	1900	-2.676361	40.92369	-91.3936
526339	0	2	0	0.008194006	0.00742633	-0.07989201	0	11.85	4003	0	0	5	5	0.02	-0.068762	1	15	0.04	1900	-2.908569	40.92369	-91.3936
526443	3	0	-4	0.0156008	0.01094428	-0.07989195	0	11.85	4002	0	0	5	5	0.02	-0.06261554	1	15	0.04	1900	-2.907288	40.92369	-91.3936
526583	3	-5	1	0.02216812	0.01109645	-0.08221526	0	11.91	4003	0	0	5	5	0.02	-0.06081691	1	15	0.04	1900	-2.705627	40.92369	-91.3936
526654	4	1	-1	0.0217314	0.01421884	-0.08435579	0	11.91	4003	0	0	5	5	0.02	-0.06438769	1	15	0.04	1900	-2.924835	40.92369	-91.3936
526757	4	-1	2	0.02584386	0.01625829	-0.08319417	0	11.91	4002	0	0	5	5	0.02	-0.06983607	1	15	0.04	1900	-2.916992	40.92369	-91.3936
526870	0	0	-3	0.02499344	0.008177555	-0.08447805	0	11.91	4004	0	0	5	5	0.02	-0.0700543	1	15	0.04	1900	-2.713196	40.92369	-91.3936
526965	-2	-3	-3	0.01934755	0.005452683	-0.08496717	0	11.91	4002	0	0	5	5	0.02	-0.06882205	1	15	0.04	1900	-2.708191	40.92369	-91.39359
527079	4	4	0	0.01800369	-0.003023789	-0.08478368	0	11.91	4004	0	0	5	5	0.02	-0.0675855	1	15	0.04	1900	-2.698547	40.92369	-91.39359
527286	1	4	5	0.01640332	0.004332712	-0.08478366	0	11.91	4003	0	0	5	5	0.02	-0.0609412	1	15	0.04	1900	-3.136719	40.92369	-91.39359
527447	0	3	2	0.02794869	-0.003922315	-0.08869655	0	11.91	4003	0	0	5	5	0.02	-0.06272569	1	15	0.04	1900	-2.708862	40.92369	-91.39359
527534	2	3	0	0.03078533	-0.00185219	-0.08863533	0	11.85	4010	0	0	5	5	0.02	-0.0649367	1	15	0.04	1900	-2.953339	40.92369	-91.39359
527578	1	-1	5	0.0298399	-0.003706341	-0.08991928	0	11.85	4003	0	0	5	5	0.02	-0.06551968	1	15	0.04	1900	-2.954041	40.92369	-91.39359
527693	0	0	7	0.0373176	-0.0002486354	-0.09273131	0	11.85	4004	0	0	5	5	0.02	-0.07117341	1	15	0.04	1900	-3.175751	40.92369	-91.39359
527852	3	2	-2	0.0350872	0.003675606	-0.09419869	0	11.85	4003	0	0	5	5	0.02	-0.09291839	1	15	0.04	1900	-3.173615	40.92369	-91.39359
527891	0	-2	4	0.03425667	0.006105417	-0.09462672	0	11.85	4003	0	0	5	5	0.02	-0.09601364	1	15	0.04	1900	-3.173615	40.9237	-91.39359
527996	1	-6	-2	0.03102677	0.009431073	-0.09554372	0	11.85	4002	0	0	5	5	0.02	-0.1010029	3	15	0.04	1900	-2.710815	40.9237	-91.39359
528091	2	1	3	0.0336277	0.009202335	-0.09615547	0	11.85	4004	0	0	5	5	0.02	-0.09257226	3	15	0.04	1900	-3.15451	40.9237	-91.39359
528206	1	0	1	0.03645742	0.007047072	-0.09536076	0	11.85	4003	0	0	5	5	0.02	-0.07889938	3	15	0.04	1900	-2.950409	40.9237	-91.39359
528321	0	-1	-3	0.03070054	0.009526292	-0.09536057	0	11.85	4003	0	0	5	5	0.02	-0.06833916	3	15	0.04	1900	-2.954315	40.9237	-91.39359
528437	2	-1	2	0.03476888	0.01033801	-0.09639978	0	11.91	4003	0	0	5	5	0.02	-0.06526741	3	15	0.04	1900	-2.955505	40.9237	-91.39359
528566	3	-2	0	0.03593476	0.004002343	-0.09884551	0	11.91	4004	0	0	5	5	0.02	-0.06625758	3	15	0.04	1900	-2.730713	40.92371	-91.39359
528700	-3	3	-2	0.04355831	0.0007321351	-0.09896753	0	11.91	4011	0	0	5	5	0.02	-0.06866273	3	15	0.04	1900	-2.963257	40.92371	-91.39359
528769	0	-1	2	0.04562503	0.002884112	-0.1008627	0	11.91	4003	0	0	5	5	0.02	-0.07352642	3	15	0.04	1900	-2.744141	40.92371	-91.39359
528828	0	4	4	0.04639141	0.003502095	-0.1019634	0	11.91	4004	0	0	5	5	0.02	-0.0799841	3	15	0.04	1900	-2.964691	40.92371	-91.39359
528912	-1	2	5	0.04656904	0.002281166	-0.1041642	0	11.91	4003	0	0	5	5	0.02	-0.08307563	3	15	0.04	1900	-2.755157	40.92371	-91.39359
528982	1	-5	1	0.05650789	0.001106648	-0.1055093	0	11.91	4002	0	0	5	5	0.02	-0.08503798	3	15	0.04	1900	-2.986664	40.92371	-91.39359
529149	8	-3	-1	0.05825381	-0.0001241155	-0.1067321	0	11.91	4003	0	0	5	5	0.02	-0.08555559	3	15	0.04	1900	-2.984222	40.92371	-91.39359
529187	-4	1	-6	0.0541192	0.003657554	-0.1075881	0	11.91	4003	0	0	5	5	0.02	-0.0848358	3	15	0.04	1900	-2.771332	40.92371	-91.39359
529355	-1	0	2	0.0598938	0.00481502	-0.1103392	0	11.91	4002	0	0	5	5	0.02	-0.0841331	3	15	0.04	1900	-2.983521	40.92371	-91.39359
529474	3	1	3	0.05938129	0.005806548	-0.1111339	0	11.91	4002	0	0	5	5	0.02	-0.07966597	3	15	0.04	1900	-3.206421	40.92371	-91.39359
529557	0	3	0	0.06082993	-0.0008439315	-0.1115007	0	11.91	4003	0	0	5	5	0.02	-0.07364511	3	15	0.04	1900	-2.780884	40.92371	-91.39359
529637	0	2	3	0.05851763	-0.00641944	-0.1102778	0	11.91	4003	0	0	5	5	0.02	-0.07098259	3	15	0.04	1900	-2.980103	40.92371	-91.39359
529735	6	2	6	0.06225697	-0.009594686	-0.1105224	0	11.91	4003	0	0	5	5	0.02	-0.06562727	3	15	0.04	1900	-3.014709	40.92371	-91.39359
529751	2	0	0	0.06291278	-0.009395992	-0.1117451	0	11.91	4003	0	0	5	5	0.02	-0.06431548	3	15	0.04	1900	-3.014709	40.92371	-91.39359
529912	3	-4	0	0.06048433	-0.009776678	-0.1149852	0	11.91	4004	0	0	5	5	0.02	-0.07351413	3	15	0.04	1900	-2.990845	40.92371	-91.39359
530012	1	-4	-2	0.06466289	-0.01336233	-0.1154742	0	11.91	4003	0	0	5	5	0.02	-0.07670663	3	15	0.04	1900	-2.998566	40.92371	-91.39359
530054	3	1	2	0.06360228	-0.01015592	-0.1154742	0	11.91	4003	0	0	5	5	0.02	-0.07998337	3	15	0.04	1900	-2.771881	40.92371	-91.39359
530219	4	0	0	0.067704	-0.01253321	-0.1170637	0	11.91	4002	0	0	5	5	0.02	-0.0749945	3	15	0.04	1900	-2.777954	40.92371	-91.39359
530262	1	4	-3	0.06471498	-0.01431938	-0.1171246	0	11.91	4003	0	0	5	5	0.02	-0.07275933	3	15	0.04	1900	-2.987335	40.92371	-91.39359
530409	8	1	-1	0.06953375	-0.0127842	-0.1170023	0	11.91	4004	0	0	5	5	0.02	-0.05958108	3	15	0.04	1900	-3.00238	40.92371	-91.39359
530487	0	0	2	0.07127672	-0.01660576	-0.1184693	0	11.91	4003	0	0	5	5	0.02	-0.05351515	3	15	0.04	1900	-2.799194	40.92371	-91.39359
530558	2	-4	0	0.07045368	-0.01492438	-0.1192029	0	11.91	4004	0	0	5	5	0.02	-0.05028479	3	15	0.04	1900	-3.010468	40.92371	-91.39359
530681	-4	-1	0	0.07130492	-0.01896682	-0.1183472	0	11.91	4003	0	0	5	5	0.02	-0.04387135	3	15	0.04	1900	-3.005493	40.92371	-91.39359
530805	1	2	2	0.06882434	-0.01650168	-0.1193253	0	11.91	4004	0	0	5	5	0.02	-0.03877727	3	15	0.04	1900	-3.00412	40.92371	-91.39359
530913	1	1	1	0.0663074	-0.009129206	-0.1190805	0	11.91	4003	0	0	5	5	0.02	-0.03953891	3	15	0.04	1900	-2.76828	40.92371	-91.39359
530993	3	1	0	0.06643245	-0.01118024	-0.1189582	0	11.91	4002	0	0	5	5	0.02	-0.02706439	3	15	0.04	1900	-3.014832	40.92371	-91.39359
531061	4	3	0	0.07073367	-0.009724981	-0.1198751	0	11.85	4004	0	0	5	5	0.02	-0.01953766	3	15	0.04	1900	-3.001892	40.92371	-91.39359
531154	3	-5	0	0.0647046	-0.004397583	-0.1196916	0	11.85	4004	0	0	5	5	0.02	-0.01020192	3	15	0.04	1900	-2.998535	40.92371	-91.39359
531207	5	5	0	0.06256413	-0.00417674	-0.1193243	0	11.85	4004	0	0	5	5	0.02	-0.006076131	3	15	0.04	1900	-2.998535	40.92371	-91.39359
531341	5	0	0	0.06085168	-0.00646647	-0.1204858	0	11.85	4003	0	0	5	5	0.02	0.00308992	3	15	0.04	1900	-2.990845	40.92371	-91.39359
531444	1	3	-4	0.06291324	-0.005102627	-0.1193242	0	11.85	4003	0	0	5	5	0.02	0.01888423	3	15	0.04	1900	-2.99353	40.92371	-91.39359
531520	0	1	-2	0.06715199	0.002641677	-0.1205469	0	11.85	4003	0	0	5	5	0.02	0.02047543	3	15	0.04	1900	-2.998413	40.92371	-91.39359
531600	5	4	-4	0.06803039	0.003644523	-0.119997	0	11.85	4002	0	0	5	5	0.02	0.02107657	3	15	0.04	1900	-3.003387	40.92371	-91.39359
531682	9	-3	1	0.06843696	0.004863523	-0.1199968	0	11.85	4002	0	0	5	5	0.02	0.02072367	3	15	0.04	1900	-2.776672	40.92371	-91.39359
531800	7	0	2	0.07163241	0.008093067	-0.1193242	0	11.85	4002	0	0	5	5	0.02	0.02009231	3	15	0.04	1900	-3.005005	40.92371	-91.39359
531904	7	1	0	0.06974567	0.007084037	-0.1203023	0	11.85	4003	0	0	5	5	0.02	0.01945356	3	15	0.04	1900	-3.005554	40.92371	-91.39359
532043	0	0	1	0.07283168	0.009049017	-0.1204241	0	11.91	4002	0	0	5	5	0.02	0.02735723	3	15	0.04	1900	-3.003815	40.92371	-91.39359
532128	1	-3	-1	0.07569317	0.008029346	-0.1185287	0	11.91	4003	0	0	5	5	0.02	0.03489675	3	15	0.04	1900	-2.787567	40.92371	-91.39359
532159	5	0	0	0.07476721	0.005684202	-0.1181008	0	11.91	4003	0	0	5	5	0.02	0.03869193	3	15	0.04	1900	-3.00351	40.92371	-91.39359
532230	2	-4	-2	0.0748086	0.002323035	-0.1175503	0	11.91	4003	0	0	5	5	0.02	0.043555	3	15	0.04	1900	-3.219635	40.92371	-91.39359
532333	2	3	1	0.07895838	0.0007876999	-0.1183451	0	11.91	4002	0	0	5	5	0.02	0.04601935	3	15	0.04	1900	-2.796204	40.92371	-91.39359
532441	3	0	0	0.0816356	0.004942904	-0.1178559	0	11.91	4003	0	0	5	5	0.02	0.04541555	3	15	0.04	1900	-3.021271	40.92371	-91.39359
532537	7	1	1	0.08462573	0.003567806	-0.118406	0	11.91	4002	0	0	5	5	0.02	0.04269557	3	15	0.04	1900	-3.02771	40.92371	-91.39359
532641	4	0	-3	0.07855583	0.001221907	-0.1181614	0	11.91	4003	0	0	5	5	0.02	0.0387447	3	15	0.04	1900	-3.02771	40.92371	-91.39359
532730	2	3	-3	0.07999721	0.003679821	-0.1176111	0	11.91	4004	0	0	5	5	0.02	0.0378933	3	15	0.04	1900	-3.250458	40.92371	-91.39359
532831	3	1	1	0.0810662	0.004587549	-0.1173664	0	11.91	4002	0	0	5	5	0.02	0.03525193	3	15	0.04	1900	-2.810608	40.92371	-91.39359
533024	9	4	1	0.0876872	0.008144667	-0.117611	0	11.91	4003	0	0	5	5	0.02	0.02677808	3	15	0.04	1900	-2.806061	40.92371	-91.39359
533057	10	-4	-1	0.08897343	0.007791037	-0.1174276	0	11.91	4003	0	0	5	5	0.02	0.02264117	3	15	0.04	1900	-2.810242	40.92371	-91.39359
533132	11	4	0	0.09034321	0.004718929	-0.117611	0	11.91	4003	0	0	5	5	0.02	0.02001104	3	15	0.04	1900	-3.270325	40.92371	-91.39359
533307	23	1	-19	0.08492113	0.01090802	-0.1070928	0	11.91	4003	0	0	5	5	0.02	0.03173648	3	15	0.04	1900	-2.848022	40.92371	-91.39359
533410	21	28	114	0.06806112	0.02942126	-0.1178645	0	11.91	4004	0	0	5	5	0.02	0.04374537	3	15	0.04	1900	-1.93042	40.92371	-91.39359
533485	-34	21	112	0.06837076	0.01740564	-0.1242199	0	11.91	4003	0	0	5	5	0.02	0.05047986	3	15	0.04	1900	-2.583984	40.92371	-91.39359
533564	10	32	49	0.06703131	0.02265481	-0.1081363	0	11.91	4003	0	0	5	5	0.02	0.06013645	3	15	0.04	1900	-2.812134	40.92371	-91.39359
533675	10	28	59	0.08245532	0.006360477	-0.1236476	0	11.91	4002	0	0	5	5	0.02	0.06845835	3	15	0.04	1900	-2.411926	40.92371	-91.39359
533705	-52	-9	-21	0.04970286	0.04107421	-0.1315941	0	11.85	4004	0	0	5	5	0.02	0.07037449	3	15	0.04	1900	-1.75238	40.92371	-91.39359
533822	41	18	-13	0.04401346	0.0312536	-0.1430802	0	11.85	4002	0	0	5	5	0.02	0.08057392	3	15	0.04	1900	-2.570068	40.92371	-91.39359
533878	7	28	4	0.06473867	0.02720068	-0.1375753	0	11.85	4002	0	0	5	5	0.02	0.08239659	3	15	0.04	1900	-1.732452	40.92371	-91.39359
534005	-53	10	-7	0.07092699	0.03626297	-0.1275485	0	11.85	4003	0	0	5	5	0.02	0.09475756	3	15	0.04	1900	-2.81543	40.92371	-91.39359
534110	8	29	44	0.07821877	0.05846042	-0.1351937	0	11.85	4004	0	0	5	5	0.02	0.1000849	3	15	0.04	1900	-2.403168	40.92371	-91.39359
534145	15	0	45	0.08410991	0.008491125	-0.1413032	0	11.85	4004	0	0	5	5	0.02	0.09783387	3	15	0.04	1900	-3.058167	40.92371	-91.39359
534288	0	0	-9	0.08763314	0.004667195	-0.1422247	0	11.85	4003	0	0	5	5	0.02	0.09287654	3	15	0.04	1900	-2.401154	40.92371	-91.39359
534322	-6	-10	2	0.08031356	0.002654165	-0.1514567	0	11.85	4003	0	0	5	5	0.02	0.09519009	3	15	0.04	1900	-2.401154	40.92371	-91.39359
534424	-23	30	-9	0.07700303	0.0006448371	-0.1463774	0	11.85	4002	0	0	5	5	0.02	0.09658422	3	15	0.04	1900	-2.195038	40.92371	-91.3936
534474	-6	27	27	0.08298042	-0.001221141	-0.1496787	0	11.85	4002	0	0	5	5	0.02	0.1007939	3	15	0.04	1900	-2.195038	40.92371	-91.3936
534627	50	21	94	0.08250117	0.02749436	-0.1530956	0	11.8	4003	0	0	5	5	0.02	0.1062466	3	15	0.04	1900	-2.806915	40.92371	-91.3936
534684	-71	-4	135	0.07634203	0.02465346	-0.1467968	0	11.8	4002	0	0	5	5	0.02	0.1078309	3	15	0.04	1900	-2.806915	40.92371	-91.3936
534822	-42	16	-46	0.07437117	0.04222947	-0.1329164	0	11.8	4004	0	0	5	5	0.02	0.1064655	3	15	0.04	1900	-2.89032	40.92371	-91.3936
534991	29	-35	12	0.08346544	0.08199277	-0.1298625	0	11.8	4003	0	0	5	5	0.02	0.1043166	3	15	0.04	1900	-3.133118	40.92372	-91.3936
535099	137	34	-36	0.1075643	0.08523936	-0.1217955	0	11.8	4003	0	0	5	5	0.02	0.09771956	3	15	0.04	1900	-2.888855	40.92372	-91.3936
535183	-31	-98	-39	0.1069622	0.09303875	-0.1337762	0	11.8	4003	0	0	5	5	0.02	0.09599252	3	15	0.04	1900	-2.87207	40.92372	-91.3936
535356	101	85	70	0.1427842	0.1115121	-0.1386643	0	11.8	4002	0	0	5	5	0.02	0.09821781	3	15	0.04	1900	-2.969513	40.92372	-91.3936
535551	-44	24	-47	0.04289258	0.1067796	-0.1564578	0	11.63	4003	0	0	5	5	0.02	0.1065449	3	15	0.04	1900	-2.354034	40.92373	-91.3936
535684	22	-7	-40	0.05394161	0.1050666	-0.1585334	0	11.63	4003	0	0	5	5	0.02	0.1076523	3	15	0.04	1900	-3.222778	40.92373	-91.3936
535739	0	22	40	0.05473252	0.08600902	-0.1613505	0	11.63	4004	0	0	5	5	0.02	0.1126736	3	15	0.04	1900	-2.831665	40.92373	-91.3936
535811	-55	-33	150	0.08061662	0.09052199	-0.1596404	0	11.63	4003	0	0	5	5	0.02	0.1089105	3	15	0.04	1900	-2.831665	40.92373	-91.3936
535904	65	-33	-43	0.1244931	0.09298289	-0.1707006	0	11.63	4003	0	0	5	5	0.02	0.1030334	3	15	0.04	1900	-2.84198	40.92373	-91.3936
535967	66	102	10	0.1094223	0.02207038	-0.1828083	0	11.63	4004	0	0	5	5	0.02	0.1030995	3	15	0.04	1900	-2.877869	40.92373	-91.3936
536070	-99	-39	-45	0.1259536	0.0260649	-0.1896613	0	11.63	4002	0	0	5	5	0.02	0.09641433	3	15	0.04	1900	-2.514038	40.92373	-91.3936
536282	76	108	77	0.1128508	0.03103667	-0.2007267	0	11.63	4004	0	0	5	5	0.02	0.09582212	3	15	0.04	1900	-2.685608	40.92373	-91.3936
536354	-39	-39	55	0.131944	0.02344948	-0.2004233	0	11.85	4003	0	0	5	5	0.02	0.1028783	3	15	0.04	1900	-3.335907	40.92373	-91.3936
536416	84	31	123	0.1315964	0.005512272	-0.2050827	0	11.85	4004	0	0	5	5	0.02	0.1036932	3	15	0.04	1900	-2.902649	40.92373	-91.3936
536548	-95	-142	-13	0.1324868	-0.0160311	-0.2168234	0	11.85	4004	0	0	5	5	0.02	0.103694	3	15	0.04	1900	-2.898224	40.92373	-91.3936
536616	19	-3	63	0.105442	0.009215739	-0.2145591	0	11.85	4004	0	0	5	5	0.02	0.1033211	3	15	0.04	1900	-2.955231	40.92373	-91.3936
536740	-73	-26	-61	0.03978888	0.02987729	-0.2277024	0	11.85	4002	0	0	5	5	0.02	0.1001488	3	15	0.04	1900	-2.807007	40.92373	-91.3936
536834	25	37	-24	0.04369923	-0.0004807769	-0.2398111	0	11.85	4002	0	0	5	5	0.02	0.1013683	3	15	0.04	1900	-2.362885	40.92373	-91.3936
536935	-9	-1	-87	0.01144635	0.04261396	-0.2384598	0	11.85	4003	0	0	5	5	0.02	0.1046173	3	15	0.04	1900	-2.340759	40.92373	-91.3936
536986	5	0	-36	0.009475616	0.0393654	-0.2480586	0	11.85	4002	0	0	5	5	0.02	0.1057545	3	15	0.04	1900	-2.296875	40.92373	-91.3936
537027	-77	-36	31	-0.02110736	0.0507869	-0.2497722	0	11.85	4003	0	0	5	5	0.02	0.1048024	3	15	0.04	1900	-2.734406	40.92373	-91.3936
537126	24	44	-7	-0.002142838	0.07016412	-0.2541744	0	11.85	4004	0	0	5	5	0.02	0.09331651	3	15	0.04	1900	-2.043793	40.92373	-91.3936
537251	-54	-9	48	0.003256708	0.07917591	-0.2483656	0	11.85	4002	0	0	5	5	0.02	0.08905769	3	15	0.04	1900	-2.701843	40.92373	-91.3936
537320	86	15	-53	0.01533756	0.07882728	-0.2516063	0	11.85	4004	0	0	5	5	0.02	0.08685579	3	15	0.04	1900	-2.486969	40.92373	-91.3936
537487	51	-37	-113	0.01595402	0.09474342	-0.2587585	0	11.85	4003	0	0	5	5	0.02	0.08175524	3	15	0.04	1900	-2.812195	40.92373	-91.3936
537568	-93	-86	-34	0.005309828	0.08564086	-0.2535024	0	11.85	4002	0	0	5	5	0.02	0.08477782	3	15	0.04	1900	-2.085266	40.92373	-91.3936
537671	-19	-19	92	0.04055879	0.0735373	-0.2711106	0	11.85	4002	0	0	5	5	0.02	0.09252457	3	15	0.04	1900	-2.126068	40.92373	-91.3936
537842	63	82	21	0.01306536	0.1170014	-0.2733085	0	11.85	4003	0	0	5	5	0.02	0.09888645	3	15	0.04	1900	-2.761108	40.92372	-91.3936
537931	100	-9	146	-0.001100631	0.1163998	-0.2729938	0	11.85	4003	0	0	5	5	0.02	0.1037804	3	15	0.04	1900	-2.678772	40.92372	-91.3936
538011	66	38	-121	-0.02645569	0.1590028	-0.2913306	0	11.85	4002	0	0	5	5	0.02	0.1016643	3	15	0.04	1900	-2.707489	40.92372	-91.3936
538138	-98	-151	40	-0.0971634	0.1693413	-0.2928561	0	11.8	4004	0	0	5	5	0.02	0.09265876	3	15	0.04	1900	-2.179382	40.92372	-91.3936
538205	51	-119	144	-0.08987891	0.1609918	-0.3042239	0	11.8	4002	0	0	5	5	0.02	0.0900581	3	15	0.04	1900	-2.374237	40.92372	-91.3936
538319	0	56	-12	-0.1071282	0.1694817	-0.3096043	0	11.8	4003	0	0	5	5	0.02	0.08459864	3	15	0.04	1900	-2.318359	40.92372	-91.3936
538413	-8	169	78	-0.1010465	0.1483322	-0.3063577	0	11.8	4002	0	0	5	5	0.02	0.08457703	3	15	0.04	1900	-1.641785	40.92372	-91.3936
538501	-28	-121	-104	-0.1016376	0.1617519	-0.3008005	0	11.8	4004	0	0	5	5	0.02	0.0836237	3	15	0.04	1900	-2.149628	40.92372	-91.3936
538700	-33	61	123	-0.1279475	0.2038317	-0.3152284	0	11.8	4002	0	0	5	5	0.02	0.09082937	3	15	0.04	1900	-2.553131	40.92372	-91.3936
538850	102	-23	176	-0.1182393	0.2274609	-0.3084903	0	11.8	4002	0	0	5	5	0.02	0.09039968	3	15	0.04	1900	-2.738922	40.92372	-91.39359
538898	-14	-17	0	-0.08650715	0.1962743	-0.3168021	0	11.8	4002	0	0	5	5	0.02	0.08982162	3	15	0.04	1900	-2.066223	40.92372	-91.39359
539051	-5	90	224	-0.0792089	0.2147973	-0.3400268	0	11.8	4002	0	0	5	5	0.02	0.09438863	3	15	0.04	1900	-1.845215	40.92372	-91.39359
539143	-83	-18	-116	-0.06771641	0.2035542	-0.3280903	0	11.8	4003	0	0	5	5	0.02	0.1049915	3	15	0.04	1900	-1.68811	40.92372	-91.39359
539193	66	22	158	-0.07515097	0.1940163	-0.3478436	0	11.8	4003	0	0	5	5	0.02	0.1070214	3	15	0.04	1900	-2.129883	40.92372	-91.39359
539246	0	139	0	-0.1106503	0.1804722	-0.3384273	0	11.8	4004	0	0	5	5	0.02	0.1112523	3	15	0.04	1900	-2.561584	40.92372	-91.39359
539376	-38	51	-5	-0.0972952	0.1800288	-0.3354912	0	11.8	4002	0	0	5	5	0.02	0.1143919	3	15	0.04	1900	-1.877777	40.92372	-91.39359
539564	-72	60	73	-0.1790553	0.2415394	-0.3520875	0	11.8	4004	0	0	5	5	0.02	0.09926143	3	15	0.04	1900	-2.30307	40.92372	-91.39359
539669	93	49	201	-0.1090622	0.309094	-0.3809348	0	11.8	4004	0	0	5	5	0.02	0.1006561	3	15	0.04	1900	-2.500153	40.92372	-91.39359
539865	94	3	282	-0.03263264	0.2935415	-0.3979096	0	11.57	4003	0	0	5	5	0.02	0.09420584	3	15	0.04	1900	-2.153412	40.92372	-91.39359
539903	66	15	-65	-0.05805165	0.3085881	-0.4042682	0	11.57	4003	0	0	5	5	0.02	0.09283961	3	15	0.04	1900	-2.153412	40.92372	-91.39359
539959	47	119	-44	-0.1172898	0.2470719	-0.4171678	0	11.57	4004	0	0	5	5	0.02	0.0919463	3	15	0.04	1900	-2.201813	40.92372	-91.39359
540063	-118	-156	273	-0.1567258	0.2128017	-0.4556147	0	11.57	4004	0	0	5	5	0.02	0.09663488	3	15	0.04	1900	-2.281433	40.92372	-91.39359
540175	-22	-154	269	-0.1679754	0.1838905	-0.4651138	0	11.57	4003	0	0	5	5	0.02	0.0951069	3	15	0.04	1900	-2.19931	40.92372	-91.39359
540261	99	151	-303	-0.2265953	0.1280159	-0.4813409	0	11.57	4003	0	0	5	5	0.02	0.09628826	3	15	0.04	1900	-1.504242	40.92372	-91.39359
540403	-83	-130	162	-0.2362821	0.109366	-0.4946147	0	11.57	4003	0	0	5	5	0.02	0.1031408	3	15	0.04	1900	-1.554993	40.92372	-91.39359
540510	11	-102	264	-0.2079767	0.1277604	-0.5209115	0	11.57	4002	0	0	5	5	0.02	0.1029299	3	15	0.04	1900	-2.801697	40.92372	-91.39359
540568	-69	83	-178	-0.2348875	0.129012	-0.5233945	0	11.57	4003	0	0	5	5	0.02	0.1035544	3	15	0.04	1900	-1.542175	40.92372	-91.39359
540671	15	31	-213	-0.2734326	0.04177245	-0.5339887	0	11.85	4003	0	0	5	5	0.02	0.09739248	3	15	0.04	1900	-2.294403	40.92372	-91.39359
540782	-13	45	-99	-0.2671266	0.0311357	-0.5565974	0	11.85	4003	0	0	5	5	0.02	0.09034982	3	15	0.04	1900	-2.100006	40.92372	-91.39359
540891	-29	-99	278	-0.2715841	-0.03570883	-0.5693868	0	11.85	4003	0	0	5	5	0.02	0.08316503	3	15	0.04	1900	-2.330841	40.92372	-91.39359
540926	41	75	-65	-0.2495272	-0.01044559	-0.5689643	0	11.85	4002	0	0	5	5	0.02	0.08207003	3	15	0.04	1900	-2.330841	40.92372	-91.39359
540997	-156	-59	-104	-0.2471632	0.01160054	-0.5674365	0	11.85	4004	0	0	5	5	0.02	0.08072262	3	15	0.04	1900	-2.42572	40.92372	-91.39359
541132	-116	-192	223	-0.296799	0.005287803	-0.5899432	0	11.85	4002	0	0	5	5	0.02	0.08234076	3	15	0.04	1900	-1.58847	40.92372	-91.39359
541318	274	134	-219	-0.2699164	-0.08398469	-0.5952621	0	11.85	4004	0	0	5	5	0.02	0.08565661	3	15	0.04	1900	-1.451447	40.92372	-91.39359
541487	237	-23	-104	-0.07893357	-0.128527	-0.6314076	0	11.85	4003	0	0	5	5	0.02	0.07694715	3	15	0.04	1900	-2.129242	40.92372	-91.39359
541574	-103	-23	55	-0.161668	-0.1404623	-0.6606903	0	11.63	4004	0	0	5	5	0.02	0.07617059	3	15	0.04	1900	-1.684479	40.92372	-91.39359
541720	-67	63	-142	-0.1652506	-0.1141446	-0.6671689	0	11.63	4004	0	0	5	5	0.02	0.08773613	3	15	0.04	1900	-2.355316	40.92372	-91.39359
541790	-211	-133	306	-0.1223761	0.004140248	-0.6901211	0	11.63	4003	0	0	5	5	0.02	0.1059138	3	15	0.04	1900	-2.306244	40.92372	-91.39359
541866	-89	-88	131	-0.08467047	0.1246804	-0.6992476	0	11.63	4003	0	0	5	5	0.02	0.1246174	3	15	0.04	1900	-1.982239	40.92372	-91.39359
542049	-89	5	-429	-0.4559751	0.07669987	-0.7007563	0	11.63	4004	0	0	5	5	0.02	0.161746	3	15	0.04	1900	-1.807434	40.92372	-91.39359
542150	86	-259	25	-0.3321474	0.05752222	-0.722821	0	11.63	4003	0	0	5	5	0.02	0.1717368	3	15	0.04	1900	-1.979584	40.92372	-91.39359
542235	151	87	-123	-0.3037118	0.03009137	-0.7322226	0	11.63	4003	0	0	5	5	0.02	0.1895094	3	15	0.04	1900	-1.768707	40.92372	-91.39359
542289	-77	-38	-142	-0.3012413	0.000274332	-0.7446601	0	11.63	4003	0	0	5	5	0.02	0.1962173	3	15	0.04	1900	-1.768707	40.92372	-91.3936
542448	113	105	56	-0.2132795	-0.01652479	-0.7659765	0	11.46	4004	0	0	5	5	0.02	0.2113008	3	15	0.04	1900	-1.55426	40.92372	-91.39359
542608	-364	-148	183	-0.2083895	-0.1132705	-0.7686307	0	11.46	4003	0	0	5	5	0.02	0.2328091	3	15	0.04	1900	-2.061218	40.92372	-91.39359
542728	126	168	25	-0.2141433	0.03296609	-0.7838545	0	11.46	4002	0	0	5	5	0.02	0.2456218	3	15	0.04	1900	-2.129089	40.92372	-91.39359
542782	-41	-31	5	-0.2201432	-0.09625583	-0.7872719	0	11.46	4003	0	0	5	5	0.02	0.2532776	3	15	0.04	1900	-2.473206	40.92372	-91.39359
542922	61	19	-50	-0.5230409	-0.02257559	-0.8092275	0	11.46	4004	0	0	5	5	0.02	0.264203	3	15	0.04	1900	-1.755432	40.92372	-91.39359
543005	-161	-18	-115	-0.541426	-0.003655315	-0.8145576	0	11.46	4004	0	0	5	5	0.02	0.2689953	3	15	0.04	1900	-1.839172	40.92372	-91.39359
543056	53	111	-64	-0.4419324	-0.04265851	-0.8188319	0	11.46	4004	0	0	5	5	0.02	0.2700781	3	15	0.04	1900	-1.508514	40.92372	-91.39359
543107	53	118	-148	-0.4335155	-0.04453399	-0.8021464	0	11.46	4004	0	0	5	5	0.02	0.2697309	3	15	0.04	1900	-1.345734	40.92372	-91.39359
543209	296	118	-278	-0.194984	-0.1785815	-0.812664	0	11.46	4004	0	0	5	5	0.02	0.2704928	3	15	0.04	1900	-2.407227	40.92372	-91.39359
543374	-60	86	-187	-0.172734	-0.04364427	-0.8302017	0	11.74	4004	0	0	5	5	0.02	0.2581651	3	15	0.04	1900	-2.59491	40.92372	-91.39359
543512	-231	0	175	-0.346939	-0.1544152	-0.8704951	0	11.74	4004	0	0	5	5	0.02	0.2469335	3	15	0.04	1900	-1.844574	40.92372	-91.39359
543662	-39	167	-16	-0.3965219	0.06275725	-0.8754482	0	11.74	4003	0	0	5	5	0.02	0.2344489	3	15	0.04	1900	-2.193207	40.92373	-91.39359
543794	117	-64	-62	-0.4749756	-0.03094489	-0.8832212	0	11.74	4003	0	0	5	5	0.02	0.2087291	3	15	0.04	1900	-1.921448	40.92373	-91.39359
543917	130	33	-101	-0.6578216	0.03763753	-0.8985062	0	11.74	4002	0	0	5	5	0.02	0.1935316	3	15	0.04	1900	-0.8972473	40.92373	-91.39359
544014	327	-32	-72	-0.5355515	0.01360192	-0.914114	0	11.74	4004	0	0	5	5	0.02	0.1759192	3	15	0.04	1900	-1.748199	40.92373	-91.39359
544074	-377	-82	253	-0.6387511	0.01785855	-0.927998	0	11.74	4003	0	0	5	5	0.02	0.1671104	3	15	0.04	1900	-0.8562012	40.92373	-91.39359
544253	90	63	-87	-0.618851	0.09163067	-0.9154766	0	11.34	4004	0	0	5	5	0.02	0.1558268	3	15	0.04	1900	-1.775574	40.92373	-91.39359
544330	-187	-89	231	-0.7994202	0.04027799	-0.9372284	0	11.34	4002	0	0	5	5	0.02	0.1509276	3	15	0.04	1900	-1.027618	40.92373	-91.39359
544470	-354	-133	450	-0.7485752	-0.02375964	-0.9829156	0	11.34	4002	0	0	5	5	0.02	0.1526215	3	15	0.04	1900	-1.124176	40.92373	-91.3936
544507	192	127	-97	-0.7016957	-0.03949504	-0.9644036	0	11.34	4003	0	0	5	5	0.02	0.1561071	3	15	0.04	1900	-0.7688904	40.92373	-91.3936
544572	-32	-42	62	-0.6253631	0.03816894	-0.9744529	0	11.34	4004	0	0	5	5	0.02	0.1578229	3	15	0.04	1900	-0.7688904	40.92373	-91.3936
544720	50	-64	-372	-0.6440202	0.02001313	-0.9626465	0	11.34	4002	0	0	5	5	0.02	0.1710066	3	15	0.04	1900	-1.421631	40.92373	-91.3936
544928	-234	-68	115	-0.4956396	-0.1186458	-1.010716	0	11.34	4002	0	0	5	5	0.02	0.1778314	3	15	0.04	1900	-1.998016	40.92373	-91.3936
545104	-152	162	-295	-0.5733257	-0.1195847	-1.013557	0	11.23	4002	0	0	5	5	0.02	0.1783569	3	15	0.04	1900	-1.610413	40.92373	-91.3936
545260	-173	-188	269	-0.9017075	-0.07350998	-1.056493	0	11.23	4003	0	0	5	5	0.02	0.1690008	3	15	0.04	1900	-0.6642151	40.92373	-91.3936
545372	260	233	-9	-0.6130613	-0.1395217	-1.054558	0	11.23	4003	0	0	5	5	0.02	0.1684445	3	15	0.04	1900	-1.182465	40.92373	-91.3936
545581	111	24	-54	-0.6999384	-0.09863164	-1.085206	0	11.23	4004	0	0	5	5	0.02	0.1725996	3	15	0.04	1900	-1.066315	40.92373	-91.3936
545689	53	-38	122	-0.6600552	-0.1335694	-1.081663	0	11.23	4003	0	0	5	5	0.02	0.1598761	3	15	0.04	1900	-1.007782	40.92373	-91.3936
545813	-158	-33	85	-0.56972	-0.0630729	-1.117008	0	11.23	4004	0	0	5	5	0.02	0.1329009	3	15	0.04	1900	-0.9698792	40.92373	-91.3936
545877	-23	104	187	-0.6410775	-0.007262163	-1.135711	0	11.23	4003	0	0	5	5	0.02	0.1255927	3	15	0.04	1900	-1.564972	40.92373	-91.3936
546037	-81	163	5	-1.030895	0.02844117	-1.182635	0	11.17	4002	0	0	5	5	0.02	0.108207	3	15	0.04	1900	-1.3638	40.92373	-91.3936
546216	-182	-3	-17	-0.9494367	0.115861	-1.205089	0	11.17	4003	0	0	5	5	0.0326988	0.07905371	6	15	0.04	1900	-0.8493652	40.92373	-91.3936
546346	25	18	29	-0.8130967	0.1647032	-1.211583	0	11.17	4003	0	0	5	5	0.04100259	0.07546913	6	15	0.04	1900	-1.061523	40.92373	-91.3936
546446	-172	90	-152	-0.8491427	0.1886409	-1.220087	0	11.17	4004	0	0	5	5	0.04541403	0.07344703	6	15	0.04	1900	-0.5581055	40.92373	-91.3936
546530	75	120	32	-1.047791	0.2878315	-1.216328	0	11.17	4003	0	0	5	5	0.04773393	0.07311022	6	15	0.04	1900	-0.4191895	40.92373	-91.3936
546618	-193	131	-214	-0.8886088	0.2470152	-1.203382	0	11.17	4003	0	0	5	5	0.05031192	0.07550194	6	15	0.04	1900	-0.9133911	40.92373	-91.3936
546696	195	-70	-255	-0.5472934	0.1617633	-1.229604	0	11.17	4002	0	0	5	5	0.05013714	0.08032001	6	15	0.04	1900	-1.037354	40.92373	-91.3936
546813	-1	58	92	-0.397478	0.1676173	-1.294649	0	11.17	4003	0	0	5	5	0.04801376	0.08116823	6	15	0.04	1900	-1.242035	40.92373	-91.3936
546847	-145	182	495	-0.3743377	0.1664341	-1.32725	0	11.17	4003	0	0	5	5	0.04897479	0.08099598	6	15	0.04	1900	-1.896057	40.92373	-91.3936
546972	278	299	-557	-0.1941046	-0.01294528	-1.332976	0	11.74	4003	0	0	5	5	0.04994147	0.0856189	6	15	0.04	1900	-1.173004	40.92373	-91.3936
547094	-60	-2	583	-0.2543391	-0.2170921	-1.343383	0	11.74	4004	0	0	5	5	0.05156101	0.09317586	6	15	0.04	1900	-2.487854	40.92373	-91.39361
547164	19	-92	-144	-0.2749296	-0.2592622	-1.333591	0	11.74	4002	0	0	5	5	0.05097321	0.1014797	6	15	0.04	1900	-2.173492	40.92373	-91.39361
547266	-45	-76	-93	-0.2635276	-0.2666802	-1.388203	0	11.74	4003	0	0	5	5	0.05191101	0.1126935	6	15	0.04	1900	-1.324066	40.92373	-91.39361
547334	-192	-243	-216	-0.5208749	-0.6865765	-1.325845	0	11.74	4002	0	0	5	5	0.05299648	0.1201127	6	15	0.04	1900	-1.213806	40.92373	-91.39361
547486	47	-63	-811	-0.6463023	-1.130078	-1.3268	0	11.74	4004	0	0	5	5	0.0527272	0.1386144	6	15	0.04	1900	-0.8166199	40.92373	-91.39361
547573	2792	943	-630	1.883086	-1.895764	-0.6166396	0	11.74	4002	0	0	5	5	0.05487597	0.1354394	6	15	0.04	1900	-1.189697	40.92373	-91.39361
547670	-359	-3401	-1367	3.637953	-1.651184	0.760316	0	11.74	4002	0	0	5	5	0.05905309	0.1439744	6	15	0.04	1900	0.2886452	40.92373	-91.39361
547775	1562	-238	365	2.491719	3.776275	0.342794	0	11.63	4003	0	0	5	5	0.06612296	0.1492219	6	15	0.04	1900	1.194059	40.92373	-91.39361
547920	3790	4334	-3265	0.5754052	0.2026735	-0.4815974	0	11.63	4004	0	0	5	5	0.07074934	0.155627	6	15	0.04	1900	6.376658	40.92374	-91.39361
548024	1232	-6800	-589	-2.577827	-2.981961	2.784311	0	11.63	4004	0	0	5	5	0.1131022	0.1538643	6	15	0.04	1900	4.111653	40.92374	-91.39361
548129	-7355	-4664	982	-8.191401	8.277404	2.207915	0	11.63	4003	0	0	5	5	0.2543278	0.1544911	8	15	0.04	1900	3.458832	40.92374	-91.39361
548206	-2820	5791	2699	-2.871261	16.33457	0.348737	0	11.63	4002	0	3	5	5	0.3055201	0.1645558	8	15	0.04	1900	-3.561218	40.92374	-91.39361
548412	-1636	2995	-1708	-9.481523	-7.83401	-1.67303	0	11.63	4002	0	1	5	5	0.4077788	0.1909173	8	15	0.04	1900	-1.444153	40.92374	-91.39361
548482	-3868	981	-1334	-12.60431	-8.801978	0.01490048	0	11.63	4003	0	9	5	5	0.43921	0.2010845	8	15	0.04	1900	-2.323669	40.92374	-91.39361
548537	-2358	6050	653	-15.05847	-13.90525	0.7962407	0	11.63	4003	0	2	5	5	0.4476651	0.2041003	8	15	0.04	1900	-10.9169	40.92374	-91.39361
548667	3220	4499	-1118	-13.53275	-22.26566	0.7371528	0	11.57	4002	-1	3	5	5	0.4738345	0.2143537	8	15	0.04	1900	-15.48721	40.92374	-91.39361
548733	2411	775	-2017	-8.983945	-23.38728	1.642666	0	11.57	4002	-4	7	5	5	0.4833205	0.2253311	8	15	0.04	1900	-19.08563	40.92375	-91.39361
548892	-1236	-5217	-99	0.02721313	-19.59793	3.003966	0	11.57	4002	-5	9	5	5	0.4998813	0.2762725	8	15	0.04	1900	-15.46658	40.92375	-91.39362
549046	6193	-537	2180	7.764423	-9.417699	-0.2334597	0	11.57	4002	-3	11	5	5	0.5096602	0.360604	8	15	0.04	1900	-11.70895	40.92375	-91.39362
549123	3197	218	333	11.25161	-8.059424	-0.3960374	0	11.57	4003	-4	9	5	5	0.5123394	0.4044026	8	15	0.04	1900	-7.75531	40.92376	-91.39362
549319	187	-1183	-1159	3.946916	-8.927022	1.037339	0	11.57	4002	-5	1	5	5	0.518298	0.5900394	8	15	0.04	1900	-5.617218	40.92376	-91.39362
549380	6666	-493	-456	10.70936	-10.78835	2.355226	0	11.57	4004	-9	8	5	5	0.5188443	0.626568	8	15	0.04	1900	-6.502502	40.92376	-91.39362
549576	-3359	-4374	134	6.383442	-5.955986	1.075789	0	11.29	4003	-10	10	5	5	0.5211481	0.7725937	8	15	0.04	1900	-1.017334	40.92376	-91.39362
549696	544	-813	136	3.81075	-3.445021	-0.1780728	0	11.29	4004	-7	9	5	5	0.5220467	0.8719247	8	15	0.04	1900	0.8757112	40.92376	-91.39362
549758	571	-1638	-130	3.898968	-3.547473	-0.2547902	0	11.29	4004	-7	9	5	5	0.5223724	0.9115416	8	15	0.04	1900	2.167632	40.92376	-91.39362
549805	1291	-4667	-1969	5.566947	-2.652895	0.5966435	0	11.29	4004	-7	6	5	5	0.5225112	0.9241388	8	15	0.04	1900	2.857737	40.92375	-91.39362
549930	-2982	-4776	-542	4.947065	2.069877	2.032098	0	11.29	4002	-7	5	5	5	0.523023	1.008441	8	15	0.04	1900	3.188531	40.92375	-91.39362
550033	-468	1324	2552	1.571103	4.380742	1.752706	0	11.29	4003	-8	8	5	5	0.5231632	1.038799	8	15	0.04	1900	3.49216	40.92375	-91.39362
550159	-238	1407	703	-0.4073128	-1.256902	0.4895495	0	11.29	4003	-8	9	5	5	0.523408	1.116962	8	15	0.04	1900	5.460141	40.92376	-91.39362
550228	849	2960	-2042	-0.03737346	-4.138445	1.434485	0	11.29	4004	-7	10	5	5	0.5234751	1.156573	8	15	0.04	1900	6.12336	40.92376	-91.39362
550347	-4313	-3530	725	-6.802131	-4.222349	2.201189	0	11.29	4003	-4	10	5	5	0.5235525	1.199655	8	15	0.04	1900	3.8933	40.92376	-91.39362
550463	-935	-1465	778	-8.938673	-2.146598	0.7295086	0	11.57	4002	-3	10	5	5	0.5236242	1.260964	8	15	0.04	1900	3.782603	40.92376	-91.39362
550603	-1338	-1213	612	-5.657384	-1.765411	-0.799354	0	11.57	4004	300	-300	5	5	0.5236802	1.317101	8	15	0.04	1900	-4.794525	40.92376	-63.97426
550756	-2108	1257	256	-14.69867	-1.987339	0.1581094	0	11.57	4002	300	11	5	5	0.523708	1.349883	8	15	0.04	1900	-7.046997	40.92376	-36.5549
550800	-4339	2196	687	-16.75316	-6.819685	0.04516224	0	11.57	4005	300	-300	5	5	0.5237134	1.356145	8	15	0.04	1900	-25.42056	40.92376	-36.5549
550910	-1213	-402	1130	-19.44009	-7.764394	-0.1451763	0	11.57	4004	300	12	5	5	0.5237297	1.346791	8	15	0.04	1900	-31.40231	40.92376	-36.5549
551066	-1223	542	-749	-18.24886	-9.299501	1.227137	0	11.57	4004	300	17	5	5	0.5237404	1.321599	8	15	0.04	1900	-46.55844	40.92377	-36.5549
551201	-4138	-3640	467	-18.62554	-6.153001	1.290686	0	11.57	4003	300	18	5	5	0.5237474	1.271878	8	15	0.04	1900	-48.99454	40.92377	-36.5549
551354	7477	3382	-713	-11.80214	-7.256776	-0.6895605	0	10.89	4004	-300	16	5	5	0.523753	1.201172	8	15	0.04	1900	-58.37943	40.92377	-82.25381
551485	4107	4222	-653	-2.006391	-13.25173	-1.734311	0	10.89	4003	1	16	5	5	0.5237557	1.13656	8	15	0.04	1900	-59.29605	40.92377	-91.3936
551608	2831	1817	-1631	5.158804	-17.14672	-0.1042245	0	10.89	4002	2	16	5	5	0.5237579	1.079762	8	15	0.04	1900	-42.25507	40.92377	-91.3936
551777	2553	-1372	500	7.371798	-18.50713	1.270215	0	10.89	4002	2	15	5	5	0.5237589	1.023243	8	15	0.04	1900	-28.46655	40.92377	-91.3936
551984	2155	-454	539	12.93236	-14.22713	-1.232907	0	10.89	4004	0	14	5	5	0.52376	0.9157282	8	15	0.04	1900	-19.48459	40.92377	-91.39361
552082	-1435	-5158	-1284	11.64176	-9.395149	-0.1584112	0	10.89	4004	-3	13	5	5	0.5237603	0.8318012	8	15	0.04	1900	-13.58951	40.92376	-91.39361
552173	-2029	1528	1436	6.36061	-5.188433	0.8552015	0	11.23	4002	-1	7	5	5	0.5237605	0.7524748	8	15	0.04	1900	-12.06351	40.92377	-91.39361
552281	-4296	-9190	-1562	-3.56505	4.351471	1.795934	0	11.23	4004	-3	14	5	5	0.5237607	0.6456338	8	15	0.04	1900	-10.40979	40.92377	-91.39362
552313	466	-3955	-530	-4.43637	12.86114	4.09	0	11.23	4003	-4	10	5	5	0.5237607	0.6327611	8	15	0.04	1900	-17.13406	40.92377	-91.39362
552431	3292	3921	1548	0.5330809	1.287838	0.08024894	0	11.23	4003	-8	14	5	5	0.5237607	0.5949916	8	15	0.04	1900	-17.90927	40.92377	-91.39362
552538	4440	5211	584	4.327121	-4.567114	-0.9263877	0	11.23	4004	-9	18	5	5	0.5237607	0.5275835	8	15	0.04	1900	-14.22626	40.92377	-91.39362
552577	-1481	2465	-1139	5.596111	-9.235001	-0.6965324	0	11.23	4002	-9	15	5	5	0.5237607	0.5208071	8	15	0.04	1900	-9.867493	40.92377	-91.39362
552738	343	4873	207	2.728573	-17.62194	0.7919227	0	11.23	4004	-10	15	5	5	0.5237607	0.4630565	8	15	0.04	1900	-4.545044	40.92377	-91.39362
552847	-773	-2278	-428	0.226823	-18.47481	1.62488	0	11.23	4004	-8	20	5	5	0.5237607	0.4372861	8	15	0.04	1900	-2.451904	40.92377	-91.39362
552881	-1000	-5598	1106	0.3036283	-15.5241	1.511607	0	11.23	4004	-8	14	5	5	0.5237607	0.4217908	8	15	0.04	1900	-2.451904	40.92377	-91.39362
552954	-5358	-9721	-1965	-1.3845	-8.845876	1.918147	0	11.23	4003	-8	14	5	5	0.5237607	0.4126643	8	15	0.04	1900	-2.980438	40.92377	-91.39362
553102	844	-735	411	3.716652	-8.65381	8.037	0	10.15	4003	-9	14	5	5	0.5237607	0.4268606	8	15	0.04	1900	-7.128693	40.92377	-91.39362
553249	370	-1453	2919	2.369041	-0.51391	-1.457597	0	10.15	4003	-9	14	5	5	0.5237607	0.4690332	8	15	0.04	1900	-0.6494446	40.92377	-91.39362
553374	-1243	-706	-1119	1.216388	-0.9022055	-3.027797	0	10.15	4004	-9	14	5	5	0.5237607	0.5493302	8	15	0.04	1900	0.297103	40.92377	-91.39362
553450	1634	-1720	-2628	-0.352554	-0.9588048	-0.1908669	0	10.15	4002	-9	14	5	5	0.5237607	0.5649626	8	15	0.04	1900	3.035726	40.92377	-91.39362
553553	-1645	-1951	46	-0.1324629	0.869119	2.070436	0	10.15	4004	-9	15	5	5	0.5237607	0.6655263	8	15	0.04	1900	3.005955	40.92377	-91.39362
553712	-1886	-1611	712	-4.454604	3.342253	1.40877	0	10.15	4004	-8	15	5	5	0.5237607	0.8067914	8	15	0.04	1900	0.394008	40.92377	-91.39362
553804	-2424	-1097	103	-6.362841	3.362057	1.055782	0	10.15	4002	-8	15	5	5	0.5237607	0.9714857	8	15	0.04	1900	-1.555481	40.92377	-91.39362
553960	-1667	-279	352	-11.96864	3.641575	-0.6930234	0	11.17	4002	-3	19	5	5	0.5237607	1.061488	8	15	0.04	1900	-9.39679	40.92377	-91.39362
554132	-370	2837	-1055	-11.05269	-2.152332	0.2858786	0	11.17	4004	-1	17	5	5	0.5237607	1.183699	8	15	0.04	1900	-24.23398	40.92377	-91.39362
554181	-181	2867	-267	-10.6723	-3.371159	0.4499645	0	11.17	4004	-4	17	5	5	0.5237607	1.260784	8	15	0.04	1900	-24.23398	40.92377	-91.39362
554240	-501	2010	-491	-10.14573	-5.617826	0.7785432	0	11.17	4003	-4	17	5	5	0.5237607	1.273225	8	15	0.04	1900	-26.64441	40.92377	-91.39362
554384	-535	2120	4	-11.27916	-9.661011	0.3612911	0	11.17	4002	-2	17	5	5	0.5237607	1.342847	8	15	0.04	1900	-31.53284	40.92377	-91.39361
554467	2269	544	882	-7.250379	-11.54453	0.2900696	0	11.17	4004	-2	14	5	5	0.5237607	1.360818	8	15	0.04	1900	-32.46921	40.92377	-91.39361
554532	845	908	402	-6.080335	-11.49889	0.08363111	0	11.17	4003	-1	18	5	5	0.5237607	1.375558	8	15	0.04	1900	-29.50238	40.92377	-91.39361
554724	851	3661	-332	-1.555731	-16.17383	0.01743428	0	11.17	4003	3	17	5	5	0.5237607	1.368897	8	15	0.04	1900	-27.79837	40.92377	-91.39361
554775	698	316	-128	-0.2318067	-17.20229	0.5494586	0	11.17	4003	0	17	5	5	0.5237607	1.360315	8	15	0.04	1900	-27.12103	40.92377	-91.3936
554925	-321	-1664	364	0.2516484	-14.27926	0.7475833	0	10.89	4003	1	17	5	5	0.5237607	1.301775	8	15	0.04	1900	-25.96283	40.92377	-91.3936
555010	6	-2595	131	0.664664	-10.72283	-0.02034766	0	10.89	4002	2	16	5	5	0.5237607	1.254224	8	15	0.04	1900	-25.65884	40.92377	-91.3936
555162	-511	-4445	-387	4.681941	-7.009764	-0.08458421	0	10.89	4003	2	16	5	5	0.5237607	1.142136	8	15	0.04	1900	-24.3432	40.92377	-91.3936
555264	-2413	-2285	371	1.619524	1.167672	-1.049026	0	10.89	4003	2	20	5	5	0.5237607	1.082876	8	15	0.04	1900	-26.13242	40.92377	-91.3936
555363	-116	633	-454	1.818457	-1.041275	-2.226386	0	10.89	4002	2	14	5	5	0.5237607	0.9624335	8	15	0.04	1900	-25.71506	40.92377	-91.3936
555428	1386	198	-1547	0.851828	-0.3874152	-1.43719	0	10.89	4003	2	22	5	5	0.5237607	0.9012941	8	15	0.04	1900	-27.328	40.92377	-91.3936
555620	1190	-422	1869	3.973623	-6.159072	-2.530586	0	10.89	4004	3	21	5	5	0.5237607	0.7843722	8	15	0.04	1900	-21.7403	40.92378	-91.3936
555690	-1555	-1284	-687	2.014691	-4.483212	-2.803575	0	10.89	4003	3	22	5	5	0.5237607	0.6961303	8	15	0.04	1900	-21.33347	40.92378	-91.3936
555801	-1555	1531	-3338	1.01009	-6.037425	1.571444	0	10.21	4003	3	27	5	5	0.5237607	0.6297591	8	15	0.04	1900	-20.51773	40.92379	-91.3936
555885	-686	-258	-4748	-0.6977184	-7.309498	3.694736	0	10.21	4003	3	27	5	5	0.5237607	0.5736499	8	15	0.04	1900	-19.39594	40.92379	-91.3936
555945	-228	1716	-1204	1.139674	-10.18371	7.657992	0	10.21	4002	3	28	5	5	0.5237607	0.5237164	8	15	0.04	1900	-24.23959	40.92379	-91.3936
556106	-2325	-1873	3905	-6.935496	-5.161312	5.398939	0	10.21	4004	3	34	5	5	0.5237607	0.5034236	8	15	0.04	1900	-24.11044	40.92379	-91.3936
556304	-737	-61	502	-1.601109	-7.759398	-2.876227	0	10.21	4002	3	29	5	5	0.5237607	0.5404153	8	15	0.04	1900	-17.06589	40.92379	-91.3936
