time(ms)	gyro_x(deg/s)	gyro_y(deg/s)	gyro_z(deg/s)	orientation_roll(deg)	orientation_pitch(deg)	orientation_yaw(deg)	throttle	battery(V)	loop_time(uS)	pid_output_roll	pid_output_pitch	pid_output_yaw	pid_output_throttle	ultrasonic_alt	baro_alt	flight_mode	p_gain_altitude	i_gain_altitude	d_gain_altitude	compass_heading	latitude	longitude
68080	14	-1	5	0.06021709	0.01411364	-4.064867	0	12.36	4002	0	0	5	5	0.02	0.2432773	1	15	0.04	1800	-0.9883728	40.92366	-91.39363
68231	3	-3	1	0.06518934	0.01410378	-4.077766	0	12.36	4004	0	0	5	5	0.02	0.241757	1	15	0.04	1800	-0.9944763	40.92366	-91.39363
68309	2	3	3	0.06478497	0.008816266	-4.0807	0	12.36	4004	0	0	5	5	0.02	0.2432855	1	15	0.04	1800	-0.9938354	40.92366	-91.39363
68491	5	-1	3	0.05476907	0.01087093	-4.090663	0	12.36	4004	0	0	5	5	0.02	0.2610621	1	15	0.04	1800	-0.9837646	40.92366	-91.39363
68676	6	-3	9	0.05160091	0.01184655	-4.101849	0	12.36	4003	0	0	5	5	0.02	0.2665366	1	15	0.04	1800	-0.9742126	40.92366	-91.39362
68899	3	-5	-6	0.04590313	0.01258866	-4.1101	0	12.36	4002	0	0	5	5	0.02	0.2715647	1	15	0.04	1800	-0.96521	40.92366	-91.39362
69036	4	2	7	0.05778046	0.01394451	-4.115662	0	12.36	4004	0	0	5	5	0.02	0.2799093	1	15	0.04	1800	-0.9773254	38.19256	-83.88151
69192	4	0	1	0.05347498	0.008228951	-4.122325	0	12.36	4003	0	0	5	5	0.02	0.2773299	1	15	0.04	1800	-0.9823608	24.53706	-46.3209
69394	2	-7	4	0.05287998	0.00297724	-4.130456	0	12.36	4004	0	0	5	5	0.02	0.2703939	1	15	0.04	1800	-0.972229	24.53706	-46.32091
69549	6	-2	0	0.06280602	0.005907226	-4.140972	0	12.36	4002	0	0	5	5	0.02	0.2583735	1	15	0.04	1800	-0.7618103	24.53706	-46.32091
69735	7	-5	0	0.05918523	0.006164725	-4.14672	0	12.36	4002	0	0	5	5	0.02	0.2532495	1	15	0.04	1800	-0.7693176	32.73037	-61.34515
69870	2	-5	4	0.04549718	0.007407871	-4.154483	0	12.36	4003	0	0	5	5	0.02	0.2506459	1	15	0.04	1800	-0.9863586	40.92367	-91.39364
70040	13	1	3	0.05083196	0.007315942	-4.156869	0	12.36	4004	0	0	5	5	0.02	0.2546303	1	15	0.04	1800	-0.9646912	40.92366	-91.39364
70187	8	-2	3	0.04770387	0.01045728	-4.165182	0	12.31	4004	0	0	5	5	0.02	0.2572163	1	15	0.04	1800	-0.9775391	40.92366	-91.39364
70219	6	-4	6	0.04926358	0.01025097	-4.167322	0	12.31	4004	0	0	5	5	0.02	0.2589129	1	15	0.04	1800	-0.9775391	40.92366	-91.39364
70340	0	-8	2	0.04980836	0.01425839	-4.172824	0	12.31	4002	0	0	5	5	0.02	0.2574267	1	15	0.04	1800	-0.9782104	40.92366	-91.39364
70449	8	-2	4	0.04460013	0.008345352	-4.18004	0	12.31	4004	0	0	5	5	0.02	0.2534549	1	15	0.04	1800	-0.9693604	40.92366	-91.39364
70582	0	0	1	0.04455878	0.007575028	-4.184686	0	12.31	4004	0	0	5	5	0.02	0.2540506	1	15	0.04	1800	-0.9669495	40.92366	-91.39363
70660	5	0	0	0.04025326	0.0102517	-4.19086	0	12.31	4003	0	0	5	5	0.02	0.2600921	1	15	0.04	1800	-0.9638977	40.92366	-91.39363
70700	4	-3	0	0.04335172	0.007398161	-4.190798	0	12.31	4003	0	0	5	5	0.02	0.2682708	1	15	0.04	1800	-0.9638977	40.92366	-91.39363
70800	5	0	1	0.0439072	0.003957809	-4.19624	0	12.31	4002	0	0	5	5	0.02	0.2826921	1	15	0.04	1800	-0.9638367	40.92366	-91.39363
70913	3	0	9	0.04356923	0.007110363	-4.202048	0	12.31	4004	0	0	5	5	0.02	0.2923054	1	15	0.04	1800	-0.964325	40.92366	-91.39363
71010	14	0	1	0.04304199	0.006605049	-4.205716	0	12.36	4004	0	0	5	5	0.02	0.2944794	1	15	0.04	1800	-0.9591675	40.92366	-91.39363
71179	8	-1	2	0.04163131	0.01259813	-4.215251	0	12.36	4004	0	0	5	5	0.02	0.2970611	1	15	0.04	1800	-0.9584961	40.92365	-91.39362
71355	2	0	5	0.03926633	0.01114425	-4.221059	0	12.36	4003	0	0	5	5	0.02	0.3014658	1	15	0.04	1800	-0.9616394	40.92365	-91.39362
71435	-1	-4	4	0.04337916	0.005574616	-4.223932	0	12.36	4003	0	0	5	5	0.02	0.2985318	1	15	0.04	1800	-0.9597473	40.92365	-91.39362
71508	4	2	10	0.03767547	0.007169104	-4.227293	0	12.36	4004	0	0	5	5	0.02	0.2949432	1	15	0.04	1800	-0.7360535	40.92365	-91.39362
71697	7	2	-3	0.04029589	0.002994213	-4.235791	0	12.36	4004	0	0	5	5	0.02	0.3021833	1	15	0.04	1800	-0.7386169	40.92365	-91.39362
71780	3	2	4	0.04412429	0.005719933	-4.240741	0	12.36	4002	0	0	5	5	0.02	0.3054206	1	15	0.04	1800	-0.9615784	40.92365	-91.39362
72004	2	0	3	0.04477622	-0.004511948	-4.249422	0	12.31	4002	0	0	5	5	0.02	0.3094703	1	15	0.04	1800	-0.9700012	40.92365	-91.39362
72170	8	-1	0	0.05130067	0.0004166427	-4.258468	0	12.31	4002	0	0	5	5	0.02	0.3077407	1	15	0.04	1800	-0.9745178	40.92364	-91.39362
72238	6	-1	5	0.05282481	0.004278115	-4.261708	0	12.31	4002	0	0	5	5	0.02	0.3042315	1	15	0.04	1800	-0.9794312	40.92364	-91.39362
72325	2	0	5	0.0432993	0.006119299	-4.266049	0	12.31	4002	0	0	5	5	0.02	0.2993872	1	15	0.04	1800	-0.9794312	40.92364	-91.39362
72508	11	-1	0	0.04024765	0.01103184	-4.274486	0	12.31	4003	0	0	5	5	0.02	0.2968036	1	15	0.04	1800	-0.9623108	40.92364	-91.39362
72605	10	0	0	0.04831678	0.005742101	-4.280415	0	12.31	4003	0	0	5	5	0.02	0.2939201	1	15	0.04	1800	-0.9706726	40.92364	-91.39362
72697	4	-2	7	0.05266012	0.005777248	-4.285244	0	12.31	4003	0	0	5	5	0.02	0.2921328	1	15	0.04	1800	-0.9858398	40.92364	-91.39362
72867	2	0	1	0.05383912	0.005033678	-4.293253	0	12.31	4004	0	0	5	5	0.02	0.306673	1	15	0.04	1800	-0.9848328	40.92364	-91.39362
72968	6	4	5	0.05952985	0.00867983	-4.299917	0	12.31	4002	0	0	5	5	0.02	0.3126525	1	15	0.04	1800	-0.9876709	40.92364	-91.39362
73083	7	-2	4	0.06082475	0.01189668	-4.304991	0	12.31	4008	0	0	5	5	0.02	0.316819	1	15	0.04	1800	-0.9912109	40.92364	-91.39362
73211	7	-2	-2	0.06617109	0.003367336	-4.311408	0	12.31	4004	0	0	5	5	0.02	0.3146329	1	15	0.04	1800	-0.776001	40.92364	-91.39362
73416	7	0	0	0.06664722	0.007280335	-4.318073	0	12.31	4004	0	0	5	5	0.02	0.3095599	1	15	0.04	1800	-0.7747192	40.92364	-91.39362
73469	5	-4	3	0.07176064	0.01422461	-4.320946	0	12.31	4004	0	0	5	5	0.02	0.3094603	1	15	0.04	1800	-1.009766	40.92364	-91.39362
73557	3	0	2	0.07012548	0.01274193	-4.32492	0	12.31	4002	0	0	5	5	0.02	0.3099009	1	15	0.04	1800	-1.009766	40.92364	-91.39362
73636	2	3	4	0.07130621	0.01364664	-4.328342	0	12.31	4004	0	0	5	5	0.02	0.3101899	1	15	0.04	1800	-1.004395	40.92364	-91.39362
73750	10	-3	0	0.07613092	0.01624808	-4.33311	0	12.36	4004	0	0	5	5	0.02	0.3123998	1	15	0.04	1800	-1.008636	40.92364	-91.39362
73845	6	1	5	0.07122852	0.01795121	-4.339714	0	12.36	4004	0	0	5	5	0.02	0.3108377	1	15	0.04	1800	-1.003113	40.92364	-91.39362
73964	6	1	8	0.06650873	0.02057433	-4.344238	0	12.36	4004	0	0	5	5	0.02	0.3087951	1	15	0.04	1800	-1.001251	40.92364	-91.39362
74202	5	1	0	0.07101769	0.01748991	-4.355914	0	12.36	4003	0	0	5	5	0.02	0.2953809	1	15	0.04	1800	-0.9988098	40.92364	-91.39362
74450	8	-5	0	0.07420243	0.01800581	-4.369301	0	12.36	4004	0	0	5	5	0.02	0.2760015	1	15	0.04	1800	-0.7858887	40.92364	-91.39362
74539	10	0	3	0.07226965	0.01730648	-4.370708	0	12.36	4003	0	0	5	5	0.02	0.2683295	1	15	0.04	1800	-1.010742	40.92364	-91.39362
74599	9	-1	0	0.07126029	0.01363786	-4.373214	0	12.31	4003	0	0	5	5	0.02	0.2639104	1	15	0.04	1800	-1.006927	40.92364	-91.39362
74675	6	-1	-2	0.06499068	0.01255785	-4.376882	0	12.31	4003	0	0	5	5	0.02	0.2504091	1	15	0.04	1800	-0.9963074	40.92364	-91.39362
74759	6	-6	2	0.06517982	0.01368847	-4.380367	0	12.31	4004	0	0	5	5	0.02	0.2475282	1	15	0.04	1800	-0.7750854	40.92364	-91.39362
74822	5	-2	4	0.065376	0.01865169	-4.385564	0	12.31	4004	0	0	5	5	0.02	0.2474855	1	15	0.04	1800	-0.9962158	40.92364	-91.39362
75010	11	-3	1	0.07308869	0.01255875	-4.389658	0	12.31	4003	0	0	5	5	0.02	0.2494101	1	15	0.04	1800	-1.004303	40.92364	-91.39362
75057	13	0	5	0.07406469	0.01026544	-4.391248	0	12.31	4002	0	0	5	5	0.02	0.2508746	1	15	0.04	1800	-1.004303	40.92364	-91.39362
75178	5	-3	3	0.06786276	0.01112792	-4.398829	0	12.31	4004	0	0	5	5	0.02	0.2487697	1	15	0.04	1800	-1.000244	40.92364	-91.39362
75260	3	-3	10	0.06894104	0.008999711	-4.402068	0	12.31	4003	0	0	5	5	0.02	0.2472723	1	15	0.04	1800	-0.9991455	40.92364	-91.39362
75318	5	-4	1	0.06876509	0.0112451	-4.403902	0	12.31	4003	0	0	5	5	0.02	0.2461807	1	15	0.04	1800	-0.9991455	40.92364	-91.39362
75625	0	-6	3	0.06462094	0.02002741	-4.415945	0	12.36	4004	0	0	5	5	0.02	0.2339256	1	15	0.04	1800	-0.997467	40.92363	-91.39362
75645	1	-2	6	0.06591499	0.01964508	-4.420468	0	12.36	4004	0	0	5	5	0.02	0.2339256	1	15	0.04	1800	-0.9952393	40.92363	-91.39362
75748	4	-4	4	0.0614651	0.01415538	-4.424687	0	12.36	4002	0	0	5	5	0.02	0.2341338	1	15	0.04	1800	-0.9950562	40.92363	-91.39362
75893	9	-1	5	0.0576904	0.01290671	-4.43294	0	12.36	4003	0	0	5	5	0.02	0.2307667	1	15	0.04	1800	-0.9873047	40.92364	-91.39362
76017	10	-2	8	0.05984816	0.0113418	-4.440336	0	12.36	4004	0	0	5	5	0.02	0.2261353	1	15	0.04	1800	-0.9883423	40.92364	-91.39362
76084	7	0	4	0.0578081	0.009678963	-4.442415	0	12.36	4004	0	0	5	5	0.02	0.2262557	1	15	0.04	1800	-0.9883423	40.92364	-91.39362
76177	5	-3	6	0.04888155	0.0111037	-4.4536	0	12.36	4004	0	0	5	5	0.02	0.2280408	1	15	0.04	1800	-0.975769	40.92364	-91.39362
76256	6	-1	4	0.0469155	0.004017939	-4.457024	0	12.36	4002	0	0	5	5	0.02	0.225579	1	15	0.04	1800	-0.9734192	40.92364	-91.39363
76306	-1	-2	1	0.04980182	0.001362188	-4.461486	0	12.36	4003	0	0	5	5	0.02	0.2250724	1	15	0.04	1800	-0.9694824	40.92363	-91.39363
76436	6	-1	0	0.05204108	-0.003373684	-4.467232	0	12.31	4003	0	0	5	5	0.02	0.2297627	1	15	0.04	1800	-0.9785767	40.92363	-91.39364
76544	4	0	-1	0.05596346	-0.005254108	-4.470778	0	12.31	4002	0	0	5	5	0.02	0.2267052	1	15	0.04	1800	-0.9815979	40.92363	-91.39365
76639	10	4	2	0.06260177	-0.003841278	-4.476707	0	12.31	4004	0	0	5	5	0.02	0.2247027	1	15	0.04	1800	-0.9887695	40.92361	-91.39365
76733	9	1	3	0.07071374	-0.006077504	-4.480191	0	12.31	4003	0	0	5	5	0.02	0.2212253	1	15	0.04	1800	-0.7784729	40.92361	-91.39366
76851	7	-7	0	0.07556026	-0.001567916	-4.486977	0	12.31	4003	0	0	5	5	0.02	0.2125974	1	15	0.04	1800	-1.01062	40.9236	-91.39368
77035	8	1	4	0.06774589	0.008644626	-4.492663	0	12.31	4002	0	0	5	5	0.02	0.2050539	1	15	0.04	1800	-0.7846069	40.9236	-91.39368
77200	4	-3	0	0.06676995	-0.001513795	-4.499815	0	12.31	4004	0	0	5	5	0.02	0.1894889	1	15	0.04	1800	-1.003418	40.9236	-91.39368
77337	10	-5	1	0.06300387	0.001744093	-4.507087	0	12.31	4004	0	0	5	5	0.02	0.184577	1	15	0.04	1800	-0.9967651	40.9236	-91.39368
77543	4	0	8	0.06010528	0.007729849	-4.517051	0	12.31	4002	0	0	5	5	0.02	0.183493	1	15	0.04	1800	-0.9910889	40.92361	-91.39368
77709	8	0	2	0.0526044	0.007689803	-4.524816	0	12.31	4004	0	0	5	5	0.02	0.1747807	1	15	0.04	1800	-0.9772949	40.92363	-91.39368
77805	10	0	2	0.04804227	0.006696122	-4.531663	0	12.31	4002	0	0	5	5	0.02	0.1684641	1	15	0.04	1800	-0.9755859	40.92365	-91.39369
77885	2	0	3	0.05394729	0.0089659	-4.534475	0	12.31	4004	0	0	5	5	0.02	0.1677974	1	15	0.04	1800	-0.9797363	40.92366	-91.39369
77978	9	1	3	0.05134333	0.0104475	-4.539183	0	12.31	4004	0	0	5	5	0.02	0.1722968	1	15	0.04	1800	-0.9804382	40.92367	-91.39369
78059	10	0	5	0.05606183	0.008571511	-4.544441	0	12.31	4004	0	0	5	5	0.02	0.1744145	1	15	0.04	1800	-0.7522278	40.92368	-91.3937
78131	5	-3	8	0.05714382	0.01619501	-4.547926	0	12.31	4003	0	0	5	5	0.02	0.1764667	1	15	0.04	1800	-0.9851685	40.92368	-91.3937
78234	5	-5	1	0.06254698	0.01424283	-4.551227	0	12.31	4003	0	0	5	5	0.02	0.1849264	1	15	0.04	1800	-0.9937744	40.92369	-91.3937
78304	1	0	-4	0.06322293	0.02284362	-4.55514	0	12.31	4004	0	0	5	5	0.02	0.1910135	1	15	0.04	1800	-0.9956665	40.92369	-91.3937
78411	5	-4	2	0.06205099	0.02299521	-4.560031	0	12.31	4004	0	0	5	5	0.02	0.1980579	1	15	0.04	1800	-0.9946289	40.92369	-91.3937
78527	8	-2	9	0.06037536	0.01879431	-4.565044	0	12.31	4003	0	0	5	5	0.02	0.1985721	1	15	0.04	1800	-0.9893188	40.92369	-91.3937
78604	6	0	5	0.06173694	0.01911154	-4.570301	0	12.31	4002	0	0	5	5	0.02	0.1957775	1	15	0.04	1800	-0.9925537	40.92369	-91.39371
78755	9	-4	0	0.05996395	0.008828752	-4.577147	0	12.31	4004	0	0	5	5	0.02	0.1961088	1	15	0.04	1800	-0.9908752	40.92369	-91.3937
78906	3	0	1	0.0555732	0.01106134	-4.586621	0	12.31	4004	0	0	5	5	0.02	0.2052158	1	15	0.04	1800	-0.9801025	40.9237	-91.3937
78971	9	1	2	0.05715847	0.009628216	-4.590166	0	12.31	4004	0	0	5	5	0.02	0.2176621	1	15	0.04	1800	-0.9801025	40.9237	-91.3937
79113	8	-10	7	0.05297292	0.01192789	-4.595789	0	12.31	4003	0	0	5	5	0.02	0.2296364	1	15	0.04	1800	-0.9829102	40.92371	-91.3937
79186	7	-1	2	0.05247673	0.01168817	-4.600312	0	12.31	4004	0	0	5	5	0.02	0.232662	1	15	0.04	1800	-0.9739685	40.92372	-91.3937
79239	4	-4	3	0.04941721	0.01256125	-4.60447	0	12.31	4002	0	0	5	5	0.02	0.2335499	1	15	0.04	1800	-0.9794006	40.92373	-91.3937
79404	8	-5	4	0.05092467	0.005650626	-4.61474	0	12.31	4002	0	0	5	5	0.02	0.2389783	1	15	0.04	1800	-0.9750366	40.92374	-91.3937
79449	5	3	2	0.04787068	0.002255544	-4.616084	0	12.31	4004	0	0	5	5	0.02	0.2390015	1	15	0.04	1800	-0.9750366	40.92375	-91.3937
79623	6	-3	4	0.05156256	0.008939208	-4.623847	0	12.31	4003	0	0	5	5	0.02	0.2361878	1	15	0.04	1800	-0.9768066	40.92376	-91.39369
79677	9	-2	6	0.05426632	0.00924512	-4.628432	0	12.31	4002	0	0	5	5	0.02	0.2356977	1	15	0.04	1800	-0.9768066	40.92377	-91.39368
79821	5	-1	13	0.06003216	0.01045631	-4.6332	0	12.31	4004	0	0	5	5	0.02	0.2288043	1	15	0.04	1800	-0.9863281	40.92379	-91.39367
79909	11	2	5	0.05969524	0.01281141	-4.641636	0	12.36	4004	0	0	5	5	0.02	0.2263722	1	15	0.04	1800	-0.9926758	40.92379	-91.39366
79959	3	8	7	0.05855783	0.00987885	-4.644387	0	12.36	4003	0	0	5	5	0.02	0.227326	1	15	0.04	1800	-0.9862976	40.9238	-91.39366
80157	1	0	3	0.06220715	0.01366717	-4.653008	0	12.36	4004	0	0	5	5	0.02	0.2414741	1	15	0.04	1800	-0.9945679	40.92382	-91.39365
80319	4	3	5	0.06622007	0.00971809	-4.66181	0	12.36	4004	0	0	5	5	0.02	0.2451035	1	15	0.04	1800	-1.001129	40.92383	-91.39365
80391	3	-5	0	0.06654857	0.008183646	-4.664316	0	12.36	4003	0	0	5	5	0.02	0.2486788	1	15	0.04	1800	-1.002838	40.92384	-91.39365
80472	9	-4	0	0.06529459	0.00539364	-4.668473	0	12.36	4003	0	0	5	5	0.02	0.2508647	1	15	0.04	1800	-1.003723	40.92384	-91.39365
80589	6	0	6	0.06750525	0.006134286	-4.674587	0	12.36	4003	0	0	5	5	0.02	0.2528007	1	15	0.04	1800	-1.000671	40.92385	-91.39365
80699	5	-2	4	0.06817763	0.006617183	-4.678255	0	12.36	4002	0	0	5	5	0.02	0.2539439	1	15	0.04	1800	-1.002869	40.92385	-91.39365
80770	9	2	0	0.07416051	0.008987499	-4.685287	0	12.36	4003	0	0	5	5	0.02	0.2522998	1	15	0.04	1800	-1.006714	40.92385	-91.39365
80887	4	-1	6	0.0667453	0.01069368	-4.68981	0	12.36	4002	0	0	5	5	0.02	0.258072	1	15	0.04	1800	-1.012115	40.92384	-91.39365
80924	3	1	0	0.06154169	0.01015245	-4.692989	0	12.36	4003	0	0	5	5	0.02	0.2604211	1	15	0.04	1800	-0.9995117	40.92384	-91.39365
81071	5	-4	0	0.05485353	0.01747273	-4.698001	0	12.36	4003	0	0	5	5	0.02	0.2627065	1	15	0.04	1800	-0.9827576	40.92383	-91.39366
81125	0	-10	0	0.05416768	0.02401145	-4.704237	0	12.36	4002	0	0	5	5	0.02	0.2630743	1	15	0.04	1800	-0.9786987	40.92383	-91.39366
81263	12	0	6	0.05829065	0.02469676	-4.713531	0	12.36	4004	0	0	5	5	0.02	0.2571749	1	15	0.04	1800	-0.7602844	40.92383	-91.39366
81301	11	1	0	0.05894513	0.02362651	-4.716527	0	12.36	4003	0	0	5	5	0.02	0.2510343	1	15	0.04	1800	-0.9829407	40.92383	-91.39366
81414	-1	3	2	0.05703019	0.02234245	-4.718911	0	12.36	4003	0	0	5	5	0.02	0.2346213	1	15	0.04	1800	-1.210785	40.92382	-91.39366
81596	3	-5	2	0.05921932	0.02182711	-4.728509	0	12.36	4003	0	0	5	5	0.02	0.210192	1	15	0.04	1800	-0.7652283	40.9238	-91.39366
81756	0	0	2	0.06577754	0.0231173	-4.734929	0	12.36	4003	0	0	5	5	0.02	0.1942401	1	15	0.04	1800	-0.9938049	40.92379	-91.39366
81884	4	0	2	0.0559646	0.02170816	-4.740614	0	12.36	4002	0	0	5	5	0.02	0.1869361	1	15	0.04	1800	-0.986145	40.92379	-91.39366
81960	5	-1	0	0.05441801	0.01902662	-4.746055	0	12.36	4004	0	0	5	5	0.02	0.1789912	1	15	0.04	1800	-0.9773865	40.92378	-91.39365
82085	7	1	0	0.04979545	0.01749739	-4.750762	0	12.36	4003	0	0	5	5	0.02	0.1700236	1	15	0.04	1800	-0.9793396	40.92378	-91.39365
82236	1	-3	6	0.05152709	0.01641202	-4.760726	0	12.36	4002	0	0	5	5	0.02	0.1765745	1	15	0.04	1800	-0.9740295	40.92377	-91.39365
82333	6	-4	11	0.04931738	0.01790657	-4.766656	0	12.36	4004	0	0	5	5	0.02	0.1793252	1	15	0.04	1800	-0.9762878	40.92377	-91.39365
82381	8	0	4	0.04830064	0.01580228	-4.769773	0	12.36	4004	0	0	5	5	0.02	0.1817003	1	15	0.04	1800	-0.9743652	40.92377	-91.39365
82526	3	3	-1	0.05374894	0.01350891	-4.778697	0	12.36	4003	0	0	5	5	0.02	0.1850365	1	15	0.04	1800	-0.9768066	40.92377	-91.39365
82575	3	3	-1	0.05374894	0.01350891	-4.778697	0	12.36	4003	0	0	5	5	0.02	0.1853424	1	15	0.04	1800	-0.9768066	40.92377	-91.39365
82736	10	-4	0	0.05330239	0.01868055	-4.78842	0	12.25	4003	0	0	5	5	0.02	0.1904997	1	15	0.04	1800	-0.9747925	40.92377	-91.39365
82802	9	0	2	0.05284907	0.02235342	-4.792455	0	12.25	4002	0	0	5	5	0.02	0.1969694	1	15	0.04	1800	-1.206085	40.92377	-91.39365
82890	8	-2	3	0.05170451	0.02091156	-4.795084	0	12.25	4003	0	0	5	5	0.02	0.2007	1	15	0.04	1800	-0.9782104	40.92377	-91.39365
83002	5	-3	3	0.05297066	0.01439779	-4.80022	0	12.25	4004	0	0	5	5	0.02	0.2068247	1	15	0.04	1800	-0.9813538	40.92377	-91.39365
83100	9	0	5	0.05604728	0.01374308	-4.807617	0	12.25	4002	0	0	5	5	0.02	0.2074989	1	15	0.04	1800	-0.9828186	40.92378	-91.39365
83234	6	1	8	0.05663455	0.01530517	-4.813241	0	12.25	4002	0	0	5	5	0.02	0.2023503	1	15	0.04	1800	-0.9865723	40.92379	-91.39365
83381	8	0	-5	0.05077477	0.01531255	-4.822045	0	12.25	4008	0	0	5	5	0.02	0.2035676	1	15	0.04	1800	-0.9761658	40.92379	-91.39365
83475	2	1	3	0.0449862	0.01412419	-4.826141	0	12.31	4004	0	0	5	5	0.02	0.194907	1	15	0.04	1800	-0.9735718	40.9238	-91.39365
83604	6	-2	7	0.04389178	0.01433185	-4.832989	0	12.31	4004	0	0	5	5	0.02	0.1864337	1	15	0.04	1800	-0.9708862	40.9238	-91.39365
83784	0	0	6	0.04422902	0.009399027	-4.842526	0	12.31	4003	0	0	5	5	0.02	0.1922946	1	15	0.04	1800	-0.9666443	40.9238	-91.39365
83848	0	1	9	0.04493626	0.0112453	-4.848152	0	12.31	4004	0	0	5	5	0.02	0.1964412	1	15	0.04	1800	-0.9660645	40.9238	-91.39365
83895	0	3	2	0.04181705	0.01755197	-4.856772	0	12.31	4004	0	0	5	5	0.02	0.19697	1	15	0.04	1800	-0.9612427	40.92379	-91.39365
83972	7	-2	1	0.04197968	0.01128052	-4.861296	0	12.31	4003	0	0	5	5	0.02	0.1973695	1	15	0.04	1800	-0.9624939	40.92379	-91.39365
84097	12	-1	3	0.04727911	0.01206804	-4.867898	0	12.31	4003	0	0	5	5	0.02	0.1992899	1	15	0.04	1800	-0.966156	40.92379	-91.39365
84195	1	-1	4	0.0477206	0.01382172	-4.87395	0	12.31	4003	0	0	5	5	0.02	0.2069366	1	15	0.04	1800	-0.9710388	40.92379	-91.39365
84251	5	5	0	0.05183145	0.01081502	-4.874928	0	12.31	4003	0	0	5	5	0.02	0.2130714	1	15	0.04	1800	-0.9710388	40.92379	-91.39365
84370	8	0	2	0.04696739	0.01426875	-4.881346	0	12.36	4002	0	0	5	5	0.02	0.2194148	1	15	0.04	1800	-0.9681091	40.92378	-91.39365
84475	9	0	2	0.04891022	0.009176192	-4.889109	0	12.36	4004	0	0	5	5	0.02	0.2198125	1	15	0.04	1800	-0.7442322	39.13829	-87.69006
84597	3	1	1	0.04946889	0.005837699	-4.895102	0	12.36	4002	0	0	5	5	0.02	0.2244249	1	15	0.04	1800	-0.9747314	37.35279	-83.98648
84692	0	-1	3	0.05260878	0.007496664	-4.902805	0	12.36	4003	0	0	5	5	0.02	0.2268135	1	15	0.04	1800	-0.9792786	37.35278	-83.98648
84734	4	-1	4	0.05370855	0.008050933	-4.904517	0	12.36	4004	0	0	5	5	0.02	0.2227162	1	15	0.04	1800	-0.7552185	37.35278	-83.98648
84835	5	-2	7	0.05090561	0.007074581	-4.909469	0	12.36	4003	0	0	5	5	0.02	0.2101479	1	15	0.04	1800	-0.9723816	37.35278	-83.98647
84947	8	3	2	0.0506852	0.005184099	-4.914238	0	12.36	4004	0	0	5	5	0.02	0.2092073	1	15	0.04	1800	-0.9741821	37.35277	-83.98647
85030	11	2	8	0.05183364	0.004904279	-4.918272	0	12.36	4004	0	0	5	5	0.02	0.1987715	1	15	0.04	1800	-0.9812622	37.35277	-83.98647
85164	9	0	5	0.05489077	-0.007030472	-4.924752	0	12.36	4004	0	0	5	5	0.02	0.1865829	1	15	0.04	1800	-0.9798279	40.32858	-90.15911
85324	7	6	4	0.05163863	-0.01152068	-4.932517	0	12.31	4003	0	0	5	5	0.02	0.1664989	1	15	0.04	1800	-0.9753723	40.92374	-91.39363
85410	2	-5	2	0.0477898	-0.01435105	-4.937651	0	12.31	4002	0	0	5	5	0.02	0.1544926	1	15	0.04	1800	-0.9703064	40.92373	-91.39363
85489	9	0	5	0.04383462	-0.009578001	-4.940463	0	12.31	4004	0	0	5	5	0.02	0.1518643	1	15	0.04	1800	-0.968811	40.92373	-91.39363
85567	9	-2	0	0.04614504	-0.01282364	-4.944741	0	12.31	4003	0	0	5	5	0.02	0.1477093	1	15	0.04	1800	-0.9740601	40.92373	-91.39363
85667	6	-5	5	0.05061005	-0.01009729	-4.949511	0	12.31	4004	0	0	5	5	0.02	0.1367286	1	15	0.04	1800	-0.9730835	40.92373	-91.39362
85758	0	0	5	0.0514102	-0.004764456	-4.951589	0	12.31	4002	0	0	5	5	0.02	0.1399619	1	15	0.04	1800	-0.9759216	40.92373	-91.39362
85839	6	0	0	0.05207379	0.0008008071	-4.958253	0	12.31	4004	0	0	5	5	0.02	0.1420303	1	15	0.04	1800	-0.9777832	40.92373	-91.39362
85914	4	-1	7	0.04885889	0.003576149	-4.960699	0	12.31	4003	0	0	5	5	0.02	0.1448439	1	15	0.04	1800	-0.9741211	40.92373	-91.39362
86003	-2	-3	3	0.04830042	0.002613545	-4.965957	0	12.31	4004	0	0	5	5	0.02	0.1448283	1	15	0.04	1800	-0.7502747	40.92373	-91.39362
86090	3	-1	0	0.0533107	0.005343257	-4.96938	0	12.31	4004	0	0	5	5	0.02	0.1480568	1	15	0.04	1800	-0.9755554	40.92373	-91.39362
86152	8	1	6	0.05215618	-0.0007090563	-4.972436	0	12.31	4003	0	0	5	5	0.02	0.1512879	1	15	0.04	1800	-0.9749451	40.92373	-91.39362
86225	6	-1	5	0.05543217	-2.438395E-05	-4.979162	0	12.31	4003	0	0	5	5	0.02	0.1590119	1	15	0.04	1800	-0.9793701	40.92372	-91.39362
86359	9	1	2	0.05527848	-0.004863026	-4.984542	0	12.31	4004	0	0	5	5	0.02	0.1705397	1	15	0.04	1800	-0.985321	40.92372	-91.39362
86462	10	2	5	0.06169796	-0.006459805	-4.990412	0	12.31	4004	0	0	5	5	0.02	0.188998	1	15	0.04	1800	-0.9850769	40.92372	-91.39362
86513	2	0	2	0.06102664	-0.004373907	-4.992674	0	12.31	4003	0	0	5	5	0.02	0.1941762	1	15	0.04	1800	-0.9899597	40.92371	-91.39362
86659	7	-5	1	0.06293773	0.0002244286	-4.999401	0	12.31	4004	0	0	5	5	0.02	0.2020319	1	15	0.04	1800	-1	40.92371	-91.39362
86739	6	-3	0	0.05953726	0.004311255	-5.0005	0	12.31	4004	0	0	5	5	0.02	0.2067876	1	15	0.04	1800	-0.9918823	40.92371	-91.39362
86878	5	4	0	0.06608576	0.002007724	-5.007958	0	12.31	4003	0	0	5	5	0.02	0.2128503	1	15	0.04	1800	-1.001984	40.92371	-91.39362
86945	6	-6	-1	0.06321831	0.00206015	-5.009304	0	12.31	4004	0	0	5	5	0.02	0.2120693	1	15	0.04	1800	-0.9947815	40.92371	-91.39362
87086	7	-1	3	0.06066085	0.002083602	-5.016273	0	12.31	4002	0	0	5	5	0.02	0.21146	1	15	0.04	1800	-0.9903259	40.92371	-91.39362
87220	4	0	7	0.05877363	0.001942082	-5.026725	0	12.31	4003	0	0	5	5	0.02	0.2147189	1	15	0.04	1800	-0.772644	40.9237	-91.39362
87333	6	-2	7	0.05780673	0.001756891	-5.034796	0	12.31	4004	0	0	5	5	0.02	0.2159345	1	15	0.04	1800	-0.9930725	40.9237	-91.39362
87465	9	-1	4	0.06124429	0.004952825	-5.044455	0	12.31	4002	0	0	5	5	0.02	0.2204148	1	15	0.04	1800	-0.984375	40.92369	-91.39362
87511	9	1	2	0.0584669	0.004069406	-5.047756	0	12.31	4004	0	0	5	5	0.02	0.225659	1	15	0.04	1800	-0.9944458	40.92369	-91.39362
87608	4	-4	1	0.0522342	0.002587602	-5.050995	0	12.31	4003	0	0	5	5	0.02	0.2375243	1	15	0.04	1800	-0.9829712	40.92369	-91.39362
87739	2	0	3	0.05393087	0.003126936	-5.055641	0	12.31	4003	0	0	5	5	0.02	0.2433489	1	15	0.04	1800	-0.9837341	40.92369	-91.39361
87878	7	-5	1	0.05138167	-0.005394717	-5.061572	0	12.31	4003	0	0	5	5	0.02	0.2439136	1	15	0.04	1800	-0.9768982	40.92369	-91.3936
87933	5	-4	-2	0.05185934	-0.004956739	-5.063162	0	12.31	4003	0	0	5	5	0.02	0.2450576	1	15	0.04	1800	-0.9783325	40.92369	-91.39359
87981	0	-4	3	0.0536807	-0.009241712	-5.067869	0	12.31	4003	0	0	5	5	0.02	0.2445296	1	15	0.04	1800	-0.9775696	40.92369	-91.39359
88186	1	-2	6	0.05097364	0.002842969	-5.074654	0	12.31	4002	0	0	5	5	0.02	0.2359797	1	15	0.04	1800	-0.9837036	40.92369	-91.39358
88278	9	-2	2	0.05022682	-0.0005081341	-5.080095	0	12.31	4002	0	0	5	5	0.02	0.2297031	1	15	0.04	1800	-1.202637	40.92369	-91.39358
88494	8	-4	3	0.04840103	-0.0006717034	-5.088959	0	12.31	4003	0	0	5	5	0.02	0.2313374	1	15	0.04	1800	-0.7459412	40.92369	-91.39358
88667	4	-6	9	0.04498965	0.00970077	-5.098007	0	12.31	4002	0	0	5	5	0.02	0.2360283	1	15	0.04	1800	-0.967804	40.92368	-91.39359
88819	8	4	1	0.04363305	0.008353424	-5.105955	0	12.36	4002	0	0	5	5	0.02	0.2374111	1	15	0.04	1800	-0.967041	40.92367	-91.39359
89025	0	0	2	0.04978805	0.006191398	-5.116287	0	12.36	4004	0	0	5	5	0.02	0.2402191	1	15	0.04	1800	-0.9647217	40.92365	-91.39359
89181	6	2	0	0.03803766	0.004189445	-5.123867	0	12.36	4002	0	0	5	5	0.02	0.2435889	1	15	0.04	1800	-0.9606628	40.92363	-91.39359
89237	4	0	1	0.03907547	0.001389281	-5.128513	0	12.36	4002	0	0	5	5	0.02	0.2478898	1	15	0.04	1800	-0.9540405	40.92363	-91.39359
89298	7	-4	3	0.03708662	-0.001954559	-5.131265	0	12.36	4003	0	0	5	5	0.02	0.2553093	1	15	0.04	1800	-0.9552612	40.92362	-91.39359
89481	1	0	0	0.03491753	9.02437E-05	-5.139517	0	12.36	4003	0	0	5	5	0.02	0.2655739	1	15	0.04	1800	-0.9508057	40.92361	-91.39359
89553	0	0	7	0.03417584	0.002987598	-5.143429	0	12.36	4004	0	0	5	5	0.02	0.2743499	1	15	0.04	1800	-0.9466248	40.9236	-91.39359
89690	5	-2	6	0.02450129	-0.0001235999	-5.153455	0	12.31	4002	0	0	5	5	0.02	0.2749597	1	15	0.04	1800	-0.934021	40.9236	-91.39358
89868	4	-4	1	0.0280416	0.002590535	-5.16128	0	12.31	4003	0	0	5	5	0.02	0.2873712	1	15	0.04	1800	-0.9408569	40.92358	-91.39359
89934	0	-6	6	0.02049477	0.003065741	-5.165498	0	12.31	4003	0	0	5	5	0.02	0.2885815	1	15	0.04	1800	-0.9300232	40.92357	-91.39359
90037	2	-2	5	0.0173082	0.006984667	-5.170329	0	12.31	4002	0	0	5	5	0.02	0.2892038	1	15	0.04	1800	-0.9252014	40.92357	-91.39359
90150	4	-5	3	0.01130073	0.01196842	-5.177664	0	12.31	4004	0	0	5	5	0.02	0.2908432	1	15	0.04	1800	-0.9229126	40.92356	-91.39359
90253	0	-1	5	0.01146165	0.01430186	-5.18286	0	12.31	4003	0	0	5	5	0.02	0.2834549	1	15	0.04	1800	-0.9141235	40.92355	-91.39359
90341	4	-4	0	0.0110718	0.007712369	-5.189033	0	12.31	4003	0	0	5	5	0.02	0.2690237	1	15	0.04	1800	-0.9202576	40.92355	-91.39358
90479	6	-9	4	0.002134052	0.01356247	-5.19747	0	12.31	4004	0	0	5	5	0.02	0.2677242	1	15	0.04	1800	-0.8974304	40.92356	-91.39358
90635	5	0	6	-0.0004869308	0.01022732	-5.205234	0	12.31	4003	0	0	5	5	0.02	0.274873	1	15	0.04	1800	-0.9057617	40.92357	-91.39356
90744	1	-2	2	0.002209723	0.01557835	-5.215993	0	12.31	4003	0	0	5	5	0.02	0.2784553	1	15	0.04	1800	-0.6789856	40.92358	-91.39355
90887	3	0	1	-0.005070242	0.01309968	-5.222596	0	12.31	4004	0	0	5	5	0.02	0.2786253	1	15	0.04	1800	-0.8904724	40.92359	-91.39355
91044	8	-3	-2	-0.0009458395	0.005820089	-5.232193	0	12.31	4004	0	0	5	5	0.02	0.2898682	1	15	0.04	1800	-0.8924561	40.9236	-91.39355
91190	6	0	0	0.004811272	-0.002400079	-5.239469	0	12.31	4002	0	0	5	5	0.02	0.2859437	1	15	0.04	1800	-0.9032288	40.9236	-91.39354
91265	7	0	7	0.008956504	-0.001858185	-5.241242	0	12.31	4003	0	0	5	5	0.02	0.2767202	1	15	0.04	1800	-0.909668	40.92361	-91.39354
91354	-1	-3	3	0.008522606	0.003868659	-5.245888	0	12.31	4004	0	0	5	5	0.02	0.2790095	1	15	0.04	1800	-0.9072876	40.92361	-91.39354
91418	5	-4	6	0.0100873	0.00132405	-5.252124	0	12.31	4002	0	0	5	5	0.02	0.2862993	1	15	0.04	1800	-0.6865845	40.92361	-91.39354
91568	1	1	8	0.004720182	-0.005027285	-5.258421	0	12.31	4004	0	0	5	5	0.02	0.2997766	1	15	0.04	1800	-0.9078674	40.92363	-91.39354
91742	3	-2	2	0.00416265	-0.0004520536	-5.269731	0	12.31	4002	0	0	5	5	0.02	0.3228843	1	15	0.04	1800	-0.8985901	40.92363	-91.39354
91798	0	0	4	0.002623953	0.00213626	-5.272849	0	12.31	4003	0	0	5	5	0.02	0.3268496	1	15	0.04	1800	-0.9086609	40.92363	-91.39354
91902	0	-3	0	0.008598605	0.006119638	-5.27731	0	12.31	4003	0	0	5	5	0.02	0.3376259	1	15	0.04	1800	-0.9086609	40.92363	-91.39354
91947	2	-3	1	0.004323632	0.00368968	-5.2789	0	12.31	4003	0	0	5	5	0.02	0.3398737	1	15	0.04	1800	-0.9075928	40.92363	-91.39354
92056	6	0	5	0.004930317	0.009879516	-5.286051	0	12.31	4003	0	0	5	5	0.02	0.3576299	1	15	0.04	1800	-0.9005432	40.92363	-91.39354
92140	4	0	0	0.005932266	0.002693685	-5.289045	0	12.31	4003	0	0	5	5	0.02	0.368997	1	15	0.04	1800	-0.9107666	40.92363	-91.39354
92261	5	-3	3	0.00477966	0.005952268	-5.291981	0	12.31	4003	0	0	5	5	0.02	0.37161	1	15	0.04	1800	-0.9014893	40.92362	-91.39354
92381	0	0	6	0.006736844	0.0116817	-5.301456	0	12.31	4002	0	0	5	5	0.02	0.3726932	1	15	0.04	1800	-0.907959	40.92361	-91.39355
92578	0	-1	3	-0.00574705	0.01000016	-5.313133	0	12.31	4002	0	0	5	5	0.02	0.3712819	1	15	0.04	1800	-1.110748	40.9236	-91.39355
92702	0	-1	3	-0.01192396	0.002812926	-5.317961	0	12.31	4002	0	0	5	5	0.02	0.3640991	1	15	0.04	1800	-0.8873901	40.9236	-91.39355
92745	0	3	4	-0.01140121	0.002986974	-5.323891	0	12.31	4002	0	0	5	5	0.02	0.3639264	1	15	0.04	1800	-0.8785095	40.92359	-91.39355
92818	1	0	6	-0.01448806	-6.492322E-05	-5.325542	0	12.31	4002	0	0	5	5	0.02	0.3637267	1	15	0.04	1800	-0.8785095	40.92359	-91.39354
92972	-4	0	4	-0.01623274	-0.003515236	-5.334161	0	12.31	4002	0	0	5	5	0.02	0.3566003	1	15	0.04	1800	-0.6469421	40.92357	-91.39354
93059	5	-7	3	-0.01600828	-0.002116176	-5.340641	0	12.31	4004	0	0	5	5	0.02	0.3539633	1	15	0.04	1800	-0.8735352	40.92357	-91.39354
93155	1	-4	5	-0.02258224	0.004584268	-5.344614	0	12.31	4003	0	0	5	5	0.02	0.3527676	1	15	0.04	1800	-0.8694153	40.92356	-91.39354
93216	-4	-2	3	-0.02899379	0.004705546	-5.350239	0	12.36	4003	0	0	5	5	0.02	0.3507019	1	15	0.04	1800	-0.8616943	40.92356	-91.39354
93445	-3	1	4	-0.02455546	0.002687768	-5.361182	0	12.36	4002	0	0	5	5	0.02	0.3336099	1	15	0.04	1800	-0.8609924	40.92355	-91.39354
93637	1	-4	3	-0.02069264	-0.003079198	-5.372126	0	12.36	4003	0	0	5	5	0.02	0.3322838	1	15	0.04	1800	-0.8641663	40.92354	-91.39354
93836	5	-1	3	-0.02030661	0.001250555	-5.383558	0	12.36	4002	0	0	5	5	0.02	0.3293867	1	15	0.04	1800	-0.8658752	40.92354	-91.39353
94055	-1	0	3	-0.01500312	0.01107138	-5.39554	0	12.36	4002	0	0	5	5	0.02	0.335843	1	15	0.04	1800	-0.874176	40.92355	-91.39352
94188	0	1	7	-0.01572575	0.01087357	-5.407463	0	12.31	4003	0	0	5	5	0.02	0.3491306	1	15	0.04	1800	-0.872467	40.92355	-91.39352
94252	-2	4	3	-0.01118891	0.008535948	-5.416205	0	12.31	4003	0	0	5	5	0.02	0.3558683	1	15	0.04	1800	-0.6512146	40.92355	-91.39352
94332	5	0	1	-0.007157057	0.008094105	-5.421157	0	12.31	4003	0	0	5	5	0.02	0.359312	1	15	0.04	1800	-0.8814392	40.92356	-91.39352
94471	0	-5	1	-0.008997482	0.009944626	-5.428922	0	12.31	4003	0	0	5	5	0.02	0.3717115	1	15	0.04	1800	-0.8901978	40.92356	-91.39352
94603	0	1	6	-0.010991	0.01094437	-5.439254	0	12.31	4003	0	0	5	5	0.02	0.3757129	1	15	0.04	1800	-0.8749084	40.92357	-91.39352
94641	2	-1	5	-0.01149458	0.01196466	-5.440598	0	12.31	4002	0	0	5	5	0.02	0.3704819	1	15	0.04	1800	-0.8776245	40.92357	-91.39352
94753	-2	2	0	-0.01205365	0.008008899	-5.448974	0	12.31	4002	0	0	5	5	0.02	0.3641835	1	15	0.04	1800	-0.8790894	40.92357	-91.39352
94823	0	-2	8	-0.02121227	0.008739136	-5.454292	0	12.31	4002	0	0	5	5	0.02	0.3562492	1	15	0.04	1800	-0.8709106	40.92357	-91.39353
94980	0	-1	1	-0.02332052	0.009998718	-5.460345	0	12.31	4004	0	0	5	5	0.02	0.3401657	1	15	0.04	1800	-0.8620911	40.92357	-91.39354
95116	0	-1	5	-0.02134981	0.002126325	-5.471226	0	12.36	4004	0	0	5	5	0.02	0.3296783	1	15	0.04	1800	-0.8609924	40.92357	-91.39354
95245	0	-3	2	-0.01970102	0.003221415	-5.480029	0	12.36	4003	0	0	5	5	0.02	0.3110008	1	15	0.04	1800	-0.8703003	40.92357	-91.39355
95388	5	-3	0	-0.0173105	0.007288015	-5.489075	0	12.36	4003	0	0	5	5	0.02	0.3104292	1	15	0.04	1800	-0.8729858	40.92357	-91.39355
95478	1	-3	0	-0.01216263	0.01501049	-5.496654	0	12.36	4002	0	0	5	5	0.02	0.3149378	1	15	0.04	1800	-0.8739319	40.92357	-91.39355
95545	0	-1	2	-0.01091805	0.01801868	-5.501117	0	12.36	4002	0	0	5	5	0.02	0.3146951	1	15	0.04	1800	-0.8754883	40.92357	-91.39355
95615	4	-1	5	-0.01387561	0.01812056	-5.504356	0	12.36	4003	0	0	5	5	0.02	0.312192	1	15	0.04	1800	-0.87854	40.92357	-91.39355
95739	5	0	0	-0.01376029	0.01803636	-5.512242	0	12.36	4004	0	0	5	5	0.02	0.3076865	1	15	0.04	1800	-0.6488953	40.92357	-91.39355
95822	2	1	3	-0.01702095	0.01593824	-5.512914	0	12.36	4003	0	0	5	5	0.02	0.3053651	1	15	0.04	1800	-0.879425	40.92356	-91.39355
95917	-6	-4	2	-0.01213231	0.02141575	-5.519212	0	12.31	4003	0	0	5	5	0.02	0.2983241	1	15	0.04	1800	-0.8713989	40.92357	-91.39355
96017	-1	2	3	-0.007017453	0.01998504	-5.522635	0	12.31	4002	0	0	5	5	0.02	0.2995443	1	15	0.04	1800	-0.8768921	40.92357	-91.39355
96113	1	-6	7	-0.004406908	0.01259423	-5.529725	0	12.31	4002	0	0	5	5	0.02	0.3004976	1	15	0.04	1800	-0.8867798	40.92357	-91.39355
96163	1	-3	3	-0.005045908	0.008557435	-5.534798	0	12.31	4002	0	0	5	5	0.02	0.3007588	1	15	0.04	1800	-0.8905029	40.92357	-91.39355
96255	4	-11	1	-0.002800646	0.0071136	-5.538833	0	12.31	4004	0	0	5	5	0.02	0.2978318	1	15	0.04	1800	-0.8909912	40.92357	-91.39355
96321	0	-6	2	0.0008845563	0.004994941	-5.543417	0	12.31	4004	0	0	5	5	0.02	0.2963418	1	15	0.04	1800	-0.900116	40.92356	-91.39355
96468	0	0	4	0.001458953	0.007169516	-5.548185	0	12.31	4004	0	0	5	5	0.02	0.3003651	1	15	0.04	1800	-0.9015198	40.92356	-91.39356
96548	6	-3	1	0.0009750415	0.003910266	-5.557476	0	12.31	4004	0	0	5	5	0.02	0.2995013	1	15	0.04	1800	-0.6769409	40.92356	-91.39355
96643	1	-8	3	0.005844387	0.01494898	-5.565667	0	12.31	4002	0	0	5	5	0.02	0.2971925	1	15	0.04	1800	-0.9048157	40.92356	-91.39356
96717	0	-2	-1	0.00567079	0.01723098	-5.568356	0	12.31	4002	0	0	5	5	0.02	0.2950609	1	15	0.04	1800	-0.9048157	40.92355	-91.39356
96775	0	1	2	0.005382251	0.01864414	-5.575019	0	12.31	4002	0	0	5	5	0.02	0.2908326	1	15	0.04	1800	-0.9045105	40.92355	-91.39356
96865	-1	-6	6	0.003372488	0.02149755	-5.579055	0	12.31	4004	0	0	5	5	0.02	0.2899746	1	15	0.04	1800	-0.9024963	40.92355	-91.39356
97020	4	-4	7	-0.002955005	0.02658224	-5.587918	0	12.31	4004	0	0	5	5	0.02	0.2878565	1	15	0.04	1800	-0.6731262	40.92355	-91.39356
97185	2	0	8	-0.009307756	0.02362507	-5.597334	0	12.31	4003	0	0	5	5	0.02	0.2783508	1	15	0.04	1800	-0.8859253	40.92355	-91.39356
97296	6	4	0	-0.008546757	0.0239216	-5.603814	0	12.31	4002	0	0	5	5	0.02	0.2732956	1	15	0.04	1800	-0.8890076	40.92355	-91.39357
97442	0	-4	0	-0.01410113	0.01636856	-5.614085	0	12.31	4004	0	0	5	5	0.02	0.2705909	1	15	0.04	1800	-0.8761597	40.92355	-91.39357
97601	2	6	3	-0.009958239	0.01508768	-5.622643	0	12.31	4004	0	0	5	5	0.02	0.2595928	1	15	0.04	1800	-0.8833923	40.92356	-91.39357
97761	0	-6	0	-0.004182656	0.01294788	-5.634689	0	12.31	4003	0	0	5	5	0.02	0.2548157	1	15	0.04	1800	-0.894989	40.92356	-91.39358
97906	0	-6	0	-0.00314245	0.01639731	-5.643981	0	12.31	4004	0	0	5	5	0.02	0.2580549	1	15	0.04	1800	-0.8916626	40.92356	-91.39358
97937	0	7	0	-0.005706998	0.01554708	-5.645998	0	12.31	4003	0	0	5	5	0.02	0.2651545	1	15	0.04	1800	-0.8916626	40.92356	-91.39358
97988	7	-1	1	0.0001975897	0.01459225	-5.65266	0	12.31	4004	0	0	5	5	0.02	0.2819865	1	15	0.04	1800	-0.8903198	40.92356	-91.39358
98066	0	4	7	0.001042245	0.0176749	-5.657062	0	12.31	4004	0	0	5	5	0.02	0.2895915	1	15	0.04	1800	-0.8983154	40.92356	-91.39358
98184	5	1	5	-0.0005274551	0.01974145	-5.665194	0	12.31	4003	0	0	5	5	0.02	0.3003061	1	15	0.04	1800	-0.6748047	40.92356	-91.39357
98238	4	0	0	0.002967758	0.01077796	-5.670023	0	12.31	4003	0	0	5	5	0.02	0.3194011	1	15	0.04	1800	-0.8990173	40.92356	-91.39357
98284	1	4	4	0.00993897	0.0117568	-5.675341	0	12.31	4003	0	0	5	5	0.02	0.3280232	1	15	0.04	1800	-0.9101257	40.92356	-91.39357
98324	10	3	6	0.01287941	0.01190028	-5.680539	0	12.31	4004	0	0	5	5	0.02	0.3384961	1	15	0.04	1800	-0.9130859	40.92356	-91.39357
98387	4	0	5	0.006949205	0.01661119	-5.688545	0	12.31	4003	0	0	5	5	0.02	0.352305	1	15	0.04	1800	-0.9118652	40.92356	-91.39357
98451	-3	-2	0	0.009888221	0.01229761	-5.696309	0	12.31	4004	0	0	5	5	0.02	0.3567133	1	15	0.04	1800	-0.6903076	40.92356	-91.39356
98520	0	1	3	0.01112561	0.01581357	-5.69912	0	12.31	4002	0	0	5	5	0.02	0.3644302	1	15	0.04	1800	-0.9196777	40.92356	-91.39356
98622	0	0	5	0.009806397	0.01370723	-5.702177	0	12.31	4003	0	0	5	5	0.02	0.3741628	1	15	0.04	1800	-0.9158936	40.92356	-91.39356
98753	4	-4	0	0.00228626	0.008148782	-5.709452	0	12.31	4004	0	0	5	5	0.02	0.3769864	1	15	0.04	1800	-0.9013977	40.92356	-91.39355
98841	5	-4	2	0.0001408383	0.005520233	-5.714097	0	12.31	4004	0	0	5	5	0.02	0.38435	1	15	0.04	1800	-0.8981018	40.92356	-91.39355
98906	10	-3	0	0.001893918	0.004876717	-5.716542	0	12.31	4004	0	0	5	5	0.02	0.3878255	1	15	0.04	1800	-0.8946533	40.92356	-91.39355
99078	-1	-5	3	-0.001789209	0.002458779	-5.727057	0	12.31	4003	0	0	5	5	0.02	0.3773463	1	15	0.04	1800	-0.6730957	40.92356	-91.39355
99145	7	-9	0	-0.003857028	0.006149971	-5.729931	0	12.31	4002	0	0	5	5	0.02	0.3696152	1	15	0.04	1800	-0.8922729	40.92356	-91.39355
99265	-2	0	0	-0.002436421	0.01264297	-5.735799	0	12.31	4004	0	0	5	5	0.02	0.3461469	1	15	0.04	1800	-0.8857727	40.92356	-91.39355
99336	6	3	3	-0.002951946	0.01882743	-5.738794	0	12.31	4003	0	0	5	5	0.02	0.3412573	1	15	0.04	1800	-0.8889465	40.92356	-91.39355
99406	4	1	1	9.650341E-05	0.01730139	-5.742278	0	12.31	4002	0	0	5	5	0.02	0.3354227	1	15	0.04	1800	-0.893158	40.92356	-91.39355
99509	6	0	2	0.002251305	0.01851399	-5.74741	0	12.31	4003	0	0	5	5	0.02	0.3290696	1	15	0.04	1800	-0.9017334	40.92356	-91.39355
99625	6	0	4	0.001559702	0.0168491	-5.756397	0	12.31	4003	0	0	5	5	0.02	0.3337745	1	15	0.04	1800	-1.122162	40.92356	-91.39356
99701	0	-2	7	0.002842866	0.01952058	-5.760554	0	12.31	4003	0	0	5	5	0.02	0.3337571	1	15	0.04	1800	-0.9016113	40.92356	-91.39356
99836	3	-2	5	0.007460821	0.01568237	-5.764039	0	12.31	4002	0	0	5	5	0.02	0.3357323	1	15	0.04	1800	-0.902832	40.92356	-91.39357
99918	-1	-3	6	0.006567081	0.01306711	-5.770089	0	12.31	4003	0	0	5	5	0.02	0.3407822	1	15	0.04	1800	-0.9014282	40.92356	-91.39357
100018	-2	-2	0	0.008461508	0.01585086	-5.776508	0	12.31	4003	0	0	5	5	0.02	0.3441495	1	15	0.04	1800	-0.914093	40.92356	-91.39357
100084	7	-3	3	0.001989801	0.01093064	-5.780727	0	12.31	4003	0	0	5	5	0.02	0.3418316	1	15	0.04	1800	-0.9041748	40.92356	-91.39357
100155	7	1	8	0.01104936	0.005520648	-5.785495	0	12.31	4002	0	0	5	5	0.02	0.3485104	1	15	0.04	1800	-0.9128418	40.92356	-91.39357
100209	5	4	1	0.002161812	0.006169962	-5.791549	0	12.31	4004	0	0	5	5	0.02	0.3561555	1	15	0.04	1800	-0.9031372	40.92355	-91.39357
100294	2	0	-2	0.004025606	0.006360674	-5.794728	0	12.31	4002	0	0	5	5	0.02	0.3578539	1	15	0.04	1800	-0.9031372	40.92355	-91.39357
100365	1	3	4	0.0004178455	0.006524929	-5.800168	0	12.31	4002	0	0	5	5	0.02	0.3615888	1	15	0.04	1800	-0.8986816	40.92355	-91.39357
100435	7	0	5	0.001866578	0.005979741	-5.804447	0	12.31	4004	0	0	5	5	0.02	0.3633183	1	15	0.04	1800	-0.6695862	40.92355	-91.39356
100519	3	-2	5	0.0004140651	0.01094019	-5.807808	0	12.31	4004	0	0	5	5	0.02	0.3603475	1	15	0.04	1800	-0.8987427	40.92355	-91.39356
100587	0	1	3	-0.006873895	0.01647201	-5.811476	0	12.31	4003	0	0	5	5	0.02	0.3566187	1	15	0.04	1800	-0.8889465	40.92355	-91.39356
100760	1	0	-1	-0.008798719	0.01941179	-5.824558	0	12.31	4004	0	0	5	5	0.02	0.349101	1	15	0.04	1800	-0.8843384	40.92355	-91.39355
100793	1	-3	3	-0.004061007	0.01778508	-5.825659	0	12.31	4003	0	0	5	5	0.02	0.3481581	1	15	0.04	1800	-0.8843384	40.92355	-91.39355
100954	3	2	7	-0.009133562	0.01106629	-5.834827	0	12.31	4003	0	0	5	5	0.02	0.3517082	1	15	0.04	1800	-0.8873291	40.92356	-91.39355
101042	2	-4	6	-0.01229104	0.009800931	-5.838373	0	12.31	4003	0	0	5	5	0.02	0.3536589	1	15	0.04	1800	-0.88797	40.92356	-91.39355
