time(ms)	gyro_x(deg/s)	gyro_y(deg/s)	gyro_z(deg/s)	orientation_roll(deg)	orientation_pitch(deg)	orientation_yaw(deg)	throttle	battery(V)	loop_time(uS)	pid_output_roll	pid_output_pitch	pid_output_yaw	pid_output_throttle	ultrasonic_alt	baro_alt	flight_mode	p_gain_altitude	i_gain_altitude	d_gain_altitude	compass_heading	latitude	longitude
591387	-55	-3	4	-7.610455	-8.516238	258.614	0	11.63	4004	0	0	5	5	0.5237607	-0.1320944	1	15	0.04	1900	-15.60236	40.92357	-91.39362
591446	-55	7	2	-7.606179	-8.513764	258.6112	0	11.63	4004	0	0	5	5	0.5237607	-0.1376098	1	15	0.04	1900	-15.60724	40.92357	-91.39362
591566	-58	5	2	-7.605414	-8.512643	258.6076	0	11.63	4004	0	0	5	5	0.5237607	-0.145659	1	15	0.04	1900	-15.83521	40.92357	-91.39362
591733	-63	3	5	-7.592342	-8.515749	258.601	0	11.68	4002	0	0	5	5	0.5237607	-0.1599676	1	15	0.04	1900	-15.64902	40.92356	-91.39362
591830	-60	5	6	-7.5922	-8.514344	258.5945	0	11.68	4003	0	0	5	5	0.5237607	-0.1693662	1	15	0.04	1900	-15.87292	40.92356	-91.39362
591897	-61	1	5	-7.589026	-8.511904	258.5916	0	11.68	4002	0	0	5	5	0.5237607	-0.1714602	1	15	0.04	1900	-15.64868	40.92356	-91.39362
592023	-62	4	4	-7.594099	-8.51631	258.586	0	11.68	4002	0	0	5	5	0.5237607	-0.1708466	1	15	0.04	1900	-15.58209	40.92356	-82.98302
592058	-62	4	4	-7.594099	-8.51631	258.586	0	11.68	4002	0	0	5	5	0.5237607	-0.170777	1	15	0.04	1900	-15.58209	40.92356	-77.37597
592152	-61	3	1	-7.589362	-8.520908	258.5826	0	11.68	4003	0	0	5	5	0.5237607	-0.168607	1	15	0.04	1900	-15.56793	40.92356	-74.57243
592329	-68	2	4	-7.613269	-8.51741	258.5714	0	11.68	4002	0	0	5	5	0.5237607	-0.1529219	1	15	0.04	1900	-15.58374	40.92356	-74.57243
592414	-66	0	1	-7.612254	-8.516278	258.571	0	11.68	4003	0	0	5	5	0.5237607	-0.1482606	1	15	0.04	1200	-15.61951	40.92356	-74.57243
592495	-66	-1	4	-7.633319	-8.518608	258.5641	0	11.68	4004	0	0	5	5	0.5237607	-0.1413698	1	15	0.04	1200	-15.57016	40.92356	-74.57243
592646	-64	0	0	-7.632299	-8.521564	258.5571	0	11.63	4003	0	0	5	5	0.5237607	-0.1269348	1	15	0.04	1200	-15.57632	40.92357	-74.57243
592898	-62	2	-5	-7.612112	-8.520718	258.5464	0	11.63	4004	0	0	5	5	0.5237607	-0.1009336	1	15	0.04	1200	-15.5983	40.92357	-91.39362
593064	-61	0	6	-7.606966	-8.518882	258.5363	0	11.63	4003	0	0	5	5	0.5237607	-0.09657975	1	15	0.04	1200	-15.63086	40.92358	-91.39362
593243	-65	7	4	-7.60916	-8.5142	258.5292	0	11.63	4003	0	0	5	5	0.5237607	-0.1010403	1	15	0.04	1200	-16.08429	40.92358	-91.39362
593338	-67	-3	1	-7.60215	-8.516844	258.5215	0	11.63	4003	0	0	5	5	0.5237607	-0.1047777	1	15	0.04	1200	-15.63983	40.92358	-91.39362
593462	-59	3	1	-7.60938	-8.527915	258.5171	0	11.63	4003	0	0	5	5	0.5237607	-0.09853292	1	15	0.04	1200	-15.92282	40.92358	-91.39362
593582	-63	0	6	-7.604208	-8.524986	258.5107	0	11.68	4003	0	0	5	5	0.5237607	-0.0861765	1	15	0.04	1200	-15.80267	40.92358	-91.39362
593632	-66	-1	0	-7.60745	-8.528302	258.5088	0	11.68	4002	0	0	5	5	0.5237607	-0.07309575	1	15	0.04	1200	-15.61517	40.92358	-91.39362
593821	-60	4	7	-7.597179	-8.52823	258.4989	0	11.68	4004	0	0	5	5	0.5237607	-0.06340995	1	15	0.04	1200	-15.62579	40.92358	-91.39362
593852	-60	3	2	-7.598416	-8.529449	258.4975	0	11.68	4003	0	0	5	5	0.5237607	-0.06547283	1	15	0.04	1200	-15.62579	40.92358	-91.39362
593930	-65	-2	1	-7.600847	-8.529095	258.4935	0	11.68	4003	0	0	5	5	0.5237607	-0.06615448	1	15	0.04	1200	-15.87079	40.92358	-91.39362
594070	-54	1	7	-7.589372	-8.526635	258.4867	0	11.68	4003	0	0	5	5	0.5237607	-0.0658798	1	15	0.04	1200	-15.86227	40.92358	-91.39362
594157	-63	0	4	-7.583344	-8.524267	258.4812	0	11.68	4002	0	0	5	5	0.5237607	-0.05884828	1	15	0.04	1200	-15.84946	40.92359	-91.39362
594285	-64	4	0	-7.581455	-8.524921	258.4723	0	11.68	4002	0	0	5	5	0.5237607	-0.05887695	1	15	0.04	1200	-15.64569	40.92359	-91.39362
594423	-60	7	0	-7.577309	-8.526	258.4629	0	11.74	4003	0	0	5	5	0.5237607	-0.05980064	1	15	0.04	1200	-15.62509	40.92358	-91.39362
594472	-67	2	1	-7.579741	-8.527569	258.4627	0	11.74	4004	0	0	5	5	0.5237607	-0.05872437	1	15	0.04	1200	-15.65469	40.92358	-91.39362
594667	-60	-1	4	-7.57352	-8.532825	258.4547	0	11.74	4004	0	0	5	5	0.5237607	-0.05241539	1	15	0.04	1200	-15.68213	40.92358	-91.39361
594776	-53	0	6	-7.569782	-8.535682	258.4505	0	11.74	4004	0	0	5	5	0.5237607	-0.0522329	1	15	0.04	1200	-15.67084	40.92358	-91.39361
594845	-52	2	1	-7.571057	-8.536306	258.4455	0	11.74	4003	0	0	5	5	0.5237607	-0.05514331	1	15	0.04	1200	-15.66922	40.92358	-91.39361
595077	-49	2	1	-7.566571	-8.537289	258.4341	0	11.74	4002	0	0	5	5	0.5237607	-0.06444134	1	15	0.04	1200	-15.60709	40.92358	-91.39361
595160	-51	9	4	-7.562244	-8.537411	258.4295	0	11.74	4004	0	0	5	5	0.5237607	-0.07089967	1	15	0.04	1200	-15.69821	40.92358	-91.39361
595275	-54	0	3	-7.563139	-8.532111	258.4259	0	11.74	4002	0	0	5	5	0.5237607	-0.07547116	1	15	0.04	1200	-15.92764	40.92358	-91.39362
595386	-63	6	1	-7.554058	-8.52925	258.4194	0	11.68	4003	0	0	5	5	0.5237607	-0.0795745	1	15	0.04	1200	-15.60223	40.92358	-91.39362
595464	-63	3	5	-7.552461	-8.527865	258.416	0	11.68	4003	0	0	5	5	0.5237607	-0.08010083	1	15	0.04	1200	-15.75323	40.92358	-91.39362
595557	-59	5	7	-7.549588	-8.525007	258.4117	0	11.68	4003	0	0	5	5	0.5237607	-0.08189747	1	15	0.04	1200	-15.92432	40.92358	-91.39362
595677	-59	2	4	-7.549995	-8.528369	258.4065	0	11.68	4003	0	0	5	5	0.5237607	-0.08650306	1	15	0.04	1200	-15.71283	40.92358	-91.39362
595766	-58	1	0	-7.550154	-8.528449	258.4038	0	11.68	4003	0	0	5	5	0.5237607	-0.09035707	1	15	0.04	1200	-15.7749	40.92358	-91.39362
595942	-60	1	7	-7.540029	-8.536227	258.3925	0	11.68	4002	0	0	5	5	0.5237607	-0.08695687	1	15	0.04	1200	-15.66815	40.92358	-91.39362
596009	-60	3	7	-7.542819	-8.537402	258.3892	0	11.68	4002	0	0	5	5	0.5237607	-0.08223804	1	15	0.04	1200	-15.64539	40.92358	-91.39362
596184	-55	5	0	-7.547517	-8.539223	258.3811	0	11.68	4004	0	0	5	5	0.5237607	-0.07717095	1	15	0.04	1200	-15.92627	40.92358	-91.39362
596312	-55	3	1	-7.547897	-8.542627	258.3773	0	11.63	4002	0	0	5	5	0.5237607	-0.07015672	1	15	0.04	1200	-15.67584	40.92357	-91.39362
596339	-65	6	3	-7.547745	-8.540563	258.3762	0	11.63	4003	0	0	5	5	0.5237607	-0.07035998	1	15	0.04	1200	-15.88809	40.92357	-91.39362
596517	-57	4	9	-7.54145	-8.545247	258.369	0	11.63	4002	0	0	5	5	0.5237607	-0.08412404	1	15	0.04	1200	-15.73346	40.92357	-91.39362
596594	-59	2	4	-7.54562	-8.547482	258.3651	0	11.63	4002	0	0	5	5	0.5237607	-0.09014803	1	15	0.04	1200	-15.95847	40.92357	-91.39362
596644	-59	2	4	-7.54562	-8.547482	258.3651	0	11.63	4002	0	0	5	5	0.5237607	-0.09166866	1	15	0.04	1200	-15.95847	40.92357	-91.39362
596834	-66	0	4	-7.535801	-8.545617	258.3562	0	11.63	4003	0	0	5	5	0.5237607	-0.1071568	1	15	0.04	1200	-15.72742	40.92357	-91.39362
596927	-50	5	0	-7.531533	-8.548907	258.351	0	11.63	4002	0	0	5	5	0.5237607	-0.1128418	1	15	0.04	1200	-16.01471	40.92357	-91.39362
596996	-57	1	6	-7.523661	-8.553918	258.3479	0	11.63	4003	0	0	5	5	0.5237607	-0.1209502	1	15	0.04	1200	-16.0257	40.92357	-91.39362
597080	-53	1	2	-7.514829	-8.557718	258.3404	0	11.63	4003	0	0	5	5	0.5237607	-0.1274245	1	15	0.04	1200	-16.04712	40.92357	-91.39362
597214	-57	4	1	-7.507007	-8.55634	258.3338	0	11.68	4003	0	0	5	5	0.5237607	-0.1312341	1	15	0.04	1200	-15.78653	40.92357	-91.39362
597347	-56	0	4	-7.501154	-8.555007	258.3307	0	11.68	4002	0	0	5	5	0.5237607	-0.1278723	1	15	0.04	1200	-15.93225	40.92357	-91.39362
597433	-56	1	3	-7.496363	-8.554824	258.3262	0	11.68	4004	0	0	5	5	0.5237607	-0.1252953	1	15	0.04	1200	-15.76059	40.92357	-91.39362
597529	-53	5	2	-7.496668	-8.553611	258.3237	0	11.68	4003	0	0	5	5	0.5237607	-0.1275584	1	15	0.04	1200	-15.73981	40.92357	-91.39362
597611	-62	2	-1	-7.489611	-8.549718	258.3216	0	11.68	4003	0	0	5	5	0.5237607	-0.1340829	1	15	0.04	1200	-16.01511	40.92357	-91.39362
597798	-61	2	4	-7.48657	-8.546082	258.3144	0	11.68	4002	0	0	5	5	0.5237607	-0.1305097	1	15	0.04	1200	-15.74121	40.92357	-91.39362
597868	-52	0	2	-7.488091	-8.549185	258.3115	0	11.68	4003	0	0	5	5	0.5237607	-0.1222444	1	15	0.04	1200	-15.87598	40.92357	-91.39362
597967	-48	2	1	-7.485963	-8.545934	258.3078	0	11.68	4004	0	0	5	5	0.5237607	-0.1221196	1	15	0.04	1200	-15.7912	40.92357	-91.39362
598103	-50	-2	5	-7.473616	-8.540415	258.3044	0	11.63	4002	0	0	5	5	0.5237607	-0.1261913	1	15	0.04	1200	-15.89258	40.92357	-91.39362
598168	-46	0	1	-7.469874	-8.533931	258.3021	0	11.63	4004	0	0	5	5	0.5237607	-0.1195952	1	15	0.04	1200	-15.89191	40.92357	-91.39362
598242	-49	1	4	-7.469376	-8.534827	258.2989	0	11.63	4004	0	0	5	5	0.5237607	-0.110613	1	15	0.04	1200	-15.81256	40.92357	-91.39362
598344	-60	-1	3	-7.470546	-8.542075	258.2948	0	11.63	4003	0	0	5	5	0.5237607	-0.09848587	1	15	0.04	1200	-15.89053	40.92357	-91.39362
598390	-56	1	5	-7.470198	-8.540109	258.2949	0	11.63	4003	0	0	5	5	0.5237607	-0.09729343	1	15	0.04	1200	-15.89053	40.92357	-91.39362
598563	-54	0	2	-7.466738	-8.542892	258.2891	0	11.63	4004	0	0	5	5	0.5237607	-0.07335641	1	15	0.04	1200	-15.82217	40.92357	-91.39362
598650	-47	4	-1	-7.467486	-8.542756	258.2854	0	11.63	4002	0	0	5	5	0.5237607	-0.06486496	1	15	0.04	1200	-15.75165	40.92357	-91.39362
598791	-55	4	-3	-7.464872	-8.544979	258.2818	0	11.63	4004	0	0	5	5	0.5237607	-0.05532333	1	15	0.04	1200	-16.04816	40.92357	-91.39362
598892	-63	2	0	-7.461794	-8.546558	258.281	0	11.63	4004	0	0	5	5	0.5237607	-0.05485176	1	15	0.04	1200	-15.74167	40.92357	-91.39362
599015	-53	6	4	-7.45973	-8.548562	258.2755	0	11.68	4004	0	0	5	5	0.5237607	-0.06202979	1	15	0.04	1200	-16.02017	40.92357	-91.39362
599132	69	-127	-22	-7.408196	-8.506779	258.2599	0	11.68	4003	0	0	5	5	0.5237607	-0.07345323	1	15	0.04	1200	-15.84662	40.92357	-91.39362
599207	39	-115	6	-7.343142	-8.418702	258.2547	0	11.68	4003	0	0	5	5	0.5237607	-0.07887937	1	15	0.04	1200	-15.90054	40.92357	-91.39362
599271	729	-986	-89	-7.056576	-8.050204	258.2907	0	11.68	4003	0	0	5	5	0.5237607	-0.08072268	1	15	0.04	1200	-16.112	40.92357	-91.39362
599441	1376	-1895	-89	-2.790363	-2.398183	258.6219	0	11.68	4004	0	0	5	5	0.5237607	-0.07392618	1	15	0.04	1200	-15.57843	40.92357	-91.39362
599533	-749	937	60	-2.170605	-1.608339	258.5851	0	11.68	4004	0	0	5	5	0.5237607	-0.07384116	1	15	0.04	1200	-15.84387	40.92357	-91.39362
599613	-582	627	177	-3.001519	-2.667162	258.4879	0	11.68	4004	0	0	5	5	0.5237607	-0.07354795	1	15	0.04	1200	-16.00485	40.92357	-91.39362
599712	-367	405	-61	-3.494432	-3.333398	258.4494	0	11.68	4003	0	0	5	5	0.5237607	-0.07579929	1	15	0.04	1200	-15.84866	40.92357	-91.39362
599778	-700	817	160	-4.000993	-4.025285	258.373	0	11.68	4002	0	0	5	5	0.5237607	-0.07582396	1	15	0.04	1200	-15.73389	40.92357	-91.39362
599844	-963	1170	187	-4.330216	-4.469104	258.3386	0	11.68	4002	0	0	5	5	0.5237607	-0.07170034	1	15	0.04	1200	-15.73389	40.92357	-91.39362
599984	3	1190	-375	-8.101872	-9.007809	257.9743	0	11.68	4002	0	0	5	5	0.5237607	-0.06054779	1	15	0.04	1200	-15.03589	40.92357	-91.39362
600041	208	518	-1936	-8.176904	-9.630972	258.5465	0	11.68	4002	0	0	5	5	0.5237607	-0.04531793	1	15	0.04	1200	-15.03589	40.92357	-91.39362
600235	9921	-8211	-11153	4.108012	0.1140496	275.765	0	11.68	4003	0	0	5	5	0.5237607	-0.0193625	1	15	0.04	1200	-24.28204	40.92357	-91.39362
600305	9134	-4237	-12712	21.18272	6.064404	297.0987	0	11.68	4002	0	0	5	5	0.5237607	-0.01189124	1	15	0.04	1200	-40.05283	40.92357	-91.39362
600454	9922	-4811	-1038	50.03882	5.883628	318.0815	0	11.68	4003	0	0	5	5	0.5237607	0.005852488	1	15	0.04	1200	-80.43918	40.92357	-91.39362
600615	7786	-4329	3514	71.3807	19.72302	312.6728	0	11.68	4004	0	0	5	5	0.5237607	0.07583309	1	15	0.04	1200	258.5631	40.92357	-91.39362
600673	9767	-4224	2010	79.69711	27.58267	309.4546	0	11.68	4002	0	0	5	5	0.5237607	0.09772554	1	15	0.04	1200	255.2438	40.92357	-91.39362
600820	6675	-837	139	94.32616	30.21724	308.9818	0	11.68	4003	0	0	5	5	0.5237607	0.1821896	1	15	0.04	1200	244.3214	40.92357	-91.39362
601010	3120	198	1721	100.2803	29.23568	307.1393	0	11.68	4004	0	0	5	5	0.5237607	0.28322	1	15	0.04	1200	213.9569	40.92357	-91.39362
601135	-2657	3059	471	85.33582	31.89397	302.4686	0	11.68	4003	0	0	5	5	0.5237607	0.3350399	1	15	0.04	1200	137.3828	40.92357	-91.39362
601327	-3169	-3630	-1869	70.034	27.80699	307.8352	0	11.68	4004	0	0	5	5	0.5237607	0.4328803	1	15	0.04	1200	123.8351	40.92357	-91.39362
601470	-5504	-2253	1815	59.74622	36.31588	306.7504	0	11.68	4002	0	0	5	5	0.5237607	0.4806195	1	15	0.04	1200	98.02378	40.92357	-91.39362
601626	-11898	1021	1233	38.65748	39.2672	301.3862	0	11.68	4004	0	0	5	5	0.5237607	0.5017189	1	15	0.04	1200	95.07321	40.92357	-91.39362
601688	-9332	1825	-1933	25.43544	32.99154	301.6468	0	11.63	4003	0	0	5	5	0.5237607	0.5062659	1	15	0.04	1200	105.8674	40.92357	-91.39362
601815	-7703	-11	-4814	20.06683	25.53972	307.7812	0	11.63	4003	0	0	5	5	0.5237607	0.5217108	1	15	0.04	1200	110.7874	40.92357	-91.39362
601981	-8522	2170	-4449	9.579682	17.91702	321.2368	0	11.63	4002	0	0	5	5	0.5237607	0.5411556	1	15	0.04	1200	140.6814	40.92357	-91.39362
602061	-6804	2885	-2928	5.077598	13.81598	325.2856	0	11.63	4002	0	0	5	5	0.5237607	0.539452	1	15	0.04	1200	161.9829	40.92357	-91.39362
602255	-1402	2480	821	-1.218234	0.3833446	326.3161	0	11.63	4003	0	0	5	5	0.5237607	0.53746	1	15	0.04	1200	228.8435	40.92357	-91.39362
602322	221	3423	-822	-0.04419726	-2.694798	326.5013	0	11.63	4002	0	0	5	5	0.5237607	0.5372688	1	15	0.04	1200	256.3785	40.92357	-91.39362
602405	1064	-2429	3353	7.862178	-3.635431	324.915	0	11.63	4002	0	0	5	5	0.5237607	0.5299811	1	15	0.04	1200	-83.41537	40.92357	-91.39362
602500	-1420	-3046	5095	8.853185	-0.8469279	319.9171	0	11.63	4004	0	0	5	5	0.5237607	0.523369	1	15	0.04	1200	-86.53174	40.92357	-91.39362
602688	-2464	-782	3832	5.224241	5.627939	303.5759	0	11.68	4003	0	0	5	5	0.5237607	0.5097208	1	15	0.04	1200	-96.13544	40.92357	-91.39362
602843	-2009	370	578	0.8983638	4.96844	299.8424	0	11.68	4003	0	0	5	5	0.5237607	0.495825	1	15	0.04	1200	-96.66946	40.92357	-91.39362
602925	-1394	-357	-1293	-1.740182	4.282354	301.8995	0	11.68	4002	0	0	5	5	0.5237607	0.4934799	1	15	0.04	1200	-94.95834	40.92357	-91.39362
603068	486	754	32	-5.027811	6.102177	303.7263	0	11.68	4003	0	0	5	5	0.5237607	0.4875657	1	15	0.04	1200	-99.16681	40.92357	-91.39362
603169	781	-57	1123	-1.839089	6.135172	302.4517	0	11.68	4002	0	0	5	5	0.5237607	0.4842159	1	15	0.04	1200	-95.16638	40.92357	-91.39362
603352	1828	503	-742	5.291267	7.580176	301.451	0	11.68	4004	0	0	5	5	0.5237607	0.4790223	1	15	0.04	1200	-95.21066	40.92357	-91.39362
603412	1425	1159	777	10.11424	4.034323	301.1737	0	11.68	4003	0	0	5	5	0.5237607	0.4790303	1	15	0.04	1200	-97.45801	40.92357	-91.39362
603520	2086	2723	4192	15.06213	-0.5264938	295.4154	0	11.68	4004	0	0	5	5	0.5237607	0.4733143	1	15	0.04	1200	-97.70001	40.92357	-91.39362
603542	2086	2723	4192	15.06213	-0.5264938	295.4154	0	11.68	4004	0	0	5	5	0.5237607	0.4697726	1	15	0.04	1200	-97.70001	40.92357	-91.39362
603724	1366	-1372	-225	13.01496	-7.288718	280.6452	0	11.68	4002	0	0	5	5	0.5237607	0.4542231	1	15	0.04	1200	-78.60541	40.92357	-91.39362
603765	2704	-1229	-798	13.73906	-7.117333	280.948	0	11.68	4004	0	0	5	5	0.5237607	0.4442443	1	15	0.04	1200	-80.41727	40.92357	-91.39362
603853	964	-544	-1080	14.39257	-6.997672	282.1777	0	11.68	4003	0	0	5	5	0.5237607	0.4077741	1	15	0.04	1200	-84.42142	40.92357	-91.39362
603957	-3605	1446	-1758	8.132133	-8.347609	285.3169	0	11.68	4002	0	0	5	5	0.5237607	0.3833014	1	15	0.04	1200	-89.97018	40.92357	-91.39362
604090	587	-2653	-3278	3.778844	-9.247479	290.2181	0	11.68	4004	0	0	5	5	0.5237607	0.3075932	1	15	0.04	1200	-91.82022	40.92357	-91.39362
604190	-105	4238	2763	-3.010471	-6.560549	291.47	0	11.68	4003	0	0	5	5	0.5237607	0.2843551	1	15	0.04	1200	-95.92538	40.92357	-91.39362
604276	-136	208	63	-2.994993	-6.32505	291.5889	0	11.68	4003	0	0	5	5	0.5237607	0.2156777	1	15	0.04	1200	-96.1911	40.92357	-91.39362
604424	-63	18	-10	-3.009084	-5.630354	291.6196	0	11.68	4002	0	0	5	5	0.5237607	0.1585333	1	15	0.04	1200	-94.17563	40.92357	-91.39362
604540	-50	0	-4	-3.120203	-5.1424	291.6203	0	11.68	4003	0	0	5	5	0.5237607	0.119379	1	15	0.04	1200	-92.18283	40.92357	-91.39362
604625	-53	7	2	-3.132751	-4.741893	291.6222	0	11.68	4004	0	0	5	5	0.5237607	0.0996185	1	15	0.04	1200	-91.17514	40.92357	-91.39362
604742	-45	9	-1	-3.138379	-4.284122	291.6255	0	11.68	4003	0	0	5	5	0.5237607	0.06770036	1	15	0.04	1200	-90.26828	40.92357	-91.39362
604819	-52	7	0	-3.143861	-4.08411	291.6275	0	11.68	4002	0	0	5	5	0.5237607	0.05222696	1	15	0.04	1200	-90.1004	40.92357	-91.39362
604970	-50	5	-2	-3.16011	-3.651235	291.6306	0	11.68	4003	0	0	5	5	0.5237607	0.01977853	1	15	0.04	1200	-88.82721	40.92357	-91.39362
605109	-41	5	4	-3.170589	-3.438677	291.6331	0	11.68	4002	0	0	5	5	0.5237607	-0.02156678	1	15	0.04	1200	-88.38086	40.92357	-91.39362
605145	-78	25	-47	-3.173379	-3.302973	291.639	0	11.68	4004	0	0	5	5	0.5237607	-0.03299865	1	15	0.04	1200	-87.37888	40.92357	-91.39362
605391	-83	46	11	-3.181879	-2.913363	291.6421	0	11.68	4003	0	0	5	5	0.5237607	-0.08953194	1	15	0.04	1200	-86.78387	40.92357	-91.39362
605489	-73	25	-6	-3.204545	-2.80235	291.6408	0	11.68	4003	0	0	5	5	0.5237607	-0.1184415	1	15	0.04	1200	-86.6785	40.92357	-91.39362
605600	-67	20	-18	-3.221199	-2.701796	291.6339	0	11.68	4003	0	0	5	5	0.5237607	-0.1478165	1	15	0.04	1200	-85.90985	40.92357	-91.39362
605644	-40	-10	2	-3.221467	-2.683177	291.6365	0	11.68	4004	0	0	5	5	0.5237607	-0.1541767	1	15	0.04	1200	-85.90985	40.92357	-91.39362
605777	-180	193	34	-3.203081	-2.524542	291.6325	0	11.68	4004	0	0	5	5	0.5237607	-0.1909548	1	15	0.04	1200	-85.90128	40.92357	-91.39362
605880	-73	36	8	-3.233846	-2.455189	291.6333	0	11.68	4003	0	0	5	5	0.5237607	-0.2019718	1	15	0.04	1200	-86.05023	40.92357	-91.39362
605949	-52	-14	-5	-3.243131	-2.425509	291.6331	0	11.68	4002	0	0	5	5	0.5237607	-0.2129394	1	15	0.04	1200	-85.22354	40.92357	-91.39362
606083	-42	0	-1	-3.250871	-2.345606	291.6346	0	11.68	4003	0	0	5	5	0.5237607	-0.2144763	1	15	0.04	1200	-85.36523	40.92357	-91.39362
606203	-48	3	-1	-3.250536	-2.287784	291.6339	0	11.68	4003	0	0	5	5	0.5237607	-0.210211	1	15	0.04	1200	-85.21072	40.92357	-91.39362
606308	-52	5	1	-3.256203	-2.245168	291.6351	0	11.68	4003	0	0	5	5	0.5237607	-0.1996406	1	15	0.04	1200	-85.15994	40.92357	-91.39362
606410	-48	0	0	-3.256818	-2.209414	291.6357	0	11.68	4003	0	0	5	5	0.5237607	-0.1924137	1	15	0.04	1200	-84.65326	40.92357	-91.39362
606526	-48	2	0	-3.258523	-2.174743	291.6366	0	11.68	4004	0	0	5	5	0.5237607	-0.1796477	1	15	0.04	1200	-84.95853	40.92357	-91.39362
606615	-44	5	0	-3.246322	-2.15048	291.6366	0	11.68	4004	0	0	5	5	0.5237607	-0.1765043	1	15	0.04	1200	-84.22327	40.92357	-91.39362
606757	-50	1	3	-3.247072	-2.120582	291.6375	0	11.68	4002	0	0	5	5	0.5237607	-0.1789392	1	15	0.04	1200	-84.79279	40.92357	-91.39362
606898	-47	2	2	-3.24427	-2.099644	291.6377	0	11.68	4007	0	0	5	5	0.5237607	-0.1904252	1	15	0.04	1200	-84.39053	40.92357	-91.39362
606951	-45	8	1	-3.243298	-2.091556	291.6377	0	11.68	4003	0	0	5	5	0.5237607	-0.1925622	1	15	0.04	1200	-84.74988	40.92357	-91.39362
607040	-45	9	1	-3.243445	-2.088268	291.6382	0	11.68	4002	0	0	5	5	0.5237607	-0.1966937	1	15	0.04	1200	-84.36539	40.92357	-91.39362
607175	-41	6	1	-3.238789	-2.08135	291.6368	0	11.63	4004	0	0	5	5	0.5237607	-0.1951265	1	15	0.04	1200	-84.6846	40.92357	-91.39362
607306	-53	1	0	-3.240767	-2.073766	291.6361	0	11.63	4003	0	0	5	5	0.5237607	-0.1971478	1	15	0.04	1200	-84.69003	40.92357	-91.39362
607360	-46	5	-2	-3.244744	-2.067394	291.6366	0	11.63	4004	0	0	5	5	0.5237607	-0.2002109	1	15	0.04	1200	-84.69443	40.92357	-91.39362
607459	-50	-1	0	-3.232461	-2.059854	291.635	0	11.63	4002	0	0	5	5	0.5237607	-0.2045551	1	15	0.04	1200	-84.64893	40.92357	-91.39362
607601	-54	3	1	-3.232192	-2.052096	291.6332	0	11.63	4004	0	0	5	5	0.5237607	-0.212437	1	15	0.04	1200	-84.96625	40.92357	-91.39362
607709	-45	7	0	-3.225132	-2.039738	291.6322	0	11.63	4002	0	0	5	5	0.5237607	-0.2119895	1	15	0.04	1200	-84.60641	40.92357	-91.39362
607820	-45	6	-3	-3.215987	-2.037973	291.6327	0	11.63	4002	0	0	5	5	0.5237607	-0.2091573	1	15	0.04	1200	-84.58936	40.92357	-91.39362
607906	-49	9	2	-3.215035	-2.037665	291.6357	0	11.63	4004	0	0	5	5	0.5237607	-0.2076588	1	15	0.04	1200	-84.58456	40.92357	-91.39362
607949	-40	2	2	-3.21299	-2.03603	291.6359	0	11.63	4003	0	0	5	5	0.5237607	-0.2088313	3	15	0.04	1200	-84.59119	40.92357	-91.39362
608138	-43	3	-3	-3.210654	-2.027691	291.6369	0	11.68	4002	0	0	5	5	0.5237607	-0.2181437	3	15	0.04	1200	-84.55597	40.92357	-91.39362
608215	-52	7	3	-3.206637	-2.028362	291.6363	0	11.68	4003	0	0	5	5	0.5237607	-0.2136833	3	15	0.04	1200	-84.56656	40.92357	-91.39362
608332	-39	9	-3	-3.19845	-2.01862	291.6385	0	11.68	4003	0	0	5	5	0.5237607	-0.2066568	3	15	0.04	1200	-84.54672	40.92357	-91.39362
608373	-43	3	0	-3.198375	-2.016563	291.6379	0	11.68	4002	0	0	5	5	0.5237607	-0.2068777	3	15	0.04	1200	-84.54672	40.92357	-91.39362
608512	-45	0	-1	-3.196863	-2.01992	291.64	0	11.68	4003	0	0	5	5	0.5237607	-0.2051199	3	15	0.04	1200	-84.54901	40.92357	-91.39362
608609	-42	5	0	-3.182946	-2.019958	291.6436	0	11.68	4003	0	0	5	5	0.5237607	-0.2054525	3	15	0.04	1200	-84.5705	40.92357	-91.39362
608750	-38	0	-1	-3.179134	-2.017405	291.6476	0	11.68	4002	0	0	5	5	0.5237607	-0.2140482	3	15	0.04	1200	-84.21078	40.92357	-91.39362
608873	-38	7	6	-3.175473	-2.009248	291.6493	0	11.68	4002	0	0	5	5	0.5237607	-0.223987	3	15	0.04	1200	-84.57571	40.92356	-91.39362
609053	-36	1	-1	-3.180037	-2.014125	291.6501	0	11.68	4003	0	0	5	5	0.5237607	-0.2224027	3	15	0.04	1200	-84.18619	40.92356	-91.39362
609181	-45	4	-1	-3.185128	-2.014533	291.6512	0	11.68	4004	0	0	5	5	0.5237607	-0.2211884	3	15	0.04	1200	-84.23712	40.92356	-91.39362
609233	-42	6	0	-3.182786	-2.016203	291.6513	0	11.68	4003	0	0	5	5	0.5237607	-0.2209549	3	15	0.04	1200	-84.23712	40.92357	-91.39362
609329	-49	1	-4	-3.169521	-2.009787	291.6534	0	11.68	4004	0	0	5	5	0.5237607	-0.2212673	3	15	0.04	1200	-84.53522	40.92358	-91.39362
609505	-38	0	-1	-3.161061	-2.007932	291.6566	0	11.68	4003	0	0	5	5	0.5237607	-0.2192587	3	15	0.04	1200	-84.86908	40.9236	-91.39363
609563	-42	4	-2	-3.152987	-2.009042	291.6589	0	11.68	4004	0	0	5	5	0.5237607	-0.2157154	3	15	0.04	1200	-84.53445	40.92361	-91.39364
609726	-18	9	-41	-3.136116	-2.031597	291.6595	0	11.68	4002	0	0	5	5	0.5237607	-0.195752	3	15	0.04	1200	-84.90469	40.92363	-91.39364
609842	-28	-59	144	-3.17467	-2.00951	291.6745	0	11.68	4004	0	0	5	5	0.5237607	-0.182165	3	15	0.04	1200	-85.22232	40.92365	-91.39365
609996	-54	-14	-41	-3.192133	-1.969807	291.6707	0	11.63	4003	0	0	5	5	0.5237607	-0.1735499	3	15	0.04	1200	-83.34564	40.92366	-91.39365
610081	-98	-22	108	-3.166178	-1.942024	291.6725	0	11.63	4003	0	0	5	5	0.5237607	-0.1740673	3	15	0.04	1200	-83.75073	40.92367	-91.39365
610119	38	55	41	-3.175979	-1.908665	291.6842	0	11.63	4002	0	0	5	5	0.5237607	-0.17318	3	15	0.04	1200	-85.61581	40.92367	-91.39365
610261	-71	-58	205	-3.144469	-1.865909	291.682	0	11.63	4002	0	0	5	5	0.5237607	-0.1708115	3	15	0.04	1200	-84.95676	40.92368	-91.39365
610464	-74	-86	293	-3.240984	-1.824208	291.673	0	11.63	4003	0	0	5	5	0.5237607	-0.1600596	3	15	0.04	1200	-84.47784	40.92369	-91.39365
610578	-183	15	-63	-3.284352	-1.781923	291.6936	0	11.63	4002	0	0	5	5	0.5237607	-0.1566239	3	15	0.04	1200	-85.29373	40.92369	-91.39365
610690	-122	-150	286	-3.226765	-1.811184	291.6913	0	11.63	4004	0	0	5	5	0.5237607	-0.1633905	3	15	0.04	1200	-84.07935	40.92369	-91.39366
610821	-169	6	82	-3.216455	-1.82608	291.6921	0	11.63	4003	0	0	5	5	0.5237607	-0.1657382	3	15	0.04	1200	-85.06992	40.92369	-91.39366
610919	24	71	-292	-3.21102	-1.767139	291.7161	0	11.57	4003	0	0	5	5	0.5237607	-0.16744	3	15	0.04	1200	-85.1235	40.92369	-91.39366
611056	-67	9	-334	-3.215667	-1.702836	291.707	0	11.57	4003	0	0	5	5	0.5237607	-0.1664658	3	15	0.04	1200	-86.7612	40.92369	-91.39366
611180	-199	-119	-141	-3.170153	-1.709853	291.7123	0	11.57	4003	0	0	5	5	0.5237607	-0.1627975	3	15	0.04	1200	-85.71564	40.92369	-91.39366
611336	110	18	-95	-3.276444	-1.648283	291.6774	0	11.57	4003	0	0	5	5	0.5237607	-0.1618562	3	15	0.04	1200	-85.8028	40.92369	-91.39366
611417	-7	-60	-44	-3.306257	-1.672861	291.6634	0	11.57	4002	0	0	5	5	0.5237607	-0.1540778	3	15	0.04	1200	-84.99783	40.92369	-91.39366
611519	-169	-27	-132	-3.280781	-1.466915	291.6903	0	11.57	4002	0	0	5	5	0.5237607	-0.1491922	3	15	0.04	1200	-86.27927	40.92369	-91.39366
611734	-126	-71	169	-3.283046	-1.18408	291.6998	0	11.57	4002	0	0	5	5	0.5237607	-0.1371238	3	15	0.04	1200	-84.53656	40.92369	-91.39366
611823	63	104	218	-3.233675	-1.241231	291.7	0	11.57	4003	0	0	5	5	0.5237607	-0.1328003	3	15	0.04	1200	-85.04593	40.9237	-91.39366
611994	-130	-30	-471	-3.102197	-1.219167	291.7067	0	11.57	4003	0	0	5	5	0.5237607	-0.1112651	3	15	0.04	1200	-85.25327	40.92371	-91.39366
612131	191	68	56	-3.053747	-1.35342	291.6844	0	11.57	4004	0	0	5	5	0.5237607	-0.09013815	3	15	0.04	1200	-87.06375	40.92371	-91.39366
612322	-138	-83	120	-2.984114	-1.54527	291.6924	0	11.57	4002	0	0	5	5	0.5237607	-0.09251215	3	15	0.04	1200	-87.28204	40.92371	-91.39366
612422	79	107	-435	-3.024811	-1.700143	291.6913	0	11.57	4004	0	0	5	5	0.5237607	-0.08563375	3	15	0.04	1200	-87.20395	40.92372	-91.39366
612592	-188	-105	-520	-3.01872	-1.786011	291.6669	0	11.57	4002	0	0	5	5	0.5237607	-0.06468403	3	15	0.04	1200	-88.03833	40.92372	-91.39365
612669	91	-166	-44	-3.10039	-1.873895	291.6443	0	11.06	4004	0	0	5	5	0.5237607	-0.03326858	3	15	0.04	1200	-88.51123	40.92372	-91.39365
612739	-15	-1	411	-2.956759	-1.936995	291.6619	0	11.06	4002	0	0	5	5	0.5237607	-0.02104202	3	15	0.04	1200	-87.62738	40.92372	-91.39365
612808	-303	99	257	-3.016255	-2.026752	291.683	0	11.06	4002	0	0	5	5	0.5237607	-0.01147707	3	15	0.04	1200	-87.77374	40.92372	-91.39365
612920	-50	48	-729	-2.693398	-2.384636	291.6884	0	11.06	4002	0	0	5	5	0.5237607	-0.005908641	3	15	0.04	1200	-89.6329	40.92372	-91.39365
613034	-40	-42	272	-2.771949	-2.346595	291.6602	0	11.06	4003	0	0	5	5	0.5237607	-0.008412524	3	15	0.04	1200	-90.19553	40.92372	-91.39365
613165	72	-186	19	-2.721269	-2.240112	291.7032	0	11.06	4003	0	0	5	5	0.5237607	-0.02172258	3	15	0.04	1200	-88.71872	40.92372	-91.39365
613242	-184	-467	-168	-2.820413	-2.039773	291.6925	0	11.06	4004	0	0	5	5	0.5237607	-0.03173999	3	15	0.04	1200	-89.55505	40.92372	-91.39365
613356	183	41	228	-2.862864	-2.093287	291.6306	0	11.06	4003	0	0	5	5	0.5237607	-0.03960415	3	15	0.04	1200	-89.32315	40.92373	-91.39365
613489	347	128	-471	-2.744997	-1.972464	291.6563	0	11.06	4004	0	0	5	5	0.5237607	-0.02657339	3	15	0.04	1200	-88.61102	40.92373	-91.39365
613598	-314	-247	-33	-2.637537	-2.128852	291.6465	0	11.63	4003	0	0	5	5	0.5237607	-0.01302909	3	15	0.04	1200	-89.23907	40.92373	-91.39365
613681	132	363	38	-2.362743	-2.238192	291.6145	0	11.63	4003	0	0	5	5	0.5237607	-0.01074444	3	15	0.04	1200	-88.93506	40.92372	-91.39366
613859	-131	103	-317	-1.955036	-2.242716	291.597	0	11.63	4002	0	0	5	5	0.5237607	-0.005661113	3	15	0.04	1200	-89.31958	40.92372	-91.39366
613944	-78	-354	-774	-1.816616	-2.197281	291.6283	0	11.63	4003	0	0	5	5	0.5237607	-0.006726623	3	15	0.04	1200	-89.40726	40.92372	-91.39366
614106	426	327	673	-1.62765	-1.998272	291.5727	0	11.63	4003	0	0	5	5	0.5237607	-0.02059917	3	15	0.04	1200	-89.32828	40.92372	-91.39365
614256	146	126	-356	-1.332447	-2.020278	291.5583	0	11.63	4003	0	0	5	5	0.5237607	-0.0147564	3	15	0.04	1200	-89.84546	40.92372	-91.39365
614346	272	-51	-377	-1.025509	-1.984724	291.5307	0	11.63	4002	0	0	5	5	0.5237607	0.0009156667	8	15	0.04	1200	-89.42621	40.92372	-91.39365
614440	1772	-388	439	0.6061827	-1.587264	291.4582	0	11.51	4004	0	0	5	5	0.5237607	0.008648898	8	15	0.04	1200	-89.87131	40.92372	-91.39365
614499	2945	-2280	-372	4.323805	0.5162415	291.5783	0	11.51	4002	0	0	5	5	0.5237607	0.009963345	8	15	0.04	1200	-93.22931	40.92372	-91.39365
614569	3003	-2967	-978	7.503338	3.406678	291.9042	0	11.51	4003	0	0	5	5	0.5237607	0.002002225	8	15	0.04	1200	-97.99207	40.92372	-91.39365
614738	12	-3394	1453	13.06239	13.54028	291.2521	0	11.51	4002	0	0	5	5	0.5237607	-0.01062238	8	15	0.04	1200	253.7541	40.92371	-54.83784
614829	1327	-491	3933	13.51943	16.77419	286.5758	0	11.51	4003	0	0	5	5	0.5237607	-0.02577871	8	15	0.04	1200	250.3824	40.92371	-45.69889
614911	5332	2817	5467	15.05653	15.68236	279.9757	0	11.51	4002	0	0	5	5	0.5237607	-0.0343886	8	15	0.04	1200	255.3586	40.92371	-45.69889
614978	6683	-2513	4777	17.31178	18.85928	272.4485	0	11.51	4003	0	0	5	5	0.5237607	-0.04189988	8	15	0.04	1200	-85.38162	40.92371	-45.69889
615095	5890	-3219	7158	22.46227	27.41585	260.0085	0	11.51	4002	0	0	5	5	0.5237607	-0.04581401	8	15	0.04	1200	-71.46884	40.92371	-45.69888
615124	1793	2751	6765	22.16123	27.56242	255.8567	0	11.51	4004	0	0	5	5	0.5237607	-0.04523631	8	15	0.04	1200	-71.46884	40.92371	-45.69888
615215	-9185	10245	464	11.39301	20.4514	251.9052	0	11.51	4002	0	0	5	5	0.5237607	-0.0392474	8	15	0.04	1200	-63.53864	40.92371	-45.69888
615461	-1042	9068	-5283	-33.81042	-24.6095	270.1655	0	11	4004	0	0	5	5	0.5237607	-0.03743104	8	15	0.04	1200	-59.32797	40.92371	-91.39365
615569	1088	2344	1342	-31.75809	-28.16215	276.2699	0	11	4003	0	0	5	5	0.5237607	-0.03965817	8	15	0.04	1200	-76.23944	40.92371	-91.39365
615710	9128	-4122	3421	-7.786163	-21.22473	268.8762	0	11	4003	0	0	5	5	0.5237607	-0.04097327	8	15	0.04	1200	-66.1189	40.92371	-91.39365
615783	7138	-6262	665	7.106897	-12.2823	265.2368	0	11	4003	0	0	5	5	0.5237607	-0.04148716	8	15	0.04	1200	-55.81415	40.92371	-91.39365
615887	6799	-973	-1209	13.69383	-8.022826	265.8387	0	11	4002	0	0	5	5	0.5237607	-0.03876238	8	15	0.04	1200	-55.81415	40.92371	-91.39365
615899	6799	-973	-1209	13.69383	-8.022826	265.8387	0	11	4002	0	0	5	5	0.5237607	-0.03805501	8	15	0.04	1200	-55.81415	40.92371	-91.39365
616134	3563	-1752	4351	1.485643	-6.83252	266.2517	0	11	4008	0	0	5	5	0.5237607	-0.02922331	8	15	0.04	1200	-59.06784	40.92371	-91.39365
616224	9802	-2645	504	12.24469	-1.98522	263.2083	0	10.94	4002	0	0	5	5	0.5237607	-0.01971635	8	15	0.04	1200	-55.92111	40.92371	-91.39365
616336	5015	-3602	-976	23.68626	4.329912	265.7076	0	10.94	4002	0	0	5	5	0.5237607	-0.004359767	8	15	0.04	1200	-63.91943	40.92371	-91.39365
616424	-6253	1275	-1463	19.79037	3.168124	267.301	0	10.94	4003	0	0	5	5	0.5237607	0.006825152	8	15	0.04	1200	-70.4501	40.92371	-91.39365
616595	-2407	2906	-58	5.819456	-4.247093	270.6929	0	10.94	4003	0	0	5	5	0.5237607	0.02716288	8	15	0.04	1200	-71.07678	40.92373	-98.73792
616701	-3820	1539	2554	-8.707207	-12.18322	268.3647	0	10.94	4003	0	0	5	5	0.5237607	0.05502943	8	15	0.04	1200	-64.99136	40.92373	104.994
616874	50	-1351	-457	-1.574085	-5.154693	266.3462	0	10.94	4002	0	0	5	5	0.5237607	0.06892486	8	15	0.04	1200	-64.92917	40.92374	101.3219
616949	-234	646	-1738	-1.401402	-2.649802	267.5095	0	10.94	4004	0	0	5	5	0.5237607	0.07365599	8	15	0.04	1200	-69.16449	40.92374	101.3219
617034	-1053	-1220	-373	-2.076425	-5.35871	268.1074	0	10.66	4003	0	0	5	5	0.5237607	0.08059525	8	15	0.04	1200	-72.22403	40.92374	101.3219
617142	-4050	4612	-2410	-1.006439	-9.20319	268.101	0	10.66	4003	0	0	5	5	0.5237607	0.09094778	8	15	0.04	1200	-79.10385	40.92374	101.3219
617217	1558	1771	261	0.240035	-14.95349	268.3552	0	10.66	4003	0	0	5	5	0.5237607	0.09087206	8	15	0.04	1200	-74.8967	40.92373	-102.41
617321	137	-5152	-1145	0.5226251	-9.362312	269.6093	0	10.66	4004	0	0	5	5	0.5237607	0.09103531	8	15	0.04	1200	-73.65298	40.92373	-95.06577
617376	-633	-4225	395	-0.1999303	-3.750674	269.2829	0	10.66	4004	0	0	5	5	0.5237607	0.09290878	8	15	0.04	1200	-75.02667	40.92372	-91.39363
617479	-256	-4999	903	-0.7931816	2.581867	267.6443	0	10.66	4002	0	0	5	5	0.5237607	0.09632974	8	15	0.04	1200	-82.0946	40.92372	-91.39363
617608	1912	1193	-1232	-0.3259942	4.665774	267.3479	0	10.66	4004	0	0	5	5	0.5237607	0.08810569	8	15	0.04	1200	-94.16153	40.92372	-91.39363
617702	716	87	2240	-0.578729	2.438919	261.7299	0	10.66	4004	0	0	5	5	0.5237607	0.0771796	8	15	0.04	1200	-89.65796	40.92372	-91.39362
617771	3625	1694	1563	0.121353	1.420033	259.9166	0	10.66	4004	0	0	5	5	0.5237607	0.06901845	8	15	0.04	1200	-79.48834	40.92372	-91.39362
617867	1691	5794	-157	4.452957	-2.983358	257.5752	0	10.66	4003	0	0	5	5	0.5237607	0.03833697	8	15	0.04	1200	-68.34006	40.92372	-91.39362
617951	-5057	593	-5198	-2.744194	-7.102633	262.0552	0	10.83	4004	0	0	5	5	0.5237607	0.0220649	8	15	0.04	1200	-58.79367	40.92372	-91.39362
618016	-2050	-185	-5559	-4.409717	-7.518908	264.7124	0	10.83	4003	0	0	5	5	0.5237607	0.01370292	8	15	0.04	1200	-58.43723	40.92372	-91.39362
618145	-5832	-2935	587	-9.809555	-1.517303	273.3769	0	10.83	4004	0	0	5	5	0.5237607	0.002526673	8	15	0.04	1200	-70.6965	40.92371	-91.39362
618300	1615	-1425	1861	-14.18509	2.032569	269.5908	0	10.83	4003	0	0	5	5	0.5237607	0.007690826	8	15	0.04	1200	-77.10672	40.92371	-91.39362
618449	1200	-31	594	-4.301752	-1.357753	266.5741	0	10.83	4004	0	0	5	5	0.5237607	0.01553103	8	15	0.04	1200	-78.0535	40.92371	-91.39362
618534	3039	-1373	22	-0.5926613	-0.7596694	267.3244	0	10.83	4003	0	0	5	5	0.5237607	0.01715886	8	15	0.04	1200	-80.26187	40.92371	-91.39362
618717	373	1133	44	-2.67607	-5.270745	263.7806	0	10.83	4004	0	0	5	5	0.5237607	0.005408519	8	15	0.04	1200	-71.41354	40.92371	-91.39362
618801	3097	-793	-1627	2.070976	-4.567392	266.4229	0	11.46	4004	0	0	5	5	0.5237607	0.005105195	8	15	0.04	1200	-72.13452	40.92371	-91.39362
618955	-836	-1135	-1792	-0.2154826	-2.85973	269.3784	0	11.46	4002	0	0	5	5	0.5237607	0.005548788	8	15	0.04	1200	-77.5621	40.92371	-91.39362
619005	-552	-462	-105	-0.3733254	-2.797088	269.6014	0	11.46	4004	0	0	5	5	0.5237607	0.004414379	8	15	0.04	1200	-77.5621	40.92371	-91.39362
619069	-708	-504	1007	-1.018141	-2.058788	269.202	0	11.46	4002	0	0	5	5	0.5237607	0.004593982	8	15	0.04	1200	-79.57401	40.92372	-91.39362
619295	1609	3824	-50	-0.7579035	-5.157371	267.2421	0	11.46	4002	0	0	5	5	0.5237607	0.0004396898	8	15	0.04	1200	-79.84311	40.92372	-91.39362
619434	192	-232	370	1.029161	-4.248576	267.3615	0	11.46	4003	0	0	5	5	0.5237607	-0.005044175	8	15	0.04	1200	-76.57047	40.92372	-91.39362
619495	-887	549	235	0.6392232	-4.143803	267.1366	0	11.46	4004	0	0	5	5	0.5237607	-0.01101048	8	15	0.04	1200	-75.27838	40.92372	-91.39362
619613	-1224	-209	857	-0.4045247	-5.567107	267.0007	0	11.46	4004	0	0	5	5	0.5237607	-0.01931421	8	15	0.04	1200	-72.87354	40.92372	-91.39362
619672	-387	-282	-250	-0.6731567	-5.39122	267.0568	0	11.46	4005	0	0	5	5	0.5237607	-0.0251224	8	15	0.04	1200	-72.87354	40.92371	-91.39362
619864	5	-965	-393	-1.947004	-4.813726	267.4626	0	11.4	4002	0	0	5	5	0.5237607	-0.03265296	8	15	0.04	1200	-72.92584	40.92372	-91.39362
619898	-675	-801	75	-2.190171	-4.529835	267.5745	0	11.4	4002	0	0	5	5	0.5237607	-0.03254356	8	15	0.04	1200	-77.02722	40.92372	-91.39362
620003	62	-710	215	-2.530937	-4.124122	267.2169	0	11.4	4004	0	0	5	5	0.5237607	-0.02440005	8	15	0.04	1200	-74.90891	40.92372	-91.39362
620104	206	-313	138	-2.34146	-3.274178	266.9613	0	11.4	4002	0	0	5	5	0.5237607	-0.01772176	8	15	0.04	1200	-74.96152	40.92372	-91.39362
620234	594	-1118	-439	-0.9219012	-4.154011	266.1606	0	11.4	4004	0	0	5	5	0.5237607	-0.007726045	8	15	0.04	1200	-75.04773	40.92372	-91.39362
620282	731	-1144	-1158	-0.3024764	-4.222047	266.1533	0	11.4	4004	0	0	5	5	0.5237607	0.00385686	8	15	0.04	1200	-76.00888	40.92372	-91.39362
620499	-689	289	-54	1.46221	-3.850194	266.1504	0	11.4	4002	0	0	5	5	0.5237607	0.01207894	8	15	0.04	1200	-81.24127	40.92372	-91.39362
620640	465	-740	501	3.128536	-3.342235	265.2192	0	10.38	4002	0	0	5	5	0.5237607	0.02019204	8	15	0.04	1200	-81.88263	40.92372	-91.39362
620768	810	-770	-130	3.927703	-2.427703	265.4294	0	10.38	4002	0	0	5	5	0.5237607	0.03521068	8	15	0.04	1200	-82.51294	40.92372	-91.39362
620830	-278	-1341	675	3.664998	-2.149542	264.7741	0	10.38	4004	0	0	5	5	0.5237607	0.04035578	8	15	0.04	1200	-82.51294	40.92373	-91.39362
620935	4055	4274	-150	6.355774	-1.012848	264.6291	0	10.38	4003	0	0	5	5	0.5237607	0.05131805	8	15	0.04	1200	-80.43939	40.92373	-91.39362
620975	2702	6975	-361	6.8873	-3.158548	265.0489	0	10.38	4003	0	0	5	5	0.5237607	0.05131805	8	15	0.04	1200	-81.47229	40.92373	-91.39362
621107	535	1487	-3211	-4.749256	-10.1896	271.4061	0	10.38	4004	0	0	5	5	0.5237607	0.0628451	8	15	0.04	1200	-73.73264	40.92372	-91.39362
621242	-1847	2682	1054	-5.204226	-12.31634	274.4088	0	10.38	4004	0	0	5	5	0.5237607	0.07015282	8	15	0.04	1200	-72.52368	40.92372	-91.39362
621364	-428	-1339	2178	-6.132885	-12.38707	269.8824	0	10.38	4003	0	0	5	5	0.5237607	0.08593386	8	15	0.04	1200	-69.10919	40.92372	-91.39362
621458	1216	-4791	232	-3.965356	-6.089887	267.3055	0	10.38	4003	0	0	5	5	0.5237607	0.09644708	8	15	0.04	1200	-67.50803	40.92372	-91.39362
621532	-185	-4042	-232	-3.252447	-1.514331	266.9255	0	11.11	4003	0	0	5	5	0.5237607	0.1011275	8	15	0.04	1200	-69.19836	40.92371	-91.39362
621618	299	-960	-1089	-2.876798	-1.452357	268.6725	0	11.11	4003	0	0	5	5	0.5237607	0.1056912	8	15	0.04	1200	-80.23615	40.92371	-91.39362
621726	-1056	-2300	-530	-3.643095	1.392645	269.1092	0	11.11	4002	0	0	5	5	0.5237607	0.1121377	8	15	0.04	1200	-79.47122	40.92372	-91.39362
621770	-2627	-2086	388	-4.707732	2.052684	268.888	0	11.11	4004	0	0	5	5	0.5237607	0.113576	8	15	0.04	1200	-85.53461	40.92372	-91.39362
621836	539	1946	77	-7.782285	1.446566	268.2555	0	11.11	4003	0	0	5	5	0.5237607	0.1129445	8	15	0.04	1200	-87.6926	40.92372	-91.39362
621956	11661	9217	-1333	-3.177432	-5.519834	266.9595	0	11.11	4004	0	0	5	5	0.5237607	0.108558	8	15	0.04	1200	-87.99863	40.92372	-91.39362
622137	1113	1557	-468	-5.302972	2.695305	267.4789	0	11.11	4004	0	0	5	5	0.5237607	0.1169201	8	15	0.04	1200	-82.93311	40.92372	-91.39362
622173	1113	1557	-468	-5.302972	2.695305	267.4789	0	11.11	4004	0	0	5	5	0.5237607	0.1177056	8	15	0.04	1200	-82.93311	40.92372	-91.39362
622291	98	1100	-1301	-2.471637	-6.140989	267.4964	0	11.11	4003	0	0	5	5	0.5237607	0.1145399	8	15	0.04	1200	-89.37433	40.92373	-91.39362
622436	1103	3068	-69	-2.897824	-8.766236	268.8393	0	10.72	4004	0	0	5	5	0.5237607	0.1019465	8	15	0.04	1200	-89.54883	40.92373	-91.39362
622487	1696	5678	231	0.536704	-16.8967	269.4305	0	10.72	4002	0	0	5	5	0.5237607	0.1012211	8	15	0.04	1200	-92.11081	40.92373	-91.39362
622528	310	2651	-256	0.7166333	-18.73603	269.5466	0	10.72	4004	0	0	5	5	0.5237607	0.1011358	8	15	0.04	1200	-92.11081	40.92373	-91.39362
622706	-1645	-5733	-121	-0.1685563	-11.41022	269.0627	0	10.72	4003	0	0	5	5	0.5237607	0.0936633	8	15	0.04	1200	-79.24927	40.92373	-91.39362
622907	89	-558	1196	0.1974985	-4.105904	268.737	0	10.72	4003	0	0	5	5	0.5237607	0.09848069	8	15	0.04	1200	-82.19235	40.92373	-91.39362
623065	-661	-3176	-550	-1.570185	-4.889901	268.6692	0	10.72	4002	0	0	5	5	0.5237607	0.09500233	8	15	0.04	1200	-88.22052	40.92373	-91.39362
623193	-228	-623	1905	-1.784227	-0.443264	267.9825	0	10.72	4003	0	0	5	5	0.5237607	0.08698232	8	15	0.04	1200	-90.70816	40.92373	-91.39362
623308	-1209	-5968	-390	-2.680006	0.2197656	265.9251	0	11.11	4003	0	0	5	5	0.5237607	0.08371856	8	15	0.04	1200	-93.12073	40.92373	-91.39362
623361	714	-5696	-1265	-1.941521	4.912265	266.7015	0	11.11	4003	0	0	5	5	0.5237607	0.07620049	8	15	0.04	1200	-91.0896	40.92373	-91.39362
623453	-282	4871	-770	0.994403	-0.9379196	268.6654	0	11.11	4003	0	0	5	5	0.5237607	0.06277745	8	15	0.04	1200	-94.69238	40.92373	-91.39362
623586	-799	742	73	-1.168067	-5.512197	268.9982	0	11.11	4004	0	0	5	5	0.5237607	0.03484653	8	15	0.04	1200	-91.19589	40.92373	-91.39362
623655	1315	1889	808	-0.7937249	-6.589589	268.5582	0	11.11	4002	0	0	5	5	0.5237607	0.0189041	8	15	0.04	1200	-93.52896	40.92373	-91.39362
623733	1538	2925	-367	0.4932646	-9.118337	268.2122	0	11.11	4003	0	0	5	5	0.5237607	0.00665729	8	15	0.04	1200	-92.319	40.92373	-91.39362
623876	-365	331	-217	0.7429211	-10.31232	267.7282	0	11.11	4002	0	0	5	5	0.5237607	-0.002750093	8	15	0.04	1200	-84.36633	40.92373	-91.39362
623948	-441	1126	315	0.4842225	-10.53521	267.6299	0	11.11	4003	0	0	5	5	0.5237607	-0.005887706	8	15	0.04	1200	-84.24591	40.92373	-91.39362
624128	-735	-5175	5565	0.4087698	-8.588351	266.1104	0	11.11	4003	0	0	5	5	0.5237607	-0.01380659	8	15	0.04	1200	-80.12216	40.92373	-91.39362
624282	-2835	2605	-2160	-0.9344472	-3.973561	265.0669	0	11.34	4004	0	0	5	5	0.5237607	-0.03759049	8	15	0.04	1200	-74.86182	40.92373	-91.39362
624388	-566	3087	-4323	-6.133996	-8.699969	269.5637	0	11.34	4004	0	0	5	5	0.5237607	-0.03566017	8	15	0.04	1200	-78.54807	40.92373	-91.39363
624455	-2316	-235	943	-8.104506	-9.989367	272.2158	0	11.34	4002	0	0	5	5	0.5237607	-0.02663071	8	15	0.04	1200	-76.77271	40.92373	-91.39363
624507	-1644	-517	767	-8.519496	-9.834897	271.841	0	11.34	4003	0	0	5	5	0.5237607	-0.02276114	8	15	0.04	1200	-76.77271	40.92373	-91.39363
624704	887	-1269	981	-2.411026	-6.804512	267.369	0	11.34	4003	0	0	5	5	0.5237607	-0.02889508	8	15	0.04	1200	-72.69809	40.92373	-91.39363
624795	206	-587	-782	-1.459493	-4.037025	267.9557	0	11.34	4002	0	0	5	5	0.5237607	-0.03121833	8	15	0.04	1200	-79.9686	40.92373	-91.39363
624845	-536	-448	620	-1.552812	-3.765371	268.393	0	11.34	4004	0	0	5	5	0.5237607	-0.03291198	8	15	0.04	1200	-79.9686	40.92373	-91.39363
