time(ms)	gyro_x(deg/s)	gyro_y(deg/s)	gyro_z(deg/s)	orientation_roll(deg)	orientation_pitch(deg)	orientation_yaw(deg)	throttle	battery(V)	loop_time(uS)	pid_output_roll	pid_output_pitch	pid_output_yaw	pid_output_throttle	ultrasonic_alt	baro_alt	flight_mode	p_gain_altitude	i_gain_altitude	d_gain_altitude	compass_heading	latitude	longitude
235038	1319	1885	-2518	-2.692432	-4.114656	1.92874	0	10.77	4004	0	0	5	5	0.6873717	0.3063101	3	15	0.04	1800	6.485238	40.92362	-91.39356
235182	-248	3204	-233	-1.193296	-13.52828	3.08178	0	10.77	4002	0	0	5	5	0.6873717	0.2945519	3	15	0.04	1800	5.727864	40.92362	-91.39356
235244	-124	-624	617	-1.719235	-13.5446	3.345757	0	10.77	4002	0	0	5	5	0.6873717	0.276714	3	15	0.04	1800	9.026725	40.92362	-91.39356
235339	-890	-1962	1317	-2.253965	-11.65997	2.337093	0	10.77	4004	0	0	5	5	0.6873717	0.2592772	3	15	0.04	1800	8.196	40.92362	-91.39356
235538	-2854	-4432	99	-6.385856	-5.484226	0.1479284	0	10.77	4002	0	0	5	5	0.6873717	0.2166191	3	15	0.04	1800	9.194987	40.92362	-91.39357
235558	-3164	-4788	269	-7.748812	-3.209501	0.03544113	0	10.77	4003	0	0	5	5	0.6873717	0.2166191	3	15	0.04	1800	9.252864	40.92362	-91.39357
235712	-2862	1025	810	-12.20544	-1.729303	0.5084369	0	10.77	4004	0	0	5	5	0.6873717	0.2024954	3	15	0.04	1800	9.901761	40.92362	-91.39357
235801	-1889	-2281	34	-13.83022	-1.94032	0.8453386	0	10.77	4004	0	0	5	5	0.6873717	0.2008435	3	15	0.04	1800	6.835461	40.92362	-91.39357
235985	222	1783	-160	-13.91233	-6.554018	0.5173913	0	10.21	4004	0	0	5	5	0.6873717	0.2020721	3	15	0.04	1800	2.824826	40.92362	-91.39358
236143	2399	4538	1774	-6.979208	-8.604076	0.6631119	0	10.21	4004	0	0	5	5	0.6873717	0.2220301	3	15	0.04	1800	0.7036006	40.92361	-91.39358
236223	4655	3470	1034	-1.907779	-12.24791	-0.05704654	0	10.21	4003	0	0	5	5	0.6873717	0.2287433	3	15	0.04	1800	-2.038696	40.92361	-91.39358
236329	-617	522	-214	1.131207	-9.750903	0.2754948	0	10.21	4002	0	0	5	5	0.6873717	0.2322759	3	15	0.04	1800	3.620887	40.92361	-91.39358
236440	3449	1580	-1605	1.162898	-11.30909	1.266566	0	10.21	4003	0	0	5	5	0.6873717	0.2332674	3	15	0.04	1800	4.041652	40.92361	-91.39358
236461	3449	1580	-1605	1.162898	-11.30909	1.266566	0	10.21	4003	0	0	5	5	0.6873717	0.2319115	3	15	0.04	1800	4.041652	40.92361	-91.39358
236607	1879	-378	192	4.667053	-8.051764	0.9929174	0	10.21	4004	0	0	5	5	0.6873717	0.2145349	3	15	0.04	1800	9.291808	40.92361	-91.39358
236670	1690	-159	864	5.809021	-7.008829	-0.001497902	0	10.21	4002	0	0	5	5	0.6873717	0.2106816	3	15	0.04	1800	10.77303	40.92361	-91.39358
236763	-371	-217	77	6.127424	-7.103653	-0.3581409	0	11.51	4003	0	0	5	5	0.6873717	0.200665	3	15	0.04	1800	13.86897	40.92361	-91.39358
236868	-3024	-3636	4929	-2.19957	-1.800599	-2.357963	0	11.51	4002	0	0	5	5	0.6873717	0.1844096	3	15	0.04	1800	14.43	40.92361	-91.39358
236959	363	-1000	-101	-1.408837	0.6913965	-4.666621	0	11.51	4004	0	0	5	5	0.6873717	0.1267071	3	15	0.04	1800	15.18511	40.92361	-91.39358
237075	-1233	1469	-6	-2.486097	-1.954136	-4.547847	0	11.51	4004	0	0	5	5	0.6873717	0.05989374	3	15	0.04	1800	16.31971	40.92361	-91.39359
237167	-419	-249	-338	-3.150152	-2.528276	-4.377285	0	11.51	4003	0	0	5	5	0.6873717	0.02288344	3	15	0.04	1800	13.53848	40.92361	-91.39359
237272	-298	-11	71	-2.850086	-1.967439	-4.457985	0	11.51	4004	0	0	5	5	0.6873717	-0.01207619	3	15	0.04	1800	12.8471	40.92361	-91.39359
237377	-280	39	-22	-2.791075	-1.834844	-4.466843	0	11.51	4003	0	0	5	5	0.6873717	-0.07305854	3	15	0.04	1800	12.9992	40.92361	-91.39359
237482	-269	12	-145	-2.704405	-1.560208	-4.504929	0	11.51	4003	0	0	5	5	0.6873717	-0.09847333	3	15	0.04	1800	12.51917	40.92361	-91.39359
237602	-183	0	5	-2.611441	-1.427589	-4.532751	0	11.51	4003	0	0	5	5	0.6873717	-0.1269683	3	15	0.04	1800	11.27212	40.92361	-91.39359
237693	-186	14	72	-2.547891	-1.350582	-4.547364	0	11.8	4004	0	0	5	5	0.6873717	-0.1431308	3	15	0.04	1800	11.27212	40.92361	-91.39359
237801	-220	3	1	-2.453484	-1.206536	-4.584785	0	11.8	4004	0	0	5	5	0.6873717	-0.160756	1	15	0.04	1800	10.49735	40.92361	-91.39359
237897	-179	29	-43	-2.370757	-1.118685	-4.602144	0	11.8	4003	0	0	5	5	0.6873717	-0.1751068	1	15	0.04	1800	10.18209	40.92361	-91.39359
238001	-159	0	-14	-2.26825	-1.057153	-4.623116	0	11.8	4004	0	0	5	5	0.6873717	-0.1928739	1	15	0.04	1800	9.873997	40.92361	-91.39359
238106	-178	-2	53	-2.165973	-0.9734554	-4.646348	0	11.8	4003	0	0	5	5	0.6873717	-0.2043029	1	15	0.04	1800	9.83685	40.92361	-91.39359
238207	-163	38	29	-2.124582	-0.9283392	-4.657414	0	11.8	4003	0	0	5	5	0.6873717	-0.2126095	1	15	0.04	1800	10.23413	40.92361	-91.39359
238338	-177	-13	13	-2.019967	-0.8414568	-4.702349	0	11.8	4002	0	0	5	5	0.6873717	-0.2220255	1	15	0.04	1800	10.48622	40.92361	-91.39359
238411	-172	13	19	-1.988514	-0.8142385	-4.717999	0	11.8	4003	0	0	5	5	0.6873717	-0.2254872	1	15	0.04	1800	9.573711	40.92361	-91.39359
238505	-160	5	25	-1.933804	-0.7775474	-4.73958	0	11.8	4004	0	0	5	5	0.6873717	-0.2280361	1	15	0.04	1800	9.019943	40.92361	-91.39359
238609	-173	18	5	-1.901007	-0.7462703	-4.763361	0	11.8	4003	0	0	5	5	0.6873717	-0.229194	1	15	0.04	1800	9.025731	40.92361	-91.39359
238713	-161	7	12	-1.856294	-0.7281133	-4.787143	0	11.8	4004	0	0	5	5	0.6873717	-0.2329159	1	15	0.04	1800	8.492822	40.92361	-91.39359
238822	-162	18	10	-1.82356	-0.7165681	-4.808418	0	11.8	4002	0	0	5	5	0.6873717	-0.2433425	1	15	0.04	1800	8.433328	40.92361	-91.39359
238921	-154	13	8	-1.79914	-0.7074292	-4.830061	0	11.8	4003	0	0	5	5	0.6873717	-0.2439059	1	15	0.04	1800	8.404817	40.92361	-91.39359
239047	-165	11	12	-1.771332	-0.6971334	-4.857999	0	11.8	4002	0	0	5	5	0.6873717	-0.2369621	1	15	0.04	1800	8.420402	40.92361	-91.39359
239121	-159	21	8	-1.757503	-0.697019	-4.87255	0	11.8	4002	0	0	5	5	0.6873717	-0.2349159	1	15	0.04	1800	8.333523	40.92361	-91.39359
239250	-318	151	-25	-1.716657	-0.6579567	-4.884405	0	11.8	4003	0	0	5	5	0.6873717	-0.2211598	1	15	0.04	1800	8.271219	40.92361	-91.39359
239323	-368	1003	512	-1.788113	-1.41296	-5.174148	0	11.8	4004	0	0	5	5	0.6873717	-0.2138893	1	15	0.04	1800	8.15227	40.92361	-91.39359
239425	-162	1296	-278	-1.402079	-3.791045	-6.252185	0	11.8	4003	0	0	5	5	0.6873717	-0.20613	1	15	0.04	1800	8.616477	40.92361	-91.39359
239526	-2343	-2633	-439	-3.427703	-5.281916	-5.441126	0	11.8	4004	0	0	5	5	0.6873717	-0.1916839	1	15	0.04	1800	8.476915	40.92361	-91.39359
239630	-1589	-6309	-97	-6.803171	0.232466	-5.215797	0	11.8	4003	0	0	5	5	0.6873717	-0.1782621	1	15	0.04	1800	8.770858	40.92361	-91.39359
239840	-1410	1685	-3039	-9.926382	6.952396	3.240834	0	11.8	4004	0	0	5	5	0.6873717	-0.1612058	1	15	0.04	1800	6.287009	40.92361	-91.39359
239926	-1904	2124	-1638	-10.97096	5.894243	5.925084	0	11.8	4002	0	0	5	5	0.6873717	-0.1469203	1	15	0.04	1800	4.051342	40.92361	-91.39359
240019	-2449	1781	425	-13.21793	4.581503	6.650012	0	11.8	4003	0	0	5	5	0.6873717	-0.1290262	1	15	0.04	1800	-1.225372	40.92361	-91.39359
240087	-2603	1421	225	-15.99627	3.126259	5.710447	0	11.8	4003	0	0	5	5	0.6873717	-0.09807317	1	15	0.04	1800	-2.373779	40.92361	-91.39359
240208	-86	-615	-1669	-16.31476	5.88054	7.789965	0	11.8	4002	0	0	5	5	0.6873717	-0.06231642	1	15	0.04	1800	-7.586243	40.92361	-91.39359
240241	-18	-845	-1701	-15.51838	6.585764	8.673878	0	11.8	4003	0	0	5	5	0.6873717	-0.04585113	1	15	0.04	1800	-7.586243	40.92361	-91.39359
240299	-930	-635	-1953	-15.02475	7.476469	9.658677	0	11.8	4004	0	0	5	5	0.6873717	-0.01509202	1	15	0.04	1800	-10.26413	40.92361	-91.39359
240453	4397	-861	-2197	-6.042521	10.31829	16.68632	0	11.85	4004	0	0	5	5	0.6873717	0.04053036	1	15	0.04	1800	-15.37479	40.92361	-91.39359
240596	2515	-509	11	1.026184	9.784569	19.36815	0	11.85	4004	0	0	5	5	0.6873717	0.0863478	1	15	0.04	1800	-18.43982	40.92361	-91.39359
240669	2540	1171	2355	4.336717	7.445833	17.19307	0	11.85	4004	0	0	5	5	0.6873717	0.1184954	1	15	0.04	1800	-15.63684	40.92361	-91.39359
240726	1812	386	2844	5.383235	5.651368	14.32301	0	11.85	4004	0	0	5	5	0.6873717	0.132218	1	15	0.04	1800	-11.68832	40.92361	-91.39359
240783	2085	-530	3135	5.788025	5.190797	12.6505	0	11.85	4002	0	0	5	5	0.6873717	0.1486695	1	15	0.04	1800	-11.68832	40.92361	-91.39359
240915	30	-58	2006	5.127326	2.367865	5.616497	0	11.85	4003	0	0	5	5	0.6873717	0.1631156	1	15	0.04	1800	-2.637909	40.92361	-91.39359
241038	-803	1095	999	2.586286	-1.742012	1.492726	0	11.85	4003	0	0	5	5	0.6873717	0.1754835	1	15	0.04	1800	4.087842	40.92361	-91.3936
241079	-2033	-40	245	1.371517	-2.213821	1.193497	0	11.85	4003	0	0	5	5	0.6873717	0.1863631	1	15	0.04	1800	7.675337	40.92361	-91.3936
241200	-2288	1671	607	-4.461693	-3.642084	0.9823042	0	11.85	4004	0	0	5	5	0.6873717	0.189455	1	15	0.04	1800	8.217907	40.92361	-91.39361
241343	-1252	-8	580	-6.906449	-5.275787	-0.2472394	0	11.85	4003	0	0	5	5	0.6873717	0.1906515	1	15	0.04	1800	8.22305	40.92361	-91.39362
241527	-587	2303	-147	-4.722062	-6.316913	3.059568	0	11.85	4002	0	0	5	5	0.6873717	0.176153	1	15	0.04	1800	4.606212	40.9236	-91.39362
241655	983	-1128	-379	-6.515776	-7.506749	2.102044	0	11.85	4003	0	0	5	5	0.6873717	0.1641313	1	15	0.04	1800	4.768106	40.9236	-91.39362
241691	1246	-1683	-704	-5.718282	-6.670187	2.406018	0	11.85	4003	0	0	5	5	0.6873717	0.1629526	1	15	0.04	1800	4.768106	40.9236	-91.39362
241772	345	1376	-981	-4.156892	-5.034903	4.170223	0	11.85	4002	0	0	5	5	0.6873717	0.157985	1	15	0.04	1800	3.675301	40.92359	-91.39362
241990	534	-1216	1150	-4.572126	-1.517193	0.4084665	0	11.85	4004	0	0	5	5	0.6873717	0.1399491	1	15	0.04	1800	5.007069	40.92358	-91.39362
242215	-1109	977	-20	-3.783342	-1.205599	0.2993306	0	11.85	4003	0	0	5	5	0.6873717	0.1175586	1	15	0.04	1800	6.43528	40.92357	-91.39361
242419	-404	-147	-824	-3.754909	-1.898542	-2.131324	0	11.85	4003	0	0	5	5	0.6873717	0.101488	1	15	0.04	1800	5.686107	40.92357	-91.39361
242544	-82	-37	47	-3.904016	-1.669846	-2.558118	0	11.85	4002	0	0	5	5	0.6873717	0.08786591	1	15	0.04	1800	6.251058	40.92357	-91.39361
242639	-174	31	-627	-3.927013	-1.468361	-2.308294	0	11.85	4004	0	0	5	5	0.6873717	0.08000693	1	15	0.04	1800	6.883153	40.92357	-91.3936
242690	652	-300	-1310	-3.917196	-1.389535	-1.748577	0	11.85	4003	0	0	5	5	0.6873717	0.07060935	1	15	0.04	1800	6.883153	40.92357	-91.3936
242876	-609	529	3173	0.5667909	-1.500928	-0.3202428	0	11.85	4002	0	0	5	5	0.6873717	0.05752151	1	15	0.04	1800	3.870994	40.92356	-91.39359
242979	-5869	-25	1393	-3.41259	-1.270872	-3.944619	0	11.85	4002	0	0	5	5	0.6873717	0.04935122	1	15	0.04	1800	5.438365	40.92356	-91.39359
243064	3434	-1	-5084	-5.423152	-2.179847	-2.890909	0	11.85	4004	0	0	5	5	0.6873717	0.0366452	1	15	0.04	1800	5.143152	40.92356	-91.39359
243158	151	-2124	1738	-4.085681	-2.532274	0.6996869	0	11.85	4004	0	0	5	5	0.6873717	0.01944	1	15	0.04	1800	3.552791	40.92356	-91.39359
243216	-439	503	-83	-3.960834	-2.046197	0.1376689	0	11.85	4002	0	0	5	5	0.6873717	0.007687992	1	15	0.04	1800	3.552791	40.92356	-91.39359
243287	71	-185	39	-4.020335	-2.140654	-0.4770431	0	11.85	4003	0	0	5	5	0.6873717	-0.0008810075	1	15	0.04	1800	3.901167	40.92357	-91.39359
243390	-333	249	-74	-3.615259	-1.680189	-0.3428118	0	11.85	4002	0	0	5	5	0.6873717	-0.005991059	1	15	0.04	1800	3.853792	40.92357	-91.39359
243535	79	-294	-44	-3.521441	-1.642743	-0.3222102	0	11.85	4004	0	0	5	5	0.6873717	-0.01863713	1	15	0.04	1800	4.147089	40.92357	-91.39359
243620	-164	-4	39	-3.356798	-1.350093	-0.3159109	0	11.85	4003	0	0	5	5	0.6873717	-0.01959824	1	15	0.04	1800	4.108064	40.92357	-91.39359
243707	-129	-17	9	-3.355157	-1.274084	-0.3272827	0	11.85	4002	0	0	5	5	0.6873717	-0.01248883	1	15	0.04	1800	4.106793	40.92358	-91.3936
243828	-146	1	6	-3.338683	-1.225655	-0.3514313	0	11.85	4003	0	0	5	5	0.6873717	-0.0007316325	1	15	0.04	1800	3.834605	40.92358	-91.3936
243869	-159	24	18	-3.3392	-1.200113	-0.3553444	0	11.85	4004	0	0	5	5	0.6873717	0.01576002	1	15	0.04	1800	3.834605	40.92358	-91.39361
243932	-140	-1	5	-3.336434	-1.177901	-0.368427	0	11.85	4003	0	0	5	5	0.6873717	0.02179508	1	15	0.04	1800	4.316953	40.92358	-91.39361
244070	-148	2	6	-3.34148	-1.142778	-0.3930027	0	11.85	4004	0	0	5	5	0.6873717	0.02324421	1	15	0.04	1800	3.846509	40.92358	-91.39362
244143	-150	4	15	-3.332404	-1.121168	-0.4109756	0	11.85	4003	0	0	5	5	0.6873717	0.01849874	1	15	0.04	1800	3.823558	40.92358	-91.39362
244268	-147	4	9	-3.337311	-1.099152	-0.430478	0	11.85	4003	0	0	5	5	0.6873717	0.008739339	1	15	0.04	1800	3.81997	40.92358	-91.39362
244409	-147	7	16	-3.340014	-1.071962	-0.4646526	0	11.85	4003	0	0	5	5	0.6873717	-0.02364764	1	15	0.04	1800	4.062851	40.92358	-91.39362
244437	-147	7	16	-3.340014	-1.071962	-0.4646526	0	11.85	4003	0	0	5	5	0.6873717	-0.02705527	1	15	0.04	1800	4.062851	40.92358	-91.39362
244526	-154	7	11	-3.335861	-1.053471	-0.4839093	0	11.85	4002	0	0	5	5	0.6873717	-0.0347867	1	15	0.04	1800	3.818999	40.92358	-91.39362
244630	-146	4	13	-3.330775	-1.038297	-0.5032286	0	11.85	4003	0	0	5	5	0.6873717	-0.04576136	1	15	0.04	1800	4.26921	40.92358	-91.39361
244797	-143	8	8	-3.328703	-1.029044	-0.5341627	0	11.85	4003	0	0	5	5	0.6873717	-0.0530304	1	15	0.04	1800	4.05687	40.92359	-91.3936
244846	-153	6	14	-3.327117	-1.024279	-0.5479192	0	11.85	4003	0	0	5	5	0.6873717	-0.05298743	1	15	0.04	1800	4.053514	40.92359	-91.3936
245041	-148	5	11	-3.31839	-1.00907	-0.5867409	0	11.91	4003	0	0	5	5	0.6873717	-0.05594653	1	15	0.04	1800	3.785933	40.92359	-91.3936
245228	-154	7	13	-3.325076	-0.9970229	-0.6111954	0	11.91	4003	0	0	5	5	0.6873717	-0.06338226	1	15	0.04	1800	4.251231	40.9236	-91.39359
245310	-147	3	6	-3.321288	-0.9905992	-0.6366278	0	11.91	4003	0	0	5	5	0.6873717	-0.06108284	1	15	0.04	1800	4.274496	40.9236	-91.39359
245365	-146	13	14	-3.326513	-0.9908063	-0.6428029	0	11.91	4004	0	0	5	5	0.6873717	-0.06149738	1	15	0.04	1800	3.804373	40.9236	-91.39359
245498	-150	5	14	-3.326903	-0.9876233	-0.6696422	0	11.91	4002	0	0	5	5	0.6873717	-0.06888583	1	15	0.04	1800	4.263772	40.9236	-91.39359
245589	-150	4	11	-3.32648	-0.9808552	-0.6966041	0	11.91	4003	0	0	5	5	0.6873717	-0.07389259	1	15	0.04	1800	4.045569	40.9236	-91.39359
245670	-150	10	17	-3.326056	-0.9824983	-0.7107872	0	11.91	4004	0	0	5	5	0.6873717	-0.09146048	1	15	0.04	1800	4.019765	40.9236	-91.39359
245776	-158	6	14	-3.322959	-0.9765411	-0.7377486	0	11.91	4002	0	0	5	5	0.6873717	-0.09959622	1	15	0.04	1800	4.015244	40.9236	-91.39359
245817	-143	11	9	-3.322566	-0.9772732	-0.7439224	0	11.91	4002	0	0	5	5	0.6873717	-0.09989661	1	15	0.04	1800	3.791259	40.9236	-91.39358
245948	-152	8	10	-3.321734	-0.9711724	-0.7757121	0	11.91	4004	0	0	5	5	0.6873717	-0.0992562	1	15	0.04	1800	4.037854	40.9236	-91.39358
246026	-151	12	10	-3.322178	-0.9712808	-0.7881851	0	11.91	4002	0	0	5	5	0.6873717	-0.08564579	1	15	0.04	1800	3.817932	40.9236	-91.39358
246142	-144	10	13	-3.320354	-0.9682739	-0.808238	0	11.91	4003	0	0	5	5	0.6873717	-0.08209702	1	15	0.04	1800	3.78829	40.9236	-91.39357
246244	-155	12	18	-3.321238	-0.970675	-0.836115	0	11.91	4002	0	0	5	5	0.6873717	-0.07820578	1	15	0.04	1800	4.251693	40.9236	-91.39356
246397	-150	6	9	-3.321712	-0.9710716	-0.861304	0	11.91	4002	0	0	5	5	0.6873717	-0.07975157	1	15	0.04	1800	4.026087	40.9236	-91.39356
246535	-153	5	13	-3.319947	-0.9728311	-0.8960893	0	11.91	4004	0	0	5	5	0.6873717	-0.08082966	1	15	0.04	1800	4.018927	40.92359	-91.39356
246584	-150	8	9	-3.323433	-0.9747916	-0.902814	0	11.91	4002	0	0	5	5	0.6873717	-0.08555887	1	15	0.04	1800	4.018927	40.92359	-91.39356
246748	-148	5	14	-3.328055	-0.9714625	-0.9416981	0	11.91	4003	0	0	5	5	0.6873717	-0.08923894	1	15	0.04	1800	4.046939	40.9236	-91.39356
246838	-151	9	18	-3.328275	-0.9689667	-0.9556984	0	11.91	4002	0	0	5	5	0.6873717	-0.1018824	1	15	0.04	1800	3.839708	40.9236	-91.39357
246895	-145	7	9	-3.331719	-0.9695379	-0.9684142	0	11.91	4004	0	0	5	5	0.6873717	-0.1056641	1	15	0.04	1800	4.2447	40.9236	-91.39357
246978	-148	6	8	-3.326351	-0.9671714	-0.9792968	0	11.91	4003	0	0	5	5	0.6873717	-0.1097586	1	15	0.04	1800	4.067832	40.9236	-91.39357
247034	-150	3	14	-3.323673	-0.9648274	-0.9959269	0	11.91	4004	0	0	5	5	0.6873717	-0.1195392	1	15	0.04	1800	4.029455	40.9236	-91.39357
247164	-146	12	12	-3.327235	-0.969273	-1.014942	0	11.91	4002	0	0	5	5	0.6873717	-0.1204926	1	15	0.04	1800	4.275683	40.9236	-91.39356
247297	-146	10	16	-3.319905	-0.9715573	-1.047101	0	11.91	4004	0	0	5	5	0.6873717	-0.1208337	1	15	0.04	1800	3.803443	40.92359	-91.39356
247355	-150	6	11	-3.320254	-0.97629	-1.05945	0	11.91	4002	0	0	5	5	0.6873717	-0.1204221	1	15	0.04	1800	4.277564	40.92359	-91.39356
247430	-150	8	18	-3.315904	-0.9760707	-1.079685	0	11.91	4003	0	0	5	5	0.6873717	-0.1173322	1	15	0.04	1800	4.033526	40.92359	-91.39356
247610	-150	13	10	-3.305097	-0.9758143	-1.111781	0	11.91	4003	0	0	5	5	0.6873717	-0.1147311	1	15	0.04	1800	4.242358	40.92359	-91.39356
247768	-143	2	9	-3.300212	-0.9680112	-1.144429	0	11.91	4002	0	0	5	5	0.6873717	-0.1215508	1	15	0.04	1800	4.00744	40.92358	-91.39356
247803	-149	10	5	-3.299923	-0.9685643	-1.14932	0	11.91	4004	0	0	5	5	0.6873717	-0.1275659	1	15	0.04	1800	4.00744	40.92358	-91.39356
247948	-144	6	13	-3.289308	-0.9721723	-1.174449	0	11.91	4004	0	0	5	5	0.6873717	-0.1399838	1	15	0.04	1800	4.213455	40.92358	-91.39356
247994	-140	5	8	-3.286072	-0.9692631	-1.185942	0	11.91	4003	0	0	5	5	0.6873717	-0.1411168	1	15	0.04	1800	4.183438	40.92358	-91.39356
248099	-150	3	8	-3.285728	-0.9608372	-1.203489	0	11.91	4003	0	0	5	5	0.6873717	-0.1452926	1	15	0.04	1800	4.211796	40.92358	-91.39356
248209	-150	5	10	-3.281689	-0.9583771	-1.218834	0	11.91	4003	0	0	5	5	0.6873717	-0.1532709	1	15	0.04	1800	4.203278	40.92358	-91.39356
248346	-141	5	11	-3.267447	-0.9623615	-1.246163	0	11.91	4004	0	0	5	5	0.6873717	-0.1663614	1	15	0.04	1800	3.949454	40.92359	-54.62106
248538	-140	5	9	-3.258901	-0.9687952	-1.279974	0	11.91	4004	0	0	5	5	0.6873717	-0.17646	1	15	0.04	1800	3.92896	40.92359	-36.23481
248643	-140	7	8	-3.254712	-0.966108	-1.296725	0	11.91	4004	0	0	5	5	0.6873717	-0.1729651	1	15	0.04	1800	3.906292	40.92359	-36.23481
248672	-149	8	6	-3.25631	-0.9638538	-1.302716	0	11.91	4003	0	0	5	5	0.6873717	-0.1731529	1	15	0.04	1800	3.906292	40.92359	-36.23481
248864	-145	14	13	-3.250114	-0.9628711	-1.334015	0	11.91	4002	0	0	5	5	0.6873717	-0.1688344	1	15	0.04	1800	3.933143	40.92359	-36.23481
248948	-146	15	8	-3.24634	-0.9684253	-1.346427	0	11.91	4004	0	0	5	5	0.6873717	-0.1557453	1	15	0.04	1800	3.923967	40.92359	-54.62106
249016	-144	6	17	-3.240053	-0.9707114	-1.358042	0	11.91	4003	0	0	5	5	0.6873717	-0.1517221	1	15	0.04	1800	3.916704	40.92359	-73.00731
249130	-145	10	9	-3.247697	-0.9658696	-1.378889	0	11.91	4002	0	0	5	5	0.6873717	-0.1470254	1	15	0.04	1800	3.921644	40.92359	-91.39356
249177	-143	9	11	-3.250773	-0.9643479	-1.384697	0	11.91	4004	0	0	5	5	0.6873717	-0.1453653	1	15	0.04	1800	3.921644	40.92359	-91.39356
249268	-139	0	10	-3.250295	-0.9602045	-1.400898	0	11.91	4004	0	0	5	5	0.6873717	-0.1405717	1	15	0.04	1800	4.142002	40.92359	-91.39356
249404	-146	3	5	-3.243577	-0.9606397	-1.421255	0	11.91	4002	0	0	5	5	0.6873717	-0.1391648	1	15	0.04	1800	3.674445	40.92359	-91.39357
249440	-146	4	8	-3.244211	-0.9622047	-1.432505	0	11.91	4004	0	0	5	5	0.6873717	-0.1399336	1	15	0.04	1800	3.903206	40.92359	-91.39357
249626	-140	4	7	-3.247166	-0.968585	-1.457327	0	11.91	4003	0	0	5	5	0.6873717	-0.1303188	1	15	0.04	1800	3.922675	40.92359	-54.83614
249719	-146	2	11	-3.237216	-0.9705862	-1.479335	0	11.91	4002	0	0	5	5	0.6873717	-0.1233471	1	15	0.04	1800	3.895483	40.92359	-36.55743
249800	-137	9	8	-3.235017	-0.9672928	-1.488749	0	11.91	4003	0	0	5	5	0.6873717	-0.1090964	1	15	0.04	1800	3.892814	40.92359	-36.55743
249893	-142	5	13	-3.235575	-0.9693541	-1.503911	0	11.91	4004	0	0	5	5	0.6873717	-0.09381736	1	15	0.04	1800	3.917117	40.92359	-36.55743
249967	-140	7	8	-3.234786	-0.9636552	-1.518462	0	11.91	4003	0	0	5	5	0.6873717	-0.08919471	1	15	0.04	1800	3.90569	40.92359	-36.55743
250038	-143	7	11	-3.236223	-0.9642107	-1.529894	0	11.91	4003	0	0	5	5	0.6873717	-0.08763573	1	15	0.04	1800	3.919043	40.92359	-36.55743
250099	-145	3	12	-3.2277	-0.9601594	-1.546707	0	11.91	4002	0	0	5	5	0.6873717	-0.08461586	1	15	0.04	1800	3.684649	40.92359	-54.83615
250172	-145	10	9	-3.22785	-0.9596195	-1.563336	0	11.91	4003	0	0	5	5	0.6873717	-0.08133356	1	15	0.04	1800	3.892612	40.92359	-73.11486
250299	-147	9	6	-3.223862	-0.9638397	-1.57923	0	11.91	4003	0	0	5	5	0.6873717	-0.07382625	1	15	0.04	1800	3.887795	40.92359	-91.39358
250356	-147	7	1	-3.218655	-0.9657139	-1.593291	0	11.91	4003	0	0	5	5	0.6873717	-0.07338747	1	15	0.04	1800	3.674866	40.92359	-91.39358
250565	-140	4	7	-3.217601	-0.969857	-1.618785	0	11.91	4002	0	0	5	5	0.6873717	-0.07843542	1	15	0.04	1800	3.879436	40.92359	-91.39358
250762	-146	7	9	-3.22303	-0.9755318	-1.647396	0	11.91	4003	0	0	5	5	0.6873717	-0.0894249	1	15	0.04	1800	4.090023	40.92359	-91.39359
250839	-139	7	12	-3.220638	-0.9727072	-1.662496	0	11.91	4002	0	0	5	5	0.6873717	-0.1027812	1	15	0.04	1800	3.905294	40.92359	-91.39359
250895	-142	10	9	-3.218063	-0.9745367	-1.674417	0	11.91	4002	0	0	5	5	0.6873717	-0.1132574	1	15	0.04	1800	3.85415	40.92359	-91.39359
250947	-137	2	9	-3.219786	-0.9746101	-1.683037	0	11.91	4003	0	0	5	5	0.6873717	-0.1168189	1	15	0.04	1800	3.645708	40.92359	-91.39359
251182	-141	6	5	-3.211144	-0.9702756	-1.714154	0	11.91	4004	0	0	5	5	0.6873717	-0.1349726	1	15	0.04	1800	3.892928	40.92359	-91.39359
251345	-136	2	4	-3.209509	-0.9702083	-1.744721	0	11.91	4003	0	0	5	5	0.6873717	-0.1384952	1	15	0.04	1800	3.870863	40.92359	-91.39359
251464	-147	7	11	-3.209398	-0.9670727	-1.764162	0	11.91	4003	0	0	5	5	0.6873717	-0.1357608	1	15	0.04	1800	4.107343	40.92358	-91.39359
251571	-144	9	10	-3.210287	-0.9694293	-1.783298	0	11.91	4002	0	0	5	5	0.6873717	-0.1307236	1	15	0.04	1800	3.85232	40.92358	-91.39359
251643	-141	8	11	-3.209476	-0.9704051	-1.792957	0	11.91	4002	0	0	5	5	0.6873717	-0.1314973	1	15	0.04	1800	3.852463	40.92358	-91.39359
251805	-140	8	8	-3.203128	-0.9706668	-1.82004	0	11.91	4004	0	0	5	5	0.6873717	-0.1333392	1	15	0.04	1800	3.609924	40.92358	-91.39358
251956	-145	1	9	-3.202788	-0.9706892	-1.847855	0	11.91	4002	0	0	5	5	0.6873717	-0.1399024	1	15	0.04	1800	3.850647	40.92358	-91.39358
252137	-140	5	7	-3.200443	-0.9686869	-1.877748	0	11.91	4003	0	0	5	5	0.6873717	-0.1483931	1	15	0.04	1800	3.6159	40.92358	-91.39358
252250	-141	10	9	-3.2067	-0.9664994	-1.893032	0	11.91	4002	0	0	5	5	0.6873717	-0.1639194	1	15	0.04	1800	3.844441	40.92358	-91.39358
252306	-139	8	13	-3.210367	-0.9728639	-1.904035	0	11.91	4002	0	0	5	5	0.6873717	-0.1751608	1	15	0.04	1800	4.098531	40.92357	-91.39358
252417	-141	13	5	-3.211801	-0.9731819	-1.916935	0	11.91	4003	0	0	5	5	0.6873717	-0.190747	1	15	0.04	1800	4.080209	40.92357	-91.39358
252479	-142	5	11	-3.21543	-0.9718534	-1.927511	0	11.91	4003	0	0	5	5	0.6873717	-0.196994	1	15	0.04	1800	3.843221	40.92357	-91.39358
252669	-142	6	7	-3.210764	-0.9785581	-1.957895	0	11.91	4004	0	0	5	5	0.6873717	-0.2059823	1	15	0.04	1800	3.855093	40.92357	-91.39358
252735	-144	12	9	-3.211641	-0.9751972	-1.967617	0	11.91	4003	0	0	5	5	0.6873717	-0.2067229	1	15	0.04	1800	3.866311	40.92357	-91.39358
252915	-149	5	10	-3.212158	-0.9755825	-1.997145	0	11.91	4003	0	0	5	5	0.6873717	-0.2164721	1	15	0.04	1800	4.079325	40.92357	-91.39358
253063	-140	6	14	-3.212826	-0.9853488	-2.017627	0	11.91	4003	0	0	5	5	0.6873717	-0.2231379	1	15	0.04	1800	3.861417	40.92357	-91.39358
253190	-146	4	7	-3.207903	-0.9799047	-2.036152	0	11.91	4004	0	0	5	5	0.6873717	-0.2186716	1	15	0.04	1800	3.879195	40.92357	-91.39358
253263	-135	7	5	-3.203859	-0.9750484	-2.045751	0	11.91	4003	0	0	5	5	0.6873717	-0.2162368	1	15	0.04	1800	3.847125	40.92357	-91.39358
253467	-141	-1	11	-3.20457	-0.9676316	-2.079619	0	11.91	4004	0	0	5	5	0.6873717	-0.2027837	1	15	0.04	1800	3.847289	40.92356	-91.39359
253550	-145	2	10	-3.202104	-0.962282	-2.094108	0	11.91	4004	0	0	5	5	0.6873717	-0.1944114	1	15	0.04	1800	3.616196	40.92356	-91.39359
253638	-139	12	4	-3.200661	-0.9640575	-2.104256	0	11.91	4004	0	0	5	5	0.6873717	-0.1786873	1	15	0.04	1800	3.852417	40.92356	-91.39359
253710	-138	2	9	-3.197431	-0.9646257	-2.126144	0	11.91	4004	0	0	5	5	0.6873717	-0.1724495	1	15	0.04	1800	4.05908	40.92356	-91.39359
253812	-143	5	13	-3.195493	-0.9605231	-2.141429	0	11.91	4004	0	0	5	5	0.6873717	-0.1668919	1	15	0.04	1800	3.830859	40.92356	-91.39359
253860	-137	5	7	-3.19566	-0.9565502	-2.150601	0	11.91	4004	0	0	5	5	0.6873717	-0.1601327	1	15	0.04	1800	4.038457	40.92356	-91.39359
253992	-139	9	9	-3.195707	-0.9679964	-2.171205	0	11.91	4003	0	0	5	5	0.6873717	-0.1495152	1	15	0.04	1800	3.83865	40.92356	-91.39359
254026	-144	7	9	-3.196275	-0.9657056	-2.175729	0	11.91	4002	0	0	5	5	0.6873717	-0.1500041	1	15	0.04	1800	3.85881	40.92356	-91.39359
254153	-142	5	13	-3.196935	-0.9619123	-2.186673	0	11.91	4002	0	0	5	5	0.6873717	-0.1459945	1	15	0.04	1800	3.85881	40.92356	-91.39359
254194	-142	12	14	-3.192781	-0.9562923	-2.201773	0	11.91	4002	0	0	5	5	0.6873717	-0.1436169	1	15	0.04	1800	3.839601	40.92356	-91.39359
254337	-137	10	6	-3.186826	-0.9647866	-2.231854	0	11.91	4004	0	0	5	5	0.6873717	-0.1415979	1	15	0.04	1800	4.056363	40.92356	-91.39359
254393	-142	12	10	-3.183455	-0.9684247	-2.235951	0	11.91	4004	0	0	5	5	0.6873717	-0.1494256	1	15	0.04	1800	4.056363	40.92356	-91.39359
254466	-139	9	6	-3.185501	-0.9746554	-2.245366	0	11.91	4002	0	0	5	5	0.6873717	-0.1557896	1	15	0.04	1800	3.588368	40.92356	-91.39359
254653	-138	8	9	-3.182868	-0.9747998	-2.27349	0	11.97	4003	0	0	5	5	0.6873717	-0.173006	1	15	0.04	1800	3.58992	40.92356	-91.39359
254711	-140	9	7	-3.179404	-0.975237	-2.287857	0	11.97	4004	0	0	5	5	0.6873717	-0.1799391	1	15	0.04	1800	3.822995	40.92356	-91.3936
254875	-142	4	8	-3.171385	-0.972863	-2.308399	0	11.97	4004	0	0	5	5	0.6873717	-0.1872448	1	15	0.04	1800	3.797952	40.92356	-91.3936
254974	-136	9	6	-3.162545	-0.9676356	-2.333159	0	11.97	4002	0	0	5	5	0.6873717	-0.1863134	1	15	0.04	1800	4.006242	40.92356	-91.3936
255131	-140	9	7	-3.164431	-0.9715838	-2.350218	0	11.97	4003	0	0	5	5	0.6873717	-0.1805513	1	15	0.04	1800	4.038771	40.92356	-91.3936
255242	-135	7	6	-3.159293	-0.9768532	-2.369537	0	11.97	4004	0	0	5	5	0.6873717	-0.1729535	1	15	0.04	1800	3.768336	40.92357	-76.90676
255370	-142	-1	12	-3.155891	-0.9736832	-2.384699	0	11.97	4002	0	0	5	5	0.6873717	-0.1730488	1	15	0.04	1800	4.008158	40.92357	-47.93307
255416	-136	7	10	-3.150106	-0.9763515	-2.398455	0	11.91	4004	0	0	5	5	0.6873717	-0.1724309	1	15	0.04	1800	3.763829	40.92357	-47.93307
255550	-136	8	5	-3.140904	-0.9685473	-2.417468	0	11.91	4003	0	0	5	5	0.6873717	-0.1645961	1	15	0.04	1800	3.773205	40.92357	-47.93307
255650	-137	5	9	-3.136162	-0.9716789	-2.427922	0	11.91	4004	0	0	5	5	0.6873717	-0.1671716	1	15	0.04	1800	3.734182	40.92357	-47.93307
255683	-141	3	8	-3.135957	-0.9730986	-2.431102	0	11.91	4004	0	0	5	5	0.6873717	-0.1701749	1	15	0.04	1800	3.986555	40.92357	-47.93307
255837	-142	7	7	-3.133944	-0.9761463	-2.450849	0	11.91	4002	0	0	5	5	0.6873717	-0.1892582	1	15	0.04	1800	3.533008	40.92357	-55.17649
255950	-135	6	4	-3.12754	-0.9668691	-2.473961	0	11.91	4003	0	0	5	5	0.6873717	-0.1943393	1	15	0.04	1800	3.969717	40.92357	-84.15019
256025	-135	2	8	-3.125722	-0.9621938	-2.482887	0	11.91	4003	0	0	5	5	0.6873717	-0.2078053	1	15	0.04	1800	3.966478	40.92357	-91.39361
256097	-137	6	8	-3.126356	-0.960921	-2.492546	0	11.91	4003	0	0	5	5	0.6873717	-0.2179653	1	15	0.04	1800	3.720733	40.92357	-91.39362
256192	-137	7	8	-3.130747	-0.9669331	-2.512414	0	11.91	4003	0	0	5	5	0.6873717	-0.226214	1	15	0.04	1800	3.51384	40.92357	-91.39362
256245	-134	5	2	-3.127888	-0.9672856	-2.516571	0	11.91	4004	0	0	5	5	0.6873717	-0.2301186	1	15	0.04	1800	3.488949	40.92357	-91.39362
256331	-140	8	13	-3.124653	-0.9676709	-2.529531	0	11.97	4003	0	0	5	5	0.6873717	-0.2306892	1	15	0.04	1800	3.945715	40.92357	-91.39362
256499	-130	5	7	-3.125158	-0.9805742	-2.550012	0	11.97	4002	0	0	5	5	0.6873717	-0.2247325	1	15	0.04	1800	3.705647	40.92357	-91.39362
256642	-136	5	7	-3.127273	-0.9762236	-2.568048	0	11.97	4004	0	0	5	5	0.6873717	-0.2235501	1	15	0.04	1800	3.735081	40.92357	-91.39362
256692	-139	8	10	-3.125674	-0.9712006	-2.575751	0	11.97	4003	0	0	5	5	0.6873717	-0.2235182	1	15	0.04	1800	3.515171	40.92357	-91.39362
256819	-137	3	9	-3.123943	-0.9680309	-2.589507	0	11.97	4003	0	0	5	5	0.6873717	-0.219294	1	15	0.04	1800	3.707987	40.92357	-91.39362
256907	-135	12	8	-3.133458	-0.9742473	-2.605648	0	11.97	4004	0	0	5	5	0.6873717	-0.2117794	1	15	0.04	1800	3.749238	40.92357	-91.39362
256943	-137	5	10	-3.127728	-0.9737219	-2.623806	0	11.97	4003	0	0	5	5	0.6873717	-0.1998937	1	15	0.04	1800	3.730387	40.92357	-91.39362
257012	-137	2	6	-3.12951	-0.9729332	-2.635789	0	11.97	4002	0	0	5	5	0.6873717	-0.1987612	1	15	0.04	1800	3.724296	40.92357	-91.39362
257133	-133	1	7	-3.13113	-0.9673771	-2.650216	0	11.97	4003	0	0	5	5	0.6873717	-0.20863	1	15	0.04	1800	3.731227	40.92357	-91.39362
257266	-138	13	6	-3.131791	-0.9682979	-2.672287	0	11.97	4003	0	0	5	5	0.6873717	-0.2088501	1	15	0.04	1800	3.971503	40.92357	-91.39362
257420	-139	6	14	-3.130663	-0.9734352	-2.690506	0	11.97	4009	0	0	5	5	0.6873717	-0.2067669	1	15	0.04	1800	3.982196	40.92357	-91.39362
257551	-132	7	7	-3.132436	-0.9673041	-2.713005	0	11.97	4003	0	0	5	5	0.6873717	-0.2067333	1	15	0.04	1800	3.717338	40.92357	-91.39362
257727	-137	6	7	-3.130231	-0.9630942	-2.732996	0	11.97	4002	0	0	5	5	0.6873717	-0.2140207	1	15	0.04	1800	3.962236	40.92358	-91.39362
257793	-133	5	13	-3.130904	-0.9639769	-2.746202	0	11.97	4002	0	0	5	5	0.6873717	-0.2165488	1	15	0.04	1800	3.533288	40.92358	-91.39362
257934	-133	5	13	-3.130904	-0.9639769	-2.746202	0	11.97	4002	0	0	5	5	0.6873717	-0.2173403	1	15	0.04	1800	3.533288	40.92358	-91.39362
258074	-133	5	13	-3.130904	-0.9639769	-2.746202	0	11.97	4002	0	0	5	5	0.6873717	-0.2173403	1	15	0.04	1800	3.533288	40.92358	-91.39362
258263	-133	5	13	-3.130904	-0.9639769	-2.746202	0	11.97	4002	0	0	5	5	0.6873717	-0.2173403	1	15	0.04	1800	3.533288	40.92358	-91.39362
258333	-133	5	13	-3.130904	-0.9639769	-2.746202	0	11.97	4002	0	0	5	5	0.6873717	-0.2173403	1	15	0.04	1800	3.533288	40.92358	-91.39362
258412	-133	5	13	-3.130904	-0.9639769	-2.746202	0	11.97	4002	0	0	5	5	0.6873717	-0.2173403	1	15	0.04	1800	3.533288	40.92358	-91.39362
258486	-133	5	13	-3.130904	-0.9639769	-2.746202	0	11.97	4002	0	0	5	5	0.6873717	-0.2173403	1	15	0.04	1800	3.533288	40.92358	-91.39362
258550	-133	5	13	-3.130904	-0.9639769	-2.746202	0	11.97	4002	0	0	5	5	0.6873717	-0.2173403	1	15	0.04	1800	3.533288	40.92358	-91.39362
258691	-133	5	13	-3.130904	-0.9639769	-2.746202	0	11.97	4002	0	0	5	5	0.6873717	-0.2173403	1	15	0.04	1800	3.533288	40.92358	-91.39362
258752	-133	5	13	-3.130904	-0.9639769	-2.746202	0	11.97	4002	0	0	5	5	0.6873717	-0.2173403	1	15	0.04	1800	3.533288	40.92358	-91.39362
258935	-133	5	13	-3.130904	-0.9639769	-2.746202	0	11.91	4002	0	0	5	5	0.6873717	-0.2173403	1	15	0.04	1800	3.533288	40.92358	-91.39362
259019	-133	5	13	-3.130904	-0.9639769	-2.746202	0	11.91	4002	0	0	5	5	0.6873717	-0.2173403	1	15	0.04	1800	3.533288	40.92358	-91.39362
259129	-133	5	13	-3.130904	-0.9639769	-2.746202	0	11.91	4002	0	0	5	5	0.6873717	-0.2173403	1	15	0.04	1800	3.533288	40.92358	-91.39362
259202	-133	5	13	-3.130904	-0.9639769	-2.746202	0	11.91	4002	0	0	5	5	0.6873717	-0.2173403	1	15	0.04	1800	3.533288	40.92358	-91.39362
259244	-133	5	13	-3.130904	-0.9639769	-2.746202	0	11.91	4002	0	0	5	5	0.6873717	-0.2173403	1	15	0.04	1800	3.533288	40.92358	-91.39362
259326	-133	5	13	-3.130904	-0.9639769	-2.746202	0	11.91	4002	0	0	5	5	0.6873717	-0.2173403	1	15	0.04	1800	3.533288	40.92358	-91.39362
259465	-133	5	13	-3.130904	-0.9639769	-2.746202	0	11.91	4002	0	0	5	5	0.6873717	-0.2173403	1	15	0.04	1800	3.533288	40.92358	-91.39362
259545	-133	5	13	-3.130904	-0.9639769	-2.746202	0	11.91	4002	0	0	5	5	0.6873717	-0.2173403	1	15	0.04	1800	3.533288	40.92358	-91.39362
259628	-133	5	13	-3.130904	-0.9639769	-2.746202	0	11.91	4002	0	0	5	5	0.6873717	-0.2173403	1	15	0.04	1800	3.533288	40.92358	-91.39362
259728	-133	5	13	-3.130904	-0.9639769	-2.746202	0	11.97	4002	0	0	5	5	0.6873717	-0.2173403	1	15	0.04	1800	3.533288	40.92358	-91.39362
259856	-133	5	13	-3.130904	-0.9639769	-2.746202	0	11.97	4002	0	0	5	5	0.6873717	-0.2173403	1	15	0.04	1800	3.533288	40.92358	-91.39362
259908	-133	5	13	-3.130904	-0.9639769	-2.746202	0	11.97	4002	0	0	5	5	0.6873717	-0.2173403	1	15	0.04	1800	3.533288	40.92358	-91.39362
260109	-133	5	13	-3.130904	-0.9639769	-2.746202	0	11.97	4002	0	0	5	5	0.6873717	-0.2173403	1	15	0.04	1800	3.533288	40.92358	-91.39362
260189	-133	5	13	-3.130904	-0.9639769	-2.746202	0	11.97	4002	0	0	5	5	0.6873717	-0.2173403	1	15	0.04	1800	3.533288	40.92358	-91.39362
260284	-133	5	13	-3.130904	-0.9639769	-2.746202	0	11.97	4002	0	0	5	5	0.6873717	-0.2173403	1	15	0.04	1800	3.533288	40.92358	-91.39362
260410	-133	5	13	-3.130904	-0.9639769	-2.746202	0	11.97	4002	0	0	5	5	0.6873717	-0.2173403	1	15	0.04	1800	3.533288	40.92358	-91.39362
260500	-133	5	13	-3.130904	-0.9639769	-2.746202	0	11.97	4002	0	0	5	5	0.6873717	-0.2173403	1	15	0.04	1800	3.533288	40.92358	-91.39362
260669	-133	5	13	-3.130904	-0.9639769	-2.746202	0	11.97	4002	0	0	5	5	0.6873717	-0.2173403	1	15	0.04	1800	3.533288	40.92358	-91.39362
260722	-133	5	13	-3.130904	-0.9639769	-2.746202	0	11.97	4002	0	0	5	5	0.6873717	-0.2173403	1	15	0.04	1800	3.533288	40.92358	-91.39362
260750	-133	5	13	-3.130904	-0.9639769	-2.746202	0	11.97	4002	0	0	5	5	0.6873717	-0.2173403	1	15	0.04	1800	3.533288	40.92358	-91.39362
260935	-133	5	13	-3.130904	-0.9639769	-2.746202	0	11.97	4002	0	0	5	5	0.6873717	-0.2173403	1	15	0.04	1800	3.533288	40.92358	-91.39362
260962	-133	5	13	-3.130904	-0.9639769	-2.746202	0	11.97	4002	0	0	5	5	0.6873717	-0.2173403	1	15	0.04	1800	3.533288	40.92358	-91.39362
261066	-133	5	13	-3.130904	-0.9639769	-2.746202	0	11.97	4002	0	0	5	5	0.6873717	-0.2173403	1	15	0.04	1800	3.533288	40.92358	-91.39362
261220	-133	5	13	-3.130904	-0.9639769	-2.746202	0	11.97	4002	0	0	5	5	0.6873717	-0.2173403	1	15	0.04	1800	3.533288	40.92358	-91.39362
261305	-133	5	13	-3.130904	-0.9639769	-2.746202	0	11.97	4002	0	0	5	5	0.6873717	-0.2173403	1	15	0.04	1800	3.533288	40.92358	-91.39362
261395	-133	5	13	-3.130904	-0.9639769	-2.746202	0	11.97	4002	0	0	5	5	0.6873717	-0.2173403	1	15	0.04	1800	3.533288	40.92358	-91.39362
261411	-133	5	13	-3.130904	-0.9639769	-2.746202	0	11.97	4002	0	0	5	5	0.6873717	-0.2173403	1	15	0.04	1800	3.533288	40.92358	-91.39362
261459	-133	5	13	-3.130904	-0.9639769	-2.746202	0	11.97	4002	0	0	5	5	0.6873717	-0.2173403	1	15	0.04	1800	3.533288	40.92358	-91.39362
261594	-133	5	13	-3.130904	-0.9639769	-2.746202	0	11.97	4002	0	0	5	5	0.6873717	-0.2173403	1	15	0.04	1800	3.533288	40.92358	-91.39362
261656	-133	5	13	-3.130904	-0.9639769	-2.746202	0	11.97	4002	0	0	5	5	0.6873717	-0.2173403	1	15	0.04	1800	3.533288	40.92358	-91.39362
261744	-133	5	13	-3.130904	-0.9639769	-2.746202	0	11.97	4002	0	0	5	5	0.6873717	-0.2173403	1	15	0.04	1800	3.533288	40.92358	-91.39362
261908	-133	5	13	-3.130904	-0.9639769	-2.746202	0	11.97	4002	0	0	5	5	0.6873717	-0.2173403	1	15	0.04	1800	3.533288	40.92358	-91.39362
261991	-133	5	13	-3.130904	-0.9639769	-2.746202	0	11.97	4002	0	0	5	5	0.6873717	-0.2173403	1	15	0.04	1800	3.533288	40.92358	-91.39362
262076	-133	5	13	-3.130904	-0.9639769	-2.746202	0	11.97	4002	0	0	5	5	0.6873717	-0.2173403	1	15	0.04	1800	3.533288	40.92358	-91.39362
262154	-133	5	13	-3.130904	-0.9639769	-2.746202	0	11.97	4002	0	0	5	5	0.6873717	-0.2173403	1	15	0.04	1800	3.533288	40.92358	-91.39362
262363	-133	5	13	-3.130904	-0.9639769	-2.746202	0	11.91	4002	0	0	5	5	0.6873717	-0.2173403	1	15	0.04	1800	3.533288	40.92358	-91.39362
262517	-133	5	13	-3.130904	-0.9639769	-2.746202	0	11.91	4002	0	0	5	5	0.6873717	-0.2173403	1	15	0.04	1800	3.533288	40.92358	-91.39362
262563	-133	5	13	-3.130904	-0.9639769	-2.746202	0	11.91	4002	0	0	5	5	0.6873717	-0.2173403	1	15	0.04	1800	3.533288	40.92358	-91.39362
262671	-133	5	13	-3.130904	-0.9639769	-2.746202	0	11.91	4002	0	0	5	5	0.6873717	-0.2173403	1	15	0.04	1800	3.533288	40.92358	-91.39362
262777	-133	5	13	-3.130904	-0.9639769	-2.746202	0	11.91	4002	0	0	5	5	0.6873717	-0.2173403	1	15	0.04	1800	3.533288	40.92358	-91.39362
262835	-133	5	13	-3.130904	-0.9639769	-2.746202	0	11.91	4002	0	0	5	5	0.6873717	-0.2173403	1	15	0.04	1800	3.533288	40.92358	-91.39362
263034	-133	5	13	-3.130904	-0.9639769	-2.746202	0	11.91	4002	0	0	5	5	0.6873717	-0.2173403	1	15	0.04	1800	3.533288	40.92358	-91.39362
263106	-133	5	13	-3.130904	-0.9639769	-2.746202	0	11.91	4002	0	0	5	5	0.6873717	-0.2173403	1	15	0.04	1800	3.533288	40.92358	-91.39362
263255	-133	5	13	-3.130904	-0.9639769	-2.746202	0	11.91	4002	0	0	5	5	0.6873717	-0.2173403	1	15	0.04	1800	3.533288	40.92358	-91.39362
263373	-133	5	13	-3.130904	-0.9639769	-2.746202	0	11.91	4002	0	0	5	5	0.6873717	-0.2173403	1	15	0.04	1800	3.533288	40.92358	-91.39362
263466	-133	5	13	-3.130904	-0.9639769	-2.746202	0	11.91	4002	0	0	5	5	0.6873717	-0.2173403	1	15	0.04	1800	3.533288	40.92358	-91.39362
263532	-133	5	13	-3.130904	-0.9639769	-2.746202	0	11.91	4002	0	0	5	5	0.6873717	-0.2173403	1	15	0.04	1800	3.533288	40.92358	-91.39362
263615	-133	5	13	-3.130904	-0.9639769	-2.746202	0	11.91	4002	0	0	5	5	0.6873717	-0.2173403	1	15	0.04	1800	3.533288	40.92358	-91.39362
263743	-133	5	13	-3.130904	-0.9639769	-2.746202	0	11.91	4002	0	0	5	5	0.6873717	-0.2173403	1	15	0.04	1800	3.533288	40.92358	-91.39362
263872	-133	5	13	-3.130904	-0.9639769	-2.746202	0	11.91	4002	0	0	5	5	0.6873717	-0.2173403	1	15	0.04	1800	3.533288	40.92358	-91.39362
263976	-133	5	13	-3.130904	-0.9639769	-2.746202	0	11.91	4002	0	0	5	5	0.6873717	-0.2173403	1	15	0.04	1800	3.533288	40.92358	-91.39362
264075	-133	5	13	-3.130904	-0.9639769	-2.746202	0	11.91	4002	0	0	5	5	0.6873717	-0.2173403	1	15	0.04	1800	3.533288	40.92358	-91.39362
264155	-133	5	13	-3.130904	-0.9639769	-2.746202	0	11.91	4002	0	0	5	5	0.6873717	-0.2173403	1	15	0.04	1800	3.533288	40.92358	-91.39362
264247	-133	5	13	-3.130904	-0.9639769	-2.746202	0	11.91	4002	0	0	5	5	0.6873717	-0.2173403	1	15	0.04	1800	3.533288	40.92358	-91.39362
264371	-133	5	13	-3.130904	-0.9639769	-2.746202	0	11.91	4002	0	0	5	5	0.6873717	-0.2173403	1	15	0.04	1800	3.533288	40.92358	-91.39362
264440	-133	5	13	-3.130904	-0.9639769	-2.746202	0	11.91	4002	0	0	5	5	0.6873717	-0.2173403	1	15	0.04	1800	3.533288	40.92358	-91.39362
264557	-133	5	13	-3.130904	-0.9639769	-2.746202	0	11.91	4002	0	0	5	5	0.6873717	-0.2173403	1	15	0.04	1800	3.533288	40.92358	-91.39362
264670	-133	5	13	-3.130904	-0.9639769	-2.746202	0	11.91	4002	0	0	5	5	0.6873717	-0.2173403	1	15	0.04	1800	3.533288	40.92358	-91.39362
264721	-133	5	13	-3.130904	-0.9639769	-2.746202	0	11.91	4002	0	0	5	5	0.6873717	-0.2173403	1	15	0.04	1800	3.533288	40.92358	-91.39362
264804	-133	5	13	-3.130904	-0.9639769	-2.746202	0	11.91	4002	0	0	5	5	0.6873717	-0.2173403	1	15	0.04	1800	3.533288	40.92358	-91.39362
264961	-133	5	13	-3.130904	-0.9639769	-2.746202	0	11.91	4002	0	0	5	5	0.6873717	-0.2173403	1	15	0.04	1800	3.533288	40.92358	-91.39362
265054	-133	5	13	-3.130904	-0.9639769	-2.746202	0	11.91	4002	0	0	5	5	0.6873717	-0.2173403	1	15	0.04	1800	3.533288	40.92358	-91.39362
265132	-133	5	13	-3.130904	-0.9639769	-2.746202	0	11.91	4002	0	0	5	5	0.6873717	-0.2173403	1	15	0.04	1800	3.533288	40.92358	-91.39362
265234	-133	5	13	-3.130904	-0.9639769	-2.746202	0	11.91	4002	0	0	5	5	0.6873717	-0.2173403	1	15	0.04	1800	3.533288	40.92358	-91.39362
265287	-133	5	13	-3.130904	-0.9639769	-2.746202	0	11.91	4002	0	0	5	5	0.6873717	-0.2173403	1	15	0.04	1800	3.533288	40.92358	-91.39362
265352	-133	5	13	-3.130904	-0.9639769	-2.746202	0	11.91	4002	0	0	5	5	0.6873717	-0.2173403	1	15	0.04	1800	3.533288	40.92358	-91.39362
265449	-133	5	13	-3.130904	-0.9639769	-2.746202	0	11.91	4002	0	0	5	5	0.6873717	-0.2173403	1	15	0.04	1800	3.533288	40.92358	-91.39362
265644	-133	5	13	-3.130904	-0.9639769	-2.746202	0	11.91	4002	0	0	5	5	0.6873717	-0.2173403	1	15	0.04	1800	3.533288	40.92358	-91.39362
265792	1	-2	0	0.3857932	-0.6287564	-0.2755736	0	11.91	4003	0	0	5	5	0.6873717	-0.05469641	1	15	0.04	1800	-1.496246	40.92359	-91.39362
265855	3	-2	2	0.3513564	-0.5488288	-0.2761238	0	11.91	4002	0	0	5	5	0.6873717	-0.02416789	1	15	0.04	1800	-1.457336	40.9236	-91.39362
265960	3	0	-3	0.3178381	-0.478619	-0.2756957	0	11.91	4004	0	0	5	5	0.6873717	0.02274675	1	15	0.04	1800	-1.599976	40.9236	-91.39362
266058	3	-2	0	0.2919497	-0.4401928	-0.2760625	0	11.91	4002	0	0	5	5	0.6873717	0.0496432	1	15	0.04	1800	-1.599976	40.9236	-91.39362
266212	3	0	3	0.2485028	-0.3535738	-0.2745339	0	11.91	4004	0	0	5	5	0.6873717	0.07955324	1	15	0.04	1800	-1.280121	40.9236	-91.39362
266306	8	0	-5	0.2312086	-0.2952034	-0.2742282	0	11.91	4002	0	0	5	5	0.6873717	0.09760905	1	15	0.04	1800	-1.459412	40.9236	-91.39362
266378	2	4	0	0.2157245	-0.2728914	-0.2743504	0	11.91	4002	0	0	5	5	0.6873717	0.1028148	1	15	0.04	1800	-1.22583	40.9236	-91.39362
266475	8	2	-2	0.2000347	-0.2393456	-0.2725773	0	11.91	4003	0	0	5	5	0.6873717	0.1122671	1	15	0.04	1800	-1.204773	40.9236	-91.39362
