time(ms)	gyro_x(deg/s)	gyro_y(deg/s)	gyro_z(deg/s)	orientation_roll(deg)	orientation_pitch(deg)	orientation_yaw(deg)	throttle	battery(V)	loop_time(uS)	pid_output_roll	pid_output_pitch	pid_output_yaw	pid_output_throttle	ultrasonic_alt	baro_alt	flight_mode	p_gain_altitude	i_gain_altitude	d_gain_altitude	compass_heading	latitude	longitude
134060	217	-92	28	-1.706355	2.686926	-17.91232	0	12.31	4004	0	0	5	5	0.02	0.4191025	1	15	0.04	1800	6.625854	40.92359	-91.39357
134251	-8	-3	4	-1.256492	2.853328	-17.95144	0	12.31	4002	0	0	5	5	0.02	0.4248034	1	15	0.04	1800	6.599685	40.92359	-91.39356
134278	-25	23	6	-1.25304	2.88325	-17.95364	0	12.31	4004	0	0	5	5	0.02	0.423797	1	15	0.04	1800	6.535727	40.92359	-91.39356
134452	-5	-1	7	-1.230268	2.993718	-17.96799	0	12.31	4003	0	0	5	5	0.02	0.432859	1	15	0.04	1800	6.511521	40.92359	-91.39356
134535	0	-3	1	-1.211661	3.058423	-17.97514	0	12.31	4003	0	0	5	5	0.02	0.4413686	1	15	0.04	1800	6.208671	40.92359	-91.39356
134599	-2	2	4	-1.204467	3.079607	-17.97788	0	12.31	4003	0	0	5	5	0.02	0.4413232	1	15	0.04	1800	6.208671	40.92359	-91.39355
134776	-2	-3	5	-1.175448	3.165661	-17.99052	0	12.31	4002	0	0	5	5	0.02	0.4338976	1	15	0.04	1800	6.124801	40.92359	-91.39355
134810	5	-1	1	-1.171506	3.180071	-17.99272	0	12.31	4004	0	0	5	5	0.02	0.4316352	1	15	0.04	1800	6.100027	40.92359	-91.39355
134943	-2	2	7	-1.138387	3.238053	-18.00677	0	12.31	4004	0	0	5	5	0.02	0.416025	1	15	0.04	1800	6.276329	40.92359	-91.39356
135060	1	0	6	-1.126229	3.27253	-18.0188	0	12.31	4002	0	0	5	5	0.02	0.4066379	1	15	0.04	1800	6.265834	40.9236	-91.39356
135155	-6	0	4	-1.118667	3.293388	-18.02521	0	12.31	4003	0	0	5	5	0.02	0.3970884	1	15	0.04	1800	6.257496	40.9236	-91.39356
135224	1	-3	12	-1.10854	3.321105	-18.03401	0	12.31	4003	0	0	5	5	0.02	0.3905445	1	15	0.04	1800	5.970008	40.9236	-91.39356
135269	-5	-2	6	-1.099057	3.338398	-18.03932	0	12.31	4004	0	0	5	5	0.02	0.3872955	1	15	0.04	1800	5.745882	40.9236	-91.39356
135436	-10	-2	8	-1.086948	3.364818	-18.05013	0	12.31	4003	0	0	5	5	0.02	0.3699877	1	15	0.04	1800	5.960665	40.9236	-91.39357
135507	0	0	3	-1.076843	3.383191	-18.05898	0	12.31	4003	0	0	5	5	0.02	0.3582441	1	15	0.04	1800	6.160746	40.9236	-91.39357
135625	-5	4	6	-1.067816	3.391251	-18.06655	0	12.31	4003	0	0	5	5	0.02	0.3277647	1	15	0.04	1800	5.924561	40.9236	-91.39357
135719	0	3	10	-1.061854	3.406299	-18.07565	0	12.36	4002	0	0	5	5	0.02	0.3132941	1	15	0.04	1800	5.651628	40.9236	-91.39357
135766	0	0	9	-1.06109	3.411805	-18.0803	0	12.36	4003	0	0	5	5	0.02	0.2985204	1	15	0.04	1800	5.651628	40.9236	-91.39357
135976	0	0	8	-1.046764	3.430094	-18.09739	0	12.36	4003	0	0	5	5	0.02	0.2692556	1	15	0.04	1800	6.103356	40.92361	-91.39358
136075	-2	0	5	-1.043273	3.434639	-18.11046	0	12.36	4003	0	0	5	5	0.02	0.2672445	1	15	0.04	1800	5.843949	40.92361	-91.39358
136265	1	1	6	-1.040391	3.448118	-18.12896	0	12.36	4003	0	0	5	5	0.02	0.253306	1	15	0.04	1800	5.865791	40.92361	-91.39358
136394	2	-2	0	-1.031445	3.45	-18.14099	0	12.36	4002	0	0	5	5	0.02	0.2432988	1	15	0.04	1800	5.826316	40.92361	-91.39358
136485	1	-5	8	-1.026366	3.451058	-18.15101	0	12.36	4004	0	0	5	5	0.02	0.2409486	1	15	0.04	1800	6.045521	40.92361	-91.39358
136604	-4	-3	6	-1.026581	3.454372	-18.16298	0	12.36	4003	0	0	5	5	0.02	0.2320023	1	15	0.04	1800	6.047421	40.92361	-91.39358
136700	-5	0	7	-1.026436	3.45689	-18.17153	0	12.36	4004	0	0	5	5	0.02	0.2204464	1	15	0.04	1800	6.060321	40.92361	-91.39358
136887	-5	2	4	-1.024217	3.466462	-18.1882	0	12.36	4004	0	0	5	5	0.02	0.2202443	1	15	0.04	1800	6.051984	40.92361	-54.83792
136920	-4	0	5	-1.024439	3.468453	-18.19309	0	12.36	4003	0	0	5	5	0.02	0.2224899	1	15	0.04	1800	5.810545	40.92361	-45.69901
137015	-8	-1	4	-1.020895	3.472041	-18.20011	0	12.36	4003	0	0	5	5	0.02	0.2302791	1	15	0.04	1800	5.827829	40.92362	-45.69901
137102	-2	3	5	-1.023226	3.470678	-18.20842	0	12.36	4004	0	0	5	5	0.02	0.2337323	1	15	0.04	1800	5.802905	40.92362	-45.69901
137208	-6	0	1	-1.015236	3.468375	-18.21752	0	12.36	4004	0	0	5	5	0.02	0.2373519	1	15	0.04	1800	6.01759	40.92362	-45.69901
137307	-1	1	4	-1.012974	3.471399	-18.22649	0	12.36	4003	0	0	5	5	0.02	0.2402588	1	15	0.04	1800	6.045224	40.92362	-45.69901
137441	-6	2	9	-1.004491	3.467158	-18.24097	0	12.36	4003	0	0	5	5	0.02	0.2472494	1	15	0.04	1800	6.030835	40.92362	-45.69901
137600	-6	-3	0	-0.9880733	3.478343	-18.25703	0	12.36	4004	0	0	5	5	0.02	0.2574403	1	15	0.04	1800	6.028757	40.92363	-91.39358
137672	-4	0	3	-0.9890974	3.481379	-18.26394	0	12.36	4010	0	0	5	5	0.02	0.2678127	1	15	0.04	1800	5.997474	40.92363	-91.39358
137865	0	2	7	-0.9934526	3.475676	-18.27822	0	12.36	4002	0	0	5	5	0.02	0.2830763	1	15	0.04	1800	5.782681	40.92363	-91.39358
137984	4	-4	5	-0.9882102	3.478589	-18.2872	0	12.36	4003	0	0	5	5	0.02	0.2893919	1	15	0.04	1800	5.782426	40.92363	-91.39358
138055	1	1	9	-0.9913471	3.478317	-18.29752	0	12.36	4002	0	0	5	5	0.02	0.2953531	1	15	0.04	1800	6.002325	40.92363	-91.39358
138216	-7	-9	4	-0.9895836	3.472103	-18.30833	0	12.36	4003	0	0	5	5	0.02	0.3154279	1	15	0.04	1800	5.980883	40.92363	-91.39358
138355	-6	4	4	-0.9848475	3.467682	-18.32323	0	12.36	4003	0	0	5	5	0.02	0.3245854	1	15	0.04	1800	5.972986	40.92363	-91.39358
138507	-8	0	2	-0.9866062	3.470212	-18.33954	0	12.31	4002	0	0	5	5	0.02	0.3268024	1	15	0.04	1800	5.742161	40.92362	-91.39358
138681	-4	-3	6	-0.9930976	3.466848	-18.35267	0	12.31	4003	0	0	5	5	0.02	0.3256762	1	15	0.04	1800	6.005488	40.92362	-91.39358
138766	-6	1	4	-0.9839389	3.471057	-18.36073	0	12.31	4004	0	0	5	5	0.02	0.3258742	1	15	0.04	1800	5.776157	40.92362	-91.39358
138873	-7	0	6	-0.9847276	3.470295	-18.37221	0	12.31	4004	0	0	5	5	0.02	0.3176212	1	15	0.04	1800	5.967475	40.92362	-91.39358
138951	-9	1	4	-0.9868457	3.472551	-18.37924	0	12.31	4004	0	0	5	5	0.02	0.3158913	1	15	0.04	1800	5.999955	40.92361	-91.39358
139019	-5	-6	4	-0.9831886	3.47265	-18.38693	0	12.31	4003	0	0	5	5	0.02	0.3087315	1	15	0.04	1800	5.737893	40.92361	-91.39358
139171	-2	-3	4	-0.9868777	3.47613	-18.40208	0	12.31	4003	0	0	5	5	0.02	0.3005658	1	15	0.04	1800	5.740173	40.92361	-91.39358
139222	-3	0	7	-0.9746608	3.479308	-18.41002	0	12.31	4002	0	0	5	5	0.02	0.2985747	1	15	0.04	1800	5.983312	40.92361	-91.39358
139297	-4	1	9	-0.9756911	3.477696	-18.41619	0	12.31	4004	0	0	5	5	0.02	0.2968566	1	15	0.04	1800	5.954026	40.92361	-91.39358
139377	-3	-2	4	-0.9687918	3.473244	-18.42382	0	12.36	4004	0	0	5	5	0.02	0.2894767	1	15	0.04	1800	5.977683	40.92361	-91.39358
139468	-4	-1	7	-0.9660697	3.473634	-18.4317	0	12.36	4003	0	0	5	5	0.02	0.2807412	1	15	0.04	1800	5.969009	40.92361	-91.39358
139572	-2	-3	3	-0.9661124	3.477916	-18.4444	0	12.36	4002	0	0	5	5	0.02	0.2692943	1	15	0.04	1800	5.93435	32.72157	-61.49722
139746	0	0	11	-0.9643082	3.479489	-18.45942	0	12.36	4002	0	0	5	5	0.02	0.2692656	1	15	0.04	1800	5.93307	27.25354	-41.56631
139870	-3	-2	4	-0.9623797	3.477089	-18.47548	0	12.36	4002	0	0	5	5	0.02	0.275072	1	15	0.04	1800	5.710176	27.25354	-41.56631
139888	-2	-3	4	-0.959512	3.476439	-18.47811	0	12.36	4003	0	0	5	5	0.02	0.2782229	1	15	0.04	1800	5.926647	27.25354	-41.56631
140054	0	1	0	-0.9575257	3.477452	-18.48751	0	12.36	4002	0	0	5	5	0.02	0.2816316	1	15	0.04	1800	5.958016	27.25354	-41.5663
140137	-3	-2	5	-0.9500892	3.474012	-18.49856	0	12.36	4004	0	0	5	5	0.02	0.2793859	1	15	0.04	1800	5.696453	27.25354	-41.5663
140246	-3	-1	7	-0.9514325	3.469909	-18.5076	0	12.36	4004	0	0	5	5	0.02	0.2822486	1	15	0.04	1800	5.919014	35.45558	-71.46267
140400	-2	-4	9	-0.9473591	3.468536	-18.51884	0	12.31	4002	0	0	5	5	0.02	0.2814506	1	15	0.04	1800	5.704126	40.92361	-91.39358
140575	-6	-5	9	-0.945066	3.466881	-18.53679	0	12.31	4003	0	0	5	5	0.02	0.2741668	1	15	0.04	1800	5.928809	40.92361	-91.39358
140630	-1	0	3	-0.9466889	3.472197	-18.54266	0	12.31	4003	0	0	5	5	0.02	0.2778536	1	15	0.04	1800	5.929368	40.92362	-91.39358
140777	-6	-2	10	-0.943193	3.476627	-18.55579	0	12.31	4004	0	0	5	5	0.02	0.2920472	1	15	0.04	1800	5.925352	40.92364	-91.39357
140869	-3	-1	4	-0.9420794	3.474234	-18.56306	0	12.31	4002	0	0	5	5	0.02	0.3086432	1	15	0.04	1800	5.925025	40.92366	-91.39357
141044	-9	5	4	-0.9394316	3.469244	-18.58077	0	12.31	4004	0	0	5	5	0.02	0.3330791	1	15	0.04	1800	5.921371	40.92369	-91.39356
141102	-4	3	9	-0.9314437	3.464899	-18.58938	0	12.31	4003	0	0	5	5	0.02	0.3343552	1	15	0.04	1800	5.937263	40.92369	-91.39355
141190	-6	0	0	-0.9240277	3.464346	-18.59463	0	12.31	4004	0	0	5	5	0.02	0.3419432	1	15	0.04	1800	5.633869	40.92371	-91.39355
141319	-6	-4	4	-0.9270421	3.464752	-18.60471	0	12.31	4003	0	0	5	5	0.02	0.3432983	1	15	0.04	1800	5.876451	40.92371	-91.39355
141455	-5	4	0	-0.9361553	3.470664	-18.61949	0	12.31	4003	0	0	5	5	0.02	0.3331447	1	15	0.04	1800	5.920634	40.92372	-91.39356
141521	-9	-2	6	-0.9393021	3.473344	-18.6273	0	12.31	4002	0	0	5	5	0.02	0.321725	1	15	0.04	1800	5.920665	40.92371	-91.39357
141650	-4	0	11	-0.9468603	3.475937	-18.63964	0	12.31	4004	0	0	5	5	0.02	0.3117357	1	15	0.04	1800	5.902841	40.92371	-91.39358
141720	-13	-6	8	-0.9533485	3.480774	-18.6452	0	12.31	4004	0	0	5	5	0.02	0.3078648	1	15	0.04	1800	5.939213	40.9237	-91.39358
141848	-2	3	5	-0.9517626	3.50368	-18.65853	0	12.31	4004	0	0	5	5	0.02	0.2915435	1	15	0.04	1800	5.891006	40.92369	-91.39359
141918	4	-7	0	-0.941835	3.494857	-18.66256	0	12.31	4003	0	0	5	5	0.02	0.2781695	1	15	0.04	1800	6.132367	40.92369	-91.39359
142016	-11	9	0	-0.9810281	3.499774	-18.66641	0	12.31	4003	0	0	5	5	0.02	0.2738928	1	15	0.04	1800	5.912726	40.92368	-91.39359
142054	-54	20	23	-0.9494202	3.532371	-18.65626	0	12.31	4004	0	0	5	5	0.02	0.2732627	1	15	0.04	1800	5.737972	40.92368	-91.39359
142188	-190	210	-1994	-0.9824651	3.267138	-17.79273	0	12.36	4004	0	0	5	5	0.02	0.2581791	1	15	0.04	1800	5.533618	40.92368	-91.39359
142282	1428	1007	-2108	-0.3368135	1.716278	-14.50467	0	12.36	4004	0	0	5	5	0.02	0.251174	1	15	0.04	1800	3.858871	40.92369	-91.39359
142446	80	154	-235	0.461831	1.340883	-13.19907	0	12.36	4004	0	0	5	5	0.02	0.2499332	1	15	0.04	1800	2.546867	40.92369	-91.39359
142595	100	0	66	0.5639502	0.1651415	-11.89139	0	12.36	4003	0	0	5	5	0.02	0.2462225	1	15	0.04	1800	1.670932	40.92371	-91.39359
142779	-514	967	-6	0.9026868	-1.063818	-12.60324	0	12.36	4003	0	0	5	5	0.02	0.2480827	1	15	0.04	1800	2.235739	40.92372	-91.39358
142903	-908	-829	929	-2.724203	0.1758506	-14.90646	0	12.36	4003	0	0	5	5	0.02	0.2446118	1	15	0.04	1800	2.113543	40.92373	-91.39358
143002	1536	513	-2584	-2.917831	0.3990541	-14.38649	0	12.36	4003	0	0	5	5	0.02	0.2487336	1	15	0.04	1800	3.417454	40.92374	-91.39358
143220	52	68	1054	-1.707286	1.23753	-11.46872	0	12.31	4003	0	0	5	5	0.02	0.2742607	1	15	0.04	1800	0.2912737	40.92377	-91.39358
143398	413	16	277	0.6577103	0.3859555	-13.92944	0	12.31	4003	0	0	5	5	0.02	0.2880459	1	15	0.04	1800	2.693592	40.92378	-91.39359
143582	1	-19	-1068	0.568486	1.535196	-12.9543	0	12.31	4004	0	0	5	5	0.02	0.2997284	1	15	0.04	1800	3.479994	40.92379	-91.39361
143636	-161	313	-456	0.8465548	1.267844	-12.16434	0	12.31	4003	0	0	5	5	0.02	0.3016678	1	15	0.04	1800	2.457644	40.9238	-91.39361
143748	-194	-839	236	0.1366953	1.190489	-12.15142	0	12.31	4004	0	0	5	5	0.02	0.3065984	1	15	0.04	1800	1.533018	40.9238	-91.39362
143796	-167	-636	-598	0.003445842	2.375701	-12.32063	0	12.31	4003	0	0	5	5	0.02	0.3095838	1	15	0.04	1800	2.194746	40.9238	-91.39362
143934	-22	-48	91	-0.09787393	2.318766	-12.25253	0	12.31	4004	0	0	5	5	0.02	0.3172056	1	15	0.04	1800	1.475841	40.92379	-91.39362
144043	1	15	7	-0.1671799	2.48522	-12.41168	0	12.31	4003	0	0	5	5	0.02	0.3232509	1	15	0.04	1800	1.920899	40.92379	-91.39362
144130	-2	-1	4	-0.166122	2.506724	-12.42409	0	12.31	4003	0	0	5	5	0.02	0.3336523	1	15	0.04	1800	1.909409	40.92378	-91.39362
144189	-10	3	9	-0.151177	2.51344	-12.42635	0	12.31	4003	0	0	5	5	0.02	0.3369204	1	15	0.04	1800	1.909409	40.92378	-91.39362
144271	-4	5	6	-0.1665828	2.533086	-12.43258	0	12.31	4002	0	0	5	5	0.02	0.3374869	1	15	0.04	1800	1.866222	40.92378	-91.39361
144356	-11	-1	4	-0.1616314	2.541702	-12.43839	0	12.31	4003	0	0	5	5	0.02	0.3306408	1	15	0.04	1800	1.881081	40.92378	-91.39361
144466	-5	1	12	-0.1591581	2.557117	-12.45557	0	12.31	4004	0	0	5	5	0.02	0.3269297	1	15	0.04	1800	1.871584	40.92379	-91.3936
144555	-5	-4	4	-0.167516	2.564455	-12.46682	0	12.31	4004	0	0	5	5	0.02	0.3274257	1	15	0.04	1800	1.411755	40.92379	-91.39359
144659	-10	3	8	-0.1637506	2.567577	-12.47862	0	12.31	4002	0	0	5	5	0.02	0.3384295	1	15	0.04	1800	1.876459	40.92379	-91.39359
144778	-13	-3	4	-0.1633036	2.576996	-12.48516	0	12.31	4002	0	0	5	5	0.02	0.3374341	1	15	0.04	1800	1.876459	40.9238	-91.39358
144929	-5	2	4	-0.1662791	2.594227	-12.50075	0	12.36	4003	0	0	5	5	0.02	0.3356193	1	15	0.04	1800	1.652055	40.9238	-91.39358
145076	-10	0	0	-0.1675013	2.603502	-12.51823	0	12.36	4003	0	0	5	5	0.02	0.3371536	1	15	0.04	1800	1.884406	40.92379	-91.39358
145257	-10	1	7	-0.1678656	2.609473	-12.53578	0	12.36	4004	0	0	5	5	0.02	0.336172	1	15	0.04	1800	1.882602	40.92378	-91.39359
145356	-9	-7	5	-0.1571251	2.611698	-12.5488	0	12.36	4003	0	0	5	5	0.02	0.3347225	1	15	0.04	1800	1.638938	40.92377	-91.3936
145542	-6	0	8	-0.1525999	2.615655	-12.568	0	12.36	4002	0	0	5	5	0.02	0.3351036	1	15	0.04	1800	1.859362	40.92375	-91.39362
145610	-5	-2	5	-0.1510417	2.614525	-12.57472	0	12.36	4003	0	0	5	5	0.02	0.3285734	1	15	0.04	1800	1.622108	40.92374	-91.39363
145685	-3	-2	1	-0.1508947	2.620602	-12.58151	0	12.36	4004	0	0	5	5	0.02	0.3259268	1	15	0.04	1800	1.853955	40.92374	-91.39363
145744	-3	1	6	-0.1417633	2.614918	-12.58799	0	12.31	4003	0	0	5	5	0.02	0.3282152	1	15	0.04	1800	1.835797	40.92373	-91.39363
146007	-6	0	14	-0.1542713	2.610608	-12.61409	0	12.31	4002	0	0	5	5	0.02	0.3343849	1	15	0.04	1800	1.866487	40.92371	-91.39362
146172	-10	0	0	-0.1529241	2.617793	-12.62687	0	12.31	4004	0	0	5	5	0.02	0.3208662	1	15	0.04	1800	1.853776	40.9237	-91.3936
146256	-11	-1	6	-0.1547348	2.627002	-12.63677	0	12.31	4003	0	0	5	5	0.02	0.3132432	1	15	0.04	1800	1.863265	40.92369	-91.39359
146373	-2	2	1	-0.1553058	2.632347	-12.64429	0	12.31	4004	0	0	5	5	0.02	0.3146921	1	15	0.04	1800	1.861415	40.92368	-91.39358
146555	-3	2	0	-0.1574583	2.633072	-12.66385	0	12.31	4003	0	0	5	5	0.02	0.3270018	1	15	0.04	1800	1.864386	40.92367	-91.39357
146626	-14	-4	9	-0.1620218	2.636288	-12.67088	0	12.31	4002	0	0	5	5	0.02	0.3258887	1	15	0.04	1800	1.864386	40.92367	-91.39356
146745	-6	-6	9	-0.1551974	2.630607	-12.6828	0	12.36	4004	0	0	5	5	0.02	0.3114588	1	15	0.04	1800	1.852174	40.92367	-91.39355
146781	-10	-1	3	-0.1519762	2.630154	-12.68646	0	12.36	4002	0	0	5	5	0.02	0.303939	1	15	0.04	1800	1.865552	40.92367	-91.39355
146927	-8	-6	5	-0.1450385	2.635661	-12.69912	0	12.36	4003	0	0	5	5	0.02	0.2813003	1	15	0.04	1800	1.846807	40.92368	-91.39354
147005	-9	-1	9	-0.1434239	2.637326	-12.70884	0	12.36	4004	0	0	5	5	0.02	0.2695236	1	15	0.04	1800	1.836485	40.92369	-91.39352
147182	-1	-6	2	-0.1406738	2.633523	-12.72003	0	12.36	4004	0	0	5	5	0.02	0.2678524	1	15	0.04	1800	1.845196	40.92371	-91.39351
147313	-3	-2	5	-0.1337066	2.627765	-12.73727	0	12.36	4010	0	0	5	5	0.02	0.2727203	1	15	0.04	1800	1.826514	40.92373	-91.3935
147381	-4	0	2	-0.1369023	2.629274	-12.7413	0	12.36	4002	0	0	5	5	0.02	0.2739308	1	15	0.04	1800	1.830158	40.92374	-91.3935
147443	-2	-1	7	-0.1365391	2.631495	-12.74497	0	12.36	4004	0	0	5	5	0.02	0.2727225	1	15	0.04	1800	1.830158	40.92375	-91.3935
147567	0	0	7	-0.1282412	2.624925	-12.75848	0	12.36	4004	0	0	5	5	0.02	0.2749295	1	15	0.04	1800	1.831634	40.92375	-91.39351
147707	-7	-4	6	-0.1298635	2.627836	-12.77388	0	12.36	4003	0	0	5	5	0.02	0.2698566	1	15	0.04	1800	1.594307	40.92377	-91.39353
147766	-9	0	6	-0.1363566	2.627249	-12.77846	0	12.36	4002	0	0	5	5	0.02	0.2697234	1	15	0.04	1800	1.829606	40.92377	-91.39354
147897	-4	-4	11	-0.1354738	2.627558	-12.78659	0	12.36	4004	0	0	5	5	0.02	0.2709745	1	15	0.04	1800	1.829023	40.92378	-91.39356
147995	-3	0	4	-0.1316155	2.635725	-12.79766	0	12.36	4004	0	0	5	5	0.02	0.2596042	1	15	0.04	1800	1.812018	40.92378	-91.39358
148074	-11	3	3	-0.1379538	2.63366	-12.80218	0	12.36	4004	0	0	5	5	0.02	0.252502	1	15	0.04	1800	1.824939	40.92378	-65.94675
148204	-7	4	7	-0.1386605	2.635244	-12.81814	0	12.36	4003	0	0	5	5	0.02	0.2469406	1	15	0.04	1800	1.831411	40.92378	-48.9822
148328	-6	0	3	-0.143202	2.630238	-12.82756	0	12.36	4003	0	0	5	5	0.02	0.2443077	1	15	0.04	1800	1.832459	40.92378	-48.9822
148447	-1	-5	6	-0.1388168	2.635237	-12.84431	0	12.31	4002	0	0	5	5	0.02	0.2353514	1	15	0.04	1800	1.833343	40.92377	-48.9822
148591	-6	-2	3	-0.1389066	2.634213	-12.85005	0	12.31	4002	0	0	5	5	0.02	0.2324419	1	15	0.04	1800	1.845502	40.92377	-48.98221
148746	2	-1	7	-0.1423151	2.636342	-12.86582	0	12.31	4004	0	0	5	5	0.02	0.2352789	1	15	0.04	1800	1.834761	40.92376	-74.42905
148867	-5	2	3	-0.1372726	2.637056	-12.87383	0	12.31	4004	0	0	5	5	0.02	0.2377375	1	15	0.04	1800	1.829975	40.92376	-91.39362
148901	-1	-4	4	-0.137639	2.637929	-12.87634	0	12.31	4002	0	0	5	5	0.02	0.2379792	1	15	0.04	1800	1.829975	40.92375	-91.39362
149070	-8	0	6	-0.139498	2.642188	-12.89291	0	12.31	4004	0	0	5	5	0.02	0.2430725	1	15	0.04	1800	1.837065	40.92375	-91.39363
149154	-2	0	7	-0.1462451	2.637028	-12.90654	0	12.31	4002	0	0	5	5	0.02	0.2457194	1	15	0.04	1800	1.842644	40.92374	-91.39363
149245	-8	-4	5	-0.1476353	2.641994	-12.91039	0	12.31	4002	0	0	5	5	0.02	0.2506739	1	15	0.04	1800	1.846746	40.92374	-91.39363
149344	-7	-3	5	-0.1560097	2.640235	-12.92097	0	12.31	4003	0	0	5	5	0.02	0.2548238	1	15	0.04	1800	1.857644	40.92373	-91.39363
149420	-10	-2	4	-0.1548092	2.639723	-12.92886	0	12.31	4003	0	0	5	5	0.02	0.2546483	1	15	0.04	1800	1.852091	40.92373	-91.39363
149479	-8	5	3	-0.1563488	2.639297	-12.93375	0	12.31	4004	0	0	5	5	0.02	0.2521171	1	15	0.04	1800	1.866162	40.92373	-91.39363
149615	-11	0	6	-0.1566362	2.64811	-12.94958	0	12.31	4003	0	0	5	5	0.02	0.2530773	1	15	0.04	1800	1.863266	40.92372	-91.39364
149648	-10	-2	7	-0.1564802	2.644896	-12.95196	0	12.31	4004	0	0	5	5	0.02	0.2549095	1	15	0.04	1800	1.861079	40.92372	-91.39364
149758	-4	-1	5	-0.1641055	2.643972	-12.96364	0	12.31	4003	0	0	5	5	0.02	0.261253	1	15	0.04	1800	1.870376	40.92371	-91.39364
149831	-3	-1	6	-0.1597745	2.64115	-12.97036	0	12.31	4004	0	0	5	5	0.02	0.2674312	1	15	0.04	1800	1.872971	40.92371	-91.39364
149984	-6	2	5	-0.1587281	2.633166	-12.98834	0	12.31	4003	0	0	5	5	0.02	0.284994	1	15	0.04	1800	1.864034	40.92371	-91.39364
150083	-9	-1	3	-0.1645412	2.634256	-12.99525	0	12.31	4003	0	0	5	5	0.02	0.2958993	1	15	0.04	1800	1.634518	40.92371	-91.39364
150145	-7	-1	6	-0.1655251	2.633687	-13.00527	0	12.31	4002	0	0	5	5	0.02	0.308454	1	15	0.04	1800	1.873662	40.92371	-91.39364
150230	-17	0	1	-0.161149	2.636496	-13.01469	0	12.31	4002	0	0	5	5	0.02	0.3144392	1	15	0.04	1800	1.872153	40.9237	-91.39364
150321	-5	-4	7	-0.1625525	2.634726	-13.0208	0	12.31	4004	0	0	5	5	0.02	0.3167416	1	15	0.04	1800	1.883763	40.9237	-91.39364
150424	-7	-5	8	-0.1655188	2.637197	-13.02985	0	12.31	4004	0	0	5	5	0.02	0.3188024	1	15	0.04	1800	1.871266	40.9237	-91.39364
150654	-10	-2	10	-0.1646108	2.63911	-13.05069	0	12.31	4002	0	0	5	5	0.02	0.3447958	1	15	0.04	1800	1.880482	40.92369	-91.39364
150732	-7	-1	6	-0.16644	2.635283	-13.05638	0	12.31	4004	0	0	5	5	0.02	0.3605892	1	15	0.04	1800	1.863249	40.92369	-91.39364
150907	-8	-4	6	-0.1593166	2.638634	-13.07491	0	12.31	4003	0	0	5	5	0.02	0.3971545	1	15	0.04	1800	1.869288	40.92369	-91.39364
151016	0	-2	4	-0.1576972	2.641146	-13.08469	0	12.31	4003	0	0	5	5	0.02	0.4267836	1	15	0.04	1800	1.864863	40.92369	-91.39364
151072	-5	-1	4	-0.1593303	2.639193	-13.08737	0	12.31	4003	0	0	5	5	0.02	0.4440489	1	15	0.04	1800	1.864131	40.92369	-91.39364
151267	-8	-4	1	-0.1557662	2.643856	-13.10308	0	12.31	4004	0	0	5	5	0.02	0.4615639	1	15	0.04	1800	1.862126	40.92369	-91.39363
151391	-7	1	1	-0.154087	2.643567	-13.11366	0	12.31	4004	0	0	5	5	0.02	0.472087	1	15	0.04	1800	1.857395	40.92368	-91.39363
151552	-9	2	6	-0.1588646	2.637418	-13.12662	0	12.31	4003	0	0	5	5	0.02	0.4896528	1	15	0.04	1800	1.632135	40.92368	-91.39363
151706	-7	0	0	-0.1520205	2.632526	-13.14306	0	12.31	4003	0	0	5	5	0.02	0.5018845	1	15	0.04	1800	1.857272	40.92368	-91.39363
151763	-13	-1	6	-0.1503208	2.630555	-13.15009	0	12.31	4003	0	0	5	5	0.02	0.5011958	1	15	0.04	1800	1.624949	40.92368	-91.39363
151909	-2	-5	2	-0.1535365	2.629552	-13.16208	0	12.31	4003	0	0	5	5	0.02	0.4992383	1	15	0.04	1800	1.841933	40.92368	-91.39363
152074	-12	-3	5	-0.1486069	2.635049	-13.18066	0	12.36	4002	0	0	5	5	0.02	0.4782358	1	15	0.04	1800	1.841222	40.92368	-91.39363
152259	-6	-2	8	-0.1453366	2.631969	-13.20114	0	12.36	4003	0	0	5	5	0.02	0.4602378	1	15	0.04	1800	1.835256	40.92367	-91.39363
152401	-11	-1	5	-0.1520045	2.623679	-13.21208	0	12.36	4002	0	0	5	5	0.02	0.4536198	1	15	0.04	1800	1.845787	40.92367	-91.39363
152520	-1	-3	6	-0.1501391	2.62475	-13.22461	0	12.36	4003	0	0	5	5	0.02	0.4524933	1	15	0.04	1800	1.852311	40.92367	-91.39363
152571	-12	-2	3	-0.1456792	2.622086	-13.22669	0	12.36	4004	0	0	5	5	0.02	0.4532265	1	15	0.04	1800	1.847977	40.92367	-91.39363
152702	-2	-1	2	-0.1394441	2.629791	-13.23892	0	12.36	4004	0	0	5	5	0.02	0.448263	1	15	0.04	1800	1.843303	40.92367	-91.39362
152734	-8	1	8	-0.1416618	2.622671	-13.24216	0	12.36	4004	0	0	5	5	0.02	0.4466258	1	15	0.04	1800	1.843303	40.92367	-91.39362
152826	-10	-4	2	-0.1410256	2.623991	-13.24833	0	12.36	4003	0	0	5	5	0.02	0.4431437	1	15	0.04	1800	1.845297	40.92367	-91.39362
152999	-9	0	9	-0.1300445	2.628189	-13.269	0	12.36	4004	0	0	5	5	0.02	0.4428088	1	15	0.04	1800	1.824369	40.92367	-91.39362
153055	-11	-3	7	-0.1337014	2.629521	-13.27181	0	12.36	4003	0	0	5	5	0.02	0.4413499	1	15	0.04	1800	1.821206	40.92367	-91.39362
153136	-8	6	7	-0.133779	2.630907	-13.27798	0	12.36	4004	0	0	5	5	0.02	0.4438996	1	15	0.04	1800	1.823014	40.92367	-91.39362
153217	0	1	5	-0.1343333	2.637901	-13.28746	0	12.36	4004	0	0	5	5	0.02	0.452507	1	15	0.04	1800	1.604289	40.92367	-91.39362
153378	-5	0	4	-0.1386536	2.641385	-13.30171	0	12.36	4003	0	0	5	5	0.02	0.4914291	1	15	0.04	1800	1.827372	40.92367	-91.39362
153541	-7	1	3	-0.1437042	2.640286	-13.31784	0	12.36	4004	0	0	5	5	0.02	0.5053215	1	15	0.04	1800	1.83484	40.92367	-91.39362
153706	-3	0	9	-0.1412676	2.638813	-13.33136	0	12.36	4003	0	0	5	5	0.02	0.5051511	1	15	0.04	1800	1.83063	40.92367	-91.39362
153859	-6	-2	5	-0.1529784	2.640668	-13.34511	0	12.31	4003	0	0	5	5	0.02	0.5031225	1	15	0.04	1800	1.619414	40.92367	-91.39362
154030	-1	3	4	-0.1555718	2.643792	-13.36633	0	12.31	4003	0	0	5	5	0.02	0.5069362	1	15	0.04	1800	1.629197	40.92368	-91.39362
154134	-6	1	12	-0.1550876	2.644417	-13.37598	0	12.31	4003	0	0	5	5	0.02	0.4985597	1	15	0.04	1800	1.852334	40.92368	-91.39362
154243	-8	-1	3	-0.1524932	2.646745	-13.38546	0	12.31	4003	0	0	5	5	0.02	0.4935188	1	15	0.04	1800	1.856551	40.92368	-91.39362
154306	-5	-1	1	-0.1520308	2.644805	-13.39194	0	12.31	4003	0	0	5	5	0.02	0.4913334	1	15	0.04	1800	1.616042	40.92368	-91.39362
154478	-7	0	11	-0.1499421	2.648027	-13.40716	0	12.31	4004	0	0	5	5	0.02	0.4898122	1	15	0.04	1800	1.851131	40.92368	-91.39362
154527	-1	-3	9	-0.1482832	2.645041	-13.41291	0	12.31	4002	0	0	5	5	0.02	0.4811478	1	15	0.04	1800	1.847967	40.92368	-91.39362
154708	-8	6	4	-0.1423127	2.640581	-13.43277	0	12.31	4004	0	0	5	5	0.02	0.4582468	1	15	0.04	1800	1.620893	40.92368	-91.39362
154929	-8	-1	10	-0.1286173	2.635769	-13.45533	0	12.31	4003	0	0	5	5	0.02	0.4399101	1	15	0.04	1800	1.831472	40.92367	-91.39362
155123	0	-2	11	-0.1413278	2.645033	-13.48559	0	12.31	4002	0	0	5	5	0.02	0.4378736	1	15	0.04	1800	1.83509	40.92367	-91.39362
155273	-7	-2	7	-0.1428255	2.641173	-13.49916	0	12.31	4002	0	0	5	5	0.02	0.4491423	1	15	0.04	1800	1.838141	40.92367	-91.39362
155371	-9	-2	9	-0.1457656	2.644014	-13.50644	0	12.31	4004	0	0	5	5	0.02	0.4587229	1	15	0.04	1800	1.847644	40.92367	-91.39362
155562	-6	-2	6	-0.1549007	2.638002	-13.52649	0	12.31	4004	0	0	5	5	0.02	0.4729066	1	15	0.04	1800	1.624823	40.92367	-91.39362
155653	-10	-4	1	-0.1560839	2.637575	-13.54116	0	12.31	4004	0	0	5	5	0.02	0.471257	1	15	0.04	1800	1.63016	40.92367	-91.39362
155766	-10	0	6	-0.1547741	2.634566	-13.5499	0	12.31	4003	0	0	5	5	0.02	0.475545	1	15	0.04	1800	1.858446	40.92367	-91.39362
155899	-10	-1	6	-0.1612519	2.626836	-13.56482	0	12.31	4002	0	0	5	5	0.02	0.4841163	1	15	0.04	1800	1.86845	40.92367	-91.39361
156093	-3	-6	5	-0.1566528	2.636242	-13.58224	0	12.31	4002	0	0	5	5	0.02	0.4846361	1	15	0.04	1800	1.861171	40.92368	-91.3936
156277	0	0	5	-0.1547132	2.633865	-13.59764	0	12.31	4003	0	0	5	5	0.02	0.471615	1	15	0.04	1800	1.865327	40.92369	-91.39359
156392	-10	2	4	-0.1525474	2.628291	-13.60448	0	12.31	4003	0	0	5	5	0.02	0.4664832	1	15	0.04	1800	1.615487	40.92369	-91.39359
156537	0	-10	7	-0.1438886	2.626372	-13.6153	0	12.31	4002	0	0	5	5	0.02	0.4575718	1	15	0.04	1800	1.617555	40.9237	-91.39358
156738	-6	3	6	-0.1455309	2.619864	-13.6326	0	12.31	4002	0	0	5	5	0.02	0.4446343	1	15	0.04	1800	1.835121	40.92371	-91.39358
156815	-4	-2	5	-0.1433318	2.627025	-13.64043	0	12.31	4004	0	0	5	5	0.02	0.4395825	1	15	0.04	1800	1.840039	40.92371	-91.39358
156843	-4	-2	5	-0.1433318	2.627025	-13.64043	0	12.31	4004	0	0	5	5	0.02	0.4373047	1	15	0.04	1800	1.840039	40.92371	-91.39358
157082	-8	-3	4	-0.1415731	2.627299	-13.66421	0	12.31	4003	0	0	5	5	0.02	0.4189631	1	15	0.04	1800	1.839609	40.9237	-91.39358
157203	-9	-2	7	-0.1456067	2.634801	-13.67674	0	12.31	4002	0	0	5	5	0.02	0.4108817	1	15	0.04	1800	1.839032	40.9237	-91.39358
157280	-4	-2	4	-0.1474304	2.634819	-13.68468	0	12.31	4002	0	0	5	5	0.02	0.411599	1	15	0.04	1800	1.843092	40.9237	-91.39358
157333	-6	3	9	-0.1449202	2.636642	-13.68805	0	12.31	4002	0	0	5	5	0.02	0.4107087	1	15	0.04	1800	1.839748	40.9237	-91.39358
157544	-3	-1	4	-0.1377236	2.639338	-13.70601	0	12.31	4004	0	0	5	5	0.02	0.4057432	1	15	0.04	1800	1.831678	40.92369	-91.39358
157719	-3	-1	4	-0.1337958	2.631168	-13.72074	0	12.31	4003	0	0	5	5	0.02	0.402102	1	15	0.04	1800	1.60185	40.92369	-91.39358
157859	-2	-4	4	-0.132944	2.630892	-13.72966	0	12.31	4003	0	0	5	5	0.02	0.4032055	1	15	0.04	1800	1.594948	40.92369	-91.39358
157986	-8	0	3	-0.1254728	2.632627	-13.73962	0	12.31	4003	0	0	5	5	0.02	0.4081708	1	15	0.04	1800	1.59168	40.92368	-91.39358
158258	-4	2	5	-0.1325912	2.622721	-13.76114	0	12.31	4003	0	0	5	5	0.02	0.4097086	1	15	0.04	1800	1.818738	40.92368	-91.39358
158463	-4	-2	6	-0.1371763	2.630067	-13.78174	0	12.31	4003	0	0	5	5	0.02	0.3996779	1	15	0.04	1800	1.830613	40.92368	-91.39358
158563	-1	0	7	-0.1362581	2.63	-13.78718	0	12.31	4002	0	0	5	5	0.02	0.3956431	1	15	0.04	1800	1.83933	40.92368	-91.39358
158642	-4	-8	1	-0.1284742	2.627682	-13.79384	0	12.31	4004	0	0	5	5	0.02	0.3989681	1	15	0.04	1800	1.584749	40.92369	-91.39358
158708	0	1	10	-0.1303551	2.6294	-13.7983	0	12.31	4002	0	0	5	5	0.02	0.4008402	1	15	0.04	1800	1.819533	40.92369	-91.39358
158837	-4	5	9	-0.1234791	2.624371	-13.80845	0	12.31	4003	0	0	5	5	0.02	0.4055951	1	15	0.04	1800	1.816464	40.92369	-91.39358
158899	-3	1	10	-0.1211063	2.628543	-13.81701	0	12.31	4004	0	0	5	5	0.02	0.4069183	1	15	0.04	1800	1.793208	40.92369	-91.39358
159040	-5	-3	2	-0.123861	2.628821	-13.82538	0	12.31	4002	0	0	5	5	0.02	0.4138122	1	15	0.04	1800	1.797991	40.92369	-91.39358
159167	-12	0	10	-0.1266014	2.629558	-13.83669	0	12.31	4002	0	0	5	5	0.02	0.4180448	1	15	0.04	1800	1.810565	40.92369	-91.39358
159355	-9	-7	2	-0.125974	2.630933	-13.85203	0	12.31	4002	0	0	5	5	0.02	0.4281516	1	15	0.04	1800	1.812294	40.92369	-91.39358
159538	-7	2	4	-0.1312805	2.626286	-13.87197	0	12.31	4004	0	0	5	5	0.02	0.4386001	1	15	0.04	1800	1.821347	40.92369	-91.39358
159698	-5	0	7	-0.1299573	2.632749	-13.8834	0	12.31	4002	0	0	5	5	0.02	0.4407814	1	15	0.04	1800	1.822192	40.9237	-91.39358
159733	-8	-2	10	-0.1296268	2.635382	-13.8922	0	12.31	4003	0	0	5	5	0.02	0.4416358	1	15	0.04	1800	1.818192	40.9237	-91.39358
159859	-8	3	3	-0.1299544	2.638856	-13.901	0	12.31	4003	0	0	5	5	0.02	0.4383899	1	15	0.04	1800	1.58831	40.9237	-91.39358
159944	-6	3	7	-0.1318395	2.639103	-13.91054	0	12.31	4003	0	0	5	5	0.02	0.4341066	1	15	0.04	1800	1.817218	40.9237	-91.39358
160024	-10	-3	10	-0.1288082	2.635259	-13.9158	0	12.31	4003	0	0	5	5	0.02	0.4322371	1	15	0.04	1800	1.825835	40.9237	-91.39358
160239	-8	-5	8	-0.1377798	2.639199	-13.93396	0	12.31	4002	0	0	5	5	0.02	0.4356593	1	15	0.04	1800	1.590792	40.9237	-91.39358
160350	-10	-5	8	-0.1478301	2.639055	-13.94704	0	12.31	4003	0	0	5	5	0.02	0.4305844	1	15	0.04	1800	1.623129	40.9237	-91.39358
160478	-7	-4	3	-0.1655618	2.644293	-13.95945	0	12.31	4003	0	0	5	5	0.02	0.4369545	1	15	0.04	1800	1.872595	40.9237	-91.39358
160521	-15	-1	10	-0.1674249	2.643586	-13.96312	0	12.31	4003	0	0	5	5	0.02	0.4368217	1	15	0.04	1800	1.872595	40.9237	-91.39358
160631	-9	0	-1	-0.1756467	2.646897	-13.9699	0	12.31	4002	0	0	5	5	0.02	0.4357856	1	15	0.04	1800	1.660227	40.9237	-91.39359
160816	-13	0	6	-0.1901711	2.650881	-13.98555	0	12.31	4002	0	0	5	5	0.02	0.4400594	1	15	0.04	1800	1.909945	40.9237	-91.39359
160895	-14	-3	6	-0.1969016	2.651486	-14.00218	0	12.31	4004	0	0	5	5	0.02	0.4383427	1	15	0.04	1800	1.922258	40.9237	-91.39359
160953	-5	5	9	-0.195722	2.649887	-14.00518	0	12.31	4003	0	0	5	5	0.02	0.4352869	1	15	0.04	1800	1.930167	40.9237	-91.39359
161131	-23	-1	9	-0.2073195	2.660054	-14.02859	0	12.31	4003	0	0	5	5	0.02	0.4314021	1	15	0.04	1800	1.927837	40.9237	-91.39359
161253	-13	1	9	-0.2175609	2.657939	-14.04271	0	12.31	4003	0	0	5	5	0.02	0.4322366	1	15	0.04	1800	1.956897	40.92369	-91.39359
161394	-13	-2	2	-0.213556	2.659877	-14.0569	0	12.31	4002	0	0	5	5	0.02	0.4197093	1	15	0.04	1800	1.95652	40.92369	-91.39359
161541	-15	-2	10	-0.219696	2.665349	-14.07028	0	12.31	4004	0	0	5	5	0.02	0.4120128	1	15	0.04	1800	1.720277	40.92369	-91.39359
161606	-10	0	6	-0.220494	2.667571	-14.08068	0	12.31	4002	0	0	5	5	0.02	0.408014	1	15	0.04	1800	1.967085	40.92369	-91.39359
161754	-16	2	-2	-0.2241513	2.672582	-14.09462	0	12.31	4004	0	0	5	5	0.02	0.4073102	1	15	0.04	1800	1.970217	40.92369	-91.39359
161834	-19	3	5	-0.2283977	2.678603	-14.10415	0	12.31	4003	0	0	5	5	0.02	0.4153916	1	15	0.04	1800	1.975983	40.92369	-91.39359
161882	-17	-1	7	-0.2283789	2.67539	-14.108	0	12.31	4004	0	0	5	5	0.02	0.417847	1	15	0.04	1800	1.975983	40.92369	-91.39359
162076	-13	1	3	-0.2401127	2.67535	-14.12298	0	12.31	4002	0	0	5	5	0.02	0.4364482	1	15	0.04	1800	1.983539	40.92369	-91.39359
162161	-16	-2	7	-0.2455033	2.685434	-14.13766	0	12.31	4004	0	0	5	5	0.02	0.4401954	1	15	0.04	1800	1.997454	40.92369	-91.39359
162241	-24	-1	7	-0.2502392	2.681331	-14.14524	0	12.31	4002	0	0	5	5	0.02	0.4455974	1	15	0.04	1800	2.004474	40.92369	-91.39359
162415	-21	0	3	-0.2582999	2.680511	-14.16425	0	12.31	4003	0	0	5	5	0.02	0.4531126	1	15	0.04	1800	2.013324	40.92369	-91.39359
162555	-15	5	7	-0.2657899	2.680174	-14.18235	0	12.31	4004	0	0	5	5	0.02	0.4618783	1	15	0.04	1800	2.039189	40.92369	-91.39359
162621	-20	0	6	-0.2689764	2.676447	-14.19116	0	12.31	4003	0	0	5	5	0.02	0.4718669	1	15	0.04	1800	2.035321	40.92369	-91.39359
162708	-21	0	13	-0.277407	2.686086	-14.20668	0	12.31	4005	0	0	5	5	0.02	0.4725573	1	15	0.04	1800	2.049963	40.92369	-91.39359
162758	-16	2	7	-0.2807181	2.686283	-14.22081	0	12.31	4004	0	0	5	5	0.02	0.4610935	1	15	0.04	1800	2.057188	40.92369	-91.39359
162841	-25	0	11	-0.2861612	2.689249	-14.2298	0	12.31	4003	0	0	5	5	0.02	0.4600058	1	15	0.04	1800	2.073773	40.92369	-91.3936
162919	-16	-1	2	-0.2882318	2.689949	-14.24251	0	12.31	4004	0	0	5	5	0.02	0.4579715	1	15	0.04	1800	2.083943	40.92369	-91.3936
163104	-19	0	5	-0.3094322	2.687989	-14.26581	0	12.31	4004	0	0	5	5	0.02	0.4690455	1	15	0.04	1800	2.099235	40.92369	-91.3936
163187	-15	1	7	-0.3086728	2.688407	-14.27969	0	12.31	4004	0	0	5	5	0.02	0.4742144	1	15	0.04	1800	2.103938	40.92369	-91.3936
163274	-18	4	7	-0.3113337	2.686229	-14.29124	0	12.31	4003	0	0	5	5	0.02	0.4748381	1	15	0.04	1800	2.103685	40.92369	-91.3936
163345	-20	-4	6	-0.3174977	2.691211	-14.30579	0	12.31	4004	0	0	5	5	0.02	0.4742988	1	15	0.04	1800	2.12845	40.92369	-91.39361
163462	-23	2	5	-0.3132602	2.68786	-14.31973	0	12.31	4003	0	0	5	5	0.02	0.4819648	1	15	0.04	1800	2.114852	40.92368	-91.39362
163499	-16	0	8	-0.3140418	2.689193	-14.32963	0	12.31	4004	0	0	5	5	0.02	0.4830077	1	15	0.04	1800	2.113692	40.92368	-91.39362
163574	-19	1	7	-0.3181242	2.691394	-14.33795	0	12.31	4004	0	0	5	5	0.02	0.4895895	1	15	0.04	1800	2.119645	40.92368	-91.39362
163721	-25	0	6	-0.315235	2.683749	-14.35647	0	12.31	4002	0	0	5	5	0.02	0.5022765	1	15	0.04	1800	1.889391	40.92368	-91.39362
163838	-20	-1	9	-0.309818	2.678241	-14.37506	0	12.31	4003	0	0	5	5	0.02	0.5076222	1	15	0.04	1800	2.106961	40.92367	-91.39362
163888	-15	-8	6	-0.3056461	2.67162	-14.38313	0	12.31	4003	0	0	5	5	0.02	0.5071018	1	15	0.04	1800	2.105981	40.92367	-91.39362
163965	-15	3	12	-0.303599	2.670205	-14.39285	0	12.31	4003	0	0	5	5	0.02	0.5058327	1	15	0.04	1800	2.094002	40.92367	-91.39362
164088	-18	-4	5	-0.2992874	2.672292	-14.41254	0	12.31	4003	0	0	5	5	0.02	0.507206	1	15	0.04	1800	2.089658	40.92367	-91.39362
164195	-17	-3	6	-0.3026977	2.669828	-14.42537	0	12.31	4003	0	0	5	5	0.02	0.5026688	1	15	0.04	1800	2.094635	40.92366	-91.39362
164365	-25	2	7	-0.2970231	2.670636	-14.44555	0	12.31	4004	0	0	5	5	0.02	0.5002659	1	15	0.04	1800	2.08148	40.92366	-91.39362
164499	-17	0	8	-0.2877775	2.669208	-14.46903	0	12.36	4002	0	0	5	5	0.02	0.4970703	1	15	0.04	1800	1.844094	40.92365	-91.39361
164702	-16	0	8	-0.2872636	2.675817	-14.49202	0	12.36	4002	0	0	5	5	0.02	0.5055776	1	15	0.04	1800	2.075767	40.92365	-91.39361
164775	-17	3	8	-0.2781324	2.675147	-14.50712	0	12.36	4003	0	0	5	5	0.02	0.5047938	1	15	0.04	1800	1.820441	40.92365	-91.39361
164894	-15	-10	11	-0.2760498	2.676064	-14.51769	0	12.36	4003	0	0	5	5	0.02	0.5005882	1	15	0.04	1800	2.051805	40.92365	-91.39361
164989	-15	-1	3	-0.2798497	2.67958	-14.53487	0	12.36	4003	0	0	5	5	0.02	0.4955568	1	15	0.04	1800	2.055526	40.92365	-91.39362
165091	-14	-1	0	-0.2795596	2.678616	-14.54783	0	12.36	4003	0	0	5	5	0.02	0.4837725	1	15	0.04	1800	1.828077	40.92365	-91.39362
165173	-14	-2	7	-0.2814517	2.675408	-14.55548	0	12.36	4003	0	0	5	5	0.02	0.4763979	1	15	0.04	1800	1.830714	40.92365	-91.39362
165295	-22	0	7	-0.2861561	2.674265	-14.57076	0	12.36	4003	0	0	5	5	0.02	0.4499045	1	15	0.04	1800	2.06335	40.92366	-91.39362
165343	-14	-4	10	-0.2854072	2.676375	-14.57785	0	12.36	4003	0	0	5	5	0.02	0.4466712	1	15	0.04	1800	2.059801	40.92366	-91.39362
165567	-21	-3	3	-0.2926657	2.680619	-14.60335	0	12.36	4002	0	0	5	5	0.02	0.4175611	1	15	0.04	1800	2.083071	40.92366	-91.39361
165745	-22	-4	10	-0.3062146	2.686759	-14.62842	0	12.36	4002	0	0	5	5	0.02	0.4009748	1	15	0.04	1800	2.091605	40.92366	-91.3936
165974	-21	-1	5	-0.3220058	2.709703	-14.66229	0	12.36	4003	0	0	5	5	0.02	0.3878916	1	15	0.04	1800	1.892156	40.92367	-91.39359
166161	-21	-2	2	-0.3280035	2.702106	-14.67856	0	12.36	4002	0	0	5	5	0.02	0.386824	1	15	0.04	1800	2.140244	40.92367	-91.39359
166352	-16	6	5	-0.3358654	2.70005	-14.70613	0	12.31	4003	0	0	5	5	0.02	0.3814161	1	15	0.04	1800	2.157447	40.92367	-91.39359
166512	-23	0	6	-0.3449579	2.69821	-14.72514	0	12.31	4004	0	0	5	5	0.02	0.3849901	1	15	0.04	1800	2.159601	40.92367	-91.39359
166715	-18	-3	13	-0.3499221	2.701438	-14.75272	0	12.31	4004	0	0	5	5	0.02	0.4015993	1	15	0.04	1800	2.172912	40.92367	-91.39359
166855	-19	0	10	-0.3451719	2.710459	-14.77583	0	12.31	4004	0	0	5	5	0.02	0.4148911	1	15	0.04	1800	1.934198	40.92367	-91.39359
166905	-24	5	10	-0.3472505	2.710601	-14.7853	0	12.31	4003	0	0	5	5	0.02	0.4245763	1	15	0.04	1800	2.161873	40.92367	-91.39359
167032	-21	-1	9	-0.3491615	2.702011	-14.8037	0	12.31	4002	0	0	5	5	0.02	0.4360077	1	15	0.04	1800	2.172625	40.92367	-91.39359
167097	-25	-3	10	-0.3523834	2.70352	-14.81226	0	12.31	4003	0	0	5	5	0.02	0.4420933	1	15	0.04	1800	2.163738	40.92367	-91.39359
167280	-21	-4	11	-0.3517681	2.699826	-14.83238	0	12.31	4004	0	0	5	5	0.02	0.4552816	1	15	0.04	1800	2.172097	40.92366	-91.39359
167420	-22	2	11	-0.3491895	2.704709	-14.85189	0	12.31	4002	0	0	5	5	0.02	0.4606892	1	15	0.04	1800	2.163574	40.92366	-91.39359
167533	-19	-4	3	-0.347431	2.698269	-14.87181	0	12.31	4002	0	0	5	5	0.02	0.4697568	1	15	0.04	1800	2.164958	40.92365	-91.39358
167555	-19	-4	3	-0.347431	2.698269	-14.87181	0	12.31	4002	0	0	5	5	0.02	0.4704475	1	15	0.04	1800	2.164958	40.92365	-91.39358
167715	-25	-3	8	-0.3501212	2.697631	-14.88973	0	12.31	4003	0	0	5	5	0.02	0.4717603	1	15	0.04	1800	2.170449	40.92365	-91.39358
167851	-25	-2	7	-0.3519724	2.69681	-14.91449	0	12.31	4004	0	0	5	5	0.02	0.4934404	1	15	0.04	1800	2.175873	40.92365	-91.39358
167946	-20	0	6	-0.3506221	2.691792	-14.92739	0	12.31	4003	0	0	5	5	0.02	0.5045383	1	15	0.04	1800	1.944004	40.92365	-91.39358
168166	-19	-3	6	-0.3464297	2.685433	-14.95777	0	12.31	4003	0	0	5	5	0.02	0.5206909	1	15	0.04	1800	2.165979	40.92364	-91.39358
168312	-18	-1	9	-0.3459113	2.677196	-14.97471	0	12.31	4002	0	0	5	5	0.02	0.5339059	1	15	0.04	1800	2.176216	40.92364	-91.39358
168481	-19	-3	14	-0.3383743	2.673175	-15.0046	0	12.31	4004	0	0	5	5	0.02	0.5353121	1	15	0.04	1800	1.923884	40.92364	-91.39358
168570	-14	3	5	-0.3393957	2.680503	-15.01475	0	12.31	4003	0	0	5	5	0.02	0.5325409	1	15	0.04	1800	1.918005	40.92364	-91.39358
168671	-21	3	6	-0.3371341	2.672682	-15.02845	0	12.31	4004	0	0	5	5	0.02	0.533477	1	15	0.04	1800	2.160682	40.92364	-91.39358
168856	-20	4	4	-0.3273911	2.6759	-15.04941	0	12.31	4003	0	0	5	5	0.02	0.549359	1	15	0.04	1800	2.122799	40.92364	-91.39358
168997	-19	5	7	-0.3222742	2.674634	-15.07008	0	12.31	4002	0	0	5	5	0.02	0.5482789	1	15	0.04	1800	2.138913	40.92364	-91.39358
169209	-20	0	7	-0.3165011	2.665693	-15.09264	0	12.31	4002	0	0	5	5	0.02	0.5496114	1	15	0.04	1800	2.128779	40.92364	-91.39358
169324	-22	4	5	-0.3203823	2.664956	-15.10395	0	12.31	4003	0	0	5	5	0.02	0.5465313	1	15	0.04	1800	2.133661	40.92364	-91.39358
169357	-15	0	5	-0.3182269	2.663656	-15.10823	0	12.31	4004	0	0	5	5	0.02	0.5479767	1	15	0.04	1800	1.901132	40.92364	-91.39358
169475	-26	0	14	-0.3288026	2.668387	-15.13305	0	12.31	4003	0	0	5	5	0.02	0.5509039	1	15	0.04	1800	2.145265	40.92364	-91.39358
169556	-21	-5	8	-0.3258859	2.672954	-15.13996	0	12.31	4003	0	0	5	5	0.02	0.5529836	1	15	0.04	1800	1.90026	40.92364	-91.39358
