time(ms)	gyro_x(deg/s)	gyro_y(deg/s)	gyro_z(deg/s)	orientation_roll(deg)	orientation_pitch(deg)	orientation_yaw(deg)	throttle	battery(V)	loop_time(uS)	pid_output_roll	pid_output_pitch	pid_output_yaw	pid_output_throttle	ultrasonic_alt	baro_alt	flight_mode	p_gain_altitude	i_gain_altitude	d_gain_altitude	compass_heading	latitude	longitude
758800	-2595	-2365	-1685	-0.2404598	-2.394954	0.3675422	0	10.49	4003	0	0	5	5	0.2685689	1.235582	8	9	0.04	1800	-93.35776	40.92374	-91.39366
758946	-707	-3167	-1745	0.1392837	-0.8501294	3.453253	0	9.3	4003	0	0	5	5	0.2685689	1.19556	8	9	0.04	1800	258.1437	40.92374	-91.39367
759007	2237	3633	-1164	3.011281	-3.323788	4.321013	0	9.3	4004	0	0	5	5	0.2685689	1.18872	8	9	0.04	1800	-97.2157	40.92375	-91.39367
759113	1726	385	1108	5.940461	-6.200298	5.309582	0	9.3	4003	0	0	5	5	0.2685689	1.180443	8	9	0.04	1800	-97.48959	40.92375	-91.39367
759146	1726	385	1108	7.10313	-6.894939	4.562769	0	9.3	4003	0	0	5	5	0.2685689	1.180909	8	9	0.04	1800	-97.48959	40.92375	-91.39367
759329	1672	1352	1255	2.119167	0.04701625	-1.341027	0	9.3	4004	0	0	5	5	0.2685689	1.195485	8	9	0.04	1800	-88.2001	40.92375	-91.39367
759425	1472	1427	-152	4.221083	-2.180725	-2.090942	0	9.3	4004	0	0	5	5	0.2685689	1.21077	8	9	0.04	1800	-84.58072	40.92375	-91.39368
759494	-1728	1514	454	3.062254	-3.005733	-0.499865	0	9.3	4003	0	0	5	5	0.2685689	1.231269	8	9	0.04	1800	-82.95132	40.92375	-91.39368
759568	-1522	-2558	-2839	-0.9887628	-1.502213	2.405762	0	9.3	4003	0	0	5	5	0.2685689	1.247194	8	9	0.04	1800	-89.17273	40.92375	-91.39368
759664	-1721	159	-5	-1.548166	-0.1997842	3.429787	0	9.3	4002	0	0	5	5	0.2685689	1.265912	8	9	0.04	1800	-91.69913	40.92375	-91.39368
759744	4017	3482	2578	2.745883	-2.558837	1.256384	0	9.3	4003	0	0	5	5	0.2685689	1.302262	8	9	0.04	1800	-84.70093	40.92375	-91.39368
759984	422	-1103	-610	11.28964	-3.914954	-0.8368497	0	10.21	4003	0	0	5	5	0.2685689	1.381679	8	9	0.04	1800	-77.93555	40.92375	-91.39368
760081	1180	1443	-428	13.78098	-5.616594	-0.3050347	0	10.21	4002	0	0	5	5	0.2685689	1.411626	8	9	0.04	1800	-83.25211	40.92375	-91.39368
760158	2891	5026	-1204	15.33078	-9.759457	1.602888	0	10.21	4003	0	0	5	5	0.2685689	1.459365	8	9	0.04	1800	-79.59634	40.92375	-91.39368
760271	-1941	-1344	1023	13.52697	-10.52129	3.045769	0	10.21	4004	0	0	5	5	0.2685689	1.525503	8	9	0.04	1800	-62.06439	40.92375	-91.39368
760445	-1511	-1584	1701	6.320668	0.6703605	-0.5960003	0	10.21	4003	0	0	5	5	0.2685689	1.610361	8	9	0.04	1800	-64.87943	40.92375	-91.39368
760518	-1192	-766	-604	5.696954	0.04081346	-1.477184	0	10.21	4003	0	0	5	5	0.2685689	1.63444	8	9	0.04	1800	-71.54504	40.92375	-91.39368
760707	-4084	-738	-1617	-3.682507	-1.150549	3.307233	0	10.21	4003	0	0	5	5	0.2685689	1.760443	8	9	0.04	1800	-80.43683	40.92374	-91.39368
760896	1260	-1451	2316	-9.1629	0.8786091	-1.194161	0	10.89	4004	0	0	5	5	0.2685689	1.848366	8	9	0.04	1800	-78.56549	40.92374	-91.39368
761099	-1005	-1676	-2917	-4.564705	-0.4102913	-0.7834831	0	10.89	4002	0	0	5	5	0.2685689	1.955508	8	9	0.04	1800	-85.96094	40.92374	-91.39368
761208	-2113	-956	-831	-6.154892	5.399589	1.852837	0	10.89	4003	0	0	5	5	0.2685689	2.001748	8	9	0.04	1800	256.2754	40.92373	-91.39368
761290	-408	1469	1877	-7.053714	5.986837	1.275548	0	10.89	4004	0	0	5	5	0.2685689	2.040871	8	9	0.04	1800	-97.77142	40.92373	-91.39368
761364	2034	-315	-76	-5.580182	4.708308	0.3734419	0	10.89	4004	0	0	5	5	0.2685689	2.068954	8	9	0.04	1800	-99.29028	40.92373	-91.39368
761543	328	732	-775	0.5690302	-1.207762	1.407413	0	10.89	4003	0	0	5	5	0.2685689	2.113995	8	9	0.04	1800	253.0511	40.92373	-91.39367
761646	234	1342	1513	1.715877	-3.534798	1.417467	0	10.89	4003	0	0	5	5	0.2685689	2.127898	8	9	0.04	1800	251.6007	40.92373	-91.39367
761842	-1894	1078	-519	0.7606556	-3.057329	1.477589	0	10.32	4003	0	0	5	5	0.2685689	2.113037	8	9	0.04	1800	242.898	40.92373	-91.39367
762045	-196	-1272	-347	0.9003941	-0.1449399	-2.050515	0	10.32	4002	0	0	5	5	0.2685689	2.084978	8	9	0.04	1800	254.2749	40.92373	-91.39366
762213	1407	3707	-958	0.8505723	-2.323741	-0.8216211	0	10.32	4003	0	0	5	5	0.2685689	2.051368	8	9	0.04	1800	253.6042	40.92372	-91.39366
762253	1498	2434	-1471	1.512488	-3.948054	-0.03526237	0	10.32	4004	0	0	5	5	0.2685689	2.03715	8	9	0.04	1800	253.6042	40.92372	-91.39366
762393	-462	209	1107	0.5359564	-1.057997	0.1273431	0	10.32	4003	0	0	5	5	0.2685689	2.008914	8	9	0.04	1800	256.9151	40.92372	-91.39366
762532	567	-617	-932	-1.357937	-0.9345465	-0.8713629	0	10.32	4004	0	0	5	5	0.2685689	1.963966	8	9	0.04	1800	254.3604	40.92372	-91.39366
762559	567	-617	-932	-1.357937	-0.9345465	-0.8713629	0	10.32	4004	0	0	5	5	0.2685689	1.955452	8	9	0.04	1800	254.3604	40.92372	-91.39365
762648	-1356	52	468	-0.6261529	0.6201385	-0.6178326	0	10.72	4004	0	0	5	5	0.2685689	1.913822	8	9	0.04	1800	254.4451	40.92372	-91.39365
762783	-332	-495	-1142	-1.953992	-0.808828	-1.041058	0	10.72	4003	0	0	5	5	0.2685689	1.84941	8	9	0.04	1800	251.2527	40.92372	-91.39365
762945	-646	-2488	-1190	-0.671156	-0.3700635	-0.9433408	0	10.72	4008	0	0	5	5	0.2685689	1.78643	8	9	0.04	1800	251.6577	40.92372	-91.39365
762978	1042	537	-1190	-0.671156	-0.3700635	-0.9433408	0	10.72	4008	0	0	5	5	0.2685689	1.779145	8	9	0.04	1800	251.6577	40.92372	-91.39365
763056	-785	-1101	-798	1.111835	1.137914	-0.370509	0	10.72	4003	0	0	5	5	0.2685689	1.760991	8	9	0.04	1800	251.8766	40.92372	-91.39365
763163	3377	4614	120	0.9479502	-2.515512	-0.3184113	0	10.72	4003	0	0	5	5	0.2685689	1.740335	8	9	0.04	1800	253.173	40.92372	-91.39365
763280	1053	3087	-347	4.158299	-6.820536	1.084586	0	10.72	4002	0	0	5	5	0.2685689	1.736617	8	9	0.04	1800	254.1201	40.92372	-91.39365
763461	-1130	-2992	-676	4.595162	-4.311842	0.2045909	0	10.72	4003	0	0	5	5	0.2685689	1.724179	8	9	0.04	1800	249.2577	40.92372	-91.39365
763583	-951	-623	1686	2.582515	-2.795875	0.5554294	0	10.6	4004	0	0	5	5	0.2685689	1.716703	8	9	0.04	1800	254.1821	40.92372	-91.39365
763664	-83	-1665	138	1.000913	-2.499879	-0.9871988	0	10.6	4004	0	0	5	5	0.2685689	1.71478	8	9	0.04	1800	256.9718	40.92372	-91.39365
763778	-729	-1193	3	1.951347	-1.800737	-1.250234	0	10.6	4002	0	0	5	5	0.2685689	1.72187	8	9	0.04	1800	256.7485	40.92372	-91.39365
763840	-1073	-1515	-613	0.005962058	-1.602911	-1.237987	0	10.6	4003	0	0	5	5	0.2685689	1.727357	8	9	0.04	1800	254.3303	40.92372	-91.39365
763951	32	-1630	-1465	0.2230092	-0.6413957	0.2830558	0	10.6	4003	0	0	5	5	0.2685689	1.744472	8	9	0.04	1800	246.8082	40.92372	-91.39365
764079	-2018	2706	1548	-3.660807	0.3031009	0.9023839	0	10.6	4004	0	0	5	5	0.2685689	1.766743	8	9	0.04	1800	243.5607	40.92372	-91.39365
764207	2310	1081	-412	-1.192091	-5.937422	-0.881802	0	10.6	4003	0	0	5	5	0.2685689	1.793991	8	9	0.04	1800	247.6149	40.92372	-91.39365
764231	973	669	-644	-0.6430463	-5.977903	-0.7828293	0	10.6	4002	0	0	5	5	0.2685689	1.793991	8	9	0.04	1800	248.5159	40.92372	-91.39365
764377	-353	-2867	-1990	-0.5333356	-5.023176	0.6813989	0	10.6	4002	0	0	5	5	0.2685689	1.819358	8	9	0.04	1800	248.096	40.92373	-91.39366
764509	1094	861	-265	1.487312	-3.346643	-0.3584923	0	10.43	4002	0	0	5	5	0.2685689	1.831341	8	9	0.04	1800	248.2657	40.92373	-91.39366
764540	784	871	-108	2.075875	-3.894306	-0.5135494	0	10.43	4004	0	0	5	5	0.2685689	1.832694	3	9	0.04	1800	248.2657	40.92373	-91.39366
764650	-366	-936	1462	2.736981	-4.062706	-0.7490435	0	10.43	4002	0	0	5	5	0.2685689	1.840937	3	9	0.04	1800	252.841	40.92373	-91.39366
764751	-603	-1729	407	2.516222	-2.299854	-0.9638761	0	10.43	4002	0	0	5	5	0.2685689	1.841465	3	9	0.04	1800	251.7561	40.92373	-91.39366
764905	-167	1790	72	0.3812464	-0.1578592	-1.822484	0	10.43	4003	0	0	5	5	0.2685689	1.816171	3	9	0.04	1800	249.9042	40.92373	-91.39366
765024	-232	2937	-203	0.07662631	-4.123692	-1.922696	0	10.43	4004	0	0	5	5	0.2685689	1.776104	3	9	0.04	1800	255.8627	40.92373	-91.39366
765154	-449	2053	-1282	0.8591102	-11.61058	-1.371367	0	10.43	4004	0	0	5	5	0.2685689	1.738624	3	9	0.04	1800	259.0735	40.92373	-91.39367
765362	-1317	-1082	-89	3.608627	-11.10832	-2.132759	0	9.58	4004	0	0	5	5	0.2685689	1.62048	3	9	0.04	1800	-86.87177	40.92373	-91.39367
765448	3409	-1614	-1345	1.337104	-5.256292	-0.9865413	0	9.58	4002	0	0	5	5	0.2685689	1.547806	3	9	0.04	1800	-84.24023	40.92373	-91.39367
765542	-767	-357	-646	5.65709	-2.481685	0.9864159	0	9.58	4002	0	0	5	5	0.2685689	1.490881	3	9	0.04	1800	-84.30701	40.92373	-91.39367
765594	-3250	-3877	-2084	1.689738	0.9105403	2.229504	0	9.58	4003	0	0	5	5	0.2685689	1.465067	3	9	0.04	1800	-87.04526	40.92373	-91.39367
765659	-602	142	-71	-1.851192	2.0869	1.841763	0	9.58	4003	0	0	5	5	0.2685689	1.435263	3	9	0.04	1800	-88.0802	40.92373	-91.39368
765745	171	-2504	2468	0.7389534	4.27572	0.3155981	0	9.58	4002	0	0	5	5	0.2685689	1.400931	3	9	0.04	1800	-91.22192	40.92373	-91.39368
765837	1334	-1886	1326	2.039834	7.295826	-0.2142335	0	9.58	4004	0	0	5	5	0.2685689	1.372117	3	9	0.04	1800	-89.93875	40.92373	-91.39368
766051	4706	-159	-833	6.026852	8.599405	-1.415285	0	9.58	4004	0	0	5	5	0.2685689	1.338811	3	9	0.04	1800	-85.90851	40.92373	-91.39368
766128	1236	3487	110	7.580399	5.18385	-0.5981708	0	9.58	4004	0	0	5	5	0.2685689	1.334218	3	9	0.04	1800	-88.46851	40.92373	-91.39368
766186	1332	-1221	-495	8.97797	5.50318	0.8237963	0	9.58	4002	0	0	5	5	0.2685689	1.327499	3	9	0.04	1800	-91.87476	40.92373	-91.39368
766377	2190	885	1482	3.424919	8.763804	-0.8987368	0	10.04	4002	0	0	5	5	0.2685689	1.30971	3	9	0.04	1800	-92.13184	40.92373	-91.39368
766595	-237	2227	-181	2.549486	5.898538	-2.562002	0	10.04	4004	0	0	5	5	0.2685689	1.285683	3	9	0.04	1800	-96.96191	40.92373	-91.39368
766700	-1347	-903	-460	2.028296	3.939017	-0.8913581	0	10.04	4003	0	0	5	5	0.2685689	1.267176	3	9	0.04	1800	-98.16577	40.92373	-91.39368
766860	1226	3122	-628	1.852834	0.6449377	0.2019859	0	10.04	4003	0	0	5	5	0.2685689	1.235998	3	9	0.04	1800	253.0574	40.92373	-91.39368
767039	-5342	-3737	1289	-3.42424	-2.756952	-0.2213788	0	10.04	4003	0	0	5	5	0.2685689	1.199626	3	9	0.04	1800	-99.39786	40.92373	-91.39368
767184	-2200	3146	815	-6.487047	-4.759553	-0.3979142	0	9.24	4002	0	0	5	5	0.2685689	1.173315	3	9	0.04	1800	-97.75607	40.92373	-91.39368
767267	-2263	-22	521	-7.700679	-5.210526	-0.1464247	0	9.24	4004	0	0	5	5	0.2685689	1.160554	3	9	0.04	1800	-97.75607	40.92373	-91.39368
767323	-3103	-2102	94	-11.51603	-2.758793	-0.7228584	0	9.24	4003	0	0	5	5	0.2685689	1.157403	3	9	0.04	1800	-95.12463	40.92373	-91.39368
767470	-1644	-361	384	-12.35244	-1.601743	-1.160684	0	9.24	4002	0	0	5	5	0.2685689	1.136391	3	9	0.04	1800	-92.9028	40.92373	-91.39368
767622	537	-2751	-287	-1.432295	-10.06673	0.0546171	0	9.24	4003	0	0	5	5	0.2685689	1.107636	3	9	0.04	1800	-92.36194	40.92373	-91.39368
767734	4717	1888	292	5.300539	-7.611438	0.01240622	0	9.24	4003	0	0	5	5	0.2685689	1.074779	3	9	0.04	1800	-90.95602	40.92373	-91.39368
767818	5175	2978	-990	7.001603	-8.572611	0.001851711	0	9.24	4004	0	0	5	5	0.2685689	1.056033	3	9	0.04	1800	-90.95602	40.92373	-91.39368
767939	-3728	-1534	-1367	10.16404	-12.47636	-1.64592	0	9.24	4004	0	0	5	5	0.2685689	1.030934	3	9	0.04	1800	-83.80011	40.92373	-91.39368
768041	-740	-1503	-1110	5.389341	-7.010428	-0.597483	0	9.24	4003	0	0	5	5	0.2685689	1.020993	3	9	0.04	1800	-80.87488	40.92373	-91.39368
768189	2536	-441	-1013	6.295643	-1.888788	-0.4190558	0	11.17	4003	0	0	5	5	0.2685689	1.015126	3	9	0.04	1800	-76.36533	40.92373	-91.39368
768306	1836	-1954	585	10.94326	0.5630155	-0.3296365	0	11.17	4002	0	0	5	5	0.2685689	1.005958	3	9	0.04	1800	-80.8381	40.92373	-91.39368
768326	2069	-1791	201	11.49373	1.357278	-0.5426526	0	11.17	4004	0	0	5	5	0.2685689	1.005958	3	9	0.04	1800	-80.8381	40.92373	-91.39368
768529	1700	-1689	672	14.32396	6.027948	-1.566559	0	11.17	4003	0	0	5	5	0.2685689	0.9642494	3	9	0.04	1800	-82.7594	40.92373	-91.39368
768616	940	-1153	-1605	15.58289	5.4385	-1.432861	0	11.17	4004	0	0	5	5	0.2685689	0.9344361	3	9	0.04	1800	-86.9209	40.92373	-91.39368
768728	-1931	-534	-413	7.997757	-0.06673973	0.6862008	0	11.17	4003	0	0	5	5	0.2685689	0.9078888	3	9	0.04	1800	-97.43372	40.92373	-91.39368
768882	-3745	1762	202	-4.153484	0.7624902	1.352952	0	11.17	4002	0	0	5	5	0.2685689	0.8685747	3	9	0.04	1800	256.496	40.92373	-91.39368
768938	-2390	1504	568	-4.949436	-0.4279207	0.9008031	0	11.17	4003	0	0	5	5	0.2685689	0.8563341	3	9	0.04	1800	-97.17844	40.92373	-91.39368
769043	428	-393	355	-4.234982	-2.352632	-0.3263399	0	9.98	4004	0	0	5	5	0.2685689	0.8458108	3	9	0.04	1800	-86.47504	40.92373	-91.39368
769197	-92	1108	-741	4.529248	-6.979952	2.345791	0	9.98	4003	0	0	5	5	0.2685689	0.8247518	3	9	0.04	1800	-81.52368	40.92373	-91.39368
769264	-3733	-2932	1354	2.972219	-5.701108	1.580403	0	9.98	4004	0	0	5	5	0.2685689	0.8045509	3	9	0.04	1800	-79.26813	40.92373	-91.39368
769465	-1796	-2371	758	-6.523857	2.965759	-2.010148	0	9.98	4004	0	0	5	5	0.2685689	0.7662798	3	9	0.04	1800	-80.80896	40.92373	-91.39367
769549	-1955	-487	-448	-8.12495	3.27808	-2.516003	0	9.98	4004	0	0	5	5	0.2685689	0.7460479	3	9	0.04	1800	-91.61981	40.92373	-91.39367
769703	1945	128	-1512	-8.423805	2.471348	-0.1268016	0	9.98	4004	0	0	5	5	0.2685689	0.7184892	3	9	0.04	1800	257.7001	40.92373	-91.39367
769850	1657	723	1367	-3.994108	2.909614	0.4337104	0	9.41	4002	0	0	5	5	0.2685689	0.6837676	3	9	0.04	1800	254.0935	40.92373	-91.39366
769979	1762	-2623	1369	-0.2722062	4.944134	-0.5412443	0	9.41	4002	0	0	5	5	0.2685689	0.6530713	3	9	0.04	1800	249.9443	40.92373	-91.39366
770071	733	-2238	-981	0.6476536	8.599654	-1.338448	0	9.41	4002	0	0	5	5	0.2685689	0.6310428	3	9	0.04	1800	250.7494	40.92373	-91.39366
770165	621	-156	1627	1.997115	8.863408	-1.219964	0	9.41	4004	0	0	5	5	0.2685689	0.6011834	3	9	0.04	1800	248.3416	40.92373	-91.39366
770248	368	2953	391	4.009219	4.121641	-0.2851751	0	9.41	4004	0	0	5	5	0.2685689	0.5658687	3	9	0.04	1800	246.3146	40.92373	-91.39365
770327	-1002	-163	-229	3.718951	1.203776	0.05453358	0	9.41	4003	0	0	5	5	0.2685689	0.5458024	3	9	0.04	1800	246.3146	40.92373	-91.39365
770405	-2848	431	-1052	1.312914	-0.435723	0.2780701	0	9.41	4004	0	0	5	5	0.2685689	0.5313589	3	9	0.04	1800	244.0313	40.92373	-91.39365
770538	3565	5030	1341	0.9218124	-1.650486	0.191914	0	9.41	4003	0	0	5	5	0.2685689	0.490669	3	9	0.04	1800	246.4273	40.92373	-91.39365
770575	-283	2196	237	0.9510055	-2.763579	-0.3856976	0	9.41	4004	0	0	5	5	0.2685689	0.4842271	3	9	0.04	1800	245.7458	40.92373	-91.39365
770651	735	159	-1173	3.099402	-5.16586	1.117898	0	9.41	4004	0	0	5	5	0.2685689	0.4717053	3	9	0.04	1800	248.7524	40.92373	-91.39365
770811	1577	1089	-408	2.67952	-5.547565	1.696544	0	10.26	4004	0	0	5	5	0.2685689	0.4587108	3	9	0.04	1800	255.854	40.92373	-91.39365
770983	-1675	-2869	634	1.066697	-3.07285	-0.9870806	0	10.26	4002	0	0	5	5	0.2685689	0.4489066	3	9	0.04	1800	-94.68344	40.92373	-91.39365
771090	-2749	-133	408	-1.669325	-0.009670689	-2.659674	0	10.26	4004	0	0	5	5	0.2685689	0.4518334	3	9	0.04	1800	-97.39868	40.92373	-91.39365
771185	-1363	361	-1327	-4.218768	-0.9137878	-2.279286	0	10.26	4002	0	0	5	5	0.2685689	0.4602516	3	9	0.04	1800	259.6996	40.92373	-91.39365
771237	-910	194	-1331	-4.386044	-1.22095	-2.050885	0	10.26	4002	0	0	5	5	0.2685689	0.4623655	3	9	0.04	1800	256.912	40.92373	-91.39365
771340	-1261	-1931	-2701	-6.685668	-0.6220583	-1.01163	0	10.26	4003	0	0	5	5	0.2685689	0.4645518	3	9	0.04	1800	253.3027	40.92373	-91.39365
771488	-1985	-1325	-710	-5.394124	-1.854722	0.8138765	0	10.26	4003	0	0	5	5	0.2685689	0.4830781	3	9	0.04	1800	252.187	40.92373	-91.39365
771549	-218	-381	413	-5.13054	-1.967887	0.7536283	0	10.26	4004	0	0	5	5	0.2685689	0.4798755	3	9	0.04	1800	252.187	40.92373	-91.39365
771708	3360	259	-248	0.2350181	-2.318511	0.4539632	0	11	4003	0	0	5	5	0.2685689	0.4707285	3	9	0.04	1800	253.8085	40.92373	-91.39365
771786	2251	-1806	-194	3.960761	-2.99975	0.6036395	0	11	4003	0	0	5	5	0.2685689	0.464002	3	9	0.04	1800	255.5041	40.92373	-91.39365
771965	-1041	-1138	993	5.039196	2.402441	-1.433604	0	11	4002	0	0	5	5	0.2685689	0.4750737	3	9	0.04	1800	255.6556	40.92372	-91.39365
772069	231	-442	312	3.612066	3.463464	-2.282369	0	11	4002	0	0	5	5	0.2685689	0.4670793	3	9	0.04	1800	253.4439	40.92372	-91.39365
772141	-469	-1207	-550	4.524221	2.760923	-1.785725	0	11	4003	0	0	5	5	0.2685689	0.4581947	3	9	0.04	1800	252.3024	40.92373	-91.39365
772306	1449	-2163	-2327	0.9885542	5.601378	-3.12889	0	11	4003	0	0	5	5	0.2685689	0.4007441	3	9	0.04	1800	252.5638	40.92373	-91.39365
772409	-432	4311	-1795	-0.3272711	4.933581	0.2542786	0	11	4003	0	0	5	5	0.2685689	0.3351239	3	9	0.04	1800	254.823	40.92373	-91.39365
772543	917	-1232	-164	-3.831434	-5.382281	0.3720286	0	10.89	4004	0	0	5	5	0.2685689	0.2914972	3	9	0.04	1800	258.5612	40.92373	-91.39365
772656	-319	326	65	-3.338902	-4.115178	0.3771581	0	10.89	4004	0	0	5	5	0.2685689	0.244162	3	9	0.04	1800	-99.87378	40.92373	-91.39366
772845	-39	-23	-57	-3.311692	-3.062314	0.3492202	0	10.89	4002	0	0	5	5	0.2685689	0.1486493	3	9	0.04	1800	-95.97412	40.92373	-91.39366
772904	-85	-12	64	-3.311709	-2.599086	0.3296593	0	10.89	4003	0	0	5	5	0.2685689	0.13104	3	9	0.04	1800	-94.39954	40.92373	-91.39366
773017	-73	11	-50	-3.29099	-2.148979	0.3108322	0	10.89	4003	0	0	5	5	0.2685689	0.08223687	3	9	0.04	1800	-94.25235	40.92373	-91.39366
773098	-55	-9	53	-3.255307	-1.788339	0.2934663	0	10.89	4002	0	0	5	5	0.2685689	0.05894702	3	9	0.04	1800	-94.39682	40.92373	-91.39366
773261	-70	2	11	-3.235329	-1.281131	0.2745138	0	10.89	4007	0	0	5	5	0.2685689	0.009440213	1	9	0.04	1800	-92.17627	40.92373	-91.39366
773461	-70	-8	-42	-3.203526	-0.7268199	0.2433332	0	11	4003	0	0	5	5	0.2685689	0.007883465	1	9	0.04	1800	-91.90799	40.92372	-91.39366
773569	-51	11	-5	-3.184963	-0.5445077	0.2303125	0	11	4004	0	0	5	5	0.2685689	0.01384527	1	9	0.04	1800	-90.36462	40.92372	-91.39366
773615	-61	-2	35	-3.179735	-0.4929227	0.224444	0	11	4002	0	0	5	5	0.2685689	0.01614168	1	9	0.04	1800	-90.36462	40.92372	-91.39366
773716	-91	17	4	-3.161411	-0.2809434	0.2020074	0	11	4003	0	0	5	5	0.2685689	0.01084433	1	9	0.04	1800	-89.24518	40.92372	-91.39366
773880	-83	1	14	-3.137525	-0.1005197	0.1862339	0	11	4003	0	0	5	5	0.2685689	0.01081276	1	9	0.04	1800	-90.34232	40.92372	-91.39366
774018	-69	2	2	-3.10699	0.07402561	0.1655081	0	11	4005	0	0	5	5	0.2685689	0.007220114	1	9	0.04	1800	-88.71359	40.92372	-91.39366
774111	-65	0	32	-3.097839	0.1301747	0.1524239	0	11	4004	0	0	5	5	0.2685689	0.005323235	1	9	0.04	1800	-88.9006	40.92372	-91.39366
774263	-68	4	13	-3.078204	0.2565512	0.133471	0	11	4004	0	0	5	5	0.2685689	-0.008774688	1	9	0.04	1800	-88.54568	40.92372	-91.39365
774336	-71	3	3	-3.071053	0.3009088	0.1261347	0	11	4003	0	0	5	5	0.2685689	-0.01115421	1	9	0.04	1800	-88.45926	40.92372	-91.39365
774480	-65	2	8	-3.058256	0.3947842	0.1061427	0	11	4004	0	0	5	5	0.2685689	-0.02457513	1	9	0.04	1800	-88.29028	40.92372	-91.39365
774565	-67	2	5	-3.051937	0.4276361	0.09837859	0	11	4002	0	0	5	5	0.2685689	-0.03990624	1	9	0.04	1800	-88.19983	40.92373	-91.39365
774665	-61	0	4	-3.044222	0.4735526	0.08865754	0	11	4003	0	0	5	5	0.2685689	-0.04828364	1	9	0.04	1800	-87.81052	40.92373	-91.39365
774753	-67	-1	7	-3.030936	0.5200535	0.07276165	0	11	4004	0	0	5	5	0.2685689	-0.05120623	1	9	0.04	1800	-87.38123	40.92373	-91.39365
774799	-61	-2	11	-3.029208	0.5347533	0.0678709	0	11	4004	0	0	5	5	0.2685689	-0.04820796	1	9	0.04	1800	-87.64597	40.92373	-91.39365
774920	-73	0	2	-3.021164	0.5889449	0.05044604	0	11	4003	0	0	5	5	0.2685689	-0.03905998	1	9	0.04	1800	-87.55496	40.92373	-91.39365
775003	-63	0	13	-3.016746	0.6004017	0.04323194	0	11	4003	0	0	5	5	0.2685689	-0.03955973	1	9	0.04	1800	-87.49747	40.92373	-91.39365
775062	-65	-4	4	-3.01846	0.6094266	0.03503944	0	11	4002	0	0	5	5	0.2685689	-0.04448293	1	9	0.04	1800	-87.15515	40.92373	-91.39365
775197	-62	-1	8	-3.005684	0.6339526	0.02103883	0	11	4002	0	0	5	5	0.2685689	-0.04935334	1	9	0.04	1800	-87.12244	40.92373	-91.39365
775329	-64	1	5	-2.995343	0.6551851	0.007221746	0	11	4004	0	0	5	5	0.2685689	-0.06194521	1	9	0.04	1800	-87.38702	40.92373	-91.39365
775364	-68	3	6	-2.993536	0.6604758	0.003980661	0	11	4004	0	0	5	5	0.2685689	-0.06456348	1	9	0.04	1800	-87.38702	40.92373	-91.39365
775476	-66	-2	9	-2.988866	0.6785136	-0.005801034	0	11	4003	0	0	5	5	0.2685689	-0.06135848	1	9	0.04	1800	-87.33279	40.92373	-91.39365
775618	-66	-3	7	-2.983927	0.689204	-0.01882229	0	11	4003	0	0	5	5	0.2685689	-0.04944052	1	9	0.04	1800	-87.30356	40.92373	-91.39365
775668	-62	0	4	-2.987996	0.6920134	-0.02224613	0	11	4002	0	0	5	5	0.2685689	-0.04456815	1	9	0.04	1800	-87.30356	40.92373	-91.39365
775793	-66	0	7	-2.971222	0.7029072	-0.03973185	0	11	4004	0	0	5	5	0.2685689	-0.0441243	1	9	0.04	1800	-87.5777	40.92373	-91.39365
775880	-61	7	1	-2.97231	0.7047222	-0.04462278	0	11	4003	0	0	5	5	0.2685689	-0.04358284	1	9	0.04	1800	-87.5777	40.92373	-91.39365
775976	-59	3	8	-2.96524	0.7093336	-0.05098134	0	11	4004	0	0	5	5	0.2685689	-0.03856926	1	9	0.04	1800	-87.5737	40.92373	-91.39365
776118	-62	3	9	-2.958132	0.7200302	-0.06718186	0	11	4002	0	0	5	5	0.2685689	-0.029854	1	9	0.04	1800	-87.24185	40.92373	-91.39365
776176	-58	2	4	-2.953365	0.7220767	-0.07054412	0	11	4002	0	0	5	5	0.2685689	-0.03097359	1	9	0.04	1800	-87.24185	40.92373	-91.39365
776345	-64	3	7	-2.960258	0.7278774	-0.09016911	0	11.06	4004	0	0	5	5	0.2685689	-0.03629139	1	9	0.04	1800	-87.21313	40.92373	-91.39365
776487	-64	2	2	-2.954062	0.7292892	-0.1027628	0	11.06	4003	0	0	5	5	0.2685689	-0.03223697	1	9	0.04	1800	-87.22144	40.92373	-91.39365
776640	-65	2	3	-2.956037	0.7356704	-0.1157858	0	11.06	4004	0	0	5	5	0.2685689	-0.03635313	1	9	0.04	1800	-87.52814	40.92373	-91.39365
776720	-66	10	2	-2.955259	0.7361233	-0.1212876	0	11.06	4003	0	0	5	5	0.2685689	-0.0416836	1	9	0.04	1800	-87.50903	40.92373	-91.39365
776785	-60	1	7	-2.950514	0.7347699	-0.1298468	0	11.06	4003	0	0	5	5	0.2685689	-0.04361582	1	9	0.04	1800	-87.52469	40.92373	-91.39365
777011	-57	4	8	-2.950457	0.7353391	-0.1435415	0	11.06	4004	0	0	5	5	0.2685689	-0.05005025	1	9	0.04	1800	-87.19977	40.92373	-91.39365
777126	-64	0	5	-2.942905	0.749185	-0.158397	0	11.11	4004	0	0	5	5	0.2685689	-0.05834867	1	9	0.04	1800	-87.49237	40.92373	-91.39365
777367	-63	0	5	-2.937106	0.7424442	-0.1773491	0	11.11	4002	0	0	5	5	0.2685689	-0.06349471	1	9	0.04	1800	-87.49713	40.92373	-91.39365
777475	-60	0	4	-2.940211	0.7465596	-0.1855411	0	11.11	4004	0	0	5	5	0.2685689	-0.07334743	1	9	0.04	1800	-87.17899	40.92373	-91.39365
777572	-55	-3	3	-2.935706	0.7409137	-0.1928776	0	11.11	4003	0	0	5	5	0.2685689	-0.08249595	1	9	0.04	1800	-87.20557	40.92373	-91.39365
777793	-60	0	5	-2.90884	0.7416463	-0.2114642	0	11.11	4003	0	0	5	5	0.2685689	-0.08630909	1	9	0.04	1800	-87.51932	40.92373	-91.39365
777857	-53	0	5	-2.908618	0.7433203	-0.2158046	0	11.11	4003	0	0	5	5	0.2685689	-0.0811576	1	9	0.04	1800	-87.51855	40.92373	-91.39365
777972	-59	0	7	-2.904758	0.7542908	-0.2257091	0	11.06	4004	0	0	5	5	0.2685689	-0.09008922	1	9	0.04	1800	-87.16916	40.92373	-91.39365
778118	-60	3	4	-2.904671	0.7634324	-0.2348792	0	11.06	4003	0	0	5	5	0.2685689	-0.09643693	1	9	0.04	1800	-87.46945	40.92373	-91.39365
778288	-55	1	7	-2.906723	0.7613575	-0.2475961	0	11.06	4003	0	0	5	5	0.2685689	-0.1068553	1	9	0.04	1800	-87.14941	40.92374	-91.39365
778514	-61	5	8	-2.901073	0.7556692	-0.2641031	0	11.06	4002	0	0	5	5	0.2685689	-0.1191413	1	9	0.04	1800	-87.47311	40.92374	-91.39365
778641	-58	1	0	-2.894193	0.756652	-0.2760239	0	11.06	4003	0	0	5	5	0.2685689	-0.1171168	1	9	0.04	1800	-87.18353	40.92374	-91.39365
778688	-58	-3	6	-2.89206	0.7562463	-0.2782861	0	11.06	4002	0	0	5	5	0.2685689	-0.1162599	1	9	0.04	1800	-87.18353	40.92374	-91.39365
778805	-55	0	6	-2.885086	0.7494906	-0.2862953	0	11.06	4002	0	0	5	5	0.2685689	-0.1137269	1	9	0.04	1800	-87.17545	40.92374	-91.39365
778916	-56	0	6	-2.88703	0.7488545	-0.2950985	0	11.06	4003	0	0	5	5	0.2685689	-0.1127909	1	9	0.04	1800	-87.1839	40.92374	-91.39365
778977	-56	4	6	-2.88981	0.7505789	-0.2980942	0	11.06	4004	0	0	5	5	0.2685689	-0.1088167	1	9	0.04	1800	-87.1839	40.92374	-91.39365
779097	-52	1	2	-2.898914	0.7482494	-0.3053082	0	11.06	4003	0	0	5	5	0.2685689	-0.1034847	1	9	0.04	1800	-87.18222	40.92374	-91.39365
779222	-55	2	6	-2.885279	0.7497009	-0.3139288	0	11.06	4003	0	0	5	5	0.2685689	-0.09436526	1	9	0.04	1800	-87.48654	40.92374	-91.39365
779321	-64	3	5	-2.882249	0.7526816	-0.3201642	0	11.06	4002	0	0	5	5	0.2685689	-0.07958099	1	9	0.04	1800	-87.17502	40.92374	-91.39365
779471	-61	6	12	-2.873258	0.7567536	-0.3319637	0	11.06	4003	0	0	5	5	0.2685689	-0.0478775	1	9	0.04	1800	-86.87119	40.92374	-91.39365
779605	-57	1	0	-2.868011	0.7602099	-0.3429069	0	11.06	4004	0	0	5	5	0.2685689	-0.03114183	1	9	0.04	1800	-87.16898	40.92374	-91.39365
779739	-60	3	6	-2.867371	0.7623795	-0.3531165	0	11.06	4004	0	0	5	5	0.2685689	-0.01445288	1	9	0.04	1800	-87.47922	40.92374	-91.39365
779831	-57	-5	4	-2.868808	0.7562825	-0.3561125	0	11.11	4004	0	0	5	5	0.2685689	-0.006869654	1	9	0.04	1800	-87.47433	40.92374	-91.39365
779947	-56	4	4	-2.869969	0.7598265	-0.3666885	0	11.11	4003	0	0	5	5	0.2685689	0.004441273	1	9	0.04	1800	-87.17209	40.92374	-91.39365
780130	-66	1	7	-2.871778	0.7612803	-0.3794052	0	11.11	4003	0	0	5	5	0.2685689	5.016333E-05	1	9	0.04	1800	-87.47583	40.92374	-82.25429
780236	-64	7	8	-2.868006	0.7590439	-0.38668	0	11.11	4003	0	0	5	5	0.2685689	0.0006232305	1	9	0.04	1800	-87.17392	40.92374	-54.8362
780413	-58	0	3	-2.866131	0.7564323	-0.39799	0	11.11	4003	0	0	5	5	0.2685689	0.01257374	1	9	0.04	1800	-87.46786	40.92374	-36.55746
780503	-49	-2	0	-2.865004	0.757103	-0.405999	0	11.11	4004	0	0	5	5	0.2685689	0.01329576	1	9	0.04	1800	-87.18155	40.92374	-36.55746
780560	-50	0	0	-2.860296	0.7578481	-0.4093004	0	11.11	4004	0	0	5	5	0.2685689	0.007150077	1	9	0.04	1800	-87.4819	40.92374	-36.55746
780612	-58	1	2	-2.861834	0.7565594	-0.410951	0	11.11	4002	0	0	5	5	0.2685689	0.002923641	1	9	0.04	1800	-86.85086	40.92374	-36.55746
780720	-56	1	2	-2.884329	0.7600993	-0.4188868	0	11.11	4003	0	0	5	5	0.2685689	0.002923641	1	9	0.04	1800	-87.46872	40.92374	-36.55746
780783	-56	10	2	-2.882362	0.7576345	-0.42121	0	11.11	4004	0	0	5	5	0.2685689	-0.003353866	1	9	0.04	1800	-87.17569	40.92374	-36.55746
780943	-51	-1	3	-2.89922	0.75772	-0.4295262	0	11.11	4003	0	0	5	5	0.2685689	-0.007790843	1	6	0.04	1800	-87.50354	40.92374	-63.97556
781005	-56	2	5	-2.894528	0.7589689	-0.4321549	0	11.11	4003	0	0	5	5	0.2685689	-0.01053314	1	6	0.04	1800	-87.48212	40.92374	-91.39365
781084	-54	3	5	-2.88135	0.7584891	-0.4385738	0	11.11	4002	0	0	5	5	0.2685689	-0.01523363	1	6	0.04	1800	-87.50201	40.92374	-91.39365
781184	-54	2	0	-2.876042	0.7529126	-0.4445656	0	11.11	4002	0	0	5	5	0.2685689	-0.02162446	1	6	0.04	1800	-87.18658	40.92374	-91.39365
781293	-50	4	3	-2.870047	0.7542132	-0.4515963	0	11.11	4004	0	0	5	5	0.2685689	-0.04292054	1	6	0.04	1800	-87.48315	40.92374	-91.39365
781480	-50	1	2	-2.851095	0.7434568	-0.4633351	0	11.11	4003	0	0	5	5	0.2685689	-0.06851487	1	6	0.04	1800	-87.1839	40.92374	-91.39365
781563	-47	0	3	-2.847006	0.7462312	-0.4675533	0	11.17	4003	0	0	5	5	0.2685689	-0.09021856	1	6	0.04	1800	-87.23495	40.92374	-91.39365
781613	-52	5	4	-2.846296	0.7434303	-0.4701209	0	11.17	4002	0	0	5	5	0.2685689	-0.09821564	1	6	0.04	1800	-86.88541	40.92374	-91.39365
781674	-57	5	4	-2.840581	0.74281	-0.4728108	0	11.17	4003	0	0	5	5	0.2685689	-0.1019303	1	6	0.04	1800	-87.51791	40.92374	-91.39365
781773	-47	-1	5	-2.82434	0.7432148	-0.4802694	0	11.17	4004	0	0	5	5	0.2685689	-0.1025096	1	6	0.04	1800	-87.5246	40.92374	-91.39365
781910	-48	2	-1	-2.819814	0.7465781	-0.4893177	0	11.17	4003	0	0	5	5	0.2685689	-0.09340388	1	6	0.04	1800	-86.91058	40.92374	-91.39365
781987	-60	3	4	-2.820501	0.7464901	-0.4945149	0	11.17	4004	0	0	5	5	0.2685689	-0.08896418	1	6	0.04	1800	-87.19748	40.92374	-91.39365
782162	-47	-1	5	-2.827516	0.7470537	-0.5029514	0	11.17	4003	0	0	5	5	0.2685689	-0.06458697	1	6	0.04	1800	-87.2049	40.92374	-91.39365
782356	-58	-2	2	-2.828825	0.7414154	-0.5182348	0	11.17	4003	0	0	5	5	0.2685689	-0.05114505	1	6	0.04	1800	-86.88531	40.92374	-91.39365
782452	-53	-2	2	-2.834041	0.7475645	-0.5233702	0	11.06	4002	0	0	5	5	0.2685689	-0.04030963	1	6	0.04	1800	-87.49899	40.92374	-91.39365
782596	-56	6	8	-2.838083	0.7459714	-0.5351083	0	11.06	4004	0	0	5	5	0.2685689	-0.03090503	1	6	0.04	1800	-87.20419	40.92374	-91.39365
782648	-50	3	4	-2.835307	0.7482574	-0.5374924	0	11.06	4004	0	0	5	5	0.2685689	-0.02738338	1	6	0.04	1800	-87.20419	40.92374	-91.39365
782733	-52	4	0	-2.832646	0.7469805	-0.542873	0	11.06	4003	0	0	5	5	0.2685689	-0.02758207	1	6	0.04	1800	-87.20575	40.92374	-91.39365
782854	-56	-2	5	-2.830211	0.7432162	-0.5518598	0	11.06	4003	0	0	5	5	0.2685689	-0.03159101	1	6	0.04	1800	-87.22302	40.92374	-91.39365
782976	-51	1	1	-2.829489	0.7483028	-0.5610307	0	11.06	4004	0	0	5	5	0.2685689	-0.03715958	1	6	0.04	1800	-87.19574	40.92374	-91.39365
783061	-42	3	3	-2.821053	0.7440532	-0.567328	0	11.06	4003	0	0	5	5	0.2685689	-0.04257398	1	6	0.04	1800	-87.51477	40.92374	-91.39366
783219	-53	1	3	-2.817959	0.7520467	-0.5744199	0	11.06	4003	0	0	5	5	0.2685689	-0.05129047	1	6	0.04	1800	-86.89938	40.92375	-91.39366
783306	-46	-1	1	-2.816927	0.751205	-0.5815123	0	11.06	4004	0	0	5	5	0.2685689	-0.05805396	1	6	0.04	1800	-87.20068	40.92375	-91.39366
783374	-46	1	5	-2.817204	0.7524918	-0.5868311	0	11.06	4002	0	0	5	5	0.2685689	-0.07318162	1	6	0.04	1800	-87.18668	40.92375	-91.39366
783585	-58	8	0	-2.805686	0.7493862	-0.5964295	0	11.06	4003	0	0	5	5	0.2685689	-0.09206127	1	6	0.04	1800	-87.50211	40.92375	-91.39366
783724	-50	-2	5	-2.804062	0.7466551	-0.610002	0	11.06	4003	0	0	5	5	0.2685689	-0.09275153	1	6	0.04	1800	-87.51907	40.92374	-91.39366
783812	-40	3	5	-2.798607	0.7400621	-0.6163602	0	11.06	4003	0	0	5	5	0.2685689	-0.09779974	1	6	0.04	1800	-87.51672	40.92374	-91.39366
783940	-55	3	1	-2.794839	0.7403078	-0.6212511	0	11.06	4004	0	0	5	5	0.2685689	-0.1058058	1	6	0.04	1800	-87.52734	40.92374	-91.39366
784081	-54	-1	4	-2.789412	0.7384854	-0.6298099	0	11.06	4003	0	0	5	5	0.2685689	-0.1168192	1	6	0.04	1800	-87.21222	40.92374	-91.39366
784180	-51	2	1	-2.799341	0.7429951	-0.6336008	0	11.06	4004	0	0	5	5	0.2685689	-0.1252461	1	6	0.04	1800	-87.52585	40.92374	-91.39366
784261	-45	5	3	-2.796293	0.7430719	-0.6381246	0	11	4003	0	0	5	5	0.2685689	-0.130749	1	6	0.04	1800	-87.19547	40.92374	-91.39365
784305	-47	0	4	-2.795681	0.7447585	-0.641732	0	11	4010	0	0	5	5	0.2685689	-0.1306883	1	6	0.04	1800	-87.50928	40.92374	-91.39365
784574	-44	-1	3	-2.787353	0.7493625	-0.6542643	0	11	4002	0	0	5	5	0.2685689	-0.1103323	1	6	0.04	1800	-87.51956	40.92374	-91.39365
784674	-48	5	-1	-2.791974	0.7519381	-0.6595223	0	11	4003	0	0	5	5	0.2685689	-0.0954328	1	6	0.04	1800	-87.19974	40.92374	-91.39365
784849	-48	3	3	-2.782333	0.7544104	-0.6676542	0	11	4003	0	0	5	5	0.2685689	-0.0658524	1	6	0.04	1800	-87.19391	40.92375	-91.39366
784969	-41	-1	0	-2.782723	0.7514912	-0.6698551	0	11	4002	0	0	5	5	0.2685689	-0.04265697	1	6	0.04	1800	-87.20074	40.92375	-91.39366
785029	-46	7	0	-2.777282	0.7518872	-0.6717505	0	11	4002	0	0	5	5	0.2685689	-0.03531192	1	6	0.04	1800	-87.50601	40.92375	-91.39366
785120	-48	3	5	-2.778151	0.7484487	-0.6778029	0	11.06	4003	0	0	5	5	0.2685689	-0.0242416	1	6	0.04	1800	-87.20926	40.92375	-91.39366
785200	-47	-5	0	-2.76965	0.7486644	-0.6811655	0	11.06	4003	0	0	5	5	0.2685689	-0.001553887	1	6	0.04	1800	-87.51334	40.92375	-91.39366
785343	-46	-4	0	-2.770202	0.7429153	-0.6852616	0	11.06	4003	0	0	5	5	0.2685689	0.009587714	1	6	0.04	1800	-86.92023	40.92375	-91.39366
785480	-45	-3	6	-2.770348	0.7413403	-0.6916202	0	11.06	4003	0	0	5	5	0.2685689	0.02285296	1	6	0.04	1800	-87.53021	40.92375	-91.39366
785559	-41	5	1	-2.762959	0.7323449	-0.6971835	0	11.06	4002	0	0	5	5	0.2685689	0.02301869	1	6	0.04	1800	-87.54184	40.92375	-91.39366
785631	-50	3	2	-2.761259	0.7341027	-0.7005464	0	11.06	4003	0	0	5	5	0.2685689	0.01133176	1	6	0.04	1800	-87.54996	40.92375	-91.39366
785718	-44	2	5	-2.760382	0.7375562	-0.7039089	0	11.06	4004	0	0	5	5	0.2685689	0.003104004	1	6	0.04	1800	-87.22128	40.92375	-91.39366
785763	-43	3	4	-2.75702	0.7367461	-0.7067211	0	11.06	4004	0	0	5	5	0.2685689	-0.0006690453	1	6	0.04	1800	-87.52576	40.92375	-91.39366
785864	-49	1	-4	-2.753202	0.7413157	-0.7097169	0	11.06	4002	0	0	5	5	0.2685689	-0.01017087	1	6	0.04	1800	-87.21713	40.92375	-91.39366
785961	-49	3	3	-2.76047	0.7389187	-0.7130794	0	11.06	4003	0	0	5	5	0.2685689	-0.02344729	1	6	0.04	1800	-86.90506	40.92375	-91.39366
786198	-51	-2	2	-2.749788	0.7380679	-0.7269567	0	11.06	4003	0	0	5	5	0.2685689	-0.04580154	1	6	0.04	1800	-87.21091	40.92375	-91.39366
786400	-48	-6	0	-2.756774	0.7373411	-0.7358216	0	11.06	4004	0	0	5	5	0.2685689	-0.05684249	1	6	0.04	1800	-87.23553	40.92375	-91.39366
786577	-44	-1	6	-2.752731	0.7328007	-0.7463979	0	11.06	4003	0	0	5	5	0.2685689	-0.0795439	1	6	0.04	1800	-87.5607	40.92375	-91.39366
786819	-41	4	1	-2.754783	0.7296818	-0.7584422	0	11.06	4002	0	0	5	5	0.2685689	-0.08460809	1	6	0.04	1800	-87.56662	40.92375	-91.39366
786896	-43	-2	1	-2.754284	0.7326779	-0.7616826	0	11.06	4002	0	0	5	5	0.2685689	-0.09228277	1	6	0.04	1800	-87.55637	40.92375	-91.39366
787011	-44	0	0	-2.746129	0.7310923	-0.763578	0	11.06	4010	0	0	5	5	0.2685689	-0.1008176	1	6	0.04	1800	-87.24261	40.92375	-91.39366
787225	-36	1	2	-2.73049	0.7261777	-0.7750105	0	11.06	4003	0	0	5	5	0.2685689	-0.1148698	1	6	0.04	1800	-87.23471	40.92375	-91.39366
787394	-48	3	1	-2.726399	0.7305439	-0.783876	0	11.06	4004	0	0	5	5	0.2685689	-0.1295484	1	6	0.04	1800	-87.55692	40.92375	-91.39366
787542	-49	5	7	-2.726555	0.7329267	-0.7874223	0	11.06	4003	0	0	5	5	0.2685689	-0.1252483	1	6	0.04	1800	-87.55737	40.92375	-91.39366
787610	-50	0	0	-2.72387	0.7253289	-0.7946371	0	11.06	4004	0	0	5	5	0.2685689	-0.1227908	1	6	0.04	1800	-87.54974	40.92375	-91.39366
787747	-40	8	3	-2.715904	0.7281382	-0.8000785	0	11.06	4003	0	0	5	5	0.2685689	-0.1084222	1	6	0.04	1800	-87.25763	40.92375	-91.39366
787828	-37	0	5	-2.711787	0.7271504	-0.8037466	0	11.06	4002	0	0	5	5	0.2685689	-0.09919287	1	6	0.04	1800	-87.25885	40.92375	-91.39366
787890	-36	-3	0	-2.707342	0.7273074	-0.8062531	0	11.06	4003	0	0	5	5	0.2685689	-0.08973839	1	6	0.04	1800	-87.26608	40.92375	-91.39366
787960	-50	1	3	-2.699429	0.7243721	-0.8094323	0	11.06	4002	0	0	5	5	0.2685689	-0.0812017	1	6	0.04	1800	-87.57376	40.92375	-91.39366
788165	-48	8	5	-2.699695	0.7213062	-0.8179913	0	11.06	4004	0	0	5	5	0.2685689	-0.06658817	1	6	0.04	1800	-87.28061	40.92375	-91.39366
788256	-44	-3	3	-2.691063	0.7242779	-0.8218432	0	11.06	4004	0	0	5	5	0.2685689	-0.06081422	1	6	0.04	1800	-86.96365	40.92375	-91.39366
788444	-37	6	2	-2.682742	0.7194661	-0.8321144	0	11.06	4002	0	0	5	5	0.2685689	-0.07414334	1	6	0.04	1800	-87.57278	40.92375	-91.39366
788476	-39	0	6	-2.683076	0.7215661	-0.8349878	0	11.06	4004	0	0	5	5	0.2685689	-0.07414334	1	6	0.04	1800	-87.27148	40.92375	-91.39366
788654	-38	6	-2	-2.686495	0.72383	-0.8400616	0	11.06	4002	0	0	5	5	0.2685689	-0.08890219	1	6	0.04	1800	-87.26578	40.92375	-91.39366
788739	-31	0	4	-2.684146	0.7247069	-0.8450139	0	11.11	4004	0	0	5	5	0.2685689	-0.09572674	1	6	0.04	1800	-87.26523	40.92375	-91.39366
788800	-36	-1	0	-2.681095	0.7275091	-0.8472147	0	11.11	4002	0	0	5	5	0.2685689	-0.1040195	1	6	0.04	1800	-87.27228	40.92375	-91.39366
788996	-38	-3	3	-2.669201	0.723887	-0.853267	0	11.11	4004	0	0	5	5	0.2685689	-0.1145702	1	6	0.04	1800	-87.28027	40.92375	-91.39366
789093	-41	-1	7	-2.673696	0.7231643	-0.8580966	0	11.11	4003	0	0	5	5	0.2685689	-0.1159417	1	6	0.04	1800	-87.24963	40.92375	-91.39366
789130	-43	-5	0	-2.670507	0.7215164	-0.859136	0	11.11	4002	0	0	5	5	0.2685689	-0.1170917	1	6	0.04	1800	-87.24963	40.92375	-91.39366
789237	-43	-5	0	-2.670507	0.7215164	-0.859136	0	11.11	4002	0	0	5	5	0.2685689	-0.1195701	1	6	0.04	1800	-87.24963	40.92375	-91.39366
789368	-39	3	-3	-2.679764	0.7252674	-0.8634768	0	11.11	4003	0	0	5	5	0.2685689	-0.1189413	1	6	0.04	1800	-87.5932	40.92375	-91.39366
789627	-38	-3	5	-2.686311	0.7216443	-0.875842	0	11.11	4003	0	0	5	5	0.2685689	-0.1303219	1	6	0.04	1800	-86.97372	40.92375	-91.39366
789725	-45	1	2	-2.690601	0.7267842	-0.8776156	0	11.17	4003	0	0	5	5	0.2685689	-0.1345457	1	6	0.04	1800	-87.57993	40.92375	-91.39366
789824	-40	0	0	-2.689498	0.7279046	-0.8839127	0	11.17	4003	0	0	5	5	0.2685689	-0.1374169	1	6	0.04	1800	-86.95737	40.92375	-91.39366
789937	-46	2	-1	-2.680651	0.7265018	-0.8888646	0	11.17	4003	0	0	5	5	0.2685689	-0.1431115	1	6	0.04	1800	-87.25864	40.92375	-91.39366
790060	-34	0	1	-2.68039	0.7248809	-0.8916767	0	11.17	4003	0	0	5	5	0.2685689	-0.1520488	1	6	0.04	1800	-87.26227	40.92375	-91.39366
790123	-33	4	3	-2.682346	0.7240348	-0.8933273	0	11.17	4002	0	0	5	5	0.2685689	-0.1583759	1	6	0.04	1800	-86.96521	40.92375	-91.39366
790258	-40	1	1	-2.688675	0.7190114	-0.900113	0	11.17	4004	0	0	5	5	0.2685689	-0.1584394	1	6	0.04	1800	-87.289	40.92375	-91.39366
790379	-43	2	-1	-2.691927	0.7128687	-0.9028031	0	11.17	4003	0	0	5	5	0.2685689	-0.1539801	1	6	0.04	1800	-86.98157	40.92375	-91.39366
790496	-36	0	7	-2.685859	0.7219936	-0.9087339	0	11.17	4002	0	0	5	5	0.2685689	-0.1424882	1	6	0.04	1800	-87.26462	40.92375	-91.39366
790556	-44	1	5	-2.684964	0.7186839	-0.9126465	0	11.11	4003	0	0	5	5	0.2685689	-0.1341201	1	6	0.04	1800	-87.28198	40.92375	-91.39366
790615	-38	2	2	-2.685178	0.7163879	-0.913258	0	11.11	4004	0	0	5	5	0.2685689	-0.1259369	1	6	0.04	1800	-87.28198	40.92375	-91.39366
790719	-36	0	2	-2.677477	0.7180783	-0.9158868	0	11.11	4002	0	0	5	5	0.2685689	-0.1169223	1	6	0.04	1800	-87.26672	40.92375	-91.39366
790895	-36	-2	7	-2.670781	0.7220747	-0.9208997	0	11.11	4002	0	0	5	5	0.2685689	-0.1063191	1	6	0.04	1800	-87.27319	40.92375	-91.39366
791002	-34	3	2	-2.669376	0.7220482	-0.9253626	0	11.11	4002	0	0	5	5	0.2685689	-0.1024184	1	6	0.04	1800	-87.29065	40.92375	-91.39366
791081	-41	0	2	-2.666943	0.7194184	-0.9284193	0	11.11	4002	0	0	5	5	0.2685689	-0.1005779	1	6	0.04	1800	-87.58401	40.92375	-91.39366
791123	-37	-2	0	-2.6661	0.7220399	-0.929642	0	11.11	4003	0	0	5	5	0.2685689	-0.09979327	1	6	0.04	1800	-87.58401	40.92375	-91.39366
791313	-46	4	4	-2.660655	0.7178023	-0.9348995	0	11.11	4002	0	0	5	5	0.2685689	-0.09142581	1	6	0.04	1800	-87.59113	40.92375	-91.39366
791378	-36	2	1	-2.659754	0.7148888	-0.936428	0	11.11	4002	0	0	5	5	0.2685689	-0.09261981	1	6	0.04	1800	-87.285	40.92375	-91.39366
791479	-32	1	2	-2.651684	0.7145412	-0.9413192	0	11.11	4004	0	0	5	5	0.2685689	-0.0853656	1	6	0.04	1800	-86.97784	40.92375	-91.39366
791538	-47	0	0	-2.652834	0.7175805	-0.9433368	0	11.11	4003	0	0	5	5	0.2685689	-0.07674825	1	6	0.04	1800	-87.27087	40.92375	-91.39366
791604	-39	2	6	-2.655807	0.7141418	-0.943948	0	11.11	4003	0	0	5	5	0.2685689	-0.07158202	1	6	0.04	1800	-87.59366	40.92375	-91.39366
791709	-41	1	4	-2.645767	0.7133246	-0.9474326	0	11.11	4003	0	0	5	5	0.2685689	-0.06718619	1	6	0.04	1800	-87.28018	40.92375	-91.39366
791841	-36	4	0	-2.646633	0.7189531	-0.9533632	0	11.11	4004	0	0	5	5	0.2685689	-0.0647361	1	6	0.04	1800	-87.58081	40.92375	-91.39366
791912	-35	3	5	-2.649579	0.7141859	-0.957521	0	11.11	4003	0	0	5	5	0.2685689	-0.07080279	1	6	0.04	1800	-87.27075	40.92375	-91.39366
792003	-44	-1	6	-2.644083	0.7145725	-0.9616789	0	11.11	4004	0	0	5	5	0.2685689	-0.08271761	1	6	0.04	1800	-87.61472	40.92376	-91.39366
792112	-25	0	0	-2.636049	0.7145053	-0.963024	0	11.11	4004	0	0	5	5	0.2685689	-0.0928483	1	6	0.04	1800	-87.58563	40.92376	-91.39366
792255	-42	1	-2	-2.638016	0.7204437	-0.9676094	0	11.11	4003	0	0	5	5	0.2685689	-0.0897039	1	6	0.04	1800	-87.27548	40.92376	-91.39366
792359	-35	0	4	-2.640895	0.7217215	-0.9699327	0	11.11	4003	0	0	5	5	0.2685689	-0.08860227	1	6	0.04	1800	-87.59082	40.92376	-91.39366
792414	-43	5	6	-2.641535	0.7250738	-0.9737846	0	11.06	4004	0	0	5	5	0.2685689	-0.09252025	1	6	0.04	1800	-87.27451	40.92376	-91.39366
792512	-31	1	2	-2.635696	0.7230345	-0.9777583	0	11.06	4002	0	0	5	5	0.2685689	-0.09709426	1	6	0.04	1800	-87.58725	40.92376	-91.39366
792617	-37	-2	5	-2.636389	0.7246764	-0.9827107	0	11.06	4003	0	0	5	5	0.2685689	-0.1002733	1	6	0.04	1800	-87.89319	40.92376	-91.39366
792766	-40	-2	2	-2.637453	0.7283823	-0.9877853	0	11.06	4002	0	0	5	5	0.2685689	-0.1111562	1	6	0.04	1800	-87.25394	40.92376	-91.39366
792922	-32	3	2	-2.637157	0.7200431	-0.9920646	0	11.06	4003	0	0	5	5	0.2685689	-0.1324885	1	6	0.04	1800	-87.28458	40.92376	-91.39366
793104	-48	-4	3	-2.63469	0.7228274	-0.9967721	0	11.06	4002	0	0	5	5	0.2685689	-0.1384978	1	6	0.04	1800	-86.99377	40.92376	-91.39366
793166	-32	4	-3	-2.638148	0.7238069	-0.9982393	0	11.06	4002	0	0	5	5	0.2685689	-0.144176	1	6	0.04	1800	-87.27969	40.92376	-91.39366
793263	-41	3	0	-2.640845	0.7210828	-1.001113	0	11.11	4002	0	0	5	5	0.2685689	-0.1494289	1	6	0.04	1800	-87.58923	40.92376	-91.39366
