time(ms)	gyro_x(deg/s)	gyro_y(deg/s)	gyro_z(deg/s)	orientation_roll(deg)	orientation_pitch(deg)	orientation_yaw(deg)	throttle	battery(V)	loop_time(uS)	pid_output_roll	pid_output_pitch	pid_output_yaw	pid_output_throttle	ultrasonic_alt	baro_alt	flight_mode	p_gain_altitude	i_gain_altitude	d_gain_altitude	compass_heading	latitude	longitude
825051	-134	-61	231	-0.6942788	0.3502861	-98.29773	0	10.94	4003	0	0	5	5	0.1176789	-0.1419961	8	6	0.04	1800	-6.621552	40.92378	-91.39366
825131	-10	-98	833	-0.7260015	0.4490337	-98.378	0	10.94	4002	0	0	5	5	0.1175778	-0.136171	8	6	0.04	1800	-7.256165	40.92378	-91.39366
825233	72	-61	8	-0.6743916	0.3599331	-98.34679	0	10.94	4004	0	0	5	5	0.1175041	-0.1280852	8	6	0.04	1800	-6.666809	40.92378	-91.39366
825326	-155	-140	548	-0.6354271	0.2201425	-98.39099	0	10.89	4003	0	0	5	5	0.1174504	-0.1114526	8	6	0.04	1800	-6.556061	40.92378	-91.39366
825397	-57	19	353	-0.6988677	0.2769281	-98.38852	0	10.89	4002	0	0	5	5	0.1174113	-0.08361864	8	6	0.04	1800	-7.43515	40.92378	-91.39366
825450	101	-186	-35	-0.6065142	0.222868	-98.37035	0	10.89	4002	0	0	5	5	0.1174008	-0.07933621	8	6	0.04	1800	-7.193085	40.92378	-91.39366
825529	32	101	-569	-0.6708244	0.1353095	-98.30219	0	10.89	4002	0	0	5	5	0.1173828	-0.0710501	8	6	0.04	1800	-6.828918	40.92378	-91.39366
825630	-265	57	-76	-0.5678517	-0.03894075	-98.35392	0	10.89	4004	0	-1	5	5	0.1173564	-0.0687062	8	6	0.04	1800	-7.145599	40.92378	-91.39366
825781	-15	-156	755	-0.5685795	-0.1205889	-98.34992	0	10.89	4002	0	-1	5	5	0.117339	-0.05679021	8	6	0.04	1800	-6.823395	40.92377	-91.39366
825889	-322	-73	181	-0.632983	-0.2595088	-98.37023	0	10.89	4002	0	-1	5	5	0.1173277	-0.03833112	8	6	0.04	1800	-7.720612	40.92377	-91.39366
825943	78	180	434	-0.594128	-0.1938999	-98.39548	0	10.89	4004	0	-1	5	5	0.1173255	-0.03742083	8	6	0.04	1800	-7.720612	40.92377	-91.39366
826072	-139	-59	75	-0.5555078	-0.2276437	-98.3817	0	10.89	4003	0	-1	5	5	0.1173188	-0.03330999	8	6	0.04	1800	-7.583344	40.92377	-91.39366
826210	-158	43	290	-0.5489023	-0.2365428	-98.37241	0	10.49	4003	0	0	5	5	0.1173144	-0.03832741	8	6	0.04	1800	-7.481354	40.92377	-91.39366
826384	-257	-40	413	-0.5991371	-0.379382	-98.40075	0	10.49	4004	0	1	5	5	0.117311	-0.05713373	8	6	0.04	1800	-7.13205	40.92378	-91.39366
826593	-209	-48	521	-0.5786542	-0.02237323	-98.45497	0	10.49	4002	0	1	5	5	0.1173086	-0.06110785	8	6	0.04	1800	-7.354767	40.92378	-91.39366
826766	46	89	103	-0.5396999	-0.1281651	-98.40456	0	10.49	4004	0	0	5	5	0.1173076	-0.04244014	8	6	0.04	1800	-7.068939	40.92378	-91.39366
826923	141	50	-1349	-0.514483	-0.1772868	-98.39217	0	10.49	4004	0	0	5	5	0.1173068	-0.02637517	8	6	0.04	1800	-6.309753	40.92378	-91.39366
826979	-114	34	623	-0.3791377	-0.1171813	-98.49383	0	10.49	4004	0	0	5	5	0.1173067	-0.02532331	8	6	0.04	1800	-6.309753	40.92378	-91.39366
827139	333	107	-408	-0.5487081	-0.207007	-98.42437	0	10.6	4004	0	-1	5	5	0.1173065	-0.02608438	8	6	0.04	1800	-7.752594	40.92378	-91.39366
827163	333	107	-408	-0.5487081	-0.207007	-98.42437	0	10.6	4004	0	-1	5	5	0.1173064	-0.0258071	8	6	0.04	1800	-7.752594	40.92378	-91.39366
827322	180	18	-823	-0.3951954	-0.3189725	-98.44084	0	10.6	4003	0	-1	5	5	0.1173063	-0.02357195	8	6	0.04	1800	-7.395691	40.92377	-91.39366
827486	194	328	27	-0.3710265	-0.1471725	-98.48166	0	10.6	4003	0	0	5	5	0.1173062	-0.03753908	8	6	0.04	1800	-6.775391	40.92377	-91.39366
827633	124	62	-40	-0.3808598	-0.1728642	-98.48584	0	10.6	4002	0	-1	5	5	0.1173061	-0.03821867	8	6	0.04	1800	-7.167786	40.92377	-91.39366
827780	85	10	-607	-0.4093751	-0.2654507	-98.50927	0	10.6	4003	0	-1	5	5	0.1173061	-0.03910759	8	6	0.04	1800	-7.255005	40.92377	-91.39366
827961	-326	-68	921	-0.3449405	-0.07353313	-98.57616	0	10.6	4003	0	-1	5	5	0.117306	-0.03756412	8	6	0.04	1800	-6.900909	40.92377	-91.39366
827995	-77	-41	773	-0.4149879	-0.2052354	-98.53441	0	10.6	4003	0	-1	5	5	0.117306	-0.03693614	8	6	0.04	1800	-6.505219	40.92377	-91.39366
828159	-157	-21	931	-0.4189094	-0.08333892	-98.58237	0	10.72	4002	0	-1	5	5	0.117306	-0.03904625	8	6	0.04	1800	-6.720123	40.92377	-91.39366
828255	-240	164	-265	-0.4251848	-0.1543126	-98.52914	0	10.72	4004	2	-3	5	5	0.117306	-0.04610331	8	6	0.04	1800	-6.577362	40.92377	-91.39366
828346	-56	6	-760	-0.4607055	-0.1222433	-98.52196	0	10.72	4003	0	-1	5	5	0.117306	-0.05215538	8	6	0.04	1800	-6.911865	40.92377	-91.39366
828422	84	-45	-150	-0.5599082	0.1317499	-98.52028	0	10.72	4003	0	-2	5	5	0.117306	-0.05671947	8	6	0.04	1800	-7.394165	40.92377	-91.39366
828499	163	453	-451	-0.484935	0.1458774	-98.48296	0	10.72	4002	0	-2	5	5	0.117306	-0.05324446	8	6	0.04	1800	-7.131989	40.92377	-91.39366
828634	108	-158	438	-0.6580846	0.07449187	-98.54926	0	10.72	4003	0	-2	5	5	0.117306	-0.0682036	8	6	0.04	1800	-6.491241	40.92377	-91.39366
828691	199	-181	-41	-0.6459084	0.1469276	-98.54094	0	10.72	4004	0	-4	5	5	0.117306	-0.07405051	8	6	0.04	1800	-6.491241	40.92377	-91.39366
828806	114	138	-814	-0.6589411	0.04808486	-98.60326	0	10.72	4003	0	-4	5	5	0.117306	-0.08165508	8	6	0.04	1800	-6.682312	40.92377	-91.39365
828828	-149	15	381	-0.625067	0.1159428	-98.61458	0	10.72	4003	0	-2	5	5	0.117306	-0.08165508	8	6	0.04	1800	-6.682312	40.92377	-91.39365
829037	207	-108	-560	-0.6647955	-0.07883411	-98.60139	0	10.66	4003	0	-2	5	5	0.117306	-0.08317566	8	6	0.04	1800	-6.619354	40.92377	-91.39365
829083	22	367	-663	-0.6527125	-0.0656141	-98.56987	0	10.66	4003	0	-5	5	5	0.117306	-0.08274345	8	6	0.04	1800	-6.619354	40.92377	-91.39365
829217	-112	-136	160	-0.4091865	-0.7153895	-98.65849	0	10.66	4002	0	-2	5	5	0.117306	-0.09100324	8	6	0.04	1800	-6.807312	40.92377	-91.39365
829293	154	307	-666	-0.4928124	-0.8502513	-98.65051	0	10.66	4004	0	-2	5	5	0.117306	-0.1041555	8	6	0.04	1800	-6.213684	40.92377	-91.39365
829453	399	254	-101	0.2441513	-1.378932	-98.72741	0	10.66	4002	0	-5	5	5	0.117306	-0.1402837	8	6	0.04	1800	-5.760254	40.92377	-91.39365
829581	-268	-61	-505	-0.08747061	-1.798303	-98.707	0	10.66	4003	0	-2	5	5	0.117306	-0.14715	8	6	0.04	1800	-6.038544	40.92377	-91.39365
829706	-928	-1173	412	-0.4074163	-0.9154307	-98.71723	0	10.66	4003	0	-2	5	5	0.117306	-0.1512826	8	6	0.04	1800	-6.539276	40.92377	-91.39365
829846	296	-164	537	-1.376281	0.1258438	-98.69908	0	10.55	4004	0	-2	5	5	0.117306	-0.150199	8	6	0.04	1800	-6.865387	40.92377	-91.39365
829994	-121	-161	243	-0.9180741	0.6000359	-98.77307	0	10.55	4003	0	-2	5	5	0.117306	-0.1437806	8	6	0.04	1800	-6.25354	40.92377	-91.39365
830042	120	5	54	-0.7758267	0.5933091	-98.79076	0	10.55	4002	0	-2	5	5	0.117306	-0.1412944	8	6	0.04	1800	-6.493317	40.92377	-91.39365
830265	87	-116	521	-0.6668647	0.7999267	-98.79032	0	10.55	4002	0	0	5	5	0.117306	-0.1289878	8	6	0.04	1800	-6.924622	40.92377	-91.39365
830436	-132	-76	436	-0.5208261	1.161047	-98.81571	0	10.55	4003	3	-1	5	5	0.117306	-0.1105229	8	6	0.04	1800	-6.487	40.92377	-91.39365
830517	-55	205	89	-0.5395039	0.8307532	-98.84747	0	10.55	4003	1	-1	5	5	0.117306	-0.1127388	8	6	0.04	1800	-6.853912	40.92377	-91.39365
830615	-79	-23	-655	-0.508502	0.9252245	-98.83357	0	10.55	4004	1	-1	5	5	0.117306	-0.1249634	8	6	0.04	1800	-5.975586	40.92377	-91.39365
830708	-42	-395	583	-0.5244159	1.153067	-98.84622	0	10.55	4004	1	0	5	5	0.117306	-0.1254133	8	6	0.04	1800	-5.942627	40.92377	-91.39365
830775	-31	8	573	-0.4414311	1.213323	-98.82148	0	11.11	4003	3	-1	5	5	0.117306	-0.1185078	8	6	0.04	1800	-7.035583	40.92377	-91.39365
830884	-219	-205	259	-0.3251862	0.8409982	-98.84768	0	11.11	4003	1	-2	5	5	0.117306	-0.1095782	8	6	0.04	1800	-7.214417	40.92377	-91.39365
830921	-23	60	164	-0.3897238	0.7446423	-98.86037	0	11.11	4002	1	-2	5	5	0.117306	-0.1051853	8	6	0.04	1800	-6.639984	40.92377	-91.39365
831114	-103	32	-531	-0.5389201	1.012827	-98.81836	0	11.11	4003	0	2	5	5	0.117306	-0.09257609	8	6	0.04	1800	-6.403992	40.92377	-91.39365
831179	-184	217	-131	-0.5792147	1.016995	-98.84895	0	11.11	4004	0	-1	5	5	0.117306	-0.07934628	8	6	0.04	1800	-6.724182	40.92377	-91.39365
831346	161	-17	-215	-0.2671179	0.7830116	-98.83244	0	11.11	4002	1	-2	5	5	0.117306	-0.08284275	8	6	0.04	1800	-6.083344	40.92377	-91.39365
831525	626	466	-501	-0.3578227	0.2624176	-98.8532	0	11.11	4004	0	-2	5	5	0.117306	-0.09013509	8	6	0.04	1800	-6.047577	40.92377	-91.39365
831584	12	-36	674	-0.2515769	-0.009240783	-98.96138	0	11.11	4002	0	-2	5	5	0.117306	-0.09897435	8	6	0.04	1800	-5.45575	40.92377	-91.39365
831745	261	35	-970	-0.2993347	-0.4528437	-98.84404	0	10.55	4004	0	0	5	5	0.117306	-0.10235	8	6	0.04	1800	-5.595734	40.92377	-91.39365
831874	-32	251	-308	-0.3896507	-0.04060998	-98.86443	0	10.55	4004	0	0	5	5	0.117306	-0.1065044	3	6	0.04	1800	-6.345337	40.92377	-91.39366
832062	206	27	-409	-0.2174112	0.2882726	-98.90286	0	10.55	4002	0	0	5	5	0.117306	-0.1402179	3	6	0.04	1800	-6.31485	40.92377	-91.39366
832184	125	207	-129	0.01184274	0.3999751	-98.98191	0	10.55	4003	0	0	5	5	0.117306	-0.1700622	3	6	0.04	1800	-6.495056	40.92377	-91.39366
832246	61	-23	166	-0.004418977	0.4798425	-98.9842	0	10.55	4004	0	0	5	5	0.117306	-0.1730171	3	6	0.04	1800	-6.858276	40.92377	-91.39366
832464	264	50	59	-0.2351453	0.2308211	-99.0251	0	10.55	4002	0	0	5	5	0.117306	-0.1619021	3	6	0.04	1800	-7.042725	40.92377	-91.39366
832606	120	120	237	-0.041864	-0.005008525	-98.99463	0	10.43	4004	0	0	5	5	0.117306	-0.1522669	3	6	0.04	1800	-5.88382	40.92376	-91.39366
832745	10	825	30	0.4128859	-0.6224344	-98.95095	0	10.43	4002	0	0	5	5	0.117306	-0.1481767	3	6	0.04	1800	-6.421539	40.92376	-91.39366
832801	-509	115	1110	0.42185	-1.124607	-99.0284	0	10.43	4003	0	0	5	5	0.117306	-0.1463183	3	6	0.04	1800	-6.216064	40.92376	-91.39366
832973	-384	-476	618	-0.05617781	-1.511654	-99.00271	0	10.43	4004	0	0	5	5	0.117306	-0.1268903	3	6	0.04	1800	-5.60968	40.92376	-91.39366
833113	574	362	569	-0.4392701	-1.494946	-98.8556	0	10.43	4003	0	0	5	5	0.117306	-0.1139752	3	6	0.04	1800	-6.950623	40.92376	-91.39366
833171	640	224	84	-0.1460727	-1.744548	-98.77212	0	10.43	4004	0	0	5	5	0.117306	-0.1079094	3	6	0.04	1800	-6.950623	40.92376	-91.39366
833272	623	1075	-445	0.04313171	-1.778064	-98.85577	0	10.43	4004	0	0	5	5	0.117306	-0.109453	3	6	0.04	1800	-5.791351	40.92376	-91.39366
833471	203	1107	-315	0.1012486	-2.246555	-98.86002	0	10.43	4003	0	0	5	5	0.117306	-0.1159166	3	6	0.04	1800	-5.297821	40.92376	-91.39366
833544	379	884	-923	0.583817	-3.414017	-98.82532	0	10.43	4003	0	0	5	5	0.117306	-0.1127283	3	6	0.04	1800	-5.785522	40.92375	-91.39366
833711	81	-91	-727	0.6381047	-3.553493	-98.82675	0	10.43	4004	0	0	5	5	0.117306	-0.1142926	3	6	0.04	1800	-5.652496	40.92375	-91.39366
833787	207	80	-670	0.3014364	-1.709679	-98.73131	0	10.43	4004	0	0	5	5	0.1166543	-0.127752	6	6	0.04	1800	-5.952576	40.92375	-91.39366
833919	-441	-566	424	0.5075331	-1.808783	-98.65524	0	10.43	4004	0	0	5	5	0.1288998	-0.1356443	6	6	0.04	1800	-5.587341	40.92375	-91.39366
833974	-1004	-1873	-462	-0.2363566	-0.4735112	-98.53212	0	10.43	4004	0	0	5	5	0.1279928	-0.1410506	6	6	0.04	1800	-5.929932	40.92375	-91.39366
834062	-122	-360	-146	-0.501954	0.7732355	-98.18455	0	10.43	4003	0	0	5	5	0.1142013	-0.1355963	6	6	0.04	1800	-5.228241	40.92375	-91.39366
834227	-262	31	-305	-1.766734	-0.02390084	-98.02259	0	10.43	4002	0	0	5	5	0.1506482	-0.1047145	8	6	0.04	1800	-7.350128	40.92375	-91.39366
834315	2707	-2069	-132	-0.2683184	1.003793	-98.0116	0	10.43	4003	0	0	5	5	0.1988715	-0.08624194	8	6	0.04	1800	-6.713318	40.92375	-91.39366
834416	-33	1091	286	0.8202899	1.589983	-98.44083	0	10.43	4004	0	2	5	5	0.2340263	-0.06083228	8	6	0.04	1800	-7.845734	40.92375	-91.39366
834518	-491	855	514	0.3017898	-0.8088511	-98.19466	0	10.66	4004	0	0	5	5	0.2596541	-0.04541396	8	6	0.04	1800	-5.91983	40.92375	-91.39366
834552	167	1069	242	0.2261103	-1.173447	-98.11936	0	10.66	4002	0	-2	5	5	0.2665481	-0.04297256	8	6	0.04	1800	-5.91983	40.92375	-91.39366
834647	-16	609	52	0.6230075	-1.884318	-98.07394	0	10.66	4002	0	0	5	5	0.2833625	-0.03321692	8	6	0.04	1800	-7.507263	40.92375	-91.39366
834825	1146	148	-1271	0.5962115	-3.679216	-97.62167	0	10.66	4004	0	-2	5	5	0.3018853	-0.00494635	8	6	0.04	1800	-7.406128	40.92375	-91.39366
834938	-318	-234	580	0.7940048	-3.852427	-97.62637	0	10.66	4004	0	0	5	5	0.3091234	-0.00221338	8	6	0.04	1800	-6.725708	40.92375	-91.39366
834996	11	231	983	0.6562449	-3.458387	-97.6007	0	10.66	4003	0	-2	5	5	0.3143999	0.001066796	8	6	0.04	1800	-6.953918	40.92375	-91.39366
835175	236	799	156	0.800072	-4.702165	-97.91552	0	10.66	4003	0	3	5	5	0.3192813	0.01244365	8	6	0.04	1800	-6.417603	40.92375	-91.39366
835320	-544	-177	-703	-0.1020764	-4.50371	-97.00333	0	10.66	4004	0	-1	5	5	0.3230949	0.02953223	8	6	0.04	1800	-7.07431	40.92375	-91.39366
835357	788	32	0	-0.05443077	-3.938647	-97.00009	0	10.89	4004	0	-1	5	5	0.3236448	0.0338254	8	6	0.04	1800	-8.974823	40.92375	-91.39366
835531	1701	2563	-77	2.83808	-5.413754	-96.80897	0	10.89	4003	0	-1	5	5	0.3259638	0.07846404	8	6	0.04	1800	-7.816956	40.92375	-91.39366
835659	-122	-188	-146	-0.07630425	-6.063324	-93.66559	0	10.89	4008	0	-1	5	5	0.3266766	0.1010973	8	6	0.04	1800	-9.294983	40.92375	-91.39366
835840	-777	-3568	1961	1.606264	-2.157795	-99.16994	0	10.89	4004	0	-1	5	5	0.327575	0.1543398	8	6	0.04	1800	-4.262268	40.92375	-91.39366
835933	-14	-514	148	0.9594941	1.754478	-100.0124	0	10.89	4002	0	-1	5	5	0.3279254	0.1965644	8	6	0.04	1800	-4.513977	40.92375	-91.39366
836040	528	1382	-1863	1.332593	0.3046681	-97.81468	0	10.89	4004	0	0	5	5	0.3281066	0.2393992	8	6	0.04	1800	-4.460846	40.92375	-91.39366
836182	-15	-2033	-729	1.190288	1.451502	-96.73156	0	10.89	4002	0	-3	5	5	0.3282742	0.2863393	8	6	0.04	1800	-3.966003	40.92375	-91.39366
836240	1250	-439	-488	1.486778	2.60179	-96.47526	0	9.53	4010	0	0	5	5	0.328335	0.3110357	8	6	0.04	1800	-4.033417	40.92375	-91.39366
836357	2494	2458	-883	3.774851	-1.433386	-95.71596	0	9.53	4002	-2	-1	5	5	0.3284052	0.3571216	8	6	0.04	1800	-2.569733	40.92375	-91.39366
836563	-568	-1274	-795	1.809921	7.373212	-90.63224	0	9.53	4003	0	1	5	5	0.3284937	0.4328768	8	6	0.04	1800	-7.057434	40.92375	-91.39366
836733	1507	-563	2320	2.235745	7.575702	-93.22137	0	9.53	4008	0	0	5	5	0.3285407	0.5219615	8	6	0.04	1800	-7.422638	40.92375	-91.39366
836858	-1761	-3764	538	1.104433	8.948309	-99.29835	0	9.53	4002	0	0	5	5	0.328559	0.5755554	8	6	0.04	1800	-3.951721	40.92375	-91.39366
836979	-1510	-425	476	-0.8297719	10.67624	-99.07903	0	9.53	4004	0	0	5	5	0.3285685	0.6210114	8	6	0.04	1800	-3.35083	40.92375	-91.39366
837079	1055	2229	-989	-0.859136	8.194049	-98.13736	0	9.53	4004	0	0	5	5	0.3285773	0.666256	8	6	0.04	1800	-6.536804	40.92375	-91.39366
837175	1358	4482	-3474	0.9914992	2.634752	-95.85461	0	10.09	4004	0	2	5	5	0.3285818	0.6989081	8	6	0.04	1800	-7.787506	40.92375	-91.39366
837293	-928	1783	340	3.392262	-1.575742	-92.4192	0	10.09	4002	0	0	5	5	0.3285851	0.7387351	8	6	0.04	1800	-7.299561	40.92375	-91.39366
837379	-2468	-3500	1528	0.7018944	1.174221	-93.25368	0	10.09	4002	0	0	5	5	0.3285875	0.767526	8	6	0.04	1800	-5.481201	40.92375	-91.39366
837478	-1118	3539	2129	-2.846432	0.03536181	-97.6958	0	10.09	4003	0	0	5	5	0.3285898	0.8120462	8	6	0.04	1800	-6.478119	32.73444	-67.4723
837579	-4881	6380	2270	-7.30554	-5.329	-98.62468	0	10.09	4004	300	-300	5	5	0.3285909	0.8428111	8	6	0.04	1800	-6.862427	30.00467	-59.4985
837638	-5983	-521	-1240	-16.1661	-6.828127	-97.63039	0	10.09	4003	300	300	5	5	0.3285912	0.8510936	8	6	0.04	1800	-10.74323	27.2749	-51.52471
837763	-4865	2389	-2999	-23.83071	-6.128365	-93.22526	0	10.09	4003	300	-300	5	5	0.3285924	0.9095014	8	6	0.04	1800	-15.95023	27.2749	-51.52471
837849	-1672	4634	649	-23.5741	-11.15469	-92.52975	0	10.09	4003	300	-300	5	5	0.3285927	0.940501	8	6	0.04	1800	-28.76382	27.2749	-51.52471
837940	-1327	4194	-443	-20.74895	-19.27587	-93.68892	0	10.09	4004	300	-300	5	5	0.3285931	1.017382	8	6	0.04	1800	-31.96036	27.2749	-51.52471
838011	-151	2887	1523	-18.49756	-20.99634	-95.06428	0	10.04	4004	300	-300	5	5	0.3285933	1.060471	8	6	0.04	1800	-33.41663	27.2749	-51.52471
838113	6718	-2305	2854	-11.36187	-20.2764	-98.16917	0	10.04	4003	300	-300	5	5	0.3285936	1.158104	8	6	0.04	1800	-32.37375	35.46421	-75.44608
838229	8742	-5249	-500	8.475504	-5.266558	-101.1122	0	10.04	4002	1	1	5	5	0.3285937	1.258291	8	6	0.04	1800	-24.81985	40.92376	-91.39365
838425	4096	-1696	-972	21.24611	1.341469	-95.75873	0	10.04	4002	-1	1	5	5	0.3285939	1.504146	8	6	0.04	1800	-24.74054	40.92376	-91.39366
838587	-3661	1272	290	12.77229	-0.2029029	-97.04864	0	10.04	4004	0	3	5	5	0.3285939	1.609206	8	6	0.04	1800	-21.27399	40.92376	-91.39366
838685	-247	-3316	784	10.33733	5.055965	-98.52205	0	10.04	4003	-2	4	5	5	0.3285939	1.663191	8	6	0.04	1800	-18.08633	40.92377	-91.39367
838819	-979	-90	119	7.473509	4.80113	-98.01296	0	10.6	4004	-3	6	5	5	0.3285939	1.720834	8	6	0.04	1800	-15.84421	40.92377	-91.39367
838887	-499	-1355	-319	4.092913	4.315941	-97.94459	0	10.6	4002	-1	9	5	5	0.3285939	1.719718	8	6	0.04	1800	-15.77032	40.92378	-91.39368
838992	4265	-2369	-398	7.20464	5.903063	-97.98603	0	10.6	4004	-4	11	5	5	0.3285939	1.672324	8	6	0.04	1800	-13.93018	40.92379	-91.39368
839168	2563	1401	-707	13.08212	8.156933	-98.06084	0	10.6	4004	-3	10	5	5	0.3285939	1.610942	8	6	0.04	1800	-9.029999	40.9238	-91.39368
839264	2254	3403	-1260	15.35187	1.681094	-97.14159	0	10.6	4004	0	0	5	5	0.3285939	1.552733	1	6	0.04	1800	-4.65979	40.92381	-91.39368
839367	1599	1174	-483	14.30668	-1.211833	-96.18754	0	10.6	4003	0	0	5	5	0.3285939	1.476687	1	6	0.04	1800	0.3758169	40.92381	-91.39368
839557	2698	2255	189	14.93692	-2.412829	-96.02185	0	10.6	4003	0	0	5	5	0.3285939	1.232934	1	6	0.04	1800	9.079299	40.92382	-91.39369
839626	-29919	-14510	5854	27.30518	-7.324416	-87.41294	0	10.6	4003	0	0	5	5	0.3285939	1.049853	1	6	0.04	1800	-47.59219	40.92382	-91.39369
839688	-18744	-11577	2520	2.281332	7.478163	-92.64041	0	10.94	4003	0	0	5	5	0.3285939	0.9955036	1	6	0.04	1800	-55.71552	40.92382	-91.39369
839808	-29723	3034	2122	-51.43103	12.55822	-103.2078	0	10.94	4002	0	0	5	5	0.3285939	0.7827433	1	6	0.04	1800	-48.55826	40.92383	-91.39369
839995	-1922	1191	3496	-79.86625	-10.43113	-119.7834	0	10.94	4004	0	0	5	5	0.3285939	0.5113358	1	6	0.04	1800	-48.46939	40.92383	-91.39369
840104	7474	5116	-1759	-62.72246	-16.75085	-120.6645	0	10.94	4003	0	0	5	5	0.3285939	0.4549122	1	6	0.04	1800	-48.12213	40.92383	-91.39369
840253	3316	-2132	-1717	-44.59531	-13.64377	-115.0787	0	10.94	4002	0	0	5	5	0.3285939	0.3670757	1	6	0.04	1800	-54.33307	40.92383	-91.39368
840345	-200	-6329	2149	-40.57368	-4.736433	-116.2296	0	10.94	4003	0	0	5	5	0.3285939	0.3216763	1	6	0.04	1800	-51.03891	40.92383	-91.39368
840422	4325	-4358	-1162	-31.01216	0.6054628	-118.0646	0	10.94	4004	0	0	5	5	0.3285939	0.2507855	1	6	0.04	1800	-42.41055	40.92383	-91.39368
840507	-26	1167	-273	-28.86111	-0.4188833	-117.8552	0	10.94	4003	0	0	5	5	0.3285939	0.2281705	1	6	0.04	1800	-39.46448	40.92383	-91.39368
840587	-57	86	-38	-28.00167	-2.801423	-117.9249	0	11	4002	0	0	5	5	0.3285939	0.1819067	1	6	0.04	1800	-38.67719	40.92383	-91.39368
840745	-38	-22	26	-26.86453	-4.65507	-118.0134	0	11	4004	0	0	5	5	0.3285939	0.09438299	1	6	0.04	1800	-37.5625	40.92383	-91.39368
840840	-47	-4	16	-25.85475	-6.180471	-118.0177	0	11	4004	0	0	5	5	0.3285939	0.0776752	1	6	0.04	1800	-36.9877	40.92383	-91.39368
840941	-45	-7	20	-25.21273	-7.147928	-118.0342	0	11	4003	0	0	5	5	0.3285939	0.04055738	1	6	0.04	1800	-36.48715	40.92383	-91.39368
841003	-39	2	8	-24.83116	-7.725119	-118.0426	0	11	4004	0	0	5	5	0.3285939	0.02607111	1	6	0.04	1800	-36.26205	40.92383	-91.39368
841107	-42	5	6	-24.64977	-7.997139	-118.0463	0	11	4004	0	0	5	5	0.3285939	0.008754678	1	6	0.04	1800	-36.26205	40.92383	-91.39368
841269	-42	-3	11	-23.60496	-9.594285	-118.0782	0	11	4003	0	0	5	5	0.3285939	-0.01288444	1	6	0.04	1800	-35.22696	40.92383	-91.39368
841347	-41	0	11	-23.24473	-10.13122	-118.0901	0	11	4004	0	0	5	5	0.3285939	-0.02437302	1	6	0.04	1800	-35.12494	40.92383	-91.39368
841463	-48	0	10	-22.93482	-10.60628	-118.1026	0	10.94	4003	0	0	5	5	0.3285939	-0.03984185	1	6	0.04	1800	-34.78476	40.92383	-91.39368
841520	-43	0	9	-22.75157	-10.88658	-118.1111	0	10.94	4003	0	0	5	5	0.3285939	-0.04676341	1	6	0.04	1800	-34.70874	40.92383	-91.39368
841579	-36	-2	6	-22.58338	-11.13899	-118.1181	0	10.94	4004	0	0	5	5	0.3285939	-0.05733268	1	6	0.04	1800	-34.55051	40.92383	-91.39368
841741	-40	0	6	-22.22528	-11.69544	-118.1368	0	10.94	4002	0	0	5	5	0.3285939	-0.06867425	1	6	0.04	1800	-34.25287	40.92383	-91.39368
841855	-47	2	7	-22.05185	-11.97375	-118.1485	0	10.94	4004	0	0	5	5	0.3285939	-0.09064348	1	6	0.04	1800	-34.33429	40.92383	-91.39368
841891	-43	3	1	-21.99857	-12.05966	-118.1514	0	10.94	4003	0	0	5	5	0.3285939	-0.09911621	1	6	0.04	1800	-34.21585	40.92383	-91.39368
841980	-38	-2	6	-21.84659	-12.28724	-118.1634	0	10.94	4004	0	0	5	5	0.3285939	-0.1001936	1	6	0.04	1800	-33.91345	40.92383	-91.39368
842073	-39	-2	8	-21.71499	-12.49139	-118.1732	0	10.94	4003	0	0	5	5	0.3285939	-0.09903879	1	6	0.04	1800	-33.95584	40.92383	-91.39368
842316	-41	5	5	-21.46112	-12.86612	-118.2009	0	10.94	4003	0	0	5	5	0.3285939	-0.08089046	1	6	0.04	1800	-33.84329	40.92383	-91.39368
842419	-43	3	5	-21.38374	-12.99494	-118.2104	0	11	4004	0	0	5	5	0.3285939	-0.08111046	1	6	0.04	1800	-33.77045	40.92383	-91.39368
842602	-43	0	4	-21.24382	-13.20234	-118.2331	0	11	4002	0	0	5	5	0.3285939	-0.08221366	1	6	0.04	1800	-33.63843	40.92383	-91.39368
842712	-42	1	7	-21.1545	-13.32097	-118.2461	0	11	4002	0	0	5	5	0.3285939	-0.08401541	1	6	0.04	1800	-33.45996	40.92383	-91.39368
842855	-38	-1	3	-21.10537	-13.38762	-118.2516	0	11	4003	0	0	5	5	0.3285939	-0.08551609	1	6	0.04	1800	-33.504	40.92383	-91.39368
842943	-41	2	5	-21.06228	-13.45058	-118.2598	0	11	4003	0	0	5	5	0.3285939	-0.08402361	1	6	0.04	1800	-33.50198	40.92383	-91.39368
842970	-33	0	8	-21.04803	-13.47028	-118.2627	0	11	4002	0	0	5	5	0.3285939	-0.08347981	1	6	0.04	1800	-33.50198	40.92383	-91.39368
843119	-38	1	11	-20.9967	-13.53128	-118.2732	0	11	4003	0	0	5	5	0.3285939	-0.09249423	1	6	0.04	1800	-33.43347	40.92383	-91.39368
843196	-35	-6	5	-20.96561	-13.57463	-118.2823	0	11	4002	0	0	5	5	0.3285939	-0.1075885	1	6	0.04	1800	-33.40207	40.92383	-91.39368
843319	-43	2	7	-20.93407	-13.61335	-118.2917	0	11	4003	0	0	5	5	0.3285939	-0.126843	1	6	0.04	1800	-33.41812	40.92383	-91.39368
843378	-50	0	7	-20.91035	-13.64983	-118.3014	0	11	4004	0	0	5	5	0.3285939	-0.1316597	1	6	0.04	1800	-33.47775	40.92383	-91.39368
843572	-41	-1	9	-20.88516	-13.69012	-118.3177	0	11	4002	0	0	5	5	0.3285939	-0.1558295	1	6	0.04	1800	-33.29428	40.92383	-91.39368
843654	-39	-1	9	-20.86691	-13.70988	-118.3277	0	11	4004	0	0	5	5	0.3285939	-0.162369	1	6	0.04	1800	-33.3399	40.92383	-91.39368
843722	-36	2	5	-20.8593	-13.72836	-118.3337	0	11	4002	0	0	5	5	0.3285939	-0.1652842	1	6	0.04	1800	-33.47195	40.92383	-91.39368
843803	-37	4	0	-20.84147	-13.74333	-118.3412	0	11	4003	0	0	5	5	0.3285939	-0.166932	1	6	0.04	1800	-33.31857	40.92383	-91.39368
843892	-39	-2	7	-20.835	-13.75742	-118.3497	0	11	4003	0	0	5	5	0.3285939	-0.1615795	1	6	0.04	1800	-33.25742	40.92383	-91.39368
843958	-36	0	11	-20.82877	-13.76667	-118.3548	0	11	4003	0	0	5	5	0.3285939	-0.1583912	1	6	0.04	1800	-33.25449	40.92383	-91.39368
844138	-40	-1	4	-20.81271	-13.78529	-118.3661	0	11	4004	0	0	5	5	0.3285939	-0.1519834	1	6	0.04	1800	-33.31055	40.92383	-91.39368
844156	-40	-1	4	-20.81271	-13.78529	-118.3661	0	11	4004	0	0	5	5	0.3285939	-0.1495292	1	6	0.04	1800	-33.31055	40.92383	-91.39368
844336	-34	0	6	-20.79683	-13.82239	-118.3878	0	10.94	4004	0	0	5	5	0.3285939	-0.1422909	1	6	0.04	1800	-33.37039	40.92383	-91.39368
844453	-41	1	1	-20.79121	-13.82622	-118.3959	0	10.94	4004	0	0	5	5	0.3285939	-0.1225092	1	6	0.04	1800	-33.20862	40.92383	-91.39368
844549	-46	4	7	-20.79037	-13.83278	-118.401	0	10.94	4003	0	0	5	5	0.3285939	-0.1130759	1	6	0.04	1800	-33.1395	40.92383	-91.39368
844737	-38	2	6	-20.78469	-13.84515	-118.4192	0	10.94	4004	0	0	5	5	0.3285939	-0.072473	1	6	0.04	1800	-33.30508	40.92383	-91.39368
844789	-36	-1	4	-20.78352	-13.8464	-118.4238	0	10.94	4003	0	0	5	5	0.3285939	-0.06886836	1	6	0.04	1800	-33.30396	40.92383	-91.39368
844873	-36	-6	5	-20.78531	-13.84864	-118.4338	0	10.94	4002	0	0	5	5	0.3285939	-0.0545388	1	6	0.04	1800	-33.22012	40.92383	-91.39368
844993	-41	1	2	-20.77764	-13.85564	-118.4426	0	10.94	4002	0	0	5	5	0.3285939	-0.04389584	1	6	0.04	1800	-33.33673	40.92383	-91.39368
845141	-41	-4	1	-20.7763	-13.86321	-118.4499	0	11	4003	0	0	5	5	0.3285939	-0.03680451	1	6	0.04	1800	-33.35339	40.92383	-91.39368
845293	-34	2	5	-20.77911	-13.86635	-118.4635	0	11	4002	0	0	5	5	0.3285939	-0.02517731	1	6	0.04	1800	-33.2807	40.92383	-91.39368
845362	-38	0	6	-20.77804	-13.86995	-118.4686	0	11	4003	0	0	5	5	0.3285939	-0.021159	1	6	0.04	1800	-33.2807	40.92383	-91.39368
845431	-39	3	5	-20.77252	-13.87459	-118.4773	0	11	4002	0	0	5	5	0.3285939	-0.01790417	1	6	0.04	1800	-33.35043	40.92383	-91.39368
845580	-39	-6	2	-20.76802	-13.87325	-118.4839	0	11	4004	0	0	5	5	0.3285939	-0.01756333	1	6	0.04	1800	-33.20822	40.92383	-91.39368
845679	-29	-3	4	-20.75692	-13.86989	-118.4928	0	11	4002	0	0	5	5	0.3285939	-0.0229885	1	6	0.04	1800	-33.2897	40.92383	-91.39368
845734	-34	5	4	-20.75484	-13.86893	-118.4971	0	11	4003	0	0	5	5	0.3285939	-0.03047124	1	6	0.04	1800	-33.23938	40.92383	-91.39368
845895	-37	0	-2	-20.74578	-13.871	-118.509	0	11	4003	0	0	5	5	0.3285939	-0.04915151	1	6	0.04	1800	-33.18137	40.92383	-91.39368
846027	-37	0	3	-20.73857	-13.8716	-118.5188	0	10.94	4004	0	0	5	5	0.3285939	-0.06880098	1	6	0.04	1800	-33.27975	40.92383	-91.39368
846091	-42	1	1	-20.73331	-13.87303	-118.5246	0	10.94	4003	0	0	5	5	0.3285939	-0.07353684	1	6	0.04	1800	-33.19385	40.92383	-91.39368
846173	-47	2	5	-20.73385	-13.86983	-118.5281	0	10.94	4003	0	0	5	5	0.3285939	-0.08739043	1	6	0.04	1800	-33.4725	40.92383	-91.39368
846215	-41	-1	6	-20.72747	-13.86875	-118.5307	0	10.94	4003	0	0	5	5	0.3285939	-0.08930404	1	6	0.04	1800	-33.17316	40.92383	-91.39368
846368	-34	0	6	-20.73368	-13.8791	-118.5447	0	10.94	4002	0	0	5	5	0.3285939	-0.09413502	1	6	0.04	1800	-33.32867	40.92383	-91.39368
846474	-29	8	9	-20.73345	-13.88067	-118.5524	0	10.94	4004	0	0	5	5	0.3285939	-0.09600422	1	6	0.04	1800	-33.19092	40.92383	-91.39368
846619	-32	-4	1	-20.73549	-13.8834	-118.562	0	10.94	4003	0	0	5	5	0.3285939	-0.08972709	1	6	0.04	1800	-33.17303	40.92383	-91.39368
846764	-38	3	5	-20.73963	-13.88656	-118.5734	0	10.94	4003	0	0	5	5	0.3285939	-0.08702222	1	6	0.04	1800	-33.25931	40.92383	-91.39368
846829	-31	1	4	-20.7409	-13.8866	-118.5802	0	11.06	4003	0	0	5	5	0.3285939	-0.08682182	1	6	0.04	1800	-33.19272	40.92383	-91.39368
846909	-29	-6	4	-20.734	-13.88881	-118.5854	0	11.06	4002	0	0	5	5	0.3285939	-0.0878511	1	6	0.04	1800	-33.13721	40.92383	-91.39368
847045	-33	4	3	-20.73179	-13.88995	-118.5964	0	11.06	4003	0	0	5	5	0.3285939	-0.08952264	1	6	0.04	1800	-33.16992	40.92383	-91.39368
847164	-34	3	3	-20.7337	-13.88578	-118.6037	0	11.06	4004	0	0	5	5	0.3285939	-0.09566235	1	6	0.04	1800	-33.24451	40.92383	-91.39368
847244	-32	5	2	-20.73	-13.88357	-118.6061	0	11.06	4002	0	0	5	5	0.3285939	-0.095621	1	6	0.04	1800	-33.36075	40.92383	-91.39368
847383	-35	0	2	-20.72471	-13.889	-118.6194	0	11.06	4004	0	0	5	5	0.3285939	-0.08867981	1	6	0.04	1800	-33.25449	40.92383	-91.39368
847453	-35	0	2	-20.72285	-13.88659	-118.6235	0	11.06	4004	0	0	5	5	0.3285939	-0.08566749	1	6	0.04	1800	-33.16718	40.92383	-91.39368
847536	-35	-1	4	-20.72108	-13.89027	-118.6296	0	11.06	4003	0	0	5	5	0.3285939	-0.08131285	1	6	0.04	1800	-33.1655	40.92383	-91.39368
847635	-33	0	4	-20.71639	-13.89531	-118.6399	0	11.06	4002	0	0	5	5	0.3285939	-0.05782194	1	6	0.04	1800	-33.26569	40.92383	-91.39368
847670	-34	-3	2	-20.71307	-13.89503	-118.6411	0	11.06	4003	0	0	5	5	0.3285939	-0.05347102	1	6	0.04	1800	-33.26569	40.92383	-91.39368
847833	-29	-5	5	-20.71317	-13.89412	-118.6479	0	11	4003	0	0	5	5	0.3285939	-0.02872105	1	6	0.04	1800	-33.32019	40.92383	-91.39368
847898	-41	0	1	-20.71095	-13.90373	-118.6536	0	11	4003	0	0	5	5	0.3285939	-0.01401701	1	6	0.04	1800	-33.17786	40.92383	-91.39368
847959	-31	-1	7	-20.71102	-13.90342	-118.6579	0	11	4003	0	0	5	5	0.3285939	-0.008381403	1	6	0.04	1800	-33.21329	40.92383	-91.39368
848033	-30	-1	2	-20.71184	-13.90423	-118.6602	0	11	4003	0	0	5	5	0.3285939	-0.003338089	1	6	0.04	1800	-33.26114	40.92383	-91.39368
848129	-33	4	6	-20.70356	-13.90659	-118.6691	0	11	4002	0	0	5	5	0.3285939	-0.004633057	1	6	0.04	1800	-33.34323	40.92383	-91.39368
848298	-31	0	3	-20.70149	-13.90187	-118.6769	0	11	4004	0	0	5	5	0.3285939	-0.01470269	1	6	0.04	1800	-33.25735	40.92383	-91.39368
848365	-35	-1	2	-20.70111	-13.90305	-118.6804	0	11	4003	0	0	5	5	0.3285939	-0.01914116	1	6	0.04	1800	-33.15463	40.92383	-91.39368
848491	-31	0	5	-20.69822	-13.90262	-118.685	0	11	4003	0	0	5	5	0.3285939	-0.02658953	1	6	0.04	1800	-33.20227	40.92383	-91.39368
848588	-33	2	2	-20.69622	-13.90206	-118.6915	0	11.06	4004	0	0	5	5	0.3285939	-0.03936053	1	6	0.04	1800	-33.25546	40.92383	-91.39368
848629	-23	-2	2	-20.69072	-13.90367	-118.693	0	11.06	4003	0	0	5	5	0.3285939	-0.04176679	1	6	0.04	1800	-33.25546	40.92383	-91.39368
848753	-36	-5	3	-20.68891	-13.90683	-118.6969	0	11.06	4004	0	0	5	5	0.3285939	-0.0577777	1	6	0.04	1800	-33.25162	40.92383	-91.39368
848860	-31	0	5	-20.68719	-13.9049	-118.7034	0	11.06	4003	0	0	5	5	0.3285939	-0.06444193	1	6	0.04	1800	-33.25073	40.92383	-91.39368
848951	-36	1	10	-20.68499	-13.90062	-118.7067	0	11.06	4004	0	0	5	5	0.3285939	-0.06339683	1	6	0.04	1800	-33.1105	40.92383	-91.39368
849100	-33	0	-1	-20.6776	-13.89674	-118.714	0	11.06	4002	0	0	5	5	0.3285939	-0.06799036	1	6	0.04	1800	-33.24796	40.92383	-91.39368
849249	-32	2	0	-20.67991	-13.90125	-118.7187	0	11.06	4003	0	0	5	5	0.3285939	-0.08426065	1	6	0.04	1800	-33.16174	40.92383	-91.39368
849368	-25	2	5	-20.67314	-13.89957	-118.7259	0	11.06	4002	0	0	5	5	0.3285939	-0.09411882	1	6	0.04	1800	-33.16028	40.92383	-91.39368
849419	-26	-4	0	-20.67663	-13.90247	-118.729	0	11.06	4002	0	0	5	5	0.3285939	-0.09549085	1	6	0.04	1800	-33.24536	40.92383	-91.39368
849515	-34	1	3	-20.67756	-13.90255	-118.7316	0	11.06	4003	0	0	5	5	0.3285939	-0.09411602	1	6	0.04	1800	-33.21527	40.92383	-91.39368
849687	-27	0	1	-20.67076	-13.90081	-118.7397	0	11.06	4004	0	0	5	5	0.3285939	-0.07820649	1	6	0.04	1800	-33.29843	40.92383	-91.39368
849760	-31	7	2	-20.66327	-13.9	-118.7414	0	11.06	4003	0	0	5	5	0.3285939	-0.07772269	1	6	0.04	1800	-33.24301	40.92383	-91.39368
849872	-30	1	-1	-20.65791	-13.89431	-118.7458	0	11.06	4003	0	0	5	5	0.3285939	-0.08320011	1	6	0.04	1800	-33.18518	40.92383	-91.39368
849979	-28	4	4	-20.65966	-13.89207	-118.7474	0	11.06	4003	0	0	5	5	0.3285939	-0.07609782	1	6	0.04	1800	-33.20825	40.92383	-91.39368
850115	-29	2	2	-20.65392	-13.89658	-118.7534	0	11.06	4003	0	0	5	5	0.3285939	-0.05734896	1	6	0.04	1800	-33.23615	40.92383	-91.39368
850234	-32	0	3	-20.65275	-13.89423	-118.7591	0	11.06	4004	0	0	5	5	0.3285939	-0.04850263	1	6	0.04	1800	-33.29059	40.92383	-91.39368
850303	-30	0	6	-20.64891	-13.89405	-118.7624	0	11.06	4003	0	0	5	5	0.3285939	-0.04723448	1	6	0.04	1800	-33.23654	40.92383	-91.39368
850476	-29	0	2	-20.64881	-13.89799	-118.7671	0	11	4002	0	0	5	5	0.3285939	-0.03835062	1	6	0.04	1800	-33.18509	40.92383	-91.39368
850626	-30	-17	21	-20.64237	-13.8935	-118.7745	0	11	4004	0	0	5	5	0.3285939	-0.04472196	1	6	0.04	1800	-33.07373	40.92383	-91.39368
850757	-28	1	9	-20.64565	-13.89923	-118.7797	0	11	4003	0	0	5	5	0.3285939	-0.04734178	1	6	0.04	1800	-33.23077	40.92383	-91.39368
850797	-24	6	0	-20.64486	-13.89815	-118.7798	0	11	4004	0	0	5	5	0.3285939	-0.04668185	1	6	0.04	1800	-33.28662	40.92383	-91.39368
850951	609	-21	-359	-21.07186	-14.51019	-118.7431	0	11	4003	0	0	5	5	0.3285939	-0.05336886	1	6	0.04	1800	-33.57571	40.92383	-91.39368
851028	7182	-1154	1774	-15.39845	-12.70889	-118.6169	0	11	4003	0	0	5	5	0.3285939	-0.06027419	1	6	0.04	1800	-33.67426	40.92383	-91.39368
851144	3074	-2802	3707	-7.502306	-8.569123	-131.4109	0	11	4002	0	0	5	5	0.3285939	-0.06666234	1	6	0.04	1800	-23.98718	40.92383	-91.39368
851186	3299	-1989	1413	-7.112939	-8.230122	-132.7549	0	11	4003	0	0	5	5	0.3285939	-0.07375211	1	6	0.04	1800	-19.56311	40.92383	-91.39368
851307	2602	365	-819	-6.292107	-9.399625	-132.4468	0	11	4002	0	0	5	5	0.3285939	-0.07436536	1	6	0.04	1800	-18.89737	40.92383	-91.39368
851383	-799	-497	-85	-11.73809	-12.68633	-131.2455	0	11	4004	0	0	5	5	0.3285939	-0.07215199	1	6	0.04	1800	-21.35596	40.92383	-91.39368
851516	1447	-595	-1892	-15.76964	-14.77402	-129.8308	0	11	4002	0	0	5	5	0.3285939	-0.06229037	1	6	0.04	1800	-22.50339	40.92383	-91.39368
851654	2639	-1821	-4188	-16.49413	-12.28495	-122.5589	0	11	4002	0	0	5	5	0.3285939	-0.03137781	1	6	0.04	1800	-27.10083	40.92383	-91.39368
851826	9310	-5993	5942	2.447488	-15.06846	-120.8179	0	11	4002	0	0	5	5	0.3285939	0.03104225	1	6	0.04	1800	-35.58212	40.92383	-91.39368
851920	3206	-6237	5393	8.587608	-7.180485	-130.7109	0	11	4004	0	0	5	5	0.3285939	0.07227918	1	6	0.04	1800	-23.99362	40.92383	-91.39368
851998	-2329	-6576	7473	6.019147	-3.924869	-137.3262	0	11	4002	0	0	5	5	0.3285939	0.1323201	1	6	0.04	1800	-19.76126	40.92383	-91.39368
852046	-2970	-8048	11844	-2.525256	1.107912	-153.8434	0	11	4004	0	0	5	5	0.3285939	0.1435101	1	6	0.04	1800	-19.76126	40.92383	-91.39368
852199	1922	-2062	11836	-6.531593	0.5015255	-183.9779	0	11.06	4003	0	0	5	5	0.3285939	0.2269569	1	6	0.04	1800	16.81161	40.92383	-91.39368
852235	-811	-1816	7624	-5.291313	-5.225349	-194.0628	0	11.06	4004	0	0	5	5	0.3285939	0.2395601	1	6	0.04	1800	30.23563	40.92383	-91.39368
852292	-1777	-4549	7329	-5.435923	-6.397581	-198.2075	0	11.06	4002	0	0	5	5	0.3285939	0.2749269	1	6	0.04	1800	30.23563	40.92383	-91.39368
852453	-6208	-11314	-932	-13.36022	-2.023479	-209.8228	0	11.06	4004	0	0	5	5	0.3285939	0.3654756	1	6	0.04	1800	63.2215	40.92383	-91.39368
852633	-522	708	274	-11.43404	-6.27019	-209.5001	0	11.06	4002	0	0	5	5	0.3285939	0.4639608	1	6	0.04	1800	65.69522	40.92383	-91.39368
852744	5266	2138	1097	2.673495	-13.63552	-213.3922	0	11.06	4002	0	0	5	5	0.3285939	0.4980704	1	6	0.04	1800	73.28799	40.92383	-91.39368
852785	3805	2050	1567	6.115286	-15.96211	-214.1915	0	11.06	4004	0	0	5	5	0.3285939	0.5015482	1	6	0.04	1800	78.94834	40.92383	-91.39368
852997	-925	-935	950	14.00873	-20.44472	-218.3564	0	11.06	4004	0	0	5	5	0.3285939	0.5357202	1	6	0.04	1800	97.78301	40.92383	-91.39368
853065	-763	-862	1346	14.08076	-19.96704	-219.3251	0	11.06	4004	0	0	5	5	0.3285939	0.5468318	1	6	0.04	1800	103.2943	40.92383	-91.39368
853119	-537	-1019	2602	15.00293	-19.05405	-221.6846	0	11.06	4003	0	0	5	5	0.3285939	0.5533444	1	6	0.04	1800	110.0289	40.92383	-91.39368
853206	-1540	-900	3421	15.16761	-16.37384	-226.3474	0	11.06	4003	0	0	5	5	0.3285939	0.5543736	1	6	0.04	1800	119.7194	40.92383	-91.39368
853323	-1220	2218	5732	16.69115	-14.7211	-235.5771	0	11.06	4003	0	0	5	5	0.3285939	0.5477054	1	6	0.04	1800	141.3151	40.92383	-91.39368
853436	-2230	565	2386	16.1441	-15.66455	-242.13	0	11.06	4003	0	0	5	5	0.3285939	0.5400675	1	6	0.04	1800	154.0822	40.92383	-91.39368
853531	-1751	-1866	2071	16.2636	-14.16194	-245.7954	0	11.06	4003	0	0	5	5	0.3285939	0.5344441	1	6	0.04	1800	170.8825	40.92383	-91.39368
853624	-1143	569	-376	15.31266	-12.91775	-247.4951	0	11.06	4002	0	0	5	5	0.3285939	0.54044	1	6	0.04	1800	179.1651	40.92383	-91.39368
853716	-3757	-1744	-1429	11.53088	-11.05911	-245.5978	0	11.06	4004	0	0	5	5	0.3285939	0.5494538	1	6	0.04	1800	180.3558	40.92383	-91.39368
853782	-4726	-2713	-1141	7.003947	-8.388643	-244.0626	0	11.06	4003	0	0	5	5	0.3285939	0.5555946	1	6	0.04	1800	180.0379	40.92383	-91.39368
853896	-1718	-934	358	0.537915	-0.8304768	-243.034	0	11.06	4004	0	0	5	5	0.3285939	0.5656075	1	6	0.04	1800	186.7242	40.92383	-91.39368
853915	-1528	1452	2510	0.2918888	-1.460896	-243.034	0	11.06	4004	0	0	5	5	0.3285939	0.5676475	1	6	0.04	1800	186.7242	40.92383	-91.39368
854071	-2142	1106	5592	-1.708016	-7.855909	-253.1766	0	11.06	4002	0	0	5	5	0.3285939	0.5817665	1	6	0.04	1800	198.7806	40.92383	-91.39368
854155	-3160	241	5683	-2.949291	-12.44209	-263.1742	0	11.06	4003	0	0	5	5	0.3285939	0.5910941	1	6	0.04	1800	214.5233	40.92383	-91.39368
854217	-3514	-3	5463	-4.082966	-13.31519	-266.2068	0	11.06	4002	0	0	5	5	0.3285939	0.6061173	1	6	0.04	1800	214.5233	40.92383	-91.39368
854327	-2363	-911	7738	-7.959301	-17.21767	-280.094	0	11.06	4004	0	0	5	5	0.3285939	0.6227961	1	6	0.04	1800	231.1434	40.92383	-91.39368
854413	-556	-1753	10714	-7.031148	-17.88424	-290.2755	0	11.06	4003	0	0	5	5	0.3285939	0.641305	1	6	0.04	1800	242.2399	40.92383	-91.39368
854557	1174	962	10987	4.790939	-18.0377	-322.4508	0	11.06	4003	0	0	5	5	0.3285939	0.6526746	1	6	0.04	1800	-89.37549	40.92383	-91.39368
854620	1690	-444	4719	8.659786	-17.41379	-331.0835	0	11.06	4003	0	0	5	5	0.3285939	0.6569254	1	6	0.04	1800	-73.58817	40.92383	-91.39368
854709	553	-1320	2514	14.30163	-14.54059	-334.6764	0	11.06	4003	0	0	5	5	0.3285939	0.6631488	1	6	0.04	1800	-60.5708	40.92383	-91.39368
854901	-5925	790	1513	10.31054	-11.37627	-339.6387	0	11.06	4002	0	0	5	5	0.3285939	0.6836424	1	6	0.04	1800	-56.64917	40.92383	-91.39368
855011	-4269	-5469	3701	-1.862858	-8.38085	-343.178	0	11.06	4003	0	0	5	5	0.3285939	0.6867139	1	6	0.04	1800	-55.68317	40.92383	-91.39368
855101	1990	-6682	6248	-2.811711	-2.920948	-349.1404	0	11.06	4003	0	0	5	5	0.3285939	0.6872176	1	6	0.04	1800	-55.73273	40.92383	-91.39368
855258	-192	232	1007	3.858531	2.286837	-362.8568	0	11.06	4003	0	0	5	5	0.3285939	0.6783416	1	6	0.04	1800	-45.2316	40.92383	-91.39368
855415	2386	607	-780	3.234748	-0.5271448	-358.8702	0	11.06	4004	0	0	5	5	0.3285939	0.6678056	1	6	0.04	1800	-49.50778	40.92383	-91.39368
855563	-1026	2596	-6651	5.770232	-7.49026	-348.2014	0	11.06	4003	0	0	5	5	0.3285939	0.6551415	1	6	0.04	1800	-57.3743	40.92383	-91.39368
855596	-1049	1324	-5694	3.945653	-7.920637	-344.7183	0	11.06	4004	0	0	5	5	0.3285939	0.6514236	1	6	0.04	1800	-63.18741	40.92383	-91.39368
855795	311	-3801	-1432	7.559121	-8.90249	-340.735	0	11	4002	0	0	5	5	0.3285939	0.6335711	1	6	0.04	1800	-67.21289	40.92383	-91.39368
855969	415	-1155	1792	13.14285	-5.697287	-338.6487	0	11	4003	0	0	5	5	0.3285939	0.6227443	1	6	0.04	1800	-79.4993	40.92383	-91.39368
856019	2632	-1677	1933	14.89764	-4.446784	-341.1956	0	11	4002	0	0	5	5	0.3285939	0.6170554	1	6	0.04	1800	-81.83359	40.92383	-91.39368
856186	1292	558	-1231	21.44666	-3.239496	-340.653	0	11	4004	0	0	5	5	0.3285939	0.5836301	1	6	0.04	1800	-75.89954	40.92383	-91.39368
856348	5442	3960	-2614	23.22065	-14.84326	-333.5885	0	11	4004	0	0	5	5	0.3285939	0.5404165	1	6	0.04	1800	-49.23721	40.92383	-91.39368
856382	7283	231	-2121	26.81169	-20.53093	-330.6349	0	11	4003	0	0	5	5	0.3285939	0.5224164	1	6	0.04	1800	-27.58997	40.92383	-91.39368
856462	5563	-7481	-3424	33.80679	-16.98825	-327.3936	0	11	4004	0	0	5	5	0.3285939	0.4975592	1	6	0.04	1800	-34.49216	40.92383	-91.39368
856593	1958	5096	-5373	33.53772	-20.06789	-319.775	0	11	4004	0	0	5	5	0.3285939	0.4642205	1	6	0.04	1800	-57.23334	40.92383	-91.39368
856673	1535	-609	330	34.94446	-24.09298	-319.0956	0	11	4002	0	0	5	5	0.3285939	0.4510086	1	6	0.04	1800	-59.21497	40.92383	-91.39368
856851	-1809	3413	2269	30.69256	-23.37363	-324.1353	0	11	4003	0	0	5	5	0.3285939	0.4268471	1	6	0.04	1800	-54.09256	40.92383	-91.39368
856935	-5591	-152	13148	27.32211	-18.74176	-338.0609	0	11	4002	0	0	5	5	0.3285939	0.4214435	1	6	0.04	1800	-46.66113	40.92383	-91.39368
857110	3727	-4954	2534	20.57827	-0.2693944	-361.9385	0	11	4004	0	0	5	5	0.3285939	0.4141041	1	6	0.04	1800	-1.883698	40.92383	-91.39368
857161	-3262	458	2172	24.91357	5.545165	-364.7319	0	11	4004	0	0	5	5	0.3285939	0.4184802	1	6	0.04	1800	-15.85645	40.92383	-91.39368
857229	-162	633	2686	23.06842	5.424665	-367.0947	0	11	4003	0	0	5	5	0.3285939	0.4196574	1	6	0.04	1800	-16.82547	40.92383	-91.39368
857373	-2427	3334	5359	17.65063	6.303724	-378.3971	0	11	4002	0	0	5	5	0.3285939	0.4281876	1	6	0.04	1800	-5.96698	40.92383	-91.39368
857476	-4632	1030	5161	13.14714	4.639457	-384.1753	0	11	4003	0	0	5	5	0.3285939	0.4321629	1	6	0.04	1800	-5.96698	40.92383	-91.39368
857556	359	103	1617	12.35187	0.6875063	-391.931	0	11	4002	0	0	5	5	0.3285939	0.4316541	1	6	0.04	1800	-14.95581	40.92383	-91.39368
857647	4173	2484	2363	15.21248	0.7342777	-396.2305	0	11	4003	0	0	5	5	0.3285939	0.4450468	1	6	0.04	1800	-16.57037	40.92383	-91.39368
857726	-444	2392	1374	16.74534	-0.07189003	-397.9735	0	11	4004	0	0	5	5	0.3285939	0.4508947	1	6	0.04	1800	-12.39581	40.92383	-91.39368
857917	-1313	1146	371	9.969106	-7.85977	-400.2448	0	11	4002	0	0	5	5	0.3285939	0.4674098	1	6	0.04	1800	-9.874115	40.92383	-91.39368
858024	74	-29	536	10.24208	-7.803089	-400.8125	0	11	4004	0	0	5	5	0.3285939	0.4705262	1	6	0.04	1800	-9.158722	40.92383	-91.39368
858101	2881	-2708	147	13.10352	-5.699108	-401.1028	0	11	4002	0	0	5	5	0.3285939	0.4706224	1	6	0.04	1800	-9.087036	40.92383	-91.39368
858162	3188	-3012	789	16.73971	-2.570853	-401.706	0	11	4002	0	0	5	5	0.3285939	0.4685674	1	6	0.04	1800	-9.095459	40.92383	-91.39368
