time(ms)	gyro_x(deg/s)	gyro_y(deg/s)	gyro_z(deg/s)	orientation_roll(deg)	orientation_pitch(deg)	orientation_yaw(deg)	throttle	battery(V)	loop_time(uS)	pid_output_roll	pid_output_pitch	pid_output_yaw	pid_output_throttle	ultrasonic_alt	baro_alt	flight_mode	p_gain_altitude	i_gain_altitude	d_gain_altitude	compass_heading	latitude	longitude
376902	-4096	-3568	-2414	-12.06762	1.33665	18.24665	0	11.51	4004	1422	1138	1470	1566	0.02	1.980679	8	10	0.08	2800	15.17245	40.92393	-91.39363
376942	-2578	-1132	-1417	-13.54141	2.452541	19.16928	0	11.51	4002	1357	1403	1529	1315	0.02	1.969243	8	10	0.08	2800	15.40384	40.92393	-91.39362
377025	-1643	-414	156	-15.88797	4.416559	20.89808	0	11.51	4004	1473	1419	1379	1325	0.02	1.934632	8	10	0.08	2800	20.04407	40.92393	-91.39362
377114	560	151	1194	-16.51101	4.749972	20.57076	0	11.51	4002	1479	1541	1361	1231	0.02	1.872614	8	10	0.08	2800	20.26022	40.92393	-91.39362
377223	1717	256	446	-14.00756	2.544912	19.95675	0	11.34	4003	1504	1730	1406	1084	0.02	1.836707	8	10	0.08	2800	26.71497	40.92393	-91.39362
377375	914	-2184	-263	-12.46753	4.301359	19.62696	0	11.34	4003	1272	1202	1594	1536	0.02	1.76867	8	10	0.08	2800	25.56097	40.92393	-91.39362
377481	-982	333	-410	-14.46393	5.18689	19.20795	0	11.34	4002	1452	1204	1404	1520	0.02	1.702927	8	10	0.08	2800	23.89893	40.92393	-91.39362
377591	1548	-408	-41	-11.99549	3.828396	29.67249	0	11.34	4003	1563	1381	1267	1365	0.02	1.670474	8	10	0.08	2800	29.9205	40.92393	-91.39362
377724	1110	470	1044	-7.760262	4.640937	28.51148	0	11.34	4004	1602	1304	1196	1462	0.02	1.625337	8	10	0.08	2800	28.05664	40.92393	-91.39362
377757	1110	470	1044	-7.760262	4.640937	28.51148	0	11.34	4004	1387	1573	1417	1191	0.02	1.617908	8	10	0.08	2800	28.05664	40.92393	-91.39362
377871	1812	923	959	-5.296526	1.524323	27.64099	0	11.34	4003	1439	1581	1403	1221	0.02	1.573426	8	10	0.08	2800	27.43405	40.92394	-91.39362
377994	1365	842	261	-3.340907	0.5586215	28.38068	0	11.34	4002	1573	1587	1263	1109	0.02	1.55368	8	10	0.08	2800	26.05847	40.92394	-91.39362
378090	-930	-1581	1047	-6.887033	2.63694	26.69748	0	11.34	4003	1458	1622	1394	1078	0.02	1.542535	8	10	0.08	2800	22.99826	40.92394	-91.39362
378227	1330	375	2780	-6.630342	4.023486	12.73576	0	11.63	4004	1450	1514	1376	1176	0.02	1.527266	8	10	0.08	2800	14.064	40.92394	-91.39363
378286	-168	126	3042	-6.488818	3.312884	9.849839	0	11.63	4003	1410	1444	1400	1270	0.02	1.519511	8	10	0.08	2800	10.14661	40.92394	-91.39363
378350	1951	1286	3346	-6.099611	1.90859	6.848967	0	11.63	4004	1471	1417	1337	1287	0.02	1.513375	8	10	0.08	2800	1.688477	40.92394	-91.39363
378497	1134	1201	3804	-3.708771	-0.1516613	0.7339121	0	11.63	4002	1455	1541	1299	1185	0.02	1.518693	8	10	0.08	2800	358.2541	40.92394	-91.39363
378658	-931	-2672	2416	-2.83372	-0.9298068	354.4147	0	11.63	4003	1263	1261	1479	1497	0.02	1.524745	8	10	0.08	2800	347.1533	40.92394	-91.39363
378818	654	418	-244	-1.344782	-0.9830981	336.5332	0	11.63	4002	1368	1488	1372	1248	0.02	1.539448	8	10	0.08	2800	336.6451	40.92394	-91.39364
378939	-278	-1988	466	-2.093455	0.8207132	336.038	0	11.63	4003	1170	1452	1572	1286	0.02	1.545776	8	10	0.08	2800	333.5036	40.92394	-91.39364
378974	2024	2203	-1913	-1.626802	-0.04059114	337.1087	0	11.63	4003	1239	1649	1503	1085	0.02	1.549149	8	10	0.08	2800	331.0608	40.92394	-91.39364
379036	3385	2771	-1004	-0.172541	-1.14149	337.7688	0	11.63	4003	1515	1673	1261	1023	0.02	1.55561	8	10	0.08	2800	331.0608	40.92394	-91.39364
379214	-1830	-235	-2866	-0.6039174	-2.705111	342.1808	0	11	4003	1470	1244	1364	1394	0.02	1.569778	8	10	0.08	2800	338.1416	40.92394	-91.39364
379314	-585	-2367	-1916	0.04910641	-0.6673969	345.6684	0	11	4004	1472	974	1364	1638	0.02	1.580389	8	10	0.08	2800	341.3572	40.92394	-91.39364
379402	-1940	-1071	-1030	-2.470282	2.735213	349.3418	0	11	4002	1489	1383	1319	1245	0.02	1.604427	8	10	0.08	2800	341.2195	40.92393	-91.39365
379551	3349	2044	-48	0.3034706	1.30646	350.8265	0	11	4003	1419	1359	1385	1269	0.02	1.630457	8	10	0.08	2800	343.5942	40.92393	-91.39365
379608	1766	341	582	1.569155	0.8110043	350.8161	0	11	4002	1415	1451	1381	1181	0.02	1.648684	8	10	0.08	2800	343.5942	40.92393	-91.39365
379764	-1969	118	912	-0.3415797	-1.363728	349.0293	0	11	4004	1254	1150	1520	1496	0.02	1.687857	8	10	0.08	2800	340.7472	40.92393	-91.39365
379898	-29	725	1462	-0.1119177	-1.577667	346.5726	0	11	4009	1224	1218	1502	1436	0.02	1.732901	8	10	0.08	2800	338.4665	40.92393	-91.39365
380049	746	2482	1077	-0.9801947	-5.862425	332.4228	0	11.46	4002	1446	1524	1294	1180	0.02	1.765405	8	10	0.08	2800	334.5922	40.92393	-91.39365
380102	42	-390	1691	-0.6926747	-7.048405	330.9581	0	11.46	4002	1412	1440	1314	1270	0.02	1.786883	8	10	0.08	2800	334.5341	40.92393	-91.39365
380210	618	-1696	1486	-0.4271061	-5.408699	328.7673	0	11.46	4004	1438	1442	1276	1276	0.02	1.805188	8	10	0.08	2800	332.6405	40.92393	-91.39365
380262	272	-1370	1631	-0.0847971	-4.528254	327.9916	0	11.46	4004	1404	1398	1306	1328	0.02	1.816047	8	10	0.08	2800	332.6405	40.92393	-91.39365
380363	-319	1562	1161	-1.138258	-5.018478	325.6094	0	11.46	4004	1453	1381	1267	1339	0.02	1.84306	8	10	0.08	2800	326.3463	40.92393	-91.39365
380465	-841	176	840	-0.1536179	-4.830216	323.6748	0	11.46	4004	1349	1209	1341	1513	0.02	1.873134	8	10	0.08	2800	324.9726	40.92393	-91.39365
380560	-1761	1759	642	-1.693465	-5.747678	322.4677	0	11.46	4002	1373	1281	1299	1423	0.02	1.890993	8	10	0.08	2800	323.4652	40.92393	-91.39365
380683	-143	-518	478	-1.450585	-4.841148	320.6912	0	11.46	4002	1402	1416	1292	1330	0.02	1.909678	8	10	0.08	2800	323.5376	40.92393	-91.39365
380833	-310	1582	-413	-1.702121	-6.638785	319.9746	0	11.46	4003	1392	1254	1336	1494	0.02	1.921281	8	10	0.08	2800	322.4359	40.92393	-91.39365
380868	-828	158	-120	-2.19337	-7.053226	319.9663	0	11.46	4002	1378	1232	1346	1516	0.02	1.92468	8	10	0.08	2800	322.4359	40.92393	-91.39365
381041	-594	696	88	-4.132329	-6.824811	320.3256	0	11.34	4003	1338	1284	1400	1486	0.02	1.928055	8	10	0.08	2800	324.1801	40.92393	-91.39365
381067	-594	696	88	-4.132329	-6.824811	320.3256	0	11.34	4003	1604	1568	1160	1220	0.02	1.919391	8	10	0.08	2800	324.1801	40.92393	-91.39365
381172	-164	1159	-163	-4.507718	-7.704872	321.3394	0	11.34	4004	1237	1457	1539	1335	0.02	1.905517	8	10	0.08	2800	327.8858	40.92393	-91.39365
381290	945	2289	-3038	-4.827989	-11.7682	323.749	0	11.34	4004	1215	1247	1597	1525	0.02	1.854666	8	10	0.08	2800	333.3013	40.92393	-91.39364
381372	1090	242	-1151	-3.871278	-11.58074	337.1142	0	11.34	4002	1568	1354	1264	1402	0.02	1.829133	8	10	0.08	2800	337.0438	40.92393	-91.39364
381485	-2700	-1720	236	-9.86271	-7.416775	339.9972	0	11.34	4004	1504	1412	1338	1326	0.02	1.799737	8	10	0.08	2800	340.072	40.92393	-91.39364
381584	-1	-1788	-1875	-10.807	-5.096949	341.0826	0	11.34	4004	1435	1275	1421	1449	0.02	1.767537	8	10	0.08	2800	340.2047	40.92393	-91.39363
381779	-1449	-367	-1097	-9.487969	-5.780875	343.8035	0	11.34	4002	1613	749	1235	1971	0.02	1.714271	8	10	0.08	2800	344.5679	40.92393	-91.39363
381827	-906	-784	-2439	-9.902877	-5.37261	344.3224	0	11.34	4004	1481	1349	1427	1371	0.02	1.697422	8	10	0.08	2800	345.1453	40.92393	-91.39363
381910	1354	-864	-1919	-12.10379	-1.464082	347.145	0	11.63	4004	1460	1410	1408	1270	0.02	1.67643	8	10	0.08	2800	346.1226	40.92393	-91.39363
381983	-131	-448	-1205	-10.8405	-1.186463	348.4796	0	11.63	4004	1553	1135	1317	1551	0.02	1.672065	8	10	0.08	2800	346.2125	40.92393	-91.39363
382115	-320	-2236	350	-14.99031	-0.5832304	349.1408	0	11.63	4002	1455	1711	1387	995	0.02	1.640353	8	10	0.08	2800	349.384	40.92393	-91.39362
382167	-18	-2314	175	-14.92354	0.9326264	349.215	0	11.63	4003	1442	1572	1390	1132	0.02	1.637684	8	10	0.08	2800	347.78	40.92393	-91.39362
382312	-172	-1159	949	-15.52955	1.743782	347.9168	0	11.63	4003	1331	1421	1507	1325	0.02	1.616743	8	10	0.08	2800	347.3801	40.92394	-91.39362
382419	-80	526	1607	-13.36784	1.487625	345.6615	0	11.63	4002	1546	1446	1266	1314	0.02	1.599837	8	10	0.08	2800	344.8561	40.92394	-91.39362
382615	566	-1016	1365	-13.44694	0.6911689	341.9926	0	11.63	4003	1451	1631	1327	1111	0.02	1.589961	8	10	0.08	2800	341.4305	40.92394	-91.39362
382749	428	800	239	-12.58926	0.2151085	340.0796	0	11.63	4003	1321	1411	1447	1305	0.02	1.602973	8	10	0.08	2800	338.3682	40.92395	-91.39362
382841	96	-2489	668	-12.22683	0.338358	339.2797	0	11.34	4002	1101	1151	1643	1577	0.02	1.609502	8	10	0.08	2800	337.7033	40.92395	-91.39362
382896	-763	-826	1551	-12.47396	1.078953	338.0739	0	11.34	4002	1276	1378	1450	1368	0.02	1.617557	8	10	0.08	2800	338.2499	40.92395	-91.39362
382970	-97	-977	-531	-12.66927	0.9813033	337.1383	0	11.34	4003	1505	983	1231	1713	0.02	1.628749	8	10	0.08	2800	332.8715	40.92395	-91.39362
383116	-86	-1802	305	-11.79649	3.068127	337.7985	0	11.34	4002	1214	1400	1524	1330	0.02	1.656933	8	10	0.08	2800	331.5524	40.92395	-91.39362
383162	1173	-1268	-212	-11.3892	3.574334	338.1424	0	11.34	4002	1235	1331	1493	1369	0.02	1.671047	8	10	0.08	2800	330.43	40.92395	-91.39362
383294	505	974	-1235	-10.411	3.104333	338.2815	0	11.34	4003	1376	1126	1388	1554	0.02	1.707825	8	10	0.08	2800	331.3307	40.92395	-91.39362
383450	519	-1873	-425	-8.404006	6.26777	339.8113	0	11.34	4004	1362	1374	1390	1302	0.02	1.749951	8	10	0.08	2800	333.3562	40.92396	-91.39362
383512	220	-861	-576	-7.819123	7.165556	340.2807	0	11.34	4003	1280	1270	1454	1408	0.02	1.774819	8	10	0.08	2800	330.4774	40.92396	-91.39362
383620	-645	3526	523	-7.678117	3.505683	328.6064	0	11.34	4002	1283	1337	1423	1325	0.02	1.814039	8	10	0.08	2800	328.7731	40.92396	-91.39363
383691	-1147	542	-166	-8.321364	0.7801491	328.3214	0	11.68	4004	1275	1111	1469	1597	0.02	1.835992	8	10	0.08	2800	332.2468	40.92396	-91.39363
383770	180	-625	514	-7.027958	2.217875	328.4631	0	11.68	4003	1284	1270	1480	1438	0.02	1.848521	8	10	0.08	2800	333.5991	40.92396	-91.39363
383834	-116	-202	220	-7.153049	2.124296	328.4492	0	11.68	4002	1464	1442	1306	1268	0.02	1.858165	8	10	0.08	2800	329.3815	40.92396	-91.39363
383936	1042	-757	-1001	-7.256886	3.968345	328.7639	0	11.68	4003	1515	1407	1297	1305	0.02	1.857834	8	10	0.08	2800	332.3031	40.92396	-91.39363
384031	437	1752	-476	-4.831804	3.130017	329.1594	0	11.68	4002	1275	1239	1539	1487	0.02	1.847009	8	10	0.08	2800	331.2821	40.92396	-91.39363
384172	-876	723	120	-6.460601	2.390693	328.644	0	11.68	4004	1521	1203	1311	1569	0.02	1.833037	8	10	0.08	2800	331.6432	40.92396	-91.39364
384239	2324	2254	1156	-5.368002	1.023468	328.4029	0	11.68	4003	1346	1638	1482	1170	0.02	1.814183	8	10	0.08	2800	328.3954	40.92396	-91.39364
384290	395	3384	-128	-3.926525	-2.242595	327.8299	0	11.68	4003	1501	1625	1299	1147	0.02	1.797585	8	10	0.08	2800	331.382	40.92396	-91.39364
384387	969	2301	838	-4.016923	-4.735108	327.6171	0	11.68	4004	1516	1626	1272	1138	0.02	1.784462	8	10	0.08	2800	330.092	40.92396	-91.39364
384466	-118	-1843	-633	-6.569276	-3.724972	327.348	0	11.68	4003	1369	1015	1419	1745	0.02	1.764632	8	10	0.08	2800	332.681	40.92396	-91.39365
384575	83	-1324	-45	-6.351925	-2.9238	327.3674	0	11	4003	1360	1390	1468	1334	0.02	1.747305	8	10	0.08	2800	330.7069	40.92396	-91.39365
384703	84	-755	269	-1.786663	-0.7573375	328.9327	0	11	4003	1165	1549	1635	1195	0.02	1.73653	8	10	0.08	2800	329.5468	40.92396	-91.39365
384786	1341	-202	295	-3.137684	0.7788836	329.2739	0	11	4003	1617	863	1219	1893	0.02	1.726934	8	10	0.08	2800	328.8857	40.92396	-91.39365
384972	-926	769	409	-0.06156833	1.794886	332.4845	0	11	4004	1320	1768	1474	942	0.02	1.711329	8	10	0.08	2800	332.081	40.92396	-91.39365
385057	1879	-522	-656	-0.7769534	1.585487	334.2405	0	11	4002	1221	1435	1585	1235	0.02	1.718751	8	10	0.08	2800	333.3295	40.92396	-91.39365
385154	-2446	-1660	-267	-2.927552	3.414876	335.4819	0	11	4003	1335	1017	1471	1649	0.02	1.746634	8	10	0.08	2800	333.5348	40.92396	-91.39365
385192	-1266	-1399	-191	-3.983721	3.900285	335.6674	0	11	4003	1121	1139	1681	1515	0.02	1.752777	8	10	0.08	2800	333.5348	40.92396	-91.39365
385240	880	390	-1055	-3.89009	3.719271	335.7475	0	11	4002	1282	1220	1534	1432	0.02	1.768876	8	10	0.08	2800	330.6705	40.92396	-91.39365
385372	-382	570	1103	-2.257181	0.8668352	334.2264	0	11	4003	1361	1299	1341	1351	0.02	1.817829	8	10	0.08	2800	330.7234	40.92396	-91.39365
385485	-309	-207	398	-2.984417	-0.01968899	332.6711	0	11.4	4004	1225	1223	1497	1443	0.02	1.84805	8	10	0.08	2800	331.1015	40.92395	-91.39365
385612	1085	175	860	-2.344621	1.14107	330.3946	0	11.4	4003	1237	1165	1471	1519	0.02	1.927084	8	10	0.08	2800	327.7216	40.92395	-91.39365
385775	-602	446	629	-1.632068	-3.397933	326.8597	0	11.4	4002	1210	1388	1510	1324	0.02	1.99579	8	10	0.08	2800	325.4139	40.92395	-91.39365
385903	387	-697	417	-3.01303	-2.31209	323.6225	0	11.4	4002	1421	1539	1297	1203	0.02	2.022787	8	10	0.08	2800	322.0157	40.92395	-91.39365
385946	863	-363	625	-2.473779	-2.027382	323.0275	0	11.4	4004	1326	1362	1380	1348	0.02	2.037591	8	10	0.08	2800	322.0157	40.92395	-91.39365
386053	720	1612	1462	-1.794231	-3.090398	321.8409	0	11.4	4003	1473	1673	1233	1093	0.02	2.050615	8	10	0.08	2800	320.5143	40.92395	-91.39365
386151	43	-386	923	-2.567089	-3.031225	320.3767	0	11.4	4003	1573	1433	1151	1339	0.02	2.062069	8	10	0.08	2800	319.8951	40.92395	-91.39365
386254	1142	1082	397	-2.490357	-2.516991	320.0838	0	11.4	4002	1294	1542	1442	1222	0.02	2.067571	8	10	0.08	2800	318.8	40.92395	-91.39365
386423	-3202	-490	-1032	-2.884773	-4.787258	321.1366	0	11.34	4002	1369	995	1387	1745	0.02	2.069488	8	10	0.08	2800	321.3958	40.92395	-91.39365
386462	-1212	-295	-873	-4.103034	-4.711728	321.5894	0	11.34	4003	1264	1352	1506	1378	0.02	2.070549	8	10	0.08	2800	322.7967	40.92395	-91.39365
386679	1271	454	-1924	0.5635222	-7.689698	325.4556	0	11.34	4004	1527	961	1277	1759	0.02	2.068618	8	10	0.08	2800	328.8488	40.92395	-91.39365
386780	-2809	1397	-1574	-0.9897134	-7.930208	327.6442	0	11.34	4004	1809	1093	975	1583	0.02	2.074883	8	10	0.08	2800	329.9326	40.92395	-91.39365
386931	-1081	-1910	-1434	-2.013846	-6.067797	331.1331	0	11.34	4003	1402	1506	1386	1178	0.02	2.086371	8	10	0.08	2800	334.8806	40.92395	-91.39365
387016	-2234	-1781	-538	-6.567882	-0.7191814	332.0354	0	11.34	4004	1472	1334	1316	1342	0.02	2.108809	8	10	0.08	2800	333.9781	40.92395	-91.39365
387129	-549	1908	212	-7.711251	-0.01630106	332.087	0	11.34	4002	1594	1464	1170	1224	0.02	2.122649	8	10	0.08	2800	333.4623	40.92395	-91.39365
387225	-1085	2828	1165	-8.576416	-4.704876	330.9155	0	11.34	4003	1217	1291	1499	1385	0.02	2.13862	8	10	0.08	2800	335.2416	40.92395	-91.39365
387384	64	-1701	-441	-10.01509	-6.168123	329.9683	0	11.29	4003	1241	1121	1505	1549	0.02	2.175521	8	10	0.08	2800	338.661	40.92395	-91.39365
387467	-1576	-1760	1091	-10.60664	-2.945827	329.0074	0	11.29	4004	1461	1507	1271	1197	0.02	2.181359	8	10	0.08	2800	335.9363	40.92395	-91.39365
387534	364	-93	-191	-10.93025	-1.581807	328.7686	0	11.29	4002	1404	1456	1356	1256	0.02	2.1974	8	10	0.08	2800	335.0134	40.92395	-91.39364
387687	-1909	353	442	-10.78558	-6.068781	327.5956	0	11.29	4004	1455	1469	1297	1263	0.02	2.211629	8	10	0.08	2800	337.0323	40.92395	-91.39364
387776	-422	-2377	-494	-11.82419	-5.286088	327.1269	0	11.29	4003	1105	1217	1681	1505	0.02	2.213061	8	10	0.08	2800	336.4084	40.92395	-91.39364
387940	-304	1786	-59	-11.80816	-4.101218	336.8198	0	11.29	4002	1251	1455	1527	1283	0.02	2.207531	8	10	0.08	2800	335.2769	40.92395	-91.39363
388001	769	2026	-404	-11.61507	-5.211058	337.0798	0	11.29	4004	1348	1174	1452	1542	0.02	2.202973	8	10	0.08	2800	338.6667	40.92395	-91.39363
388113	-1810	-1203	-399	-11.1762	-6.181153	339.1252	0	11.29	4003	1614	1332	1188	1394	0.02	2.195455	8	10	0.08	2800	343.1387	40.92395	-91.39363
388184	-1359	-4084	-1236	-12.60728	-2.612037	340.1198	0	11.29	4002	1263	1249	1555	1453	0.02	2.190205	8	10	0.08	2800	342.9269	40.92395	-91.39363
388435	720	-454	-755	-12.89953	0.346685	341.2572	0	11.29	4002	1441	1307	1375	1401	0.02	2.1635	8	10	0.08	2800	343.7631	40.92395	-91.39363
388561	1170	1453	419	-8.654815	-1.67069	343.2143	0	11.29	4003	1321	1573	1519	1163	0.02	2.144011	8	10	0.08	2800	343.0251	40.92395	-91.39363
388653	-2288	-1641	-214	-10.03979	-1.234337	344.0075	0	11.29	4004	1219	1491	1607	1227	0.02	2.125848	8	10	0.08	2800	342.8317	40.92395	-91.39363
388767	1370	-1257	966	-14.22864	4.318847	344.9238	0	11.29	4002	1478	1494	1314	1234	0.02	2.113651	8	10	0.08	2800	346.7876	40.92395	-91.39363
388826	-394	1088	1194	-13.71491	3.706617	344.639	0	11.29	4003	1378	1404	1420	1314	0.02	2.108636	8	10	0.08	2800	342.5969	40.92395	-91.39363
388905	234	-113	496	-13.52829	1.611427	343.9444	0	11.29	4002	1325	1363	1479	1357	0.02	2.098218	8	10	0.08	2800	344.0415	40.92395	-91.39363
389037	1351	-131	214	-12.59787	1.935107	343.4628	0	11.29	4004	1618	1438	1202	1290	0.02	2.087812	8	10	0.08	2800	344.8621	40.92396	-91.39363
389144	-892	-2661	385	-11.51706	4.002081	342.7851	0	11.46	4003	1253	1073	1541	1649	0.02	2.077258	8	10	0.08	2800	345.8251	40.92396	-91.39363
389176	79	-2534	18	-11.79377	5.137293	342.6316	0	11.46	4002	1225	1315	1581	1395	0.02	2.076085	8	10	0.08	2800	342.1196	40.92396	-91.39363
389317	958	-152	1030	-8.038018	5.452975	341.2067	0	11.46	4003	1337	1521	1403	1187	0.02	2.088001	8	10	0.08	2800	337.7876	40.92396	-91.39364
389383	231	-827	747	-7.931895	4.988233	340.1114	0	11.46	4004	1347	1375	1375	1283	0.02	2.104805	8	10	0.08	2800	338.6167	40.92396	-91.39364
389506	920	186	996	-5.365441	6.7208	338.1658	0	11.46	4005	1217	1443	1507	1273	0.02	2.138384	8	10	0.08	2800	336.8209	40.92396	-91.39364
389581	540	211	1257	-4.85562	6.60558	337.2486	0	11.46	4002	1212	1332	1522	1374	0.02	2.156513	8	10	0.08	2800	335.7034	40.92396	-91.39364
389730	240	1046	1300	-4.011827	4.645712	334.9825	0	11.46	4003	1223	1373	1487	1341	0.02	2.188084	8	10	0.08	2800	329.4573	40.92397	-91.39365
389785	233	766	-286	-4.008885	2.946401	334.2391	0	11.46	4004	1236	1262	1508	1446	0.02	2.191658	8	10	0.08	2800	328.9213	40.92397	-91.39365
389891	-1686	1337	-85	-4.557325	2.38355	334.0545	0	11.46	4004	1571	1349	1153	1387	0.02	2.21232	8	10	0.08	2800	328.1133	40.92397	-91.39365
390032	1931	219	-819	-4.239754	0.7570688	335.0313	0	11.06	4004	1557	1333	1201	1381	0.02	2.231306	8	10	0.08	2800	330.6241	40.92397	-91.39365
390082	1411	-144	-236	-2.258536	0.7163411	335.4595	0	11.06	4003	1432	1428	1344	1296	0.02	2.231006	8	10	0.08	2800	331.8219	40.92396	-91.39365
390229	-1082	61	444	-2.687026	2.75803	336.2135	0	11.06	4003	1523	1473	1239	1273	0.02	2.225718	8	10	0.08	2800	328.5338	40.92396	-91.39365
390285	1026	-1020	-448	-3.94159	3.474746	336.6735	0	11.06	4002	1230	1628	1554	1112	0.02	2.216435	8	10	0.08	2800	327.2014	40.92396	-91.39365
390390	1307	1324	462	-3.704318	2.456699	326.0502	0	11.06	4003	1399	1545	1419	1237	0.02	2.204531	8	10	0.08	2800	326.0817	40.92396	-91.39365
390493	675	-680	752	-2.029169	3.650712	325.5803	0	11.06	4003	1256	1484	1532	1296	0.02	2.174105	8	10	0.08	2800	327.2979	40.92396	-91.39365
390617	887	1976	-10	-2.95191	4.012525	324.4344	0	11.06	4002	1569	1443	1251	1345	0.02	2.136351	8	10	0.08	2800	322.3593	40.92396	-91.39365
390672	1282	2054	393	-2.258338	2.93723	324.4282	0	11.06	4002	1490	1290	1330	1510	0.02	2.106287	8	10	0.08	2800	320.5493	40.92396	-91.39365
390852	1541	-1370	-537	-1.205412	0.4030477	326.5642	0	11.06	4003	1087	1823	1695	1035	0.02	2.032021	8	10	0.08	2800	323.1362	40.92396	-91.39365
390927	724	193	-3028	-0.5000482	1.476533	328.1215	0	11.74	4003	1648	1422	1154	1392	0.02	1.988304	8	10	0.08	2800	324.9153	40.92396	-91.39365
390965	-1937	-335	-2731	-0.5342289	1.791924	330.425	0	11.74	4004	1312	994	1496	1814	0.02	1.954905	8	10	0.08	2800	324.023	40.92396	-91.39365
391067	-1213	506	-2575	-2.628252	0.9829265	334.1513	0	11.74	4003	1509	1289	1421	1477	0.02	1.923174	8	10	0.08	2800	328.0929	40.92396	-91.39365
391267	-1725	-3415	-3086	-2.365858	1.447239	343.996	0	11.74	4003	1368	956	1530	1670	0.02	1.871292	8	10	0.08	2800	343.2025	40.92396	-91.39366
391395	529	1617	-1963	-0.7086229	1.083912	350.5334	0	11.74	4003	1311	1457	1547	1153	0.02	1.884385	8	10	0.08	2800	347.0999	40.92395	-91.39366
391526	-1464	-694	461	-3.129082	0.6363159	352.8831	0	11.74	4003	1430	1238	1404	1392	0.02	1.900503	8	10	0.08	2800	352.2365	40.92395	-91.39366
391616	-324	-1647	1279	-4.818814	2.482935	352.4871	0	11.74	4004	1437	1321	1315	1271	0.02	1.939288	8	10	0.08	2800	352.4521	40.92395	-91.39366
391722	366	568	2015	-5.033872	1.641283	350.149	0	11.74	4002	1355	1291	1433	1297	0.02	1.979599	8	10	0.08	2800	350.5011	40.92395	-91.39366
391849	-139	458	2798	-5.612569	0.4944893	342.5864	0	11.46	4004	1330	1198	1410	1450	0.02	2.043865	8	10	0.08	2800	339.975	40.92395	-91.39366
391968	773	562	2497	-6.112079	-0.7709302	336.278	0	11.46	4002	1324	1190	1382	1496	0.02	2.084347	8	10	0.08	2800	337.726	40.92395	-91.39366
392013	1086	-61	2659	-5.600752	-0.9004675	334.9269	0	11.46	4004	1313	1455	1373	1227	0.02	2.118512	8	10	0.08	2800	333.739	40.92395	-91.39365
392156	-993	1539	2448	-4.771178	-2.916867	329.9677	0	11.46	4002	1385	1425	1237	1233	0.02	2.196058	8	10	0.08	2800	329.5689	40.92395	-91.39365
392224	-240	499	1410	-5.653432	-3.524272	327.8315	0	11.46	4004	1213	1195	1419	1469	0.02	2.205956	8	10	0.08	2800	328.8998	40.92395	-91.39365
392441	-85	1090	1027	-4.535564	-5.870269	323.7536	0	11.46	4003	1301	1271	1367	1441	0.02	2.26933	8	10	0.08	2800	325.52	40.92395	-91.39365
392530	71	-669	312	-4.926621	-6.126003	322.7512	0	11.46	4003	1357	1451	1349	1291	0.02	2.285059	8	10	0.08	2800	325.9742	40.92395	-91.39365
392672	-613	-829	1	-5.280252	-4.732035	322.5241	0	11.46	4002	1259	1463	1467	1287	0.02	2.291956	8	10	0.08	2800	325.6847	40.92394	-91.39365
392801	-703	1042	-423	-4.734821	-7.265271	323.4709	0	11.34	4004	1423	1289	1293	1415	0.02	2.307695	8	10	0.08	2800	328.9917	40.92394	-91.39365
392889	-1500	-728	-1154	-5.998371	-6.357601	324.2135	0	11.34	4004	1306	1198	1438	1514	0.02	2.311614	8	10	0.08	2800	330.4802	40.92394	-91.39365
392962	-858	-25	-1037	-7.025155	-5.265807	325.239	0	11.34	4003	1331	1299	1445	1425	0.02	2.305992	8	10	0.08	2800	331.5874	40.92394	-91.39365
393029	360	-525	-1049	-6.824499	-4.335349	326.7997	0	11.34	4004	1283	1439	1493	1301	0.02	2.298153	8	10	0.08	2800	333.4564	40.92394	-91.39365
393123	45	574	-272	-6.87197	-4.296437	327.7223	0	11.34	4002	1260	1288	1526	1454	0.02	2.287186	8	10	0.08	2800	335.7459	40.92394	-91.39365
393199	-585	2682	94	-7.281973	-6.62979	327.8668	0	11.34	4003	1630	1562	1174	1214	0.02	2.247144	8	10	0.08	2800	337.2372	40.92394	-91.39365
393327	135	-2842	-1298	-6.412746	-6.32865	340.0629	0	11.34	4003	1217	1237	1615	1535	0.02	2.222316	8	10	0.08	2800	339.6011	40.92394	-91.39365
393502	-298	965	-2825	-9.335932	-5.348648	342.4119	0	11.34	4004	1497	1519	1381	1231	0.02	2.118295	8	10	0.08	2800	338.148	40.92394	-91.39365
393603	-1331	-3491	-723	-9.960279	-3.640707	345.2617	0	11.4	4004	1520	1104	1418	1702	0.02	2.050174	8	10	0.08	2800	348.0748	40.92394	-91.39365
393657	56	-981	-801	-12.14921	3.258839	347.3443	0	11.4	4004	1396	1390	1484	1330	0.02	2.0217	8	10	0.08	2800	344.1971	40.92395	-91.39365
393871	-1777	-779	-9	-8.694853	0.9487249	348.5136	0	11.4	4004	1456	1014	1384	1706	0.02	1.967829	8	10	0.08	2800	348.244	40.92395	-91.39365
393970	-1244	-2608	-505	-11.18954	2.362514	348.1281	0	11.4	4004	1300	1054	1542	1672	0.02	1.937661	8	10	0.08	2800	348.0715	40.92395	-91.39365
394148	-416	-17	777	-9.339382	2.9439	346.1371	0	11.4	4003	1225	1177	1605	1597	0.02	1.891497	8	10	0.08	2800	344.4424	40.92395	-91.39365
394234	830	-1308	184	-9.693141	6.032567	344.481	0	11.4	4003	1115	1163	1689	1577	0.02	1.885038	8	10	0.08	2800	339.8685	40.92395	-91.39365
394289	277	1880	-322	-9.021133	4.347186	343.5921	0	11.4	4003	1497	1581	1291	1151	0.02	1.872961	8	10	0.08	2800	338.5743	40.92395	-91.39365
394361	1042	883	-1241	-8.077574	2.493196	343.7666	0	11.4	4003	1473	1123	1341	1575	0.02	1.869249	8	10	0.08	2800	340.2523	40.92395	-91.39365
394416	-178	-1911	-618	-6.929409	2.556738	345.4301	0	11.34	4004	1330	1290	1470	1410	0.02	1.868394	8	10	0.08	2800	342.4553	40.92395	-91.39365
394559	-1884	-2505	-917	-8.831983	5.217263	347.0039	0	11.34	4002	1290	1138	1502	1490	0.02	1.870297	8	10	0.08	2800	341.5919	40.92395	-91.39365
394683	582	-12	-942	-7.783654	6.981225	349.0801	0	11.34	4003	1214	1206	1570	1430	0.02	1.910146	8	10	0.08	2800	343.2696	40.92396	-91.39365
394792	134	-1888	-412	-4.929468	4.225168	350.9125	0	11.34	4002	1382	1304	1428	1358	0.02	1.933598	8	10	0.08	2800	344.7597	40.92396	-91.39365
394826	-688	-3407	-471	-4.998445	5.53163	351.3698	0	11.34	4004	1427	1237	1381	1407	0.02	1.939441	8	10	0.08	2800	346.4412	40.92396	-91.39365
394917	-2571	-659	-204	-6.983694	7.807989	351.7935	0	11.34	4004	1290	1164	1540	1470	0.02	1.958991	8	10	0.08	2800	345.0263	40.92396	-91.39365
395011	620	109	169	-6.505525	7.257082	352.5729	0	11.34	4003	1247	1235	1569	1413	0.02	1.967607	8	10	0.08	2800	345.2827	40.92396	-91.39365
395146	755	807	86	-6.231122	6.369463	352.1282	0	11.34	4004	1340	1258	1474	1400	0.02	1.980521	8	10	0.08	2800	344.6794	40.92396	-91.39365
395221	-90	663	263	-5.027104	5.881886	351.7137	0	11.34	4003	1351	1207	1449	1465	0.02	1.987673	8	10	0.08	2800	344.5919	40.92396	-91.39365
395389	767	-351	629	-5.043516	4.951062	349.7041	0	11.34	4003	1351	1307	1415	1371	0.02	2.013329	8	10	0.08	2800	340.9999	40.92396	-91.39365
395530	926	944	297	-4.132435	4.537437	348.2287	0	11.34	4004	1239	1311	1549	1377	0.02	2.024431	8	10	0.08	2800	341.1354	40.92396	-91.39365
395644	-7	235	1202	-2.418545	3.605574	346.3794	0	11.34	4002	1538	1438	1248	1284	0.02	2.022426	8	10	0.08	2800	338.846	40.92396	-91.39365
395720	-940	1098	816	-3.490854	3.24821	345.4048	0	11.34	4003	1507	1475	1281	1249	0.02	2.020085	8	10	0.08	2800	336.9129	40.92396	-91.39365
395850	-2153	2988	26	-2.899972	-3.169557	343.9086	0	11.34	4004	1411	1681	1409	1095	0.02	1.996619	8	10	0.08	2800	336.0562	40.92396	-91.39365
396000	697	639	-222	-4.466683	-4.732531	343.5226	0	11.34	4004	1522	1484	1292	1250	0.02	1.962549	8	10	0.08	2800	338.3913	40.92396	-91.39365
396063	967	-3201	577	-2.119664	-1.907499	343.8936	0	11.34	4003	1392	1430	1404	1318	0.02	1.948599	8	10	0.08	2800	338.4043	40.92396	-91.39365
396198	-70	1658	229	-3.908563	2.252039	329.1403	0	11.34	4003	1240	1114	1576	1646	0.02	1.924218	8	10	0.08	2800	329.3487	40.92396	-91.39366
396279	-845	1701	1199	-1.789423	-0.3960632	328.0697	0	11.29	4003	1659	1155	1133	1617	0.02	1.884947	8	10	0.08	2800	333.3549	40.92396	-91.39366
396426	-337	694	-531	-2.174116	-1.788817	328.3386	0	11.29	4004	1327	1433	1515	1357	0.02	1.856263	8	10	0.08	2800	332.7487	40.92396	-91.39366
396564	-2417	-2611	-1478	-4.541023	-0.4628667	329.2791	0	11.29	4002	1556	994	1296	1738	0.02	1.812323	8	10	0.08	2800	334.2371	40.92396	-91.39366
396650	-2282	-1796	-274	-5.118365	2.81868	330.5423	0	11.29	4003	1399	1509	1453	1199	0.02	1.793433	8	10	0.08	2800	332.3719	40.92396	-91.39366
396724	2686	1827	-2929	-3.544559	2.435059	333.9839	0	11.29	4003	1562	1402	1330	1270	0.02	1.771298	8	10	0.08	2800	335.1002	40.92396	-91.39366
396853	-2524	83	-2372	3.05616	-1.257114	341.1386	0	11.29	4003	1481	1193	1423	1427	0.02	1.752269	8	10	0.08	2800	343.8845	40.92395	-91.39366
396904	-4813	-160	-1206	0.9868887	-1.063756	342.17	0	11.29	4002	1600	1152	1278	1470	0.02	1.752544	8	10	0.08	2800	343.8845	40.92395	-91.39366
397008	-1012	-2538	-401	-5.291031	2.518808	343.2909	0	11.29	4004	1343	1241	1513	1415	0.02	1.756843	8	10	0.08	2800	347.3855	40.92395	-91.39366
397140	902	2479	1661	-4.626945	2.686833	340.5707	0	11.29	4003	1225	1389	1605	1329	0.02	1.74768	8	10	0.08	2800	342.9879	40.92395	-91.39366
397216	-83	233	1696	-4.690851	1.258163	338.1009	0	11.68	4002	1272	1304	1530	1406	0.02	1.747864	8	10	0.08	2800	340.1443	40.92395	-91.39366
397411	1533	-51	1421	-3.994834	-1.184135	331.4734	0	11.68	4003	1255	1589	1503	1121	0.02	1.769687	8	10	0.08	2800	335.0311	40.92395	-91.39366
397453	-1674	-1510	1364	-4.767051	0.4034744	330.3418	0	11.68	4003	1311	1113	1449	1599	0.02	1.783454	8	10	0.08	2800	332.245	40.92395	-91.39366
397578	-1385	1494	94	-8.411973	0.6686264	328.7741	0	11.68	4002	1628	1532	1118	1190	0.02	1.796829	8	10	0.08	2800	329.2053	40.92395	-91.39366
397720	-249	-616	502	-5.171904	-2.662661	327.1034	0	11.68	4004	1263	1243	1495	1499	0.02	1.814322	8	10	0.08	2800	331.2589	40.92395	-91.39366
397877	-911	452	1204	-6.837317	-0.6071256	326.3391	0	11.68	4002	1519	1475	1209	1269	0.02	1.828177	8	10	0.08	2800	330.3172	40.92395	-91.39366
397964	1141	-1005	679	-6.078703	-2.236653	325.0411	0	11.68	4004	1404	1292	1334	1442	0.02	1.83973	8	10	0.08	2800	329.8551	40.92395	-91.39366
398014	943	-2004	257	-5.344277	-1.40563	324.8243	0	11.68	4003	1218	1266	1512	1464	0.02	1.855405	8	10	0.08	2800	329.0331	40.92395	-91.39366
398104	1109	253	248	-3.892981	-0.271984	324.6628	0	11.4	4003	1439	1457	1283	1265	0.02	1.872761	8	10	0.08	2800	327.8464	40.92395	-91.39366
398211	-741	1845	72	-5.353382	-0.905728	325.0112	0	11.4	4002	1414	1532	1326	1184	0.02	1.896372	8	10	0.08	2800	327.4815	40.92395	-91.39366
398387	51	396	-247	-3.926575	-4.023586	327.5162	0	11.4	4002	1255	1291	1527	1399	0.02	1.917364	8	10	0.08	2800	331.6655	40.92395	-91.39366
398437	-347	1757	-476	-4.133023	-4.378006	327.8561	0	11.4	4003	1550	1602	1222	1098	0.02	1.926135	8	10	0.08	2800	331.6655	40.92395	-91.39366
398518	-134	-1504	-163	-4.725736	-4.91886	328.4968	0	11.4	4004	1404	1634	1372	1082	0.02	1.929452	8	10	0.08	2800	333.8378	40.92395	-91.39365
398714	629	574	-321	-7.02732	-3.066117	328.9127	0	11.4	4002	1434	1560	1328	1174	0.02	1.943264	8	10	0.08	2800	335.7137	40.92395	-91.39365
398857	-991	-1300	490	-7.977509	-0.3843178	328.1027	0	11.4	4003	1244	1312	1510	1422	0.02	1.947322	8	10	0.08	2800	335.471	40.92395	-91.39365
398934	-525	2498	1200	-8.368354	-1.043795	326.6425	0	11.4	4003	1536	1436	1212	1316	0.02	1.948296	8	10	0.08	2800	331.6167	40.92395	-91.39365
399036	500	2065	1487	-8.325894	-5.196813	324.4565	0	11.34	4003	1440	1494	1314	1280	0.02	1.944123	8	10	0.08	2800	332.1807	40.92395	-91.39365
399140	731	-1406	184	-7.60538	-4.049944	332.1314	0	11.34	4003	1373	1557	1395	1255	0.02	1.934829	8	10	0.08	2800	331.5759	40.92395	-91.39365
399323	1146	447	-978	-8.024328	-4.623672	331.5597	0	11.34	4003	1256	1674	1536	1118	0.02	1.881636	8	10	0.08	2800	330.4366	40.92395	-91.39365
399435	370	1364	-2368	-9.867344	-3.863089	332.9591	0	11.34	4003	1400	1646	1402	1116	0.02	1.856582	8	10	0.08	2800	327.8686	40.92395	-91.39365
399577	-760	-556	-531	-6.978207	-3.337765	337.735	0	11.34	4004	1568	1306	1290	1488	0.02	1.818385	8	10	0.08	2800	335.9104	40.92395	-91.39365
399646	-2018	-159	-1947	-7.631097	-3.597955	338.2029	0	11.34	4004	1473	1185	1421	1549	0.02	1.801713	8	10	0.08	2800	337.3065	40.92395	-91.39365
399742	-878	-1857	-879	-5.857533	-2.952522	342.5652	0	11.34	4002	1331	1491	1523	1227	0.02	1.781552	8	10	0.08	2800	344.2957	40.92395	-91.39365
399854	-2197	-5497	-1011	-10.17242	4.93493	344.1858	0	11.34	4002	1191	1183	1649	1509	0.02	1.773016	8	10	0.08	2800	346.4301	40.92395	-91.39365
399948	2851	1288	78	-9.892374	3.686839	343.6567	0	11.29	4003	1124	1406	1700	1322	0.02	1.765944	8	10	0.08	2800	340.9174	40.92395	-91.39365
400073	-2081	-798	831	-7.317554	1.309335	342.7455	0	11.29	4003	1345	1217	1427	1187	0.02	1.7595	8	10	0.08	2800	343.1857	40.92395	-91.39365
400162	-170	247	903	-9.148648	1.466176	342.0408	0	11.29	4004	1476	1638	1288	1078	0.02	1.768181	8	10	0.08	2800	342.4289	40.92395	-91.39365
400246	84	-754	-213	-9.112555	2.308453	340.7748	0	11.29	4003	1339	1181	1429	1523	0.02	1.776595	8	10	0.08	2800	341.7521	40.92395	-91.39365
400304	1089	512	14	-7.873616	2.224393	340.0874	0	11.29	4004	1349	1095	1421	1611	0.02	1.785852	8	10	0.08	2800	338.9324	40.92395	-91.39365
400406	-1046	-719	1207	-7.395548	1.717435	338.8305	0	11.29	4004	1266	1220	1466	1488	0.02	1.806505	8	10	0.08	2800	340.0799	40.92395	-91.39365
400594	167	2956	1286	-7.729522	2.751937	334.8254	0	11.29	4003	1572	1426	1146	1324	0.02	1.84172	8	10	0.08	2800	335.1707	40.92395	-91.39365
400692	263	-707	542	-6.075133	0.134152	333.6958	0	11.29	4003	1346	1266	1376	1484	0.02	1.851814	8	10	0.08	2800	334.7675	40.92395	-91.39365
400832	896	-2588	16	-5.371121	2.471663	333.2642	0	11.34	4004	1154	1456	1590	1296	0.02	1.868697	8	10	0.08	2800	331.6094	40.92395	-91.39365
400910	498	189	321	-5.232247	4.837994	333.1328	0	11.34	4002	1384	1544	1354	1194	0.02	1.881591	8	10	0.08	2800	329.6794	40.92395	-91.39365
400988	-177	885	-602	-4.846335	3.179616	333.3217	0	11.34	4003	1446	1452	1290	1284	0.02	1.892351	8	10	0.08	2800	330.3344	40.92395	-91.39365
401036	-219	179	297	-4.959007	2.720009	333.2901	0	11.34	4003	1396	1448	1330	1290	0.02	1.90521	8	10	0.08	2800	330.3344	40.92395	-91.39365
401126	350	764	301	-4.912225	2.239764	333.3913	0	11.34	4002	1303	1649	1419	1085	0.02	1.919507	8	10	0.08	2800	327.715	40.92395	-91.39366
401261	530	-1536	-483	-4.074984	1.166836	334.3139	0	11.34	4004	1395	947	1371	1775	0.02	1.937765	8	10	0.08	2800	329.5787	40.92395	-91.39366
401446	-927	1618	-850	-3.174761	2.095899	337.1167	0	11.34	4004	1537	1153	1277	1577	0.02	1.939041	8	10	0.08	2800	329.7107	40.92395	-91.39366
401578	-404	-1911	-296	-3.851653	3.960337	339.5207	0	11.34	4004	1417	1447	1381	1287	0.02	1.921053	8	10	0.08	2800	332.256	40.92395	-91.39366
401626	-114	-334	-126	-4.020174	4.766563	339.9161	0	11.34	4002	1547	1437	1269	1299	0.02	1.914844	8	10	0.08	2800	331.9468	40.92395	-91.39366
401791	-99	821	95	-4.927199	0.8219644	329.786	0	11.17	4002	1503	1157	1289	1551	0.02	1.911063	8	10	0.08	2800	333.088	40.92395	-91.39366
401885	506	-928	-554	-3.822679	3.117874	329.6615	0	11.17	4002	1398	1520	1392	1218	0.02	1.911193	8	10	0.08	2800	333.9013	40.92395	-91.39366
401935	428	167	-797	-3.647453	3.13967	329.5754	0	11.17	4003	1265	1373	1539	1339	0.02	1.906818	8	10	0.08	2800	330.9349	40.92395	-91.39366
402134	551	-1252	-200	-2.121855	-0.1051368	329.5406	0	11.17	4004	1657	1041	1147	1679	0.02	1.895396	8	10	0.08	2800	332.6936	40.92395	-91.39366
402224	-229	-724	163	-1.923579	1.103754	330.1897	0	11.17	4005	1415	1005	1393	1695	0.02	1.895525	8	10	0.08	2800	330.1609	40.92395	-91.39366
402287	-2029	186	-1010	-4.136712	0.5685087	330.6562	0	11.17	4004	1442	1046	1370	1654	0.02	1.896596	8	10	0.08	2800	329.4339	40.92395	-91.39366
402423	-182	-846	927	-4.665942	0.7608625	329.3692	0	11.17	4010	1116	1268	1668	1464	0.02	1.898977	8	10	0.08	2800	330.0382	40.92395	-91.39367
402579	4573	3096	-26	-2.904126	-1.842671	329.0315	0	11.17	4003	1687	1493	1107	1221	0.02	1.897754	8	10	0.08	2800	327.2449	40.92395	-91.39366
402641	1358	967	-1581	0.7095945	-3.367496	329.9373	0	11.17	4004	1210	1106	1592	1592	0.02	1.900379	8	10	0.08	2800	327.8568	40.92395	-91.39366
402782	-5389	-2775	-729	-3.893682	-2.694961	331.247	0	11.17	4004	1439	993	1375	1693	0.02	1.907175	8	10	0.08	2800	331.7147	40.92395	-91.39366
402849	1385	-1054	-1090	-5.658456	-0.2448324	332.8193	0	11.17	4003	1177	1459	1643	1245	0.02	1.908165	8	10	0.08	2800	329.0821	40.92395	-91.39366
402914	1405	536	-668	-4.622167	-0.4133791	332.9118	0	11.17	4004	1235	1337	1585	1371	0.02	1.902641	8	10	0.08	2800	329.0821	40.92395	-91.39366
403102	480	-769	878	-7.638815	-2.968484	331.01	0	11.17	4003	1361	1329	1413	1393	0.02	1.905177	8	10	0.08	2800	330.2717	40.92395	-91.39366
403162	-108	-2133	852	-7.032024	-2.280885	330.656	0	11.17	4002	1462	1276	1308	1446	0.02	1.909186	8	10	0.08	2800	330.2717	40.92395	-91.39366
403266	-349	-229	1605	-6.789185	-0.2543801	329.0627	0	11.17	4002	1363	1235	1395	1495	0.02	1.920373	8	10	0.08	2800	326.4796	40.92395	-91.39366
403346	885	1958	236	-6.147442	-4.0283	326.8265	0	11.17	4008	1280	1216	1484	1512	0.02	1.926242	8	10	0.08	2800	325.5623	40.92394	-91.39366
403438	-323	180	42	-5.760771	-5.068998	325.9792	0	11.17	4004	1299	1143	1451	1591	0.02	1.934292	8	10	0.08	2800	326.5495	40.92394	-91.39366
403513	-642	754	479	-6.240822	-5.164979	324.8977	0	11.29	4002	1487	1263	1273	1485	0.02	1.93669	8	10	0.08	2800	327.3311	40.92394	-91.39366
403638	1503	-503	-485	-5.2643	-5.306513	324.4626	0	11.29	4002	1301	1261	1457	1477	0.02	1.942289	8	10	0.08	2800	328.9374	40.92394	-91.39366
403728	-858	1764	-687	-4.461764	-5.603948	324.8499	0	11.29	4004	1565	1577	1199	1163	0.02	1.94617	8	10	0.08	2800	326.8141	40.92394	-91.39366
403904	-201	-2254	-316	-6.013127	-2.880322	325.3096	0	11.29	4003	1188	1150	1560	1574	0.02	1.965939	8	10	0.08	2800	330.2532	40.92394	-91.39365
403972	-56	2693	335	-6.444137	-3.612557	325.1082	0	11.29	4003	1475	1647	1265	1089	0.02	1.981015	8	10	0.08	2800	329.5269	40.92394	-91.39365
404097	-1527	-99	-125	-6.791371	-5.056387	325.602	0	11.29	4004	1415	1361	1331	1369	0.02	1.989094	8	10	0.08	2800	333.1295	40.92394	-91.39365
404181	-235	-343	-189	-7.613327	-3.128094	326.1094	0	11.29	4003	1458	1304	1298	1424	0.02	2.00475	8	10	0.08	2800	333.7747	40.92394	-91.39365
404269	-844	-739	129	-8.443951	-2.918503	325.7734	0	11.29	4003	1421	1443	1327	1289	0.02	2.013838	8	10	0.08	2800	333.7731	40.92394	-91.39365
404385	1164	1887	595	-8.446291	-3.024785	325.2198	0	11.63	4002	1398	1520	1352	1230	0.02	2.025792	8	10	0.08	2800	333.7457	40.92394	-91.39365
404441	1144	1375	2	-7.683315	-3.813235	325.1677	0	11.63	4003	1229	1349	1529	1389	0.02	2.029905	8	10	0.08	2800	333.7457	40.92394	-91.39365
404513	-598	-1273	690	-7.410362	-4.075628	336.4203	0	11.63	4002	1362	1492	1386	1260	0.02	2.033841	8	10	0.08	2800	336.7581	40.92394	-91.39365
404599	-186	-1540	-32	-8.519787	-1.423742	335.9965	0	11.63	4002	1323	1387	1439	1355	0.02	2.037097	8	10	0.08	2800	334.2414	40.92394	-91.39365
404734	674	264	509	-8.808312	-0.8789781	335.6285	0	11.63	4002	1384	1206	1382	1544	0.02	2.035141	8	10	0.08	2800	333.7172	40.92394	-91.39365
404903	-1060	1497	11	-8.625723	-4.584805	335.0769	0	11.63	4002	1387	1343	1381	1425	0.02	2.02416	8	10	0.08	2800	335.9929	40.92394	-91.39365
405038	-50	-2968	-709	-9.677918	-4.595457	334.8982	0	11.63	4003	1432	1468	1350	1306	0.02	2.00303	8	10	0.08	2800	339.7272	40.92394	-91.39365
405103	1035	-3487	-312	-9.47924	-2.457873	335.1295	0	11.63	4003	1377	1677	1439	1119	0.02	1.988234	8	10	0.08	2800	339.0696	40.92394	-91.39365
405239	1419	1996	-3448	-6.689999	-1.149961	339.243	0	11.63	4003	1324	1204	1544	1540	0.02	1.956758	8	10	0.08	2800	337.1222	40.92394	-91.39365
405334	637	948	-2022	-5.533593	-2.335989	342.173	0	11.63	4004	1473	1765	1381	949	0.02	1.937212	8	10	0.08	2800	340.8442	40.92394	-91.39365
405462	-4767	-1807	-2671	-4.196429	-1.469304	349.0805	0	11.63	4003	1519	1301	1375	1361	0.02	1.9096	8	10	0.08	2800	351.72	40.92394	-91.39365
405593	-724	-2760	-1469	-8.810586	3.657335	352.0172	0	11.63	4003	1264	1412	1622	1270	0.02	1.886897	8	10	0.08	2800	353.3047	40.92395	-91.39365
405735	-487	690	528	-7.57227	4.299964	352.8516	0	11.63	4002	1511	1389	1351	1289	0.02	1.859002	8	10	0.08	2800	352.8454	40.92395	-91.39365
405825	-821	-1497	756	-8.658118	6.156685	351.7899	0	11.63	4003	1178	1298	1686	1390	0.02	1.856256	8	10	0.08	2800	350.9037	40.92395	-91.39365
405896	569	-1212	1621	-8.905333	6.90781	351.2305	0	11.63	4004	1187	1161	1635	1537	0.02	1.855192	8	10	0.08	2800	350.9037	40.92395	-91.39365
406001	-584	1563	1072	-8.847487	6.36786	349.4545	0	11.63	4004	1639	1253	1299	1577	0.02	1.854864	8	10	0.08	2800	346.3135	40.92395	-91.39365
406142	2031	-504	729	-5.073521	2.740935	346.2911	0	11.63	4003	1228	1506	1646	1284	0.02	1.853993	8	10	0.08	2800	345.555	40.92395	-91.39365
406188	883	-1308	1300	-4.613093	2.955942	345.7285	0	11.63	4003	1399	1129	1543	1737	0.02	1.847535	8	10	0.08	2800	343.0096	40.92395	-91.39365
406354	2149	2259	210	-4.992246	2.448329	344.221	0	11.11	4003	1578	1430	1306	1386	0.02	1.835711	8	10	0.08	2800	338.8224	40.92395	-91.39365
406475	-1187	480	-1242	-4.265609	0.03084383	343.9375	0	11.11	4004	1723	937	1183	1837	0.02	1.829908	8	10	0.08	2800	340.2964	40.92395	-91.39365
406569	-1630	-1682	-1558	-0.894546	2.905523	346.6465	0	11.11	4002	1574	928	1336	1774	0.02	1.839743	8	10	0.08	2800	341.1576	40.92395	-91.39365
406641	-194	712	-1620	2.157904	0.9995934	350.3532	0	11.11	4002	1606	1040	1338	1684	0.02	1.855992	8	10	0.08	2800	344.7059	40.92395	-91.39365
406800	-2116	-1907	-3441	-7.172163	3.514479	354.3393	0	11.11	4003	1264	1676	1636	904	0.02	1.925956	8	10	0.08	2800	347.3807	40.92395	-91.39366
406915	4325	2296	-2524	-2.33958	5.584713	350.5159	0	11.11	4004	1496	1298	1370	1228	0.02	2.012575	8	10	0.08	2800	353.4233	40.92395	-91.39366
406967	1022	717	-663	1.005947	3.355667	352.0321	0	11.11	4003	1369	1433	1477	1069	0.02	2.069491	8	10	0.08	2800	353.4233	40.92395	-91.39366
407119	-2367	-1243	470	-1.45701	4.585085	352.0945	0	11.4	4003	1405	1221	1435	1355	0.02	2.263478	8	10	0.08	2800	355.0927	40.92395	-91.39366
407175	-837	-381	1850	-5.105371	6.249159	350.1896	0	11.4	4002	1291	1211	1495	1383	0.02	2.279134	8	10	0.08	2800	352.3315	40.92395	-91.39366
407341	732	1015	2859	-3.983097	4.857184	345.1625	0	11.4	4003	1291	1327	1459	1315	0.02	2.409414	8	10	0.08	2800	347.9018	40.92395	-91.39367
407420	-212	1211	3234	-4.517678	3.288942	340.4685	0	11.4	4004	1325	1341	1375	1299	0.02	2.477284	8	10	0.08	2800	340.3553	40.92395	-91.39367
407468	116	728	2914	-4.653505	2.596002	338.983	0	11.4	4003	1497	1473	1241	1217	0.02	2.502227	8	10	0.08	2800	340.3553	40.92395	-91.39367
407606	757	805	2175	-3.283143	-1.191046	332.0857	0	11.4	4002	1191	1313	1521	1379	0.02	2.580086	8	10	0.08	2800	335.3803	40.92395	-91.39367
407786	-546	-105	2031	-2.220719	-0.880493	327.1779	0	11.4	4004	1369	1385	1341	1345	0.02	2.647559	8	10	0.08	2800	329.4351	40.92395	-91.39367
407938	1353	1381	1098	-1.828575	-2.366223	324.1802	0	11.4	4002	1489	1367	1207	1345	0.02	2.716918	8	10	0.08	2800	325.8188	40.92395	-91.39367
408017	-1915	-1349	231	-1.768496	-1.559471	323.0005	0	11.4	4003	1341	1097	1391	1667	0.02	2.742622	8	10	0.08	2800	325.3135	40.92394	-91.39367
408129	786	22	280	-3.134374	-1.923506	322.3136	0	11.29	4003	1395	1397	1331	1365	0.02	2.763862	8	10	0.08	2800	323.4086	40.92394	-91.39367
408168	461	350	78	-2.803334	-1.830179	322.2112	0	11.29	4004	1385	1371	1355	1389	0.02	2.773464	8	10	0.08	2800	323.4086	40.92394	-91.39367
408376	220	518	-728	-1.964569	-3.47598	322.6198	0	11.29	4004	1222	1420	1542	1344	0.02	2.794641	8	10	0.08	2800	323.2866	40.92394	-91.39367
408432	-651	-562	-45	-2.726989	-3.590747	323.2809	0	11.29	4002	1422	1392	1340	1382	0.02	2.796617	8	10	0.08	2800	324.2183	40.92394	-91.39367
408530	-410	-520	-544	-3.311577	-3.557979	323.5909	0	11.29	4003	1422	1282	1358	1490	0.02	2.803907	8	10	0.08	2800	326.0933	40.92394	-91.39367
408654	911	-482	-923	-2.512209	-3.547611	324.6326	0	11.29	4004	1438	1360	1358	1404	0.02	2.803808	8	10	0.08	2800	326.9794	40.92394	-91.39367
408689	-469	-984	57	-2.676534	-2.880404	324.982	0	11.29	4002	1603	1375	1183	1387	0.02	2.803772	8	10	0.08	2800	326.9794	40.92394	-91.39367
408838	1582	119	295	-4.180212	0.7111341	326.607	0	11.29	4003	1423	1409	1387	1341	0.02	2.80217	8	10	0.08	2800	327.0254	40.92394	-91.39367
