time(ms)	gyro_x(deg/s)	gyro_y(deg/s)	gyro_z(deg/s)	orientation_roll(deg)	orientation_pitch(deg)	orientation_yaw(deg)	throttle	battery(V)	loop_time(uS)	pid_output_roll	pid_output_pitch	pid_output_yaw	pid_output_throttle	ultrasonic_alt	baro_alt	flight_mode	p_gain_altitude	i_gain_altitude	d_gain_altitude	compass_heading	latitude	longitude
279470	919	-490	1222	-0.7400278	-4.941886	118.4443	0	12.36	4003	1122	1198	1518	1498	0.02	2.061882	8	10	0.08	2800	118.6949	40.92393	-91.39364
279606	3129	-467	1465	1.981712	-3.090749	115.3372	0	12.36	4003	1059	1395	1551	1311	0.02	2.086578	8	10	0.08	2800	115.9381	40.92393	-91.39363
279725	-413	-997	-203	3.701375	-2.996793	114.3007	0	12.36	4003	1248	1076	1358	1554	0.02	2.112796	8	10	0.08	2800	109.9624	40.92393	-91.39363
279882	-3272	630	271	2.38953	0.2707282	114.8214	0	12.36	4003	1554	1480	1074	1208	0.02	2.143082	8	10	0.08	2800	113.5472	40.92393	-91.39363
279929	-2669	654	993	0.6931636	-0.01651754	114.5555	0	12.48	4004	1502	1434	1108	1268	0.02	2.146755	8	10	0.08	2800	120.217	40.92393	-91.39363
280075	-64	-759	-453	0.9104694	0.5114437	114.483	0	12.48	4003	1361	1299	1295	1373	0.02	2.16994	8	10	0.08	2800	122.8245	40.92393	-91.39363
280126	-401	-1545	-1062	0.765384	1.145703	114.5945	0	12.48	4002	1369	1425	1279	1247	0.02	2.172801	8	10	0.08	2800	122.8245	40.92393	-91.39363
280214	-268	103	656	-0.02687235	2.552953	114.7306	0	12.48	4002	1507	1507	1121	1177	0.02	2.182982	8	10	0.08	2800	122.7751	40.92393	-91.39362
280348	1126	-258	-676	0.4443849	-0.3661951	126.858	0	12.48	4002	1293	1227	1339	1524	0.02	2.202556	8	10	0.08	2800	126.7453	40.92393	-91.39362
280427	383	-877	-1307	1.610412	-0.9212152	127.4772	0	12.48	4003	1144	1228	1474	1402	0.02	2.215707	8	10	0.08	2800	127.0985	40.92393	-91.39362
280544	264	-2258	-607	0.678547	1.658427	129.1326	0	12.48	4002	1345	1229	1301	1421	0.02	2.244694	8	10	0.08	2800	133.8899	40.92393	-91.39362
280648	-593	-2004	-540	0.1691941	3.744234	129.4193	0	12.48	4003	1119	1077	1531	1569	0.02	2.263939	8	10	0.08	2800	133.2546	40.92393	-91.39362
280850	-276	-464	-37	-0.07797785	4.454764	132.2806	0	12.48	4002	1379	1405	1299	1249	0.02	2.290323	8	10	0.08	2800	137.7696	40.92393	-91.39362
281027	-566	380	-206	-0.07481809	2.848754	134.7249	0	12.19	4003	1383	1353	1327	1317	0.02	2.275331	8	10	0.08	2800	139.2605	40.92393	-91.39362
281050	-566	380	-206	-0.07481809	2.848754	134.7249	0	12.19	4003	1484	1506	1228	1154	0.02	2.272683	8	10	0.08	2800	139.2605	40.92393	-91.39362
281188	197	234	-1442	-0.9151484	4.419784	146.6083	0	12.19	4002	1463	1547	1299	1127	0.02	2.243021	8	10	0.08	2800	145.2893	40.92392	-91.39362
281307	-1482	1071	-277	-0.8148674	2.455456	147.1309	0	12.19	4004	1520	1400	1246	1286	0.02	2.191055	8	10	0.08	2800	146.7663	40.92392	-91.39362
281365	-1041	877	1197	-2.449925	2.551412	147.1424	0	12.19	4004	1414	1270	1342	1426	0.02	2.1796	8	10	0.08	2800	146.9113	40.92392	-91.39362
281445	-922	875	632	-3.058828	1.864151	146.811	0	12.19	4004	1477	1473	1261	1257	0.02	2.133196	8	10	0.08	2800	150.0297	40.92392	-91.39362
281597	-633	76	-2002	-2.513309	1.593262	148.1954	0	12.19	4002	1503	1489	1319	1233	0.02	2.072112	8	10	0.08	2800	148.404	40.92392	-91.39362
281698	-1798	-1179	-251	-3.48991	2.422343	149.048	0	12.19	4002	1326	1572	1492	1154	0.02	2.020835	8	10	0.08	2800	148.7922	40.92392	-91.39362
281790	-1425	-236	-665	-7.026957	5.11291	150.2904	0	12.08	4002	1658	1308	1168	1386	0.02	1.994166	8	10	0.08	2800	151.4704	40.92392	-91.39362
281901	-561	418	-253	-5.917308	2.446213	151.1527	0	12.08	4002	1192	1464	1594	1214	0.02	1.94243	8	10	0.08	2800	153.6692	40.92391	-91.39362
281972	-3110	-259	-613	-8.445886	3.119719	151.5089	0	12.08	4002	1005	1417	1779	1239	0.02	1.915358	8	10	0.08	2800	153.6692	40.92391	-91.39362
282134	162	-2406	-353	-8.938199	5.159688	151.2264	0	12.08	4003	1536	1446	1278	1272	0.02	1.868706	8	10	0.08	2800	150.0953	40.92391	-91.39362
282268	-1710	1570	209	-8.433169	4.899302	151.4025	0	12.08	4003	1408	1380	1378	1302	0.02	1.783935	8	10	0.08	2800	151.27	40.92391	-91.39363
282454	-2195	-399	-537	-12.15518	1.61047	151.9441	0	12.08	4003	1512	1250	1280	1414	0.02	1.72317	8	10	0.08	2800	147.9743	40.92391	-91.39363
282541	400	-119	233	-13.31876	1.782086	152.0384	0	12.08	4003	1226	1390	1564	1296	0.02	1.692028	8	10	0.08	2800	147.6466	40.9239	-91.39364
282678	477	990	679	-12.2221	1.334093	151.9356	0	12.14	4004	1336	1440	1442	1246	0.02	1.63665	8	10	0.08	2800	145.8714	40.9239	-91.39364
282743	-1484	2836	205	-11.9734	0.2733236	152.0153	0	12.14	4003	1413	1615	1385	1059	0.02	1.607768	8	10	0.08	2800	145.8714	40.9239	-91.39365
282873	-1146	1453	-379	-13.981	-2.161455	152.192	0	12.14	4003	1520	1388	1316	1312	0.02	1.532694	8	10	0.08	2800	144.887	40.9239	-91.39365
282960	-109	81	879	-13.25957	-2.866379	151.917	0	12.14	4002	1198	1420	1622	1264	0.02	1.496527	8	10	0.08	2800	144.003	40.9239	-91.39365
283052	-2153	-1291	641	-13.84047	-2.237054	141.037	0	12.14	4003	1320	1168	1448	1532	0.02	1.440873	8	10	0.08	2800	141.5992	40.9239	-91.39365
283169	432	3377	699	-14.78945	-3.59535	139.9445	0	12.14	4003	1600	1666	1156	1050	0.02	1.406933	8	10	0.08	2800	139.8174	40.92391	-91.39365
283346	-1347	636	684	-12.61958	-8.781414	138.0588	0	12.14	4003	1327	1347	1461	1349	0.02	1.354753	8	10	0.08	2800	137.1263	40.92391	-91.39365
283424	1423	1304	1649	-13.21924	-10.73985	137.4869	0	12.14	4003	1406	1754	1318	982	0.02	1.302143	8	10	0.08	2800	135.3257	40.92391	-91.39365
283560	189	2477	996	-14.32583	-12.23846	134.1759	0	12.14	4003	1268	1280	1438	1446	0.02	1.271647	8	10	0.08	2800	130.5166	40.92391	-91.39366
283705	657	1221	1256	-14.5279	-17.66408	130.9404	0	12.02	4003	1258	1096	1440	1638	0.02	1.237413	8	10	0.08	2800	126.3009	40.92391	-91.39366
283753	2552	-1034	483	-12.36425	-17.25866	129.8235	0	12.02	4002	1459	1273	1233	1439	0.02	1.235709	8	10	0.08	2800	122.7104	40.92391	-91.39366
283883	2700	-181	-2122	-8.509939	-16.72257	128.8867	0	12.02	4003	1373	1353	1331	1319	0.02	1.239481	8	10	0.08	2800	119.3932	40.92392	-91.39367
284007	421	3220	-353	-4.80446	-15.70218	119.9511	0	12.02	4002	1315	1391	1361	1273	0.02	1.255709	8	10	0.08	2800	119.5446	40.92392	-91.39367
284062	490	1069	-628	-5.165551	-17.88122	120.3793	0	12.02	4003	1089	1671	1585	983	0.02	1.267619	8	10	0.08	2800	117.8534	40.92393	-91.39367
284166	1788	747	-761	-5.549718	-14.29442	122.0145	0	12.02	4003	1276	1468	1354	1138	0.02	1.315336	8	10	0.08	2800	120.046	40.92393	-91.39367
284271	3199	193	-303	-0.7780837	-15.73242	122.4159	0	12.02	4002	1093	1213	1521	1389	0.02	1.335178	8	10	0.08	2800	116.0539	40.92393	-91.39367
284374	942	478	-33	1.125942	-14.87477	122.3624	0	12.02	4004	1245	1251	1393	1383	0.02	1.397122	8	10	0.08	2800	112.4009	40.92393	-91.39367
284510	1560	3034	854	3.094365	-15.88466	122.271	0	12.02	4004	1514	1452	1122	1176	0.02	1.456441	8	10	0.08	2800	113.0221	40.92394	-91.39367
284613	2358	-3698	209	5.916681	-17.45955	110.1308	0	12.14	4004	1256	1276	1388	1360	0.02	1.515965	8	10	0.08	2800	107.7962	40.92394	-91.39367
284708	767	-622	334	7.584692	-10.88507	109.8769	0	12.14	4003	1270	1298	1356	1336	0.02	1.54432	8	10	0.08	2800	106.8261	40.92394	-91.39367
284891	972	-1716	419	8.687181	-12.48191	109.2303	0	12.14	4004	1412	1242	1218	1388	0.02	1.603564	8	10	0.08	2800	102.3333	40.92394	-91.39367
284980	2514	1701	-269	10.70112	-9.16314	109.1442	0	12.14	4003	1306	1158	1364	1472	0.02	1.642058	8	10	0.08	2800	103.4903	40.92395	-91.39365
285143	1033	-1257	-738	12.93083	-11.175	109.3924	0	12.14	4004	1345	1351	1337	1315	0.02	1.675526	8	10	0.08	2800	106.6069	40.92396	-91.39365
285193	130	-3743	-673	12.5924	-7.625796	109.822	0	12.14	4004	1373	1235	1319	1409	0.02	1.688117	8	10	0.08	2800	103.2639	40.92396	-91.39365
285373	-16	411	-670	10.50736	-4.906754	109.6667	0	12.14	4003	1205	1189	1475	1483	0.02	1.718768	8	10	0.08	2800	109.0043	40.92396	-91.39365
285423	161	-955	-553	10.5154	-4.550806	109.6909	0	12.14	4003	1400	1124	1310	1546	0.02	1.724981	8	10	0.08	2800	109.6344	40.92396	-91.39365
285537	2048	-3827	169	12.86586	-0.3618878	110.1362	0	12.48	4003	1074	1032	1640	1666	0.02	1.719651	8	10	0.08	2800	112.5407	40.92396	-91.39365
285584	-995	106	95	12.44436	1.005126	109.8717	0	12.48	4003	1370	1066	1374	1646	0.02	1.716918	8	10	0.08	2800	114.3677	40.92396	-91.39365
285759	2421	-579	817	10.43914	-0.6928638	123.8723	0	12.48	4002	1337	1455	1357	1259	0.02	1.703607	8	10	0.08	2800	124.2614	40.92396	-91.39363
285873	-658	-275	451	11.80664	0.07905398	123.682	0	12.48	4004	1578	1492	1126	1228	0.02	1.685404	8	10	0.08	2800	132.8724	40.92396	-91.39363
285894	-3309	-254	-788	9.095816	1.037097	142.0457	0	12.48	4003	1578	1492	1126	1228	0.02	1.685404	8	10	0.08	2800	141.9412	40.92396	-91.39363
285989	-1535	348	-31	5.990169	0.9176904	142.3166	0	12.48	4004	1356	1472	1392	1276	0.02	1.666747	8	10	0.08	2800	143.6259	40.92396	-91.39363
286094	-1786	-90	712	3.830521	0.1118856	142.476	0	12.48	4003	1371	1547	1373	1197	0.02	1.645916	8	10	0.08	2800	148.812	40.92396	-91.39362
286230	-1681	154	347	-0.307314	0.3964396	152.1489	0	12.48	4002	1549	1379	1169	1351	0.02	1.624063	8	10	0.08	2800	153.8709	40.92396	-91.39362
286356	-1310	-1106	1478	-4.356023	-0.2247671	149.512	0	12.48	4003	1200	1108	1512	1660	0.02	1.596454	8	10	0.08	2800	153.8793	40.92396	-91.39362
286397	-743	-536	1034	-4.696408	0.04940138	148.8312	0	12.48	4002	1343	1449	1339	1337	0.02	1.582895	8	10	0.08	2800	153.8793	40.92396	-91.39362
286564	-1289	-45	1071	-9.21974	-0.004906559	155.6797	0	12.19	4003	1366	1334	1396	1516	0.02	1.547928	8	10	0.08	2800	152.1179	40.92395	-91.39362
286631	-433	-1576	783	-9.586913	0.375135	154.9112	0	12.19	4004	1243	1349	1543	1497	0.02	1.508489	8	10	0.08	2800	149.4848	40.92395	-91.39362
286780	-1267	-2510	-528	-8.975797	4.145803	154.7284	0	12.19	4002	1441	1495	1363	1381	0.02	1.42629	8	10	0.08	2800	150.9442	40.92395	-91.39361
286901	667	-480	-641	-10.0643	5.633704	156.2652	0	12.19	4006	1331	1429	1433	1375	0.02	1.360357	8	10	0.08	2800	151.182	40.92395	-91.3936
287063	1706	177	-857	-0.9569661	4.978381	156.9684	0	12.19	4003	1281	1291	1499	1465	0.02	1.280597	8	10	0.08	2800	150.7915	40.92395	-91.3936
287220	2238	-522	390	2.304052	4.405212	156.0299	0	12.19	4003	1478	1396	1430	1432	0.02	1.194409	8	10	0.08	2800	151.5227	40.92394	-91.39359
287328	138	-282	1774	3.248781	5.806126	152.9023	0	11.68	4004	1301	1197	1657	1597	0.02	1.10643	8	10	0.08	2800	151.3549	40.92394	-91.39359
287387	-841	-1697	4381	2.846837	6.419813	151.3449	0	11.68	4004	1397	1345	1505	1457	0.02	1.080739	8	10	0.08	2800	151.7234	40.92394	-91.39359
287496	-3023	473	3043	-3.306958	5.069456	154.028	0	11.68	4004	1677	1149	1185	1533	0.02	1.050301	8	10	0.08	2800	151.1057	40.92394	-91.39359
287626	-1420	2249	5374	-6.929729	1.629017	147.3878	0	11.68	4004	1337	1151	1479	1529	0.02	0.998077	8	10	0.08	2800	147.8483	40.92393	-91.39359
287750	-3254	2376	4532	-12.22338	-7.495832	137.5363	0	11.68	4004	1708	1272	1146	1446	0.02	0.9724717	8	10	0.08	2800	135.8628	40.92393	-91.39359
287829	-1747	776	4984	-14.05241	-9.76375	132.7067	0	11.68	4004	1461	1385	1469	1417	0.02	0.9564708	8	10	0.08	2800	131.616	40.92393	-91.39359
288004	-1127	-306	3743	-16.80129	-18.10933	108.968	0	11.68	4002	1615	1327	1303	1387	0.02	0.9077777	8	10	0.08	2800	106.3569	40.92392	-91.39359
288058	-1959	110	3000	-16.30313	-18.13807	107.2072	0	11.68	4004	1752	1060	1154	1646	0.02	0.8821968	8	10	0.08	2800	106.3569	40.92392	-91.39359
288174	-629	-2970	3005	-16.86473	-17.28812	88.68398	0	11.68	4004	1258	1780	1622	960	0.02	0.8332871	8	10	0.08	2800	90.68045	40.92392	-91.3936
288193	-94	-4605	4921	-15.75478	-15.56678	86.5406	0	11.68	4002	1332	1134	1550	1624	0.02	0.8332871	8	10	0.08	2800	85.46286	40.92392	-91.3936
288405	612	-796	1623	-7.276458	-7.1041	61.50806	0	11.91	4002	1402	1628	1398	1112	0.02	0.793502	8	10	0.08	2800	60.46036	40.92392	-91.3936
288496	-357	-656	1806	-6.725089	-6.509713	45.64745	0	11.91	4004	1526	1310	1236	1428	0.02	0.8044333	8	10	0.08	2800	47.07199	40.92392	-91.3936
288640	3722	-1574	1086	-3.626394	-3.708933	31.41924	0	11.91	4002	1259	1251	1451	1395	0.02	0.8800954	8	10	0.08	2800	28.35175	40.92392	-91.3936
288752	1095	-796	963	-0.06004019	-3.182396	30.58934	0	11.91	4002	1107	1255	1567	1403	0.02	0.932481	8	10	0.08	2800	21.07248	40.92392	-91.3936
288887	-1249	506	598	-0.0275615	-1.402715	17.96671	0	11.91	4003	1415	1217	1205	1387	0.02	1.085302	8	10	0.08	2800	18.40921	40.92392	-91.39361
288978	681	1262	445	-1.421453	-2.506078	16.20721	0	11.91	4002	1282	1304	1320	1298	0.02	1.147934	8	10	0.08	2800	16.65875	40.92392	-91.39361
289045	1445	-1737	650	0.9190094	-0.8256606	14.56535	0	11.91	4003	1101	1135	1491	1469	0.02	1.324682	8	10	0.08	2800	11.98828	40.92392	-91.39361
289111	957	-366	133	1.984493	0.9498607	13.93398	0	11.91	4002	1174	1160	1418	1424	0.02	1.339491	8	10	0.08	2800	6.990326	40.92392	-91.39361
289195	-50	1301	505	2.981709	-0.8500603	12.93412	0	12.19	4002	1241	1163	1377	1483	0.02	1.385115	8	10	0.08	2800	6.824585	40.92392	-91.39361
289296	206	211	750	3.538509	-0.9953765	359.5645	0	12.19	4003	1133	1267	1491	1381	0.02	1.486152	8	10	0.08	2800	359.6663	40.92392	-91.39361
289446	618	-1633	35	1.678933	-1.429031	357.9517	0	12.19	4003	1194	1206	1410	1430	0.02	1.614929	8	10	0.08	2800	0.05279541	40.92392	-91.39361
289542	1854	-1485	-111	4.069863	1.685114	357.8312	0	12.19	4003	1083	1257	1529	1387	0.02	1.67051	8	10	0.08	2800	357.4014	40.92392	-91.39361
289639	-252	905	-415	4.799828	2.13937	358.3812	0	12.19	4003	1378	1338	1222	1278	0.02	1.764003	8	10	0.08	2800	353.039	40.92392	-91.39361
289734	-648	2039	-191	4.20018	-0.5916756	359.0269	0	12.19	4002	1419	1255	1111	1271	0.02	1.86224	8	10	0.08	2800	356.1443	40.92392	-91.39361
289774	-1391	262	-479	2.764001	-1.983745	359.5647	0	12.19	4004	1296	1280	1320	1336	0.02	1.879304	8	10	0.08	2800	353.5011	40.92392	-91.39361
289973	370	-15	-352	1.259581	2.041581	1.113523	0	12.19	4004	1261	1287	1393	1335	0.02	2.018531	8	10	0.08	2800	355.835	40.92392	-91.39361
290022	-563	64	-169	1.260231	1.884622	1.310786	0	12.19	4007	1429	1325	1221	1297	0.02	2.031579	8	10	0.08	2800	354.5092	40.92392	-91.39361
290143	-1202	226	-236	-0.5117261	1.475383	1.988625	0	12.14	4002	1190	1252	1472	1394	0.02	2.085711	8	10	0.08	2800	355.6472	40.92392	-91.39361
290247	-2486	1404	-348	-4.082699	-0.1720203	2.069567	0	12.14	4004	1246	1160	1464	1490	0.02	2.126977	8	10	0.08	2800	353.4518	40.92392	-91.39361
290353	2280	1572	-253	-3.573152	-2.984586	2.518221	0	12.14	4004	1261	1285	1463	1371	0.02	2.148764	8	10	0.08	2800	356.7647	40.92392	-91.39361
290410	713	-262	-44	-1.952466	-3.832516	2.231765	0	12.14	4003	1292	1296	1422	1382	0.02	2.159394	8	10	0.08	2800	359.0137	40.92392	-91.39361
290511	-859	-123	458	-2.709725	-0.3455199	1.330542	0	12.14	4003	1273	1225	1441	1461	0.02	2.161092	8	10	0.08	2800	355.8195	40.92392	-91.39361
290595	317	666	77	-1.97473	-3.137449	1.131768	0	12.14	4003	1265	1259	1435	1441	0.02	2.165397	8	10	0.08	2800	356.2834	40.92392	-91.39361
290670	-545	603	166	-1.631202	-3.148014	0.903397	0	12.14	4006	1389	1627	1347	1085	0.02	2.165286	8	10	0.08	2800	359.0619	40.92392	-91.3936
290777	-989	-67	916	-3.207778	-2.663834	0.1331885	0	12.14	4003	1479	1583	1255	1147	0.02	2.145675	8	10	0.08	2800	355.0515	40.92392	-91.3936
290879	971	-1102	459	-2.442037	-1.595932	0.1452315	0	12.14	4003	1432	1410	1316	1338	0.02	2.119596	8	10	0.08	2800	355.5726	40.92392	-91.3936
291034	-1747	1862	1268	-2.862299	-3.51381	0.8369272	0	12.14	4003	1542	1310	1240	1472	0.02	2.071242	8	10	0.08	2800	358.6923	40.92392	-91.3936
291149	-670	-1657	-218	-8.124289	-2.473179	0.09108558	0	12.14	4002	1273	1425	1513	1289	0.02	2.036357	8	10	0.08	2800	356.946	40.92392	-91.3936
291201	3280	-444	-1525	-5.436007	-0.7654928	1.237063	0	12.14	4002	1301	1317	1513	1441	0.02	2.001753	8	10	0.08	2800	358.5335	40.92392	-91.39359
291249	1252	95	72	-3.65822	-0.3544973	2.302301	0	12.14	4003	1531	1243	1251	1483	0.02	1.995498	8	10	0.08	2800	359.3066	40.92392	-91.39359
291353	-916	-675	-1854	-4.952315	-0.6391743	3.231288	0	12.14	4003	1163	1387	1657	1309	0.02	1.958826	8	10	0.08	2800	358.9081	40.92392	-91.39359
291467	-2682	-369	-609	-8.446188	0.1209117	4.650424	0	12.14	4003	1416	1238	1374	1435	0.02	1.943875	8	10	0.08	2800	1.694611	40.92392	-91.39359
291607	-1445	512	3	-9.249571	0.3988691	4.415915	0	12.14	4004	1574	1404	1204	1290	0.02	1.922972	8	10	0.08	2800	3.09259	40.92392	-91.39359
291666	-16	-494	171	-9.476878	0.8136364	4.365681	0	12.14	4003	1602	1384	1148	1306	0.02	1.918779	8	10	0.08	2800	3.09259	40.92392	-91.39359
291834	-400	545	442	-7.701921	0.7965018	4.878148	0	12.14	4002	1440	1500	1288	1259	0.02	1.92374	8	10	0.08	2800	3.080841	40.92392	-91.39359
291915	775	633	-182	-7.71659	0.7160064	5.269266	0	12.14	4002	1359	1441	1373	1223	0.02	1.939998	8	10	0.08	2800	6.552002	40.92392	-91.39358
292005	3294	755	-821	-3.519637	-1.406433	6.287075	0	12.14	4004	1128	1280	1508	1268	0.02	1.953493	3	10	0.08	2800	9.436096	40.92392	-91.39358
292066	-364	-1361	498	-2.073268	-1.465716	5.841311	0	12.14	4003	1353	1191	1269	1371	0.02	1.955811	3	10	0.08	2800	9.740692	40.92392	-91.39358
292134	-2633	-1461	449	-5.897542	1.388563	4.955326	0	12.14	4006	1366	1210	1246	1358	0.02	1.963625	3	10	0.08	2800	5.2099	40.92392	-91.39358
292284	-84	-992	-979	-7.522538	3.713998	5.320279	0	12.14	4004	1211	1055	1347	1579	0.02	1.978521	3	10	0.08	2800	4.803711	40.92392	-91.39358
292326	716	463	-980	-7.264318	3.701103	5.839151	0	12.14	4003	1181	1245	1373	1393	0.02	1.979721	3	10	0.08	2800	4.803711	40.92392	-91.39358
292392	1121	1238	-3116	-1.888105	0.1721226	10.92624	0	12.14	4004	1116	1322	1458	1336	0.02	1.989678	3	10	0.08	2800	13.20224	40.92392	-91.39358
292589	-2977	592	-4824	-3.022008	0.8801948	37.13903	0	12.14	4002	1355	1411	1259	1247	0.02	2.008697	3	10	0.08	2800	34.86874	40.92392	-91.39358
292708	-1385	-938	-4260	-9.328083	2.953224	68.75204	0	12.36	4002	1185	1125	1441	1537	0.02	2.013837	3	10	0.08	2800	64.38974	40.92392	-91.39358
292836	293	2047	-3986	-8.903852	3.156352	87.25738	0	12.36	4002	1637	1679	1323	1137	0.02	2.008397	3	10	0.08	2800	86.33066	40.92392	-91.39358
292872	-1458	-1524	-2034	-6.874152	5.343367	104.6116	0	12.36	4004	1481	1541	1489	1269	0.02	1.997503	3	10	0.08	2800	104.3865	40.92392	-91.39357
292905	-604	-1577	-2210	-7.14166	6.372422	105.7604	0	12.36	4004	1646	1354	1316	1448	0.02	1.994651	3	10	0.08	2800	104.3865	40.92392	-91.39357
292983	-1619	-1774	-1264	-5.661104	9.411145	108.3522	0	12.36	4003	1688	1332	1224	1408	0.02	1.985532	3	10	0.08	2800	108.2387	40.92392	-91.39357
293078	-1844	543	-677	-7.320755	10.39254	108.8572	0	12.36	4003	1553	1417	1237	1257	0.02	1.968903	3	10	0.08	2800	108.2387	40.92392	-91.39357
293221	-2432	690	924	-10.15321	10.24071	107.7558	0	12.36	4003	1600	1414	1108	1222	0.02	1.951396	3	10	0.08	2800	109.8523	40.92392	-91.39357
293347	-88	-1488	1980	-10.81116	10.71537	105.7716	0	12.36	4004	1438	1452	1240	1202	0.02	1.931704	3	10	0.08	2800	108.6872	40.92392	-91.39357
293446	493	3108	1171	-11.64558	7.869475	103.1472	0	12.36	4003	1254	1242	1394	1370	0.02	1.923442	3	10	0.08	2800	109.114	40.92392	-91.39357
293521	1487	1771	1547	-9.946711	1.970929	100.4971	0	12.14	4003	1367	1451	1277	1165	0.02	1.902603	3	10	0.08	2800	105.7658	40.92392	-91.39357
293568	820	522	956	-8.706911	0.7717558	99.23893	0	12.14	4003	1332	1270	1318	1352	0.02	1.899116	3	10	0.08	2800	104.9202	40.92392	-91.39358
293660	1254	1352	1057	-7.080285	-0.4149112	97.30395	0	12.14	4003	1332	1288	1336	1324	0.02	1.891368	3	10	0.08	2800	101.8746	40.92392	-91.39358
293758	415	958	1242	-6.155731	-2.070899	95.93826	0	12.14	4003	1405	1247	1247	1377	0.02	1.882365	3	10	0.08	2800	101.2876	40.92392	-91.39358
293886	-662	-1193	1124	-4.653623	-1.335518	93.03388	0	12.14	4003	1258	1256	1410	1364	0.02	1.855328	3	10	0.08	2800	93.50409	40.92392	-91.39358
293947	-1206	-1401	1008	-5.251195	-0.7259978	92.40568	0	12.14	4004	1231	1203	1439	1411	0.02	1.836221	3	10	0.08	2800	93.50409	40.92392	-91.39358
294134	676	1477	1782	-4.515491	-0.1990255	87.83228	0	12.14	4004	1434	1362	1242	1230	0.02	1.782387	3	10	0.08	2800	83.11804	40.92392	-91.39359
294214	710	329	2159	-3.965118	-1.243404	85.68494	0	12.14	4003	1227	1301	1453	1295	0.02	1.768526	3	10	0.08	2800	82.28033	40.92392	-91.39359
294275	-744	-1458	2345	-4.628043	-0.3465823	82.09258	0	12.14	4003	1361	1263	1337	1355	0.02	1.749019	3	10	0.08	2800	77.10013	40.92392	-91.39359
294388	-623	3189	2416	-5.409648	-1.153047	65.74474	0	12.02	4003	1394	1402	1366	1318	0.02	1.737305	3	10	0.08	2800	69.20309	40.92392	-91.39359
294448	-914	3470	2434	-6.042642	-3.164883	64.31901	0	12.02	4004	1444	1526	1324	1210	0.02	1.716522	3	10	0.08	2800	69.20309	40.92392	-91.3936
294591	1094	-743	2128	-4.904422	-8.083303	57.89412	0	12.02	4002	1716	1442	1200	1522	0.02	1.657082	3	10	0.08	2800	60.88248	40.92392	-91.3936
294662	3192	-147	1386	-3.758677	-7.129285	54.47675	0	12.02	4003	1362	1680	1526	1252	0.02	1.62992	3	10	0.08	2800	51.98456	40.92392	-91.3936
294787	718	-3307	1869	0.3568246	-2.203215	38.37757	0	12.02	4002	1127	1555	1517	1109	0.02	1.601751	3	10	0.08	2800	38.49182	40.92393	-91.39361
294831	951	380	-7	-0.3732659	-0.4839686	37.2049	0	12.02	4004	1423	807	1207	1783	0.02	1.581967	3	10	0.08	2800	30.45688	40.92393	-91.39361
294957	-1837	233	996	-0.7477874	-0.21006	36.16059	0	12.02	4004	1435	1221	1183	1341	0.02	1.531475	3	10	0.08	2800	28.66159	40.92393	-91.39362
295064	938	-2153	973	-3.176802	1.602497	21.71604	0	12.02	4004	1200	1206	1422	1396	0.02	1.49098	3	10	0.08	2800	22.60852	40.92393	-91.39362
295130	1096	-1714	1012	-2.797747	2.528453	21.08922	0	12.02	4003	1193	1177	1429	1409	0.02	1.43715	3	10	0.08	2800	21.4364	40.92393	-91.39362
295234	1061	1201	1894	-1.932091	2.210548	18.53846	0	12.02	4002	1294	1268	1362	1346	0.02	1.406122	3	10	0.08	2800	15.10205	40.92393	-91.39362
295333	493	2038	1904	-1.904534	-0.879733	4.846672	0	12.19	4002	1308	1396	1472	1344	0.02	1.362234	3	10	0.08	2800	5.108124	40.92393	-91.39362
295532	151	-2101	994	-3.290614	-2.309715	358.0489	0	12.19	4003	1530	1360	1286	1464	0.02	1.26454	3	10	0.08	2800	359.4948	40.92393	-91.39362
295593	-1255	1293	1134	-4.924573	-1.483501	356.1641	0	12.19	4004	1704	1164	1166	1730	0.02	1.253453	3	10	0.08	2800	357.5352	40.92393	-91.39362
295676	-476	1702	-379	-1.782402	-7.048319	355.4442	0	12.19	4004	1503	1259	1407	1627	0.02	1.218027	3	10	0.08	2800	352.6582	40.92393	-91.39362
295757	-1720	-2350	-335	-2.284382	-6.598615	355.6786	0	12.19	4004	1499	1391	1409	1489	0.02	1.143876	3	10	0.08	2800	353.0274	40.92393	-91.39363
295824	906	-2318	380	-3.365291	-3.590166	355.8457	0	12.19	4003	1238	1472	1662	1400	0.02	1.130986	3	10	0.08	2800	351.3994	40.92393	-91.39363
295929	2987	-352	-845	-2.340383	-0.7231048	356.5778	0	12.19	4003	1422	1570	1434	1186	0.02	1.052262	3	10	0.08	2800	347.8485	40.92393	-91.39363
296093	2185	-140	-324	0.2049592	-0.6603712	345.6132	0	12.19	4002	1314	1226	1496	1416	0.02	0.9892069	3	10	0.08	2800	347.4774	40.92393	-91.39364
296161	1048	-421	1632	1.221325	-0.742195	343.8447	0	12.19	4003	1366	1044	1412	1618	0.02	0.9628313	3	10	0.08	2800	347.4774	40.92393	-91.39364
296240	59	-1899	3013	0.5340335	0.9029347	339.8791	0	12.02	4004	1146	1320	1604	1326	0.02	0.9402047	3	10	0.08	2800	336.6917	40.92393	-91.39364
296366	-177	-954	3161	1.712826	2.770092	335.3478	0	12.02	4004	1396	1186	1302	1524	0.02	0.9041221	3	10	0.08	2800	334.0377	40.92393	-91.39364
296468	895	764	2398	-0.4347654	2.67624	317.0085	0	12.02	4002	1481	1587	1187	1165	0.02	0.8846019	3	10	0.08	2800	318.9036	40.92394	-91.39364
296530	-121	-427	1773	-0.102751	1.664289	315.7364	0	12.02	4003	1235	1205	1445	1535	0.02	0.8797949	3	10	0.08	2800	319.3888	40.92394	-91.39364
296709	22	1448	203	-2.206398	0.5759827	312.9055	0	12.02	4002	1283	1555	1367	1219	0.02	0.8469813	3	10	0.08	2800	311.2138	40.92394	-91.39364
296806	-2960	1967	-86	-2.773789	-1.23738	313.2545	0	12.02	4003	1415	1021	1237	1751	0.02	0.8425052	3	10	0.08	2800	311.2138	40.92394	-91.39364
296854	-3283	856	-2075	-6.086521	-2.836263	313.9518	0	12.02	4004	1388	1374	1276	1382	0.02	0.8402882	3	10	0.08	2800	313.7688	40.92394	-91.39364
296945	3668	-2779	-2977	-4.83658	0.1199976	318.2743	0	12.02	4003	1206	1232	1512	1470	0.02	0.8330975	3	10	0.08	2800	315.5347	40.92394	-91.39364
297041	-1686	738	-2082	-0.9887316	1.645947	322.7794	0	12.02	4003	1268	1722	1440	986	0.02	0.837849	3	10	0.08	2800	318.7561	40.92394	-91.39364
297181	1167	-981	-2584	-0.521045	-0.3337044	329.5812	0	12.14	4004	1235	1321	1485	1303	0.02	0.840891	3	10	0.08	2800	324.5765	40.92394	-91.39364
297255	-1283	317	-1887	-0.9753897	-0.3621482	331.6207	0	12.14	4002	1242	1198	1488	1408	0.02	0.8436328	3	10	0.08	2800	330.8859	40.92394	-91.39364
297386	-3349	1221	-1073	-4.023656	-1.941106	334.2345	0	12.14	4003	1287	1221	1443	1397	0.02	0.8510762	3	10	0.08	2800	332.0284	40.92394	-91.39363
297485	-184	-1597	-45	-8.287162	-0.702886	335.3266	0	12.14	4002	1224	1156	1490	1486	0.02	0.8660238	3	10	0.08	2800	334.8136	40.92394	-91.39363
297579	177	4545	1061	-6.466506	-3.771993	334.6054	0	12.14	4004	1470	1398	1222	1266	0.02	0.8836292	3	10	0.08	2800	337.439	40.92394	-91.39363
297628	-195	3449	1406	-6.228454	-8.146148	333.2941	0	12.14	4004	1362	1440	1330	1220	0.02	0.9181722	3	10	0.08	2800	336.2755	40.92394	-91.39363
297724	-1530	-1579	1031	-7.360225	-8.763591	331.9564	0	12.14	4002	1236	1234	1442	1444	0.02	0.9401668	3	10	0.08	2800	340.9871	40.92394	-91.39362
297985	2400	2322	-202	-12.07616	0.5132238	339.068	0	12.14	4004	1352	1296	1340	1364	0.02	0.9987465	3	10	0.08	2800	333.2371	40.92394	-91.39362
298109	-1202	-1933	-80	-11.44581	-1.294751	339.0614	0	11.85	4002	1218	1198	1482	1454	0.02	1.008075	3	10	0.08	2800	337.6404	40.92394	-91.39362
298149	-1281	-917	559	-11.92699	-1.088457	339.0303	0	11.85	4003	1173	1261	1511	1411	0.02	1.015056	3	10	0.08	2800	337.6404	40.92394	-91.39362
298332	-1164	-138	446	-13.0623	-3.134533	338.3866	0	11.85	4004	1131	1323	1585	1393	0.02	1.014128	3	10	0.08	2800	339.423	40.92394	-91.39362
298365	-1680	-2577	490	-14.41668	-0.7221745	338.1659	0	11.85	4002	1424	1506	1300	1218	0.02	1.014533	3	10	0.08	2800	340.7536	40.92394	-91.39362
298441	-46	17	811	-14.94882	0.7106658	338.1771	0	11.85	4003	1375	1493	1349	1251	0.02	1.017666	3	10	0.08	2800	339.8602	40.92394	-91.39362
298616	1661	712	-602	-16.01982	-1.945306	336.7605	0	11.85	4002	1391	1733	1353	999	0.02	1.031519	3	10	0.08	2800	346.4337	40.92394	-91.39362
298690	2921	-2064	-1861	-11.47461	0.1705423	338.5969	0	11.85	4003	1422	1134	1328	1532	0.02	1.034334	3	10	0.08	2800	347.2874	40.92394	-91.39362
298850	1226	1869	-2103	-9.813288	-1.59264	353.2678	0	11.85	4003	1484	1168	1264	1444	0.02	1.031796	3	10	0.08	2800	351.0903	40.92394	-91.39361
298965	227	1075	-1896	-8.010798	-3.367603	356.2629	0	12.25	4002	1260	1712	1498	890	0.02	1.028705	3	10	0.08	2800	0.3117065	40.92394	-91.39361
299014	-499	1278	-699	-8.041933	-3.570582	356.9271	0	12.25	4002	1263	1361	1475	1261	0.02	1.028806	3	10	0.08	2800	1.96817	40.92394	-91.39361
299150	1917	-2069	-1310	-8.906458	0.8512598	358.8652	0	12.25	4005	1153	1575	1589	1051	0.02	1.033793	3	10	0.08	2800	2.32962	40.92394	-91.39361
299281	2749	876	508	-3.746497	2.054672	359.0898	0	12.25	4003	1312	1344	1406	1202	0.02	1.056182	3	10	0.08	2800	1.627991	40.92394	-91.39361
299407	-1103	-444	2168	-4.750573	1.643546	354.7417	0	12.25	4003	1345	1341	1315	1263	0.02	1.064079	3	10	0.08	2800	354.7728	40.92394	-91.39361
299452	-1300	426	1600	-5.619999	1.473439	353.7437	0	12.25	4003	1275	1249	1371	1369	0.02	1.073866	3	10	0.08	2800	354.7728	40.92394	-91.39361
299505	-1978	5	1651	-6.665674	1.308014	352.7417	0	12.25	4003	1191	1239	1447	1383	0.02	1.076913	3	10	0.08	2800	351.8156	40.92394	-91.39361
299612	-1171	1674	1849	-11.44449	0.1756111	348.8979	0	12.25	4003	1240	1226	1402	1424	0.02	1.077786	3	10	0.08	2800	346.7518	40.92394	-91.39361
299707	-147	2083	1366	-11.65084	-3.136442	347.1326	0	12.25	4003	1281	1255	1379	1441	0.02	1.073709	3	10	0.08	2800	348.4749	40.92394	-91.39361
299809	-2180	-3008	1509	-13.11731	-2.590101	344.9243	0	12.25	4002	1361	1247	1355	1509	0.02	1.068395	3	10	0.08	2800	349.382	40.92394	-91.39361
299921	1816	-152	18	-13.30124	0.5392147	343.0267	0	12.36	4004	1403	1271	1353	1485	0.02	1.066736	3	10	0.08	2800	345.0213	40.92394	-91.39361
300054	3845	1482	91	-8.065669	-1.690742	342.0745	0	12.36	4002	1262	1842	1476	916	0.02	1.064466	3	10	0.08	2800	343.9683	40.92394	-91.39361
300129	3435	569	-786	-5.162747	-1.138973	342.8828	0	12.36	4003	1344	1156	1368	1516	0.02	1.057473	3	10	0.08	2800	344.1495	40.92394	-91.39361
300331	-215	85	-1022	-1.153591	-4.575582	347.1172	0	12.36	4003	1369	1513	1349	1149	0.02	1.041093	3	10	0.08	2800	349.6956	40.92394	-91.39361
300443	-1885	-1178	207	-2.805693	-2.328155	348.5017	0	12.36	4003	1137	1331	1585	1331	0.02	1.029695	3	10	0.08	2800	347.888	40.92394	-91.39362
300566	-1378	-4377	104	-5.064928	2.380096	348.4628	0	12.36	4002	1101	1277	1625	1393	0.02	1.025824	3	10	0.08	2800	348.1768	40.92394	-91.39362
300646	-3452	-74	1084	-8.211511	3.960655	347.8923	0	12.36	4003	1446	1260	1258	1436	0.02	1.02474	3	10	0.08	2800	345.487	40.92394	-91.39362
300715	-1430	-125	768	-12.62346	1.697815	346.8514	0	12.36	4002	1464	1458	1238	1240	0.02	1.024935	3	10	0.08	2800	343.719	40.92394	-91.39362
300812	647	983	906	-12.93157	1.64081	346.1636	0	12.02	4003	1422	1638	1280	1064	0.02	1.029848	3	10	0.08	2800	343.5607	40.92394	-91.39362
300953	-1283	-619	713	-13.22178	-0.1571364	344.8868	0	12.02	4003	1564	1382	1128	1326	0.02	1.039686	3	10	0.08	2800	345.7564	40.92394	-91.39362
301010	-1493	-498	-169	-14.34238	0.7652346	344.2586	0	12.02	4004	1321	1307	1387	1385	0.02	1.055486	3	10	0.08	2800	343.5689	40.92394	-91.39362
301188	1216	507	-40	-12.88636	-1.63624	343.2542	0	12.02	4003	1183	1283	1515	1423	0.02	1.084005	3	10	0.08	2800	345.0346	40.92394	-91.39362
301281	154	542	-595	-11.84438	0.8387738	342.9195	0	12.02	4004	1472	1670	1228	1034	0.02	1.101159	3	10	0.08	2800	346.0931	40.92394	-91.39362
301345	2540	129	-493	-11.32313	-0.6965741	343.5412	0	12.02	4002	1541	1551	1157	1151	0.02	1.111703	3	10	0.08	2800	346.285	40.92394	-91.39362
301408	574	-728	-32	-10.3487	-0.6216129	343.6309	0	12.02	4003	1290	1086	1414	1610	0.02	1.130089	3	10	0.08	2800	346.285	40.92394	-91.39362
301597	2541	-310	-2080	-7.177459	-1.344505	344.3579	0	12.02	4004	1263	1573	1435	1133	0.02	1.168807	3	10	0.08	2800	347.4714	40.92394	-91.39362
301646	2242	-999	-1755	-5.676849	-1.115734	345.4204	0	12.02	4002	1314	936	1430	1720	0.02	1.184793	3	10	0.08	2800	348.9108	40.92394	-91.39362
301752	-3487	-1063	166	-5.884919	0.5440861	346.7564	0	12.02	4003	1421	1129	1295	1555	0.02	1.207584	3	10	0.08	2800	350.8759	40.92394	-91.39362
301889	1540	-667	194	-6.58285	-1.612011	347.2794	0	12.02	4003	1409	1333	1301	1357	0.02	1.224728	3	10	0.08	2800	352.4795	40.92394	-91.39362
301953	-49	-1554	917	-4.171808	0.1936031	346.8637	0	12.02	4004	1391	1349	1315	1345	0.02	1.229079	3	10	0.08	2800	352.7803	40.92394	-91.39362
302126	653	1927	-217	-4.282239	-2.129411	345.6016	0	12.02	4003	1103	1291	1599	1395	0.02	1.227608	3	10	0.08	2800	347.919	40.92394	-91.39362
302231	-2346	-3835	-190	-4.679167	-1.035073	345.3373	0	12.02	4002	1396	920	1306	1766	0.02	1.221748	3	10	0.08	2800	348.7635	40.92394	-91.39362
302384	2895	2529	-613	-4.254402	1.796449	346.9487	0	12.02	4003	1356	1488	1372	1168	0.02	1.227455	3	10	0.08	2800	344.8897	40.92394	-91.39362
302458	1386	1766	206	-2.237051	-0.09297361	346.9345	0	12.02	4002	1565	1591	1149	1079	0.02	1.23013	3	10	0.08	2800	345.2872	40.92394	-91.39362
302520	-360	571	-70	-1.863512	-1.485745	346.6233	0	12.02	4002	1205	1325	1513	1345	0.02	1.232203	3	10	0.08	2800	346.3933	40.92394	-91.39362
302667	537	-2880	457	-1.764804	0.7825629	346.1478	0	12.59	4004	1259	1147	1437	1557	0.02	1.238904	8	10	0.08	2800	346.8405	40.92394	-91.39363
302735	1461	2020	529	-1.852071	2.288422	345.5136	0	12.59	4004	1554	1582	1160	1144	0.02	1.241431	8	10	0.08	2800	342.4258	40.92394	-91.39363
302872	1504	2156	-704	0.8466476	-1.839926	345.0056	0	12.59	4003	1209	1385	1509	1305	0.02	1.245063	8	10	0.08	2800	340.5644	40.92394	-91.39363
302900	174	574	1151	0.8870214	-3.396345	344.4598	0	12.59	4003	1375	1569	1325	1151	0.02	1.245406	8	10	0.08	2800	342.5303	40.92394	-91.39363
302949	2026	-2496	-112	1.347483	-2.562247	344.138	0	12.59	4003	1063	1583	1647	1127	0.02	1.243864	8	10	0.08	2800	342.5303	40.92394	-91.39363
303079	26	-919	-1224	1.725614	2.811914	344.5547	0	12.59	4004	1378	1264	1350	1408	0.02	1.246717	8	10	0.08	2800	338.094	40.92394	-91.39363
303191	-520	975	-459	1.637999	1.860623	335.6374	0	12.59	4004	1520	1598	1226	1092	0.02	1.251007	8	10	0.08	2800	334.1017	40.92394	-91.39363
303282	308	185	-1633	2.358977	0.2226644	338.0532	0	12.59	4003	1466	800	1280	1882	0.02	1.246101	8	10	0.08	2800	335.9471	40.92394	-91.39363
303355	-1084	-240	-1069	0.3506678	0.3350435	338.971	0	12.59	4004	1546	1032	1192	1638	0.02	1.247935	8	10	0.08	2800	336.9455	40.92394	-91.39363
303492	1172	-999	-371	-0.7126195	0.6114479	339.2134	0	11.8	4002	1260	1122	1472	1554	0.02	1.25916	8	10	0.08	2800	336.676	40.92395	-91.39363
303628	-928	-1137	-413	-1.338485	0.1895815	339.256	0	11.8	4003	1439	1473	1299	1197	0.02	1.266693	8	10	0.08	2800	336.4044	40.92395	-91.39363
303676	-975	-1894	556	-1.864249	2.238513	339.0286	0	11.8	4004	1336	1308	1374	1378	0.02	1.268632	8	10	0.08	2800	336.7195	40.92395	-91.39363
303745	-597	1992	1068	-3.18225	2.183621	338.4302	0	11.8	4002	1475	1561	1225	1127	0.02	1.282914	8	10	0.08	2800	335.7117	40.92395	-91.39363
303823	-731	2748	227	-4.22248	-0.2596563	337.6495	0	11.8	4004	1571	1589	1129	1099	0.02	1.293233	8	10	0.08	2800	333.6791	40.92395	-91.39362
303943	211	-1861	-349	-4.680017	-0.9888777	336.5135	0	11.8	4003	1063	1201	1635	1477	0.02	1.315217	8	10	0.08	2800	336.049	40.92395	-91.39362
304044	-899	-12	-414	-5.848799	0.9365331	335.5443	0	11.8	4004	1427	1249	1277	1423	0.02	1.34618	8	10	0.08	2800	331.1434	40.92395	-91.39362
304176	3	592	526	-6.311951	-2.093351	334.6229	0	11.8	4003	1166	1218	1544	1480	0.02	1.360796	8	10	0.08	2800	331.9525	40.92395	-91.39362
304219	-474	156	-164	-6.252985	-2.340091	334.4812	0	11.8	4002	1233	1327	1467	1385	0.02	1.362255	8	10	0.08	2800	332.6788	40.92395	-91.39362
304339	-519	-103	75	-6.68892	-3.205328	334.4131	0	11.8	4003	1261	1089	1447	1615	0.02	1.369864	8	10	0.08	2800	331.9362	40.92395	-91.39362
304423	716	-400	-797	-6.247139	-3.706379	335.1006	0	11.97	4003	1180	1314	1544	1374	0.02	1.376611	8	10	0.08	2800	335.475	40.92395	-91.39362
304553	-1986	-1024	136	-7.539403	-2.198805	336.0814	0	11.97	4003	1439	1449	1283	1229	0.02	1.391306	8	10	0.08	2800	335.8904	40.92395	-91.39362
304661	-1045	1060	897	-10.06078	-0.447504	336.0148	0	11.97	4004	1386	1330	1320	1388	0.02	1.400765	8	10	0.08	2800	336.0618	40.92395	-91.39362
304705	-1236	2200	297	-10.47794	-2.133377	335.7836	0	11.97	4002	1258	1156	1456	1542	0.02	1.405343	8	10	0.08	2800	336.0618	40.92395	-91.39361
304809	-247	430	675	-9.781072	-6.316658	335.449	0	11.97	4004	1486	1400	1222	1304	0.02	1.415272	8	10	0.08	2800	339.5907	40.92395	-91.39361
304912	11	-2194	932	-10.55363	-1.00344	334.9347	0	11.97	4002	1243	1428	1494	1272	0.02	1.429924	8	10	0.08	2800	340.5762	40.92395	-91.39361
305110	-1330	-2756	-99	-9.586995	-5.117713	335.0764	0	11.97	4004	1211	1045	1523	1657	0.02	1.446553	8	10	0.08	2800	342.3027	40.92395	-91.3936
305247	-292	1830	-252	-11.04728	-2.671007	335.7535	0	11.97	4003	1375	1539	1353	1173	0.02	1.445563	8	10	0.08	2800	341.1288	40.92395	-91.3936
305367	687	-173	-1210	-9.278538	-6.069085	349.242	0	11.97	4003	1245	1251	1519	1425	0.02	1.445126	8	10	0.08	2800	349.242	40.92395	-91.3936
305428	-687	-3460	109	-7.308342	-2.490451	350.5536	0	11.97	4003	1296	1328	1450	1378	0.02	1.444967	8	10	0.08	2800	351.3907	40.92395	-91.39359
305550	-1711	-599	409	-10.39151	-0.3696546	350.8209	0	11.97	4003	1206	1376	1546	1340	0.02	1.434911	8	10	0.08	2800	347.7869	40.92395	-91.39359
305587	-1279	257	-212	-11.12891	-0.8792428	350.7448	0	11.97	4004	1330	1188	1430	1516	0.02	1.428273	8	10	0.08	2800	349.0695	40.92395	-91.39359
305735	-221	-873	-376	-12.09184	-1.421156	349.5606	0	11.97	4004	1240	1124	1518	1590	0.02	1.413848	8	10	0.08	2800	350.3353	40.92395	-91.39359
305819	385	-1917	-583	-11.26712	0.3105732	349.1125	0	11.97	4004	1241	1177	1569	1573	0.02	1.396544	8	10	0.08	2800	351.3471	40.92395	-91.39359
305854	1056	-97	-470	-10.84975	0.8943402	348.9819	0	11.97	4002	1518	1574	1252	1156	0.02	1.387313	8	10	0.08	2800	351.3471	40.92395	-91.39359
306046	352	-2104	375	-10.43638	1.062502	350.1239	0	11.97	4003	1129	1087	1641	1635	0.02	1.355382	8	10	0.08	2800	352.1299	40.92395	-91.39359
306127	879	204	642	-9.111014	1.061391	350.0152	0	11.97	4003	1427	1533	1321	1211	0.02	1.344635	8	10	0.08	2800	353.9235	40.92395	-91.39359
306207	1328	-1276	-345	-7.675786	1.314052	350.1463	0	11.97	4003	1223	1161	1579	1581	0.02	1.33123	8	10	0.08	2800	353.0513	40.92395	-91.39359
306291	-262	-1003	-154	-7.031152	1.588057	350.0795	0	11.97	4004	1275	1213	1499	1521	0.02	1.320466	8	10	0.08	2800	351.3081	40.92395	-91.39359
306352	411	1671	1093	-7.634592	0.5378882	349.5841	0	11.97	4003	1249	1131	1505	1583	0.02	1.318248	8	10	0.08	2800	352.6441	40.92395	-91.39359
306431	494	-315	1098	-7.037853	-0.7537364	348.9561	0	11.97	4004	1261	1363	1477	1375	0.02	1.317701	8	10	0.08	2800	352.8034	40.92395	-91.39359
306575	639	-1629	619	-5.75288	0.6791149	348.2653	0	11.97	4002	1297	1463	1433	1259	0.02	1.321594	8	10	0.08	2800	354.8922	40.92395	-91.39359
306650	104	-441	624	-5.836639	1.95384	348.0988	0	11.97	4004	1425	1531	1305	1199	0.02	1.32121	8	10	0.08	2800	348.708	40.92395	-91.39359
306735	696	908	-451	-5.692199	0.06601296	347.7351	0	11.97	4003	1232	1190	1516	1514	0.02	1.3218	8	10	0.08	2800	349.6998	40.92395	-91.39359
306904	-789	345	-1985	-1.708414	-1.203593	349.1803	0	11.97	4003	1226	1384	1532	1278	0.02	1.333099	8	10	0.08	2800	349.2627	40.92395	-91.3936
306963	-1942	-1778	-1017	-2.765941	-0.9044603	350.5009	0	11.97	4002	1346	1080	1424	1586	0.02	1.345346	8	10	0.08	2800	351.7107	40.92395	-91.3936
307059	76	-31	-146	-3.076416	0.727934	352.3441	0	11.8	4004	1480	1564	1262	1122	0.02	1.352863	8	10	0.08	2800	349.928	40.92395	-91.3936
307155	2303	-679	-518	-1.925173	-0.7774514	353.1638	0	11.8	4004	1272	1374	1474	1292	0.02	1.377387	8	10	0.08	2800	350.5781	40.92395	-91.3936
307237	18	-938	-566	-0.1747217	-0.100295	353.7084	0	11.8	4003	1281	1029	1479	1635	0.02	1.388493	8	10	0.08	2800	350.5781	40.92395	-91.3936
307332	-22	-297	-264	-1.449684	1.850523	354.334	0	11.8	4004	1425	1425	1329	1237	0.02	1.396341	8	10	0.08	2800	348.1963	40.92395	-91.3936
307489	600	1882	351	-0.321747	-3.434244	354.0107	0	11.8	4003	1214	1474	1514	1182	0.02	1.44112	8	10	0.08	2800	350.2433	40.92395	-91.39361
307558	-65	-267	546	-0.379326	-3.674639	353.8202	0	11.8	4002	1409	1297	1325	1361	0.02	1.454394	8	10	0.08	2800	350.9547	40.92395	-91.39361
307721	135	3519	1657	-0.4809232	0.1233603	351.8058	0	11.8	4002	1377	1417	1343	1287	0.02	1.480533	8	10	0.08	2800	343.3585	40.92395	-91.39361
307780	875	1229	1040	-0.1885148	-2.932249	350.6047	0	11.8	4003	1187	1359	1521	1345	0.02	1.494372	8	10	0.08	2800	342.806	40.92394	-91.39362
307833	993	632	1203	0.212515	-3.344487	350.0607	0	11.8	4004	1254	1328	1450	1368	0.02	1.51063	8	10	0.08	2800	342.806	40.92394	-91.39362
307933	-642	580	1076	0.8981491	-1.064301	336.9385	0	11.85	4003	1295	1217	1397	1495	0.02	1.521327	8	10	0.08	2800	337.5158	40.92394	-91.39362
308036	305	1694	1073	0.7071561	-2.514772	335.8598	0	11.85	4002	1540	1522	1120	1162	0.02	1.55823	8	10	0.08	2800	334.775	40.92394	-91.39362
308141	978	1194	359	1.891368	-5.401729	334.8369	0	11.85	4004	1288	1306	1390	1396	0.02	1.586589	8	10	0.08	2800	335.2654	40.92394	-91.39362
308293	-123	403	159	2.114887	-5.010213	333.9113	0	11.85	4003	1262	1190	1390	1474	0.02	1.634966	8	10	0.08	2800	332.1657	40.92394	-91.39362
308348	-47	-1143	-145	2.230163	-4.093561	333.5782	0	11.85	4002	1451	1319	1229	1381	0.02	1.656922	8	10	0.08	2800	332.1657	40.92393	-91.39362
308441	-722	1488	186	1.763049	-2.721051	333.2048	0	11.85	4003	1438	1340	1262	1368	0.02	1.672637	8	10	0.08	2800	332.705	40.92393	-91.39362
308539	118	722	-562	1.178015	-4.082358	333.063	0	11.85	4003	1238	1216	1468	1486	0.02	1.695821	8	10	0.08	2800	331.0978	40.92393	-91.39362
308684	-440	-778	-295	1.434219	-6.854024	333.5951	0	11.85	4002	1504	1500	1212	1216	0.02	1.721419	8	10	0.08	2800	333.1977	40.92393	-91.39362
308821	515	152	-1482	1.56644	-5.158847	334.8512	0	11.85	4008	1226	1332	1470	1388	0.02	1.736217	8	10	0.08	2800	334.2164	40.92393	-91.39362
308868	-1268	593	-719	0.5471098	-5.776923	336.5407	0	11.91	4004	1226	1256	1444	1474	0.02	1.739667	8	10	0.08	2800	333.6639	40.92393	-91.39362
308947	-393	-1446	-2099	-0.2131859	-5.29523	338.097	0	11.91	4004	1161	1101	1539	1599	0.02	1.767245	8	10	0.08	2800	336.5348	40.92393	-91.39362
309046	-214	10	-2410	-0.3210669	-4.721151	339.9885	0	11.91	4002	1242	1106	1492	1564	0.02	1.782662	8	10	0.08	2800	337.8973	40.92393	-91.39362
309230	-1839	-1339	-1762	-2.225743	-7.091904	345.082	0	11.91	4004	1200	1166	1576	1510	0.02	1.805854	8	10	0.08	2800	347.2278	40.92393	-91.39362
309307	29	2651	-1302	-2.981379	-8.267707	346.7452	0	11.91	4002	1584	1644	1176	1048	0.02	1.809122	8	10	0.08	2800	347.4985	40.92393	-91.39362
309370	-1092	1429	-76	-3.225053	-9.402013	346.9372	0	11.91	4003	1220	1202	1532	1510	0.02	1.810764	8	10	0.08	2800	351.382	40.92393	-91.39362
309484	-806	-1360	-220	-4.47765	-10.09096	347.8528	0	11.91	4002	1402	1310	1342	1366	0.02	1.82166	8	10	0.08	2800	353.1922	40.92392	-91.39362
309680	-688	-641	-198	-5.942778	-3.515639	348.506	0	11.91	4003	1584	1374	1170	1320	0.02	1.840371	8	10	0.08	2800	356.1021	40.92392	-91.39361
309798	-179	2653	-387	-6.423366	-9.326534	347.7692	0	12.08	4004	1188	1344	1580	1352	0.02	1.841604	8	10	0.08	2800	356.0947	40.92392	-91.39361
309891	-1303	-4071	-303	-7.790667	-7.10515	359.0539	0	12.08	4002	1607	1403	1143	1311	0.02	1.840442	8	10	0.08	2800	356.9309	40.92392	-91.39361
309967	-1101	-804	870	-9.317418	-3.439917	358.4627	0	12.08	4004	1326	1334	1434	1382	0.02	1.836953	8	10	0.08	2800	354.8943	40.92392	-91.3936
310077	-14	1644	-187	-9.854324	-3.823903	357.8191	0	12.08	4004	1579	1423	1199	1315	0.02	1.823594	8	10	0.08	2800	353.305	40.92392	-91.3936
310280	-1980	-275	-866	-11.21411	-5.791589	357.6359	0	12.08	4003	1550	1264	1222	1456	0.02	1.800911	8	10	0.08	2800	358.0625	40.92392	-91.3936
310384	3	914	10	-8.605792	-5.359917	357.5038	0	12.08	4004	1486	1524	1252	1222	0.02	1.790021	8	10	0.08	2800	356.8456	40.92392	-91.3936
310486	-1407	-1119	-195	-10.30353	-5.603869	357.1556	0	12.08	4002	1252	1422	1494	1324	0.02	1.784301	8	10	0.08	2800	357.8827	40.92392	-91.3936
310600	556	-652	1121	-10.5123	-4.719676	356.9083	0	12.08	4003	1287	1331	1485	1445	0.02	1.764155	8	10	0.08	2800	356.6716	40.92392	-91.39359
310680	-548	-618	1165	-10.41257	-4.019029	356.4588	0	12.08	4003	1403	1431	1343	1343	0.02	1.750528	8	10	0.08	2800	358.6194	40.92392	-91.39359
