time(ms)	gyro_x(deg/s)	gyro_y(deg/s)	gyro_z(deg/s)	orientation_roll(deg)	orientation_pitch(deg)	orientation_yaw(deg)	throttle	battery(V)	loop_time(uS)	pid_output_roll	pid_output_pitch	pid_output_yaw	pid_output_throttle	ultrasonic_alt	baro_alt	flight_mode	p_gain_altitude	i_gain_altitude	d_gain_altitude	compass_heading	latitude	longitude
127435	-3459	-141	-1312	-3.442342	0.9520928	327.2839	0	11.51	4002	1607	1419	1361	1453	0.02	3.380648	8	10	0.08	2800	330.1196	40.92393	-91.39364
127548	862	859	-1671	-4.84178	2.366024	329.5317	0	11.51	4004	1548	1740	1480	1216	0.02	3.391566	8	10	0.08	2800	332.0824	40.92393	-91.39364
127603	-614	417	-1171	-4.672853	1.944872	330.276	0	11.51	4003	1498	1446	1582	1458	0.02	3.394136	8	10	0.08	2800	333.6519	40.92393	-91.39364
127665	-1455	-1395	-1055	-4.273846	2.227404	332.9723	0	11.51	4004	1498	1446	1582	1458	0.02	3.400267	8	10	0.08	2800	336.8868	40.92393	-91.39364
127876	3476	2089	490	-6.198328	1.553868	335.1388	0	11.51	4002	1607	1037	1369	1787	0.02	3.438366	8	10	0.08	2800	338.0837	40.92393	-91.39364
128043	1580	297	-522	-2.437029	0.151744	336.207	0	11.91	4003	1258	1690	1714	1106	0.02	3.483899	8	10	0.08	2800	340.6337	40.92393	-91.39364
128110	-603	-459	-606	-1.279936	1.106376	337.4424	0	11.91	4003	1647	1101	1315	1665	0.02	3.524186	8	10	0.08	2800	341.3361	40.92393	-91.39364
128236	-3745	-2851	-128	-1.138166	1.000928	340.2824	0	11.91	4004	1295	1517	1689	1235	0.02	3.597617	8	10	0.08	2800	343.7209	40.92393	-91.39364
128357	-3251	-966	137	-7.02843	4.672424	340.8014	0	11.91	4003	1506	1334	1412	1412	0.02	3.65788	8	10	0.08	2800	342.5426	40.92393	-91.39364
128431	1644	210	680	-8.070257	5.162578	340.1819	0	11.91	4002	1331	1561	1549	1191	0.02	3.712785	8	10	0.08	2800	340.8966	40.92393	-91.39364
128535	387	1063	43	-3.322234	3.257279	338.886	0	11.91	4003	1513	1147	1379	1581	0.02	3.828373	8	10	0.08	2800	341.4526	40.92393	-91.39364
128630	-284	72	1249	-4.428126	2.802441	337.0815	0	11.91	4003	1205	1475	1661	1279	0.02	3.882447	8	10	0.08	2800	339.9817	40.92393	-91.39364
128705	2404	811	2098	-3.502402	1.54157	335.9023	0	11.91	4003	1219	1533	1605	1255	0.02	3.917514	8	10	0.08	2800	337.2856	40.92393	-91.39364
128778	-1892	-31	1013	-3.54592	0.006250477	334.2559	0	11.91	4003	1442	1194	1404	1588	0.02	3.987873	8	10	0.08	2800	337.435	40.92393	-91.39364
128918	572	-351	491	-5.18338	0.6318809	331.1742	0	11.11	4004	1555	1233	1191	1453	0.02	4.072597	8	10	0.08	2800	333.7477	40.92393	-91.39364
129015	-1468	801	654	-5.741669	0.1498519	329.9406	0	11.11	4002	1353	1125	1355	1547	0.02	4.167847	8	10	0.08	2800	332.3351	40.92393	-91.39364
129158	1061	838	2027	-6.084295	-1.408732	326.6699	0	11.11	4004	1530	1560	1224	1198	0.02	4.259084	8	10	0.08	2800	330.5484	40.92393	-91.39364
129306	1547	-2275	1315	-4.149366	-0.5189284	325.5532	0	11.11	4003	1224	1722	1558	1080	0.02	4.369038	8	10	0.08	2800	329.4475	40.92393	-91.39364
129404	856	824	-294	-3.308035	2.355529	325.0874	0	11.11	4004	1312	1348	1478	1406	0.02	4.444572	8	10	0.08	2800	327.2712	40.92393	-91.39364
129530	-1119	356	669	-3.246541	0.1692167	324.44	0	11.11	4003	1333	1283	1367	1413	0.02	4.528819	8	10	0.08	2800	328.4513	40.92393	-91.39364
129597	-557	-1060	225	-4.273304	0.5721103	323.7636	0	11.11	4004	1443	1205	1331	1553	0.02	4.597338	8	10	0.08	2800	328.1542	40.92393	-91.39364
129743	1032	686	-836	-4.956051	0.05964623	322.7761	0	11.11	4003	1135	1241	1579	1449	0.02	4.666987	8	10	0.08	2800	326.9705	40.92393	-91.39363
129833	426	316	269	-3.640323	-1.035826	322.6646	0	11.34	4002	1432	1488	1336	1292	0.02	4.758493	8	10	0.08	2800	327.9036	40.92393	-91.39363
129966	-1052	-687	613	-5.123344	-0.4943451	322.6669	0	11.34	4003	1398	1392	1390	1412	0.02	4.808687	8	10	0.08	2800	326.5643	40.92393	-91.39363
130036	348	-52	-661	-5.696705	0.484345	322.9641	0	11.34	4004	1380	1338	1426	1460	0.02	4.839079	8	10	0.08	2800	327.0677	40.92393	-91.39363
130096	312	-129	-609	-4.781443	0.3772031	323.3228	0	11.34	4002	1259	1383	1559	1419	0.02	4.868471	8	10	0.08	2800	327.8602	40.92393	-91.39363
130209	1173	1225	-2109	-4.742361	-1.177033	324.6063	0	11.34	4003	1563	1201	1289	1563	0.02	4.896238	8	10	0.08	2800	329.304	40.92393	-91.39363
130337	134	1084	-3032	-3.642086	-1.838424	328.0425	0	11.34	4004	1469	1437	1435	1307	0.02	4.919238	8	10	0.08	2800	334.526	40.92393	-91.39363
130453	-1565	-1093	-309	-5.435829	-1.090492	330.8553	0	11.34	4003	1235	1635	1659	1159	0.02	4.935301	8	10	0.08	2800	337.3558	40.92393	-91.39363
130547	-1426	-141	-1020	-9.614109	1.738656	333.8313	0	11.34	4004	1328	1230	1604	1518	0.02	4.945616	8	10	0.08	2800	336.8323	40.92393	-91.39363
130592	754	103	-2003	-10.4942	2.332952	335.4189	0	11.34	4003	1470	1338	1438	1430	0.02	4.948539	8	10	0.08	2800	339.2214	40.92393	-91.39363
130711	855	1773	64	-6.235525	0.7912761	336.3988	0	11.34	4002	1623	1193	1267	1561	0.02	4.968614	8	10	0.08	2800	343.4559	40.92393	-91.39363
130799	1529	561	-1344	-5.382251	-1.557377	336.435	0	11.34	4003	1348	1402	1578	1621	0.02	4.979813	8	10	0.08	2800	343.2678	40.92393	-91.39363
131032	1371	1277	-380	-6.394418	1.391304	335.2638	0	11.34	4003	1554	1644	1346	1160	0.02	4.988539	8	10	0.08	2800	342.4935	40.92393	-91.39363
131166	-2411	-2672	316	-6.684067	-0.4605936	333.925	0	11.34	4004	1347	965	1559	1837	0.02	4.989578	8	10	0.08	2800	341.7017	40.92393	-91.39363
131289	538	471	1132	-6.267644	1.887671	332.3873	0	11.34	4004	1546	1444	1322	1388	0.02	4.993011	8	10	0.08	2800	339.372	40.92393	-91.39363
131366	1921	-275	1742	-5.939416	1.619778	331.0952	0	11.34	4003	1186	1464	1672	1358	0.02	4.999575	8	10	0.08	2800	339.1951	40.92393	-91.39363
131472	803	852	-250	-4.445106	1.602001	329.2407	0	11.34	4004	1332	1046	1558	1784	0.02	4.997347	8	10	0.08	2800	334.9789	40.92393	-91.39363
131552	519	558	148	-4.709782	1.637177	328.7816	0	11.34	4003	1246	1606	1646	1226	0.02	4.993444	8	10	0.08	2800	333.7417	40.92393	-91.39363
131618	1585	2679	117	-4.874252	0.1718369	328.2994	0	11.4	4003	1407	1863	1467	987	0.02	4.989692	8	10	0.08	2800	334.0607	40.92393	-91.39363
131719	-593	113	-804	-4.682088	-0.06822243	328.0743	0	11.4	4003	1545	1265	1337	1565	0.02	4.988757	8	10	0.08	2800	336.7798	40.92393	-91.39363
131778	-2329	-1109	783	-5.563983	0.4030362	327.8647	0	11.4	4003	1237	1573	1623	1279	0.02	4.988283	8	10	0.08	2800	336.7798	40.92393	-91.39363
131879	582	422	115	-8.034893	0.08999643	327.212	0	11.4	4003	1347	1299	1563	1527	0.02	4.979578	8	10	0.08	2800	333.3552	40.92393	-91.39363
132041	-2276	-315	703	-3.86334	1.903197	326.9823	0	11.4	4002	1573	1005	1305	1829	0.02	4.973498	8	10	0.08	2800	333.5193	40.92393	-91.39363
132093	-3439	-426	1097	-4.81222	1.428106	326.6244	0	11.4	4004	1318	1322	1554	1502	0.02	4.975367	8	10	0.08	2800	333.5193	40.92393	-91.39363
132154	-843	-720	-363	-7.364074	1.696322	326.2903	0	11.4	4003	1511	1257	1337	1555	0.02	4.98609	8	10	0.08	2800	332.1702	40.92393	-91.39363
132258	4392	2754	-2786	-3.207273	1.080139	327.9838	0	11.4	4003	1391	1489	1447	1329	0.02	5.00518	8	10	0.08	2800	331.5521	40.92393	-91.39363
132379	-2568	-777	-1203	0.1453853	-1.7067	331.303	0	11.4	4003	1488	1312	1392	1460	0.02	5.029738	8	10	0.08	2800	336.2958	40.92393	-91.39363
132462	-6884	-4582	-1765	-5.601535	2.186248	332.8949	0	11.4	4004	1612	908	1280	1832	0.02	5.04844	8	10	0.08	2800	337.6584	40.92393	-91.39363
132605	1346	1500	-1766	-6.607465	4.011129	335.9399	0	11.51	4002	1442	1268	1462	1452	0.02	5.090027	8	10	0.08	2800	338.8561	40.92393	-91.39363
132670	3286	743	-285	-3.59012	2.086559	337.4043	0	11.51	4003	1189	1345	1701	1369	0.02	5.114687	8	10	0.08	2800	340.5097	40.92393	-91.39363
132817	-479	-1621	-578	-5.967298	3.348369	338.1476	0	11.51	4002	1379	1481	1485	1271	0.02	5.169972	8	10	0.08	2800	342.257	40.92393	-91.39363
132988	166	83	1471	-3.745006	4.933704	336.3903	0	11.51	4002	1344	1308	1486	1434	0.02	5.239368	8	10	0.08	2800	339.4772	40.92393	-91.39363
133171	436	-79	1322	-5.09901	1.829536	332.8181	0	11.51	4004	1423	1509	1393	1255	0.02	5.323118	8	10	0.08	2800	334.4691	40.92393	-91.39363
133311	-372	1266	929	-4.285105	2.628114	330.5607	0	11.51	4004	1566	1600	1246	1192	0.02	5.391909	8	10	0.08	2800	333.5013	40.92393	-91.39363
133485	984	-84	1372	-5.486233	0.4668222	326.3019	0	11.4	4004	1189	1383	1599	1421	0.02	5.434806	8	10	0.08	2800	329.7942	40.92393	-91.39363
133661	914	-1862	22	-2.264286	0.3099428	324.4245	0	11.4	4002	1300	1278	1522	1520	0.02	5.506752	8	10	0.08	2800	328.2917	40.92393	-91.39364
133756	-24	-82	-153	-4.715336	0.8797389	324.3536	0	11.4	4002	1337	1617	1469	1369	0.02	5.520603	8	10	0.08	2800	326.3723	40.92393	-91.39364
133824	-392	-830	-1311	-5.227933	1.241854	324.4318	0	11.4	4003	1330	1102	1438	1662	0.02	5.555913	8	10	0.08	2800	325.8722	40.92393	-91.39364
133978	-1766	592	-13	-4.23788	-0.7780951	325.3543	0	11.4	4004	1454	1530	1326	1222	0.02	5.588327	8	10	0.08	2800	326.4803	40.92393	-91.39364
134099	3003	-1622	-1553	-3.905711	1.025643	326.6376	0	11.4	4002	1245	1381	1603	1387	0.02	5.617377	8	10	0.08	2800	327.2093	40.92393	-91.39364
134222	-1353	2010	414	-2.222135	0.8358489	326.9337	0	11.4	4003	1713	1533	1123	1275	0.02	5.642648	8	10	0.08	2800	327.5273	40.92393	-91.39364
134314	-497	-1542	436	-4.706606	1.125438	326.7801	0	11.4	4002	1292	1438	1552	1350	0.02	5.655238	8	10	0.08	2800	328.3356	40.92393	-91.39364
134432	581	703	869	-3.379034	1.687932	326.6636	0	11.17	4003	1328	1470	1498	1316	0.02	5.667192	8	10	0.08	2800	327.9544	40.92393	-91.39364
134508	-650	1518	353	-3.898326	-0.3252181	325.9062	0	11.17	4003	1537	1263	1273	1527	0.02	5.674104	8	10	0.08	2800	327.6793	40.92393	-91.39364
134747	-822	2029	-743	0.06631307	-1.886842	325.881	0	11.17	4002	1426	1554	1408	1240	0.02	5.698023	8	10	0.08	2800	327.9188	40.92393	-91.39364
134831	705	-884	-1588	-4.645672	-0.01833525	327.3308	0	11.17	4004	1485	1471	1367	1128	0.02	5.715272	8	10	0.08	2800	330.3007	40.92393	-91.39364
134892	746	37	286	-3.827199	0.3002778	327.7072	0	11.17	4002	1488	1360	1358	1438	0.02	5.72181	8	10	0.08	2800	330.3007	40.92393	-91.39364
135016	560	116	-2067	-2.830128	2.042661	329.9218	0	11.17	4003	1430	1372	1464	1374	0.02	5.726779	8	10	0.08	2800	330.4631	40.92393	-91.39364
135039	269	1277	70	-2.421532	1.492357	330.3701	0	11.17	4010	1430	1372	1464	1374	0.02	5.725865	8	10	0.08	2800	330.4631	40.92393	-91.39364
135127	2121	4014	-2708	-1.984967	-1.526406	332.7705	0	11.17	4002	1624	1450	1282	1268	0.02	5.723372	8	10	0.08	2800	334.3567	40.92393	-91.39364
135328	-3241	-4534	-768	-6.180598	0.8892695	337.0103	0	11.46	4004	1481	1295	1429	1435	0.02	5.734149	8	10	0.08	2800	340.1944	40.92393	-91.39363
135384	-1100	-2549	127	-7.182715	3.040437	337.5396	0	11.46	4003	1347	1445	1547	1301	0.02	5.742815	8	10	0.08	2800	340.6189	40.92393	-91.39363
135568	263	3	1395	-5.188713	0.2743607	336.2266	0	11.46	4003	1368	1486	1494	1288	0.02	5.75354	8	10	0.08	2800	340.562	40.92393	-91.39363
135659	-247	-1829	1201	-5.759178	1.632447	334.2643	0	11.46	4003	1298	1454	1528	1312	0.02	5.762966	8	10	0.08	2800	340.6291	40.92393	-91.39363
135816	-349	271	551	-7.497649	-1.428894	331.6257	0	11.46	4003	1221	1465	1605	1321	0.02	5.771017	8	10	0.08	2800	337.0014	40.92393	-91.39363
135844	-349	271	551	-7.497649	-1.428894	329.7991	0	11.46	4003	1361	1263	1485	1511	0.02	5.771521	8	10	0.08	2800	334.645	40.92393	-91.39363
135929	-9	1204	654	-5.95699	-2.556594	327.9541	0	11.46	4003	1258	1862	1546	938	0.02	5.773257	8	10	0.08	2800	334.6248	40.92393	-91.39363
136113	-2902	-2603	-113	-1.706604	-2.149905	328.0405	0	11.46	4003	1407	1367	1439	1435	0.02	5.775631	8	10	0.08	2800	336.34	40.92393	-91.39363
136193	-2367	-2625	38	-5.307366	1.014512	328.1776	0	11.34	4004	1307	1297	1549	1507	0.02	5.773171	8	10	0.08	2800	333.8394	40.92393	-91.39363
136278	1097	535	924	-6.443539	1.475457	327.101	0	11.34	4003	1302	1178	1550	1646	0.02	5.762472	8	10	0.08	2800	331.7386	40.92393	-91.39363
136397	804	-29	-786	-4.631162	-1.605127	326.9624	0	11.34	4004	1185	1417	1679	1355	0.02	5.753566	8	10	0.08	2800	333.0609	40.92393	-91.39363
136510	566	-586	-1316	-4.139522	-0.1356505	328.8482	0	11.34	4004	1269	1721	1605	1057	0.02	5.749682	8	10	0.08	2800	334.0592	40.92393	-91.39363
136544	1435	437	-439	-3.833405	0.04791126	329.2336	0	11.34	4003	1211	1965	1655	809	0.02	5.747593	8	10	0.08	2800	334.0592	40.92393	-91.39363
136690	5275	2575	-2395	-1.702478	-2.122105	332.4139	0	11.34	4003	1348	1520	1570	1202	0.02	5.748078	8	10	0.08	2800	339.5042	40.92393	-91.39363
136728	-4541	-3149	-712	-0.08358736	-3.105139	335.0784	0	11.34	4004	1562	1338	1346	1386	0.02	5.749569	8	10	0.08	2800	339.5042	40.92393	-91.39363
136884	-2460	-1034	-394	-7.903441	3.716988	337.8467	0	11.34	4002	1362	1380	1504	1354	0.02	5.762869	8	10	0.08	2800	344.0441	40.92393	-91.39363
136926	1416	824	-809	-8.047499	3.633434	338.1269	0	11.34	4002	1273	1093	1583	1591	0.02	5.770507	8	10	0.08	2800	342.665	40.92393	-91.39363
137016	2899	1929	1325	-5.296344	2.502891	338.1715	0	11.34	4004	1580	1658	1256	1058	0.02	5.786067	8	10	0.08	2800	343.6154	40.92393	-91.39363
137167	-421	147	1727	-5.294271	1.744033	336.2399	0	11.29	4004	1486	1450	1342	1302	0.02	5.796895	8	10	0.08	2800	343.078	40.92393	-91.39363
137288	185	873	661	-6.290565	0.9992605	334.4299	0	11.29	4002	1358	1112	1492	1626	0.02	5.820867	8	10	0.08	2800	340.693	40.92393	-91.39363
137327	1097	2403	2160	-5.762103	0.4116069	334.057	0	11.29	4002	1627	1637	1187	1109	0.02	5.835224	8	10	0.08	2800	340.693	40.92393	-91.39363
137528	3190	-2752	1341	-2.310018	0.9128147	340.4363	0	11.29	4004	1188	1218	1410	1332	0.02	5.86057	8	10	0.08	2800	340.5727	40.92393	-91.39363
137576	982	-2102	1189	-1.449766	2.08205	339.8108	0	11.29	4002	1278	1196	1322	1380	0.02	5.875442	8	10	0.08	2800	340.5727	40.92393	-91.39363
137691	-1773	-571	1158	-8.051343	3.914097	337.237	0	11.29	4002	1350	1172	1218	1388	0.02	5.889976	8	10	0.08	2800	332.17	40.92393	-91.39363
137858	902	1212	836	-5.049979	2.765041	335.3028	0	11.29	4004	1231	1143	1185	1261	0.02	5.90415	8	10	0.08	2800	329.6913	40.92393	-91.39363
137993	595	-103	84	-4.580522	1.452822	334.556	0	11.4	4004	1163	1137	1283	1285	0.02	5.892626	8	10	0.08	2800	329.7545	40.92393	-91.39363
138145	179	1206	-22	-3.334804	1.632049	334.7849	0	11.4	4003	1405	1251	1247	1365	0.02	5.833833	8	10	0.08	2800	330.1761	40.92393	-91.39363
138233	-349	974	168	-3.717866	0.2722426	334.8263	0	11.4	4003	1343	1301	1331	1357	0.02	5.773835	8	10	0.08	2800	329.928	40.92393	-91.39363
138341	-336	-2275	1644	-6.037727	1.272439	333.5564	0	11.4	4004	1284	1278	1302	1356	0.02	5.702659	8	10	0.08	2800	330.8216	40.92393	-91.39363
138422	336	-1372	1498	-5.532187	2.759561	331.7764	0	11.4	4003	1123	1185	1455	1461	0.02	5.599896	8	10	0.08	2800	328.2112	40.92393	-91.39363
138523	1600	1002	1925	-4.275093	1.700228	329.3643	0	11.4	4002	1238	1252	1300	1390	0.02	5.529278	8	10	0.08	2800	325.5237	40.92393	-91.39363
138714	-397	334	1772	-4.800162	0.9159175	320.8139	0	11.4	4003	1448	1288	1148	1476	0.02	5.258885	8	10	0.08	2800	317.2028	40.92393	-91.39363
138770	1394	3124	1999	-4.728385	-2.052631	318.7106	0	11.4	4003	1438	1524	1150	1264	0.02	5.239827	8	10	0.08	2800	316.05	40.92393	-91.39363
138829	672	1025	332	-4.100151	-3.492796	318.0302	0	11.4	4003	1183	1063	1461	1729	0.02	5.177237	8	10	0.08	2800	316.05	40.92393	-91.39363
139023	-723	1703	-2276	-1.586947	-1.772192	320.2949	0	11	4003	1364	1550	1308	1210	0.02	4.728326	8	10	0.08	2800	314.5709	40.92393	-91.39363
139106	-946	3015	-1246	-3.413435	-4.177235	321.9606	0	11	4003	1478	1548	1224	1202	0.02	4.52712	8	10	0.08	2800	316.5468	40.92393	-91.39363
139193	-680	-3138	-2230	-5.091438	-1.135734	329.6516	0	11	4004	1729	1243	1717	2123	0.02	4.220946	8	10	0.08	2800	324.0302	40.92393	-91.39363
139258	-2250	930	-2082	-5.830705	0.9368745	332.6604	0	11	4004	1540	1050	1260	1654	0.02	4.035756	8	10	0.08	2800	327.084	40.92393	-91.39363
139400	4969	2379	-659	-0.7131912	-3.338835	336.3898	0	11	4002	1491	1445	1291	1317	0.02	3.449361	8	10	0.08	2800	332.4399	40.92393	-91.39363
139487	-1559	559	-1217	3.185376	-7.880798	338.1054	0	11	4004	1416	1372	1422	1378	0.02	3.30326	8	10	0.08	2800	335.9878	40.92393	-91.39363
139578	482	-3331	-1672	-4.53753	-0.16265	341.4153	0	11	4003	1383	1373	1609	1467	0.02	2.997582	8	10	0.08	2800	334.7106	40.92393	-91.39363
139654	8100	1402	-1381	-0.2331765	1.57826	342.6201	0	11	4004	1159	1851	1801	893	0.02	2.685895	8	10	0.08	2800	336.4892	40.92393	-91.39363
139727	2473	1055	-1648	3.930481	-0.7928165	344.7594	0	11.29	4004	1359	1283	1575	1499	0.02	2.497094	8	10	0.08	2800	345.2053	40.92393	-91.39363
139839	-4564	-1796	-1339	-6.839602	0.1708561	346.56	0	11.29	4003	1674	2044	1868	1318	0.02	2.278432	8	10	0.08	2800	343.0962	40.92393	-91.39363
139906	-2867	-2171	-1395	-8.289551	1.638612	347.1986	0	11.29	4004	1574	1064	1372	1666	0.02	2.264813	8	10	0.08	2800	339.408	40.92393	-91.39363
140030	-455	-616	-1573	-5.108426	3.555967	351.3045	0	11.29	4004	1395	1273	1575	1453	0.02	2.190434	8	10	0.08	2800	344.3661	40.92393	-91.39363
140091	-1436	-589	-626	-4.910509	3.283679	352.4097	0	11.29	4004	1391	1609	1579	1133	0.02	2.14559	8	10	0.08	2800	348.6852	40.92393	-91.39363
140214	-72	-266	312	-4.880427	0.7643672	353.9646	0	11.29	4003	1574	1540	1406	1212	0.02	2.089781	8	10	0.08	2800	352.4457	40.92393	-91.39363
140311	-2418	-934	505	-6.945248	1.245174	353.8767	0	11.29	4003	1563	1317	1327	1377	0.02	2.059819	8	10	0.08	2800	353.1373	40.92393	-91.39363
140368	-1984	-1427	1014	-8.590832	2.883507	353.2808	0	11.29	4002	1569	1111	1291	1577	0.02	2.05817	8	10	0.08	2800	352.6913	40.92393	-91.39363
140479	122	-1303	1093	-9.197585	4.022026	352.3307	0	11.29	4004	1364	1204	1452	1484	0.02	2.066289	8	10	0.08	2800	351.8526	40.92393	-91.39363
140699	-1319	-486	2254	-5.915592	3.953063	346.3424	0	11.29	4002	1135	1397	1611	1297	0.02	2.110554	8	10	0.08	2800	346.1385	40.92393	-91.39363
140786	-194	1952	1179	-7.633368	3.280946	342.9668	0	11.29	4002	1560	1496	1172	1192	0.02	2.148417	8	10	0.08	2800	342.0837	40.92393	-91.39363
140900	-192	1629	1683	-7.624323	-1.3267	338.7203	0	11.29	4003	1340	1288	1336	1388	0.02	2.21584	8	10	0.08	2800	340.5648	40.92393	-91.39363
140994	3112	-1198	372	-5.125226	-1.301771	336.896	0	11.29	4004	1237	1383	1451	1305	0.02	2.257345	8	10	0.08	2800	340.5061	40.92393	-91.39363
141081	-1171	-1031	1260	-3.604082	0.9666172	335.551	0	11.29	4004	1330	1212	1348	1470	0.02	2.296868	8	10	0.08	2800	337.0916	40.92393	-91.39363
141220	1041	541	281	-3.939205	-0.03785648	334.7134	0	11.29	4004	1266	1242	1412	1436	0.02	2.399666	8	10	0.08	2800	334.8198	40.92393	-91.39363
141276	443	-128	498	-2.485507	-1.115705	334.003	0	11.29	4003	1413	1369	1265	1301	0.02	2.427673	8	10	0.08	2800	337.1177	40.92393	-91.39363
141451	1103	-1780	-734	-2.689938	3.180715	333.7675	0	11.29	4003	1183	1217	1459	1393	0.02	2.535465	8	10	0.08	2800	333.1592	40.92393	-91.39363
141513	1268	1413	498	-0.7240741	3.263097	333.9776	0	11.29	4004	1206	1180	1494	1516	0.02	2.546162	8	10	0.08	2800	331.7115	40.92393	-91.39363
141638	153	-1136	-44	-1.338418	-2.589247	334.132	0	11.46	4004	1222	1462	1470	1210	0.02	2.588501	8	10	0.08	2800	333.8375	40.92393	-91.39364
141848	-295	-1224	-435	-0.7141244	0.7264663	335.4659	0	11.46	4003	1515	1323	1243	1391	0.02	2.634124	8	10	0.08	2800	332.9063	40.92393	-91.39364
141945	-563	705	-245	-2.56749	0.7297717	335.9123	0	11.46	4003	1591	1351	1217	1397	0.02	2.626511	8	10	0.08	2800	331.9749	40.92393	-91.39364
142004	1809	456	-360	-1.806121	0.3145266	336.1659	0	11.46	4003	1404	1404	1400	1356	0.02	2.609848	8	10	0.08	2800	333.5132	40.92392	-91.39364
142063	1785	549	-427	0.4262761	-0.6373414	336.3958	0	11.46	4002	1646	1442	1204	1352	0.02	2.585427	8	10	0.08	2800	334.1808	40.92392	-91.39364
142169	315	685	-379	-0.3842321	-0.837099	336.1178	0	11.46	4004	1165	1471	1715	1369	0.02	2.545999	8	10	0.08	2800	333.5592	40.92392	-91.39364
142385	212	799	515	1.46926	-3.316723	336.266	0	11.46	4002	1710	1264	1148	1562	0.02	2.400471	8	10	0.08	2800	333.3123	40.92392	-91.39364
142484	-2084	-703	-1203	0.9620376	-4.073858	337.2578	0	10.89	4004	1495	1633	1407	1165	0.02	2.320118	8	10	0.08	2800	333.9109	40.92392	-91.39364
142605	-1655	-44	-1221	-1.404623	-1.672647	339.4236	0	10.89	4002	1375	1343	1533	1433	0.02	2.23863	8	10	0.08	2800	336.3697	40.92392	-91.39365
142796	4185	1222	-656	0.07552736	-0.3512191	341.8026	0	10.89	4004	1610	1578	1312	1236	0.02	2.11569	8	10	0.08	2800	336.3963	40.92392	-91.39365
142913	-2912	-2491	963	0.7432548	-0.7915114	341.4952	0	10.89	4003	1599	1181	1407	1757	0.02	1.993664	8	10	0.08	2800	337.3046	40.92392	-91.39365
142946	-1895	-2502	174	-0.3185938	0.4965697	341.3689	0	10.89	4002	1509	1159	1407	1677	0.02	1.972314	8	10	0.08	2800	337.3046	40.92392	-91.39365
143105	2476	2228	-748	0.9304789	-1.078158	340.1579	0	10.89	4003	1206	1936	1720	850	0.02	1.794657	8	10	0.08	2800	336.0691	40.92392	-91.39365
143164	3219	2384	-2017	1.968128	-1.92214	340.8808	0	10.89	4004	1504	1596	1436	1200	0.02	1.77581	8	10	0.08	2800	333.7089	40.92392	-91.39365
143242	-1523	-2357	-506	2.161163	-2.193344	342.8916	0	10.89	4002	1548	1650	1384	1142	0.02	1.718286	8	10	0.08	2800	337.2528	40.92392	-91.39365
143431	2853	194	-1251	-0.4068831	2.915265	344.9331	0	10.89	4002	1315	2033	1661	779	0.02	1.58702	8	10	0.08	2800	336.018	40.92392	-91.39365
143464	1495	1659	277	2.267296	1.915742	336.1322	0	10.89	4003	1686	1030	1262	1786	0.02	1.58702	8	10	0.08	2800	338.7515	40.92392	-91.39365
143572	-1180	1859	508	1.514788	-0.2639798	335.5843	0	10.89	4003	1536	1804	1380	1012	0.02	1.535395	8	10	0.08	2800	338.4975	40.92392	-91.39365
143696	-1278	-2520	1788	-3.996427	1.971411	332.6197	0	10.89	4003	1493	1031	1337	1763	0.02	1.488868	8	10	0.08	2800	335.6092	40.92392	-91.39365
143784	1197	204	1444	-4.150702	2.646007	330.7592	0	10.89	4004	1332	1598	1486	1200	0.02	1.461819	8	10	0.08	2800	330.3268	40.92392	-91.39365
143832	1523	2421	1333	-2.928349	0.7188426	327.895	0	10.89	4002	1261	1683	1543	1133	0.02	1.455292	8	10	0.08	2800	329.8709	40.92392	-91.39365
143934	-1627	-1903	2439	-1.879056	-1.420151	325.6726	0	10.89	4004	1098	1482	1690	1318	0.02	1.423015	8	10	0.08	2800	328.1947	40.92392	-91.39365
144050	-135	-1540	97	-2.750357	0.3787232	324.8143	0	10.89	4003	1116	1428	1714	1394	0.02	1.399772	8	10	0.08	2800	325.4662	40.92392	-91.39365
144134	976	2302	-322	-2.341232	-1.406452	324.7816	0	10.89	4002	1453	1717	1341	1069	0.02	1.391826	8	10	0.08	2800	325.0918	40.92392	-91.39365
144228	-1172	-3517	-466	-4.68861	0.3653885	325.1277	0	10.89	4003	1468	824	1338	1950	0.02	1.3749	8	10	0.08	2800	327.4662	40.92392	-91.39365
144357	2809	2005	-1012	-2.95637	3.034736	326.4049	0	11.17	4004	1190	1246	1634	1518	0.02	1.353709	8	10	0.08	2800	325.2751	40.92392	-91.39365
144434	371	2893	-617	0.3385648	-1.508604	327.3625	0	11.17	4003	1175	1497	1661	1263	0.02	1.341929	8	10	0.08	2800	327.9186	40.92392	-91.39365
144555	1259	3268	-2397	1.815963	-6.193892	329.9079	0	11.17	4003	1418	1756	1452	958	0.02	1.326404	8	10	0.08	2800	330.3868	40.92392	-91.39365
144670	-877	-916	-120	0.5609307	-7.291224	331.8646	0	11.17	4004	1458	1266	1402	1494	0.02	1.312054	8	10	0.08	2800	338.4816	40.92392	-91.39365
144728	-1837	-2323	-392	-1.173934	-3.552159	332.6059	0	11.17	4003	1509	1523	1353	1219	0.02	1.310688	8	10	0.08	2800	337.4601	40.92392	-91.39365
144916	-24	-475	185	-2.055438	-2.720305	333.3618	0	11.17	4003	1465	1553	1367	1167	0.02	1.304714	8	10	0.08	2800	339.1151	40.92392	-91.39364
144986	-1349	1971	-456	-1.67823	-3.373687	333.7943	0	11.17	4004	1650	1352	1172	1354	0.02	1.313737	8	10	0.08	2800	339.5754	40.92392	-91.39364
145114	222	750	-21	-2.329694	-3.858877	331.9822	0	11.17	4002	1648	1516	1172	1192	0.02	1.327459	8	10	0.08	2800	337.8927	40.92391	-91.39364
145172	477	-1506	10	-2.152734	-3.265585	331.6725	0	11.17	4003	1193	1519	1617	1207	0.02	1.333641	8	10	0.08	2800	337.8927	40.92391	-91.39364
145283	-567	-1316	34	-3.408327	-0.6826681	330.8769	0	11.17	4003	1222	1358	1570	1370	0.02	1.349971	8	10	0.08	2800	334.3676	40.92391	-91.39364
145338	-1334	918	393	-5.114959	-1.010621	329.299	0	11.17	4003	1395	1311	1387	1435	0.02	1.354974	8	10	0.08	2800	332.7849	40.92391	-91.39364
145503	-305	-666	65	-3.457498	-1.030107	328.3996	0	11.17	4003	1230	1182	1568	1580	0.02	1.366919	8	10	0.08	2800	333.9436	40.92392	-91.39364
145531	-245	-277	715	-3.390352	-0.7471989	327.956	0	11.17	4003	1275	1327	1521	1580	0.02	1.366173	8	10	0.08	2800	332.9294	40.92392	-91.39364
145675	714	-867	1616	-3.573737	-2.547451	325.7446	0	11.17	4003	1355	1237	1425	1563	0.02	1.36043	8	10	0.08	2800	331.477	40.92392	-91.39364
145841	-1636	548	-171	-3.119379	-0.6021346	324.0704	0	11.17	4003	1489	1325	1337	1477	0.02	1.342359	8	10	0.08	2800	329.4212	40.92392	-91.39364
145966	-1435	586	1640	-4.17824	-3.648602	321.9129	0	11.17	4002	1531	1257	1235	1577	0.02	1.33863	8	10	0.08	2800	329.7793	40.92392	-91.39364
146017	407	-471	-244	-4.680673	-3.213389	321.0421	0	11.17	4002	1327	1465	1447	1365	0.02	1.339786	8	10	0.08	2800	329.7437	40.92392	-91.39364
146121	3231	-1714	1710	-3.01511	-1.415943	320.1169	0	11.46	4003	1138	1500	1622	1344	0.02	1.332091	8	10	0.08	2800	326.5161	40.92392	-91.39364
146271	-445	-112	687	2.171478	-3.264915	318.7289	0	11.46	4004	1308	1162	1472	1686	0.02	1.304173	8	10	0.08	2800	325.6525	40.92392	-91.39364
146333	-1934	512	193	0.297443	-2.876635	318.6985	0	11.46	4003	1344	1486	1448	1342	0.02	1.298887	8	10	0.08	2800	324.2054	40.92392	-91.39364
146466	1928	-575	-925	-0.2296758	-3.347334	319.5845	0	11.46	4003	1401	1203	1415	1585	0.02	1.279161	8	10	0.08	2800	325.3712	40.92392	-91.39364
146513	-1024	-1642	-1763	-2.458152	1.186346	323.1746	0	11.46	4003	1450	1570	1422	1210	0.02	1.271433	8	10	0.08	2800	324.9871	40.92392	-91.39364
146598	-1941	1102	-1200	-4.06858	1.453883	325.2252	0	11.46	4002	1551	1101	1295	1685	0.02	1.261279	8	10	0.08	2800	328.2088	40.92392	-91.39364
146650	617	1534	-1856	-4.447645	-0.1295203	326.4527	0	11.46	4004	1396	968	1430	1802	0.02	1.259069	8	10	0.08	2800	330.1124	40.92392	-91.39364
146757	435	146	-1443	-3.767505	-1.070515	328.6783	0	11.46	4004	1488	1384	1378	1346	0.02	1.243857	8	10	0.08	2800	335.2677	40.92392	-91.39364
146865	-410	1611	-1557	-0.5923644	-3.529267	331.2834	0	11.46	4003	1521	1449	1325	1281	0.02	1.242232	8	10	0.08	2800	339.4369	40.92392	-91.39364
146910	-1961	-3041	-996	-3.066692	-1.981068	343.0915	0	11.34	4004	1241	937	1599	1787	0.02	1.243396	8	10	0.08	2800	342.121	40.92392	-91.39364
147021	200	77	-220	-3.540361	0.7514039	344.3457	0	11.34	4002	1300	1300	1540	1384	0.02	1.263898	8	10	0.08	2800	340.5678	40.92392	-91.39364
147180	664	-815	-228	-3.652013	0.1662031	344.5866	0	11.34	4003	1272	1248	1542	1438	0.02	1.295063	8	10	0.08	2800	341.3417	40.92392	-91.39364
147278	-1047	2810	679	-2.737236	-0.6255931	343.5306	0	11.34	4002	1563	1419	1229	1325	0.02	1.327082	8	10	0.08	2800	341.0013	40.92392	-91.39364
147307	-1047	2810	679	-2.737236	-0.6255931	343.5306	0	11.34	4002	1450	1450	1362	1274	0.02	1.331372	8	10	0.08	2800	341.0013	40.92392	-91.39364
147423	442	-773	866	-3.614934	-2.553084	341.9756	0	11.34	4004	1480	1336	1322	1394	0.02	1.35113	8	10	0.08	2800	344.0354	40.92392	-91.39364
147560	546	41	2155	-0.9276258	1.780421	338.7121	0	11.34	4003	1306	1276	1462	1500	0.02	1.378039	8	10	0.08	2800	338.9459	40.92392	-91.39364
147721	-1004	669	2078	-0.8268923	-1.148304	335.5527	0	11.34	4004	1285	1087	1467	1709	0.02	1.395727	8	10	0.08	2800	333.7139	40.92392	-91.39364
147867	177	-1397	1669	-2.074912	-0.8360361	333.4915	0	11.34	4004	1191	1141	1575	1657	0.02	1.420032	8	10	0.08	2800	332.7616	40.92392	-91.39364
147958	1604	2069	-500	0.4053532	-3.548214	334.1846	0	11.34	4003	1657	1089	1143	1687	0.02	1.423814	8	10	0.08	2800	329.859	40.92392	-91.39364
148032	381	457	-1073	0.5452132	-5.217063	335.39	0	11.34	4003	1472	1120	1350	1646	0.02	1.424665	8	10	0.08	2800	333.7777	40.92392	-91.39364
148146	14	-19	-1727	0.7039754	-5.091313	339.4951	0	11.34	4002	1536	1326	1340	1410	0.02	1.418554	8	10	0.08	2800	338.0912	40.92392	-91.39364
148270	-1638	-122	-1913	-1.223454	-3.896155	342.2563	0	11.34	4003	1291	1637	1611	1097	0.02	1.407923	8	10	0.08	2800	342.1411	40.92392	-91.39364
148330	-1179	-1007	-1046	-3.117435	-3.171742	343.612	0	11.34	4002	1479	1189	1415	1545	0.02	1.394918	8	10	0.08	2800	339.5157	40.92392	-91.39364
148407	2072	-2795	211	-1.370106	-1.267572	344.653	0	11.34	4003	1166	1270	1698	1486	0.02	1.387807	8	10	0.08	2800	343.5157	40.92391	-91.39365
148544	-85	145	797	0.3029975	-0.7976903	343.9966	0	11.34	4004	1667	1355	1215	1399	0.02	1.375678	8	10	0.08	2800	339.8209	40.92391	-91.39365
148616	-894	345	1444	0.02860098	-2.114285	343.4764	0	11.34	4002	1390	1118	1464	1668	0.02	1.357788	8	10	0.08	2800	339.8209	40.92391	-91.39365
148720	1117	-207	487	0.547349	-2.418297	342.8529	0	11.34	4003	1580	1488	1290	1302	0.02	1.344011	8	10	0.08	2800	340.2143	40.92391	-91.39365
148861	-3954	930	1464	-2.54068	0.6328131	339.5965	0	11.34	4002	1457	1023	1383	1797	0.02	1.323026	8	10	0.08	2800	335.2796	40.92391	-91.39365
148916	3000	1995	653	-3.540643	-0.6221179	339.2831	0	11.34	4004	1509	1601	1347	1175	0.02	1.320973	8	10	0.08	2800	335.2796	40.92391	-91.39365
149086	-827	-584	1337	2.268275	-0.2296633	337.2695	0	11.34	4004	1657	865	1197	2005	0.02	1.296467	8	10	0.08	2800	333.3922	40.92391	-91.39365
149116	-3758	120	-18	0.6686238	-0.1176185	336.8781	0	11.34	4004	1340	1419	1389	1411	0.02	1.287359	8	10	0.08	2800	328.8004	40.92391	-91.39365
149224	2467	1032	-1198	-0.717601	-1.450311	335.7588	0	11.34	4004	1214	1742	1614	1062	0.02	1.277604	8	10	0.08	2800	329.2271	40.92391	-91.39365
149341	2300	349	-497	0.2165283	-1.027273	336.2513	0	11.34	4003	1403	1083	1431	1703	0.02	1.271347	8	10	0.08	2800	331.0325	40.92391	-91.39365
149411	1090	-545	120	1.3685	-1.234688	336.5103	0	11.34	4002	1519	1261	1349	1511	0.02	1.26682	8	10	0.08	2800	331.0325	40.92391	-91.39365
149532	-2731	-2774	-150	6.197378	-4.982213	340.1818	0	11.34	4003	1280	1210	1596	1546	0.02	1.258611	8	10	0.08	2800	334.5404	40.92391	-91.39365
149612	-2460	-3123	-115	0.8683655	-0.681177	341.1375	0	11.34	4002	1452	1310	1406	1464	0.02	1.254699	8	10	0.08	2800	337.445	40.92391	-91.39365
149719	-1255	1197	-106	-0.975562	-0.347701	340.6526	0	11.23	4003	1239	1257	1599	1509	0.02	1.254603	8	10	0.08	2800	334.0894	40.92391	-91.39365
149901	1675	-55	504	-1.286949	-0.5911907	337.9264	0	11.23	4003	1387	1415	1435	1379	0.02	1.260264	8	10	0.08	2800	333.9077	40.92391	-91.39365
149952	2628	31	847	-0.3337021	-0.6808113	337.2614	0	11.23	4002	1058	1438	1764	1384	0.02	1.257385	8	10	0.08	2800	333.9077	40.92391	-91.39365
150010	-1125	238	1761	0.4004565	-1.348744	335.8333	0	11.23	4004	1408	1260	1406	1554	0.02	1.255263	8	10	0.08	2800	333.8025	40.92391	-91.39365
150135	-1285	744	356	-1.553497	-3.106311	334.4845	0	11.23	4003	1413	1253	1431	1567	0.02	1.251572	8	10	0.08	2800	330.8595	40.92391	-91.39365
150218	1820	1537	-1491	0.2478286	-4.031548	335.8407	0	11.23	4002	1537	1435	1327	1337	0.02	1.238537	8	10	0.08	2800	330.1356	40.92391	-91.39365
150316	-561	-1808	-968	2.614039	-2.397771	337.672	0	11.23	4002	1485	1155	1381	1607	0.02	1.235879	8	10	0.08	2800	336.1998	40.92391	-91.39365
150461	-3776	-1048	185	-0.5427522	-0.6736077	338.0947	0	11.23	4003	1479	967	1365	1817	0.02	1.234456	8	10	0.08	2800	333.4852	40.92391	-91.39365
150516	-202	591	-761	-3.171389	-2.396945	338.5695	0	11.23	4002	1609	1231	1223	1541	0.02	1.237872	8	10	0.08	2800	334.7278	40.92391	-91.39365
150635	871	-900	1189	-1.441402	-1.263466	337.9037	0	11.46	4003	1393	1331	1429	1451	0.02	1.247846	8	10	0.08	2800	334.1066	40.92391	-91.39365
150722	57	496	76	-0.5934187	-0.6273059	336.8492	0	11.46	4004	1419	1519	1421	1285	0.02	1.255266	8	10	0.08	2800	332.6387	40.92391	-91.39365
150830	801	3198	732	-0.1267694	-3.621235	335.8242	0	11.46	4003	1523	1589	1313	1227	0.02	1.255831	8	10	0.08	2800	333.2189	40.92391	-91.39365
150981	2450	-458	699	-0.2362598	-5.874567	335.3878	0	11.46	4004	1011	1523	1789	1297	0.02	1.2635	8	10	0.08	2800	332.8496	40.92391	-91.39365
151118	-473	1525	-320	-4.429915	-0.8602237	334.9558	0	11.46	4003	1129	1401	1691	1391	0.02	1.271753	8	10	0.08	2800	330.9755	40.92391	-91.39365
151151	-699	1353	-1278	-4.757292	-1.376426	335.4441	0	11.46	4003	1381	1811	1439	973	0.02	1.280111	8	10	0.08	2800	331.6392	40.92391	-91.39365
151284	2417	726	-1909	-0.5467305	-3.305095	336.7681	0	11.46	4004	1662	1330	1198	1426	0.02	1.29066	8	10	0.08	2800	333.9585	40.92391	-91.39365
151398	928	1507	-1487	-1.402504	-0.4088797	339.5815	0	11.46	4004	1585	1691	1271	1053	0.02	1.303761	8	10	0.08	2800	335.4447	40.92391	-91.39365
151512	-700	2718	-1390	-1.731946	-3.566749	340.6028	0	11.34	4003	1439	1575	1421	1177	0.02	1.318215	8	10	0.08	2800	337.0188	40.92391	-91.39365
151533	-700	2718	-1390	-1.731946	-3.566749	340.6028	0	11.34	4003	1439	1575	1421	1177	0.02	1.320736	8	10	0.08	2800	337.0188	40.92391	-91.39365
151622	760	-2355	-1651	-0.7589549	-2.778816	343.4513	0	11.34	4002	1456	1114	1414	1624	0.02	1.330904	8	10	0.08	2800	342.7155	40.92391	-91.39365
151722	14	-2142	-623	-0.9198701	-0.6841983	344.152	0	11.34	4003	1191	1313	1675	1429	0.02	1.341805	8	10	0.08	2800	342.8813	40.92391	-91.39364
151964	-342	-19	-358	-1.962905	-3.053022	343.9107	0	11.34	4004	1201	1401	1687	1371	0.02	1.35413	8	10	0.08	2800	341.8616	40.92391	-91.39364
152141	1745	-728	1628	-4.269826	-3.868179	341.5818	0	11.34	4003	1259	1409	1593	1391	0.02	1.345753	8	10	0.08	2800	339.3978	40.92391	-91.39364
152193	1335	-3305	1269	-2.19561	-2.481634	340.9961	0	11.34	4004	1316	1148	1572	1652	0.02	1.343556	8	10	0.08	2800	337.5685	40.92391	-91.39364
152296	-633	143	-523	-0.864053	-1.488843	341.1716	0	11.34	4003	1422	1496	1472	1719	0.02	1.338448	8	10	0.08	2800	334.5891	40.92391	-91.39364
152391	548	-381	-773	-2.790388	-1.385789	341.895	0	11.34	4004	1223	1489	1679	1305	0.02	1.314796	8	10	0.08	2800	337.4828	40.92391	-91.39364
152472	1878	1511	-574	-1.800507	-1.593363	342.6068	0	11.34	4003	1471	1615	1423	1171	0.02	1.305657	8	10	0.08	2800	335.9807	40.92391	-91.39364
152566	181	1432	-1157	-3.071924	-3.123152	343.2559	0	11.34	4002	1139	1813	1797	991	0.02	1.292539	8	10	0.08	2800	338.024	40.92391	-91.39364
152632	-337	1032	893	-3.054441	-4.078834	343.5001	0	11.34	4003	1488	1438	1354	1352	0.02	1.289891	8	10	0.08	2800	338.7244	40.92391	-91.39364
152775	1734	-175	-634	-3.380996	-2.266979	343.3163	0	11.34	4003	1336	1790	1540	982	0.02	1.298685	8	10	0.08	2800	338.1693	40.92391	-91.39364
152899	2967	57	-14	-3.077713	-1.80872	342.735	0	11.34	4003	1272	1568	1586	1230	0.02	1.300471	8	10	0.08	2800	338.3549	40.92392	-91.39364
152962	-1614	-1437	947	-2.417732	0.3915859	341.5991	0	11.34	4003	1680	1310	1166	1492	0.02	1.301704	8	10	0.08	2800	335.4503	40.92392	-91.39364
153084	2854	920	2711	-2.935787	1.55722	336.6114	0	11.34	4003	1364	1442	1418	1380	0.02	1.321152	8	10	0.08	2800	330.346	40.92392	-91.39364
153106	1975	1872	1825	-1.33492	0.7096802	336.6114	0	11.34	4003	1364	1442	1418	1380	0.02	1.331363	8	10	0.08	2800	330.346	40.92392	-91.39364
153201	-1569	266	2497	-1.147518	-1.038269	332.4496	0	11.34	4002	1329	915	1437	1951	0.02	1.346247	8	10	0.08	2800	328.1468	40.92392	-91.39364
153313	453	1320	888	-3.119499	-1.372871	328.3904	0	11.57	4003	1386	1474	1394	1386	0.02	1.353025	8	10	0.08	2800	324.0532	40.92392	-91.39364
153465	-1429	-1262	-274	-1.366511	-3.503505	326.2637	0	11.57	4003	1472	1340	1344	1496	0.02	1.353637	8	10	0.08	2800	322.0929	40.92392	-91.39364
153545	2764	643	-1162	-0.1524857	-2.632311	326.7789	0	11.57	4002	1209	1735	1631	1109	0.02	1.351707	8	10	0.08	2800	322.6621	40.92391	-91.39364
153622	-2777	1327	-1063	-0.2492638	-3.519414	327.555	0	11.57	4002	1646	1374	1194	1446	0.02	1.348832	8	10	0.08	2800	322.6621	40.92391	-91.39364
153696	1440	155	-2325	-0.9762082	-4.709574	330.266	0	11.57	4003	1072	1534	1772	1554	0.02	1.349574	8	10	0.08	2800	326.5518	40.92391	-91.39364
153821	-1008	994	-2424	2.696271	-4.334617	335.5424	0	11.57	4002	1178	1580	1684	1186	0.02	1.359934	8	10	0.08	2800	332.555	40.92391	-91.39364
153938	-4109	-816	-2564	-2.809515	-4.444309	339.395	0	11.57	4002	1632	1296	1254	1446	0.02	1.382546	8	10	0.08	2800	336.2636	40.92391	-91.39364
154083	1460	286	-1084	-5.760847	-1.101669	343.2393	0	11.57	4002	1370	1036	1496	1710	0.02	1.409157	8	10	0.08	2800	340.2506	40.92391	-91.39364
154250	-739	-518	-434	-1.838497	-2.910205	344.4561	0	11.17	4003	1425	1387	1459	1357	0.02	1.436258	8	10	0.08	2800	344.4885	40.92391	-91.39364
154383	1439	1088	-660	-1.65433	-1.315348	344.6566	0	11.17	4003	1326	1274	1572	1464	0.02	1.453429	8	10	0.08	2800	342.8011	40.92391	-91.39364
154476	-618	568	-758	-1.117929	-2.492482	344.472	0	11.17	4004	1294	1492	1580	1258	0.02	1.468512	8	10	0.08	2800	343.3548	40.92391	-91.39364
154570	-1504	-681	2421	-3.941092	-3.237144	342.6554	0	11.17	4003	1406	1446	1406	1342	0.02	1.489192	8	10	0.08	2800	342.517	40.92391	-91.39364
154674	1091	-58	1311	-4.245936	-2.735145	341.4541	0	11.17	4003	1533	1525	1287	1243	0.02	1.511814	8	10	0.08	2800	339.9887	40.92391	-91.39364
154796	-782	1381	1141	-0.3452532	-3.409158	339.7403	0	11.17	4004	1370	1418	1450	1370	0.02	1.540577	8	10	0.08	2800	338.6901	40.92391	-91.39364
155012	-398	-1013	534	-1.406337	-3.511307	339.9196	0	11.17	4004	1301	1555	1541	1223	0.02	1.579438	8	10	0.08	2800	339.9963	40.92391	-91.39364
155185	-1139	-697	34	0.31076	-3.584257	340.9121	0	11.57	4003	1465	1163	1413	1635	0.02	1.586371	8	10	0.08	2800	337.2031	40.92391	-91.39364
155321	627	-794	-326	-3.521763	-3.19255	339.1239	0	11.57	4003	1389	1731	1477	1079	0.02	1.585262	8	10	0.08	2800	336.7803	40.92391	-91.39364
155403	2737	362	-195	-1.664663	-2.150655	338.8283	0	11.57	4002	1471	1569	1403	1225	0.02	1.58445	8	10	0.08	2800	334.0529	40.92391	-91.39364
155456	293	811	729	1.023072	-2.509372	338.6138	0	11.57	4004	1333	1591	1517	1227	0.02	1.585276	8	10	0.08	2800	332.3477	40.92391	-91.39364
155530	4047	1924	-1784	2.459183	-3.923447	339.8732	0	11.57	4003	1299	1969	1573	815	0.02	1.587769	8	10	0.08	2800	333.7421	40.92391	-91.39364
155681	-1657	-43	-1016	3.220332	-5.016525	341.7342	0	11.57	4003	1562	1386	1304	1376	0.02	1.605109	8	10	0.08	2800	337.298	40.92391	-91.39364
155844	-2319	-646	-359	-4.219454	-1.11314	344.6636	0	11.57	4002	1500	1366	1396	1394	0.02	1.623408	8	10	0.08	2800	337.6747	40.92391	-91.39364
156019	706	1711	443	-3.272465	-3.478854	343.005	0	11.17	4003	1425	1205	1445	1585	0.02	1.629674	8	10	0.08	2800	338.5729	40.92391	-91.39364
156063	1308	1703	543	-2.820543	-4.158505	342.4548	0	11.17	4002	1408	1664	1454	1138	0.02	1.632102	8	10	0.08	2800	338.5729	40.92391	-91.39364
156249	-341	178	489	-2.250538	-0.2371058	341.8194	0	11.17	4002	1372	1464	1492	1336	0.02	1.644689	8	10	0.08	2800	338.4991	40.92391	-91.39364
156331	543	1539	1078	-2.303298	-1.421477	340.0338	0	11.17	4004	1356	1498	1492	1322	0.02	1.646944	8	10	0.08	2800	334.4946	40.92391	-91.39364
156441	-589	2439	1591	-2.406345	-3.071415	337.5829	0	11.17	4002	1579	1593	1229	1211	0.02	1.661184	8	10	0.08	2800	331.2324	40.92391	-91.39364
156533	1403	-485	1423	-1.292819	-1.959685	334.5909	0	11.17	4004	1545	1269	1245	1545	0.02	1.674161	8	10	0.08	2800	329.2196	40.92391	-91.39364
156651	699	1237	1639	-0.3645808	-3.703588	331.8076	0	11.17	4002	1387	1613	1389	1223	0.02	1.709363	8	10	0.08	2800	326.9209	40.92391	-91.39364
156741	-916	-436	22	0.3520048	-4.287888	330.8563	0	11.17	4002	1400	1410	1402	1412	0.02	1.727597	8	10	0.08	2800	326.8443	40.92391	-91.39364
156852	-2204	35	-392	-1.526048	-3.132815	331.1642	0	11.17	4004	1546	992	1256	1818	0.02	1.741652	8	10	0.08	2800	326.3333	40.92391	-91.39364
156980	5613	2049	-1511	0.5606883	-4.649804	332.7282	0	11.06	4002	1169	1651	1647	1117	0.02	1.775194	8	10	0.08	2800	326.7455	40.92391	-91.39364
157179	-1547	-3019	-729	-2.073529	-1.366549	336.6768	0	11.06	4002	1347	1603	1485	1181	0.02	1.813412	8	10	0.08	2800	329.0507	40.92391	-91.39364
157288	1830	1313	-415	-1.971226	-0.09524908	337.9178	0	11.06	4003	1453	1499	1397	1259	0.02	1.844358	8	10	0.08	2800	329.9735	40.92391	-91.39364
157345	1672	790	547	-1.05912	-1.041713	338.2123	0	11.06	4002	1106	1454	1718	1330	0.02	1.854845	8	10	0.08	2800	330.9458	40.92391	-91.39364
157502	-2439	-202	1338	-1.849117	-3.799006	339.3849	0	11.06	4004	1581	1365	1237	1409	0.02	1.892435	8	10	0.08	2800	333.332	40.92391	-91.39363
157641	-6	-2037	252	-4.545054	-1.762262	338.9983	0	11.06	4003	1346	1444	1428	1286	0.02	1.939669	8	10	0.08	2800	331.6182	40.92391	-91.39363
157744	1871	3086	701	-2.323266	-2.99079	338.6106	0	11.06	4003	1408	1572	1384	1188	0.02	1.975963	8	10	0.08	2800	332.8648	40.92391	-91.39363
157921	-606	-2640	1475	-3.780005	-2.76801	338.2873	0	11.29	4003	1326	1506	1506	1310	0.02	1.998386	8	10	0.08	2800	333.4323	40.92391	-91.39363
157981	1321	270	286	-3.605529	-1.499759	338.0935	0	11.29	4003	1379	1601	1465	1211	0.02	1.999479	8	10	0.08	2800	331.1937	40.92391	-91.39363
158060	1173	1250	-752	-2.595091	-3.619011	337.996	0	11.29	4002	1174	1552	1690	1244	0.02	2.002863	8	10	0.08	2800	329.7346	40.92392	-91.39363
158136	-859	1150	392	-2.718114	-4.9629	337.7885	0	11.29	4004	1412	1448	1460	1364	0.02	2.002381	8	10	0.08	2800	331.3006	40.92392	-91.39363
158234	1338	278	791	-4.04127	-5.753721	337.6782	0	11.29	4004	1376	1804	1462	1006	0.02	2.002075	8	10	0.08	2800	333.002	40.92392	-91.39363
158412	-12	-753	81	-3.921241	-2.645004	338.9424	0	11.29	4004	1578	1262	1280	1532	0.02	2.009341	8	10	0.08	2800	333.946	40.92392	-91.39363
158431	-12	-753	81	-3.921241	-2.645004	338.9424	0	11.29	4004	1368	1656	1490	1138	0.02	2.010802	8	10	0.08	2800	333.946	40.92392	-91.39363
158642	-2044	1573	-1203	-3.893643	-0.8954924	332.7019	0	11.29	4004	1765	1345	1145	1405	0.02	2.021061	8	10	0.08	2800	333.7574	40.92392	-91.39363
158764	1624	-1512	-146	-4.162529	-3.427155	334.3274	0	11.17	4004	1264	1332	1638	1418	0.02	2.024953	8	10	0.08	2800	338.2169	40.92392	-91.39363
158827	2060	-1942	300	-3.178819	-2.619637	334.4286	0	11.17	4003	1286	1298	1590	1474	0.02	2.02732	8	10	0.08	2800	338.2169	40.92392	-91.39363
158940	-667	2444	93	-2.974157	-1.795949	334.7906	0	11.17	4004	1649	1537	1239	1195	0.02	2.038517	8	10	0.08	2800	335.8504	40.92392	-91.39363
159053	111	-655	-208	-3.017085	-3.373816	334.2567	0	11.17	4003	1344	1404	1536	1368	0.02	2.045491	8	10	0.08	2800	338.5145	40.92392	-91.39363
159147	-250	229	940	-4.070316	-1.069743	333.1035	0	11.17	4004	1559	1513	1301	1283	0.02	2.05043	8	10	0.08	2800	336.0755	40.92392	-91.39363
159212	1115	666	2425	-2.992575	-1.669398	331.4896	0	11.17	4003	1481	1545	1349	1269	0.02	2.054417	8	10	0.08	2800	334.4146	40.92392	-91.39363
159416	-606	112	760	0.2164699	-4.820981	329.7022	0	11.17	4003	1136	1350	1724	1466	0.02	2.055952	8	10	0.08	2800	332.723	40.92392	-91.39363
159521	1239	806	-332	1.126592	-5.745032	329.11	0	11.17	4004	1424	1400	1458	1402	0.02	2.044587	8	10	0.08	2800	333.3624	40.92392	-91.39363
159645	-5301	-2267	1477	-2.984154	-3.352786	327.9399	0	11.29	4003	1498	1048	1340	1778	0.02	2.038253	8	10	0.08	2800	332.6477	40.92392	-91.39363
159738	3022	-1482	344	-4.620821	0.2191535	327.4087	0	11.29	4002	1233	1641	1611	1191	0.02	2.036512	8	10	0.08	2800	329.2836	40.92392	-91.39363
