time(ms)	gyro_x(deg/s)	gyro_y(deg/s)	gyro_z(deg/s)	orientation_roll(deg)	orientation_pitch(deg)	orientation_yaw(deg)	throttle	battery(V)	loop_time(uS)	pid_output_roll	pid_output_pitch	pid_output_yaw	pid_output_throttle	ultrasonic_alt	baro_alt	flight_mode	p_gain_altitude	i_gain_altitude	d_gain_altitude	compass_heading	latitude	longitude
217775	0	0	0	0	0	0	0	12.82	0	0	0	0	0	0	0	0	10	0.08	2800	0	0	0
217848	0	0	0	0	0	0	0	12.76	0	0	0	0	0	0	0	0	10	0.08	2800	0	0	0
217979	0	0	0	0	0	0	0	12.76	0	0	0	0	0	0	0	0	10	0.08	2800	0	0	0
218045	0	0	0	0	0	0	0	12.76	0	0	0	0	0	0	0	0	10	0.08	2800	0	0	0
218187	0	0	0	0	0	0	0	12.76	0	0	0	0	0	0	0	0	10	0.08	2800	0	0	0
218318	0	0	0	0	0	0	0	12.76	0	0	0	0	0	0	0	0	10	0.08	2800	0	0	0
218398	0	0	0	0	0	0	0	12.76	0	0	0	0	0	0	0	0	10	0.08	2800	0	0	0
218479	0	0	0	0	0	0	0	12.76	0	0	0	0	0	0	0	0	10	0.08	2800	0	0	0
218553	0	0	0	0	0	0	0	12.76	0	0	0	0	0	0	0	0	10	0.08	2800	0	0	0
218659	0	0	0	0	0	0	0	12.76	0	0	0	0	0	0	0	0	10	0.08	2800	0	0	0
218822	0	0	0	0	0	0	0	12.82	0	0	0	0	0	0	0	0	10	0.08	2800	0	0	0
218913	0	0	0	0	0	0	0	12.82	0	0	0	0	0	0	0	0	10	0.08	2800	0	0	0
218965	0	0	0	0	0	0	0	12.82	0	0	0	0	0	0	0	0	10	0.08	2800	0	0	0
219064	0	0	0	0	0	0	0	12.82	0	0	0	0	0	0	0	0	10	0.08	2800	0	0	0
219174	0	0	0	0	0	0	0	12.82	0	0	0	0	0	0	0	0	10	0.08	2800	0	0	0
219297	0	0	0	0	0	0	0	12.82	0	0	0	0	0	0	0	0	10	0.08	2800	0	0	0
219378	0	0	0	0	0	0	0	12.82	0	0	0	0	0	0	0	0	10	0.08	2800	0	0	0
219459	0	0	0	0	0	0	0	12.82	0	0	0	0	0	0	0	0	10	0.08	2800	0	0	0
219585	0	0	0	0	0	0	0	12.82	0	0	0	0	0	0	0	0	10	0.08	2800	0	0	0
219677	0	0	0	0	0	0	0	12.82	0	0	0	0	0	0	0	0	10	0.08	2800	0	0	0
219763	0	0	0	0	0	0	0	12.82	0	0	0	0	0	0	0	0	10	0.08	2800	0	0	0
219857	0	0	0	0	0	0	0	12.82	0	0	0	0	0	0	0	0	10	0.08	2800	0	0	0
219981	0	0	0	0	0	0	0	12.82	0	0	0	0	0	0	0	0	10	0.08	2800	0	0	0
220078	0	0	0	0	0	0	0	12.82	0	0	0	0	0	0	0	0	10	0.08	2800	0	0	0
220168	0	0	0	0	0	0	0	12.82	0	0	0	0	0	0	0	0	10	0.08	2800	0	0	0
220292	0	0	0	0	0	0	0	12.82	0	0	0	0	0	0	0	0	10	0.08	2800	0	0	0
220364	0	0	0	0	0	0	0	12.82	0	0	0	0	0	0	0	0	10	0.08	2800	0	0	0
220451	0	0	0	0	0	0	0	12.82	0	0	0	0	0	0	0	0	10	0.08	2800	0	0	0
220684	24	110	-510	0.7679896	-4.86395	357.3148	0	12.82	4003	1000	1000	1000	1000	0.02	0.03072592	1	10	0.08	2800	357.7666	1E-06	1E-06
220857	22	108	-510	0.3280451	-4.823976	358.7195	0	12.82	4004	1000	1000	1000	1000	0.02	0.04485853	1	10	0.08	2800	356.1171	1E-06	1E-06
220894	21	110	-513	0.2431413	-4.815174	359.0009	0	12.82	4003	1000	1000	1000	1000	0.02	0.04485853	1	10	0.08	2800	355.4942	1E-06	1E-06
220994	25	111	-513	0.003253388	-4.789296	359.8441	0	12.82	4002	1000	1000	1000	1000	0.02	0.060653	1	10	0.08	2800	354.2469	1E-06	1E-06
221082	21	108	-509	-0.1509664	-4.767297	0.406291	0	12.82	4004	1000	1000	1000	1000	0.02	0.06768936	1	10	0.08	2800	354.0567	1E-06	1E-06
221242	23	108	-507	-0.5769927	-4.700678	2.093399	0	12.82	4002	1000	1000	1000	1000	0.02	0.08280986	1	10	0.08	2800	352.5322	1E-06	1E-06
221285	15	112	-515	-0.6452314	-4.688485	351.849	0	12.82	4004	1000	1000	1000	1000	0.02	0.0874623	1	10	0.08	2800	351.8175	1E-06	1E-06
221399	29	112	-511	-0.895035	-4.644716	352.9723	0	12.82	4004	1000	1000	1000	1000	0.02	0.106017	1	10	0.08	2800	352.0566	1E-06	1E-06
221535	26	122	-510	-1.073106	-4.606965	353.815	0	12.82	4002	1000	1000	1000	1000	0.02	0.1083431	1	10	0.08	2800	350.5522	1E-06	1E-06
221629	25	113	-512	-1.299026	-4.5612	354.9375	0	12.82	4003	1000	1000	1000	1000	0.02	0.09881148	1	10	0.08	2800	350.2013	1E-06	1E-06
221670	24	107	-511	-1.350949	-4.548309	355.2191	0	12.82	4002	1000	1000	1000	1000	0.02	0.09546791	1	10	0.08	2800	350.2013	1E-06	1E-06
221820	23	108	-515	-1.599459	-4.485127	356.623	0	12.82	4002	1000	1000	1000	1000	0.02	0.08599149	1	10	0.08	2800	349.5635	1E-06	1E-06
221871	23	115	-509	-1.645607	-4.475482	356.9051	0	12.82	4004	1000	1000	1000	1000	0.02	0.07680631	1	10	0.08	2800	349.5635	1E-06	1E-06
221987	22	110	-515	-1.784391	-4.440138	357.7459	0	12.82	4002	1000	1000	1000	1000	0.02	0.07419644	1	10	0.08	2800	348.6301	1E-06	1E-06
222131	25	111	-511	-1.953359	-4.39245	348.7851	0	12.82	4003	1000	1000	1000	1000	0.02	0.0651615	1	10	0.08	2800	348.2556	1E-06	1E-06
222296	24	109	-513	-2.182253	-4.319475	350.4706	0	12.82	4004	1000	1000	1000	1000	0.02	0.04622499	1	10	0.08	2800	347.308	1E-06	1E-06
222412	28	109	-510	-2.322645	-4.272094	351.5963	0	12.82	4004	1000	1000	1000	1000	0.02	0.03489526	1	10	0.08	2800	347.5284	1E-06	1E-06
222476	26	117	-505	-2.356686	-4.261244	351.8762	0	12.82	4002	1000	1000	1000	1000	0.02	0.02526271	1	10	0.08	2800	347.3261	1E-06	1E-06
222593	28	111	-511	-2.449443	-4.22157	352.7173	0	12.82	4004	1000	1000	1000	1000	0.02	0.02212013	1	10	0.08	2800	346.8816	1E-06	1E-06
222786	24	112	-511	-2.623484	-4.154416	354.4036	0	12.82	4002	1000	1000	1000	1000	0.02	0.01612517	1	10	0.08	2800	346.7926	1E-06	1E-06
222866	27	111	-510	-2.701822	-4.120545	355.2438	0	12.82	4003	1000	1000	1000	1000	0.02	0.007446437	1	10	0.08	2800	346.1428	1E-06	1E-06
222902	22	112	-508	-2.752169	-4.100682	355.8033	0	12.82	4002	1000	1000	1000	1000	0.02	0.004864254	1	10	0.08	2800	346.084	1E-06	1E-06
223075	24	115	-510	-2.846268	-4.059474	346.6607	0	12.82	4002	1000	1000	1000	1000	0.02	-0.002625701	1	10	0.08	2800	345.5266	1E-06	1E-06
223178	22	112	-509	-2.93351	-4.019195	347.7813	0	12.82	4003	1000	1000	1000	1000	0.02	-0.005988691	1	10	0.08	2800	345.5233	1E-06	1E-06
223302	25	104	-510	-2.993857	-3.988641	348.6232	0	12.82	4004	1000	1000	1000	1000	0.02	-0.01492112	1	10	0.08	2800	345.2436	1E-06	1E-06
223419	26	112	-508	-3.073061	-3.948191	349.7451	0	12.82	4004	1000	1000	1000	1000	0.02	-0.01117313	1	10	0.08	2800	345.011	1E-06	1E-06
223510	24	111	-509	-3.10993	-3.928969	350.3046	0	12.82	4004	1000	1000	1000	1000	0.02	-0.007909508	1	10	0.08	2800	345.1884	1E-06	1E-06
223621	23	112	-508	-3.176993	-3.892655	351.4269	0	12.82	4004	1000	1000	1000	1000	0.02	-0.01009716	1	10	0.08	2800	344.4035	1E-06	1E-06
223667	24	110	-510	-3.208372	-3.875518	351.9883	0	12.82	4004	1000	1000	1000	1000	0.02	-0.01079643	1	10	0.08	2800	344.8825	1E-06	1E-06
223819	26	110	-508	-3.253375	-3.847014	352.8277	0	12.82	4004	1000	1000	1000	1000	0.02	-0.01588469	1	10	0.08	2800	344.9224	1E-06	1E-06
223986	26	110	-508	-3.253375	-3.847014	352.8277	0	12.82	4004	1000	1000	1000	1000	0.02	-0.01588469	1	10	0.08	2800	344.9224	1E-06	1E-06
224090	26	110	-508	-3.253375	-3.847014	352.8277	0	12.82	4004	1000	1000	1000	1000	0.02	-0.01588469	1	10	0.08	2800	344.9224	1E-06	1E-06
224149	26	110	-508	-3.253375	-3.847014	352.8277	0	12.82	4004	1000	1000	1000	1000	0.02	-0.01588469	1	10	0.08	2800	344.9224	1E-06	1E-06
224296	26	110	-508	-3.253375	-3.847014	352.8277	0	12.87	4004	1000	1000	1000	1000	0.02	-0.01588469	1	10	0.08	2800	344.9224	1E-06	1E-06
224368	26	110	-508	-3.253375	-3.847014	352.8277	0	12.87	4004	1000	1000	1000	1000	0.02	-0.01588469	1	10	0.08	2800	344.9224	1E-06	1E-06
224448	26	110	-508	-3.253375	-3.847014	352.8277	0	12.87	4004	1000	1000	1000	1000	0.02	-0.01588469	1	10	0.08	2800	344.9224	1E-06	1E-06
224545	26	110	-508	-3.253375	-3.847014	352.8277	0	12.87	4004	1000	1000	1000	1000	0.02	-0.01588469	1	10	0.08	2800	344.9224	1E-06	1E-06
224733	26	110	-508	-3.253375	-3.847014	352.8277	0	12.87	4004	1000	1000	1000	1000	0.02	-0.01588469	1	10	0.08	2800	344.9224	1E-06	1E-06
224813	26	110	-508	-3.253375	-3.847014	352.8277	0	12.87	4004	1000	1000	1000	1000	0.02	-0.01588469	1	10	0.08	2800	344.9224	1E-06	1E-06
224901	26	110	-508	-3.253375	-3.847014	352.8277	0	12.87	4004	1000	1000	1000	1000	0.02	-0.01588469	1	10	0.08	2800	344.9224	1E-06	1E-06
224933	26	110	-508	-3.253375	-3.847014	352.8277	0	12.87	4004	1000	1000	1000	1000	0.02	-0.01588469	1	10	0.08	2800	344.9224	1E-06	1E-06
225048	26	110	-508	-3.253375	-3.847014	352.8277	0	12.87	4004	1000	1000	1000	1000	0.02	-0.01588469	1	10	0.08	2800	344.9224	1E-06	1E-06
225174	26	110	-508	-3.253375	-3.847014	352.8277	0	12.82	4004	1000	1000	1000	1000	0.02	-0.01588469	1	10	0.08	2800	344.9224	1E-06	1E-06
225257	26	110	-508	-3.253375	-3.847014	352.8277	0	12.82	4004	1000	1000	1000	1000	0.02	-0.01588469	1	10	0.08	2800	344.9224	1E-06	1E-06
225320	26	110	-508	-3.253375	-3.847014	352.8277	0	12.82	4004	1000	1000	1000	1000	0.02	-0.01588469	1	10	0.08	2800	344.9224	1E-06	1E-06
225501	26	110	-508	-3.253375	-3.847014	352.8277	0	12.82	4004	1000	1000	1000	1000	0.02	-0.01588469	1	10	0.08	2800	344.9224	1E-06	1E-06
225535	26	110	-508	-3.253375	-3.847014	352.8277	0	12.82	4004	1000	1000	1000	1000	0.02	-0.01588469	1	10	0.08	2800	344.9224	1E-06	1E-06
225642	26	110	-508	-3.253375	-3.847014	352.8277	0	12.82	4004	1000	1000	1000	1000	0.02	-0.01588469	1	10	0.08	2800	344.9224	1E-06	1E-06
225736	26	110	-508	-3.253375	-3.847014	352.8277	0	12.82	4004	1000	1000	1000	1000	0.02	-0.01588469	1	10	0.08	2800	344.9224	1E-06	1E-06
225863	26	110	-508	-3.253375	-3.847014	352.8277	0	12.82	4004	1000	1000	1000	1000	0.02	-0.01588469	1	10	0.08	2800	344.9224	1E-06	1E-06
225923	26	110	-508	-3.253375	-3.847014	352.8277	0	12.82	4004	1000	1000	1000	1000	0.02	-0.01588469	1	10	0.08	2800	344.9224	1E-06	1E-06
226099	26	110	-508	-3.253375	-3.847014	352.8277	0	12.82	4004	1000	1000	1000	1000	0.02	-0.01588469	1	10	0.08	2800	344.9224	1E-06	1E-06
226176	26	110	-508	-3.253375	-3.847014	352.8277	0	12.82	4004	1000	1000	1000	1000	0.02	-0.01588469	1	10	0.08	2800	344.9224	1E-06	1E-06
226233	26	110	-508	-3.253375	-3.847014	352.8277	0	12.82	4004	1000	1000	1000	1000	0.02	-0.01588469	1	10	0.08	2800	344.9224	1E-06	1E-06
226314	26	110	-508	-3.253375	-3.847014	352.8277	0	12.82	4004	1000	1000	1000	1000	0.02	-0.01588469	1	10	0.08	2800	344.9224	1E-06	1E-06
226403	26	110	-508	-3.253375	-3.847014	352.8277	0	12.82	4004	1000	1000	1000	1000	0.02	-0.01588469	1	10	0.08	2800	344.9224	1E-06	1E-06
226540	26	110	-508	-3.253375	-3.847014	352.8277	0	12.82	4004	1000	1000	1000	1000	0.02	-0.01588469	1	10	0.08	2800	344.9224	1E-06	1E-06
226599	26	110	-508	-3.253375	-3.847014	352.8277	0	12.82	4004	1000	1000	1000	1000	0.02	-0.01588469	1	10	0.08	2800	344.9224	1E-06	1E-06
226704	26	110	-508	-3.253375	-3.847014	352.8277	0	12.82	4004	1000	1000	1000	1000	0.02	-0.01588469	1	10	0.08	2800	344.9224	1E-06	1E-06
226857	26	110	-508	-3.253375	-3.847014	352.8277	0	12.82	4004	1000	1000	1000	1000	0.02	-0.01588469	1	10	0.08	2800	344.9224	1E-06	1E-06
227019	26	110	-508	-3.253375	-3.847014	352.8277	0	12.76	4004	1000	1000	1000	1000	0.02	-0.01588469	1	10	0.08	2800	344.9224	1E-06	1E-06
227113	26	110	-508	-3.253375	-3.847014	352.8277	0	12.76	4004	1000	1000	1000	1000	0.02	-0.01588469	1	10	0.08	2800	344.9224	1E-06	1E-06
227238	26	110	-508	-3.253375	-3.847014	352.8277	0	12.76	4004	1000	1000	1000	1000	0.02	-0.01588469	1	10	0.08	2800	344.9224	1E-06	1E-06
227291	26	110	-508	-3.253375	-3.847014	352.8277	0	12.76	4004	1000	1000	1000	1000	0.02	-0.01588469	1	10	0.08	2800	344.9224	1E-06	1E-06
227389	26	110	-508	-3.253375	-3.847014	352.8277	0	12.76	4004	1000	1000	1000	1000	0.02	-0.01588469	1	10	0.08	2800	344.9224	1E-06	1E-06
227504	26	110	-508	-3.253375	-3.847014	352.8277	0	12.76	4004	1000	1000	1000	1000	0.02	-0.01588469	1	10	0.08	2800	344.9224	1E-06	1E-06
227587	26	110	-508	-3.253375	-3.847014	352.8277	0	12.76	4004	1000	1000	1000	1000	0.02	-0.01588469	1	10	0.08	2800	344.9224	1E-06	1E-06
227684	26	110	-508	-3.253375	-3.847014	352.8277	0	12.76	4004	1000	1000	1000	1000	0.02	-0.01588469	1	10	0.08	2800	344.9224	1E-06	1E-06
227778	26	110	-508	-3.253375	-3.847014	352.8277	0	12.76	4004	1000	1000	1000	1000	0.02	-0.01588469	1	10	0.08	2800	344.9224	1E-06	1E-06
227896	26	110	-508	-3.253375	-3.847014	352.8277	0	12.82	4004	1000	1000	1000	1000	0.02	-0.01588469	1	10	0.08	2800	344.9224	1E-06	1E-06
227982	26	110	-508	-3.253375	-3.847014	352.8277	0	12.82	4004	1000	1000	1000	1000	0.02	-0.01588469	1	10	0.08	2800	344.9224	1E-06	1E-06
228070	26	110	-508	-3.253375	-3.847014	352.8277	0	12.82	4004	1000	1000	1000	1000	0.02	-0.01588469	1	10	0.08	2800	344.9224	1E-06	1E-06
228196	26	110	-508	-3.253375	-3.847014	352.8277	0	12.82	4004	1000	1000	1000	1000	0.02	-0.01588469	1	10	0.08	2800	344.9224	1E-06	1E-06
228362	26	110	-508	-3.253375	-3.847014	352.8277	0	12.82	4004	1000	1000	1000	1000	0.02	-0.01588469	1	10	0.08	2800	344.9224	1E-06	1E-06
228425	26	110	-508	-3.253375	-3.847014	352.8277	0	12.82	4004	1000	1000	1000	1000	0.02	-0.01588469	1	10	0.08	2800	344.9224	1E-06	1E-06
228513	26	110	-508	-3.253375	-3.847014	352.8277	0	12.82	4004	1000	1000	1000	1000	0.02	-0.01588469	1	10	0.08	2800	344.9224	1E-06	1E-06
228617	26	110	-508	-3.253375	-3.847014	352.8277	0	12.82	4004	1000	1000	1000	1000	0.02	-0.01588469	1	10	0.08	2800	344.9224	1E-06	1E-06
228658	26	110	-508	-3.253375	-3.847014	352.8277	0	12.82	4004	1000	1000	1000	1000	0.02	-0.01588469	1	10	0.08	2800	344.9224	1E-06	1E-06
228823	26	110	-508	-3.253375	-3.847014	352.8277	0	12.82	4004	1000	1000	1000	1000	0.02	-0.01588469	1	10	0.08	2800	344.9224	1E-06	1E-06
228888	26	110	-508	-3.253375	-3.847014	352.8277	0	12.82	4004	1000	1000	1000	1000	0.02	-0.01588469	1	10	0.08	2800	344.9224	1E-06	1E-06
228952	26	110	-508	-3.253375	-3.847014	352.8277	0	12.82	4004	1000	1000	1000	1000	0.02	-0.01588469	1	10	0.08	2800	344.9224	1E-06	1E-06
229039	26	110	-508	-3.253375	-3.847014	352.8277	0	12.82	4004	1000	1000	1000	1000	0.02	-0.01588469	1	10	0.08	2800	344.9224	1E-06	1E-06
229145	26	110	-508	-3.253375	-3.847014	352.8277	0	12.82	4004	1000	1000	1000	1000	0.02	-0.01588469	1	10	0.08	2800	344.9224	1E-06	1E-06
229248	26	110	-508	-3.253375	-3.847014	352.8277	0	12.82	4004	1000	1000	1000	1000	0.02	-0.01588469	1	10	0.08	2800	344.9224	1E-06	1E-06
229345	26	110	-508	-3.253375	-3.847014	352.8277	0	12.82	4004	1000	1000	1000	1000	0.02	-0.01588469	1	10	0.08	2800	344.9224	1E-06	1E-06
229500	26	110	-508	-3.253375	-3.847014	352.8277	0	12.82	4004	1000	1000	1000	1000	0.02	-0.01588469	1	10	0.08	2800	344.9224	1E-06	1E-06
229600	26	110	-508	-3.253375	-3.847014	352.8277	0	12.82	4004	1000	1000	1000	1000	0.02	-0.01588469	1	10	0.08	2800	344.9224	1E-06	1E-06
229642	26	110	-508	-3.253375	-3.847014	352.8277	0	12.82	4004	1000	1000	1000	1000	0.02	-0.01588469	1	10	0.08	2800	344.9224	1E-06	1E-06
229798	26	110	-508	-3.253375	-3.847014	352.8277	0	12.82	4004	1000	1000	1000	1000	0.02	-0.01588469	1	10	0.08	2800	344.9224	1E-06	1E-06
229872	26	110	-508	-3.253375	-3.847014	352.8277	0	12.82	4004	1000	1000	1000	1000	0.02	-0.01588469	1	10	0.08	2800	344.9224	1E-06	1E-06
229989	26	110	-508	-3.253375	-3.847014	352.8277	0	12.82	4004	1000	1000	1000	1000	0.02	-0.01588469	1	10	0.08	2800	344.9224	1E-06	1E-06
230041	26	110	-508	-3.253375	-3.847014	352.8277	0	12.82	4004	1000	1000	1000	1000	0.02	-0.01588469	1	10	0.08	2800	344.9224	1E-06	1E-06
230128	26	110	-508	-3.253375	-3.847014	352.8277	0	12.82	4004	1000	1000	1000	1000	0.02	-0.01588469	1	10	0.08	2800	344.9224	1E-06	1E-06
230300	26	110	-508	-3.253375	-3.847014	352.8277	0	12.82	4004	1000	1000	1000	1000	0.02	-0.01588469	1	10	0.08	2800	344.9224	1E-06	1E-06
230333	26	110	-508	-3.253375	-3.847014	352.8277	0	12.82	4004	1000	1000	1000	1000	0.02	-0.01588469	1	10	0.08	2800	344.9224	1E-06	1E-06
230435	26	110	-508	-3.253375	-3.847014	352.8277	0	12.82	4004	1000	1000	1000	1000	0.02	-0.01588469	1	10	0.08	2800	344.9224	1E-06	1E-06
230536	26	110	-508	-3.253375	-3.847014	352.8277	0	12.82	4004	1000	1000	1000	1000	0.02	-0.01588469	1	10	0.08	2800	344.9224	1E-06	1E-06
230676	26	110	-508	-3.253375	-3.847014	352.8277	0	12.82	4004	1000	1000	1000	1000	0.02	-0.01588469	1	10	0.08	2800	344.9224	1E-06	1E-06
230768	26	110	-508	-3.253375	-3.847014	352.8277	0	12.82	4004	1000	1000	1000	1000	0.02	-0.01588469	1	10	0.08	2800	344.9224	1E-06	1E-06
230866	26	110	-508	-3.253375	-3.847014	352.8277	0	12.82	4004	1000	1000	1000	1000	0.02	-0.01588469	1	10	0.08	2800	344.9224	1E-06	1E-06
231011	26	110	-508	-3.253375	-3.847014	352.8277	0	12.82	4004	1000	1000	1000	1000	0.02	-0.01588469	1	10	0.08	2800	344.9224	1E-06	1E-06
231098	26	110	-508	-3.253375	-3.847014	352.8277	0	12.82	4004	1000	1000	1000	1000	0.02	-0.01588469	1	10	0.08	2800	344.9224	1E-06	1E-06
231174	26	110	-508	-3.253375	-3.847014	352.8277	0	12.82	4004	1000	1000	1000	1000	0.02	-0.01588469	1	10	0.08	2800	344.9224	1E-06	1E-06
231238	26	110	-508	-3.253375	-3.847014	352.8277	0	12.82	4004	1000	1000	1000	1000	0.02	-0.01588469	1	10	0.08	2800	344.9224	1E-06	1E-06
231349	26	110	-508	-3.253375	-3.847014	352.8277	0	12.82	4004	1000	1000	1000	1000	0.02	-0.01588469	1	10	0.08	2800	344.9224	1E-06	1E-06
231422	26	110	-508	-3.253375	-3.847014	352.8277	0	12.82	4004	1000	1000	1000	1000	0.02	-0.01588469	1	10	0.08	2800	344.9224	1E-06	1E-06
231506	26	110	-508	-3.253375	-3.847014	352.8277	0	12.82	4004	1000	1000	1000	1000	0.02	-0.01588469	1	10	0.08	2800	344.9224	1E-06	1E-06
231607	26	110	-508	-3.253375	-3.847014	352.8277	0	12.82	4004	1000	1000	1000	1000	0.02	-0.01588469	1	10	0.08	2800	344.9224	1E-06	1E-06
231693	26	110	-508	-3.253375	-3.847014	352.8277	0	12.82	4004	1000	1000	1000	1000	0.02	-0.01588469	1	10	0.08	2800	344.9224	1E-06	1E-06
231797	26	110	-508	-3.253375	-3.847014	352.8277	0	12.82	4004	1000	1000	1000	1000	0.02	-0.01588469	1	10	0.08	2800	344.9224	1E-06	1E-06
231888	1	0	-1	1.148448	-4.812292	358.0895	0	12.82	4003	1000	1000	1000	1000	0.02	-0.01626343	1	10	0.08	2800	358.0898	1E-06	1E-06
231965	1	-2	0	0.820052	-4.622075	358.0886	0	12.82	4004	1000	1000	1000	1000	0.02	-0.01709512	1	10	0.08	2800	356.6271	1E-06	1E-06
232168	-1	-5	-1	0.2174281	-4.270979	358.0862	0	12.82	4003	1000	1000	1000	1000	0.02	-0.02671593	1	10	0.08	2800	355.9923	1E-06	1E-06
232221	2	-7	-2	0.1224199	-4.214929	358.0864	0	12.82	4002	1000	1000	1000	1000	0.02	-0.02744237	1	10	0.08	2800	355.9923	1E-06	1E-06
232371	-1	-1	0	-0.3260738	-3.955889	358.0855	0	12.82	4004	1000	1000	1000	1000	0.02	-0.02424269	1	10	0.08	2800	353.5554	1E-06	1E-06
232552	-4	1	-2	-0.8109893	-3.675747	358.0809	0	12.82	4004	1000	1000	1000	1000	0.02	-0.01477646	1	10	0.08	2800	352.1344	1E-06	1E-06
232616	-8	-5	4	-0.9609975	-3.588707	358.0798	0	12.82	4002	1000	1000	1000	1000	0.02	-0.006705259	1	10	0.08	2800	352.01	1E-06	1E-06
232706	0	0	2	-1.1058	-3.505841	358.0784	0	12.82	4002	1000	1000	1000	1000	0.02	-0.001664884	1	10	0.08	2800	351.5096	1E-06	1E-06
232759	1	1	0	-1.313317	-3.385669	358.0766	0	12.82	4004	1000	1000	1000	1000	0.02	-0.001362518	1	10	0.08	2800	351.4689	1E-06	1E-06
232848	0	0	3	-1.444377	-3.308209	358.0766	0	12.82	4003	1000	1000	1000	1000	0.02	-0.0008489261	1	10	0.08	2800	350.5377	1E-06	1E-06
232962	-1	-5	1	-1.636882	-3.199448	358.0758	0	12.82	4004	1000	1000	1000	1000	0.02	-0.000905318	1	10	0.08	2800	350.4472	1E-06	1E-06
233084	2	-2	0	-1.871822	-3.061553	358.0727	0	12.82	4002	1000	1000	1000	1000	0.02	-0.01323351	1	10	0.08	2800	349.4235	1E-06	1E-06
233134	-2	-3	0	-1.985344	-2.994697	358.0721	0	12.82	4002	1000	1000	1000	1000	0.02	-0.01432028	1	10	0.08	2800	348.8871	1E-06	1E-06
233332	0	2	-1	-2.29578	-2.813063	358.0702	0	12.82	4004	1000	1000	1000	1000	0.02	-0.03023024	1	10	0.08	2800	348.3399	1E-06	1E-06
233386	3	-2	0	-2.395141	-2.756995	358.0701	0	12.82	4003	1000	1000	1000	1000	0.02	-0.03010626	1	10	0.08	2800	348.1191	1E-06	1E-06
233465	2	-4	4	-2.490703	-2.702087	347.3223	0	12.82	4004	1000	1000	1000	1000	0.02	-0.02970094	1	10	0.08	2800	347.3227	1E-06	1E-06
233596	-2	-4	1	-2.71821	-2.571078	347.3204	0	12.82	4002	1000	1000	1000	1000	0.02	-0.03133382	1	10	0.08	2800	347.1662	1E-06	1E-06
233655	1	-3	-1	-2.761065	-2.545522	347.3201	0	12.82	4003	1000	1000	1000	1000	0.02	-0.03316103	1	10	0.08	2800	346.7136	1E-06	1E-06
233721	-1	-2	0	-2.843615	-2.496514	347.3199	0	12.82	4002	1000	1000	1000	1000	0.02	-0.03355969	1	10	0.08	2800	347.0169	1E-06	1E-06
233824	0	6	3	-3.000311	-2.407248	347.3192	0	12.82	4004	1000	1000	1000	1000	0.02	-0.03425568	1	10	0.08	2800	345.9898	1E-06	1E-06
233986	0	-2	0	-3.149031	-2.322051	347.3169	0	12.82	4003	1000	1000	1000	1000	0.02	-0.03088984	1	10	0.08	2800	346.108	1E-06	1E-06
234033	-2	-6	0	-3.216253	-2.283581	347.317	0	12.82	4004	1000	1000	1000	1000	0.02	-0.03200724	1	10	0.08	2800	345.9719	1E-06	1E-06
234165	0	-6	5	-3.315095	-2.228936	347.315	0	12.76	4002	1000	1000	1000	1000	0.02	-0.04529403	1	10	0.08	2800	345.6552	1E-06	1E-06
234280	-6	1	0	-3.408008	-2.175185	347.3136	0	12.76	4003	1000	1000	1000	1000	0.02	-0.05305948	1	10	0.08	2800	346.0294	1E-06	1E-06
234386	0	3	-1	-3.524042	-2.109689	347.3114	0	12.76	4002	1000	1000	1000	1000	0.02	-0.06145101	1	10	0.08	2800	345.7034	1E-06	1E-06
234451	-5	-1	1	-3.579304	-2.078443	347.3102	0	12.76	4002	1000	1000	1000	1000	0.02	-0.06325841	1	10	0.08	2800	345.3563	1E-06	1E-06
234530	-1	-1	1	-3.660581	-2.030299	347.3075	0	12.76	4003	1000	1000	1000	1000	0.02	-0.07359699	1	10	0.08	2800	345.1412	1E-06	1E-06
234650	-1	2	0	-3.73701	-1.987727	347.3051	0	12.76	4004	1000	1000	1000	1000	0.02	-0.07712954	1	10	0.08	2800	344.401	1E-06	1E-06
234769	-1	-2	4	-3.829522	-1.931313	347.3026	0	12.76	4003	1000	1000	1000	1000	0.02	-0.07890415	1	10	0.08	2800	344.559	1E-06	1E-06
234876	-6	0	0	-3.896892	-1.891324	347.3009	0	12.76	4003	1000	1000	1000	1000	0.02	-0.07546494	1	10	0.08	2800	344.788	1E-06	1E-06
235037	0	0	2	-3.998883	-1.831466	347.299	0	12.76	4002	1000	1000	1000	1000	0.02	-0.0678039	1	10	0.08	2800	343.7745	1E-06	1E-06
235145	0	0	0	-4.073101	-1.786837	347.2975	0	12.82	4003	1000	1000	1000	1000	0.02	-0.06028941	1	10	0.08	2800	343.9357	1E-06	1E-06
235218	1	0	0	-4.106956	-1.767159	347.2968	0	12.82	4004	1000	1000	1000	1000	0.02	-0.05541696	1	10	0.08	2800	343.9357	1E-06	1E-06
235357	1	-5	4	-4.158053	-1.74112	347.2946	0	12.82	4003	1000	1000	1000	1000	0.02	-0.05066881	1	10	0.08	2800	343.987	1E-06	1E-06
235416	0	0	5	-4.208272	-1.713917	347.2916	0	12.82	4003	1000	1000	1000	1000	0.02	-0.04638803	1	10	0.08	2800	344.3983	1E-06	1E-06
235598	0	-5	-1	-4.30128	-1.662138	347.2899	0	12.82	4003	1000	1000	1000	1000	0.02	-0.04055801	1	10	0.08	2800	343.7407	1E-06	1E-06
235637	2	-4	2	-4.315977	-1.653467	347.2899	0	12.82	4004	1000	1000	1000	1000	0.02	-0.03804668	1	10	0.08	2800	343.6349	1E-06	1E-06
235698	5	-1	6	-4.330009	-1.6468	347.289	0	12.82	4003	1000	1000	1000	1000	0.02	-0.0380632	1	10	0.08	2800	343.6349	1E-06	1E-06
235933	2	-4	3	-4.431991	-1.585897	347.2857	0	12.82	4004	1000	1000	1000	1000	0.02	-0.03751133	1	10	0.08	2800	343.2084	1E-06	1E-06
236028	-1	2	-4	-4.46763	-1.567758	347.2847	0	12.82	4003	1000	1000	1000	1000	0.02	-0.03564893	1	10	0.08	2800	343.4854	1E-06	1E-06
236143	5	-2	4	-4.489187	-1.55973	347.284	0	12.82	4002	1000	1000	1000	1000	0.02	-0.02833442	1	10	0.08	2800	343.2655	1E-06	1E-06
236267	-2	1	2	-4.539838	-1.530703	347.2818	0	12.82	4003	1000	1000	1000	1000	0.02	-0.02073506	1	10	0.08	2800	343.4465	1E-06	1E-06
236362	1	-4	-1	-4.570231	-1.510298	347.2809	0	12.82	4004	1000	1000	1000	1000	0.02	-0.02063097	1	10	0.08	2800	343.4506	1E-06	1E-06
236401	0	3	0	-4.57991	-1.505379	347.28	0	12.82	4004	1000	1000	1000	1000	0.02	-0.02142121	1	10	0.08	2800	343.2144	1E-06	1E-06
236502	-9	-1	2	-4.617397	-1.483223	347.2786	0	12.82	4003	1000	1000	1000	1000	0.02	-0.02010861	1	10	0.08	2800	342.8124	1E-06	1E-06
236645	0	0	0	-4.642192	-1.464343	347.2767	0	12.82	4004	1000	1000	1000	1000	0.02	-0.01509977	1	10	0.08	2800	342.5959	1E-06	1E-06
236709	2	-6	-3	-4.658576	-1.453561	347.276	0	12.82	4003	1000	1000	1000	1000	0.02	-0.01243355	1	10	0.08	2800	343.5403	1E-06	1E-06
236826	-2	-3	1	-4.686419	-1.435281	347.2727	0	12.82	4003	1000	1000	1000	1000	0.02	-0.00145247	1	10	0.08	2800	342.5466	1E-06	1E-06
236913	-2	5	-2	-4.709546	-1.423415	347.2723	0	12.82	4002	1000	1000	1000	1000	0.02	0.009489376	1	10	0.08	2800	342.7451	1E-06	1E-06
237071	-1	0	1	-4.731515	-1.40377	347.2716	0	12.82	4003	1000	1000	1000	1000	0.02	0.02436271	1	10	0.08	2800	342.7015	1E-06	1E-06
237175	-2	0	2	-4.753321	-1.389068	347.2716	0	12.82	4004	1000	1000	1000	1000	0.02	0.02994583	1	10	0.08	2800	342.8421	1E-06	1E-06
237202	0	-3	-3	-4.760561	-1.38606	347.2719	0	12.82	4003	1000	1000	1000	1000	0.02	0.03113963	1	10	0.08	2800	342.8421	1E-06	1E-06
237314	2	2	0	-4.776351	-1.376636	347.2704	0	12.82	4004	1000	1000	1000	1000	0.02	0.0305209	1	10	0.08	2800	342.5197	1E-06	1E-06
237460	0	1	2	-4.793896	-1.359421	347.2701	0	12.82	4002	1000	1000	1000	1000	0.02	0.03965359	1	10	0.08	2800	342.7243	1E-06	1E-06
237555	-6	-3	1	-4.811414	-1.355734	347.2682	0	12.82	4004	1000	1000	1000	1000	0.02	0.03997409	1	10	0.08	2800	343.0541	1E-06	1E-06
237641	-1	1	0	-4.822413	-1.350233	347.2685	0	12.82	4004	1000	1000	1000	1000	0.02	0.03520822	1	10	0.08	2800	342.8117	1E-06	1E-06
237705	1	-2	4	-4.837151	-1.34294	347.2666	0	12.82	4002	1000	1000	1000	1000	0.02	0.02966237	1	10	0.08	2800	342.6441	1E-06	1E-06
237828	2	1	1	-4.85088	-1.334434	347.2649	0	12.82	4003	1000	1000	1000	1000	0.02	0.02491498	1	10	0.08	2800	342.6931	1E-06	1E-06
237945	-2	-4	-2	-4.867466	-1.325493	347.2646	0	12.82	4002	1000	1000	1000	1000	0.02	0.02650323	1	10	0.08	2800	342.1094	1E-06	1E-06
238061	-1	-4	2	-4.882198	-1.317036	347.2632	0	12.82	4004	1000	1000	1000	1000	0.02	0.03462043	1	10	0.08	2800	342.6271	1E-06	1E-06
238080	-1	-4	2	-4.882198	-1.317036	347.2632	0	12.82	4004	1000	1000	1000	1000	0.02	0.03590692	1	10	0.08	2800	342.6271	1E-06	1E-06
238186	3	0	4	-4.897766	-1.306538	347.2615	0	12.82	4004	1000	1000	1000	1000	0.02	0.03283269	1	10	0.08	2800	342.464	1E-06	1E-06
238312	1	-11	0	-4.915598	-1.298587	347.2606	0	12.82	4003	1000	1000	1000	1000	0.02	0.0206011	1	10	0.08	2800	342.6127	1E-06	1E-06
238356	2	-3	0	-4.918818	-1.296805	347.2606	0	12.82	4002	1000	1000	1000	1000	0.02	0.01584734	1	10	0.08	2800	342.6127	1E-06	1E-06
238481	-2	-1	2	-4.92771	-1.290937	347.2585	0	12.82	4004	1000	1000	1000	1000	0.02	0.01622923	1	10	0.08	2800	342.2242	1E-06	1E-06
238563	1	-1	1	-4.935355	-1.285455	347.2572	0	12.82	4003	1000	1000	1000	1000	0.02	0.0179719	1	10	0.08	2800	342.2108	1E-06	1E-06
238690	-1	1	-2	-4.940632	-1.283384	347.2565	0	12.82	4003	1000	1000	1000	1000	0.02	0.0268117	1	10	0.08	2800	342.3263	1E-06	1E-06
238802	-1	0	0	-4.953926	-1.281388	347.2529	0	12.82	4002	1000	1000	1000	1000	0.02	0.03303277	1	10	0.08	2800	342.4264	1E-06	1E-06
238849	0	-2	-1	-4.960439	-1.278781	347.2519	0	12.82	4002	1000	1000	1000	1000	0.02	0.03377532	1	10	0.08	2800	342.2805	1E-06	1E-06
238952	0	2	-3	-4.970427	-1.273006	347.2508	0	12.82	4004	1000	1000	1000	1000	0.02	0.04058984	1	10	0.08	2800	341.9986	1E-06	1E-06
239133	-1	3	3	-4.983087	-1.267109	347.2499	0	12.82	4002	1000	1000	1000	1000	0.02	0.05224658	1	10	0.08	2800	342.2397	1E-06	1E-06
239198	-1	-2	4	-4.987025	-1.262783	347.2472	0	12.82	4003	1000	1000	1000	1000	0.02	0.05370404	1	10	0.08	2800	342.0993	1E-06	1E-06
239267	0	-7	0	-4.991045	-1.259226	347.2483	0	12.82	4003	1000	1000	1000	1000	0.02	0.0565939	1	10	0.08	2800	342.1367	1E-06	1E-06
239390	1	-6	0	-4.996325	-1.253724	347.2457	0	12.82	4003	1000	1000	1000	1000	0.02	0.06010795	1	10	0.08	2800	341.9453	1E-06	1E-06
239442	6	6	5	-4.998339	-1.252025	347.2458	0	12.82	4002	1000	1000	1000	1000	0.02	0.06403241	1	10	0.08	2800	341.9453	1E-06	1E-06
239547	-2	1	3	-5.008724	-1.252544	347.2433	0	12.82	4002	1000	1000	1000	1000	0.02	0.06736067	1	10	0.08	2800	342.7417	1E-06	1E-06
239712	0	-2	3	-5.016233	-1.244498	347.2453	0	12.82	4004	1000	1000	1000	1000	0.02	0.07250305	1	10	0.08	2800	342.1753	1E-06	1E-06
239752	3	0	-1	-5.015481	-1.243956	347.2455	0	12.82	4004	1000	1000	1000	1000	0.02	0.07206292	1	10	0.08	2800	342.1753	1E-06	1E-06
239875	0	-3	2	-5.021621	-1.237815	347.2453	0	12.82	4004	1000	1000	1000	1000	0.02	0.0725506	1	10	0.08	2800	342.0334	1E-06	1E-06
239949	1	0	-1	-5.021987	-1.233991	347.2439	0	12.82	4003	1000	1000	1000	1000	0.02	0.07205699	1	10	0.08	2800	342.349	1E-06	1E-06
240075	0	3	0	-5.023468	-1.234701	347.2433	0	12.82	4003	1000	1000	1000	1000	0.02	0.06411209	1	10	0.08	2800	341.9939	1E-06	1E-06
240142	2	0	1	-5.024776	-1.232073	347.2412	0	12.82	4003	1000	1000	1000	1000	0.02	0.05547778	1	10	0.08	2800	342.5319	1E-06	1E-06
240260	-1	4	3	-5.030344	-1.237048	347.2392	0	12.82	4004	1000	1000	1000	1000	0.02	0.04631515	1	10	0.08	2800	342.56	1E-06	1E-06
240439	-5	-3	3	-5.037324	-1.232272	347.2382	0	12.82	4002	1000	1000	1000	1000	0.02	0.03199616	1	10	0.08	2800	342.1048	1E-06	1E-06
240571	-2	0	0	-5.043298	-1.228829	347.2378	0	12.82	4002	1000	1000	1000	1000	0.02	0.01920708	1	10	0.08	2800	341.9507	1E-06	1E-06
240671	0	1	-2	-5.045721	-1.229503	347.2369	0	12.82	4004	1000	1000	1000	1000	0.02	0.004753194	1	10	0.08	2800	342.254	1E-06	1E-06
240789	0	0	0	-5.048174	-1.225009	347.2357	0	12.82	4002	1000	1000	1000	1000	0.02	0.005991614	1	10	0.08	2800	342.4843	1E-06	1E-06
240859	0	-1	1	-5.049259	-1.227481	347.2349	0	12.82	4003	1000	1000	1000	1000	0.02	0.009968922	1	10	0.08	2800	342.1631	1E-06	1E-06
240983	1	-4	0	-5.051547	-1.223703	347.232	0	12.82	4003	1000	1000	1000	1000	0.02	0.02199029	1	10	0.08	2800	342.0278	1E-06	1E-06
241068	-2	-1	2	-5.052825	-1.221389	347.2292	0	12.82	4002	1000	1000	1000	1000	0.02	0.02929835	1	10	0.08	2800	342.0691	1E-06	1E-06
241207	-5	-6	7	-5.056647	-1.222034	347.2256	0	12.82	4004	1000	1000	1000	1000	0.02	0.05541332	1	10	0.08	2800	342.1895	1E-06	1E-06
241240	0	-2	0	-5.058729	-1.220145	347.2251	0	12.82	4002	1000	1000	1000	1000	0.02	0.07044426	1	10	0.08	2800	342.1895	1E-06	1E-06
241337	-1	0	0	-5.065945	-1.214925	347.2238	0	12.82	4004	1000	1000	1000	1000	0.02	0.08712054	1	10	0.08	2800	342.4978	1E-06	1E-06
241399	0	0	-1	-5.06567	-1.214694	347.2236	0	12.82	4003	1000	1000	1000	1000	0.02	0.09958254	1	10	0.08	2800	342.4978	1E-06	1E-06
241564	-1	-1	-1	-5.069972	-1.210849	347.2224	0	12.82	4002	1000	1000	1000	1000	0.02	0.1207067	1	10	0.08	2800	341.993	1E-06	1E-06
241668	0	5	-3	-5.068875	-1.211051	347.2223	0	12.82	4004	1000	1000	1000	1000	0.02	0.1289095	1	10	0.08	2800	342.1728	1E-06	1E-06
241684	0	3	0	-5.069727	-1.210161	347.221	0	12.82	4004	1000	1000	1000	1000	0.02	0.1289095	1	10	0.08	2800	342.1728	40.92292	-91.39378
241806	0	-3	-1	-5.06994	-1.210137	347.2195	0	12.82	4003	1000	1000	1000	1000	0.02	0.1334819	1	10	0.08	2800	342.2576	40.92292	-91.39378
241924	2	-5	-1	-5.07387	-1.210474	347.2189	0	12.82	4004	1000	1000	1000	1000	0.02	0.1407374	1	10	0.08	2800	342.4767	40.92292	-91.39378
241989	0	-2	0	-5.074241	-1.208742	347.2168	0	12.82	4003	1000	1000	1000	1000	0.02	0.1510202	1	10	0.08	2800	342.7881	40.92292	-91.39378
242102	2	-3	0	-5.074947	-1.210398	347.2163	0	12.82	4004	1000	1000	1000	1000	0.02	0.1611867	1	10	0.08	2800	342.206	40.92292	-91.39378
242159	0	0	0	-5.0741	-1.209292	347.2165	0	12.82	4004	1000	1000	1000	1000	0.02	0.1680728	1	10	0.08	2800	342.206	40.92292	-91.39378
242268	0	0	0	-5.074627	-1.206022	347.2144	0	12.82	4003	1000	1000	1000	1000	0.02	0.1688116	1	10	0.08	2800	342.114	40.92292	-91.39378
242440	1	-3	-1	-5.07622	-1.20606	347.2139	0	12.82	4003	1000	1000	1000	1000	0.02	0.1565463	1	10	0.08	2800	342.2932	40.92292	-91.39378
242479	0	0	-1	-5.0776	-1.208072	347.213	0	12.82	4003	1000	1000	1000	1000	0.02	0.1547102	1	10	0.08	2800	342.5125	40.92292	-91.39378
242584	3	2	-2	-5.079544	-1.207582	347.2127	0	12.82	4003	1000	1000	1000	1000	0.02	0.1531416	1	10	0.08	2800	342.5057	40.92292	-91.39378
242745	0	3	-2	-5.081362	-1.214129	347.2104	0	12.82	4003	1000	1000	1000	1000	0.02	0.156937	1	10	0.08	2800	342.4539	40.92292	-91.39378
242810	-3	-1	6	-5.07829	-1.216174	347.2085	0	12.82	4002	1000	1000	1000	1000	0.02	0.1599225	1	10	0.08	2800	342.1387	40.92292	-91.39378
242929	-1	0	0	-5.080393	-1.21458	347.2063	0	12.82	4002	1000	1000	1000	1000	0.02	0.1564044	1	10	0.08	2800	342.0534	40.92292	-91.39378
242980	-1	2	2	-5.079471	-1.215501	347.206	0	12.82	4004	1000	1000	1000	1000	0.02	0.1564424	1	10	0.08	2800	341.8686	40.92292	-91.39378
243044	-4	4	3	-5.079643	-1.215376	347.2052	0	12.82	4003	1000	1000	1000	1000	0.02	0.1507053	1	10	0.08	2800	341.6901	40.92292	-91.39378
243205	0	0	0	-5.081992	-1.216118	347.2035	0	12.82	4003	1000	1000	1000	1000	0.02	0.1400961	1	10	0.08	2800	342.408	40.92292	-91.39378
243310	-1	-4	0	-5.079071	-1.214296	347.2014	0	12.82	4002	1000	1000	1000	1000	0.02	0.1449107	1	10	0.08	2800	342.0059	40.92292	-91.39378
243442	0	0	0	-5.080184	-1.217	347.2001	0	12.82	4004	1000	1000	1000	1000	0.02	0.1540136	1	10	0.08	2800	342.2359	40.92292	-91.39378
243600	0	0	0	-5.080297	-1.213012	347.1995	0	12.82	4004	1000	1000	1000	1000	0.02	0.1780541	1	10	0.08	2800	341.999	40.92292	-91.39378
243678	0	1	2	-5.08095	-1.213271	347.1996	0	12.82	4003	1000	1000	1000	1000	0.02	0.194098	1	10	0.08	2800	341.9129	40.92292	-91.39378
243750	4	-1	2	-5.080868	-1.212772	347.1993	0	12.82	4002	1000	1000	1000	1000	0.02	0.1976163	1	10	0.08	2800	342.2267	40.92292	-91.39378
243854	0	-3	0	-5.080407	-1.212218	347.1969	0	12.82	4003	1000	1000	1000	1000	0.02	0.1887516	1	10	0.08	2800	341.6907	40.92292	-91.39378
243885	-3	-2	-5	-5.082488	-1.210243	347.1972	0	12.82	4002	1000	1000	1000	1000	0.02	0.1807708	1	10	0.08	2800	341.6907	40.92292	-91.39378
244004	0	2	5	-5.083893	-1.206171	347.1966	0	12.76	4002	1000	1000	1000	1000	0.02	0.165135	1	10	0.08	2800	342.6765	40.92292	-91.39378
244089	-1	-2	3	-5.08674	-1.206971	347.1966	0	12.76	4003	1000	1000	1000	1000	0.02	0.1387894	1	10	0.08	2800	341.8215	40.92292	-91.39378
244191	-2	3	-3	-5.084873	-1.205949	347.1972	0	12.76	4003	1000	1000	1000	1000	0.02	0.1180114	1	10	0.08	2800	342.5412	40.92292	-91.39378
244349	-3	6	0	-5.081821	-1.205566	347.1954	0	12.76	4003	1000	1000	1000	1000	0.02	0.08979077	1	10	0.08	2800	342.1447	40.92292	-91.39378
244421	3	-2	4	-5.084205	-1.205801	347.1941	0	12.76	4004	1000	1000	1000	1000	0.02	0.0754066	1	10	0.08	2800	342.2699	40.92292	-91.39377
244509	0	-1	-2	-5.084203	-1.207188	347.1936	0	12.76	4004	1000	1000	1000	1000	0.02	0.06597055	1	10	0.08	2800	341.6883	40.92292	-91.39377
244647	-3	-2	1	-5.083704	-1.202937	347.1884	0	12.76	4002	1000	1000	1000	1000	0.02	0.03916535	1	10	0.08	2800	341.6909	40.92292	-91.39377
244699	-2	-5	1	-5.084112	-1.200834	347.1881	0	12.76	4004	1000	1000	1000	1000	0.02	0.03301711	1	10	0.08	2800	342.0963	40.92292	-91.39377
244809	1	-1	-2	-5.084036	-1.202019	347.1869	0	12.76	4004	1000	1000	1000	1000	0.02	0.02856877	1	10	0.08	2800	342.2301	40.92292	-91.39377
244894	0	-5	1	-5.085182	-1.201538	347.1858	0	12.82	4002	1000	1000	1000	1000	0.02	0.01797646	1	10	0.08	2800	342.1388	40.92292	-91.39377
244992	-1	2	-1	-5.084473	-1.202527	347.1847	0	12.82	4003	1000	1000	1000	1000	0.02	0.01902155	1	10	0.08	2800	342.3965	40.92292	-91.39377
245101	-5	1	-5	-5.082057	-1.205941	347.184	0	12.82	4004	1000	1000	1000	1000	0.02	0.02981674	1	10	0.08	2800	341.9162	40.92292	-91.39377
245157	0	0	1	-5.078518	-1.210454	347.1841	0	12.82	4004	1000	1000	1000	1000	0.02	0.0336335	1	10	0.08	2800	341.9614	40.92292	-91.39377
245254	0	6	1	-5.081051	-1.211757	347.1833	0	12.82	4004	1000	1000	1000	1000	0.02	0.03655839	1	10	0.08	2800	342.2836	40.92292	-91.39377
245307	-2	2	1	-5.079637	-1.21303	347.184	0	12.82	4004	1000	1000	1000	1000	0.02	0.04479414	1	10	0.08	2800	342.1432	40.92292	-91.39377
245404	-1	-1	-1	-5.076779	-1.210223	347.184	0	12.82	4003	1000	1000	1000	1000	0.02	0.04852071	1	10	0.08	2800	342.4215	40.92292	-91.39377
245512	0	-1	5	-5.074749	-1.210254	347.1814	0	12.82	4003	1000	1000	1000	1000	0.02	0.04766678	1	10	0.08	2800	342.1507	40.92292	-91.39376
245618	3	2	0	-5.073639	-1.211293	347.1805	0	12.82	4004	1000	1000	1000	1000	0.02	0.05054435	1	10	0.08	2800	341.9753	40.92292	-91.39376
245684	0	1	0	-5.07209	-1.213196	347.1809	0	12.82	4004	1000	1000	1000	1000	0.02	0.05785166	1	10	0.08	2800	341.8424	40.92292	-91.39376
245827	2	-1	-1	-5.065523	-1.218494	347.1813	0	12.82	4003	1000	1000	1000	1000	0.02	0.07909036	1	10	0.08	2800	342.1648	40.92292	-91.39376
245959	-2	0	-3	-5.062639	-1.214368	347.1795	0	12.82	4002	1000	1000	1000	1000	0.02	0.1055271	1	10	0.08	2800	342.3164	40.92292	-91.39375
245999	-2	1	4	-5.064907	-1.214704	347.1787	0	12.82	4003	1000	1000	1000	1000	0.02	0.1081511	1	10	0.08	2800	342.0456	40.92292	-91.39375
246138	0	0	1	-5.06759	-1.216679	347.1785	0	12.82	4004	1000	1000	1000	1000	0.02	0.1268336	1	10	0.08	2800	342.1214	40.92292	-91.39375
246195	-6	-1	0	-5.068386	-1.216228	347.1771	0	12.82	4002	1000	1000	1000	1000	0.02	0.1292263	1	10	0.08	2800	341.6768	40.92292	-91.39375
246390	1	0	3	-5.065312	-1.215737	347.1756	0	12.82	4002	1000	1000	1000	1000	0.02	0.1468784	1	10	0.08	2800	342.3916	40.92292	-91.39375
246412	2	4	-3	-5.063898	-1.219231	347.1738	0	12.82	4004	1000	1000	1000	1000	0.02	0.1453473	1	10	0.08	2800	342.3477	40.92291	-91.39375
246458	3	-1	-1	-5.064162	-1.218622	347.1743	0	12.82	4003	1000	1000	1000	1000	0.02	0.1482712	1	10	0.08	2800	342.3477	40.92291	-91.39375
246573	2	0	-2	-5.060422	-1.220208	347.172	0	12.82	4004	1000	1000	1000	1000	0.02	0.1534883	1	10	0.08	2800	342.4558	40.92291	-91.39374
246656	2	1	-7	-5.059824	-1.220431	347.1708	0	12.82	4003	1000	1000	1000	1000	0.02	0.1530465	1	10	0.08	2800	342.4558	40.92291	-91.39374
246835	-1	-3	-2	-5.059305	-1.221095	347.1714	0	12.82	4003	1000	1000	1000	1000	0.02	0.138363	1	10	0.08	2800	342.1785	40.92396	-91.39366
246887	-1	3	1	-5.060384	-1.224111	347.1709	0	12.82	4004	1000	1000	1000	1000	0.02	0.1357797	1	10	0.08	2800	341.8614	40.92396	-91.39366
247002	0	1	-2	-5.063328	-1.22005	347.1683	0	12.82	4004	1000	1000	1000	1000	0.02	0.1319619	1	10	0.08	2800	342.3624	40.92396	-91.39365
247099	-2	0	0	-5.06366	-1.218568	347.1661	0	12.82	4003	1000	1000	1000	1000	0.02	0.1317156	1	10	0.08	2800	342.224	40.92395	-91.39365
247157	2	-5	5	-5.06208	-1.218485	347.1657	0	12.82	4003	1000	1000	1000	1000	0.02	0.1331337	1	10	0.08	2800	342.2218	40.92395	-91.39365
247228	1	0	-1	-5.061517	-1.220403	347.1654	0	12.82	4004	1000	1000	1000	1000	0.02	0.1356923	1	10	0.08	2800	342.8712	40.92395	-91.39365
247334	2	-4	0	-5.059629	-1.21945	347.1655	0	12.82	4003	1000	1000	1000	1000	0.02	0.1354403	1	10	0.08	2800	341.7311	40.92395	-91.39365
247460	4	4	0	-5.057161	-1.219873	347.1657	0	12.82	4003	1000	1000	1000	1000	0.02	0.141516	1	10	0.08	2800	342.0589	40.92395	-91.39365
247565	0	-1	0	-5.058861	-1.218957	347.1651	0	12.82	4002	1000	1000	1000	1000	0.02	0.1465264	1	10	0.08	2800	342.0965	40.92395	-91.39365
247632	-3	2	1	-5.061687	-1.216279	347.1628	0	12.82	4004	1000	1000	1000	1000	0.02	0.1438667	1	10	0.08	2800	342.3138	40.92395	-91.39365
247742	4	-7	1	-5.062604	-1.215836	347.1622	0	12.82	4004	1000	1000	1000	1000	0.02	0.1434319	1	10	0.08	2800	342.0039	40.92395	-91.39365
247867	-1	3	1	-5.061121	-1.216637	347.1593	0	12.82	4003	1000	1000	1000	1000	0.02	0.1422227	1	10	0.08	2800	341.9571	40.92395	-91.39365
247971	-3	5	-3	-5.06263	-1.21376	347.1586	0	12.82	4004	1000	1000	1000	1000	0.02	0.137513	1	10	0.08	2800	342.1836	40.92395	-91.39365
248023	3	-2	1	-5.060395	-1.210422	347.1584	0	12.82	4003	1000	1000	1000	1000	0.02	0.1351058	1	10	0.08	2800	341.822	40.92395	-91.39365
