time(ms)	gyro_x(deg/s)	gyro_y(deg/s)	gyro_z(deg/s)	orientation_roll(deg)	orientation_pitch(deg)	orientation_yaw(deg)	throttle	battery(V)	loop_time(uS)	pid_output_roll	pid_output_pitch	pid_output_yaw	pid_output_throttle	ultrasonic_alt	baro_alt	flight_mode	p_gain_altitude	i_gain_altitude	d_gain_altitude	compass_heading	latitude	longitude
30771	10	4	9	-4.8325	-1.209174	345.3759	0	12.7	4002	1000	1000	1000	1000	0.02	-0.0008571471	3	10	0.08	2800	342.8948	40.92395	-91.39367
30864	6	7	-5	-4.845659	-1.202104	345.375	0	12.7	4004	1000	1000	1000	1000	0.02	0.004469976	3	10	0.08	2800	342.3452	40.92395	-91.39367
30976	3	5	7	-4.853986	-1.194735	345.376	0	12.7	4003	1000	1000	1000	1000	0.02	0.01408243	3	10	0.08	2800	342.5633	40.92395	-91.39367
31103	17	1	4	-4.864542	-1.190581	345.378	0	12.7	4002	1000	1000	1000	1000	0.02	0.02863196	3	10	0.08	2800	342.0526	40.92395	-91.39367
31189	4	2	-2	-4.873516	-1.186099	345.3774	0	12.7	4004	1000	1000	1000	1000	0.02	0.03483785	3	10	0.08	2800	342.5603	40.92395	-91.39367
31253	4	-6	-5	-4.879895	-1.180397	345.3791	0	12.65	4003	1000	1000	1000	1000	0.02	0.04363893	3	10	0.08	2800	342.7656	40.92395	-91.39367
31344	2	0	0	-4.885682	-1.176324	345.379	0	12.65	4002	1000	1000	1000	1000	0.02	0.04943779	3	10	0.08	2800	342.3787	40.92395	-91.39367
31471	3	3	5	-4.892518	-1.171704	345.3792	0	12.65	4004	1079	1011	997	1065	0.02	0.05919736	3	10	0.08	2800	342.3225	40.92395	-91.39367
31558	2	0	-21	-4.893853	-1.168931	345.3831	0	12.65	4003	1120	1036	1018	1102	0.02	0.05941438	3	10	0.08	2800	342.8649	40.92395	-91.39367
31647	15	3	101	-4.906706	-1.162573	345.3814	0	12.65	4003	1138	1034	1012	1116	0.02	0.06296763	3	10	0.08	2800	342.5533	40.92395	-91.39367
31823	-7	66	-16	-4.914602	-1.157203	345.3929	0	12.65	4003	1195	1057	1015	1153	0.02	0.06869729	3	10	0.08	2800	341.3123	40.92395	-91.39367
31910	47	-25	15	-4.904992	-1.148284	345.3977	0	12.65	4003	1194	1054	1026	1166	0.02	0.06756879	3	10	0.08	2800	341.9286	40.92395	-91.39367
32028	-28	-2	-7	-4.90132	-1.152956	345.4034	0	12.65	4003	1225	1047	1033	1211	0.02	0.06790277	3	10	0.08	2800	341.7424	40.92395	-91.39367
32186	43	21	-55	-4.924614	-1.150881	345.4216	0	12.65	4003	1000	1000	1000	1000	0.02	0.0698573	3	10	0.08	2800	343.1958	40.92395	-91.39367
32268	45	13	85	-4.918646	-1.150437	345.4183	0	12.65	4004	1000	1000	1000	1000	0.02	0.0741499	3	10	0.08	2800	341.7514	40.92395	-91.39367
32442	24	9	-11	-4.933749	-1.145712	345.4182	0	12.65	4003	1000	1000	1000	1000	0.02	0.08604497	3	10	0.08	2800	341.9614	40.92395	-91.39367
32511	-6	17	-8	-4.939171	-1.139834	345.4219	0	12.65	4004	1000	1000	1000	1000	0.02	0.08851437	3	10	0.08	2800	342.3003	40.92395	-91.39367
32653	-11	11	57	-4.942899	-1.138704	345.4189	0	12.65	4003	1103	1033	1023	1093	0.02	0.08869001	3	10	0.08	2800	341.8466	40.92395	-91.39367
32701	4	26	61	-4.940055	-1.139253	345.4185	0	12.65	4003	1117	1031	1007	1093	0.02	0.0884355	3	10	0.08	2800	341.8002	40.92395	-91.39367
32834	111	41	5	-4.934933	-1.130891	345.4199	0	12.65	4003	1128	1056	1032	1104	0.02	0.09181189	3	10	0.08	2800	341.7939	40.92395	-91.39367
32906	81	1	21	-4.94008	-1.126402	345.4189	0	12.65	4002	1188	1046	1016	1158	0.02	0.1028188	3	10	0.08	2800	342.0269	40.92395	-91.39367
32994	35	-10	100	-4.959091	-1.121307	345.4103	0	12.65	4003	1170	1048	1034	1156	0.02	0.1123507	3	10	0.08	2800	341.5544	40.92395	-91.39367
33141	-7	41	17	-4.936383	-1.102661	345.4174	0	12.53	4002	1000	1000	1000	1000	0.02	0.1395839	3	10	0.08	2800	342.8405	40.92395	-91.39367
33197	-35	21	-15	-4.954772	-1.117698	345.4144	0	12.53	4002	1000	1000	1000	1000	0.02	0.1497768	3	10	0.08	2800	342.9889	40.92395	-91.39367
33277	-3	-29	42	-4.972044	-1.122142	345.415	0	12.53	4002	1000	1000	1000	1000	0.02	0.1562698	3	10	0.08	2800	341.7383	40.92395	-91.39367
33391	-26	-26	24	-4.980531	-1.118742	345.4153	0	12.53	4004	1118	1060	1040	1098	0.02	0.161169	3	10	0.08	2800	342.0464	40.92395	-91.39367
33457	48	-31	26	-4.959577	-1.119857	345.418	0	12.53	4002	1182	1088	1054	1148	0.02	0.1677955	3	10	0.08	2800	341.8236	40.92395	-91.39367
33548	19	-31	129	-4.964214	-1.116802	345.4103	0	12.53	4004	1200	1138	1140	1202	0.02	0.1754373	3	10	0.08	2800	341.6046	40.92395	-91.39367
33672	31	9	-86	-4.961696	-1.113976	345.3999	0	12.53	4002	1274	1114	1068	1232	0.02	0.1880716	3	10	0.08	2800	341.0707	40.92395	-91.39367
33746	59	-16	-271	-4.95133	-1.128378	345.4286	0	12.53	4004	1217	1083	1117	1251	0.02	0.1895984	3	10	0.08	2800	339.7406	40.92395	-91.39367
33953	-100	14	-124	-4.923928	-1.117391	345.4135	0	12.53	4003	1215	1053	1001	1163	0.02	0.1879391	3	10	0.08	2800	342.0572	40.92395	-91.39367
34010	43	40	252	-4.933071	-1.11977	345.3966	0	12.59	4002	1000	1000	1000	1000	0.02	0.1876588	3	10	0.08	2800	342.0572	40.92395	-91.39367
34054	70	-57	-9	-4.91415	-1.114317	345.4145	0	12.59	4003	1000	1000	1000	1000	0.02	0.1875834	3	10	0.08	2800	342.0798	40.92395	-91.39367
34204	-61	-2	-78	-4.939216	-1.131655	345.4167	0	12.59	4002	1115	1049	1035	1101	0.02	0.1820377	3	10	0.08	2800	342.2504	40.92395	-91.39367
34294	17	-15	41	-4.924289	-1.131296	345.4124	0	12.59	4002	1208	1114	1098	1192	0.02	0.1822492	3	10	0.08	2800	343.6289	40.92395	-91.39367
34405	34	2	-43	-4.909446	-1.111236	345.4188	0	12.59	4004	1201	1117	1099	1183	0.02	0.1841154	3	10	0.08	2800	342.2007	40.92395	-91.39367
34509	124	-21	31	-4.893547	-1.10001	345.4196	0	12.59	4003	1249	1125	1039	1163	0.02	0.1767144	3	10	0.08	2800	341.2402	40.92395	-91.39367
34557	133	-41	-262	-4.895147	-1.102321	345.4333	0	12.59	4003	1240	1064	1048	1224	0.02	0.1740389	3	10	0.08	2800	344.1528	40.92395	-91.39367
34650	0	-28	-55	-4.893361	-1.127687	345.4296	0	12.59	4004	1202	1078	1062	1178	0.02	0.1675159	3	10	0.08	2800	341.7053	40.92395	-91.39367
34784	85	0	92	-4.882624	-1.121838	345.435	0	12.59	4004	1000	1000	1000	1000	0.02	0.1577714	3	10	0.08	2800	342.7814	40.92395	-91.39367
34855	31	-15	68	-4.893974	-1.118266	345.4319	0	12.59	4002	1000	1000	1000	1000	0.02	0.1557359	3	10	0.08	2800	342.1428	40.92395	-91.39367
34947	-12	31	-14	-4.902041	-1.115249	345.4341	0	12.65	4004	1000	1000	1000	1000	0.02	0.1562581	3	10	0.08	2800	342.1428	40.92395	-91.39367
35094	-33	-26	17	-4.925719	-1.116855	345.4277	0	12.65	4003	1186	1144	1140	1182	0.02	0.1566363	3	10	0.08	2800	344.5538	40.92395	-91.39367
35177	-37	43	-69	-4.916098	-1.118693	345.4306	0	12.65	4003	1246	1128	1106	1224	0.02	0.1532283	3	10	0.08	2800	344.1543	40.92395	-91.39367
35389	115	16	177	-4.932952	-1.125948	345.4335	0	12.65	4004	1273	1131	1061	1203	0.02	0.1433647	3	10	0.08	2800	341.4147	40.92395	-91.39367
35534	-156	-46	-239	-4.897414	-1.088309	345.446	0	12.65	4004	1275	1101	1057	1235	0.02	0.1266902	3	10	0.08	2800	341.3884	40.92395	-91.39367
35610	131	-127	172	-4.872775	-1.052337	345.4399	0	12.65	4004	1286	1103	1035	1229	0.02	0.1243853	3	10	0.08	2800	343.242	40.92395	-91.39367
35656	-5	-140	0	-4.868207	-1.045938	345.4493	0	12.65	4004	1360	1092	1020	1276	0.02	0.1234027	3	10	0.08	2800	343.1296	40.92395	-91.39367
35760	135	-188	15	-4.773669	-0.9912909	345.4628	0	12.65	4002	1356	1210	1140	1298	0.02	0.1343195	3	10	0.08	2800	342.4651	40.92395	-91.39367
35921	2249	-520	382	-2.968797	-0.8222765	345.5463	0	12.25	4004	1385	1349	1371	1407	0.02	0.1532125	3	10	0.08	2800	342.4641	40.92395	-91.39367
35963	5622	-611	146	1.3021	-0.5079688	345.8087	0	12.25	4004	1378	1442	1436	1376	0.02	0.167658	3	10	0.08	2800	341.5424	40.92395	-91.39367
36089	276	1362	-321	3.444543	4.243614	345.4991	0	12.25	4004	1331	1637	1669	1697	0.02	0.1914705	3	10	0.08	2800	336.2208	40.92395	-91.39367
36297	-866	694	-736	-7.506107	-0.6341199	347.3645	0	12.25	4002	1346	1344	1610	1560	0.02	0.268973	3	10	0.08	2800	339.0817	40.92395	-91.39367
36410	-391	1594	73	-7.370766	-2.168776	348.4051	0	12.25	4004	1273	1349	1283	1183	0.02	0.3519127	3	10	0.08	2800	343.5618	40.92395	-91.39366
36495	-285	-1972	-202	-7.554633	-1.071144	349.1871	0	12.25	4002	1146	1202	1424	1316	0.02	0.3996246	3	10	0.08	2800	346.985	40.92395	-91.39366
36628	2614	-977	-274	-5.439338	1.9866	349.4532	0	12.25	4004	1241	1257	1313	1273	0.02	0.5088254	3	10	0.08	2800	345.4854	40.92395	-91.39366
36734	113	-321	421	-1.200594	1.553185	348.6197	0	12.48	4004	1087	1277	1499	1309	0.02	0.5735478	3	10	0.08	2800	344.2802	40.92395	-91.39366
36850	330	1301	613	-1.767706	0.3268224	347.4223	0	12.48	4002	1406	1378	1264	1296	0.02	0.6127977	3	10	0.08	2800	344.75	40.92395	-91.39366
36882	13	2147	1326	-1.800807	-0.9572188	347.0222	0	12.48	4003	1258	1522	1508	1440	0.02	0.6289911	3	10	0.08	2800	342.4102	40.92395	-91.39366
36958	-3157	1472	946	-3.788181	-3.346606	345.9325	0	12.48	4004	1324	1340	1368	1370	0.02	0.6506112	3	10	0.08	2800	343.51	40.92395	-91.39366
37070	-108	-903	898	-8.073876	-1.703914	345.0102	0	12.48	4003	1383	1539	1345	1213	0.02	0.6813945	3	10	0.08	2800	343.0022	40.92395	-91.39366
37191	2757	704	-1564	-9.082385	-2.10664	346.0148	0	12.48	4002	1514	1162	1270	1530	0.02	0.707299	3	10	0.08	2800	341.8169	40.92395	-91.39366
37253	6074	926	-1502	-6.406733	-2.432	347.0088	0	12.48	4004	1089	1507	1687	1197	0.02	0.7192243	3	10	0.08	2800	346.0663	40.92395	-91.39366
37422	-4900	-4484	-1907	-2.83646	-0.2311434	352.1984	0	12.48	4004	1680	1022	1176	1694	0.02	0.7483796	3	10	0.08	2800	349.8829	40.92395	-91.39366
37496	327	-2335	-70	-6.895798	4.672611	353.3521	0	12.48	4003	1453	1111	1335	1601	0.02	0.755484	3	10	0.08	2800	349.3192	40.92395	-91.39366
37567	1370	-755	-370	-5.904245	5.235632	353.558	0	12.48	4004	1570	1294	1214	1398	0.02	0.7698015	3	10	0.08	2800	349.3192	40.92395	-91.39366
37764	1172	-153	1916	-3.768008	10.57634	351.7593	0	13.21	4003	1428	1582	1298	1144	0.02	0.793393	3	10	0.08	2800	345.3539	40.92395	-91.39366
37822	1726	-611	1446	-2.905024	10.39038	350.9747	0	13.21	4006	1176	1552	1606	1234	0.02	0.8030021	3	10	0.08	2800	341.5196	40.92395	-91.39366
37881	-383	1515	1007	-2.750017	10.51604	339.8862	0	13.21	4004	1267	1187	1519	1607	0.02	0.8063433	3	10	0.08	2800	339.9771	40.92395	-91.39365
37957	-164	2554	1412	-2.654991	8.174642	338.3044	0	13.21	4003	1394	1364	1394	1408	0.02	0.8218957	3	10	0.08	2800	337.3319	40.92395	-91.39365
38144	-895	1725	1267	2.237294	2.374169	336.0519	0	13.21	4002	1592	1198	1178	1596	0.02	0.8333076	3	10	0.08	2800	339.0742	40.92395	-91.39365
38308	-1153	-72	-1246	-1.184788	-0.00960579	336.9071	0	13.21	4004	1512	1170	1294	1604	0.02	0.8288261	3	10	0.08	2800	338.5402	40.92395	-91.39365
38365	1385	-561	163	-0.278833	1.089994	338.3358	0	13.21	4003	1282	1662	1580	1168	0.02	0.8336164	3	10	0.08	2800	338.1788	40.92395	-91.39365
38491	373	-491	-447	-1.934991	1.189352	338.9569	0	13.21	4004	1147	1405	1705	1391	0.02	0.8285633	3	10	0.08	2800	336.8254	40.92395	-91.39365
38631	3323	-806	-1294	0.5802079	1.242857	340.8892	0	12.76	4003	1379	1313	1477	1423	0.02	0.8030936	3	10	0.08	2800	341.7759	40.92395	-91.39365
38650	3323	-806	-1294	0.5802079	1.242857	340.8892	0	12.76	4003	1379	1313	1477	1423	0.02	0.7988774	3	10	0.08	2800	341.7759	40.92395	-91.39365
38804	-3834	1027	-2111	-2.787247	2.786315	342.7608	0	12.76	4004	1690	986	1108	1668	0.02	0.7830424	3	10	0.08	2800	338.2169	40.92395	-91.39365
38877	206	2522	-2618	-0.3437712	-0.9547585	347.2008	0	12.76	4002	1646	1338	1186	1238	0.02	0.7800926	3	10	0.08	2800	350.0511	40.92395	-91.39365
38942	-6746	-1056	-1179	-4.198314	-1.084878	348.7908	0	12.76	4002	1422	1336	1366	1280	0.02	0.7828729	3	10	0.08	2800	350.3182	40.92395	-91.39365
39108	-600	-2005	1233	-13.0484	6.030682	349.285	0	12.76	4004	1229	1393	1539	1267	0.02	0.7836457	3	10	0.08	2800	352.4799	40.92395	-91.39365
39152	392	-740	1326	-12.88005	6.351399	348.9383	0	12.76	4003	1237	1405	1523	1259	0.02	0.7888719	3	10	0.08	2800	351.3268	40.92395	-91.39365
39333	589	-405	1520	-12.66955	8.250875	345.8853	0	12.76	4002	1355	1443	1379	1247	0.02	0.8106142	3	10	0.08	2800	348.1828	40.92395	-91.39365
39370	1011	1026	2058	-12.18109	7.71734	345.1802	0	12.76	4002	1364	1362	1358	1340	0.02	0.8191786	3	10	0.08	2800	348.1828	40.92395	-91.39365
39492	212	2597	1450	-7.772755	1.270182	341.5678	0	12.02	4004	1397	1385	1277	1335	0.02	0.841453	3	10	0.08	2800	348.9463	40.92395	-91.39365
39624	-910	-1830	950	-10.71038	0.6486017	348.7538	0	12.02	4003	1266	1294	1492	1452	0.02	0.8567668	3	10	0.08	2800	350.2141	40.92395	-91.39365
39798	2014	1747	1500	-9.688861	1.388998	347.0785	0	12.02	4002	1370	1524	1362	1236	0.02	0.897346	3	10	0.08	2800	347.5941	40.92394	-91.39365
39875	2301	26	278	-4.668928	-0.9236616	345.5877	0	12.02	4003	1379	1263	1341	1461	0.02	0.9107038	3	10	0.08	2800	347.8372	40.92394	-91.39365
39951	1799	776	845	-2.957711	-1.187734	345.2308	0	12.02	4002	1347	1361	1329	1343	0.02	0.9151962	3	10	0.08	2800	347.4579	40.92394	-91.39365
40053	2930	106	89	0.5881791	-0.4764723	344.9114	0	12.02	4004	1312	1500	1372	1204	0.02	0.9216461	3	10	0.08	2800	348.5187	40.92394	-91.39365
40155	412	496	421	4.178995	0.04173956	344.6939	0	12.02	4003	1267	1371	1445	1369	0.02	0.9273329	3	10	0.08	2800	345.8881	40.92394	-91.39365
40253	-2183	-70	-673	0.7360889	-1.092718	344.1312	0	12.02	4004	1378	1110	1358	1614	0.02	0.9339314	3	10	0.08	2800	344.618	40.92394	-91.39365
40386	1124	-461	-689	0.04713063	-0.9401001	344.5592	0	12.14	4003	1133	1611	1675	1197	0.02	0.936662	3	10	0.08	2800	344.3297	40.92394	-91.39365
40457	-2710	1928	-1128	-2.814153	-0.8576545	344.7497	0	12.14	4003	1646	1198	1154	1626	0.02	0.9322843	3	10	0.08	2800	344.0452	40.92394	-91.39365
40660	885	-269	-2434	-3.15255	-3.301425	348.2959	0	12.14	4004	1597	1257	1249	1513	0.02	0.9053656	3	10	0.08	2800	348.3952	40.92393	-91.39365
40720	408	-139	-743	-0.2469086	-2.015672	351.0772	0	12.14	4003	1396	1434	1546	1356	0.02	0.8937192	3	10	0.08	2800	353.9918	40.92393	-91.39365
40858	-3707	-1542	-1555	-0.154332	-1.077058	353.3289	0	12.14	4002	1562	1004	1386	1792	0.02	0.864454	3	10	0.08	2800	353.3243	40.92393	-91.39365
40910	2446	-1873	-1220	-0.624898	2.441607	355.7443	0	12.14	4003	1389	1497	1563	1283	0.02	0.8537298	3	10	0.08	2800	354.1652	40.92393	-91.39365
41028	-942	-3413	-1207	1.927069	6.501525	357.6566	0	12.14	4004	1405	1323	1451	1405	0.02	0.8467491	3	10	0.08	2800	355.4817	40.92393	-91.39365
41145	-1918	-2564	-2994	-0.2328507	14.30665	351.6537	0	12.14	4004	1482	1074	1338	1470	0.02	0.8510401	3	10	0.08	2800	349.9271	40.92393	-91.39365
41180	-2055	176	-1046	-1.533914	14.48295	352.805	0	12.14	4004	1128	1306	1660	1258	0.02	0.8606717	3	10	0.08	2800	349.9271	40.92393	-91.39365
41269	-229	3150	-749	-3.206304	11.25038	354.0551	0	12.14	4002	1293	1051	1503	1509	0.02	0.8704935	3	10	0.08	2800	355.375	40.92393	-91.39365
41398	-3065	721	652	0.5556856	1.370542	353.8293	0	12.25	4002	1228	1528	1536	1076	0.02	0.8926945	3	10	0.08	2800	3.54953	40.92393	-91.39365
41574	-958	-965	2110	-6.866953	1.132954	0.5222956	0	12.25	4002	1424	1152	1332	1460	0.02	0.9212246	3	10	0.08	2800	359.4149	40.92393	-91.39365
41840	-542	-1174	2502	-9.769588	-0.7531751	347.7386	0	12.25	4002	1262	1360	1492	1386	0.02	0.9564967	3	10	0.08	2800	349.0626	40.92393	-91.39365
41912	572	-1972	2394	-9.424459	0.3278137	344.8996	0	12.25	4003	1121	1235	1617	1519	0.02	0.9584407	3	10	0.08	2800	347.2227	40.92393	-91.39365
41977	-1830	1616	2018	-10.05508	-0.07307281	341.976	0	12.25	4003	1478	1194	1250	1570	0.02	0.9636865	3	10	0.08	2800	341.8825	40.92393	-91.39365
42081	4840	-649	498	-7.403876	-5.184387	337.0953	0	12.25	4004	1318	1380	1422	1384	0.02	0.9759423	3	10	0.08	2800	339.3965	40.92393	-91.39365
42249	1850	175	690	-1.196114	-0.9730107	335.1235	0	11.91	4002	1474	1484	1380	1414	0.02	0.9824815	3	10	0.08	2800	334.4785	40.92393	-91.39365
42365	-1161	-1073	-1018	-1.488063	-1.127572	335.3345	0	11.91	4004	1523	1177	1249	1599	0.02	0.9983391	3	10	0.08	2800	335.4371	40.92393	-91.39365
42399	-100	-947	188	-2.227794	-0.4362678	335.4564	0	11.91	4002	1050	1792	1686	984	0.02	1.005959	3	10	0.08	2800	334.351	40.92393	-91.39365
42523	-251	-120	-1282	-3.29776	1.351934	336.7136	0	11.91	4004	1554	1196	1194	1532	0.02	1.017124	3	10	0.08	2800	335.0804	40.92393	-91.39365
42652	397	-8	-1479	-1.792966	0.8462859	338.9415	0	11.91	4002	1398	908	1376	1798	0.02	1.033242	3	10	0.08	2800	336.8383	40.92393	-91.39365
42790	-678	1034	-802	-1.879295	-0.4383444	341.3592	0	11.91	4003	1373	1271	1419	1437	0.02	1.063831	3	10	0.08	2800	338.6711	40.92393	-91.39365
42927	-607	-1692	-270	-4.43293	1.720036	343.9015	0	11.91	4004	1468	1422	1306	1304	0.02	1.082842	3	10	0.08	2800	342.4104	40.92393	-91.39365
43029	-1027	360	193	-6.612299	2.691504	344.8445	0	11.91	4003	1521	1555	1265	1163	0.02	1.090008	3	10	0.08	2800	341.2096	40.92393	-91.39365
43103	-585	652	-356	-6.207809	0.2285796	345.3955	0	11.91	4002	1287	1461	1515	1249	0.02	1.099647	3	10	0.08	2800	343.8073	40.92393	-91.39365
43342	122	43	2258	-8.335447	-0.1778044	343.3147	0	12.08	4004	1378	1402	1253	1391	0.02	1.120633	3	10	0.08	2800	344.5806	40.92393	-91.39364
43428	1103	263	1739	-7.267272	-0.2605547	341.9378	0	12.08	4003	1377	1541	1387	1251	0.02	1.115005	3	10	0.08	2800	346.2348	40.92393	-91.39364
43485	-757	1387	629	-7.497666	-0.621015	339.6561	0	12.08	4002	1258	1488	1502	1304	0.02	1.112702	3	10	0.08	2800	339.2862	40.92393	-91.39364
43619	600	544	1278	-7.851915	-1.805287	338.0991	0	12.08	4002	1444	1160	1346	1646	0.02	1.106248	3	10	0.08	2800	339.7107	40.92393	-91.39364
43677	5831	319	-883	-4.515652	-1.918012	338.1768	0	12.08	4002	1151	1793	1647	1005	0.02	1.102264	3	10	0.08	2800	341.7596	40.92393	-91.39364
43785	175	-619	402	0.4324349	-0.8919314	338.831	0	12.08	4003	1449	1493	1325	1305	0.02	1.097138	3	10	0.08	2800	341.7885	40.92393	-91.39364
43877	377	-837	-462	-0.9048361	1.021706	340.2601	0	12.08	4002	1413	1573	1379	1187	0.02	1.092933	3	10	0.08	2800	341.4052	40.92393	-91.39364
44032	-198	-370	-1180	1.474226	0.687749	342.4868	0	12.08	4003	1437	1867	1373	867	0.02	1.093889	3	10	0.08	2800	341.6764	40.92393	-91.39364
44149	-4519	208	-1228	0.2270066	0.7056218	344.5105	0	11.74	4003	1743	917	1075	1813	0.02	1.107137	3	10	0.08	2800	343.3138	40.92393	-91.39364
44221	1617	1075	-858	-1.002274	0.07168636	345.5077	0	11.74	4003	1415	1629	1405	1103	0.02	1.125063	3	10	0.08	2800	344.531	40.92393	-91.39364
44262	1089	-436	230	-0.5225336	0.3554574	345.7146	0	11.74	4003	1363	1289	1461	1439	0.02	1.127821	3	10	0.08	2800	344.7856	40.92393	-91.39364
44365	-1343	-1387	216	-0.1697466	2.262441	346.6887	0	11.74	4004	1380	1558	1424	1190	0.02	1.142144	3	10	0.08	2800	345.9915	40.92393	-91.39364
44473	-915	-1760	-1086	-1.149208	4.1251	347.0269	0	11.74	4003	1394	1292	1396	1394	0.02	1.157749	3	10	0.08	2800	345.5079	40.92393	-91.39364
44554	332	-282	-549	-1.613488	5.394151	346.4748	0	11.74	4004	1350	1226	1424	1464	0.02	1.175125	3	10	0.08	2800	344.6407	40.92393	-91.39364
44659	468	-1205	533	-1.041867	5.540945	346.4182	0	11.74	4003	1342	1478	1396	1248	0.02	1.197582	3	10	0.08	2800	344.0941	40.92393	-91.39364
44803	46	1170	1964	-4.906292	5.059052	344.7472	0	11.74	4003	1495	1471	1247	1271	0.02	1.233943	3	10	0.08	2800	340.4528	40.92393	-91.39363
44893	-522	55	-248	-7.231675	3.43326	345.3085	0	11.74	4004	1192	1406	1600	1318	0.02	1.272678	3	10	0.08	2800	340.1993	40.92393	-91.39363
44953	-646	38	-90	-9.113382	3.902859	345.4228	0	11.97	4004	1326	1832	1460	898	0.02	1.278829	3	10	0.08	2800	339.9604	40.92393	-91.39363
45082	-4370	-25	-665	-9.602881	5.809606	348.7898	0	11.97	4004	1613	747	1209	1943	0.02	1.324275	3	10	0.08	2800	343.7995	40.92393	-91.39363
45140	-2364	1866	-1632	-13.17107	4.07335	350.7943	0	11.97	4002	1709	1227	1137	1439	0.02	1.330129	3	10	0.08	2800	345.7851	40.92393	-91.39363
45364	1388	-1580	-617	-9.662524	7.889177	353.071	0	11.97	4002	1201	1137	1615	1535	0.02	1.372628	3	10	0.08	2800	352.3087	40.92393	-91.39363
45476	1636	2240	1669	-2.832807	2.423283	351.4112	0	11.97	4004	1567	1427	1217	1245	0.02	1.38989	3	10	0.08	2800	354.5904	40.92393	-91.39363
45548	174	346	1057	-2.664478	1.558854	350.732	0	11.97	4003	1362	1296	1394	1404	0.02	1.407712	3	10	0.08	2800	354.5904	40.92393	-91.39363
45650	905	-1108	758	-2.145779	3.616936	348.3393	0	11.97	4003	1177	1391	1581	1331	0.02	1.415122	3	10	0.08	2800	350.7826	40.92393	-91.39363
45753	-368	1608	2672	-3.504324	2.506736	345.672	0	11.97	4002	1293	1367	1437	1387	0.02	1.437055	3	10	0.08	2800	346.153	40.92393	-91.39363
45895	-182	29	420	-3.884605	-0.8905019	343.0525	0	11.85	4004	1151	1243	1601	1505	0.02	1.463081	3	10	0.08	2800	344.0806	40.92393	-91.39363
45931	-1117	-383	396	-4.535093	-0.8447212	342.6107	0	11.85	4002	1338	1326	1414	1426	0.02	1.463081	3	10	0.08	2800	344.0806	40.92393	-91.39363
46079	2738	-219	450	-8.327295	-1.315805	341.5187	0	11.85	4002	1299	1553	1461	1191	0.02	1.490977	3	10	0.08	2800	344.4812	40.92393	-91.39363
46242	-1211	-100	121	-8.112546	-1.171201	341.8039	0	11.85	4004	1451	929	1325	1795	0.02	1.537912	3	10	0.08	2800	342.5081	40.92393	-91.39363
46427	105	1701	-1472	-6.664384	1.113408	348.952	0	11.85	4003	1472	1628	1334	1066	0.02	1.562595	8	10	0.08	2800	348.3404	40.92393	-91.39363
46462	105	1701	-1472	-6.664384	1.113408	348.952	0	11.85	4003	1467	1295	1385	1369	0.02	1.562438	8	10	0.08	2800	348.3404	40.92393	-91.39363
46597	4692	1943	-4498	0.5030396	-2.627506	353.9983	0	11.85	4003	1278	1934	1650	706	0.02	1.553887	8	10	0.08	2800	357.3235	40.92393	-91.39363
46727	-4388	-2035	-619	5.896413	-5.254378	359.7265	0	11.85	4004	1566	1382	1324	1256	0.02	1.546967	8	10	0.08	2800	4.007874	40.92393	-91.39363
46826	-4578	-5140	-905	-4.358252	2.666916	1.286476	0	11.85	4003	1422	1278	1456	1364	0.02	1.541986	8	10	0.08	2800	0.5054016	40.92393	-91.39363
46951	2916	2819	1079	-2.352852	3.70025	1.374349	0	11.85	4004	1386	1438	1474	1278	0.02	1.532941	8	10	0.08	2800	0.477417	40.92393	-91.39363
47024	2534	1616	1039	-0.3286572	0.534319	359.7271	0	11.85	4002	1204	1316	1636	1400	0.02	1.52967	8	10	0.08	2800	359.2089	40.92393	-91.39363
47178	1410	-738	2159	0.93479	1.999101	356.1837	0	11.85	4003	1238	1462	1556	1260	0.02	1.525548	8	10	0.08	2800	351.8326	40.92393	-91.39364
47247	163	398	2068	0.7312672	1.60685	354.3651	0	11.85	4003	1237	1453	1549	1277	0.02	1.527613	8	10	0.08	2800	351.8208	40.92393	-91.39364
47350	447	-179	1771	1.442868	0.3378855	350.8213	0	11.85	4004	1304	1288	1490	1434	0.02	1.530586	8	10	0.08	2800	346.9156	40.92393	-91.39364
47421	-891	174	1358	1.073005	-0.1265935	349.9149	0	11.85	4003	1296	1036	1488	1704	0.02	1.53175	8	10	0.08	2800	346.9156	40.92393	-91.39364
47524	-138	753	1522	2.51019	-3.374666	347.632	0	11.85	4004	1587	1609	1181	1139	0.02	1.534688	8	10	0.08	2800	342.3466	40.92393	-91.39364
47627	634	-1486	-1198	0.5604742	-1.924352	347.1469	0	11.85	4004	1191	1301	1583	1429	0.02	1.539674	8	10	0.08	2800	343.0077	40.92393	-91.39364
47748	-2191	-514	-262	-0.55227	0.3285814	348.5003	0	11.85	4003	1451	973	1335	1717	0.02	1.560292	8	10	0.08	2800	339.3634	40.92393	-91.39363
47889	-230	-254	-715	-1.358294	1.010607	339.5804	0	11.85	4002	1131	1337	1681	1351	0.02	1.593334	8	10	0.08	2800	342.642	40.92393	-91.39363
47924	-472	-800	831	-1.980997	1.340173	339.5801	0	11.85	4002	1379	1433	1401	1287	0.02	1.596159	8	10	0.08	2800	342.642	40.92393	-91.39363
48176	196	585	855	-3.926205	0.09786425	337.8622	0	11.85	4002	1478	1374	1290	1358	0.02	1.623803	8	10	0.08	2800	340.3426	40.92393	-91.39363
48321	-1037	66	45	-4.165684	0.5431958	334.9235	0	11.85	4003	1409	1161	1367	1567	0.02	1.636618	8	10	0.08	2800	338.8212	40.92393	-91.39362
48435	-326	169	265	-4.623524	-0.0540637	333.2333	0	11.85	4003	1394	1404	1378	1352	0.02	1.642444	8	10	0.08	2800	337.3144	40.92393	-91.39362
48533	781	225	-678	-4.160737	-0.3166861	331.9536	0	11.85	4002	1306	1338	1474	1402	0.02	1.644176	8	10	0.08	2800	336.9833	40.92393	-91.39362
48615	-1764	596	915	-4.215914	-2.149319	330.4708	0	11.85	4003	1220	1234	1534	1532	0.02	1.645032	8	10	0.08	2800	334.4546	40.92393	-91.39362
48732	-2605	1375	-394	-6.650868	-2.481298	329.1975	0	11.85	4002	1729	1183	1051	1577	0.02	1.640863	8	10	0.08	2800	336.2108	40.92393	-91.39362
48832	2493	-32	272	-5.868374	-4.397861	328.2012	0	11.85	4003	1139	1481	1619	1309	0.02	1.635426	8	10	0.08	2800	335.5894	40.92393	-91.39362
49007	-259	-256	-1879	-5.385966	-2.370912	331.9291	0	11.85	4003	1283	1391	1535	1359	0.02	1.609516	8	10	0.08	2800	337.5414	40.92393	-91.39362
49093	-2223	-422	-2150	-5.583028	-1.530072	334.345	0	11.85	4003	1522	1226	1328	1496	0.02	1.593593	8	10	0.08	2800	339.5944	40.92393	-91.39362
49178	-195	744	-2136	-6.588508	-0.8615602	339.4077	0	11.85	4003	1253	1455	1621	1251	0.02	1.581877	8	10	0.08	2800	342.5101	40.92394	-91.39362
49258	202	-160	-995	-6.325224	-0.4785284	341.3364	0	11.85	4003	1428	1660	1452	1060	0.02	1.56774	8	10	0.08	2800	346.949	40.92394	-91.39362
49332	-1117	-1364	-2003	-7.934183	1.537252	343.5537	0	11.85	4003	1284	1158	1624	1481	0.02	1.551815	8	10	0.08	2800	349.5351	40.92394	-91.39362
49411	81	-652	-439	-7.870513	2.565374	344.0363	0	11.85	4003	1450	1444	1432	1282	0.02	1.526102	8	10	0.08	2800	351.8015	40.92394	-91.39362
49607	1343	889	368	-7.459793	0.1667005	353.2341	0	12.31	4003	1302	1402	1580	1372	0.02	1.476484	8	10	0.08	2800	353.4379	40.92394	-91.39362
49686	1938	1082	607	-7.622021	-0.02160587	351.6863	0	12.31	4002	1588	1422	1274	1356	0.02	1.46795	8	10	0.08	2800	351.6172	40.92394	-91.39361
49745	1795	1731	11	-6.219038	-1.483217	351.4656	0	12.31	4002	1558	1410	1284	1332	0.02	1.450519	8	10	0.08	2800	350.9918	40.92394	-91.39361
49839	-2453	-2669	1991	-9.110065	-1.77792	349.9647	0	12.31	4003	1416	1298	1392	1454	0.02	1.446449	8	10	0.08	2800	351.3217	40.92394	-91.39361
49984	842	535	-621	-7.196397	2.461731	349.417	0	12.31	4003	1399	1525	1411	1225	0.02	1.438865	8	10	0.08	2800	348.8261	40.92394	-91.39361
50036	-1259	9	-6	-6.947607	1.967408	349.1717	0	12.31	4002	1688	1288	1128	1448	0.02	1.437155	8	10	0.08	2800	348.8261	40.92394	-91.39361
50193	1152	-383	772	-9.940358	4.523332	347.2825	0	12.31	4003	1580	1728	1210	1030	0.02	1.440932	8	10	0.08	2800	346.4586	40.92395	-91.39361
50249	1641	1089	1114	-8.304808	4.503517	346.3048	0	12.31	4004	1279	1185	1509	1563	0.02	1.44434	8	10	0.08	2800	345.7391	40.92395	-91.39361
50308	322	-189	1588	-7.411755	3.55901	345.292	0	12.31	4003	1222	1242	1548	1528	0.02	1.448793	8	10	0.08	2800	342.5924	40.92395	-91.39361
50398	1125	-173	-416	-7.933301	2.432751	344.4969	0	11.91	4004	1509	1215	1269	1535	0.02	1.455466	8	10	0.08	2800	344.6403	40.92395	-91.39361
50515	1333	216	-216	-8.532489	2.278852	344.7311	0	11.91	4003	1174	1962	1588	776	0.02	1.473303	8	10	0.08	2800	344.1085	40.92395	-91.39361
50653	-2557	-854	854	-5.682879	2.462539	345.9897	0	11.91	4002	1637	997	1167	1735	0.02	1.48845	8	10	0.08	2800	344.0451	40.92395	-91.39361
50778	1276	1545	-2614	-9.888821	3.466166	349.0506	0	11.91	4003	1445	1743	1383	953	0.02	1.502213	8	10	0.08	2800	346.143	40.92395	-91.39361
50835	2233	177	-2409	-8.877869	3.313038	350.5163	0	11.91	4002	1463	1163	1399	1483	0.02	1.515898	8	10	0.08	2800	346.143	40.92395	-91.39361
50905	1319	-1078	-1021	-5.440337	4.631484	352.672	0	11.91	4004	1535	1307	1305	1369	0.02	1.526057	8	10	0.08	2800	352.0055	40.92395	-91.39361
51010	201	979	211	-6.300653	5.915627	354.57	0	11.91	4004	1316	1444	1498	1250	0.02	1.54373	8	10	0.08	2800	353.8194	40.92395	-91.39361
51128	1159	253	237	-5.695832	3.723697	354.2184	0	11.91	4002	1348	1250	1458	1444	0.02	1.569681	8	10	0.08	2800	356.0461	40.92395	-91.39361
51169	771	-1367	1312	-4.549648	4.639672	353.5564	0	11.91	4003	1352	1244	1462	1442	0.02	1.574461	8	10	0.08	2800	354.7155	40.92395	-91.39361
51282	-1238	1137	2122	-6.297856	4.003336	351.4652	0	11.91	4004	1318	1426	1452	1304	0.02	1.596648	8	10	0.08	2800	352.6431	40.92395	-91.39361
51350	2369	-1480	577	-5.480968	2.896215	349.2344	0	11.91	4004	1302	1528	1506	1208	0.02	1.600242	8	10	0.08	2800	350.2394	40.92395	-91.39361
51577	1311	286	37	-4.930744	4.809945	345.2724	0	11.91	4003	1264	1400	1526	1350	0.02	1.618349	8	10	0.08	2800	343.8248	40.92395	-91.39361
51741	1413	689	-723	-2.647017	1.184955	344.0297	0	11.91	4004	1369	1249	1441	1493	0.02	1.620791	8	10	0.08	2800	342.6395	40.92395	-91.39361
51798	-1907	1483	217	-3.045864	0.5853454	344.048	0	11.91	4002	1711	881	1095	1865	0.02	1.621607	8	10	0.08	2800	342.6395	40.92395	-91.39361
51873	2104	-760	-1309	0.07720499	-1.38645	345.2646	0	11.91	4004	1234	1310	1574	1406	0.02	1.629485	8	10	0.08	2800	346.2392	40.92395	-91.39362
51963	-1254	-1370	-1077	-0.8940555	3.089532	346.6569	0	11.91	4003	1300	1336	1666	1358	0.02	1.635436	8	10	0.08	2800	345.1999	40.92395	-91.39362
52061	546	1665	-1517	-2.700991	3.353028	347.5023	0	11.91	4004	1243	1647	1573	1049	0.02	1.651284	8	10	0.08	2800	343.1026	40.92395	-91.39362
52150	359	1269	-1387	-2.972856	1.7144	348.4547	0	11.91	4004	1544	1562	1258	1120	0.02	1.665145	8	10	0.08	2800	346.2016	40.92395	-91.39362
52253	-1032	609	-919	-2.175035	1.773309	349.4992	0	11.68	4002	1842	974	976	1708	0.02	1.680809	8	10	0.08	2800	347.4675	40.92395	-91.39362
52371	2260	-170	-2675	0.2811667	0.05408297	352.9059	0	11.68	4002	1445	1057	1385	1589	0.02	1.725593	8	10	0.08	2800	350.4769	40.92395	-91.39362
52445	-838	-1321	-1299	0.611255	1.299549	354.647	0	11.68	4002	1455	1335	1371	1311	0.02	1.732448	8	10	0.08	2800	350.9047	40.92395	-91.39362
52708	-652	-273	58	-1.342311	4.843785	357.1232	0	11.68	4003	1204	1170	1588	1470	0.02	1.85755	8	10	0.08	2800	352.9391	40.92395	-91.39362
52836	-622	-1096	1407	-2.758158	5.873506	354.5486	0	11.68	4002	1300	1170	1476	1522	0.02	1.912083	8	10	0.08	2800	348.0665	40.92395	-91.39362
52889	-889	1218	2691	-3.448659	5.581231	353.6879	0	11.68	4003	1436	1440	1326	1274	0.02	1.933503	8	10	0.08	2800	348.0665	40.92395	-91.39362
52950	-590	1697	217	-4.413361	3.45453	352.0442	0	11.68	4002	1367	1247	1413	1437	0.02	1.955023	8	10	0.08	2800	344.9412	40.92395	-91.39362
53122	-365	1810	2379	-3.20932	0.8053533	347.8242	0	12.02	4004	1523	1597	1221	1147	0.02	1.990756	8	10	0.08	2800	347.0924	40.92395	-91.39362
53174	-323	879	1177	-3.317962	0.1866785	347.1597	0	12.02	4003	1301	1239	1473	1499	0.02	2.002743	8	10	0.08	2800	343.0007	40.92395	-91.39362
53273	-488	301	1203	-3.328572	0.6367174	344.5035	0	12.02	4003	1591	1497	1151	1261	0.02	2.013708	8	10	0.08	2800	340.7757	40.92395	-91.39362
53440	8	-406	864	-3.94701	-1.146581	341.8568	0	12.02	4004	1281	1155	1473	1627	0.02	2.026181	8	10	0.08	2800	339.4725	40.92395	-91.39362
53459	965	-406	984	-4.043459	-0.956714	341.2084	0	12.02	4003	1289	1797	1471	991	0.02	2.025061	8	10	0.08	2800	339.4725	40.92395	-91.39362
53561	-1187	587	132	-2.586856	-0.5327743	341.7266	0	12.02	4003	1549	1273	1237	1493	0.02	2.02254	8	10	0.08	2800	338.0255	40.92395	-91.39362
53695	-2333	-1047	-558	-3.175094	-2.224233	343.1288	0	12.02	4004	1211	1613	1589	1123	0.02	2.020235	8	10	0.08	2800	339.1297	40.92395	-91.39362
53766	-911	-333	-2023	-4.438033	-0.8793191	344.3612	0	12.02	4003	1591	1325	1233	1892	0.02	2.019637	8	10	0.08	2800	342.3187	40.92395	-91.39362
53976	3859	495	-1078	-5.25427	3.51614	350.4587	0	12.02	4003	1261	1425	1587	1283	0.02	2.017293	8	10	0.08	2800	349.1678	40.92394	-91.39362
54030	2254	831	-728	-3.748345	2.911889	350.9277	0	11.74	4003	1270	1262	1566	1458	0.02	2.015065	8	10	0.08	2800	349.1678	40.92394	-91.39362
54104	1278	686	-1347	-2.59277	-0.06696119	352.114	0	11.74	4003	1473	1017	1373	1685	0.02	2.014588	8	10	0.08	2800	349.2057	40.92394	-91.39362
54165	2834	1123	414	-0.7712194	-0.455356	352.5511	0	11.74	4003	1384	1726	1440	994	0.02	2.016226	8	10	0.08	2800	349.8469	40.92394	-91.39362
54259	-1932	1036	369	-2.088358	-0.9277056	352.2904	0	11.74	4004	1537	667	1303	2033	0.02	2.0183	8	10	0.08	2800	349.8469	40.92394	-91.39362
54369	1128	-515	-923	-1.066224	-0.9137558	354.7456	0	11.74	4003	1188	1724	1656	948	0.02	2.024929	8	10	0.08	2800	353.9348	40.92394	-91.39362
54547	562	-626	-1270	-1.205407	-0.1268291	357.0484	0	11.74	4003	1480	1448	1378	1178	0.02	2.049418	8	10	0.08	2800	355.8878	40.92394	-91.39362
54704	-1854	-1829	-814	-5.14101	3.202762	357.5314	0	11.74	4003	1490	1274	1314	1358	0.02	2.090086	8	10	0.08	2800	355.7115	40.92394	-91.39362
54807	-497	464	2242	-5.052813	5.467059	355.692	0	11.74	4003	1376	1346	1394	1356	0.02	2.13027	8	10	0.08	2800	350.8711	40.92394	-91.39362
54876	-600	1055	1271	-6.525839	3.705842	353.4978	0	11.74	4002	1282	1118	1478	1570	0.02	2.15864	8	10	0.08	2800	350.8711	40.92394	-91.39362
54972	332	-924	2458	-4.124687	2.46566	349.0215	0	11.74	4003	1382	1324	1340	1370	0.02	2.178816	8	10	0.08	2800	346.5632	40.92394	-91.39362
55084	-2123	1748	3018	-6.565497	2.02914	345.1408	0	11.74	4004	1612	1444	1012	1248	0.02	2.265002	8	10	0.08	2800	338.9032	40.92394	-91.39362
55201	1007	-497	2778	-7.493108	-2.121096	339.2174	0	11.74	4002	1309	1419	1351	1305	0.02	2.287363	8	10	0.08	2800	337.5692	40.92394	-91.39362
55333	1928	330	1916	-5.387729	-1.66844	336.1732	0	11.74	4003	1194	1590	1494	1222	0.02	2.319442	8	10	0.08	2800	335.2326	40.92394	-91.39362
55384	188	-700	1802	-4.735073	-1.676492	335.65	0	11.74	4003	1491	1297	1209	1507	0.02	2.319442	8	10	0.08	2800	334.2241	40.92394	-91.39362
55500	-1838	1687	-27	-4.171942	0.2683974	334.6595	0	11.74	4003	1708	1156	1022	1638	0.02	2.329786	8	10	0.08	2800	330.4688	40.92394	-91.39362
55648	2152	-1880	-437	-4.714849	-2.468499	335.826	0	11.74	4003	1007	1517	1755	1237	0.02	2.338573	8	10	0.08	2800	332.9093	40.92394	-91.39362
55773	-1884	1150	-1216	-3.923246	-0.3787364	337.866	0	11.74	4003	1528	1416	1220	1332	0.02	2.351565	8	10	0.08	2800	333.7881	40.92394	-91.39362
55936	292	473	-1872	-7.291117	-0.500615	339.9389	0	12.14	4002	1367	1607	1409	1141	0.02	2.35493	8	10	0.08	2800	334.5322	40.92394	-91.39362
56026	-1778	-2522	-1323	-5.502158	1.013888	341.701	0	12.14	4004	1541	993	1257	1733	0.02	2.357589	8	10	0.08	2800	338.2717	40.92394	-91.39362
56176	1752	1389	-1879	-5.211793	1.668589	344.1383	0	12.14	4003	1258	1616	1552	1094	0.02	2.362101	8	10	0.08	2800	337.79	40.92394	-91.39362
56266	871	67	-2346	-4.383591	1.735764	346.2573	0	12.14	4003	1146	1664	1658	1000	0.02	2.369545	8	10	0.08	2800	340.7332	40.92394	-91.39362
56400	-2718	1470	-1517	-7.11329	0.3537761	348.4622	0	12.14	4003	1702	1164	1124	1538	0.02	2.373167	8	10	0.08	2800	344.4434	40.92395	-91.39362
56502	4631	997	-2022	-0.8818092	1.721091	351.3338	0	12.14	4003	1509	1533	1343	1147	0.02	2.367353	8	10	0.08	2800	346.8909	40.92395	-91.39362
56586	-1145	-715	-1133	0.9724672	1.455331	353.7541	0	12.14	4004	1222	1422	1640	1252	0.02	2.363418	8	10	0.08	2800	348.8757	40.92395	-91.39362
56800	2472	-291	-1278	-11.17079	4.193022	357.1658	0	11.51	4003	1540	1440	1320	1232	0.02	2.357403	8	10	0.08	2800	352.6206	40.92395	-91.39362
56938	-883	-1190	207	-6.64817	6.045743	356.4409	0	11.51	4004	1399	1107	1459	1599	0.02	2.351003	8	10	0.08	2800	351.5947	40.92395	-91.39361
56985	-1091	163	-60	-7.827577	6.099796	355.6173	0	11.51	4004	1353	1209	1507	1491	0.02	2.337799	8	10	0.08	2800	350.4072	40.92395	-91.39361
57144	425	1203	1046	-7.855272	1.109378	352.3095	0	11.51	4003	1477	1521	1333	1189	0.02	2.334946	8	10	0.08	2800	350.1045	40.92395	-91.39361
57251	435	-445	1114	-7.761062	1.126521	350.5022	0	11.51	4004	1170	1294	1612	1436	0.02	2.337187	8	10	0.08	2800	349.8015	40.92395	-91.39361
57307	-393	-1463	310	-7.57312	1.63299	350.1872	0	11.51	4004	1313	1171	1487	1541	0.02	2.33936	8	10	0.08	2800	349.8015	40.92395	-91.39361
57439	-1076	898	891	-7.382286	3.597169	348.3527	0	11.51	4003	1483	1423	1311	1331	0.02	2.339272	8	10	0.08	2800	346.3741	40.92395	-91.39361
57560	594	608	1205	-7.639727	1.720717	345.715	0	11.51	4004	1323	1311	1445	1453	0.02	2.325776	8	10	0.08	2800	344.8373	40.92395	-91.39361
57594	1001	800	150	-6.818367	1.136429	345.0356	0	12.08	4004	1362	1312	1414	1436	0.02	2.324656	8	10	0.08	2800	344.8373	40.92395	-91.39361
57675	464	-196	1021	-5.630377	0.6411291	343.9119	0	12.08	4004	1650	1326	1122	1434	0.02	2.320214	8	10	0.08	2800	344.6055	40.92395	-91.39361
57885	811	3127	617	-6.786489	1.268462	340.3986	0	12.08	4003	1646	1660	1092	1114	0.02	2.325527	8	10	0.08	2800	336.9455	40.92395	-91.39362
58044	-367	-3375	-464	-2.514333	-0.5170039	340.4156	0	12.08	4004	1253	1209	1543	1559	0.02	2.313312	8	10	0.08	2800	340.0848	40.92395	-91.39362
58090	-1514	-1094	-1890	-3.382202	1.384487	340.6846	0	12.08	4002	1669	845	1155	1931	0.02	2.30433	8	10	0.08	2800	341.9388	40.92395	-91.39362
58271	2610	-1441	-1010	-5.396405	3.917154	344.734	0	12.08	4003	1419	975	1467	1799	0.02	2.255789	8	10	0.08	2800	343.0408	40.92395	-91.39362
58340	2877	1430	-1979	-2.897324	3.517561	346.174	0	12.08	4002	1476	1306	1412	1466	0.02	2.233715	8	10	0.08	2800	342.9445	40.92395	-91.39362
58386	-831	1045	-1195	-1.531283	2.241864	347.1972	0	12.08	4004	1417	1739	1411	1021	0.02	2.222219	8	10	0.08	2800	344.9309	40.92395	-91.39362
58571	2395	924	-1858	-1.218546	2.421406	348.5585	0	11.68	4003	1255	1995	1591	731	0.02	2.186165	8	10	0.08	2800	343.6922	40.92395	-91.39362
58607	344	-1411	-1274	-0.9072132	2.541826	349.2269	0	11.68	4002	1292	1340	1584	1360	0.02	2.181659	8	10	0.08	2800	343.6922	40.92395	-91.39362
58705	-220	564	-784	-2.745717	5.177413	351.097	0	11.68	4003	1384	1138	1502	1580	0.02	2.160253	8	10	0.08	2800	344.9255	40.92395	-91.39362
58795	-328	816	-1744	-3.087107	3.96144	353.2422	0	11.68	4003	1492	1098	1380	1586	0.02	2.14612	8	10	0.08	2800	347.6271	40.92395	-91.39362
58938	-204	1531	-1535	-4.026603	2.577977	353.8158	0	11.68	4003	1473	1321	1365	1373	0.02	2.13306	8	10	0.08	2800	347.842	40.92395	-91.39362
59014	-453	-1886	-707	-2.770979	1.908688	354.4195	0	11.68	4004	1402	1556	1430	1144	0.02	2.129814	8	10	0.08	2800	353.2581	40.92395	-91.39362
59166	-327	642	-112	-3.776793	2.774315	354.5571	0	11.68	4004	1299	1295	1535	1391	0.02	2.126147	8	10	0.08	2800	350.04	40.92395	-91.39362
59283	-1095	380	897	-5.175711	1.991455	352.9548	0	11.68	4004	1392	1320	1412	1384	0.02	2.130269	8	10	0.08	2800	348.6094	40.92395	-91.39362
59370	1098	-1201	1270	-4.962948	2.334377	351.6334	0	11.68	4003	1315	1411	1465	1317	0.02	2.133033	8	10	0.08	2800	346.847	40.92395	-91.39362
59522	858	-317	2384	-2.941165	1.641195	344.8427	0	11.85	4002	1026	1356	1720	1414	0.02	2.141451	8	10	0.08	2800	341.6761	40.92395	-91.39362
59616	261	1055	2236	-2.769847	0.5796305	342.7603	0	11.85	4002	1268	1620	1458	1174	0.02	2.141032	8	10	0.08	2800	339.6679	40.92394	-91.39362
59771	1038	135	-2	-5.169401	-1.408023	339.9331	0	11.85	4003	1380	1188	1370	1562	0.02	2.149501	8	10	0.08	2800	335.5821	40.92394	-91.39362
59907	1460	1754	-543	-2.445026	-0.9570404	340.4076	0	11.85	4003	1346	1508	1418	1232	0.02	2.150214	8	10	0.08	2800	337.9471	40.92394	-91.39362
60018	-2887	-1060	-792	-0.9873995	-3.206338	342.3445	0	11.85	4004	1449	1159	1357	1563	0.02	2.151821	8	10	0.08	2800	339.3212	40.92394	-91.39362
60087	-2949	-1924	-1018	-2.760495	-2.339609	342.7344	0	11.85	4003	1217	1307	1587	1433	0.02	2.147964	8	10	0.08	2800	339.5888	40.92394	-91.39362
60143	1861	-658	-853	-4.233745	0.3124186	344.1301	0	11.85	4003	1389	1401	1409	1349	0.02	2.143287	8	10	0.08	2800	340.8915	40.92394	-91.39362
60320	-747	1697	779	-5.967922	0.9535729	344.3416	0	11.68	4003	1235	1313	1557	1447	0.02	2.121085	8	10	0.08	2800	339.1037	40.92394	-91.39362
60393	-215	-191	508	-6.395063	-0.1912808	343.6558	0	11.68	4002	1296	1978	1470	804	0.02	2.108582	8	10	0.08	2800	340.425	40.92394	-91.39362
60497	1590	-1034	-1110	-4.498731	-0.3419541	344.4815	0	11.68	4002	1340	1342	1482	1396	0.02	2.094351	8	10	0.08	2800	340.0012	40.92394	-91.39362
60593	870	340	-871	-5.457222	1.484126	346.4882	0	11.68	4002	1287	1463	1537	1265	0.02	2.088277	8	10	0.08	2800	340.0113	40.92394	-91.39362
60692	-231	-506	572	-4.731746	0.3345276	346.6983	0	11.68	4002	1506	1450	1288	1316	0.02	2.077687	8	10	0.08	2800	340.5939	40.92394	-91.39362
60790	-757	-1874	-836	-5.05352	2.229213	347.2435	0	11.68	4004	1401	1155	1431	1557	0.02	2.068461	8	10	0.08	2800	341.4611	40.92394	-91.39362
60869	-877	1203	-1465	-4.245345	1.813978	348.9192	0	11.68	4004	1288	1326	1540	1378	0.02	2.066063	8	10	0.08	2800	342.3247	40.92394	-91.39362
60978	208	-614	-2009	-6.323565	0.6388775	350.7849	0	11.68	4004	1570	1388	1256	1294	0.02	2.070962	8	10	0.08	2800	343.4019	40.92394	-91.39362
61053	1803	343	-752	-7.049138	3.332	353.9706	0	11.68	4003	1293	1395	1571	1257	0.02	2.074288	8	10	0.08	2800	346.0501	40.92394	-91.39362
61137	1245	244	-3	-5.445782	2.919405	354.4002	0	11.68	4004	1417	1401	1413	1289	0.02	2.074809	8	10	0.08	2800	348.9331	40.92394	-91.39362
61267	425	-1404	345	-6.295892	4.049295	352.9304	0	11.63	4002	1352	1176	1492	1544	0.02	2.062429	8	10	0.08	2800	346.6223	40.92394	-91.39362
61495	-802	-792	1517	-6.815167	2.314828	348.857	0	11.63	4003	1434	1386	1356	1372	0.02	2.033391	8	10	0.08	2800	342.8402	40.92394	-91.39362
61568	2195	594	528	-5.736753	2.340745	346.8293	0	11.63	4003	1300	1356	1510	1374	0.02	2.025558	8	10	0.08	2800	340.3119	40.92394	-91.39362
61719	-688	-819	1050	-4.933018	-0.8144735	345.3957	0	11.63	4003	1094	1432	1698	1328	0.02	2.011925	8	10	0.08	2800	342.6402	40.92394	-91.39362
61839	1372	218	-308	-6.953319	0.5658385	344.3322	0	11.63	4003	1465	1501	1373	1293	0.02	1.984239	8	10	0.08	2800	339.0511	40.92394	-91.39362
61919	-549	1093	116	-5.124299	0.2130342	344.3591	0	11.63	4002	1605	1093	1241	1709	0.02	1.960006	8	10	0.08	2800	338.8764	40.92394	-91.39362
62067	1363	949	-1344	-9.124309	0.7923743	343.9463	0	11.4	4003	1328	1546	1313	1371	0.02	1.927531	8	10	0.08	2800	335.0566	40.92394	-91.39362
62142	678	1047	177	-6.843089	0.2524601	345.4839	0	11.4	4003	1304	1688	1542	1042	0.02	1.913038	8	10	0.08	2800	340.1145	40.92394	-91.39362
62318	1399	-2025	-632	-8.245835	1.718663	348.0918	0	11.4	4002	1167	1231	1667	1503	0.02	1.882522	8	10	0.08	2800	341.8256	40.92395	-91.39362
62435	227	853	337	-5.573849	4.617565	349.3147	0	11.4	4003	1401	1023	1431	1685	0.02	1.865978	8	10	0.08	2800	343.265	40.92395	-91.39362
62520	-2870	447	-266	-6.525976	4.024123	349.1122	0	11.4	4004	1657	943	1167	1793	0.02	1.858516	8	10	0.08	2800	341.7291	40.92395	-91.39362
62576	-197	669	1588	-6.750899	2.076941	349.4576	0	11.4	4002	1760	1322	1074	1400	0.02	1.853996	8	10	0.08	2800	342.2038	40.92395	-91.39362
62662	2532	1499	-616	-4.347486	0.5527798	349.9493	0	11.4	4003	1698	1134	1138	1566	0.02	1.849717	8	10	0.08	2800	341.2812	40.92395	-91.39362
62713	3233	282	-350	-1.907194	-0.1704058	350.4836	0	11.4	4003	1308	1210	1540	1470	0.02	1.847733	8	10	0.08	2800	345.8419	40.92395	-91.39362
62888	-1380	-1367	134	-7.097488	5.461125	351.5961	0	11.4	4003	1540	1016	1282	1662	0.02	1.853586	8	10	0.08	2800	346.4751	40.92395	-91.39362
63001	1785	538	16	-7.385349	5.61003	351.9522	0	11.74	4002	1225	1497	1581	1205	0.02	1.860867	8	10	0.08	2800	343.3729	40.92395	-91.39362
63057	1477	1184	961	-4.73634	4.973939	352.1343	0	11.74	4003	1477	1843	1311	845	0.02	1.874749	8	10	0.08	2800	346.2361	40.92395	-91.39362
