time(ms)	gyro_x(deg/s)	gyro_y(deg/s)	gyro_z(deg/s)	orientation_roll(deg)	orientation_pitch(deg)	orientation_yaw(deg)	throttle	battery(V)	loop_time(uS)	pid_output_roll	pid_output_pitch	pid_output_yaw	pid_output_throttle	ultrasonic_alt	baro_alt	flight_mode	p_gain_altitude	i_gain_altitude	d_gain_altitude	compass_heading	latitude	longitude
63287	1093	-2225	102	-7.309681	7.001943	350.4104	0	11.74	4002	1231	1135	1557	1439	0.02	1.905732	8	10	0.08	2800	342.834	40.92395	-91.39362
63346	1498	-1270	1182	-6.558932	7.459439	349.9269	0	11.74	4002	1196	1244	1578	1458	0.02	1.918262	8	10	0.08	2800	342.834	40.92395	-91.39362
63398	-618	2410	1469	-5.253075	4.885114	347.9828	0	11.74	4003	1494	1232	1252	1494	0.02	1.922736	8	10	0.08	2800	340.2929	40.92395	-91.39362
63517	-1935	469	2005	-7.419471	2.262233	344.8877	0	11.74	4003	1416	1278	1270	1420	0.02	1.948181	8	10	0.08	2800	338.8281	40.92395	-91.39362
63602	663	-575	1504	-7.75765	2.372198	343.1867	0	11.74	4002	1396	1326	1304	1406	0.02	1.975927	8	10	0.08	2800	337.2989	40.92395	-91.39362
63748	-241	526	499	-5.927684	1.978974	339.8505	0	11.74	4003	1429	1289	1279	1439	0.02	1.996578	8	10	0.08	2800	334.4306	40.92395	-91.39362
63851	-396	-575	102	-6.491495	1.615653	339.0425	0	11.85	4003	1219	1243	1527	1523	0.02	2.005208	8	10	0.08	2800	333.6129	40.92395	-91.39362
63941	754	-172	1378	-6.123666	1.418535	337.7819	0	11.85	4003	1234	1514	1502	1286	0.02	2.001928	8	10	0.08	2800	333.5203	40.92395	-91.39362
63998	-58	1022	736	-5.896731	1.322671	337.5551	0	11.85	4004	1673	1393	1081	1409	0.02	1.99605	8	10	0.08	2800	333.5203	40.92395	-91.39362
64167	-686	-97	419	-2.987245	0.4867984	339.8518	0	11.85	4003	1504	1372	1332	1444	0.02	1.962791	8	10	0.08	2800	334.6908	40.92395	-91.39362
64221	-1476	-172	75	-3.925653	0.6764404	340.3297	0	11.85	4002	1430	1374	1374	1430	0.02	1.940974	8	10	0.08	2800	334.6908	40.92395	-91.39362
64366	-1886	-306	-1608	-7.461865	2.46943	344.4436	0	11.85	4003	1663	1121	1215	1669	0.02	1.893108	8	10	0.08	2800	338.3973	40.92395	-91.39362
64451	1916	663	-1653	-6.865171	3.062361	345.9447	0	11.85	4004	1562	1316	1322	1480	0.02	1.864712	8	10	0.08	2800	340.1118	40.92395	-91.39362
64527	2478	1806	189	-4.66901	0.8967434	346.6851	0	11.85	4002	1406	1312	1430	1456	0.02	1.826353	8	10	0.08	2800	340.0425	40.92395	-91.39362
64624	2380	331	-753	-3.505812	-0.1968855	347.5772	0	11.85	4003	1171	1699	1673	1065	0.02	1.80775	8	10	0.08	2800	343.2935	40.92395	-91.39362
64812	-1099	-169	-395	-7.444002	4.761641	349.7189	0	11.74	4002	1494	1686	1374	1082	0.02	1.756101	8	10	0.08	2800	341.8127	40.92395	-91.39362
64894	-355	1299	-436	-7.433986	4.077527	350.1487	0	11.74	4003	1652	1286	1220	1474	0.02	1.743231	8	10	0.08	2800	342.8786	40.92395	-91.39362
64930	2132	184	810	-6.690963	3.575554	350.0025	0	11.74	4003	1502	1476	1328	1262	0.02	1.740239	8	10	0.08	2800	343.5916	40.92395	-91.39362
65040	2333	215	-1020	-5.162074	3.526912	350.2015	0	11.74	4002	1192	1492	1652	1224	0.02	1.722394	8	10	0.08	2800	342.6276	40.92395	-91.39362
65161	-2181	406	-1292	-7.281633	4.408733	350.326	0	11.74	4004	1401	1419	1453	1287	0.02	1.713815	8	10	0.08	2800	341.332	40.92395	-91.39362
65262	1035	-373	280	-7.364372	4.563299	351.1804	0	11.74	4003	1370	1000	1484	1702	0.02	1.704661	8	10	0.08	2800	342.5262	40.92395	-91.39362
65391	1563	1437	785	-3.807431	3.545282	342.2861	0	11.74	4002	1473	1395	1369	1315	0.02	1.69756	8	10	0.08	2800	344.2158	40.92395	-91.39362
65426	-383	911	378	-4.140825	2.707078	342.4464	0	11.74	4003	1174	1652	1638	1084	0.02	1.695594	8	10	0.08	2800	344.2158	40.92395	-91.39362
65577	1440	-1953	-538	-6.405916	4.209138	342.1408	0	11.74	4002	1294	1314	1540	1400	0.02	1.696173	8	10	0.08	2800	346.9945	40.92395	-91.39362
65642	-497	-701	1469	-6.657428	5.028793	340.3354	0	11.74	4002	1267	1355	1527	1379	0.02	1.697233	8	10	0.08	2800	344.6339	40.92395	-91.39362
65730	-588	-1242	1178	-7.49723	5.256094	338.8417	0	11.63	4002	1264	1230	1532	1518	0.02	1.69996	8	10	0.08	2800	341.9316	40.92395	-91.39362
65841	-581	-281	1465	-6.2712	2.473564	335.659	0	11.63	4004	1523	1017	1253	1763	0.02	1.693551	8	10	0.08	2800	339.8637	40.92395	-91.39362
65972	734	-345	1216	-7.57637	2.700421	333.6952	0	11.63	4004	1279	1525	1487	1241	0.02	1.690673	8	10	0.08	2800	336.9444	40.92395	-91.39362
66141	374	480	-25	-4.929134	1.452896	332.2561	0	11.63	4003	1158	1472	1602	1268	0.02	1.708639	8	10	0.08	2800	334.4778	40.92395	-91.39362
66253	-1530	-76	-1518	-5.693007	1.023054	332.0602	0	11.63	4002	1421	1581	1365	1137	0.02	1.720952	8	10	0.08	2800	334.0727	40.92395	-91.39362
66362	-795	1420	-1413	-6.204555	-0.2649325	333.6804	0	11.63	4004	1255	1809	1517	935	0.02	1.727253	8	10	0.08	2800	336.4061	40.92395	-91.39362
66476	-2628	-1207	-1210	-7.718792	0.7688771	335.6631	0	11.63	4003	1633	779	1173	1919	0.02	1.742234	8	10	0.08	2800	338.2936	40.92395	-91.39362
66535	-1924	-159	-1582	-9.322792	1.622368	336.793	0	11.63	4004	1430	1468	1386	1232	0.02	1.753852	8	10	0.08	2800	335.9959	40.92395	-91.39362
66630	5910	1545	-2268	-1.874326	0.479519	340.3657	0	11.51	4002	1573	1081	1269	1589	0.02	1.758925	8	10	0.08	2800	342.4626	40.92395	-91.39362
66799	-3924	-1843	-557	-4.795963	2.417848	342.5319	0	11.51	4003	1528	1496	1288	1188	0.02	1.784229	8	10	0.08	2800	346.8071	40.92395	-91.39362
66958	660	74	82	-7.559533	4.946806	343.5502	0	11.51	4003	1485	1347	1329	1347	0.02	1.811872	8	10	0.08	2800	344.5797	40.92395	-91.39362
67082	-144	-1074	640	-7.993949	5.565584	341.7015	0	11.51	4003	1484	1268	1312	1460	0.02	1.818348	8	10	0.08	2800	343.3178	40.92395	-91.39362
67197	521	2458	2112	-7.067036	5.448221	338.6537	0	11.51	4003	1429	1631	1337	1123	0.02	1.822787	8	10	0.08	2800	340.6997	40.92395	-91.39362
67231	431	3966	2414	-7.061278	3.48841	337.658	0	11.51	4002	1542	1568	1212	1190	0.02	1.824953	8	10	0.08	2800	338.8173	40.92395	-91.39362
67317	-1602	1319	1701	-8.40544	0.008659935	335.5798	0	11.51	4003	1451	1167	1303	1599	0.02	1.828509	8	10	0.08	2800	337.6389	40.92395	-91.39362
67433	4214	-95	-714	-5.699466	-0.4808678	334.9467	0	11.51	4004	1320	1384	1470	1338	0.02	1.834217	8	10	0.08	2800	339.9139	40.92395	-91.39362
67569	-1676	-1341	-376	-4.103587	1.231365	336.2651	0	12.31	4004	1036	1750	1754	992	0.02	1.843225	8	10	0.08	2800	337.7515	40.92395	-91.39362
67605	-1676	-1341	-376	-4.103587	1.231365	336.2651	0	12.31	4004	1428	1134	1396	1574	0.02	1.843924	8	10	0.08	2800	337.7515	40.92395	-91.39362
67708	-1978	69	-2285	-6.520228	3.716259	337.8232	0	12.31	4004	1384	1838	1444	842	0.02	1.855145	8	10	0.08	2800	340.012	40.92395	-91.39362
67811	940	281	-2581	-6.531963	3.825353	340.786	0	12.31	4004	1569	1165	1297	1497	0.02	1.865354	8	10	0.08	2800	342.5354	40.92395	-91.39362
67921	-809	505	-777	-4.710145	2.19396	343.4048	0	12.31	4004	1386	1418	1456	1280	0.02	1.868446	8	10	0.08	2800	345.9074	40.92395	-91.39362
68081	1649	1449	-734	-8.691312	6.441473	345.2298	0	12.31	4004	1649	1437	1207	1243	0.02	1.873098	8	10	0.08	2800	348.6079	40.92395	-91.39362
68129	1557	2701	266	-6.469149	4.035913	344.9862	0	12.31	4004	1487	1495	1325	1213	0.02	1.874993	8	10	0.08	2800	351.4241	40.92395	-91.39362
68249	76	-1236	284	-6.696809	3.316308	343.6724	0	12.31	4004	1210	1252	1604	1466	0.02	1.881366	8	10	0.08	2800	350.9311	40.92395	-91.39362
68342	1798	-1695	989	-5.648137	6.201634	342.1043	0	12.31	4004	1280	1396	1528	1328	0.02	1.883001	8	10	0.08	2800	346.4143	40.92395	-91.39362
68462	-208	1676	1753	-5.770117	4.70494	339.343	0	11.68	4003	1479	1383	1307	1387	0.02	1.880729	8	10	0.08	2800	344.7681	40.92395	-91.39362
68516	-729	1405	1397	-6.003712	3.883527	338.5563	0	11.68	4003	1488	1318	1310	1428	0.02	1.878899	8	10	0.08	2800	342.1384	40.92395	-91.39362
68655	-119	1023	1957	-6.008649	2.165132	334.5351	0	11.68	4003	1543	1151	1231	1631	0.02	1.876948	8	10	0.08	2800	340.38	40.92395	-91.39362
68795	-239	-23	1248	-5.433325	2.135281	333.0414	0	11.68	4003	1602	1294	1166	1478	0.02	1.876205	8	10	0.08	2800	337.2392	40.92395	-91.39362
68874	-184	291	-1434	-5.353814	1.871848	332.9813	0	11.68	4004	1431	937	1363	1781	0.02	1.879573	8	10	0.08	2800	336.9761	40.92395	-91.39362
68972	-1520	-1741	-592	-6.045969	3.248024	334.5284	0	11.68	4004	1271	1515	1497	1217	0.02	1.895082	8	10	0.08	2800	339.281	40.92395	-91.39362
69043	334	1351	592	-6.247989	3.292321	335.4644	0	11.68	4002	1318	1398	1494	1302	0.02	1.902918	8	10	0.08	2800	338.989	40.92395	-91.39362
69135	1678	260	-2425	-5.150747	2.962577	336.7869	0	11.68	4002	1341	1431	1381	869	0.02	1.906686	8	10	0.08	2800	341.7849	40.92395	-91.39362
69240	-598	1146	-578	-2.472734	2.178188	340.1393	0	11.68	4002	1396	2108	1414	570	0.02	1.92322	8	10	0.08	2800	343.9292	40.92395	-91.39362
69373	-3395	-587	-1306	-5.104099	-0.1702675	341.2484	0	11.63	4004	1389	1297	1439	1371	0.02	1.945089	8	10	0.08	2800	348.2734	40.92395	-91.39362
69490	1597	-2803	-445	-9.268594	5.559777	341.9904	0	11.63	4003	1435	845	1389	1803	0.02	1.959891	8	10	0.08	2800	344.8782	40.92395	-91.39362
69652	-281	321	1372	-5.361403	7.252499	341.4031	0	11.63	4003	1266	1242	1528	1476	0.02	1.978765	8	10	0.08	2800	344.0551	40.92395	-91.39362
69763	-1067	279	1321	-6.982699	6.73827	339.6566	0	11.63	4002	1365	1283	1417	1459	0.02	1.986769	8	10	0.08	2800	341.2804	40.92395	-91.39362
69881	548	-818	1304	-7.195116	5.182156	336.9332	0	11.63	4002	1449	1343	1309	1407	0.02	2.00422	8	10	0.08	2800	340.5325	40.92395	-91.39362
69952	620	-879	1619	-6.705337	6.384436	335.5712	0	11.63	4003	1443	1271	1315	1487	0.02	2.010611	8	10	0.08	2800	338.5992	40.92395	-91.39362
70095	-108	-458	498	-5.828152	4.803209	332.9996	0	11.63	4003	1388	1230	1384	1522	0.02	2.020574	8	10	0.08	2800	335.8379	40.92395	-91.39362
70137	-108	36	715	-5.793565	4.627969	332.5062	0	11.63	4002	1295	1569	1451	1189	0.02	2.022413	8	10	0.08	2800	336.4633	40.92395	-91.39362
70271	-779	481	-372	-7.235559	4.103463	331.9043	0	11.68	4004	1300	1430	1468	1314	0.02	2.030757	8	10	0.08	2800	335.2894	40.92395	-91.39362
70379	-169	-1282	-555	-6.215572	4.70404	331.914	0	11.68	4002	1377	1309	1409	1425	0.02	2.039438	8	10	0.08	2800	334.6132	40.92395	-91.39362
70441	424	-680	-1261	-5.652193	5.269226	332.1033	0	11.68	4003	1405	1411	1403	1317	0.02	2.043212	8	10	0.08	2800	334.6132	40.92395	-91.39362
70589	-2363	907	-1169	-4.352267	2.165844	334.7531	0	11.68	4004	1738	886	1126	1862	0.02	2.03657	8	10	0.08	2800	338.0393	40.92395	-91.39362
70672	-3038	-740	-1929	-7.134531	1.665319	335.3525	0	11.68	4003	1461	1207	1391	1529	0.02	2.022975	8	10	0.08	2800	338.3303	40.92395	-91.39362
70826	423	1208	-888	-7.156158	3.022373	336.6448	0	11.68	4003	1504	1244	1342	1490	0.02	2.005523	8	10	0.08	2800	339.219	40.92395	-91.39362
70868	432	1209	-2054	-6.895314	2.662619	337.81	0	11.68	4003	1381	1637	1489	1077	0.02	2.002207	8	10	0.08	2800	342.2796	40.92395	-91.39362
71004	1081	-924	-232	-5.824896	4.313931	340.09	0	11.68	4003	1402	1434	1440	1312	0.02	1.974208	8	10	0.08	2800	342.781	40.92395	-91.39362
71121	-284	2666	-1387	-4.883428	4.893142	341.593	0	11.68	4002	1539	1693	1355	1033	0.02	1.94804	8	10	0.08	2800	342.7004	40.92395	-91.39362
71181	2178	3477	-611	-4.051378	2.021215	342.9619	0	11.68	4003	1505	1429	1391	1315	0.02	1.943519	8	10	0.08	2800	346.0131	40.92395	-91.39362
71258	-430	-1708	-1181	-5.346207	1.332646	345.2062	0	11.74	4004	1266	1470	1602	1214	0.02	1.930939	8	10	0.08	2800	348.0525	40.92395	-91.39362
71366	1934	-1150	497	-5.078982	5.189347	346.0464	0	11.74	4004	1514	1456	1342	1244	0.02	1.920625	8	10	0.08	2800	348.8926	40.92395	-91.39362
71479	98	481	1085	-4.152817	4.893782	345.2974	0	11.74	4004	1441	1383	1399	1337	0.02	1.910639	8	10	0.08	2800	348.3019	40.92395	-91.39362
71550	-1969	-673	610	-7.36182	5.411133	343.4652	0	11.74	4003	1417	1167	1417	1551	0.02	1.907337	8	10	0.08	2800	345.1935	40.92395	-91.39362
71681	1919	381	2138	-5.71156	0.4562798	338.8643	0	11.74	4003	1327	1235	1477	1537	0.02	1.898893	8	10	0.08	2800	341.0903	40.92395	-91.39362
71780	-1112	-1188	929	-5.452531	2.220134	336.6899	0	11.74	4003	1636	1392	1166	1382	0.02	1.886086	8	10	0.08	2800	339.9811	40.92395	-91.39362
71874	1431	-1822	921	-6.015276	3.258379	335.5285	0	11.74	4003	1136	1228	1678	1566	0.02	1.871057	8	10	0.08	2800	338.1731	40.92395	-91.39362
72043	-2393	-813	1004	-5.951921	3.309245	332.6114	0	11.74	4004	1598	1280	1176	1494	0.02	1.867652	8	10	0.08	2800	334.6669	40.92395	-91.39362
72100	-541	-329	1526	-6.623694	3.766119	332.3127	0	11.74	4003	1343	1477	1427	1293	0.02	1.868859	8	10	0.08	2800	333.1749	40.92395	-91.39362
72158	-63	152	-490	-7.526916	3.583509	332.9281	0	11.74	4004	1501	1037	1303	1691	0.02	1.868859	8	10	0.08	2800	332.0067	40.92395	-91.39362
72261	109	78	213	-6.158348	3.536858	333.4403	0	11.74	4002	1222	1522	1556	1232	0.02	1.873315	8	10	0.08	2800	333.712	40.92395	-91.39362
72366	284	573	310	-5.561145	1.27653	333.8661	0	11.74	4003	1330	1494	1438	1274	0.02	1.879001	8	10	0.08	2800	334.9354	40.92395	-91.39362
72570	-1320	823	-1103	-4.90451	2.65455	335.979	0	11.74	4004	1388	1282	1396	1390	0.02	1.91302	8	10	0.08	2800	333.5184	40.92395	-91.39362
72757	-1029	36	-954	-4.820063	1.426588	339.2512	0	11.74	4003	1591	1211	1229	1461	0.02	1.949208	8	10	0.08	2800	338.852	40.92395	-91.39362
72805	-717	-1318	-1248	-5.188281	1.93318	339.7244	0	11.74	4003	1211	1333	1607	1349	0.02	1.961189	8	10	0.08	2800	338.852	40.92395	-91.39362
72889	-1347	-169	147	-7.051764	3.775536	340.2062	0	11.74	4002	1257	1305	1553	1381	0.02	1.970008	8	10	0.08	2800	337.8841	40.92395	-91.39362
72965	-505	-471	217	-7.268642	3.692782	340.0384	0	11.74	4003	1238	1164	1562	1540	0.02	1.982306	8	10	0.08	2800	337.5876	40.92395	-91.39362
73081	-271	1525	1383	-4.445364	1.226918	338.9529	0	11.63	4004	1471	1359	1275	1359	0.02	2.006064	8	10	0.08	2800	340.4579	40.92395	-91.39362
73221	314	-1076	1552	-7.622409	-0.3796982	335.0714	0	11.63	4003	1219	1317	1551	1453	0.02	2.0121	8	10	0.08	2800	336.9297	40.92395	-91.39362
73269	-330	-1936	1829	-7.456486	0.8145825	333.1496	0	11.63	4002	1134	1320	1622	1464	0.02	2.012169	8	10	0.08	2800	335.8017	40.92395	-91.39362
73428	-133	-152	1314	-7.783434	-2.405701	328.1059	0	11.63	4003	1338	1302	1408	1492	0.02	2.014041	8	10	0.08	2800	332.2598	40.92395	-91.39362
73582	1835	-1144	593	-7.307901	-1.020829	326.3907	0	11.63	4002	1175	1619	1573	1185	0.02	2.011194	8	10	0.08	2800	329.9656	40.92395	-91.39362
73745	-3664	-363	-1034	-5.801655	-1.627185	325.8011	0	11.63	4002	1336	1202	1460	1590	0.02	1.994414	8	10	0.08	2800	329.345	40.92395	-91.39362
73816	-2903	-1325	-2009	-9.177647	-0.8353833	326.3492	0	11.63	4004	1458	888	1346	1920	0.02	1.97863	8	10	0.08	2800	329.1111	40.92395	-91.39362
73957	2681	2271	-1135	-6.705611	0.6910874	329.033	0	11.63	4002	1464	1582	1360	1218	0.02	1.928142	8	10	0.08	2800	333.594	40.92395	-91.39362
73991	-315	2200	-1446	-6.05095	-0.2594651	329.419	0	11.68	4002	1634	1122	1200	1660	0.02	1.913641	8	10	0.08	2800	333.594	40.92395	-91.39362
74101	1817	162	-759	-5.40363	-1.472634	331.8162	0	11.68	4003	1192	1526	1650	1260	0.02	1.889569	8	10	0.08	2800	337.6768	40.92395	-91.39362
74252	-4161	-117	-658	-4.521624	-3.625286	336.5074	0	11.68	4004	1727	1223	1165	1553	0.02	1.836124	8	10	0.08	2800	343.1512	40.92394	-91.39362
74307	-3139	-1662	70	-6.75994	-2.655441	336.9186	0	11.68	4003	1323	1497	1543	1305	0.02	1.819147	8	10	0.08	2800	346.6801	40.92394	-91.39362
74364	1238	-2483	-731	-8.5919	0.7322937	338.2085	0	11.68	4002	1452	1562	1462	1212	0.02	1.813145	8	10	0.08	2800	345.658	40.92394	-91.39362
74550	283	650	1267	-7.165387	2.716292	337.9094	0	11.68	4004	1332	1500	1512	1288	0.02	1.751335	8	10	0.08	2800	344.3729	40.92394	-91.39362
74619	-108	214	1862	-7.887169	2.182251	336.7742	0	11.68	4003	1296	1246	1528	1554	0.02	1.730401	8	10	0.08	2800	342.463	40.92394	-91.39362
74728	1680	-504	921	-5.11029	2.276129	334.8273	0	11.68	4004	1236	1464	1596	1336	0.02	1.701259	8	10	0.08	2800	338.9989	40.92394	-91.39362
74849	-3469	1050	79	-4.490722	0.4847923	334.2072	0	11.68	4002	1495	1475	1327	1347	0.02	1.671624	8	10	0.08	2800	339.8577	40.92394	-91.39362
74973	276	794	1104	-7.268366	-1.544401	333.352	0	11.97	4003	1533	1133	1305	1645	0.02	1.652496	8	10	0.08	2800	337.847	40.92394	-91.39362
75066	1795	-2075	-261	-4.999664	-0.713097	333.6228	0	11.97	4003	1398	1148	1450	1632	0.02	1.635177	8	10	0.08	2800	339.311	40.92394	-91.39362
75181	2560	1881	-412	-4.2997	1.989243	334.1356	0	11.97	4003	1547	873	1303	1901	0.02	1.600816	8	10	0.08	2800	336.9627	40.92394	-91.39362
75242	2138	1498	-1461	-3.940149	1.247255	334.8298	0	11.97	4002	1217	1797	1617	981	0.02	1.58641	8	10	0.08	2800	336.9627	40.92394	-91.39362
75398	2913	-180	-2344	-7.467706	4.061279	339.3004	0	11.97	4004	1392	1406	1484	1342	0.02	1.553665	8	10	0.08	2800	341.1869	40.92394	-91.39362
75486	1491	654	-1723	-3.270518	1.820466	341.7374	0	11.97	4002	1022	1616	1886	1108	0.02	1.543113	8	10	0.08	2800	343.993	40.92394	-91.39362
75585	-4260	194	74	-6.792501	-1.006965	342.7408	0	11.97	4002	1795	1309	1065	1447	0.02	1.532945	8	10	0.08	2800	345.406	40.92394	-91.39362
75677	1286	-2419	-1517	-8.140984	1.009941	343.1318	0	11.97	4003	1453	1293	1423	1403	0.02	1.534107	8	10	0.08	2800	349.1814	40.92394	-91.39362
75819	2836	1837	940	-1.842222	2.525347	343.0652	0	11.68	4003	1476	1636	1348	1080	0.02	1.543483	8	10	0.08	2800	347.0974	40.92394	-91.39362
75861	1388	2150	-223	-1.749973	1.194971	342.8012	0	11.68	4004	1408	1750	1400	970	0.02	1.547328	8	10	0.08	2800	346.7837	40.92394	-91.39362
75978	-2040	80	-1675	-2.311349	0.2893496	344.3322	0	11.68	4002	1300	1398	1546	1260	0.02	1.575076	8	10	0.08	2800	346.7837	40.92394	-91.39362
76146	-563	-944	1366	-5.331027	3.704969	344.0919	0	11.68	4004	1317	1231	1467	1473	0.02	1.633294	8	10	0.08	2800	349.8419	40.92394	-91.39362
76233	1320	-647	927	-5.28821	3.455657	342.0639	0	11.68	4002	1374	1358	1404	1332	0.02	1.666103	8	10	0.08	2800	346.005	40.92394	-91.39362
76311	286	404	2247	-4.488308	3.470726	340.22	0	11.68	4003	1509	1305	1219	1391	0.02	1.695897	8	10	0.08	2800	344.1721	40.92394	-91.39362
76438	-1573	1538	1982	-6.341458	-0.4299473	335.597	0	11.68	4003	1324	1368	1386	1366	0.02	1.753281	8	10	0.08	2800	339.487	40.92394	-91.39362
76605	1408	-666	1672	-4.139762	1.304963	331.4172	0	11.68	4003	1472	1396	1254	1366	0.02	1.806783	8	10	0.08	2800	335.1592	40.92394	-91.39362
76626	-174	96	1195	-3.834368	1.677649	330.5819	0	11.68	4004	1408	1300	1312	1464	0.02	1.806783	8	10	0.08	2800	335.1592	40.92394	-91.39362
76815	2319	1120	336	-2.843026	0.8598219	327.7056	0	11.8	4004	1558	1446	1144	1304	0.02	1.860264	8	10	0.08	2800	331.0941	40.92394	-91.39362
76847	1457	1864	1033	-2.257233	0.03036842	327.4425	0	11.8	4003	1362	1366	1358	1406	0.02	1.865073	8	10	0.08	2800	329.9343	40.92394	-91.39362
76928	-181	-157	-382	-2.693548	-0.000868702	327.5371	0	11.8	4002	1409	1359	1333	1391	0.02	1.876871	8	10	0.08	2800	330.102	40.92394	-91.39362
77050	693	3142	-970	-4.171492	-1.161894	328.7827	0	11.8	4003	1457	929	1327	1823	0.02	1.892795	8	10	0.08	2800	331.2357	40.92394	-91.39362
77176	-782	-1384	-1542	-3.050746	-2.113996	331.5898	0	11.8	4004	1319	1349	1479	1393	0.02	1.909451	8	10	0.08	2800	333.8822	40.92394	-91.39362
77293	-3454	-272	-2258	-7.552748	1.356255	335.5729	0	11.8	4003	1338	1048	1512	1666	0.02	1.908366	8	10	0.08	2800	336.015	40.92394	-91.39362
77339	1169	1086	-4486	-8.542621	1.734464	337.778	0	11.8	4002	1368	1620	1550	1038	0.02	1.907465	8	10	0.08	2800	337.8828	40.92394	-91.39362
77464	-1198	-654	-1711	-0.9895815	-0.2689323	344.0309	0	11.8	4003	1521	1319	1419	1373	0.02	1.888266	8	10	0.08	2800	347.3759	40.92394	-91.39362
77530	-1274	-1253	-1490	-1.93194	0.1591254	345.0121	0	11.8	4002	1302	1376	1610	1348	0.02	1.881062	8	10	0.08	2800	349.655	40.92394	-91.39362
77587	-3872	-1983	-894	-5.323678	2.098715	347.6053	0	11.63	4003	1471	987	1445	1717	0.02	1.867523	8	10	0.08	2800	351.8663	40.92394	-91.39362
77743	321	903	-595	-7.361887	4.03364	348.8561	0	11.63	4003	1510	1358	1388	1360	0.02	1.837874	8	10	0.08	2800	351.7904	40.92394	-91.39362
77817	1059	-509	-469	-6.075342	2.994359	348.7089	0	11.63	4002	1394	1200	1486	1496	0.02	1.827618	8	10	0.08	2800	352.1691	40.92394	-91.39362
77889	1490	-671	749	-5.367543	3.271917	348.5161	0	11.63	4002	1466	1492	1406	1224	0.02	1.825313	8	10	0.08	2800	353.4953	40.92394	-91.39362
78062	-366	1462	351	-5.057716	1.674142	345.4815	0	11.63	4003	1282	1202	1578	1546	0.02	1.802415	8	10	0.08	2800	347.8677	40.92394	-91.39362
78152	-540	-1130	2159	-5.912817	-0.1869134	343.7299	0	11.63	4002	1260	1454	1570	1316	0.02	1.800261	8	10	0.08	2800	347.4201	40.92394	-91.39362
78235	-1195	1075	2533	-6.189115	1.180782	340.5182	0	11.63	4002	1567	1449	1233	1343	0.02	1.792706	8	10	0.08	2800	343.2592	40.92394	-91.39362
78336	966	-997	811	-7.627715	0.1590181	338.5103	0	11.63	4002	1258	1538	1532	1236	0.02	1.788279	8	10	0.08	2800	342.7943	40.92394	-91.39362
78363	966	-997	811	-7.627715	0.1590181	338.5103	0	11.63	4002	1107	1303	1695	1443	0.02	1.790931	8	10	0.08	2800	342.7943	40.92394	-91.39362
78543	37	1778	304	-5.338631	1.523911	336.9012	0	11.51	4004	1483	1425	1327	1369	0.02	1.781833	8	10	0.08	2800	340.0029	40.92394	-91.39362
78619	1629	1628	-619	-4.630332	0.1076466	336.5211	0	11.51	4003	1418	1558	1416	1204	0.02	1.778534	8	10	0.08	2800	341.0368	40.92394	-91.39362
78731	-428	-192	-253	-4.10712	-0.5740408	337.0152	0	11.51	4003	1262	1676	1598	1112	0.02	1.767037	8	10	0.08	2800	342.1711	40.92394	-91.39362
78808	-86	357	-1499	-2.085639	-0.4985856	339.6173	0	11.51	4004	1254	1846	1628	900	0.02	1.757947	8	10	0.08	2800	341.5704	40.92394	-91.39362
78930	-2246	-1362	-1833	-5.26755	1.010878	343.2472	0	11.51	4004	1170	1648	1738	1048	0.02	1.743173	8	10	0.08	2800	345.0571	40.92394	-91.39362
79001	22	-285	-1935	-5.283138	2.061309	345.1989	0	11.51	4003	1287	1439	1623	1267	0.02	1.732223	8	10	0.08	2800	345.3742	40.92394	-91.39362
79088	1373	-1235	-532	-4.884979	2.276108	347.6192	0	11.51	4003	1274	1430	1626	1258	0.02	1.72271	8	10	0.08	2800	349.1839	40.92394	-91.39362
79181	1322	440	-1893	-2.974147	3.610811	350.4679	0	11.51	4004	1292	1370	1634	1280	0.02	1.721324	8	10	0.08	2800	351.7748	40.92394	-91.39362
79217	-1678	-380	-1607	-2.666739	3.137863	351.9311	0	11.51	4003	1398	1182	1538	1482	0.02	1.719749	8	10	0.08	2800	353.3503	40.92394	-91.39362
79352	-2786	-1684	-958	-4.75559	4.386736	353.1788	0	11.63	4003	1491	1073	1439	1581	0.02	1.717841	8	10	0.08	2800	354.5621	40.92394	-91.39362
79424	-1000	-141	-525	-6.724769	5.996055	353.3424	0	11.63	4004	1519	1463	1383	1207	0.02	1.717607	8	10	0.08	2800	355.5525	40.92394	-91.39362
79598	997	-1065	1654	-6.081625	3.003348	350.7474	0	11.63	4003	1356	1332	1506	1386	0.02	1.713107	8	10	0.08	2800	355.711	40.92394	-91.39362
79717	941	1915	2008	-6.456697	1.139737	346.2417	0	11.63	4002	1343	1515	1493	1213	0.02	1.714241	8	10	0.08	2800	352.5177	40.92394	-91.39362
79752	2387	1250	2379	-5.960689	0.4549948	345.2502	0	11.63	4002	1369	1657	1441	1097	0.02	1.71696	8	10	0.08	2800	349.0536	40.92394	-91.39362
79847	-1633	831	-397	-3.098166	-0.02841749	343.1666	0	11.63	4003	1451	1483	1359	1251	0.02	1.72384	8	10	0.08	2800	347.4384	40.92394	-91.39362
79915	-295	978	2063	-3.536863	-0.4894303	342.7632	0	11.63	4003	1588	1516	1220	1236	0.02	1.728915	8	10	0.08	2800	347.4384	40.92394	-91.39362
80018	-2228	-1025	-246	-8.438591	0.8507396	342.2264	0	11.63	4003	1465	1481	1377	1237	0.02	1.735978	8	10	0.08	2800	344.7475	40.92394	-91.39362
80264	-1610	-563	498	-4.562551	1.451327	341.8054	0	11.46	4004	1478	1088	1352	1654	0.02	1.7501	8	10	0.08	2800	343.8841	40.92394	-91.39362
80381	932	136	663	-3.861662	2.040279	341.0141	0	11.46	4002	1509	1487	1331	1265	0.02	1.74911	8	10	0.08	2800	344.1042	40.92394	-91.39362
80513	-1528	985	321	-4.952442	1.629961	340.3945	0	11.46	4003	1486	1224	1372	1510	0.02	1.746483	8	10	0.08	2800	342.787	40.92394	-91.39362
80580	-346	-4	68	-5.696609	0.1519352	340.5587	0	11.46	4003	1353	1305	1485	1421	0.02	1.747373	8	10	0.08	2800	344.5455	40.92393	-91.39362
80669	492	910	1421	-6.118537	-0.3695058	340.1284	0	11.46	4002	1427	1547	1395	1207	0.02	1.748541	8	10	0.08	2800	344.1061	40.92393	-91.39362
80750	-526	202	-165	-5.892411	-0.254394	339.5979	0	11.46	4004	1173	1321	1641	1421	0.02	1.750414	8	10	0.08	2800	344.3521	40.92393	-91.39362
80817	-221	-464	897	-5.430187	0.1736303	338.4329	0	11.46	4004	1636	1268	1176	1488	0.02	1.759652	8	10	0.08	2800	342.7458	40.92393	-91.39362
81011	-813	2439	1188	-6.339164	-2.388267	334.7357	0	11.46	4003	1320	1470	1486	1332	0.02	1.760713	8	10	0.08	2800	339.3651	40.92393	-91.39362
81120	1283	-2112	-542	-6.483537	-2.325912	333.1892	0	11.46	4004	1248	1612	1564	1184	0.02	1.754604	8	10	0.08	2800	339.253	40.92393	-91.39362
81233	824	-1312	308	-1.882921	0.2565413	332.5582	0	11.91	4004	1118	1236	1688	1574	0.02	1.746657	8	10	0.08	2800	337.0779	40.92393	-91.39362
81309	-414	-78	697	-3.168784	0.6607047	332.1636	0	11.91	4003	1453	1109	1383	1683	0.02	1.734909	8	10	0.08	2800	333.9211	40.92393	-91.39362
81451	1230	833	-500	-2.989522	-1.728389	332.0849	0	11.91	4003	1612	1352	1206	1446	0.02	1.711423	8	10	0.08	2800	336.7881	40.92393	-91.39362
81598	409	-3059	682	-4.654439	0.5346819	330.9938	0	11.91	4004	1407	1295	1381	1533	0.02	1.698806	8	10	0.08	2800	335.0492	40.92393	-91.39362
81670	-313	-274	1845	-4.841302	1.989787	330.0099	0	11.91	4004	1355	1425	1455	1457	0.02	1.681386	8	10	0.08	2800	331.4892	40.92393	-91.39362
81785	866	1535	2790	-5.68925	0.1389981	327.8296	0	11.91	4002	1303	1697	1493	1179	0.02	1.672005	8	10	0.08	2800	330.4178	40.92393	-91.39362
81833	2521	1580	-1390	-4.05737	-1.453528	327.3738	0	11.91	4002	1306	1670	1506	1138	0.02	1.65921	8	10	0.08	2800	328.5613	40.92393	-91.39362
81891	1266	328	-1178	-1.310181	-1.974564	327.985	0	11.91	4003	1515	1577	1299	1237	0.02	1.649536	8	10	0.08	2800	330.0153	40.92393	-91.39362
82131	2615	1450	-260	-3.650852	-0.7894167	331.2265	0	11.68	4004	1501	997	1341	1777	0.02	1.625023	8	10	0.08	2800	330.5056	40.92393	-91.39362
82151	123	-220	-741	-2.856005	-1.561103	332.8256	0	11.68	4004	1216	1514	1608	1262	0.02	1.62039	8	10	0.08	2800	332.8109	40.92393	-91.39362
82291	924	1551	-839	-3.326454	1.834595	335.7577	0	11.68	4003	1505	1285	1329	1461	0.02	1.620156	8	10	0.08	2800	335.5317	40.92393	-91.39362
82409	-1124	1546	-1098	-6.579545	-0.3386807	335.9278	0	11.68	4004	1251	1879	1577	873	0.02	1.625336	8	10	0.08	2800	335.1753	40.92393	-91.39362
82463	1156	311	-2128	-7.530627	-0.001944447	337.978	0	11.68	4002	1237	1523	1631	1193	0.02	1.631613	8	10	0.08	2800	335.2009	40.92393	-91.39362
82613	-444	516	-1653	-5.120353	-0.7225422	340.4137	0	11.68	4003	1647	867	1229	1813	0.02	1.646548	8	10	0.08	2800	338.8327	40.92393	-91.39362
82762	-776	-1890	-1613	-6.713023	2.550423	343.4045	0	11.68	4003	1319	1529	1541	1139	0.02	1.676515	8	10	0.08	2800	343.4601	40.92393	-91.39362
82914	-2567	1489	-1173	-8.074471	3.631491	346.1224	0	11.68	4002	1565	1177	1277	1469	0.02	1.711899	8	10	0.08	2800	342.1009	40.92393	-91.39362
83056	-786	-438	533	-7.686791	0.01266012	347.1696	0	11.68	4003	1184	1296	1652	1388	0.02	1.750168	8	10	0.08	2800	348.2276	40.92393	-91.39362
83191	519	-168	525	-8.865909	2.012398	345.6082	0	11.68	4003	1301	1167	1541	1535	0.02	1.784416	8	10	0.08	2800	347.318	40.92393	-91.39362
83305	-1961	2646	826	-9.263385	-0.3754462	343.0344	0	11.68	4002	1566	1226	1246	1486	0.02	1.814412	8	10	0.08	2800	344.8511	40.92393	-91.39362
83387	301	322	359	-9.37949	-2.769409	341.8039	0	11.68	4003	1324	1236	1484	1488	0.02	1.831679	8	10	0.08	2800	345.617	40.92393	-91.39362
83453	958	-2177	908	-7.531625	-0.5064429	340.0826	0	11.68	4004	1272	1312	1522	1426	0.02	1.848663	8	10	0.08	2800	346.3299	40.92393	-91.39362
83664	564	1208	-1218	-5.004977	-2.558369	339.5524	0	11.68	4002	1256	1312	1562	1390	0.02	1.886033	8	10	0.08	2800	344.6129	40.92393	-91.39362
83878	504	802	490	-8.605464	-1.519701	338.545	0	11.63	4004	1454	1116	1364	1618	0.02	1.922583	8	10	0.08	2800	344.6296	40.92393	-91.39362
83969	-481	64	1656	-8.005391	-1.420287	337.0487	0	11.63	4003	1395	1515	1393	1265	0.02	1.937883	8	10	0.08	2800	344.3095	40.92393	-91.39362
84111	745	-442	359	-6.630811	-1.805581	335.434	0	11.63	4002	1397	1323	1383	1429	0.02	1.950582	8	10	0.08	2800	343.4657	40.92393	-91.39362
84208	-312	-536	681	-6.60427	-1.76536	334.928	0	11.63	4003	1375	1549	1427	1217	0.02	1.959171	8	10	0.08	2800	342.3973	40.92393	-91.39362
84342	-297	-714	429	-7.403933	0.7808162	335.6125	0	11.63	4004	1457	1415	1357	1371	0.02	1.95906	8	10	0.08	2800	341.9732	40.92393	-91.39362
84463	-129	1617	645	-6.203327	-0.8839864	336.2249	0	11.63	4003	1556	1416	1268	1368	0.02	1.955827	8	10	0.08	2800	345.8301	40.92393	-91.39362
84516	-600	220	-334	-6.304977	-1.307545	336.3046	0	11.63	4004	1321	1371	1533	1399	0.02	1.947774	8	10	0.08	2800	345.8301	40.92393	-91.39362
84621	-1264	-989	925	-7.637635	0.1868821	348.1143	0	11.63	4003	1310	1310	1530	1506	0.02	1.932369	8	10	0.08	2800	348.2617	40.92393	-91.39362
84699	200	762	-878	-9.288102	-0.9277071	347.3813	0	11.63	4004	1396	1440	1522	1390	0.02	1.897663	8	10	0.08	2800	345.0395	40.92393	-91.39362
84795	3233	163	-1942	-5.335246	-0.3431043	348.977	0	11.8	4002	1596	1152	1330	1618	0.02	1.870925	8	10	0.08	2800	345.527	40.92393	-91.39362
84858	1168	350	-699	-1.765211	-0.7912534	350.7772	0	11.8	4003	1383	1415	1581	1393	0.02	1.84525	8	10	0.08	2800	347.9732	40.92393	-91.39362
85026	14	-1469	-669	-8.239237	1.934655	352.1476	0	11.8	4002	1260	1868	1646	922	0.02	1.784822	8	10	0.08	2800	346.7308	40.92393	-91.39362
85099	962	346	-1363	-5.83002	3.054216	353.2206	0	11.8	4003	1622	1380	1258	1416	0.02	1.761752	8	10	0.08	2800	350.8136	40.92393	-91.39362
85174	-623	1216	-1667	-6.081416	2.565535	354.6296	0	11.8	4003	1503	1319	1407	1439	0.02	1.733414	8	10	0.08	2800	348.8533	40.92393	-91.39362
85281	-912	-1206	-573	-5.883227	2.869534	355.8181	0	11.8	4002	1817	1029	1089	1717	0.02	1.713271	8	10	0.08	2800	352.4366	40.92393	-91.39362
85367	4050	984	-1016	-5.488307	3.933209	356.5325	0	11.8	4011	1611	865	1295	1873	0.02	1.695101	8	10	0.08	2800	349.869	40.92393	-91.39362
85486	531	918	-1609	-0.4966993	1.294178	358.6211	0	11.8	4003	1349	1359	1573	1339	0.02	1.680513	8	10	0.08	2800	353.1435	40.92393	-91.39362
85600	-2361	-2674	492	-4.254518	3.670424	358.946	0	11.8	4003	1497	1345	1367	1375	0.02	1.679229	8	10	0.08	2800	351.5811	40.92393	-91.39362
85730	3878	2240	-2280	-6.068771	5.835334	349.6852	0	10.04	4003	1375	1261	1553	1383	0.02	1.695362	8	10	0.08	2800	349.6376	40.92393	-91.39362
85794	5982	3164	-1595	-3.160561	4.428658	350.7968	0	10.04	4003	1364	1576	1564	1072	0.02	1.706575	8	10	0.08	2800	349.6376	40.92393	-91.39362
85911	-772	-1803	509	-0.9637138	0.1918775	352.4621	0	10.04	4003	1325	2023	1529	627	0.02	1.721557	8	10	0.08	2800	358.3194	40.92393	-91.39362
85945	-541	-3454	6	-1.615079	1.632952	352.6712	0	10.04	4002	1325	2023	1529	627	0.02	1.725892	8	10	0.08	2800	358.3194	40.92393	-91.39362
86086	-1665	-1672	88	-1.822204	4.515294	353.2312	0	10.04	4003	1343	1083	1509	1529	0.02	1.780037	8	10	0.08	2800	354.7969	40.92393	-91.39362
86141	888	1752	2688	-2.736545	3.292336	351.6445	0	10.04	4004	1685	1497	1171	1147	0.02	1.78975	8	10	0.08	2800	351.8135	40.92393	-91.39362
86288	-429	2173	2118	-2.432503	1.696692	349.5754	0	10.04	4004	1248	1284	1530	1402	0.02	1.863569	8	10	0.08	2800	351.5085	40.92393	-91.39362
86379	-2012	1667	2148	-2.655588	1.778187	343.3371	0	10.04	4002	1537	1149	1227	1555	0.02	1.92432	8	10	0.08	2800	344.3735	40.92393	-91.39363
86550	-232	-901	2603	-4.964477	0.2667662	337.8131	0	10.04	4002	1423	1293	1317	1447	0.02	1.994023	8	10	0.08	2800	339.1001	40.92393	-91.39363
86584	1664	608	2675	-4.807734	0.8029929	335.5924	0	11.57	4003	1255	1555	1473	1217	0.02	2.023415	8	10	0.08	2800	334.9708	40.92393	-91.39363
86650	1292	525	2549	-3.277828	0.2464405	333.7184	0	11.57	4002	1219	1399	1471	1331	0.02	2.041662	8	10	0.08	2800	332.5305	40.92393	-91.39363
86750	-56	-427	408	-2.81248	0.4706536	332.2434	0	11.57	4003	1308	1242	1444	1486	0.02	2.081514	8	10	0.08	2800	333.2465	40.92393	-91.39363
86874	-805	878	513	-4.03629	-0.7353743	330.2027	0	11.57	4004	1335	1359	1411	1415	0.02	2.12571	8	10	0.08	2800	328.8731	40.92393	-91.39363
86995	1383	-245	215	-3.458077	-1.866456	328.6756	0	11.57	4004	1182	1328	1582	1444	0.02	2.14571	8	10	0.08	2800	327.8796	40.92393	-91.39363
87168	-176	947	1248	-2.681168	-3.112345	327.4543	0	11.57	4003	1583	1439	1165	1377	0.02	2.174904	8	10	0.08	2800	327.1386	40.92393	-91.39363
87328	1983	1349	101	-1.421839	-3.500815	326.9205	0	11.57	4003	1307	1819	1457	969	0.02	2.18354	8	10	0.08	2800	326.2632	40.92393	-91.39363
87398	2544	979	-338	-0.2924863	-4.239293	327.9534	0	11.57	4004	1357	1425	1439	1371	0.02	2.183092	8	10	0.08	2800	328.2846	40.92393	-91.39363
87520	955	-849	-683	-2.052578	-3.294229	329.7921	0	11.11	4004	1209	1571	1587	1225	0.02	2.180846	8	10	0.08	2800	330.1289	40.92393	-91.39363
87572	-816	-710	-1447	-1.861539	-2.970503	330.192	0	11.11	4004	1410	984	1420	1774	0.02	2.181308	8	10	0.08	2800	330.3038	40.92393	-91.39363
87656	-244	120	129	-2.642187	-4.344081	333.3497	0	11.11	4003	1357	1281	1489	1461	0.02	2.181571	8	10	0.08	2800	331.2819	40.92392	-91.39363
87714	-703	-1775	-529	-3.185707	-3.96275	333.8	0	11.11	4003	1179	1317	1655	1457	0.02	2.175204	8	10	0.08	2800	332.5554	40.92392	-91.39363
87855	454	147	-1263	-4.336719	-1.759869	335.1135	0	11.11	4002	1393	1605	1459	1171	0.02	2.163552	8	10	0.08	2800	333.5044	40.92392	-91.39363
87957	1364	1819	-190	-4.44199	-3.38331	336.1131	0	11.11	4002	1344	1126	1518	1652	0.02	2.141635	8	10	0.08	2800	332.7396	40.92392	-91.39363
88120	498	-146	-1399	-2.429532	-4.177156	339.3026	0	11.11	4003	1391	1485	1499	1281	0.02	2.109932	8	10	0.08	2800	339.9565	40.92392	-91.39362
88138	498	-146	-1399	-2.429532	-4.177156	339.3026	0	11.11	4003	1391	1485	1499	1281	0.02	2.103848	8	10	0.08	2800	339.9565	40.92392	-91.39362
88247	-1391	1699	-1306	-7.589086	-4.451749	339.4276	0	11.11	4002	1404	1466	1484	1310	0.02	2.070696	8	10	0.08	2800	338.8497	40.92392	-91.39362
88343	1740	144	1468	-6.137647	-5.501769	339.8794	0	11.11	4004	1760	1212	1120	1560	0.02	2.05375	8	10	0.08	2800	342.95	40.92392	-91.39362
88428	-1502	592	2331	-6.714168	-4.620659	338.9801	0	11.23	4003	1280	1512	1598	1266	0.02	2.037223	8	10	0.08	2800	343.2565	40.92392	-91.39362
88550	-741	-776	1623	-8.872491	-4.427407	337.2601	0	11.23	4003	1546	1068	1314	1752	0.02	1.996411	8	10	0.08	2800	341.6301	40.92392	-91.39362
88635	13	-115	1900	-8.102661	-3.896668	335.8865	0	11.23	4002	1394	1456	1446	1396	0.02	1.985845	8	10	0.08	2800	341.0182	40.92392	-91.39362
88813	-1154	-2582	1509	-5.594012	-7.617926	334.7453	0	11.23	4004	1419	1447	1391	1355	0.02	1.952435	8	10	0.08	2800	343.6234	40.92392	-91.39362
88847	-939	-2982	1593	-6.552913	-5.979565	334.6406	0	11.23	4002	1313	1519	1483	1293	0.02	1.950965	8	10	0.08	2800	343.6234	40.92392	-91.39362
88959	841	-174	1928	-9.179581	-1.847824	333.5749	0	11.23	4003	1266	1556	1510	1260	0.02	1.947296	8	10	0.08	2800	338.675	40.92392	-91.39362
89074	-1166	-570	-417	-8.997128	-1.757734	332.0453	0	11.23	4002	1055	1615	1721	1161	0.02	1.952598	8	10	0.08	2800	338.6127	40.92392	-91.39362
89161	1478	963	190	-8.737342	-1.910733	331.2671	0	11.23	4003	1476	1284	1298	1490	0.02	1.969935	8	10	0.08	2800	336.438	40.92392	-91.39362
89246	-3623	2581	185	-10.42491	-4.410764	330.3762	0	11.23	4003	1570	1194	1210	1554	0.02	1.97634	8	10	0.08	2800	334.3456	40.92392	-91.39362
89330	137	-1778	484	-12.47496	-4.650503	329.26	0	11.74	4003	1695	1163	1077	1609	0.02	1.984523	8	10	0.08	2800	339.1234	40.92392	-91.39362
89461	-546	965	-886	-8.820118	-1.952114	329.4707	0	11.74	4003	1287	1477	1473	1271	0.02	2.009569	8	10	0.08	2800	338.2411	40.92392	-91.39362
89593	-746	225	1152	-11.37958	-2.551032	329.1303	0	11.74	4003	1397	1417	1325	1361	0.02	2.046114	8	10	0.08	2800	337.4889	40.92392	-91.39362
89708	954	-18	1303	-11.18102	-3.496968	338.1085	0	11.74	4003	1275	1169	1453	1587	0.02	2.102142	8	10	0.08	2800	338.2004	40.92392	-91.39362
89740	1752	529	733	-9.052709	-3.537731	337.6002	0	11.74	4003	979	1547	1715	1147	0.02	2.121447	8	10	0.08	2800	337.0472	40.92392	-91.39362
89864	-2329	-1451	1145	-11.82159	-2.728781	335.1548	0	11.74	4003	1482	1280	1226	1520	0.02	2.182014	8	10	0.08	2800	335.5518	40.92393	-91.39362
89924	2133	-2350	481	-11.83194	-0.4297327	334.1129	0	11.74	4003	1340	1106	1340	1642	0.02	2.18965	8	10	0.08	2800	333.9351	40.92393	-91.39362
90081	-1380	-231	-14	-8.450656	-1.195213	333.0693	0	11.74	4003	1169	1559	1519	1253	0.02	2.250396	8	10	0.08	2800	331.7059	40.92393	-91.39362
90164	788	-926	14	-10.19489	-0.2871055	332.4576	0	11.74	4004	1274	1514	1442	1270	0.02	2.271942	8	10	0.08	2800	331.7402	40.92393	-91.39362
90226	28	-1358	-1085	-10.68318	1.167723	332.3745	0	11.51	4003	1339	1533	1395	1241	0.02	2.292377	8	10	0.08	2800	330.4321	40.92393	-91.39362
90320	62	-1500	33	-8.611207	3.475511	333.39	0	11.51	4003	1332	1212	1396	1556	0.02	2.314248	8	10	0.08	2800	330.8561	40.92393	-91.39362
90409	-226	81	-648	-8.944607	3.304462	333.9727	0	11.51	4002	1315	1141	1453	1643	0.02	2.326541	8	10	0.08	2800	329.9874	40.92393	-91.39362
90465	144	539	-802	-9.270073	2.689278	334.2246	0	11.51	4004	1557	1235	1191	1545	0.02	2.330776	8	10	0.08	2800	329.8187	40.92393	-91.39362
90638	463	-12	-197	-10.5141	2.347704	335.5078	0	11.51	4002	1187	1496	1376	1316	0.02	2.33857	8	10	0.08	2800	331.2272	40.92393	-91.39362
90764	-318	409	95	-8.838881	3.062706	336.0367	0	11.51	4004	1186	1374	1596	1408	0.02	2.337921	8	10	0.08	2800	331.9018	40.92393	-91.39362
90854	1705	-524	-506	-7.810154	2.223022	336.9697	0	11.51	4004	1480	1446	1304	1334	0.02	2.343939	8	10	0.08	2800	331.9412	40.92394	-91.39362
90907	-1073	758	-1262	-6.986898	2.167516	337.7704	0	11.51	4003	1578	1312	1204	1454	0.02	2.344622	8	10	0.08	2800	332.8725	40.92394	-91.39362
91048	-869	-44	-1164	-9.188437	1.992101	338.9045	0	11.51	4002	1501	1559	1301	1223	0.02	2.341869	8	10	0.08	2800	331.2706	40.92394	-91.39362
91118	1858	-1061	-102	-7.149738	3.896214	340.6212	0	11.68	4004	1197	1601	1613	1189	0.02	2.334705	8	10	0.08	2800	334.734	40.92394	-91.39362
91194	-1163	695	-592	-4.425682	3.750499	343.1519	0	11.68	4002	1370	1544	1446	1240	0.02	2.323969	8	10	0.08	2800	335.8996	40.92394	-91.39362
91284	-23	-5	-1751	-5.089139	3.636877	345.4786	0	11.68	4004	1465	1119	1403	1613	0.02	2.31673	8	10	0.08	2800	335.9457	40.92394	-91.39362
91374	-1644	1126	-1035	-4.731433	2.302114	337.3395	0	11.68	4003	1487	1313	1369	1423	0.02	2.310825	8	10	0.08	2800	336.8738	40.92394	-91.39362
91403	-311	-1373	373	-6.661466	2.473747	338.2684	0	11.68	4003	1480	1280	1376	1508	0.02	2.292574	8	10	0.08	2800	339.1385	40.92394	-91.39362
91564	893	-1180	535	-7.045051	3.031764	337.978	0	11.68	4004	1250	1278	1632	1512	0.02	2.267513	8	10	0.08	2800	337.2109	40.92394	-91.39362
91612	1711	902	488	-4.821201	2.553511	337.6516	0	11.68	4003	1377	1751	1483	1037	0.02	2.255597	8	10	0.08	2800	335.4287	40.92394	-91.39362
91708	1802	439	739	-3.562621	2.371578	338.141	0	11.68	4004	1386	1304	1480	1478	0.02	2.214471	8	10	0.08	2800	336.8817	40.92394	-91.39362
91894	-886	-370	-683	-5.77508	3.469413	341.8746	0	11.57	4003	1384	1178	1546	1560	0.02	2.173021	8	10	0.08	2800	340.3864	40.92394	-91.39362
91941	1456	1142	-2012	-5.962691	3.548542	343.016	0	11.57	4004	1189	1739	1775	1029	0.02	2.159233	8	10	0.08	2800	339.1231	40.92394	-91.39362
92031	-1810	890	-556	-4.770992	1.877329	343.8853	0	11.57	4004	1793	977	1179	1807	0.02	2.107811	8	10	0.08	2800	340.7751	40.92394	-91.39362
92158	1048	-892	-1082	-3.908952	1.327356	345.0248	0	11.57	4003	1322	1204	1666	1592	0.02	2.06112	8	10	0.08	2800	344.2207	40.92394	-91.39362
92279	-1168	526	-1037	-3.167051	1.108667	345.3595	0	11.57	4002	1496	1456	1436	1304	0.02	2.008492	8	10	0.08	2800	343.7489	40.92394	-91.39362
92335	-486	-85	-956	-5.606919	0.7468601	345.29	0	11.57	4003	1436	1220	1492	1528	0.02	1.982636	8	10	0.08	2800	342.558	40.92394	-91.39362
92432	685	-1271	-651	-5.729146	3.242629	346.5575	0	11.57	4003	1727	1077	1215	1617	0.02	1.957752	8	10	0.08	2800	341.1819	40.92394	-91.39362
92530	376	648	1031	-4.614991	3.447137	346.7574	0	11.57	4004	1359	1267	1511	1479	0.02	1.947651	8	10	0.08	2800	342.7198	40.92394	-91.39362
92665	716	223	1105	-4.249035	1.376619	344.6774	0	11.57	4002	1303	1213	1575	1513	0.02	1.931215	8	10	0.08	2800	343.2492	40.92394	-91.39362
92717	792	1796	774	-3.580227	0.5439469	343.6802	0	11.57	4003	1498	1184	1354	1564	0.02	1.928598	8	10	0.08	2800	341.1432	40.92394	-91.39362
92839	898	1994	-21	-3.065466	-1.04863	341.0983	0	11.68	4002	1448	1714	1388	1010	0.02	1.934027	8	10	0.08	2800	341.1111	40.92394	-91.39362
92953	-1320	174	1490	-4.750821	-1.955795	338.796	0	11.68	4004	1454	1626	1352	1144	0.02	1.937401	8	10	0.08	2800	338.1295	40.92393	-91.39362
93015	3142	561	239	-3.953828	-1.995357	338.5836	0	11.68	4003	1403	1079	1427	1647	0.02	1.942695	8	10	0.08	2800	337.9925	40.92393	-91.39362
93194	-2039	-445	-1781	-4.235746	-2.660228	339.8373	0	11.68	4003	1138	1592	1694	1108	0.02	1.970266	8	10	0.08	2800	337.8534	40.92393	-91.39362
93248	-1391	-1186	-2044	-6.492978	-0.6190881	340.9741	0	11.68	4003	1335	1091	1501	1581	0.02	1.982191	8	10	0.08	2800	340.0215	40.92393	-91.39362
93325	948	993	-837	-4.41121	-0.5246228	342.666	0	11.68	4002	1297	1425	1531	1263	0.02	1.999183	8	10	0.08	2800	342.1804	40.92393	-91.39362
93466	-681	612	-254	-4.38905	-2.91108	343.1364	0	11.68	4003	1516	1266	1304	1422	0.02	2.040545	8	10	0.08	2800	342.1999	40.92393	-91.39362
93611	-188	430	1802	-5.595702	0.9383665	341.4626	0	11.68	4004	1387	1391	1397	1349	0.02	2.073466	8	10	0.08	2800	340.2825	40.92393	-91.39362
93725	-27	575	2033	-4.249175	-4.052836	337.7672	0	11.57	4003	1339	1183	1413	1569	0.02	2.085968	8	10	0.08	2800	339.2336	40.92393	-91.39362
93868	-581	-1293	184	-5.464177	-1.405764	334.0646	0	11.57	4002	1355	1155	1417	1573	0.02	2.126394	8	10	0.08	2800	337.0576	40.92393	-91.39362
93893	1182	1642	927	-4.409824	-1.693409	332.9028	0	11.57	4004	1355	1155	1417	1573	0.02	2.134062	8	10	0.08	2800	333.5052	40.92393	-91.39362
94019	1198	-155	-436	-4.51363	-1.935548	331.6323	0	11.57	4003	1236	1374	1484	1326	0.02	2.188979	8	10	0.08	2800	331.593	40.92393	-91.39362
94148	-424	1234	-1091	-4.88795	-1.852237	331.0008	0	11.57	4003	1419	1453	1349	1283	0.02	2.21359	8	10	0.08	2800	330.2612	40.92393	-91.39362
94306	11	-112	-1715	-5.807734	-3.819241	332.9567	0	11.57	4002	1238	1374	1572	1352	0.02	2.259473	8	10	0.08	2800	331.8987	40.92393	-91.39362
94500	526	-904	308	-5.354029	-4.076083	333.5151	0	11.57	4004	1198	1360	1606	1534	0.02	2.26499	8	10	0.08	2800	336.7054	40.92393	-91.39362
94628	63	310	896	-7.631907	-1.852496	333.1858	0	11.57	4003	1512	1834	1310	964	0.02	2.254744	8	10	0.08	2800	334.8449	40.92393	-91.39362
