time(ms)	gyro_x(deg/s)	gyro_y(deg/s)	gyro_z(deg/s)	orientation_roll(deg)	orientation_pitch(deg)	orientation_yaw(deg)	throttle	battery(V)	loop_time(uS)	pid_output_roll	pid_output_pitch	pid_output_yaw	pid_output_throttle	ultrasonic_alt	baro_alt	flight_mode	p_gain_altitude	i_gain_altitude	d_gain_altitude	compass_heading	latitude	longitude
310901	-177	1320	-1022	-8.604698	-2.840144	355.7454	0	11.97	4002	1169	1197	1603	1527	0.02	1.702052	8	10	0.08	2800	355.1805	40.92393	-91.39359
310956	436	433	-456	-9.165105	-3.187146	356.0776	0	11.97	4004	1617	1155	1157	1567	0.02	1.70022	8	10	0.08	2800	357.4088	40.92393	-91.39359
311140	1926	851	-1102	-9.359669	-3.243402	358.4459	0	11.97	4002	1061	1653	1711	1027	0.02	1.696158	8	10	0.08	2800	358.7755	40.92393	-91.39359
311179	2267	-670	-2073	-8.030614	-3.414687	359.1736	0	11.97	4002	1324	1294	1448	1382	0.02	1.698366	8	10	0.08	2800	2.456146	40.92393	-91.39359
311256	-1995	-1999	-2023	-8.642885	-1.108343	0.5553327	0	11.97	4002	1321	1245	1445	1401	0.02	1.713591	8	10	0.08	2800	1.714386	40.92393	-91.39359
311439	672	-55	-495	-8.08426	1.740277	2.178352	0	11.97	4002	1164	1152	1580	1484	0.02	1.747669	8	10	0.08	2800	4.113373	40.92393	-91.39359
311509	-193	2765	-365	-7.38325	-0.541613	2.424596	0	11.97	4003	1411	1251	1337	1409	0.02	1.763521	8	10	0.08	2800	6.954712	40.92393	-91.39359
311627	-21	-1985	824	-7.85534	-2.277339	1.930606	0	12.36	4003	1489	1341	1231	1319	0.02	1.811656	8	10	0.08	2800	8.440338	40.92393	-91.39359
311650	-540	-3947	181	-7.837056	-0.5983943	1.747148	0	12.36	4003	1233	1083	1485	1547	0.02	1.811656	8	10	0.08	2800	6.625977	40.92393	-91.39359
311763	-2150	923	1740	-8.851355	1.744043	0.4635982	0	12.36	4002	1316	1058	1366	1620	0.02	1.855694	8	10	0.08	2800	5.620544	40.92393	-91.39359
311905	3073	-1153	643	-9.22273	-1.367299	356.9962	0	12.36	4004	1319	1407	1327	1239	0.02	1.911524	8	10	0.08	2800	6.013336	40.92393	-91.39359
312076	-1776	271	400	-4.78276	1.892795	354.3163	0	12.36	4003	1362	1328	1304	1366	0.02	1.956069	8	10	0.08	2800	356.5054	40.92393	-91.39359
312179	565	-6	1019	-5.913981	-0.1018828	353.1121	0	12.36	4003	1334	1476	1334	1244	0.02	1.989068	8	10	0.08	2800	352.8557	40.92393	-91.39359
312266	1019	402	732	-5.025631	0.4857479	352.4968	0	12.36	4004	1460	1450	1216	1262	0.02	2.009009	8	10	0.08	2800	353.3843	40.92393	-91.39359
312485	-1531	2451	-493	-4.145005	-1.646836	353.4017	0	12.36	4003	1503	1571	1171	1107	0.02	2.059483	8	10	0.08	2800	354.484	40.92393	-91.39359
312630	2457	-1909	-189	-3.768026	0.3355614	354.7957	0	11.97	4003	1074	1272	1636	1414	0.02	2.104068	8	10	0.08	2800	356.6949	40.92393	-91.3936
312681	2249	-243	-229	-2.507704	0.4085442	354.9879	0	11.97	4002	1074	1328	1632	1378	0.02	2.109101	8	10	0.08	2800	356.6949	40.92393	-91.3936
312857	1042	-321	39	-2.628815	-2.19554	354.7466	0	11.97	4004	1181	1085	1545	1609	0.02	2.151398	8	10	0.08	2800	354.7489	40.92393	-91.39361
312957	1214	1649	754	-0.2838083	-4.651387	354.909	0	11.97	4002	1363	1369	1333	1339	0.02	2.169375	8	10	0.08	2800	352.5247	40.92393	-91.39361
312994	1205	1463	333	0.4440747	-5.422655	355.0705	0	11.97	4002	1190	1374	1536	1336	0.02	2.178669	8	10	0.08	2800	352.5247	40.92393	-91.39361
313174	169	120	-568	-0.2894292	-2.582319	355.7432	0	11.97	4002	1460	1538	1228	1138	0.02	2.202104	8	10	0.08	2800	353.3822	40.92393	-91.39362
313208	687	2802	-1085	0.3005082	-4.932324	356.526	0	11.97	4002	1186	1208	1530	1452	0.02	2.213837	8	10	0.08	2800	352.3331	40.92393	-91.39362
313327	-1262	-2373	-230	-1.296515	-7.242898	357.302	0	11.97	4002	1297	1315	1425	1367	0.02	2.231562	8	10	0.08	2800	352.8015	40.92393	-91.39362
313433	512	-1778	-491	-0.193108	0.8361455	358.5078	0	11.97	4004	1214	1214	1512	1460	0.02	2.261124	8	10	0.08	2800	349.7631	40.92393	-91.39362
313488	-533	937	230	-0.7091903	-0.3400659	358.4641	0	11.97	4004	1176	1102	1538	1576	0.02	2.265581	8	10	0.08	2800	349.128	40.92393	-91.39362
313566	329	96	-467	-1.099235	-2.36933	358.5896	0	11.97	4004	1501	1449	1233	1245	0.02	2.274435	8	10	0.08	2800	349.2487	40.92393	-91.39362
313716	-171	493	-51	-0.834079	-3.895267	348.0065	0	11.97	4003	1227	1199	1503	1467	0.02	2.29173	8	10	0.08	2800	348.1088	40.92393	-91.39362
313841	-298	-2297	-201	0.8335752	-1.436994	348.0263	0	11.97	4003	1252	1292	1496	1400	0.02	2.29475	8	10	0.08	2800	348.4709	40.92393	-91.39362
313961	-784	2808	858	-1.015821	-1.98016	347.6732	0	11.97	4002	1642	1590	1076	1108	0.02	2.300111	8	10	0.08	2800	344.3566	40.92393	-91.39362
314052	443	1287	516	-1.548624	-5.894865	347.0588	0	11.97	4003	1465	1603	1289	1123	0.02	2.291406	8	10	0.08	2800	346.5026	40.92393	-91.39362
314132	781	-105	-213	-0.8326799	-6.489882	347.1929	0	11.97	4003	1228	1382	1534	1368	0.02	2.274893	8	10	0.08	2800	348.2885	40.92393	-91.39362
314203	-1758	528	133	-2.826802	-6.55187	346.7556	0	11.97	4002	1575	1171	1213	1573	0.02	2.253886	8	10	0.08	2800	349.2149	40.92393	-91.39362
314324	2671	-1365	-1697	-0.9416429	-5.819913	347.6348	0	11.97	4003	1119	1401	1723	1353	0.02	2.217169	8	10	0.08	2800	347.7686	40.92393	-91.39362
314380	-3302	-2445	-227	-1.470912	-2.663113	348.4764	0	12.14	4002	1437	1149	1371	1575	0.02	2.209621	8	10	0.08	2800	346.7799	40.92393	-91.39362
314466	-239	-139	-889	-2.698215	-2.530044	349.8743	0	12.14	4003	1266	1106	1532	1604	0.02	2.171188	8	10	0.08	2800	345.4247	40.92393	-91.39362
314602	162	430	-504	-4.240914	-2.207552	351.776	0	12.14	4003	1325	1385	1471	1323	0.02	2.143595	8	10	0.08	2800	348.0738	40.92393	-91.39362
314670	571	-886	-457	-4.140146	-3.03	352.1721	0	12.14	4002	1152	1222	1634	1484	0.02	2.13241	8	10	0.08	2800	350.0397	40.92393	-91.39362
314745	-1589	-1766	51	-3.893366	-0.4384917	352.3377	0	12.14	4003	1466	1118	1306	1578	0.02	2.126338	8	10	0.08	2800	349.9846	40.92393	-91.39362
314863	862	1006	540	-5.531403	-0.344603	351.7144	0	12.14	4002	1178	1318	1570	1382	0.02	2.124044	8	10	0.08	2800	348.0179	40.92393	-91.39362
314947	412	-86	1211	-4.232533	-4.207642	350.7014	0	12.14	4003	1192	1304	1546	1366	0.02	2.129155	8	10	0.08	2800	347.7364	40.92393	-91.39362
315166	-95	146	39	-3.737102	0.2173072	349.3107	0	12.14	4003	1147	1215	1575	1475	0.02	2.152061	8	10	0.08	2800	343.564	40.92393	-91.39362
315306	-645	2068	1525	-5.169164	-5.335821	347.7486	0	11.97	4004	1414	1360	1266	1348	0.02	2.191085	8	10	0.08	2800	345.527	40.92393	-91.39362
315431	1016	-1375	118	-6.148126	-7.225999	345.9817	0	11.97	4004	1461	1463	1225	1227	0.02	2.226355	8	10	0.08	2800	347.9736	40.92393	-91.39362
315491	396	-2683	619	-4.772761	-5.267863	345.6005	0	11.97	4003	1202	1138	1484	1564	0.02	2.243847	8	10	0.08	2800	347.4316	40.92393	-91.39362
315550	-676	1216	446	-5.494522	-3.57628	344.7979	0	11.97	4004	1477	1419	1205	1287	0.02	2.249288	8	10	0.08	2800	344.446	40.92393	-91.39362
315645	245	2570	489	-5.415691	-4.884825	344.3979	0	11.97	4003	1596	1422	1090	1272	0.02	2.281092	8	10	0.08	2800	343.5995	40.92393	-91.39362
315793	350	-1474	294	-4.875592	-7.048122	343.9822	0	11.97	4002	1407	1549	1299	1157	0.02	2.301625	8	10	0.08	2800	347.6571	40.92393	-91.39362
315882	-625	-99	-978	-6.191655	-4.260082	344.5346	0	11.97	4004	1496	1362	1216	1314	0.02	2.324432	8	10	0.08	2800	345.9619	40.92393	-91.39361
315950	-631	2670	40	-6.62519	-5.232111	344.9319	0	11.97	4003	1573	1555	1135	1145	0.02	2.333694	8	10	0.08	2800	345.7542	40.92393	-91.39361
316093	31	42	256	-7.455897	-5.523278	345.5136	0	11.97	4003	1369	1327	1341	1379	0.02	2.34693	8	10	0.08	2800	352.5845	40.92393	-91.39361
316155	230	-152	-465	-7.244354	-5.151812	345.6927	0	11.97	4003	1346	1432	1394	1260	0.02	2.348618	8	10	0.08	2800	352.5845	40.92393	-91.39361
316311	1026	1591	-286	-6.404734	-4.446273	347.0889	0	12.08	4003	1400	1500	1328	1192	0.02	2.353634	8	10	0.08	2800	353.2362	40.92393	-91.39361
316421	-220	1061	-743	-5.831946	-5.374978	359.6947	0	12.08	4003	1459	1303	1299	1383	0.02	2.36089	8	10	0.08	2800	359.3728	40.92393	-91.39361
316439	-1246	-1746	-1188	-6.812838	-4.708475	0.3336234	0	12.08	4002	1152	1252	1624	1428	0.02	2.36089	8	10	0.08	2800	359.9433	40.92393	-91.39361
316626	-772	-1446	1097	-9.621732	-2.446874	0.2609847	0	12.08	4003	1295	1329	1443	1389	0.02	2.346115	8	10	0.08	2800	0.05548096	40.92393	-91.3936
316691	345	1587	654	-8.378142	-4.969295	0.3098675	0	12.08	4003	1177	1319	1565	1387	0.02	2.34402	8	10	0.08	2800	357.5919	40.92393	-91.3936
316736	200	-1964	-688	-8.357681	-5.166082	0.3929136	0	12.08	4004	1523	1449	1213	1259	0.02	2.343127	8	10	0.08	2800	1.959686	40.92393	-91.3936
316963	1375	2134	989	-8.507326	-3.545316	0.7205344	0	12.08	4003	1285	1411	1451	1309	0.02	2.32768	8	10	0.08	2800	358.7044	40.92393	-91.3936
317122	1148	-1040	-9	-8.807851	-1.377724	0.5354027	0	12.14	4003	1351	1467	1397	1237	0.02	2.315775	8	10	0.08	2800	358.5401	40.92393	-91.3936
317170	1317	776	580	-7.499077	-2.218202	0.4168514	0	12.14	4004	1256	1510	1476	1202	0.02	2.314805	8	10	0.08	2800	3.29306	40.92393	-91.3936
317265	-303	1459	702	-7.63408	-3.150781	0.3323092	0	12.14	4003	1425	1441	1303	1267	0.02	2.313608	8	10	0.08	2800	3.29306	40.92393	-91.3936
317340	-1067	-333	6	-7.959483	-3.476972	0.3150316	0	12.14	4004	1366	1128	1376	1574	0.02	2.311648	8	10	0.08	2800	0.760437	40.92393	-91.3936
317481	483	76	920	-8.442653	-4.570781	359.0747	0	12.14	4002	1345	1465	1401	1285	0.02	2.297318	8	10	0.08	2800	4.146729	40.92393	-91.3936
317536	1117	-449	553	-7.949311	-4.444514	358.2556	0	12.14	4004	1264	1434	1472	1282	0.02	2.295165	8	10	0.08	2800	4.233734	40.92393	-91.3936
317672	2168	955	95	-6.802229	-1.278847	357.8975	0	12.14	4003	1125	1433	1617	1273	0.02	2.289616	8	10	0.08	2800	356.0945	40.92393	-91.3936
317801	646	-224	-882	-4.928931	-3.521375	358.221	0	12.14	4003	1145	1223	1609	1471	0.02	2.280397	8	10	0.08	2800	357.2507	40.92393	-91.3936
317919	-60	-1382	532	-6.079863	-0.7341994	359.4715	0	12.14	4004	1487	1465	1255	1237	0.02	2.270014	8	10	0.08	2800	359.1031	40.92393	-91.3936
317940	-60	-1382	532	-6.079863	-0.7341994	359.4715	0	12.14	4004	1435	1509	1293	1199	0.02	2.269706	8	10	0.08	2800	359.1031	40.92393	-91.3936
318084	1067	1389	-1975	-4.175072	-2.984884	1.47601	0	12.02	4003	1176	1120	1596	1572	0.02	2.265231	8	10	0.08	2800	1.171082	40.92393	-91.39361
318210	116	-1587	-853	-3.023883	-2.388476	3.38135	0	12.02	4003	1292	1534	1474	1136	0.02	2.259844	8	10	0.08	2800	3.461639	40.92393	-91.39361
318310	-1828	72	-878	-4.691441	-0.7961034	5.538205	0	12.02	4004	1261	935	1519	1705	0.02	2.261595	8	10	0.08	2800	359.039	40.92393	-91.39361
318437	-507	-55	-383	-5.500374	-1.9885	6.804709	0	12.02	4004	1516	1394	1262	1252	0.02	2.263556	8	10	0.08	2800	3.249054	40.92393	-91.39361
318668	1210	763	-124	-3.084494	-2.202599	7.636958	0	12.02	4004	1220	1234	1516	1390	0.02	2.274639	8	10	0.08	2800	7.298065	40.92393	-91.39361
318804	-1154	-383	-759	-4.375456	-2.157182	7.141466	0	12.02	4004	1297	1163	1457	1459	0.02	2.288793	8	10	0.08	2800	6.586639	40.92393	-91.39362
318883	582	-46	-425	-4.274475	-2.14951	7.22125	0	12.02	4003	1265	1269	1485	1357	0.02	2.293321	8	10	0.08	2800	2.604309	40.92393	-91.39362
319037	962	1523	637	-2.345678	-2.421977	6.592105	0	12.02	4003	1521	1505	1245	1161	0.02	2.297402	8	10	0.08	2800	4.98645	40.92393	-91.39362
319192	-387	-515	-524	-3.191047	-3.196389	6.286301	0	12.02	4004	1208	1134	1570	1520	0.02	2.295918	8	10	0.08	2800	5.639923	40.92393	-91.39362
319396	-1226	1380	-9	-4.206899	-6.250816	6.631937	0	12.02	4002	1483	1289	1295	1357	0.02	2.288213	8	10	0.08	2800	8.188324	40.92393	-91.39362
319559	-567	-35	-422	-4.77246	-2.786481	7.002703	0	12.02	4003	1374	1278	1406	1370	0.02	2.28689	8	10	0.08	2800	4.796875	40.92393	-91.39362
319760	298	-133	183	-3.834916	-2.287009	7.06395	0	12.02	4003	1283	1313	1493	1359	0.02	2.267598	8	10	0.08	2800	7.287872	40.92393	-91.39362
319859	1481	1709	577	-2.814206	-6.700283	6.558882	0	12.14	4004	1548	1536	1216	1140	0.02	2.263838	8	10	0.08	2800	6.338715	40.92393	-91.39362
319966	-796	-2409	103	-1.878858	-5.392063	5.579504	0	12.14	4010	1399	1169	1403	1533	0.02	2.252088	8	10	0.08	2800	4.4263	40.92393	-91.39362
320026	-303	-2894	438	-2.134584	-3.877243	5.283233	0	12.14	4002	1262	1184	1530	1520	0.02	2.232269	8	10	0.08	2800	4.4263	40.92393	-91.39362
320326	2064	-306	636	-2.493503	-6.292086	359.1387	0	12.14	4002	987	1535	1759	1203	0.02	2.158173	8	10	0.08	2800	352.5263	40.92393	-91.39362
320412	-928	-1047	1766	-2.424116	-5.703894	357.2646	0	12.14	4003	1473	819	1259	1941	0.02	2.131747	8	10	0.08	2800	349.0353	40.92393	-91.39362
320472	-879	-1561	373	-3.15328	-4.35125	342.9071	0	12.14	4003	1524	1472	1310	1294	0.02	2.125004	8	10	0.08	2800	343.3139	40.92393	-91.39362
320658	618	1206	-340	-3.050948	-3.110821	341.2369	0	12.14	4002	1728	1360	1010	1390	0.02	2.063937	8	10	0.08	2800	341.5173	40.92393	-91.39362
320860	-3109	-1202	-209	-4.680472	-2.828448	340.7433	0	11.74	4003	1192	1268	1560	1464	0.02	2.022083	8	10	0.08	2800	341.0224	40.92393	-91.39362
320978	4504	1493	-1752	-5.053993	-2.924672	343.2931	0	11.74	4003	1092	1780	1656	904	0.02	2.012536	8	10	0.08	2800	342.4036	40.92393	-91.39362
321115	-3927	852	-1124	-5.013581	-5.664098	347.9216	0	11.74	4002	1193	1303	1573	1347	0.02	2.017639	8	10	0.08	2800	346.8955	40.92393	-91.39362
321143	-3497	-229	-1406	-7.312246	-5.716751	348.561	0	11.74	4002	1354	1162	1416	1476	0.02	2.018662	8	10	0.08	2800	350.019	40.92393	-91.39362
321271	-274	-2465	423	-6.490313	-2.495229	349.7042	0	11.74	4003	1390	1374	1346	1278	0.02	2.026441	8	10	0.08	2800	351.5805	40.92393	-91.39362
321319	-1748	-1586	57	-7.243709	-1.372561	349.4501	0	11.74	4002	1415	1227	1315	1419	0.02	2.043193	8	10	0.08	2800	351.5805	40.92393	-91.39362
321540	534	2195	-62	-6.498224	-3.905019	348.1707	0	11.74	4003	1262	1146	1448	1508	0.02	2.092526	8	10	0.08	2800	351.081	40.92393	-91.39362
321720	-513	280	-363	-6.687363	-0.6794347	348.347	0	11.74	4003	1232	1078	1482	1568	0.02	2.128159	8	10	0.08	2800	348.9877	40.92393	-91.39362
321787	-95	1593	-933	-6.747902	-2.800973	348.7486	0	11.74	4007	1314	1272	1374	1316	0.02	2.153879	8	10	0.08	2800	349.5887	40.92393	-91.39362
321944	-1865	-2542	-222	-9.957653	-1.527976	348.4596	0	11.74	4003	1460	1336	1196	1276	0.02	2.21252	8	10	0.08	2800	352.5789	40.92393	-91.39361
322126	631	3690	685	-9.78615	-2.987589	346.7338	0	11.74	4003	1069	1191	1599	1469	0.02	2.274608	8	10	0.08	2800	352.8944	40.92393	-91.39361
322160	-33	3709	1014	-9.535841	-5.394635	346.1919	0	11.74	4003	1474	1436	1196	1234	0.02	2.274608	8	10	0.08	2800	352.8944	40.92393	-91.39361
322270	-499	-3801	219	-10.12592	-4.308566	354.8941	0	11.74	4004	1088	1150	1586	1508	0.02	2.321845	8	10	0.08	2800	354.1134	40.92393	-91.39361
322360	-446	-3393	999	-10.64018	0.2610827	354.5026	0	11.74	4003	1161	1377	1515	1315	0.02	2.343588	8	10	0.08	2800	350.2444	40.92393	-91.39361
322496	299	691	-331	-11.86324	-3.798289	352.5336	0	11.74	4002	1340	1368	1310	1282	0.02	2.375183	8	10	0.08	2800	349.7657	40.92393	-91.3936
322649	833	136	-590	-10.04652	-2.907878	352.1731	0	11.85	4004	1156	1168	1508	1508	0.02	2.404006	8	10	0.08	2800	350.7235	40.92394	-91.3936
322739	253	-1037	-749	-8.959657	-3.067038	352.4824	0	11.85	4004	1193	1217	1507	1451	0.02	2.425058	8	10	0.08	2800	353.8525	40.92394	-91.3936
322887	-37	-2117	-557	-8.427608	0.8665625	354.0191	0	11.85	4002	1469	1345	1241	1337	0.02	2.43494	8	10	0.08	2800	352.3763	40.92394	-91.3936
322928	-615	-943	-712	-8.313972	1.760138	354.454	0	11.85	4002	1326	1246	1388	1416	0.02	2.437196	8	10	0.08	2800	354.1027	40.92394	-91.3936
323086	-96	1867	-1300	-8.797157	1.492416	356.6693	0	11.85	4002	1281	1343	1353	1315	0.02	2.439813	8	10	0.08	2800	355.097	40.92394	-91.3936
323223	198	-348	-1117	-10.19942	-2.067565	359.0914	0	11.85	4003	1379	1415	1395	1255	0.02	2.421076	8	10	0.08	2800	3.721039	40.92394	-91.3936
323257	1701	-850	-1482	-9.477346	-1.275239	359.963	0	11.85	4004	1310	1290	1496	1376	0.02	2.417058	8	10	0.08	2800	7.760223	40.92394	-91.3936
323442	-1301	1089	-522	-7.750311	-1.310033	15.6962	0	11.85	4002	1261	1295	1529	1403	0.02	2.361371	8	10	0.08	2800	15.6962	40.92394	-91.3936
323551	-1276	-2636	36	-10.23269	1.073376	16.3609	0	12.14	4002	1375	1149	1455	1533	0.02	2.322085	8	10	0.08	2800	13.9848	40.92394	-91.3936
323777	-217	462	-141	-5.710392	1.739189	17.4659	0	12.14	4002	1450	1014	1374	1682	0.02	2.237626	8	10	0.08	2800	15.55017	40.92395	-91.3936
323989	1704	1330	1021	-7.863584	0.6122485	17.38754	0	12.14	4002	1475	1491	1373	1277	0.02	2.125787	8	10	0.08	2800	16.46429	40.92395	-91.3936
324136	589	1629	1711	-4.695751	1.398377	15.50007	0	12.14	4004	1404	1200	1390	1526	0.02	2.067324	8	10	0.08	2800	12.96127	40.92395	-91.39361
324273	285	-1549	1339	-4.579787	0.7003156	13.574	0	12.14	4003	1480	1350	1294	1408	0.02	1.986969	8	10	0.08	2800	6.626465	40.92395	-91.39361
324403	888	234	781	-3.167059	2.465374	12.18089	0	12.14	4003	1328	1522	1466	1240	0.02	1.910169	8	10	0.08	2800	2.51825	40.92395	-91.39362
324652	-1167	-1444	375	-0.2305599	-3.468113	357.4153	0	12.19	4003	1232	1426	1540	1322	0.02	1.795982	8	10	0.08	2800	357.8226	40.92395	-91.39362
324752	2253	-784	73	-0.9728562	-2.113626	356.9115	0	12.19	4002	1027	1437	1731	1313	0.02	1.766151	8	10	0.08	2800	354.1042	40.92395	-91.39362
324784	-2430	-1071	1636	-1.209188	-1.672618	356.2861	0	12.19	4004	1279	1373	1491	1353	0.02	1.754732	8	10	0.08	2800	354.1042	40.92395	-91.39362
324864	2007	-348	-655	-0.4613362	-1.520366	356.3599	0	12.19	4002	1383	1031	1385	1673	0.02	1.74041	8	10	0.08	2800	350.6213	40.92395	-91.39362
325052	-849	778	249	-1.77487	-1.887303	355.991	0	12.19	4004	1259	1321	1208	1668	0.02	1.705977	8	10	0.08	2800	348.261	40.92394	-91.39362
325104	-593	-722	-513	-1.752506	-1.901755	355.8351	0	12.19	4002	1559	867	1215	1879	0.02	1.693717	8	10	0.08	2800	348.6805	40.92394	-91.39362
325264	1425	-329	-1240	-1.2908	-2.255892	347.3354	0	12.19	4003	1223	1271	1531	1407	0.02	1.684787	8	10	0.08	2800	347.0052	40.92394	-91.39362
325441	-2344	140	-1138	-2.82812	-2.195897	346.9911	0	11.63	4003	1160	1250	1562	1404	0.02	1.713549	8	10	0.08	2800	343.5219	40.92394	-91.39362
325548	596	1098	-544	-0.9333588	-2.770284	348.192	0	11.63	4003	1577	1097	1131	1543	0.02	1.747066	8	10	0.08	2800	344.1429	40.92394	-91.39362
325752	-1609	-517	-310	-2.375018	-1.75354	349.0208	0	11.63	4003	1375	1165	1267	1405	0.02	1.834046	8	10	0.08	2800	344.97	40.92394	-91.39362
325964	136	1326	681	-3.218023	0.1326281	348.5483	0	11.63	4004	1404	1330	1230	1300	0.02	1.951483	8	10	0.08	2800	345.337	40.92394	-91.39362
326181	-659	-2797	774	-3.760395	-1.419033	345.8906	0	11.63	4003	1335	1301	1295	1325	0.02	2.092892	8	10	0.08	2800	344.0424	40.92394	-91.39362
326267	-797	2940	120	-5.136192	-1.115856	344.9301	0	11.85	4003	1264	1232	1372	1380	0.02	2.166479	8	10	0.08	2800	339.7763	40.92394	-91.39362
326326	-855	2076	666	-5.52816	-2.4251	344.7276	0	11.85	4002	1347	1393	1229	1171	0.02	2.206857	8	10	0.08	2800	340.249	40.92394	-91.39362
326437	466	-615	-228	-5.755025	-3.903636	344.9354	0	11.85	4003	1311	1325	1315	1273	0.02	2.250931	8	10	0.08	2800	341.9571	40.92393	-91.39362
326536	-1264	990	-904	-6.554381	-3.659464	345.8042	0	11.85	4002	1269	1251	1411	1373	0.02	2.28703	8	10	0.08	2800	342.8989	40.92393	-91.39362
326642	-269	-50	-552	-7.295398	-3.92598	346.7585	0	11.85	4004	1338	1318	1356	1316	0.02	2.325067	8	10	0.08	2800	342.6115	40.92393	-91.39362
326804	533	147	-455	-8.335233	-4.36248	348.7777	0	11.85	4002	1304	1200	1416	1436	0.02	2.35925	8	10	0.08	2800	345.9319	40.92393	-91.39362
326871	1288	-790	-620	-7.65701	-3.967285	349.0862	0	11.85	4002	1300	1252	1426	1402	0.02	2.368963	8	10	0.08	2800	350.5443	40.92393	-91.39362
326996	-1925	2135	328	-7.689811	-4.51066	349.2712	0	11.85	4002	1570	1352	1170	1328	0.02	2.371722	8	10	0.08	2800	351.8958	40.92393	-91.39362
327140	-1513	406	-19	-9.937101	-6.119261	347.7834	0	11.85	4002	1562	1376	1194	1344	0.02	2.342073	8	10	0.08	2800	353.787	40.92393	-91.39362
327305	2	1032	105	-9.38564	-7.519874	346.5163	0	11.85	4004	1585	1419	1179	1313	0.02	2.28026	8	10	0.08	2800	355.7595	40.92393	-91.39361
327365	531	64	914	-9.625072	-7.529608	346.4478	0	11.85	4003	1275	1319	1497	1449	0.02	2.234719	8	10	0.08	2800	354.6882	40.92393	-91.39361
327538	-732	-987	-264	-9.959167	-3.768374	346.3402	0	11.85	4003	1432	1394	1460	1450	0.02	2.124411	8	10	0.08	2800	352.8116	40.92393	-91.39361
327607	-764	259	1389	-9.700778	-4.065911	346.3155	0	11.85	4004	1542	1446	1254	1374	0.02	2.071774	8	10	0.08	2800	352.7518	40.92393	-91.39361
327704	3	493	344	-9.865908	-4.802567	345.8269	0	11.85	4002	1362	1534	1548	1364	0.02	1.995449	8	10	0.08	2800	354.7969	40.92394	-91.39361
327792	279	-2434	800	-11.94054	-3.102496	344.4543	0	11.85	4002	1126	1282	1690	1530	0.02	1.893548	8	10	0.08	2800	352.8968	40.92394	-91.39361
327876	-1642	-2220	619	-11.1323	0.2419349	343.1626	0	11.85	4002	1410	1320	1398	1508	0.02	1.808779	8	10	0.08	2800	348.4249	40.92394	-91.3936
327959	41	990	370	-11.44191	0.6588207	343.0436	0	11.85	4003	1518	1324	1258	1460	0.02	1.664092	8	10	0.08	2800	347.1573	40.92394	-91.3936
328037	928	353	508	-10.90563	-2.382253	342.5031	0	11.8	4002	1185	1353	1595	1435	0.02	1.58485	8	10	0.08	2800	348.0185	40.92394	-91.3936
328179	-432	-651	-1066	-9.893185	-0.1899962	342.8512	0	11.8	4002	1335	1449	1543	1377	0.02	1.5111	8	10	0.08	2800	347.5144	40.92395	-91.3936
328318	507	-1051	-486	-9.599732	-0.3066448	344.3856	0	11.8	4003	1439	1471	1351	1319	0.02	1.421544	8	10	0.08	2800	349.8796	40.92395	-91.3936
328374	401	-729	816	-9.522098	0.220914	344.3508	0	11.8	4002	1179	1365	1605	1423	0.02	1.409088	8	10	0.08	2800	350.6291	40.92395	-91.3936
328519	-757	999	3	-8.714566	0.6505624	343.5445	0	11.8	4004	1281	1053	1483	1711	0.02	1.338033	8	10	0.08	2800	349.7329	40.92395	-91.3936
328712	-684	208	1094	-9.307998	-1.090284	340.0772	0	11.8	4004	1518	1566	1220	1252	0.02	1.290628	8	10	0.08	2800	345.1452	40.92395	-91.3936
328874	-2372	295	1017	-7.374516	-0.6825179	337.9238	0	11.8	4003	1428	1662	1274	1120	0.02	1.264246	8	10	0.08	2800	341.7146	40.92395	-91.3936
329002	271	-1027	-822	-8.900629	-1.276435	338.7332	0	11.68	4003	1558	1226	1172	1520	0.02	1.254668	8	10	0.08	2800	342.7193	40.92395	-91.3936
329154	2069	-161	-2556	-6.104624	1.980398	342.3875	0	11.68	4002	1571	1043	1185	1665	0.02	1.241428	8	10	0.08	2800	340.7402	40.92396	-91.39361
329193	-482	-1988	-494	-5.625098	3.409529	343.8421	0	11.68	4003	1118	1106	1618	1598	0.02	1.243715	8	10	0.08	2800	344.7349	40.92396	-91.39361
329362	527	-31	813	-8.307956	2.739302	343.3352	0	11.68	4004	1519	1497	1161	1195	0.02	1.262966	8	10	0.08	2800	343.5387	40.92396	-91.39361
329512	2385	-1550	745	-5.670891	5.462591	342.9986	0	11.68	4004	1398	1306	1238	1250	0.02	1.313522	8	10	0.08	2800	341.6333	40.92396	-91.39362
329636	-540	-1086	-547	-5.623593	7.41129	342.7333	0	11.68	4003	1378	1432	1288	1238	0.02	1.37449	8	10	0.08	2800	338.3249	40.92396	-91.39362
329689	400	-253	-406	-5.374206	7.934582	342.9977	0	11.68	4004	1462	1364	1208	1286	0.02	1.409546	8	10	0.08	2800	338.3249	40.92396	-91.39362
329740	-85	1471	101	-5.197917	5.083309	343.0868	0	11.68	4002	1373	1351	1295	1321	0.02	1.430995	8	10	0.08	2800	338.8973	40.92396	-91.39362
329891	-582	-631	29	-4.795032	4.525581	342.9893	0	11.97	4003	1185	1253	1477	1421	0.02	1.510271	8	10	0.08	2800	341.3147	40.92397	-91.39362
329946	-606	1771	-41	-5.537163	3.65842	342.8139	0	11.97	4003	1256	1294	1400	1358	0.02	1.534074	8	10	0.08	2800	338.7262	40.92397	-91.39362
330094	61	-948	-200	-4.732985	2.697126	342.9476	0	11.97	4004	1326	1226	1350	1438	0.02	1.621018	8	10	0.08	2800	340.3384	40.92397	-91.39362
330207	313	-839	0	-4.196647	4.580785	343.5835	0	11.97	4004	1407	1239	1275	1403	0.02	1.663869	8	10	0.08	2800	339.5081	40.92397	-91.39362
330290	1521	910	-573	-2.809064	1.963225	344.2145	0	11.97	4003	1360	1486	1342	1180	0.02	1.688757	8	10	0.08	2800	337.3338	40.92397	-91.39362
330358	928	2135	-101	-2.085058	1.164484	344.3635	0	11.97	4003	1476	1412	1234	1266	0.02	1.715094	8	10	0.08	2800	339.2766	40.92397	-91.39362
330486	-945	-2209	-972	-2.252339	1.596227	345.0615	0	11.97	4002	1134	1186	1594	1494	0.02	1.730702	8	10	0.08	2800	341.0401	40.92397	-91.39362
330582	151	-506	30	-3.499379	4.257038	346.2608	0	11.97	4008	1573	1487	1155	1197	0.02	1.748715	8	10	0.08	2800	340.3625	40.92397	-91.39362
330715	-360	1058	173	-3.934636	3.185968	346.4537	0	11.97	4004	1479	1523	1253	1169	0.02	1.760638	8	10	0.08	2800	338.8933	40.92397	-91.39362
330815	1896	896	-1105	-1.322409	0.1462398	347.9119	0	11.63	4004	1236	1318	1534	1384	0.02	1.754916	8	10	0.08	2800	343.3549	40.92397	-91.39362
330848	1036	717	-328	-0.6271277	-0.3340978	348.1332	0	11.63	4003	1236	1318	1534	1384	0.02	1.752467	8	10	0.08	2800	343.3549	40.92397	-91.39362
330996	-782	-43	356	-3.327533	0.06769524	347.5051	0	11.63	4004	1386	1234	1374	1510	0.02	1.724602	8	10	0.08	2800	343.5393	40.92396	-91.39362
331123	3343	-2546	-94	-1.022219	5.374281	347.3584	0	11.63	4003	1069	1617	1707	1119	0.02	1.704179	8	10	0.08	2800	338.9304	40.92396	-91.39362
331160	-930	1287	-250	-0.995084	5.945945	337.5062	0	11.63	4004	1173	1729	1591	1007	0.02	1.689768	8	10	0.08	2800	334.4018	40.92396	-91.39362
331253	10	4790	1218	-2.016375	1.694044	337.1067	0	11.63	4004	1521	1681	1239	1071	0.02	1.673947	8	10	0.08	2800	332.5032	40.92396	-91.39362
331350	1739	2193	426	-1.735984	-3.818172	337.005	0	11.63	4004	1350	1640	1406	1080	0.02	1.666337	8	10	0.08	2800	335.5416	40.92396	-91.39362
331580	1045	-818	655	-2.691293	-0.4076032	337.1785	0	11.63	4004	1113	1271	1645	1174	0.02	1.63074	8	10	0.08	2800	331.864	40.92396	-91.39362
331678	-612	4065	-364	-2.365741	-2.796163	337.1471	0	11.63	4003	1481	1075	1291	1645	0.02	1.622669	8	10	0.08	2800	333.6784	40.92395	-91.39362
331747	-508	-484	-1440	-1.421119	-9.625804	337.3199	0	11.85	4002	1516	1628	1276	1080	0.02	1.612963	8	10	0.08	2800	340.4658	40.92395	-91.39362
331865	-184	-1182	-2813	-4.026464	-6.234266	339.8968	0	11.85	4004	1424	1614	1398	1076	0.02	1.606748	8	10	0.08	2800	342.2674	40.92395	-91.39362
331954	1813	-634	-2672	-2.066205	-3.747778	343.8929	0	11.85	4003	1258	1356	1570	1264	0.02	1.606814	8	10	0.08	2800	342.3194	40.92395	-91.39362
332048	-1374	71	-265	-3.281243	-4.165781	345.5422	0	11.85	4004	1148	1248	1648	1400	0.02	1.611805	8	10	0.08	2800	347.5837	40.92395	-91.39362
332170	-689	-924	729	-5.918748	-1.367609	344.616	0	11.85	4003	1244	1120	1526	1546	0.02	1.62151	8	10	0.08	2800	347.8454	40.92395	-91.39362
332244	28	-1762	2000	-5.90781	-0.7547392	343.8926	0	11.85	4002	1183	1219	1537	1465	0.02	1.638178	8	10	0.08	2800	346.3228	40.92395	-91.39362
332447	402	1792	1261	-6.527034	-3.132185	338.4335	0	11.85	4003	1260	1322	1390	1324	0.02	1.700851	8	10	0.08	2800	342.9351	40.92395	-91.39362
332476	567	826	1509	-6.266639	-3.981071	337.6072	0	11.85	4003	1201	1295	1463	1393	0.02	1.710173	8	10	0.08	2800	342.9351	40.92395	-91.39362
332558	-1723	1355	1819	-7.695527	-7.15413	334.3697	0	11.85	4003	1291	1241	1313	1419	0.02	1.740288	8	10	0.08	2800	339.3754	40.92395	-91.39362
332665	612	-563	2086	-7.504079	-6.926661	330.7695	0	11.91	4004	1255	1291	1389	1405	0.02	1.804379	8	10	0.08	2800	339.0353	40.92395	-91.39362
332726	-202	1952	1221	-7.309031	-7.408547	329.9337	0	11.91	4004	1284	1330	1358	1360	0.02	1.841693	8	10	0.08	2800	339.0353	40.92395	-91.39362
332961	-616	366	490	-7.82684	-4.183944	337.6071	0	11.91	4003	1178	1316	1456	1402	0.02	1.921448	8	10	0.08	2800	336.7415	40.92395	-91.39362
333048	-675	2229	410	-9.29008	-6.773786	336.5907	0	11.91	4003	1267	1299	1375	1407	0.02	1.963552	8	10	0.08	2800	336.6425	40.92395	-91.39362
333212	127	114	-447	-9.24211	-8.269197	336.1349	0	11.91	4004	1130	1274	1538	1462	0.02	1.980721	8	10	0.08	2800	340.0743	40.92395	-91.39362
333276	384	-684	-133	-9.048966	-6.166473	336.6987	0	11.91	4003	1420	1650	1282	1092	0.02	1.985865	8	10	0.08	2800	341.2695	40.92395	-91.39361
333367	-912	1125	-1025	-9.246315	-6.33668	337.2824	0	11.91	4002	1575	1317	1153	1427	0.02	1.980718	8	10	0.08	2800	339.5425	40.92395	-91.39361
333559	-1953	-2778	-185	-12.5766	-5.872834	338.7232	0	12.42	4002	1334	1288	1410	1468	0.02	1.956564	8	10	0.08	2800	344.7539	40.92395	-91.39361
333594	641	-4003	-1043	-12.52383	-3.957546	339.2187	0	12.42	4004	1097	1133	1667	1611	0.02	1.947894	8	10	0.08	2800	344.7539	40.92395	-91.39361
333654	300	180	-241	-10.05384	-2.16094	340.5442	0	12.42	4004	1468	1626	1306	1156	0.02	1.933619	8	10	0.08	2800	344.3115	40.92395	-91.39361
333765	-2013	881	-379	-11.02368	-3.415367	341.354	0	12.42	4003	1502	1290	1280	1492	0.02	1.905488	8	10	0.08	2800	347.7225	40.92395	-91.39361
333984	-1070	-1446	-294	-10.53938	-2.482969	345.4637	0	12.42	4003	1623	1339	1129	1393	0.02	1.869219	8	10	0.08	2800	352.7314	40.92395	-91.3936
334074	-852	-1880	385	-12.10432	-0.9470981	346.0714	0	12.42	4002	1255	1495	1499	1235	0.02	1.862856	8	10	0.08	2800	353.2342	40.92395	-91.3936
334205	515	-1814	-353	-9.93406	2.055052	347.3632	0	12.42	4004	1226	1014	1542	1706	0.02	1.851282	8	10	0.08	2800	353.2762	40.92395	-91.3936
334269	-2023	-47	245	-10.44683	3.208661	347.4524	0	12.42	4004	1505	1297	1263	1423	0.02	1.847571	8	10	0.08	2800	351.3511	40.92395	-91.3936
334491	788	-2348	658	-11.28014	1.441388	346.5732	0	11.74	4002	1544	1256	1192	1472	0.02	1.84345	8	10	0.08	2800	354.2381	40.92395	-91.3936
334627	-478	421	-127	-12.90865	3.463964	345.3164	0	11.74	4003	1354	1350	1386	1390	0.02	1.838156	8	10	0.08	2800	349.3337	40.92396	-91.3936
334729	-225	-61	-981	-12.21275	2.854374	345.4308	0	11.74	4002	1479	1243	1265	1473	0.02	1.836433	8	10	0.08	2800	350.0159	40.92396	-91.3936
334779	350	-415	-343	-9.244941	2.499727	345.7872	0	11.74	4003	1234	1292	1510	1420	0.02	1.837283	8	10	0.08	2800	352.1083	40.92396	-91.3936
334993	596	-1904	-768	-8.566944	2.836964	349.3084	0	11.74	4004	1369	1187	1373	1479	0.02	1.866653	8	10	0.08	2800	353.0226	40.92396	-91.3936
335094	-1661	-3116	-974	-8.8598	4.975533	350.0728	0	11.74	4004	1314	1064	1440	1590	0.02	1.884786	8	10	0.08	2800	352.4953	40.92396	-91.3936
335197	8	413	-357	-10.20421	6.197604	349.8158	0	11.74	4004	1380	1318	1344	1370	0.02	1.900066	8	10	0.08	2800	351.33	40.92396	-91.39361
335301	1974	2492	1024	-6.509503	2.567512	349.0579	0	11.74	4003	1408	1474	1308	1222	0.02	1.921962	8	10	0.08	2800	352.495	40.92396	-91.39361
335460	-177	-1564	930	-7.023887	5.003866	348.2195	0	11.91	4002	1443	1409	1287	1313	0.02	1.938608	8	10	0.08	2800	350.3984	40.92397	-91.39361
335550	210	0	1724	-6.339643	5.64853	347.575	0	11.91	4004	1619	1461	1113	1287	0.02	1.937801	8	10	0.08	2800	345.9003	40.92397	-91.39361
335596	-863	800	933	-7.030527	4.198475	346.1373	0	11.91	4004	1403	1123	1333	1621	0.02	1.935658	8	10	0.08	2800	343.3673	40.92397	-91.39361
335742	691	499	915	-5.076125	3.279719	344.5602	0	11.91	4004	1246	1264	1510	1464	0.02	1.929924	8	10	0.08	2800	342.083	40.92397	-91.39362
335811	-1352	-352	869	-4.616915	2.179882	344.0519	0	11.91	4002	1594	1120	1148	1646	0.02	1.924762	8	10	0.08	2800	340.3468	40.92397	-91.39362
335948	62	630	-1371	-3.377272	4.121204	344.6535	0	11.91	4004	1015	1385	1751	1333	0.02	1.911559	8	10	0.08	2800	338.1516	40.92397	-91.39362
336013	761	1815	-495	-3.225374	3.286708	345.1646	0	11.91	4004	1400	1380	1354	1330	0.02	1.908596	8	10	0.08	2800	338.1516	40.92397	-91.39362
336199	-774	1171	-1987	-2.975078	0.6711274	338.996	0	11.91	4003	1288	1248	1506	1434	0.02	1.903562	8	10	0.08	2800	339.837	40.92397	-91.39362
336253	-3932	-128	-2531	-4.260406	0.3667904	339.9654	0	11.91	4003	1626	758	1174	1906	0.02	1.903406	8	10	0.08	2800	339.9037	40.92397	-91.39362
336343	-1775	-3295	-1277	-9.486571	5.206854	342.2457	0	11.74	4003	1436	1288	1378	1370	0.02	1.900657	8	10	0.08	2800	340.6928	40.92397	-91.39362
336503	1219	3396	228	-2.513355	1.640533	344.1187	0	11.74	4003	1373	1505	1403	1175	0.02	1.899495	8	10	0.08	2800	343.9833	40.92397	-91.39362
336548	615	-151	-49	-2.063315	-0.6494941	343.9945	0	11.74	4003	1443	1327	1351	1347	0.02	1.897471	8	10	0.08	2800	345.6645	40.92397	-91.39362
336652	-3043	-3075	-337	-4.536791	3.311111	345.0221	0	11.74	4003	1652	948	1158	1726	0.02	1.888548	8	10	0.08	2800	342.8964	40.92396	-91.39362
336735	1851	1303	282	-3.988727	3.430911	344.9287	0	11.74	4004	1200	1316	1594	1374	0.02	1.880479	8	10	0.08	2800	343.1043	40.92396	-91.39362
336807	1934	2461	645	-2.024786	0.6908118	344.0208	0	11.74	4003	1357	1243	1433	1471	0.02	1.875325	8	10	0.08	2800	340.7251	40.92396	-91.39362
336969	1397	292	1047	-2.353624	-2.011071	341.7851	0	11.74	4002	1322	1776	1438	936	0.02	1.872266	8	10	0.08	2800	341.6757	40.92396	-91.39362
337065	152	55	-653	-1.686259	-2.248617	341.4972	0	11.74	4004	1330	1668	1454	1008	0.02	1.871437	8	10	0.08	2800	338.1373	40.92396	-91.39362
337182	162	1779	-866	1.527406	-3.718061	342.1509	0	11.74	4002	1471	1161	1307	1461	0.02	1.89713	8	10	0.08	2800	337.1809	40.92396	-91.39362
337269	-3213	-1693	-1091	-0.6107972	-3.237936	343.6927	0	11.4	4002	1281	1095	1483	1513	0.02	1.923883	8	10	0.08	2800	341.5868	40.92396	-91.39362
337318	-2357	232	-810	-2.30639	-2.625658	344.0979	0	11.4	4004	1457	1447	1257	1167	0.02	1.944095	8	10	0.08	2800	338.6347	40.92396	-91.39362
337472	-1445	-1567	695	-3.763086	1.309071	344.1722	0	11.4	4003	1404	1360	1308	1244	0.02	2.016598	8	10	0.08	2800	342.2359	40.92395	-91.39362
337528	-556	406	1113	-4.731009	1.982345	343.6503	0	11.4	4004	1454	1362	1218	1230	0.02	2.061428	8	10	0.08	2800	338.6606	40.92395	-91.39362
337662	-559	1792	1022	-5.450737	-0.350985	342.0378	0	11.4	4004	1251	1217	1345	1323	0.02	2.142336	8	10	0.08	2800	339.4885	40.92395	-91.39362
337710	-317	843	1577	-6.70365	-2.150036	340.1593	0	11.4	4004	1373	1267	1245	1299	0.02	2.184764	8	10	0.08	2800	338.2281	40.92395	-91.39362
337858	509	103	782	-5.536965	-2.899624	338.6008	0	11.4	4003	1316	1280	1340	1376	0.02	2.263331	8	10	0.08	2800	336.6967	40.92395	-91.39362
337945	116	517	1073	-5.773898	-3.050592	337.0004	0	11.4	4004	1305	1355	1375	1305	0.02	2.308901	8	10	0.08	2800	336.7964	40.92395	-91.39362
338024	953	566	558	-5.147408	-3.362649	336.2755	0	11.4	4003	1220	1302	1464	1382	0.02	2.334553	8	10	0.08	2800	334.9794	40.92395	-91.39362
338155	-757	676	403	-5.642627	-5.505383	334.3757	0	11.74	4002	1380	1468	1312	1224	0.02	2.360368	8	10	0.08	2800	335.3297	40.92395	-91.39362
338230	-975	837	959	-6.222768	-6.128541	333.5454	0	11.74	4003	1437	1345	1231	1335	0.02	2.384636	8	10	0.08	2800	335.2942	40.92395	-91.39362
338343	-362	1050	710	-7.238303	-7.403315	332.6993	0	11.74	4003	1417	1507	1275	1197	0.02	2.403344	8	10	0.08	2800	335.2906	40.92395	-91.39362
338485	-599	18	519	-6.586455	-8.534361	331.0936	0	11.74	4003	1239	1285	1427	1425	0.02	2.437053	8	10	0.08	2800	337.691	40.92394	-91.39362
338561	469	294	454	-6.558103	-8.547771	330.7777	0	11.74	4002	1388	1504	1310	1222	0.02	2.445904	8	10	0.08	2800	337.691	40.92394	-91.39362
338655	-904	1055	38	-6.672698	-8.544979	330.4557	0	11.74	4003	1382	1420	1330	1316	0.02	2.44528	8	10	0.08	2800	340.0266	40.92394	-91.39362
338854	607	-4313	-1359	-8.061722	-2.601331	330.9439	0	11.74	4003	1278	1392	1490	1352	0.02	2.407733	8	10	0.08	2800	340.0101	40.92394	-91.39362
339062	-932	-1419	-867	-9.440037	4.054657	331.8165	0	11.74	4004	1428	1100	1362	1674	0.02	2.326274	8	10	0.08	2800	334.1364	40.92394	-91.39362
339148	1581	760	-1297	-9.876599	4.402074	332.1175	0	11.63	4002	1670	1392	1100	1386	0.02	2.296986	8	10	0.08	2800	333.1247	40.92394	-91.39362
339422	-123	5923	-250	-9.621734	5.086376	336.1932	0	11.63	4003	1748	1132	1060	1636	0.02	2.181684	8	10	0.08	2800	338.0392	40.92394	-91.39361
339573	-117	647	-716	-14.02019	-3.600523	337.4804	0	11.63	4003	1251	1665	1649	1127	0.02	2.096457	8	10	0.08	2800	346.3755	40.92394	-91.39361
339679	-59	263	-679	-9.295306	-0.7957653	352.8779	0	11.63	4004	1584	1386	1318	1400	0.02	2.047696	8	10	0.08	2800	350.3426	40.92394	-91.3936
339881	1350	538	-696	-10.47597	0.1174098	354.9411	0	11.63	4004	1371	1179	1449	1501	0.02	1.981532	8	10	0.08	2800	351.6912	40.92394	-91.3936
339954	-1667	662	-566	-9.848207	-1.699068	357.1886	0	11.63	4004	1598	1406	1202	1242	0.02	1.977322	8	10	0.08	2800	356.9363	40.92394	-91.3936
340033	-4968	-3548	-1289	-12.892	0.6736819	357.9502	0	11.8	4004	1311	1399	1481	1241	0.02	1.980215	8	10	0.08	2800	358.6419	40.92394	-91.3936
340156	1851	1941	-373	-16.53135	4.777031	359.5262	0	11.8	4003	1446	1474	1298	1170	0.02	2.004063	8	10	0.08	2800	359.9848	40.92395	-91.3936
340191	2838	2018	572	-14.90473	3.630802	359.3127	0	11.8	4003	1446	1474	1298	1170	0.02	2.009986	8	10	0.08	2800	1.465759	40.92395	-91.3936
340273	1593	769	615	-12.20953	1.944457	358.4116	0	11.8	4003	1142	1326	1568	1300	0.02	2.028971	8	10	0.08	2800	2.954407	40.92395	-91.3936
340411	-740	-1230	878	-14.13085	2.760802	355.9109	0	11.8	4004	1468	1296	1262	1358	0.02	2.068756	8	10	0.08	2800	1.229309	40.92395	-91.3936
340478	-386	1909	1489	-13.61519	2.768811	353.7726	0	11.8	4003	1157	1175	1549	1475	0.02	2.084889	8	10	0.08	2800	358.3777	40.92395	-91.3936
340580	107	2162	1029	-13.74942	0.4254566	351.9663	0	11.8	4004	1306	1264	1384	1394	0.02	2.13141	8	10	0.08	2800	358.6459	40.92395	-91.3936
340672	-3	-2671	1429	-11.56321	0.8825275	349.3867	0	11.8	4003	1242	1312	1378	1296	0.02	2.164139	8	10	0.08	2800	356.2946	40.92395	-91.3936
340790	60	706	1405	-11.694	1.676939	347.5999	0	11.8	4003	1105	1229	1461	1353	0.02	2.246109	8	10	0.08	2800	354.4702	40.92395	-91.3936
340964	504	-2183	1584	-10.14982	0.4699613	343.0946	0	11.8	4003	1129	1249	1487	1447	0.02	2.333136	8	10	0.08	2800	350.7543	40.92395	-91.3936
341068	3977	-941	1598	-6.263593	2.674739	340.8256	0	11.8	4004	1174	1334	1466	1418	0.02	2.379976	3	10	0.08	2800	343.8056	40.92395	-91.3936
341107	2021	2748	1730	-3.338666	2.674739	340.8256	0	11.8	4003	1259	1295	1379	1463	0.02	2.40523	3	10	0.08	2800	343.8056	40.92395	-91.3936
341223	-223	-3013	-511	-4.712847	-0.3353337	337.7264	0	11.8	4004	1219	1331	1439	1419	0.02	2.469373	3	10	0.08	2800	341.4341	40.92395	-91.3936
341278	1106	-3812	-1603	-4.020877	1.519348	338.0929	0	11.8	4004	1123	1875	1589	873	0.02	2.480455	3	10	0.08	2800	338.5941	40.92395	-91.3936
341392	-1848	-1142	-2069	1.514667	9.434709	331.8044	0	11.8	4004	1389	1191	1357	1531	0.02	2.53013	3	10	0.08	2800	337.0462	40.92395	-91.3936
341483	-4000	1264	-255	-3.749685	8.287803	333.3749	0	11.8	4002	1483	1035	1263	1683	0.02	2.547801	3	10	0.08	2800	335.2773	40.92396	-91.39361
341623	1725	1485	-2313	-0.1957789	5.482778	339.9289	0	11.8	4003	1470	1190	1278	1526	0.02	2.57324	3	10	0.08	2800	343.7303	40.92396	-91.39361
341726	-2441	1360	-3220	-0.6194751	2.65014	344.8936	0	11.8	4003	1261	1267	1501	1435	0.02	2.587921	3	10	0.08	2800	344.0589	40.92396	-91.39361
341772	39	513	-2099	-1.523844	1.907067	348.0622	0	11.8	4002	1583	1437	1195	1245	0.02	2.590947	3	10	0.08	2800	350.3955	40.92396	-91.39361
341916	-410	-3921	-2413	-1.104559	5.948416	353.5609	0	11.74	4002	1324	1410	1500	1214	0.02	2.618107	3	10	0.08	2800	356.8749	40.92396	-91.39361
342028	-264	-2438	-1872	-1.207613	11.5024	356.8518	0	11.74	4002	1272	1068	1538	1570	0.02	2.643699	3	10	0.08	2800	356.4995	40.92396	-91.39362
342075	-109	-1126	-123	-0.3029544	12.31541	358.1303	0	11.74	4006	1343	1381	1453	1271	0.02	2.657827	3	10	0.08	2800	358.7203	40.92396	-91.39362
342236	-573	-351	980	-1.723495	14.90591	357.4343	0	11.74	4004	1329	1205	1449	1469	0.02	2.688046	3	10	0.08	2800	352.7341	40.92396	-91.39362
342292	-207	-679	596	-2.087478	15.05853	356.9692	0	11.74	4002	1289	1181	1483	1499	0.02	2.703913	3	10	0.08	2800	351.8146	40.92396	-91.39362
342402	864	588	849	-1.04365	13.23618	354.4462	0	11.74	4002	1380	1356	1368	1344	0.02	2.723747	3	10	0.08	2800	349.8235	40.92396	-91.39362
342458	839	1081	1410	-0.3751131	12.02214	353.1032	0	11.74	4003	1356	1384	1388	1324	0.02	2.731827	3	10	0.08	2800	348.7018	40.92396	-91.39362
342562	-848	1481	1275	-2.361267	9.272836	349.6259	0	11.74	4003	1541	1459	1185	1267	0.02	2.753883	3	10	0.08	2800	340.1974	40.92396	-91.39362
342609	-714	1545	826	-2.87796	8.342255	349.0453	0	11.74	4003	1410	1486	1316	1240	0.02	2.763607	3	10	0.08	2800	340.1974	40.92396	-91.39362
342684	-794	-585	780	-4.658658	6.884043	347.7887	0	11.74	4003	1183	1235	1541	1489	0.02	2.777732	3	10	0.08	2800	339.461	40.92396	-91.39362
342787	-3160	1433	323	-5.912116	6.024442	347.1919	0	11.74	4004	1263	1143	1463	1583	0.02	2.794668	3	10	0.08	2800	338.1267	40.92396	-91.39362
342891	-3086	1738	316	-10.97182	2.556118	346.022	0	11.74	4003	1287	1109	1439	1621	0.02	2.818731	3	10	0.08	2800	340.098	40.92396	-91.39362
343103	-586	-193	523	-14.0153	-2.1127	344.7203	0	11.74	4002	1503	1407	1217	1333	0.02	2.842264	3	10	0.08	2800	348.3471	40.92396	-91.39361
343302	3195	1170	-841	-13.15927	-1.245903	344.4272	0	11.74	4004	1354	1410	1358	1274	0.02	2.846689	3	10	0.08	2800	353.5872	40.92395	-91.39362
343424	824	4062	-1392	-4.211399	-7.005901	357.772	0	11.74	4003	1532	1024	1190	1642	0.02	2.83853	3	10	0.08	2800	2.049408	40.92395	-91.39362
343506	-3436	1553	-660	-4.750655	-9.822587	358.6348	0	11.74	4003	1523	1175	1203	1487	0.02	2.818957	3	10	0.08	2800	4.748779	40.92395	-91.39362
343686	87	658	-468	-5.578485	-8.429798	12.98209	0	11.57	4002	1587	1477	1155	1193	0.02	2.814655	3	10	0.08	2800	11.30557	40.92395	-91.39362
343740	-48	986	71	-5.455326	-8.468016	13.01358	0	11.57	4004	1525	1375	1207	1301	0.02	2.813333	3	10	0.08	2800	11.30557	40.92395	-91.39362
343803	622	-4164	-367	-4.405831	-5.439351	13.25353	0	11.57	4003	1245	1149	1485	1525	0.02	2.814026	3	10	0.08	2800	10.50772	40.92395	-91.39362
343985	3417	164	131	0.70159	2.14804	1.263223	0	11.57	4003	1252	1290	1468	1394	0.02	2.803534	3	10	0.08	2800	1.423584	40.92395	-91.39362
344054	2449	-2492	667	4.130632	3.365713	0.8776014	0	11.57	4003	1338	1348	1370	1344	0.02	2.80127	3	10	0.08	2800	0.6311951	40.92395	-91.39362
344112	671	-2151	176	5.223033	6.15067	0.4248892	0	11.57	4002	1214	1192	1492	1502	0.02	2.793543	3	10	0.08	2800	357.5163	40.92395	-91.39362
344198	-134	-386	89	5.537758	7.799363	359.8194	0	11.57	4003	1229	1127	1487	1561	0.02	2.77707	3	10	0.08	2800	351.9482	40.92395	-91.39362
344344	-2547	-588	508	2.834976	5.527668	348.3622	0	11.57	4002	1329	1161	1365	1545	0.02	2.746466	3	10	0.08	2800	347.4968	40.92395	-91.39362
344440	-868	-4420	174	0.7851691	8.426255	348.0241	0	11.57	4003	1343	1273	1359	1429	0.02	2.710385	3	10	0.08	2800	347.0281	40.92395	-91.39362
344485	-2717	-3177	894	-1.349656	12.69768	347.4919	0	11.57	4004	1278	1296	1420	1406	0.02	2.701806	3	10	0.08	2800	342.3155	40.92395	-91.39362
344622	-2895	-383	571	-8.158344	15.07881	336.0335	0	11.8	4002	1432	1342	1262	1368	0.02	2.64412	3	10	0.08	2800	336.0684	40.92395	-91.39362
344755	-275	-1366	352	-9.943172	15.90276	335.583	0	11.8	4004	1234	1380	1488	1366	0.02	2.581205	3	10	0.08	2800	335.7955	40.92395	-91.39362
344808	-777	1347	635	-11.61649	15.1436	334.942	0	11.8	4003	1337	1329	1401	1449	0.02	2.570991	3	10	0.08	2800	334.7623	40.92395	-91.39362
345013	-552	2650	-993	-13.66548	-0.2263464	345.6663	0	11.8	4004	1571	1131	1187	1623	0.02	2.48321	3	10	0.08	2800	345.1555	40.92395	-91.39362
