time(ms)	gyro_x(deg/s)	gyro_y(deg/s)	gyro_z(deg/s)	orientation_roll(deg)	orientation_pitch(deg)	orientation_yaw(deg)	throttle	battery(V)	loop_time(uS)	pid_output_roll	pid_output_pitch	pid_output_yaw	pid_output_throttle	ultrasonic_alt	baro_alt	flight_mode	p_gain_altitude	i_gain_altitude	d_gain_altitude	compass_heading	latitude	longitude
159919	-1500	-1534	-629	-2.835876	-4.050161	326.8488	0	11.29	4004	1088	1604	1774	1186	0.02	2.03778	8	10	0.08	2800	328.6236	40.92392	-91.39363
159972	2788	-1970	-871	-2.167629	-1.500011	327.6	0	11.29	4004	1612	1262	1248	1526	0.02	2.042796	8	10	0.08	2800	328.367	40.92392	-91.39363
160093	2446	2949	-1256	1.136346	-1.698672	329.2971	0	11.29	4002	1277	1805	1585	969	0.02	2.053779	8	10	0.08	2800	329.5945	40.92392	-91.39363
160178	-2160	-273	473	-0.390188	-2.583622	330.1191	0	11.29	4002	1402	1336	1420	1450	0.02	2.063796	8	10	0.08	2800	333.1272	40.92392	-91.39363
160282	-2049	-2357	-1504	-5.316958	0.2881094	330.5446	0	11.29	4003	1338	770	1520	2020	0.02	2.071425	8	10	0.08	2800	331.7195	40.92392	-91.39363
160393	1735	565	551	-4.515046	1.939148	331.5243	0	11.29	4003	1154	1410	1708	1380	0.02	2.082597	8	10	0.08	2800	328.5327	40.92392	-91.39363
160503	1839	-165	-1271	-2.229698	-0.4532274	331.7305	0	11.17	4002	1299	1313	1593	1431	0.02	2.092968	8	10	0.08	2800	329.2705	40.92392	-91.39363
160578	859	2073	691	-0.7268571	-1.932934	332.315	0	11.17	4003	1332	1926	1522	852	0.02	2.095484	8	10	0.08	2800	331.0722	40.92392	-91.39363
160680	-1562	-963	-975	-4.074004	-1.579224	334.1615	0	11.17	4003	1327	995	1563	1723	0.02	2.115914	8	10	0.08	2800	332.1877	40.92392	-91.39363
160795	2709	1999	-358	-2.897304	-1.444633	336.1583	0	11.17	4002	1483	1399	1393	1341	0.02	2.136008	8	10	0.08	2800	334.7334	40.92392	-91.39363
160887	-752	1379	-844	-0.5884174	-4.369555	336.7455	0	11.17	4003	1533	1175	1359	1541	0.02	2.157931	8	10	0.08	2800	339.1079	40.92392	-91.39363
161106	290	37	364	-1.2514	-2.931364	336.4323	0	11.17	4003	1456	1670	1418	1080	0.02	2.182368	8	10	0.08	2800	339.1707	40.92392	-91.39363
161242	-682	11	592	-3.93439	-3.210962	333.8326	0	11.17	4003	1447	1457	1413	1315	0.02	2.200517	8	10	0.08	2800	335.8588	40.92392	-91.39363
161376	436	-739	1506	-0.9534253	-3.173676	331.1985	0	11.17	4002	1233	1405	1609	1377	0.02	2.211797	8	10	0.08	2800	333.6425	40.92392	-91.39363
161398	436	-739	1506	-0.9534253	-3.173676	331.1985	0	11.17	4002	1458	1548	1370	1260	0.02	2.212961	8	10	0.08	2800	333.6425	40.92392	-91.39363
161507	-1860	1512	1271	-2.946219	-3.642003	328.6747	0	11.17	4002	1547	1331	1277	1481	0.02	2.219477	8	10	0.08	2800	329.7122	40.92392	-91.39363
161681	1541	14	58	-0.8576664	-4.360293	325.9702	0	11.17	4002	1468	1746	1338	1056	0.02	2.245005	8	10	0.08	2800	327.5664	40.92392	-91.39363
161741	-57	334	857	-0.08731718	-4.068556	325.1849	0	11.17	4003	1512	1124	1272	1668	0.02	2.256976	8	10	0.08	2800	326.5886	40.92392	-91.39363
161857	-1877	282	-567	-0.7444007	-6.167078	324.8718	0	11.17	4003	1453	1811	1363	949	0.02	2.287518	8	10	0.08	2800	327.658	40.92392	-91.39363
161953	-303	-1096	-907	-2.788825	-4.773553	326.2155	0	11.17	4002	1293	1433	1515	1283	0.02	2.315999	8	10	0.08	2800	328.7737	40.92392	-91.39363
162063	708	-622	712	-2.340498	-4.381389	327.4229	0	11.17	4004	1566	1352	1282	1428	0.02	2.333484	8	10	0.08	2800	330.4863	40.92392	-91.39363
162117	-874	-2003	143	-2.406204	-2.667397	327.5057	0	11.17	4003	1224	1422	1624	1370	0.02	2.338681	8	10	0.08	2800	331.8983	40.92392	-91.39363
162189	-538	-1500	-69	-3.315162	-1.371487	327.621	0	11.17	4004	1137	1115	1705	1679	0.02	2.341956	8	10	0.08	2800	330.1912	40.92392	-91.39363
162315	-775	2432	-218	-3.669202	-2.015759	326.7461	0	11.17	4003	1641	1499	1221	1299	0.02	2.338577	8	10	0.08	2800	328.087	40.92392	-91.39363
162395	1328	721	-561	-3.47108	-3.75915	326.3443	0	11.23	4002	1542	1692	1306	1116	0.02	2.3344	8	10	0.08	2800	327.6904	40.92392	-91.39363
162653	136	1818	-831	-1.084828	-5.604825	327.7841	0	11.23	4003	1406	1350	1466	1434	0.02	2.318692	8	10	0.08	2800	331.9738	40.92392	-91.39362
162793	3172	-891	-802	-2.16674	-4.311075	329.8761	0	11.23	4004	1250	1578	1656	1204	0.02	2.297814	8	10	0.08	2800	333.7716	40.92392	-91.39362
162848	-1840	235	-129	-1.667488	-3.888856	330.3908	0	11.23	4002	1681	1181	1207	1615	0.02	2.284185	8	10	0.08	2800	333.7891	40.92392	-91.39362
162908	-2103	865	-1300	-3.092044	-4.789856	331.1659	0	11.23	4004	1721	1085	1183	1683	0.02	2.278794	8	10	0.08	2800	333.7891	40.92392	-91.39362
163059	793	415	-116	-5.036658	-2.324557	332.3265	0	11.23	4003	1477	1247	1407	1549	0.02	2.264814	8	10	0.08	2800	335.1006	40.92392	-91.39362
163143	3159	1367	-1945	-2.666759	-2.819933	333.2513	0	11.23	4002	1425	1551	1477	1195	0.02	2.256601	8	10	0.08	2800	337.3204	40.92392	-91.39362
163183	3078	1157	-1744	-1.136291	-3.386232	334.2227	0	11.23	4003	1591	1489	1311	1261	0.02	2.256163	8	10	0.08	2800	337.3204	40.92392	-91.39362
163297	-827	-1657	-573	-5.155298	-1.279037	335.0964	0	11.46	4004	1397	1477	1489	1289	0.02	2.251004	8	10	0.08	2800	340.4161	40.92392	-91.39362
163496	-762	804	-663	-0.5123305	-2.308285	340.3262	0	11.46	4002	1820	1188	1042	1566	0.02	2.252359	8	10	0.08	2800	346.9846	40.92392	-91.39362
163545	-3259	-1655	-1070	-6.493398	-0.2489881	341.4691	0	11.46	4003	1415	1113	1447	1641	0.02	2.259848	8	10	0.08	2800	346.0551	40.92392	-91.39362
163607	-1977	-2755	52	-8.033574	1.111934	341.6228	0	11.46	4003	1442	1356	1390	1420	0.02	2.264871	8	10	0.08	2800	346.0551	40.92392	-91.39362
163720	-57	335	1133	-6.94711	2.529991	341.6793	0	11.46	4002	1560	1264	1236	1544	0.02	2.286022	8	10	0.08	2800	344.5588	40.92392	-91.39362
163801	-474	1706	-398	-7.566431	0.8412558	341.0126	0	11.46	4003	1450	1590	1344	1192	0.02	2.301891	8	10	0.08	2800	341.7786	40.92393	-91.39362
163934	-1014	-974	-809	-2.981098	1.488765	344.0386	0	11.46	4002	1268	1148	1512	1620	0.02	2.321269	8	10	0.08	2800	348.4484	40.92393	-91.39362
163996	-1357	864	-2359	-3.294792	1.147241	344.8328	0	11.46	4002	1489	1313	1309	1473	0.02	2.344466	8	10	0.08	2800	348.4484	40.92393	-91.39362
164104	-200	157	-1319	-3.336565	-0.8431014	347.1584	0	11.46	4002	1237	1135	1551	1685	0.02	2.353067	8	10	0.08	2800	352.3332	40.92393	-91.39362
164194	924	501	-4059	-3.055975	0.6868387	353.8616	0	10.77	4004	1251	1481	1585	1303	0.02	2.359611	8	10	0.08	2800	1.411102	40.92393	-91.39362
164297	-663	-14	-4178	-2.078262	-0.5076751	13.17534	0	10.77	4002	1113	1571	1759	1201	0.02	2.3596	8	10	0.08	2800	9.043884	40.92393	-91.39362
164537	2540	-1459	-3042	-1.591064	2.851602	27.55616	0	10.77	4004	1331	1243	1539	1539	0.02	2.346759	8	10	0.08	2800	34.57587	40.92393	-91.39362
164707	-1329	-1471	-3519	0.06286125	4.039085	46.65204	0	10.77	4003	1388	1222	1474	1556	0.02	2.342435	8	10	0.08	2800	42.4444	40.92393	-91.39362
164762	1155	797	-1824	1.422984	2.962688	49.93162	0	10.77	4003	1351	1357	1553	1379	0.02	2.339068	8	10	0.08	2800	51.44479	40.92393	-91.39363
164842	-396	462	-783	1.926286	1.093316	52.14757	0	10.77	4002	1426	1098	1492	1624	0.02	2.335657	8	10	0.08	2800	56.87604	40.92393	-91.39363
164949	-849	-1676	-370	0.9518077	1.308667	66.43105	0	10.77	4004	1455	1395	1465	1329	0.02	2.334105	8	10	0.08	2800	65.46844	40.92393	-91.39363
165012	-852	-2131	-332	0.4706746	2.199421	66.76078	0	10.77	4003	1483	1135	1421	1601	0.02	2.329641	8	10	0.08	2800	65.46844	40.92393	-91.39363
165115	-930	543	688	-0.6329342	2.613759	66.48467	0	10.77	4003	1498	1638	1396	1116	0.02	2.325533	8	10	0.08	2800	67.74924	40.92393	-91.39363
165210	1929	194	1747	-1.740034	1.049471	64.43207	0	11.85	4004	1400	1216	1484	1564	0.02	2.319232	8	10	0.08	2800	69.41953	40.92393	-91.39363
165316	851	1181	892	0.1078028	-0.02319231	62.96268	0	11.85	4004	1493	1377	1393	1429	0.02	2.292354	8	10	0.08	2800	67.82498	40.92393	-91.39363
165414	-423	428	2146	-0.2511205	-1.099334	60.45189	0	11.85	4003	1259	1347	1607	1503	0.02	2.274794	8	10	0.08	2800	60.29666	40.92393	-91.39363
165610	-1971	16	1343	1.725945	-2.807983	57.14104	0	11.85	4004	1359	1255	1551	1631	0.02	2.210612	8	10	0.08	2800	49.17657	40.92393	-91.39364
165647	-3438	594	1455	0.6493644	-3.30415	56.55386	0	11.85	4002	1566	1192	1312	1646	0.02	2.194185	8	10	0.08	2800	49.17657	40.92393	-91.39364
165736	300	-375	1075	-1.245135	-3.294327	55.61386	0	11.85	4002	1391	1799	1475	1047	0.02	2.165976	8	10	0.08	2800	50.77246	40.92393	-91.39364
165826	2333	1534	-239	2.402146	-1.359774	55.80551	0	11.85	4003	1563	1481	1353	1359	0.02	2.148589	8	10	0.08	2800	46.91882	40.92393	-91.39364
166004	-1004	1151	-53	2.302717	-4.110515	45.18554	0	11.85	4004	1298	1545	1581	1263	0.02	2.106122	8	10	0.08	2800	45.37985	40.92393	-91.39365
166102	1194	1127	-1210	0.5879719	-5.160969	45.26688	0	10.94	4002	1581	1391	1293	1407	0.02	2.080667	8	10	0.08	2800	45.37985	40.92393	-91.39365
166130	2790	1333	-1664	1.68183	-5.956594	45.83238	0	10.94	4003	1604	1386	1264	1414	0.02	2.077998	8	10	0.08	2800	41.62631	40.92393	-91.39365
166234	-563	-1760	-924	1.434355	-2.675181	46.02694	0	10.94	4004	1438	1688	1424	1146	0.02	2.060022	8	10	0.08	2800	42.4119	40.92393	-91.39365
166333	2068	-443	-1738	0.9583226	-0.5272573	47.51405	0	10.94	4004	1407	1449	1441	1399	0.02	2.051216	8	10	0.08	2800	43.64822	40.92393	-91.39365
166531	1565	574	-3392	2.124195	-1.99328	52.34414	0	10.94	4002	1293	1921	1527	923	0.02	2.029454	8	10	0.08	2800	48.65997	40.92393	-91.39365
166598	654	272	-2905	4.376283	-2.614923	55.80295	0	10.94	4004	1516	1304	1302	1550	0.02	2.021729	8	10	0.08	2800	50.92361	40.92393	-91.39365
166712	-589	439	-3976	2.278641	-1.774071	63.39938	0	10.94	4003	1423	1351	1387	1467	0.02	2.021616	8	10	0.08	2800	56.17227	40.92393	-91.39365
166777	-1914	-1953	-3389	1.59312	-1.392684	67.95195	0	10.94	4002	1399	847	1389	1965	0.02	2.023774	8	10	0.08	2800	65.13834	40.92393	-91.39365
166881	2502	1947	-6024	2.020042	-0.3781551	77.02411	0	10.94	4003	1198	1702	1570	998	0.02	2.065089	8	10	0.08	2800	83.02573	40.92393	-91.39365
166986	-201	522	-6237	2.72368	-3.935837	100.4193	0	11.29	4003	1273	1181	1549	1469	0.02	2.095252	8	10	0.08	2800	98.75201	40.92393	-91.39365
167034	-1549	-185	-5958	1.719057	-4.158934	107.3083	0	11.29	4002	1529	1285	1353	1369	0.02	2.121264	8	10	0.08	2800	112.0775	40.92393	-91.39365
167171	-2230	-446	-3205	-1.798551	-0.7403778	118.3437	0	11.29	4003	1573	1277	1329	1257	0.02	2.157594	8	10	0.08	2800	127.9826	40.92393	-91.39365
167286	-689	-492	-838	-3.337092	-0.5566553	133.0625	0	11.29	4002	1263	1243	1625	1385	0.02	2.218568	8	10	0.08	2800	132.3884	40.92393	-91.39365
167311	-689	-492	-838	-3.337092	-0.5566553	133.0625	0	11.29	4002	1549	1123	1325	1499	0.02	2.240157	8	10	0.08	2800	132.3884	40.92393	-91.39365
167438	-788	343	1848	-3.931096	0.2287589	131.9761	0	11.29	4003	1695	1279	1663	1511	0.02	2.279593	8	10	0.08	2800	135.6228	40.92393	-91.39365
167510	1242	-1349	2502	-3.166084	0.06421051	129.2179	0	11.29	4004	1465	1375	1387	1305	0.02	2.292274	8	10	0.08	2800	131.9234	40.92393	-91.39365
167663	-983	250	1567	-2.594634	1.084511	125.7072	0	11.29	4004	1409	1275	1431	1481	0.02	2.314726	8	10	0.08	2800	129.4166	40.92393	-91.39365
167757	-206	1606	2854	-3.508442	-4.418967	120.8865	0	11.29	4005	1707	1459	1119	1335	0.02	2.319841	8	10	0.08	2800	124.506	40.92393	-91.39365
167898	2228	-1550	1736	-1.948629	-4.575852	117.0588	0	11.29	4003	1380	1632	1454	1190	0.02	2.301461	8	10	0.08	2800	117.3633	40.92393	-91.39365
167932	3190	168	1120	-0.398303	-4.519651	116.5763	0	11.29	4004	1329	1453	1511	1387	0.02	2.291682	8	10	0.08	2800	117.3633	40.92393	-91.39365
168121	64	-316	1053	-0.8841397	-4.956882	113.0758	0	11.29	4002	1264	1288	1598	1574	0.02	2.25034	8	10	0.08	2800	113.1015	40.92393	-91.39365
168223	-1627	-1214	2669	-1.380128	-5.777692	111.3681	0	11.29	4002	1513	1061	1331	1835	0.02	2.236559	8	10	0.08	2800	109.8146	40.92393	-91.39365
168325	-353	-940	40	-1.456975	-4.586766	111.0624	0	11.29	4004	1515	1183	1373	1681	0.02	2.205543	8	10	0.08	2800	107.2474	40.92393	-91.39365
168475	-2859	21	-707	2.162385	-4.991792	112.3522	0	11.29	4003	1487	1385	1401	1451	0.02	2.135368	8	10	0.08	2800	106.8256	40.92393	-91.39366
168543	-2290	327	-870	-0.02161605	-5.25807	112.979	0	11.29	4002	1602	1370	1284	1464	0.02	2.112755	8	10	0.08	2800	108.5646	40.92393	-91.39366
168631	-213	949	-1722	-0.816323	-4.597895	115.0305	0	11.29	4002	1315	1367	1589	1437	0.02	2.093141	8	10	0.08	2800	108.5552	40.92393	-91.39366
168777	-3046	-688	-1241	0.265545	-5.52779	118.4481	0	11.29	4004	1509	1043	1417	1699	0.02	2.059343	8	10	0.08	2800	112.0915	40.92393	-91.39366
168832	-298	747	-3183	0.930167	-8.044069	123.8962	0	11.06	4002	1582	1516	1412	1202	0.02	2.050514	8	10	0.08	2800	118.0141	40.92393	-91.39366
168989	-1633	-1925	-2209	-3.845748	-6.23738	126.6186	0	11.06	4004	1448	1608	1512	1108	0.02	2.016158	8	10	0.08	2800	123.7167	40.92393	-91.39366
169072	1802	-83	-934	-2.099457	-1.362652	130.1321	0	11.06	4003	1618	1564	1348	1158	0.02	2.003	8	10	0.08	2800	126	40.92393	-91.39366
169171	1067	941	-1042	-0.282791	-2.056428	130.4778	0	11.06	4003	1492	1304	1452	1404	0.02	1.983081	8	10	0.08	2800	128.0047	40.92393	-91.39366
169191	990	1307	-424	0.3451521	-2.663082	130.4705	0	11.06	4003	1290	1436	1636	1278	0.02	1.983081	8	10	0.08	2800	128.0047	40.92393	-91.39366
169295	1077	1399	-336	1.30193	-3.807291	130.104	0	11.06	4004	1386	1492	1520	1226	0.02	1.98224	8	10	0.08	2800	126.5096	40.92393	-91.39366
169392	318	2456	597	2.397716	-5.788254	128.5354	0	11.06	4004	1611	1577	1295	1161	0.02	1.982787	8	10	0.08	2800	124.1159	40.92393	-91.39366
169493	-1433	-2723	1218	0.3281189	-5.171151	126.751	0	11.06	4004	1719	931	1181	1857	0.02	1.972366	8	10	0.08	2800	122.5227	40.92394	-91.39366
169690	1295	1454	738	2.301987	-3.765173	123.765	0	11.06	4002	1424	1676	1456	1108	0.02	1.94884	8	10	0.08	2800	119.1012	40.92394	-91.39366
169745	-1486	879	751	1.799788	-4.730961	122.2909	0	11.17	4004	1559	1327	1313	1465	0.02	1.943102	8	10	0.08	2800	117.0004	40.92394	-91.39366
169902	1974	-697	453	2.172037	-5.370335	118.2569	0	11.17	4003	1384	1432	1466	1358	0.02	1.938951	8	10	0.08	2800	113.0732	40.92394	-91.39366
169944	1942	-1023	24	3.186728	-4.505589	117.6607	0	11.17	4003	1290	1546	1564	1240	0.02	1.935908	8	10	0.08	2800	113.0732	40.92394	-91.39366
169999	1665	2467	-359	3.992144	-4.359846	116.7984	0	11.17	4004	1529	1547	1317	1275	0.02	1.932194	8	10	0.08	2800	109.1506	40.92394	-91.39366
170083	-60	1499	-227	4.372056	-5.74895	116.8594	0	11.17	4003	1552	1492	1312	1300	0.02	1.922978	8	10	0.08	2800	109.2672	40.92394	-91.39366
170217	853	-1455	38	3.416355	-5.514977	116.5273	0	11.17	4003	1220	1500	1664	1308	0.02	1.907919	8	10	0.08	2800	107.2257	40.92395	-91.39366
170298	192	-1239	601	4.164808	-4.555508	116.605	0	11.17	4003	1433	1185	1423	1623	0.02	1.900892	8	10	0.08	2800	108.8903	40.92395	-91.39366
170495	-126	372	828	4.141046	-4.721416	116.1388	0	11.17	4003	1373	1549	1465	1285	0.02	1.876992	8	10	0.08	2800	109.6125	40.92395	-91.39366
170627	-816	-689	1756	3.339648	-3.735699	114.0307	0	11.23	4003	1363	1539	1455	1323	0.02	1.857091	8	10	0.08	2800	111.1116	40.92395	-91.39365
170794	825	818	881	2.499172	-2.52398	109.4684	0	11.23	4002	1310	1798	1544	1100	0.02	1.824183	8	10	0.08	2800	104.6712	40.92395	-91.39365
171034	398	-8	-37	2.674946	-2.917215	107.1272	0	11.23	4004	1287	1823	1543	1047	0.02	1.776174	8	10	0.08	2800	98.71567	40.92395	-91.39365
171164	2756	-575	-902	4.60868	-2.723099	108.1936	0	11.23	4002	1243	1449	1625	1367	0.02	1.746455	8	10	0.08	2800	98.23547	40.92395	-91.39365
171210	3965	-237	-1215	6.853004	-2.728567	99.04955	0	11.23	4002	1400	1184	1466	1638	0.02	1.742449	8	10	0.08	2800	98.23547	40.92395	-91.39365
171398	-1237	431	-1382	2.571752	0.6422817	103.7109	0	11.23	4003	1560	1390	1322	1420	0.02	1.706995	8	10	0.08	2800	106.0859	40.92395	-91.39365
171460	155	648	-1241	1.735021	0.86789	104.6373	0	11.23	4003	1670	1618	1196	1168	0.02	1.702035	8	10	0.08	2800	107.9454	40.92395	-91.39365
171537	775	1049	-1196	2.231373	0.4724317	105.1808	0	11.06	4003	1555	1519	1301	1261	0.02	1.703464	8	10	0.08	2800	111.5925	40.92395	-91.39365
171654	65	1155	303	1.223308	0.07991753	104.7721	0	11.06	4002	1454	1416	1378	1388	0.02	1.707665	8	10	0.08	2800	114.2598	40.92395	-91.39365
171712	1538	922	-356	3.651011	-2.241948	115.2329	0	11.06	4003	1454	1194	1392	1596	0.02	1.710194	8	10	0.08	2800	114.9794	40.92395	-91.39365
171782	744	275	-784	4.314008	-2.677218	115.3421	0	11.06	4003	1249	1501	1605	1297	0.02	1.708839	8	10	0.08	2800	115.6589	40.92395	-91.39365
171941	1433	-730	-358	2.60071	-1.640724	116.7994	0	11.06	4004	1137	1335	1729	1467	0.02	1.7054	8	10	0.08	2800	120.5358	40.92395	-91.39365
171988	-429	-212	346	2.839072	-1.231048	116.7681	0	11.06	4002	1584	1514	1262	1288	0.02	1.703098	8	10	0.08	2800	120.5358	40.92395	-91.39365
172127	-1102	-44	88	0.7929108	-0.6453003	115.865	0	11.06	4003	1556	1378	1304	1434	0.02	1.701793	8	10	0.08	2800	122.1464	40.92395	-91.39365
172200	-244	-724	47	-0.417703	-1.066764	114.8906	0	11.06	4005	1300	1362	1540	1438	0.02	1.702628	8	10	0.08	2800	121.0536	40.92395	-91.39365
172322	1205	-87	156	-0.08157904	-0.2465557	114.2228	0	11.06	4003	1284	1444	1552	1364	0.02	1.70359	8	10	0.08	2800	122.4084	40.92395	-91.39365
172408	-1209	-1901	-69	1.023494	-1.613684	113.1432	0	11	4002	1321	1029	1525	1797	0.02	1.694842	8	10	0.08	2800	123.0185	40.92394	-91.39365
172602	-791	448	1338	-0.3054414	-0.1377458	123.8072	0	11	4003	1302	1450	1544	1432	0.02	1.666145	8	10	0.08	2800	124.4321	40.92394	-91.39365
172697	1836	1654	-191	-1.213768	-1.330988	123.0456	0	11	4002	1380	1404	1546	1494	0.02	1.6337	8	10	0.08	2800	123.3648	40.92394	-91.39365
172801	-1268	493	677	-1.452481	-2.531332	123.4214	0	11	4003	1598	1056	1288	1806	0.02	1.593378	8	10	0.08	2800	124.1973	40.92394	-91.39365
172903	4526	893	-1458	0.662385	-1.650298	125.3319	0	11	4003	1432	1610	1482	1244	0.02	1.554182	8	10	0.08	2800	123.2255	40.92394	-91.39365
173041	-2326	1071	-631	1.632159	-4.28312	127.5762	0	11	4004	1583	1583	1339	1267	0.02	1.509054	8	10	0.08	2800	123.2975	40.92394	-91.39365
173171	-190	-1391	-1493	-2.218624	0.03254709	128.9647	0	11	4002	1368	1878	1552	938	0.02	1.46717	8	10	0.08	2800	126.1676	40.92393	-91.39365
173254	961	2104	-829	-2.672228	-1.172901	132.0301	0	11	4002	1368	1408	1560	1420	0.02	1.422722	8	10	0.08	2800	132.2052	40.92393	-91.39365
173360	-1330	-1722	-35	-4.225177	-3.183788	132.6694	0	11.06	4005	1356	1440	1592	1396	0.02	1.395541	8	10	0.08	2800	134.8059	40.92393	-91.39365
173393	-1561	-2350	-491	-4.810926	-1.840915	132.8532	0	11.06	4004	1706	1068	1228	1714	0.02	1.390727	8	10	0.08	2800	134.8059	40.92393	-91.39365
173507	-282	1435	-566	-4.145815	0.7997667	132.7798	0	11.06	4004	1518	1464	1398	1316	0.02	1.368802	8	10	0.08	2800	131.9279	40.92393	-91.39365
173658	60	1485	-653	-4.773181	-3.192118	134.4841	0	11.06	4003	1544	1138	1358	1624	0.02	1.360857	8	10	0.08	2800	135.4955	40.92393	-91.39365
173770	-2932	-3918	-715	-7.183819	-0.5907892	134.8953	0	11.06	4004	1244	1960	1632	816	0.02	1.367161	8	10	0.08	2800	135.1325	40.92393	-91.39365
173866	143	-796	-760	-8.137862	1.232071	136.0346	0	11.06	4003	1314	1420	1588	1310	0.02	1.38229	8	10	0.08	2800	137.8056	40.92393	-91.39366
173949	-405	2287	-746	-7.116466	-1.07439	136.688	0	11.06	4002	1280	1426	1606	1296	0.02	1.40723	8	10	0.08	2800	138.0878	40.92393	-91.39366
173988	-119	2501	-703	-7.337852	-2.222439	136.6702	0	11.06	4003	1423	1497	1479	1237	0.02	1.414554	8	10	0.08	2800	138.0878	40.92393	-91.39366
174049	134	-801	461	-7.610367	-2.797276	136.5383	0	11.06	4002	1425	1411	1443	1345	0.02	1.418975	8	10	0.08	2800	138.1067	40.92393	-91.39366
174147	-619	-751	1599	-9.01693	-1.967029	134.8956	0	11.06	4004	1528	1410	1328	1358	0.02	1.44829	8	10	0.08	2800	136.1851	40.92393	-91.39366
174344	465	764	2293	-8.48435	-4.255259	130.6145	0	11.11	4004	1388	1410	1422	1388	0.02	1.484359	8	10	0.08	2800	131.0589	40.92393	-91.39367
174405	-385	2532	911	-7.990291	-5.761649	128.9087	0	11.11	4004	1434	1602	1382	1182	0.02	1.511663	8	10	0.08	2800	128.5212	40.92393	-91.39367
174467	-385	4464	2026	-8.418749	-9.86467	127.1724	0	11.11	4002	1307	1387	1509	1429	0.02	1.520859	8	10	0.08	2800	125.5482	40.92393	-91.39367
174605	657	1833	-274	-6.83701	-17.18047	125.6847	0	11.11	4002	1627	1287	1215	1507	0.02	1.545674	8	10	0.08	2800	120.6991	40.92393	-91.39367
174707	-2196	1669	-518	-6.833285	-17.94092	126.2252	0	11.11	4002	1551	1423	1303	1367	0.02	1.559249	8	10	0.08	2800	116.3932	40.92393	-91.39367
174782	631	-2268	-1686	-7.189474	-15.7102	117.5376	0	11.11	4003	1449	1259	1415	1513	0.02	1.567052	8	10	0.08	2800	115.2974	40.92393	-91.39368
174884	1510	-2690	-752	-7.214287	-11.22517	118.4486	0	11.11	4002	1347	723	1557	2009	0.02	1.588086	8	10	0.08	2800	115.5054	40.92393	-91.39368
175018	-126	-610	-1469	-7.34456	-6.596022	123.6888	0	11.11	4003	1279	1969	1605	763	0.02	1.610277	8	10	0.08	2800	121.2021	40.92393	-91.39368
175128	1404	2564	-1866	-2.681815	-8.725007	128.5279	0	11.06	4002	1503	1481	1423	1189	0.02	1.632026	8	10	0.08	2800	123.2919	40.92393	-91.39368
175164	-534	1726	-1323	-2.17251	-9.668924	129.3873	0	11.06	4002	1622	1250	1292	1452	0.02	1.643213	8	10	0.08	2800	123.2919	40.92393	-91.39368
175280	315	-3790	-1011	-3.940263	-5.275803	131.9248	0	11.06	4003	1237	1119	1687	1585	0.02	1.672658	8	10	0.08	2800	124.8267	40.92393	-91.39368
175347	304	458	673	-3.151275	-3.214458	131.8331	0	11.06	4004	1513	1509	1375	1219	0.02	1.67802	8	10	0.08	2800	125.9035	40.92393	-91.39368
175463	3407	3115	25	-0.2377127	-6.424778	130.5368	0	11.06	4004	1502	1642	1390	1050	0.02	1.703424	8	10	0.08	2800	125.6867	40.92393	-91.39368
175531	-433	-1605	2128	3.34095	-7.113035	126.437	0	11.06	4003	1432	1326	1398	1440	0.02	1.76121	8	10	0.08	2800	118.5708	40.92393	-91.39368
175550	-623	-1110	1694	3.157853	-6.093907	125.5103	0	11.06	4003	1609	1387	1203	1369	0.02	1.786624	8	10	0.08	2800	118.5708	40.92393	-91.39368
175577	-1698	704	2433	1.603491	-4.915383	121.4929	0	11.06	4002	1597	1283	1199	1505	0.02	1.811432	8	10	0.08	2800	114.1704	40.92393	-91.39368
175747	443	-467	2004	1.774229	-3.403735	105.0277	0	11.06	4002	1368	1456	1436	1380	0.02	1.845843	8	10	0.08	2800	106.8428	40.92393	-91.39368
175811	163	2447	1462	1.205166	-5.428977	101.7369	0	11.06	4004	1508	1602	1296	1262	0.02	1.847282	8	10	0.08	2800	105.05	40.92393	-91.39368
175910	-594	1126	629	0.7018243	-6.854901	100.1662	0	11.17	4003	1629	1413	1177	1437	0.02	1.851658	8	10	0.08	2800	100.0642	40.92393	-91.39368
176107	916	-139	465	1.776154	-4.066386	97.9301	0	11.17	4004	1527	1375	1289	1497	0.02	1.842125	8	10	0.08	2800	95.82455	40.92393	-91.39368
176220	181	-1005	-8	1.073442	-5.370851	97.40885	0	11.17	4003	1435	1287	1379	1575	0.02	1.8416	8	10	0.08	2800	94.26077	40.92393	-91.39367
176299	564	-1237	-30	1.307159	-4.406516	97.46857	0	11.17	4002	1730	1154	1104	1688	0.02	1.840165	8	10	0.08	2800	95.13251	40.92393	-91.39367
176402	578	-714	-280	0.5230465	-2.335079	98.19339	0	11.17	4002	1317	1299	1513	1563	0.02	1.837216	8	10	0.08	2800	94.4758	40.92393	-91.39367
176518	-1230	-1011	-306	1.102741	-1.649553	99.02261	0	11.17	4004	1517	1079	1305	1763	0.02	1.845174	8	10	0.08	2800	95.26324	40.92393	-91.39367
176559	-1329	-1217	-830	1.018997	-1.270074	99.38795	0	11.17	4003	1511	1147	1337	1673	0.02	1.846817	8	10	0.08	2800	97.50534	40.92393	-91.39366
176659	560	1195	-477	0.4544314	-0.6335486	100.6378	0	11.17	4003	1563	1523	1277	1309	0.02	1.84774	8	10	0.08	2800	101.5972	40.92393	-91.39366
176758	532	1665	-576	1.273542	-1.556254	100.6517	0	11.17	4002	1579	1527	1269	1325	0.02	1.846485	8	10	0.08	2800	100.4911	40.92393	-91.39366
177024	-63	-81	-131	0.9838457	-1.774218	102.3717	0	11.17	4004	1370	1374	1512	1464	0.02	1.817113	8	10	0.08	2800	104.1474	40.92393	-91.39366
177187	1202	1175	-1605	4.044448	-0.7885841	104.4602	0	11.17	4003	1412	1460	1480	1388	0.02	1.794213	8	10	0.08	2800	104.5767	40.92393	-91.39365
177301	1342	1511	-1497	4.424039	-2.082051	105.7055	0	11.17	4003	1289	1909	1635	911	0.02	1.752803	8	10	0.08	2800	108.3718	40.92393	-91.39365
177378	1359	900	-1654	4.216613	-2.167795	107.5644	0	11.17	4004	1705	1309	1229	1517	0.02	1.734037	8	10	0.08	2800	109.1773	40.92393	-91.39365
177590	-2289	-814	-1128	4.224906	-0.3934125	113.5782	0	11.17	4002	1644	1380	1290	1410	0.02	1.69686	8	10	0.08	2800	118.5396	40.92393	-91.39365
177666	-817	3	-1668	-1.629627	1.186746	130.2933	0	11.17	4002	1350	1556	1620	1218	0.02	1.679207	8	10	0.08	2800	130.2933	40.92393	-91.39365
177724	4588	1584	-919	0.2877366	0.3644005	131.4765	0	10.94	4003	1389	1529	1555	1243	0.02	1.67197	8	10	0.08	2800	130.2933	40.92393	-91.39365
177808	734	-1360	427	3.640278	-1.253976	131.7137	0	10.94	4004	1216	1384	1710	1410	0.02	1.666175	8	10	0.08	2800	129.6626	40.92393	-91.39365
177867	-2355	-4032	1852	2.949709	0.09603081	131.4933	0	10.94	4002	1473	831	1441	1987	0.02	1.656625	8	10	0.08	2800	129.6626	40.92393	-91.39365
177991	120	-316	1465	0.1816055	3.085707	129.9981	0	10.94	4002	1466	1334	1434	1462	0.02	1.64289	8	10	0.08	2800	130.9553	40.92393	-91.39365
178105	575	-258	2545	0.9005556	2.691537	127.2069	0	10.94	4002	1302	1496	1570	1344	0.02	1.639369	8	10	0.08	2800	128.1506	40.92393	-91.39365
178179	130	1295	2487	0.1871347	1.729927	124.9534	0	10.94	4002	1478	1528	1364	1318	0.02	1.64147	8	10	0.08	2800	127.229	40.92393	-91.39365
178315	-260	-164	2519	-1.680321	0.222292	118.2066	0	10.94	4004	1639	1407	1081	1361	0.02	1.643474	3	10	0.08	2800	124.456	40.92393	-91.39365
178475	-4916	2669	1332	-2.002353	-2.042017	114.0001	0	10.94	4003	1208	1832	1796	1108	0.02	1.665483	3	10	0.08	2800	118.8718	40.92393	-91.39365
178546	-6349	-968	1141	-8.282064	-3.164716	112.2542	0	10.94	4003	1652	1370	1410	1628	0.02	1.677219	3	10	0.08	2800	118.6118	40.92393	-91.39365
178605	-2122	-1019	1434	-13.71874	-2.068876	110.4548	0	10.94	4003	1558	1774	1716	1432	0.02	1.689675	3	10	0.08	2800	117.7206	40.92393	-91.39365
178654	-548	581	1749	-16.12294	-2.472529	108.1696	0	10.72	4002	1651	1685	1657	1531	0.02	1.694186	3	10	0.08	2800	117.9468	40.92393	-91.39365
178814	4483	-2464	1219	-12.87564	1.242605	112.5821	0	10.72	4004	1245	1953	1659	903	0.02	1.705234	3	10	0.08	2800	103.9405	40.92393	-91.39365
178924	5450	3039	131	-7.31144	1.425681	99.69258	0	10.72	4004	1279	1871	1695	915	0.02	1.710567	3	10	0.08	2800	100.126	40.92393	-91.39365
178956	2331	1678	1149	-5.269185	-0.1489762	99.12128	0	10.72	4004	1205	1389	1775	1391	0.02	1.721268	3	10	0.08	2800	100.126	40.92393	-91.39365
179090	-1575	-2447	2496	-6.863442	0.6113015	95.02485	0	10.72	4002	1389	981	1581	1809	0.02	1.730978	3	10	0.08	2800	93.65369	40.92393	-91.39365
179183	2110	312	2688	-5.355865	1.055848	90.88717	0	10.72	4004	1512	1342	1450	1404	0.02	1.738542	3	10	0.08	2800	87.91129	40.92393	-91.39365
179254	2112	1706	3062	-3.939893	0.4651962	89.16043	0	10.72	4006	1617	1229	1257	1441	0.02	1.751319	3	10	0.08	2800	80.74438	40.92393	-91.39365
179429	-1641	-1138	5400	-2.176429	-1.101973	61.35637	0	10.72	4002	1421	1437	1391	1311	0.02	1.778924	3	10	0.08	2800	60.94366	40.92393	-91.39365
179502	977	1238	3908	-2.274471	-2.080652	43.22964	0	11.06	4003	1333	1383	1419	1357	0.02	1.801276	3	10	0.08	2800	43.22964	40.92393	-91.39365
179605	738	608	3914	-1.85982	-2.619817	38.44992	0	11.06	4003	1314	1440	1422	1296	0.02	1.818836	3	10	0.08	2800	43.22964	40.92393	-91.39365
179633	245	370	4074	-1.136034	-3.548178	34.2029	0	11.06	4004	1399	1225	1319	1533	0.02	1.827897	3	10	0.08	2800	39.98514	40.92393	-91.39365
179807	-15	-146	2757	0.03976553	-6.55308	23.53934	0	11.06	4004	1352	1244	1362	1570	0.02	1.855137	3	10	0.08	2800	20.49628	40.92393	-91.39365
179867	-357	212	2264	0.2161034	-6.860008	22.20457	0	11.06	4002	1279	1231	1431	1607	0.02	1.881466	3	10	0.08	2800	15.95236	40.92394	-91.39365
179953	239	1214	1311	0.7126642	-7.851632	19.93811	0	11.06	4002	1383	1707	1351	1151	0.02	1.89543	3	10	0.08	2800	16.55399	40.92394	-91.39365
180081	2408	-776	-14	2.489461	-7.13286	17.98189	0	11.06	4002	1225	1639	1561	1227	0.02	1.935549	3	10	0.08	2800	10.92172	40.92394	-91.39366
180132	408	-1146	1013	2.934879	-6.28136	7.120178	0	11.06	4002	1440	1286	1334	1600	0.02	1.951402	3	10	0.08	2800	7.120178	40.92394	-91.39366
180262	-38	-176	130	5.285792	-3.86799	7.044866	0	11.06	4003	1261	1811	1509	1071	0.02	1.976142	3	10	0.08	2800	5.260315	40.92394	-91.39366
180375	-233	-1878	-128	3.976563	-1.81249	6.597151	0	11.06	4004	1121	1705	1639	1187	0.02	1.987826	3	10	0.08	2800	1.114594	40.92394	-91.39366
180481	-1161	-3839	-136	5.424512	4.606456	357.0363	0	10.94	4003	1511	1129	1291	1737	0.02	2.008637	3	10	0.08	2800	356.7458	40.92394	-91.39366
180553	-1346	-3641	-631	2.538819	10.83124	357.8879	0	10.94	4003	1629	1421	1217	1481	0.02	2.011016	3	10	0.08	2800	350.511	40.92395	-91.39366
180623	1619	-2631	-334	2.380605	12.08457	358.0554	0	10.94	4004	1278	1520	1562	1404	0.02	2.013105	3	10	0.08	2800	350.511	40.92395	-91.39366
180699	-2280	-254	765	1.101611	13.46162	346.6769	0	10.94	4004	1469	1161	1357	1757	0.02	2.012157	3	10	0.08	2800	346.8579	40.92395	-91.39366
180803	-2035	4165	1097	-1.012379	8.9935	346.1393	0	10.94	4003	1490	1264	1228	1594	0.02	2.002523	3	10	0.08	2800	348.4614	40.92395	-91.39367
180902	-3382	328	1993	-6.183181	1.902815	343.0352	0	10.94	4004	1543	1375	1137	1509	0.02	1.997312	3	10	0.08	2800	347.9847	40.92395	-91.39367
180994	-1038	-397	-286	-10.35557	2.031498	341.5921	0	10.94	4002	1278	1308	1416	1558	0.02	1.993965	3	10	0.08	2800	347.3647	40.92395	-91.39367
181136	-938	-683	1206	-12.09114	2.336634	341.0479	0	10.94	4003	1733	1297	1027	1591	0.02	1.982555	3	10	0.08	2800	348.0511	40.92395	-91.39367
181204	4173	536	-1271	-9.391305	1.962768	341.5299	0	10.94	4004	1157	1717	1671	1215	0.02	1.969941	3	10	0.08	2800	346.9229	40.92395	-91.39367
181291	1423	1127	-1015	-3.496742	0.8653237	343.1796	0	10.94	4003	1141	1597	1715	1327	0.02	1.958774	3	10	0.08	2800	351.9549	40.92395	-91.39367
181411	-2042	2497	-2801	-6.417634	-1.567902	356.7769	0	10.94	4004	1351	1721	1593	1223	0.02	1.925806	3	10	0.08	2800	354.8449	40.92395	-91.39367
181508	-258	4243	-2661	-5.837757	-6.910385	1.456762	0	10.94	4004	1527	1593	1443	1329	0.02	1.897494	3	10	0.08	2800	6.760529	40.92395	-91.39367
181670	564	-2578	-2461	-9.637172	-4.360103	22.94839	0	10.94	4003	1352	1132	1530	1674	0.02	1.803905	3	10	0.08	2800	22.40628	40.92395	-91.39368
181732	3309	-866	-2921	-8.042703	-1.722015	25.63224	0	10.94	4002	1233	1595	1627	1153	0.02	1.78403	3	10	0.08	2800	24.49387	40.92395	-91.39368
181811	-484	601	-2715	-3.218848	-1.884647	30.30785	0	10.94	4004	1614	1054	1244	1596	0.02	1.76395	3	10	0.08	2800	29.33984	40.92395	-91.39368
181935	1730	2000	-2534	-1.174317	-3.997423	35.1732	0	10.94	4003	1356	1284	1502	1354	0.02	1.697703	3	10	0.08	2800	33.88531	40.92395	-91.39368
181972	1816	638	-2014	1.213697	-5.798439	37.60097	0	10.94	4004	1196	1212	1624	1424	0.02	1.648471	3	10	0.08	2800	39.27628	40.92395	-91.39368
182014	-3029	-1065	399	-0.6055737	-5.080362	38.75668	0	10.94	4003	1505	1253	1295	1407	0.02	1.620618	3	10	0.08	2800	40.87103	40.92395	-91.39368
182140	445	-1316	644	-3.91027	-3.430848	38.15919	0	11.11	4003	1278	1294	1504	1380	0.02	1.567819	3	10	0.08	2800	40.21011	40.92395	-91.39368
182366	917	-1089	2624	-2.864492	-2.114229	31.20551	0	11.11	4002	1325	1329	1527	1523	0.02	1.458162	3	10	0.08	2800	26.27533	40.92395	-91.39368
182474	343	477	3031	-1.041962	-3.143688	28.6404	0	11.11	4002	1595	1193	1243	1697	0.02	1.415966	3	10	0.08	2800	19.56949	40.92395	-91.39368
182517	-644	-192	1548	-0.769855	-3.510123	27.6935	0	11.11	4004	1411	625	799	1609	0.02	1.397333	3	10	0.08	2800	19.56949	40.92395	-91.39368
182683	-769	3679	1939	-1.977816	-2.171399	345.8979	0	11.11	4003	1000	1000	1000	1000	0.02	1.341857	3	10	0.08	2800	346.446	40.92395	-91.39368
182743	2375	1978	2467	-1.441744	-3.865236	345.162	0	11.11	4003	1000	1000	1000	1000	0.02	1.314	3	10	0.08	2800	346.446	40.92395	-91.39368
182828	-1219	-1246	260	-2.579119	-0.4553966	15.22756	0	11.11	4004	1000	1000	1000	1000	0.02	1.263582	3	10	0.08	2800	12.87735	40.92395	-91.39369
182936	-308	-201	-10	-1.968892	-1.199452	15.31969	0	11.11	4004	1000	1000	1000	1000	0.02	1.229627	3	10	0.08	2800	11.75616	40.92395	-91.39369
183043	-97	-80	-2	-2.230311	-0.8589867	15.33907	0	11.23	4004	1000	1000	1000	1000	0.02	1.17311	3	10	0.08	2800	11.03864	40.92395	-91.39369
183130	-26	11	14	-2.30744	-0.7606839	15.33675	0	11.23	4003	1000	1000	1000	1000	0.02	1.144407	3	10	0.08	2800	11.58237	40.92395	-91.39369
183245	13	23	32	-2.373349	-0.6754044	15.3447	0	11.23	4003	1000	1000	1000	1000	0.02	1.085238	1	10	0.08	2800	11.28717	40.92395	-91.39369
183349	-52	-49	-41	-2.43104	-0.6221341	15.34091	0	11.23	4004	1000	1000	1000	1000	0.02	1.047476	1	10	0.08	2800	10.30847	40.92395	-91.39369
183430	-12	-28	-20	-2.489563	-0.5379509	15.34697	0	11.23	4004	1000	1000	1000	1000	0.02	1.007529	1	10	0.08	2800	9.80426	40.92395	-91.39369
183533	14	25	21	-2.536181	-0.4921207	15.33883	0	11.23	4003	1000	1000	1000	1000	0.02	0.960154	1	10	0.08	2800	9.388824	40.92395	-91.39369
183656	-20	-45	-22	-2.595991	-0.4009317	15.34092	0	11.23	4003	1000	1000	1000	1000	0.02	0.9169933	1	10	0.08	2800	8.902832	40.92395	-91.39369
183738	1	9	-7	-2.642186	-0.3443579	15.34361	0	11.23	4003	1000	1000	1000	1000	0.02	0.8944103	1	10	0.08	2800	9.122131	40.92395	-91.39369
183848	2	-18	-11	-2.703686	-0.2651099	15.34196	0	11.23	4004	1000	1000	1000	1000	0.02	0.8524272	1	10	0.08	2800	8.656189	40.92395	-91.39369
183952	-25	-12	-13	-2.753246	-0.2042059	15.34324	0	11.23	4003	1000	1000	1000	1000	0.02	0.8213018	1	10	0.08	2800	8.85791	40.92395	-91.39369
184045	-1	9	-3	-2.796599	-0.1493281	15.34177	0	11.29	4002	1000	1000	1000	1000	0.02	0.8108302	1	10	0.08	2800	9.493988	40.92395	-91.39369
184152	-10	1	5	-2.840527	-0.09728136	15.34177	0	11.29	4002	1000	1000	1000	1000	0.02	0.8002349	1	10	0.08	2800	7.936493	40.92395	-91.39369
184247	-5	-6	-3	-2.885061	-0.04498281	15.34257	0	11.29	4003	1000	1000	1000	1000	0.02	0.7978899	1	10	0.08	2800	8.327576	40.92395	-91.39369
184318	-1	0	-4	-2.907143	-0.01205864	15.34263	0	11.29	4004	1000	1000	1000	1000	0.02	0.7928882	1	10	0.08	2800	6.379608	40.92395	-91.39369
184427	-8	-5	3	-2.952126	0.05058108	15.34349	0	11.29	4004	1000	1000	1000	1000	0.02	0.7914576	1	10	0.08	2800	7.325897	40.92395	-91.39369
184540	-12	6	2	-2.984597	0.09426222	15.34446	0	11.29	4002	1000	1000	1000	1000	0.02	0.7881356	1	10	0.08	2800	6.928864	40.92395	-91.39369
184731	-6	2	-1	-3.040781	0.1713987	15.34251	0	11.29	4003	1000	1000	1000	1000	0.02	0.7851666	1	10	0.08	2800	7.017609	40.92395	-91.39368
184890	0	-1	3	-3.085552	0.2281691	15.3405	0	11.34	4004	1000	1000	1000	1000	0.02	0.7919053	1	10	0.08	2800	6.410248	40.92395	-91.39368
184933	-6	7	3	-3.093344	0.239523	15.34068	0	11.34	4002	1000	1000	1000	1000	0.02	0.7919836	1	10	0.08	2800	6.410248	40.92395	-91.39368
185011	-4	3	-1	-3.10837	0.2622419	15.33995	0	11.34	4003	1000	1000	1000	1000	0.02	0.785781	1	10	0.08	2800	7.44809	40.92395	-91.39368
185175	-3	1	1	-3.150551	0.3233958	15.33952	0	11.34	4002	1000	1000	1000	1000	0.02	0.772203	1	10	0.08	2800	6.530731	40.92395	-91.39368
185279	-4	-4	-1	-3.162298	0.3443147	15.34019	0	11.34	4004	1000	1000	1000	1000	0.02	0.7800877	1	10	0.08	2800	6.767487	40.92395	-91.39368
185304	-8	-1	0	-3.177233	0.3624116	15.34013	0	11.34	4003	1000	1000	1000	1000	0.02	0.7818354	1	10	0.08	2800	7.115234	40.92395	-91.39368
185408	0	1	2	-3.195864	0.3885179	15.33983	0	11.34	4003	1000	1000	1000	1000	0.02	0.7837791	1	10	0.08	2800	6.750793	40.92395	-91.39368
185510	-6	-6	0	-3.21221	0.4149404	15.34013	0	11.34	4003	1000	1000	1000	1000	0.02	0.7888981	1	10	0.08	2800	6.676758	40.92395	-91.39368
185663	-6	7	1	-3.238533	0.4520908	15.33983	0	11.34	4002	1000	1000	1000	1000	0.02	0.7955665	1	10	0.08	2800	7.310181	40.92395	-91.39368
185714	-3	3	0	-3.243385	0.4590531	15.34038	0	11.34	4002	1000	1000	1000	1000	0.02	0.7960328	1	10	0.08	2800	7.310181	40.92395	-91.39368
185856	-2	0	-1	-3.261175	0.4832855	15.34325	0	11.34	4004	1000	1000	1000	1000	0.02	0.7876866	1	10	0.08	2800	6.540894	40.92395	-91.39368
185919	-2	-5	0	-3.272257	0.5044729	15.34496	0	11.34	4002	1000	1000	1000	1000	0.02	0.7837217	1	10	0.08	2800	6.068878	40.92395	-91.39368
186052	-3	1	-2	-3.284339	0.5220639	15.34478	0	11.34	4003	1000	1000	1000	1000	0.02	0.7598102	1	10	0.08	2800	6.371613	40.92395	-91.39368
186172	-1	-3	-2	-3.298714	0.5436035	15.34667	0	11.34	4003	1000	1000	1000	1000	0.02	0.7492267	1	10	0.08	2800	6.276001	40.92395	-91.39368
186277	-4	2	0	-3.309614	0.5607234	15.34765	0	11.34	4003	1000	1000	1000	1000	0.02	0.7376214	1	10	0.08	2800	6.206482	40.92395	-91.39368
186382	-6	0	0	-3.32469	0.5831062	15.34985	0	11.34	4002	1000	1000	1000	1000	0.02	0.726194	1	10	0.08	2800	6.540375	40.92395	-91.39368
186429	-5	-6	0	-3.327161	0.5871679	15.3496	0	11.34	4003	1000	1000	1000	1000	0.02	0.7247458	1	10	0.08	2800	6.616943	40.92395	-91.39368
186551	-6	4	-1	-3.335399	0.6029311	15.34978	0	11.34	4003	1000	1000	1000	1000	0.02	0.7092738	1	10	0.08	2800	6.49942	40.92395	-91.39368
186653	-4	3	0	-3.349623	0.6195513	15.35235	0	11.34	4004	1000	1000	1000	1000	0.02	0.7054009	1	10	0.08	2800	6.508057	40.92395	-91.39368
186717	0	-5	-1	-3.352842	0.6276213	15.35198	0	11.4	4002	1000	1000	1000	1000	0.02	0.7041705	1	10	0.08	2800	6.802246	40.92395	-91.39368
186885	-2	-5	3	-3.362484	0.6458193	15.35272	0	11.4	4003	1000	1000	1000	1000	0.02	0.7022988	1	10	0.08	2800	7.104279	40.92395	-91.39368
187028	-4	0	-2	-3.370645	0.6599218	15.35406	0	11.4	4003	1000	1000	1000	1000	0.02	0.7192745	1	10	0.08	2800	6.745117	40.92395	-91.39368
187118	-7	0	-1	-3.378902	0.6701242	15.35308	0	11.4	4003	1000	1000	1000	1000	0.02	0.7261883	1	10	0.08	2800	6.036591	40.92395	-91.39368
187250	-8	-2	0	-3.385751	0.6856023	15.35217	0	11.4	4003	1000	1000	1000	1000	0.02	0.7294126	1	10	0.08	2800	5.995819	40.92395	-91.39368
187359	-2	-3	0	-3.39064	0.6923224	15.35235	0	11.4	4002	1000	1000	1000	1000	0.02	0.7341736	1	10	0.08	2800	5.95459	40.92395	-91.39368
187428	-4	10	0	-3.397951	0.7037798	15.35394	0	11.4	4003	1000	1000	1000	1000	0.02	0.7477371	1	10	0.08	2800	5.864563	40.92395	-91.39368
187565	-7	0	-1	-3.407137	0.7115999	15.35479	0	11.4	4003	1000	1000	1000	1000	0.02	0.7544502	1	10	0.08	2800	7.038971	40.92395	-91.39368
187662	0	-1	1	-3.409642	0.7220122	15.35699	0	11.4	4004	1000	1000	1000	1000	0.02	0.7619271	1	10	0.08	2800	6.5896	40.92395	-91.39368
187754	-4	0	1	-3.412213	0.7314502	15.35815	0	11.4	4003	1000	1000	1000	1000	0.02	0.769735	1	10	0.08	2800	6.184509	40.92395	-91.39368
187857	-2	0	0	-3.419514	0.737475	15.35766	0	11.4	4003	1000	1000	1000	1000	0.02	0.7873343	1	10	0.08	2800	6.547028	40.92395	-91.39368
187946	-4	-2	-4	-3.423822	0.7431566	15.35754	0	11.4	4003	1000	1000	1000	1000	0.02	0.7960828	1	10	0.08	2800	6.239624	40.92395	-91.39368
188018	0	2	1	-3.426328	0.7460634	15.35668	0	11.4	4003	1000	1000	1000	1000	0.02	0.7964053	1	10	0.08	2800	5.393555	40.92395	-91.39368
188153	-3	0	-5	-3.429641	0.7570397	5.131351	0	11.4	4004	1000	1000	1000	1000	0.02	0.7948665	1	10	0.08	2800	5.792816	40.92395	-91.39368
188209	-4	-3	-1	-3.429415	0.7595092	5.13239	0	11.4	4004	1000	1000	1000	1000	0.02	0.7933203	1	10	0.08	2800	5.792816	40.92395	-91.39368
188327	1	-3	3	-3.431244	0.7647048	5.133979	0	11.4	4002	1000	1000	1000	1000	0.02	0.791295	1	10	0.08	2800	5.440094	40.92395	-91.39368
188402	-4	0	3	-3.430711	0.7704726	5.133612	0	11.4	4004	1000	1000	1000	1000	0.02	0.7884768	1	10	0.08	2800	5.434296	40.92395	-91.39368
188501	-4	1	-1	-3.433021	0.7771436	5.136057	0	11.46	4003	1000	1000	1000	1000	0.02	0.7849479	1	10	0.08	2800	6.19696	40.92395	-91.39368
188599	2	-3	-1	-3.433602	0.783105	5.137708	0	11.46	4003	1000	1000	1000	1000	0.02	0.7761595	1	10	0.08	2800	6.127716	40.92395	-91.39368
188706	-6	2	0	-3.434452	0.7881767	5.137647	0	11.46	4004	1000	1000	1000	1000	0.02	0.7668962	1	10	0.08	2800	5.041412	40.92395	-91.39368
188806	-4	-1	2	-3.436472	0.7891566	5.137403	0	11.46	4003	1000	1000	1000	1000	0.02	0.7588629	1	10	0.08	2800	5.774414	40.92395	-91.39368
188905	0	-1	-3	-3.439543	0.791896	5.137708	0	11.46	4003	1000	1000	1000	1000	0.02	0.7606775	1	10	0.08	2800	5.751953	40.92395	-91.39368
189017	-3	-2	-1	-3.442118	0.7934762	5.13942	0	11.46	4002	1000	1000	1000	1000	0.02	0.7685528	1	10	0.08	2800	6.161255	40.92395	-91.39368
189151	-1	-2	-1	-3.44283	0.7952672	5.140337	0	11.46	4004	1000	1000	1000	1000	0.02	0.7680096	1	10	0.08	2800	5.772827	40.92395	-91.39368
189229	0	5	0	-3.447267	0.797175	5.142478	0	11.46	4002	1000	1000	1000	1000	0.02	0.7649577	1	10	0.08	2800	5.667267	40.92395	-91.39368
189318	-7	0	0	-3.449984	0.8002893	5.14425	0	11.46	4003	1000	1000	1000	1000	0.02	0.7605755	1	10	0.08	2800	6.103394	40.92395	-91.39368
189451	-5	0	-5	-3.454593	0.8037668	5.146756	0	11.46	4003	1000	1000	1000	1000	0.02	0.7489434	1	10	0.08	2800	5.742126	40.92395	-91.39368
189522	-3	-1	-1	-3.456444	0.8061239	5.14706	0	11.46	4002	1000	1000	1000	1000	0.02	0.7474271	1	10	0.08	2800	6.397156	40.92395	-91.39368
189753	-8	-1	-2	-3.463746	0.8095318	5.150544	0	11.46	4003	1000	1000	1000	1000	0.02	0.7418031	1	10	0.08	2800	4.942352	40.92395	-91.39368
189837	-2	1	0	-3.464786	0.8106185	5.152133	0	11.46	4003	1000	1000	1000	1000	0.02	0.7401919	1	10	0.08	2800	5.345306	40.92395	-91.39368
189934	-2	0	-1	-3.464125	0.811699	5.155311	0	11.46	4004	1000	1000	1000	1000	0.02	0.7420526	1	10	0.08	2800	5.667511	40.92395	-91.39368
190152	0	-6	-1	-3.465175	0.8193008	5.156047	0	11.46	4003	1000	1000	1000	1000	0.02	0.7396609	1	10	0.08	2800	5.655396	40.92395	-91.39368
190261	-1	-2	0	-3.466653	0.8217894	5.157697	0	11.46	4003	1000	1000	1000	1000	0.02	0.7261592	1	10	0.08	2800	5.691772	40.92395	-91.39368
190367	-5	3	0	-3.468264	0.8230873	5.159837	0	11.46	4002	1000	1000	1000	1000	0.02	0.718419	1	10	0.08	2800	5.652008	40.92395	-91.39368
190428	-4	-3	-5	-3.470448	0.8241373	5.160509	0	11.46	4002	1000	1000	1000	1000	0.02	0.711123	1	10	0.08	2800	5.613007	40.92395	-91.39368
190585	-8	1	0	-3.472121	0.8243243	5.163014	0	11.46	4004	1000	1000	1000	1000	0.02	0.7102244	1	10	0.08	2800	6.025513	40.92395	-91.39368
190671	-5	1	1	-3.474035	0.8234488	5.161609	0	11.46	4002	1000	1000	1000	1000	0.02	0.7078488	1	10	0.08	2800	6.045471	40.92395	-91.39368
190712	-2	-1	1	-3.47402	0.8228537	5.162343	0	11.46	4002	1000	1000	1000	1000	0.02	0.7085586	1	10	0.08	2800	6.045471	40.92395	-91.39368
190822	-5	-2	-1	-3.473853	0.8255907	5.163443	0	11.46	4003	1000	1000	1000	1000	0.02	0.7040941	1	10	0.08	2800	6.403534	40.92395	-91.39368
190930	-2	-4	0	-3.473481	0.8291656	5.163748	0	11.46	4003	1000	1000	1000	1000	0.02	0.6916856	1	10	0.08	2800	5.310333	40.92395	-91.39368
191049	-2	0	1	-3.47717	0.8319255	5.164544	0	11.46	4002	1000	1000	1000	1000	0.02	0.6808916	1	10	0.08	2800	5.935394	40.92395	-91.39368
