time(ms)	gyro_x(deg/s)	gyro_y(deg/s)	gyro_z(deg/s)	orientation_roll(deg)	orientation_pitch(deg)	orientation_yaw(deg)	throttle	battery(V)	loop_time(uS)	pid_output_roll	pid_output_pitch	pid_output_yaw	pid_output_throttle	ultrasonic_alt	baro_alt	flight_mode	p_gain_altitude	i_gain_altitude	d_gain_altitude	compass_heading	latitude	longitude
94847	1579	-1623	-1446	-10.67217	-4.36264	336.959	0	11.57	4003	1393	1419	1493	1319	0.02	2.20398	8	10	0.08	2800	340.2106	40.92393	-91.39362
94978	1024	820	-1140	-7.499352	0.9427053	340.2488	0	11.57	4004	1450	1021	1451	1713	0.02	2.174595	8	10	0.08	2800	341.6937	40.92393	-91.39362
95095	1580	1480	-1742	-5.167059	-0.4631042	342.816	0	11.57	4003	1333	2033	1617	717	0.02	2.143311	8	10	0.08	2800	343.2557	40.92393	-91.39362
95108	1580	1480	-1742	-5.167059	-0.4631042	342.816	0	11.57	4003	1417	1135	1559	1581	0.02	2.143311	8	10	0.08	2800	343.2557	40.92393	-91.39362
95233	-5463	-2343	-235	-3.798517	-1.598242	347.0286	0	11.57	4002	1683	1343	1239	1367	0.02	2.101636	8	10	0.08	2800	349.0877	40.92393	-91.39362
95383	-354	1967	2283	-10.65948	4.092745	347.0542	0	11.57	4003	1643	1487	1249	1265	0.02	2.066288	8	10	0.08	2800	346.4789	40.92393	-91.39362
95490	-773	2287	3516	-11.62916	0.8415748	344.8793	0	11.46	4002	1547	1727	1289	1065	0.02	2.045065	8	10	0.08	2800	346.4789	40.92393	-91.39362
95517	121	1424	3086	-12.01233	-0.3319072	343.5944	0	11.46	4002	1382	1618	1448	1196	0.02	2.038924	8	10	0.08	2800	346.4695	40.92393	-91.39362
95672	-698	-3398	2361	-11.37695	1.316048	336.6045	0	11.46	4004	1390	1220	1466	1604	0.02	2.006312	8	10	0.08	2800	339.6411	40.92393	-91.39362
95727	2547	-116	1096	-10.74279	2.057027	335.8261	0	11.46	4004	1324	1634	1510	1160	0.02	1.985603	8	10	0.08	2800	339.6411	40.92393	-91.39362
95899	1872	3369	168	-9.077726	-3.194434	332.6589	0	11.46	4003	1472	1668	1322	1130	0.02	1.969851	8	10	0.08	2800	336.1765	40.92393	-91.39362
95962	-1344	-722	1064	-8.399602	-4.006517	332.1968	0	11.46	4002	1596	1354	1208	1450	0.02	1.961735	8	10	0.08	2800	337.3744	40.92393	-91.39362
96113	445	-132	-1277	-9.130931	4.282348	332.4948	0	11.46	4009	1605	785	1209	1989	0.02	1.950674	8	10	0.08	2800	331.5143	40.92393	-91.39362
96245	-2366	2108	-1379	-10.15046	1.27217	333.6422	0	11.46	4004	1366	1442	1478	1314	0.02	1.93773	8	10	0.08	2800	333.4593	40.92393	-91.39362
96413	278	-52	-904	-10.31031	4.73864	335.2497	0	11.46	4002	1336	1352	1488	1384	0.02	1.935691	8	10	0.08	2800	336.556	40.92394	-91.39362
96466	135	-1044	-716	-9.93597	4.759046	335.1931	0	11.46	4002	1114	1250	1704	1492	0.02	1.938083	8	10	0.08	2800	336.1871	40.92394	-91.39362
96607	654	233	94	-10.68396	0.6442748	333.0825	0	11.46	4004	1361	1107	1431	1653	0.02	1.942684	8	10	0.08	2800	334.8148	40.92394	-91.39362
96690	2443	1804	235	-8.709165	-0.6185435	332.7198	0	11.46	4003	1167	1583	1629	1189	0.02	1.95102	8	10	0.08	2800	335.9211	40.92394	-91.39362
96732	-111	1996	-956	-8.496242	-1.480126	332.62	0	11.46	4002	1393	1451	1421	1299	0.02	1.952488	8	10	0.08	2800	335.9211	40.92394	-91.39362
96853	-205	-4753	-356	-10.01679	4.35894	333.9018	0	11.46	4003	1253	1147	1577	1599	0.02	1.957354	8	10	0.08	2800	334.6219	40.92394	-91.39362
96922	1770	-416	-573	-7.978782	6.272785	334.9853	0	11.46	4004	1312	1362	1526	1380	0.02	1.956496	8	10	0.08	2800	333.5155	40.92394	-91.39362
97046	-1687	1381	451	-7.647778	2.602602	335.4531	0	11.46	4003	1592	1392	1230	1394	0.02	1.942473	8	10	0.08	2800	335.5943	40.92394	-91.39362
97211	852	-1381	-451	-8.071807	3.636474	335.5108	0	11.46	4003	1460	1296	1368	1488	0.02	1.925723	8	10	0.08	2800	337.2921	40.92394	-91.39362
97274	-319	1467	878	-7.229156	2.807929	334.9255	0	11.74	4002	1196	1610	1612	1182	0.02	1.922459	8	10	0.08	2800	335.9927	40.92394	-91.39362
97462	-973	-887	1012	-6.214174	2.462334	333.7868	0	11.74	4004	1201	1459	1619	1313	0.02	1.909111	8	10	0.08	2800	334.4278	40.92395	-91.39362
97649	-350	-1086	508	-9.192889	1.535714	332.094	0	11.74	4004	1100	1366	1718	1416	0.02	1.898884	8	10	0.08	2800	331.4861	40.92395	-91.39362
97748	-1765	-2930	-1133	-9.247416	4.941308	331.9449	0	11.74	4002	1272	1352	1530	1442	0.02	1.89624	8	10	0.08	2800	330.2204	40.92395	-91.39362
97866	2100	1740	-1670	-6.153541	6.002387	334.1969	0	11.74	4002	1469	1407	1365	1335	0.02	1.894668	8	10	0.08	2800	329.4315	40.92395	-91.39362
97949	-2365	1250	-352	-5.079655	2.242015	335.553	0	11.74	4004	1383	1537	1443	1221	0.02	1.894747	8	10	0.08	2800	331.1183	40.92395	-91.39362
98199	-535	-1111	-2032	-5.690623	1.130042	339.0031	0	11.74	4004	1578	1416	1250	1304	0.02	1.903188	8	10	0.08	2800	334.0608	40.92395	-91.39362
98346	326	-1013	-1542	-7.418166	3.856537	342.2631	0	11.74	4002	1233	1105	1633	1577	0.02	1.915264	8	10	0.08	2800	337.0396	40.92395	-91.39362
98384	586	1150	266	-6.128421	3.423634	343.1661	0	11.74	4002	1511	1537	1329	1171	0.02	1.916908	8	10	0.08	2800	337.8528	40.92395	-91.39362
98547	278	327	-1198	-5.976403	0.4976488	343.0756	0	11.74	4003	1242	1834	1650	874	0.02	1.911034	8	10	0.08	2800	339.0863	40.92395	-91.39362
98678	969	299	-13	-1.61915	-1.703516	344.9904	0	11.74	4004	1432	1546	1434	1172	0.02	1.908711	8	10	0.08	2800	342.4447	40.92394	-91.39362
98721	-1049	-1932	607	-1.629781	-0.9633714	345.109	0	11.74	4003	1431	1351	1449	1349	0.02	1.90785	8	10	0.08	2800	344.8242	40.92394	-91.39362
98842	229	336	-454	-3.256479	2.897456	346.4561	0	11.74	4002	1402	1440	1458	1252	0.02	1.917835	8	10	0.08	2800	340.4151	40.92394	-91.39362
98923	-1314	1149	-172	-4.351011	1.371619	346.3714	0	11.74	4004	1302	1266	1538	1426	0.02	1.925794	8	10	0.08	2800	339.6961	40.92394	-91.39362
99083	812	75	2501	-6.039126	1.589876	342.3421	0	11.63	4003	1296	1396	1476	1344	0.02	1.964546	8	10	0.08	2800	335.6716	40.92394	-91.39362
99169	-1388	-791	899	-6.322673	1.594455	340.4288	0	11.63	4004	1685	1143	1111	1581	0.02	1.98461	8	10	0.08	2800	331.2679	40.92394	-91.39362
99301	508	722	546	-6.328604	0.7975322	328.4307	0	11.63	4002	1322	1004	1488	1722	0.02	2.004382	8	10	0.08	2800	329.1336	40.92394	-91.39362
99345	-3034	3359	195	-6.13174	-0.3228201	328.1658	0	11.63	4004	1406	1782	1416	964	0.02	2.007404	8	10	0.08	2800	330.2983	40.92394	-91.39362
99437	-177	-551	-979	-9.216554	-0.3128952	327.8369	0	11.63	4003	1416	1040	1416	1688	0.02	2.008063	8	10	0.08	2800	329.6299	40.92394	-91.39362
99539	164	1135	608	-7.163076	-2.109618	326.7589	0	11.63	4004	1172	1366	1606	1376	0.02	2.020486	8	10	0.08	2800	330.1284	40.92394	-91.39362
99694	1306	2989	-385	-7.039754	-3.353977	325.1147	0	11.63	4004	1554	1714	1234	1026	0.02	2.059096	8	10	0.08	2800	326.7935	40.92394	-91.39362
99884	-2158	-1553	1286	-12.94491	-2.752794	325.1591	0	11.63	4004	1355	1613	1419	1141	0.02	2.093163	8	10	0.08	2800	328.8431	40.92394	-91.39362
99956	375	580	522	-14.64089	-1.899128	325.7839	0	11.46	4003	1341	1609	1427	1111	0.02	2.118648	8	10	0.08	2800	328.113	40.92393	-91.39362
100037	-1469	5	-1126	-14.93477	-1.926335	326.0311	0	11.46	4003	1470	918	1314	1746	0.02	2.136752	8	10	0.08	2800	330.4294	40.92393	-91.39362
100071	720	1170	-580	-14.89257	-2.103865	327.0225	0	11.46	4004	1533	1377	1279	1323	0.02	2.141857	8	10	0.08	2800	331.8354	40.92393	-91.39362
100160	-16	804	-30	-14.72418	-2.223828	328.5828	0	11.46	4002	1569	1695	1251	1017	0.02	2.158488	8	10	0.08	2800	334.9034	40.92393	-91.39362
100255	-461	1650	382	-14.55293	-2.519126	329.1763	0	11.46	4002	1474	1454	1336	1284	0.02	2.180452	8	10	0.08	2800	336.9417	40.92393	-91.39362
100351	-1493	-511	36	-17.54971	-4.495761	342.8056	0	11.46	4003	1379	1533	1459	1181	0.02	2.186547	8	10	0.08	2800	342.8056	40.92393	-91.39362
100459	-753	-648	1810	-16.83057	-3.19184	342.5734	0	11.46	4003	1498	1360	1296	1414	0.02	2.187088	8	10	0.08	2800	342.41	40.92393	-91.39362
100567	191	-941	-320	-19.70624	-0.7634476	340.3422	0	11.46	4004	1135	1669	1673	1087	0.02	2.192533	8	10	0.08	2800	339.2072	40.92393	-91.39362
100636	-2027	182	-228	-19.95753	-0.05160799	340.3801	0	11.46	4002	1803	959	1009	1765	0.02	2.196585	8	10	0.08	2800	338.8683	40.92393	-91.39362
100780	351	-1997	-19	-18.97071	1.579853	340.826	0	11.46	4004	1123	1069	1679	1661	0.02	2.207269	8	10	0.08	2800	339.7201	40.92393	-91.39362
100859	-2672	328	-1104	-20.31381	1.767039	341.2125	0	11.4	4002	1384	1360	1434	1338	0.02	2.229888	8	10	0.08	2800	340.311	40.92393	-91.39362
100966	3560	3065	-417	-18.03423	1.291742	342.5144	0	11.4	4003	1619	1475	1211	1247	0.02	2.238139	8	10	0.08	2800	345.3891	40.92393	-91.39362
101055	3203	614	-971	-12.53207	-1.060205	343.0702	0	11.4	4004	1403	1225	1451	1461	0.02	2.245231	8	10	0.08	2800	347.9961	40.92393	-91.39362
101131	3469	-482	344	-7.141421	-1.11234	343.8262	0	11.4	4004	1502	1388	1314	1324	0.02	2.256259	8	10	0.08	2800	349.6176	40.92393	-91.39363
101302	2820	-892	543	-3.26966	3.258996	343.281	0	11.4	4004	1366	1338	1452	1380	0.02	2.286571	8	10	0.08	2800	346.2589	40.92393	-91.39363
101396	825	-1303	1868	-1.965397	4.91123	341.0411	0	11.4	4003	1279	1325	1509	1463	0.02	2.28588	8	10	0.08	2800	343.4393	40.92393	-91.39363
101446	921	1156	2786	-1.198309	4.839764	339.0685	0	11.4	4003	1640	1534	1142	1276	0.02	2.28404	8	10	0.08	2800	339.9915	40.92393	-91.39364
101515	1384	697	1585	-0.9150147	3.61031	336.8119	0	11.4	4004	1299	1283	1489	1521	0.02	2.270476	8	10	0.08	2800	336.3539	40.92393	-91.39364
101629	791	1595	628	0.02164929	2.964547	333.0072	0	11.4	4004	1298	1710	1494	1118	0.02	2.259141	8	10	0.08	2800	330.2153	40.92393	-91.39365
101739	2437	774	369	0.7920921	1.570899	330.7297	0	11.74	4003	1242	1200	1520	1666	0.02	2.231044	8	10	0.08	2800	328.6593	40.92393	-91.39365
101801	2598	-1104	1193	1.933229	1.647049	330.2549	0	11.74	4003	1322	1354	1488	1532	0.02	2.210503	8	10	0.08	2800	327.3024	40.92393	-91.39365
101913	1503	-774	-227	0.5738152	4.057007	329.4461	0	11.74	4003	1118	1642	1736	1248	0.02	2.162352	8	10	0.08	2800	324.664	40.92393	-91.39365
102010	1026	-1061	-507	3.330519	4.434175	330.4037	0	11.74	4002	1400	1494	1488	1422	0.02	2.139287	8	10	0.08	2800	323.9342	40.92393	-91.39365
102174	2881	-494	-150	0.7366608	6.442134	321.628	0	11.74	4004	1051	1849	1827	1025	0.02	2.025285	8	10	0.08	2800	321.628	40.92393	-91.39365
102271	-193	3054	-585	3.712567	2.566897	323.0515	0	11.74	4003	1273	1557	1611	1327	0.02	1.956317	8	10	0.08	2800	322.797	40.92393	-91.39365
102353	-3314	112	-1189	1.572025	1.345972	323.7054	0	11.74	4003	1576	1398	1334	1476	0.02	1.865942	8	10	0.08	2800	322.9967	40.92393	-91.39365
102397	-2419	-2438	-370	-2.597985	3.578176	323.894	0	11.74	4003	1304	1632	1590	1218	0.02	1.832031	8	10	0.08	2800	323.7631	40.92393	-91.39365
102458	3843	29	-1008	-2.969987	5.38318	324.4073	0	11.74	4004	1602	1248	1368	1690	0.02	1.783513	8	10	0.08	2800	322.6251	40.92393	-91.39365
102584	-2270	460	-596	0.127309	3.402781	327.0516	0	11.4	4004	1295	1543	1589	1269	0.02	1.714551	8	10	0.08	2800	324.5775	40.92393	-91.39365
102788	2689	1651	-834	-8.39772	2.524804	331.2454	0	11.4	4002	1256	1990	1612	794	0.02	1.624059	8	10	0.08	2800	328.5695	40.92393	-91.39365
102959	7813	3868	-3935	-1.825479	1.835647	338.1698	0	11.4	4004	1329	1991	1637	699	0.02	1.603197	8	10	0.08	2800	332.1873	40.92394	-91.39365
103003	6454	4266	-3467	2.172	-0.4707717	340.0323	0	11.4	4003	1601	1455	1343	1205	0.02	1.593253	8	10	0.08	2800	332.1873	40.92394	-91.39365
103048	-2239	557	-1603	4.876903	-3.421841	342.8029	0	11.4	4004	1507	1451	1425	1233	0.02	1.592811	8	10	0.08	2800	339.9787	40.92394	-91.39365
103140	-6698	-2255	-1764	2.164665	-2.718654	343.7261	0	11.4	4003	1574	936	1324	1726	0.02	1.598526	8	10	0.08	2800	343.7542	40.92394	-91.39365
103306	1770	-1486	745	-9.892251	6.397276	343.8773	0	11.4	4002	1488	1186	1344	1486	0.02	1.633754	8	10	0.08	2800	341.4046	40.92394	-91.39365
103355	-708	465	1509	-9.620302	5.937147	342.0131	0	11.4	4003	1439	1285	1377	1403	0.02	1.649489	8	10	0.08	2800	336.4444	40.92394	-91.39365
103430	-580	936	2099	-11.10172	3.644037	339.3093	0	11.4	4003	1327	1191	1459	1519	0.02	1.684105	8	10	0.08	2800	336.4444	40.92394	-91.39364
103603	1071	45	1902	-8.346009	1.813038	331.6585	0	11.68	4002	1367	1381	1351	1313	0.02	1.747095	8	10	0.08	2800	332.6805	40.92394	-91.39364
103655	-543	1077	2624	-8.304676	1.478035	330.3733	0	11.68	4002	1497	1371	1199	1349	0.02	1.774151	8	10	0.08	2800	330.879	40.92394	-91.39364
103750	-1487	933	1934	-10.86155	-1.094724	326.6235	0	11.68	4003	1433	1341	1257	1401	0.02	1.79828	8	10	0.08	2800	328.2987	40.92394	-91.39364
103900	-466	2	1568	-10.40466	-0.5790347	323.0166	0	11.68	4003	1424	1292	1312	1484	0.02	1.841983	8	10	0.08	2800	326.0822	40.92394	-91.39363
104005	705	-825	280	-10.14931	-0.2770604	321.1815	0	11.68	4003	1128	1378	1620	1398	0.02	1.867028	8	10	0.08	2800	325.319	40.92394	-91.39363
104080	-856	213	653	-10.25029	0.2715817	320.6746	0	11.68	4003	1439	1321	1309	1463	0.02	1.88554	8	10	0.08	2800	325.3612	40.92394	-91.39363
104173	-1260	2617	530	-10.75953	-1.869383	320.1536	0	11.68	4003	1302	1340	1440	1442	0.02	1.900905	8	10	0.08	2800	323.2624	40.92394	-91.39363
104242	-1919	2695	71	-11.39829	-3.16198	320.0515	0	11.68	4003	1490	1350	1258	1406	0.02	1.912862	8	10	0.08	2800	324.765	40.92394	-91.39363
104343	-203	-612	115	-12.41079	-3.469278	320.3237	0	11.68	4003	1377	1345	1381	1453	0.02	1.920014	8	10	0.08	2800	328.9387	40.92394	-91.39362
104505	717	-363	-1894	-9.517573	-1.595883	321.4264	0	11.63	4003	1381	1251	1455	1549	0.02	1.910114	8	10	0.08	2800	329.9189	40.92395	-91.39362
104574	-437	1279	-1871	-9.147704	-2.254582	322.6129	0	11.63	4003	1274	1588	1572	1186	0.02	1.898258	8	10	0.08	2800	331.1419	40.92395	-91.39362
104698	2016	899	-1289	-8.017773	-3.670342	337.0744	0	11.63	4004	1492	1718	1378	1044	0.02	1.883605	8	10	0.08	2800	337.0702	40.92395	-91.39362
104772	-1260	-2247	-2156	-7.190616	-1.588206	339.4972	0	11.63	4004	1547	1271	1363	1471	0.02	1.870942	8	10	0.08	2800	340.1357	40.92395	-91.39362
104888	-758	-836	-1309	-10.00284	3.556208	342.8061	0	11.63	4004	1171	1869	1773	939	0.02	1.834871	8	10	0.08	2800	342.4363	40.92395	-91.39362
104940	1192	-826	-2500	-9.766253	4.09944	343.8218	0	11.63	4002	1124	1826	1818	920	0.02	1.80066	8	10	0.08	2800	342.4363	40.92395	-91.39362
105091	-3125	-1846	-374	-10.56912	5.962032	346.6407	0	11.63	4003	1591	1397	1309	1367	0.02	1.761589	8	10	0.08	2800	345.4469	40.92395	-91.39362
105191	1194	-1073	409	-11.81684	8.515983	349.0849	0	11.63	4004	1420	1328	1482	1434	0.02	1.731443	8	10	0.08	2800	345.4413	40.92395	-91.39362
105312	40	-1118	-440	-9.575865	9.829297	349.0396	0	11.46	4003	1294	1134	1616	1620	0.02	1.703332	8	10	0.08	2800	346.288	40.92395	-91.39362
105474	1146	253	1430	-9.268477	8.230662	347.5007	0	11.46	4003	1499	1291	1421	1545	0.02	1.648837	8	10	0.08	2800	346.8884	40.92395	-91.39362
105673	-2361	-2379	950	-5.592575	5.975409	345.4785	0	11.46	4002	1496	908	1390	1886	0.02	1.608661	8	10	0.08	2800	342.8595	40.92395	-91.39362
105792	-861	-2364	27	-8.2147	10.20596	344.3779	0	11.46	4002	1402	1364	1506	1400	0.02	1.580308	8	10	0.08	2800	337.2296	40.92396	-91.39362
105867	-668	-670	276	-9.075857	11.90123	344.4791	0	11.46	4003	1414	1386	1460	1400	0.02	1.559884	8	10	0.08	2800	336.9851	40.92396	-91.39362
105938	299	560	324	-9.427365	11.03268	343.8199	0	11.46	4002	1424	1134	1444	1642	0.02	1.547848	8	10	0.08	2800	336.9851	40.92396	-91.39362
106083	673	1720	-1325	-5.398026	6.616026	343.8945	0	11.46	4003	1389	1367	1477	1387	0.02	1.537658	8	10	0.08	2800	337.6699	40.92396	-91.39362
106136	-1140	1008	-287	-5.53853	5.922952	343.8482	0	11.46	4003	1643	1397	1229	1335	0.02	1.535922	8	10	0.08	2800	337.6699	40.92396	-91.39362
106288	-1980	-515	-1032	-1.595322	4.752808	346.4202	0	11.46	4003	1654	934	1244	1812	0.02	1.53226	8	10	0.08	2800	341.407	40.92396	-91.39363
106348	-1670	-1910	-467	-2.641343	5.181238	346.3685	0	11.46	4003	1437	979	1437	1771	0.02	1.528264	8	10	0.08	2800	341.407	40.92396	-91.39363
106439	789	-1000	414	-6.949504	8.266751	335.2402	0	11.46	4002	1682	880	1196	1870	0.02	1.522295	8	10	0.08	2800	335.2655	40.92396	-91.39363
106554	1950	2278	-1412	-8.258012	7.717203	335.8672	0	11.46	4002	1614	1272	1288	1410	0.02	1.522008	8	10	0.08	2800	336.4466	40.92396	-91.39363
106691	788	-1210	1234	-3.132994	7.839714	336.4386	0	11.46	4002	1235	1771	1589	957	0.02	1.547971	8	10	0.08	2800	340.5994	40.92396	-91.39363
106762	128	1435	-418	-2.229555	7.636569	336.3705	0	11.46	4004	1770	1208	1078	1500	0.02	1.567916	8	10	0.08	2800	336.6025	40.92396	-91.39363
106902	1525	995	-285	-0.9025385	3.817582	335.3281	0	11.46	4002	1508	1448	1302	1266	0.02	1.595479	8	10	0.08	2800	335.9462	40.92396	-91.39364
106957	-1552	-1212	-503	0.03812151	3.836999	335.4632	0	11.46	4002	1259	1257	1413	1473	0.02	1.608631	8	10	0.08	2800	337.4379	40.92396	-91.39364
107146	402	1732	1396	-3.350058	6.580049	334.6047	0	11.46	4003	1611	1519	1181	1205	0.02	1.680183	8	10	0.08	2800	332.7386	40.92395	-91.39364
107182	402	1732	1396	-3.350058	6.580049	334.6047	0	11.46	4003	1303	1589	1467	1145	0.02	1.697157	8	10	0.08	2800	332.7386	40.92395	-91.39364
107260	-975	1442	951	-3.743324	2.693002	332.5954	0	11.11	4004	1549	1157	1237	1565	0.02	1.721916	8	10	0.08	2800	334.2437	40.92395	-91.39364
107361	361	-2366	1828	-4.799893	3.794325	330.6178	0	11.11	4003	1346	1126	1448	1624	0.02	1.741769	8	10	0.08	2800	330.8668	40.92395	-91.39364
107456	1628	1401	964	-3.91442	4.614613	329.3073	0	11.11	4002	1469	1309	1327	1451	0.02	1.76608	8	10	0.08	2800	326.7812	40.92395	-91.39364
107645	1325	-2341	-355	-4.598676	2.003861	327.0899	0	11.11	4003	1296	1522	1458	1260	0.02	1.803492	8	10	0.08	2800	325.753	40.92395	-91.39364
107681	2352	-1582	-1726	-3.502079	2.897399	327.659	0	11.11	4003	1389	865	1465	1869	0.02	1.819968	8	10	0.08	2800	326.108	40.92395	-91.39364
107761	-169	530	-1044	-2.096688	4.0024	328.5803	0	11.11	4002	1281	1179	1537	1547	0.02	1.837364	8	10	0.08	2800	325.3013	40.92395	-91.39364
107916	-897	2587	447	-4.696705	-0.3512649	329.0412	0	11.11	4002	1586	1368	1172	1354	0.02	1.891979	8	10	0.08	2800	327.6515	40.92395	-91.39365
107965	367	1455	713	-4.717479	-1.265971	328.9524	0	11.11	4004	1413	1619	1353	1091	0.02	1.925638	8	10	0.08	2800	327.6515	40.92395	-91.39365
108064	2217	-1783	847	-2.329147	1.453521	329.0406	0	11.74	4002	1293	1381	1489	1345	0.02	1.953688	8	10	0.08	2800	329.2838	40.92395	-91.39365
108167	-2716	742	694	-3.510101	2.132557	327.8094	0	11.74	4004	1362	1110	1412	1620	0.02	2.006956	8	10	0.08	2800	327.4858	40.92395	-91.39365
108286	319	745	1250	-4.314988	0.3985997	326.5178	0	11.74	4003	1296	1372	1410	1346	0.02	2.04139	8	10	0.08	2800	327.0081	40.92394	-91.39365
108366	1089	-558	599	-3.425757	0.05482111	325.597	0	11.74	4003	1346	1330	1402	1430	0.02	2.059543	8	10	0.08	2800	327.3389	40.92394	-91.39364
108515	-1214	981	1388	-4.028263	0.1524921	323.3391	0	11.74	4003	1456	1310	1268	1454	0.02	2.134788	8	10	0.08	2800	325.8017	40.92394	-91.39364
108686	953	416	-357	-2.22044	0.3401457	322.5469	0	11.74	4003	1390	1360	1364	1402	0.02	2.19606	8	10	0.08	2800	325.6626	40.92394	-91.39364
108773	-2125	1164	538	-3.271259	-0.4382924	322.5514	0	11.74	4002	1606	1258	1140	1488	0.02	2.226149	8	10	0.08	2800	326.5635	40.92394	-91.39364
108960	-384	-77	-1017	-4.641465	0.1189905	324.3311	0	11.74	4002	1461	1247	1341	1507	0.02	2.247318	8	10	0.08	2800	327.358	40.92394	-91.39364
109038	-866	603	-904	-5.191818	-0.5649246	326.1247	0	11.4	4002	1449	1273	1361	1485	0.02	2.255671	8	10	0.08	2800	329.3087	40.92394	-91.39364
109107	-101	-294	-252	-5.065728	-0.7598413	326.8206	0	11.4	4003	1428	1348	1388	1420	0.02	2.257447	8	10	0.08	2800	331.7755	40.92394	-91.39364
109193	348	1317	-21	-3.944906	-1.440528	327.807	0	11.4	4002	1597	1467	1233	1295	0.02	2.258671	8	10	0.08	2800	333.2863	40.92394	-91.39364
109255	-2267	-432	656	-4.56759	-1.688733	328.1316	0	11.4	4003	1274	1394	1568	1364	0.02	2.255836	8	10	0.08	2800	333.7023	40.92393	-91.39364
109396	1403	1261	533	-6.227788	-2.025221	328.5299	0	11.4	4003	1598	1570	1228	1208	0.02	2.240654	8	10	0.08	2800	335.1358	40.92393	-91.39364
109545	-1581	-745	-822	-4.764579	-2.472973	328.7523	0	11.4	4002	1297	1699	1565	1071	0.02	2.222956	8	10	0.08	2800	336.2891	40.92393	-91.39364
109598	555	869	-1092	-5.861199	-2.044386	329.1373	0	11.4	4003	1482	1424	1398	1340	0.02	2.207539	8	10	0.08	2800	336.6915	40.92394	-91.39363
109692	1104	-71	-783	0.1079916	-5.103016	332.544	0	11.4	4003	1288	1466	1606	1280	0.02	2.192616	8	10	0.08	2800	338.3646	40.92394	-91.39363
109768	-4886	-4875	-1571	-6.052297	0.03685055	344.2505	0	11.4	4002	1496	1236	1424	1500	0.02	2.177944	8	10	0.08	2800	341.8309	40.92394	-91.39363
109862	25	-2711	-94	-8.233107	5.021077	345.3196	0	11.4	4003	1360	1332	1568	1476	0.02	2.143025	8	10	0.08	2800	341.709	40.92394	-91.39363
109969	-1835	1310	127	-8.108696	4.916574	345.0029	0	11.4	4002	1575	1129	1335	1669	0.02	2.116078	8	10	0.08	2800	340.1463	40.92394	-91.39363
110027	-806	1586	-190	-8.796577	4.028501	344.5697	0	11.4	4002	1285	1551	1601	1215	0.02	2.09962	8	10	0.08	2800	340.1463	40.92394	-91.39363
110176	150	-1078	-1832	-9.784521	4.075391	344.3308	0	11.4	4003	1241	1363	1671	1369	0.02	2.066886	8	10	0.08	2800	339.6272	40.92394	-91.39363
110225	-2296	-2020	-1662	-10.07515	4.800848	344.7332	0	11.4	4003	1411	1207	1477	1529	0.02	2.057076	8	10	0.08	2800	339.6272	40.92394	-91.39363
110344	691	3002	1212	-9.456563	4.394371	343.1956	0	11.4	4004	1549	1637	1289	1185	0.02	2.033117	8	10	0.08	2800	340.0582	40.92394	-91.39363
110452	-1571	-1739	-368	-10.82288	2.321973	341.4463	0	11.4	4003	1469	1565	1367	1223	0.02	2.016444	8	10	0.08	2800	340.2197	40.92394	-91.39363
110608	510	-41	-933	-6.40198	5.128955	341.9007	0	11.4	4002	1638	970	1296	1788	0.02	1.976443	8	10	0.08	2800	337.9863	40.92395	-91.39363
110708	-2759	-1380	-1775	-7.389308	5.994213	343.3486	0	11.4	4002	1504	882	1388	1866	0.02	1.966494	8	10	0.08	2800	338.9966	40.92395	-91.39363
110787	-430	-64	-386	-9.684987	7.332311	343.8856	0	11.63	4004	1480	1488	1386	1282	0.02	1.945358	8	10	0.08	2800	337.9648	40.92395	-91.39363
110871	849	-1904	-990	-7.820524	7.489991	344.1709	0	11.63	4003	1177	1709	1693	1033	0.02	1.932781	8	10	0.08	2800	338.805	40.92395	-91.39363
111064	2641	364	-279	-7.054245	7.267403	345.3518	0	11.63	4003	1041	1677	1797	1427	0.02	1.935907	8	10	0.08	2800	340.4846	40.92395	-91.39363
111158	-9	-175	350	-6.627411	7.046899	345.0768	0	11.63	4002	1474	1430	1384	1292	0.02	1.941802	8	10	0.08	2800	338.1359	40.92395	-91.39363
111234	93	737	130	-6.5295	6.567477	344.2007	0	11.63	4003	1587	1401	1275	1357	0.02	1.941987	8	10	0.08	2800	338.3009	40.92395	-91.39363
111368	-547	-592	2309	-6.19462	5.884189	342.3287	0	11.63	4004	1464	1456	1336	1320	0.02	1.945255	8	10	0.08	2800	337.7151	40.92395	-91.39363
111400	-1333	-1929	1541	-8.469123	7.21318	341.2152	0	11.63	4004	1083	1243	1719	1535	0.02	1.949371	8	10	0.08	2800	336.0164	40.92395	-91.39363
111479	-1382	135	2294	-10.54248	7.374588	339.0447	0	11.63	4003	1565	1297	1213	1525	0.02	1.948052	8	10	0.08	2800	332.1737	40.92395	-91.39363
111575	3655	-562	-977	-5.939169	6.685397	335.9553	0	11.63	4002	1164	1620	1644	1188	0.02	1.944591	8	10	0.08	2800	327.7541	40.92395	-91.39363
111760	-954	496	1020	-4.076372	4.405797	336.2668	0	11.91	4003	1288	1550	1520	1262	0.02	1.924338	8	10	0.08	2800	328.9723	40.92395	-91.39363
111838	-4382	-1710	-178	-6.753656	4.873152	336.4293	0	11.91	4003	1469	1159	1361	1615	0.02	1.91891	8	10	0.08	2800	327.5503	40.92395	-91.39363
112006	4342	1875	-1579	-1.917619	3.89571	332.4116	0	11.91	4002	1205	1729	1696	1280	0.02	1.918404	8	10	0.08	2800	331.701	40.92395	-91.39363
112162	-2106	-2730	-373	-4.388844	4.829854	334.6825	0	11.91	4003	1433	1519	1403	1205	0.02	1.9401	8	10	0.08	2800	334.9843	40.92395	-91.39363
112299	-846	-503	-1073	-9.98919	7.040679	334.938	0	11.91	4002	1603	1153	1263	1549	0.02	1.956334	8	10	0.08	2800	335.5193	40.92395	-91.39363
112383	1301	1030	1508	-6.582656	6.732262	333.9689	0	11.91	4004	1543	1355	1261	1389	0.02	1.96916	8	10	0.08	2800	336.989	40.92395	-91.39363
112462	-1267	-902	697	-6.800592	6.234946	332.1593	0	11.91	4003	1594	926	1224	1776	0.02	1.975767	8	10	0.08	2800	333.2365	40.92395	-91.39363
112611	1569	1257	-45	-6.217144	4.124823	330.7767	0	12.19	4002	1466	1400	1326	1332	0.02	2.006653	8	10	0.08	2800	333.9952	40.92395	-91.39363
112663	1569	1257	-45	-6.217144	4.124823	330.7767	0	12.19	4002	1110	1900	1664	854	0.02	2.025393	8	10	0.08	2800	333.9952	40.92395	-91.39364
112817	371	-737	-12	-4.593345	5.623827	332.0014	0	12.19	4003	1340	1064	1456	1648	0.02	2.052567	8	10	0.08	2800	332.9627	40.92395	-91.39364
113036	639	2518	15	-6.438107	3.582517	330.7185	0	12.19	4004	1581	1847	1195	877	0.02	2.129259	8	10	0.08	2800	332.4315	40.92395	-91.39364
113138	3887	2464	-1910	-1.87698	-0.5325917	331.7787	0	12.19	4003	1588	1462	1244	1206	0.02	2.184719	8	10	0.08	2800	331.0089	40.92395	-91.39364
113229	-3386	-1544	-426	1.093383	-0.6790336	333.4291	0	12.19	4003	1390	1290	1418	1413	0.02	2.21216	8	10	0.08	2800	336.8106	40.92395	-91.39364
113264	-7108	-2925	-1022	-5.26169	2.688917	333.6328	0	12.19	4003	1610	1134	1202	1542	0.02	2.221337	8	10	0.08	2800	333.2779	40.92395	-91.39364
113355	-764	-1185	-889	-9.51133	5.365772	334.1462	0	12.19	4003	1576	1430	1234	1268	0.02	2.270476	8	10	0.08	2800	333.2779	40.92395	-91.39364
113484	994	-1123	1029	-7.319342	4.984329	332.6322	0	11.51	4004	1256	1384	1510	1334	0.02	2.295148	8	10	0.08	2800	333.4554	40.92395	-91.39364
113550	362	681	50	-7.209505	5.199332	331.7431	0	11.51	4002	1382	1400	1428	1334	0.02	2.312551	8	10	0.08	2800	331.5746	40.92395	-91.39364
113689	-646	535	855	-6.225601	3.253269	329.9741	0	11.51	4002	1345	1337	1415	1331	0.02	2.32427	8	10	0.08	2800	330.5623	40.92395	-91.39364
113785	50	-609	245	-6.487202	2.799288	329.3194	0	11.51	4004	1196	1270	1638	1516	0.02	2.321684	8	10	0.08	2800	329.8896	40.92395	-91.39364
113924	-1546	954	1086	-5.75232	3.164067	327.175	0	11.51	4002	1620	1290	1194	1524	0.02	2.300456	8	10	0.08	2800	329.2358	40.92395	-91.39364
114015	-1098	450	5	-8.47726	0.02733765	324.984	0	11.51	4002	1396	1666	1402	1168	0.02	2.282473	8	10	0.08	2800	327.8692	40.92395	-91.39364
114108	726	363	452	-8.640621	0.02275572	324.8212	0	11.51	4002	1187	1979	1659	851	0.02	2.251969	8	10	0.08	2800	328.057	40.92395	-91.39364
114329	1668	-41	-1905	-5.764134	2.055593	328.5329	0	11.34	4002	1469	1675	1411	1085	0.02	2.198571	8	10	0.08	2800	330.7134	40.92395	-91.39364
114404	1467	1683	-2426	-3.93267	1.783466	330.4088	0	11.34	4002	1402	1588	1502	1172	0.02	2.181813	8	10	0.08	2800	332.8544	40.92395	-91.39364
114513	-1628	-9	-261	-5.137816	1.193136	333.0645	0	11.34	4002	1442	1490	1432	1280	0.02	2.149226	8	10	0.08	2800	336.0387	40.92395	-91.39364
114713	532	2255	-847	-6.368312	4.143595	336.9797	0	11.34	4004	1499	1404	1388	1324	0.02	2.118301	8	10	0.08	2800	340.1488	40.92395	-91.39363
114971	-232	-366	-300	-7.534572	3.756788	338.2708	0	11.34	4003	1244	1186	1634	1552	0.02	2.076891	8	10	0.08	2800	342.5157	40.92395	-91.39363
115159	990	446	348	-5.703447	2.496578	336.0781	0	11.34	4003	1563	1321	1321	1431	0.02	2.041193	8	10	0.08	2800	340.4448	40.92395	-91.39363
115265	1110	485	-1169	-3.519205	-0.6097568	335.1575	0	11.06	4003	1326	1420	1568	1322	0.02	2.028663	8	10	0.08	2800	339.9986	40.92395	-91.39363
115370	-1209	-2244	-1312	-2.789616	1.858462	335.7437	0	11.06	4003	1400	1226	1496	1498	0.02	2.01473	8	10	0.08	2800	339.7877	40.92395	-91.39363
115469	-2482	-2117	694	-6.372224	5.207942	336.2534	0	11.06	4004	1285	1203	1611	1545	0.02	1.987677	8	10	0.08	2800	339.4526	40.92395	-91.39363
115644	-1477	990	1133	-5.834741	2.384562	336.1202	0	11.06	4002	1669	1213	1269	1609	0.02	1.93723	8	10	0.08	2800	339.586	40.92395	-91.39363
115852	71	-618	-340	-5.125073	4.454533	336.1181	0	11.06	4003	1499	1349	1409	1415	0.02	1.863407	8	10	0.08	2800	338.1686	40.92395	-91.39363
116025	1516	1307	2517	-7.539804	2.629421	333.2042	0	11.06	4003	1457	1677	1377	1133	0.02	1.834746	8	10	0.08	2800	337.3428	40.92394	-91.39364
116069	4086	1270	2401	-6.011397	1.362878	331.7469	0	11.06	4003	1267	2067	1557	757	0.02	1.817046	8	10	0.08	2800	334.5032	40.92394	-91.39364
116125	1591	688	1313	-4.907686	0.8350974	331.0382	0	11.06	4003	1637	1159	1193	1603	0.02	1.817144	8	10	0.08	2800	334.5032	40.92394	-91.39364
116238	-4415	-3564	473	0.2354306	-1.457842	330.7056	0	11.51	4004	1336	966	1488	1778	0.02	1.81807	8	10	0.08	2800	338.0583	40.92394	-91.39364
116377	1380	-1456	519	-6.615573	7.326796	330.1743	0	11.51	4003	6671	6587	6471	6475	0.02	1.835785	8	10	0.08	2800	331.2336	40.92394	-91.39364
116557	-2617	1086	214	-8.565723	1.182991	326.9785	0	11.51	4002	1524	1084	1354	1746	0.02	1.861385	8	10	0.08	2800	329.5424	40.92394	-91.39364
116653	-1224	241	-308	-4.875484	-1.68531	327.6361	0	11.51	4003	1613	1563	1249	1251	0.02	1.870112	8	10	0.08	2800	331.5995	40.92394	-91.39364
116774	-877	-2555	-306	-6.57888	1.629987	328.6254	0	11.51	4004	1520	1122	1358	1680	0.02	1.895433	8	10	0.08	2800	332.2545	40.92394	-91.39364
116874	609	448	-1820	-5.376615	3.163355	331.1711	0	11.51	4004	1462	1016	1484	1802	0.02	1.905621	8	10	0.08	2800	332.9171	40.92394	-91.39364
117051	2103	2545	-3655	-2.87911	-1.17983	334.5173	0	11.51	4004	1246	1582	1702	1130	0.02	1.953817	8	10	0.08	2800	336.481	40.92394	-91.39364
117157	-2140	-1088	-544	-0.3029609	-3.442165	337.2942	0	11.4	4003	1602	1542	1308	1168	0.02	2.003052	8	10	0.08	2800	342.5253	40.92394	-91.39364
117298	655	-1270	466	-9.136352	5.905845	340.3387	0	11.4	4003	1353	1209	1511	1435	0.02	2.065682	8	10	0.08	2800	342.0568	40.92394	-91.39364
117334	1651	371	2127	-9.867902	9.250227	340.3546	0	11.4	4004	1543	1511	1269	1169	0.02	2.093175	8	10	0.08	2800	341.5014	40.92394	-91.39364
117415	2252	2147	1340	-7.647945	6.31082	339.1472	0	11.4	4008	1274	1354	1530	1358	0.02	2.13155	8	10	0.08	2800	340.9564	40.92394	-91.39364
117508	1104	1463	1581	-6.25391	3.914539	337.5591	0	11.4	4002	1522	1550	1286	1158	0.02	2.176384	8	10	0.08	2800	339.9972	40.92394	-91.39364
117643	60	-603	1891	-4.817245	3.441845	333.5988	0	11.4	4003	1248	1174	1554	1564	0.02	2.243018	8	10	0.08	2800	337.0514	40.92394	-91.39364
117711	670	781	2183	-4.908412	2.950421	332.7259	0	11.4	4002	1392	1502	1388	1262	0.02	2.26982	8	10	0.08	2800	337.0514	40.92394	-91.39364
117828	327	-725	1027	-4.832336	2.403752	329.5411	0	11.4	4003	1416	1326	1386	1440	0.02	2.314293	8	10	0.08	2800	334.46	40.92394	-91.39364
117926	-1371	1654	1424	-5.423354	2.161739	327.3776	0	11.4	4003	1520	1352	1276	1440	0.02	2.336753	8	10	0.08	2800	331.3609	40.92394	-91.39364
118020	724	1306	198	-6.772795	-1.453844	325.2539	0	11.29	4003	1530	1326	1284	1464	0.02	2.344371	8	10	0.08	2800	329.3509	40.92394	-91.39364
118175	-892	-1302	1034	-3.775141	-2.103764	322.9313	0	11.29	4003	1153	1659	1605	1147	0.02	2.377616	8	10	0.08	2800	330.2557	40.92393	-91.39364
118236	-1230	-419	658	-5.080968	-0.117494	321.5081	0	11.29	4004	1214	1622	1548	1156	0.02	2.394763	8	10	0.08	2800	325.9539	40.92393	-91.39364
118329	1254	793	-1339	-3.65858	-1.247286	322.5399	0	11.29	4003	1343	1291	1463	1435	0.02	2.423482	8	10	0.08	2800	327.7528	40.92393	-91.39364
118381	2719	198	61	-1.017017	-1.723892	324.0985	0	11.29	4002	1356	1738	1424	1046	0.02	2.44355	8	10	0.08	2800	329.6365	40.92393	-91.39364
118443	-1946	-584	-1819	-0.4917764	-1.580418	325.9083	0	11.29	4004	1364	920	1472	1808	0.02	2.477914	8	10	0.08	2800	331.593	40.92393	-91.39364
118547	-2358	-1353	-1955	-3.363131	-0.7412127	327.1806	0	11.29	4003	1247	1161	1587	1569	0.02	2.490571	8	10	0.08	2800	331.8788	40.92393	-91.39364
118685	91	-174	-1104	-5.408978	0.5631562	328.9337	0	11.29	4002	1368	1354	1472	1386	0.02	2.53158	8	10	0.08	2800	334.4356	40.92393	-91.39364
118758	1303	-236	-272	-4.586804	1.201677	329.6816	0	11.29	4004	1399	1693	1437	1063	0.02	2.544267	8	10	0.08	2800	335.9065	40.92393	-91.39364
118924	-758	1007	-616	-3.625762	1.331289	331.3149	0	11.68	4004	1304	1112	1586	1650	0.02	2.559839	8	10	0.08	2800	336.4547	40.92393	-91.39364
118947	-758	1007	-616	-3.625762	1.331289	331.3149	0	11.68	4004	1778	1290	1090	1478	0.02	2.560909	8	10	0.08	2800	336.4547	40.92393	-91.39364
119124	1102	1213	-208	-4.43008	0.01614056	330.8714	0	11.68	4002	1362	1692	1474	1084	0.02	2.573228	8	10	0.08	2800	336.6085	40.92393	-91.39364
119200	1290	-40	-109	-2.494915	-0.2087812	331.4747	0	11.68	4004	1633	1091	1231	1657	0.02	2.578896	8	10	0.08	2800	338.0713	40.92393	-91.39364
119321	-3199	-1606	-246	-1.633296	0.08792124	331.1743	0	11.68	4003	1257	1383	1573	1367	0.02	2.59557	8	10	0.08	2800	337.1121	40.92393	-91.39364
119341	-3004	-2353	702	-3.590562	1.149648	330.9573	0	11.68	4003	1257	1383	1573	1367	0.02	2.60339	8	10	0.08	2800	337.1121	40.92393	-91.39364
119473	-753	-487	-639	-6.424477	2.608724	330.149	0	11.68	4003	1459	1191	1387	1539	0.02	2.621493	8	10	0.08	2800	334.4204	40.92393	-91.39364
119557	1518	23	1751	-5.426154	2.837556	329.6154	0	11.68	4002	1391	1771	1401	1009	0.02	2.637047	8	10	0.08	2800	333.8069	40.92393	-91.39364
119721	-554	-592	-335	-5.770618	3.588113	329.9558	0	11.68	4004	1309	1393	1505	1345	0.02	2.700813	8	10	0.08	2800	333.7896	40.92393	-91.39364
119753	-1393	-30	-588	-6.035952	3.687257	330.261	0	11.06	4004	1594	1326	1222	1402	0.02	2.700813	8	10	0.08	2800	334.9659	40.92393	-91.39364
119879	-381	-284	-877	-7.400247	3.125679	330.556	0	11.06	4002	1367	1149	1419	1541	0.02	2.759717	8	10	0.08	2800	334.4529	40.92393	-91.39364
119933	1754	-254	1042	-6.46052	3.339045	330.3337	0	11.06	4003	1317	1321	1479	1419	0.02	2.769533	8	10	0.08	2800	335.7294	40.92393	-91.39364
120041	773	714	44	-4.237511	3.095585	330.1294	0	11.06	4004	1344	1372	1462	1362	0.02	2.832351	8	10	0.08	2800	334.7987	40.92393	-91.39364
120205	-1581	-267	376	-5.846271	2.924649	330.0181	0	11.06	4003	1498	1314	1322	1430	0.02	2.876438	8	10	0.08	2800	335.477	40.92393	-91.39364
120320	2045	1162	-580	-4.434457	2.796865	330.1532	0	11.06	4004	1442	1560	1374	1200	0.02	2.904904	8	10	0.08	2800	335.1586	40.92393	-91.39364
120383	-1943	2455	929	-4.598576	-1.255077	329.6048	0	11.06	4003	1547	1395	1261	1369	0.02	2.914969	8	10	0.08	2800	334.698	40.92393	-91.39364
120429	-1273	-1525	-241	-6.260575	-1.016351	329.1024	0	11.06	4002	1443	1385	1381	1375	0.02	2.92987	8	10	0.08	2800	336.0027	40.92393	-91.39364
120506	298	-1046	98	-5.78093	0.6570369	329.0093	0	11.06	4004	1449	1423	1381	1351	0.02	2.943512	8	10	0.08	2800	336.3955	40.92393	-91.39364
120677	-301	667	338	-3.971329	1.15204	328.9101	0	11.68	4002	1504	1536	1332	1256	0.02	2.950744	8	10	0.08	2800	336.3866	40.92393	-91.39364
120752	-152	-62	208	-5.514958	0.9464113	328.6886	0	11.68	4004	1393	1657	1463	1159	0.02	2.946069	8	10	0.08	2800	334.9963	40.92393	-91.39364
120821	256	-431	1269	-5.185466	2.619177	329.3262	0	11.68	4004	1468	1340	1392	1468	0.02	2.937408	8	10	0.08	2800	335.6085	40.92393	-91.39364
120993	112	62	672	-5.686749	0.1981669	328.6404	0	11.68	4003	1666	1708	1190	1120	0.02	2.903184	8	10	0.08	2800	336.2491	40.92393	-91.39364
121028	1595	166	-835	-5.079435	0.2059098	328.7548	0	11.68	4004	1376	1678	1530	1132	0.02	2.896895	8	10	0.08	2800	337.5612	40.92393	-91.39364
121148	1191	-48	-3	-3.479949	-0.3445977	328.9618	0	11.68	4004	1336	1460	1616	1392	0.02	2.858011	8	10	0.08	2800	338.3784	40.92393	-91.39364
121218	-1859	514	174	-4.220088	0.04232416	329.0243	0	11.68	4003	1528	876	1382	1934	0.02	2.827619	8	10	0.08	2800	336.6625	40.92393	-91.39364
121357	772	-501	351	-4.133703	0.3955384	329.5566	0	11.68	4002	1436	1314	1512	1562	0.02	2.797126	8	10	0.08	2800	335.6903	40.92393	-91.39364
121417	1542	904	-866	-3.774188	0.429679	329.8755	0	11.68	4003	1612	1666	1296	1166	0.02	2.754424	8	10	0.08	2800	335.6903	40.92393	-91.39364
121514	637	816	-1211	-2.212147	-0.4346708	330.7198	0	11.68	4002	1438	1210	1496	1600	0.02	2.724842	8	10	0.08	2800	334.4599	40.92393	-91.39364
121647	-31	-1003	-664	-5.115343	3.077149	331.8986	0	11.11	4002	1504	1440	1432	1388	0.02	2.66315	8	10	0.08	2800	339.0242	40.92393	-91.39364
121721	1945	-304	-19	-3.926191	3.382989	332.4964	0	11.11	4002	1291	1255	1645	1565	0.02	2.645649	8	10	0.08	2800	335.5164	40.92393	-91.39364
121862	-2180	1410	-831	-1.816638	0.8287069	333.3581	0	11.11	4003	1349	1129	1611	1691	0.02	2.575454	8	10	0.08	2800	338.6894	40.92393	-91.39364
121922	-2660	-72	576	-3.076589	0.8839566	333.4741	0	11.11	4002	1195	1543	1743	1275	0.02	2.546774	8	10	0.08	2800	338.6894	40.92393	-91.39364
122049	1864	1130	-877	-4.269032	2.784702	334.4133	0	11.11	4002	1488	1396	1434	1414	0.02	2.504253	8	10	0.08	2800	337.2192	40.92393	-91.39364
122144	-465	127	-2768	-3.070088	1.481828	336.1478	0	11.11	4003	1418	1528	1568	1214	0.02	2.479337	8	10	0.08	2800	339.85	40.92393	-91.39364
122257	-3813	-1525	-758	-0.9720718	0.4194742	339.3786	0	11.11	4002	1466	1280	1498	1488	0.02	2.448974	8	10	0.08	2800	343.0518	40.92393	-91.39364
122307	-2606	-1582	-438	-5.644335	1.778163	340.2583	0	11.11	4003	1280	1162	1692	1574	0.02	2.439236	8	10	0.08	2800	343.4524	40.92393	-91.39364
122474	-538	-875	310	-3.683158	5.300696	342.9032	0	11.11	4004	1556	1546	1400	1178	0.02	2.431431	8	10	0.08	2800	344.7944	40.92393	-91.39364
122636	-380	-641	1151	-4.024122	2.141741	342.7211	0	11.4	4002	1247	1389	1641	1363	0.02	2.452142	8	10	0.08	2800	345.5024	40.92393	-91.39364
122715	-11	-1804	1491	-5.277897	3.333559	341.3049	0	11.4	4002	1339	1321	1531	1433	0.02	2.463744	8	10	0.08	2800	344.2723	40.92393	-91.39364
122824	1084	830	474	-4.883672	1.672221	337.6909	0	11.4	4002	1413	1277	1471	1475	0.02	2.478451	8	10	0.08	2800	341.0247	40.92393	-91.39364
122899	489	-183	1695	-4.022914	1.184533	335.8486	0	11.4	4003	1382	1320	1468	1446	0.02	2.489789	8	10	0.08	2800	339.7565	40.92393	-91.39364
122998	-53	1778	1157	-3.657061	0.4186407	334.2099	0	11.4	4003	1391	2025	1389	775	0.02	2.516493	8	10	0.08	2800	336.9638	40.92393	-91.39364
123099	2225	720	759	-1.009937	-2.99303	330.9683	0	11.4	4004	1118	1700	1662	1040	0.02	2.550361	8	10	0.08	2800	335.4602	40.92393	-91.39364
123227	-4113	-2187	466	-3.441192	-1.429112	330.2533	0	11.4	4003	1369	1059	1461	1695	0.02	2.596793	8	10	0.08	2800	334.6651	40.92393	-91.39364
123290	1602	-257	354	-3.844765	0.5506479	330.9153	0	11.4	4002	1455	1233	1397	1507	0.02	2.622701	8	10	0.08	2800	333.512	40.92393	-91.39364
123430	-1055	1913	-1529	-3.109142	-0.4536761	331.3854	0	11.74	4002	1489	1627	1387	1097	0.02	2.651402	8	10	0.08	2800	334.5527	40.92393	-91.39364
123566	243	-1324	-76	-2.838166	1.881437	335.8235	0	11.74	4004	1518	1476	1342	1252	0.02	2.674379	8	10	0.08	2800	337.9494	40.92393	-91.39364
123651	-782	1293	559	-3.714075	2.664949	336.441	0	11.74	4003	1310	1402	1498	1314	0.02	2.694517	8	10	0.08	2800	338.5903	40.92393	-91.39364
123719	-491	758	161	-4.420381	1.329937	335.939	0	11.74	4003	1349	1453	1489	1281	0.02	2.723461	8	10	0.08	2800	339.7115	40.92393	-91.39364
123792	-14	-209	1045	-4.461017	1.084567	335.5477	0	11.74	4003	1511	1343	1323	1403	0.02	2.745446	8	10	0.08	2800	339.7115	40.92393	-91.39364
123924	-515	-292	1349	-5.302105	1.433438	332.4424	0	11.74	4003	1381	1225	1431	1543	0.02	2.785035	8	10	0.08	2800	336.0239	40.92393	-91.39364
123988	50	904	1796	-5.977438	0.1284595	330.489	0	11.74	4003	1219	1441	1585	1351	0.02	2.802931	8	10	0.08	2800	334.4659	40.92393	-91.39364
124222	-503	-512	-23	-2.273117	-3.644343	328.0998	0	11.74	4003	1443	903	1379	1863	0.02	2.866765	8	10	0.08	2800	334.1035	40.92393	-91.39364
124344	2316	123	-1616	-5.842296	-0.5525678	329.0783	0	11.29	4002	1322	1518	1530	1218	0.02	2.89933	8	10	0.08	2800	333.5537	40.92393	-91.39364
124405	1193	133	-231	-3.102863	-0.6321868	329.7034	0	11.29	4003	1406	1208	1440	1542	0.02	2.915289	8	10	0.08	2800	334.3669	40.92393	-91.39364
124661	-120	1611	1220	-5.65655	1.028786	330.3092	0	11.29	4004	1463	1629	1355	1161	0.02	2.951562	8	10	0.08	2800	334.1794	40.92393	-91.39364
124719	-709	-394	-194	-6.221376	0.3626123	330.0841	0	11.29	4004	1636	1464	1210	1302	0.02	2.961229	8	10	0.08	2800	334.9866	40.92393	-91.39364
124818	1008	424	550	-6.227259	0.5504223	329.7694	0	11.29	4004	1302	1590	1530	1182	0.02	2.969206	8	10	0.08	2800	334.1587	40.92393	-91.39364
125100	-780	-1476	-178	-3.684644	-0.5498236	335.636	0	11.29	4003	1547	919	1353	1785	0.02	3.014693	8	10	0.08	2800	341.8625	40.92393	-91.39363
125136	-3374	-2560	-1711	-5.610871	0.6594764	336.3072	0	11.29	4002	1403	1255	1521	1433	0.02	3.020088	8	10	0.08	2800	338.803	40.92393	-91.39363
125274	228	-406	367	-5.506548	3.196134	338.5911	0	11.57	4002	1526	1490	1356	1248	0.02	3.037522	8	10	0.08	2800	342.6982	40.92393	-91.39363
125465	-457	1952	-262	-7.822591	2.03739	337.5583	0	11.57	4004	1465	1441	1385	1305	0.02	3.057409	8	10	0.08	2800	341.2889	40.92393	-91.39363
125573	-768	-2477	936	-6.117906	2.256699	336.4233	0	11.57	4004	1424	1364	1442	1452	0.02	3.074031	8	10	0.08	2800	341.7593	40.92393	-91.39363
125669	-191	-1115	2311	-7.232623	4.568727	335.3184	0	11.57	4002	1505	1611	1329	1187	0.02	3.084499	8	10	0.08	2800	340.4985	40.92393	-91.39363
125779	199	2631	1030	-8.284937	2.187987	333.3777	0	11.57	4002	1536	1510	1318	1272	0.02	3.087805	8	10	0.08	2800	338.0742	40.92393	-91.39363
125814	1399	1994	2130	-8.19438	1.139904	332.7489	0	11.57	4004	1360	1738	1468	1074	0.02	3.091175	8	10	0.08	2800	338.0742	40.92393	-91.39363
125953	582	-1824	267	-7.974936	0.7974921	331.8646	0	11.57	4003	1321	1049	1545	1713	0.02	3.104705	8	10	0.08	2800	337.6515	40.92393	-91.39363
126028	2498	-35	-1790	-7.198572	2.278242	332.5676	0	11.57	4004	1306	1456	1576	1294	0.02	3.108401	8	10	0.08	2800	336.8795	40.92393	-91.39363
126168	445	513	-2068	-2.724534	-1.546151	336.3414	0	11.17	4004	1492	1222	1426	1472	0.02	3.127207	8	10	0.08	2800	339.8346	40.92393	-91.39363
126313	-3190	-4002	-2035	-7.063401	3.805352	339.412	0	11.17	4004	1328	1324	1572	1368	0.02	3.148098	8	10	0.08	2800	344.1405	40.92393	-91.39363
126385	-327	-1600	-263	-9.685886	7.092844	340.3631	0	11.17	4003	1189	1455	1685	1235	0.02	3.157536	8	10	0.08	2800	341.9281	40.92393	-91.39363
126467	2386	1138	17	-8.20174	7.002671	340.6645	0	11.17	4002	1397	1249	1503	1463	0.02	3.171643	8	10	0.08	2800	342.8001	40.92393	-91.39363
126620	449	-50	862	-5.838421	1.970396	337.8818	0	11.17	4004	1517	1303	1329	1439	0.02	3.203078	8	10	0.08	2800	342.5867	40.92393	-91.39363
126705	1936	345	1649	-4.535564	2.905748	335.7729	0	11.17	4004	1382	1650	1420	1128	0.02	3.224311	8	10	0.08	2800	340.5352	40.92393	-91.39363
126766	-810	1289	2055	-5.021022	2.172375	333.6766	0	11.17	4004	1384	1342	1408	1406	0.02	3.23876	8	10	0.08	2800	338.7318	40.92393	-91.39363
126861	916	-642	1024	-4.787559	1.956469	331.7768	0	11.17	4004	1368	1368	1450	1382	0.02	3.258428	8	10	0.08	2800	337.3899	40.92393	-91.39363
126907	2406	-497	596	-2.720544	2.673142	330.3392	0	11.17	4003	1329	1317	1489	1445	0.02	3.277289	8	10	0.08	2800	336.8575	40.92393	-91.39363
127113	1128	-190	298	-5.606776	0.6983587	326.7882	0	11.51	4004	1611	1661	1341	1291	0.02	3.326788	8	10	0.08	2800	332.3398	40.92393	-91.39363
127210	1118	250	395	-5.097143	-0.2906722	324.5652	0	11.51	4002	1418	1474	1564	1504	0.02	3.344459	8	10	0.08	2800	329.5289	40.92393	-91.39363
