time(ms)	gyro_x(deg/s)	gyro_y(deg/s)	gyro_z(deg/s)	orientation_roll(deg)	orientation_pitch(deg)	orientation_yaw(deg)	throttle	battery(V)	loop_time(uS)	pid_output_roll	pid_output_pitch	pid_output_yaw	pid_output_throttle	ultrasonic_alt	baro_alt	flight_mode	p_gain_altitude	i_gain_altitude	d_gain_altitude	compass_heading	latitude	longitude
345269	1051	-581	-1787	-12.51548	1.237888	3.227115	0	11.8	4002	1574	1078	1232	1628	0.02	2.33836	3	10	0.08	2800	8.485077	40.92394	-91.39362
345381	-2868	566	-1185	-13.75019	1.627211	4.738836	0	11.85	4003	1392	896	1420	1796	0.02	2.27326	3	10	0.08	2800	6.749115	40.92394	-91.39362
345437	286	1472	-1848	-13.94905	1.140147	5.336493	0	11.85	4003	1329	1345	1501	1321	0.02	2.23229	3	10	0.08	2800	6.749115	40.92394	-91.39362
345602	-767	-1911	59	-15.00925	2.975809	20.01986	0	11.85	4003	1432	1146	1374	1544	0.02	2.169775	3	10	0.08	2800	19.97244	40.92393	-91.39362
345704	-1388	2593	1053	-17.45143	2.053944	19.14471	0	11.85	4002	1492	1622	1282	1084	0.02	2.130795	3	10	0.08	2800	22.01196	40.92393	-91.39362
345858	1594	-274	752	-16.65052	-1.589374	27.49361	0	11.85	4002	1383	1347	1375	1371	0.02	2.079747	3	10	0.08	2800	29.32455	40.92393	-91.39362
345953	3171	-3938	737	-11.71308	2.598697	26.40404	0	11.85	4002	1103	1049	1661	1667	0.02	2.025897	3	10	0.08	2800	25.13058	40.92393	-91.39362
346086	-406	2609	993	-7.73038	0.8129212	23.99792	0	11.85	4003	1557	1419	1185	1311	0.02	2.002783	3	10	0.08	2800	17.38754	40.92393	-91.39363
346167	724	3503	1528	-7.995232	-3.341601	22.45793	0	11.85	4004	1309	1529	1385	1185	0.02	1.971284	3	10	0.08	2800	19.8251	40.92393	-91.39363
346293	-257	647	402	-4.089457	-10.38163	20.23225	0	11.85	4004	1313	1313	1383	1399	0.02	1.955291	3	10	0.08	2800	20.02267	40.92393	-91.39363
346434	274	-2903	-110	-3.189182	-7.890747	19.66134	0	11.8	4002	1227	1033	1485	1675	0.02	1.936122	3	10	0.08	2800	16.77161	40.92393	-91.39363
346519	1331	-3099	154	-2.287093	-4.337869	19.49908	0	11.8	4003	1189	1471	1529	1231	0.02	1.928952	3	10	0.08	2800	12.26981	40.92393	-91.39364
346583	91	870	667	-2.599406	-0.2500814	8.956217	0	11.8	4003	1583	1553	1113	1163	0.02	1.919336	3	10	0.08	2800	9.274261	40.92393	-91.39364
346699	2493	1918	267	-1.59191	-1.626599	8.264442	0	11.8	4004	1431	1637	1271	1073	0.02	1.914585	3	10	0.08	2800	6.71817	40.92393	-91.39365
346798	-76	591	132	-0.473656	-4.399799	8.651366	0	11.8	4004	1485	1099	1231	1601	0.02	1.908018	3	10	0.08	2800	4.887177	40.92393	-91.39365
346878	-187	-69	-152	-0.5932264	-4.445461	8.864446	0	11.8	4002	1574	1426	1148	1276	0.02	1.902702	3	10	0.08	2800	5.084351	40.92393	-91.39365
347045	755	1905	-690	1.584678	-6.361888	12.29886	0	11.8	4003	1310	1300	1440	1382	0.02	1.900633	3	10	0.08	2800	6.93512	40.92393	-91.39365
347155	2099	-1748	-1946	4.282131	-8.289931	15.02943	0	11.8	4003	1202	1204	1568	1454	0.02	1.901624	3	10	0.08	2800	11.0596	40.92393	-91.39365
347170	2099	-1748	-1946	4.282131	-8.289931	15.02943	0	11.8	4003	1465	1211	1321	1435	0.02	1.898968	3	10	0.08	2800	11.0596	40.92393	-91.39365
347274	1586	-730	-1442	6.334656	0.9306985	18.30751	0	11.68	4003	1546	1500	1244	1146	0.02	1.895211	3	10	0.08	2800	9.438599	40.92394	-91.39365
347450	1076	841	-674	11.84409	-2.912235	11.67918	0	11.68	4004	1290	1332	1508	1306	0.02	1.882701	3	10	0.08	2800	9.5784	40.92394	-91.39366
347484	274	-955	-941	11.84409	-2.912235	11.67918	0	11.68	4004	1290	1332	1508	1306	0.02	1.87502	3	10	0.08	2800	9.5784	40.92394	-91.39366
347647	-405	370	3	9.603567	1.660582	12.89099	0	11.68	4002	1315	1131	1477	1509	0.02	1.835593	3	10	0.08	2800	7.239838	40.92394	-91.39366
347691	-260	1086	81	9.211399	1.254233	12.79047	0	11.68	4004	1113	1807	1669	843	0.02	1.825022	3	10	0.08	2800	6.838989	40.92394	-91.39366
347821	-6267	-1718	1035	3.218276	2.500986	11.41017	0	11.68	4002	1337	1255	1421	1419	0.02	1.788164	3	10	0.08	2800	4.265747	40.92395	-91.39366
348014	-2233	-270	1860	-12.88606	-0.4633779	7.370824	0	11.68	4003	1621	1319	1151	1425	0.02	1.762331	3	10	0.08	2800	4.937683	40.92395	-91.39366
348110	2148	-1170	-20	-12.90316	1.105397	5.331203	0	11.68	4003	1480	1372	1388	1436	0.02	1.737556	3	10	0.08	2800	4.697845	40.92395	-91.39366
348307	2675	432	-1578	-3.196158	-1.770475	5.326939	0	12.08	4004	1596	1476	1286	1286	0.02	1.69919	3	10	0.08	2800	1.23877	40.92395	-91.39366
348366	1328	-62	1037	-2.246417	-1.691653	5.700976	0	12.08	4003	1662	1314	1202	1454	0.02	1.677875	3	10	0.08	2800	1.387146	40.92395	-91.39366
348461	2707	-2120	-20	-0.06031306	-0.01770821	6.262381	0	12.08	4003	1116	1486	1772	1230	0.02	1.631535	3	10	0.08	2800	0.1800842	40.92395	-91.39366
348525	692	-1459	-23	0.585471	0.7023979	6.015979	0	12.08	4003	1407	1231	1479	1471	0.02	1.613555	3	10	0.08	2800	0.1800842	40.92395	-91.39366
348592	1566	-1438	657	1.602069	1.394683	4.157741	0	12.08	4003	1314	1226	1560	1476	0.02	1.596918	3	10	0.08	2800	356.7325	40.92395	-91.39366
348706	2454	1017	1249	4.789338	2.530937	350.2469	0	12.08	4003	1270	1398	1598	1310	0.02	1.564067	3	10	0.08	2800	350.0346	40.92395	-91.39366
348886	-339	-3056	2100	0.789889	1.049447	342.1454	0	12.08	4002	1323	1073	1507	1653	0.02	1.514245	3	10	0.08	2800	340.2039	40.92396	-91.39365
348971	-292	138	3159	-0.3628638	2.317396	335.037	0	12.08	4004	1345	1477	1431	1323	0.02	1.502391	3	10	0.08	2800	328.3212	40.92396	-91.39365
349027	-509	-159	2912	-0.7974202	2.174526	333.5764	0	12.08	4004	1296	1372	1480	1428	0.02	1.491808	3	10	0.08	2800	325.2565	40.92396	-91.39365
349147	-1960	-1662	977	-0.2067778	3.35816	330.6738	0	11.63	4002	1017	1813	1773	969	0.02	1.487102	3	10	0.08	2800	324.084	40.92396	-91.39365
349217	970	2156	-513	-0.3679871	2.328233	317.5257	0	11.63	4004	1183	1699	1637	1049	0.02	1.489143	3	10	0.08	2800	317.8361	40.92396	-91.39365
349293	-3145	783	143	-1.53884	0.2349869	317.8093	0	11.63	4002	1400	1330	1404	1430	0.02	1.493273	3	10	0.08	2800	322.5368	40.92396	-91.39365
349387	-4956	-2692	702	-10.48168	1.978878	317.9099	0	11.63	4003	1397	1215	1419	1533	0.02	1.494245	3	10	0.08	2800	323.0575	40.92396	-91.39365
349509	242	2848	-1390	-12.6212	1.112101	318.6171	0	11.63	4002	1317	1193	1519	1535	0.02	1.491545	3	10	0.08	2800	324.9507	40.92396	-91.39365
349603	-1016	1949	140	-12.27691	-2.453222	318.8219	0	11.63	4004	1413	1331	1391	1429	0.02	1.487828	3	10	0.08	2800	324.8727	40.92396	-91.39365
349695	2105	-534	-1235	-11.90896	-3.056749	331.4458	0	11.63	4003	1169	1351	1669	1375	0.02	1.480687	3	10	0.08	2800	331.1019	40.92396	-91.39365
349878	-1404	323	-882	-9.836322	-3.650082	332.4097	0	11.63	4002	1382	1200	1458	1524	0.02	1.472949	3	10	0.08	2800	333.7823	40.92396	-91.39365
349954	2590	-1665	-155	-4.93732	-1.42111	333.2079	0	11.63	4004	1604	1458	1218	1284	0.02	1.473733	3	10	0.08	2800	334.8912	40.92396	-91.39364
350020	-1977	-4918	145	-3.603013	1.964499	333.35	0	11.57	4003	1156	1626	1680	1102	0.02	1.478174	3	10	0.08	2800	337.5155	40.92396	-91.39364
350122	-1385	176	-1159	-4.186224	4.802446	335.802	0	11.57	4004	1434	1378	1456	1292	0.02	1.489119	3	10	0.08	2800	334.7538	40.92396	-91.39364
350211	-403	-1226	-1432	-2.166264	5.091917	337.9346	0	11.57	4003	1440	1716	1438	970	0.02	1.505185	3	10	0.08	2800	338.3092	40.92397	-91.39363
350367	-3212	-3089	-1630	-7.501307	16.506	342.3235	0	11.57	4003	1430	1244	1464	1426	0.02	1.545653	3	10	0.08	2800	334.4792	40.92397	-91.39363
350398	-2528	403	-281	-8.817307	16.97876	342.6695	0	11.57	4004	1324	1422	1546	1268	0.02	1.56191	3	10	0.08	2800	334.4792	40.92397	-91.39363
350491	-2072	4368	-525	-10.82186	13.56989	343.0626	0	11.57	4003	1710	1190	1160	1500	0.02	1.585805	3	10	0.08	2800	336.0317	40.92397	-91.39362
350637	-928	-2284	773	-13.67116	11.57612	341.3037	0	11.57	4004	1219	1343	1589	1341	0.02	1.659276	3	10	0.08	2800	338.0593	40.92397	-91.39362
350689	-986	1792	1384	-14.75332	11.48845	340.2855	0	11.57	4004	1478	1394	1316	1308	0.02	1.684028	3	10	0.08	2800	333.5516	40.92397	-91.39362
350792	-2350	4534	771	-17.49433	3.104593	338.2164	0	11.57	4002	1613	1513	1175	1195	0.02	1.698233	3	10	0.08	2800	337.676	40.92397	-91.39362
350954	94	1035	560	-19.17154	-2.267376	356.2422	0	11.57	4003	1217	1191	1571	1525	0.02	1.74004	3	10	0.08	2800	356.2764	40.92396	-91.39362
351098	3911	-201	835	-13.06087	-9.598839	4.824486	0	11.68	4003	1579	1487	1195	1243	0.02	1.773522	3	10	0.08	2800	9.155151	40.92396	-91.39362
351195	2870	-3214	638	-8.777128	-7.246042	4.007751	0	11.68	4004	1186	1270	1584	1460	0.02	1.794768	3	10	0.08	2800	2.780273	40.92396	-91.39362
351327	1763	-981	1611	-5.31894	-1.616633	1.837931	0	11.68	4003	1519	1381	1227	1410	0.02	1.814794	3	10	0.08	2800	356.2535	40.92396	-91.39362
351388	2253	1398	640	-3.762458	-1.559301	0.7068042	0	11.68	4004	1470	1438	1286	1298	0.02	1.83489	3	10	0.08	2800	351.539	40.92396	-91.39362
351508	-1027	213	173	-1.018556	-2.547678	349.6257	0	11.68	4004	1549	1325	1213	1409	0.02	1.874851	3	10	0.08	2800	349.9242	40.92396	-91.39362
351627	-1771	-1878	-800	-2.163595	-1.034517	349.6339	0	11.68	4004	1493	1229	1277	1497	0.02	1.935694	3	10	0.08	2800	348.0499	40.92395	-91.39362
351732	3186	1148	-1593	-2.396314	-0.0447649	350.9087	0	11.68	4002	1345	1467	1455	1225	0.02	1.95786	3	10	0.08	2800	345.7258	40.92395	-91.39362
351862	-1119	1956	-1184	0.1203781	-2.025967	353.1732	0	11.68	4004	1551	1169	1237	1531	0.02	2.049044	3	10	0.08	2800	345.1577	40.92395	-91.39362
351940	-1992	1714	-1328	-0.1879218	-5.571588	354.3705	0	11.63	4004	1252	1244	1556	1440	0.02	2.097257	3	10	0.08	2800	349.4171	40.92395	-91.39362
352029	-1199	1400	-1347	-1.010543	-7.175092	355.336	0	11.63	4003	1563	841	1261	1823	0.02	2.149923	3	10	0.08	2800	350.8497	40.92395	-91.39362
352117	476	763	-382	0.9510052	-10.14002	358.3091	0	11.63	4004	1538	1436	1248	1210	0.02	2.257896	3	10	0.08	2800	356.0139	40.92395	-91.39362
352196	-2301	-4130	-1344	-0.3199574	-7.671676	359.2971	0	11.63	4002	1209	851	1571	1757	0.02	2.315556	3	10	0.08	2800	358.4073	40.92395	-91.39362
352279	348	2571	-346	-2.732849	-3.607859	359.6939	0	11.63	4003	1366	1064	1382	1532	0.02	2.395513	3	10	0.08	2800	356.1791	40.92395	-91.39362
352464	2441	-3774	717	3.839198	-2.617818	359.0051	0	11.63	4004	1243	1161	1471	1469	0.02	2.484615	3	10	0.08	2800	353.673	40.92395	-91.39363
352532	1508	-2434	1048	4.658202	-0.8897995	358.4951	0	11.63	4004	1324	1278	1370	1352	0.02	2.584572	3	10	0.08	2800	349.4218	40.92395	-91.39362
352684	1429	946	1142	10.01927	0.4381638	345.2987	0	11.63	4003	1382	1352	1276	1250	0.02	2.682572	3	10	0.08	2800	340.0922	40.92395	-91.39362
352734	259	714	950	10.15271	0.1819135	344.6052	0	11.63	4004	1220	1240	1430	1374	0.02	2.763581	3	10	0.08	2800	340.0922	40.92395	-91.39362
352845	-1346	-2830	866	7.971711	2.523211	342.8206	0	11.74	4004	1316	1204	1354	1430	0.02	2.809873	3	10	0.08	2800	335.5189	40.92395	-91.39362
352950	-780	-3865	805	5.590764	8.959681	341.2664	0	11.74	4003	1254	1280	1430	1404	0.02	2.892695	3	10	0.08	2800	332.3912	40.92395	-91.39362
352995	-2204	-694	1044	3.694576	11.78488	326.093	0	11.74	4003	1335	1409	1357	1283	0.02	2.907965	3	10	0.08	2800	326.5974	40.92395	-91.39362
353162	-76	7583	935	-1.425933	-6.985044	323.609	0	11.74	4004	1361	1217	1359	1503	0.02	3.025504	3	10	0.08	2800	326.0138	40.92395	-91.39362
353218	-182	4465	-301	-1.398769	-10.15175	323.4962	0	11.74	4003	1292	1376	1442	1346	0.02	3.040289	3	10	0.08	2800	330.7651	40.92395	-91.39362
353298	-2818	-497	-290	-3.926056	-11.77071	323.454	0	11.74	4003	1369	1227	1367	1497	0.02	3.101475	3	10	0.08	2800	331.6104	40.92395	-91.39362
353398	-1182	819	-532	-6.283512	-11.07839	335.1241	0	11.74	4004	1427	1509	1315	1205	0.02	3.172789	3	10	0.08	2800	334.7454	40.92395	-91.39362
353481	-1247	-2927	-839	-5.740596	-9.261818	337.1962	0	11.74	4004	1570	1172	1198	1520	0.02	3.220757	3	10	0.08	2800	338.5069	40.92395	-91.39362
353628	2976	719	-1515	-4.155962	1.178827	340.9908	0	11.74	4003	1534	1582	1232	1112	0.02	3.308113	3	10	0.08	2800	338.3192	40.92395	-91.39361
353745	5183	1964	-838	3.519969	-1.705726	342.1169	0	11.8	4004	1453	1401	1329	1277	0.02	3.349894	3	10	0.08	2800	339.8945	40.92395	-91.39361
353845	1039	-1684	416	9.518135	-0.4479875	342.6107	0	11.8	4003	1351	1405	1409	1291	0.02	3.401345	3	10	0.08	2800	339.2923	40.92395	-91.3936
353919	1055	-803	79	10.25999	-0.531382	342.7807	0	11.8	4003	1359	1227	1405	1465	0.02	3.424265	3	10	0.08	2800	338.1509	40.92395	-91.3936
354018	-2128	1255	1062	10.89535	-0.8663095	342.4362	0	11.8	4003	1186	1962	1568	744	0.02	3.49516	3	10	0.08	2800	334.4141	40.92395	-91.39359
354083	-5653	1942	596	7.418716	-1.723553	341.5394	0	11.8	4004	1454	1250	1306	1450	0.02	3.526387	3	10	0.08	2800	332.5165	40.92395	-91.39359
354161	-11914	-303	1565	-1.9882	-3.275902	340.2868	0	11.8	4009	1484	1370	1252	1350	0.02	3.555029	3	10	0.08	2800	332.5165	40.92395	-91.39359
354349	-4299	783	732	-20.99697	-3.764118	336.0338	0	11.8	4003	1483	1243	1249	1485	0.02	3.624849	3	10	0.08	2800	330.1483	40.92395	-91.39358
354408	-1173	-180	-382	-23.03739	-5.407816	335.6174	0	11.8	4003	1496	1460	1234	1270	0.02	3.659091	3	10	0.08	2800	335.3406	40.92395	-91.39358
354528	-1109	-2962	75	-22.68655	-2.842621	335.587	0	11.8	4002	1339	1393	1403	1325	0.02	3.682926	3	10	0.08	2800	337.1041	40.92395	-91.39357
354617	-794	2276	-977	-24.4006	-0.155528	336.1447	0	11.63	4003	1332	1182	1458	1564	0.02	3.671401	3	10	0.08	2800	335.368	40.92395	-91.39357
354667	-615	2418	-329	-24.14538	-1.431825	336.1337	0	11.63	4004	1427	1245	1363	1497	0.02	3.63714	3	10	0.08	2800	335.368	40.92395	-91.39356
354851	2264	-38	-521	-18.15474	-0.9616038	349.1316	0	11.63	4004	1355	1417	1447	1313	0.02	3.525111	3	10	0.08	2800	349.1804	40.92395	-91.39356
354895	1677	185	-1275	-16.67837	-0.9953858	349.5913	0	11.63	4003	1456	1180	1350	1542	0.02	3.382835	3	10	0.08	2800	349.1804	40.92395	-91.39355
355017	-1371	869	571	-13.99851	-2.060085	350.4758	0	11.63	4003	1572	1446	1202	1308	0.02	3.15768	3	10	0.08	2800	352.9474	40.92395	-91.39355
355184	-2377	640	-260	-22.79183	-0.6202649	350.2446	0	11.63	4003	1438	1376	1346	1364	0.02	2.943178	3	10	0.08	2800	357.2122	40.92395	-91.39355
355340	731	-1099	310	-25.54085	-2.264391	357.9077	0	11.63	4004	1413	1139	1373	1663	0.02	2.722083	3	10	0.08	2800	1.100128	40.92395	-91.39355
355393	5405	-1115	755	-23.32241	-1.859977	357.5343	0	11.63	4004	1261	1401	1527	1395	0.02	2.661519	3	10	0.08	2800	1.100128	40.92395	-91.39354
355550	1033	415	211	-6.912559	-3.327045	356.2754	0	11.57	4004	1339	1071	1457	1721	0.02	2.443926	3	10	0.08	2800	356.9921	40.92395	-91.39354
355642	-1303	-1449	26	-5.400739	-3.683903	355.5574	0	11.57	4003	1439	1131	1375	1683	0.02	2.388846	3	10	0.08	2800	358.1832	40.92395	-91.39354
355743	-1653	-2522	872	-7.621935	0.008394813	354.4247	0	11.57	4008	1134	1680	1668	1142	0.02	2.193568	3	10	0.08	2800	353.2444	40.92395	-91.39354
355928	2049	2073	-1324	-5.456276	-1.146498	353.3439	0	11.57	4004	1443	1493	1435	1333	0.02	2.044215	3	10	0.08	2800	352.0551	40.92395	-91.39354
355988	-610	869	-1633	-3.599172	-3.058337	354.631	0	11.57	4003	1252	1576	1608	1260	0.02	2.008501	3	10	0.08	2800	352.0551	40.92395	-91.39355
356208	1770	2060	-1475	-9.792945	2.686335	359.9416	0	11.57	4003	1317	1381	1479	1311	0.02	1.817211	3	10	0.08	2800	357.0655	40.92395	-91.39355
356308	1246	467	37	-6.749794	-0.7035307	0.8273535	0	11.57	4002	1379	1365	1387	1349	0.02	1.748678	3	10	0.08	2800	0.9355164	40.92395	-91.39355
356383	-2338	-1657	-629	-6.805251	-0.4196023	1.731749	0	11.34	4003	1367	955	1419	1751	0.02	1.70079	3	10	0.08	2800	2.386261	40.92395	-91.39355
356428	-2103	-102	957	-10.85375	0.8478194	2.178008	0	11.34	4003	1445	1501	1337	1213	0.02	1.662778	3	10	0.08	2800	4.796661	40.92395	-91.39355
356504	-565	1215	199	-12.16818	-0.5433358	2.093411	0	11.34	4002	1608	1376	1154	1358	0.02	1.63003	3	10	0.08	2800	5.780487	40.92395	-91.39355
356624	-818	954	539	-13.1846	-2.978901	1.204114	0	11.34	4004	1466	1726	1302	998	0.02	1.592202	3	10	0.08	2800	6.873718	40.92395	-91.39355
356697	-1724	-2930	221	-14.60492	-1.669683	11.05927	0	11.34	4003	1255	1129	1523	1589	0.02	1.577236	3	10	0.08	2800	11.11389	40.92395	-91.39355
356792	-1813	-3081	35	-15.4347	-0.5217346	10.85434	0	11.34	4004	1063	1259	1709	1465	0.02	1.559962	3	10	0.08	2800	9.650208	40.92395	-91.39355
356916	1682	-367	991	-14.43972	-3.109303	9.053263	0	11.34	4004	1618	1276	1130	1472	0.02	1.564668	3	10	0.08	2800	11.54483	40.92395	-91.39356
357040	1321	521	1125	-13.39174	-2.286054	8.293424	0	11.34	4004	1518	1390	1252	1336	0.02	1.569568	3	10	0.08	2800	10.12555	40.92395	-91.39357
357118	2465	-1211	1033	-10.2677	-1.365185	7.483814	0	11.34	4004	1425	1663	1319	1089	0.02	1.58377	3	10	0.08	2800	5.818573	40.92395	-91.39357
357240	-267	1196	553	-11.61749	-1.023688	5.93231	0	11.34	4002	1280	1194	1464	1558	0.02	1.597821	3	10	0.08	2800	359.6273	40.92395	-91.39357
357382	1550	-1236	-155	-8.592725	-2.512265	5.249488	0	11.68	4002	1373	1039	1367	1717	0.02	1.639755	3	10	0.08	2800	4.352631	40.92395	-91.39358
357467	-1041	-1242	129	-10.04721	0.3350292	4.573482	0	11.68	4003	1377	1449	1363	1307	0.02	1.686115	3	10	0.08	2800	356.3503	40.92395	-91.39358
357529	949	-256	-795	-10.43167	1.449513	4.887776	0	11.68	4003	1521	1289	1227	1459	0.02	1.693498	3	10	0.08	2800	355.155	40.92395	-91.39359
357585	3909	1058	1185	-7.537194	0.7779533	353.9561	0	11.68	4004	1227	1453	1491	1325	0.02	1.7009	3	10	0.08	2800	353.9855	40.92395	-91.39359
357738	-562	-1615	960	-4.663157	-1.826049	352.2477	0	11.68	4004	1059	1407	1675	1351	0.02	1.760425	3	10	0.08	2800	348.5845	40.92395	-91.39359
357858	928	1666	682	-2.291419	-0.636042	352.3124	0	11.68	4003	1638	1238	1084	1528	0.02	1.789724	3	10	0.08	2800	347.8788	40.92395	-91.39359
357881	119	2025	431	-2.41609	-1.321681	351.9675	0	11.68	4002	1638	1238	1084	1528	0.02	1.796536	3	10	0.08	2800	347.4806	40.92395	-91.3936
358055	1854	-1662	-762	3.021712	1.372195	342.2903	0	11.68	4003	1539	931	1205	1809	0.02	1.838289	3	10	0.08	2800	341.6468	40.92395	-91.3936
358163	-444	340	107	2.613498	-0.3425397	341.9518	0	11.17	4004	1365	707	1379	2029	0.02	1.861823	3	10	0.08	2800	340.2745	40.92395	-91.39361
358235	1905	-1391	-541	3.950396	-0.488109	343.0191	0	11.17	4002	1373	1395	1377	1339	0.02	1.868914	3	10	0.08	2800	341.8268	40.92395	-91.39361
358365	557	1693	214	4.487444	-0.9121691	344.7653	0	11.17	4004	1259	1579	1491	1151	0.02	1.872203	3	10	0.08	2800	339.6787	40.92394	-91.39362
358414	-455	453	-1236	3.139941	-1.827944	345.2166	0	11.17	4003	1630	938	1128	1788	0.02	1.864587	3	10	0.08	2800	339.6787	40.92394	-91.39362
358460	-559	-1782	-304	1.622614	-0.2193016	346.3581	0	11.17	4003	1183	1463	1559	1213	0.02	1.860281	3	10	0.08	2800	338.4085	40.92394	-91.39362
358609	-766	1310	-497	0.1916503	0.4094501	347.1985	0	11.17	4004	1803	1191	959	1531	0.02	1.8253	3	10	0.08	2800	339.9	40.92394	-91.39362
358756	-4829	-1165	-1224	-7.189749	1.683174	338.8818	0	11.17	4002	1627	1149	1157	1555	0.02	1.785718	3	10	0.08	2800	341.0205	40.92394	-91.39362
358837	-383	1893	-503	-8.687367	1.012133	339.338	0	11.17	4003	1465	1427	1315	1281	0.02	1.761701	3	10	0.08	2800	337.561	40.92394	-91.39363
358887	-445	1969	111	-8.75023	0.2304264	339.4569	0	11.17	4002	1553	1527	1221	1183	0.02	1.756251	3	10	0.08	2800	341.8312	40.92394	-91.39363
359073	2230	2109	37	-3.811257	-0.4094814	337.7279	0	11.74	4004	1305	1329	1441	1365	0.02	1.720631	3	10	0.08	2800	339.1031	40.92395	-91.39363
359151	1114	637	160	-2.018445	-1.670377	337.2698	0	11.74	4003	1266	1506	1468	1184	0.02	1.714077	3	10	0.08	2800	339.8032	40.92395	-91.39363
359245	-1261	-375	991	-2.754652	-1.556118	336.5469	0	11.74	4004	1429	1347	1283	1365	0.02	1.695621	3	10	0.08	2800	337.6436	40.92395	-91.39363
359308	-253	-548	654	-3.687073	-1.028736	335.7629	0	11.74	4003	1413	1191	1307	1517	0.02	1.693142	3	10	0.08	2800	336.366	40.92395	-91.39363
359378	2029	-2350	776	-1.528759	2.605935	335.0958	0	11.74	4002	1474	1394	1254	1334	0.02	1.697718	3	10	0.08	2800	335.3957	40.92395	-91.39364
359519	-479	3822	740	-1.045298	1.659557	333.74	0	11.74	4002	1431	1607	1295	1135	0.02	1.702985	3	10	0.08	2800	329.0492	40.92395	-91.39364
359598	3650	-1030	1163	1.727281	-0.8180155	332.4831	0	11.74	4004	1503	1641	1215	1109	0.02	1.716218	3	10	0.08	2800	329.7807	40.92395	-91.39364
359687	817	-3875	46	4.357087	2.419954	331.4811	0	11.74	4004	1307	923	1415	1823	0.02	1.730705	3	10	0.08	2800	326.9504	40.92395	-91.39364
359880	-2883	1124	-635	2.699196	5.719608	320.2792	0	11.74	4004	1468	1026	1268	1702	0.02	1.769093	3	10	0.08	2800	319.4557	40.92395	-91.39364
359916	142	2597	-673	0.3619381	2.907927	320.8961	0	11.74	4002	1505	1557	1231	1175	0.02	1.775004	3	10	0.08	2800	317.3167	40.92395	-91.39364
359981	1866	1750	-1184	1.060943	0.8337637	321.9836	0	11.74	4003	1366	1746	1388	972	0.02	1.797905	3	10	0.08	2800	320.7685	40.92395	-91.39364
360109	525	535	-1743	2.31556	0.7125627	323.9683	0	11.74	4003	1346	1372	1400	1310	0.02	1.816519	8	10	0.08	2800	322.4425	40.92395	-91.39363
360199	-1125	68	-412	0.4261132	-0.2270626	326.1811	0	11.74	4004	1306	1374	1432	1316	0.02	1.83492	8	10	0.08	2800	324.5643	40.92395	-91.39363
360321	-1283	-1763	-745	-1.681752	1.195577	327.0542	0	11.74	4003	1192	1160	1556	1528	0.02	1.855787	8	10	0.08	2800	325.3234	40.92395	-91.39363
360373	-1186	-527	135	-2.280865	1.558438	327.2405	0	11.74	4004	1326	1228	1430	1456	0.02	1.862775	8	10	0.08	2800	325.2366	40.92395	-91.39363
360557	-1929	-1545	-440	-5.452311	0.2761308	329.0361	0	11.74	4002	1143	1305	1565	1335	0.02	1.898297	8	10	0.08	2800	327.3791	40.92395	-91.39362
360688	-2334	2637	-211	-7.569818	-2.186087	329.3116	0	11.74	4002	1193	1087	1469	1511	0.02	1.958414	8	10	0.08	2800	328.2301	40.92395	-91.39362
360791	-625	1888	-85	-9.630042	-8.47341	329.078	0	11.74	4004	1333	1263	1379	1389	0.02	2.010575	8	10	0.08	2800	331.8888	40.92395	-91.39362
360982	-779	-256	265	-11.3425	-3.731007	328.2092	0	11.46	4003	1392	1246	1342	1432	0.02	2.061999	8	10	0.08	2800	332.9802	40.92395	-91.39362
361033	-24	605	152	-11.15243	-3.666708	327.9453	0	11.46	4003	1295	1255	1435	1423	0.02	2.073062	8	10	0.08	2800	332.9802	40.92395	-91.39361
361149	-1484	2197	461	-11.1467	-9.099296	336.1768	0	11.46	4004	1323	1141	1399	1565	0.02	2.101419	8	10	0.08	2800	336.475	40.92395	-91.39361
361239	-705	-890	-102	-12.35361	-8.64133	335.4353	0	11.46	4002	1265	1085	1469	1625	0.02	2.10996	8	10	0.08	2800	339.2407	40.92395	-91.3936
361322	-1167	591	188	-11.64339	-8.616446	335.3758	0	11.46	4002	1476	1296	1270	1422	0.02	2.121652	8	10	0.08	2800	339.6002	40.92395	-91.3936
361420	-1381	-395	202	-14.54831	-7.829457	335.3636	0	11.46	4003	1355	1437	1391	1301	0.02	2.117413	8	10	0.08	2800	342.6093	40.92395	-91.3936
361476	-784	242	440	-15.13129	-7.366011	335.4078	0	11.46	4004	1419	1511	1339	1231	0.02	2.107033	8	10	0.08	2800	342.6093	40.92395	-91.3936
361626	-3510	-515	530	-15.5359	-10.58929	348.5209	0	11.46	4004	1369	1245	1435	1523	0.02	2.06743	8	10	0.08	2800	348.4333	40.92395	-91.39359
361739	-1163	-2621	416	-18.52389	-3.27989	348.7401	0	11.46	4004	1265	1303	1557	1483	0.02	1.99354	8	10	0.08	2800	349.2255	40.92395	-91.39359
361771	-1621	-662	669	-19.02607	-2.444579	348.4025	0	11.46	4003	1558	1470	1314	1406	0.02	1.99354	8	10	0.08	2800	347.7174	40.92395	-91.39359
361855	298	641	454	-20.04356	-2.951265	347.416	0	11.57	4003	1163	1491	1661	1341	0.02	1.9503	8	10	0.08	2800	345.3993	40.92395	-91.39359
361976	-1362	-413	484	-18.78826	-2.946911	346.713	0	11.57	4003	1469	1391	1457	1555	0.02	1.826832	8	10	0.08	2800	348.5994	40.92395	-91.39358
362135	599	-1154	779	-19.16049	-2.100781	345.395	0	11.57	4003	1376	1214	1500	1642	0.02	1.661531	8	10	0.08	2800	348.9937	40.92395	-91.39358
362203	799	-931	152	-17.80394	-1.160421	345.058	0	11.57	4004	1294	1328	1570	1532	0.02	1.64041	8	10	0.08	2800	348.9785	40.92395	-91.39358
362295	1206	-964	-179	-17.10964	-0.817068	344.837	0	11.57	4002	1441	1129	1421	1713	0.02	1.538438	8	10	0.08	2800	348.5322	40.92395	-91.39358
362348	403	-1633	-176	-15.46705	-0.06114998	344.9104	0	11.57	4003	1323	1031	1535	1795	0.02	1.499805	8	10	0.08	2800	348.8032	40.92395	-91.39358
362566	-1069	-884	-220	-13.71192	0.1158978	349.0056	0	11.57	4002	1608	1250	1356	1622	0.02	1.360425	8	10	0.08	2800	353.1243	40.92396	-91.39358
362683	-134	-1426	-111	-14.13705	3.660447	350.9772	0	11.57	4003	1135	1361	1705	1411	0.02	1.28401	8	10	0.08	2800	354.5797	40.92396	-91.39358
362757	-1851	888	-781	-15.37503	3.254668	351.1721	0	11.63	4003	1392	1200	1466	1562	0.02	1.253487	8	10	0.08	2800	353.5068	40.92396	-91.39358
362867	-892	-902	-1450	-13.71678	1.167402	352.1161	0	11.63	4003	1476	1250	1374	1496	0.02	1.220237	8	10	0.08	2800	357.4821	40.92396	-91.39358
363090	-3640	-532	-288	-12.50893	5.395714	356.0229	0	11.63	4003	1328	1574	1512	1114	0.02	1.184589	8	10	0.08	2800	359.6771	40.92397	-91.39358
363216	2917	-1047	-1536	-14.68187	9.01382	358.4649	0	11.63	4002	1244	1438	1588	1202	0.02	1.190809	8	10	0.08	2800	357.3851	40.92397	-91.39358
363330	694	-371	800	-8.527017	7.920993	359.6362	0	11.63	4004	1527	1369	1247	1301	0.02	1.234385	8	10	0.08	2800	359.6436	40.92397	-91.39358
363401	151	1286	1077	-7.926477	6.731535	359.1105	0	11.63	4002	1488	1320	1270	1322	0.02	1.264108	8	10	0.08	2800	2.036835	40.92397	-91.39358
363584	2458	-1940	525	-4.765058	5.774375	355.6513	0	11.63	4003	1369	1599	1373	1079	0.02	1.312958	8	10	0.08	2800	356.6208	40.92397	-91.39359
363695	-1564	-34	1595	-5.621462	8.322053	353.2919	0	11.68	4004	1260	1226	1428	1446	0.02	1.36488	8	10	0.08	2800	350.4304	40.92397	-91.39359
363849	2776	1719	628	-5.958254	4.644436	350.5559	0	11.68	4002	1182	1324	1552	1382	0.02	1.421603	8	10	0.08	2800	345.8734	40.92397	-91.39359
363937	1626	-207	673	-3.727049	3.749182	349.1207	0	11.68	4004	1176	1254	1546	1448	0.02	1.445431	8	10	0.08	2800	344.4999	40.92397	-91.39359
363977	463	183	1534	-3.098985	4.211694	347.6088	0	11.68	4003	1272	1322	1422	1404	0.02	1.453414	8	10	0.08	2800	341.4124	40.92397	-91.39359
364082	646	24	1682	-2.747826	3.975685	345.4721	0	11.68	4004	1419	1539	1267	1207	0.02	1.493994	8	10	0.08	2800	339.2892	40.92397	-91.39359
364239	-713	-2885	891	-1.812432	3.79726	332.6407	0	11.68	4004	1209	1211	1467	1489	0.02	1.54338	8	10	0.08	2800	333.8839	40.92397	-91.3936
364305	134	-2425	569	-2.000872	4.907693	332.4009	0	11.68	4002	1297	1307	1391	1433	0.02	1.567266	8	10	0.08	2800	333.8839	40.92397	-91.3936
364401	275	67	669	-0.855153	7.416037	331.3191	0	11.68	4002	1287	1321	1405	1435	0.02	1.608762	8	10	0.08	2800	326.1851	40.92397	-91.3936
364510	957	2749	-101	-0.3384886	2.620019	330.7058	0	11.68	4004	1177	1401	1537	1337	0.02	1.622654	8	10	0.08	2800	324.6838	40.92397	-91.39361
364660	-262	878	88	0.5324925	3.334812	331.5402	0	11.34	4003	1259	1473	1461	1283	0.02	1.643491	8	10	0.08	2800	322.9468	40.92397	-91.39362
364792	565	1722	-347	-0.7413768	0.2153488	320.1669	0	11.34	4003	1233	1233	1505	1509	0.02	1.65403	8	10	0.08	2800	319.9943	40.92397	-91.39362
364909	447	-137	-1045	0.6021675	1.574472	321.3662	0	11.34	4003	1248	1254	1500	1474	0.02	1.675606	8	10	0.08	2800	321.2589	40.92397	-91.39362
364982	548	783	-239	-0.3744563	1.383232	322.1706	0	11.34	4004	1412	1298	1332	1446	0.02	1.683413	8	10	0.08	2800	323.8184	40.92397	-91.39362
365086	4131	1661	-1608	-0.6693975	-0.2239441	323.8293	0	11.34	4004	1314	1528	1462	1196	0.02	1.687228	8	10	0.08	2800	324.5993	40.92397	-91.39362
365250	-3935	-294	-1171	-0.3214583	-1.572152	326.8284	0	11.34	4002	1460	1098	1332	1622	0.02	1.686778	8	10	0.08	2800	327.2083	40.92396	-91.39362
365302	122	-1784	-1147	-3.399943	1.563532	328.1686	0	11.34	4002	1318	1440	1470	1288	0.02	1.68655	8	10	0.08	2800	328.8088	40.92396	-91.39362
365430	1491	1042	-1060	-1.655989	1.948915	329.1648	0	11.34	4002	1326	1312	1506	1412	0.02	1.677276	8	10	0.08	2800	329.2533	40.92396	-91.39362
365487	312	1516	-188	-1.065403	1.00086	329.4731	0	11.34	4002	1580	1270	1226	1488	0.02	1.664842	8	10	0.08	2800	329.2533	40.92396	-91.39362
365593	-222	1145	-455	-1.342231	-4.250094	329.587	0	11.46	4002	1631	1111	1207	1627	0.02	1.633746	8	10	0.08	2800	330.4095	40.92396	-91.39362
365778	793	-1293	-1189	-0.1718189	-4.322966	331.4926	0	11.46	4003	1387	1385	1469	1355	0.02	1.610457	8	10	0.08	2800	334.5685	40.92395	-91.39362
365866	-5271	-286	-543	-3.158398	-2.454844	332.3525	0	11.46	4003	1215	1695	1615	1031	0.02	1.602168	8	10	0.08	2800	334.4522	40.92395	-91.39362
365895	-3375	1580	-1593	-5.422791	-2.996219	332.7294	0	11.46	4007	1613	873	1225	1833	0.02	1.597013	8	10	0.08	2800	335.1611	40.92395	-91.39362
366062	2198	-72	-1386	-6.879791	-3.419972	332.9978	0	11.46	4002	1348	1088	1460	1616	0.02	1.593677	8	10	0.08	2800	335.1251	40.92395	-91.39362
366098	2198	-72	-1386	-6.879791	-3.419972	332.9978	0	11.46	4002	1345	1469	1473	1213	0.02	1.596908	8	10	0.08	2800	335.1251	40.92395	-91.39362
366217	-3471	-327	-444	-6.962027	-2.857772	333.2767	0	11.46	4004	1438	902	1338	1726	0.02	1.624093	8	10	0.08	2800	334.3873	40.92395	-91.39362
366356	258	-818	-239	-8.083073	-3.773375	333.764	0	11.46	4002	1211	1167	1549	1477	0.02	1.686925	8	10	0.08	2800	337.6179	40.92395	-91.39361
366402	-470	882	-8	-7.27185	-4.263746	333.6084	0	11.63	4004	1299	1051	1397	1541	0.02	1.698948	8	10	0.08	2800	338.8875	40.92395	-91.39361
366536	-3074	403	395	-9.946643	-6.258348	332.521	0	11.63	4002	1364	1216	1340	1428	0.02	1.77578	8	10	0.08	2800	340.1724	40.92395	-91.3936
366709	-272	447	686	-12.99076	-5.91336	340.0399	0	11.63	4003	1351	1315	1351	1367	0.02	1.872381	8	10	0.08	2800	340.0388	40.92395	-91.3936
366837	-142	-1443	686	-12.21467	-3.27713	338.2776	0	11.63	4003	1236	1174	1400	1438	0.02	1.950646	8	10	0.08	2800	340.6225	40.92395	-91.39359
366896	-764	774	108	-12.27028	-2.707761	337.681	0	11.63	4003	1270	1226	1430	1434	0.02	2.003926	8	10	0.08	2800	339.4296	40.92395	-91.39359
366985	-786	2635	-200	-12.76519	-4.229651	337.2826	0	11.63	4002	1333	1181	1371	1475	0.02	2.047529	8	10	0.08	2800	339.1428	40.92395	-91.39359
367136	-1222	-1372	266	-14.88373	-6.024188	336.5183	0	11.63	4003	1182	1204	1528	1486	0.02	2.123818	8	10	0.08	2800	345.1715	40.92395	-91.39359
367252	119	660	-684	-15.06156	-5.695708	336.1652	0	11.63	4002	1285	1229	1447	1443	0.02	2.161906	8	10	0.08	2800	345.6604	40.92395	-91.39359
367342	-64	297	-694	-13.31837	-5.323977	347.0964	0	11.57	4003	1469	1363	1247	1155	0.02	2.195431	8	10	0.08	2800	346.8621	40.92395	-91.39359
367424	-561	-524	-717	-13.65857	-5.603653	347.8727	0	11.57	4004	1201	1259	1555	1437	0.02	2.213069	8	10	0.08	2800	348.6109	40.92395	-91.39359
367469	-319	-1442	-314	-13.7219	-5.060635	348.2816	0	11.57	4004	1332	1364	1402	1306	0.02	2.235209	8	10	0.08	2800	349.9596	40.92395	-91.39359
367590	-1752	-256	-659	-15.12123	-1.564091	349.1539	0	11.57	4004	1363	1231	1405	1457	0.02	2.253586	8	10	0.08	2800	351.5258	40.92395	-91.39359
367699	799	358	-897	-15.64734	-2.225542	348.9666	0	11.57	4003	1385	1195	1405	1503	0.02	2.264298	8	10	0.08	2800	351.2056	40.92395	-91.39358
367763	1083	-1632	-367	-14.71978	-1.878086	349.0916	0	11.57	4002	1349	1341	1417	1377	0.02	2.269866	8	10	0.08	2800	353.1172	40.92395	-91.39358
367808	-1546	-4640	418	-14.26704	3.007394	349.3542	0	11.57	4003	1386	1254	1376	1476	0.02	2.271017	8	10	0.08	2800	351.5203	40.92395	-91.39358
367976	-202	2754	-541	-14.65254	2.826454	349.4309	0	11.57	4002	1225	1197	1553	1481	0.02	2.280984	3	10	0.08	2800	351.3946	40.92396	-91.39358
368013	954	424	-1446	-14.41449	1.97539	349.6564	0	11.57	4002	1203	1137	1583	1541	0.02	2.286124	3	10	0.08	2800	351.3946	40.92396	-91.39358
368098	4988	1913	571	-8.602355	0.4703813	349.8617	0	11.57	4003	1310	1496	1448	1210	0.02	2.294349	3	10	0.08	2800	356.3375	40.92396	-91.39358
368227	2914	44	-784	-1.29151	-2.876248	350.4404	0	11.4	4004	1191	1609	1577	1079	0.02	2.29446	3	10	0.08	2800	355.5109	40.92396	-91.39358
368284	-579	-4575	-1223	-1.520075	1.931889	351.5621	0	11.4	4002	1260	1220	1526	1454	0.02	2.293351	3	10	0.08	2800	354.5137	40.92396	-91.39358
368469	306	-1685	150	-4.36031	10.14009	352.2052	0	11.4	4003	1530	1354	1206	1294	0.02	2.264099	3	10	0.08	2800	350.1868	40.92396	-91.39359
368517	704	113	-282	-3.610396	11.12287	352.2258	0	11.4	4003	1281	1241	1467	1415	0.02	2.260033	3	10	0.08	2800	348.8349	40.92396	-91.39359
368614	687	4606	1945	-2.108942	4.188545	350.6412	0	11.4	4003	1501	1527	1233	1199	0.02	2.250116	3	10	0.08	2800	345.5479	40.92397	-91.39359
368725	-71	-1783	2489	-1.873373	1.22083	347.7095	0	11.4	4002	1266	1164	1458	1572	0.02	2.219908	3	10	0.08	2800	347.3257	40.92397	-91.39359
368807	-138	-933	1622	-2.097472	2.402597	345.2849	0	11.4	4002	1174	1048	1538	1700	0.02	2.197351	3	10	0.08	2800	341.414	40.92397	-91.39359
368919	-667	661	2672	0.4922794	-0.4987186	340.7098	0	11.4	4008	1171	1669	1499	1117	0.02	2.148607	3	10	0.08	2800	334.4656	40.92397	-91.39359
369018	-890	521	2312	-1.113433	-1.267699	338.4675	0	11.4	4003	1304	1810	1354	992	0.02	2.098328	3	10	0.08	2800	334.4656	40.92397	-91.39359
369093	-1600	-1038	109	-5.714712	-0.6747946	336.3735	0	11.51	4004	1345	1631	1265	1219	0.02	2.06649	3	10	0.08	2800	330.2993	40.92397	-91.39359
369193	3587	-630	-2178	-1.288685	1.057645	338.4108	0	11.51	4003	1373	1363	1233	1491	0.02	2.031853	3	10	0.08	2800	328.7276	40.92397	-91.39359
369295	-2528	-1038	-3973	-0.9653553	1.89095	333.03	0	11.51	4003	1226	1492	1400	1350	0.02	1.957354	3	10	0.08	2800	332.2751	40.92397	-91.39359
369422	1982	578	-6008	-1.237258	0.3342701	343.8193	0	11.51	4003	1205	1505	1465	1341	0.02	1.88326	3	10	0.08	2800	347.3404	40.92397	-91.39359
369496	-499	-180	-6483	0.2682683	0.03427563	354.5983	0	11.51	4002	1446	1390	1248	1448	0.02	1.852172	3	10	0.08	2800	354.4714	40.92397	-91.39359
369622	-635	-1668	-8664	0.2188015	0.547465	6.51755	0	11.51	4004	1247	1443	1501	1337	0.02	1.75238	3	10	0.08	2800	2.966888	40.92397	-91.39359
369760	-1087	-3649	-7983	0.7419887	9.912997	24.6057	0	11.51	4004	1259	1515	1545	1209	0.02	1.659869	3	10	0.08	2800	25.39139	40.92397	-91.39359
369867	-1123	-1254	-6862	2.518604	14.12729	49.6445	0	11.51	4003	1354	1340	1496	1322	0.02	1.600973	3	10	0.08	2800	49.24554	40.92397	-91.39359
369886	-1123	-1254	-6862	2.518604	14.12729	49.6445	0	11.51	4003	1354	1340	1496	1322	0.02	1.600973	3	10	0.08	2800	49.24554	40.92397	-91.39359
370004	-3171	-4635	-4941	1.935981	17.60883	81.82213	0	11.29	4002	1393	1305	1447	1363	0.02	1.549643	3	10	0.08	2800	78.63821	40.92397	-91.39359
370088	-2338	-1037	-3313	1.612885	21.67705	107.2184	0	11.29	4004	1277	1089	1571	1571	0.02	1.505023	3	10	0.08	2800	107.0158	40.92397	-91.39359
370219	-2167	-2417	-2669	0.2426371	23.23614	111.5	0	11.29	4004	1312	1154	1524	1510	0.02	1.461839	3	10	0.08	2800	117.573	40.92397	-91.39359
370357	412	215	-421	0.3863807	23.25889	126.1803	0	11.29	4004	1212	1302	1658	1404	0.02	1.432584	3	10	0.08	2800	129.7288	40.92397	-91.39359
370403	678	-1169	296	0.8229238	23.22725	126.3018	0	11.29	4004	1495	1397	1365	1327	0.02	1.428365	3	10	0.08	2800	132.5735	40.92397	-91.39359
370580	590	6324	937	-0.2418838	14.30385	138.3464	0	11.29	4002	1618	1412	1276	1274	0.02	1.394147	3	10	0.08	2800	138.8199	40.92397	-91.39359
370678	879	3085	1556	0.5557228	7.441628	136.5295	0	11.29	4003	1411	1233	1517	1519	0.02	1.384019	3	10	0.08	2800	134.8094	40.92397	-91.39359
370782	1960	1565	2084	1.135321	0.5113088	132.1921	0	11.29	4003	1421	1597	1649	1341	0.02	1.370606	3	10	0.08	2800	134.1107	40.92397	-91.3936
370798	1960	1565	2084	1.135321	0.5113088	132.1921	0	11.29	4003	1524	1314	1516	1666	0.02	1.36195	3	10	0.08	2800	134.1107	40.92397	-91.3936
370961	666	-1129	1263	-0.3187836	2.398451	127.9321	0	11.51	4004	1558	1380	1484	1586	0.02	1.335538	3	10	0.08	2800	126.9166	40.92397	-91.3936
370994	234	-1399	66	-0.6312818	3.156222	127.4576	0	11.51	4004	1547	1735	1465	1249	0.02	1.319038	3	10	0.08	2800	126.9166	40.92397	-91.39361
371121	3213	259	956	3.158418	4.398076	126.0428	0	11.51	4003	1114	1820	1664	938	0.02	1.30104	3	10	0.08	2800	120.8746	40.92397	-91.39361
371223	4940	2606	-605	11.83874	1.234307	115.7289	0	11.51	4003	1352	1138	1384	1442	0.02	1.278646	3	10	0.08	2800	115.7395	40.92397	-91.39362
371324	-1306	1593	575	12.62346	-0.6544756	115.6172	0	11.51	4002	1545	1117	1191	1415	0.02	1.263731	3	10	0.08	2800	115.1775	40.92397	-91.39362
371421	-436	908	-576	9.769956	-1.774372	116.7428	0	11.51	4002	1112	1412	1648	1088	0.02	1.258414	3	10	0.08	2800	114.2393	40.92397	-91.39362
371498	-2327	-1386	1047	7.907956	-1.922403	116.428	0	11.51	4003	1374	1316	1386	1184	0.02	1.26341	3	10	0.08	2800	114.1698	40.92397	-91.39362
371657	-4992	-405	2778	-6.434353	4.633894	110.7912	0	11.51	4004	1333	1133	1407	1383	0.02	1.271328	3	10	0.08	2800	116.3072	40.92397	-91.39362
371772	2535	3263	3789	-8.852305	-0.2923492	103.5224	0	11.51	4004	1346	1266	1388	1260	0.02	1.276725	3	10	0.08	2800	111.883	40.92397	-91.39364
371811	3796	2309	3854	-7.094342	-2.043037	101.4333	0	11.51	4002	1383	1357	1341	1179	0.02	1.280086	3	10	0.08	2800	108.5785	40.92397	-91.39364
372014	-138	702	5284	-1.912068	-2.075426	73.28703	0	11.46	4004	1284	1286	1432	1338	0.02	1.287346	3	10	0.08	2800	65.89899	40.92396	-91.39365
372209	-168	2933	4749	-0.06105299	-6.571697	36.65965	0	11.46	4003	1292	1238	1426	1476	0.02	1.271495	3	10	0.08	2800	42.21289	40.92396	-91.39365
372368	-2664	1081	4623	-2.658097	-13.15888	13.01526	0	11.46	4004	1525	1323	1177	1451	0.02	1.268629	3	10	0.08	2800	11.57571	40.92395	-91.39365
372412	-1547	120	3580	-3.986011	-13.46713	8.944147	0	11.46	4002	1243	1329	1479	1445	0.02	1.270159	3	10	0.08	2800	5.014587	40.92395	-91.39365
372536	3615	782	227	-3.512153	-11.70965	4.889791	0	11.46	4004	1333	1841	1435	975	0.02	1.285438	3	10	0.08	2800	0.140686	40.92395	-91.39366
372585	900	-950	902	-0.3891999	-11.73718	352.8146	0	11.46	4002	1257	1433	1521	1405	0.02	1.290609	3	10	0.08	2800	353.2968	40.92395	-91.39366
372744	-21	2638	-341	-1.625034	-8.660886	352.542	0	11.34	4003	1442	1412	1332	1202	0.02	1.314734	3	10	0.08	2800	349.2338	40.92395	-91.39366
372876	3333	2269	-1267	3.546219	-14.72557	353.6978	0	11.34	4003	1457	1383	1597	1411	0.02	1.324187	3	10	0.08	2800	352.0817	40.92395	-91.39368
372944	1156	321	-1050	4.405517	-14.98817	354.1562	0	11.34	4002	1504	1180	1306	1622	0.02	1.321334	3	10	0.08	2800	354.3943	40.92395	-91.39368
372978	-1431	-5748	-1841	2.878584	-9.507952	356.4231	0	11.34	4002	1342	1118	1484	1668	0.02	1.319027	3	10	0.08	2800	355.1728	40.92395	-91.39368
373116	557	729	-1173	-0.5258054	-4.934099	358.3063	0	11.34	4004	1431	1405	1415	1361	0.02	1.291921	3	10	0.08	2800	352.9777	40.92395	-91.39368
373191	31	-1202	-2044	0.4637423	-4.588769	0.04046631	0	11.34	4004	1400	1312	1458	1446	0.02	1.280381	3	10	0.08	2800	355.0866	40.92394	-91.39368
373288	3054	-1863	-2562	0.6577423	-0.217204	3.992498	0	11.34	4002	1651	1053	1229	1679	0.02	1.26835	3	10	0.08	2800	355.8568	40.92394	-91.39368
373395	1943	624	-257	3.178821	-0.2265152	5.837424	0	11.34	4003	1159	1453	1705	1295	0.02	1.266223	3	10	0.08	2800	357.5395	40.92394	-91.39368
373561	-1816	-101	-1018	1.297633	-1.648769	356.1907	0	11.34	4004	1313	1247	1547	1481	0.02	1.274789	3	10	0.08	2800	356.5441	40.92394	-91.39368
373692	389	-853	-814	-1.062946	0.6805817	356.5479	0	11.46	4003	1367	1291	1467	1391	0.02	1.291764	3	10	0.08	2800	353.7679	40.92394	-91.39368
373778	-1205	439	590	-0.4526629	0.08678017	355.8006	0	11.46	4003	1464	1500	1350	1206	0.02	1.29564	3	10	0.08	2800	353.3486	40.92394	-91.39368
373827	-1851	-1220	295	-1.978592	0.2531744	354.9187	0	11.46	4004	1455	1495	1337	1253	0.02	1.302647	3	10	0.08	2800	350.1284	40.92394	-91.39368
373920	-4308	-1243	1623	-8.835415	4.432281	353.361	0	11.46	4003	1447	1529	1349	1263	0.02	1.324739	3	10	0.08	2800	345.8321	40.92394	-91.39368
374088	-85	566	-591	-14.37622	0.4387051	352.473	0	11.46	4003	1334	1240	1488	1510	0.02	1.354022	3	10	0.08	2800	345.8325	40.92394	-91.39368
374162	-1598	435	490	-15.02782	0.5217053	352.0586	0	11.46	4003	1554	1296	1246	1464	0.02	1.379568	3	10	0.08	2800	349.1679	40.92394	-91.39368
374201	-1944	1106	-370	-17.07277	0.04057703	351.6681	0	11.46	4003	1306	1744	1482	1024	0.02	1.396633	3	10	0.08	2800	349.2713	40.92394	-91.39368
374340	2792	1484	65	-16.04631	-1.566522	350.8662	0	11.46	4002	1505	1681	1277	1069	0.02	1.446164	3	10	0.08	2800	351.7445	40.92394	-91.39368
374437	3368	636	31	-6.596592	-1.942638	350.3965	0	11.46	4003	1324	1310	1408	1374	0.02	1.473424	3	10	0.08	2800	353.3396	40.92394	-91.39368
374470	-148	321	81	-5.843164	-2.416933	350.1573	0	11.46	4004	1344	926	1364	1750	0.02	1.502499	3	10	0.08	2800	349.4583	40.92394	-91.39368
374609	1892	2015	-200	-5.326814	-4.684701	350.262	0	11.51	4002	1429	1565	1233	1041	0.02	1.565364	3	10	0.08	2800	350.1033	40.92394	-91.39368
374698	496	-95	-235	-0.8202347	-5.870858	351.3631	0	11.51	4003	1138	1200	1528	1402	0.02	1.60016	3	10	0.08	2800	353.0697	40.92394	-91.39368
374793	-1203	-3832	50	-1.842715	-3.411492	351.4071	0	11.51	4003	1387	1249	1315	1389	0.02	1.657985	3	10	0.08	2800	353.1454	40.92394	-91.39368
374893	543	-1214	-25	-1.155442	2.925475	351.2393	0	11.51	4004	1305	1191	1447	1471	0.02	1.690903	3	10	0.08	2800	347.9768	40.92394	-91.39368
375033	16	976	1022	-0.9105291	1.79149	350.1187	0	11.51	4003	1214	1390	1518	1338	0.02	1.765636	3	10	0.08	2800	344.6151	40.92394	-91.39367
375181	-108	1209	1304	-0.4800655	-0.1042971	348.9344	0	11.51	4004	1194	1282	1496	1400	0.02	1.835387	8	10	0.08	2800	339.0177	40.92394	-91.39367
375364	605	-1096	-1890	-5.805351	-3.079979	350.8456	0	11.51	4002	1313	1163	1425	1459	0.02	1.911361	8	10	0.08	2800	345.5669	40.92394	-91.39366
375438	-1578	-134	-259	-5.749423	-1.953454	351.1944	0	11.68	4004	1221	1269	1441	1321	0.02	1.944958	8	10	0.08	2800	345.9908	40.92394	-91.39366
375518	-1223	1318	139	-6.996931	-2.135904	351.0489	0	11.68	4003	1395	1339	1269	1265	0.02	1.984149	8	10	0.08	2800	346.196	40.92394	-91.39366
375658	9	-1088	319	-6.66644	-3.329973	350.5887	0	11.68	4004	1449	1357	1233	1285	0.02	2.04196	8	10	0.08	2800	349.489	40.92393	-91.39365
375752	-1735	-3032	702	-7.786006	-1.195777	349.976	0	11.68	4003	1359	1339	1353	1365	0.02	2.079635	8	10	0.08	2800	349.6136	40.92393	-91.39365
375862	-281	1983	256	-7.593421	-3.016989	349.6373	0	11.68	4002	1352	1248	1396	1440	0.02	2.09748	8	10	0.08	2800	347.0381	40.92393	-91.39365
376097	-648	-670	-869	-9.841903	-0.457322	349.8138	0	11.68	4003	1206	1132	1512	1514	0.02	2.141478	8	10	0.08	2800	350.5149	40.92393	-91.39365
376200	-956	2266	497	-10.00615	-5.233107	349.6835	0	11.68	4003	1343	1379	1383	1339	0.02	2.153533	8	10	0.08	2800	352.3127	40.92393	-91.39365
376246	-763	-687	23	-11.66886	-6.625628	349.2502	0	11.68	4003	1363	1411	1369	1281	0.02	2.155595	8	10	0.08	2800	357.4287	40.92393	-91.39365
376357	74	-3697	335	-11.22565	-3.459242	1.611755	0	11.51	4003	1402	1314	1348	1404	0.02	2.161196	8	10	0.08	2800	359.4374	40.92393	-91.39365
376462	-388	1792	-657	-12.24212	-0.6079472	1.085363	0	11.51	4003	1334	1332	1434	1384	0.02	2.158873	8	10	0.08	2800	357.1384	40.92393	-91.39364
376652	1808	1809	-397	-12.1891	-4.764474	1.112657	0	11.51	4004	1166	1684	1664	1086	0.02	2.115654	8	10	0.08	2800	6.190796	40.92393	-91.39363
376705	836	2013	-1478	-10.64652	-7.020548	2.079432	0	11.51	4003	1745	1025	1069	1709	0.02	2.107594	8	10	0.08	2800	8.55484	40.92393	-91.39363
