time(ms)	gyro_x(deg/s)	gyro_y(deg/s)	gyro_z(deg/s)	orientation_roll(deg)	orientation_pitch(deg)	orientation_yaw(deg)	throttle	battery(V)	loop_time(uS)	pid_output_roll	pid_output_pitch	pid_output_yaw	pid_output_throttle	ultrasonic_alt	baro_alt	flight_mode	p_gain_altitude	i_gain_altitude	d_gain_altitude	compass_heading	latitude	longitude
29	9	-2	0	-3.906404	-1.137164	196.5849	0	12.59	4003	1000	1000	1000	1000	0.02	-0.777384	1	10	0.08	2800	106.8559	40.92397	-91.39368
161	19	0	0	-3.908402	-1.138921	196.5859	0	12.59	4004	1000	1000	1000	1000	0.02	-0.7830325	1	10	0.08	2800	106.8559	40.92397	-91.39368
279	12	-2	0	-3.908179	-1.137342	196.585	0	12.53	4002	1000	1000	1000	1000	0.02	-0.7817016	1	10	0.08	2800	106.8559	40.92397	-91.39368
335	10	2	-2	-3.908853	-1.135562	196.5853	0	12.53	4004	1000	1000	1000	1000	0.02	-0.7781072	1	10	0.08	2800	106.8559	40.92397	-91.39368
469	16	3	-4	-3.912217	-1.139155	196.5841	0	12.53	4002	1000	1000	1000	1000	0.02	-0.7693292	1	10	0.08	2800	106.8559	40.92397	-91.39368
628	13	2	0	-3.914342	-1.136131	196.5845	0	12.53	4004	1000	1000	1000	1000	0.02	-0.7610519	1	10	0.08	2800	106.8559	40.92397	-91.39368
711	11	0	-3	-3.911023	-1.137265	196.5856	0	12.53	4002	1000	1000	1000	1000	0.02	-0.761243	1	10	0.08	2800	106.8559	40.92397	-91.39368
779	11	1	-2	-3.910153	-1.138806	196.5856	0	12.53	4002	1000	1000	1000	1000	0.02	-0.7589993	1	10	0.08	2800	106.8559	40.92397	-91.39368
929	14	-1	0	-3.910481	-1.138156	196.5845	0	12.53	4002	1000	1000	1000	1000	0.02	-0.7652693	1	10	0.08	2800	106.8559	40.92397	-91.39368
1059	14	0	0	-3.909974	-1.137787	196.5842	0	12.53	4002	1000	1000	1000	1000	0.02	-0.775595	1	10	0.08	2800	106.8559	40.92397	-91.39368
1140	9	0	-1	-3.909871	-1.136473	196.5838	0	12.53	4002	1000	1000	1000	1000	0.02	-0.7832455	1	10	0.08	2800	106.8559	40.92397	-91.39368
1215	9	-4	5	-3.909452	-1.133987	196.5839	0	12.65	4003	1000	1000	1000	1000	0.02	-0.784708	1	10	0.08	2800	106.8559	40.92397	-91.39368
1391	10	-3	4	-3.911489	-1.136017	196.5836	0	12.65	4004	1000	1000	1000	1000	0.02	-0.8022889	1	10	0.08	2800	106.8559	40.92397	-91.39368
1434	16	-1	-4	-3.912394	-1.135854	196.5841	0	12.65	4004	1000	1000	1000	1000	0.02	-0.8092894	1	10	0.08	2800	106.8559	40.92397	-91.39368
1557	10	1	2	-3.910758	-1.134084	196.5844	0	12.65	4003	1000	1000	1000	1000	0.02	-0.822199	1	10	0.08	2800	106.8559	40.92397	-91.39368
1631	17	0	-2	-3.90952	-1.134269	196.584	0	12.65	4004	1000	1000	1000	1000	0.02	-0.8239606	1	10	0.08	2800	106.8559	40.92397	-91.39368
1753	14	3	0	-3.907762	-1.131535	196.5843	0	12.65	4003	1000	1000	1000	1000	0.02	-0.819652	1	10	0.08	2800	106.8559	40.92397	-91.39368
1833	16	-3	1	-3.907619	-1.131819	196.5847	0	12.65	4004	1000	1000	1000	1000	0.02	-0.8162748	1	10	0.08	2800	106.8559	40.92397	-91.39368
1937	16	2	0	-3.907462	-1.133386	196.5845	0	12.65	4004	1000	1000	1000	1000	0.02	-0.8124187	1	10	0.08	2800	106.8559	40.92397	-91.39368
2036	13	3	3	-3.913347	-1.132687	196.5832	0	12.65	4003	1000	1000	1000	1000	0.02	-0.7993212	1	10	0.08	2800	106.8559	40.92397	-91.39368
2143	12	-4	0	-3.913532	-1.132293	196.582	0	12.59	4005	1000	1000	1000	1000	0.02	-0.7897803	1	10	0.08	2800	106.8559	40.92397	-91.39368
2310	9	2	-2	-3.910781	-1.129862	196.5811	0	12.59	4003	1000	1000	1000	1000	0.02	-0.7769924	3	10	0.08	2800	106.8559	40.92397	-91.39368
2466	14	2	0	-3.914972	-1.133732	196.5827	0	12.59	4003	1000	1000	1000	1000	0.02	-0.7759882	3	10	0.08	2800	106.8559	40.92397	-91.39368
2588	11	0	0	-3.912091	-1.134051	196.5817	0	12.59	4004	1000	1000	1000	1000	0.02	-0.7793332	3	10	0.08	2800	106.8559	40.92397	-91.39368
2654	14	0	-4	-3.91119	-1.135598	196.5813	0	12.59	4003	1000	1000	1000	1000	0.02	-0.7786886	3	10	0.08	2800	106.8559	40.92397	-91.39367
2740	13	0	-2	-3.913358	-1.136458	196.5819	0	12.59	4003	1000	1000	1000	1000	0.02	-0.7744912	3	10	0.08	2800	106.8559	40.92397	-91.39367
2894	15	3	-21	-3.90748	-1.142184	196.5829	0	12.59	4002	1105	1045	1031	1091	0.02	-0.7739372	3	10	0.08	2800	106.8559	40.92397	-91.39367
2945	7	-1	-14	-3.910095	-1.139669	196.5866	0	12.59	4002	1128	1058	1036	1106	0.02	-0.7705818	3	10	0.08	2800	106.8559	40.92397	-91.39367
3117	35	19	-67	-3.898446	-1.145367	196.5914	0	12.7	4002	1144	1054	1036	1130	0.02	-0.7654808	3	10	0.08	2800	106.8559	40.92397	-91.39367
3274	26	-25	-15	-3.90567	-1.136115	196.5851	0	12.7	4004	1000	1000	1000	1000	0.02	-0.7475323	3	10	0.08	2800	106.8559	40.92397	-91.39367
3402	57	4	-47	-3.902505	-1.13028	196.5855	0	12.7	4003	1000	1000	1000	1000	0.02	-0.7433324	3	10	0.08	2800	106.8559	40.92397	-91.39367
3476	12	-3	-67	-3.900383	-1.133817	196.5844	0	12.7	4003	1000	1000	1000	1000	0.02	-0.7431786	3	10	0.08	2800	106.8559	40.92397	-91.39367
3573	25	0	24	-3.897862	-1.132187	196.5814	0	12.7	4004	1000	1000	1000	1000	0.02	-0.7390915	3	10	0.08	2800	106.8559	40.92397	-91.39367
3657	-16	-8	-4	-3.895087	-1.13635	196.5818	0	12.7	4004	1131	1081	1073	1123	0.02	-0.7366902	3	10	0.08	2800	106.8559	40.92397	-91.39367
3759	-14	-40	32	-3.897076	-1.138365	196.5752	0	12.7	4004	1148	1068	1072	1152	0.02	-0.7381018	3	10	0.08	2800	106.8559	40.92397	-91.39367
3876	48	38	49	-3.886581	-1.148835	196.5762	0	12.7	4004	1173	1089	1089	1173	0.02	-0.732392	3	10	0.08	2800	106.8559	40.92397	-91.39367
3964	35	-60	-33	-3.884582	-1.13799	196.5837	0	12.7	4002	1214	1096	1062	1180	0.02	-0.723393	3	10	0.08	2800	106.8559	40.92397	-91.39367
4152	88	69	-27	-3.870326	-1.132867	196.5508	0	12.65	4003	1237	1063	1041	1215	0.02	-0.6871996	3	10	0.08	2800	106.8559	40.92397	-91.39367
4251	83	-77	141	-3.881985	-1.125645	196.539	0	12.65	4003	1225	1103	1051	1173	0.02	-0.6702375	3	10	0.08	2800	106.8559	40.92397	-91.39367
4342	-79	121	123	-3.886409	-1.121303	196.5298	0	12.65	4004	1228	1078	1046	1196	0.02	-0.6402556	3	10	0.08	2800	106.8559	40.92397	-91.39367
4415	-62	64	38	-3.895175	-1.168414	196.5152	0	12.65	4002	1222	1076	1052	1198	0.02	-0.6286107	3	10	0.08	2800	106.8559	40.92397	-91.39367
4488	103	-25	-63	-3.880453	-1.215914	196.5063	0	12.65	4002	1347	1191	1181	1333	0.02	-0.623359	3	10	0.08	2800	106.8559	40.92397	-91.39367
4588	445	-243	-305	-3.738969	-1.376454	196.3497	0	12.65	4004	1372	1280	1306	1393	0.02	-0.6184518	3	10	0.08	2800	106.8559	40.92397	-91.39367
4701	5065	-1888	1311	2.799795	-0.3346309	195.205	0	12.65	4003	1324	1320	1390	1446	0.02	-0.6058467	3	10	0.08	2800	106.8559	40.92397	-91.39367
4741	5065	-1888	1311	2.799795	-0.3346309	194.4516	0	12.65	4003	1298	1378	1446	1442	0.02	-0.5963556	3	10	0.08	2800	106.8559	40.92397	-91.39367
4858	-976	1475	-5	6.387063	-0.7546734	191.4032	0	12.25	4004	1220	1322	1702	1664	0.02	-0.5749712	3	10	0.08	2800	106.8559	40.92397	-91.39367
4943	-949	1159	214	4.786401	-1.536784	191.3732	0	12.25	4004	1284	1322	1592	1590	0.02	-0.5377906	3	10	0.08	2800	106.8559	40.92397	-91.39367
5093	-2255	1335	-1461	3.056429	-3.943133	192.6443	0	12.25	4004	1127	1547	1583	1215	0.02	-0.4814115	3	10	0.08	2800	106.8559	40.92397	-91.39367
5157	-2821	-841	-1137	0.2690019	-6.047062	194.6024	0	12.25	4003	1460	1226	1152	1494	0.02	-0.4156244	3	10	0.08	2800	106.8559	40.92397	-91.39367
5323	1321	-64	-1612	1.626098	0.59294	199.4763	0	12.25	4003	1158	1356	1476	1338	0.02	-0.2742574	3	10	0.08	2800	106.8559	40.92397	-91.39367
5419	-556	1507	-3184	2.333158	-1.924513	203.3142	0	12.25	4003	1257	1375	1425	1283	0.02	-0.114228	3	10	0.08	2800	106.8559	40.92397	-91.39367
5545	-119	1025	-2786	1.016006	-4.189786	208.3699	0	12.25	4003	1174	1328	1482	1260	0.02	-0.04227329	3	10	0.08	2800	106.8559	40.92397	-91.39367
5594	734	642	-1532	1.144881	-4.550432	209.3899	0	12.25	4003	1193	1307	1439	1281	0.02	0.03019539	3	10	0.08	2800	106.8559	40.92397	-91.39367
5643	435	1511	-1288	1.689242	-5.11593	211.2029	0	12.25	4003	1172	1270	1462	1316	0.02	0.04902949	3	10	0.08	2800	106.8559	40.92397	-91.39367
5807	-269	748	-379	-0.6802642	-10.34952	213.6187	0	12.65	4003	1294	1246	1346	1350	0.02	0.1938561	3	10	0.08	2800	106.8559	40.92397	-91.39367
5967	399	-3825	305	-1.045454	-7.724946	214.2347	0	12.65	4002	1118	1206	1512	1384	0.02	0.3890507	3	10	0.08	2800	106.8559	40.92397	-91.39367
6131	-392	-368	-79	-0.3925441	-2.142004	212.9335	0	12.65	4003	1371	1143	1271	1455	0.02	0.5672866	3	10	0.08	2800	106.8559	40.92396	-91.39367
6248	-62	-1584	-837	-1.044955	-0.3523621	212.463	0	12.65	4004	1282	1284	1402	1352	0.02	0.6556209	3	10	0.08	2800	106.8559	40.92396	-91.39367
6325	-12	-951	-352	-0.4994618	0.8951918	212.3891	0	12.65	4004	1276	1360	1416	1304	0.02	0.7086895	3	10	0.08	2800	106.8559	40.92396	-91.39366
6366	-860	-271	727	-0.7340459	0.9094821	212.1662	0	12.65	4004	1288	1256	1404	1412	0.02	0.7265813	3	10	0.08	2800	106.8559	40.92396	-91.39366
6464	-141	571	-496	-1.660451	0.7477494	211.9008	0	12.65	4003	1341	1351	1411	1369	0.02	0.8105885	3	10	0.08	2800	106.8559	40.92396	-91.39366
6564	-1047	-143	-157	-1.651993	0.1148006	211.5056	0	12.65	4003	1373	1279	1375	1445	0.02	0.8401198	3	10	0.08	2800	106.8559	40.92396	-91.39366
6661	2072	879	816	-0.603373	0.1410929	211.0954	0	12.65	4002	1135	1545	1549	1143	0.02	0.8749352	3	10	0.08	2800	106.8559	40.92396	-91.39366
6798	-191	268	-1235	0.2715359	-2.589017	212.6615	0	12.42	4004	1376	1226	1304	1378	0.02	0.9102858	3	10	0.08	2800	106.8559	40.92396	-91.39366
6850	-317	64	-429	0.1348074	-2.516881	213.0387	0	12.42	4003	1204	1450	1480	1198	0.02	0.9111624	3	10	0.08	2800	106.8559	40.92396	-91.39366
6954	-196	1853	-1166	-0.9796421	-4.532583	213.8356	0	12.42	4004	1416	1374	1372	1350	0.02	0.9048885	3	10	0.08	2800	106.8559	40.92396	-91.39366
7071	782	447	-626	1.08836	-9.028456	214.7839	0	12.42	4002	1373	1331	1413	1411	0.02	0.8971601	3	10	0.08	2800	106.8559	40.92396	-91.39366
7229	-2145	2127	-739	-0.5379567	-9.765422	214.9241	0	12.42	4003	1533	1377	1261	1353	0.02	0.8770757	3	10	0.08	2800	106.8559	40.92395	-91.39366
7380	-968	-15	992	0.4994733	-13.88327	214.5354	0	12.42	4002	1403	1205	1399	1513	0.02	0.8451857	3	10	0.08	2800	106.8559	40.92395	-91.39366
7453	-2359	-3885	-466	0.6007531	-10.97189	214.72	0	12.42	4003	1506	666	1258	2018	0.02	0.8309088	3	10	0.08	2800	106.8559	40.92395	-91.39366
7582	-456	-3125	-646	-3.083081	-4.531971	215.2874	0	12.42	4004	1279	1537	1475	1157	0.02	0.8071051	3	10	0.08	2800	106.8559	40.92395	-91.39366
7732	-2	1346	-255	2.166235	-4.502698	215.6246	0	12.31	4002	1421	1077	1345	1613	0.02	0.8049852	3	10	0.08	2800	106.8559	40.92395	-91.39366
7827	-709	-24	191	2.01782	-5.862173	215.3336	0	12.31	4003	1290	1204	1464	1502	0.02	0.805083	3	10	0.08	2800	106.8559	40.92395	-91.39366
7863	-1305	-1020	144	1.849868	-5.652946	214.9705	0	12.31	4004	1351	1033	1405	1671	0.02	0.8030801	3	10	0.08	2800	106.8559	40.92395	-91.39366
8045	421	145	1684	1.404953	-8.995711	212.2724	0	12.31	4002	1176	1448	1534	1294	0.02	0.7778699	3	10	0.08	2800	106.8559	40.92395	-91.39366
8188	70	-1033	633	-0.3578605	-5.914265	210.331	0	12.31	4002	1243	1309	1493	1411	0.02	0.7513314	3	10	0.08	2800	106.8559	40.92395	-91.39366
8334	205	35	-1518	1.678565	-5.883728	211.2045	0	12.31	4003	1374	1184	1384	1510	0.02	0.6971523	3	10	0.08	2800	106.8559	40.92395	-91.39366
8455	-313	-2081	-1409	0.7300379	-3.01203	213.2072	0	12.31	4003	1339	1263	1423	1419	0.02	0.661256	3	10	0.08	2800	106.8559	40.92395	-91.39366
8514	294	-1900	230	0.6879221	-1.876155	213.5931	0	12.31	4003	1262	1310	1478	1394	0.02	0.6345099	3	10	0.08	2800	106.8559	40.92395	-91.39366
8598	591	569	619	1.181075	-1.052997	214.5486	0	12.14	4003	1417	1439	1335	1253	0.02	0.6128832	3	10	0.08	2800	106.8559	40.92395	-91.39366
8751	-2111	-849	-606	0.2609025	-1.277367	215.2224	0	12.14	4004	1290	1264	1464	1438	0.02	0.5637794	3	10	0.08	2800	106.8559	40.92395	-91.39366
8829	2690	-463	-1388	-0.5959972	-0.6719779	215.3309	0	12.14	4004	1367	1419	1491	1359	0.02	0.5490321	3	10	0.08	2800	106.8559	40.92395	-91.39365
8947	868	2132	-1400	4.365974	-5.334067	215.7513	0	12.14	4004	1497	1567	1515	1417	0.02	0.5048297	3	10	0.08	2800	106.8559	40.92395	-91.39365
8964	868	2132	-1400	4.365974	-5.334067	215.7513	0	12.14	4004	1649	1387	1389	1579	0.02	0.4914061	3	10	0.08	2800	106.8559	40.92395	-91.39365
9171	1300	1397	-1891	13.90345	-15.35518	218.158	0	12.14	4002	1298	1454	1366	1118	0.02	0.4665145	3	10	0.08	2800	106.8559	40.92396	-91.39365
9302	-1894	-1937	-1447	13.5841	-15.76095	221.3144	0	12.14	4002	1177	1357	1445	1097	0.02	0.4616533	3	10	0.08	2800	106.8559	40.92396	-91.39365
9447	-2094	-4829	-348	-0.6245376	0.6232463	224.1666	0	12.14	4002	1228	986	1496	1486	0.02	0.4834307	3	10	0.08	2800	106.8559	40.92396	-91.39365
9463	-2094	-4829	-348	-0.6245376	0.6232463	224.1666	0	12.14	4002	1409	1029	1325	1437	0.02	0.4834307	3	10	0.08	2800	106.8559	40.92396	-91.39365
9567	87	1886	1656	-0.5514629	1.19001	222.0742	0	12.36	4002	1346	1194	1342	1314	0.02	0.5255103	3	10	0.08	2800	106.8559	40.92396	-91.39365
9671	-568	-1061	1888	-1.768062	-0.8168901	217.8653	0	12.36	4004	1339	1265	1343	1281	0.02	0.5550021	3	10	0.08	2800	106.8559	40.92396	-91.39365
9831	2685	1772	2049	0.08671729	-1.0118	213.2678	0	12.36	4003	1253	1287	1435	1289	0.02	0.6248874	3	10	0.08	2800	106.8559	40.92396	-91.39365
9876	2685	1772	2049	0.08671729	-1.0118	213.2678	0	12.36	4003	1304	1358	1388	1218	0.02	0.6517041	3	10	0.08	2800	106.8559	40.92396	-91.39365
9964	391	-1184	2524	4.818592	-4.577695	206.845	0	12.36	4003	1301	1417	1421	1361	0.02	0.6926122	3	10	0.08	2800	106.8559	40.92396	-91.39365
10079	-1817	-1177	2329	3.921383	-2.492782	202.9131	0	12.36	4004	1377	1231	1461	1587	0.02	0.7359768	3	10	0.08	2800	106.8559	40.92396	-91.39365
10236	-2249	1079	1417	1.230444	-2.239083	197.1503	0	12.36	4002	1307	1673	1679	1341	0.02	0.7760136	3	10	0.08	2800	106.8559	40.92396	-91.39365
10261	-1069	1551	1248	0.5207394	-2.692627	196.3627	0	12.36	4003	1307	1673	1679	1341	0.02	0.7837207	3	10	0.08	2800	106.8559	40.92396	-91.39365
10406	4004	-1255	327	0.9148069	-3.285491	194.0857	0	12.19	4003	1275	1315	1425	1349	0.02	0.831593	3	10	0.08	2800	106.8559	40.92396	-91.39365
10457	3017	-734	593	2.946387	-3.011921	193.9059	0	12.19	4004	1215	1117	1421	1519	0.02	0.8502076	3	10	0.08	2800	106.8559	40.92396	-91.39365
10588	2918	357	-673	7.277047	-2.728626	194.2817	0	12.19	4003	1173	1321	1331	1131	0.02	0.891818	3	10	0.08	2800	106.8559	40.92396	-91.39365
10653	1576	-857	-1129	9.758903	-3.159461	195.2038	0	12.19	4003	1264	1126	1216	1294	0.02	0.9010237	3	10	0.08	2800	106.8559	40.92396	-91.39365
10826	-1495	-1360	-257	9.761579	1.322605	196.3688	0	12.19	4004	1209	1245	1313	1245	0.02	0.9866825	3	10	0.08	2800	106.8559	40.92396	-91.39365
10937	-2204	299	310	2.903276	1.13187	196.1163	0	12.19	4004	1260	1082	1288	1426	0.02	1.048483	3	10	0.08	2800	106.8559	40.92396	-91.39365
10981	-1074	306	376	1.858289	0.9484655	196.0445	0	12.19	4003	1289	1289	1279	1259	0.02	1.074956	3	10	0.08	2800	106.8559	40.92396	-91.39365
11102	-1038	1387	76	0.8397499	-1.505221	195.3099	0	12.19	4002	1329	1469	1469	1329	0.02	1.157393	3	10	0.08	2800	106.8559	40.92396	-91.39365
11203	-610	136	544	-0.0153336	-1.910766	194.851	0	12.19	4003	1473	1689	1523	1327	0.02	1.188894	3	10	0.08	2800	106.8559	40.92396	-91.39365
11321	1814	-218	456	1.969714	-2.784599	193.6037	0	11.85	4003	1323	1627	1759	1455	0.02	1.234362	3	10	0.08	2800	106.8559	40.92396	-91.39365
11388	312	1587	1103	2.428469	-3.392904	193.3242	0	11.85	4008	1734	1248	1292	1774	0.02	1.245648	3	10	0.08	2800	106.8559	40.92396	-91.39365
11513	2592	934	-617	2.789763	-7.627901	193.6823	0	11.85	4002	1078	1098	1372	1376	0.02	1.268664	3	10	0.08	2800	106.8559	40.92396	-91.39365
11573	1112	-1768	-457	4.94863	-6.51078	194.6205	0	11.85	4004	1034	1356	1256	974	0.02	1.27481	3	10	0.08	2800	106.8559	40.92396	-91.39365
11681	-3059	-1856	-1079	1.812253	-3.453324	196.3245	0	11.85	4004	1154	1130	1278	1290	0.02	1.275082	3	10	0.08	2800	106.8559	40.92396	-91.39365
11802	1152	267	-733	-1.041963	-0.7650398	197.824	0	11.85	4002	1210	1270	1408	1364	0.02	1.273401	3	10	0.08	2800	106.8559	40.92396	-91.39365
11896	-1129	2606	-1781	0.5075666	-3.219121	199.9923	0	11.85	4004	1716	1406	1304	1638	0.02	1.274142	3	10	0.08	2800	106.8559	40.92396	-91.39365
12009	869	-75	-1245	-0.1932152	-5.120729	201.6338	0	11.85	4003	1499	1571	1709	1641	0.02	1.283284	3	10	0.08	2800	106.8559	40.92395	-91.39365
12153	-1292	-622	-525	-0.2084083	-3.855852	202.5356	0	11.85	4003	1301	1367	1519	1457	0.02	1.302971	3	10	0.08	2800	106.8559	40.92395	-91.39365
12238	-883	-1794	-785	-0.87629	-2.063822	202.9507	0	12.19	4004	1269	977	1153	1433	0.02	1.326665	3	10	0.08	2800	106.8559	40.92395	-91.39365
12318	952	-1901	-1027	-0.2675424	3.515711	204.28	0	12.19	4002	1015	1085	1191	1089	0.02	1.342256	3	10	0.08	2800	106.8559	40.92395	-91.39365
12445	960	1946	-373	1.541923	2.750283	205.2567	0	12.19	4003	1075	1159	1159	1019	0.02	1.384811	3	10	0.08	2800	106.8559	40.92395	-91.39365
12543	-1845	397	-77	-0.4083354	-2.114667	206.144	0	12.19	4003	1082	1064	1168	1134	0.02	1.396352	3	10	0.08	2800	106.8559	40.92395	-91.39365
12659	-1040	-2643	158	-3.235652	-0.1917037	206.0761	0	12.19	4004	1217	1147	1201	1247	0.02	1.436488	3	10	0.08	2800	106.8559	40.92395	-91.39365
12767	1299	2458	1164	-0.9791221	1.005407	205.1689	0	12.19	4004	1436	1626	1632	1462	0.02	1.485294	3	10	0.08	2800	106.8559	40.92395	-91.39365
12904	-483	-1704	25	-0.5282319	-4.023384	204.4496	0	12.19	4002	1501	1569	1655	1571	0.02	1.533227	3	10	0.08	2800	106.8559	40.92395	-91.39365
13013	1447	-154	675	-0.7281708	-1.509658	204.0471	0	12.19	4004	1559	1557	1589	1567	0.02	1.599672	3	10	0.08	2800	106.8559	40.92395	-91.39365
13035	1447	-154	675	-0.7281708	-1.509658	204.0471	0	12.19	4004	1559	1557	1589	1567	0.02	1.608934	3	10	0.08	2800	106.8559	40.92395	-91.39365
13152	-835	-1340	221	0.6927904	-0.3578161	203.4238	0	12.19	4002	933	1349	1307	903	0.02	1.63903	3	10	0.08	2800	106.8559	40.92395	-91.39365
13237	46	108	-3	0.1571038	0.2409106	202.8619	0	12.19	4004	1397	1367	1615	1633	0.02	1.658822	3	10	0.08	2800	106.8559	40.92395	-91.39365
13342	-1955	1749	-232	0.1320572	-1.595769	202.4779	0	12.19	4002	1711	1165	1429	1963	0.02	1.684365	3	10	0.08	2800	106.8559	40.92395	-91.39365
13445	-433	1901	-97	-1.508874	-6.897449	201.5186	0	12.19	4004	1471	1631	1469	1337	0.02	1.703265	3	10	0.08	2800	106.8559	40.92395	-91.39365
13549	24	-1463	-850	-1.615526	-4.231771	202.9112	0	12.19	4003	1310	1616	1686	1376	0.02	1.739821	3	10	0.08	2800	106.8559	40.92395	-91.39365
13648	-185	2535	-1790	-1.893197	-6.948184	205.0152	0	12.19	4003	1116	1128	1236	1200	0.02	1.792263	3	10	0.08	2800	106.8559	40.92395	-91.39365
13752	-983	141	-1625	-3.792845	-8.660284	207.6722	0	12.19	4004	1177	951	1225	1431	0.02	1.823001	3	10	0.08	2800	106.8559	40.92395	-91.39365
13899	1327	3284	-1946	-3.168955	-9.818811	212.276	0	12.19	4002	1131	1133	1133	1079	0.02	1.869178	3	10	0.08	2800	106.8559	40.92395	-91.39365
13979	1265	4317	-1738	-2.133668	-13.9785	214.2803	0	12.19	4003	1378	1412	1342	1236	0.02	1.919526	3	10	0.08	2800	106.8559	40.92395	-91.39365
14139	1348	-1894	-1057	-2.620089	-6.916907	218.4878	0	12.14	4003	1863	1209	1243	1821	0.02	1.977516	3	10	0.08	2800	106.8559	40.92395	-91.39365
14245	-423	-1704	-306	-0.1145329	-5.455247	219.5165	0	12.14	4002	1518	1474	1510	1518	0.02	2.04834	3	10	0.08	2800	106.8559	40.92395	-91.39365
14303	-130	-2603	-591	-0.5010515	-3.961875	220.0222	0	12.14	4003	1134	1008	1374	1384	0.02	2.084123	3	10	0.08	2800	106.8559	40.92394	-91.39365
14403	-4	-3347	-1115	0.05388944	6.185034	222.6681	0	12.14	4002	1048	1128	1322	1146	0.02	2.140992	3	10	0.08	2800	106.8559	40.92394	-91.39365
14441	-13	-1813	-440	0.0193799	7.424849	223.0424	0	12.14	4003	1048	1004	1428	1380	0.02	2.161954	3	10	0.08	2800	106.8559	40.92394	-91.39365
14613	487	2126	927	-0.8111338	0.1447287	221.7704	0	12.14	4003	1476	1382	1524	1582	0.02	2.242747	3	10	0.08	2800	106.8559	40.92394	-91.39365
14659	-1069	1878	282	-0.7069146	-2.173407	220.4054	0	12.14	4004	1636	1524	1382	1490	0.02	2.268904	3	10	0.08	2800	106.8559	40.92394	-91.39365
14756	-2454	42	1220	-1.83991	-3.520629	218.1104	0	12.14	4004	1525	1085	1115	1535	0.02	2.296146	3	10	0.08	2800	106.8559	40.92394	-91.39365
14926	-82	-1166	177	-1.400891	0.3542982	216.2503	0	12.14	4003	1230	1220	1424	1454	0.02	2.431987	3	10	0.08	2800	106.8559	40.92394	-91.39365
15014	-383	2574	-419	-1.868576	-1.090605	215.6268	0	12.25	4004	1461	1513	1545	1493	0.02	2.48948	3	10	0.08	2800	106.8559	40.92394	-91.39365
15118	298	238	-20	-3.049164	-4.142841	214.3318	0	12.25	4002	1221	1131	1407	1505	0.02	2.542854	3	10	0.08	2800	106.8559	40.92394	-91.39365
15290	-865	-1482	-773	-5.656333	1.354255	213.9206	0	12.25	4003	1512	1390	1420	1538	0.02	2.64437	3	10	0.08	2800	106.8559	40.92394	-91.39365
15324	872	3133	177	-4.956457	0.1857158	213.9514	0	12.25	4004	1362	1666	1610	1366	0.02	2.653686	3	10	0.08	2800	106.8559	40.92394	-91.39365
15407	-1339	1818	-1358	-4.665591	-2.5405	214.2294	0	12.25	4002	1411	1435	1481	1493	0.02	2.712096	3	10	0.08	2800	106.8559	40.92394	-91.39365
15541	2018	505	-881	-2.731087	-1.342015	216.0791	0	12.25	4005	894	856	1222	1216	0.02	2.799403	3	10	0.08	2800	106.8559	40.92394	-91.39365
15638	793	3295	-583	0.3636992	-4.107759	218.0366	0	12.25	4002	1085	1037	1021	1041	0.02	2.831009	3	10	0.08	2800	106.8559	40.92394	-91.39365
15764	-95	3786	-58	0.0736181	-10.46292	218.8556	0	12.25	4003	1055	1137	1055	937	0.02	2.94167	3	10	0.08	2800	106.8559	40.92394	-91.39365
15809	-692	2838	-643	-0.4275386	-11.71222	219.1277	0	12.25	4003	1044	1124	1068	952	0.02	2.967885	3	10	0.08	2800	106.8559	40.92394	-91.39365
15972	-183	-6649	-332	-3.23874	-3.412311	220.1678	0	12.14	4004	963	897	1271	1285	0.02	3.038061	3	10	0.08	2800	106.8559	40.92394	-91.39365
15996	-74	-7572	-574	-3.296402	0.6221124	220.3966	0	12.14	4004	1008	866	1266	1356	0.02	3.04542	3	10	0.08	2800	106.8559	40.92394	-91.39365
16101	1234	1496	10	-1.116339	8.497137	220.9477	0	12.14	4003	1141	1125	1149	1117	0.02	3.074872	3	10	0.08	2800	106.8559	40.92394	-91.39365
16245	-624	5933	1094	-2.388356	-3.844703	220.2619	0	12.14	4004	1565	1589	1443	1403	0.02	3.102995	3	10	0.08	2800	106.8559	40.92394	-91.39365
16361	-397	-1726	299	-1.984053	-6.832689	219.0782	0	12.14	4002	1552	1686	1590	1468	0.02	3.162951	3	10	0.08	2800	106.8559	40.92394	-91.39365
16454	784	-997	-803	-1.145972	-2.177227	219.579	0	12.14	4004	1624	1438	1534	1660	0.02	3.152977	3	10	0.08	2800	106.8559	40.92395	-91.39365
16511	-602	-139	-905	0.2426317	-0.9143747	219.9246	0	12.14	4009	1584	1548	1534	1542	0.02	2.982269	3	10	0.08	2800	106.8559	40.92395	-91.39365
16590	-1473	-863	-505	-1.329092	-1.229961	220.2884	0	12.14	4003	1684	1462	1436	1602	0.02	2.822036	3	10	0.08	2800	106.8559	40.92395	-91.39365
16747	631	857	71	-0.1974462	0.8278066	218.0278	0	11.74	4004	1690	1350	1364	1724	0.02	2.482985	3	10	0.08	2800	106.8559	40.92395	-91.39365
16893	1248	-318	586	1.033433	1.20582	217.1914	0	11.74	4003	1046	1542	1420	932	0.02	2.26986	3	10	0.08	2800	106.8559	40.92395	-91.39365
16925	-40	-820	-1259	1.162105	1.672863	217.3811	0	11.74	4003	1129	1381	1439	1183	0.02	2.231754	3	10	0.08	2800	106.8559	40.92395	-91.39365
17134	2953	2515	-422	3.198686	-1.70875	218.9622	0	11.74	4004	1568	1994	1690	1276	0.02	1.955002	3	10	0.08	2800	106.8559	40.92395	-91.39365
17236	3444	-483	-6	10.46644	-3.19682	219.035	0	11.74	4002	1655	1499	1647	1759	0.02	1.759141	3	10	0.08	2800	106.8559	40.92395	-91.39365
17316	2303	218	-897	13.31274	-3.239831	219.2504	0	11.74	4002	1602	1622	1668	1612	0.02	1.710631	3	10	0.08	2800	106.8559	40.92395	-91.39365
17464	1540	-1136	-743	15.97026	-2.557076	220.2934	0	11.74	4002	1521	1577	1661	1561	0.02	1.589821	3	10	0.08	2800	106.8559	40.92395	-91.39365
17530	1603	-761	513	17.05809	-1.823762	220.6304	0	11.74	4003	1583	1383	1413	1553	0.02	1.5426	3	10	0.08	2800	106.8559	40.92395	-91.39365
17598	-1152	-822	293	15.74499	-0.9704863	220.5476	0	11.74	4004	972	1246	1282	1000	0.02	1.501975	3	10	0.08	2800	106.8559	40.92395	-91.39365
17670	-7410	295	698	8.535677	0.1000968	220.323	0	12.14	4004	1082	1112	1100	1038	0.02	1.459167	3	10	0.08	2800	106.8559	40.92395	-91.39365
17817	-12110	1120	878	-27.43657	-3.482754	218.137	0	12.14	4002	1254	964	1076	1354	0.02	1.432254	3	10	0.08	2800	106.8559	40.92395	-91.39365
17879	-6513	400	713	-32.12302	-4.099908	217.7126	0	12.14	4002	1128	1080	1262	1282	0.02	1.440091	3	10	0.08	2800	106.8559	40.92395	-91.39365
18024	1577	457	953	-29.10423	-3.312211	215.9423	0	12.14	4002	1403	1327	1457	1537	0.02	1.484042	3	10	0.08	2800	106.8559	40.92395	-91.39365
18092	5480	2451	245	-23.7955	-6.561922	215.7621	0	12.14	4003	1582	1724	1726	1536	0.02	1.539464	3	10	0.08	2800	106.8559	40.92394	-91.39365
18208	4792	-600	-569	-12.9777	-4.904421	216.6878	0	12.14	4002	1586	1510	1688	1752	0.02	1.584241	3	10	0.08	2800	106.8559	40.92394	-91.39365
18277	1852	-1527	-1488	-8.741826	-3.716026	217.4825	0	12.14	4003	1270	1298	1382	1334	0.02	1.631194	3	10	0.08	2800	106.8559	40.92394	-91.39365
18414	3307	-3221	-1841	-2.77224	1.786205	221.2785	0	12.14	4003	1085	1035	1235	1133	0.02	1.661392	3	10	0.08	2800	106.8559	40.92394	-91.39365
18489	3919	-2041	-1532	-0.5767577	3.241952	222.3348	0	12.14	4003	1026	886	1236	1228	0.02	1.672581	3	10	0.08	2800	106.8559	40.92394	-91.39365
18610	3178	3424	-152	11.88672	0.9611355	225.6129	0	12.14	4003	1002	1104	1212	1042	0.02	1.675642	3	10	0.08	2800	106.8559	40.92394	-91.39365
18710	-3506	3242	-364	10.59191	-3.058112	226.1775	0	12.14	4003	1327	1203	1319	1307	0.02	1.676718	3	10	0.08	2800	106.8559	40.92394	-91.39365
18849	-963	771	-9	1.335017	-3.036553	225.671	0	12.14	4003	1664	1590	1498	1476	0.02	1.675905	3	10	0.08	2800	106.8559	40.92394	-91.39365
18945	351	270	917	1.393031	-3.334626	224.7208	0	12.14	4002	1507	1257	1337	1499	0.02	1.679952	3	10	0.08	2800	106.8559	40.92394	-91.39365
19042	-241	-144	167	4.47569	-3.719656	222.8449	0	12.14	4004	1383	1037	1133	1295	0.02	1.675974	3	10	0.08	2800	106.8559	40.92394	-91.39365
19105	-8721	-1650	1357	-3.011268	-2.479313	221.1678	0	12.14	4003	1164	1454	1328	830	0.02	1.67156	3	10	0.08	2800	106.8559	40.92394	-91.39365
19170	-9573	-2929	1813	-8.300306	-1.119831	220.4205	0	12.14	4004	1311	899	1191	1327	0.02	1.666591	3	10	0.08	2800	106.8559	40.92394	-91.39365
19319	2693	-4196	3774	-17.10521	7.829948	212.8201	0	12.14	4003	1416	1336	1362	1390	0.02	1.640181	3	10	0.08	2800	106.8559	40.92394	-91.39365
19425	357	-1667	2863	-15.8246	8.981169	208.9167	0	12.14	4004	1657	1377	1365	1613	0.02	1.604654	3	10	0.08	2800	106.8559	40.92394	-91.39365
19547	1426	1926	2433	-14.75749	5.314861	201.2882	0	11.63	4003	1565	1571	1577	1611	0.02	1.534931	3	10	0.08	2800	106.8559	40.92394	-91.39365
19619	1628	2563	1301	-13.87107	3.562814	200.2329	0	11.63	4003	1460	1634	1624	1482	0.02	1.49448	3	10	0.08	2800	106.8559	40.92394	-91.39365
19701	3590	-736	1030	-5.901445	0.368249	196.869	0	11.63	4003	1264	1208	1452	1532	0.02	1.439488	3	10	0.08	2800	106.8559	40.92394	-91.39365
19852	2147	1897	368	-1.758443	1.270049	195.3738	0	11.63	4003	1175	1083	1151	1239	0.02	1.369023	3	10	0.08	2800	106.8559	40.92394	-91.39365
19925	3572	1603	193	0.6440634	-0.5304402	195.1644	0	11.63	4002	1103	1071	1209	1241	0.02	1.322547	3	10	0.08	2800	106.8559	40.92395	-91.39365
20008	7090	-554	-214	13.89542	-1.615881	195.4983	0	11.63	4003	1156	1294	1428	1290	0.02	1.273839	3	10	0.08	2800	106.8559	40.92395	-91.39365
20077	2988	-730	-430	18.67964	-0.9151419	195.6505	0	11.63	4004	1305	1275	1435	1453	0.02	1.23881	3	10	0.08	2800	106.8559	40.92395	-91.39365
20191	3895	3068	-346	21.59914	-2.708549	196.3102	0	11.63	4002	1439	1955	1677	1153	0.02	1.201772	3	10	0.08	2800	106.8559	40.92395	-91.39365
20260	1656	-335	-695	23.19764	-4.664182	197.2876	0	11.63	4003	1571	1729	1595	1405	0.02	1.164202	3	10	0.08	2800	106.8559	40.92395	-91.39365
20357	-1596	-1989	-1928	20.74179	-2.068055	198.9736	0	11.68	4004	1627	1459	1543	1639	0.02	1.136708	3	10	0.08	2800	106.8559	40.92395	-91.39365
20513	-3002	764	138	17.73435	-1.699476	201.253	0	11.68	4003	1373	1271	1493	1563	0.02	1.077435	3	10	0.08	2800	106.8559	40.92395	-91.39365
20660	-5020	-2373	-1356	0.6590933	-1.837795	203.9461	0	11.68	4003	1065	1063	1311	1205	0.02	1.067323	3	10	0.08	2800	106.8559	40.92395	-91.39365
20780	-8197	-2017	-583	-9.832354	2.020066	205.5836	0	11.68	4002	1346	1322	1436	1420	0.02	1.074811	3	10	0.08	2800	106.8559	40.92395	-91.39365
20855	-6877	2078	-1145	-21.79975	2.269267	207.0082	0	11.68	4002	1638	1368	1360	1642	0.02	1.078463	3	10	0.08	2800	106.8559	40.92395	-91.39365
21017	1537	3697	-2722	-27.81696	-2.365618	211.7299	0	11.68	4002	1471	1583	1495	1451	0.02	1.105239	3	10	0.08	2800	106.8559	40.92395	-91.39365
21148	5714	1911	-3189	-22.06647	-2.049278	218.8463	0	11.68	4002	1406	1536	1536	1406	0.02	1.071776	3	10	0.08	2800	106.8559	40.92395	-91.39365
21180	7224	1739	-2628	-18.28562	-2.1691	220.5874	0	11.68	4004	1238	1666	1684	1260	0.02	1.062832	3	10	0.08	2800	106.8559	40.92395	-91.39365
21295	9073	395	-3211	-0.5755338	-2.913528	227.6552	0	12.19	4002	1311	1317	1377	1195	0.02	1.008621	3	10	0.08	2800	106.8559	40.92395	-91.39365
21359	7854	520	-2377	3.782408	-3.235884	229.2958	0	12.19	4003	1212	1384	1470	1110	0.02	0.9771075	3	10	0.08	2800	106.8559	40.92395	-91.39365
21463	2151	-2206	-1727	10.7725	-2.121337	232.6918	0	12.19	4003	1335	1245	1517	1455	0.02	0.9480181	3	10	0.08	2800	106.8559	40.92395	-91.39365
21637	2141	1561	1200	16.65558	-2.453751	234.8716	0	12.19	4002	1427	1763	1649	1245	0.02	0.8620859	3	10	0.08	2800	106.8559	40.92395	-91.39365
21672	-397	1050	-486	16.78979	-2.939038	234.989	0	12.19	4004	1414	1628	1672	1370	0.02	0.852111	3	10	0.08	2800	106.8559	40.92395	-91.39365
21827	-4068	-2807	-1670	5.509092	-1.092394	236.6012	0	12.19	4004	1117	1471	1495	1037	0.02	0.8161017	3	10	0.08	2800	106.8559	40.92395	-91.39365
21940	-3067	348	204	0.5419229	0.8431426	237.8888	0	12.19	4004	1284	1016	1256	1284	0.02	0.8099971	3	10	0.08	2800	106.8559	40.92396	-91.39365
21963	-3067	348	204	0.5419229	0.8431426	237.8888	0	12.19	4004	1209	1087	1329	1215	0.02	0.8138267	3	10	0.08	2800	106.8559	40.92396	-91.39365
22190	2029	1660	2289	-2.226097	-2.450466	231.6649	0	12.19	4003	1072	1122	1448	1318	0.02	0.866117	3	10	0.08	2800	106.8559	40.92396	-91.39366
22381	2062	6003	2168	3.654922	-17.55892	225.456	0	12.42	4003	1470	1428	1410	1436	0.02	0.9353963	3	10	0.08	2800	106.8559	40.92396	-91.39366
22478	-479	1665	1324	6.247344	-23.25538	221.307	0	12.42	4003	1733	1405	1273	1617	0.02	0.9552262	3	10	0.08	2800	106.8559	40.92396	-91.39366
22533	572	-921	421	7.027277	-22.54727	220.3671	0	12.42	4004	1477	1693	1543	1311	0.02	0.9785798	3	10	0.08	2800	106.8559	40.92396	-91.39366
22607	-747	-2727	1282	6.880678	-21.03286	219.9469	0	12.42	4002	1594	1294	1436	1688	0.02	1.000889	3	10	0.08	2800	106.8559	40.92396	-91.39366
22708	-1460	-3222	387	4.903048	-12.01696	219.181	0	12.42	4002	1395	1189	1393	1583	0.02	1.043854	3	10	0.08	2800	106.8559	40.92396	-91.39366
22781	-4218	-2982	-836	1.719599	-8.166666	218.909	0	12.42	4003	1256	1448	1450	1170	0.02	1.050821	3	10	0.08	2800	106.8559	40.92396	-91.39366
22912	-10101	-4004	580	-10.83325	-2.526231	218.1279	0	12.42	4003	1212	990	1148	1294	0.02	1.090482	3	10	0.08	2800	106.8559	40.92396	-91.39366
23063	3461	865	1416	-20.62828	2.741812	215.2869	0	12.42	4004	1443	1471	1467	1375	0.02	1.108241	3	10	0.08	2800	106.8559	40.92395	-91.39367
23114	3440	3052	1129	-15.89036	-1.294706	213.121	0	12.31	4003	1488	1600	1542	1378	0.02	1.10805	3	10	0.08	2800	106.8559	40.92395	-91.39367
23263	3208	1284	511	-8.230506	-4.873859	210.3512	0	12.31	4004	1460	1658	1746	1572	0.02	1.106807	3	10	0.08	2800	106.8559	40.92395	-91.39367
23330	1492	-548	2125	-3.564621	-5.360178	208.2857	0	12.31	4004	1508	1474	1486	1524	0.02	1.105322	3	10	0.08	2800	106.8559	40.92395	-91.39367
23410	2403	3546	1882	-2.28382	-7.263964	206.9166	0	12.31	4004	1099	1691	1553	977	0.02	1.101698	3	10	0.08	2800	106.8559	40.92395	-91.39367
23457	799	5003	382	-1.794801	-9.462068	206.5936	0	12.31	4002	1430	1256	1112	1286	0.02	1.097216	3	10	0.08	2800	106.8559	40.92395	-91.39367
23566	2512	3912	-421	0.5667011	-15.83973	206.3079	0	12.31	4004	1200	1172	1284	1284	0.02	1.078488	3	10	0.08	2800	106.8559	40.92395	-91.39366
23699	1438	717	-486	6.406845	-19.96978	207.1229	0	12.31	4002	1207	1195	1307	1291	0.02	1.059945	3	10	0.08	2800	106.8559	40.92395	-91.39366
23797	428	1784	-603	6.008883	-21.23768	207.8351	0	12.31	4004	1323	1247	1425	1445	0.02	1.046567	3	10	0.08	2800	106.8559	40.92395	-91.39366
23911	130	1950	-709	6.359554	-25.8159	208.8194	0	12.31	4002	1368	1386	1482	1436	0.02	1.04485	3	10	0.08	2800	106.8559	40.92395	-91.39366
23968	226	2945	-1408	6.362327	-26.7936	209.0749	0	12.31	4002	1459	1439	1495	1475	0.02	1.058167	3	10	0.08	2800	106.8559	40.92395	-91.39366
24111	1185	629	-156	7.081659	-28.6781	210.6279	0	11.91	4003	1514	1410	1382	1386	0.02	1.084743	3	10	0.08	2800	106.8559	40.92395	-91.39366
24295	-2567	-640	-386	5.64883	-30.15406	213.209	0	11.91	4004	1394	1478	1520	1376	0.02	1.143206	3	10	0.08	2800	106.8559	40.92395	-91.39366
24409	-1538	-5067	-1427	1.56906	-26.1089	213.3204	0	11.91	4004	1693	1279	1303	1621	0.02	1.186161	3	10	0.08	2800	106.8559	40.92395	-91.39366
24504	-4007	-12575	545	-5.466965	-1.36456	213.5479	0	11.91	4003	1277	1393	1537	1349	0.02	1.231739	3	10	0.08	2800	106.8559	40.92395	-91.39365
24630	-416	-4449	843	-9.959068	11.68429	212.8734	0	11.91	4002	1214	1176	1318	1288	0.02	1.334365	3	10	0.08	2800	106.8559	40.92395	-91.39364
24683	579	-2983	1203	-9.351124	14.63977	212.1398	0	11.91	4002	1227	1031	1291	1451	0.02	1.355576	3	10	0.08	2800	106.8559	40.92395	-91.39364
24759	-179	-2206	1104	-10.33624	16.85789	210.8405	0	11.91	4003	1291	1275	1281	1281	0.02	1.556186	3	10	0.08	2800	106.8559	40.92395	-91.39364
24863	1795	-2578	1037	-9.40456	18.25266	209.8493	0	11.91	4002	1279	1309	1357	1327	0.02	1.605281	3	10	0.08	2800	106.8559	40.92395	-91.39362
25024	988	-1653	1067	-7.264568	19.46346	207.253	0	11.85	4003	1121	1299	1497	1339	0.02	1.679555	3	10	0.08	2800	106.8559	40.92395	-91.39362
25169	1722	-12	1386	-3.432375	21.958	205.6571	0	11.85	4002	1356	1706	1530	1216	0.02	1.699682	3	10	0.08	2800	106.8559	40.92395	-91.39362
25234	-205	65	-763	-3.337841	21.369	205.5732	0	11.85	4004	1389	1573	1543	1359	0.02	1.698819	3	10	0.08	2800	106.8559	40.92395	-91.39361
25317	1054	568	290	-1.91821	19.05417	205.8734	0	11.85	4003	1272	1806	1728	1202	0.02	1.673349	3	10	0.08	2800	106.8559	40.92395	-91.39361
25363	-48	-461	1236	-0.8648657	18.08562	205.9708	0	11.85	4002	1337	1413	1673	1589	0.02	1.663845	3	10	0.08	2800	106.8559	40.92394	-91.3936
25473	-839	-2032	-1640	-1.147305	19.08328	206.2376	0	11.85	4004	1568	1530	1444	1466	0.02	1.601035	3	10	0.08	2800	106.8559	40.92394	-91.3936
25581	-563	1549	-170	-2.550914	17.86963	206.275	0	11.85	4004	1583	1543	1425	1461	0.02	1.521101	3	10	0.08	2800	106.8559	40.92394	-91.3936
25736	106	867	-1141	-1.244684	15.30082	207.0761	0	11.85	4003	1579	1481	1453	1491	0.02	1.438278	3	10	0.08	2800	106.8559	40.92394	-91.3936
25895	1439	4053	-96	-0.9215619	11.45855	208.8706	0	11.74	4003	1393	1605	1641	1361	0.02	1.389672	3	10	0.08	2800	106.8559	40.92394	-91.3936
26028	-3112	-2146	-2544	-3.608921	8.02654	211.3689	0	11.74	4004	1405	1391	1625	1579	0.02	1.394322	3	10	0.08	2800	106.8559	40.92394	-91.3936
26180	326	4423	-1295	-3.117079	2.510131	213.7834	0	11.74	4004	1257	1325	1477	1373	0.02	1.480642	3	10	0.08	2800	106.8559	40.92394	-91.3936
26276	409	4294	-1532	-2.833987	-4.547547	214.7258	0	11.74	4004	1291	1493	1363	1041	0.02	1.521916	3	10	0.08	2800	106.8559	40.92394	-91.3936
26416	-576	1230	-423	-1.927904	-8.681348	216.7658	0	11.74	4002	1224	1116	1284	1256	0.02	1.762107	3	10	0.08	2800	106.8559	40.92394	-91.39361
26489	-79	3720	-76	-2.616825	-10.73724	217.2448	0	11.74	4003	1182	1092	1322	1288	0.02	1.809376	3	10	0.08	2800	106.8559	40.92394	-91.39362
26634	372	4343	607	-0.8502159	-22.46155	216.7765	0	11.74	4004	1204	1232	1256	1132	0.02	1.886436	3	10	0.08	2800	106.8559	40.92394	-91.39362
26698	-151	3010	626	-0.7741994	-23.91002	216.4226	0	11.74	4002	1219	1221	1233	1159	0.02	1.922116	3	10	0.08	2800	106.8559	40.92394	-91.39362
26803	-601	-1532	984	-0.8377284	-23.47277	214.2605	0	12.25	4004	1226	1162	1242	1282	0.02	1.979768	3	10	0.08	2800	106.8559	40.92394	-91.39362
26926	366	-2876	1485	-0.486688	-17.49732	211.9258	0	12.25	4004	1231	1195	1297	1317	0.02	2.014631	3	10	0.08	2800	106.8559	40.92394	-91.39362
27012	217	-4163	1362	0.4877466	-10.37407	209.5423	0	12.25	4002	1223	1307	1411	1335	0.02	2.03729	3	10	0.08	2800	106.8559	40.92394	-91.39362
27083	-1451	-4470	1787	0.1165117	-5.285003	207.8606	0	12.25	4002	1333	1163	1405	1595	0.02	2.043625	3	10	0.08	2800	106.8559	40.92394	-91.39362
27222	-1408	-1233	666	-3.285055	3.681757	205.3974	0	12.25	4004	1340	1504	1398	1262	0.02	2.074109	3	10	0.08	2800	106.8559	40.92394	-91.39363
27344	-389	1953	1117	-8.686936	4.555687	204.4622	0	12.25	4003	1292	1434	1544	1446	0.02	2.072355	3	10	0.08	2800	106.8559	40.92394	-91.39363
27398	1367	2883	-548	-8.513622	3.024659	204.511	0	12.25	4004	1491	1429	1451	1481	0.02	2.064817	3	10	0.08	2800	106.8559	40.92394	-91.39363
27494	1635	-889	557	-3.205838	-0.9200126	204.9774	0	12.25	4004	1334	1594	1584	1352	0.02	2.050321	3	10	0.08	2800	106.8559	40.92394	-91.39363
27570	1987	204	-742	-1.476017	-0.041747	205.514	0	12.25	4004	1586	1216	1320	1666	0.02	2.031961	3	10	0.08	2800	106.8559	40.92394	-91.39363
27747	1246	-585	125	0.4405192	-1.154573	206.4694	0	11.97	4002	1164	1448	1550	1246	0.02	1.956874	3	10	0.08	2800	106.8559	40.92394	-91.39363
27847	1831	-1978	-557	3.100026	0.1867925	207.7328	0	11.97	4002	1363	1185	1345	1455	0.02	1.921804	3	10	0.08	2800	106.8559	40.92394	-91.39364
27883	974	-1379	332	3.783604	0.9463817	207.9442	0	11.97	4003	1265	1267	1435	1385	0.02	1.914142	3	10	0.08	2800	106.8559	40.92394	-91.39364
28008	-95	-480	-650	2.687722	2.662199	208.1557	0	11.97	4004	1294	1304	1240	1190	0.02	1.878946	3	10	0.08	2800	106.8559	40.92394	-91.39365
28144	1851	79	262	4.936382	3.484898	208.4985	0	11.97	4003	1301	1251	1365	1391	0.02	1.833754	3	10	0.08	2800	106.8559	40.92395	-91.39365
28263	433	1958	592	4.116868	0.5806266	208.0569	0	11.97	4002	1299	1573	1467	1181	0.02	1.789102	3	10	0.08	2800	106.8559	40.92395	-91.39365
28325	968	1818	-327	4.477086	-1.639338	208.208	0	11.97	4002	1468	1350	1316	1221	0.02	1.772795	3	10	0.08	2800	106.8559	40.92395	-91.39365
28439	-808	-41	-1261	2.036801	-1.864427	208.969	0	11.97	4003	1300	1598	1508	1186	0.02	1.729083	3	10	0.08	2800	106.8559	40.92395	-91.39365
28591	-1291	-139	-1543	2.523749	-0.8505296	212.4449	0	11.97	4003	1725	1023	1119	1753	0.02	1.670661	3	10	0.08	2800	106.8559	40.92395	-91.39365
28775	534	-1375	-1831	0.8033491	0.7930995	216.6604	0	11.68	4003	1502	1196	1308	1538	0.02	1.593827	3	10	0.08	2800	106.8559	40.92395	-91.39365
28835	-1371	338	-1717	0.1818487	1.163319	218.1943	0	11.68	4002	1566	1206	1190	1434	0.02	1.578806	3	10	0.08	2800	106.8559	40.92395	-91.39365
28936	-78	-513	-1475	-0.4599368	0.7547065	219.3427	0	11.68	4004	1500	1286	1246	1348	0.02	1.533518	3	10	0.08	2800	106.8559	40.92395	-91.39365
28969	-78	-513	-205	-0.3814469	0.8347093	219.6398	0	11.68	4004	1298	1222	1424	1436	0.02	1.526073	3	10	0.08	2800	106.8559	40.92395	-91.39365
29090	868	-80	36	-1.226024	0.4754029	219.5995	0	11.68	4003	1339	1297	1373	1331	0.02	1.481524	3	10	0.08	2800	106.8559	40.92395	-91.39365
29173	634	-1083	-190	-0.6906232	0.783785	219.4229	0	11.68	4004	1226	1320	1486	1312	0.02	1.461449	3	10	0.08	2800	106.8559	40.92395	-91.39365
29330	-42	691	726	-0.6430362	1.570394	219.0516	0	11.68	4003	1173	1381	1615	1355	0.02	1.425406	3	10	0.08	2800	106.8559	40.92395	-91.39365
29392	-1180	2066	312	-1.013943	0.6276137	218.7141	0	11.68	4003	1618	1354	1300	1504	0.02	1.420916	3	10	0.08	2800	106.8559	40.92395	-91.39366
29478	245	1235	578	-1.123469	-2.060033	217.9188	0	11.68	4002	1549	1427	1459	1561	0.02	1.406813	3	10	0.08	2800	106.8559	40.92395	-91.39366
29594	-370	2240	-545	2.218443	-8.660864	218.3507	0	11.68	4004	1450	1522	1588	1452	0.02	1.392763	3	10	0.08	2800	106.8559	40.92395	-91.39366
29818	240	-1919	-3595	-1.386698	0.8351308	222.132	0	11.68	4002	1319	1103	1329	1337	0.02	1.404736	3	10	0.08	2800	106.8559	40.92395	-91.39366
29948	-1478	2773	-973	1.522341	-1.477761	226.4939	0	11.68	4002	1378	1246	1272	1224	0.02	1.430916	3	10	0.08	2800	106.8559	40.92395	-91.39366
30055	-1077	2028	-146	-2.100298	-4.867563	227.8939	0	11.68	4003	1261	1323	1457	1231	0.02	1.442731	3	10	0.08	2800	106.8559	40.92395	-91.39366
30155	601	2462	235	-1.618618	-7.740987	227.6897	0	11.68	4003	1391	1387	1365	1237	0.02	1.450603	3	10	0.08	2800	106.8559	40.92395	-91.39366
30175	122	2903	637	-1.618618	-7.740987	227.6897	0	11.68	4003	1391	1387	1365	1237	0.02	1.454516	3	10	0.08	2800	106.8559	40.92395	-91.39366
30334	333	1491	1246	-0.7418327	-12.92095	224.9332	0	11.68	4003	1449	1199	1289	1443	0.02	1.482597	3	10	0.08	2800	106.8559	40.92395	-91.39366
30394	1206	273	1688	0.08735888	-13.68189	223.4052	0	11.68	4002	1556	1350	1176	1294	0.02	1.493918	3	10	0.08	2800	106.8559	40.92395	-91.39366
30527	482	-3649	1604	1.775598	-7.103207	220.1407	0	11.97	4003	1390	1398	1444	1384	0.02	1.509595	3	10	0.08	2800	106.8559	40.92395	-91.39366
30604	1008	-952	1070	2.872567	-4.610987	218.6156	0	11.97	4003	1462	1628	1374	1172	0.02	1.509802	3	10	0.08	2800	106.8559	40.92395	-91.39366
30692	-1984	-793	1534	1.606011	-2.388095	215.9191	0	11.97	4004	1518	1328	1306	1468	0.02	1.508807	3	10	0.08	2800	106.8559	40.92395	-91.39366
30818	-1138	-750	1023	-0.3174915	-1.333618	211.8578	0	11.97	4002	1373	1343	1403	1473	0.02	1.515674	3	10	0.08	2800	106.8559	40.92395	-91.39366
30899	638	516	-432	-0.5322815	-1.232579	211.0245	0	11.97	4004	1401	1229	1403	1559	0.02	1.516271	3	10	0.08	2800	106.8559	40.92395	-91.39366
31014	-1940	1563	-46	-0.1025333	-6.856334	210.0603	0	11.97	4003	1426	1104	1366	1704	0.02	1.518925	3	10	0.08	2800	106.8559	40.92395	-91.39366
31086	686	2249	220	-0.3996074	-7.591226	210.1859	0	11.97	4002	1317	1403	1505	1387	0.02	1.528062	3	10	0.08	2800	106.8559	40.92395	-91.39366
31292	-2929	-3230	-580	1.689197	-13.22009	212.6977	0	11.97	4003	1287	1431	1495	1267	0.02	1.551839	3	10	0.08	2800	106.8559	40.92395	-91.39365
31364	20	-4998	790	-1.146954	-8.948937	213.4168	0	11.97	4003	1266	1188	1438	1444	0.02	1.560913	3	10	0.08	2800	106.8559	40.92395	-91.39365
31432	1030	-3472	-1508	-0.5241325	-2.050997	214.4888	0	11.85	4003	1242	1160	1402	1416	0.02	1.575453	3	10	0.08	2800	106.8559	40.92394	-91.39365
31505	-142	-1753	-890	0.5548174	0.5539547	215.0836	0	11.85	4002	1333	1193	1295	1355	0.02	1.58938	3	10	0.08	2800	106.8559	40.92394	-91.39365
31631	-891	572	-620	-1.028003	1.531402	215.4171	0	11.85	4002	1374	1244	1282	1340	0.02	1.614252	3	10	0.08	2800	106.8559	40.92394	-91.39365
