time(ms)	gyro_x(deg/s)	gyro_y(deg/s)	gyro_z(deg/s)	orientation_roll(deg)	orientation_pitch(deg)	orientation_yaw(deg)	throttle	battery(V)	loop_time(uS)	pid_output_roll	pid_output_pitch	pid_output_yaw	pid_output_throttle	ultrasonic_alt	baro_alt	flight_mode	p_gain_altitude	i_gain_altitude	d_gain_altitude	compass_heading	latitude	longitude
63957	631	-1019	-322	-0.2811778	27.28955	221.7633	0	11.51	4003	1155	1347	1661	1377	0.02	2.165124	3	10	0.08	2800	106.8559	40.92392	-91.39356
63995	-646	1684	-192	-0.343241	24.90144	221.3144	0	11.51	4004	1377	1527	1399	1157	0.02	2.177841	3	10	0.08	2800	106.8559	40.92392	-91.39356
64136	-492	808	32	-1.251101	18.26411	219.7137	0	11.51	4002	1361	1295	1399	1381	0.02	2.191028	3	10	0.08	2800	106.8559	40.92392	-91.39355
64247	1435	1204	1539	-0.6967105	15.71055	218.0826	0	11.51	4004	1444	1382	1592	1618	0.02	2.154545	3	10	0.08	2800	106.8559	40.92392	-91.39355
64360	-2455	-1628	389	0.163898	15.48957	215.9851	0	11.51	4004	1434	1214	1626	1838	0.02	2.096527	3	10	0.08	2800	106.8559	40.92392	-91.39354
64442	642	-1679	882	-1.754839	16.02142	214.9465	0	11.51	4004	1659	1401	1393	1591	0.02	2.050329	3	10	0.08	2800	106.8559	40.92392	-91.39354
64575	-63	-798	2090	-0.1812261	18.37084	212.0417	0	11.51	4004	1407	1751	1601	1255	0.02	1.962549	3	10	0.08	2800	106.8559	40.92392	-91.39354
64689	930	-1862	149	-2.758164	19.38521	210.9501	0	11.51	4003	1410	1348	1612	1642	0.02	1.878028	3	10	0.08	2800	106.8559	40.92392	-91.39354
64732	3789	-780	1702	-1.533729	19.79162	210.6143	0	11.51	4002	1272	1520	1750	1470	0.02	1.862535	3	10	0.08	2800	106.8559	40.92392	-91.39354
64870	-2467	-1292	-1167	-0.290633	19.74719	209.7137	0	11.51	4002	1569	1426	1490	1576	0.02	1.790099	3	10	0.08	2800	106.8559	40.92392	-91.39354
64968	926	656	283	-1.346953	19.59237	209.8951	0	11.51	4002	1602	1434	1426	1506	0.02	1.753835	3	10	0.08	2800	106.8559	40.92392	-91.39354
65030	953	443	159	-0.9708976	16.56457	210.2436	0	11.51	4003	1382	1378	1580	1524	0.02	1.76023	3	10	0.08	2800	106.8559	40.92392	-91.39354
65124	92	3184	-404	1.806724	9.913912	211.2329	0	11.51	4003	1572	1330	1302	1484	0.02	1.789494	3	10	0.08	2800	106.8559	40.92392	-91.39354
65195	-1289	2047	447	1.488728	6.646831	211.8774	0	11.51	4003	1436	1528	1426	1286	0.02	1.85483	3	10	0.08	2800	106.8559	40.92392	-91.39355
65362	1571	3508	-442	-0.7463717	2.234126	214.1389	0	11.51	4003	1528	1190	1236	1470	0.02	2.087557	3	10	0.08	2800	106.8559	40.92392	-91.39355
65410	-1539	5308	-2947	-0.9132003	-0.0764698	214.9332	0	11.51	4003	1376	1282	1210	1148	0.02	2.136584	3	10	0.08	2800	106.8559	40.92392	-91.39355
65503	-380	8950	-3358	-1.241104	-8.562366	218.1392	0	11.51	4003	1322	1144	1254	1208	0.02	2.188578	3	10	0.08	2800	106.8559	40.92392	-91.39355
65599	68	3214	-1370	-1.339151	-21.7909	223.0526	0	11.51	4003	1282	1092	1346	1264	0.02	2.249921	3	10	0.08	2800	106.8559	40.92392	-91.39357
65681	-434	1952	-1022	-1.570786	-22.51084	223.7212	0	11.51	4003	1238	1156	1320	1214	0.02	2.28959	3	10	0.08	2800	106.8559	40.92392	-91.39357
65871	1066	3211	1459	-0.1202386	-28.91576	221.7099	0	11.74	4002	1209	1155	1293	1263	0.02	2.395952	3	10	0.08	2800	106.8559	40.92392	-91.39358
65961	-911	-724	1401	1.623007	-29.47415	219.2752	0	11.74	4003	1251	1129	989	923	0.02	2.42346	3	10	0.08	2800	106.8559	40.92392	-91.39359
66032	-1967	-8292	1477	0.7315148	-23.22631	217.4365	0	11.74	4004	1255	1333	1343	1237	0.02	2.450823	3	10	0.08	2800	106.8559	40.92392	-91.39359
66099	-1397	-9528	2002	0.1403289	-17.78844	216.3783	0	11.74	4004	1265	1269	1397	1337	0.02	2.480829	3	10	0.08	2800	106.8559	40.92392	-91.3936
66175	-1117	-1341	2452	-1.410043	-6.729264	212.8999	0	11.74	4004	1368	1548	1370	1138	0.02	2.53562	3	10	0.08	2800	106.8559	40.92392	-91.3936
66320	-4070	1466	3085	-9.9169	-10.76455	207.0522	0	11.74	4003	1391	1517	1417	1279	0.02	2.588894	3	10	0.08	2800	106.8559	40.92392	-91.39361
66473	117	-989	1975	-12.15211	-10.08333	199.7243	0	11.74	4004	1532	1510	1262	1296	0.02	2.633574	3	10	0.08	2800	106.8559	40.92392	-91.39361
66504	438	-1423	1239	-11.67128	-9.456233	198.6119	0	11.74	4004	1449	1337	1327	1467	0.02	2.641746	3	10	0.08	2800	106.8559	40.92392	-91.39362
66646	3648	-1295	2007	-4.587268	-5.902501	195.559	0	11.74	4004	1118	1640	1570	1140	0.02	2.657069	3	10	0.08	2800	106.8559	40.92392	-91.39362
66702	846	33	1317	-2.364968	-4.811439	194.1954	0	11.63	4003	1516	1270	1168	1506	0.02	2.65607	3	10	0.08	2800	106.8559	40.92392	-91.39362
66878	1330	1199	253	-4.639627	-2.206615	191.9537	0	11.63	4002	1235	1277	1277	1299	0.02	2.612301	3	10	0.08	2800	106.8559	40.92392	-91.39362
66949	1291	3262	37	-1.434367	-6.011078	191.797	0	11.63	4002	1222	1250	1284	1308	0.02	2.582738	3	10	0.08	2800	106.8559	40.92392	-91.39362
67020	-74	1806	-25	-1.051064	-7.491966	191.8494	0	11.63	4003	1209	1333	1295	1227	0.02	2.542056	3	10	0.08	2800	106.8559	40.92392	-91.39362
67112	490	-1137	-755	-1.226835	-8.119673	192.6568	0	11.63	4003	1222	1368	1368	1242	0.02	2.510574	3	10	0.08	2800	106.8559	40.92392	-91.39363
67217	-87	-2351	-975	-0.8497981	-4.642204	194.1498	0	11.63	4002	1324	1260	1394	1446	0.02	2.448481	3	10	0.08	2800	106.8559	40.92393	-91.39364
67276	-270	-2580	-1650	-1.026258	-3.230322	194.8288	0	11.63	4003	1374	1462	1400	1292	0.02	2.408593	3	10	0.08	2800	106.8559	40.92393	-91.39364
67373	824	1344	-480	0.9643239	-1.489494	197.7813	0	11.63	4003	1384	1580	1574	1362	0.02	2.34415	3	10	0.08	2800	106.8559	40.92393	-91.39364
67503	-936	1261	-709	0.6783361	-4.223304	199.619	0	11.63	4002	1674	1496	1266	1384	0.02	2.279453	3	10	0.08	2800	106.8559	40.92393	-91.39365
67589	4787	-2800	-883	0.8606035	-2.261773	201.2056	0	11.63	4003	1279	1165	1419	1481	0.02	2.201018	3	10	0.08	2800	106.8559	40.92393	-91.39365
67834	2246	629	-379	14.88589	-1.631639	205.0419	0	11.57	4003	1276	1226	1422	1372	0.02	1.921455	3	10	0.08	2800	106.8559	40.92393	-91.39365
67963	1405	772	-125	16.18823	-2.755054	205.5997	0	11.57	4003	1484	1392	1450	1442	0.02	1.746846	3	10	0.08	2800	106.8559	40.92393	-91.39365
68013	3226	802	-699	17.82724	-3.000554	205.8603	0	11.57	4003	1420	1612	1548	1280	0.02	1.703772	3	10	0.08	2800	106.8559	40.92393	-91.39365
68086	2522	863	-79	19.18275	-3.40666	205.7512	0	11.57	4004	1693	1487	1351	1473	0.02	1.634799	3	10	0.08	2800	106.8559	40.92393	-91.39365
68221	-331	-712	-92	17.97975	-3.184234	205.259	0	11.57	4006	1638	1204	1420	1754	0.02	1.530811	3	10	0.08	2800	106.8559	40.92394	-91.39365
68328	3392	577	-244	18.75135	-0.7107071	206.0599	0	11.57	4003	1431	1499	1617	1457	0.02	1.490147	3	10	0.08	2800	106.8559	40.92394	-91.39365
68368	932	1709	-105	20.0993	-1.031401	206.2157	0	11.57	4004	1533	1281	1507	1683	0.02	1.454479	3	10	0.08	2800	106.8559	40.92394	-91.39365
68577	776	-1523	1037	17.70492	1.500255	204.4856	0	11.46	4003	1610	1226	1430	1738	0.02	1.386059	3	10	0.08	2800	106.8559	40.92394	-91.39365
68617	2907	196	1199	18.20288	1.722993	204.008	0	11.46	4003	1361	1869	1651	1123	0.02	1.380102	3	10	0.08	2800	106.8559	40.92394	-91.39365
68670	-151	961	730	18.83666	0.3116613	203.3006	0	11.46	4002	1459	1409	1563	1577	0.02	1.377575	3	10	0.08	2800	106.8559	40.92394	-91.39365
68809	-1140	-1832	451	13.9741	-0.2501835	202.3006	0	11.46	4004	1558	1322	1462	1662	0.02	1.384791	3	10	0.08	2800	106.8559	40.92393	-91.39365
68881	-358	-1045	-902	11.31286	1.651081	202.286	0	11.46	4004	1306	1506	1738	1454	0.02	1.405642	3	10	0.08	2800	106.8559	40.92393	-91.39365
68982	-3159	2763	-871	8.076231	-1.782056	203.1143	0	11.46	4008	1260	1512	1580	1276	0.02	1.441674	3	10	0.08	2800	106.8559	40.92393	-91.39365
69115	-1910	-616	-410	3.612367	-1.919127	204.2742	0	11.46	4004	1367	1115	1325	1453	0.02	1.523253	3	10	0.08	2800	106.8559	40.92393	-91.39365
69245	-6681	3029	25	-4.211637	-4.947691	205.5912	0	11.46	4004	1250	1182	1298	1286	0.02	1.672145	3	10	0.08	2800	106.8559	40.92393	-91.39365
69356	-4128	1311	25	-13.41089	-8.298625	205.4665	0	11.46	4003	1268	1198	1264	1262	0.02	1.749932	3	10	0.08	2800	106.8559	40.92392	-91.39365
69379	-1224	1358	295	-15.3315	-9.87079	205.0759	0	11.46	4003	1268	1198	1264	1262	0.02	1.749932	3	10	0.08	2800	106.8559	40.92392	-91.39365
69500	-1949	711	619	-15.53774	-10.86919	204.4751	0	11.68	4002	1220	1148	1344	1372	0.02	1.881468	3	10	0.08	2800	106.8559	40.92391	-91.39365
69674	-4576	-1291	266	-26.94316	-9.942242	202.7236	0	11.68	4004	1481	1501	1425	1361	0.02	1.970973	3	10	0.08	2800	106.8559	40.92391	-91.39365
69748	-2586	-1373	-1322	-29.29778	-7.416891	203.269	0	11.68	4003	1399	1541	1609	1459	0.02	2.007631	3	10	0.08	2800	106.8559	40.92391	-91.39365
69800	-1995	1977	-3027	-31.00166	-6.935903	205.9613	0	11.68	4002	1578	1500	1452	1482	0.02	2.024639	3	10	0.08	2800	106.8559	40.9239	-91.39365
69898	-756	243	-1389	-31.82761	-6.713026	208.8364	0	11.68	4003	1293	1701	1741	1273	0.02	2.020522	3	10	0.08	2800	106.8559	40.9239	-91.39365
69999	-372	568	-2306	-30.86162	-4.892189	213.785	0	11.68	4004	1450	1436	1584	1542	0.02	1.9549	3	10	0.08	2800	106.8559	40.9239	-91.39365
70140	193	-300	-1545	-31.42701	-3.578949	216.7058	0	11.68	4004	1616	1132	1460	1808	0.02	1.895314	3	10	0.08	2800	106.8559	40.9239	-91.39365
70169	193	-300	-1545	-31.42701	-2.90449	217.5624	0	11.68	4004	1255	1701	1803	1265	0.02	1.860971	3	10	0.08	2800	106.8559	40.9239	-91.39365
70346	139	-1037	699	-27.91132	-3.422875	219.9037	0	11.11	4002	1416	1550	1732	1470	0.02	1.743039	3	10	0.08	2800	106.8559	40.9239	-91.39365
70421	-839	-1031	271	-27.72235	-2.580776	220.2252	0	11.11	4002	1342	1314	1784	1712	0.02	1.690158	3	10	0.08	2800	106.8559	40.9239	-91.39365
70469	1317	-466	67	-26.76426	-1.616152	220.3583	0	11.11	4003	1495	1595	1623	1399	0.02	1.644194	3	10	0.08	2800	106.8559	40.9239	-91.39365
70580	5947	1162	-1437	-19.61723	-1.477987	221.1118	0	11.11	4004	1495	1543	1523	1403	0.02	1.596055	3	10	0.08	2800	106.8559	40.9239	-91.39365
70729	8820	-2197	-600	7.674057	-0.6689256	222.1097	0	11.11	4004	1280	1274	1416	1278	0.02	1.590538	3	10	0.08	2800	106.8559	40.92391	-91.39365
70812	5507	-739	-420	19.5951	1.078349	222.4915	0	11.11	4002	1230	1284	1458	1276	0.02	1.622431	3	10	0.08	2800	106.8559	40.92391	-91.39365
70988	2797	638	-817	24.0381	2.010644	223.4583	0	11.11	4002	1608	1586	1592	1498	0.02	1.858983	3	10	0.08	2800	106.8559	40.92392	-91.39364
71083	3776	630	1177	29.06561	-1.65048	221.6856	0	11.11	4003	1589	1541	1627	1579	0.02	1.917704	3	10	0.08	2800	106.8559	40.92393	-91.39363
71173	3175	2288	1814	31.4023	-3.071106	220.5299	0	11.11	4003	1618	1402	1532	1644	0.02	1.971781	3	10	0.08	2800	106.8559	40.92393	-91.39363
71266	868	-2352	-730	32.49915	-1.057281	219.8231	0	11.34	4003	1410	1450	1692	1580	0.02	1.988034	3	10	0.08	2800	106.8559	40.92394	-91.39363
71358	1026	-91	1476	31.88617	0.8503505	219.1827	0	11.34	4002	1381	1489	1509	1369	0.02	2.003905	3	10	0.08	2800	106.8559	40.92394	-91.39363
71503	1221	-316	-9	29.30342	-0.169886	217.1087	0	11.34	4004	1212	1428	1592	1328	0.02	1.992717	3	10	0.08	2800	106.8559	40.92395	-91.39362
71608	-3494	-1784	-1306	26.85255	-0.02152243	217.4588	0	11.34	4003	1457	1367	1345	1383	0.02	1.967649	3	10	0.08	2800	106.8559	40.92396	-91.39362
71704	-7819	-3485	285	20.04968	2.996081	217.2117	0	11.34	4002	1467	1207	1339	1519	0.02	1.943835	3	10	0.08	2800	106.8559	40.92396	-91.39362
71862	-414	1607	815	7.726326	11.24192	216.2493	0	11.34	4004	1268	1436	1520	1312	0.02	1.915014	3	10	0.08	2800	106.8559	40.92396	-91.39362
71913	-1597	4788	1433	6.959218	8.975578	215.732	0	11.34	4003	1299	1411	1493	1329	0.02	1.904094	3	10	0.08	2800	106.8559	40.92396	-91.39362
71975	-6194	6373	644	-1.095614	-2.455748	214.1811	0	11.34	4003	1411	1487	1389	1273	0.02	1.901071	3	10	0.08	2800	106.8559	40.92396	-91.39362
72076	1260	188	665	-5.904141	-7.511196	213.3018	0	11.34	4003	1363	1437	1461	1339	0.02	1.910441	3	10	0.08	2800	106.8559	40.92396	-91.39362
72253	521	-2021	594	0.2424707	-1.725048	211.6857	0	11.57	4003	1369	1193	1407	1483	0.02	1.985304	3	10	0.08	2800	106.8559	40.92396	-91.39362
72291	-553	-1430	253	0.2765157	-0.7959169	211.2864	0	11.57	4003	1395	1357	1381	1327	0.02	2.007818	3	10	0.08	2800	106.8559	40.92396	-91.39362
72361	1155	913	165	0.3752782	-0.4357628	210.5243	0	11.57	4004	1453	1215	1313	1483	0.02	2.047403	3	10	0.08	2800	106.8559	40.92396	-91.39362
72455	-1890	-761	842	0.5899222	-3.267625	209.0305	0	11.57	4004	1262	1320	1498	1380	0.02	2.087819	3	10	0.08	2800	106.8559	40.92396	-91.39362
72581	-698	-3373	517	-2.716653	0.3090397	207.9979	0	11.57	4004	1184	1206	1572	1494	0.02	2.160366	3	10	0.08	2800	106.8559	40.92396	-91.39362
72661	1238	1277	-488	-1.437008	2.866137	207.8766	0	11.57	4003	1504	1366	1266	1312	0.02	2.204073	3	10	0.08	2800	106.8559	40.92396	-91.39362
72769	607	2452	402	-0.6728147	-1.506528	207.8074	0	11.57	4003	1327	1445	1431	1249	0.02	2.291015	3	10	0.08	2800	106.8559	40.92396	-91.39362
72909	-1124	-2312	-424	-0.1726033	-0.3498816	207.7305	0	11.57	4003	1352	1298	1424	1382	0.02	2.356204	3	10	0.08	2800	106.8559	40.92396	-91.39362
73013	754	-372	160	0.2383588	1.542363	207.7735	0	11.57	4004	1361	1365	1407	1323	0.02	2.449033	3	10	0.08	2800	106.8559	40.92396	-91.39362
73081	-608	473	131	0.4431636	1.532342	207.5312	0	11.57	4004	1366	1326	1396	1368	0.02	2.509562	3	10	0.08	2800	106.8559	40.92396	-91.39362
73207	895	573	978	-0.002955747	-0.2387604	205.7696	0	11.51	4003	1241	1493	1491	1231	0.02	2.570354	3	10	0.08	2800	106.8559	40.92396	-91.39362
73256	599	821	843	0.1451623	-0.7504114	205.5158	0	11.51	4002	1250	1340	1488	1374	0.02	2.616838	3	10	0.08	2800	106.8559	40.92396	-91.39362
73359	-1352	-1861	520	-0.9856877	-2.418166	204.3927	0	11.51	4003	1305	1105	1441	1597	0.02	2.700612	3	10	0.08	2800	106.8559	40.92396	-91.39362
73458	421	-665	-311	-0.7094929	1.070071	204.444	0	11.51	4002	1415	1297	1337	1399	0.02	2.727813	3	10	0.08	2800	106.8559	40.92396	-91.39362
73629	-134	1468	-155	-0.2946514	-1.780615	203.8181	0	11.51	4003	1425	1331	1327	1373	0.02	2.818419	3	10	0.08	2800	106.8559	40.92396	-91.39362
73660	458	1173	-345	-0.01964087	-2.402101	203.7378	0	11.51	4004	1425	1331	1327	1373	0.02	2.830691	3	10	0.08	2800	106.8559	40.92396	-91.39362
73774	497	-3127	745	1.41813	0.6759416	203.4869	0	11.51	4002	1218	1282	1516	1436	0.02	2.895162	3	10	0.08	2800	106.8559	40.92396	-91.39362
73908	942	545	-971	1.746101	0.2804728	203.315	0	11.51	4004	1465	1231	1287	1469	0.02	2.925729	3	10	0.08	2800	106.8559	40.92396	-91.39362
73967	1694	574	-415	2.545058	-0.06412783	203.4062	0	11.51	4004	1409	1493	1349	1209	0.02	2.952968	3	10	0.08	2800	106.8559	40.92396	-91.39362
74062	2419	-1529	202	6.301359	1.646782	203.9356	0	11.57	4004	1302	1350	1460	1380	0.02	2.961437	3	10	0.08	2800	106.8559	40.92396	-91.39362
74168	1260	-183	-808	8.698225	5.023599	204.5208	0	11.57	4004	1327	1315	1453	1397	0.02	2.967654	3	10	0.08	2800	106.8559	40.92396	-91.39362
74255	630	1122	245	10.34043	3.698884	204.6044	0	11.57	4004	1078	1656	1670	1084	0.02	2.9598	3	10	0.08	2800	106.8559	40.92396	-91.39362
74309	-3592	1681	-196	5.527306	-0.3070802	204.6782	0	11.57	4003	1378	1246	1382	1482	0.02	2.950571	3	10	0.08	2800	106.8559	40.92396	-91.39362
74403	-973	-968	-278	3.003356	-0.3864764	205.1167	0	11.57	4003	1401	1263	1377	1447	0.02	2.947227	3	10	0.08	2800	106.8559	40.92396	-91.39362
74558	-82	396	-506	2.559491	-0.7153763	206.2863	0	11.57	4003	1389	1233	1399	1467	0.02	2.961929	3	10	0.08	2800	106.8559	40.92396	-91.39362
74609	-832	851	-204	2.148085	-1.41577	206.6527	0	11.57	4004	1411	1343	1371	1363	0.02	2.95649	3	10	0.08	2800	106.8559	40.92396	-91.39362
74655	-563	-1073	-155	0.07070355	-0.7451133	207.3597	0	11.57	4004	1343	1243	1437	1461	0.02	2.943736	3	10	0.08	2800	106.8559	40.92396	-91.39362
74821	-1227	4285	172	-0.0410548	-2.924108	207.5846	0	11.57	4002	1438	1312	1350	1400	0.02	2.891872	3	10	0.08	2800	106.8559	40.92396	-91.39363
74857	-555	3043	41	-0.700267	-7.020475	207.2599	0	11.57	4003	1428	1300	1362	1418	0.02	2.84738	3	10	0.08	2800	106.8559	40.92396	-91.39363
74923	1244	675	-172	0.2763191	-8.807681	207.0908	0	11.57	4004	1370	1534	1426	1190	0.02	2.806018	3	10	0.08	2800	106.8559	40.92395	-91.39363
75013	-513	-462	1474	1.893054	-8.617899	205.7748	0	11.57	4004	1364	1412	1462	1398	0.02	2.727799	3	10	0.08	2800	106.8559	40.92395	-91.39363
75106	993	-1408	1694	1.879381	-5.948266	204.2368	0	11.57	4002	1399	1449	1469	1419	0.02	2.63531	3	10	0.08	2800	106.8559	40.92395	-91.39364
75161	-972	-1561	958	1.837448	-4.96121	203.7614	0	11.57	4004	1482	1346	1394	1530	0.02	2.477185	3	10	0.08	2800	106.8559	40.92395	-91.39364
75288	-53	-144	272	-0.2787004	-2.720339	202.3045	0	11.57	4004	1269	1657	1555	1163	0.02	2.406335	3	10	0.08	2800	106.8559	40.92395	-91.39364
75368	1491	777	1182	-0.2693444	-2.775455	201.9956	0	11.57	4003	1294	1684	1514	1124	0.02	2.216958	3	10	0.08	2800	106.8559	40.92395	-91.39364
75402	85	-83	-76	-0.6363096	-2.289682	201.8857	0	11.57	4002	1359	1355	1503	1475	0.02	2.157614	3	10	0.08	2800	106.8559	40.92395	-91.39364
75510	2041	895	-110	-0.2577168	-1.391574	202.2308	0	11.57	4004	1426	1732	1708	1382	0.02	2.053796	3	10	0.08	2800	106.8559	40.92395	-91.39364
75719	-481	-9	-1295	-0.506847	-0.7763704	203.4512	0	11.4	4004	1458	1566	1648	1504	0.02	1.79071	3	10	0.08	2800	106.8559	40.92395	-91.39365
75889	2261	1165	-1606	0.7419785	1.693932	207.4652	0	11.4	4004	1168	1306	1492	1230	0.02	1.682107	3	10	0.08	2800	106.8559	40.92395	-91.39365
75967	1044	3131	-1093	3.214518	-1.013482	209.0966	0	11.4	4004	1299	1263	1369	1277	0.02	1.607767	3	10	0.08	2800	106.8559	40.92395	-91.39365
76044	-2022	2044	-966	2.370467	-4.150858	210.1622	0	11.4	4004	1381	1337	1293	1217	0.02	1.533704	3	10	0.08	2800	106.8559	40.92395	-91.39365
76152	144	2119	-722	-1.334876	-7.447095	211.5442	0	11.4	4002	1214	1294	1460	1260	0.02	1.447499	3	10	0.08	2800	106.8559	40.92395	-91.39365
76188	1507	4461	-544	-0.7939636	-9.281839	211.7988	0	11.4	4002	1412	1402	1268	1158	0.02	1.431172	3	10	0.08	2800	106.8559	40.92395	-91.39365
76269	1362	5608	-304	0.04977136	-12.00645	211.929	0	11.4	4003	1401	1405	1389	1269	0.02	1.368208	3	10	0.08	2800	106.8559	40.92395	-91.39365
76375	-162	-3954	-641	-0.9594087	-15.37092	212.5165	0	11.4	4002	1560	1544	1402	1290	0.02	1.312545	3	10	0.08	2800	106.8559	40.92395	-91.39365
76601	567	685	1245	1.615073	-6.067096	211.5078	0	11.51	4004	1458	1490	1526	1362	0.02	1.212328	3	10	0.08	2800	106.8559	40.92395	-91.39366
76782	-3631	-94	1996	-7.995659	-7.056707	207.8826	0	11.51	4003	1289	1293	1369	1349	0.02	1.137275	3	10	0.08	2800	106.8559	40.92394	-91.39366
76831	367	-2433	1571	-9.691036	-4.581767	205.8919	0	11.51	4004	1171	1281	1495	1389	0.02	1.113375	3	10	0.08	2800	106.8559	40.92394	-91.39366
76974	2611	-583	1480	-7.002404	-3.35401	203.9317	0	11.51	4004	1169	1351	1561	1391	0.02	1.065791	3	10	0.08	2800	106.8559	40.92394	-91.39366
77035	3490	687	1839	-3.504026	-3.58731	202.7266	0	11.51	4004	1292	1450	1570	1444	0.02	1.054776	3	10	0.08	2800	106.8559	40.92394	-91.39367
77135	-2601	34	1211	-1.121256	-4.514776	200.6424	0	11.51	4003	1766	1176	1220	1850	0.02	0.9932005	3	10	0.08	2800	106.8559	40.92394	-91.39367
77284	-1183	55	-2109	0.3030806	-9.058033	201.0274	0	11.51	4003	1555	1509	1447	1489	0.02	0.9264269	3	10	0.08	2800	106.8559	40.92394	-91.39367
77418	218	-1012	-1341	0.04447572	-6.89999	202.5567	0	11.68	4003	1458	1714	1518	1270	0.02	0.8852835	3	10	0.08	2800	106.8559	40.92394	-91.39367
77587	2299	-1624	-464	1.834072	-0.8640469	206.8819	0	11.68	4004	1162	1294	1592	1388	0.02	0.8614172	3	10	0.08	2800	106.8559	40.92394	-91.39367
77744	-500	-282	-1127	-0.9386503	-1.078434	208.8352	0	11.68	4002	1370	1226	1400	1440	0.02	0.8438683	3	10	0.08	2800	106.8559	40.92394	-91.39367
77795	60	-1212	509	-0.714169	0.2412244	209.0299	0	11.68	4003	1281	1467	1465	1231	0.02	0.836673	3	10	0.08	2800	106.8559	40.92394	-91.39367
77920	1800	522	145	-0.3395721	0.9380866	209.3856	0	11.68	4004	1240	1340	1510	1354	0.02	0.8403614	3	10	0.08	2800	106.8559	40.92394	-91.39366
78018	997	1255	743	1.249431	-0.5721868	209.3718	0	11.68	4002	1259	1217	1471	1469	0.02	0.8549376	3	10	0.08	2800	106.8559	40.92394	-91.39366
78132	-961	-532	42	0.797275	-2.178937	209.2826	0	11.68	4004	1335	1239	1407	1431	0.02	0.8880749	3	10	0.08	2800	106.8559	40.92394	-91.39366
78226	-152	-564	6	0.1249359	-1.425275	209.474	0	11.68	4004	1292	1260	1450	1426	0.02	0.9139055	3	10	0.08	2800	106.8559	40.92394	-91.39366
78275	3546	714	358	1.815087	-0.2532558	209.5395	0	11.68	4002	1281	1555	1465	1147	0.02	0.9198759	3	10	0.08	2800	106.8559	40.92394	-91.39366
78450	-910	1518	772	5.832067	-4.78335	209.3258	0	11.57	4003	1316	1374	1438	1340	0.02	0.9731914	3	10	0.08	2800	106.8559	40.92394	-91.39366
78564	-1507	-2736	-425	2.131636	-2.158906	209.9295	0	11.57	4002	1442	1256	1352	1454	0.02	0.9976083	3	10	0.08	2800	106.8559	40.92394	-91.39366
78571	-1076	-2637	80	1.427629	-0.4678768	209.9169	0	11.57	4003	1442	1256	1352	1454	0.02	0.9976083	3	10	0.08	2800	106.8559	40.92394	-91.39366
78673	523	1006	322	0.7871066	0.4982577	209.7591	0	11.57	4002	1393	1081	1401	1625	0.02	1.008571	3	10	0.08	2800	106.8559	40.92394	-91.39366
78767	-840	-214	-321	0.3597003	-0.6557554	209.9834	0	11.57	4003	1540	1160	1258	1554	0.02	1.025977	3	10	0.08	2800	106.8559	40.92394	-91.39366
78899	2620	1194	161	1.02939	-1.207063	210.2423	0	11.57	4003	1338	1380	1496	1386	0.02	1.05874	3	10	0.08	2800	106.8559	40.92394	-91.39366
79000	-197	-173	782	2.548266	-1.965694	209.2794	0	11.57	4004	1371	1417	1509	1564	0.02	1.069601	3	10	0.08	2800	106.8559	40.92394	-91.39366
79080	827	143	891	2.626463	-1.463773	208.7948	0	11.57	4004	1358	1682	1488	1164	0.02	1.077644	3	10	0.08	2800	106.8559	40.92394	-91.39366
79219	782	-351	506	2.828734	-0.6830357	208.9313	0	11.4	4004	1289	1447	1497	1287	0.02	1.09034	3	10	0.08	2800	106.8559	40.92394	-91.39365
79275	-563	-805	-593	3.123874	-0.3112101	208.9982	0	11.4	4003	1467	1195	1323	1507	0.02	1.094256	3	10	0.08	2800	106.8559	40.92394	-91.39365
79447	-1056	-745	270	3.241258	-0.7050484	209.0968	0	11.4	4004	1359	1203	1389	1513	0.02	1.112059	3	10	0.08	2800	106.8559	40.92394	-91.39365
79535	-1183	-1274	-299	2.128895	0.7846838	209.162	0	11.4	4002	1445	1229	1327	1471	0.02	1.127518	3	10	0.08	2800	106.8559	40.92394	-91.39365
79585	-782	661	-401	1.830818	0.7316915	209.0622	0	11.4	4004	1435	1341	1339	1357	0.02	1.135475	3	10	0.08	2800	106.8559	40.92394	-91.39365
79726	452	-856	-104	1.496799	0.2990266	208.719	0	11.4	4004	1351	1239	1417	1477	0.02	1.149988	3	10	0.08	2800	106.8559	40.92394	-91.39365
79774	-503	-885	-266	1.43919	0.7404543	208.5756	0	11.4	4004	1351	1239	1417	1477	0.02	1.15358	3	10	0.08	2800	106.8559	40.92394	-91.39365
79908	1147	1415	787	-0.8325488	0.0274292	207.5682	0	11.4	4003	1330	1276	1434	1456	0.02	1.177613	3	10	0.08	2800	106.8559	40.92394	-91.39365
79963	1251	549	1016	-0.2867814	-0.562857	207.4298	0	11.4	4002	1295	1311	1463	1439	0.02	1.177214	3	10	0.08	2800	106.8559	40.92394	-91.39365
80079	-1406	-153	363	-0.5199538	-0.4951133	206.3092	0	11.4	4002	1466	1168	1306	1572	0.02	1.174502	3	10	0.08	2800	106.8559	40.92394	-91.39365
80195	-744	357	255	-0.4937045	-0.7603716	204.8875	0	11.51	4004	1467	1233	1295	1513	0.02	1.17433	3	10	0.08	2800	106.8559	40.92394	-91.39365
80297	895	622	404	-0.4778752	-1.809536	204.6436	0	11.51	4003	1317	1417	1451	1351	0.02	1.184385	3	10	0.08	2800	106.8559	40.92394	-91.39365
80378	230	-990	206	1.318709	-0.6727599	204.7185	0	11.51	4003	1398	1350	1374	1414	0.02	1.191981	3	10	0.08	2800	106.8559	40.92394	-91.39365
80515	-1483	2153	340	0.4161855	-1.140067	204.91	0	11.51	4004	1397	1311	1379	1437	0.02	1.210235	8	10	0.08	2800	106.8559	40.92394	-91.39365
80631	1448	-2070	-13	-0.9651422	-1.757316	204.8061	0	11.51	4004	1244	1220	1536	1544	0.02	1.222154	8	10	0.08	2800	106.8559	40.92394	-91.39365
80654	1448	-2070	-13	-0.9651422	-1.757316	204.8061	0	11.51	4004	1222	1336	1556	1442	0.02	1.222227	8	10	0.08	2800	106.8559	40.92394	-91.39365
80745	-391	644	438	0.7383388	-0.7473677	204.7724	0	11.51	4003	1220	1530	1542	1244	0.02	1.224863	8	10	0.08	2800	106.8559	40.92394	-91.39365
80847	741	55	-238	0.06517129	-0.638914	205.4297	0	11.51	4003	1386	1370	1414	1398	0.02	1.230001	8	10	0.08	2800	106.8559	40.92394	-91.39365
80959	-372	175	-1136	0.9988871	-0.6433796	207.7148	0	11.51	4002	1394	1424	1430	1336	0.02	1.227925	8	10	0.08	2800	106.8559	40.92394	-91.39365
81035	-1631	41	-480	1.114633	-0.8665303	209.265	0	11.46	4003	1519	1281	1317	1447	0.02	1.228202	8	10	0.08	2800	106.8559	40.92394	-91.39365
81220	201	989	-551	0.6241593	-0.1970529	210.7143	0	11.46	4003	1459	1143	1391	1607	0.02	1.217402	8	10	0.08	2800	106.8559	40.92394	-91.39365
81294	-1002	79	-388	0.09974651	-0.5741528	210.8365	0	11.46	4003	1476	1418	1368	1338	0.02	1.21029	8	10	0.08	2800	106.8559	40.92394	-91.39365
81380	1992	1239	-306	0.6462207	-1.082852	210.8797	0	11.46	4004	1347	1747	1491	1015	0.02	1.190243	8	10	0.08	2800	106.8559	40.92394	-91.39365
81421	-126	-317	372	2.076402	-1.190051	210.9912	0	11.46	4003	1265	1599	1593	1203	0.02	1.17985	8	10	0.08	2800	106.8559	40.92394	-91.39365
81565	554	102	695	0.6316006	-1.775202	211.4745	0	11.46	4002	1319	1531	1555	1275	0.02	1.157758	8	10	0.08	2800	106.8559	40.92394	-91.39365
81680	-382	-849	541	1.924759	-0.8672918	212.003	0	11.46	4003	1242	1432	1612	1342	0.02	1.133527	8	10	0.08	2800	106.8559	40.92394	-91.39365
81713	-687	-423	117	-1.096567	1.422986	211.8279	0	11.46	4004	1336	1352	1540	1424	0.02	1.105206	8	10	0.08	2800	106.8559	40.92394	-91.39365
81742	215	851	1132	-1.199497	0.5982338	211.0404	0	11.68	4003	1348	1462	1500	1322	0.02	1.073231	8	10	0.08	2800	106.8559	40.92394	-91.39365
81763	489	607	296	-1.409357	0.157416	210.8267	0	11.68	4004	1348	1462	1500	1322	0.02	1.073231	8	10	0.08	2800	106.8559	40.92394	-91.39365
81869	288	278	428	-1.278538	-0.5463756	210.4972	0	11.68	4003	1355	1439	1489	1369	0.02	1.034268	8	10	0.08	2800	106.8559	40.92394	-91.39365
81983	227	-563	1755	-0.5092428	0.4279934	208.8224	0	11.68	4003	1469	1407	1411	1425	0.02	1.01964	8	10	0.08	2800	106.8559	40.92394	-91.39365
82095	1886	1297	1387	1.403716	0.2687393	207.0859	0	11.68	4003	1399	1441	1409	1375	0.02	1.003441	8	10	0.08	2800	106.8559	40.92395	-91.39365
82175	-1758	1240	1121	1.439138	-1.017649	205.5465	0	11.68	4003	1475	1447	1361	1405	0.02	0.9944627	8	10	0.08	2800	106.8559	40.92395	-91.39365
82394	2011	2119	-628	0.2102282	-2.002699	204.4128	0	11.68	4003	1264	1656	1588	1140	0.02	0.9819167	8	10	0.08	2800	106.8559	40.92395	-91.39365
82522	-1696	-1907	-1263	0.7197064	-1.174333	208.3567	0	11.68	4003	1316	1430	1486	1268	0.02	1.011479	8	10	0.08	2800	106.8559	40.92395	-91.39365
82575	-2169	-2361	-1377	-0.5805876	0.05210934	209.3409	0	11.68	4003	1319	1325	1453	1339	0.02	1.040929	8	10	0.08	2800	106.8559	40.92395	-91.39365
82714	558	-1386	-170	-0.6147379	3.203636	212.4387	0	11.51	4004	1245	1301	1495	1339	0.02	1.102093	8	10	0.08	2800	106.8559	40.92395	-91.39365
82769	-535	-114	-426	-0.3649121	3.381386	212.5522	0	11.51	4003	1498	1218	1272	1448	0.02	1.141961	8	10	0.08	2800	106.8559	40.92395	-91.39365
82877	892	1298	-657	-0.06762321	1.240354	212.5736	0	11.51	4004	1432	1540	1352	1140	0.02	1.205267	8	10	0.08	2800	106.8559	40.92395	-91.39365
82990	302	354	288	0.5455215	-0.4556331	212.6944	0	11.51	4002	1347	1215	1431	1459	0.02	1.242221	8	10	0.08	2800	106.8559	40.92395	-91.39365
83135	2181	-53	372	5.30307	-0.5278219	212.157	0	11.51	4002	1180	1258	1542	1388	0.02	1.346721	8	10	0.08	2800	106.8559	40.92395	-91.39365
83190	1706	-120	607	5.857254	-0.4773912	211.7782	0	11.51	4003	1363	1205	1359	1445	0.02	1.382931	8	10	0.08	2800	106.8559	40.92395	-91.39365
83285	727	974	878	7.030252	-1.283885	210.6063	0	11.51	4003	1277	1409	1491	1315	0.02	1.42602	8	10	0.08	2800	106.8559	40.92395	-91.39365
83437	1628	1294	228	7.526095	-3.899753	209.7505	0	11.51	4003	1363	1205	1415	1505	0.02	1.493291	8	10	0.08	2800	106.8559	40.92395	-91.39366
83492	1848	1942	-596	9.411819	-6.019829	209.6957	0	11.51	4003	1419	1347	1379	1363	0.02	1.509628	8	10	0.08	2800	106.8559	40.92395	-91.39366
83591	-29	146	-633	10.45232	-7.310928	209.7062	0	11.57	4003	1502	1314	1304	1400	0.02	1.53252	8	10	0.08	2800	106.8559	40.92396	-91.39366
83624	724	312	-787	10.77705	-7.371698	209.8654	0	11.57	4003	1484	1298	1314	1416	0.02	1.552484	8	10	0.08	2800	106.8559	40.92396	-91.39366
83732	-2652	762	-892	9.103246	-7.875477	209.7622	0	11.57	4003	1486	1320	1298	1368	0.02	1.584709	8	10	0.08	2800	106.8559	40.92396	-91.39366
83813	1790	-2287	39	7.80476	-5.69773	210.7855	0	11.57	4004	1156	1480	1622	1226	0.02	1.610589	8	10	0.08	2800	106.8559	40.92396	-91.39366
83914	475	-686	68	8.880201	-4.121469	211.3978	0	11.57	4004	1285	1363	1455	1293	0.02	1.656828	8	10	0.08	2800	106.8559	40.92396	-91.39366
84038	-378	325	387	6.640357	-4.183154	211.6792	0	11.57	4003	1306	1282	1466	1422	0.02	1.708739	8	10	0.08	2800	106.8559	40.92396	-91.39366
84164	-3249	-86	-391	2.645478	-4.302766	211.063	0	11.57	4005	1390	1274	1380	1416	0.02	1.76377	8	10	0.08	2800	106.8559	40.92396	-91.39366
84222	-474	-1603	-418	0.9466132	-3.249388	211.0352	0	11.57	4003	1354	1346	1422	1354	0.02	1.774581	8	10	0.08	2800	106.8559	40.92396	-91.39366
84325	241	-489	333	1.91224	-1.065113	210.8372	0	11.57	4004	1394	1370	1380	1340	0.02	1.832809	8	10	0.08	2800	106.8559	40.92396	-91.39366
84546	308	-1075	-350	-0.06373473	0.08631525	209.8012	0	11.29	4003	1407	1165	1397	1563	0.02	1.895142	8	10	0.08	2800	106.8559	40.92395	-91.39366
84693	-202	981	-34	0.7079006	-0.1365527	208.8667	0	11.29	4004	1442	1498	1366	1262	0.02	1.904857	8	10	0.08	2800	106.8559	40.92395	-91.39366
84805	578	14	534	1.543799	-1.116475	207.8305	0	11.29	4002	1467	1279	1347	1511	0.02	1.898261	8	10	0.08	2800	106.8559	40.92395	-91.39365
84918	-103	207	258	1.462753	-2.234613	206.3362	0	11.29	4002	1415	1657	1431	1177	0.02	1.874825	8	10	0.08	2800	106.8559	40.92395	-91.39365
84954	460	-613	62	1.774479	-1.935361	206.265	0	11.29	4003	1414	1306	1436	1480	0.02	1.869512	8	10	0.08	2800	106.8559	40.92395	-91.39365
85044	-1010	-1299	70	2.336879	-1.211075	206.391	0	11.29	4002	1382	1490	1480	1316	0.02	1.834557	8	10	0.08	2800	106.8559	40.92395	-91.39365
85151	-2160	-1102	-1218	0.3440931	-0.0573534	207.1031	0	11.29	4002	1496	1134	1368	1662	0.02	1.79918	8	10	0.08	2800	106.8559	40.92395	-91.39365
85285	1168	-1056	257	1.140353	-0.814567	208.4889	0	11.29	4004	1407	1459	1455	1339	0.02	1.757134	8	10	0.08	2800	106.8559	40.92395	-91.39365
85404	-991	-120	-659	0.4925197	0.3696795	209.2178	0	11.4	4003	1424	1726	1442	1072	0.02	1.726377	8	10	0.08	2800	106.8559	40.92395	-91.39365
85463	308	1838	-488	-0.03691227	-0.9504958	209.6582	0	11.4	4003	1499	1093	1387	1709	0.02	1.71112	8	10	0.08	2800	106.8559	40.92395	-91.39365
85535	1957	1582	377	1.278986	-3.180988	210.2932	0	11.4	4003	1355	1511	1583	1347	0.02	1.66417	8	10	0.08	2800	106.8559	40.92395	-91.39365
85676	233	-64	486	2.962429	-4.545581	210.7882	0	11.4	4002	1640	1166	1308	1690	0.02	1.602569	8	10	0.08	2800	106.8559	40.92394	-91.39365
85766	434	544	853	3.05461	-4.208312	210.8705	0	11.4	4003	1354	1430	1572	1412	0.02	1.58596	8	10	0.08	2800	106.8559	40.92394	-91.39365
85854	927	2634	-708	3.216757	-6.96947	211.2776	0	11.4	4004	1511	1269	1379	1505	0.02	1.549942	8	10	0.08	2800	106.8559	40.92394	-91.39365
85945	-333	895	784	4.024233	-8.587915	211.3521	0	11.4	4003	1355	1329	1503	1465	0.02	1.534349	8	10	0.08	2800	106.8559	40.92394	-91.39365
86112	68	1689	-624	3.37899	-12.95233	211.4265	0	11.4	4003	1348	1586	1482	1172	0.02	1.520983	8	10	0.08	2800	106.8559	40.92394	-91.39365
86183	-294	-39	146	1.782556	-13.30663	212.1041	0	11.4	4003	1193	1355	1643	1389	0.02	1.525339	8	10	0.08	2800	106.8559	40.92394	-91.39365
86235	-744	307	1328	0.523132	-13.41657	211.8031	0	11.4	4003	1365	1361	1453	1389	0.02	1.532041	8	10	0.08	2800	106.8559	40.92394	-91.39365
86389	1349	560	602	0.7029046	-12.7115	210.5563	0	11.68	4004	1239	1411	1545	1361	0.02	1.548422	8	10	0.08	2800	106.8559	40.92393	-91.39365
86429	-785	1343	1111	2.303067	-13.64788	209.1981	0	11.68	4003	1233	1525	1537	1233	0.02	1.560687	8	10	0.08	2800	106.8559	40.92393	-91.39365
86586	1023	1368	1655	2.041803	-15.48945	208.2724	0	11.68	4004	1266	1454	1514	1338	0.02	1.578749	8	10	0.08	2800	106.8559	40.92393	-91.39365
86634	-1261	-121	284	1.098467	-15.60162	207.3073	0	11.68	4003	1332	1354	1468	1422	0.02	1.584659	8	10	0.08	2800	106.8559	40.92393	-91.39365
86734	-114	-86	991	0.8787046	-15.59937	206.4482	0	11.68	4004	1332	1394	1444	1378	0.02	1.601036	8	10	0.08	2800	106.8559	40.92393	-91.39365
86912	-45	-1646	-37	1.676153	-15.34633	204.9073	0	11.68	4004	1437	1259	1337	1503	0.02	1.643886	8	10	0.08	2800	106.8559	40.92393	-91.39365
87029	1019	-2406	923	0.6868652	-2.956813	204.2954	0	11.68	4002	1173	1393	1567	1367	0.02	1.667663	8	10	0.08	2800	106.8559	40.92393	-91.39365
87057	330	-964	-337	1.261997	-2.246914	204.2108	0	11.68	4003	1334	1308	1448	1450	0.02	1.678204	8	10	0.08	2800	106.8559	40.92393	-91.39365
87147	-916	212	-60	1.921531	-2.361569	203.9454	0	11.68	4004	1230	1536	1514	1236	0.02	1.706809	8	10	0.08	2800	106.8559	40.92393	-91.39365
87373	-552	-676	219	0.6486893	-2.005114	203.9021	0	11.46	4003	1233	1241	1539	1511	0.02	1.777892	8	10	0.08	2800	106.8559	40.92393	-91.39363
87463	-572	-1230	709	0.204936	-0.9730572	203.8158	0	11.46	4003	1168	1490	1576	1270	0.02	1.812276	8	10	0.08	2800	106.8559	40.92393	-91.39363
87546	-279	-779	895	0.6039594	0.2750398	203.6659	0	11.46	4002	1234	1276	1506	1496	0.02	1.838936	8	10	0.08	2800	106.8559	40.92393	-91.39362
87679	547	326	76	0.2982736	-0.906289	203.0021	0	11.46	4004	1386	1252	1410	1528	0.02	1.849546	8	10	0.08	2800	106.8559	40.92393	-91.39362
87788	-2	-640	-697	1.381066	-1.28077	203.0922	0	11.46	4003	1337	1435	1453	1359	0.02	1.857916	8	10	0.08	2800	106.8559	40.92392	-91.39362
87914	548	620	18	0.5895926	-0.847134	203.9543	0	11.46	4003	1448	1270	1402	1512	0.02	1.845051	8	10	0.08	2800	106.8559	40.92392	-91.39362
87989	131	-222	-1083	1.11715	-1.614378	204.9442	0	11.46	4004	1367	1407	1461	1377	0.02	1.835664	8	10	0.08	2800	106.8559	40.92392	-91.39362
88123	-1870	-834	-1502	0.7057961	-0.8505753	206.4921	0	11.46	4003	1395	1077	1479	1697	0.02	1.815773	8	10	0.08	2800	106.8559	40.92392	-91.39361
88328	-259	-253	-912	1.227075	-2.143267	209.4574	0	11.46	4002	1340	1276	1548	1508	0.02	1.789888	8	10	0.08	2800	106.8559	40.92392	-91.3936
88476	-1041	4	-1401	0.1751661	-1.316756	210.851	0	11.46	4002	1564	1118	1326	1668	0.02	1.733428	8	10	0.08	2800	106.8559	40.92392	-91.39359
88534	-71	-192	282	-0.01005561	-1.695828	211.2246	0	11.46	4004	1473	1285	1413	1497	0.02	1.720857	8	10	0.08	2800	106.8559	40.92392	-91.39359
88602	715	317	53	-1.321086	-1.300102	211.5105	0	11.46	4002	1346	1616	1558	1176	0.02	1.701044	8	10	0.08	2800	106.8559	40.92393	-91.39359
88758	-998	-561	-501	-0.5396041	-1.87407	211.5974	0	11.46	4003	1373	1513	1499	1295	0.02	1.652243	8	10	0.08	2800	106.8559	40.92393	-91.39359
88799	541	-243	1138	-0.6297233	-1.775082	211.4201	0	11.46	4003	1355	1531	1509	1269	0.02	1.635827	8	10	0.08	2800	106.8559	40.92393	-91.39359
88996	1531	1170	612	1.095773	-0.3288392	210.5888	0	11.46	4002	1295	1519	1551	1275	0.02	1.614399	8	10	0.08	2800	106.8559	40.92393	-91.39359
89066	-92	473	-397	0.8830021	-1.378057	210.6036	0	11.46	4003	1458	1346	1406	1430	0.02	1.609942	8	10	0.08	2800	106.8559	40.92393	-91.39359
89141	-203	-1130	384	0.02241366	-1.113781	210.5925	0	11.46	4002	1301	1377	1527	1403	0.02	1.604469	8	10	0.08	2800	106.8559	40.92393	-91.39358
89217	691	-657	-578	0.4669213	-0.257182	210.698	0	11.46	4004	1427	1357	1411	1401	0.02	1.606332	8	10	0.08	2800	106.8559	40.92393	-91.39358
89326	-173	-121	-237	1.363765	-0.8067416	210.5642	0	11.46	4002	1359	1335	1461	1405	0.02	1.621449	8	10	0.08	2800	106.8559	40.92393	-91.39358
89466	-285	201	-755	-1.024054	-0.21355	210.5853	0	11.46	4002	1381	1289	1429	1449	0.02	1.646879	8	10	0.08	2800	106.8559	40.92393	-91.39358
89499	407	17	-258	-0.8049013	-0.4527263	210.8372	0	11.46	4003	1369	1189	1431	1515	0.02	1.659993	8	10	0.08	2800	106.8559	40.92393	-91.39357
89571	343	-35	-258	-0.1440978	-0.7945217	211.7371	0	11.46	4004	1235	1417	1563	1293	0.02	1.682005	8	10	0.08	2800	106.8559	40.92393	-91.39357
89680	267	-313	-1204	0.4163285	-0.375163	213.0629	0	11.46	4004	1276	1226	1536	1454	0.02	1.742177	8	10	0.08	2800	106.8559	40.92393	-91.39357
89822	-1244	-209	-776	-0.9976925	-0.5010194	215.1599	0	11.46	4002	1253	1303	1559	1365	0.02	1.809172	8	10	0.08	2800	106.8559	40.92393	-91.39357
89878	-1288	62	-281	-2.324588	-0.3290776	215.7967	0	11.46	4004	1292	1244	1466	1382	0.02	1.833169	8	10	0.08	2800	106.8559	40.92394	-91.39356
90002	536	876	370	-2.86836	0.2080236	215.7963	0	11.51	4002	1368	1324	1354	1290	0.02	1.884121	8	10	0.08	2800	106.8559	40.92394	-91.39356
90091	2225	330	38	-2.137727	-0.6720217	215.7008	0	11.51	4002	1329	1183	1479	1493	0.02	1.963005	8	10	0.08	2800	106.8559	40.92394	-91.39356
90169	1760	989	1067	0.5088236	-1.487281	215.395	0	11.51	4004	1359	1129	1427	1557	0.02	1.998847	8	10	0.08	2800	106.8559	40.92394	-91.39356
90346	1681	-883	1635	0.6039553	0.9782163	213.4518	0	11.51	4003	1194	1368	1576	1350	0.02	2.079129	8	10	0.08	2800	106.8559	40.92394	-91.39356
90439	2599	-229	292	2.207828	1.437329	212.1327	0	11.51	4004	1389	1639	1397	1079	0.02	2.117699	8	10	0.08	2800	106.8559	40.92395	-91.39356
90512	2388	-1577	215	5.316585	3.355583	211.589	0	11.51	4003	1438	1402	1356	1320	0.02	2.154179	8	10	0.08	2800	106.8559	40.92395	-91.39356
90555	485	-2297	241	6.351985	5.105629	211.1937	0	11.51	4004	1210	1386	1526	1310	0.02	2.171064	8	10	0.08	2800	106.8559	40.92395	-91.39356
90653	592	-1828	204	5.691349	7.202517	211.0046	0	11.51	4002	1359	1179	1441	1537	0.02	2.204572	8	10	0.08	2800	106.8559	40.92395	-91.39356
90843	-251	-2087	-326	7.501032	10.68593	210.8527	0	11.4	4004	1350	1278	1460	1452	0.02	2.260368	8	10	0.08	2800	106.8559	40.92395	-91.39356
90910	29	72	-465	6.879018	11.64724	211.0524	0	11.4	4003	1391	1575	1427	1155	0.02	2.263704	8	10	0.08	2800	106.8559	40.92395	-91.39356
91023	1026	530	-1188	8.703341	8.976643	212.6707	0	11.4	4002	1366	1332	1446	1392	0.02	2.286994	8	10	0.08	2800	106.8559	40.92395	-91.39356
91087	351	83	-623	8.82102	8.635814	213.1019	0	11.4	4005	1348	1408	1478	1290	0.02	2.305206	8	10	0.08	2800	106.8559	40.92395	-91.39356
91144	-1322	-985	-525	7.314887	8.800601	214.0697	0	11.4	4004	1408	1414	1412	1286	0.02	2.325636	8	10	0.08	2800	106.8559	40.92395	-91.39356
91333	-1347	3195	-397	3.208729	2.591219	214.439	0	11.4	4003	1487	1369	1357	1363	0.02	2.336217	8	10	0.08	2800	106.8559	40.92395	-91.39357
91383	-1575	494	-179	1.920127	0.7187039	214.3977	0	11.4	4004	1443	1067	1413	1669	0.02	2.336929	8	10	0.08	2800	106.8559	40.92395	-91.39357
91462	-1097	-236	394	0.4038584	0.8740302	214.2883	0	11.4	4003	1359	1237	1477	1519	0.02	2.335034	8	10	0.08	2800	106.8559	40.92395	-91.39357
91549	1657	1345	459	0.632475	0.2124053	214.1266	0	11.4	4004	1390	1398	1462	1342	0.02	2.333865	8	10	0.08	2800	106.8559	40.92395	-91.39357
91662	-1722	-814	83	0.3211473	-0.01553764	213.6407	0	11.4	4004	1562	1234	1270	1482	0.02	2.342396	8	10	0.08	2800	106.8559	40.92395	-91.39358
91748	-21	747	745	0.3916846	0.5977641	212.3993	0	11.51	4003	1320	1328	1456	1372	0.02	2.356251	8	10	0.08	2800	106.8559	40.92395	-91.39358
91867	-871	1852	738	-0.8421509	-0.8676904	211.4538	0	11.51	4004	1282	1304	1500	1410	0.02	2.383449	8	10	0.08	2800	106.8559	40.92395	-91.39358
91950	571	2132	-7	-0.8685781	-4.690511	210.7483	0	11.51	4002	1355	1259	1427	1467	0.02	2.390133	8	10	0.08	2800	106.8559	40.92395	-91.39358
92081	-11	700	178	0.9478155	-6.129818	209.9922	0	11.51	4004	1336	1512	1470	1230	0.02	2.414	8	10	0.08	2800	106.8559	40.92395	-91.39359
92149	751	1553	43	0.1571657	-7.515338	209.975	0	11.51	4003	1323	1555	1473	1189	0.02	2.417454	8	10	0.08	2800	106.8559	40.92395	-91.39359
92244	51	22	403	0.6561005	-7.715246	210.0458	0	11.51	4002	1292	1362	1528	1394	0.02	2.426228	8	10	0.08	2800	106.8559	40.92395	-91.39359
92346	222	676	-200	-0.9166946	-5.058321	210.1534	0	11.51	4003	1358	1326	1480	1432	0.02	2.422444	8	10	0.08	2800	106.8559	40.92395	-91.3936
92527	136	1252	560	-0.1723737	-6.961112	209.4183	0	11.51	4004	1419	1439	1423	1327	0.02	2.393866	8	10	0.08	2800	106.8559	40.92395	-91.3936
92567	514	969	-948	0.01927607	-7.411927	209.4644	0	11.51	4003	1430	1228	1414	1544	0.02	2.391105	8	10	0.08	2800	106.8559	40.92395	-91.39361
92650	-1924	173	-677	2.144942	-7.778626	209.6172	0	11.51	4003	1473	1193	1363	1575	0.02	2.383712	8	10	0.08	2800	106.8559	40.92395	-91.39361
92842	-791	-1618	-1077	-0.7302136	-7.194759	211.1781	0	11.51	4003	1372	1268	1460	1444	0.02	2.396024	8	10	0.08	2800	106.8559	40.92395	-91.39361
92907	20	645	-796	-0.3067536	-4.702201	212.2682	0	11.51	4004	1447	1531	1389	1193	0.02	2.403327	8	10	0.08	2800	106.8559	40.92395	-91.39362
92973	103	14	60	-1.049714	-4.664753	212.8484	0	11.51	4003	1287	1305	1533	1419	0.02	2.405674	8	10	0.08	2800	106.8559	40.92395	-91.39362
93105	-496	-2182	186	-0.001257729	-1.570511	213.9508	0	11.51	4003	1330	1300	1506	1420	0.02	2.407059	8	10	0.08	2800	106.8559	40.92395	-91.39362
93136	146	-1404	-3	-0.368921	-0.2886752	214.0756	0	11.51	4004	1351	1337	1477	1387	0.02	2.410652	8	10	0.08	2800	106.8559	40.92395	-91.39362
93314	-13	422	554	-0.6049004	-0.5364136	214.1969	0	11.51	4003	1502	1396	1336	1334	0.02	2.412083	8	10	0.08	2800	106.8559	40.92395	-91.39362
93366	-177	394	1064	-0.7193338	-0.8004793	213.8302	0	11.51	4002	1357	1277	1471	1479	0.02	2.408621	8	10	0.08	2800	106.8559	40.92395	-91.39362
93441	616	-702	238	-0.1427787	-0.8384761	213.2296	0	11.51	4003	1378	1220	1470	1532	0.02	2.404198	8	10	0.08	2800	106.8559	40.92395	-91.39362
93544	-1287	263	967	-0.1723285	-0.6682652	212.0437	0	11.8	4003	1290	1330	1554	1458	0.02	2.378069	8	10	0.08	2800	106.8559	40.92395	-91.39362
93646	1003	-341	1329	-0.3298799	-1.204805	210.6388	0	11.8	4004	1320	1300	1562	1562	0.02	2.358197	8	10	0.08	2800	106.8559	40.92395	-91.39362
93807	-797	175	421	-0.2789049	-0.7532338	209.1612	0	11.8	4002	1417	1457	1517	1429	0.02	2.272409	8	10	0.08	2800	106.8559	40.92395	-91.39362
93850	-270	-63	562	-0.2411829	-0.5710739	209.0365	0	11.8	4003	1466	1328	1414	1496	0.02	2.247035	8	10	0.08	2800	106.8559	40.92395	-91.39363
93973	2477	173	-1070	4.291199	-0.930873	208.9247	0	11.8	4003	1581	1291	1315	1513	0.02	2.200871	8	10	0.08	2800	106.8559	40.92395	-91.39363
94090	2077	884	-1025	6.703053	-1.937694	209.579	0	11.8	4002	1304	1434	1604	1338	0.02	2.130054	8	10	0.08	2800	106.8559	40.92395	-91.39363
94198	3121	736	-669	9.926876	-2.192701	211.3027	0	11.8	4002	1364	1710	1568	1126	0.02	2.094226	8	10	0.08	2800	106.8559	40.92395	-91.39364
94283	-1028	-3	-742	11.29655	-3.601061	211.971	0	11.8	4002	1712	1424	1214	1434	0.02	2.065183	8	10	0.08	2800	106.8559	40.92395	-91.39364
