time(ms)	gyro_x(deg/s)	gyro_y(deg/s)	gyro_z(deg/s)	orientation_roll(deg)	orientation_pitch(deg)	orientation_yaw(deg)	throttle	battery(V)	loop_time(uS)	pid_output_roll	pid_output_pitch	pid_output_yaw	pid_output_throttle	ultrasonic_alt	baro_alt	flight_mode	p_gain_altitude	i_gain_altitude	d_gain_altitude	compass_heading	latitude	longitude
94653	-2562	-1106	-170	1.283965	1.628591	218.353	0	11	4003	1355	1337	1501	1371	0.02	1.956082	8	10	0.08	2800	106.8559	40.92395	-91.39365
94744	224	284	-422	0.6104292	2.369538	219.3893	0	11	4003	1397	1191	1445	1467	0.02	1.992264	8	10	0.08	2800	106.8559	40.92395	-91.39365
94835	-577	934	730	0.3988662	1.742898	219.1908	0	11	4002	1349	1287	1411	1349	0.02	2.020947	8	10	0.08	2800	106.8559	40.92395	-91.39365
94983	773	108	895	-0.7906181	1.133653	217.2692	0	11	4004	1400	1180	1376	1488	0.02	2.083756	8	10	0.08	2800	106.8559	40.92395	-91.39365
95126	1120	-106	1402	1.479664	-0.1633472	214.4938	0	11	4004	1267	1309	1489	1387	0.02	2.143692	8	10	0.08	2800	106.8559	40.92395	-91.39365
95254	-1347	-855	1502	0.07727115	0.7299668	210.9275	0	11	4002	1305	1185	1449	1541	0.02	2.216779	8	10	0.08	2800	106.8559	40.92395	-91.39365
95352	-119	1870	1016	-0.3211659	-0.3799838	209.3986	0	11	4003	1405	1255	1357	1491	0.02	2.229073	8	10	0.08	2800	106.8559	40.92394	-91.39365
95537	-63	1382	23	-0.5208949	-4.08613	205.7571	0	11.46	4003	1481	1371	1309	1391	0.02	2.252162	8	10	0.08	2800	106.8559	40.92394	-91.39365
95606	475	916	-150	-0.1080881	-5.212781	205.6544	0	11.46	4004	1294	1512	1504	1266	0.02	2.249979	8	10	0.08	2800	106.8559	40.92394	-91.39365
95678	-549	-788	-597	0.2578438	-4.965245	205.7807	0	11.46	4004	1373	1287	1463	1509	0.02	2.243806	8	10	0.08	2800	106.8559	40.92394	-91.39365
95736	-1234	-1023	-1139	-0.633174	-3.757936	206.4051	0	11.46	4002	1514	1404	1344	1350	0.02	2.237801	8	10	0.08	2800	106.8559	40.92394	-91.39365
95921	134	-922	94	0.8832009	-1.993758	208.9021	0	11.46	4003	1282	1600	1548	1178	0.02	2.211636	8	10	0.08	2800	106.8559	40.92394	-91.39365
95945	134	-922	94	0.8832009	-1.993758	208.9021	0	11.46	4003	1260	1414	1570	1360	0.02	2.208881	8	10	0.08	2800	106.8559	40.92394	-91.39365
96042	-1326	-652	94	0.160266	0.1349593	209.7816	0	11.46	4003	1397	1327	1417	1423	0.02	2.207237	8	10	0.08	2800	106.8559	40.92394	-91.39365
96153	519	148	253	-0.4885259	0.6723825	209.8759	0	11.46	4003	1461	1471	1345	1279	0.02	2.214256	8	10	0.08	2800	106.8559	40.92394	-91.39365
96376	-1264	1211	-281	0.3962686	-0.8590134	209.9133	0	11.34	4003	1480	1364	1354	1378	0.02	2.214272	8	10	0.08	2800	106.8559	40.92393	-91.39366
96501	-1136	-1400	306	-0.9113471	-0.4708966	210.6012	0	11.34	4004	1281	1237	1517	1493	0.02	2.235328	8	10	0.08	2800	106.8559	40.92393	-91.39366
96570	458	-642	589	-1.331733	0.6432339	210.8228	0	11.34	4003	1255	1497	1535	1253	0.02	2.241087	8	10	0.08	2800	106.8559	40.92393	-91.39366
96733	-138	-868	-20	-0.2677605	0.4700881	210.6985	0	11.34	4004	1268	1444	1518	1282	0.02	2.26318	8	10	0.08	2800	106.8559	40.92393	-91.39366
96809	416	211	-160	0.7150648	1.100492	210.9975	0	11.34	4004	1458	1280	1330	1436	0.02	2.270821	8	10	0.08	2800	106.8559	40.92393	-91.39366
96950	-1444	209	443	0.05109756	-0.4660782	210.773	0	11.34	4004	1421	1325	1365	1405	0.02	2.279337	8	10	0.08	2800	106.8559	40.92393	-91.39366
97052	1433	-1805	880	-1.009563	0.887386	209.9127	0	11.34	4003	1170	1286	1620	1468	0.02	2.289608	8	10	0.08	2800	106.8559	40.92393	-91.39366
97248	451	1176	808	1.273212	-0.1422323	208.7755	0	12.02	4002	1303	1303	1493	1481	0.02	2.285243	8	10	0.08	2800	106.8559	40.92393	-91.39366
97282	-872	-117	259	0.7933754	-0.8517846	208.2684	0	12.02	4004	1432	1112	1386	1654	0.02	2.28387	8	10	0.08	2800	106.8559	40.92393	-91.39366
97406	-228	211	370	0.8799898	-0.6702613	208.2961	0	12.02	4004	1458	1222	1362	1554	0.02	2.27019	8	10	0.08	2800	106.8559	40.92393	-91.39366
97495	47	-16	-326	0.5431936	-1.299598	208.5887	0	12.02	4003	1285	1249	1565	1561	0.02	2.246401	8	10	0.08	2800	106.8559	40.92393	-91.39366
97561	312	-601	-245	0.6823907	-0.5661286	208.87	0	12.02	4003	1465	1409	1383	1367	0.02	2.242942	8	10	0.08	2800	106.8559	40.92393	-91.39366
97751	1017	407	-772	-0.2381563	-0.07614174	210.0381	0	12.02	4003	1294	1558	1550	1210	0.02	2.202571	8	10	0.08	2800	106.8559	40.92393	-91.39366
97843	-542	172	-969	0.2078094	-1.060493	210.5762	0	12.02	4004	1659	1229	1213	1556	0.02	2.181473	8	10	0.08	2800	106.8559	40.92393	-91.39366
97891	-137	-35	-713	0.3013556	-1.13369	210.573	0	12.02	4004	1448	1362	1408	1394	0.02	2.17241	8	10	0.08	2800	106.8559	40.92393	-91.39366
97958	79	-1370	343	0.7369691	-0.705861	210.696	0	12.02	4002	1357	1255	1469	1503	0.02	2.167561	8	10	0.08	2800	106.8559	40.92393	-91.39366
98056	-1493	-1036	-213	0.3564728	1.396896	211.1951	0	12.02	4004	1349	1325	1475	1431	0.02	2.157092	8	10	0.08	2800	106.8559	40.92392	-91.39366
98192	-54	249	-103	-0.800508	1.132565	211.9788	0	11.68	4004	1384	1262	1458	1492	0.02	2.14474	8	10	0.08	2800	106.8559	40.92392	-91.39366
98337	644	1258	716	0.2326469	0.2837511	211.8556	0	11.68	4003	1388	1562	1462	1200	0.02	2.128082	8	10	0.08	2800	106.8559	40.92392	-91.39366
98445	165	-456	553	1.213185	-0.3037705	211.6783	0	11.68	4004	1489	1361	1351	1411	0.02	2.10045	8	10	0.08	2800	106.8559	40.92392	-91.39366
98477	-658	-623	848	0.9092392	0.1074334	211.4157	0	11.68	4003	1359	1549	1475	1233	0.02	2.095027	8	10	0.08	2800	106.8559	40.92392	-91.39366
98554	-385	536	-164	-0.02998276	0.2243167	210.6877	0	11.68	4004	1437	1421	1423	1359	0.02	2.083208	8	10	0.08	2800	106.8559	40.92392	-91.39366
98683	-400	1394	343	0.174096	-1.588432	210.2455	0	11.68	4004	1386	1578	1472	1232	0.02	2.04336	8	10	0.08	2800	106.8559	40.92392	-91.39366
98815	1162	-1837	882	-1.016904	-0.5787047	209.5893	0	11.68	4003	1159	1527	1695	1307	0.02	2.002955	8	10	0.08	2800	106.8559	40.92392	-91.39366
98941	-72	1070	162	-0.6469063	0.2335921	208.6655	0	11.68	4004	1305	1563	1499	1233	0.02	1.983035	8	10	0.08	2800	106.8559	40.92392	-91.39366
99039	624	-1567	769	-0.04512019	0.4599038	207.6587	0	11.68	4004	1333	1287	1479	1509	0.02	1.963918	8	10	0.08	2800	106.8559	40.92392	-91.39366
99126	-708	-66	906	-0.2740147	1.592965	207.0575	0	11.4	4002	1325	1391	1481	1395	0.02	1.958994	8	10	0.08	2800	106.8559	40.92392	-91.39366
99205	819	858	-225	-0.09239037	0.4330522	207.3055	0	11.4	4004	1412	1414	1410	1340	0.02	1.95435	8	10	0.08	2800	106.8559	40.92392	-91.39366
99285	311	-584	-564	0.4177093	0.3180481	208.2973	0	11.4	4002	1346	1316	1460	1434	0.02	1.954166	8	10	0.08	2800	106.8559	40.92392	-91.39366
99348	536	82	-430	0.5093149	0.4110065	208.7581	0	11.4	4004	1338	1382	1490	1370	0.02	1.953404	8	10	0.08	2800	106.8559	40.92392	-91.39366
99432	-123	-332	-804	0.8878325	0.2972842	209.5753	0	11.4	4004	1345	1345	1489	1389	0.02	1.953307	8	10	0.08	2800	106.8559	40.92392	-91.39366
99555	115	866	-889	1.049539	-0.3318891	211.2494	0	11.4	4004	1541	1207	1289	1503	0.02	1.960499	8	10	0.08	2800	106.8559	40.92392	-91.39366
99624	-1196	363	-252	0.9370457	-1.058388	211.8695	0	11.4	4004	1350	1194	1466	1530	0.02	1.965798	8	10	0.08	2800	106.8559	40.92392	-91.39366
99728	-18	-1702	-199	-0.1817736	1.722035	212.8428	0	11.4	4004	1322	1238	1504	1468	0.02	1.983015	8	10	0.08	2800	106.8559	40.92392	-91.39366
99976	541	646	1618	-1.435507	-0.948465	211.0986	0	11.46	4003	1253	1403	1525	1331	0.02	2.021881	8	10	0.08	2800	106.8559	40.92392	-91.39366
100124	2681	66	1958	1.459405	0.3632527	208.8594	0	11.46	4003	1200	1612	1546	1134	0.02	2.055163	8	10	0.08	2800	106.8559	40.92392	-91.39366
100157	854	452	1766	1.769469	0.1938349	208.2548	0	11.46	4004	1260	1448	1506	1318	0.02	2.061653	8	10	0.08	2800	106.8559	40.92392	-91.39366
100308	-499	-263	895	0.883989	-0.4073934	206.1674	0	11.46	4003	1240	1446	1524	1318	0.02	2.08106	8	10	0.08	2800	106.8559	40.92392	-91.39366
100358	272	408	1306	0.3698936	-0.4523143	205.209	0	11.46	4004	1303	1417	1451	1357	0.02	2.084662	8	10	0.08	2800	106.8559	40.92392	-91.39366
100443	72	-342	241	1.229357	-0.3620771	204.495	0	11.46	4003	1386	1344	1370	1412	0.02	2.10413	8	10	0.08	2800	106.8559	40.92392	-91.39366
100571	-747	1710	-714	-0.8309686	-0.7320427	203.1404	0	11.46	4002	1292	1414	1460	1358	0.02	2.122905	8	10	0.08	2800	106.8559	40.92392	-91.39366
100628	627	2799	-1026	-0.6815534	-2.009167	203.2444	0	11.46	4004	1333	1465	1449	1297	0.02	2.132667	8	10	0.08	2800	106.8559	40.92392	-91.39366
100727	637	4970	-1014	1.952895	-8.051497	204.4392	0	11.46	4003	1358	1434	1448	1328	0.02	2.133778	8	10	0.08	2800	106.8559	40.92392	-91.39366
100871	-977	5954	-354	-0.2028974	-18.96395	206.2394	0	11.74	4004	1282	1402	1528	1360	0.02	2.129068	8	10	0.08	2800	106.8559	40.92392	-91.39366
101030	-1024	1045	-28	0.3242845	-27.91201	208.6977	0	11.74	4003	1315	1553	1509	1223	0.02	2.112845	8	10	0.08	2800	106.8559	40.92392	-91.39366
101064	-618	1319	-347	-1.294262	-27.91077	208.8805	0	11.74	4004	1315	1553	1509	1223	0.02	2.106039	8	10	0.08	2800	106.8559	40.92392	-91.39366
101130	819	832	-399	-1.10815	-28.32202	209.2839	0	11.74	4002	1457	1287	1393	1463	0.02	2.095064	8	10	0.08	2800	106.8559	40.92392	-91.39366
101267	847	-7697	721	0.4414381	-22.31499	209.5121	0	11.74	4003	1127	1263	1687	1511	0.02	2.083575	8	10	0.08	2800	106.8559	40.92392	-91.39366
101334	-367	-6094	-604	0.661975	-9.165071	209.8175	0	11.74	4004	1427	1369	1415	1393	0.02	2.079386	8	10	0.08	2800	106.8559	40.92392	-91.39365
101451	224	-1523	600	0.8222639	-4.607177	209.6903	0	11.74	4003	1245	1335	1569	1403	0.02	2.078341	8	10	0.08	2800	106.8559	40.92392	-91.39365
101589	1156	-148	-709	-0.6578054	-3.073898	209.1473	0	11.74	4003	1392	1470	1394	1268	0.02	2.097555	8	10	0.08	2800	106.8559	40.92392	-91.39365
101645	839	-61	-587	1.161411	-3.702808	208.9587	0	11.74	4003	1439	1185	1361	1547	0.02	2.101356	8	10	0.08	2800	106.8559	40.92392	-91.39365
101742	-1068	-1276	74	1.648586	-3.02344	208.5714	0	11.74	4003	1476	1182	1324	1550	0.02	2.114529	8	10	0.08	2800	106.8559	40.92393	-91.39365
101821	-1201	204	-1048	1.008912	-3.231935	208.4819	0	11.4	4003	1369	1205	1447	1535	0.02	2.121175	8	10	0.08	2800	106.8559	40.92393	-91.39365
101922	-351	3164	55	0.9862128	-6.852883	208.2814	0	11.4	4002	1340	1226	1462	1536	0.02	2.122157	8	10	0.08	2800	106.8559	40.92393	-91.39364
102075	-462	1897	-400	-0.6046017	-14.16445	208.4832	0	11.4	4003	1299	1635	1489	1121	0.02	2.126983	8	10	0.08	2800	106.8559	40.92393	-91.39362
102177	-234	-1539	-438	-0.7909922	-13.79362	208.4863	0	11.4	4002	1376	1284	1416	1452	0.02	2.139692	8	10	0.08	2800	106.8559	40.92393	-91.39362
102225	536	-3373	322	-0.5389642	-12.35726	208.3848	0	11.4	4002	1318	1260	1476	1498	0.02	2.142161	8	10	0.08	2800	106.8559	40.92393	-91.39362
102368	9	-1585	515	-1.580728	-1.756488	207.3527	0	11.4	4003	1282	1408	1506	1336	0.02	2.148994	8	10	0.08	2800	106.8559	40.92393	-91.39362
102479	2779	852	728	1.097039	-2.071377	207.344	0	11.4	4004	1268	1594	1464	1134	0.02	2.171905	8	10	0.08	2800	106.8559	40.92393	-91.39362
102556	-289	165	346	2.158275	-2.882135	207.2303	0	11.4	4003	1352	1422	1398	1316	0.02	2.178287	8	10	0.08	2800	106.8559	40.92393	-91.39362
102643	-1142	-1559	660	-0.383646	-1.49492	206.9757	0	11.4	4004	1366	990	1434	1746	0.02	2.18846	8	10	0.08	2800	106.8559	40.92393	-91.3936
102822	209	696	-796	0.8075562	-1.167979	207.2258	0	11.34	4004	1380	1308	1416	1436	0.02	2.197646	8	10	0.08	2800	106.8559	40.92393	-91.39359
102868	953	1580	347	1.029095	-1.958005	207.4062	0	11.34	4003	1321	1407	1475	1337	0.02	2.199396	8	10	0.08	2800	106.8559	40.92393	-91.39359
102933	-269	49	-115	0.9142312	-3.21216	207.7124	0	11.34	4003	1281	1267	1503	1497	0.02	2.203676	8	10	0.08	2800	106.8559	40.92393	-91.39359
103081	1994	-4494	-747	0.882169	3.159732	208.1321	0	11.34	4003	1281	1409	1517	1353	0.02	2.19935	8	10	0.08	2800	106.8559	40.92394	-91.39358
103245	448	-5010	100	5.79334	17.46776	208.5481	0	11.34	4003	1284	1418	1508	1334	0.02	2.20323	8	10	0.08	2800	106.8559	40.92394	-91.39358
103322	-1678	-3724	882	3.850831	21.30204	208.347	0	11.34	4004	1409	1101	1391	1631	0.02	2.210437	8	10	0.08	2800	106.8559	40.92394	-91.39358
103355	961	-1582	-6	3.334018	22.63729	208.2942	0	11.34	4003	1391	1171	1411	1567	0.02	2.212539	8	10	0.08	2800	106.8559	40.92395	-91.39357
103496	2430	1303	-328	6.90307	20.31528	207.8466	0	11.34	4004	1429	1317	1385	1445	0.02	2.212018	8	10	0.08	2800	106.8559	40.92395	-91.39357
103672	512	-1075	30	6.8893	19.99079	207.6707	0	11.68	4003	1445	1261	1417	1537	0.02	2.163209	8	10	0.08	2800	106.8559	40.92395	-91.39355
103849	-257	-636	-230	7.23192	18.65206	208.3637	0	11.68	4003	1271	1679	1599	1155	0.02	2.043262	8	10	0.08	2800	106.8559	40.92395	-91.39355
104012	1594	-380	-2646	11.22697	16.20225	211.7064	0	11.68	4003	1383	1699	1525	1089	0.02	1.951843	8	10	0.08	2800	106.8559	40.92395	-91.39355
104054	-1556	-2519	-1804	11.41404	16.39808	212.5237	0	11.68	4004	1763	1113	1185	1635	0.02	1.929107	8	10	0.08	2800	106.8559	40.92395	-91.39355
104135	-2740	-960	-1828	7.830919	18.35854	214.5842	0	11.68	4002	1617	1363	1313	1383	0.02	1.898329	8	10	0.08	2800	106.8559	40.92395	-91.39355
104294	-366	-440	-1927	7.953958	20.24527	218.1128	0	11.68	4002	1590	1240	1346	1448	0.02	1.860341	8	10	0.08	2800	106.8559	40.92395	-91.39355
104432	-3061	-1193	-98	4.41786	18.52155	219.6286	0	11.68	4003	1452	1310	1426	1404	0.02	1.838878	8	10	0.08	2800	106.8559	40.92395	-91.39355
104534	680	735	534	1.12479	19.87772	220.2332	0	11.68	4004	1474	1562	1394	1154	0.02	1.824006	8	10	0.08	2800	106.8559	40.92395	-91.39355
104697	-576	2835	595	2.397603	12.79157	219.3465	0	11.29	4003	1457	1201	1415	1511	0.02	1.816177	8	10	0.08	2800	106.8559	40.92395	-91.39357
104752	-1308	4354	938	1.881207	10.61501	218.9283	0	11.29	4003	1478	1322	1390	1426	0.02	1.807324	8	10	0.08	2800	106.8559	40.92395	-91.39357
104826	-1737	4746	812	0.8637754	7.918678	218.3861	0	11.29	4003	1438	1470	1434	1294	0.02	1.797235	8	10	0.08	2800	106.8559	40.92395	-91.39358
104963	4	1063	449	0.9518253	-3.164353	215.6426	0	11.29	4003	1415	1371	1567	1499	0.02	1.73998	8	10	0.08	2800	106.8559	40.92395	-91.39359
105022	-1260	1922	398	0.6294891	-3.666303	215.2169	0	11.29	4004	1613	1285	1305	1525	0.02	1.699002	8	10	0.08	2800	106.8559	40.92395	-91.39359
105119	674	7392	1822	0.9244688	-14.90763	212.4504	0	11.29	4003	1742	1470	1278	1462	0.02	1.637152	8	10	0.08	2800	106.8559	40.92395	-91.39359
105331	454	-3356	1625	-0.2820469	-19.45745	207.4069	0	11.29	4003	1258	1572	1622	1316	0.02	1.46916	8	10	0.08	2800	106.8559	40.92394	-91.3936
105478	464	-1245	2166	0.6396442	-11.14622	201.5072	0	11	4003	1390	1484	1520	1514	0.02	1.382277	8	10	0.08	2800	106.8559	40.92394	-91.39362
105544	-654	1389	1337	0.9687118	-10.62908	200.5033	0	11	4004	1466	1484	1364	1418	0.02	1.339596	8	10	0.08	2800	106.8559	40.92394	-91.39362
105719	-738	1311	822	1.527544	-12.29757	197.0427	0	11	4003	1397	1437	1425	1501	0.02	1.271018	8	10	0.08	2800	106.8559	40.92394	-91.39362
105740	-656	-794	703	1.374368	-11.29238	196.2985	0	11	4002	1496	1340	1326	1558	0.02	1.271018	8	10	0.08	2800	106.8559	40.92394	-91.39362
105839	213	2844	-1014	1.422392	-11.34077	196.2479	0	11	4003	1347	1341	1467	1445	0.02	1.244753	8	10	0.08	2800	106.8559	40.92394	-91.39362
105934	-1755	5493	-1100	3.01914	-22.50286	198.9428	0	11	4003	1280	1526	1514	1264	0.02	1.249953	8	10	0.08	2800	106.8559	40.92394	-91.39365
106047	-499	1327	-1813	-2.751615	-26.07158	201.4669	0	11	4003	1427	1437	1357	1283	0.02	1.277428	8	10	0.08	2800	106.8559	40.92394	-91.39365
106178	199	-5579	-1248	-0.2338103	-20.34476	204.4392	0	11	4003	1194	1544	1536	1138	0.02	1.314739	8	10	0.08	2800	106.8559	40.92394	-91.39365
106279	68	-7131	-1547	-0.3978633	-11.60356	205.9174	0	11	4002	1353	1417	1401	1253	0.02	1.39514	8	10	0.08	2800	106.8559	40.92394	-91.39366
106324	-820	-4093	-928	-0.6353655	-4.719669	207.1265	0	11	4003	1305	1267	1327	1363	0.02	1.41116	8	10	0.08	2800	106.8559	40.92394	-91.39366
106439	945	162	-810	-0.54657	-1.068838	208.4954	0	11.34	4003	1477	1419	1257	1227	0.02	1.515924	8	10	0.08	2800	106.8559	40.92394	-91.39367
106556	-332	4148	-252	0.4690903	-4.382848	209.0265	0	11.34	4003	1375	1279	1353	1389	0.02	1.632183	8	10	0.08	2800	106.8559	40.92394	-91.39367
106620	907	3788	117	0.6467568	-10.35465	208.9972	0	11.34	4003	1406	1432	1306	1232	0.02	1.650749	8	10	0.08	2800	106.8559	40.92394	-91.39368
106792	-477	5108	355	2.950259	-22.59575	208.9755	0	11.34	4004	1219	1271	1447	1351	0.02	1.796832	8	10	0.08	2800	106.8559	40.92394	-91.39368
106868	-1513	1938	-206	1.321306	-25.57714	208.8774	0	11.34	4003	1312	1354	1358	1256	0.02	1.843762	8	10	0.08	2800	106.8559	40.92394	-91.39368
106947	970	2863	-418	0.727058	-28.06034	209.3787	0	11.34	4004	1268	1240	1394	1342	0.02	1.877857	8	10	0.08	2800	106.8559	40.92394	-91.39368
107089	-812	-8639	-165	-0.2998586	-22.83987	210.132	0	11.34	4004	1305	1121	1441	1533	0.02	1.976659	8	10	0.08	2800	106.8559	40.92394	-91.39369
107228	500	-8261	-854	-1.717397	-1.035195	210.6077	0	11.34	4002	1377	1261	1387	1399	0.02	2.07979	8	10	0.08	2800	106.8559	40.92394	-91.39369
107306	3015	-5049	-481	1.373721	5.716851	210.6712	0	11.34	4003	1483	1351	1289	1345	0.02	2.115709	8	10	0.08	2800	106.8559	40.92394	-91.39369
107366	932	-6418	582	4.15711	14.51831	210.2534	0	11.34	4002	1249	1253	1517	1461	0.02	2.157647	8	10	0.08	2800	106.8559	40.92394	-91.39369
107421	1389	-4750	765	4.678258	17.3654	210.1601	0	11.34	4002	1298	1318	1428	1372	0.02	2.171856	8	10	0.08	2800	106.8559	40.92394	-91.39369
107599	-126	9991	93	6.405629	7.199224	208.6567	0	11.34	4004	1623	1281	1175	1477	0.02	2.202118	8	10	0.08	2800	106.8559	40.92394	-91.39369
107653	1568	4627	161	7.572644	-6.823448	207.8889	0	11.34	4002	1404	1286	1418	1488	0.02	2.199706	8	10	0.08	2800	106.8559	40.92394	-91.39369
107702	2163	2955	622	8.613341	-8.762845	207.7665	0	11.34	4003	1364	1418	1442	1376	0.02	2.197399	8	10	0.08	2800	106.8559	40.92394	-91.39369
107853	39	832	616	11.0775	-11.16292	207.1749	0	11.34	4004	1286	1540	1526	1252	0.02	2.17842	8	10	0.08	2800	106.8559	40.92394	-91.39369
107982	-3085	-3853	-326	6.770106	-7.246866	206.7737	0	11.34	4002	1372	1228	1466	1526	0.02	2.166818	8	10	0.08	2800	106.8559	40.92394	-91.39369
108071	-730	-3597	-603	5.245873	-1.019066	207.3688	0	11.34	4002	1364	956	1466	1802	0.02	2.155302	8	10	0.08	2800	106.8559	40.92394	-91.39369
108198	-2729	-256	-1040	2.785362	-1.603006	209.1045	0	11.68	4004	1492	1356	1350	1386	0.02	2.145863	8	10	0.08	2800	106.8559	40.92394	-91.39369
108311	-640	209	-1030	-0.773724	0.02065525	209.9485	0	11.68	4004	1435	1467	1399	1307	0.02	2.136778	8	10	0.08	2800	106.8559	40.92394	-91.39368
108396	-781	-571	-528	-0.9849572	0.1587196	210.0231	0	11.68	4004	1426	1418	1426	1350	0.02	2.119472	8	10	0.08	2800	106.8559	40.92394	-91.39368
108550	2052	213	-41	-7.033939	6.065769	209.6493	0	11.68	4003	1352	1544	1480	1252	0.02	2.092351	8	10	0.08	2800	106.8559	40.92394	-91.39368
108701	-1647	-433	678	-3.332443	-0.08460131	209.0383	0	11.68	4004	1358	1238	1388	1472	0.02	2.062272	8	10	0.08	2800	106.8559	40.92394	-91.39368
108862	101	-1420	-223	-5.293251	3.260969	208.4684	0	11.68	4003	1286	1268	1424	1394	0.02	2.018683	3	10	0.08	2800	106.8559	40.92394	-91.39368
108910	1792	1343	999	-3.170058	2.528693	207.6678	0	11.68	4002	1290	1406	1410	1294	0.02	1.98279	3	10	0.08	2800	106.8559	40.92394	-91.39367
108970	619	591	69	-1.863103	1.347809	207.1194	0	11.68	4004	1439	1369	1345	1423	0.02	1.974627	3	10	0.08	2800	106.8559	40.92394	-91.39367
109067	1611	1110	-514	-0.3270714	0.5596372	206.7173	0	11.8	4004	1607	1869	1647	1457	0.02	1.938112	3	10	0.08	2800	106.8559	40.92394	-91.39367
109196	-1452	-45	-995	1.14978	-2.196985	206.8244	0	11.8	4003	1713	1773	1771	1755	0.02	1.881962	3	10	0.08	2800	106.8559	40.92394	-91.39367
109349	-431	790	-1632	1.032569	-2.214304	209.9066	0	11.8	4003	1634	1808	1816	1666	0.02	1.836256	3	10	0.08	2800	106.8559	40.92394	-91.39366
109418	272	1343	-1701	1.247345	-3.75438	212.0755	0	11.8	4002	1659	1641	1677	1731	0.02	1.834335	3	10	0.08	2800	106.8559	40.92394	-91.39366
109476	1362	2328	-1720	2.096444	-5.628	213.5513	0	11.8	4004	1591	1597	1577	1571	0.02	1.840933	3	10	0.08	2800	106.8559	40.92394	-91.39366
109571	1574	620	-2700	5.295397	-7.877964	216.2726	0	11.8	4004	1548	1644	1574	1466	0.02	1.868966	3	10	0.08	2800	106.8559	40.92394	-91.39366
109718	-1634	1479	-910	3.896138	-7.577639	220.0156	0	11.8	4002	1602	1220	1446	1752	0.02	1.935284	3	10	0.08	2800	106.8559	40.92394	-91.39366
109864	1572	-3163	-3098	3.8952	-5.535174	226.366	0	11.8	4004	1635	1675	1653	1557	0.02	2.152347	3	10	0.08	2800	106.8559	40.92394	-91.39365
110015	-1461	-5	-1675	3.357284	-1.533814	229.9946	0	11.17	4004	1635	1647	1673	1609	0.02	2.387214	3	10	0.08	2800	106.8559	40.92394	-91.39365
110075	-158	-355	-265	2.498988	-1.11566	231.2131	0	11.17	4004	1648	1522	1586	1628	0.02	2.595961	3	10	0.08	2800	106.8559	40.92394	-91.39365
110145	-206	503	-345	1.470375	-1.595531	232.1924	0	11.17	4002	1552	1562	1618	1576	0.02	2.764951	3	10	0.08	2800	106.8559	40.92394	-91.39365
110281	879	-1755	-731	0.1768634	-0.8472799	233.4526	0	11.17	4003	1591	1641	1541	1514	0.02	3.078943	3	10	0.08	2800	106.8559	40.92394	-91.39365
110378	-733	1100	47	1.453325	-1.040004	233.2382	0	11.17	4004	1434	1378	1574	1610	0.02	3.279239	3	10	0.08	2800	106.8559	40.92393	-91.39365
110501	-1381	354	1613	-0.661374	-3.992926	232.0531	0	11.17	4002	1231	1147	1407	1503	0.02	3.72586	3	10	0.08	2800	106.8559	40.92393	-91.39365
110573	420	-1925	-246	-0.03982611	-2.125684	231.0169	0	11.17	4003	1371	1171	1285	1437	0.02	3.894182	3	10	0.08	2800	106.8559	40.92393	-91.39364
110649	517	-621	-14	0.4585624	0.08652649	230.1295	0	11.17	4002	1313	1243	1335	1373	0.02	4.07113	3	10	0.08	2800	106.8559	40.92393	-91.39364
110752	-858	-1158	1139	1.270914	0.8944255	229.3896	0	11.17	4003	1327	1347	1299	1287	0.02	4.673521	3	10	0.08	2800	106.8559	40.92393	-91.39363
110868	-73	-660	979	-0.04756029	2.083862	227.9619	0	11.17	4004	1093	1209	1529	1429	0.02	5.020303	3	10	0.08	2800	106.8559	40.92393	-91.39363
110969	-117	1561	340	-1.099855	0.1618634	226.2271	0	11.74	4002	1275	1307	1349	1329	0.02	5.516859	3	10	0.08	2800	106.8559	40.92393	-91.39362
111063	357	-457	926	0.1148383	-1.099123	225.2575	0	11.74	4003	1155	1151	1463	1491	0.02	5.712407	3	10	0.08	2800	106.8559	40.92393	-91.39362
111161	-411	-653	-235	-0.2236168	0.2780457	224.3834	0	11.74	4003	1413	1255	1219	1381	0.02	6.152005	3	10	0.08	2800	106.8559	40.92393	-91.39362
111351	1277	-3397	135	2.122515	5.630406	223.8252	0	11.74	4004	1189	1227	1433	1419	0.02	6.786829	3	10	0.08	2800	106.8559	40.92394	-91.39362
111448	1153	222	417	5.440098	8.902059	223.7304	0	11.74	4003	1224	1254	1394	1396	0.02	6.969476	3	10	0.08	2800	106.8559	40.92394	-91.39362
111541	-22	850	-137	4.696794	8.096865	223.8607	0	11.74	4003	1228	1336	1394	1310	0.02	7.288401	3	10	0.08	2800	106.8559	40.92394	-91.39362
111664	810	1836	340	6.729029	5.030393	224.6354	0	11.74	4002	1242	1112	1390	1532	0.02	7.616541	3	10	0.08	2800	106.8559	40.92394	-91.39361
111748	863	1182	-1006	6.958398	2.519939	225.2052	0	11.74	4004	1394	1288	1262	1328	0.02	7.950524	3	10	0.08	2800	106.8559	40.92394	-91.39361
111906	-916	-516	-803	7.690416	0.1671697	226.1693	0	11.4	4004	1326	1366	1312	1252	0.02	8.311258	3	10	0.08	2800	106.8559	40.92394	-91.39361
111948	295	-1300	-928	7.230911	0.8556148	226.8253	0	11.4	4003	1180	1116	1458	1502	0.02	8.441349	3	10	0.08	2800	106.8559	40.92394	-91.39361
112044	675	-333	-271	7.599588	2.056552	227.3891	0	11.4	4002	1264	1410	1372	1214	0.02	8.641032	3	10	0.08	2800	106.8559	40.92394	-91.3936
112153	446	-953	-791	10.28651	3.173984	228.3056	0	11.4	4003	1209	1275	1433	1343	0.02	8.837708	3	10	0.08	2800	106.8559	40.92394	-91.3936
112269	958	1423	196	11.16929	1.749174	228.9614	0	11.4	4003	1168	1324	1484	1300	0.02	9.022398	3	10	0.08	2800	106.8559	40.92394	-91.3936
112351	-127	-1272	423	11.61764	1.475375	229.1856	0	11.4	4002	1155	1161	1495	1461	0.02	9.073126	3	10	0.08	2800	106.8559	40.92394	-91.3936
112504	-396	434	206	8.992716	1.945559	228.1894	0	11.4	4004	1309	1161	1329	1469	0.02	9.296263	3	10	0.08	2800	106.8559	40.92394	-91.3936
112554	504	1128	404	9.130672	1.468456	227.9234	0	11.4	4002	1157	1415	1471	1221	0.02	9.358741	3	10	0.08	2800	106.8559	40.92394	-91.3936
112621	-3940	636	793	6.83079	-0.1639384	226.8932	0	11.4	4002	1326	1008	1306	1620	0.02	9.46022	3	10	0.08	2800	106.8559	40.92394	-91.3936
112812	623	-204	68	2.912885	1.907265	227.2308	0	11.34	4002	1138	1318	1490	1306	0.02	9.56543	3	10	0.08	2800	106.8559	40.92394	-91.3936
112866	-100	768	-650	3.630178	1.25189	227.9624	0	11.34	4004	1269	1179	1389	1423	0.02	9.595048	3	10	0.08	2800	106.8559	40.92394	-91.3936
112943	-1943	-79	-1579	2.249537	0.4911719	229.1023	0	11.34	4004	1330	1316	1334	1276	0.02	9.653231	3	10	0.08	2800	106.8559	40.92395	-91.3936
113008	-895	-1030	-1337	0.6571931	0.2935277	231.3388	0	11.34	4003	1117	1211	1553	1371	0.02	9.660214	3	10	0.08	2800	106.8559	40.92395	-91.3936
113186	-998	-463	-1671	-0.7553889	1.434965	234.6255	0	11.34	4004	1272	1120	1338	1334	0.02	9.691707	3	10	0.08	2800	106.8559	40.92395	-91.3936
113218	-229	-460	-1429	-0.9365413	1.755586	235.4791	0	11.34	4003	1192	932	1432	1536	0.02	9.692981	3	10	0.08	2800	106.8559	40.92395	-91.3936
113368	68	861	-593	-1.412326	0.04225025	239.083	0	11.34	4002	1326	1096	1352	1422	0.02	9.689213	3	10	0.08	2800	106.8559	40.92395	-91.3936
113436	-138	521	-731	-1.478438	-0.3300499	239.5415	0	11.34	4004	1318	1220	1372	1314	0.02	9.669211	3	10	0.08	2800	106.8559	40.92395	-91.3936
113510	-790	922	-279	-1.749578	-1.467043	240.2944	0	11.34	4003	1383	1285	1361	1263	0.02	9.605511	3	10	0.08	2800	106.8559	40.92395	-91.3936
113656	1798	1843	818	-0.8693759	-3.473439	239.4387	0	11.34	4003	1322	1174	1438	1366	0.02	9.38011	3	10	0.08	2800	106.8559	40.92395	-91.3936
113720	585	1145	1395	-0.3765138	-4.53994	238.7679	0	11.34	4003	1421	1279	1319	1281	0.02	9.351044	3	10	0.08	2800	106.8559	40.92395	-91.3936
113838	-1508	-2225	1581	-2.207706	-1.872541	235.5403	0	11.34	4004	1398	1262	1340	1296	0.02	9.25319	3	10	0.08	2800	106.8559	40.92395	-91.39361
113956	2036	1170	1473	-1.454828	-2.009202	233.5832	0	11.34	4004	1323	1269	1409	1299	0.02	9.137089	3	10	0.08	2800	106.8559	40.92395	-91.39361
114064	-472	-120	1368	-0.2616915	-3.135821	231.3195	0	11.34	4003	1413	1315	1297	1275	0.02	9.040932	3	10	0.08	2800	106.8559	40.92395	-91.39361
114194	1830	1207	1504	0.3890874	-0.3515195	226.8022	0	11.34	4003	1317	1259	1383	1345	0.02	8.849871	3	10	0.08	2800	106.8559	40.92395	-91.39362
114265	-74	2974	1240	0.6514085	-2.331737	225.4825	0	11.34	4002	1352	1178	1340	1430	0.02	8.654359	3	10	0.08	2800	106.8559	40.92395	-91.39362
114315	889	3717	251	0.8260469	-4.131901	225.0689	0	11.34	4002	1425	1415	1277	1183	0.02	8.512188	3	10	0.08	2800	106.8559	40.92395	-91.39362
114420	-1719	1259	-213	2.042815	-12.17461	225.1352	0	11.34	4002	1391	1139	1319	1451	0.02	8.457549	3	10	0.08	2800	106.8559	40.92395	-91.39362
114496	-1703	-3272	256	-0.4615747	-10.19169	225.1489	0	11.63	4003	1259	1155	1451	1435	0.02	8.13376	3	10	0.08	2800	106.8559	40.92395	-91.39362
114594	2486	5544	87	4.756187	-13.03101	224.7943	0	11.63	4002	1295	1207	1419	1379	0.02	8.071804	3	10	0.08	2800	106.8559	40.92395	-91.39362
114667	-2080	1477	-607	5.250075	-15.55472	224.8849	0	11.63	4002	1475	1163	1239	1423	0.02	7.905952	3	10	0.08	2800	106.8559	40.92395	-91.39362
114844	1990	3072	622	0.0827785	-13.73783	225.2124	0	11.63	4003	1280	1338	1418	1264	0.02	7.573727	3	10	0.08	2800	106.8559	40.92395	-91.39362
114877	1945	3944	297	1.227007	-15.55596	224.9405	0	11.63	4004	1355	1329	1343	1277	0.02	7.393499	3	10	0.08	2800	106.8559	40.92395	-91.39363
115021	-1813	166	1411	2.333472	-19.09246	223.3506	0	11.63	4003	1329	1105	1353	1517	0.02	6.741463	3	10	0.08	2800	106.8559	40.92395	-91.39363
115079	-167	-540	1996	1.268254	-16.68579	220.5928	0	11.63	4004	1381	1085	1279	1555	0.02	6.719688	3	10	0.08	2800	106.8559	40.92395	-91.39364
115174	676	804	1742	1.608468	-16.34426	217.8703	0	11.63	4003	1295	1405	1347	1253	0.02	6.081915	3	10	0.08	2800	106.8559	40.92395	-91.39364
115386	272	-4458	1604	1.983857	-6.725447	213.5732	0	11.8	4004	1237	1337	1391	1343	0.02	5.558874	3	10	0.08	2800	106.8559	40.92395	-91.39364
115452	-1236	-1147	1305	1.384742	-3.247285	211.8616	0	11.8	4004	1508	1474	1328	1418	0.02	5.112858	3	10	0.08	2800	106.8559	40.92395	-91.39365
115484	-1236	-1147	1305	1.384742	-3.247285	211.8616	0	11.8	4004	1508	1474	1328	1418	0.02	5.112858	3	10	0.08	2800	106.8559	40.92395	-91.39365
115582	1089	1588	1056	1.931525	-5.899692	209.1198	0	11.8	4003	1812	1968	1664	1584	0.02	4.61434	3	10	0.08	2800	106.8559	40.92395	-91.39365
115686	-923	-800	2242	1.506012	-6.135245	206.4915	0	11.8	4003	1767	1845	1767	1821	0.02	4.2958	3	10	0.08	2800	106.8559	40.92394	-91.39365
115770	151	-806	987	1.507258	-4.771487	204.7466	0	11.8	4003	1807	1817	1729	1847	0.02	3.932404	3	10	0.08	2800	106.8559	40.92394	-91.39365
115878	-90	-1536	-526	1.188323	-2.846162	204.2475	0	11.8	4003	1815	1835	1753	1797	0.02	3.6077	3	10	0.08	2800	106.8559	40.92394	-91.39365
116035	-219	1305	-1825	0.6103659	-0.9263202	207.3088	0	11.8	4003	1447	1735	2027	1751	0.02	3.251908	3	10	0.08	2800	106.8559	40.92394	-91.39365
116188	-3863	3219	-3511	-6.408047	-8.547718	213.8858	0	11.8	4003	1414	1154	1368	1484	0.02	2.892788	3	10	0.08	2800	106.8559	40.92394	-91.39365
116330	-1345	2555	-3025	-11.68862	-13.07295	220.6884	0	11.34	4002	1451	1237	1271	1309	0.02	2.641021	3	10	0.08	2800	106.8559	40.92393	-91.39365
116466	2428	381	-1952	-13.91116	-14.23692	224.8671	0	11.34	4003	1511	1257	1243	1317	0.02	2.560939	3	10	0.08	2800	106.8559	40.92393	-91.39365
116562	4239	-4680	-945	-6.1719	-9.455132	226.6162	0	11.34	4004	1302	1184	1428	1410	0.02	2.474475	3	10	0.08	2800	106.8559	40.92393	-91.39365
116665	-1407	-1998	264	-4.139855	-2.792396	226.5413	0	11.34	4004	1291	1361	1409	1251	0.02	2.404419	3	10	0.08	2800	106.8559	40.92393	-91.39365
116761	-71	-130	1389	-5.861193	-1.806026	225.1939	0	11.34	4004	1383	1157	1371	1505	0.02	2.364273	3	10	0.08	2800	106.8559	40.92393	-91.39365
116879	-1300	-2603	507	-6.34722	1.215864	223.3496	0	11.34	4002	1268	1198	1472	1494	0.02	2.327347	3	10	0.08	2800	106.8559	40.92393	-91.39365
117041	916	652	1715	-4.921538	0.7363864	220.8206	0	11.34	4004	1182	1272	1526	1436	0.02	2.267229	3	10	0.08	2800	106.8559	40.92392	-91.39365
117190	736	-189	1492	-5.152105	-0.2344059	216.1616	0	11.34	4003	1349	1553	1385	1185	0.02	2.23801	3	10	0.08	2800	106.8559	40.92392	-91.39365
117336	-5118	-911	343	-7.590946	-2.046179	212.9358	0	11.4	4002	1318	1464	1406	1324	0.02	2.206056	3	10	0.08	2800	106.8559	40.92392	-91.39365
117371	-5118	-911	343	-7.590946	-2.046179	212.9358	0	11.4	4002	1340	1216	1410	1558	0.02	2.194679	3	10	0.08	2800	106.8559	40.92392	-91.39365
117452	76	703	-333	-12.09854	0.1982537	213.0526	0	11.4	4004	1376	1104	1440	1700	0.02	2.163814	3	10	0.08	2800	106.8559	40.92392	-91.39365
117586	503	567	-1051	-9.155356	-0.9949306	214.4383	0	11.4	4004	1491	1265	1315	1501	0.02	2.10218	3	10	0.08	2800	106.8559	40.92392	-91.39365
117689	2425	-348	-897	-4.369027	0.4272257	216.4318	0	11.4	4003	1495	1303	1275	1403	0.02	2.06374	3	10	0.08	2800	106.8559	40.92392	-91.39365
117814	1452	1196	-1533	0.7468319	-0.905805	218.5829	0	11.4	4003	1406	1086	1404	1600	0.02	2.033017	3	10	0.08	2800	106.8559	40.92392	-91.39364
117889	-670	-320	-1430	0.386511	-1.224236	220.8499	0	11.4	4003	1314	1370	1508	1336	0.02	1.999687	3	10	0.08	2800	106.8559	40.92392	-91.39364
118004	794	290	-1609	-0.2339496	-0.5378288	223.5525	0	11.4	4002	1404	1312	1440	1380	0.02	1.952258	3	10	0.08	2800	106.8559	40.92392	-91.39364
118063	-1262	-768	-1725	0.964392	-0.5360883	226.3887	0	11.4	4002	1456	1220	1384	1452	0.02	1.946057	3	10	0.08	2800	106.8559	40.92392	-91.39364
118226	80	-1043	-916	-1.21263	1.846691	229.1297	0	11.29	4003	1275	1263	1559	1395	0.02	1.90517	3	10	0.08	2800	106.8559	40.92392	-91.39364
118283	682	-708	-697	-1.144166	2.410459	229.7095	0	11.29	4004	1372	1498	1454	1168	0.02	1.889534	3	10	0.08	2800	106.8559	40.92392	-91.39364
118348	1314	-2402	-209	0.2640203	3.726676	230.4259	0	11.29	4003	1419	1327	1495	1335	0.02	1.884791	3	10	0.08	2800	106.8559	40.92392	-91.39364
118462	-2261	-3660	-694	-2.727889	11.11462	231.398	0	11.29	4004	1486	1266	1440	1480	0.02	1.853002	3	10	0.08	2800	106.8559	40.92392	-91.39364
118614	2665	3551	-385	-1.427715	11.50349	231.9034	0	11.29	4008	1595	1719	1385	1089	0.02	1.80829	3	10	0.08	2800	106.8559	40.92392	-91.39364
118659	291	4127	720	2.146417	3.57162	231.5224	0	11.29	4004	1501	1507	1373	1223	0.02	1.799747	3	10	0.08	2800	106.8559	40.92392	-91.39364
118747	-2490	444	462	0.3361306	0.8610612	231.2498	0	11.29	4004	1373	1045	1483	1623	0.02	1.743306	3	10	0.08	2800	106.8559	40.92393	-91.39363
118872	-1854	-1513	-9	-3.640353	2.03364	231.2874	0	11.29	4002	1502	1080	1340	1558	0.02	1.699159	3	10	0.08	2800	106.8559	40.92393	-91.39363
119013	2875	1627	1417	-1.408153	2.230279	229.3822	0	11.46	4003	1233	1299	1517	1331	0.02	1.617393	3	10	0.08	2800	106.8559	40.92393	-91.39363
119046	2042	1810	1527	-0.2675049	1.217746	228.7075	0	11.46	4004	1268	1236	1480	1396	0.02	1.617393	3	10	0.08	2800	106.8559	40.92393	-91.39363
119157	-730	4	1575	-0.435437	-1.00453	225.5461	0	11.46	4004	1398	1296	1354	1356	0.02	1.550944	3	10	0.08	2800	106.8559	40.92393	-91.39363
119226	-779	-1264	1445	-1.63062	-0.170823	224.1062	0	11.46	4004	1354	1398	1398	1270	0.02	1.518345	3	10	0.08	2800	106.8559	40.92393	-91.39363
119329	371	-8	1269	-4.010958	0.7135946	221.0678	0	11.46	4002	1387	1143	1363	1527	0.02	1.46874	3	10	0.08	2800	106.8559	40.92393	-91.39363
119427	1398	526	956	-3.154071	0.4193326	219.6926	0	11.46	4002	1319	1451	1435	1255	0.02	1.427508	3	10	0.08	2800	106.8559	40.92393	-91.39363
119580	-120	443	624	-1.560776	-1.606563	216.6093	0	11.46	4002	1528	1460	1414	1418	0.02	1.378323	3	10	0.08	2800	106.8559	40.92393	-91.39363
119702	2799	2208	633	-0.05252488	-2.997232	215.7145	0	11.46	4003	1229	1451	1705	1423	0.02	1.329523	3	10	0.08	2800	106.8559	40.92393	-91.39363
119755	-2032	-478	-441	0.4699036	-3.390542	216.3536	0	11.46	4002	1285	1557	1655	1299	0.02	1.319231	3	10	0.08	2800	106.8559	40.92393	-91.39363
119940	-7020	-10298	4183	-12.29054	8.440355	211.3124	0	11.46	4003	1268	630	1358	2140	0.02	1.217656	3	10	0.08	2800	106.8559	40.92393	-91.39363
120043	-11224	-12765	8389	-36.63144	26.1245	197.1108	0	11.46	4003	1204	628	1204	2228	0.02	1.158242	3	10	0.08	2800	106.8559	40.92394	-91.39363
120219	-11379	-16270	11159	-72.993	34.1274	175.2415	0	11.46	4003	1174	766	1174	2366	0.02	1.048051	3	10	0.08	2800	106.8559	40.92394	-91.39363
120237	-11232	-17330	11899	-82.26459	33.80303	168.7925	0	11.46	4003	1174	766	1174	2366	0.02	1.048051	3	10	0.08	2800	106.8559	40.92394	-91.39363
120344	-9719	-19457	12076	-107.9206	29.26235	149.3746	0	11.46	4004	1000	1000	1000	1000	0.02	0.9924411	3	10	0.08	2800	106.8559	40.92394	-91.39363
120438	-20244	28170	-15582	-85.45214	87.29866	164.6553	0	11.46	4004	1000	1000	1000	1000	0.02	0.9054847	3	10	0.08	2800	106.8559	40.92394	-91.39363
120635	-3519	6227	-11291	6.314308	92.31429	233.4496	0	11.46	4003	1000	1000	1000	1000	0.02	0.6374219	3	10	0.08	2800	106.8559	40.92395	-91.39363
120691	-174	-379	-4991	25.86165	81.23713	244.8019	0	11.46	4003	1000	1000	1000	1000	0.02	0.5794969	3	10	0.08	2800	106.8559	40.92395	-91.39363
120875	7788	-1060	160	33.85065	77.51292	237.5428	0	11.46	4002	1000	1000	1000	1000	0.02	0.3836385	3	10	0.08	2800	106.8559	40.92395	-91.39363
121005	10306	1371	2175	61.48978	72.20055	239.174	0	11.46	4004	1000	1000	1000	1000	0.02	0.2677731	3	10	0.08	2800	106.8559	40.92395	-91.39363
121069	3103	1091	3039	62.3553	70.5493	236.6094	0	11.46	4004	1000	1000	1000	1000	0.02	0.2127074	3	10	0.08	2800	106.8559	40.92395	-91.39364
121156	-1411	-717	33	53.75284	70.09087	232.0416	0	11.46	4003	1000	1000	1000	1000	0.02	0.1547483	3	10	0.08	2800	106.8559	40.92395	-91.39364
121244	-997	-969	-1647	54.6254	67.51723	233.2398	0	11.46	4002	1000	1000	1000	1000	0.02	0.08551002	3	10	0.08	2800	106.8559	40.92396	-91.39364
121354	-852	-757	-646	54.81857	61.82923	236.7373	0	11.46	4004	1000	1000	1000	1000	0.02	0.01920294	3	10	0.08	2800	106.8559	40.92396	-91.39364
121524	34	25	44	54.18457	57.94667	236.282	0	11.46	4002	1000	1000	1000	1000	0.02	-0.05792689	3	10	0.08	2800	106.8559	40.92396	-91.39364
121578	49	22	43	53.87244	54.95364	236.4708	0	11.46	4004	1000	1000	1000	1000	0.02	-0.09441467	3	10	0.08	2800	106.8559	40.92396	-91.39364
121672	-34	-18	-47	53.5388	52.20741	236.4392	0	11.46	4003	1000	1000	1000	1000	0.02	-0.1153702	3	10	0.08	2800	106.8559	40.92396	-91.39364
121725	17	13	21	53.43833	51.30901	236.4444	0	11.51	4002	1000	1000	1000	1000	0.02	-0.1343791	3	10	0.08	2800	106.8559	40.92396	-91.39364
121896	-1	-3	-1	52.93938	47.103	236.4317	0	11.51	4004	1000	1000	1000	1000	0.02	-0.1608828	3	10	0.08	2800	106.8559	40.92396	-91.39364
121955	1	5	2	52.65703	44.75019	236.4314	0	11.51	4003	1000	1000	1000	1000	0.02	-0.1752545	3	10	0.08	2800	106.8559	40.92396	-91.39364
122078	5	2	2	52.39576	42.5219	236.4313	0	11.51	4004	1000	1000	1000	1000	0.02	-0.1849924	3	10	0.08	2800	106.8559	40.92396	-91.39364
122122	2	1	0	52.1451	40.41571	236.4299	0	11.51	4004	1000	1000	1000	1000	0.02	-0.1880224	3	10	0.08	2800	106.8559	40.92396	-91.39364
122216	2	1	2	51.98719	39.07342	236.4281	0	11.51	4003	1000	1000	1000	1000	0.02	-0.1928581	3	10	0.08	2800	106.8559	40.92396	-91.39364
122289	1	4	0	51.83398	37.77417	236.428	0	11.51	4004	1000	1000	1000	1000	0.02	-0.1957112	3	10	0.08	2800	106.8559	40.92396	-91.39364
122477	3	0	4	51.40597	34.15475	236.4248	0	11.51	4004	1000	1000	1000	1000	0.02	-0.2003916	3	10	0.08	2800	106.8559	40.92396	-91.39364
122532	2	-1	1	51.27172	33.0299	236.4258	0	11.51	4003	1000	1000	1000	1000	0.02	-0.2053632	3	10	0.08	2800	106.8559	40.92396	-91.39364
122651	9	-2	1	51.07919	31.41932	236.4247	0	11.51	4003	1000	1000	1000	1000	0.02	-0.2176742	3	10	0.08	2800	106.8559	40.92396	-91.39364
122683	9	-2	1	51.019	30.90111	236.4241	0	11.51	4003	1000	1000	1000	1000	0.02	-0.2214099	3	10	0.08	2800	106.8559	40.92396	-91.39364
122814	11	0	0	50.73326	28.44817	236.4239	0	11.51	4003	1000	1000	1000	1000	0.02	-0.2436489	3	10	0.08	2800	106.8559	40.92396	-91.39364
122865	0	3	-2	50.62715	27.52605	236.4238	0	11.51	4003	1000	1000	1000	1000	0.02	-0.2505871	3	10	0.08	2800	106.8559	40.92396	-91.39364
122977	6	-4	3	50.47239	26.20701	236.4229	0	11.51	4003	1000	1000	1000	1000	0.02	-0.2492329	3	10	0.08	2800	106.8559	40.92396	-91.39364
123065	8	2	0	50.32658	24.95698	236.4209	0	11.51	4004	1000	1000	1000	1000	0.02	-0.249912	3	10	0.08	2800	106.8559	40.92396	-91.39364
123232	0	1	-2	50.14017	23.39158	236.4193	0	11.51	4004	1000	1000	1000	1000	0.02	-0.2552467	3	10	0.08	2800	106.8559	40.92396	-91.39364
123414	1	-2	3	49.92564	21.58496	236.4185	0	11.51	4004	1000	1000	1000	1000	0.02	-0.2622971	3	10	0.08	2800	106.8559	40.92396	-91.39364
123569	2	-4	-4	49.73166	19.93779	236.4168	0	11.57	4003	1000	1000	1000	1000	0.02	-0.2746848	3	10	0.08	2800	106.8559	40.92395	-91.39364
123746	2	2	0	49.52443	18.14007	236.4158	0	11.57	4002	1000	1000	1000	1000	0.02	-0.2895597	3	10	0.08	2800	106.8559	40.92395	-91.39364
123845	5	0	2	49.3985	17.04725	236.4173	0	11.57	4003	1000	1000	1000	1000	0.02	-0.2956304	3	10	0.08	2800	106.8559	40.92395	-91.39364
123979	1	1	-5	49.2811	16.02811	236.4172	0	11.57	4002	1000	1000	1000	1000	0.02	-0.3048202	3	10	0.08	2800	106.8559	40.92395	-91.39364
124043	8	1	1	49.19875	15.31531	236.416	0	11.57	4004	1000	1000	1000	1000	0.02	-0.3112202	3	10	0.08	2800	106.8559	40.92395	-91.39364
124127	0	2	0	49.14587	14.85843	236.4147	0	11.57	4003	1000	1000	1000	1000	0.02	-0.3183596	3	10	0.08	2800	106.8559	40.92395	-91.39364
124273	5	0	-1	49.01971	13.78741	236.4142	0	11.57	4003	1000	1000	1000	1000	0.02	-0.3170061	3	10	0.08	2800	106.8559	40.92395	-91.39364
124367	3	-1	3	48.97254	13.38564	236.4133	0	11.57	4004	1000	1000	1000	1000	0.02	-0.3168855	3	10	0.08	2800	106.8559	40.92395	-91.39364
124418	2	1	2	48.94738	13.1918	236.4126	0	11.51	4003	1000	1000	1000	1000	0.02	-0.3158616	3	10	0.08	2800	106.8559	40.92395	-91.39364
124618	4	2	3	48.82247	12.0872	236.4138	0	11.51	4003	1000	1000	1000	1000	0.02	-0.3006757	3	10	0.08	2800	106.8559	40.92395	-91.39364
124677	3	1	3	48.76517	11.57939	236.4137	0	11.51	4003	1000	1000	1000	1000	0.02	-0.2998077	3	10	0.08	2800	106.8559	40.92395	-91.39364
124776	5	0	4	48.70848	11.09975	236.4142	0	11.51	4003	1000	1000	1000	1000	0.02	-0.2951856	3	10	0.08	2800	106.8559	40.92395	-91.39364
124808	5	1	5	48.67532	10.79219	236.4143	0	11.51	4002	1000	1000	1000	1000	0.02	-0.2954309	3	10	0.08	2800	106.8559	40.92395	-91.39364
124911	0	0	0	48.64072	10.49406	236.4144	0	11.51	4003	1000	1000	1000	1000	0.02	-0.3066457	3	10	0.08	2800	106.8559	40.92395	-91.39364
125002	6	1	4	48.59346	10.07075	236.4121	0	11.51	4004	1000	1000	1000	1000	0.02	-0.310254	3	10	0.08	2800	106.8559	40.92395	-91.39364
125223	3	0	2	48.4903	9.165926	236.41	0	11.51	4004	1000	1000	1000	1000	0.02	-0.3082277	3	10	0.08	2800	106.8559	40.92395	-91.39364
125374	3	1	7	48.43713	8.6963	236.4083	0	11.57	4003	1000	1000	1000	1000	0.02	-0.3157547	3	10	0.08	2800	106.8559	40.92395	-91.39364
125415	5	0	2	48.42384	8.583036	236.4079	0	11.57	4003	1000	1000	1000	1000	0.02	-0.3160991	3	10	0.08	2800	106.8559	40.92395	-91.39364
125518	5	0	1	48.37137	8.153509	236.4078	0	11.57	4004	1000	1000	1000	1000	0.02	-0.3347501	3	10	0.08	2800	106.8559	40.92395	-91.39364
125617	2	0	0	48.34746	7.953758	236.4068	0	11.57	4004	1000	1000	1000	1000	0.02	-0.3530526	3	10	0.08	2800	106.8559	40.92395	-91.39364
125715	1	-1	-4	48.31599	7.661338	236.4074	0	11.57	4003	1000	1000	1000	1000	0.02	-0.367883	3	10	0.08	2800	106.8559	40.92395	-91.39364
125814	2	-3	-1	48.28149	7.388547	236.4058	0	11.57	4003	1000	1000	1000	1000	0.02	-0.3754735	3	10	0.08	2800	106.8559	40.92395	-91.39364
125913	2	5	1	48.25154	7.130002	236.4052	0	11.57	4004	1000	1000	1000	1000	0.02	-0.3883769	3	10	0.08	2800	106.8559	40.92395	-91.39364
126003	8	0	5	48.21343	6.804284	236.4033	0	11.57	4004	1000	1000	1000	1000	0.02	-0.3986358	3	10	0.08	2800	106.8559	40.92395	-91.39364
126109	8	6	1	48.18967	6.574978	236.4031	0	11.57	4010	1000	1000	1000	1000	0.02	-0.4120235	3	10	0.08	2800	106.8559	40.92395	-91.39364
126213	6	-3	0	48.16295	6.357937	236.4031	0	11.57	4002	1000	1000	1000	1000	0.02	-0.4185571	3	10	0.08	2800	106.8559	40.92395	-91.39364
126307	3	4	0	48.14721	6.21832	236.403	0	11.57	4003	1000	1000	1000	1000	0.02	-0.4233139	3	10	0.08	2800	106.8559	40.92395	-91.39364
