time(ms)	gyro_x(deg/s)	gyro_y(deg/s)	gyro_z(deg/s)	orientation_roll(deg)	orientation_pitch(deg)	orientation_yaw(deg)	throttle	battery(V)	loop_time(uS)	pid_output_roll	pid_output_pitch	pid_output_yaw	pid_output_throttle	ultrasonic_alt	baro_alt	flight_mode	p_gain_altitude	i_gain_altitude	d_gain_altitude	compass_heading	latitude	longitude
31878	-1071	-75	8	-0.7616438	-4.987465	215.5614	0	11.85	4004	1298	1272	1426	1392	0.02	1.699888	3	10	0.08	2800	106.8559	40.92394	-91.39365
32077	2807	-53	-868	0.4104967	-4.586578	216.2277	0	11.85	4003	1296	1314	1350	1264	0.02	1.775659	8	10	0.08	2800	106.8559	40.92394	-91.39365
32231	-985	-376	548	0.3359193	-3.317337	217.5349	0	11.85	4003	1242	1358	1456	1280	0.02	1.824638	8	10	0.08	2800	106.8559	40.92394	-91.39365
32272	-974	-47	670	-0.2277145	-3.183002	217.5195	0	11.85	4004	1267	1263	1409	1369	0.02	1.837442	8	10	0.08	2800	106.8559	40.92394	-91.39365
32461	1709	-728	1395	-0.603577	0.170087	216.6461	0	11.74	4004	1230	1278	1446	1378	0.02	1.87073	8	10	0.08	2800	106.8559	40.92394	-91.39364
32544	-225	735	-399	0.1390634	-0.4159831	215.821	0	11.74	4003	1306	1174	1396	1464	0.02	1.881573	8	10	0.08	2800	106.8559	40.92394	-91.39363
32604	186	481	7	0.2184737	-0.8398651	215.6828	0	11.74	4002	1286	1284	1404	1338	0.02	1.904913	8	10	0.08	2800	106.8559	40.92394	-91.39363
32753	-1000	-759	925	-0.7363934	-0.5268048	214.8935	0	11.74	4004	1142	1160	1506	1468	0.02	1.941045	8	10	0.08	2800	106.8559	40.92394	-91.39363
32837	723	-272	-248	-0.5238685	0.693451	214.5695	0	11.74	4004	1291	1259	1405	1401	0.02	1.955667	8	10	0.08	2800	106.8559	40.92394	-91.39363
32893	-232	799	-400	-0.2913346	0.5518032	214.3863	0	11.74	4003	1391	1281	1291	1357	0.02	1.970086	8	10	0.08	2800	106.8559	40.92394	-91.39362
33051	337	-383	885	-0.3218833	-1.197101	213.3646	0	11.74	4004	1198	1458	1494	1234	0.02	1.981147	8	10	0.08	2800	106.8559	40.92394	-91.39362
33173	555	160	-605	0.9181754	-0.9068011	213.1227	0	11.74	4002	1360	1174	1356	1498	0.02	1.983976	8	10	0.08	2800	106.8559	40.92394	-91.39362
33226	1105	548	1107	1.794259	-1.338177	212.8852	0	11.91	4003	1157	1397	1537	1301	0.02	1.984007	8	10	0.08	2800	106.8559	40.92394	-91.39362
33300	-111	523	1271	1.606362	-1.562584	212.6465	0	11.91	4003	1213	1481	1495	1231	0.02	1.97818	8	10	0.08	2800	106.8559	40.92394	-91.39362
33503	-700	-1435	-186	-1.620668	-0.3535403	211.2905	0	11.91	4002	1284	1412	1454	1346	0.02	1.944312	8	10	0.08	2800	106.8559	40.92394	-91.39362
33537	937	-57	929	-1.447703	-0.07198753	211.0904	0	11.91	4004	1357	1295	1417	1447	0.02	1.934496	8	10	0.08	2800	106.8559	40.92394	-91.39362
33601	902	-193	317	-0.7975988	-0.2131137	211.0375	0	11.91	4004	1333	1249	1431	1471	0.02	1.905873	8	10	0.08	2800	106.8559	40.92394	-91.39362
33735	-19	13	562	-1.016382	-1.158172	210.8233	0	11.91	4004	1309	1419	1433	1331	0.02	1.866513	8	10	0.08	2800	106.8559	40.92394	-91.39362
33853	1938	932	-427	1.274552	-1.52059	211.2505	0	11.91	4004	1396	1368	1348	1376	0.02	1.825775	8	10	0.08	2800	106.8559	40.92394	-91.39362
33909	-588	29	241	1.65956	-1.906541	211.3934	0	11.91	4003	1493	1191	1309	1591	0.02	1.817356	8	10	0.08	2800	106.8559	40.92394	-91.39362
34020	89	-92	-1433	-0.7667982	-0.2907137	213.9629	0	11.91	4002	1427	1167	1471	1587	0.02	1.730748	8	10	0.08	2800	106.8559	40.92393	-91.39361
34192	-960	-604	-1954	2.490317	-2.004821	219.8669	0	11.97	4003	1248	1354	1612	1338	0.02	1.673126	8	10	0.08	2800	106.8559	40.92393	-91.39361
34235	-2169	-526	-743	1.129222	-1.698198	221.831	0	11.97	4007	1248	1360	1616	1356	0.02	1.629542	8	10	0.08	2800	106.8559	40.92393	-91.39361
34331	-116	-992	-578	-0.9010491	-0.7280024	223.17	0	11.97	4003	1311	1433	1563	1297	0.02	1.549066	8	10	0.08	2800	106.8559	40.92393	-91.39361
34460	176	-408	577	-0.02773018	0.9951621	224.0944	0	11.97	4002	1311	1411	1545	1341	0.02	1.46129	8	10	0.08	2800	106.8559	40.92394	-91.39361
34518	64	1856	-449	-0.546037	0.2051135	224.0251	0	11.97	4004	1494	1262	1410	1466	0.02	1.441684	8	10	0.08	2800	106.8559	40.92394	-91.39361
34629	-452	-1191	1188	0.1478019	-1.209324	222.4057	0	11.97	4003	1466	1342	1384	1420	0.02	1.340295	8	10	0.08	2800	106.8559	40.92394	-91.3936
34711	276	773	550	-0.2034581	-1.190078	221.3309	0	11.97	4003	1477	1077	1373	1669	0.02	1.294369	8	10	0.08	2800	106.8559	40.92394	-91.3936
34815	-61	-786	927	0.6424342	-1.882993	220.3417	0	11.97	4002	1174	1406	1648	1356	0.02	1.209475	8	10	0.08	2800	106.8559	40.92394	-91.3936
34917	437	-109	596	-0.5311868	-0.3966188	219.0078	0	11.97	4004	1270	1220	1568	1522	0.02	1.167505	8	10	0.08	2800	106.8559	40.92394	-91.3936
35048	280	720	481	0.5033063	-0.5223302	217.2601	0	11.97	4004	1422	998	1360	1736	0.02	1.130598	8	10	0.08	2800	106.8559	40.92394	-91.3936
35161	1631	766	-667	1.990403	-1.69802	217.7199	0	11.68	4003	1321	1369	1477	1321	0.02	1.104786	8	10	0.08	2800	106.8559	40.92394	-91.3936
35334	-840	261	-1158	-0.3812056	1.484747	218.7621	0	11.68	4004	1446	1382	1350	1499	0.02	1.073735	8	10	0.08	2800	106.8559	40.92394	-91.3936
35504	-1078	-1136	-88	0.07509379	-1.451607	218.5514	0	11.68	4004	1401	1117	1377	1561	0.02	1.060084	8	10	0.08	2800	106.8559	40.92394	-91.3936
35582	493	-303	-175	0.986412	-0.627643	218.6353	0	11.68	4004	1348	1226	1414	1448	0.02	1.061615	8	10	0.08	2800	106.8559	40.92394	-91.3936
35671	-614	-1017	7	0.7046691	-0.1387471	218.4215	0	11.68	4002	1328	1238	1428	1446	0.02	1.063421	8	10	0.08	2800	106.8559	40.92394	-91.39359
35768	-7	-178	-8	0.1937507	-0.2620992	218.3115	0	11.68	4002	1365	1319	1413	1359	0.02	1.061252	8	10	0.08	2800	106.8559	40.92394	-91.39359
35889	1432	530	1272	0.1022257	0.8179575	217.7158	0	11.68	4003	1296	1294	1484	1394	0.02	1.059886	8	10	0.08	2800	106.8559	40.92395	-91.39359
35938	917	605	1089	0.7792084	0.370421	217.4886	0	11.68	4003	1309	1313	1427	1387	0.02	1.065792	8	10	0.08	2800	106.8559	40.92395	-91.39359
36026	-1516	-89	117	0.4930828	-0.02126541	216.9067	0	11.97	4004	1373	1407	1367	1277	0.02	1.072591	8	10	0.08	2800	106.8559	40.92395	-91.39359
36119	-486	-135	60	-0.9101674	0.5993291	216.3467	0	11.97	4002	1470	1228	1288	1450	0.02	1.077074	8	10	0.08	2800	106.8559	40.92395	-91.39359
36229	1394	1422	331	0.6494589	-0.9268595	215.5981	0	11.97	4002	1322	1422	1412	1288	0.02	1.083077	8	10	0.08	2800	106.8559	40.92395	-91.39359
36325	418	-1230	1124	-0.09781535	-0.09275236	214.68	0	11.97	4002	1393	1385	1343	1331	0.02	1.084378	8	10	0.08	2800	106.8559	40.92395	-91.39359
36445	2749	990	1333	2.163754	-0.1567878	214.2274	0	11.97	4004	1242	1556	1496	1174	0.02	1.084319	8	10	0.08	2800	106.8559	40.92395	-91.3936
36534	1593	901	186	3.419859	-1.151038	214.0167	0	11.97	4004	1252	1502	1506	1212	0.02	1.080587	8	10	0.08	2800	106.8559	40.92395	-91.3936
36646	1849	1056	-102	5.622605	-1.995935	214.808	0	11.97	4003	1279	1533	1485	1187	0.02	1.070875	8	10	0.08	2800	106.8559	40.92395	-91.3936
36724	1482	-1047	150	6.411739	-1.535635	214.9226	0	11.97	4003	1324	1214	1470	1496	0.02	1.059574	8	10	0.08	2800	106.8559	40.92395	-91.3936
36913	-519	341	-1259	7.557147	-3.264676	215.7526	0	11.85	4003	1397	1307	1417	1399	0.02	1.02054	8	10	0.08	2800	106.8559	40.92395	-91.3936
37034	-578	124	-1627	9.652295	-4.422519	218.853	0	11.85	4003	1565	1251	1381	1563	0.02	0.9938304	8	10	0.08	2800	106.8559	40.92396	-91.3936
37185	-2889	-1928	-1534	1.931366	-1.513629	221.49	0	11.85	4002	1409	1045	1459	1691	0.02	0.9671587	8	10	0.08	2800	106.8559	40.92396	-91.3936
37244	-1152	54	-1562	0.4756584	-0.6824969	222.8466	0	11.85	4004	1499	1359	1439	1399	0.02	0.9572563	8	10	0.08	2800	106.8559	40.92396	-91.3936
37316	264	-435	-832	0.1111079	-0.2309598	223.6407	0	11.85	4004	1567	1453	1393	1307	0.02	0.9491065	8	10	0.08	2800	106.8559	40.92396	-91.3936
37445	683	-937	577	-0.002833796	2.22286	224.4496	0	11.85	4002	1313	1369	1557	1341	0.02	0.9437138	8	10	0.08	2800	106.8559	40.92396	-91.3936
37603	858	636	971	1.317025	0.6990768	222.6763	0	11.85	4004	1446	1322	1414	1358	0.02	0.9467157	8	10	0.08	2800	106.8559	40.92396	-91.39361
37657	1585	-4	1883	2.10731	0.5364286	221.9846	0	11.85	4003	1407	1351	1477	1381	0.02	0.957813	8	10	0.08	2800	106.8559	40.92397	-91.39361
37737	2296	1369	1453	4.498435	-0.03713837	219.6377	0	11.85	4003	1384	1598	1482	1084	0.02	0.9662122	8	10	0.08	2800	106.8559	40.92397	-91.39361
37886	19	-675	1535	7.728794	-0.5680302	215.7243	0	11.85	4002	1381	1445	1467	1239	0.02	0.9842232	8	10	0.08	2800	106.8559	40.92397	-91.39361
37948	246	-359	1901	6.891824	0.797846	213.8074	0	11.85	4003	1312	1348	1522	1350	0.02	0.9940151	8	10	0.08	2800	106.8559	40.92397	-91.39361
38031	1722	711	2517	7.311267	0.6964737	209.3163	0	11.85	4003	1358	1210	1428	1472	0.02	1.003136	8	10	0.08	2800	106.8559	40.92397	-91.39361
38133	1585	746	2882	8.430432	0.07575188	207.0678	0	11.85	4003	1303	1275	1451	1431	0.02	1.008867	8	10	0.08	2800	106.8559	40.92397	-91.39361
38290	514	108	1889	9.09523	0.1730843	202.2265	0	11.85	4002	1320	1248	1420	1460	0.02	1.035147	8	10	0.08	2800	106.8559	40.92397	-91.39362
38412	-201	-789	1263	8.241803	0.490872	199.4124	0	11.85	4003	1275	1161	1463	1545	0.02	1.051369	8	10	0.08	2800	106.8559	40.92397	-91.39362
38509	629	367	-96	8.08258	1.487792	198.4904	0	11.85	4003	1420	1336	1340	1364	0.02	1.070532	8	10	0.08	2800	106.8559	40.92397	-91.39362
38621	-3221	-71	-609	5.109753	0.2962533	198.0727	0	11.85	4003	1522	1098	1256	1592	0.02	1.083032	8	10	0.08	2800	106.8559	40.92397	-91.39362
38719	1775	514	-445	3.739851	0.37035	198.4829	0	11.8	4010	1327	1301	1449	1395	0.02	1.08963	8	10	0.08	2800	106.8559	40.92397	-91.39362
38796	904	295	-698	5.112126	-0.3669728	198.7041	0	11.8	4004	1363	1315	1415	1367	0.02	1.09833	8	10	0.08	2800	106.8559	40.92397	-91.39362
38910	913	742	-621	6.121093	-1.350203	199.2132	0	11.8	4004	1353	1407	1407	1273	0.02	1.122697	8	10	0.08	2800	106.8559	40.92397	-91.39362
38988	-2258	-425	-66	4.677858	-1.285657	199.2597	0	11.8	4003	1254	1320	1500	1350	0.02	1.148906	8	10	0.08	2800	106.8559	40.92397	-91.39362
39062	-2068	-713	-1146	1.984111	-0.6474437	199.887	0	11.8	4004	1362	1178	1396	1452	0.02	1.155905	8	10	0.08	2800	106.8559	40.92397	-91.39362
39166	-194	-80	-786	1.401214	0.04723892	201.3466	0	11.8	4004	1398	1162	1364	1472	0.02	1.205068	8	10	0.08	2800	106.8559	40.92397	-91.39362
39312	-694	-701	-949	-0.07308383	0.9318701	203.7285	0	11.8	4004	1428	1126	1340	1494	0.02	1.267446	8	10	0.08	2800	106.8559	40.92397	-91.39362
39370	-1067	568	-655	-0.4994727	1.028758	204.1275	0	11.8	4002	1409	1345	1355	1287	0.02	1.287001	8	10	0.08	2800	106.8559	40.92397	-91.39362
39486	716	33	-464	0.02284949	-0.08911218	204.9037	0	11.8	4003	1373	1263	1397	1379	0.02	1.321691	8	10	0.08	2800	106.8559	40.92397	-91.39362
39696	-273	1493	-27	0.04735844	0.425757	204.6748	0	12.02	4004	1534	1340	1266	1344	0.02	1.360112	8	10	0.08	2800	106.8559	40.92397	-91.39362
39783	-123	-217	603	0.1947046	-0.4820513	203.5415	0	12.02	4003	1505	1351	1305	1375	0.02	1.363405	8	10	0.08	2800	106.8559	40.92396	-91.39362
39897	278	989	815	0.8428031	-0.479093	201.364	0	12.02	4003	1298	1542	1486	1186	0.02	1.354323	8	10	0.08	2800	106.8559	40.92396	-91.39362
40016	-930	-328	566	1.981884	-1.719819	200.0698	0	12.02	4004	1423	1321	1367	1413	0.02	1.345638	8	10	0.08	2800	106.8559	40.92396	-91.39362
40139	-798	-1075	-37	1.122854	-0.08993807	199.1191	0	12.02	4003	1466	1080	1342	1664	0.02	1.336006	8	10	0.08	2800	106.8559	40.92396	-91.39362
40303	720	2132	1237	-0.9888648	-2.163311	196.6536	0	12.02	4003	1411	1605	1367	1177	0.02	1.305568	8	10	0.08	2800	106.8559	40.92396	-91.39363
40468	1607	192	1594	1.144988	-1.984159	193.6895	0	12.02	4002	1201	1239	1451	1553	0.02	1.253551	8	10	0.08	2800	106.8559	40.92396	-91.39363
40535	1299	131	1828	2.272528	-2.043845	193.0932	0	11.8	4002	1339	1415	1463	1387	0.02	1.22914	8	10	0.08	2800	106.8559	40.92396	-91.39363
40582	-2294	-1867	1909	2.277264	-0.8489693	192.1045	0	11.8	4004	1235	1431	1539	1423	0.02	1.200608	8	10	0.08	2800	106.8559	40.92396	-91.39363
40649	-821	-292	-114	0.3817819	1.043506	191.4175	0	11.8	4004	1451	1461	1363	1365	0.02	1.180029	8	10	0.08	2800	106.8559	40.92396	-91.39363
40751	-1221	1473	-1505	-0.8499624	0.6793004	192.0836	0	11.8	4003	1396	1604	1524	1296	0.02	1.115971	8	10	0.08	2800	106.8559	40.92396	-91.39363
40854	1713	2464	-1173	0.4646572	-1.425562	193.274	0	11.8	4004	1511	1631	1423	1279	0.02	1.072937	8	10	0.08	2800	106.8559	40.92396	-91.39363
40969	-1571	-974	-1489	1.879734	0.9118534	199.9665	0	11.8	4003	1466	1412	1496	1382	0.02	0.9687818	8	10	0.08	2800	106.8559	40.92396	-91.39363
41050	-2178	-195	-1656	0.1661728	1.378712	201.8763	0	11.8	4004	1484	1628	1462	1194	0.02	0.9279058	8	10	0.08	2800	106.8559	40.92396	-91.39363
41167	3573	-123	-760	5.099402	0.2588421	205.2011	0	11.8	4003	1442	1282	1544	1536	0.02	0.8450235	8	10	0.08	2800	106.8559	40.92395	-91.39363
41287	127	-309	-710	5.92249	0.6873733	206.8022	0	11.8	4003	1478	1348	1458	1420	0.02	0.8120881	8	10	0.08	2800	106.8559	40.92395	-91.39364
41348	2113	772	-284	6.596094	0.5342609	207.294	0	11.8	4004	1404	1712	1524	1068	0.02	0.7910598	8	10	0.08	2800	106.8559	40.92395	-91.39364
41469	-214	822	-480	8.140582	-1.420299	209.5309	0	11.68	4002	1234	1694	1700	1060	0.02	0.7699748	8	10	0.08	2800	106.8559	40.92395	-91.39364
41576	-302	-626	-37	5.617897	-0.7942537	209.78	0	11.68	4003	1446	1526	1452	1200	0.02	0.7648954	8	10	0.08	2800	106.8559	40.92395	-91.39364
41721	1214	858	255	8.843309	0.03859625	210.3298	0	11.68	4003	1412	1502	1476	1214	0.02	0.7749644	8	10	0.08	2800	106.8559	40.92395	-91.39364
41824	-1431	-1301	1711	6.082798	3.162256	209.6642	0	11.68	4004	1306	1198	1570	1514	0.02	0.8015652	8	10	0.08	2800	106.8559	40.92395	-91.39364
41884	256	675	9	5.667367	3.253963	209.3928	0	11.68	4003	1419	1531	1437	1185	0.02	0.8207789	8	10	0.08	2800	106.8559	40.92395	-91.39364
41965	970	2788	724	7.173968	1.157274	208.9676	0	11.68	4004	1567	1215	1251	1479	0.02	0.8545491	8	10	0.08	2800	106.8559	40.92395	-91.39364
42065	-1887	-785	640	3.819368	-0.5961879	206.7473	0	11.68	4002	1388	1308	1406	1370	0.02	0.893309	8	10	0.08	2800	106.8559	40.92395	-91.39364
42207	-274	732	984	3.656403	1.910635	204.1986	0	11.68	4004	1396	1124	1322	1506	0.02	1.049821	8	10	0.08	2800	106.8559	40.92395	-91.39365
42248	-635	1282	925	3.312227	1.20337	203.6457	0	11.68	4003	1316	1352	1312	1212	0.02	1.06936	8	10	0.08	2800	106.8559	40.92395	-91.39365
42472	-38	-278	229	0.3331776	1.783098	201.2862	0	11.74	4003	1381	1291	1339	1337	0.02	1.248368	8	10	0.08	2800	106.8559	40.92395	-91.39365
42633	-544	-771	699	0.09057681	0.9323784	199.9851	0	11.74	4004	1240	1222	1360	1318	0.02	1.352454	8	10	0.08	2800	106.8559	40.92394	-91.39365
42666	-556	-415	-16	-0.1470433	1.434068	199.8654	0	11.74	4004	1387	1229	1215	1313	0.02	1.415997	8	10	0.08	2800	106.8559	40.92394	-91.39365
42741	884	957	253	0.3757964	0.6412674	199.3593	0	11.74	4004	1245	1267	1363	1265	0.02	1.520842	8	10	0.08	2800	106.8559	40.92394	-91.39365
42842	-194	-747	148	0.2731735	1.061163	199.3151	0	11.74	4004	1336	1290	1372	1346	0.02	1.5964	8	10	0.08	2800	106.8559	40.92394	-91.39365
42924	1675	651	87	1.753702	1.271314	199.6099	0	11.74	4003	1320	1174	1390	1404	0.02	1.654572	8	10	0.08	2800	106.8559	40.92394	-91.39365
43030	903	448	735	2.56757	0.08678875	199.2502	0	11.74	4004	1309	1309	1393	1353	0.02	1.765716	8	10	0.08	2800	106.8559	40.92394	-91.39365
43113	932	621	556	3.236151	-0.3694328	198.8328	0	11.74	4004	1385	1297	1351	1363	0.02	1.838398	8	10	0.08	2800	106.8559	40.92394	-91.39365
43200	-175	265	-309	3.491079	-1.221115	198.7691	0	11.74	4004	1316	1322	1352	1282	0.02	1.876347	8	10	0.08	2800	106.8559	40.92394	-91.39365
43329	-112	271	190	1.762165	-0.6979154	198.161	0	11.85	4003	1190	1362	1552	1344	0.02	1.938743	8	10	0.08	2800	106.8559	40.92393	-91.39365
43409	432	3036	212	1.249133	-2.509558	198.1091	0	11.85	4004	1287	1379	1479	1331	0.02	1.961937	8	10	0.08	2800	106.8559	40.92393	-91.39365
43529	-992	2789	-557	1.473205	-8.26669	198.7094	0	11.85	4003	1409	1307	1383	1393	0.02	1.978142	8	10	0.08	2800	106.8559	40.92393	-91.39365
43677	-1074	1306	-599	-0.3330451	-9.56791	199.8857	0	11.85	4002	1490	1112	1326	1608	0.02	1.976745	8	10	0.08	2800	106.8559	40.92393	-91.39366
43775	218	13	-1	0.302417	-11.39153	199.7181	0	11.85	4004	1401	1375	1429	1383	0.02	1.963537	8	10	0.08	2800	106.8559	40.92393	-91.39366
43872	438	-1316	725	0.8516188	-10.24352	199.3787	0	11.85	4003	1365	1395	1461	1407	0.02	1.948341	8	10	0.08	2800	106.8559	40.92393	-91.39366
43985	972	-619	15	2.447797	-4.499265	198.4812	0	11.85	4004	1400	1448	1458	1334	0.02	1.888516	8	10	0.08	2800	106.8559	40.92393	-91.39367
44043	-1699	-1416	-86	2.616674	-3.910342	198.5737	0	11.74	4003	1367	1367	1501	1433	0.02	1.85565	8	10	0.08	2800	106.8559	40.92393	-91.39367
44107	-2091	-3770	78	1.080252	-1.158766	198.9859	0	11.74	4002	1400	1024	1462	1770	0.02	1.821676	8	10	0.08	2800	106.8559	40.92393	-91.39367
44315	-2950	-385	-339	2.020097	1.349029	200.9034	0	11.74	4003	1620	1150	1264	1646	0.02	1.7274	8	10	0.08	2800	106.8559	40.92393	-91.39367
44410	-715	-171	-349	-1.674356	1.045869	200.7664	0	11.74	4002	1485	1339	1461	1551	0.02	1.647552	8	10	0.08	2800	106.8559	40.92393	-91.39368
44549	1690	963	584	1.127055	-0.3312968	201.0707	0	11.74	4002	1404	1344	1590	1538	0.02	1.604835	8	10	0.08	2800	106.8559	40.92393	-91.39368
44609	-502	2647	-203	2.974756	-2.753608	201.92	0	11.74	4003	1260	1646	1664	1150	0.02	1.539875	8	10	0.08	2800	106.8559	40.92393	-91.39368
44722	-394	-2179	762	0.04880385	-3.647909	202.446	0	11.74	4004	1686	1018	1234	1810	0.02	1.430116	8	10	0.08	2800	106.8559	40.92393	-91.39368
44890	1801	3729	-995	-1.702357	-1.639644	203.1718	0	11.74	4003	1399	1439	1412	1254	0.02	1.322677	8	10	0.08	2800	106.8559	40.92393	-91.39368
44990	1601	2392	30	3.172498	-10.12626	203.8405	0	11.63	4004	1553	1455	1425	1407	0.02	1.25334	8	10	0.08	2800	106.8559	40.92393	-91.39368
45106	-171	-207	-2941	5.741078	-9.798842	204.8095	0	11.63	4004	1572	1218	1360	1526	0.02	1.171661	8	10	0.08	2800	106.8559	40.92393	-91.39368
45218	452	584	-285	2.244355	-11.25029	207.0761	0	11.63	4002	1500	1262	1410	1468	0.02	1.137904	8	10	0.08	2800	106.8559	40.92393	-91.39368
45333	1405	-420	-1550	4.049322	-11.52744	207.498	0	11.63	4003	1367	1195	1537	1517	0.02	1.11476	8	10	0.08	2800	106.8559	40.92393	-91.39369
45402	-2058	-377	685	4.530442	-11.57585	207.1248	0	11.63	4002	1310	1316	1522	1412	0.02	1.117597	8	10	0.08	2800	106.8559	40.92393	-91.39369
45472	-2084	-2134	-10	2.489465	-9.605992	206.5262	0	11.63	4004	1424	1084	1414	1610	0.02	1.123822	8	10	0.08	2800	106.8559	40.92393	-91.39369
45681	2349	2824	1042	7.582312	-12.174	204.2156	0	11.63	4003	1377	1401	1375	1287	0.02	1.190062	8	10	0.08	2800	106.8559	40.92393	-91.39369
45728	-704	1020	524	7.916026	-13.69187	203.0786	0	11.63	4004	1433	1047	1319	1605	0.02	1.215968	8	10	0.08	2800	106.8559	40.92393	-91.3937
45774	-7	1477	195	7.614627	-14.35443	202.1217	0	11.63	4002	1449	1145	1289	1513	0.02	1.246916	8	10	0.08	2800	106.8559	40.92393	-91.3937
45922	1141	2755	677	9.282867	-16.88791	199.8682	0	11.74	4004	1348	1340	1342	1302	0.02	1.360508	8	10	0.08	2800	106.8559	40.92393	-91.3937
46016	-1314	-180	706	10.46155	-19.21811	198.3829	0	11.74	4003	1349	1363	1367	1329	0.02	1.541844	8	10	0.08	2800	106.8559	40.92393	-91.39369
46174	-1943	-6369	552	2.968471	-7.79218	197.1698	0	11.74	4004	1260	1128	1432	1540	0.02	1.653427	8	10	0.08	2800	106.8559	40.92393	-91.39369
46267	-229	1336	1552	3.010628	-3.271095	195.5699	0	11.74	4008	1326	1344	1320	1318	0.02	1.754084	8	10	0.08	2800	106.8559	40.92393	-91.39369
46413	1164	-961	365	2.028151	-2.678055	194.0825	0	11.74	4004	1323	1389	1347	1281	0.02	1.896383	8	10	0.08	2800	106.8559	40.92393	-91.39369
46468	754	-1238	922	2.474928	-2.077093	193.6352	0	11.74	4003	1257	1259	1297	1327	0.02	1.917245	8	10	0.08	2800	106.8559	40.92393	-91.39369
46592	-1569	-2671	412	0.8990312	4.169018	191.9409	0	11.74	4003	1352	1258	1302	1412	0.02	2.039831	8	10	0.08	2800	106.8559	40.92394	-91.39368
46718	265	-651	436	-0.5497518	6.698913	191.4067	0	11.74	4003	1293	1301	1367	1379	0.02	2.111484	8	10	0.08	2800	106.8559	40.92394	-91.39368
46774	673	-633	229	-0.2626631	6.938908	191.4587	0	11.74	4003	1304	1314	1382	1372	0.02	2.164149	8	10	0.08	2800	106.8559	40.92394	-91.39368
46878	-1812	-336	-499	-0.8224601	7.046658	192.313	0	11.74	4003	1256	1050	1392	1566	0.02	2.224313	8	10	0.08	2800	106.8559	40.92394	-91.39368
47048	299	2376	-1114	-3.523007	4.827623	193.9989	0	11.74	4004	1365	1361	1367	1367	0.02	2.304598	8	10	0.08	2800	106.8559	40.92394	-91.39368
47167	699	952	-894	-1.247392	0.6694404	195.5354	0	11.74	4003	1250	1294	1470	1450	0.02	2.347156	8	10	0.08	2800	106.8559	40.92394	-91.39367
47237	1644	7	-1101	-0.0483609	1.202898	198.8734	0	11.74	4002	1211	1423	1533	1329	0.02	2.358654	8	10	0.08	2800	106.8559	40.92394	-91.39367
47267	580	670	-2628	0.7432272	0.967755	199.9987	0	11.74	4004	1286	1470	1458	1298	0.02	2.365649	8	10	0.08	2800	106.8559	40.92394	-91.39367
47434	-1624	-581	-1848	-1.481947	-0.6445912	204.9839	0	11.74	4003	1288	1508	1518	1262	0.02	2.356316	8	10	0.08	2800	106.8559	40.92394	-91.39367
47487	780	-442	-1383	-1.482704	-0.2327503	205.8533	0	11.74	4003	1415	1437	1459	1345	0.02	2.327852	8	10	0.08	2800	106.8559	40.92394	-91.39366
47570	1671	-251	-672	-0.257293	0.1950103	207.5873	0	11.74	4003	1299	1531	1585	1269	0.02	2.304723	8	10	0.08	2800	106.8559	40.92394	-91.39366
47792	1526	1864	-51	0.5377812	0.2375775	211.4851	0	11.68	4003	1485	1271	1417	1471	0.02	2.246172	8	10	0.08	2800	106.8559	40.92394	-91.39366
47933	-2180	-2471	-529	2.253764	-1.475304	213.3687	0	11.68	4002	1347	1133	1399	1469	0.02	2.164537	3	10	0.08	2800	106.8559	40.92394	-91.39366
48010	-767	-116	-312	-0.9859573	1.464635	213.8738	0	11.68	4003	1330	1134	1416	1464	0.02	2.131793	3	10	0.08	2800	106.8559	40.92394	-91.39365
48097	1744	1164	-189	0.03908603	0.08670721	213.6072	0	11.68	4002	1388	1340	1346	1274	0.02	2.068955	3	10	0.08	2800	106.8559	40.92394	-91.39365
48148	1144	972	425	0.9705367	-0.5392579	213.3533	0	11.68	4003	1268	1342	1446	1292	0.02	2.058594	3	10	0.08	2800	106.8559	40.92394	-91.39365
48304	-720	1254	1837	-0.7041048	-0.1897077	210.9535	0	11.68	4004	1288	1384	1400	1272	0.02	2.001086	3	10	0.08	2800	106.8559	40.92394	-91.39365
48406	-360	-544	757	-1.25131	-1.579504	208.9492	0	11.68	4003	1318	1186	1370	1470	0.02	1.945606	3	10	0.08	2800	106.8559	40.92394	-91.39365
48447	1125	-1530	1559	-0.8304762	0.01133118	207.6992	0	11.68	4003	1105	1279	1575	1385	0.02	1.934845	3	10	0.08	2800	106.8559	40.92394	-91.39365
48595	1325	634	1324	1.751364	-0.218656	205.1362	0	11.74	4002	1287	1323	1381	1353	0.02	1.858044	3	10	0.08	2800	106.8559	40.92394	-91.39365
48677	350	666	100	2.299914	-1.059683	204.5359	0	11.74	4004	1361	1185	1329	1469	0.02	1.819484	3	10	0.08	2800	106.8559	40.92394	-91.39365
48819	-770	1607	461	2.788795	-2.770117	204.1682	0	11.74	4003	1645	1689	1721	1661	0.02	1.734057	3	10	0.08	2800	106.8559	40.92394	-91.39365
48908	249	59	132	1.63799	-3.864856	204.1609	0	11.74	4002	1510	1698	1908	1700	0.02	1.67431	3	10	0.08	2800	106.8559	40.92394	-91.39365
48997	894	484	-184	2.907642	-4.304316	204.6496	0	11.74	4002	1731	1703	1665	1653	0.02	1.620201	3	10	0.08	2800	106.8559	40.92394	-91.39365
49099	120	-127	-801	3.660573	-4.525767	205.1071	0	11.74	4003	1680	1662	1702	1664	0.02	1.555163	3	10	0.08	2800	106.8559	40.92394	-91.39365
49144	-284	-587	-650	3.101881	-3.594604	206.0299	0	11.74	4003	1695	1653	1661	1643	0.02	1.54418	3	10	0.08	2800	106.8559	40.92394	-91.39365
49217	359	-1115	-241	2.929305	-2.825845	206.3385	0	11.74	4002	1642	1606	1622	1598	0.02	1.503101	3	10	0.08	2800	106.8559	40.92394	-91.39365
49360	-636	-2920	-1367	3.416786	0.3537923	207.2537	0	11.74	4002	1182	712	1092	1446	0.02	1.469165	3	10	0.08	2800	106.8559	40.92394	-91.39365
49442	1459	-92	-859	5.749472	2.485999	209.1363	0	11.74	4002	1014	1004	1264	1166	0.02	1.465288	3	10	0.08	2800	106.8559	40.92394	-91.39365
49598	-1235	2697	256	4.671295	-0.7905458	210.0661	0	11.8	4004	1205	1093	1125	1149	0.02	1.478558	3	10	0.08	2800	106.8559	40.92393	-91.39365
49648	-1713	519	580	1.209605	-3.791271	209.5417	0	11.8	4004	1175	1121	1145	1131	0.02	1.495681	3	10	0.08	2800	106.8559	40.92393	-91.39365
49732	-842	-1868	744	-0.6051064	-2.552794	208.6957	0	11.8	4003	1142	1114	1218	1202	0.02	1.520584	3	10	0.08	2800	106.8559	40.92393	-91.39365
49857	826	1772	1720	-0.01736767	0.1416684	206.4756	0	11.8	4003	1403	1553	1639	1501	0.02	1.572981	3	10	0.08	2800	106.8559	40.92393	-91.39365
49976	-103	1200	-918	-0.06120915	-3.829515	204.9241	0	11.8	4003	1551	1783	1527	1295	0.02	1.646775	3	10	0.08	2800	106.8559	40.92393	-91.39365
50072	1720	-1939	404	0.5629417	-2.479292	205.0275	0	11.8	4003	1467	1491	1599	1543	0.02	1.69711	3	10	0.08	2800	106.8559	40.92393	-91.39365
50142	758	-1930	-759	1.151343	-1.276866	205.2408	0	11.8	4002	1588	1266	1438	1700	0.02	1.731196	3	10	0.08	2800	106.8559	40.92393	-91.39365
50311	-1027	-1038	-864	-1.927334	-0.3368706	206.5374	0	11.8	4003	1249	1203	1323	1289	0.02	1.820673	3	10	0.08	2800	106.8559	40.92393	-91.39365
50361	1045	-1917	-1000	-1.675452	1.458619	207.5797	0	12.14	4004	1493	1469	1563	1495	0.02	1.843771	3	10	0.08	2800	106.8559	40.92393	-91.39365
50577	-1576	-990	-344	1.145753	-1.258666	209.6761	0	12.14	4003	1665	1491	1541	1583	0.02	1.940783	3	10	0.08	2800	106.8559	40.92393	-91.39365
50686	106	-428	-1596	0.2201453	0.1264454	212.3219	0	12.14	4004	1036	1148	1190	894	0.02	2.004725	3	10	0.08	2800	106.8559	40.92393	-91.39365
50814	765	108	-1138	0.6149831	-0.5402344	215.1412	0	12.14	4004	1046	1164	1146	980	0.02	2.0739	3	10	0.08	2800	106.8559	40.92393	-91.39365
50856	122	-248	-1270	0.7588407	-0.5445236	215.8205	0	12.14	4004	1143	1043	1123	1163	0.02	2.105607	3	10	0.08	2800	106.8559	40.92393	-91.39365
50998	-2019	-2287	-1023	-2.289891	1.682865	218.3486	0	12.14	4003	1184	1106	1160	1170	0.02	2.222256	3	10	0.08	2800	106.8559	40.92393	-91.39365
51049	-32	-1202	-554	-3.986083	4.853009	219.2123	0	12.14	4004	1225	1173	1375	1387	0.02	2.254404	3	10	0.08	2800	106.8559	40.92393	-91.39365
51136	1497	2388	-132	-3.207969	4.41948	219.4635	0	12.14	4002	1626	1814	1630	1410	0.02	2.34123	3	10	0.08	2800	106.8559	40.92393	-91.39365
51194	-1279	2693	-1186	-2.600563	2.437395	219.4935	0	12.14	4003	1715	1403	1589	1829	0.02	2.397389	3	10	0.08	2800	106.8559	40.92393	-91.39365
51361	751	-966	24	-3.121517	-1.38491	219.3817	0	11.51	4002	1618	1550	1678	1698	0.02	2.488207	3	10	0.08	2800	106.8559	40.92393	-91.39365
51503	-1353	-759	-513	-3.495607	-0.6873096	219.3777	0	11.51	4003	1229	1279	1425	1359	0.02	2.605435	3	10	0.08	2800	106.8559	40.92393	-91.39365
51672	-2574	2040	-162	-9.990976	0.2036944	219.1708	0	11.51	4004	1031	907	1277	1333	0.02	2.673124	3	10	0.08	2800	106.8559	40.92393	-91.39365
51720	-885	5615	-394	-11.62008	-4.089006	219.4495	0	11.51	4004	1144	942	1166	1300	0.02	2.690795	3	10	0.08	2800	106.8559	40.92393	-91.39365
51845	4124	3741	413	-6.63805	-16.14528	218.9562	0	11.51	4004	1371	1343	1163	1091	0.02	2.734462	3	10	0.08	2800	106.8559	40.92393	-91.39365
51907	3498	659	167	-4.232255	-16.70577	218.8479	0	11.51	4004	1278	1244	1334	1300	0.02	2.754811	3	10	0.08	2800	106.8559	40.92393	-91.39365
52012	164	-1788	1133	-1.719244	-9.426037	217.7142	0	11.51	4002	1493	1525	1527	1467	0.02	2.767358	3	10	0.08	2800	106.8559	40.92393	-91.39365
52161	719	-3475	626	-0.4327053	-7.748227	216.2879	0	11.74	4002	1232	1328	1500	1396	0.02	2.808634	3	10	0.08	2800	106.8559	40.92393	-91.39365
52268	1487	-3391	407	2.216778	-1.084032	216.4003	0	11.74	4002	1152	1134	1380	1374	0.02	2.819886	3	10	0.08	2800	106.8559	40.92393	-91.39365
52392	-2548	77	242	-0.723396	1.404194	215.496	0	11.74	4004	1273	1257	1233	1249	0.02	2.824323	3	10	0.08	2800	106.8559	40.92393	-91.39365
52463	-812	364	303	-2.568961	0.7730519	215.0026	0	11.74	4003	1230	1148	1286	1352	0.02	2.823208	3	10	0.08	2800	106.8559	40.92393	-91.39365
52573	1558	163	876	-0.1348528	0.9867398	213.8605	0	11.74	4002	1171	1229	1339	1281	0.02	2.818345	3	10	0.08	2800	106.8559	40.92393	-91.39365
52591	1558	163	876	-0.1348528	0.9867398	213.8605	0	11.74	4002	1176	1278	1332	1230	0.02	2.818345	3	10	0.08	2800	106.8559	40.92393	-91.39365
52721	-1558	-76	844	0.1270793	0.3952657	212.5249	0	11.74	4003	1256	1260	1234	1266	0.02	2.791115	3	10	0.08	2800	106.8559	40.92393	-91.39365
52816	438	-12	604	-0.8090965	0.4200169	211.0061	0	11.74	4004	1220	1162	1278	1356	0.02	2.748763	3	10	0.08	2800	106.8559	40.92393	-91.39365
52890	438	472	1346	-0.4422763	-0.2210588	209.9232	0	11.74	4003	1223	1281	1255	1257	0.02	2.729766	3	10	0.08	2800	106.8559	40.92393	-91.39365
53029	806	24	1024	-2.13239	-1.301615	207.2529	0	11.74	4003	1294	1312	1208	1278	0.02	2.650576	3	10	0.08	2800	106.8559	40.92393	-91.39365
53228	1131	3301	2160	-0.8051204	-2.086356	203.4176	0	11.74	4003	1724	1638	1596	1818	0.02	2.370815	3	10	0.08	2800	106.8559	40.92393	-91.39365
53339	1198	-759	-917	0.1071356	-3.328796	202.1918	0	11.74	4003	1650	1728	1696	1702	0.02	2.303647	3	10	0.08	2800	106.8559	40.92393	-91.39365
53501	1129	-245	-2615	-0.1643927	-1.319268	208.2093	0	11.74	4004	1653	1643	1753	1711	0.02	1.960243	3	10	0.08	2800	106.8559	40.92393	-91.39365
53636	223	-134	-3476	1.525621	-1.011398	214.3397	0	11.74	4004	1387	1285	1485	1435	0.02	1.888874	3	10	0.08	2800	106.8559	40.92393	-91.39365
53760	1401	-1143	-1556	1.082067	1.922932	220.6369	0	11.74	4003	1267	1207	1427	1291	0.02	1.714753	3	10	0.08	2800	106.8559	40.92393	-91.39365
53792	3603	-509	-2774	2.632479	2.297191	222.0611	0	11.74	4002	1126	1260	1524	1154	0.02	1.697861	3	10	0.08	2800	106.8559	40.92393	-91.39365
53932	618	1079	-534	9.95176	-0.7956451	225.0786	0	11.74	4002	1243	1231	1321	1157	0.02	1.625007	3	10	0.08	2800	106.8559	40.92393	-91.39365
54074	-2315	-486	775	1.711543	0.7286144	224.8772	0	11.8	4004	1247	1003	1297	1401	0.02	1.560371	3	10	0.08	2800	106.8559	40.92394	-91.39365
54243	22	1899	1182	0.3576525	-2.160444	221.4632	0	11.8	4002	1293	1099	1233	1355	0.02	1.534393	3	10	0.08	2800	106.8559	40.92394	-91.39365
54362	-719	2204	1760	-0.7883694	-4.930274	219.0224	0	11.8	4004	1340	1180	1342	1466	0.02	1.513447	3	10	0.08	2800	106.8559	40.92394	-91.39365
54394	-704	2024	1582	-1.264228	-5.866422	218.1898	0	11.8	4003	1318	1168	1406	1512	0.02	1.507267	3	10	0.08	2800	106.8559	40.92394	-91.39365
54467	-95	1519	1513	-1.562837	-7.930626	216.6674	0	11.8	4002	1374	1350	1610	1614	0.02	1.500895	3	10	0.08	2800	106.8559	40.92394	-91.39365
54592	-1025	936	1833	-3.526112	-12.56069	211.9022	0	11.8	4004	1699	1377	1383	1733	0.02	1.478906	3	10	0.08	2800	106.8559	40.92394	-91.39366
54678	-2528	-596	793	-4.725772	-12.82231	209.5722	0	11.8	4003	1413	1589	1607	1495	0.02	1.465699	3	10	0.08	2800	106.8559	40.92394	-91.39366
54796	1597	-1913	1539	-2.574926	-10.96638	205.8331	0	11.8	4003	1216	1304	1514	1486	0.02	1.442783	3	10	0.08	2800	106.8559	40.92394	-91.39366
54860	1166	-2850	1249	-1.635264	-9.212263	204.977	0	11.8	4004	1161	1597	1545	1217	0.02	1.437769	3	10	0.08	2800	106.8559	40.92394	-91.39366
54998	-1344	1418	-1120	-1.270225	-6.397811	203.0102	0	11.74	4003	1466	1474	1282	1306	0.02	1.43866	3	10	0.08	2800	106.8559	40.92394	-91.39366
55104	525	-184	-1350	-0.7294032	-7.282406	203.5582	0	11.74	4004	1344	1374	1408	1402	0.02	1.449948	3	10	0.08	2800	106.8559	40.92394	-91.39366
55162	1265	-425	348	1.531566	-6.897482	204.2959	0	11.74	4004	1231	1637	1519	1173	0.02	1.455998	3	10	0.08	2800	106.8559	40.92394	-91.39366
55257	-3946	-1845	-1652	-3.20617	-4.532303	204.9981	0	11.74	4004	1331	1319	1443	1463	0.02	1.472539	3	10	0.08	2800	106.8559	40.92394	-91.39366
55349	1532	-752	-1376	-2.167281	-2.052033	207.01	0	11.74	4003	1383	1123	1389	1601	0.02	1.494322	3	10	0.08	2800	106.8559	40.92394	-91.39366
55484	160	-1319	-807	-0.3470024	-0.7198313	208.8827	0	11.74	4004	1212	1196	1450	1438	0.02	1.522945	3	10	0.08	2800	106.8559	40.92393	-91.39365
55596	363	-1041	-399	0.166358	3.158959	210.533	0	11.74	4004	1135	1119	1531	1483	0.02	1.568385	3	10	0.08	2800	106.8559	40.92393	-91.39365
55689	961	539	-502	0.5422859	3.046692	210.9018	0	11.74	4004	1348	1412	1282	1150	0.02	1.601035	3	10	0.08	2800	106.8559	40.92393	-91.39365
55842	-1055	-3059	-382	-1.668324	0.7608033	212.0452	0	11.85	4003	1266	1346	1312	1192	0.02	1.660009	3	10	0.08	2800	106.8559	40.92393	-91.39365
55929	371	-3520	651	-1.434752	6.813725	211.9482	0	11.85	4003	1105	1115	1477	1419	0.02	1.705126	3	10	0.08	2800	106.8559	40.92393	-91.39365
56024	-934	-2169	437	-1.80817	8.142887	211.654	0	11.85	4003	1276	1284	1288	1272	0.02	1.762194	3	10	0.08	2800	106.8559	40.92393	-91.39365
56124	1117	1788	851	-3.67476	6.638173	210.5242	0	11.85	4004	1204	1160	1362	1394	0.02	1.792187	3	10	0.08	2800	106.8559	40.92393	-91.39365
56229	234	604	-78	-2.341616	3.071152	209.54	0	11.85	4003	1192	1242	1378	1308	0.02	1.831599	3	10	0.08	2800	106.8559	40.92393	-91.39365
56354	-15	462	-697	-1.919058	2.719799	210.4918	0	11.85	4004	1248	1346	1388	1238	0.02	1.854449	3	10	0.08	2800	106.8559	40.92393	-91.39365
56431	876	1156	-1269	-0.03251345	0.5586001	211.0286	0	11.85	4003	1535	1467	1453	1445	0.02	1.857284	3	10	0.08	2800	106.8559	40.92393	-91.39365
56586	-862	678	-1367	-0.1943124	-5.179718	214.6528	0	11.85	4003	1733	1667	1849	1771	0.02	1.889703	3	10	0.08	2800	106.8559	40.92393	-91.39365
56693	454	-1047	-471	-0.006349397	-3.754933	217.0612	0	11.11	4004	1699	1727	1877	1701	0.02	1.913931	3	10	0.08	2800	106.8559	40.92393	-91.39365
56747	42	64	215	-0.03531892	-2.965717	217.5021	0	11.11	4002	1761	1655	1819	1757	0.02	1.914951	3	10	0.08	2800	106.8559	40.92393	-91.39365
56908	-1336	4189	450	-0.3452019	-6.539637	215.851	0	11.11	4004	1576	1504	1550	1530	0.02	1.907845	3	10	0.08	2800	106.8559	40.92393	-91.39365
56938	-1336	4189	450	-0.3452019	-6.539637	215.851	0	11.11	4004	1492	1454	1398	1364	0.02	1.904573	3	10	0.08	2800	106.8559	40.92393	-91.39365
57096	2222	2552	1127	2.190099	-21.23676	213.193	0	11.11	4004	1462	1096	1248	1466	0.02	1.917846	3	10	0.08	2800	106.8559	40.92393	-91.39365
57184	-1498	-2636	-68	2.244257	-20.76182	212.9256	0	11.11	4003	1362	1314	1254	1198	0.02	1.948428	3	10	0.08	2800	106.8559	40.92393	-91.39365
57231	-2444	-5865	111	1.148025	-18.12168	212.6738	0	11.11	4002	1289	1195	1327	1317	0.02	1.958759	3	10	0.08	2800	106.8559	40.92393	-91.39365
57387	198	-1463	1458	-1.544727	-0.2322749	210.0602	0	11.11	4003	1249	1335	1315	1189	0.02	2.08523	3	10	0.08	2800	106.8559	40.92393	-91.39365
57454	187	2450	1950	-1.311887	-0.9883097	208.2746	0	11.11	4004	1212	1206	1334	1316	0.02	2.102677	3	10	0.08	2800	106.8559	40.92393	-91.39365
57615	-1055	-860	1366	-3.205844	-3.741088	204.6558	0	11.91	4003	1548	1676	1780	1672	0.02	2.316993	3	10	0.08	2800	106.8559	40.92393	-91.39365
57650	-2563	125	1215	-3.205844	-3.741088	204.6558	0	11.91	4003	1548	1676	1780	1672	0.02	2.332946	3	10	0.08	2800	106.8559	40.92393	-91.39365
57748	-1786	717	513	-8.413518	-5.313123	201.8101	0	11.91	4003	1729	1579	1645	1791	0.02	2.527192	3	10	0.08	2800	106.8559	40.92393	-91.39365
57902	-531	-693	-334	-11.19001	-3.029239	201.0691	0	11.91	4003	1646	1624	1706	1704	0.02	2.761859	3	10	0.08	2800	106.8559	40.92392	-91.39364
57947	-158	-693	-334	-11.19001	-3.029239	201.0691	0	11.91	4003	1646	1688	1662	1608	0.02	2.936447	3	10	0.08	2800	106.8559	40.92392	-91.39364
58090	1184	-805	-349	-10.45004	-1.807959	201.5993	0	11.91	4004	1289	1413	1527	1391	0.02	3.27514	3	10	0.08	2800	106.8559	40.92392	-91.39364
58171	1470	-2355	-3653	-2.889397	2.519903	203.4406	0	11.91	4003	964	1274	1526	1136	0.02	3.577445	3	10	0.08	2800	106.8559	40.92392	-91.39364
58278	-1245	-34	-1751	-1.783314	4.584233	206.8643	0	11.91	4003	1198	948	1290	1380	0.02	3.892859	3	10	0.08	2800	106.8559	40.92392	-91.39364
58341	-1211	461	-1420	-2.652916	4.486812	209.0179	0	11.91	4004	1193	1019	1269	1287	0.02	4.050398	3	10	0.08	2800	106.8559	40.92392	-91.39363
58455	3554	1633	9	1.57518	0.7761098	210.7154	0	11.91	4003	1160	1138	1278	1188	0.02	4.379712	3	10	0.08	2800	106.8559	40.92392	-91.39363
58644	-1728	402	791	-0.01340253	-1.597993	209.4868	0	11.74	4002	1177	1103	1249	1243	0.02	4.739461	3	10	0.08	2800	106.8559	40.92392	-91.39363
58719	358	-123	708	-1.131239	-1.918429	208.5582	0	11.74	4002	1198	1124	1216	1234	0.02	4.915553	3	10	0.08	2800	106.8559	40.92392	-91.39363
58756	633	54	815	-1.15611	-1.993915	208.0674	0	11.74	4004	1093	1213	1317	1153	0.02	5.077497	3	10	0.08	2800	106.8559	40.92392	-91.39363
58831	1267	441	1088	-0.1591358	-2.380346	206.8257	0	11.74	4003	1121	1125	1279	1251	0.02	5.245148	3	10	0.08	2800	106.8559	40.92392	-91.39363
59024	-632	-2247	1368	-1.354644	-0.9639279	201.9987	0	11.74	4004	1211	1163	1185	1249	0.02	5.522339	3	10	0.08	2800	106.8559	40.92392	-91.39363
59152	837	-2214	896	0.5213838	6.533741	198.9878	0	11.74	4007	1130	1158	1258	1262	0.02	5.594536	3	10	0.08	2800	106.8559	40.92393	-91.39362
59220	97	-1353	938	0.4052955	7.437362	198.6259	0	11.74	4004	1169	1245	1225	1185	0.02	5.677987	3	10	0.08	2800	106.8559	40.92393	-91.39362
59312	-769	876	72	-0.07149382	7.045993	198.1563	0	11.74	4003	1133	1199	1285	1247	0.02	5.742965	3	10	0.08	2800	106.8559	40.92393	-91.39362
59440	-826	949	-205	-1.987802	0.6303688	198.7743	0	11.85	4003	1151	1145	1281	1291	0.02	5.848602	3	10	0.08	2800	106.8559	40.92393	-91.39362
59626	1843	74	-660	-1.421733	0.3762594	200.4781	0	11.85	4003	1157	1185	1327	1267	0.02	5.947393	3	10	0.08	2800	106.8559	40.92393	-91.39362
59721	-1549	956	547	-0.536513	-0.1394443	200.5011	0	11.85	4003	1201	1149	1269	1317	0.02	5.955739	3	10	0.08	2800	106.8559	40.92393	-91.39362
59888	1458	-996	557	-1.991279	-0.5626529	199.4474	0	11.85	4004	1253	1149	1317	1425	0.02	5.945919	3	10	0.08	2800	106.8559	40.92393	-91.39362
59968	1155	-2215	448	0.6972277	1.519374	198.5874	0	11.85	4002	1258	1144	1362	1484	0.02	5.946955	3	10	0.08	2800	106.8559	40.92393	-91.39362
60028	1119	-32	368	1.155375	2.034425	198.3675	0	11.85	4003	1253	1451	1381	1227	0.02	5.941914	3	10	0.08	2800	106.8559	40.92393	-91.39362
60133	-675	2166	1185	1.284013	-1.588909	197.2087	0	11.85	4004	1421	1435	1317	1331	0.02	5.931308	3	10	0.08	2800	106.8559	40.92393	-91.39362
60241	-794	-285	796	-0.68299	-1.669209	196.6076	0	11.85	4002	1460	1356	1398	1514	0.02	5.869956	3	10	0.08	2800	106.8559	40.92393	-91.39362
60355	888	718	2348	-1.271772	-2.362329	195.3453	0	11.8	4002	1509	1463	1461	1575	0.02	5.695157	3	10	0.08	2800	106.8559	40.92393	-91.39362
60460	877	2222	1940	-1.495648	-2.775355	192.1553	0	11.8	4004	1494	1734	1608	1512	0.02	5.219022	3	10	0.08	2800	106.8559	40.92393	-91.39362
60606	47	1206	201	0.6450142	-4.840476	189.6537	0	11.8	4004	1671	1647	1533	1681	0.02	4.730574	3	10	0.08	2800	106.8559	40.92393	-91.39362
60643	-1107	-1858	513	-0.09839304	-4.402337	189.3718	0	11.8	4004	1652	1778	1598	1576	0.02	4.583306	3	10	0.08	2800	106.8559	40.92393	-91.39362
60775	922	1144	-717	0.8310975	-3.893798	190.1642	0	11.8	4003	1622	1756	1594	1532	0.02	4.092257	3	10	0.08	2800	106.8559	40.92393	-91.39362
60853	-271	-1969	-1415	0.8156666	-2.825426	191.5544	0	11.8	4004	1526	1402	1474	1614	0.02	3.924012	3	10	0.08	2800	106.8559	40.92393	-91.39362
60935	566	-1046	-1620	1.627591	1.994027	195.0213	0	11.8	4003	1341	1301	1395	1407	0.02	3.764154	3	10	0.08	2800	106.8559	40.92393	-91.39362
61038	508	1003	-2255	1.930876	2.454481	197.9356	0	11.8	4003	1258	1270	1352	1284	0.02	3.432723	3	10	0.08	2800	106.8559	40.92393	-91.39362
61142	-2025	1412	-2641	0.4364976	-1.524376	203.5555	0	11.8	4003	1327	1225	1410	1352	0.02	3.239672	3	10	0.08	2800	106.8559	40.92393	-91.39362
61322	1294	1156	-3153	-1.161839	-2.907616	211.5256	0	11.63	4002	1321	1235	1501	1455	0.02	2.855854	3	10	0.08	2800	106.8559	40.92393	-91.39363
61381	1055	733	-2107	0.3162481	-4.025919	214.3753	0	11.63	4003	1348	1276	1450	1374	0.02	2.703405	3	10	0.08	2800	106.8559	40.92393	-91.39363
61432	-678	3	-2051	-0.2117273	-3.752864	216.7935	0	11.63	4002	1388	1356	1402	1298	0.02	2.686713	3	10	0.08	2800	106.8559	40.92393	-91.39363
61588	-637	1305	-960	0.1554155	-5.504646	219.9393	0	11.63	4003	1564	1510	1518	1452	0.02	2.459328	3	10	0.08	2800	106.8559	40.92393	-91.39363
61648	58	1273	472	0.2454125	-6.102394	219.9261	0	11.63	4002	1680	1388	1430	1634	0.02	2.397157	3	10	0.08	2800	106.8559	40.92393	-91.39363
61724	1526	287	109	-1.161481	-6.018604	220.0059	0	11.63	4003	1535	1513	1533	1459	0.02	2.37698	3	10	0.08	2800	106.8559	40.92393	-91.39363
61859	1559	389	225	-0.2316123	-5.640994	219.0022	0	11.63	4004	1456	1436	1592	1492	0.02	2.022286	3	10	0.08	2800	106.8559	40.92393	-91.39364
62030	-1699	2066	343	0.5022223	-11.74079	217.5197	0	11.63	4003	1343	961	1435	1753	0.02	1.908621	3	10	0.08	2800	106.8559	40.92393	-91.39364
62107	-2361	1971	-992	-1.461137	-14.21154	217.61	0	11.63	4002	1433	929	1345	1749	0.02	1.828017	3	10	0.08	2800	106.8559	40.92393	-91.39364
62197	1742	5403	-888	-0.628958	-19.28888	218.3752	0	11.63	4004	1252	1290	1530	1372	0.02	1.747294	3	10	0.08	2800	106.8559	40.92393	-91.39364
62371	-1875	2305	524	-0.009627295	-29.29563	217.8015	0	11.63	4003	1286	1226	1520	1520	0.02	1.598815	3	10	0.08	2800	106.8559	40.92393	-91.39364
62521	-57	3150	19	-0.9822459	-31.53353	215.6794	0	11.63	4002	1533	1747	1593	1339	0.02	1.523086	3	10	0.08	2800	106.8559	40.92393	-91.39364
62603	3024	3885	1617	1.238478	-34.77939	214.9223	0	11.63	4004	1639	1709	1637	1511	0.02	1.457492	3	10	0.08	2800	106.8559	40.92393	-91.39364
62752	133	304	1135	0.6091623	-36.54037	213.2677	0	11.63	4004	1642	1506	1542	1646	0.02	1.419146	3	10	0.08	2800	106.8559	40.92393	-91.39364
62855	-112	368	1390	2.059613	-34.21321	211.205	0	11.63	4003	1565	1519	1585	1588	0.02	1.389545	3	10	0.08	2800	106.8559	40.92393	-91.39363
62952	-198	-45	836	2.206198	-34.01443	210.1341	0	11.63	4004	1448	1468	1554	1542	0.02	1.378761	3	10	0.08	2800	106.8559	40.92393	-91.39363
63009	-2856	-3546	952	1.904205	-33.13436	208.6135	0	11.63	4003	1585	1639	1367	1353	0.02	1.378576	3	10	0.08	2800	106.8559	40.92393	-91.39363
63118	-1211	-11434	914	0.8246302	-24.39064	207.5345	0	12.02	4004	1194	1276	1380	1374	0.02	1.397015	3	10	0.08	2800	106.8559	40.92393	-91.39362
63362	-1628	-8148	-941	2.764774	26.61954	205.7786	0	12.02	4004	1223	1151	1509	1577	0.02	1.651154	3	10	0.08	2800	106.8559	40.92393	-91.39362
63477	-665	1223	-1801	2.713961	29.50139	208.4962	0	12.02	4004	1182	1062	1588	1612	0.02	1.853492	3	10	0.08	2800	106.8559	40.92393	-91.3936
63586	430	6650	-2717	2.727265	19.60291	213.0089	0	12.02	4003	1278	1176	1442	1376	0.02	2.056657	3	10	0.08	2800	106.8559	40.92393	-91.3936
63619	61	7526	-2909	3.157515	15.12243	214.5505	0	12.02	4004	1352	1246	1370	1296	0.02	2.074869	3	10	0.08	2800	106.8559	40.92393	-91.39358
63738	-771	-758	-1684	2.414063	2.430721	219.1432	0	12.02	4003	1302	1266	1486	1354	0.02	2.142489	3	10	0.08	2800	106.8559	40.92393	-91.39358
