time(ms)	gyro_x(deg/s)	gyro_y(deg/s)	gyro_z(deg/s)	orientation_roll(deg)	orientation_pitch(deg)	orientation_yaw(deg)	throttle	battery(V)	loop_time(uS)	pid_output_roll	pid_output_pitch	pid_output_yaw	ultrasonic_alt	baro_alt	flight_mode
74	11	10	4	0.001054995	-0.01470144	-1.039518	0	12.48	4003	0	0	0	0.02	-0.1284711	3
166	1	10	3	0.01915431	-0.00986512	-1.042697	0	12.48	4003	0	0	0	0.02	-0.1396934	3
235	10	5	6	0.02694929	-0.0125626	-1.048077	0	12.48	4002	0	0	0	0.02	-0.1512111	3
388	8	9	1	0.01163859	-0.01640824	-1.051929	0	12.53	4003	0	0	0	0.02	-0.1601876	3
452	7	8	4	0.01123707	-0.01307903	-1.05413	0	12.53	4004	0	0	0	0.02	-0.1621433	3
516	0	17	-3	0.01895842	-0.01703842	-1.056576	0	12.53	4003	0	0	0	0.02	-0.1666068	3
700	11	2	5	0.01686499	-0.01132887	-1.067825	0	12.53	4003	0	0	0	0.02	-0.1742796	3
743	11	9	-1	0.02608988	-0.01262901	-1.06917	0	12.53	4003	0	0	0	0.02	-0.1744734	3
904	12	2	5	0.02078147	-0.02359635	-1.074795	0	12.53	4003	0	0	0	0.02	-0.1812094	3
1013	16	15	1	0.02142574	-0.006753015	-1.07828	0	12.53	4002	0	0	0	0.02	-0.1909249	3
1172	0	7	0	0.006436239	0.001722856	-1.085066	0	12.53	4004	0	0	0	0.02	-0.2009016	3
1241	7	11	-2	-0.007872174	-0.01126932	-1.088611	0	12.53	4003	0	0	0	0.02	-0.2015745	3
1373	5	10	6	0.005155652	-0.008774912	-1.091424	0	12.53	4003	0	0	0	0.02	-0.2056524	3
1412	1	4	5	0.007470821	-0.00313773	-1.09393	0	12.53	4002	0	0	0	0.02	-0.2086118	3
1603	5	-2	6	0.01303761	-0.001855353	-1.101205	0	12.53	4002	0	0	0	0.02	-0.2068377	3
1691	14	7	0	0.007523494	-0.004708332	-1.105852	0	12.53	4002	0	0	0	0.02	-0.2034009	3
1741	3	12	9	0.01195248	-0.003673526	-1.110192	0	12.53	4004	0	0	0	0.02	-0.20009	3
1816	8	4	7	0.01945402	-0.01434624	-1.112455	0	12.53	4003	0	0	0	0.02	-0.2002359	3
1960	6	6	4	0.01508946	-0.01523375	-1.117712	0	12.53	4004	0	0	0	0.02	-0.2027845	3
2010	2	14	0	0.02372215	-0.0161379	-1.119547	0	12.53	4003	0	0	0	0.02	-0.2012213	3
2111	-44	25	119	0.07057036	-0.04739743	-1.124866	0	12.48	4003	0	0	-2	0.02	-0.2026735	3
2279	-169	293	-94	0.04043499	-0.2073355	-1.12047	0	12.48	4003	12	12	2	0.02	-0.1970567	3
2352	125	-85	-64	-0.2092388	-0.3982633	-1.13533	0	12.48	4002	-3	0	3	0.02	-0.1944692	3
2423	270	-194	-118	-0.02512812	-0.1652186	-1.13386	0	12.48	4004	0	-8	1	0.02	-0.1964713	3
2532	64	26	14	0.2501721	0.001900898	-1.113018	0	12.48	4003	-8	-2	0	0.02	-0.1935934	3
2681	-53	21	88	0.305314	-0.0466544	-1.116373	0	12.48	4003	-5	-3	0	0.02	-0.1759022	3
2791	-82	137	-21	0.1266235	-0.03451998	-1.096618	0	12.48	4002	-9	-3	-4	0.02	-0.1687149	3
2878	111	2	-80	0.3633302	0.1309942	-1.111902	0	12.48	4003	5	-13	1	0.02	-0.1609177	3
2929	-164	42	27	0.2781028	0.1389748	-1.118262	0	12.48	4004	-24	2	0	0.02	-0.1556885	3
3079	25	-79	54	0.01764733	0.1779463	-1.117395	0	12.36	4002	1	9	-2	0.02	-0.1524008	3
3166	70	1	-45	-0.02211053	0.1212977	-1.109506	0	12.36	4004	2	-10	0	0.02	-0.1495394	3
3283	-16	74	24	-0.04104099	0.2425181	-1.116963	0	12.36	4002	-10	9	0	0.02	-0.1452526	3
3346	145	136	-26	-0.04299784	0.2107169	-1.110853	0	12.36	4002	18	-6	1	0.02	-0.142809	3
3461	-25	-33	-21	-0.1584615	0.08530133	-1.105659	0	12.36	4004	-8	-2	1	0.02	-0.1381726	3
3643	78	119	104	0.2630337	0.1008529	-1.136677	0	12.36	4003	3	-4	0	0.02	-0.1273778	3
3704	-75	154	54	0.0500449	0.1318949	-1.136439	0	12.36	4003	-1	-9	0	0.02	-0.1259056	3
3818	27	34	88	0.3671709	0.2648483	-1.178617	0	12.36	4003	0	-5	1	0.02	-0.1225512	3
3928	-56	73	10	0.2675171	0.2382415	-1.186576	0	12.36	4002	-1	-7	0	0.02	-0.1177461	3
4021	-10	-53	-194	0.02640293	0.1745874	-1.19986	0	12.48	4002	-9	-7	3	0.02	-0.1088274	3
4103	-65	-99	79	-0.1111126	0.2103781	-1.187933	0	12.48	4004	-17	1	0	0.02	-0.1023556	3
4221	60	-36	-97	0.002881898	0.1309785	-1.169204	0	12.48	4003	4	-7	3	0.02	-0.09853534	3
4284	146	-19	39	-0.08801517	0.5402593	-1.161006	0	12.48	4002	-6	11	0	0.02	-0.09341584	3
4402	-14	47	311	-0.09167489	0.7224174	-1.176514	0	12.48	4003	-3	0	-4	0.02	-0.07482985	3
4522	236	-2	-56	-0.1875509	0.2949854	-1.169992	0	12.48	4002	28	-33	1	0.02	-0.0641338	3
4670	-308	-203	187	-0.2161718	0.234975	-1.118806	0	12.48	4002	-35	-33	3	0.02	-0.03233221	3
4788	1153	-788	345	0.0278027	0.6147698	-1.089712	0	12.48	4002	11	-6	16	0.02	-0.009614364	3
4938	996	3564	-669	-2.091201	-4.858181	-1.666393	0	12.25	4003	-17	65	-19	0.02	0.03061225	3
5014	1174	4467	1093	-2.865848	-7.678936	-0.9483272	0	12.25	4004	-28	185	3	0.02	0.04096742	3
5118	-1459	62	1674	-3.522826	-8.686438	-1.181989	0	12.25	4004	133	-114	-49	0.02	0.04925655	3
5182	1218	153	2072	-0.4052812	-7.237846	-2.502329	0	12.25	4003	-36	-37	-57	0.02	0.05970588	3
5267	-3008	-1452	2887	2.187407	-6.404844	-6.917591	0	12.25	4002	-76	18	-45	0.02	0.07009368	3
5321	-3615	-2577	2316	1.090341	-4.615969	-8.427938	0	12.25	4002	-1	-22	-34	0.02	0.08347082	3
5516	-1973	-2022	2314	-5.03802	-1.749845	-15.88994	0	12.25	4002	46	-67	26	0.02	0.1114363	3
5543	-1736	-1245	1000	-5.760043	-0.3497407	-16.76056	0	12.25	4004	-29	-19	4	0.02	0.1157852	3
5631	-350	-738	818	-7.877817	-1.816145	-17.94026	0	12.25	4003	-9	-66	7	0.02	0.1452257	3
5806	1251	472	720	-6.817361	-1.568715	-21.21795	0	12.14	4003	-9	-32	-17	0.02	0.1815937	3
5921	0	-226	1075	-4.336396	-5.454603	-23.65568	0	12.14	4002	26	-74	-12	0.02	0.2029042	3
6004	646	167	1202	-2.928428	-4.700517	-25.89107	0	12.14	4002	-45	57	-7	0.02	0.2123096	3
6108	1334	-753	1275	-0.5509334	-7.786307	-27.3162	0	12.14	4002	-28	-64	-14	0.02	0.2335231	3
6199	284	-434	2461	-2.489762	-4.802498	-29.1606	0	12.14	4004	-45	86	16	0.02	0.2390455	3
6231	1177	150	-116	-3.654698	-4.279875	-29.55529	0	12.14	4004	-12	-37	-31	0.02	0.2404452	3
6362	-65	-2254	-807	-1.615063	-8.681246	-31.36747	0	12.14	4003	85	-1	-8	0.02	0.2515633	3
6481	-949	941	356	-2.875985	-6.055916	-32.58154	0	12.14	4002	65	-7	-3	0.02	0.2727417	3
6602	684	-2335	-347	-5.190432	-4.46709	-33.54662	0	12.14	4003	-57	111	26	0.02	0.2866032	3
6719	277	-2727	-2565	-8.426908	-6.173441	-33.15203	0	11.63	4003	-62	189	10	0.02	0.2880062	3
6834	602	1279	823	-5.580675	-6.47916	-32.92313	0	11.63	4003	-10	2	-17	0.02	0.2898795	3
6907	816	69	545	-1.923173	-9.523793	-33.16462	0	11.63	4003	-76	37	-28	0.02	0.2928163	3
7053	904	-1534	1748	-1.36285	-5.897525	-36.06636	0	11.63	4007	41	-128	-9	0.02	0.2947161	3
7161	898	-369	-443	-3.152902	-4.402297	-38.67202	0	11.63	4003	12	-164	18	0.02	0.296103	3
7235	99	973	1233	-3.70191	-6.669642	-39.7893	0	11.63	4003	-54	3	54	0.02	0.298189	3
7361	-10	633	-1700	-6.357311	-5.749579	-38.87061	0	11.63	4003	-21	-58	4	0.02	0.3019021	3
7474	-1177	-972	-954	-7.596925	-7.993324	-38.21684	0	11.63	4003	-21	-57	-24	0.02	0.3081233	3
7620	2506	360	-446	-6.902794	-8.057254	-37.75486	0	11.85	4003	-27	114	-32	0.02	0.3087014	3
7718	-2070	-1436	-805	-5.886287	-4.443554	-38.08632	0	11.85	4004	15	-63	-10	0.02	0.3070207	3
7804	-627	1081	-886	-8.607552	-5.906337	-38.18746	0	11.85	4003	-115	138	2	0.02	0.3011345	3
7901	-2277	-2256	-1168	-9.850959	-4.874138	-38.00439	0	11.85	4003	93	-192	-25	0.02	0.2937988	3
7969	-1360	-196	-370	-11.10167	-6.377782	-37.77612	0	11.85	4004	93	-193	-6	0.02	0.2890101	3
8078	-1118	-2560	-1183	-11.83238	-8.650175	-37.90923	0	11.85	4002	-21	27	-15	0.02	0.2866016	3
8096	-1118	-2560	-1183	-11.83238	-8.650175	-37.90923	0	11.85	4002	-21	27	-15	0.02	0.2866016	3
8210	-1252	588	-802	-12.0698	-9.954168	-38.40375	0	11.85	4003	35	-1	-25	0.02	0.284232	3
8310	1946	877	2310	-9.583393	-8.106225	-38.32261	0	11.85	4003	-14	-214	-11	0.02	0.2867448	3
8400	-2441	-897	2786	-10.72603	-7.977436	-38.90111	0	11.85	4002	-51	305	50	0.02	0.2904941	3
8586	-1084	1089	520	-10.99661	-7.202363	-39.53227	0	11.68	4002	-29	98	15	0.02	0.2925564	3
8699	-1658	-1736	-1935	-11.87307	-7.382912	-39.09801	0	11.68	4004	69	-105	-16	0.02	0.2988243	3
8747	322	-582	-1336	-9.944817	-5.852834	-38.00848	0	11.68	4003	-51	29	15	0.02	0.3041821	3
8836	293	1527	644	-8.996042	-6.638748	-37.74646	0	11.68	4003	95	-174	-18	0.02	0.3114675	3
8937	1730	241	-1266	-9.450417	-6.229332	-35.183	0	11.68	4003	-18	5	-33	0.02	0.3170287	3
9052	1998	-10	-1401	-7.005962	-6.658952	-34.52992	0	11.68	4004	41	-144	-35	0.02	0.3308407	3
9242	1647	-1814	-824	-5.261167	-4.478766	-35.68018	0	11.68	4003	-17	108	9	0.02	0.3483493	3
9337	687	-2553	-289	-4.326354	-6.717192	-35.816	0	11.68	4003	110	-237	11	0.02	0.3600157	3
9452	-237	355	-989	-5.755644	-5.069347	-34.67958	0	11.91	4003	53	-208	-2	0.02	0.3638642	3
9623	89	-1588	-735	-3.506636	-4.830424	-35.40267	0	11.91	4003	-29	-43	-19	0.02	0.3640161	3
9726	-2649	-862	-180	-4.578995	-4.599139	-35.37426	0	11.91	4002	41	9	1	0.02	0.3640832	3
9752	-1643	-2117	-241	-6.665111	-4.74399	-35.21262	0	11.91	4002	1	-61	-8	0.02	0.3630985	3
9937	-1594	-1618	-139	-9.624045	-1.898492	-35.1492	0	11.91	4002	5	-73	-13	0.02	0.3650037	3
9992	-906	49	364	-9.323583	-1.141608	-35.34732	0	11.91	4004	-13	-26	0	0.02	0.3637529	3
10106	-1334	227	470	-10.81669	-3.483943	-35.57166	0	11.91	4002	-11	-40	2	0.02	0.3596702	3
10228	-718	1533	-2075	-11.08717	-5.077449	-35.37711	0	11.91	4003	-16	-193	-17	0.02	0.3626103	3
10247	1592	5519	1413	-10.55436	-6.083953	-35.30481	0	11.91	4002	-16	-193	-17	0.02	0.3623896	3
10427	1466	-2204	-1441	-7.191955	-8.379362	-35.47896	0	11.06	4004	-120	99	-1	0.02	0.3676228	3
10519	-1015	-1270	-1025	-7.925473	-8.877981	-35.89663	0	11.06	4002	64	-75	-11	0.02	0.3707233	3
10590	2446	-146	-376	-6.069581	-6.629881	-35.73515	0	11.06	4003	-80	-2	29	0.02	0.3736706	3
10735	2334	4311	-575	-7.738306	-10.97314	-35.82227	0	11.06	4004	2	-188	-8	0.02	0.3691047	3
10861	-922	-1112	216	-5.399132	-9.67417	-35.36017	0	11.06	4004	29	13	6	0.02	0.3602681	3
10970	856	-737	143	-3.28724	-6.054967	-35.75047	0	11.06	4004	123	-171	4	0.02	0.3483078	3
11004	852	1045	1042	-2.695946	-6.671422	-36.20274	0	11.06	4004	-83	29	42	0.02	0.337719	3
11187	628	-737	-1028	-3.838003	-7.003398	-35.54276	0	11.06	4002	-37	-43	5	0.02	0.3258934	3
11241	319	-442	-1372	-6.441504	-8.063702	-34.77593	0	11.4	4004	12	-22	0	0.02	0.3256184	3
11377	-333	-42	686	-3.477559	-9.903271	-35.57731	0	11.4	4002	34	-62	6	0.02	0.3162108	3
11514	-994	-238	1081	-5.442621	-9.497548	-35.31738	0	11.4	4003	-32	-51	16	0.02	0.3111448	3
11551	-511	1621	538	-6.491978	-7.049043	-35.00557	0	11.4	4004	-51	109	-7	0.02	0.308236	3
11602	-1866	1572	-921	-7.958377	-9.025273	-34.92515	0	11.4	4003	11	-21	-13	0.02	0.3062851	3
11712	-497	652	240	-6.590641	-7.448932	-35.12183	0	11.4	4004	-30	16	4	0.02	0.2906484	3
11835	420	2693	-1044	-5.669829	-9.832107	-35.08953	0	11.4	4002	-82	76	-17	0.02	0.2773421	3
11932	-2190	519	-293	-5.480314	-11.40563	-34.57362	0	11.4	4003	40	-74	-25	0.02	0.2733993	3
12081	-54	214	-74	-4.053358	-10.82002	-34.35558	0	11.4	4004	22	-3	-29	0.02	0.2761524	3
12142	1396	-3159	-65	-1.728796	-7.598589	-34.58808	0	11.68	4002	-55	-10	-29	0.02	0.2807493	3
12251	720	1374	1003	-2.728987	-4.42633	-35.61249	0	11.68	4003	-23	0	24	0.02	0.2859987	3
12320	1677	393	-304	-2.678964	-5.575924	-35.63936	0	11.68	4003	-58	-5	-12	0.02	0.2896533	3
12423	-639	-1668	-937	-4.266515	-3.14725	-34.93628	0	11.68	4003	47	-63	-34	0.02	0.2920206	3
12548	1657	1168	544	-2.683375	-6.483072	-34.57907	0	11.68	4003	-34	15	-16	0.02	0.294078	3
12631	-427	-1912	268	-3.459188	-4.59084	-34.95714	0	11.68	4003	-25	29	-5	0.02	0.299878	3
12796	1100	-930	549	-1.471004	-7.388788	-35.46332	0	11.68	4003	-24	-49	6	0.02	0.3068236	3
12895	1080	-3044	-155	-3.195825	-2.694987	-35.2924	0	11.68	4003	-84	-79	24	0.02	0.3019421	3
12960	-293	-1256	-834	-4.549978	-3.370806	-35.5823	0	11.68	4002	-30	100	1	0.02	0.2996953	3
13081	-91	-2162	85	-2.943479	-7.06408	-35.53065	0	11.63	4008	12	-117	4	0.02	0.2933479	3
13138	404	-2164	-1741	-2.835543	-4.109601	-34.93484	0	11.63	4002	15	-125	-45	0.02	0.285535	3
13274	-2395	-1611	160	-3.23119	-7.63482	-34.82154	0	11.63	4003	12	-50	-9	0.02	0.2774827	3
13411	-3193	-554	-114	-2.368512	-5.781789	-34.44812	0	11.63	4006	-31	-1	-37	0.02	0.2794934	3
13516	-3340	-3067	-68	-5.286535	-4.358375	-34.36174	0	11.63	4002	33	-90	-29	0.02	0.2791958	3
13606	659	1445	319	-4.736049	-4.241133	-33.85442	0	11.63	4004	-23	-30	-17	0.02	0.2784985	3
13801	76	750	1088	-2.373143	-5.601557	-34.90512	0	11.63	4004	34	-121	9	0.02	0.2316873	3
13809	978	3955	2277	-2.947116	-6.612383	-35.41203	0	11.63	4002	34	-121	9	0.02	0.2316873	3
13917	-460	1849	-419	-4.610264	-10.4812	-36.14537	0	11.91	4002	31	-17	27	0.02	0.1931312	3
14049	728	3118	311	-3.199652	-11.3095	-35.66357	0	11.91	4002	-121	177	0	0.02	0.1602485	3
14182	1280	2842	849	-3.531252	-15.35403	-34.22754	0	11.91	4002	-43	-6	-24	0.02	0.1439572	3
14369	2132	1658	638	-0.8398614	-14.23038	-34.98096	0	11.91	4003	-53	-17	-15	0.02	0.1341558	3
14497	122	-161	563	-2.718314	-10.35974	-36.09829	0	11.91	4003	50	-42	32	0.02	0.1442665	3
14573	4683	2199	-802	-2.485781	-9.669971	-35.17294	0	11.91	4002	-160	123	-27	0.02	0.1580233	3
14702	-995	-2366	750	-4.320424	-6.172313	-34.79835	0	11.91	4003	15	-229	-14	0.02	0.1903929	3
14805	617	887	-313	-3.778044	-7.512541	-35.26649	0	11.91	4003	12	-10	-9	0.02	0.21601	3
14980	4	2440	578	-4.09006	-7.847083	-35.28358	0	11.51	4002	-36	130	21	0.1313958	0.2524702	4
15061	-1872	558	-742	-6.181729	-11.74538	-35.8016	0	11.51	4003	75	-97	-11	0.2896943	0.2607462	4
15148	-1288	-341	-1182	-5.525365	-10.87165	-35.09936	0	11.51	4004	99	-127	-8	0.5013864	0.2832015	4
15235	-2442	-3233	355	-5.97328	-9.798359	-34.81134	0	11.51	4003	-29	-15	-44	0.647809	0.3029901	4
15362	-1444	-5676	-2165	-5.243544	-2.153266	-34.50888	0	11.51	4002	49	-228	-52	0.6398605	0.3238078	4
15397	-3129	-2402	667	-7.084019	-1.149778	-34.98581	0	11.51	4003	41	-57	11	0.7201402	0.3259384	4
15469	-2363	-5409	-1167	-9.797996	2.741099	-35.17248	0	11.51	4004	8	-68	-11	0.8933731	0.338952	4
15599	-5754	-3784	351	-11.653	4.239418	-35.61921	0	11.51	4003	68	-51	10	0.9986604	0.3575613	4
15670	-4689	-3981	97	-16.30301	4.137125	-35.61456	0	11.51	4003	-2	-109	11	1.05973	0.367107	4
15760	-187	-1267	-975	-15.97592	2.372193	-35.40475	0	12.14	4002	37	-58	-9	1.132226	0.3764579	4
15909	2609	2103	-150	-9.796386	-4.211783	-35.51474	0	12.14	4004	-15	-99	22	1.085776	0.3916295	4
16022	4066	5737	582	0.1620625	-16.82919	-35.94648	0	12.14	4003	39	-110	-2	1.105325	0.4060459	4
16131	-1226	-695	-2592	-0.2075774	-18.99371	-35.31973	0	12.14	4003	-63	207	-21	1.170638	0.414563	4
16187	-848	2480	981	-0.7688225	-16.60095	-35.0134	0	12.14	4003	15	106	-41	1.183096	0.4191373	4
16359	1892	-528	37	-1.607005	-12.00259	-34.47915	0	12.14	4003	-60	22	-12	1.087452	0.424723	4
16529	3189	94	163	5.39171	-14.4772	-35.68826	0	12.14	4004	-7	-94	17	1.108803	0.4285563	4
16615	-625	835	524	4.823595	-13.78712	-35.63205	0	11.8	4002	55	-40	0	1.137395	0.4288694	4
16686	-2312	-2800	-1251	0.06760242	-9.628134	-35.20782	0	11.8	4003	43	-122	-34	1.145087	0.4230173	4
16778	-2213	1265	-310	-0.5590279	-10.0732	-34.89269	0	11.8	4004	0	-22	-17	1.142582	0.4150549	4
16854	-7605	-1050	131	-5.672041	-8.312141	-35.13925	0	11.8	4003	62	-42	-16	1.178481	0.4114495	4
16985	-570	758	-224	-10.8132	-5.646125	-35.02229	0	11.8	4002	50	-112	0	1.185009	0.4010154	4
17073	-168	-74	150	-9.979698	-5.598428	-35.50167	0	11.8	4002	25	-64	4	1.160577	0.3881235	4
17143	683	-1830	-300	-8.556591	-2.961042	-35.84568	0	11.8	4002	-41	-15	1	1.112267	0.3775933	4
17272	1939	-2719	-621	-8.789582	-2.975645	-35.89985	0	11.8	4003	-48	-146	8	0.9928866	0.352105	4
17441	831	1057	915	-8.2863	-6.452637	-36.33221	0	11.8	4003	-42	76	15	0.8078786	0.3273938	4
17549	570	-1143	131	-7.187355	-8.32231	-35.75578	0	11.97	4002	35	-137	10	0.6724715	0.3135538	4
17694	-674	4759	270	-6.310459	-7.833229	-36.32893	0	11.97	4003	-6	-54	50	0.5464116	0.2855313	4
17785	45	3572	-214	-4.932249	-25.9102	-33.66368	0	11.97	4008	-18	106	-50	0.4424867	0.2687133	4
17957	273	-1646	679	-4.363753	-3.001888	-36.25371	0	11.97	4002	21	-8	10	0.3212005	0.2200058	4
18114	783	-1977	-2138	-4.533653	-3.843226	-36.32602	0	11.97	4002	-106	59	17	0.3211069	0.1720766	4
18214	-1897	1018	-1159	-6.347224	-5.421532	-35.17424	0	11.97	4003	38	-22	-28	0.3734876	0.1521056	4
18395	-750	1489	610	-7.052883	-12.75599	-34.96447	0	11.97	4003	-89	10	-8	0.5330417	0.1383009	4
18463	-1245	395	-156	-4.37261	-15.04797	-34.88878	0	11.91	4002	8	-51	-20	0.6579037	0.1420978	4
18527	-2030	267	-523	-4.211239	-15.33104	-35.09982	0	11.91	4003	83	-62	-17	0.6400209	0.1548659	4
18603	240	739	544	-3.494826	-11.46311	-35.51252	0	11.91	4003	-51	26	-7	0.7284598	0.1686112	4
18709	-950	426	-1311	-5.103287	-9.309206	-35.68024	0	11.91	4003	26	-123	-15	0.9165876	0.1957882	4
18910	322	-742	23	-7.860129	-9.534204	-34.87613	0	11.91	4002	-87	89	-22	0.9938462	0.2336204	4
19102	199	-3513	471	-5.278478	-3.593985	-35.117	0	11.91	4003	-7	-113	-7	0.9772211	0.2603126	4
19136	-142	-56	-586	-3.750987	-3.687877	-35.20283	0	11.91	4003	75	-113	-16	1.013269	0.2702521	4
19217	-308	348	-17	-3.652995	-8.70959	-35.12112	0	11.91	4003	73	-92	-8	1.079294	0.3039001	4
19455	1371	690	-218	-3.619343	-4.993214	-34.93308	0	11.29	4004	-54	24	-21	1.137285	0.3489562	4
19598	-1054	-1563	-397	-4.997027	-4.264907	-35.11916	0	11.29	4003	42	-109	-15	1.094148	0.3830162	4
19656	950	-341	813	-3.536344	-5.742022	-35.25041	0	11.29	4004	9	-171	3	1.10458	0.3942782	4
19738	294	497	-4	-2.342873	-4.565468	-35.49653	0	11.29	4002	40	-51	0	1.072917	0.4236297	4
19835	-398	-2068	335	-4.735541	-2.16594	-35.67083	0	11.29	4003	-29	-92	17	1.074218	0.4354882	4
19975	-1784	-1968	706	-7.331536	-0.3057891	-35.32571	0	11.29	4003	18	-79	10	1.124554	0.4447292	4
20108	167	440	-591	-8.019994	-2.661597	-35.07454	0	11.29	4002	-15	-37	7	1.099806	0.452401	4
20144	121	2268	474	-8.10764	-2.693264	-34.97745	0	11.29	4002	-15	-37	7	1.103667	0.4530169	4
20315	728	562	1630	-6.687566	-2.442106	-35.20585	0	11.85	4003	-28	-35	13	1.155053	0.4475355	4
20405	-382	448	596	-4.573213	-6.645133	-35.31522	0	11.85	4003	55	-83	5	1.185846	0.4449748	4
20474	-469	196	-319	-3.479645	-8.253864	-35.19955	0	11.85	4003	-29	-11	-9	1.21287	0.4321551	4
20559	-262	-777	-292	-5.355145	-8.373575	-35.1725	0	11.85	4002	45	-90	-9	1.225508	0.4243491	4
20608	-460	1079	364	-3.723383	-8.737653	-35.38017	0	11.85	4003	34	-4	-5	1.225944	0.4074479	4
20820	357	1525	821	-4.389338	-5.039329	-35.44028	0	11.85	4003	-4	87	9	1.168162	0.3670936	4
20986	1817	3937	984	-1.463342	-7.915149	-35.67196	0	11.85	4003	-14	14	-26	0.9505008	0.3272732	4
21160	-1408	1067	-505	-0.1064644	-10.00302	-35.31847	0	11.4	4002	7	-55	-6	0.7296325	0.2957924	4
21353	-1237	-166	-357	-1.127092	-5.987579	-36.68029	0	11.4	4003	21	-98	40	0.5467233	0.2752463	4
21423	-786	1447	67	-3.744553	-6.931006	-36.7404	0	11.4	4004	37	-6	21	0.4893773	0.2579528	4
21600	-1779	-1421	954	-7.625564	-2.076533	-35.87057	0	11.4	4004	9	84	9	0.3552274	0.2039358	4
21692	1390	714	-1238	-8.432137	-2.410758	-35.55396	0	11.4	4004	-70	-46	12	0.30121	0.1590729	4
21776	-958	-1168	-1508	-7.561728	-5.597154	-35.92785	0	11.4	4002	28	-231	16	0.2774775	0.14348	4
21834	897	3056	625	-6.921013	-6.063544	-36.0203	0	11.4	4003	-83	3	-1	0.265217	0.1193181	4
21924	338	-34	1161	-6.929882	-9.13948	-35.51912	0	11.4	4003	62	-163	16	0.2722013	0.09717094	4
22109	118	681	-847	-7.831397	-8.108735	-35.06264	0	11.06	4003	-17	49	-9	0.3424011	0.07612868	4
22192	1086	-556	1382	-5.44543	-9.404421	-35.11602	0	11.06	4003	-44	56	-10	0.4017745	0.06957904	4
22351	1382	1773	2013	-4.834704	-11.65345	-35.02873	0	11.06	4004	-116	209	17	0.5763261	0.06929615	4
22451	-1481	647	-1880	-7.040558	-10.71437	-35.11887	0	11.06	4004	57	-158	-38	0.6901764	0.08230035	4
22539	1688	35	863	-4.698991	-10.40849	-35.01664	0	11.06	4004	-42	-24	0	0.753054	0.09899932	4
22674	-639	232	-574	-4.402638	-8.775015	-34.4503	0	11.06	4002	-64	97	-20	0.9020761	0.1238798	4
22830	760	-2151	-500	-5.712887	-5.017808	-34.95381	0	11.06	4004	-37	14	-18	1.051418	0.1651665	4
22930	383	-3842	345	-5.621062	-1.915284	-35.51304	0	11.06	4002	-26	-34	11	1.068284	0.1848409	4
23010	-732	-2375	-438	-4.66089	0.2045026	-35.45625	0	10.89	4003	52	-38	-10	1.025215	0.2216339	4
23119	282	-3058	-695	-4.920492	2.125193	-35.62539	0	10.89	4002	2	-107	-10	1.012464	0.256692	4
23284	680	2614	793	-7.351063	-5.462266	-35.5158	0	10.89	4003	-53	-11	20	1.001459	0.3120887	4
23322	1134	3446	-735	-6.794328	-7.113416	-35.24923	0	10.89	4003	-76	63	-31	1.085352	0.3436441	4
23450	471	1953	655	-6.380097	-12.07702	-34.69389	0	10.89	4002	39	-160	-12	1.120819	0.3836577	4
23539	112	3682	-70	-6.732694	-13.3066	-34.69776	0	10.89	4003	-39	184	-15	1.031721	0.4201188	4
23629	565	-322	-579	-5.989943	-7.679191	-34.98826	0	10.89	4003	-6	19	-26	1.088331	0.4448523	4
23806	750	1456	-939	-7.356048	-9.831691	-34.49285	0	10.89	4004	-32	46	8	1.120356	0.4781328	4
23868	-346	-158	-353	-6.675627	-9.779597	-34.1671	0	11.85	4002	93	-150	-16	1.0884	0.4839576	4
23945	-1286	-2361	-909	-6.754204	-10.27461	-33.76735	0	11.85	4002	133	-233	-34	1.071159	0.4900098	4
24112	-595	-1836	-1783	-2.364723	-7.700999	-33.8862	0	11.85	4002	101	-82	-19	1.010979	0.5057295	4
24167	905	-2692	1060	-1.49025	-7.878676	-34.15091	0	11.85	4003	102	-85	3	1.107075	0.5147347	4
24249	466	-944	-776	0.6907249	-8.148757	-34.0713	0	11.85	4002	-100	117	-4	1.218096	0.5299075	3
24418	-42	-1161	543	2.208415	-4.863042	-32.88276	0	11.85	4003	96	-124	-56	1.340396	0.5754434	3
24514	-689	-1060	797	2.395776	-4.67904	-33.77805	0	11.85	4003	-62	131	-40	1.388187	0.6076484	3
24582	-4220	-7063	-538	0.2149143	2.489152	-34.91384	0	11.85	4003	139	-176	7	1.412613	0.6340907	3
24732	-2043	-2812	333	-6.213964	2.02091	-35.36871	0	11.85	4004	34	-111	16	1.448424	0.7011322	3
24790	-3306	-2293	-1585	-7.543058	0.7425769	-34.87416	0	11.23	4002	-34	53	5	1.461406	0.7298936	3
24938	-503	-458	399	-7.729465	-2.355449	-33.90279	0	11.23	4002	-117	162	-28	1.484068	0.7936019	3
25027	-1268	-4468	957	-5.767866	-1.256554	-33.8312	0	11.23	4004	-20	-39	-14	1.490277	0.8305696	3
25079	-1926	-5499	1054	-7.33444	1.203387	-34.53894	0	11.23	4004	91	-130	1	1.495306	0.870662	3
25263	1080	3258	-351	-5.24698	-1.821801	-35.81994	0	11.23	4004	-21	47	19	1.504086	0.9676474	3
25438	7218	5015	-124	-3.279874	-1.500086	-34.94256	0	11.23	4004	-113	47	14	1.510018	1.087029	3
25509	2146	6478	457	-0.1159927	-6.60128	-35.49442	0	11.23	4002	71	-90	14	1.511841	1.13804	3
25560	3692	2486	829	-3.338797	-6.202657	-35.40618	0	11.23	4003	-77	52	5	1.512332	1.150783	3
25642	1282	5209	1085	-2.578654	-10.14082	-35.68066	0	11.23	4003	105	18	30	1.513528	1.206388	3
25773	1410	208	-1035	-3.771006	-10.76987	-35.50607	0	11.74	4003	20	-100	5	1.514635	1.262879	3
25907	1704	6719	-129	-3.377024	-12.77138	-34.87576	0	11.74	4002	5	-11	-12	1.515207	1.289771	3
25994	972	5102	-565	-2.228667	-15.86448	-34.34824	0	11.74	4004	5	-9	-8	1.515624	1.317017	3
26099	470	4585	-281	-4.245424	-15.98615	-34.17698	0	11.74	4002	94	-25	-19	1.515928	1.348209	3
26255	-438	2129	253	-1.095656	-14.79831	-34.43054	0	11.74	4003	34	-50	-16	1.516263	1.380528	3
26366	201	-3129	-1041	0.5359154	-8.24667	-34.08778	0	11.74	4002	-12	109	-34	1.516429	1.405431	3
26428	2587	-1176	-685	1.605637	-2.95468	-33.83258	0	11.74	4003	-112	91	-41	1.516489	1.416662	3
26625	313	-3404	304	0.399756	6.091573	-34.71702	0	11.06	4004	-24	19	2	1.516594	1.421545	3
26712	546	-1112	-1230	-2.447019	4.804021	-35.43394	0	11.06	4003	-16	-86	-8	1.516635	1.399509	3
26786	-603	-334	-43	-1.493241	0.8669253	-35.33049	0	11.06	4004	48	-36	2	1.516665	1.374879	3
26859	153	-980	-908	-1.824549	-0.3329396	-34.4306	0	11.06	4002	32	-96	-31	1.516681	1.339274	3
27035	-935	-1346	857	-3.00727	-1.629466	-34.45189	0	11.06	4003	19	-51	-6	1.516711	1.194662	3
27154	-741	-3353	17	-3.554305	-1.211901	-34.80904	0	11.06	4003	-25	-158	-23	1.516723	1.085564	3
27197	-1676	628	1840	-3.544489	-1.114291	-35.01816	0	11.06	4002	-33	78	-2	1.516727	1.029858	3
27292	-1567	591	1208	-7.16119	-6.173766	-35.11541	0	11.06	4004	-132	154	-19	1.516732	0.9604594	3
27454	-602	891	294	-2.007216	-4.281566	-35.26315	0	11.06	4003	-37	47	9	1.516737	0.8749506	3
27508	-775	787	1529	1.221143	-3.561625	-35.2374	0	11.06	4002	27	0	-28	1.516739	0.8286224	3
27698	-2211	-2217	-1186	0.1129712	-5.140678	-34.40277	0	11.06	4002	-160	284	-5	1.516742	0.7313565	3
27756	-3110	-3824	-403	-0.5810265	-0.5617925	-34.20465	0	11.06	4004	138	79	-8	1.516742	0.6896884	3
27814	-1076	2117	215	-1.174963	-0.4248907	-34.28117	0	11.06	4004	57	-35	-42	1.516743	0.6485783	3
27889	2559	2435	373	-3.353166	-5.475781	-34.523	0	11.06	4003	-52	121	-38	1.516744	0.6137959	3
28000	-680	-928	282	0.9049241	-0.2454644	-34.15882	0	11.06	4002	-14	102	-25	1.516744	0.5798515	3
28094	1717	2642	1605	1.041189	-2.876405	-34.03547	0	11.06	4003	-46	-158	-63	1.516745	0.5609955	3
28258	-402	-2509	-683	0.6078924	-4.750336	-33.45154	0	11.06	4002	25	-74	-49	1.516745	0.5533137	3
28405	2841	1560	913	5.063708	-4.448686	-34.0973	0	11	4004	-64	2	4	1.516745	0.582196	3
28595	925	1439	595	0.8571144	-5.508079	-34.83176	0	11	4003	-35	30	9	1.516745	0.6340215	3
28666	-1632	-3202	636	-0.3323486	-4.142545	-34.9877	0	11	4003	20	-135	19	1.516745	0.6651966	3
28782	793	4104	935	-4.089662	-5.717975	-35.22095	0	11	4002	51	-162	10	1.516745	0.7014568	3
28828	672	621	-1587	-5.69446	-7.606972	-34.99528	0	11	4004	66	-169	-11	1.516745	0.7183937	3
28896	1176	-461	383	-3.237614	-7.964762	-34.58799	0	11	4003	-13	69	-18	1.516745	0.7432995	3
28977	719	1192	1380	-2.675002	-9.579994	-34.47878	0	11	4002	-47	188	-12	1.516745	0.7899805	3
29088	-1610	-579	-273	-2.717655	-8.785706	-34.1496	0	11	4003	6	-21	-32	1.516745	0.845566	3
29222	1212	4598	-1322	-4.339509	-10.05821	-34.65026	0	11	4003	-152	236	8	1.516745	0.9092577	3
29374	-1280	185	-244	-2.916083	-13.53895	-34.07561	0	11.4	4004	-22	-35	-23	1.516745	1.001963	3
29393	-483	1040	-66	-4.248665	-11.034	-33.85168	0	11.4	4003	-22	-35	-23	1.516745	1.01725	3
29491	-801	3161	301	-4.955598	-15.05795	-34.54732	0	11.4	4003	-109	52	-19	1.516745	1.088157	3
29688	-998	4548	-286	-7.990609	-13.05092	-35.01368	0	11.4	4002	-15	10	0	1.516745	1.194221	3
29741	-2384	3909	442	-8.670795	-13.18769	-35.02568	0	11.4	4003	-7	-15	3	1.516745	1.22245	3
29889	-229	2697	-395	-7.689621	-14.53215	-34.40938	0	11.4	4002	-33	31	-26	1.516745	1.292838	3
30034	765	-504	-483	-6.650668	-12.16772	-34.0796	0	11.4	4003	-53	36	-28	1.516745	1.417416	3
30149	927	-3533	391	-4.739055	-8.553642	-34.32606	0	11.4	4002	-38	-43	-23	1.516745	1.471217	3
30198	1296	-3559	336	-3.961215	-5.898972	-34.36691	0	11.4	4003	-13	-58	-11	1.516745	1.510755	3
30282	-952	-1583	542	-4.116213	-4.667927	-35.29249	0	11.23	4002	40	-32	10	1.516745	1.547413	3
30444	1140	-3542	240	-4.222677	0.5163271	-35.10366	0	11.23	4002	-33	-20	2	1.516745	1.614322	3
30472	667	-4307	113	-5.095606	0.6455693	-34.97252	0	11.23	4002	-48	20	-3	1.516745	1.621922	3
30586	-169	-5757	-118	-3.199551	4.831353	-34.61446	0	11.23	4004	69	-135	-2	1.516745	1.653576	3
30692	2783	-2884	-1751	-4.519263	4.422385	-34.46072	0	11.23	4004	-44	-102	-6	1.516745	1.697001	3
30851	1441	-4620	835	-4.739024	3.388673	-34.66413	0	11.23	4002	17	-145	2	1.516745	1.73551	3
30968	-213	-78	-321	-4.441925	0.2693624	-34.9654	0	11.23	4002	-56	27	-9	1.516745	1.741187	3
31009	-467	-2055	-875	-3.069969	-0.2392785	-34.80979	0	11.23	4003	15	-154	-20	1.516745	1.741343	3
31165	-1656	1550	148	-4.196222	-8.729568	-34.06231	0	10.6	4003	5	0	-22	1.516745	1.723741	3
31233	-1033	939	-1103	-6.025799	-7.32208	-33.95337	0	10.6	4003	55	-99	-38	1.516745	1.703926	3
31334	-539	2904	556	-6.504383	-14.49009	-34.96278	0	10.6	4004	19	-28	7	1.516745	1.641662	3
31441	1325	233	1061	-8.096848	-9.164742	-35.28381	0	10.6	4002	60	-166	-2	1.516745	1.585587	3
31515	1567	-1426	-1035	-5.564663	-9.750493	-34.90424	0	10.6	4004	33	-73	-2	1.516745	1.49844	3
31612	-577	-3532	-982	-5.38853	-7.664644	-35.03423	0	10.6	4002	11	-247	-2	1.516745	1.311224	3
31680	-309	861	143	-4.942444	-7.49716	-35.33152	0	10.6	4002	-16	70	5	1.516745	1.24886	3
31865	-2296	1072	348	-3.301959	-6.565425	-34.99747	0	10.6	4004	111	-16	-15	1.516745	1.008739	3
32044	-4518	-2724	-1494	-7.479475	-9.24993	-34.60333	0	10.89	4003	69	-110	7	1.516745	0.8699504	3
32141	-2235	464	-461	-7.601832	-11.71922	-34.83191	0	10.89	4003	180	-339	11	1.516745	0.7784197	3
32220	4001	2456	804	-4.929023	-10.57139	-34.04889	0	10.89	4002	-47	-189	-60	1.516745	0.7103611	3
32295	-537	1458	937	-2.987904	-10.10007	-34.39606	0	10.89	4003	52	-30	0	1.516745	0.6620195	3
32365	335	-597	446	-4.856443	-9.457253	-34.85368	0	10.89	4004	-94	99	7	1.516745	0.6063206	3
32419	2566	-3023	1117	-2.65122	-9.072069	-34.92846	0	10.89	4004	-36	-25	25	1.516745	0.5946873	3
32633	-12	-3750	1795	-2.009619	-3.401901	-34.71525	0	10.89	4004	-23	116	25	1.516745	0.5130882	3
32732	702	-2713	-601	-4.415558	-5.675985	-34.73719	0	10.89	4003	72	-160	-13	1.516745	0.4567776	3
32912	719	-425	1384	-4.7978	-6.241811	-34.23134	0	11.51	4004	-131	83	-24	1.516745	0.4014281	3
33032	-60	-2500	686	-3.125808	-6.480747	-34.80841	0	11.51	4004	18	-95	-5	1.516745	0.3591974	3
33113	2151	-424	-1165	-0.8992227	-6.016026	-35.47606	0	11.51	4002	-61	42	-8	1.516745	0.3274161	3
33161	128	393	425	-1.313284	-8.1584	-35.94312	0	11.51	4004	19	16	26	1.516745	0.3068449	3
33346	169	-1367	-387	-5.706313	-7.749397	-33.85349	0	11.51	4004	64	-41	-25	1.516745	0.2711132	3
33480	-1228	-1401	128	-2.684625	-4.012054	-33.88913	0	11.51	4004	40	-59	-30	1.516745	0.2315346	3
33605	-730	1271	-448	-2.597116	-5.680981	-34.15526	0	11.51	4002	-61	-1	-23	1.516745	0.1996136	3
33676	-3495	-1298	-1286	-5.792251	-4.658518	-33.62077	0	11.51	4002	-15	-31	-69	1.516745	0.178111	3
33808	-2447	2702	-576	-3.150029	-7.705547	-32.61504	0	11.34	4003	-43	78	-71	1.516745	0.1347034	3
33851	642	1623	-1498	-2.408522	-8.843946	-32.60485	0	11.34	4003	104	-172	-58	1.516745	0.1141037	3
34007	-2240	1355	-190	-1.597689	-12.06457	-34.07699	0	11.34	4002	35	-14	-26	1.516745	0.05337956	3
34109	272	2450	-1545	-2.397715	-11.13519	-34.04264	0	11.34	4002	15	1	-43	1.516745	0.02100527	3
34195	-30	1083	-2552	-1.206003	-10.55837	-33.49327	0	11.34	4002	-7	-63	-44	1.516745	0.006787851	3
34302	-853	2219	-629	-1.838435	-6.872966	-34.39769	0	11.34	4004	-4	-7	-28	1.516745	-0.01407416	3
34459	-749	-515	210	-2.892934	-8.41994	-34.9161	0	11.34	4003	11	-70	0	1.516745	-0.02437869	3
34518	63	206	-743	-3.059678	-5.636079	-34.79874	0	11.34	4003	-33	-1	-7	1.516745	-0.02328785	3
34582	1014	439	652	-2.537283	-4.430784	-34.88391	0	11.34	4005	10	-38	12	1.516745	-0.02133338	3
34695	636	-1046	-1025	-3.295686	-1.167564	-34.82454	0	10.89	4002	0	-30	-19	1.516745	-0.01257854	3
34851	507	-1220	-58	-3.377301	-1.136495	-35.02576	0	10.89	4003	24	-55	-1	1.516745	0.00921685	3
35006	432	-1485	124	-4.318975	-1.85226	-35.02625	0	10.89	4003	-10	-84	4	1.516745	0.03289737	3
35145	1286	471	-629	-1.890009	-4.485549	-34.9152	0	10.89	4003	-1	-52	-2	1.516745	0.05494395	3
35273	1044	-1687	202	-2.56987	-5.237182	-34.35746	0	10.89	4003	12	-110	-20	1.516745	0.08505285	3
35362	400	521	112	-0.7583774	-3.750744	-34.36429	0	10.89	4003	-30	-4	-19	1.516745	0.1044946	3
35432	1042	-837	499	-2.569854	-4.077183	-34.44642	0	10.89	4003	51	-81	-13	1.516745	0.1111006	3
35465	39	-1360	1054	-2.414351	-3.5918	-34.62173	0	10.89	4002	-29	-29	-3	1.516745	0.1120389	3
35596	-634	-4008	-4102	-4.328653	-5.841859	-34.55996	0	11	4003	76	-97	-36	1.516745	0.1131514	3
35744	-4652	-1217	355	-1.295491	-3.622753	-32.93188	0	11	4002	111	-94	-55	1.516745	0.1152339	3
35801	-4292	-1015	73	-5.137381	-1.906676	-32.46784	0	11	4004	-34	122	-60	1.516745	0.1150145	3
35915	-2050	1404	-381	-2.180537	-4.812818	-32.38198	0	11	4002	53	-15	-56	1.516745	0.1116826	3
35938	-2050	1404	-381	-2.887381	-5.743004	-32.49712	0	11	4002	-40	37	-58	1.516745	0.1116826	3
36074	1304	-539	-30	-0.1272832	-4.031613	-33.63791	0	11	4002	19	-116	-3	1.516745	0.09446997	3
36167	-601	-1542	834	1.891369	-3.939051	-34.90591	0	11	4004	-12	6	0	1.516745	0.08482191	3
36264	1779	-1750	-1541	-0.07121284	-3.405487	-34.6298	0	11	4004	-62	112	2	1.516745	0.08184313	3
36349	2009	1917	52	2.205752	-6.381781	-34.6347	0	11	4004	-106	103	-5	1.516745	0.08012068	3
36450	-756	-2114	294	0.910605	-2.751277	-35.55554	0	11	4003	-61	60	24	1.516745	0.08639593	3
36579	106	-574	249	-1.306755	-3.327391	-35.32299	0	10.89	4002	138	-104	14	1.516745	0.1130828	3
36654	2566	533	356	-3.023675	-2.05467	-34.92884	0	10.89	4002	-110	167	-6	1.516745	0.1215353	3
36770	2516	-112	421	-1.464397	-5.76742	-35.17893	0	10.89	4003	17	-62	5	1.516745	0.1324	3
36857	2297	3262	359	-1.115954	-5.326344	-34.93247	0	10.89	4003	-18	13	-33	1.516745	0.1341009	3
37046	-1555	620	-508	-3.016344	-6.934307	-34.70123	0	10.89	4004	-22	-71	-6	1.516745	0.139969	3
37138	-975	3116	297	-3.370774	-8.467438	-34.5801	0	10.89	4003	-6	-12	-1	1.516745	0.1309094	3
37184	-3566	1594	-393	-5.946531	-9.731737	-34.66724	0	10.89	4003	10	-27	-16	1.516745	0.1252409	3
37293	2915	1934	-298	-4.95074	-7.015334	-34.1483	0	10.89	4002	-81	-34	-24	1.516745	0.1068292	3
37344	289	3013	577	-3.507534	-8.098764	-34.30659	0	10.89	4004	-10	-8	-18	1.516745	0.1025348	3
37491	1735	1433	105	-2.19434	-6.991445	-34.97738	0	11.4	4002	-44	-76	-3	1.516745	0.07155292	3
37547	-9257	-8506	-917	-1.287388	-6.711968	-35.0044	0	11.4	4003	400	-400	35	1.516745	0.06323897	3
37702	-2816	5193	1618	-1.044115	-15.02534	-39.07953	0	11.4	4004	0	0	0	1.516745	0.03058546	3
37798	-6139	2046	1879	-7.636395	-15.9953	-41.198	0	11.4	4004	0	0	0	1.516745	0.008145808	3
37867	-2518	-17519	1764	-7.83617	-10.57522	-44.4327	0	11.4	4003	0	0	0	1.516745	-0.002539804	3
37948	-293	-1368	2186	-3.640072	3.436855	-46.27382	0	11.4	4004	0	0	0	1.516745	-0.02717618	3
38043	-330	92	-355	0.1386216	7.702523	-47.54714	0	11.4	4004	0	0	0	1.516745	-0.05211476	3
38160	119	-477	57	-0.2641247	3.306834	-47.68943	0	11.4	4002	0	0	0	1.516745	-0.06583219	3
38225	150	-475	-233	0.08206511	2.913984	-47.70601	0	11.4	4003	0	0	0	1.516745	-0.07372448	3
38358	-342	154	47	0.04462563	1.689885	-47.79343	0	11.91	4004	0	0	0	1.516745	-0.08935069	3
38466	76	-401	-57	-0.1266289	1.037119	-47.81263	0	11.91	4002	0	0	0	1.516745	-0.1030152	3
38552	-13	-323	-137	0.3381666	1.105873	-47.82376	0	11.91	4004	0	0	0	1.516745	-0.1266129	3
38636	-183	-110	20	0.2417325	0.8608928	-47.87237	0	11.91	4004	0	0	0	1.516745	-0.1420557	1
38756	-178	-86	-46	0.045557	0.5244135	-47.91914	0	11.91	4004	0	0	0	1.516745	-0.1680755	1
38842	-98	-221	74	-0.03014078	0.2292795	-47.98089	0	11.91	4002	0	0	0	1.516745	-0.1827563	1
39004	-155	-115	50	0.08481213	0.2558037	-48.03316	0	11.91	4004	0	0	0	1.516745	-0.2098665	1
39062	-158	-97	46	0.05363648	0.2610505	-48.05945	0	11.91	4002	0	0	0	1.516745	-0.2188885	1
39148	-184	-85	42	0.01810184	0.2237247	-48.08592	0	11.91	4004	0	0	0	1.516745	-0.2322674	1
39226	-98	-172	-18	-0.07915019	0.1510194	-48.1182	0	11.97	4002	0	0	0	1.516745	-0.2476212	1
39443	-165	-72	29	-0.007004441	0.2077127	-48.19186	0	11.97	4003	0	0	0	1.516745	-0.2806094	1
39554	-140	-139	27	-0.0005528993	0.175858	-48.23024	0	11.97	4002	0	0	0	1.516745	-0.2993183	1
39659	-115	-133	17	-0.03875765	0.1486866	-48.26393	0	11.97	4003	0	0	0	1.516745	-0.3016428	1
39757	-132	-119	1	-0.02174132	0.1865535	-48.29799	0	11.97	4002	0	0	0	1.516745	-0.3042692	1
39843	-135	-119	25	-0.01757447	0.1441745	-48.33161	0	11.97	4004	0	0	0	1.516745	-0.2991743	1
39943	-129	-111	18	-0.02420602	0.1202871	-48.37766	0	11.97	4003	0	0	0	1.516745	-0.2960018	1
40035	-124	-133	17	-0.04196271	0.1272265	-48.4111	0	11.97	4004	0	0	0	1.516745	-0.291691	1
40170	-119	-122	15	-0.02573616	0.1387508	-48.4569	0	11.97	4002	0	0	0	1.516745	-0.2896694	1
40231	-121	-126	23	-0.01975599	0.1366552	-48.46692	0	11.97	4004	0	0	0	1.516745	-0.2834201	1
40379	-130	-122	20	0.0003471926	0.1351801	-48.51124	0	11.97	4004	0	0	0	1.516745	-0.2722023	1
40495	-140	-125	21	0.0006257784	0.1332491	-48.55421	0	11.97	4004	0	0	0	1.516745	-0.2670827	1
40566	-132	-121	18	0.001519415	0.1116988	-48.57728	0	11.97	4004	0	0	0	1.516745	-0.2613227	1
40658	-136	-125	21	-0.003911292	0.09386004	-48.6111	0	11.97	4004	0	0	0	1.516745	-0.2516574	1
40748	-128	-119	22	0.007451985	0.0767991	-48.63477	0	11.97	4004	0	0	0	1.516745	-0.2492042	1
40840	-134	-124	17	0.01259073	0.08467175	-48.66698	0	11.97	4004	0	0	0	1.516745	-0.2525164	1
40923	-131	-126	22	-0.006356744	0.1095872	-48.69976	0	11.97	4003	0	0	0	1.516745	-0.2596842	1
41039	-125	-122	16	-0.01033088	0.1220242	-48.73056	0	11.97	4002	0	0	0	1.516745	-0.2590645	1
41218	-116	-131	22	-0.004272255	0.1224601	-48.78688	0	11.97	4003	0	0	0	1.516745	-0.2479652	1
41257	-120	-124	23	-0.004227101	0.1287631	-48.82033	0	11.97	4003	0	0	0	1.516745	-0.24689	1
41384	-127	-124	24	0.005448028	0.1428024	-48.85434	0	11.97	4003	0	0	0	1.516745	-0.2391929	1
41489	-126	-137	25	0.0178925	0.1196598	-48.88698	0	11.97	4003	0	0	0	1.516745	-0.2393247	1
41575	-119	-128	18	0.01693441	0.1235167	-48.91876	0	11.97	4003	0	0	0	1.516745	-0.2411417	1
41702	-119	-123	15	-0.004219947	0.1267657	-48.9621	0	11.97	4002	0	0	0	1.516745	-0.244089	1
41767	-132	-117	22	-0.01032917	0.1201274	-48.98418	0	11.97	4003	0	0	0	1.516745	-0.2445604	1
41845	-133	-125	17	-0.009148893	0.1176964	-49.00557	0	11.97	4003	0	0	0	1.516745	-0.2455088	1
42016	-126	-120	24	-0.01395768	0.1080761	-49.06189	0	11.97	4003	0	0	0	1.516745	-0.2523447	1
42182	-119	-122	19	0.01154318	0.1006889	-49.11742	0	11.97	4004	0	0	0	1.516745	-0.2581677	1
42270	-120	-125	25	0.008252993	0.1016192	-49.15044	0	11.97	4002	0	0	0	1.516745	-0.2551671	1
42368	-122	-113	16	0.01339402	0.1112109	-49.18192	0	11.97	4003	0	0	0	1.516745	-0.2510761	1
42507	-122	-120	23	0.003258359	0.1085428	-49.22145	0	11.97	4003	0	0	0	1.516745	-0.2433596	1
42560	-123	-121	18	0.005039016	0.1064692	-49.24136	0	11.97	4004	0	0	0	1.516745	-0.2386867	1
42654	-114	-124	16	0.01361244	0.09959838	-49.26293	0	11.97	4004	0	0	0	1.516745	-0.2310923	1
42821	-115	-128	22	0.02953469	0.1022613	-49.3171	0	11.97	4003	0	0	0	1.516745	-0.2296617	1
42920	-118	-122	17	0.02000671	0.09074043	-49.34919	0	11.97	4003	0	0	0	1.516745	-0.2229021	1
42998	-137	-113	18	0.006161434	0.1012977	-49.38239	0	11.97	4003	0	0	0	1.516745	-0.2245654	1
43151	-122	-124	28	0.003933633	0.09972148	-49.42309	0	11.97	4002	0	0	0	1.516745	-0.2455418	1
43227	-124	-121	21	0.01386291	0.112733	-49.45586	0	11.97	4002	0	0	0	1.516745	-0.2532857	1
43344	-116	-127	23	0.02917343	0.1133567	-49.49889	0	11.97	4004	0	0	0	1.516745	-0.2617514	1
43379	-122	-125	20	0.02008546	0.1136653	-49.50959	0	11.97	4003	0	0	0	1.516745	-0.262158	1
43467	-114	-124	18	0.02054045	0.1073077	-49.53049	0	11.97	4003	0	0	0	1.516745	-0.2583332	1
43576	-110	-121	16	0.01758825	0.08832028	-49.57341	0	11.97	4003	0	0	0	1.516745	-0.2557385	1
43643	-116	-116	20	-0.005628813	0.09866825	-49.60502	0	11.97	4003	0	0	0	1.516745	-0.2620755	1
43798	-118	-115	15	0.00323877	0.09152286	-49.64634	0	12.08	4003	0	0	0	1.516745	-0.2733518	1
43864	-126	-123	21	-0.00402689	0.1069922	-49.67844	0	12.08	4002	0	0	0	1.516745	-0.2760281	1
43940	-123	-124	21	-0.006867786	0.118822	-49.69688	0	12.08	4002	0	0	0	1.516745	-0.2780999	1
44106	-122	-118	15	-0.0003400818	0.1266665	-49.73901	0	12.08	4003	0	0	0	1.516745	-0.2835868	1
44202	-117	-120	22	-0.0008543153	0.1201869	-49.7799	0	12.08	4004	0	0	0	1.516745	-0.291183	1
44323	-784	790	-29	0.01367166	1.044448	-49.80385	0	12.08	4002	0	0	0	1.516745	-0.2886939	1
44504	-317	-594	-5276	-9.929431	-1.721123	-38.76119	0	12.08	4002	0	0	0	1.516745	-0.2914948	1
44621	986	1662	-3242	-7.990486	-0.1472303	-27.38989	0	12.08	4003	0	0	0	1.516745	-0.2863321	1
44817	-2054	-1958	2946	2.696693	-6.237324	-24.79912	0	12.08	4002	0	0	0	1.516745	-0.2711243	1
44892	1197	2497	5430	8.103734	-6.547382	-32.34006	0	12.08	4002	0	0	0	1.516745	-0.2712512	1
45051	1269	316	-546	4.69582	-2.065965	-36.41353	0	12.08	4006	0	0	0	1.516745	-0.2790561	1
45236	-401	212	-16	2.018099	0.6176077	-36.30969	0	12.08	4003	0	0	0	1.516745	-0.2640045	1
45357	-58	-200	-52	0.8332038	0.7288681	-36.32663	0	12.08	4002	0	0	0	1.516745	-0.258943	1
45434	-115	-133	36	0.3682047	0.6489403	-36.3811	0	12.08	4004	0	0	0	1.516745	-0.2537238	1
45594	-88	-163	-34	-0.05707237	0.9164343	-36.41313	0	12.08	4003	0	0	0	1.516745	-0.2462827	1
45621	-174	-55	54	-0.08242652	0.9224276	-36.43814	0	12.08	4003	0	0	0	1.516745	-0.2455403	1
45689	-187	-64	54	-0.1553051	0.9188299	-36.44663	0	12.08	4002	0	0	0	1.516745	-0.2442204	1
45863	-118	-109	7	-0.3287609	0.9188221	-36.5005	0	12.08	4003	0	0	0	1.516745	-0.2435663	1
45952	-127	-123	10	-0.3918898	0.9234146	-36.52763	0	12.08	4003	0	0	0	1.516745	-0.2463453	1
46041	-118	-120	14	-0.4212825	0.9369788	-36.55714	0	12.08	4002	0	0	0	1.516745	-0.2536986	1
46150	-116	-111	24	-0.4375863	0.9414161	-36.59729	0	12.08	4002	0	0	0	1.516745	-0.2546187	1
46192	-124	-111	14	-0.4497616	0.9294975	-36.61678	0	12.08	4003	0	0	0	1.516745	-0.256995	1
46233	-124	-111	14	-0.4497616	0.9294975	-36.61678	0	12.08	4003	0	0	0	1.516745	-0.2635022	1
46413	-109	-126	13	-0.4556646	0.9196551	-36.68585	0	12.14	4003	0	0	0	1.516745	-0.279523	1
46496	-128	-121	19	-0.4537181	0.9200498	-36.71396	0	12.14	4003	0	0	0	1.516745	-0.2822258	1
46635	-120	-116	12	-0.4593247	0.8926954	-36.75153	0	12.14	4002	0	0	0	1.516745	-0.2843437	1
46739	-119	-121	14	-0.4692473	0.8962408	-36.77834	0	12.14	4003	0	0	0	1.516745	-0.2970381	1
46814	-116	-116	11	-0.4734166	0.8966439	-36.80491	0	12.14	4004	0	0	0	1.516745	-0.2967896	1
46894	-112	-111	18	-0.4648079	0.8852383	-36.82348	0	12.14	4003	0	0	0	1.516745	-0.294664	1
47100	-114	-108	19	-0.4750618	0.8999737	-36.88189	0	12.14	4002	0	0	0	1.516745	-0.2905481	1
47146	-128	-118	19	-0.4695411	0.8987523	-36.90113	0	12.14	4004	0	0	0	1.516745	-0.2918484	1
47267	-127	-120	16	-0.4454361	0.8961834	-36.92937	0	12.14	4003	0	0	0	1.516745	-0.2823786	1
47405	-114	-113	21	-0.4727433	0.8956723	-36.97898	0	12.14	4002	0	0	0	1.516745	-0.2715468	1
47539	-115	-117	14	-0.4830298	0.9029696	-37.01527	0	12.14	4003	0	0	0	1.516745	-0.2722553	1
47585	-128	-122	16	-0.474418	0.8959047	-37.02473	0	12.14	4002	0	0	0	1.516745	-0.271252	1
47703	-112	-117	11	-0.4832246	0.8941387	-37.07102	0	12.14	4003	0	0	0	1.516745	-0.2664041	1
47860	-131	-122	12	-0.4740518	0.8884881	-37.10749	0	12.14	4004	0	0	0	1.516745	-0.2508132	1
47946	-122	-115	17	-0.4670244	0.8879349	-37.13381	0	12.14	4003	0	0	0	1.516745	-0.2488573	1
48020	-121	-119	14	-0.4616479	0.885056	-37.1613	0	12.14	4002	0	0	0	1.516745	-0.2453693	1
48103	-125	-117	18	-0.4508958	0.8855739	-37.18954	0	12.14	4004	0	0	0	1.516745	-0.2395854	1
48232	-101	-113	18	-0.4556083	0.8815413	-37.21751	0	12.14	4002	0	0	0	1.516745	-0.2334334	1
48300	-115	-110	16	-0.4512877	0.8929851	-37.2439	0	12.14	4003	0	0	0	1.516745	-0.2330289	1
48403	-115	-115	16	-0.4731964	0.8809999	-37.26998	0	12.14	4003	0	0	0	1.516745	-0.2447271	1
48527	-114	-118	16	-0.4640384	0.8756375	-37.30828	0	12.14	4002	0	0	0	1.516745	-0.2562646	1
48573	-128	-112	22	-0.4611968	0.9001513	-37.33406	0	12.14	4003	0	0	0	1.516745	-0.2649945	1
48645	-115	-118	20	-0.4614773	0.8958508	-37.35379	0	12.14	4003	0	0	0	1.516745	-0.2642455	1
48726	-111	-117	15	-0.4579604	0.8785015	-37.37243	0	12.14	4002	0	0	0	1.516745	-0.2592902	1
48818	-108	-118	10	-0.4476921	0.8715926	-37.40011	0	12.14	4004	0	0	0	1.516745	-0.2589389	1
48931	-119	-111	20	-0.4605773	0.8776654	-37.42595	0	12.14	4003	0	0	0	1.516745	-0.2578446	1
49037	-116	-118	12	-0.4685095	0.8847887	-37.46169	0	12.14	4002	0	0	0	1.516745	-0.2622899	1
49215	-110	-115	13	-0.4803693	0.8900714	-37.50739	0	12.14	4002	0	0	0	1.516745	-0.2554183	1
49266	-115	-113	15	-0.4740507	0.8921835	-37.5152	0	12.14	4002	0	0	0	1.516745	-0.252117	1
49407	-107	-116	14	-0.4429678	0.8918501	-37.54964	0	12.14	4002	0	0	0	1.516745	-0.2454754	1
49474	-118	-116	19	-0.4500167	0.8767132	-37.56693	0	12.14	4002	0	0	0	1.516745	-0.2445053	1
49534	-118	-104	17	-0.4487265	0.8629946	-37.58561	0	12.14	4004	0	0	0	1.516745	-0.2445313	1
49640	-108	-117	17	-0.4515396	0.8698252	-37.61488	0	12.14	4002	0	0	0	1.516745	-0.2454466	1
49749	-111	-112	18	-0.432184	0.8723251	-37.65289	0	12.14	4002	0	0	0	1.516745	-0.2447914	1
49839	-116	-111	18	-0.4482897	0.8719071	-37.6813	0	12.14	4003	0	0	0	1.516745	-0.2417633	1
49942	-121	-116	18	-0.4475281	0.8804678	-37.71052	0	12.08	4004	0	0	0	1.516745	-0.2388553	1
50088	-108	-121	19	-0.447573	0.8601689	-37.7468	0	12.08	4003	0	0	0	1.516745	-0.2341686	1
50211	-114	-122	14	-0.441017	0.8654451	-37.79316	0	12.08	4003	0	0	0	1.516745	-0.2411103	1
50265	-121	-107	16	-0.4359807	0.8614734	-37.80214	0	12.08	4003	0	0	0	1.516745	-0.2445548	1
50373	-116	-112	18	-0.4435769	0.8806257	-37.83743	0	12.08	4003	0	0	0	1.516745	-0.2491131	1
50442	-117	-113	22	-0.4445406	0.8759909	-37.85581	0	12.08	4003	0	0	0	1.516745	-0.2533439	1
50575	-104	-108	13	-0.4507978	0.8866495	-37.90444	0	12.08	4003	0	0	0	1.516745	-0.25604	1
50607	-117	-102	15	-0.4407651	0.8928156	-37.91428	0	12.08	4003	0	0	0	1.516745	-0.2604759	1
50683	-122	-115	24	-0.4381408	0.900036	-37.93266	0	12.08	4003	0	0	0	1.516745	-0.2652171	1
50813	-118	-110	20	-0.4494229	0.875745	-37.97004	0	12.08	4003	0	0	0	1.516745	-0.2731082	1
50916	-118	-113	20	-0.4620794	0.8914406	-37.99858	0	12.08	4004	0	0	0	1.516745	-0.2676098	1
50989	-112	-119	18	-0.4649964	0.8898363	-38.01862	0	12.08	4003	0	0	0	1.516745	-0.2575136	1
51138	-114	-110	18	-0.4567101	0.8804716	-38.05405	0	12.08	4003	0	0	0	1.516745	-0.2478379	1
51234	-104	-111	16	-0.4562959	0.8699413	-38.08337	0	12.08	4003	0	0	0	1.516745	-0.250288	1
51346	-113	-114	16	-0.4597599	0.8723969	-38.12082	0	12.08	4003	0	0	0	1.516745	-0.2509481	1
51401	-117	-112	14	-0.4676232	0.8751218	-38.12973	0	12.08	4003	0	0	0	1.516745	-0.242175	1
51520	-113	-113	19	-0.4559674	0.8865789	-38.17922	0	12.08	4002	0	0	0	1.516745	-0.2308127	1
51582	-108	-110	18	-0.4521669	0.8837368	-38.19859	0	12.08	4003	0	0	0	1.516745	-0.2301307	1
51689	-113	-113	14	-0.4694269	0.8794966	-38.22687	0	12.14	4002	0	0	0	1.516745	-0.230306	1
51779	-113	-113	14	-0.4653432	0.8748631	-38.25442	0	12.14	4004	0	0	0	1.516745	-0.229341	1
51887	-113	-112	16	-0.4605104	0.8713636	-38.28349	0	12.14	4002	0	0	0	1.516745	-0.2315734	1
51982	-99	-121	18	-0.4584773	0.8783538	-38.31072	0	12.14	4002	0	0	0	1.516745	-0.2387985	1
52159	-114	-108	18	-0.4674452	0.8878664	-38.35809	0	12.14	4004	0	0	0	1.516745	-0.2453921	1
52251	-96	-105	17	-0.4734371	0.8942485	-38.38711	0	12.14	4004	0	0	0	1.516745	-0.2438738	1
52346	-105	-125	18	-0.4676082	0.8994156	-38.41724	0	12.14	4003	0	0	0	1.516745	-0.252403	1
52424	-114	-115	17	-0.4401693	0.9216748	-38.4457	0	12.14	4004	0	0	0	1.516745	-0.2559605	1
52593	-109	-109	18	-0.4353114	0.9158365	-38.499	0	12.08	4002	0	0	0	1.516745	-0.2599955	1
52697	-108	-110	20	-0.4452478	0.8933855	-38.52715	0	12.08	4002	0	0	0	1.516745	-0.2664982	1
52826	-117	-102	20	-0.4481701	0.8879797	-38.56358	0	12.08	4002	0	0	0	1.516745	-0.2688156	1
52869	-101	-115	16	-0.4437575	0.8815335	-38.58508	0	12.08	4003	0	0	0	1.516745	-0.26677	1
53006	-128	-107	20	-0.4367948	0.8767386	-38.6176	0	12.08	4002	0	0	0	1.516745	-0.2604321	1
53180	-126	-107	15	-0.4492084	0.8729996	-38.67655	0	12.08	4003	0	0	0	1.516745	-0.2643223	1
53242	-111	-105	18	-0.4418975	0.8793124	-38.69641	0	12.08	4002	0	0	0	1.516745	-0.2654197	1
53411	-108	-112	14	-0.4327879	0.8831298	-38.70508	0	12.08	4003	0	0	0	1.516745	-0.2680887	1
53507	-108	-112	14	-0.4327879	0.8831298	-38.70508	0	12.14	4003	0	0	0	1.516745	-0.2680887	1
53660	-108	-112	14	-0.4327879	0.8831298	-38.70508	0	12.14	4003	0	0	0	1.516745	-0.2680887	1
53807	-108	-112	14	-0.4327879	0.8831298	-38.70508	0	12.14	4003	0	0	0	1.516745	-0.2680887	1
53918	-108	-112	14	-0.4327879	0.8831298	-38.70508	0	12.14	4003	0	0	0	1.516745	-0.2680887	1
53963	-108	-112	14	-0.4327879	0.8831298	-38.70508	0	12.14	4003	0	0	0	1.516745	-0.2680887	1
54096	-108	-112	14	-0.4327879	0.8831298	-38.70508	0	12.14	4003	0	0	0	1.516745	-0.2680887	1
54227	-108	-112	14	-0.4327879	0.8831298	-38.70508	0	12.14	4003	0	0	0	1.516745	-0.2680887	1
54303	-108	-112	14	-0.4327879	0.8831298	-38.70508	0	12.14	4003	0	0	0	1.516745	-0.2680887	1
54370	-108	-112	14	-0.4327879	0.8831298	-38.70508	0	12.14	4003	0	0	0	1.516745	-0.2680887	1
54513	-108	-112	14	-0.4327879	0.8831298	-38.70508	0	12.14	4003	0	0	0	1.516745	-0.2680887	1
54615	-108	-112	14	-0.4327879	0.8831298	-38.70508	0	12.14	4003	0	0	0	1.516745	-0.2680887	1
54796	-108	-112	14	-0.4327879	0.8831298	-38.70508	0	12.14	4003	0	0	0	1.516745	-0.2680887	1
54857	-108	-112	14	-0.4327879	0.8831298	-38.70508	0	12.14	4003	0	0	0	1.516745	-0.2680887	1
54942	-108	-112	14	-0.4327879	0.8831298	-38.70508	0	12.14	4003	0	0	0	1.516745	-0.2680887	1
55016	-108	-112	14	-0.4327879	0.8831298	-38.70508	0	12.14	4003	0	0	0	1.516745	-0.2680887	1
55087	-108	-112	14	-0.4327879	0.8831298	-38.70508	0	12.14	4003	0	0	0	1.516745	-0.2680887	1
55193	-108	-112	14	-0.4327879	0.8831298	-38.70508	0	12.14	4003	0	0	0	1.516745	-0.2680887	1
55323	-108	-112	14	-0.4327879	0.8831298	-38.70508	0	12.14	4003	0	0	0	1.516745	-0.2680887	1
55389	-108	-112	14	-0.4327879	0.8831298	-38.70508	0	12.14	4003	0	0	0	1.516745	-0.2680887	1
55491	-108	-112	14	-0.4327879	0.8831298	-38.70508	0	12.14	4003	0	0	0	1.516745	-0.2680887	1
55584	-108	-112	14	-0.4327879	0.8831298	-38.70508	0	12.14	4003	0	0	0	1.516745	-0.2680887	1
55729	-108	-112	14	-0.4327879	0.8831298	-38.70508	0	12.14	4003	0	0	0	1.516745	-0.2680887	1
55806	-108	-112	14	-0.4327879	0.8831298	-38.70508	0	12.14	4003	0	0	0	1.516745	-0.2680887	1
55913	-108	-112	14	-0.4327879	0.8831298	-38.70508	0	12.14	4003	0	0	0	1.516745	-0.2680887	1
56044	-108	-112	14	-0.4327879	0.8831298	-38.70508	0	12.14	4003	0	0	0	1.516745	-0.2680887	1
56159	-108	-112	14	-0.4327879	0.8831298	-38.70508	0	12.08	4003	0	0	0	1.516745	-0.2680887	1
56205	-108	-112	14	-0.4327879	0.8831298	-38.70508	0	12.08	4003	0	0	0	1.516745	-0.2680887	1
56370	-108	-112	14	-0.4327879	0.8831298	-38.70508	0	12.08	4003	0	0	0	1.516745	-0.2680887	1
56460	-108	-112	14	-0.4327879	0.8831298	-38.70508	0	12.08	4003	0	0	0	1.516745	-0.2680887	1
56557	-108	-112	14	-0.4327879	0.8831298	-38.70508	0	12.08	4003	0	0	0	1.516745	-0.2680887	1
56678	-108	-112	14	-0.4327879	0.8831298	-38.70508	0	12.08	4003	0	0	0	1.516745	-0.2680887	1
56756	-108	-112	14	-0.4327879	0.8831298	-38.70508	0	12.08	4003	0	0	0	1.516745	-0.2680887	1
56812	-108	-112	14	-0.4327879	0.8831298	-38.70508	0	12.08	4003	0	0	0	1.516745	-0.2680887	1
56903	-108	-112	14	-0.4327879	0.8831298	-38.70508	0	12.08	4003	0	0	0	1.516745	-0.2680887	1
57038	-108	-112	14	-0.4327879	0.8831298	-38.70508	0	12.08	4003	0	0	0	1.516745	-0.2680887	1
57090	-108	-112	14	-0.4327879	0.8831298	-38.70508	0	12.08	4003	0	0	0	1.516745	-0.2680887	1
57237	-108	-112	14	-0.4327879	0.8831298	-38.70508	0	12.08	4003	0	0	0	1.516745	-0.2680887	1
57265	-108	-112	14	-0.4327879	0.8831298	-38.70508	0	12.08	4003	0	0	0	1.516745	-0.2680887	1
57351	-108	-112	14	-0.4327879	0.8831298	-38.70508	0	12.08	4003	0	0	0	1.516745	-0.2680887	1
57488	-108	-112	14	-0.4327879	0.8831298	-38.70508	0	12.08	4003	0	0	0	1.516745	-0.2680887	1
57625	-108	-112	14	-0.4327879	0.8831298	-38.70508	0	12.08	4003	0	0	0	1.516745	-0.2680887	1
57700	-108	-112	14	-0.4327879	0.8831298	-38.70508	0	12.08	4003	0	0	0	1.516745	-0.2680887	1
57768	-108	-112	14	-0.4327879	0.8831298	-38.70508	0	12.08	4003	0	0	0	1.516745	-0.2680887	1
57871	-108	-112	14	-0.4327879	0.8831298	-38.70508	0	12.19	4003	0	0	0	1.516745	-0.2680887	1
57899	-108	-112	14	-0.4327879	0.8831298	-38.70508	0	12.19	4003	0	0	0	1.516745	-0.2680887	1
58067	-108	-112	14	-0.4327879	0.8831298	-38.70508	0	12.19	4003	0	0	0	1.516745	-0.2680887	1
58124	-108	-112	14	-0.4327879	0.8831298	-38.70508	0	12.19	4003	0	0	0	1.516745	-0.2680887	1
58203	-108	-112	14	-0.4327879	0.8831298	-38.70508	0	12.19	4003	0	0	0	1.516745	-0.2680887	1
58268	-108	-112	14	-0.4327879	0.8831298	-38.70508	0	12.19	4003	0	0	0	1.516745	-0.2680887	1
58418	-108	-112	14	-0.4327879	0.8831298	-38.70508	0	12.19	4003	0	0	0	1.516745	-0.2680887	1
58521	-108	-112	14	-0.4327879	0.8831298	-38.70508	0	12.19	4003	0	0	0	1.516745	-0.2680887	1
58627	-108	-112	14	-0.4327879	0.8831298	-38.70508	0	12.19	4003	0	0	0	1.516745	-0.2680887	1
58679	-108	-112	14	-0.4327879	0.8831298	-38.70508	0	12.19	4003	0	0	0	1.516745	-0.2680887	1
58746	-108	-112	14	-0.4327879	0.8831298	-38.70508	0	12.14	4003	0	0	0	1.516745	-0.2680887	1
58861	-108	-112	14	-0.4327879	0.8831298	-38.70508	0	12.14	4003	0	0	0	1.516745	-0.2680887	1
59001	-108	-112	14	-0.4327879	0.8831298	-38.70508	0	12.14	4003	0	0	0	1.516745	-0.2680887	1
59121	-108	-112	14	-0.4327879	0.8831298	-38.70508	0	12.14	4003	0	0	0	1.516745	-0.2680887	1
59176	-108	-112	14	-0.4327879	0.8831298	-38.70508	0	12.14	4003	0	0	0	1.516745	-0.2680887	1
59249	-108	-112	14	-0.4327879	0.8831298	-38.70508	0	12.14	4003	0	0	0	1.516745	-0.2680887	1
59327	-108	-112	14	-0.4327879	0.8831298	-38.70508	0	12.14	4003	0	0	0	1.516745	-0.2680887	1
59515	-108	-112	14	-0.4327879	0.8831298	-38.70508	0	12.14	4003	0	0	0	1.516745	-0.2680887	1
59604	-108	-112	14	-0.4327879	0.8831298	-38.70508	0	12.14	4003	0	0	0	1.516745	-0.2680887	1
59663	-108	-112	14	-0.4327879	0.8831298	-38.70508	0	12.08	4003	0	0	0	1.516745	-0.2680887	1
59729	-108	-112	14	-0.4327879	0.8831298	-38.70508	0	12.08	4003	0	0	0	1.516745	-0.2680887	1
59840	-108	-112	14	-0.4327879	0.8831298	-38.70508	0	12.08	4003	0	0	0	1.516745	-0.2680887	1
59955	-108	-112	14	-0.4327879	0.8831298	-38.70508	0	12.08	4003	0	0	0	1.516745	-0.2680887	1
60017	-108	-112	14	-0.4327879	0.8831298	-38.70508	0	12.08	4003	0	0	0	1.516745	-0.2680887	1
60111	-108	-112	14	-0.4327879	0.8831298	-38.70508	0	12.08	4003	0	0	0	1.516745	-0.2680887	1
60309	-108	-112	14	-0.4327879	0.8831298	-38.70508	0	12.08	4003	0	0	0	1.516745	-0.2680887	1
60381	-108	-112	14	-0.4327879	0.8831298	-38.70508	0	12.08	4003	0	0	0	1.516745	-0.2680887	1
60471	-108	-112	14	-0.4327879	0.8831298	-38.70508	0	12.08	4003	0	0	0	1.516745	-0.2680887	1
60547	-108	-112	14	-0.4327879	0.8831298	-38.70508	0	12.19	4003	0	0	0	1.516745	-0.2680887	1
60617	-108	-112	14	-0.4327879	0.8831298	-38.70508	0	12.19	4003	0	0	0	1.516745	-0.2680887	1
60770	-108	-112	14	-0.4327879	0.8831298	-38.70508	0	12.19	4003	0	0	0	1.516745	-0.2680887	1
60900	-108	-112	14	-0.4327879	0.8831298	-38.70508	0	12.19	4003	0	0	0	1.516745	-0.2680887	1
60990	-108	-112	14	-0.4327879	0.8831298	-38.70508	0	12.19	4003	0	0	0	1.516745	-0.2680887	1
61056	-108	-112	14	-0.4327879	0.8831298	-38.70508	0	12.19	4003	0	0	0	1.516745	-0.2680887	1
61208	-108	-112	14	-0.4327879	0.8831298	-38.70508	0	12.19	4003	0	0	0	1.516745	-0.2608569	1
61323	1	4	0	0.2547696	-0.6064997	-6.116027E-05	0	12.19	4003	0	0	0	1.516745	-0.08538686	1
61414	11	4	-2	0.1434815	-0.3403341	-0.001344947	0	12.14	4003	0	0	0	1.516745	-0.03785769	1
61504	20	11	3	0.09498277	-0.2467051	-0.002812107	0	12.14	4002	0	0	0	1.516745	-0.01599558	1
61574	12	12	-3	0.07045008	-0.1780281	-0.004156793	0	12.14	4004	0	0	0	1.516745	-0.007712882	1
61675	17	9	1	0.0520777	-0.1181108	-0.00268971	0	12.14	4004	0	0	0	1.516745	-0.002521876	1
61710	9	7	-3	0.04838879	-0.1199628	-0.002628718	0	12.14	4002	0	0	0	1.516745	-0.00058227	1
61795	-2	-2	-3	0.04167881	-0.08317399	-0.003179007	0	12.14	4003	0	0	0	1.516745	0.002728689	1
61945	19	7	-2	0.02186797	-0.07204442	0.0004277863	0	12.14	4002	0	0	0	1.516745	0.008451627	1
62091	11	10	-1	0.009558264	-0.06604058	0.00311771	0	12.14	4003	0	0	0	1.516745	0.01460964	1
62161	11	13	-5	0.03245005	-0.06148614	0.002750732	0	12.14	4003	0	0	0	1.516745	0.01556217	1
62312	11	6	4	0.00364465	-0.04647436	0.005868779	0	12.08	4003	0	0	0	1.516745	0.01465929	1
62444	2	16	-2	0.0006210392	-0.05437782	0.00935348	0	12.08	4002	0	0	0	1.516745	0.01546087	1
62520	15	7	-4	0.01835953	-0.03134897	0.01039261	0	12.08	4002	0	0	0	1.516745	0.01601778	1
62601	9	9	2	0.01145959	-0.04905282	0.01149318	0	12.08	4004	0	0	0	1.516745	0.01954705	1
62664	6	-3	0	0.0342117	-0.05261565	0.0105151	0	12.08	4002	0	0	0	1.516745	0.02271569	1
62836	10	7	-2	0.03922168	-0.07448635	0.0106374	0	12.08	4004	0	0	0	1.516745	0.03940271	1
62905	13	12	2	0.01684247	-0.07141489	0.01155485	0	12.08	4003	0	0	0	1.516745	0.04545453	1
63058	25	16	2	0.02886414	-0.07428659	0.01400009	0	12.08	4003	0	0	0	1.516745	0.06010954	1
63126	11	18	-6	0.029386	-0.07247952	0.01791265	0	12.14	4002	0	0	0	1.516745	0.06063056	1
63179	5	18	-1	0.02106403	-0.06937981	0.01889076	0	12.14	4002	0	0	0	1.516745	0.05962841	1
63256	19	12	-1	0.02994758	-0.05236583	0.02109179	0	12.14	4003	0	0	0	1.516745	0.06050668	1
63347	15	7	0	0.04382854	-0.06357906	0.02121434	0	12.14	4004	0	0	0	1.516745	0.06131917	1
63453	14	7	-3	0.04715124	-0.08703933	0.02133663	0	12.14	4003	0	0	0	1.516745	0.06022822	1
63567	8	5	-3	0.0346028	-0.05417921	0.02586055	0	12.14	4004	0	0	0	1.516745	0.05631335	1
63652	12	11	-6	0.0578606	-0.06783763	0.0283064	0	12.14	4004	0	0	0	1.516745	0.05595317	1
63757	16	12	0	0.05290648	-0.07503745	0.03105754	0	12.14	4002	0	0	0	1.516745	0.06056498	1
63851	15	9	0	0.05462255	-0.07065631	0.03117993	0	12.14	4002	0	0	0	1.516745	0.06176705	1
63999	0	10	-4	0.03578949	-0.07999939	0.03313669	0	12.14	4003	0	0	0	1.516745	0.0579594	1
64050	13	13	-3	0.05145831	-0.07699085	0.03362583	0	12.14	4004	0	0	0	1.516745	0.05768113	1
64160	12	15	-1	0.04089838	-0.06946477	0.03619358	0	12.14	4004	0	0	0	1.516745	0.05635722	1
64216	10	7	2	0.02918557	-0.06882954	0.03662148	0	12.14	4004	0	0	0	1.516745	0.05549109	1
64312	13	7	-2	0.02542181	-0.0564533	0.04004515	0	12.14	4003	0	0	0	1.516745	0.04845308	1
64408	7	11	1	0.01873359	-0.05996647	0.04401882	0	12.14	4004	0	0	0	1.516745	0.04101956	1
64489	10	9	0	0.02389427	-0.06368349	0.0454248	0	12.14	4002	0	0	0	1.516745	0.03236772	1
64614	-1	-2	-2	0.01459701	-0.05404316	0.04903189	0	12.14	4002	0	0	0	1.516745	0.02901802	1
64690	11	7	-4	0.03661	-0.04390714	0.05111045	0	12.14	4003	0	0	0	1.516745	0.02588427	1
64780	16	8	1	0.03524878	-0.0510389	0.05361696	0	12.14	4003	0	0	0	1.516745	0.01630016	1
64977	26	5	-3	0.02483876	-0.07766552	0.05569538	0	12.19	4002	0	0	0	1.516745	0.002672668	1
65085	17	10	-4	0.03025541	-0.0719334	0.05924128	0	12.19	4003	0	0	0	1.516745	-0.009521795	1
65173	11	8	1	0.03241457	-0.06192119	0.06089188	0	12.19	4003	0	0	0	1.516745	-0.02193058	1
65273	14	12	0	0.02589375	-0.05700203	0.06272574	0	12.19	4004	0	0	0	1.516745	-0.0325382	1
65383	18	17	4	0.006065213	-0.07284017	0.063765	0	12.19	4003	0	0	0	1.516745	-0.04422619	1
65579	4	11	-3	0.03448856	-0.0920371	0.06835009	0	12.19	4003	0	0	0	1.516745	-0.05732401	1
65636	20	9	0	0.03184088	-0.07344137	0.06908367	0	12.19	4004	0	0	0	1.516745	-0.06108952	1
65779	12	14	-2	0.04985626	-0.06501772	0.07183453	0	12.14	4003	0	0	0	1.516745	-0.0635847	1
65856	13	5	-2	0.04477227	-0.05652582	0.07409655	0	12.14	4003	0	0	0	1.516745	-0.0649745	1
65900	15	11	-2	0.04370777	-0.05671609	0.07629759	0	12.14	4003	0	0	0	1.516745	-0.06916766	1
65965	7	15	1	0.04277281	-0.05348516	0.07733689	0	12.14	4004	0	0	0	1.516745	-0.06888942	1
66106	8	14	-4	0.04613133	-0.05862195	0.07947657	0	12.14	4004	0	0	0	1.516745	-0.07262585	1
66219	21	11	0	0.02527983	-0.04882448	0.08253345	0	12.14	4002	0	0	0	1.516745	-0.08164154	1
66327	9	13	-2	0.02153326	-0.05482588	0.08485631	0	12.14	4003	0	0	0	1.516745	-0.08146501	1
66401	18	19	0	0.03323329	-0.06590975	0.08834099	0	12.14	4003	0	0	0	1.516745	-0.07868633	1
66522	17	12	0	0.02918368	-0.06812047	0.09023588	0	12.14	4002	0	0	0	1.516745	-0.05708352	1
66546	14	10	-2	0.03970926	-0.0778411	0.09414852	0	12.19	4003	0	0	0	1.516745	-0.04429935	1
66592	13	18	-1	0.03084443	-0.08384006	0.09689973	0	12.19	4002	0	0	0	1.516745	-0.03656176	1
66719	11	17	-2	0.0234808	-0.07466438	0.1011791	0	12.19	4003	0	0	0	1.516745	-0.01839137	1
66803	17	18	0	0.04401593	-0.08010847	0.1056427	0	12.19	4003	0	0	0	1.516745	-0.009606472	1
66924	16	11	0	0.06511813	-0.08477624	0.1088219	0	12.19	4004	0	0	0	1.516745	-0.00196834	1
66989	27	13	0	0.05398605	-0.07319326	0.1097999	0	12.19	4004	0	0	0	1.516745	0.005589996	1
67083	13	9	-2	0.06010516	-0.0809845	0.1130395	0	12.19	4002	0	0	0	1.516745	0.01013497	1
67121	8	18	-6	0.05521317	-0.07038014	0.1172577	0	12.19	4004	0	0	0	1.516745	0.01475501	1
67284	15	13	-2	0.05264628	-0.0831369	0.1225954	0	12.19	4002	0	0	0	1.516745	0.02197661	1
67334	14	18	-1	0.05759797	-0.07657516	0.1246739	0	12.19	4003	0	0	0	1.516745	0.02495026	1
67446	14	18	-1	0.05759797	-0.07657516	0.1246739	0	12.14	4003	0	0	0	1.516745	0.03177124	1
67620	23	15	-2	0.05856701	-0.05903127	0.1321329	0	12.14	4002	0	0	0	1.516745	0.0543736	1
67831	12	19	1	0.04386322	-0.06717991	0.1389802	0	12.14	4003	0	0	0	1.516745	0.07031782	1
67964	25	13	0	0.06433956	-0.09322061	0.1458884	0	12.14	4002	0	0	0	1.516745	0.0712301	1
68060	11	15	-5	0.0655617	-0.09798726	0.14974	0	12.14	4003	0	0	0	1.516745	0.07093225	1
68190	11	14	-2	0.04633971	-0.09956725	0.1546918	0	12.14	4002	0	0	0	1.516745	0.06616501	1
68235	14	15	-1	0.05027043	-0.09528483	0.1562206	0	12.14	4004	0	0	0	1.516745	0.06110341	1
68329	12	14	-2	0.05603236	-0.09418655	0.1597661	0	12.08	4002	0	0	0	1.516745	0.05828847	1
68465	17	26	-2	0.04396914	-0.09767198	0.1641071	0	12.08	4003	0	0	0	1.516745	0.05520203	1
68533	23	19	-9	0.05992363	-0.109404	0.1674079	0	12.08	4002	0	0	0	1.516745	0.05082088	1
68646	16	14	-7	0.07438474	-0.1181282	0.1718097	0	12.08	4002	0	0	0	1.516745	0.04064734	1
68760	15	17	0	0.07171477	-0.113237	0.1758448	0	12.08	4002	0	0	0	1.516745	0.03255168	1
