time(ms)	gyro_x(deg/s)	gyro_y(deg/s)	gyro_z(deg/s)	orientation_roll(deg)	orientation_pitch(deg)	orientation_yaw(deg)	throttle	battery(V)	loop_time(uS)	pid_output_roll	pid_output_pitch	pid_output_yaw	pid_output_throttle	ultrasonic_alt	baro_alt	flight_mode	p_gain_altitude	i_gain_altitude	d_gain_altitude	compass_heading	latitude	longitude
131151	1485	876	2070	-1.002181	-1.234199	-83.65774	0	11.85	4003	0	0	0	0	0.7261307	0.5541436	1	10	0.04	1800	3.028369	40.92398	-91.39362
131226	1061	-1680	1675	3.156874	-0.6266176	-86.42518	0	11.85	4003	0	0	0	0	0.7261307	0.5426172	1	10	0.04	1800	1.659739	40.92398	-91.39362
131328	193	-2102	1362	4.392044	0.7292306	-88.46485	0	11.85	4002	0	0	0	0	0.7261307	0.494192	1	10	0.04	1800	3.07094	40.92398	-91.39362
131517	-137	167	-39	-0.5678176	-0.3176099	-89.12928	0	11.85	4003	0	0	0	0	0.7261307	0.4290947	1	10	0.04	1800	3.39063	40.92398	-91.39362
131558	-156	45	93	-0.6159434	-0.355298	-89.14706	0	11.85	4003	0	0	0	0	0.7261307	0.418606	1	10	0.04	1800	3.39063	40.92398	-91.39362
131635	-97	-79	43	-0.6735104	-0.5727445	-89.1621	0	11.85	4003	0	0	0	0	0.7261307	0.3866578	1	10	0.04	1800	3.619768	40.92398	-91.39362
131817	-60	46	11	-0.8436834	-0.2605503	-89.20642	0	11.85	4002	0	0	0	0	0.7261307	0.3127562	1	10	0.04	1800	3.559769	40.92398	-91.39362
131907	-65	-2	4	-0.9060488	-0.2161112	-89.22638	0	11.85	4002	0	0	0	0	0.7261307	0.3012041	1	10	0.04	1800	3.473195	40.92398	-91.39362
131940	-84	23	11	-0.8945236	-0.1961769	-89.23114	0	11.85	4002	0	0	0	0	0.7261307	0.2838603	1	10	0.04	1800	3.517038	40.92398	-91.39362
132043	-75	-8	10	-0.9298235	-0.1967152	-89.245	0	11.85	4004	0	0	0	0	0.7261307	0.2503396	1	10	0.04	1800	3.5206	40.92398	-91.39362
132169	-82	14	15	-0.9317074	-0.1315717	-89.26245	0	11.85	4004	0	0	0	0	0.7261307	0.2221966	1	10	0.04	1800	3.779931	40.92398	-91.39362
132244	-73	-5	11	-0.9495726	-0.1008311	-89.2774	0	11.85	4003	0	0	0	0	0.7261307	0.1897832	1	10	0.04	1800	3.562916	40.92398	-91.39362
132360	-73	-1	8	-0.9698242	-0.0712318	-89.29376	0	11.85	4003	0	0	0	0	0.7261307	0.1607657	1	10	0.04	1800	3.596018	40.92398	-91.39362
132448	-74	6	8	-0.9833618	-0.03952384	-89.3103	0	11.85	4004	0	0	0	0	0.7261307	0.1421113	1	10	0.04	1800	3.823164	40.92398	-91.39362
132553	-78	2	4	-0.997287	-0.012096	-89.32806	0	11.85	4004	0	0	0	0	0.7261307	0.1356015	1	10	0.04	1800	3.628034	40.92398	-91.39362
132657	-71	-4	11	-1.00421	0.01230295	-89.34277	0	11.85	4003	0	0	0	0	0.7261307	0.1174419	1	10	0.04	1800	3.658238	40.92398	-91.39362
132835	-79	4	14	-1.016158	0.04314012	-89.37494	0	11.85	4003	0	0	0	0	0.7261307	0.09602905	1	10	0.04	1800	3.435141	40.92398	-91.39362
132908	-79	2	10	-1.016948	0.05205584	-89.38416	0	11.85	4002	0	0	0	0	0.7261307	0.09023775	1	10	0.04	1800	3.669321	40.92398	-91.39362
133012	-75	4	10	-1.0152	0.05613918	-89.39612	0	11.85	4004	0	0	0	0	0.7261307	0.07881867	1	10	0.04	1800	4.110624	40.92398	-91.39362
133097	-76	146	70	-1.011981	0.148021	-89.41389	0	11.85	4004	0	0	0	0	0.7261307	0.07367119	1	10	0.04	1800	3.674556	40.92397	-91.39362
133222	-196	91	-466	-1.01505	0.1865473	-89.0865	0	11.85	4002	0	0	0	0	0.7261307	0.0594299	1	10	0.04	1800	3.678415	40.92397	-91.39362
133275	-6	399	-51	-1.236822	0.05534136	-88.89819	0	11.85	4004	0	0	0	0	0.7261307	0.04192342	1	10	0.04	1800	3.286053	40.92397	-91.39362
133384	-162	-184	-3374	-0.9529347	-0.9969851	-87.43681	0	11.85	4003	0	0	0	0	0.7261307	0.02867664	1	10	0.04	1800	3.707598	40.92397	-91.39362
133448	-65	-284	-3915	-1.096176	-1.171594	-80.13618	0	11.85	4003	0	0	0	0	0.7261307	0.02589481	1	10	0.04	1800	-1.421661	40.92397	-91.39362
133521	73	193	1904	-0.9819273	0.3511179	-80.15163	0	11.85	4004	0	0	0	0	0.7261307	0.01943855	1	10	0.04	1800	-2.847748	40.92397	-91.39362
133763	87	552	161	-0.5747811	0.07239072	-83.52269	0	11.85	4004	0	0	0	0	0.7261307	0.01894201	1	10	0.04	1800	0.02420896	40.92397	-91.39362
133838	-75	114	879	-0.7675868	-0.5038704	-84.10551	0	11.85	4003	0	0	0	0	0.7261307	0.01797143	1	10	0.04	1800	0.1484264	40.92397	-91.39362
133999	-272	-347	51	-0.5891627	-0.3916149	-84.49696	0	11.85	4004	0	0	0	0	0.7261307	0.0262827	1	10	0.04	1800	0.2567042	40.92397	-91.39362
134060	-195	-75	30	-0.9262703	0.04731378	-84.52841	0	11.85	4003	0	0	0	0	0.7261307	0.02674052	1	10	0.04	1800	0.116246	40.92397	-91.39362
134133	-12	83	1	-1.008673	0.06492296	-84.53622	0	11.85	4003	0	0	0	0	0.7261307	0.03027667	1	10	0.04	1800	0.03302968	40.92397	-91.39362
134242	-124	-65	20	-0.9305842	-0.06362725	-84.55081	0	11.85	4003	0	0	0	0	0.7261307	0.04452041	1	10	0.04	1800	0.3167824	40.92397	-91.39362
134392	-84	23	8	-0.9817999	0.03285759	-84.57156	0	11.85	4003	0	0	0	0	0.7261307	0.05336202	1	10	0.04	1800	0.4823821	40.92397	-91.39362
134439	-69	-4	9	-1.004846	0.0412752	-84.58932	0	11.85	4003	0	0	0	0	0.7261307	0.05895188	1	10	0.04	1800	0.4495566	40.92397	-91.39362
134546	-72	12	11	-0.9950645	0.03391764	-84.59946	0	11.85	4003	0	0	0	0	0.7261307	0.06995256	1	10	0.04	1800	0.2080299	40.92397	-91.39362
134642	-68	3	11	-0.9974654	0.03890011	-84.61496	0	11.85	4002	0	0	0	0	0.7261307	0.0744023	1	10	0.04	1800	0.204954	40.92397	-91.39362
134745	-79	-9	11	-0.9914268	0.01539236	-84.63016	0	11.85	4002	0	0	0	0	0.7261307	0.08466927	1	10	0.04	1800	0.4254282	40.92397	-91.39362
134918	-75	0	11	-0.9997975	0.02167807	-84.65616	0	11.85	4003	0	0	0	0	0.7261307	0.09574996	1	10	0.04	1800	0.2062817	40.92397	-91.39362
135010	-65	0	3	-0.9978362	0.02941384	-84.66928	0	11.85	4003	0	0	0	0	0.7261307	0.106371	1	10	0.04	1800	0.2132131	40.92397	-91.39362
135049	-66	-1	13	-0.993067	0.02173982	-84.67349	0	11.85	4004	0	0	0	0	0.7261307	0.1123593	1	10	0.04	1800	0.2031053	40.92397	-91.39362
135155	-69	2	11	-0.9931371	0.02705996	-84.68979	0	11.85	4003	0	0	0	0	0.7261307	0.1262971	1	10	0.04	1800	0.1940419	40.92397	-91.39362
135246	-73	2	7	-1.000012	0.02999213	-84.71262	0	11.85	4002	0	0	0	0	0.7261307	0.1483054	1	10	0.04	1800	0.4336247	40.92397	-91.39362
135358	-74	3	7	-1.004483	0.0359429	-84.72238	0	11.85	4003	0	0	0	0	0.7261307	0.1593286	1	10	0.04	1800	0.4389163	40.92397	-91.39362
135461	-73	-5	7	-1.009083	0.036064	-84.73892	0	11.85	4004	0	0	0	0	0.7261307	0.1713356	1	10	0.04	1800	0.4502956	40.92397	-91.39362
135572	-66	0	8	-1.011958	0.03317454	-84.75998	0	11.85	4002	0	0	0	0	0.7261307	0.1801358	1	10	0.04	1800	0.2218897	40.92397	-91.39362
135661	-76	2	12	-1.008306	0.03854256	-84.77151	0	11.91	4003	0	0	0	0	0.7261307	0.1822241	1	10	0.04	1800	0.2259583	40.92397	-91.39362
135752	-74	0	10	-1.007118	0.03582614	-84.79196	0	11.91	4003	0	0	0	0	0.7261307	0.1830786	1	10	0.04	1800	0.4559338	40.92397	-91.39362
135860	-78	6	9	-1.018577	0.03617552	-84.81039	0	11.91	4003	0	0	0	0	0.7261307	0.1782653	1	10	0.04	1800	0.2374107	40.92396	-91.39362
135960	-78	3	5	-1.020647	0.03730914	-84.82071	0	11.91	4004	0	0	0	0	0.7261307	0.1782493	1	10	0.04	1800	0.2388993	40.92396	-91.39362
136194	-75	1	9	-1.036371	0.04109481	-84.86087	0	11.91	4002	0	0	0	0	0.7261307	0.1665432	1	10	0.04	1800	0.2642578	40.92396	-91.39362
136323	-77	3	9	-1.032719	0.04675156	-84.88449	0	11.91	4003	0	0	0	0	0.7261307	0.164406	1	10	0.04	1800	0.2657168	40.92396	-91.39362
136363	-73	3	10	-1.03242	0.04018971	-84.897	0	11.91	4004	0	0	0	0	0.7261307	0.1637056	1	10	0.04	1800	0.487986	40.92396	-91.39362
136500	-74	4	5	-1.040113	0.04313266	-84.92014	0	11.91	4002	0	0	0	0	0.7261307	0.1635845	1	10	0.04	1800	0.4938303	40.92396	-91.39362
136603	-80	5	11	-1.046115	0.03987234	-84.93796	0	11.91	4002	0	0	0	0	0.7261307	0.1640882	1	10	0.04	1800	0.4978914	40.92396	-91.39362
136668	-77	6	9	-1.050156	0.03518553	-84.95059	0	11.91	4003	0	0	0	0	0.7261307	0.1644664	1	10	0.04	1800	0.5084075	40.92396	-91.39362
136772	-77	4	12	-1.053421	0.0329396	-84.96329	0	11.91	4004	0	0	0	0	0.7261307	0.1681329	1	10	0.04	1800	0.5141159	40.92396	-91.39362
136879	-80	9	14	-1.05346	0.02949331	-84.99124	0	11.91	4003	0	0	0	0	0.7261307	0.1672643	1	10	0.04	1800	0.5139655	40.92396	-91.39362
136964	-75	7	13	-1.059821	0.03056552	-85.00351	0	11.91	4003	0	0	0	0	0.7261307	0.1661578	1	10	0.04	1800	0.3013763	40.92396	-91.39362
137068	-73	4	16	-1.058602	0.02420508	-85.0322	0	11.91	4004	0	0	0	0	0.7261307	0.1634019	1	10	0.04	1800	0.3101077	40.92396	-91.39362
137170	-73	1	7	-1.064936	0.02030305	-85.05069	0	11.91	4004	0	0	0	0	0.7261307	0.1599591	1	10	0.04	1800	0.5210937	40.92396	-91.39362
137270	-76	-5	10	-1.06531	0.0257841	-85.07425	0	11.91	4002	0	0	0	0	0.7261307	0.1567796	1	10	0.04	1800	0.3114666	40.92396	-91.39362
137373	-71	8	8	-1.065355	0.02922578	-85.08597	0	11.91	4003	0	0	0	0	0.7261307	0.1540845	1	10	0.04	1800	0.5367463	40.92396	-91.39362
137470	-76	3	11	-1.063273	0.02624398	-85.10568	0	11.91	4002	0	0	0	0	0.7261307	0.1505791	1	10	0.04	1800	0.5397952	40.92396	-91.39362
137606	-73	-2	8	-1.06357	0.03630139	-85.12985	0	11.91	4002	0	0	0	0	0.7261307	0.1374077	1	10	0.04	1800	0.3183233	40.92396	-91.39362
137665	-77	-3	10	-1.063919	0.03891387	-85.14572	0	11.91	4003	0	0	0	0	0.7261307	0.1341106	1	10	0.04	1800	0.5339447	40.92395	-91.39362
137810	-77	-3	12	-1.064356	0.04357731	-85.16324	0	11.91	4002	0	0	0	0	0.7261307	0.1344661	1	10	0.04	1800	0.5352742	40.92395	-91.39362
137874	-78	-4	11	-1.065873	0.03808095	-85.17337	0	11.91	4002	0	0	0	0	0.7261307	0.1339377	1	10	0.04	1800	0.5351943	40.92395	-91.39362
137976	-71	-3	12	-1.065689	0.04098528	-85.19846	0	11.91	4002	0	0	0	0	0.7261307	0.1343561	1	10	0.04	1800	0.3210043	40.92395	-91.39362
138100	-69	0	14	-1.062122	0.04526038	-85.20963	0	11.91	4003	0	0	0	0	0.7261307	0.1294335	1	10	0.04	1800	0.3136944	40.92395	-91.39362
138185	-67	2	11	-1.05354	0.04931463	-85.23404	0	11.91	4003	0	0	0	0	0.7261307	0.1291976	1	10	0.04	1800	0.5237958	40.92395	-91.39362
138279	-75	3	11	-1.052298	0.04483696	-85.24673	0	11.91	4003	0	0	0	0	0.7261307	0.1372341	1	10	0.04	1800	0.5197629	40.92395	-91.39362
138381	-76	-2	11	-1.054238	0.03812929	-85.27078	0	11.91	4003	0	0	0	0	0.7261307	0.1417185	1	10	0.04	1800	0.300433	40.92395	-91.39362
138498	-74	2	11	-1.044044	0.04096696	-85.28854	0	11.91	4004	0	0	0	0	0.7261307	0.1480989	1	10	0.04	1800	0.2913834	40.92395	-91.39362
138590	-81	0	11	-1.043403	0.04718043	-85.30618	0	11.91	4002	0	0	0	0	0.7261307	0.1527451	1	10	0.04	1800	0.2745827	40.92395	-91.39362
138713	-76	-4	10	-1.046136	0.04896183	-85.32358	0	11.91	4003	0	0	0	0	0.7261307	0.1461648	1	10	0.04	1800	0.2694581	40.92395	-91.39362
138792	-75	0	17	-1.052276	0.05786312	-85.33499	0	11.91	4003	0	0	0	0	0.7261307	0.1434222	1	10	0.04	1800	0.5188546	40.92395	-91.39362
138956	-77	9	11	-1.05827	0.05828462	-85.36398	0	11.91	4004	0	0	0	0	0.7261307	0.1348368	1	10	0.04	1800	0.2877964	40.92395	-91.39362
138995	-82	-2	11	-1.056469	0.05810779	-85.3754	0	11.91	4003	0	0	0	0	0.7261307	0.132627	1	10	0.04	1800	0.300825	40.92395	-91.39362
139084	-74	0	12	-1.057694	0.06328201	-85.39163	0	11.91	4004	0	0	0	0	0.7261307	0.1260862	1	10	0.04	1800	0.2960325	40.92395	-91.39362
139211	-71	10	11	-1.052316	0.063136	-85.41013	0	11.91	4004	0	0	0	0	0.7261307	0.1339358	1	10	0.04	1800	0.5259783	40.92395	-91.39362
139298	-74	5	11	-1.059129	0.05834036	-85.4263	0	11.85	4003	0	0	0	0	0.7261307	0.1417549	1	10	0.04	1800	0.5334556	40.92395	-91.39362
139478	-72	0	4	-1.051292	0.05684055	-85.45236	0	11.85	4002	0	0	0	0	0.7261307	0.1625223	1	10	0.04	1800	0.2969095	40.92394	-91.39362
139575	-80	4	8	-1.063497	0.05418361	-85.47427	0	11.85	4004	0	0	0	0	0.7261307	0.1740332	1	10	0.04	1800	0.3069085	40.92394	-91.39362
139663	-79	3	6	-1.06334	0.05456856	-85.48996	0	11.85	4002	0	0	0	0	0.7261307	0.178617	1	10	0.04	1800	0.3005583	40.92394	-91.39362
139869	-73	1	13	-1.051902	0.05131933	-85.52231	0	11.85	4004	0	0	0	0	0.7261307	0.1976688	1	10	0.04	1800	0.2985448	40.92393	-91.39361
139974	-78	2	10	-1.050457	0.04661395	-85.53952	0	11.85	4002	0	0	0	0	0.7261307	0.1972726	1	10	0.04	1800	0.5210974	40.92393	-91.39361
140054	-74	1	8	-1.048455	0.04703337	-85.55057	0	11.85	4002	0	0	0	0	0.7261307	0.1950504	1	10	0.04	1800	0.2821394	40.92393	-91.39361
140160	-75	3	7	-1.046407	0.05555825	-85.57199	0	11.85	4003	0	0	0	0	0.7261307	0.1904158	1	10	0.04	1800	0.2828569	40.92393	-91.39361
140327	-77	4	8	-1.048408	0.0548049	-85.59213	0	11.97	4003	0	0	0	0	0.7261307	0.1847004	1	10	0.04	1800	0.5078899	40.92393	-91.39361
140387	-69	4	7	-1.043308	0.05964178	-85.6058	0	11.97	4003	0	0	0	0	0.7261307	0.1750939	1	10	0.04	1800	0.5051541	40.92393	-91.39361
140530	-73	1	7	-1.038282	0.05607066	-85.62613	0	11.97	4003	0	0	0	0	0.7261307	0.1610172	1	10	0.04	1800	0.5046928	40.92393	-91.39361
140623	-70	1	11	-1.037988	0.05655277	-85.63791	0	11.97	4003	0	0	0	0	0.7261307	0.1496345	1	10	0.04	1800	0.5046928	40.92393	-91.39361
140721	-76	2	10	-1.040701	0.05860631	-85.65958	0	11.97	4002	0	0	0	0	0.7261307	0.1326837	1	10	0.04	1800	0.5056047	40.92393	-91.39361
140824	-70	7	10	-1.036801	0.05948394	-85.6741	0	11.97	4004	0	0	0	0	0.7261307	0.1287199	1	10	0.04	1800	0.4968782	40.92393	-91.39361
140944	-76	0	8	-1.035444	0.05820848	-85.6937	0	11.97	4003	0	0	0	0	0.7261307	0.1312894	1	10	0.04	1800	0.2709951	40.92393	-91.39361
140995	-70	6	8	-1.034531	0.0552499	-85.70364	0	11.97	4003	0	0	0	0	0.7261307	0.1350092	1	10	0.04	1800	0.2693292	40.92393	-91.39361
141051	-66	1	9	-1.034176	0.05624864	-85.70901	0	11.97	4003	0	0	0	0	0.7261307	0.1414275	1	10	0.04	1800	0.2693292	40.92393	-91.39361
141128	-74	-1	8	-1.040237	0.05351119	-85.72391	0	11.91	4003	0	0	0	0	0.7261307	0.1480516	1	10	0.04	1800	0.2741539	40.92393	-91.39361
141234	-71	4	9	-1.043104	0.04876774	-85.73935	0	11.91	4004	0	0	0	0	0.7261307	0.1571328	1	10	0.04	1800	0.2751311	40.92393	-91.39361
141330	-75	0	7	-1.039065	0.04225443	-85.75723	0	11.91	4004	0	0	0	0	0.7261307	0.1624383	1	10	0.04	1800	0.4971546	40.92393	-91.39361
141434	-71	5	6	-1.027966	0.03972505	-85.76932	0	11.91	4004	0	0	0	0	0.7261307	0.1602255	1	10	0.04	1800	0.2578909	40.92393	-91.39361
141571	-77	5	7	-1.030677	0.03560189	-85.78732	0	11.91	4003	0	0	0	0	0.7261307	0.1622186	1	10	0.04	1800	0.2660193	40.92393	-91.39361
141690	-72	1	8	-1.032629	0.03694212	-85.80215	0	11.91	4003	0	0	0	0	0.7261307	0.1563876	1	10	0.04	1800	0.4879191	40.92393	-91.39361
141743	-77	8	7	-1.034258	0.03467198	-85.8063	0	11.91	4004	0	0	0	0	0.7261307	0.1494973	1	10	0.04	1800	0.4879191	40.92393	-91.39361
141830	-69	-1	9	-1.034584	0.0354845	-85.82596	0	11.91	4004	0	0	0	0	0.7261307	0.1461312	1	10	0.04	1800	0.2654068	40.92393	-91.39361
141972	-70	4	10	-1.030937	0.0394611	-85.84525	0	11.91	4003	0	0	0	0	0.7261307	0.1404674	1	10	0.04	1800	0.2664467	40.92393	-91.39361
142030	-66	5	6	-1.031454	0.03957146	-85.85587	0	11.91	4003	0	0	0	0	0.7261307	0.1393547	1	10	0.04	1800	0.2641077	40.92393	-91.39361
142119	-71	2	8	-1.028764	0.03308237	-85.87027	0	11.91	4004	0	0	0	0	0.7261307	0.1347678	1	10	0.04	1800	0.7127846	40.92393	-91.39361
142273	-70	0	9	-1.020024	0.03139753	-85.89413	0	11.91	4004	0	0	0	0	0.7261307	0.134452	1	10	0.04	1800	0.2444849	40.92393	-91.39361
142376	-73	3	12	-1.01999	0.03012018	-85.90555	0	11.91	4002	0	0	0	0	0.7261307	0.1349646	1	10	0.04	1800	0.4641296	40.92393	-91.39361
142558	-71	7	9	-1.003967	0.03377371	-85.9277	0	11.91	4002	0	0	0	0	0.7261307	0.1373804	1	10	0.04	1800	0.4507382	40.92393	-91.39361
142672	-72	4	7	-1.000837	0.02945008	-85.94986	0	11.91	4002	0	0	0	0	0.7261307	0.1425674	1	10	0.04	1800	0.2071712	40.92393	-91.39361
142730	-65	6	14	-1.000691	0.02864564	-85.95547	0	11.91	4002	0	0	0	0	0.7261307	0.1433205	1	10	0.04	1800	0.4370178	40.92393	-91.39361
142811	-69	-5	13	-0.9933467	0.02938151	-85.96658	0	11.91	4004	0	0	0	0	0.7261307	0.142343	1	10	0.04	1800	0.2012307	40.92393	-91.39361
142919	-73	-2	11	-0.9917374	0.03106323	-85.98642	0	11.85	4003	0	0	0	0	0.7261307	0.1470819	1	10	0.04	1800	0.4296206	40.92393	-91.39361
143069	-65	6	10	-0.9868112	0.01977181	-86.00729	0	11.85	4003	0	0	0	0	0.7261307	0.1422006	1	10	0.04	1800	0.4173079	40.92393	-91.39361
143119	-72	6	11	-0.9896774	0.02101974	-86.01437	0	11.85	4002	0	0	0	0	0.7261307	0.1358645	1	10	0.04	1800	0.4173079	40.92393	-91.39361
143222	-69	3	9	-0.9950469	0.02079854	-86.02908	0	11.85	4002	0	0	0	0	0.7261307	0.1303409	1	10	0.04	1800	0.4382472	40.92393	-91.39361
143325	-68	4	11	-0.9951037	0.02236538	-86.043	0	11.85	4004	0	0	0	0	0.7261307	0.1289938	1	10	0.04	1800	0.430757	40.92393	-91.39361
143449	-72	2	7	-0.9942148	0.01299951	-86.06345	0	11.85	4002	0	0	0	0	0.7261307	0.1278707	1	10	0.04	1800	0.2013488	40.92393	-91.39361
143541	-73	3	9	-0.9933043	0.01113284	-86.07303	0	11.85	4003	0	0	0	0	0.7261307	0.1344743	1	10	0.04	1800	0.6578377	40.92393	-91.39361
143638	-66	3	6	-0.9899836	0.01318938	-86.09067	0	11.85	4003	0	0	0	0	0.7261307	0.1469914	1	10	0.04	1800	0.1908327	40.92393	-91.39361
143796	-66	0	10	-0.9831479	0.01311136	-86.11179	0	11.85	4002	0	0	0	0	0.7261307	0.1582971	1	10	0.04	1800	0.1815578	40.92393	-91.39361
143928	-61	0	4	-0.9841141	0.0124304	-86.13339	0	11.97	4002	0	0	0	0	0.7261307	0.1582427	1	10	0.04	1800	0.1863185	40.92393	-91.39361
144128	-66	2	6	-0.9813622	0.01804701	-86.16306	0	11.97	4002	0	0	0	0	0.7261307	0.1583288	1	10	0.04	1800	0.4079414	40.92393	-91.39361
144207	-71	0	7	-0.9784647	0.01839191	-86.17661	0	11.97	4005	0	0	0	0	0.7261307	0.1531534	1	10	0.04	1800	0.1827372	40.92393	-91.39361
144233	-66	2	8	-0.9805629	0.01491879	-86.18063	0	11.97	4003	0	0	0	0	0.7261307	0.1511426	1	10	0.04	1800	0.4105994	40.92393	-91.39361
144305	-73	-1	7	-0.9803587	0.01762885	-86.18906	0	11.97	4004	0	0	0	0	0.7261307	0.1444058	1	10	0.04	1800	0.4105994	40.92393	-91.39361
144469	-73	3	10	-0.9806642	0.0157294	-86.21335	0	11.97	4002	0	0	0	0	0.7261307	0.1318348	1	10	0.04	1800	0.1790342	40.92393	-91.39361
144630	-71	6	9	-0.9649429	0.01696175	-86.23911	0	11.97	4003	0	0	0	0	0.7261307	0.1350353	1	10	0.04	1800	0.3801678	40.92393	-91.39361
144694	-63	0	8	-0.9622859	0.01410353	-86.24472	0	11.97	4004	0	0	0	0	0.7261307	0.1340413	1	10	0.04	1800	0.3801678	40.92393	-91.39361
144918	-67	1	7	-0.9597676	0.01309186	-86.24911	0	11.91	4002	0	0	0	0	0.7261307	0.1313006	1	10	0.04	1800	0.3702289	40.92393	-91.39361
145066	-67	1	7	-0.9597676	0.01309186	-86.24911	0	11.91	4002	0	0	0	0	0.7261307	0.1313006	1	10	0.04	1800	0.3702289	40.92393	-91.39361
145113	-67	1	7	-0.9597676	0.01309186	-86.24911	0	11.91	4002	0	0	0	0	0.7261307	0.1313006	1	10	0.04	1800	0.3702289	40.92393	-91.39361
145207	-67	1	7	-0.9597676	0.01309186	-86.24911	0	11.91	4002	0	0	0	0	0.7261307	0.1313006	1	10	0.04	1800	0.3702289	40.92393	-91.39361
145299	-67	1	7	-0.9597676	0.01309186	-86.24911	0	11.91	4002	0	0	0	0	0.7261307	0.1313006	1	10	0.04	1800	0.3702289	40.92393	-91.39361
145397	-67	1	7	-0.9597676	0.01309186	-86.24911	0	11.91	4002	0	0	0	0	0.7261307	0.1313006	1	10	0.04	1800	0.3702289	40.92393	-91.39361
145499	-67	1	7	-0.9597676	0.01309186	-86.24911	0	11.91	4002	0	0	0	0	0.7261307	0.1313006	1	10	0.04	1800	0.3702289	40.92393	-91.39361
145673	-67	1	7	-0.9597676	0.01309186	-86.24911	0	11.91	4002	0	0	0	0	0.7261307	0.1313006	1	10	0.04	1800	0.3702289	40.92393	-91.39361
145708	-67	1	7	-0.9597676	0.01309186	-86.24911	0	11.91	4002	0	0	0	0	0.7261307	0.1313006	1	10	0.04	1800	0.3702289	40.92393	-91.39361
145813	-67	1	7	-0.9597676	0.01309186	-86.24911	0	11.91	4002	0	0	0	0	0.7261307	0.1313006	1	10	0.04	1800	0.3702289	40.92393	-91.39361
145918	-67	1	7	-0.9597676	0.01309186	-86.24911	0	11.91	4002	0	0	0	0	0.7261307	0.1313006	1	10	0.04	1800	0.3702289	40.92393	-91.39361
146039	-67	1	7	-0.9597676	0.01309186	-86.24911	0	11.91	4002	0	0	0	0	0.7261307	0.1313006	1	10	0.04	1800	0.3702289	40.92393	-91.39361
146122	-67	1	7	-0.9597676	0.01309186	-86.24911	0	11.91	4002	0	0	0	0	0.7261307	0.1313006	1	10	0.04	1800	0.3702289	40.92393	-91.39361
146183	-67	1	7	-0.9597676	0.01309186	-86.24911	0	11.91	4002	0	0	0	0	0.7261307	0.1313006	1	10	0.04	1800	0.3702289	40.92393	-91.39361
146320	-67	1	7	-0.9597676	0.01309186	-86.24911	0	11.91	4002	0	0	0	0	0.7261307	0.1313006	1	10	0.04	1800	0.3702289	40.92393	-91.39361
146410	-67	1	7	-0.9597676	0.01309186	-86.24911	0	11.91	4002	0	0	0	0	0.7261307	0.1313006	1	10	0.04	1800	0.3702289	40.92393	-91.39361
146466	-67	1	7	-0.9597676	0.01309186	-86.24911	0	11.91	4002	0	0	0	0	0.7261307	0.1313006	1	10	0.04	1800	0.3702289	40.92393	-91.39361
146568	-67	1	7	-0.9597676	0.01309186	-86.24911	0	11.91	4002	0	0	0	0	0.7261307	0.1313006	1	10	0.04	1800	0.3702289	40.92393	-91.39361
146672	-67	1	7	-0.9597676	0.01309186	-86.24911	0	11.91	4002	0	0	0	0	0.7261307	0.1313006	1	10	0.04	1800	0.3702289	40.92393	-91.39361
146859	-67	1	7	-0.9597676	0.01309186	-86.24911	0	11.91	4002	0	0	0	0	0.7261307	0.1313006	1	10	0.04	1800	0.3702289	40.92393	-91.39361
146968	-67	1	7	-0.9597676	0.01309186	-86.24911	0	11.91	4002	0	0	0	0	0.7261307	0.1313006	1	10	0.04	1800	0.3702289	40.92393	-91.39361
147082	-67	1	7	-0.9597676	0.01309186	-86.24911	0	11.91	4002	0	0	0	0	0.7261307	0.1313006	1	10	0.04	1800	0.3702289	40.92393	-91.39361
147247	-67	1	7	-0.9597676	0.01309186	-86.24911	0	11.91	4002	0	0	0	0	0.7261307	0.1313006	1	10	0.04	1800	0.3702289	40.92393	-91.39361
147327	-67	1	7	-0.9597676	0.01309186	-86.24911	0	11.91	4002	0	0	0	0	0.7261307	0.1313006	1	10	0.04	1800	0.3702289	40.92393	-91.39361
147419	-67	1	7	-0.9597676	0.01309186	-86.24911	0	11.91	4002	0	0	0	0	0.7261307	0.1313006	1	10	0.04	1800	0.3702289	40.92393	-91.39361
147474	-67	1	7	-0.9597676	0.01309186	-86.24911	0	11.91	4002	0	0	0	0	0.7261307	0.1313006	1	10	0.04	1800	0.3702289	40.92393	-91.39361
147520	-67	1	7	-0.9597676	0.01309186	-86.24911	0	11.91	4002	0	0	0	0	0.7261307	0.1313006	1	10	0.04	1800	0.3702289	40.92393	-91.39361
147605	-67	1	7	-0.9597676	0.01309186	-86.24911	0	11.91	4002	0	0	0	0	0.7261307	0.1313006	1	10	0.04	1800	0.3702289	40.92393	-91.39361
147718	-67	1	7	-0.9597676	0.01309186	-86.24911	0	11.91	4002	0	0	0	0	0.7261307	0.1313006	1	10	0.04	1800	0.3702289	40.92393	-91.39361
147807	-67	1	7	-0.9597676	0.01309186	-86.24911	0	11.91	4002	0	0	0	0	0.7261307	0.1313006	1	10	0.04	1800	0.3702289	40.92393	-91.39361
147952	-67	1	7	-0.9597676	0.01309186	-86.24911	0	11.91	4002	0	0	0	0	0.7261307	0.1313006	1	10	0.04	1800	0.3702289	40.92393	-91.39361
148025	-67	1	7	-0.9597676	0.01309186	-86.24911	0	11.91	4002	0	0	0	0	0.7261307	0.1313006	1	10	0.04	1800	0.3702289	40.92393	-91.39361
148102	-67	1	7	-0.9597676	0.01309186	-86.24911	0	11.91	4002	0	0	0	0	0.7261307	0.1313006	1	10	0.04	1800	0.3702289	40.92393	-91.39361
148269	-67	1	7	-0.9597676	0.01309186	-86.24911	0	11.91	4002	0	0	0	0	0.7261307	0.1313006	1	10	0.04	1800	0.3702289	40.92393	-91.39361
148427	-67	1	7	-0.9597676	0.01309186	-86.24911	0	11.91	4002	0	0	0	0	0.7261307	0.1313006	1	10	0.04	1800	0.3702289	40.92393	-91.39361
148494	-67	1	7	-0.9597676	0.01309186	-86.24911	0	11.91	4002	0	0	0	0	0.7261307	0.1313006	1	10	0.04	1800	0.3702289	40.92393	-91.39361
148524	-67	1	7	-0.9597676	0.01309186	-86.24911	0	11.91	4002	0	0	0	0	0.7261307	0.1313006	1	10	0.04	1800	0.3702289	40.92393	-91.39361
148606	-67	1	7	-0.9597676	0.01309186	-86.24911	0	11.91	4002	0	0	0	0	0.7261307	0.1313006	1	10	0.04	1800	0.3702289	40.92393	-91.39361
148717	-67	1	7	-0.9597676	0.01309186	-86.24911	0	11.91	4002	0	0	0	0	0.7261307	0.1313006	1	10	0.04	1800	0.3702289	40.92393	-91.39361
148803	-67	1	7	-0.9597676	0.01309186	-86.24911	0	11.91	4002	0	0	0	0	0.7261307	0.1313006	1	10	0.04	1800	0.3702289	40.92393	-91.39361
148881	-67	1	7	-0.9597676	0.01309186	-86.24911	0	11.91	4002	0	0	0	0	0.7261307	0.1313006	1	10	0.04	1800	0.3702289	40.92393	-91.39361
149085	-67	1	7	-0.9597676	0.01309186	-86.24911	0	11.91	4002	0	0	0	0	0.7261307	0.1313006	1	10	0.04	1800	0.3702289	40.92393	-91.39361
149132	-67	1	7	-0.9597676	0.01309186	-86.24911	0	11.91	4002	0	0	0	0	0.7261307	0.1313006	1	10	0.04	1800	0.3702289	40.92393	-91.39361
149172	-67	1	7	-0.9597676	0.01309186	-86.24911	0	11.91	4002	0	0	0	0	0.7261307	0.1313006	1	10	0.04	1800	0.3702289	40.92393	-91.39361
149269	-67	1	7	-0.9597676	0.01309186	-86.24911	0	11.91	4002	0	0	0	0	0.7261307	0.1313006	1	10	0.04	1800	0.3702289	40.92393	-91.39361
149447	-67	1	7	-0.9597676	0.01309186	-86.24911	0	11.91	4002	0	0	0	0	0.7261307	0.1313006	1	10	0.04	1800	0.3702289	40.92393	-91.39361
149544	-67	1	7	-0.9597676	0.01309186	-86.24911	0	11.91	4002	0	0	0	0	0.7261307	0.1313006	1	10	0.04	1800	0.3702289	40.92393	-91.39361
149617	-67	1	7	-0.9597676	0.01309186	-86.24911	0	11.91	4002	0	0	0	0	0.7261307	0.1313006	1	10	0.04	1800	0.3702289	40.92393	-91.39361
149656	-67	1	7	-0.9597676	0.01309186	-86.24911	0	11.91	4002	0	0	0	0	0.7261307	0.1313006	1	10	0.04	1800	0.3702289	40.92393	-91.39361
149739	-67	1	7	-0.9597676	0.01309186	-86.24911	0	11.91	4002	0	0	0	0	0.7261307	0.1313006	1	10	0.04	1800	0.3702289	40.92393	-91.39361
149900	-67	1	7	-0.9597676	0.01309186	-86.24911	0	11.91	4002	0	0	0	0	0.7261307	0.1313006	1	10	0.04	1800	0.3702289	40.92393	-91.39361
149947	-67	1	7	-0.9597676	0.01309186	-86.24911	0	11.91	4002	0	0	0	0	0.7261307	0.1313006	1	10	0.04	1800	0.3702289	40.92393	-91.39361
150054	-67	1	7	-0.9597676	0.01309186	-86.24911	0	11.85	4002	0	0	0	0	0.7261307	0.1313006	1	10	0.04	1800	0.3702289	40.92393	-91.39361
150266	-67	1	7	-0.9597676	0.01309186	-86.24911	0	11.85	4002	0	0	0	0	0.7261307	0.1313006	1	10	0.04	1800	0.3702289	40.92393	-91.39361
150382	-67	1	7	-0.9597676	0.01309186	-86.24911	0	11.85	4002	0	0	0	0	0.7261307	0.1313006	1	10	0.04	1800	0.3702289	40.92393	-91.39361
150520	-67	1	7	-0.9597676	0.01309186	-86.24911	0	11.85	4002	0	0	0	0	0.7261307	0.1313006	1	10	0.04	1800	0.3702289	40.92393	-91.39361
150601	-67	1	7	-0.9597676	0.01309186	-86.24911	0	11.85	4002	0	0	0	0	0.7261307	0.1313006	1	10	0.04	1800	0.3702289	40.92393	-91.39361
150650	-67	1	7	-0.9597676	0.01309186	-86.24911	0	11.85	4002	0	0	0	0	0.7261307	0.1313006	1	10	0.04	1800	0.3702289	40.92393	-91.39361
150701	-67	1	7	-0.9597676	0.01309186	-86.24911	0	11.85	4002	0	0	0	0	0.7261307	0.1313006	1	10	0.04	1800	0.3702289	40.92393	-91.39361
150807	-67	1	7	-0.9597676	0.01309186	-86.24911	0	11.85	4002	0	0	0	0	0.7261307	0.1313006	1	10	0.04	1800	0.3702289	40.92393	-91.39361
150935	-67	1	7	-0.9597676	0.01309186	-86.24911	0	11.85	4002	0	0	0	0	0.7261307	0.1313006	1	10	0.04	1800	0.3702289	40.92393	-91.39361
151012	-67	1	7	-0.9597676	0.01309186	-86.24911	0	11.85	4002	0	0	0	0	0.7261307	0.1313006	1	10	0.04	1800	0.3702289	40.92393	-91.39361
151230	-67	1	7	-0.9597676	0.01309186	-86.24911	0	11.85	4002	0	0	0	0	0.7261307	0.1313006	1	10	0.04	1800	0.3702289	40.92393	-91.39361
151324	-67	1	7	-0.9597676	0.01309186	-86.24911	0	11.85	4002	0	0	0	0	0.7261307	0.1313006	1	10	0.04	1800	0.3702289	40.92393	-91.39361
151428	-67	1	7	-0.9597676	0.01309186	-86.24911	0	11.85	4002	0	0	0	0	0.7261307	0.1313006	1	10	0.04	1800	0.3702289	40.92393	-91.39361
151536	-67	1	7	-0.9597676	0.01309186	-86.24911	0	11.85	4002	0	0	0	0	0.7261307	0.1313006	1	10	0.04	1800	0.3702289	40.92393	-91.39361
151630	-67	1	7	-0.9597676	0.01309186	-86.24911	0	11.85	4002	0	0	0	0	0.7261307	0.1313006	1	10	0.04	1800	0.3702289	40.92393	-91.39361
151734	-67	1	7	-0.9597676	0.01309186	-86.24911	0	11.85	4002	0	0	0	0	0.7261307	0.1313006	1	10	0.04	1800	0.3702289	40.92393	-91.39361
151842	-67	1	7	-0.9597676	0.01309186	-86.24911	0	11.91	4002	0	0	0	0	0.7261307	0.1313006	1	10	0.04	1800	0.3702289	40.92393	-91.39361
151945	-67	1	7	-0.9597676	0.01309186	-86.24911	0	11.91	4002	0	0	0	0	0.7261307	0.1313006	1	10	0.04	1800	0.3702289	40.92393	-91.39361
152042	-67	1	7	-0.9597676	0.01309186	-86.24911	0	11.91	4002	0	0	0	0	0.7261307	0.1313006	1	10	0.04	1800	0.3702289	40.92393	-91.39361
152146	-67	1	7	-0.9597676	0.01309186	-86.24911	0	11.91	4002	0	0	0	0	0.7261307	0.1313006	1	10	0.04	1800	0.3702289	40.92393	-91.39361
152254	-67	1	7	-0.9597676	0.01309186	-86.24911	0	11.91	4002	0	0	0	0	0.7261307	0.1313006	1	10	0.04	1800	0.3702289	40.92393	-91.39361
152356	-67	1	7	-0.9597676	0.01309186	-86.24911	0	11.91	4002	0	0	0	0	0.7261307	0.1313006	1	10	0.04	1800	0.3702289	40.92393	-91.39361
152460	-67	1	7	-0.9597676	0.01309186	-86.24911	0	11.91	4002	0	0	0	0	0.7261307	0.1313006	1	10	0.04	1800	0.3702289	40.92393	-91.39361
152557	-67	1	7	-0.9597676	0.01309186	-86.24911	0	11.91	4002	0	0	0	0	0.7261307	0.1313006	1	10	0.04	1800	0.3702289	40.92393	-91.39361
152662	-67	1	7	-0.9597676	0.01309186	-86.24911	0	11.91	4002	0	0	0	0	0.7261307	0.1313006	1	10	0.04	1800	0.3702289	40.92393	-91.39361
152763	2	0	0	-0.1243313	-1.15064	0.2747673	0	11.97	4003	0	0	0	0	0.7261307	0.1212792	1	10	0.04	1800	-1.201324	40.92396	-91.3936
152872	5	1	0	-0.09440037	-0.957783	0.2753787	0	11.97	4003	0	0	0	0	0.7261307	0.09969593	1	10	0.04	1800	-1.226837	40.92397	-91.3936
152961	1	-1	2	-0.08728652	-0.8757088	0.2758068	0	11.97	4004	0	0	0	0	0.7261307	0.08952185	1	10	0.04	1800	-1.010437	40.92396	-91.3936
153065	4	-6	0	-0.0745625	-0.7976881	0.2773966	0	11.97	4002	0	0	0	0	0.7261307	0.08109268	1	10	0.04	1800	-1.019318	40.92396	-91.3936
153166	6	-2	0	-0.04961972	-0.6735986	0.2787416	0	11.97	4003	0	0	0	0	0.7261307	0.07125305	1	10	0.04	1800	-1.065033	40.92396	-91.3936
153269	7	2	0	-0.03309794	-0.5919703	0.2800255	0	11.97	4003	0	0	0	0	0.7261307	0.06822865	1	10	0.04	1800	-1.333588	40.92396	-91.3936
153396	7	-3	0	-0.02129024	-0.4949926	0.2825933	0	11.97	4003	0	0	0	0	0.7261307	0.06289303	1	10	0.04	1800	-1.354095	40.92396	-91.3936
153524	5	4	-1	-0.009744567	-0.4315439	0.2833278	0	11.97	4004	0	0	0	0	0.7261307	0.0489766	1	10	0.04	1800	-1.123688	40.92396	-91.3936
153621	1	-1	3	0.01044568	-0.364416	0.2858346	0	11.97	4004	0	0	0	0	0.7261307	0.04426157	1	10	0.04	1800	-1.156891	40.92396	-91.3936
153681	7	-3	-1	0.01241675	-0.347965	0.2858956	0	11.91	4002	0	0	0	0	0.7261307	0.03425719	1	10	0.04	1800	-1.156891	40.92396	-91.3936
153864	8	3	-2	0.02947241	-0.2789111	0.289136	0	11.91	4004	0	0	0	0	0.7261307	0.02531668	1	10	0.04	1800	-1.417969	40.92396	-91.3936
153900	10	0	-2	0.03377397	-0.2560821	0.2903587	0	11.91	4003	0	0	0	0	0.7261307	0.02107081	1	10	0.04	1800	-1.419373	40.92396	-91.3936
153972	5	1	-1	0.03821786	-0.2359197	0.291031	0	11.91	4004	0	0	0	0	0.7261307	0.0172983	1	10	0.04	1800	-1.432281	40.92396	-91.3936
154154	7	-2	0	0.05238168	-0.1902155	0.292804	0	11.91	4002	0	0	0	0	0.7261307	0.02595738	1	10	0.04	1800	-1.220947	40.92396	-91.3936
154190	13	-4	-2	0.05559864	-0.1778617	0.2948215	0	11.91	4004	0	0	0	0	0.7261307	0.02814069	1	10	0.04	1800	-1.462036	40.92396	-91.3936
154336	7	0	-4	0.06050217	-0.1449434	0.2980005	0	11.91	4002	0	0	0	0	0.7261307	0.03928251	1	10	0.04	1800	-1.457214	40.92396	-91.3936
154475	4	1	1	0.06415454	-0.127408	0.3002014	0	11.91	4002	0	0	0	0	0.7261307	0.05936822	1	10	0.04	1800	-1.46756	40.92396	-91.3936
154570	8	3	-2	0.06747262	-0.1046556	0.304053	0	11.91	4004	0	0	0	0	0.7261307	0.06571811	1	10	0.04	1800	-1.244446	40.92396	-91.3936
154767	9	2	-1	0.07404941	-0.08990677	0.3057652	0	11.91	4004	0	0	0	0	0.7261307	0.08918308	1	10	0.04	1800	-1.481995	40.92396	-91.3936
154802	4	2	0	0.07816393	-0.08414906	0.3060708	0	11.91	4003	0	0	0	0	0.7261307	0.09281588	1	10	0.04	1800	-1.481995	40.92396	-91.3936
154870	16	-1	-5	0.07834083	-0.0824734	0.3105946	0	11.91	4002	0	0	0	0	0.7261307	0.09679943	1	10	0.04	1800	-1.267456	40.92396	-91.3936
154976	10	1	1	0.08448915	-0.07647138	0.3132845	0	11.91	4003	0	0	0	0	0.7261307	0.1055535	1	10	0.04	1800	-1.49411	40.92396	-91.3936
155113	10	0	0	0.08895263	-0.07152214	0.3185421	0	11.91	4003	0	0	0	0	0.7261307	0.1069542	1	10	0.04	1800	-1.504028	40.92396	-91.3936
155216	10	-9	0	0.09253053	-0.06173639	0.3213545	0	11.91	4003	0	0	0	0	0.7261307	0.08922804	1	10	0.04	1800	-1.506256	40.92396	-91.3936
155347	7	-1	-2	0.09376952	-0.04778222	0.3283238	0	11.91	4004	0	0	0	0	0.7261307	0.07517941	1	10	0.04	1800	-1.281281	40.92396	-91.3936
155378	12	-2	2	0.0899503	-0.04674588	0.3299747	0	11.91	4004	0	0	0	0	0.7261307	0.07287654	1	10	0.04	1800	-1.281281	40.92396	-91.3936
155449	12	3	-6	0.08680636	-0.04381818	0.3336428	0	11.97	4002	0	0	0	0	0.7261307	0.06445283	1	10	0.04	1800	-1.279968	40.92396	-91.3936
155552	7	-4	-4	0.09000035	-0.03226436	0.3362107	0	11.97	4004	0	0	0	0	0.7261307	0.05594901	1	10	0.04	1800	-1.503723	40.92396	-91.3936
155662	12	0	-3	0.09016952	-0.02854239	0.3415906	0	11.97	4003	0	0	0	0	0.7261307	0.03198992	1	10	0.04	1800	-1.510803	40.92396	-91.3936
155808	11	-1	0	0.09817959	-0.03444533	0.3428131	0	11.97	4004	0	0	0	0	0.7261307	0.01008124	1	10	0.04	1800	-1.508362	40.92396	-91.3936
155883	7	-1	1	0.1026124	-0.02860187	0.3455644	0	11.97	4003	0	0	0	0	0.7261307	0.006749202	1	10	0.04	1800	-1.520142	40.92395	-91.3936
155987	10	-3	-3	0.09869921	-0.02542452	0.3494157	0	11.97	4003	0	0	0	0	0.7261307	-0.003232898	1	10	0.04	1800	-1.291199	40.92395	-91.3936
156045	11	0	-8	0.1032052	-0.02581365	0.3510055	0	11.97	4004	0	0	0	0	0.7261307	-0.0107264	1	10	0.04	1800	-1.291199	40.92395	-91.3936
156174	10	3	0	0.1089028	-0.02286009	0.3580973	0	11.97	4003	0	0	0	0	0.7261307	-0.0223501	1	10	0.04	1800	-1.298553	40.92395	-91.3936
156242	14	0	-1	0.1101295	-0.02508876	0.3584642	0	11.97	4004	0	0	0	0	0.7261307	-0.02226799	1	10	0.04	1800	-1.298553	40.92395	-91.3936
156432	5	-5	-6	0.1121188	-0.01850615	0.3647615	0	11.97	4003	0	0	0	0	0.7261307	-0.02738901	1	10	0.04	1800	-1.299225	40.92395	-91.3936
156490	2	3	-2	0.1143638	-0.01581452	0.3659843	0	11.97	4004	0	0	0	0	0.7261307	-0.02847358	1	10	0.04	1800	-1.311737	40.92395	-91.3936
156730	8	0	-6	0.1181961	-0.01580765	0.3749721	0	11.97	4003	0	0	0	0	0.7261307	-0.04298186	1	10	0.04	1800	-1.322449	40.92395	-91.3936
156822	12	2	0	0.1152687	-0.01402708	0.3787014	0	11.97	4003	0	0	0	0	0.7261307	-0.04599355	1	10	0.04	1800	-1.318634	40.92395	-91.3936
156919	11	0	-3	0.1174209	-0.01768527	0.3807801	0	11.97	4002	0	0	0	0	0.7261307	-0.04072384	1	10	0.04	1800	-1.314667	40.92395	-91.3936
157025	8	-3	-5	0.1210055	-0.01348718	0.3867105	0	11.97	4003	0	0	0	0	0.7261307	-0.03762534	1	10	0.04	1800	-1.555939	40.92395	-91.3936
157092	9	1	-1	0.124102	-0.01832742	0.3871384	0	11.97	4003	0	0	0	0	0.7261307	-0.04118151	1	10	0.04	1800	-1.794342	40.92395	-91.3936
157125	4	-2	-6	0.125276	-0.01747163	0.3885445	0	11.97	4004	0	0	0	0	0.7261307	-0.04277167	1	10	0.04	1800	-1.556793	40.92395	-91.3936
157217	0	0	-1	0.1184905	-0.01336016	0.3908073	0	11.97	4003	0	0	0	0	0.7261307	-0.04836468	1	10	0.04	1800	-1.562592	40.92395	-91.3936
157330	11	-2	3	0.117225	-0.01481379	0.3934363	0	11.97	4002	0	0	0	0	0.7261307	-0.05407403	1	10	0.04	1800	-1.548981	40.92395	-91.3936
157424	14	-2	0	0.1213819	-0.011464	0.3938032	0	11.97	4003	0	0	0	0	0.7261307	-0.05511323	1	10	0.04	1800	-1.334259	40.92395	-91.3936
157622	4	-2	-5	0.1176257	-0.008477269	0.399733	0	11.97	4002	0	0	0	0	0.7261307	-0.04296105	1	10	0.04	1800	-1.55481	40.92395	-91.3936
157738	10	0	3	0.1236115	-0.01036229	0.4010778	0	11.97	4004	0	0	0	0	0.7261307	-0.02621036	1	10	0.04	1800	-1.323425	40.92395	-91.3936
157950	7	-5	0	0.1180619	-0.003564019	0.4075581	0	11.97	4003	0	0	0	0	0.7261307	-0.003252818	1	10	0.04	1800	-1.552795	40.92395	-91.3936
158107	6	-3	3	0.1152351	-0.01019566	0.4120207	0	11.97	4004	0	0	0	0	0.7261307	0.01303588	1	10	0.04	1800	-1.54837	40.92395	-91.3936
158175	8	-6	0	0.1134996	-0.005480432	0.4123264	0	11.97	4004	0	0	0	0	0.7261307	0.02162256	1	10	0.04	1800	-1.315002	40.92395	-91.3936
158209	13	2	0	0.1096005	-0.005577722	0.4131211	0	11.97	4005	0	0	0	0	0.7261307	0.02427827	1	10	0.04	1800	-1.315002	40.92395	-91.3936
158313	6	0	-1	0.1098418	-0.003210921	0.4143438	0	11.97	4003	0	0	0	0	0.7261307	0.03249795	1	10	0.04	1800	-1.537903	40.92395	-91.3936
158487	6	2	2	0.110544	-0.00750882	0.4190513	0	11.97	4003	0	0	0	0	0.7261307	0.04900374	1	10	0.04	1800	-1.312225	40.92395	-91.3936
158582	9	-3	-1	0.1101114	-0.004413961	0.4208241	0	11.97	4003	0	0	0	0	0.7261307	0.05795952	1	10	0.04	1800	-1.537842	40.92395	-91.3936
158682	14	2	3	0.1068395	-0.01109352	0.4228424	0	11.97	4003	0	0	0	0	0.7261307	0.0657757	1	10	0.04	1800	-1.306335	40.92395	-91.3936
158759	6	3	-5	0.1093446	-0.01682479	0.4279165	0	11.97	4003	0	0	0	0	0.7261307	0.07299255	1	10	0.04	1800	-1.312439	40.92395	-91.3936
158846	7	0	1	0.1102144	-0.02043665	0.4298728	0	11.97	4003	0	0	0	0	0.7261307	0.08562117	1	10	0.04	1800	-1.310181	40.92395	-91.3936
158893	6	4	0	0.1084171	-0.02111026	0.432624	0	11.97	4002	0	0	0	0	0.7261307	0.0875304	1	10	0.04	1800	-1.538971	40.92395	-91.3936
159060	15	0	0	0.1052025	-0.01750369	0.4359254	0	11.91	4003	0	0	0	0	0.7261307	0.09887281	1	10	0.04	1800	-1.528107	40.92395	-91.3936
159092	11	4	-2	0.105671	-0.01757525	0.4361088	0	11.91	4004	0	0	0	0	0.7261307	0.09945688	1	10	0.04	1800	-1.524658	40.92395	-91.3936
159146	12	0	-1	0.1072579	-0.01897223	0.4369648	0	11.91	4004	0	0	0	0	0.7261307	0.09998253	1	10	0.04	1800	-1.524658	40.92395	-91.3936
159254	9	1	-4	0.1111038	-0.007784834	0.4397774	0	11.91	4003	0	0	0	0	0.7261307	0.1042858	1	10	0.04	1800	-1.534973	40.92395	-91.3936
159371	15	1	-5	0.1171198	-0.01130284	0.4432015	0	11.91	4002	0	0	0	0	0.7261307	0.1079516	1	10	0.04	1800	-1.547119	40.92395	-91.3936
159461	16	-1	-1	0.1168812	-0.009876204	0.4454026	0	11.91	4003	0	0	0	0	0.7261307	0.1062578	1	10	0.04	1800	-1.776398	40.92395	-91.3936
159575	13	2	-1	0.1246007	-0.009594512	0.4470533	0	11.91	4003	0	0	0	0	0.7261307	0.09337629	1	10	0.04	1800	-1.559418	40.92395	-91.3936
159727	14	0	-2	0.1265855	-0.01216895	0.4480928	0	11.91	4004	0	0	0	0	0.7261307	0.07680361	1	10	0.04	1800	-1.566193	40.92395	-91.3936
159884	17	-5	-3	0.135222	-0.01606955	0.4520056	0	11.91	4004	0	0	0	0	0.7261307	0.05872633	1	10	0.04	1800	-1.574829	40.92395	-91.3936
159967	13	0	0	0.1368949	-0.02171502	0.4551238	0	11.97	4004	0	0	0	0	0.7261307	0.05148107	1	10	0.04	1800	-1.585358	40.92395	-91.3936
160095	13	0	0	0.1368949	-0.02171502	0.4551238	0	11.97	4004	0	0	0	0	0.7261307	0.04980575	1	10	0.04	1800	-1.585358	40.92395	-91.3936
160305	16	-1	0	0.1470563	-0.02373326	0.4629338	0	11.97	4002	0	0	0	0	0.7261307	0.04299188	1	10	0.04	1800	-1.365814	40.92395	-91.3936
160368	16	-1	0	0.1470563	-0.02373326	0.4629338	0	11.97	4002	0	0	0	0	0.7261307	0.04299188	1	10	0.04	1800	-1.365814	40.92395	-91.3936
160468	16	-2	-6	0.1479574	-0.01823712	0.468052	0	11.97	4002	0	0	0	0	0.7261307	0.03893876	1	10	0.04	1800	-1.595947	40.92395	-91.3936
160557	9	0	-3	0.1516196	-0.01486319	0.4706807	0	11.97	4002	0	0	0	0	0.7261307	0.03858128	1	10	0.04	1800	-1.610046	40.92395	-91.39361
160645	10	0	0	0.1475234	-0.02239007	0.4745932	0	11.97	4004	0	0	0	0	0.7261307	0.03702049	1	10	0.04	1800	-1.591827	40.92395	-91.39361
160667	11	-4	0	0.1469381	-0.02148495	0.4759384	0	11.97	4002	0	0	0	0	0.7261307	0.03862043	1	10	0.04	1800	-1.368866	40.92395	-91.39361
160755	10	1	-1	0.1379789	-0.02237791	0.4777115	0	11.91	4003	0	0	0	0	0.7261307	0.04288362	1	10	0.04	1800	-1.585388	40.92395	-91.39361
160849	9	-3	0	0.1439249	-0.02610153	0.4781396	0	11.91	4003	0	0	0	0	0.7261307	0.0556951	1	10	0.04	1800	-1.817291	40.92395	-91.39361
160935	14	-2	2	0.1455967	-0.01773905	0.4806464	0	11.91	4003	0	0	0	0	0.7261307	0.06374761	1	10	0.04	1800	-1.598938	40.92395	-91.39361
161172	12	2	0	0.1514341	-0.01389937	0.4883499	0	11.91	4003	0	0	0	0	0.7261307	0.08763815	1	10	0.04	1800	-1.593719	40.92395	-91.39361
161344	10	-4	1	0.1446992	-0.01700627	0.4923851	0	11.91	4004	0	0	0	0	0.7261307	0.1067522	1	10	0.04	1800	-1.602356	40.92395	-91.39361
161444	7	1	1	0.1454811	-0.01981949	0.4946473	0	11.91	4003	0	0	0	0	0.7261307	0.1176441	1	10	0.04	1800	-1.604309	40.92395	-91.39361
161608	8	-2	-3	0.1483653	-0.02005071	0.4988046	0	11.91	4004	0	0	0	0	0.7261307	0.1322905	1	10	0.04	1800	-1.371002	40.92395	-91.39361
161688	9	4	-3	0.1449205	-0.02091329	0.5009442	0	11.91	4002	0	0	0	0	0.7261307	0.1348709	1	10	0.04	1800	-1.368835	40.92395	-91.39361
161753	14	1	1	0.1403615	-0.01819426	0.5035115	0	11.91	4003	0	0	0	0	0.7261307	0.1402443	1	10	0.04	1800	-1.588837	40.92395	-91.39361
161839	12	-5	-5	0.139921	-0.01536983	0.5049177	0	11.91	4003	0	0	0	0	0.7261307	0.1439838	1	10	0.04	1800	-1.351379	40.92395	-91.39361
161960	12	-4	-3	0.1412955	-0.01649056	0.5076685	0	11.91	4002	0	0	0	0	0.7261307	0.1481924	1	10	0.04	1800	-1.359192	40.92395	-91.39361
162042	7	-3	0	0.1493706	-0.0193207	0.5101138	0	11.91	4004	0	0	0	0	0.7261307	0.1466371	1	10	0.04	1800	-1.368866	40.92395	-91.39361
162285	11	-2	0	0.144951	-0.01940725	0.5153716	0	11.91	4004	0	0	0	0	0.7261307	0.1265332	1	10	0.04	1800	-1.369965	40.92395	-91.39361
162413	9	-5	-4	0.1427136	-0.01925152	0.5180614	0	11.91	4003	0	0	0	0	0.7261307	0.1090814	1	10	0.04	1800	-1.589478	40.92395	-91.39361
162459	17	-1	-5	0.1417459	-0.02829981	0.5198961	0	11.91	4010	0	0	0	0	0.7261307	0.1058143	1	10	0.04	1800	-1.361115	40.92395	-91.39361
162549	11	3	-2	0.1463923	-0.02780034	0.5219138	0	11.91	4003	0	0	0	0	0.7261307	0.09552509	1	10	0.04	1800	-1.366913	40.92395	-91.39361
162730	13	-3	-3	0.1455129	-0.026324	0.5239922	0	11.97	4002	0	0	0	0	0.7261307	0.09456675	1	10	0.04	1800	-1.361969	40.92395	-91.39361
