time(ms)	gyro_x(deg/s)	gyro_y(deg/s)	gyro_z(deg/s)	orientation_roll(deg)	orientation_pitch(deg)	orientation_yaw(deg)	throttle	battery(V)	loop_time(uS)	pid_output_roll	pid_output_pitch	pid_output_yaw	pid_output_throttle	ultrasonic_alt	baro_alt	flight_mode	p_gain_altitude	i_gain_altitude	d_gain_altitude	compass_heading	latitude	longitude
226123	-18	0	4	-0.6959252	0.325435	-30.12564	0	11.85	4004	0	0	0	0	1.295591E+08	-0.07978763	1	10	0.04	1800	-0.4996948	40.92395	-91.39362
226226	-28	2	5	-0.6994116	0.3241546	-30.13284	0	11.85	4003	0	0	0	0	1.470957E+08	-0.07516351	1	10	0.04	1800	-0.489563	40.92395	-91.39362
226332	-23	7	8	-0.7010779	0.3279965	-30.13822	0	11.85	4003	0	0	0	0	1.561625E+08	-0.07703483	1	10	0.04	1800	-0.7064819	40.92394	-91.39362
226426	-26	8	3	-0.6970142	0.3298866	-30.14163	0	11.85	4003	0	0	0	0	1.607965E+08	-0.07495977	1	10	0.04	1800	-0.7140503	40.92394	-91.39362
226539	-23	1	7	-0.7027385	0.328969	-30.1478	0	11.85	4004	0	0	0	0	1.675906E+08	-0.07191131	1	10	0.04	1800	-0.4962769	40.92394	-91.39362
226643	-23	1	7	-0.700682	0.3257519	-30.15195	0	11.85	4002	0	0	0	0	1.711032E+08	-0.07136948	1	10	0.04	1800	-0.4936218	40.92394	-91.39362
226731	-22	0	7	-0.7031906	0.3290507	-30.15537	0	11.85	4002	0	0	0	0	1.728986E+08	-0.06996655	1	10	0.04	1800	-0.4893799	40.92395	-91.39362
226840	-25	-2	3	-0.7147195	0.3326088	-30.16214	0	11.85	4003	0	0	0	0	1.755307E+08	-0.06859772	1	10	0.04	1800	-0.6903076	40.92395	-91.39362
226940	-26	1	5	-0.7143868	0.3334775	-30.16837	0	11.85	4003	0	0	0	0	1.764848E+08	-0.06790695	1	10	0.04	1800	-0.693573	40.92395	-91.39362
227041	-26	1	5	-0.7136171	0.3285488	-30.1724	0	11.85	4002	0	0	0	0	1.778837E+08	-0.06877916	1	10	0.04	1800	-0.4721985	40.92395	-91.39362
227145	-23	3	7	-0.7173662	0.3307122	-30.17673	0	11.85	4003	0	0	0	0	1.786069E+08	-0.07313585	1	10	0.04	1800	-0.4648132	40.92395	-91.39362
227245	-26	-2	3	-0.7229573	0.3335964	-30.181	0	11.85	4002	0	0	0	0	1.789765E+08	-0.07577286	1	10	0.04	1800	-0.4532776	40.92395	-91.39362
227355	-28	4	1	-0.726805	0.3281985	-30.18363	0	11.85	4003	0	0	0	0	1.795185E+08	-0.07839745	1	10	0.04	1800	-0.6737366	40.92395	-91.39362
227453	-25	0	4	-0.7264814	0.3335289	-30.18882	0	11.85	4003	0	0	0	0	1.797987E+08	-0.07671154	1	10	0.04	1800	-0.4583435	40.92394	-91.39362
227555	-22	2	5	-0.7293121	0.3351805	-30.1948	0	11.85	4002	0	0	0	0	1.800029E+08	-0.0822813	1	10	0.04	1800	-0.4443054	40.92394	-91.39362
227652	-28	5	6	-0.7287324	0.3331517	-30.19767	0	11.85	4003	0	0	0	0	1.801519E+08	-0.09082929	1	10	0.04	1800	-0.6653748	40.92395	-91.39362
227748	-31	1	2	-0.7259392	0.3295466	-30.20188	0	11.85	4003	0	0	0	0	1.802604E+08	-0.09570656	1	10	0.04	1800	-0.4462585	40.92395	-91.39362
227847	-23	2	1	-0.7207505	0.3294072	-30.20841	0	11.85	4004	0	0	0	0	1.803395E+08	-0.09620679	1	10	0.04	1800	-0.4581909	40.92395	-91.39362
227950	-17	3	-1	-0.7208566	0.330783	-30.20981	0	11.85	4004	0	0	0	0	1.803972E+08	-0.09664753	1	10	0.04	1800	-0.6787109	40.92395	-91.39362
228051	-24	6	3	-0.7126076	0.3305313	-30.21384	0	11.85	4004	0	0	0	0	1.804393E+08	-0.09384113	1	10	0.04	1800	-0.4701233	40.92395	-91.39362
228262	-19	0	3	-0.7044278	0.3362682	-30.22495	0	11.85	4003	0	0	0	0	1.804983E+08	-0.0941537	1	10	0.04	1800	-0.4848633	40.92395	-91.39362
228369	-26	0	1	-0.7044022	0.3334489	-30.22989	0	11.85	4002	0	0	0	0	1.805086E+08	-0.09713878	1	10	0.04	1800	-0.6998901	40.92395	-91.39362
228510	-18	0	2	-0.7010792	0.3280854	-30.23569	0	11.85	4003	0	0	0	0	1.805265E+08	-0.09923313	1	10	0.04	1800	-0.7117004	40.92395	-91.39362
228571	-24	0	1	-0.6969096	0.3312116	-30.23838	0	11.85	4003	0	0	0	0	1.805291E+08	-0.09945462	1	10	0.04	1800	-0.4917603	40.92395	-91.39362
228677	-15	1	-1	-0.6871695	0.3308378	-30.24393	0	11.85	4004	0	0	0	0	1.805354E+08	-0.1009168	1	10	0.04	1800	-0.5150146	40.92395	-91.39362
228786	-22	-3	6	-0.6849973	0.3279042	-30.24888	0	11.85	4003	0	0	0	0	1.805413E+08	-0.104487	1	10	0.04	1800	-0.2858887	40.92395	-91.39362
228858	-23	3	5	-0.6847559	0.3281915	-30.25071	0	11.85	4003	0	0	0	0	1.805434E+08	-0.107124	1	10	0.04	1800	-0.7342834	40.92395	-91.39362
229047	-27	-3	2	-0.6891091	0.3336477	-30.26121	0	11.85	4004	0	0	0	0	1.805471E+08	-0.1059105	1	10	0.04	1800	-0.506073	40.92395	-91.39362
229110	-24	0	5	-0.6910967	0.3293862	-30.26512	0	11.85	4002	0	0	0	0	1.805481E+08	-0.1010843	1	10	0.04	1800	-0.506073	40.92395	-91.39362
229231	-24	5	4	-0.6974097	0.3283008	-30.27391	0	11.85	4002	0	0	0	0	1.805499E+08	-0.08497076	1	10	0.04	1800	-0.4978027	40.92395	-91.39362
229338	-20	-2	2	-0.6904106	0.330958	-30.27873	0	11.85	4003	0	0	0	0	1.805506E+08	-0.07489358	1	10	0.04	1800	-0.5046692	40.92395	-91.39362
229388	-25	4	1	-0.6919295	0.3280778	-30.28227	0	11.85	4003	0	0	0	0	1.805508E+08	-0.07249723	1	10	0.04	1800	-0.5028076	40.92395	-91.39362
229455	-23	-1	5	-0.6977476	0.3225119	-30.28624	0	11.85	4004	0	0	0	0	1.805511E+08	-0.06853409	1	10	0.04	1800	-0.2727051	40.92395	-91.39362
229556	-22	0	1	-0.6978202	0.3270374	-30.29173	0	11.85	4003	0	0	0	0	1.805515E+08	-0.06902706	1	10	0.04	1800	-0.7095947	40.92395	-91.39362
229667	-25	0	5	-0.6984258	0.3249779	-30.29711	0	11.85	4003	0	0	0	0	1.805518E+08	-0.07420672	1	10	0.04	1800	-0.7140808	40.92395	-91.39362
229763	-23	0	7	-0.6902414	0.3251195	-30.30467	0	11.85	4003	0	0	0	0	1.805519E+08	-0.07710561	1	10	0.04	1800	-0.5012207	40.92395	-91.39362
229868	-21	0	-2	-0.6876607	0.3299315	-30.30754	0	11.85	4003	0	0	0	0	1.805521E+08	-0.08541089	1	10	0.04	1800	-0.7302856	40.92395	-91.39362
230052	-19	-3	0	-0.6845332	0.3270218	-30.31896	0	11.85	4003	0	0	0	0	1.805522E+08	-0.09722983	1	10	0.04	1800	-0.7358704	40.92395	-91.39362
230074	-19	-3	0	-0.6845332	0.3270218	-30.31896	0	11.85	4003	0	0	0	0	1.805522E+08	-0.09715193	1	10	0.04	1800	-0.7358704	40.92395	-91.39362
230184	-17	-5	-2	-0.6900048	0.331331	-30.32305	0	11.85	4004	0	0	0	0	1.805523E+08	-0.09889071	1	10	0.04	1800	-0.5068665	40.92395	-91.39362
230279	-25	-1	2	-0.6918468	0.3319473	-30.32781	0	11.85	4004	0	0	0	0	1.805523E+08	-0.09752282	1	10	0.04	1800	-0.2814026	40.92395	-91.39362
230374	-25	-4	-2	-0.6896708	0.3317634	-30.32989	0	11.85	4003	0	0	0	0	1.805524E+08	-0.09916532	1	10	0.04	1800	-0.2814026	40.92395	-91.39362
230564	-21	1	3	-0.6973448	0.325475	-30.34161	0	11.85	4002	0	0	0	0	1.805524E+08	-0.1030675	1	10	0.04	1800	-0.4945374	40.92395	-91.39362
230600	-19	2	1	-0.696349	0.3266135	-30.34325	0	11.85	4002	0	0	0	0	1.805524E+08	-0.1050796	1	10	0.04	1800	-0.7196045	40.92395	-91.39362
230702	-27	-1	5	-0.6976389	0.3229188	-30.34973	0	11.85	4002	0	0	0	0	1.805524E+08	-0.106563	1	10	0.04	1800	-0.4924927	40.92395	-91.39362
230867	-22	0	8	-0.6946065	0.3320732	-30.3576	0	11.85	4004	0	0	0	0	1.805524E+08	-0.1105461	1	10	0.04	1800	-0.2796631	40.92395	-91.39362
230906	-21	-4	0	-0.6932932	0.3349445	-30.35967	0	11.85	4003	0	0	0	0	1.805524E+08	-0.1142976	1	10	0.04	1800	-0.502533	40.92395	-91.39362
230961	-28	5	0	-0.6949384	0.3326823	-30.36053	0	11.85	4002	0	0	0	0	1.805524E+08	-0.1186318	1	10	0.04	1800	-0.502533	40.92395	-91.39362
231068	-27	1	-3	-0.6917064	0.3286543	-30.36541	0	11.85	4003	0	0	0	0	1.805524E+08	-0.1208471	1	10	0.04	1800	-0.7301331	40.92395	-91.39362
231169	-21	3	5	-0.6933858	0.3284101	-30.37036	0	11.85	4003	0	0	0	0	1.805524E+08	-0.1186428	1	10	0.04	1800	-0.7223206	40.92395	-91.39362
231270	-18	3	3	-0.6871836	0.3257417	-30.37182	0	11.85	4003	0	0	0	0	1.805524E+08	-0.1149781	1	10	0.04	1800	-0.50177	40.92395	-91.39362
231421	-15	2	0	-0.6827599	0.3179264	-30.37658	0	11.91	4003	0	0	0	0	1.805524E+08	-0.1086071	1	10	0.04	1800	-0.2930298	40.92395	-91.39362
231474	-15	1	1	-0.680366	0.3165956	-30.37896	0	11.91	4003	0	0	0	0	1.805524E+08	-0.1049408	1	10	0.04	1800	-0.2930298	40.92395	-91.39362
231577	-19	1	0	-0.6747478	0.3128603	-30.38415	0	11.91	4003	0	0	0	0	1.805524E+08	-0.0995336	1	10	0.04	1800	-0.5268555	40.92395	-91.39362
231678	-19	2	0	-0.6677341	0.3156334	-30.38855	0	11.91	4003	0	0	0	0	1.805524E+08	-0.1006306	1	10	0.04	1800	-0.7529602	40.92396	-91.39362
231893	-21	0	2	-0.6623523	0.3171992	-30.39264	0	11.91	4003	0	0	0	0	1.805524E+08	-0.116008	1	10	0.04	1800	-0.5479126	40.92396	-91.39362
232074	-15	0	3	-0.6500965	0.3140877	-30.39746	0	11.91	4002	0	0	0	0	1.805524E+08	-0.1289807	1	10	0.04	1800	-0.5567627	40.92396	-91.39362
232166	-14	1	3	-0.6489993	0.3152599	-30.40094	0	11.91	4004	0	0	0	0	1.805524E+08	-0.1355564	1	10	0.04	1800	-0.7878723	40.92396	-91.39362
232410	-17	1	-1	-0.6372035	0.3151568	-30.40887	0	11.85	4003	0	0	0	0	1.805524E+08	-0.1550648	1	10	0.04	1800	-0.5866699	40.92396	-91.39362
232549	-15	0	2	-0.631222	0.316622	-30.41333	0	11.85	4004	0	0	0	0	1.805524E+08	-0.1646477	1	10	0.04	1800	-0.5979309	40.92396	-91.39362
232607	-10	6	1	-0.6312853	0.3127922	-30.41485	0	11.85	4004	0	0	0	0	1.805524E+08	-0.1641798	1	10	0.04	1800	-0.8109436	40.92396	-91.39362
232670	-13	0	4	-0.6309771	0.3157235	-30.41784	0	11.85	4003	0	0	0	0	1.805524E+08	-0.1623874	1	10	0.04	1800	-0.5967102	40.92396	-91.39362
232772	-13	2	5	-0.624438	0.3132101	-30.42047	0	11.85	4004	0	0	0	0	1.805524E+08	-0.1558233	1	10	0.04	1800	-0.600708	40.92396	-91.39362
232874	-14	1	5	-0.613893	0.3172434	-30.42529	0	11.85	4003	0	0	0	0	1.805524E+08	-0.156595	1	10	0.04	1800	-0.6148682	40.92396	-91.39362
233035	-19	0	-4	-0.6198471	0.3148955	-30.42975	0	11.85	4003	0	0	0	0	1.805524E+08	-0.1551135	1	10	0.04	1800	-0.6167908	40.92396	-91.39362
233091	-20	1	4	-0.6120438	0.3135309	-30.42932	0	11.85	4002	0	0	0	0	1.805524E+08	-0.1545416	1	10	0.04	1800	-0.8414612	40.92396	-91.39362
233171	-16	1	1	-0.6109645	0.3095437	-30.43054	0	11.85	4003	0	0	0	0	1.805524E+08	-0.1497296	1	10	0.04	1800	-0.8414612	40.92396	-91.39362
233267	-19	2	-1	-0.6087256	0.3102131	-30.43476	0	11.8	4004	0	0	0	0	1.805524E+08	-0.14793	1	10	0.04	1800	-0.6260071	40.92396	-91.39362
233371	-16	5	-4	-0.6035814	0.3035299	-30.43805	0	11.8	4002	0	0	0	0	1.805524E+08	-0.1427355	1	10	0.04	1800	-0.8583374	40.92396	-91.39362
233467	-21	0	0	-0.6033471	0.298341	-30.4411	0	11.8	4003	0	0	0	0	1.805524E+08	-0.1539684	1	10	0.04	1800	-0.6398315	40.92396	-91.39362
233568	-16	4	-1	-0.6008257	0.2974645	-30.44312	0	11.8	4003	0	0	0	0	1.805524E+08	-0.1570371	1	10	0.04	1800	-0.861969	40.92396	-91.39362
233715	-12	-5	3	-0.6005016	0.2994258	-30.4488	0	11.8	4003	0	0	0	0	1.805524E+08	-0.1552862	1	10	0.04	1800	-0.8666077	40.92396	-91.39362
233880	-16	-2	1	-0.5949035	0.3060508	-30.45423	0	11.8	4004	0	0	0	0	1.805524E+08	-0.1428819	1	10	0.04	1800	-0.8760681	40.92396	-91.39362
234015	-12	-2	4	-0.605812	0.3013776	-30.45948	0	11.8	4003	0	0	0	0	1.805524E+08	-0.1369823	1	10	0.04	1800	-0.6413574	40.92396	-91.39362
234090	-11	4	-2	-0.6051478	0.303061	-30.46314	0	11.8	4004	0	0	0	0	1.805524E+08	-0.1369526	1	10	0.04	1800	-0.6364746	40.92396	-91.39362
234156	-19	0	3	-0.6071327	0.3024151	-30.4654	0	11.85	4003	0	0	0	0	1.805524E+08	-0.1349544	1	10	0.04	1800	-0.855835	40.92396	-91.39362
234262	-10	0	5	-0.6083694	0.3056698	-30.46869	0	11.85	4002	0	0	0	0	1.805524E+08	-0.1299935	1	10	0.04	1800	-0.8506165	40.92396	-91.39362
234362	-13	-6	-2	-0.5948619	0.3075866	-30.47101	0	11.85	4002	0	0	0	0	1.805524E+08	-0.1194149	1	10	0.04	1800	-0.6427002	40.92396	-91.39362
234447	-13	8	0	-0.5952315	0.3050306	-30.47309	0	11.85	4003	0	0	0	0	1.805524E+08	-0.1160612	1	10	0.04	1800	-0.6526489	40.92396	-91.39362
234552	-14	4	9	-0.5900324	0.3013732	-30.47718	0	11.85	4004	0	0	0	0	1.805524E+08	-0.1096345	1	10	0.04	1800	-0.6576233	40.92396	-91.39362
234648	-11	-2	2	-0.5863109	0.299782	-30.48121	0	11.85	4004	0	0	0	0	1.805524E+08	-0.1092903	1	10	0.04	1800	-0.8853455	40.92396	-91.39362
234841	-14	2	-5	-0.5775464	0.3031207	-30.48518	0	11.85	4003	0	0	0	0	1.805524E+08	-0.1058682	1	10	0.04	1800	-0.677887	40.92396	-91.39362
234939	-14	1	2	-0.5737144	0.2993045	-30.48994	0	11.85	4004	0	0	0	0	1.805524E+08	-0.1028821	1	10	0.04	1800	-0.4614258	40.92396	-91.39362
235112	-15	0	5	-0.5695646	0.2904338	-30.49281	0	11.85	4002	0	0	0	0	1.805524E+08	-0.1004399	1	10	0.04	1800	-0.9081421	40.92396	-91.39362
235221	-14	-4	2	-0.5713239	0.2955668	-30.49696	0	11.85	4003	0	0	0	0	1.805524E+08	-0.104594	1	10	0.04	1800	-0.8994141	40.92396	-91.39362
235362	-13	0	4	-0.5663704	0.2892865	-30.49995	0	11.85	4004	0	0	0	0	1.805524E+08	-0.1019635	1	10	0.04	1800	-0.9118347	40.92396	-91.39362
235387	-13	0	4	-0.5663704	0.2892865	-30.49995	0	11.85	4004	0	0	0	0	1.805524E+08	-0.1015266	1	10	0.04	1800	-0.9118347	40.92396	-91.39362
235560	-16	0	3	-0.5698381	0.2919823	-30.50471	0	11.85	4003	0	0	0	0	1.805524E+08	-0.09354737	1	10	0.04	1800	-0.916687	40.92396	-91.39362
235632	-12	2	2	-0.5729667	0.2964032	-30.50667	0	11.85	4004	0	0	0	0	1.805524E+08	-0.09070864	1	10	0.04	1800	-0.683075	40.92396	-91.39362
235715	-13	-9	-2	-0.5734146	0.2981477	-30.50746	0	11.85	4004	0	0	0	0	1.805524E+08	-0.08924095	1	10	0.04	1800	-0.4645081	40.92396	-91.39362
235833	-15	3	4	-0.5691888	0.3015012	-30.50978	0	11.85	4002	0	0	0	0	1.805524E+08	-0.08257677	1	10	0.04	1800	-0.9133301	40.92396	-91.39362
235906	-17	1	-3	-0.5738974	0.3008887	-30.51124	0	11.85	4004	0	0	0	0	1.805524E+08	-0.08234002	1	10	0.04	1800	-0.684967	40.92396	-91.39362
235984	-16	2	0	-0.5736164	0.2967508	-30.51289	0	11.85	4003	0	0	0	0	1.805524E+08	-0.08314024	1	10	0.04	1800	-0.8996887	40.92396	-91.39362
236149	-14	4	2	-0.5722678	0.2890239	-30.51607	0	11.85	4003	0	0	0	0	1.805524E+08	-0.08118983	1	10	0.04	1800	-0.686676	40.92396	-91.39362
236263	-17	-1	8	-0.5732487	0.2914139	-30.52028	0	11.85	4002	0	0	0	0	1.805524E+08	-0.07889743	1	10	0.04	1800	-0.687561	40.92396	-91.39362
236320	-12	-2	0	-0.5755693	0.2874275	-30.52162	0	11.85	4002	0	0	0	0	1.805524E+08	-0.08202654	1	10	0.04	1800	-0.9035339	40.92396	-91.39362
236412	-12	4	4	-0.5757029	0.2907236	-30.52614	0	11.85	4003	0	0	0	0	1.805524E+08	-0.08702083	1	10	0.04	1800	-0.9056396	40.92396	-91.39362
236448	-18	2	2	-0.5763507	0.2923898	-30.52846	0	11.85	4004	0	0	0	0	1.805524E+08	-0.08684803	1	10	0.04	1800	-0.6783447	40.92396	-91.39362
236553	-14	-2	2	-0.5723252	0.2883116	-30.5331	0	11.85	4003	0	0	0	0	1.805524E+08	-0.08490027	1	10	0.04	1800	-0.6826782	40.92396	-91.39362
236686	-12	0	3	-0.5698373	0.2923672	-30.53865	0	11.85	4003	0	0	0	0	1.805524E+08	-0.07035981	1	10	0.04	1800	-0.690979	40.92396	-91.39362
236760	-14	0	4	-0.5705249	0.2945427	-30.54091	0	11.85	4003	0	0	0	0	1.805524E+08	-0.05998816	1	10	0.04	1800	-0.9104004	40.92396	-91.39362
236885	-19	-1	-3	-0.5724639	0.3004768	-30.5428	0	11.85	4003	0	0	0	0	1.805524E+08	-0.04428669	1	10	0.04	1800	-0.9046936	40.92396	-91.39362
236963	-11	2	5	-0.5732368	0.3025883	-30.54408	0	11.85	4002	0	0	0	0	1.805524E+08	-0.03323191	1	10	0.04	1800	-0.6804504	40.92396	-91.39362
237100	-8	2	0	-0.5693636	0.3058279	-30.5453	0	11.85	4003	0	0	0	0	1.805524E+08	-0.02477358	1	10	0.04	1800	-0.6789856	40.92396	-91.39362
237162	-7	2	1	-0.5657064	0.3052473	-30.5461	0	11.85	4004	0	0	0	0	1.805524E+08	-0.02653773	1	10	0.04	1800	-0.6789856	40.92396	-91.39362
237248	-17	0	4	-0.5727567	0.3017073	-30.55019	0	11.85	4003	0	0	0	0	1.805524E+08	-0.02640884	1	10	0.04	1800	-0.6891479	40.92396	-91.39362
237379	-16	4	-6	-0.5665151	0.2982363	-30.55256	0	11.85	4004	0	0	0	0	1.805524E+08	-0.0148681	1	10	0.04	1800	-0.6890564	40.92396	-91.39362
237448	-14	1	4	-0.5518672	0.3023444	-30.55787	0	11.85	4005	0	0	0	0	1.805524E+08	-0.00128133	1	10	0.04	1800	-0.7096558	40.92396	-91.39362
237485	-16	2	2	-0.5503309	0.2960845	-30.55977	0	11.85	4002	0	0	0	0	1.805524E+08	0.002584636	1	10	0.04	1800	-0.7207947	40.92396	-91.39362
237602	-15	-2	0	-0.5526207	0.2910789	-30.56331	0	11.85	4003	0	0	0	0	1.805524E+08	0.006873251	1	10	0.04	1800	-0.7136841	40.92396	-91.39362
237685	-15	3	1	-0.5529765	0.2922395	-30.56538	0	11.8	4004	0	0	0	0	1.805524E+08	0.00983864	1	10	0.04	1800	-0.9368591	40.92396	-91.39362
237772	-17	2	1	-0.5483439	0.2958522	-30.56697	0	11.8	4003	0	0	0	0	1.805524E+08	0.009144781	1	10	0.04	1800	-0.9399414	40.92396	-91.39362
237855	-8	0	-1	-0.5411598	0.2987272	-30.56892	0	11.8	4002	0	0	0	0	1.805524E+08	0.005649005	1	10	0.04	1800	-0.7255249	40.92396	-91.39362
237956	-13	0	1	-0.5380067	0.3043176	-30.57075	0	11.8	4003	0	0	0	0	1.805524E+08	-0.000573768	1	10	0.04	1800	-0.950531	40.92396	-91.39362
238093	-14	0	4	-0.5472321	0.2950051	-30.57521	0	11.8	4004	0	0	0	0	1.805524E+08	-0.008110728	1	10	0.04	1800	-0.7258911	40.92396	-91.39362
238244	-11	-3	5	-0.5540577	0.3004389	-30.57918	0	11.8	4002	0	0	0	0	1.805524E+08	-0.009171562	1	10	0.04	1800	-0.708252	40.92396	-91.39362
238424	-10	0	1	-0.5463513	0.2976153	-30.58339	0	11.8	4004	0	0	0	0	1.805524E+08	0.0006692167	1	10	0.04	1800	-0.7174988	40.92396	-91.39362
238479	-12	1	0	-0.5461037	0.3006876	-30.58595	0	11.8	4002	0	0	0	0	1.805524E+08	0.0004772236	1	10	0.04	1800	-0.7246094	40.92396	-91.39362
238510	-14	5	0	-0.5432268	0.3014771	-30.58766	0	11.85	4003	0	0	0	0	1.805524E+08	-0.0006117551	1	10	0.04	1800	-0.7268372	40.92396	-91.39362
238616	-14	0	4	-0.5435409	0.2948793	-30.5898	0	11.85	4003	0	0	0	0	1.805524E+08	0.00142924	1	10	0.04	1800	-0.7301636	40.92396	-91.39362
238717	-10	-2	-1	-0.5418204	0.2944513	-30.59016	0	11.85	4002	0	0	0	0	1.805524E+08	0.003801945	1	10	0.04	1800	-0.9567871	40.92396	-91.39362
238832	-13	-2	0	-0.5405628	0.2907072	-30.59358	0	11.85	4002	0	0	0	0	1.805524E+08	0.0137689	1	10	0.04	1800	-0.73172	40.92396	-91.39362
238921	-8	0	3	-0.5382895	0.2927237	-30.5948	0	11.85	4004	0	0	0	0	1.805524E+08	0.01502658	1	10	0.04	1800	-0.9564209	40.92396	-91.39362
239027	-11	0	4	-0.5423766	0.2979927	-30.59883	0	11.85	4003	0	0	0	0	1.805524E+08	0.0156862	1	10	0.04	1800	-0.7319031	40.92396	-91.39362
239136	-10	-1	3	-0.5373394	0.2944457	-30.60097	0	11.85	4003	0	0	0	0	1.805524E+08	0.02393547	1	10	0.04	1800	-0.9620056	40.92397	-91.39362
239216	-6	6	5	-0.5352374	0.2957976	-30.60304	0	11.85	4003	0	0	0	0	1.805524E+08	0.02642184	1	10	0.04	1800	-0.9620056	40.92397	-91.39362
239437	-16	-2	1	-0.5322725	0.2897823	-30.60713	0	11.8	4003	0	0	0	0	1.805524E+08	0.01265319	1	10	0.04	1800	-0.9736938	40.92397	-91.39362
239657	-12	-1	6	-0.5335564	0.2911815	-30.61244	0	11.8	4003	0	0	0	0	1.805524E+08	0.00725657	1	10	0.04	1800	-0.9666138	40.92397	-91.39362
239716	-9	0	1	-0.5281616	0.292349	-30.61409	0	11.8	4003	0	0	0	0	1.805524E+08	0.003239655	1	10	0.04	1800	-0.7410278	40.92397	-91.39362
239892	-9	-1	3	-0.5227158	0.2883556	-30.6191	0	11.8	4004	0	0	0	0	1.805524E+08	-0.01222618	1	10	0.04	1800	-0.9785461	40.92397	-91.39362
239952	-4	0	3	-0.5273848	0.2873472	-30.62172	0	11.8	4004	0	0	0	0	1.805524E+08	-0.02161805	1	10	0.04	1800	-0.9750671	40.92397	-91.39362
240071	-14	0	1	-0.5288761	0.2909401	-30.62282	0	11.8	4003	0	0	0	0	1.805524E+08	-0.0390096	1	10	0.04	1800	-0.7516785	40.92397	-91.39362
240171	-11	0	0	-0.5256119	0.2955726	-30.62581	0	11.8	4002	0	0	0	0	1.805524E+08	-0.05346395	1	10	0.04	1800	-0.5331421	40.92397	-91.39362
240204	-14	1	3	-0.5288512	0.2976467	-30.62789	0	11.8	4003	0	0	0	0	1.805524E+08	-0.05560771	1	10	0.04	1800	-0.5331421	40.92397	-91.39362
240300	-15	4	2	-0.5246754	0.3030617	-30.63149	0	11.85	4002	0	0	0	0	1.805524E+08	-0.06745173	1	10	0.04	1800	-0.7558289	40.92397	-91.39362
240407	-9	-1	1	-0.5220825	0.3051481	-30.63381	0	11.85	4003	0	0	0	0	1.805524E+08	-0.0714327	1	10	0.04	1800	-0.9780273	40.92397	-91.39362
240506	-15	4	1	-0.5183848	0.3031656	-30.63717	0	11.85	4002	0	0	0	0	1.805524E+08	-0.08437914	1	10	0.04	1800	-0.9926758	40.92397	-91.39362
240639	-6	0	4	-0.5248591	0.2966067	-30.64168	0	11.85	4003	0	0	0	0	1.805524E+08	-0.08979125	1	10	0.04	1800	-0.9838867	40.92397	-91.39362
240733	-6	0	-2	-0.5149223	0.2917337	-30.6418	0	11.85	4004	0	0	0	0	1.805524E+08	-0.09190955	1	10	0.04	1800	-0.9897766	40.92397	-91.39362
240801	-10	2	5	-0.5150204	0.2925506	-30.64138	0	11.85	4002	0	0	0	0	1.805524E+08	-0.09150715	1	10	0.04	1800	-0.7731018	40.92397	-91.39362
240923	-11	-3	1	-0.5151104	0.2901911	-30.64363	0	11.85	4004	0	0	0	0	1.805524E+08	-0.0968025	1	10	0.04	1800	-0.7677002	40.92397	-91.39362
241001	-9	-1	2	-0.5119997	0.2939751	-30.64693	0	11.85	4002	0	0	0	0	1.805524E+08	-0.1027223	1	10	0.04	1800	-0.7789917	40.92397	-91.39362
241192	-12	2	2	-0.508596	0.2895596	-30.64962	0	11.85	4004	0	0	0	0	1.805524E+08	-0.09836681	1	10	0.04	1800	-0.7871704	40.92397	-91.39362
241271	-10	-2	1	-0.5008873	0.288993	-30.65273	0	11.85	4004	0	0	0	0	1.805524E+08	-0.09785675	1	10	0.04	1800	-1.001282	40.92397	-91.39362
241410	-2	1	3	-0.4915004	0.2852004	-30.65774	0	11.85	4002	0	0	0	0	1.805524E+08	-0.09772031	1	10	0.04	1800	-0.8071289	40.92397	-91.39362
241541	-6	1	4	-0.4862236	0.2805504	-30.66042	0	11.85	4003	0	0	0	0	1.805524E+08	-0.09767729	1	10	0.04	1800	-0.8191833	40.92397	-91.39362
241599	-6	1	1	-0.4856304	0.2827461	-30.66103	0	11.85	4003	0	0	0	0	1.805524E+08	-0.09765505	1	10	0.04	1800	-0.8191833	40.92397	-91.39362
241727	-8	4	4	-0.4827982	0.2828985	-30.66634	0	11.85	4004	0	0	0	0	1.805524E+08	-0.09762702	1	10	0.04	1800	-1.046295	40.92397	-91.39362
241791	-1	2	0	-0.485598	0.282285	-30.66604	0	11.85	4003	0	0	0	0	1.805524E+08	-0.0976184	1	10	0.04	1800	-1.046295	40.92397	-91.39362
241893	-7	4	-3	-0.4811054	0.2890405	-30.66793	0	11.85	4003	0	0	0	0	1.805524E+08	-0.09868751	1	10	0.04	1800	-0.823761	40.92397	-91.39362
241994	-10	-1	0	-0.477807	0.2913221	-30.67007	0	11.85	4002	0	0	0	0	1.805524E+08	-0.1003367	1	10	0.04	1800	-0.8307495	40.92397	-91.39362
242178	-13	-1	0	-0.4751688	0.2979388	-30.67257	0	11.8	4004	0	0	0	0	1.805524E+08	-0.1034916	1	10	0.04	1800	-1.051544	40.92397	-91.39362
242211	-3	4	-1	-0.4772441	0.2952	-30.67281	0	11.8	4002	0	0	0	0	1.805524E+08	-0.1032739	1	10	0.04	1800	-1.051544	40.92397	-91.39362
242305	-3	2	0	-0.477385	0.2925205	-30.67361	0	11.8	4004	0	0	0	0	1.805524E+08	-0.09965058	1	10	0.04	1800	-0.8241882	40.92397	-91.39362
242460	-4	0	0	-0.4784613	0.296908	-30.67574	0	11.8	4004	0	0	0	0	1.805524E+08	-0.09351162	1	10	0.04	1800	-0.829895	40.92397	172.487
242510	-11	1	-1	-0.4754172	0.2980143	-30.67568	0	11.8	4003	0	0	0	0	1.805524E+08	-0.09429818	1	10	0.04	1800	-0.829895	40.92397	-10.2304
242680	-5	2	8	-0.4807871	0.289665	-30.67861	0	11.8	4005	0	0	0	0	1.805524E+08	-0.1036329	1	10	0.04	1800	-0.8227539	40.92397	-91.19639
242770	-4	-1	1	-0.4823616	0.2919343	-30.68221	0	11.8	4003	0	0	0	0	1.805524E+08	-0.1133391	1	10	0.04	1800	-0.8235779	40.92397	-91.37587
242811	-2	-1	0	-0.477268	0.2939873	-30.68283	0	11.8	4004	0	0	0	0	1.805524E+08	-0.1174911	1	10	0.04	1800	-0.6010742	40.92397	-91.38829
242916	-7	-2	0	-0.4700226	0.2967527	-30.68331	0	11.8	4004	0	0	0	0	1.805524E+08	-0.1193874	1	10	0.04	1800	-0.8360291	40.92397	-91.39347
243021	-4	1	3	-0.4691075	0.3037438	-30.68777	0	11.8	4004	0	0	0	0	1.805524E+08	-0.1210522	1	10	0.04	1800	-0.8405762	40.92397	-91.39362
243221	-5	6	-2	-0.4755472	0.2968785	-30.6921	0	11.85	4003	0	0	0	0	1.805524E+08	-0.1259812	1	10	0.04	1800	-1.054535	40.92397	-91.39362
243276	-1	-1	-2	-0.4745648	0.3020303	-30.69277	0	11.85	4003	0	0	0	0	1.805524E+08	-0.1301443	1	10	0.04	1800	-0.8257751	40.92397	-91.39362
243392	-18	4	-3	-0.4722708	0.3011296	-30.69418	0	11.85	4002	0	0	0	0	1.805524E+08	-0.1410287	1	10	0.04	1800	-0.84375	40.92397	-91.39362
243436	-6	1	5	-0.4726206	0.3012756	-30.69528	0	11.85	4004	0	0	0	0	1.805524E+08	-0.1422632	1	10	0.04	1800	-0.84375	40.92397	-91.39362
243517	-7	3	0	-0.47971	0.3027483	-30.69607	0	11.85	4003	0	0	0	0	1.805524E+08	-0.1496425	1	10	0.04	1800	-1.046478	40.92397	-91.39362
243655	0	0	4	-0.4796214	0.3030918	-30.69735	0	11.85	4004	0	0	0	0	1.805524E+08	-0.1649071	1	10	0.04	1800	-1.04657	40.92397	-91.39362
243714	0	-2	1	-0.4748665	0.3027144	-30.69918	0	11.85	4002	0	0	0	0	1.805524E+08	-0.1721602	1	10	0.04	1800	-1.057251	40.92397	-91.39362
243856	-6	0	-1	-0.4679051	0.2981424	-30.69979	0	11.85	4004	0	0	0	0	1.805524E+08	-0.18512	1	10	0.04	1800	-1.059509	40.92397	-91.39362
243975	-2	3	3	-0.4549249	0.3005813	-30.70291	0	11.85	4003	0	0	0	0	1.805524E+08	-0.1795709	1	10	0.04	1800	-0.8569031	40.92397	-91.39362
244016	-1	-2	2	-0.4518236	0.3037967	-30.70309	0	11.85	4004	0	0	0	0	1.805524E+08	-0.1757064	1	10	0.04	1800	-0.8650818	40.92397	-91.39362
244118	-3	0	2	-0.4567559	0.3002299	-30.7048	0	11.85	4003	0	0	0	0	1.805524E+08	-0.1680262	1	10	0.04	1800	-0.8652649	40.92397	-91.39362
244224	0	4	3	-0.4594353	0.2973272	-30.70553	0	11.85	4002	0	0	0	0	1.805524E+08	-0.1605417	1	10	0.04	1800	-0.8580933	40.92397	-91.39362
244321	0	5	0	-0.4589523	0.2959738	-30.70602	0	11.85	4002	0	0	0	0	1.805524E+08	-0.1488626	1	10	0.04	1800	-0.8574524	40.92397	-91.39362
244532	-1	-2	-1	-0.4460047	0.2887336	-30.70907	0	11.85	4003	0	0	0	0	1.805524E+08	-0.1359468	1	10	0.04	1800	-0.8711243	40.92397	-91.39362
244657	-1	0	0	-0.4435428	0.2894227	-30.70797	0	11.85	4004	0	0	0	0	1.805524E+08	-0.1195203	1	10	0.04	1800	-0.8859253	40.92397	-91.39362
244721	-2	-1	2	-0.4423211	0.2919445	-30.70895	0	11.85	4003	0	0	0	0	1.805524E+08	-0.1091539	1	10	0.04	1800	-0.8786316	40.92397	-91.39362
244817	-3	-2	2	-0.4385148	0.2955196	-30.70919	0	11.85	4003	0	0	0	0	1.805524E+08	-0.1030007	1	10	0.04	1800	-1.109863	40.92397	-91.39362
244929	-6	0	1	-0.4368975	0.2975322	-30.70956	0	11.91	4003	0	0	0	0	1.805524E+08	-0.0942104	1	10	0.04	1800	-0.8876038	40.92397	-91.39362
245039	-4	1	0	-0.4274693	0.3039961	-30.7098	0	11.91	4002	0	0	0	0	1.805524E+08	-0.07593359	1	10	0.04	1800	-0.8943176	40.92397	-91.39362
245122	-2	0	-4	-0.4224797	0.3029825	-30.71029	0	11.91	4003	0	0	0	0	1.805524E+08	-0.07110448	1	10	0.04	1800	-1.130981	40.92397	-91.39362
245231	1	2	-1	-0.4297113	0.2926856	-30.71023	0	11.91	4003	0	0	0	0	1.805524E+08	-0.05567551	1	10	0.04	1800	-0.90625	40.92397	-91.39362
245320	1	-3	-1	-0.4214152	0.2913565	-30.71066	0	11.91	4004	0	0	0	0	1.805524E+08	-0.04296271	1	10	0.04	1800	-1.124969	40.92397	-91.39362
245462	-7	2	2	-0.4122183	0.2950967	-30.71108	0	11.91	4003	0	0	0	0	1.805524E+08	-0.03000542	1	10	0.04	1800	-0.9321289	40.92397	-91.39362
245511	-4	0	-2	-0.4101028	0.2957111	-30.71084	0	11.91	4002	0	0	0	0	1.805524E+08	-0.02174339	1	10	0.04	1800	-0.9295349	40.92397	-91.39362
245604	-1	0	-3	-0.4088629	0.2956664	-30.70864	0	11.91	4003	0	0	0	0	1.805524E+08	-0.01726597	1	10	0.04	1800	-1.151917	40.92397	-91.39362
245736	-1	1	0	-0.4072321	0.2986477	-30.70815	0	11.91	4003	0	0	0	0	1.805524E+08	-0.01226253	1	10	0.04	1800	-0.9342957	40.92397	-91.39362
245816	-1	-6	2	-0.4026621	0.2936442	-30.70828	0	11.85	4002	0	0	0	0	1.805524E+08	-0.007872519	1	10	0.04	1800	-1.160004	40.92397	-91.39362
245835	-4	3	-3	-0.4051045	0.2926286	-30.70852	0	11.85	4003	0	0	0	0	1.805524E+08	-0.001994399	1	10	0.04	1800	-1.160004	40.92397	-91.39362
245903	-1	2	4	-0.4012903	0.2918988	-30.7073	0	11.85	4002	0	0	0	0	1.805524E+08	0.001180786	1	10	0.04	1800	-0.947998	40.92397	-91.39362
245982	-2	-4	-2	-0.3973682	0.2926912	-30.70657	0	11.85	4002	0	0	0	0	1.805524E+08	0.003807029	1	10	0.04	1800	-0.946228	40.92397	-91.39362
246073	-3	0	-4	-0.4000255	0.2902297	-30.70522	0	11.85	4002	0	0	0	0	1.805524E+08	-0.002173804	1	10	0.04	1800	-0.9455566	40.92397	-91.39362
246178	4	-4	-4	-0.3966976	0.2890282	-30.70394	0	11.85	4004	0	0	0	0	1.805524E+08	-0.01497124	1	10	0.04	1800	-1.175537	40.92397	-91.39362
246279	0	2	-6	-0.4055719	0.2866548	-30.70199	0	11.85	4002	0	0	0	0	1.805524E+08	-0.02789455	1	10	0.04	1800	-1.156616	40.92397	-91.39362
246415	2	0	4	-0.3982419	0.2864114	-30.70156	0	11.85	4002	0	0	0	0	1.805524E+08	-0.04525751	1	10	0.04	1800	-0.947876	40.92397	-91.39362
246513	-1	1	0	-0.395574	0.287883	-30.69766	0	11.85	4004	0	0	0	0	1.805524E+08	-0.05358796	1	10	0.04	1800	-1.169189	40.92397	-91.39362
246572	5	-2	-4	-0.3932154	0.2891393	-30.69699	0	11.85	4004	0	0	0	0	1.805524E+08	-0.05305116	1	10	0.04	1800	-1.180145	40.92397	-91.39362
246744	1	-3	-1	-0.3880144	0.2913492	-30.69515	0	11.85	4003	0	0	0	0	1.805524E+08	-0.03922421	1	10	0.04	1800	-0.7326355	-13.25922	37.54768
246895	2	-1	2	-0.3839771	0.2906041	-30.69406	0	11.85	4004	0	0	0	0	1.805524E+08	-0.02057502	1	10	0.04	1800	-0.973053	39.45015	-87.88633
247019	0	0	-6	-0.3790403	0.295753	-30.69247	0	11.85	4003	0	0	0	0	1.805524E+08	-0.01051601	1	10	0.04	1800	-1.191803	40.91203	-91.3652
247070	-5	-4	-5	-0.3751186	0.2927625	-30.6921	0	11.85	4004	0	0	0	0	1.805524E+08	-0.007769986	1	10	0.04	1800	-1.204193	40.92289	-91.39106
247171	-1	0	-2	-0.3742534	0.2890465	-30.69076	0	11.85	4002	0	0	0	0	1.805524E+08	-0.0051608	1	10	0.04	1800	-0.9839478	40.92394	-91.39355
247368	-1	4	0	-0.3704504	0.277241	-30.68807	0	11.85	4003	0	0	0	0	1.805524E+08	0.006935102	1	10	0.04	1800	-1.212524	40.92397	-91.39362
247402	-1	0	0	-0.3723979	0.2779754	-30.6874	0	11.85	4003	0	0	0	0	1.805524E+08	0.006352868	1	10	0.04	1800	-1.21405	40.92397	-91.39362
247542	1	-3	-1	-0.3731309	0.2827011	-30.68661	0	11.85	4003	0	0	0	0	1.805524E+08	-0.006469013	1	10	0.04	1800	-0.9848022	40.92397	-91.39362
247711	1	0	-5	-0.3719574	0.2770302	-30.68392	0	11.85	4003	0	0	0	0	1.805524E+08	-0.02632169	1	10	0.04	1800	-0.988678	40.92397	-91.39362
247891	4	0	-1	-0.3809106	0.2846165	-30.68014	0	11.85	4003	0	0	0	0	1.805524E+08	-0.0500664	1	10	0.04	1800	-1.196716	40.92397	-91.39362
247980	0	-4	-4	-0.382438	0.2900902	-30.67867	0	11.85	4003	0	0	0	0	1.805524E+08	-0.06425645	1	10	0.04	1800	-0.9799805	40.92397	-91.39362
248091	1	-1	-6	-0.3853733	0.2940839	-30.6755	0	11.85	4002	0	0	0	0	1.805524E+08	-0.06995731	1	10	0.04	1800	-1.184906	40.92397	-91.39362
248164	4	-3	-2	-0.3816386	0.291986	-30.67617	0	11.85	4002	0	0	0	0	1.805524E+08	-0.07526457	1	10	0.04	1800	-1.188568	40.92397	-91.39362
248299	0	-3	0	-0.3797548	0.2904799	-30.67446	0	11.85	4003	0	0	0	0	1.805524E+08	-0.07996339	1	10	0.04	1800	-0.9839783	40.92397	-91.39362
248371	-2	0	1	-0.380629	0.2885532	-30.67422	0	11.85	4003	0	0	0	0	1.805524E+08	-0.08212871	1	10	0.04	1800	-1.197754	40.92397	-91.39362
248513	-2	0	0	-0.38209	0.2840409	-30.67214	0	11.8	4002	0	0	0	0	1.805524E+08	-0.08791025	1	10	0.04	1800	-1.195801	40.92397	-91.39362
248638	-3	0	1	-0.3833525	0.2788615	-30.67318	0	11.8	4004	0	0	0	0	1.805524E+08	-0.0803022	1	10	0.04	1800	-0.9732056	40.92397	-91.39362
248696	4	-3	-1	-0.3795447	0.281128	-30.67318	0	11.8	4003	0	0	0	0	1.805524E+08	-0.07589763	1	10	0.04	1800	-0.9685669	40.92397	-91.39362
248777	0	3	1	-0.3818592	0.2797874	-30.67105	0	11.8	4002	0	0	0	0	1.805524E+08	-0.06836744	1	10	0.04	1800	-0.973053	40.92397	-91.39362
248886	4	5	0	-0.3873755	0.2790567	-30.66995	0	11.8	4004	0	0	0	0	1.805524E+08	-0.05003229	1	10	0.04	1800	-0.9764404	40.92397	-91.39362
248980	-1	0	0	-0.3874484	0.2817805	-30.66982	0	11.8	4002	0	0	0	0	1.805524E+08	-0.04134576	1	10	0.04	1800	-1.187408	40.92397	-91.39362
249081	0	-3	0	-0.3833852	0.2849925	-30.66812	0	11.8	4003	0	0	0	0	1.805524E+08	-0.03066159	1	10	0.04	1800	-1.189789	40.92397	-91.39362
249189	7	0	-2	-0.3865008	0.2879012	-30.66519	0	11.8	4004	0	0	0	0	1.805524E+08	-0.02112836	1	10	0.04	1800	-1.190704	40.92397	-91.39362
249285	7	-2	-3	-0.3917454	0.2768477	-30.66104	0	11.8	4003	0	0	0	0	1.805524E+08	-0.01778497	1	10	0.04	1800	-1.179291	40.92397	-91.39362
249399	0	-2	-3	-0.3905414	0.2813309	-30.65768	0	11.85	4002	0	0	0	0	1.805524E+08	-0.02104978	1	10	0.04	1800	-1.178162	40.92397	-91.39362
249529	1	0	-3	-0.3848389	0.2849444	-30.65463	0	11.85	4002	0	0	0	0	1.805524E+08	-0.03747522	1	10	0.04	1800	-1.191833	40.92397	-91.39362
249644	1	2	-1	-0.3875485	0.282525	-30.65322	0	11.85	4004	0	0	0	0	1.805524E+08	-0.03938737	1	10	0.04	1800	-0.9675598	40.92397	-91.39362
249676	-1	-2	3	-0.3874647	0.2838483	-30.65267	0	11.85	4004	0	0	0	0	1.805524E+08	-0.03876576	1	10	0.04	1800	-0.9675598	40.92397	-91.39362
249775	1	2	-2	-0.3929428	0.2853277	-30.65078	0	11.85	4002	0	0	0	0	1.805524E+08	-0.03866496	1	10	0.04	1800	-1.176117	40.92397	-91.39362
249912	-1	3	-2	-0.4004309	0.2837114	-30.65035	0	11.85	4002	0	0	0	0	1.805524E+08	-0.03238174	1	10	0.04	1800	-0.9500427	40.92397	-91.39362
250093	1	0	4	-0.3968307	0.2788116	-30.64541	0	11.85	4004	0	0	0	0	1.805524E+08	-0.02847199	1	10	0.04	1800	-0.9508057	40.92397	-91.39362
250192	-6	-2	-2	-0.39687	0.2782979	-30.64218	0	11.85	4004	0	0	0	0	1.805524E+08	-0.01935435	1	10	0.04	1800	-0.956604	40.92397	-91.39362
250376	0	4	-5	-0.398699	0.2759074	-30.6387	0	11.85	4003	0	0	0	0	1.805524E+08	-0.02232267	1	10	0.04	1800	-1.176819	40.92397	-91.39362
250467	0	0	-2	-0.403863	0.2760553	-30.63461	0	11.85	4004	0	0	0	0	1.805524E+08	-0.02496156	1	10	0.04	1800	-1.162689	40.92397	-91.39362
250676	-4	-4	1	-0.4111781	0.2838539	-30.62875	0	11.85	4004	0	0	0	0	1.805524E+08	-0.01138373	1	10	0.04	1800	-0.934906	40.92397	-91.39362
250707	3	-6	0	-0.4116752	0.2864946	-30.62856	0	11.85	4003	0	0	0	0	1.805524E+08	0.001049298	1	10	0.04	1800	-0.934906	40.92397	-91.39362
250771	0	3	4	-0.4129318	0.2822745	-30.6257	0	11.85	4004	0	0	0	0	1.805524E+08	0.01131883	1	10	0.04	1800	-1.146729	40.92397	-91.39362
250872	-2	0	-3	-0.414095	0.2842327	-30.62338	0	11.85	4002	0	0	0	0	1.805524E+08	0.0171505	1	10	0.04	1800	-1.144501	40.92397	-91.39362
250986	0	-3	-3	-0.4138056	0.288862	-30.62051	0	11.85	4003	0	0	0	0	1.805524E+08	0.02104916	1	10	0.04	1800	-0.92099	40.92397	-91.39362
251082	-3	2	1	-0.4190132	0.2862189	-30.61984	0	11.85	4004	0	0	0	0	1.805524E+08	0.02023503	1	10	0.04	1800	-0.91922	40.92397	-91.39362
251196	-1	-1	-7	-0.4173262	0.2850316	-30.61599	0	11.8	4004	0	0	0	0	1.805524E+08	0.01714858	1	10	0.04	1800	-0.9231262	40.92397	-91.39362
251394	-2	4	-5	-0.4206409	0.2809107	-30.61318	0	11.8	4003	0	0	0	0	1.805524E+08	0.01814681	1	10	0.04	1800	-1.139252	40.92397	-91.39362
251523	-3	-1	1	-0.4263259	0.2815422	-30.60976	0	11.8	4003	0	0	0	0	1.805524E+08	0.01647641	1	10	0.04	1800	-1.130737	40.92397	-91.39362
251570	0	0	-2	-0.4252745	0.2859111	-30.60976	0	11.8	4004	0	0	0	0	1.805524E+08	0.01919434	1	10	0.04	1800	-0.9115295	40.92397	-91.39362
251713	-4	-1	-2	-0.4295923	0.2914376	-30.60842	0	11.8	4008	0	0	0	0	1.805524E+08	0.03316632	1	10	0.04	1800	-1.116241	40.92397	-91.39362
251777	-2	-1	-1	-0.4308276	0.2954563	-30.60683	0	11.8	4003	0	0	0	0	1.805524E+08	0.04258608	1	10	0.04	1800	-1.120697	40.92397	-91.39362
251887	-7	0	1	-0.4317279	0.2960939	-30.60714	0	11.8	4002	0	0	0	0	1.805524E+08	0.05589927	1	10	0.04	1800	-0.6803589	40.92397	-91.39362
251981	-2	-7	-3	-0.4327083	0.2949999	-30.60293	0	11.8	4003	0	0	0	0	1.805524E+08	0.06110162	1	10	0.04	1800	-0.9016418	40.92397	-91.39362
252166	0	1	-1	-0.4284817	0.2999107	-30.59768	0	11.91	4003	0	0	0	0	1.805524E+08	0.05864872	1	10	0.04	1800	-0.9039307	40.92397	-91.39362
252256	2	3	3	-0.4240593	0.294689	-30.59688	0	11.91	4004	0	0	0	0	1.805524E+08	0.05615686	1	10	0.04	1800	-0.9114075	40.92397	-91.39362
252346	0	-2	0	-0.4206828	0.2953759	-30.59676	0	11.91	4003	0	0	0	0	1.805524E+08	0.0571216	1	10	0.04	1800	-0.6980896	40.92397	-91.39362
252383	0	0	0	-0.4212011	0.2933911	-30.59517	0	11.91	4003	0	0	0	0	1.805524E+08	0.05525791	1	10	0.04	1800	-0.6980896	40.92397	-91.39362
252480	-2	-1	-6	-0.4242626	0.2943248	-30.59426	0	11.91	4004	0	0	0	0	1.805524E+08	0.05167117	1	10	0.04	1800	-0.9161072	40.92397	-91.39362
252577	2	-2	-4	-0.4276662	0.2932967	-30.59176	0	11.91	4002	0	0	0	0	1.805524E+08	0.04452062	1	10	0.04	1800	-0.9017334	40.92397	-91.39362
252679	-3	0	-1	-0.4323015	0.2977936	-30.59029	0	11.91	4002	0	0	0	0	1.805524E+08	0.03744107	1	10	0.04	1800	-1.127167	40.92397	-91.39362
252785	0	-1	-8	-0.4334696	0.2978734	-30.59035	0	11.91	4004	0	0	0	0	1.805524E+08	0.02475337	1	10	0.04	1800	-0.671936	40.92397	-91.39362
252991	0	-2	-4	-0.4319375	0.2968366	-30.58492	0	11.91	4002	0	0	0	0	1.805524E+08	0.00596287	1	10	0.04	1800	-1.115479	40.92397	-91.39362
253040	0	1	0	-0.4223882	0.2981217	-30.58315	0	11.85	4003	0	0	0	0	1.805524E+08	0.001882661	1	10	0.04	1800	-1.127106	40.92397	-91.39362
253096	-3	0	-1	-0.420763	0.2990989	-30.5829	0	11.85	4004	0	0	0	0	1.805524E+08	0.0006343761	1	10	0.04	1800	-1.127106	40.92397	-91.39362
253185	-5	-3	-3	-0.4231721	0.2998681	-30.58223	0	11.85	4002	0	0	0	0	1.805524E+08	0.0007692267	1	10	0.04	1800	-0.9088745	40.92397	-91.39362
253296	-4	-2	-2	-0.4239894	0.3043874	-30.57936	0	11.85	4004	0	0	0	0	1.805524E+08	0.002843481	1	10	0.04	1800	-0.9078064	40.92397	-91.39362
253406	-1	4	1	-0.4179795	0.308738	-30.57784	0	11.85	4003	0	0	0	0	1.805524E+08	9.691571E-05	1	10	0.04	1800	-1.136719	40.92397	-91.39362
253483	-5	0	-1	-0.4204913	0.3072224	-30.57686	0	11.85	4002	0	0	0	0	1.805524E+08	-0.007680741	1	10	0.04	1800	-1.135345	40.92397	-91.39362
253594	-4	-1	0	-0.4258933	0.3081891	-30.57442	0	11.85	4004	0	0	0	0	1.805524E+08	-0.01567739	1	10	0.04	1800	-1.126434	40.92396	-91.39362
253684	-7	1	-2	-0.4278598	0.3045529	-30.57344	0	11.85	4004	0	0	0	0	1.805524E+08	-0.01552968	1	10	0.04	1800	-0.903595	40.92396	-91.39362
253821	-4	3	1	-0.4269177	0.3048413	-30.57253	0	11.85	4002	0	0	0	0	1.805524E+08	-0.0158056	1	10	0.04	1800	-0.6772156	40.92396	-91.39362
253924	-4	-1	-2	-0.4253148	0.2997975	-30.56911	0	11.85	4004	0	0	0	0	1.805524E+08	-0.02551358	1	10	0.04	1800	-0.8999939	40.92396	-91.39362
254023	-3	-4	-1	-0.4236815	0.2982169	-30.56783	0	11.85	4003	0	0	0	0	1.805524E+08	-0.03348736	1	10	0.04	1800	-1.137573	40.92396	-91.39362
254081	-5	1	4	-0.4271739	0.2989075	-30.56826	0	11.85	4002	0	0	0	0	1.805524E+08	-0.03803192	1	10	0.04	1800	-1.137573	40.92396	-91.39362
254211	-5	0	2	-0.4224252	0.2984923	-30.56569	0	11.85	4003	0	0	0	0	1.805524E+08	-0.05471922	1	10	0.04	1800	-1.129974	40.92396	-91.39362
254320	-2	2	0	-0.411625	0.2944228	-30.56472	0	11.85	4002	0	0	0	0	1.805524E+08	-0.06182397	1	10	0.04	1800	-1.145691	40.92396	-91.39362
254383	2	-3	1	-0.4108327	0.2932301	-30.56484	0	11.85	4003	0	0	0	0	1.805524E+08	-0.07079679	1	10	0.04	1800	-0.9302063	40.92396	-91.39362
254486	-1	3	-6	-0.4107348	0.2933564	-30.56227	0	11.85	4003	0	0	0	0	1.805524E+08	-0.07433324	1	10	0.04	1800	-1.15033	40.92396	-91.39362
254585	-1	-2	0	-0.4161408	0.28495	-30.5616	0	11.85	4003	0	0	0	0	1.805524E+08	-0.0781041	1	10	0.04	1800	-0.9241028	40.92396	-91.39362
254689	-2	-3	-1	-0.419503	0.2881478	-30.56215	0	11.85	4002	0	0	0	0	1.805524E+08	-0.09428352	1	10	0.04	1800	-0.6964722	40.92396	-91.39362
254793	-1	3	0	-0.4188514	0.2882935	-30.56008	0	11.85	4004	0	0	0	0	1.805524E+08	-0.09966554	1	10	0.04	1800	-0.9143372	40.92396	-91.39362
254890	-1	-5	-1	-0.4227915	0.2918267	-30.56032	0	11.91	4003	0	0	0	0	1.805524E+08	-0.1017459	1	10	0.04	1800	-1.134735	30.09309	111.2245
254999	-3	-3	-2	-0.4150323	0.2968971	-30.55898	0	11.91	4004	0	0	0	0	1.805524E+08	-0.1057899	1	10	0.04	1800	-1.138519	29.05083	130.7226
255157	-2	0	-1	-0.4107122	0.2991973	-30.5569	0	11.91	4002	0	0	0	0	1.805524E+08	-0.1090903	1	10	0.04	1800	-1.156647	40.82779	-89.59448
255318	-8	-1	-5	-0.410612	0.2949838	-30.55532	0	11.91	4003	0	0	0	0	1.805524E+08	-0.1028885	1	10	0.04	1800	-1.150177	40.92373	-91.38925
255442	0	0	-5	-0.4053124	0.2932009	-30.55324	0	11.91	4004	0	0	0	0	1.805524E+08	-0.08561242	1	10	0.04	1800	-0.9391785	40.92396	-91.39359
255479	0	-1	2	-0.4039479	0.2935523	-30.55367	0	11.91	4004	0	0	0	0	1.805524E+08	-0.08481142	1	10	0.04	1800	-1.168213	40.92396	-91.39362
255587	-1	0	1	-0.4083864	0.2892356	-30.55147	0	11.91	4003	0	0	0	0	1.805524E+08	-0.08362681	1	10	0.04	1800	-0.9317932	40.92396	-91.39362
255699	-2	-4	0	-0.410043	0.2865216	-30.54927	0	11.91	4002	0	0	0	0	1.805524E+08	-0.0901031	1	10	0.04	1800	-0.9324951	40.92396	-91.39362
255790	-2	0	0	-0.4097812	0.2868686	-30.55025	0	11.85	4003	0	0	0	0	1.805524E+08	-0.09293222	1	10	0.04	1800	-0.9311218	40.92396	-91.39362
255887	-2	0	-3	-0.4178146	0.2898074	-30.54879	0	11.85	4003	0	0	0	0	1.805524E+08	-0.08574689	1	10	0.04	1800	-1.148926	40.92396	-91.39362
255994	0	-4	-2	-0.4184258	0.2910169	-30.54714	0	11.85	4002	0	0	0	0	1.805524E+08	-0.07729882	1	10	0.04	1800	-1.143585	40.92396	-91.39362
256097	2	0	-1	-0.416205	0.2917803	-30.54427	0	11.85	4004	0	0	0	0	1.805524E+08	-0.07285383	1	10	0.04	1800	-0.9212952	40.92396	-91.39362
256249	-2	1	2	-0.4167358	0.2905099	-30.54329	0	11.85	4004	0	0	0	0	1.805524E+08	-0.07437945	1	10	0.04	1800	-1.131836	40.92396	-91.39362
256406	2	-1	0	-0.4191718	0.2973728	-30.5428	0	11.85	4003	0	0	0	0	1.805524E+08	-0.06294487	1	10	0.04	1800	-0.9159851	40.92396	-91.39362
256557	-4	-3	1	-0.4170116	0.2991604	-30.53707	0	11.85	4003	0	0	0	0	1.805524E+08	-0.04390771	1	10	0.04	1800	-1.144562	40.92396	-91.39362
256622	0	0	0	-0.4190732	0.2986106	-30.5356	0	11.85	4004	0	0	0	0	1.805524E+08	-0.03614258	1	10	0.04	1800	-1.136963	40.92396	-91.39362
256694	-4	0	-1	-0.4212451	0.2999083	-30.5356	0	11.85	4002	0	0	0	0	1.805524E+08	-0.03205442	1	10	0.04	1800	-1.140656	40.92396	-91.39362
256799	-3	0	-5	-0.4256622	0.2983483	-30.53511	0	11.85	4002	0	0	0	0	1.805524E+08	-0.0237408	1	10	0.04	1800	-0.9129944	40.92396	-91.39362
256913	-7	-1	0	-0.42655	0.297268	-30.53072	0	11.85	4003	0	0	0	0	1.805524E+08	-0.0188034	1	10	0.04	1800	-1.131592	40.92396	-91.39362
256994	3	0	1	-0.4225168	0.2979793	-30.52901	0	11.85	4004	0	0	0	0	1.805524E+08	-0.0217405	1	10	0.04	1800	-0.6877441	40.92396	-91.39362
257132	0	0	1	-0.4284082	0.293213	-30.52602	0	11.85	4002	0	0	0	0	1.805524E+08	-0.02393583	1	10	0.04	1800	-0.9155884	40.92396	-91.39362
257208	-2	-2	-7	-0.4273046	0.2924046	-30.52254	0	11.85	4004	0	0	0	0	1.805524E+08	-0.02585577	1	10	0.04	1800	-1.127716	40.92396	-91.39362
257300	6	0	0	-0.4231707	0.29233	-30.52254	0	11.85	4002	0	0	0	0	1.805524E+08	-0.03806632	1	10	0.04	1800	-0.9114685	40.92396	-91.39362
257398	1	0	1	-0.4274311	0.2927544	-30.52144	0	11.85	4003	0	0	0	0	1.805524E+08	-0.04957564	1	10	0.04	1800	-1.126953	40.92396	-91.39362
257542	-2	3	-2	-0.4211613	0.2954666	-30.51925	0	11.85	4004	0	0	0	0	1.805524E+08	-0.077704	1	10	0.04	1800	-1.134003	40.92396	-91.39362
257601	-3	3	-4	-0.4205198	0.2905915	-30.51723	0	11.85	4003	0	0	0	0	1.805524E+08	-0.08966317	3	10	0.04	1800	-0.9199219	40.92396	-91.39362
257699	-1	6	4	-0.421454	0.2893025	-30.51607	0	11.85	4004	0	0	0	0	1.805524E+08	-0.1003413	3	10	0.04	1800	-0.9135437	40.92396	-91.39362
