time(ms)	gyro_x(deg/s)	gyro_y(deg/s)	gyro_z(deg/s)	orientation_roll(deg)	orientation_pitch(deg)	orientation_yaw(deg)	throttle	battery(V)	loop_time(uS)	pid_output_roll	pid_output_pitch	pid_output_yaw	pid_output_throttle	ultrasonic_alt	baro_alt	flight_mode	p_gain_altitude	i_gain_altitude	d_gain_altitude	compass_heading	latitude	longitude
194807	-18	-2	5	0.6897892	0.4731784	-2.833948	0	11.85	4003	0	0	0	0	0.03978802	0.1777236	1	10	0.04	1800	-3.660553	40.92395	-91.39363
194913	-28	11	3	0.5510703	0.4612442	-2.838594	0	11.85	4003	0	0	0	0	0.03978802	0.157601	1	10	0.04	1800	-3.34726	40.92395	-91.39363
195020	-36	0	6	0.3968273	0.3823799	-2.844891	0	11.85	4004	0	0	0	0	0.03978802	0.117012	1	10	0.04	1800	-3.087189	40.92395	-91.39363
195119	-27	9	4	0.3238515	0.3583343	-2.846663	0	11.85	4004	0	0	0	0	0.03978802	0.09357572	3	10	0.04	1800	-2.971222	40.92395	-91.39363
195302	-31	-7	5	0.1468435	0.2852586	-2.857239	0	11.85	4004	0	0	0	0	0.03978802	0.04994686	3	10	0.04	1800	-2.970398	40.92395	-91.39363
195413	-36	1	3	0.07891205	0.2659678	-2.862741	0	11.85	4002	0	0	0	0	0.03978802	0.04478553	3	10	0.04	1800	-2.835449	40.92395	-91.39363
195462	-30	-7	5	0.03501607	0.2465405	-2.867815	0	11.85	4004	0	0	0	0	0.03978802	0.04377797	3	10	0.04	1800	-2.764648	40.92395	-91.39363
195578	-109	75	-26	-0.04252402	0.2153755	-2.872218	0	11.85	4003	0	0	0	0	0.03978802	0.03918128	3	10	0.04	1800	-2.668396	40.92395	-91.39363
195624	-35	56	67	-0.08627275	0.2407681	-2.901201	0	11.8	4004	-4	1	3	0	0.03978802	0.03855767	3	10	0.04	1800	-2.668396	40.92395	-91.39363
195743	61	-27	-180	-0.1741593	0.2345099	-2.874	0	11.8	4002	9	-4	2	0	0.03978802	0.03477219	3	10	0.04	1800	-2.458466	40.92395	-91.39363
195852	-111	-67	-106	-0.2062468	0.2129472	-2.892885	0	11.8	4003	0	-8	2	0	0.03978802	0.03379866	3	10	0.04	1800	-2.319885	40.92395	-91.39363
195959	-72	18	-71	-0.2245872	0.211056	-2.904558	0	11.8	4003	0	0	0	0	0.03978802	0.03215733	3	10	0.04	1800	-2.553894	40.92395	-91.39363
196046	6	-6	56	-0.2605129	0.2070666	-2.913731	0	11.8	4002	0	0	0	0	0.03978802	0.02801858	3	10	0.04	1800	-2.296844	40.92395	-91.39363
196129	-32	-23	55	-0.2959676	0.1874862	-2.916244	0	11.8	4003	0	0	0	0	0.03978802	0.03056075	3	10	0.04	1800	-2.247437	40.92394	-91.39363
196245	-132	62	126	-0.272096	0.1660739	-2.934037	0	11.8	4002	-1	5	-1	0	0.03978802	0.03597036	3	10	0.04	1800	-1.366089	40.92394	-91.39363
196429	66	121	-228	-0.2016885	0.1063138	-2.940256	0	11.8	4004	-19	12	0	0	0.03978802	0.04654931	3	10	0.04	1800	-2.311951	40.92394	-91.39363
196489	48	-65	-27	-0.1866853	0.1034306	-2.96936	0	11.8	4002	1	0	0	0	0.03978802	0.05021963	3	10	0.04	1800	-2.311951	40.92394	-91.39363
196582	45	31	-49	-0.1807669	0.06553237	-2.992591	0	11.8	4003	0	0	0	0	0.03978802	0.05452631	3	10	0.04	1800	-2.406891	40.92394	-91.39363
196672	-54	-15	94	-0.2157284	0.07752421	-3.021995	0	11.8	4002	0	0	0	0	0.03978802	0.05575433	3	10	0.04	1800	-2.745239	40.92394	-91.39363
196735	-93	-48	0	-0.2290734	0.08085417	-3.01894	0	11.8	4003	0	7	0	0	0.03978802	0.05583183	3	10	0.04	1800	-2.54895	40.92394	-91.39363
196845	-26	26	46	-0.198277	0.07043813	-3.057199	0	11.8	4003	25	1	0	0	0.03978802	0.06037291	3	10	0.04	1800	-2.1698	40.92394	-91.39363
196981	-74	-37	73	-0.2186218	-0.009594285	-3.113065	0	11.8	4004	34	-29	4	0	0.03978802	0.06235031	3	10	0.04	1800	-1.978455	40.92394	-91.39363
197042	-76	-10	-325	-0.2548224	0.03621472	-3.085369	0	11.8	4004	0	0	0	0	0.03978802	0.0652242	3	10	0.04	1800	-1.978455	40.92394	-91.39363
197149	-30	-55	-38	-0.3094009	-0.0175707	-3.138996	0	11.8	4003	-2	0	-4	0	0.03978802	0.06915244	3	10	0.04	1800	-1.340332	40.92394	-91.39363
197254	41	221	-336	-0.1689976	-0.1390018	-3.185145	0	11.8	4003	23	37	-7	0	0.03978802	0.07236356	3	10	0.04	1800	-1.610657	40.92394	-91.39363
197358	-203	26	-256	-0.3231959	-0.05321546	-3.18525	0	11.8	4003	0	0	0	0	0.03978802	0.07293811	3	10	0.04	1800	-2.323639	40.92394	-91.39363
197456	45	53	7	-0.2713964	-0.08135414	-3.21252	0	11.8	4002	-2	-2	-10	0	0.03978802	0.0735957	3	10	0.04	1800	-1.523285	40.92394	-91.39363
197645	-210	-340	537	-0.2365687	-0.4986694	-3.790904	0	11.06	4002	0	0	0	0	0.03978802	0.06696358	3	10	0.04	1800	-1.874237	40.92394	-91.39363
197778	-107	7	20	-0.3267967	-0.1363332	-3.72866	0	11.06	4002	0	0	0	0	0.03978802	0.06003834	3	10	0.04	1800	-1.606812	40.92394	-91.39363
197866	-87	-33	-69	-0.2804776	-0.09032395	-3.715936	0	11.06	4003	0	0	0	0	0.03978802	0.05609271	3	10	0.04	1800	-1.734161	40.92394	-91.39363
197945	36	33	-136	-0.3491617	-0.04933969	-3.709881	0	11.06	4003	0	0	0	0	0.03978802	0.06026392	3	10	0.04	1800	-1.22995	40.92394	-91.39363
198169	-45	-8	-54	-0.3540105	-0.01186517	-3.72767	0	11.06	4003	0	0	0	0	0.03978802	0.03775386	3	10	0.04	1800	-1.720001	40.92394	-91.39363
198260	-46	-34	-100	-0.3638182	-0.002749732	-3.72706	0	11.06	4003	0	0	0	0	0.03978802	0.02434675	3	10	0.04	1800	-1.462891	40.92394	-91.39363
198367	-48	-7	11	-0.3784092	0.02709258	-3.741183	0	11.06	4003	0	0	0	0	0.03978802	0.008560013	3	10	0.04	1800	-1.221252	40.92394	-91.39363
198466	-25	5	20	-0.3880474	0.0256589	-3.74418	0	11.8	4004	0	0	0	0	0.03978802	-0.002784118	3	10	0.04	1800	-1.20639	40.92394	-91.39363
198578	-29	11	29	-0.3914123	0.03417679	-3.747357	0	11.8	4002	0	0	0	0	0.03978802	-0.01460762	3	10	0.04	1800	-1.214447	40.92394	-91.39363
198707	-14	-3	-14	-0.3884982	0.0571735	-3.746012	0	11.8	4002	0	0	0	0	0.03978802	-0.03250898	3	10	0.04	1800	-1.431976	40.92394	-91.39363
198775	-38	11	3	-0.3950813	0.0685765	-3.748949	0	11.8	4002	0	0	0	0	0.03978802	-0.03586874	3	10	0.04	1800	-1.431976	40.92393	-91.39363
198880	-27	108	-19	-0.5570918	0.08016625	-3.833074	0	11.8	4004	0	0	0	0	0.03978802	-0.03701114	3	10	0.04	1800	-1.395691	40.92393	-91.39363
199057	-506	106	230	-0.03521616	-0.3421474	-3.832958	0	11.8	4002	0	0	0	0	0.03978802	-0.02414366	3	10	0.04	1800	-0.5879517	40.92393	-91.39363
199108	-662	-2651	2514	-1.440694	2.107616	-6.339349	0	11.8	4002	0	0	0	0	0.03978802	-0.01916887	3	10	0.04	1800	-1.418518	40.92393	-91.39363
199185	1175	-2738	155	-1.78945	5.218491	-7.673683	0	11.8	4003	0	0	0	0	0.03978802	0.003091985	3	10	0.04	1800	0.3651337	40.92393	-91.39363
199280	8278	-5335	-749	4.554838	9.521673	-7.197275	0	11.8	4002	0	0	0	0	0.03978802	0.03008355	3	10	0.04	1800	0.6438697	40.92394	-91.39364
199386	11733	-3397	1393	29.60579	21.72139	-6.559664	0	11.85	4004	0	0	0	0	0.03978802	0.07699548	3	10	0.04	1800	-0.6162109	40.92394	-91.39364
199481	8275	-4052	2221	39.44757	27.22238	-8.705539	0	11.85	4003	0	0	0	0	0.03978802	0.1080377	3	10	0.04	1800	-4.463593	40.92394	-91.39364
199620	50	-3518	4607	38.54693	40.77204	-16.22167	0	11.85	4003	0	0	0	0	0.03978802	0.1837389	3	10	0.04	1800	16.66228	40.92394	-91.39364
199693	-2397	-3891	3342	32.68957	48.75176	-21.10195	0	11.85	4002	0	0	0	0	0.03978802	0.217966	3	10	0.04	1800	16.66228	40.92393	-91.39364
199811	-2231	-5132	6444	18.19119	62.57111	-30.75382	0	11.85	4003	0	0	0	0	0.03978802	0.2741299	3	10	0.04	1800	31.08865	40.92393	-91.39364
199879	-2764	-5032	6962	7.408437	69.66052	-38.34879	0	11.85	4002	0	0	0	0	0.03978802	0.3000165	3	10	0.04	1800	38.85316	40.92393	-91.39364
199983	-990	-2050	2701	-9.511675	76.67624	-49.21118	0	11.85	4004	0	0	0	0	0.03978802	0.3469954	3	10	0.04	1800	49.7128	40.92393	-91.39364
200114	-335	-3483	2562	-13.63997	81.75299	-53.23165	0	11.85	4002	0	0	0	0	0.03978802	0.4284258	3	10	0.04	1800	45.999	40.92394	-91.39364
200191	-1555	-2287	4150	-18.98702	82.95399	-56.7145	0	11.85	4004	0	0	0	0	0.03978802	0.4583529	3	10	0.04	1800	45.30431	40.92394	-91.39364
200293	-3361	246	3981	-38.87006	76.31824	-67.48145	0	11.85	4003	0	0	0	0	0.03978802	0.4829612	3	10	0.04	1800	47.1451	40.92394	-91.39364
200420	-60	322	313	-42.47799	71.49827	-70.56232	0	11.85	4003	0	0	0	0	0.03978802	0.5261055	3	10	0.04	1800	69.44643	40.92394	-91.39364
200496	144	344	-896	-39.9907	70.22437	-70.15826	0	11.85	4003	0	0	0	0	0.03978802	0.5443979	3	10	0.04	1800	77.49572	40.92394	-91.39364
200666	-297	2399	-894	-34.41446	66.52403	-67.51448	0	11.85	4004	0	0	0	0	0.03978802	0.5728934	3	10	0.04	1800	96.49694	40.92394	-91.39364
200773	1697	7437	-4201	-30.21519	58.96043	-63.76812	0	11.85	4004	0	0	0	0	0.03978802	0.583842	3	10	0.04	1800	121.9154	40.92394	-91.39364
200828	-529	12250	-10189	-16.72025	43.43347	-51.39169	0	11.85	4004	0	0	0	0	0.03978802	0.5892775	3	10	0.04	1800	113.6156	40.92394	-91.39365
201017	-6119	11243	-6804	-7.55049	22.23685	-31.0441	0	11.85	4003	0	0	0	0	0.03978802	0.593301	3	10	0.04	1800	70.60606	40.92394	-91.39365
201113	-2080	9129	-4595	-10.16732	4.455863	-20.40718	0	11.85	4002	0	0	0	0	0.03978802	0.5775017	3	10	0.04	1800	30.70759	40.92394	-91.39365
201238	1017	6403	-3217	-6.142128	-5.875224	-13.91136	0	11.8	4004	0	0	0	0	0.03978802	0.5626251	3	10	0.04	1800	14.06427	40.92394	-91.39365
201335	2234	3141	-2255	-1.182096	-11.0133	-9.703598	0	11.8	4004	0	0	0	0	0.03978802	0.5463418	3	10	0.04	1800	-0.7762756	40.92394	-91.39365
201420	1648	808	-1562	3.083548	-12.43636	-6.66082	0	11.8	4002	0	0	0	0	0.03978802	0.5072536	3	10	0.04	1800	-3.703247	40.92394	-91.39365
201523	1007	-1594	-1904	4.974308	-9.852316	-3.759187	0	11.8	4004	0	0	0	0	0.03978802	0.485341	3	10	0.04	1800	-6.924774	40.92394	-91.39365
201641	1816	-3148	-2368	8.732219	-3.443024	1.301079	0	11.8	4002	0	0	0	0	0.03978802	0.4539877	3	10	0.04	1800	-9.331543	40.92394	-91.39365
201722	2027	-3553	-1797	11.48876	0.3816218	3.622466	0	11.8	4002	-90	-87	-98	0	0.03978802	0.4389398	3	10	0.04	1800	-12.25473	40.92394	-91.39365
201861	2404	-3589	-864	15.94531	5.618412	5.877809	0	11.8	4004	-134	-122	-138	0	0.03978802	0.3917262	3	10	0.04	1800	-18.22598	40.92394	-91.39365
201923	1271	-2080	2946	20.29593	10.10814	5.750301	0	11.8	4002	-145	-124	-139	0	0.03978802	0.3759024	3	10	0.04	1800	-21.38892	40.92394	-91.39365
202045	-1145	595	3210	15.08906	9.673307	-0.3375372	0	11.8	4004	-24	-49	69	0	0.03978802	0.3617716	3	10	0.04	1800	-20.10196	40.92394	-91.39365
202132	-2501	1973	-2090	11.90357	6.944784	-0.635438	0	11.8	4003	0	0	0	0	0.03978802	0.3545457	3	10	0.04	1800	-18.09299	40.92394	-91.39365
202263	-2733	-253	258	8.704906	4.484653	0.9812875	0	11.8	4004	0	0	0	0	0.03978802	0.3495795	3	10	0.04	1800	-21.54678	40.92394	-91.39365
202364	-1564	511	642	5.263625	4.257435	-0.4820828	0	11.8	4003	0	0	0	0	0.03978802	0.3476389	3	10	0.04	1800	-21.37173	40.92394	-91.39365
202434	-824	170	6	4.600662	3.996226	-0.8010299	0	11.8	4004	0	0	0	0	0.03978802	0.3469556	3	10	0.04	1800	-22.23502	40.92394	-91.39365
202545	409	-411	-144	5.48538	3.321523	-0.4153978	0	11.8	4003	0	0	0	0	0.03978802	0.344016	3	10	0.04	1800	-23.5	40.92394	-91.39364
202635	-31	262	-172	5.566003	3.160143	-0.233704	0	11.8	4002	0	0	0	0	0.03978802	0.3416665	3	10	0.04	1800	-24.29321	40.92394	-91.39364
202736	-68	535	214	5.293699	1.927771	-0.3699052	0	11.8	4004	0	0	0	0	0.03978802	0.3314683	3	10	0.04	1800	-23.40271	40.92395	-91.39364
202837	-54	363	471	5.457236	1.54396	-0.8010039	0	11.8	4002	0	0	0	0	0.03978802	0.3277417	3	10	0.04	1800	-24.0889	40.92395	-91.39364
202942	-407	56	189	5.191871	1.414201	-1.506058	0	11.8	4003	0	0	0	0	0.03978802	0.3247691	3	10	0.04	1800	-23.56442	40.92395	-91.39364
203045	728	-241	-1252	6.034347	1.971455	-0.6264205	0	11.8	4003	0	0	0	0	0.03978802	0.3033668	1	10	0.04	1800	-22.89944	40.92395	-91.39364
203151	932	-199	-1308	7.32834	2.677751	0.9027428	0	11.8	4004	0	0	0	0	0.03978802	0.2901959	1	10	0.04	1800	-23.28342	40.92395	-91.39364
203251	3223	-1738	-481	12.3006	5.521358	2.737387	0	11.8	4004	0	0	0	0	0.03978802	0.2801445	1	10	0.04	1800	-26.6525	40.92395	-91.39364
203352	8573	-1382	-641	19.47118	7.121708	3.359367	0	11.8	4003	0	0	0	0	0.03978802	0.2666008	1	10	0.04	1800	-28.0191	40.92395	-91.39364
203470	16199	212	1341	41.80971	8.48921	3.47214	0	11.8	4003	0	0	0	0	0.03978802	0.2537812	1	10	0.04	1800	-33.32651	40.92395	-91.39364
203556	11863	1120	2067	76.19071	9.190083	-0.9945742	0	11.8	4004	0	0	0	0	0.03978802	0.2490272	1	10	0.04	1800	-30.4808	40.92395	-91.39364
203667	4280	2710	1669	89.19817	10.45886	-4.605248	0	11.8	4004	0	0	0	0	0.03978802	0.2484107	1	10	0.04	1800	-32.62943	40.92395	-91.39364
203770	-5414	5239	-230	87.16678	3.59208	-5.148144	0	11.8	4009	0	0	0	0	0.03978802	0.2552365	1	10	0.04	1800	-32.67715	40.92395	-91.39364
203853	77	286	2110	82.54704	4.238525	-6.945133	0	11.8	4003	0	0	0	0	0.03978802	0.2609503	1	10	0.04	1800	-29.84299	40.92395	-91.39364
203983	-2902	2615	3454	73.57777	18.13842	-15.64107	0	11.8	4003	0	0	0	0	0.03978802	0.2710524	1	10	0.04	1800	-15.95511	40.92395	-91.39364
204190	1456	-2783	7482	58.44857	43.09642	-36.2776	0	11.85	4003	0	0	0	0	0.03978802	0.3005942	1	10	0.04	1800	2.137909	40.92395	-91.39364
204346	1075	707	2449	49.68301	54.95212	-47.35354	0	11.85	4003	0	0	0	0	0.03978802	0.3096508	1	10	0.04	1800	32.1299	40.92395	40.43697
204382	858	709	1940	48.49486	55.53176	-48.52938	0	11.85	4004	0	0	0	0	0.03978802	0.3118641	1	10	0.04	1800	38.56268	40.92395	49.56371
204472	558	-1252	2523	42.35738	60.09513	-53.05483	0	11.85	4004	0	0	0	0	0.03978802	0.3182347	1	10	0.04	1800	48.91014	40.92395	-47.96468
204551	784	-920	1628	39.42511	62.97307	-55.42721	0	11.85	4002	0	0	0	0	0.03978802	0.3185615	1	10	0.04	1800	53.97202	40.92395	-87.48503
204659	193	210	1140	36.26214	65.30407	-57.92049	0	11.85	4002	0	0	0	0	0.03978802	0.3164665	1	10	0.04	1800	57.22286	40.92395	-91.28811
204756	-491	249	1110	34.03221	66.21365	-58.82701	0	11.85	4003	0	0	0	0	0.03978802	0.3055449	1	10	0.04	1800	60.39272	40.92395	-91.39278
204860	-966	427	1078	27.69603	68.05505	-61.89857	0	11.85	4003	0	0	0	0	0.03978802	0.3016922	1	10	0.04	1800	65.99337	40.92395	-91.39356
205046	-139	1085	-118	29.64572	66.43293	-59.63895	0	11.8	4003	0	0	0	0	0.03978802	0.2939024	1	10	0.04	1800	66.46214	40.92395	-91.39364
205101	-79	1018	-471	29.50192	65.74332	-59.46673	0	11.8	4003	0	0	0	0	0.03978802	0.2921667	1	10	0.04	1800	66.46214	40.92395	-91.39364
205185	-675	-178	-869	30.01188	64.98216	-58.16629	0	11.8	4003	0	0	0	0	0.03978802	0.293801	1	10	0.04	1800	66.94097	40.92395	-91.39363
205247	-46	-61	-457	29.93101	64.50986	-57.46079	0	11.8	4002	0	0	0	0	0.03978802	0.2986386	1	10	0.04	1800	66.41602	40.92395	-91.39363
205393	74	36	-999	30.54084	64.34555	-56.4562	0	11.8	4003	0	0	0	0	0.03978802	0.3000768	1	10	0.04	1800	66.36036	40.92395	-91.39363
205558	-140	398	-1271	34.74896	59.71165	-52.09427	0	11.8	4002	0	0	0	0	0.03978802	0.3094581	1	10	0.04	1800	64.15987	40.92395	-91.39363
205687	-117	-1262	2280	32.09809	61.18296	-53.62379	0	11.8	4004	0	0	0	0	0.03978802	0.3223331	1	10	0.04	1800	64.83092	40.92395	-91.39363
205723	612	-1994	2962	30.5683	62.80637	-55.06129	0	11.8	4004	0	0	0	0	0.03978802	0.324701	1	10	0.04	1800	67.70377	40.92395	-91.39363
205824	2027	-2426	3097	25.35239	68.63915	-60.9131	0	11.85	4003	0	0	0	0	0.03978802	0.3317008	1	10	0.04	1800	72.62156	40.92395	-91.39363
205914	656	192	990	23.22125	71.59004	-63.76141	0	11.85	4003	0	0	0	0	0.03978802	0.3393227	1	10	0.04	1800	79.18209	40.92395	-91.39363
206051	1410	-607	3527	20.092	73.27372	-68.6549	0	11.85	4004	0	0	0	0	0.03978802	0.3568045	1	10	0.04	1800	84.22787	40.92395	-91.39363
206105	831	-457	3201	17.93081	74.19347	-70.53723	0	11.85	4003	0	0	0	0	0.03978802	0.3697024	1	10	0.04	1800	84.22787	40.92394	-91.39363
206276	-392	-627	868	9.671349	78.84801	-77.24554	0	11.85	4004	0	0	0	0	0.03978802	0.3961547	1	10	0.04	1800	98.07243	40.92394	-91.39363
206314	-1071	-1252	550	7.63587	79.68334	-77.88466	0	11.85	4004	0	0	0	0	0.03978802	0.4000775	1	10	0.04	1800	100.041	40.92394	-91.39363
206451	-109	-138	-1006	7.908341	79.93985	-76.93353	0	11.85	4004	0	0	0	0	0.03978802	0.4149418	1	10	0.04	1800	100.8507	40.92395	-91.39362
206632	-1213	1220	-713	9.907475	76.69392	-74.83746	0	11.85	4003	0	0	0	0	0.03978802	0.4194021	1	10	0.04	1800	101.0278	40.92395	-91.39362
206752	622	1996	-5460	18.68877	71.62135	-66.95531	0	11.85	4002	0	0	0	0	0.03978802	0.4198271	1	10	0.04	1800	93.69833	40.92395	-91.39362
206870	-1928	693	-3707	27.80034	64.42944	-58.53519	0	11.85	4003	0	0	0	0	0.03978802	0.4161716	1	10	0.04	1800	84.42123	40.92395	-91.39362
206903	-1472	1440	-2320	28.19345	63.30656	-56.98834	0	11.85	4002	0	0	0	0	0.03978802	0.4161859	1	10	0.04	1800	84.42123	40.92395	-91.39362
206984	-130	137	-1693	30.48382	60.79594	-53.64594	0	11.85	4002	0	0	0	0	0.03978802	0.4190054	1	10	0.04	1800	77.51379	40.92395	-91.39362
207085	-505	466	-2323	32.76255	57.64109	-50.43463	0	11.85	4002	0	0	0	0	0.03978802	0.4146638	1	10	0.04	1800	76.22662	40.92395	-91.39362
207212	-272	218	-667	35.06593	55.38044	-47.97852	0	11.85	4004	0	0	0	0	0.03978802	0.4124859	1	10	0.04	1800	73.10638	40.92395	-91.39362
207372	-299	166	-1080	36.25516	53.17059	-45.92166	0	11.85	4004	0	0	0	0	0.03978802	0.4055851	1	10	0.04	1800	70.60992	40.92395	-91.39362
207438	-377	-410	530	36.35788	52.1646	-44.8664	0	11.85	4004	0	0	0	0	0.03978802	0.4037177	1	10	0.04	1800	68.59013	40.92395	-91.39362
207601	-854	-1465	2008	29.26758	59.41816	-51.37482	0	11.85	4002	0	0	0	0	0.03978802	0.3914486	1	10	0.04	1800	73.67973	40.92395	-91.39362
207692	-551	-751	2578	25.97764	61.70663	-53.87328	0	11.85	4004	0	0	0	0	0.03978802	0.3815792	1	10	0.04	1800	76.467	40.92395	-91.39362
207769	-193	-1008	3720	19.6187	65.30873	-59.30806	0	11.85	4002	0	0	0	0	0.03978802	0.3769099	1	10	0.04	1800	80.08108	40.92395	-91.39362
207950	-280	-931	2169	10.34312	70.82928	-67.16107	0	11.85	4002	0	0	0	0	0.03978802	0.3616422	1	10	0.04	1800	88.2565	40.92395	-91.39362
207993	105	-1241	1518	9.067575	71.75232	-68.22722	0	11.85	4002	0	0	0	0	0.03978802	0.3605059	1	10	0.04	1800	90.69637	40.92395	-91.39362
208070	-672	203	329	8.980106	73.20483	-68.66674	0	11.85	4003	0	0	0	0	0.03978802	0.3636977	1	10	0.04	1800	90.94033	40.92395	-91.39362
208174	-398	593	-867	9.050409	74.22594	-68.97049	0	11.85	4002	0	0	0	0	0.03978802	0.3677404	1	10	0.04	1800	89.80813	40.92395	-91.39362
208270	277	15	-2473	12.30029	73.60851	-66.55308	0	11.85	4002	0	0	0	0	0.03978802	0.3688971	1	10	0.04	1800	87.22976	40.92395	-91.39362
208420	562	489	-1482	22.65413	69.70937	-59.3489	0	11.85	4003	0	0	0	0	0.03978802	0.3778268	1	10	0.04	1800	80.37846	40.92395	-91.39362
208499	-147	-384	270	23.69144	68.75449	-58.74481	0	11.85	4004	0	0	0	0	0.03978802	0.3771282	1	10	0.04	1800	77.18147	40.92395	-91.39362
208578	-181	-1292	417	22.49429	69.5889	-59.49017	0	11.8	4003	0	0	0	0	0.03978802	0.3784661	1	10	0.04	1800	77.3616	40.92395	-91.39362
208733	-217	-984	55	24.07564	70.03658	-57.91725	0	11.8	4004	0	0	0	0	0.02349443	0.3862279	1	10	0.04	1800	77.71682	40.92395	-91.39362
208768	99	-1243	-292	24.2741	70.44617	-57.74045	0	11.8	4002	0	0	0	0	0.02114499	0.391207	1	10	0.04	1800	77.71682	40.92395	-91.39362
208872	18	-120	331	24.37731	70.15529	-57.24269	0	11.8	4004	0	0	0	0	0.02	0.3934994	1	10	0.04	1800	78.26715	40.92395	-91.39362
209018	131	-885	2044	23.59414	71.21654	-58.35022	0	11.8	4003	0	0	0	0	0.02	0.4045178	1	10	0.04	1800	81.76335	40.92395	-91.39362
209078	-281	-391	2848	18.54518	72.41674	-61.95187	0	11.8	4002	0	0	0	0	0.02	0.4062709	1	10	0.04	1800	81.76335	40.92395	-91.39362
209180	1333	-542	963	17.52366	73.32922	-63.80859	0	11.8	4003	0	0	0	0	0.02	0.4075943	1	10	0.04	1800	90.0051	40.92395	-91.39362
209351	270	1112	324	6.190873	73.9561	-74.03395	0	11.8	4004	0	0	0	0	0.02	0.4047749	1	10	0.04	1800	107.6251	40.92395	-91.39362
209373	-47	354	583	6.116796	73.81787	-74.22742	0	11.8	4002	0	0	0	0	0.02	0.4021167	1	10	0.04	1800	107.6251	40.92395	-91.39362
209500	-180	-54	2805	1.843462	74.45946	-77.38947	0	11.85	4003	0	0	0	0	0.02	0.3876214	1	10	0.04	1800	110.7877	40.92395	-91.39362
209677	-48	164	1353	-7.03135	75.07459	-84.24511	0	11.85	4004	0	0	0	0	0.02	0.3706473	1	10	0.04	1800	122.104	40.92395	-91.39363
209739	1076	-52	168	-7.012897	74.77784	-84.9139	0	11.85	4003	0	0	0	0	0.02	0.3684453	1	10	0.04	1800	125.6336	40.92395	-91.39363
209875	1077	-119	857	-4.158981	74.40593	-85.31667	0	11.85	4002	0	0	0	0	0.02	0.36515	1	10	0.04	1800	127.3722	40.92395	-91.39363
210019	980	-913	3553	-10.0358	75.23438	-91.7522	0	11.85	4002	0	0	0	0	0.02	0.3476851	1	10	0.04	1800	143.4294	40.92395	-91.39363
210056	798	-1169	4525	-12.36089	75.14391	-94.00651	0	11.85	4004	0	0	0	0	0.02	0.3391386	1	10	0.04	1800	143.4294	40.92395	36.55157
210158	-428	-3281	7971	-25.03343	73.93961	-104.4134	0	11.85	4003	0	0	0	0	0.02	0.3273562	1	10	0.04	1800	184.7003	40.92395	89.90472
210336	-554	-1236	4531	-48.93862	61.73749	-125.1913	0	11.85	4004	0	0	0	0	0.02	0.3195627	1	10	0.04	1800	226.0251	40.92395	-86.4622
210391	-1349	-457	1738	-52.36461	57.87576	-128.3349	0	11.85	4003	0	0	0	0	0.02	0.3202587	1	10	0.04	1800	227.7735	40.92395	-90.9498
210455	-1130	826	511	-53.53897	54.59696	-129.5158	0	11.85	4002	0	0	0	0	0.02	0.3230325	1	10	0.04	1800	227.1322	40.92395	-91.35368
210552	-30	228	920	-53.28624	50.07878	-130.199	0	11.85	4003	0	0	0	0	0.02	0.320374	1	10	0.04	1800	222.9663	40.92395	-91.39256
210692	537	-653	2612	-54.91061	43.94358	-133.239	0	11.85	4002	0	0	0	0	0.02	0.31592	1	10	0.04	1800	220.4706	40.92395	-91.39362
210862	3384	593	2922	-53.03492	34.37274	-141.2335	0	11.85	4003	0	0	0	0	0.02	0.2947275	1	10	0.04	1800	221.4617	40.92395	-91.39364
210952	4525	1009	2704	-50.46854	29.95119	-144.3417	0	11.85	4004	0	0	0	0	0.02	0.281276	1	10	0.04	1800	221.4617	40.92395	-91.39364
211009	3102	704	2732	-48.72596	25.58644	-147.3029	0	11.85	4003	0	0	0	0	0.02	0.2791313	1	10	0.04	1800	221.4369	40.92395	-91.39365
211102	1268	-79	4625	-49.34992	17.66693	-154.9342	0	11.85	4002	0	0	0	0	0.02	0.2768543	1	10	0.04	1800	222.1148	40.92395	-91.39365
211139	817	-387	4520	-50.59813	15.2362	-157.4743	0	11.85	4002	0	0	0	0	0.02	0.276526	1	10	0.04	1800	222.7003	40.92395	-91.39365
211287	909	445	1388	-55.24063	8.428844	-165.1921	0	11.85	4003	0	0	0	0	0.02	0.2806359	1	10	0.04	1800	226.5314	40.92395	-91.39365
211367	138	1602	-9550	-57.37884	10.51105	-159.6075	0	11.85	4003	0	0	0	0	0.02	0.2871346	1	10	0.04	1800	221.2508	40.92395	-91.39365
211429	-583	900	-16200	-56.83117	16.42208	-152.3543	0	11.85	4004	0	0	0	0	0.02	0.2952395	1	10	0.04	1800	212.1078	40.92395	-91.39365
211569	-386	1397	-3203	-30.41999	53.07154	-108.5392	0	11.85	4003	0	0	0	0	0.02	0.3105238	1	10	0.04	1800	186.5943	40.92395	-91.39365
211685	-846	2165	-1234	-33.14238	50.67075	-108.909	0	11.85	4003	0	0	0	0	0.02	0.3190168	1	10	0.04	1800	181.4343	40.92395	-91.39365
211850	-322	8190	-25177	6.16255	49.64511	-60.06027	0	11.85	4004	0	0	0	0	0.02	0.3147817	1	10	0.04	1800	136.2006	40.92395	-91.39365
211938	-1	8819	-17273	33.07782	22.22551	-24.65495	0	11.85	4002	0	0	0	0	0.02	0.3172002	1	10	0.04	1800	63.55498	40.92395	-91.39365
212126	-1669	3529	-12611	34.8349	-17.57104	13.25669	0	11.85	4003	0	0	0	0	0.02	0.3289098	1	10	0.04	1800	32.9009	40.92395	-91.39365
212244	-1688	680	-6102	25.08561	-33.74613	33.09544	0	11.85	4003	0	0	0	0	0.02	0.3390636	1	10	0.04	1800	15.6686	40.92395	-91.39365
212345	-188	4718	-6316	19.73486	-40.38085	41.95654	0	11.85	4003	0	0	0	0	0.02	0.3398758	1	10	0.04	1800	9.590987	40.92395	-91.39365
212429	1045	3486	-9155	11.40658	-52.10573	55.8301	0	11.85	4002	0	0	0	0	0.02	0.3425536	1	10	0.04	1800	-2.411407	40.92395	-91.39365
212530	-731	499	-5775	0.7201954	-59.26139	68.57182	0	11.85	4002	0	0	0	0	0.02	0.3470372	1	10	0.04	1800	-14.93607	40.92395	-91.39365
212681	-408	-4149	-2185	-3.2526	-56.73562	73.24837	0	11.85	4003	0	0	0	0	0.02	0.3639283	1	10	0.04	1800	-31.60837	40.92394	-91.39365
212758	549	-4369	-3256	-8.360285	-50.39871	80.98489	0	11.85	4004	0	0	0	0	0.02	0.379756	1	10	0.04	1800	-37.08875	40.92394	-91.39365
212870	-698	-5790	-3508	-12.90482	-40.03462	85.93784	0	11.85	4002	0	0	0	0	0.02	0.3836402	1	10	0.04	1800	-44.38525	40.92394	-91.39365
212939	44	-3732	-3893	-14.07954	-37.22948	88.0149	0	11.85	4002	0	0	0	0	0.02	0.385145	1	10	0.04	1800	-44.38525	40.92394	-91.39365
213042	959	-2051	2281	-13.17172	-31.4499	89.81735	0	11.85	4004	0	0	0	0	0.02	0.3814224	1	10	0.04	1800	-53.40463	40.92394	-91.39365
213130	1118	-4085	-2331	-10.27837	-27.53029	91.01294	0	11.85	4003	0	0	0	0	0.02	0.3836051	1	10	0.04	1800	-52.29706	40.92393	-91.39365
213273	-1789	236	-4643	-4.875379	-26.3014	86.39535	0	11.85	4004	0	0	0	0	0.02	0.3835542	1	10	0.04	1800	-48.6297	40.92393	-91.39365
213330	-1461	-1932	-1841	-6.751808	-25.63515	88.43082	0	11.85	4004	0	0	0	0	0.02	0.3863792	1	10	0.04	1800	-48.6297	40.92394	-91.39365
213454	531	-798	841	-6.122119	-25.31991	88.41673	0	11.85	4004	0	0	0	0	0.02	0.4024454	1	10	0.04	1800	-53.24918	40.92394	-91.39365
213533	-36	-666	-204	-5.482806	-25.49108	87.55885	0	11.85	4003	0	0	0	0	0.02	0.4124285	1	10	0.04	1800	-53.27231	40.92393	-91.39365
213633	-1067	326	-425	-5.177261	-24.51082	87.6385	0	11.85	4004	0	0	0	0	0.02	0.4238179	1	10	0.04	1800	-54.29608	40.92393	-91.39365
213736	-7685	7476	-3783	-19.22261	-36.35905	95.75801	0	11.85	4003	0	0	0	0	0.02	0.4268374	1	10	0.04	1800	-56.49149	40.92393	-91.39365
213845	-1807	-1670	-724	-29.54783	-39.45982	98.57761	0	11.85	4004	0	0	0	0	0.02	0.436594	1	10	0.04	1800	-68.02081	40.92394	-91.39365
213951	1269	-2298	-1415	-30.20498	-35.53983	100.2583	0	11.85	4004	0	0	0	0	0.02	0.447369	1	10	0.04	1800	-73.78094	40.92394	-91.39365
214044	825	-2295	-2705	-30.29313	-31.6497	102.6215	0	11.85	4003	0	0	0	0	0.02	0.4476301	1	10	0.04	1800	-73.82538	40.92393	-91.39364
214159	3563	-858	3038	-29.64711	-26.1386	105.8807	0	11.85	4004	0	0	0	0	0.02	0.4386861	1	10	0.04	1800	-77.68155	40.92393	-91.39364
214256	14594	5187	28594	3.981737	-33.07648	77.5892	0	11.85	4004	0	0	0	0	0.02	0.4323005	1	10	0.04	1800	-70.64844	40.92394	-91.39364
214486	12083	-3750	19781	66.83244	29.6505	-11.70345	0	11.85	4002	0	0	0	0	0.02	0.4166382	1	10	0.04	1800	-1.4487	40.92394	-91.39364
214565	772	-1648	17196	53.11208	63.80635	-42.33812	0	11.85	4004	0	0	0	0	0.02	0.4140704	1	10	0.04	1800	42.50072	40.92394	-91.39364
214675	-1340	781	7750	25.12432	76.21742	-62.35139	0	11.85	4002	0	0	0	0	0.02	0.4083787	1	10	0.04	1800	62.96453	40.92394	36.55746
214784	-1228	147	2229	9.840672	78.54826	-71.37755	0	11.85	4004	0	0	0	0	0.02	0.4072481	1	10	0.04	1800	80.25456	40.92394	90.94946
214878	-1357	-141	393	6.411456	78.60344	-72.9293	0	11.85	4003	0	0	0	0	0.02	0.3980063	1	10	0.04	1800	83.00916	40.92394	-74.98276
215040	-953	-971	-3189	8.681729	78.65764	-68.74789	0	11.85	4004	0	0	0	0	0.02	0.381734	1	10	0.04	1800	80.28099	40.92394	-91.35376
215081	-1544	-49	-3069	10.58132	78.41653	-66.99936	0	11.85	4004	0	0	0	0	0.02	0.3782259	1	10	0.04	1800	75.36575	40.92394	-91.38168
215182	-574	-943	489	12.79708	77.82162	-64.37098	0	11.85	4003	0	0	0	0	0.02	0.3651181	1	10	0.04	1800	71.68961	40.92394	-91.39354
215314	146	-1357	-817	11.19444	78.98577	-65.08909	0	11.85	4003	0	0	0	0	0.02	0.3548599	1	10	0.04	1800	72.96622	40.92394	-91.39364
215425	-609	-1301	-194	13.78623	79.85767	-63.79304	0	11.85	4003	0	0	0	0	0.02	0.3511805	1	10	0.04	1800	72.10048	40.92394	-91.39363
215475	-742	-370	-13	13.63341	79.96421	-63.69736	0	11.85	4004	0	0	0	0	0.02	0.3457862	1	10	0.04	1800	72.10048	40.92394	-91.39363
215583	-427	-864	1330	12.3246	79.39655	-65.00337	0	11.85	4003	0	0	0	0	0.02	0.3418797	1	10	0.04	1800	74.34778	40.92394	-91.39363
215685	517	44	-104	9.095219	79.53999	-67.28477	0	11.85	4004	0	0	0	0	0.02	0.3426356	1	10	0.04	1800	78.30296	40.92394	-91.39363
215785	21	168	916	9.967812	79.08978	-67.33201	0	11.85	4002	0	0	0	0	0.02	0.3442632	1	10	0.04	1800	78.14008	40.92394	-91.39363
215889	-455	-455	-1513	7.098771	80.59329	-69.6186	0	11.85	4003	0	0	0	0	0.02	0.3443898	1	10	0.04	1800	81.5252	40.92394	-91.39363
215996	-498	-623	718	6.22376	81.14349	-70.25002	0	11.85	4002	0	0	0	0	0.02	0.3494533	1	10	0.04	1800	81.42491	40.92393	-91.39363
216097	666	-719	-94	7.182035	81.44176	-69.88098	0	11.85	4004	0	0	0	0	0.02	0.3530215	1	10	0.04	1800	82.3801	40.92393	-91.39363
216201	177	-652	-278	6.45693	82.09732	-71.32568	0	11.85	4003	0	0	0	0	0.02	0.3526144	1	10	0.04	1800	84.43295	40.92393	-91.39363
216298	628	-866	2304	5.643126	82.53267	-72.31396	0	11.85	4003	0	0	0	0	0.02	0.3478487	1	10	0.04	1800	84.4959	40.92393	-91.39362
216414	753	561	1	6.817883	81.30488	-71.92279	0	11.85	4002	0	0	0	0	0.02	0.341262	1	10	0.04	1800	88.00934	40.92393	-91.39362
216511	-650	978	697	6.728447	80.57831	-72.06441	0	11.85	4003	0	0	0	0	0.02	0.3204576	1	10	0.04	1800	88.52854	40.92393	-91.39362
216608	451	462	-1579	6.710348	79.55776	-71.89129	0	11.85	4004	0	0	0	0	0.02	0.316471	1	10	0.04	1800	90.12899	40.92393	-91.39362
216717	432	776	706	11.35154	77.34551	-69.36269	0	11.85	4003	0	0	0	0	0.02	0.3078471	1	10	0.04	1800	86.84104	40.92393	-91.39362
216810	-794	224	311	9.334156	77.51783	-70.73793	0	11.85	4004	0	0	0	0	0.02	0.3073126	1	10	0.04	1800	88.2108	40.92393	-91.39362
216917	-839	1395	-2149	10.41106	76.45284	-69.27029	0	11.85	4003	0	0	0	0	0.02	0.2990105	1	10	0.04	1800	87.70859	40.92393	-91.39362
217022	-1410	1652	-5026	16.73961	72.15978	-63.16582	0	11.85	4003	0	0	0	0	0.02	0.2809308	1	10	0.04	1800	83.81641	40.92393	-91.39362
217138	-265	904	-2015	23.90203	67.26799	-56.07103	0	11.85	4004	0	0	0	0	0.02	0.2753213	1	10	0.04	1800	72.62782	40.92393	-91.39362
217225	11	-696	3287	21.45676	67.88806	-58.02074	0	11.85	4004	0	0	0	0	0.02	0.275368	1	10	0.04	1800	72.14853	40.92393	-91.39362
217326	-935	-864	1489	16.06323	70.65057	-62.56351	0	11.85	4004	0	0	0	0	0.02	0.2724257	1	10	0.04	1800	76.41283	40.92393	-91.39362
217429	-730	-630	614	13.63363	72.00938	-63.76649	0	11.85	4003	0	0	0	0	0.02	0.2744064	1	10	0.04	1800	79.82419	40.92393	-91.39362
217533	151	77	-342	13.7365	72.90722	-63.76021	0	11.85	4003	0	0	0	0	0.02	0.2794209	1	10	0.04	1800	79.84538	40.92393	-91.39362
217646	-561	596	-97	14.67558	72.8699	-63.35025	0	11.85	4003	0	0	0	0	0.02	0.2800176	1	10	0.04	1800	78.15248	40.92393	-91.39362
217738	249	-29	-1139	14.67713	73.00262	-63.45266	0	11.85	4004	0	0	0	0	0.02	0.2790007	1	10	0.04	1800	78.31612	40.92393	-91.39362
217844	-603	-140	918	16.96226	72.54798	-62.59654	0	11.85	4003	0	0	0	0	0.02	0.2863199	1	10	0.04	1800	76.88704	40.92393	-91.39362
217944	742	-1037	988	14.94605	73.86896	-64.53868	0	11.85	4002	0	0	0	0	0.02	0.2910796	1	10	0.04	1800	78.60254	40.92393	-91.39362
218048	4	-549	-1077	14.49853	74.87066	-65.21355	0	11.85	4003	0	0	0	0	0.02	0.3037467	1	10	0.04	1800	79.8469	40.92393	-91.39362
218149	259	-385	49	17.92669	73.98885	-62.97835	0	11.85	4003	0	0	0	0	0.02	0.3137807	1	10	0.04	1800	77.18526	40.92393	-91.39362
218249	-541	-1368	233	14.896	76.0153	-65.21091	0	11.85	4004	0	0	0	0	0.02	0.3143141	1	10	0.04	1800	80.32296	40.92393	-91.39362
218350	692	-297	-848	15.29392	76.28687	-64.49129	0	11.85	4004	0	0	0	0	0.02	0.308463	1	10	0.04	1800	79.91324	40.92393	-91.39362
218497	-276	-726	2325	15.62391	77.24533	-64.57456	0	11.85	4003	0	0	0	0	0.02	0.3044229	1	10	0.04	1800	79.28013	40.92393	-91.39362
218650	457	-742	29	7.691272	78.23665	-70.95454	0	11.85	4002	0	0	0	0	0.02	0.2996245	1	10	0.04	1800	88.97297	40.92394	-91.39362
218734	-339	-347	166	8.81466	77.77047	-70.22358	0	11.85	4003	0	0	0	0	0.02	0.3108743	1	10	0.04	1800	89.36577	40.92394	-91.39362
218766	-261	-835	-977	8.857759	78.10095	-69.9885	0	11.85	4003	0	0	0	0	0.02	0.3117952	1	10	0.04	1800	89.36577	40.92394	-91.39362
218830	-126	-379	-1244	9.620412	78.32145	-69.3218	0	11.85	4004	0	0	0	0	0.02	0.3104025	1	10	0.04	1800	88.9891	40.92394	-91.39362
219020	1452	-872	1830	10.48073	77.49826	-70.10884	0	11.85	4004	0	0	0	0	0.02	0.3134743	1	10	0.04	1800	91.33057	40.92393	-91.39362
219088	-237	-859	1416	7.966824	78.38094	-72.49034	0	11.85	4002	0	0	0	0	0.02	0.3152166	1	10	0.04	1800	94.35617	40.92393	-91.39362
219173	18	305	-363	8.118568	78.73792	-72.26706	0	11.85	4002	0	0	0	0	0.02	0.3126394	1	10	0.04	1800	94.35617	40.92393	-91.39362
219268	-639	806	-968	9.723869	77.99733	-70.81891	0	11.85	4004	0	0	0	0	0.02	0.3075551	1	10	0.04	1800	93.84647	40.92394	-91.39362
219406	-250	1093	-2643	17.01449	74.19641	-64.41811	0	11.85	4002	0	0	0	0	0.02	0.3106925	1	10	0.04	1800	87.44005	40.92394	-91.39362
219499	-140	1413	495	17.51916	71.42061	-63.7361	0	11.85	4002	0	0	0	0	0.02	0.3196469	1	10	0.04	1800	85.47131	40.92394	-91.39362
219609	-32	880	-328	17.09587	70.74758	-63.80349	0	11.91	4003	0	0	0	0	0.02	0.3306054	1	10	0.04	1800	87.05693	40.92394	-91.39362
219778	-1151	989	-2348	20.03492	66.97382	-60.55836	0	11.91	4002	0	0	0	0	0.02	0.345759	1	10	0.04	1800	84.04321	40.92394	-91.39362
219842	-3250	585	-6973	23.01704	64.57131	-55.64352	0	11.91	4004	0	0	0	0	0.02	0.348334	1	10	0.04	1800	81.04667	40.92394	-91.39362
219889	-4371	-2574	-13898	31.68227	59.92751	-43.79916	0	11.91	4003	0	0	0	0	0.02	0.3471157	1	10	0.04	1800	68.84184	40.92394	-91.39362
219987	-2380	1557	-14827	50.90617	40.2612	-17.70255	0	11.91	4003	0	0	0	0	0.02	0.3416742	1	10	0.04	1800	48.19781	40.92394	-91.39362
220155	-2381	-307	-2292	58.77727	11.43316	4.053378	0	11.91	4002	0	0	0	0	0.02	0.3104206	1	10	0.04	1800	8.914615	40.92394	-91.39362
220189	-1854	-1195	-1355	58.55058	10.52699	5.020663	0	11.91	4004	0	0	0	0	0.02	0.305338	1	10	0.04	1800	8.914615	40.92394	-91.39362
220292	-1162	-2443	-102	58.63839	11.34031	5.759268	0	11.91	4003	0	0	0	0	0.02	0.2819357	1	10	0.04	1800	3.843378	40.92394	-91.39362
220396	404	-6312	2504	59.94127	19.34544	2.253741	0	11.91	4004	0	0	0	0	0.02	0.2681612	1	10	0.04	1800	-3.015137	40.92394	-91.39362
220502	1807	-1944	-1318	63.59747	27.09279	0.8997304	0	11.85	4003	0	0	0	0	0.02	0.2585017	1	10	0.04	1800	-4.535431	40.92394	-91.39362
220599	-586	-1615	-1797	66.88402	25.21999	4.274558	0	11.85	4002	0	0	0	0	0.02	0.2556013	1	10	0.04	1800	-6.781464	40.92395	-91.39362
220712	-4302	1915	1072	62.44887	23.99207	4.70294	0	11.85	4002	0	0	0	0	0.02	0.2454848	1	10	0.04	1800	-8.11969	40.92395	-91.39362
220820	-8652	1537	168	51.80962	20.66524	3.255572	0	11.85	4003	0	0	0	0	0.02	0.2319754	1	10	0.04	1800	-10.63391	40.92395	-91.39362
220913	-7172	2410	-1832	37.71092	12.50819	5.716487	0	11.85	4003	0	0	0	0	0.02	0.2101983	1	10	0.04	1800	-17.16431	40.92394	-91.39362
221004	-4287	2162	-2291	33.27511	8.111874	7.856424	0	11.85	4002	0	0	0	0	0.02	0.1950021	1	10	0.04	1800	-17.16431	40.92394	-91.39362
221130	415	1426	-3278	33.64269	-1.223381	16.84245	0	11.85	4002	0	0	0	0	0.02	0.1827599	1	10	0.04	1800	-27.56039	40.92394	-91.39362
221200	189	-666	-1051	34.49719	-1.766157	19.32217	0	11.85	4003	0	0	0	0	0.02	0.1728638	1	10	0.04	1800	-28.34894	40.92394	-91.39362
221342	-1705	-557	3472	35.97887	5.992215	16.3457	0	11.85	4002	0	0	0	0	0.02	0.1642459	1	10	0.04	1800	-29.8418	40.92394	-91.39362
221418	-1674	213	6096	35.2212	9.411076	10.93049	0	11.85	4004	0	0	0	0	0.02	0.1555409	1	10	0.04	1800	-29.64575	40.92394	-91.39362
221493	-2966	2238	7265	32.98898	11.95513	3.372014	0	11.85	4006	0	0	0	0	0.02	0.1430385	1	10	0.04	1800	-27.01437	40.92395	-91.39362
221622	-4001	1288	3236	19.45631	10.48658	-12.36953	0	11.85	4003	0	0	0	0	0.02	0.1266643	1	10	0.04	1800	-18.84216	40.92395	-91.39362
221727	-2985	3354	2758	14.31285	6.823281	-15.47346	0	11.85	4004	0	0	0	0	0.02	0.1154966	1	10	0.04	1800	-15.4523	40.92395	-91.39362
221802	-9481	1279	1618	8.560193	2.069082	-18.21973	0	11.85	4002	0	0	0	0	0.02	0.11233	1	10	0.04	1800	-11.75519	40.92395	-91.39363
221952	-106	-144	-579	1.000663	0.2438036	-20.17337	0	11.85	4002	0	0	0	0	0.02	0.09521478	1	10	0.04	1800	-9.783752	40.92395	-91.39363
222062	10	-282	0	0.3618135	0.103876	-20.16997	0	11.85	4003	0	0	0	0	0.02	0.09018681	1	10	0.04	1800	-8.931519	40.92395	-91.39362
222126	134	60	-15	0.4133367	0.4370415	-20.15279	0	11.85	4004	0	0	0	0	0.02	0.08833081	1	10	0.04	1800	-8.63858	40.92395	-91.39362
222187	16	151	57	0.4786015	0.4405891	-20.16049	0	11.85	4003	0	0	0	0	0.02	0.08462959	1	10	0.04	1800	-8.690308	40.92395	-91.39362
222289	-106	258	142	0.6108041	-0.08161234	-20.57902	0	11.85	4004	0	0	0	0	0.02	0.07974296	1	10	0.04	1800	-8.394623	40.92395	-91.39362
222380	-40	-43	876	0.3396436	-0.3708037	-21.16654	0	11.85	4003	0	0	0	0	0.02	0.0771118	1	10	0.04	1800	-7.588348	40.92395	-91.39362
222484	-105	-416	1545	0.1147427	-0.2197318	-22.81222	0	11.85	4003	0	0	0	0	0.02	0.06908934	1	10	0.04	1800	-6.684326	40.92395	-91.39362
222591	-78	-424	1848	0.2203186	-0.01548195	-25.80569	0	11.85	4003	0	0	0	0	0.02	0.06259439	1	10	0.04	1800	-4.560333	40.92395	-91.39362
222689	-167	-574	1081	0.2583438	0.2713224	-27.81861	0	11.85	4004	0	0	0	0	0.02	0.05813041	1	10	0.04	1800	-3.59967	40.92395	-91.39362
222793	20	52	1442	0.2261246	0.8079022	-28.91886	0	11.85	4003	0	0	0	0	0.02	0.04738419	1	10	0.04	1800	-2.834229	40.92395	-91.39362
222887	187	128	-133	-0.3587939	1.107478	-29.82561	0	11.85	4003	0	0	0	0	0.02	0.03951798	1	10	0.04	1800	-1.170807	40.92395	-91.39362
222986	-56	285	30	-0.133254	0.9576662	-29.83619	0	11.85	4004	0	0	0	0	0.02	0.03729927	1	10	0.04	1800	-1.336823	40.92395	-91.39362
223090	-151	178	41	-0.1613457	0.5242195	-29.89035	0	11.85	4003	0	0	0	0	0.02	0.03097082	1	10	0.04	1800	-0.8833618	40.92395	-91.39362
223211	-22	-28	17	-0.4215387	0.1613912	-29.89781	0	11.85	4003	0	0	0	0	0.02	0.01421745	1	10	0.04	1800	-1.168182	40.92395	-91.39362
223331	127	-141	-33	-0.5084539	0.2126791	-29.92569	0	11.85	4004	0	0	0	0	0.02	0.001731821	1	10	0.04	1800	-1.07016	40.92395	-91.39362
223411	-41	38	-5	-0.2615278	0.4722914	-29.91591	0	11.85	4003	0	0	0	0	0.02	-0.001110034	1	10	0.04	1800	-0.7791443	40.92395	-91.39362
223508	-67	-59	38	-0.617766	0.351695	-29.98046	0	11.85	4003	0	0	0	0	0.02	-0.002995179	1	10	0.04	1800	-1.356537	40.92395	-91.39362
223615	72	-58	-11	-0.6178354	0.4941339	-29.9793	0	11.85	4003	0	0	0	0	0.02	-0.005438556	1	10	0.04	1800	-0.5217896	40.92395	-91.39362
223698	-1	-51	-1	-0.5745361	0.3472858	-29.99146	0	11.85	4002	0	0	0	0	0.02	-0.01057851	1	10	0.04	1800	-0.9239502	40.92395	-91.39362
223800	-14	26	1	-0.542674	0.449573	-29.99293	0	11.85	4002	0	0	0	0	0.02	-0.008911316	1	10	0.04	1800	-0.9411926	40.92395	-91.39362
223902	-33	-26	5	-0.5744642	0.3979142	-30.00166	0	11.85	4003	0	0	0	0	0.02	-0.01195748	1	10	0.04	1800	-0.6806335	40.92395	-91.39362
223975	-21	16	1	-0.6073312	0.4264179	-30.00526	0	11.85	4002	0	0	0	0	0.02	-0.01050626	1	10	0.04	1800	-0.4190063	40.92395	-91.39362
224065	-31	-9	2	-0.6037993	0.3903265	-30.00941	0	11.85	4002	0	0	0	0	0.02	-0.01246558	1	10	0.04	1800	-0.8569946	40.92395	-91.39362
224164	-30	-1	-2	-0.6264153	0.3704784	-30.01613	0	11.85	4002	0	0	0	0	0.02	-0.02313997	1	10	0.04	1800	-0.5999451	40.92395	-91.39362
224264	-21	10	5	-0.6419258	0.3770851	-30.01912	0	11.85	4003	0	0	0	0	0.02	-0.03694691	1	10	0.04	1800	-0.8059998	40.92395	-91.39362
224365	-29	-4	4	-0.6455275	0.3641323	-30.02706	0	11.85	4003	0	0	0	0	0.02	-0.03928676	1	10	0.04	1800	-0.5829163	40.92395	-91.39362
224461	-20	-5	3	-0.650803	0.3660586	-30.03469	0	11.85	4003	0	0	0	0	0.02	-0.03487658	1	10	0.04	1800	-0.7912292	40.92395	-91.39362
224569	-30	4	0	-0.6529478	0.3651166	-30.03969	0	11.85	4003	0	0	0	0	0.02	-0.03293039	1	10	0.04	1800	-0.5610046	40.92395	-91.39362
224664	-31	3	3	-0.6686038	0.3575258	-30.04653	0	11.85	4004	0	0	0	0	0.02	-0.03582094	1	10	0.04	1800	-0.7622986	40.92395	-91.39362
224757	-27	-5	4	-0.6769859	0.3513473	-30.05105	0	11.85	4003	0	0	0	0	0.02	-0.04095703	1	10	0.04	1800	-0.752594	40.92395	-91.39362
224870	-25	0	1	-0.680753	0.3446378	-30.0566	0	11.85	4002	0	0	0	0	0.02	-0.04770059	1	10	0.04	1800	-0.7480164	40.92395	-91.39362
224948	-25	2	1	-0.6845451	0.3403555	-30.0624	0	11.85	4002	0	0	0	0	0.02	-0.05912529	1	10	0.04	1800	-0.7466431	40.92395	-91.39362
225053	-25	1	4	-0.6860113	0.3388022	-30.06612	0	11.85	4003	0	0	0	0	0.02	-0.06368279	1	10	0.04	1800	-0.5121155	40.92395	-91.39362
225154	-24	1	3	-0.6896852	0.3395424	-30.07534	0	11.85	4004	0	0	0	0	0.02	-0.06540193	1	10	0.04	1800	-0.2887878	40.92395	-91.39362
225260	-21	-1	4	-0.6954265	0.3384807	-30.08169	0	11.85	4003	0	0	0	0	0.02	-0.07088456	1	10	0.04	1800	-0.7228699	40.92395	-91.39362
225357	-23	-3	0	-0.6930313	0.3464257	-30.08377	0	11.85	4002	0	0	0	0	0.02	-0.08133245	1	10	0.04	1800	-0.7228699	40.92395	-91.39362
225455	-21	-1	2	-0.6930105	0.3456296	-30.08883	0	11.85	4002	0	0	0	0	0.02	-0.09171414	1	10	0.04	1800	-0.5027771	40.92395	-91.39362
225540	-24	0	3	-0.6923524	0.3427163	-30.09286	0	11.85	4004	0	0	0	0	0.02	-0.09476864	1	10	0.04	1800	-0.7184753	40.92395	-91.39362
225647	-26	5	3	-0.6875445	0.337393	-30.10062	0	11.85	4003	0	0	0	0	0.02	-0.09619179	1	10	0.04	1800	-0.5106812	40.92395	-91.39362
225748	-15	-6	0	-0.6865263	0.3352592	-30.10721	0	11.85	4003	0	0	0	0	1.805524E+07	-0.09648235	1	10	0.04	1800	-0.5076904	40.92395	-91.39362
225885	-17	2	6	-0.6868704	0.3311883	-30.1124	0	11.85	4003	0	0	0	0	6.209198E+07	-0.09746695	1	10	0.04	1800	-0.2878113	40.92395	-91.39362
225949	-21	0	5	-0.6934787	0.329793	-30.11697	0	11.85	4002	0	0	0	0	8.459946E+07	-0.09496548	1	10	0.04	1800	-0.7258301	40.92395	-91.39362
