time(ms)	gyro_x(deg/s)	gyro_y(deg/s)	gyro_z(deg/s)	orientation_roll(deg)	orientation_pitch(deg)	orientation_yaw(deg)	throttle	battery(V)	loop_time(uS)	pid_output_roll	pid_output_pitch	pid_output_yaw	pid_output_throttle	ultrasonic_alt	baro_alt	flight_mode	p_gain_altitude	i_gain_altitude	d_gain_altitude	compass_heading	latitude	longitude
68603	48	27	-43	-0.1708464	-0.09952899	-0.839597	0	12.08	4003	0	0	0	0	0.02	0.3937553	3	10	0.04	1800	-3.360748	40.92391	-91.3936
68717	-35	-39	-41	-0.1577694	-0.06913253	-0.8378883	0	12.08	4002	2	-3	0	0	0.02	0.3912137	3	10	0.04	1800	-3.335266	40.92391	-91.3936
68809	54	35	-22	-0.1766488	-0.07683054	-0.8476102	0	12.08	4003	-12	9	0	0	0.02	0.3869995	3	10	0.04	1800	-3.355469	40.92391	-91.3936
68920	-41	-27	-7	-0.1899627	-0.07254254	-0.8587994	0	12.08	4004	-8	10	0	0	0.02	0.3755112	3	10	0.04	1800	-3.339233	40.92391	-91.3936
69107	32	-42	69	-0.164194	-0.06796035	-0.8710796	0	12.08	4003	4	10	-6	0	0.02	0.3606119	3	10	0.04	1800	-2.964081	8.965383	40.43661
69192	-38	-17	-65	-0.1801068	-0.05166836	-0.8588486	0	11.91	4002	6	-14	-12	0	0.02	0.3573667	3	10	0.04	1800	-2.914063	6.089115	52.30133
69294	4	46	-8	-0.1311361	-0.06083651	-0.8704663	0	11.91	4003	22	3	-25	0	0.02	0.3564036	3	10	0.04	1800	-3.123505	62.19166	-123.4565
69351	-139	-85	-67	-0.1254005	-0.07333343	-0.8683342	0	11.91	4003	-1	-10	-26	0	0.02	0.3557926	3	10	0.04	1800	-2.6026	84.17261	-192.4185
69430	6	87	-45	-0.1753677	-0.07062244	-0.8618498	0	11.91	4003	13	13	-38	0	0.02	0.3549257	3	10	0.04	1800	-3.010406	86.15089	-198.6251
69522	-1	19	-36	-0.1693421	-0.06092439	-0.8741971	0	11.91	4004	20	-6	-49	0	0.02	0.3502086	3	10	0.04	1800	-2.235138	42.14504	-94.28885
69717	-47	-54	-26	-0.1614207	-0.06992891	-0.8812445	0	11.91	4002	-3	9	-62	0	0.02	0.3454637	3	10	0.04	1800	-2.531403	40.9248	-91.39571
69812	27	10	228	-0.1906114	-0.09865259	-0.8913678	0	11.91	4003	-3	-9	-71	0	0.02	0.3334148	3	10	0.04	1800	-2.707489	40.92393	-91.39366
69878	-9	7	-142	-0.1650902	-0.07369082	-0.9003635	0	11.91	4004	15	-10	-80	0	0.02	0.322302	3	10	0.04	1800	-2.749969	40.92391	-91.39361
69933	110	-34	231	-0.1399555	-0.06162214	-0.9075713	0	11.91	4004	17	8	-93	0	0.02	0.3162144	3	10	0.04	1800	-3.390381	40.92391	-91.3936
70030	-33	94	-167	-0.143068	-0.09342787	-0.9137481	0	11.91	4003	20	-4	-96	0	0.02	0.3062225	3	10	0.04	1800	-2.72934	40.92391	-91.3936
70167	-41	74	-173	-0.1481432	-0.03998727	-0.9217493	0	11.91	4003	14	0	-111	0	0.02	0.3009781	3	10	0.04	1800	-2.525055	40.92391	-91.3936
70239	14	30	1	-0.128277	0.02387999	-0.9396662	0	11.91	4004	13	11	-119	0	0.02	0.3069625	3	10	0.04	1800	-2.937561	40.92391	-91.3936
70311	-76	-36	191	-0.1991412	-0.0831439	-0.964551	0	11.91	4004	-16	7	-122	0	0.02	0.3140009	3	10	0.04	1800	-2.554901	40.92391	-91.3936
70499	-7	3	199	-0.1614495	-0.07533581	-1.086709	0	11.91	4002	6	15	-132	0	0.02	0.3258409	3	10	0.04	1800	-2.119812	40.92391	-91.3936
70555	8	60	-232	-0.1291754	-0.06373799	-1.086584	0	11.91	4004	11	-10	-133	0	0.02	0.3262676	3	10	0.04	1800	-2.119812	40.92391	-91.39359
70618	30	56	128	-0.1731323	-0.05049222	-1.126759	0	11.91	4002	8	-13	-137	0	0.02	0.3250484	3	10	0.04	1800	-2.511505	40.92391	-91.39359
70719	-34	117	34	-0.2065517	0.01840204	-1.192694	0	11.91	4002	-3	2	-140	0	0.02	0.3273975	3	10	0.04	1800	-2.530487	40.92391	-91.39359
70822	-118	116	-240	-0.1518591	-0.003559175	-1.227047	0	11.91	4003	16	0	-150	0	0.02	0.3410372	3	10	0.04	1800	-2.749878	40.92391	-91.39359
70923	-53	-74	290	-0.1474507	0.0383132	-1.36259	0	11.91	4003	-3	17	-156	0	0.02	0.3456528	3	10	0.04	1800	-2.237457	40.92391	-91.39359
71030	-9	-86	421	-0.1731782	0.04337285	-1.450765	0	11.57	4004	-3	-5	-159	0	0.02	0.3593486	3	10	0.04	1800	-2.53299	40.92391	-91.39359
71132	0	43	109	-0.2637358	0.1268174	-1.564114	0	11.57	4002	7	19	-168	0	0.02	0.3694935	3	10	0.04	1800	-2.235931	40.92391	-91.39359
71315	28	72	60	-0.2490929	0.1888806	-2.075091	0	11.57	4002	2	-2	-173	0	0.02	0.3878741	3	10	0.04	1800	-1.758362	40.92391	-91.39359
71347	24	58	195	-0.2236669	0.1009386	-2.232503	0	11.57	4004	5	-11	-172	0	0.02	0.3943502	3	10	0.04	1800	-1.901611	40.92391	-91.39359
71448	2	-68	601	-0.2021152	0.1136897	-2.749006	0	11.57	4008	-4	2	-172	0	0.02	0.4114536	3	10	0.04	1800	-1.970947	40.92391	-91.39359
71531	-134	-50	123	-0.2467993	0.1452642	-3.244583	0	11.57	4003	26	-13	-168	0	0.02	0.420203	3	10	0.04	1800	-1.09433	40.92391	-91.39359
71695	-1	39	-160	-0.2765777	0.2497136	-3.467554	0	11.57	4003	-1	11	-182	0	0.02	0.4276733	3	10	0.04	1800	-0.02944946	40.92391	-91.39359
71792	-15	1	94	-0.2889786	0.2084404	-3.621262	0	11.57	4004	14	-27	-191	0	0.02	0.4356287	3	10	0.04	1800	-0.2626038	40.92391	-91.39359
71866	-16	-42	-74	-0.2013875	0.1789266	-3.649506	0	11.57	4004	-1	10	-205	0	0.02	0.449043	3	10	0.04	1800	-0.5284424	40.92391	-91.39359
71964	-27	13	82	-0.283039	0.1485768	-3.693507	0	12.02	4002	-1	8	-212	0	0.02	0.4658409	3	10	0.04	1800	-0.553009	40.92391	-91.39359
72053	-67	-70	288	-0.2309691	0.1255396	-3.709172	0	12.02	4003	13	-1	-226	0	0.02	0.4751301	3	10	0.04	1800	-0.336792	40.92391	-91.39359
72135	20	33	267	-0.1916994	0.1011669	-3.714496	0	12.02	4004	0	0	0	0	0.02	0.4819019	3	10	0.04	1800	-0.3908691	40.92391	-91.39359
72247	-11	-75	53	-0.2102547	0.04367992	-3.71038	0	12.02	4004	0	0	0	0	0.02	0.4801749	3	10	0.04	1800	-0.4196777	40.92391	-91.39359
72421	-4	45	13	-0.3024618	0.0475728	-3.722047	0	12.02	4004	0	0	0	0	0.02	0.4514284	3	10	0.04	1800	-0.2582397	40.92391	-91.39359
72456	-19	-1	-2	-0.2941901	0.03576961	-3.723823	0	12.02	4002	0	0	0	0	0.02	0.4477326	3	10	0.04	1800	-0.2582397	40.92391	-91.39359
72566	-34	-27	11	-0.3358768	0.05722891	-3.730429	0	12.02	4003	0	0	0	0	0.02	0.4285978	3	10	0.04	1800	0.06850014	40.92391	-91.39359
72635	-45	-9	-16	-0.344624	0.04405317	-3.737093	0	12.02	4003	0	0	0	0	0.02	0.4191357	3	10	0.04	1800	-0.1562195	40.92391	-91.39359
72736	-11	7	2	-0.3606287	0.04550178	-3.747428	0	12.02	4003	0	0	0	0	0.02	0.3896933	1	10	0.04	1800	-0.3486938	40.92391	-91.39359
72865	1	14	57	-0.375743	0.02913853	-3.75415	0	12.08	4004	0	0	0	0	0.02	0.3711602	1	10	0.04	1800	0.122501	40.92391	-91.39359
72972	0	29	8	-0.3892221	0.03085804	-3.759653	0	12.08	4003	0	0	0	0	0.02	0.366439	1	10	0.04	1800	-0.2956543	40.92391	-91.39359
73098	-4	-3	9	-0.3879041	0.0136955	-3.770657	0	12.08	4003	0	0	0	0	0.02	0.3613608	1	10	0.04	1800	0.1620457	40.92391	-91.39359
73145	-34	43	19	-0.3982339	0.01338867	-3.781174	0	12.08	4004	0	0	0	0	0.02	0.3596108	1	10	0.04	1800	0.1620457	40.92391	-91.39359
73256	-37	16	23	-0.3976793	0.01263363	-3.776894	0	12.08	4002	0	0	0	0	0.02	0.3578711	1	10	0.04	1800	0.1762582	40.92391	-91.39359
73346	-23	-21	0	-0.4017474	0.01020111	-3.787898	0	12.08	4003	0	0	0	0	0.02	0.3539825	1	10	0.04	1800	0.1841858	40.92391	-91.39359
73499	-10	5	8	-0.40768	-0.001916093	-3.803488	0	12.08	4003	0	0	0	0	0.02	0.357336	1	10	0.04	1800	0.192489	40.92391	-91.39359
73575	-33	3	21	-0.4074405	-0.008212615	-3.80954	0	12.08	4003	0	0	0	0	0.02	0.3623308	1	10	0.04	1800	-0.03997803	40.92391	-91.39359
73648	-10	-1	-5	-0.4008084	-0.01249084	-3.810823	0	12.08	4002	0	0	0	0	0.02	0.3695112	1	10	0.04	1800	-0.2840576	40.92391	-91.39359
73758	-23	-2	6	-0.3957237	-0.01930481	-3.819689	0	12.14	4002	0	0	0	0	0.02	0.3824075	1	10	0.04	1800	-0.283905	40.92391	-91.39359
73857	-20	-4	4	-0.4020097	-0.02577258	-3.824213	0	12.14	4003	0	0	0	0	0.02	0.3863579	1	10	0.04	1800	-0.03817749	40.92391	-91.39359
73959	-16	0	2	-0.4029123	-0.02162712	-3.830021	0	12.14	4004	0	0	0	0	0.02	0.3996763	1	10	0.04	1800	-0.043396	40.92391	-91.39359
74071	-11	1	7	-0.4005177	-0.03281614	-3.839375	0	12.14	4002	0	0	0	0	0.02	0.4078705	1	10	0.04	1800	-0.04769897	40.92391	-91.39359
74171	-16	4	5	-0.3899714	-0.03740142	-3.847505	0	12.14	4003	0	0	0	0	0.02	0.4086884	1	10	0.04	1800	0.1787367	40.92391	-91.39359
74265	-15	-2	5	-0.3842341	-0.04090578	-3.856371	0	12.14	4004	0	0	0	0	0.02	0.4024351	1	10	0.04	1800	-0.06503296	40.92391	-91.39359
74375	-13	6	3	-0.376341	-0.03803185	-3.861873	0	12.14	4002	0	0	0	0	0.02	0.3943051	1	10	0.04	1800	-0.07244873	40.92391	-91.39359
74462	-14	0	5	-0.3709497	-0.03745481	-3.870371	0	12.14	4002	0	0	0	0	0.02	0.3874261	1	10	0.04	1800	0.1436052	40.92392	-91.39359
74559	-13	0	3	-0.3703182	-0.04116157	-3.874589	0	12.14	4003	0	0	0	0	0.02	0.3700238	1	10	0.04	1800	0.3692532	40.92392	-91.39359
74658	-17	2	5	-0.3576024	-0.04879799	-3.880764	0	12.08	4004	0	0	0	0	0.02	0.3596458	1	10	0.04	1800	0.1157176	40.92391	-91.39359
74766	-24	1	0	-0.3628107	-0.04960551	-3.884799	0	12.08	4002	0	0	0	0	0.02	0.3425882	1	10	0.04	1800	0.1207706	40.92391	-91.39359
74888	-14	-1	7	-0.3627307	-0.05390162	-3.894948	0	12.08	4003	0	0	0	0	0.02	0.3331039	1	10	0.04	1800	0.1239567	40.92391	-91.39359
74972	-16	4	0	-0.3587558	-0.05335463	-3.900083	0	12.08	4003	0	0	0	0	0.02	0.3271829	1	10	0.04	1800	0.1232345	40.92391	-91.39359
75061	-13	0	2	-0.3615929	-0.05874976	-3.904302	0	12.08	4003	0	0	0	0	0.02	0.3162233	1	10	0.04	1800	0.1185804	40.92391	-91.39359
75179	-14	-2	4	-0.3610788	-0.06761482	-3.910111	0	12.08	4003	0	0	0	0	0.02	0.3050598	1	10	0.04	1800	0.1290572	40.92391	-91.39359
75333	-17	0	7	-0.3593184	-0.06177452	-3.914634	0	12.08	4003	0	0	0	0	0.02	0.3035937	1	10	0.04	1800	0.1138455	40.92392	-91.39359
75387	-14	-4	5	-0.3570797	-0.05849693	-3.920625	0	12.08	4004	0	0	0	0	0.02	0.3051045	1	10	0.04	1800	0.1192936	40.92392	-91.39359
75465	-19	6	0	-0.3569552	-0.0615719	-3.923681	0	12.08	4002	0	0	0	0	0.02	0.3086205	1	10	0.04	1800	-0.1175232	40.92392	-91.39359
75563	-16	-2	7	-0.3570318	-0.05747718	-3.926616	0	12.08	4003	0	0	0	0	0.02	0.318118	1	10	0.04	1800	0.118544	40.92392	-91.39359
75675	-14	3	7	-0.3546752	-0.05907762	-3.93273	0	12.14	4004	0	0	0	0	0.02	0.3353774	1	10	0.04	1800	0.3447174	40.92392	-91.39359
75767	-16	2	2	-0.351201	-0.05808147	-3.93866	0	12.14	4003	0	0	0	0	0.02	0.3404228	1	10	0.04	1800	0.1054859	40.92392	-91.39359
75877	-13	-2	1	-0.3539568	-0.05753799	-3.941778	0	12.14	4003	0	0	0	0	0.02	0.3423014	1	10	0.04	1800	0.109	40.92392	-91.39359
75994	-14	6	1	-0.3514632	-0.06453691	-3.950642	0	12.14	4002	0	0	0	0	0.02	0.3470381	1	10	0.04	1800	0.110301	40.92392	-91.39359
76073	-10	0	5	-0.3554717	-0.06829465	-3.95272	0	12.14	4003	0	0	0	0	0.02	0.3464759	1	10	0.04	1800	-0.118103	40.92392	-91.39359
76213	-9	-1	5	-0.3495779	-0.06092197	-3.958101	0	12.14	4002	0	0	0	0	0.02	0.3480879	1	10	0.04	1800	-0.1296692	40.92392	-91.39359
76295	-15	0	-2	-0.3492146	-0.05924007	-3.959445	0	12.14	4004	0	0	0	0	0.02	0.3480802	1	10	0.04	1800	0.09933952	40.92392	-91.39359
76384	-15	-6	7	-0.3463734	-0.05366127	-3.963357	0	12.14	4002	0	0	0	0	0.02	0.3457357	1	10	0.04	1800	-0.1355896	40.92392	-91.39359
76477	-12	-5	0	-0.3431654	-0.05060959	-3.966659	0	12.14	4004	0	0	0	0	0.02	0.3419815	1	10	0.04	1800	-0.1379089	40.92392	-91.39359
76605	-10	-2	0	-0.3402712	-0.05152837	-3.971244	0	12.14	4003	0	0	0	0	0.02	0.3251031	1	10	0.04	1800	0.09062775	40.92392	-91.39359
76697	-14	-1	0	-0.33879	-0.05195106	-3.977051	0	12.14	4004	0	0	0	0	0.02	0.3227467	1	10	0.04	1800	0.08591265	40.92392	-91.39359
76785	-11	3	9	-0.3357727	-0.05028368	-3.980168	0	12.14	4002	0	0	0	0	0.02	0.3166259	1	10	0.04	1800	0.08423603	40.92392	-91.39359
77010	-10	1	2	-0.3152973	-0.0530258	-3.986343	0	12.14	4004	0	0	0	0	0.02	0.3112354	1	10	0.04	1800	0.04921456	40.92392	-91.39359
77088	-10	-4	0	-0.3136811	-0.0522184	-3.987322	0	12.14	4004	0	0	0	0	0.02	0.3129126	1	10	0.04	1800	-0.1872864	40.92392	-91.39359
77223	-12	-2	3	-0.3077331	-0.05472215	-3.992334	0	12.14	4002	0	0	0	0	0.02	0.3068112	1	10	0.04	1800	0.03888798	40.92392	-91.39359
77320	-10	0	1	-0.303089	-0.05335018	-3.99643	0	12.14	4003	0	0	0	0	0.02	0.2984244	1	10	0.04	1800	0.03327903	40.92392	-91.39359
77423	-16	-3	0	-0.3035533	-0.05492533	-3.999792	0	12.14	4004	0	0	0	0	0.02	0.2866517	1	10	0.04	1800	0.03122668	40.92392	-91.39359
77472	-10	8	2	-0.2974907	-0.0567327	-4.000954	0	12.14	4003	0	0	0	0	0.02	0.2872536	1	10	0.04	1800	-0.2025146	40.92392	-91.39359
77554	-8	-2	2	-0.2905982	-0.05829981	-4.004133	0	12.14	4003	0	0	0	0	0.02	0.2895578	1	10	0.04	1800	-0.2184448	40.92392	-91.39359
77656	-12	4	0	-0.2981918	-0.05836753	-4.00609	0	12.14	4002	0	0	0	0	0.02	0.2872064	1	10	0.04	1800	-0.2210999	40.92392	-91.39359
77773	-9	0	3	-0.2969844	-0.06485379	-4.010307	0	12.14	4003	0	0	0	0	0.02	0.2939418	1	10	0.04	1800	0.01712047	40.92392	-91.39359
77877	-11	-3	8	-0.2913168	-0.06440246	-4.014159	0	12.14	4003	0	0	0	0	0.02	0.3047638	1	10	0.04	1800	0.01241278	40.92392	-91.39359
77969	-9	1	3	-0.2908217	-0.05911835	-4.016176	0	12.14	4003	0	0	0	0	0.02	0.3098389	1	10	0.04	1800	0.007220969	40.92392	-91.39359
78044	-14	2	3	-0.2867211	-0.05951396	-4.019233	0	12.14	4003	0	0	0	0	0.02	0.311443	1	10	0.04	1800	0.006586914	40.92392	-91.39359
78141	-12	-2	3	-0.2871105	-0.05947585	-4.021435	0	12.14	4003	0	0	0	0	0.02	0.3198334	1	10	0.04	1800	0.0008694555	40.92392	-91.39359
78255	-13	0	-1	-0.2868484	-0.0602025	-4.022353	0	12.14	4002	0	0	0	0	0.02	0.3242715	1	10	0.04	1800	0.001208551	40.92392	-91.39359
78350	-11	2	0	-0.2975411	-0.06412366	-4.025959	0	12.08	4004	0	0	0	0	0.02	0.3258778	1	10	0.04	1800	-0.2269592	40.92392	-91.39359
78489	-16	0	-2	-0.3053216	-0.05870309	-4.028221	0	12.08	4003	0	0	0	0	0.02	0.3195687	1	10	0.04	1800	-0.2108459	40.92392	-91.39359
78577	-9	0	-2	-0.3001364	-0.0589126	-4.030787	0	12.08	4003	0	0	0	0	0.02	0.3159434	1	10	0.04	1800	0.02989708	40.92392	-91.39359
78651	-16	0	4	-0.2997192	-0.06102855	-4.034456	0	12.08	4003	0	0	0	0	0.02	0.3156669	1	10	0.04	1800	-0.2094727	40.92392	-91.39359
78752	-12	1	3	-0.2985114	-0.05396351	-4.038246	0	12.08	4004	0	0	0	0	0.02	0.313535	1	10	0.04	1800	-0.2178345	40.92392	-91.39359
78880	-13	5	1	-0.306941	-0.05797087	-4.041547	0	12.08	4004	0	0	0	0	0.02	0.315768	1	10	0.04	1800	-0.2001648	40.92392	-91.39359
78952	-15	-7	3	-0.3100612	-0.05655758	-4.043564	0	12.08	4003	0	0	0	0	0.02	0.3176529	1	10	0.04	1800	-0.1967163	40.92392	-91.39359
79116	-13	1	0	-0.3111759	-0.05843154	-4.048456	0	12.08	4004	0	0	0	0	0.02	0.3433317	1	10	0.04	1800	0.04200348	40.92392	-91.39359
79241	-11	-4	5	-0.3110492	-0.06372109	-4.052614	0	12.14	4003	0	0	0	0	0.02	0.3539503	1	10	0.04	1800	-0.191803	40.92392	-91.39359
79278	-7	0	0	-0.3081692	-0.06547098	-4.053531	0	12.14	4003	0	0	0	0	0.02	0.3592322	1	10	0.04	1800	0.03882404	40.92392	-91.39359
79466	-10	2	3	-0.3080962	-0.05934858	-4.060501	0	12.14	4003	0	0	0	0	0.02	0.3676579	1	10	0.04	1800	-0.1931763	40.92392	-91.39359
79658	-7	3	0	-0.3106963	-0.06494837	-4.064596	0	12.14	4002	0	0	0	0	0.02	0.3743632	1	10	0.04	1800	0.04013544	40.92391	-91.39359
79753	-13	-4	0	-0.3115973	-0.06019403	-4.067469	0	12.14	4004	0	0	0	0	0.02	0.3742659	1	10	0.04	1800	0.04310877	40.92392	-91.39359
79872	-19	2	4	-0.3132639	-0.0629025	-4.070036	0	12.14	4003	0	0	0	0	0.02	0.3689093	1	10	0.04	1800	-0.193634	40.92392	-91.39359
80007	-19	0	-1	-0.3054992	-0.06380423	-4.073827	0	12.14	4009	0	0	0	0	0.02	0.3594048	1	10	0.04	1800	-0.1976318	40.92392	-91.39359
80062	-19	0	-1	-0.3054992	-0.06380423	-4.073827	0	12.14	4009	0	0	0	0	0.02	0.349303	1	10	0.04	1800	-0.1976318	40.92392	-91.39359
80222	-10	-2	3	-0.3061438	-0.06165078	-4.079146	0	12.08	4004	0	0	0	0	0.02	0.3406899	1	10	0.04	1800	-0.2019043	40.92392	-91.39359
80268	-14	1	-1	-0.3058077	-0.05899484	-4.079818	0	12.08	4004	0	0	0	0	0.02	0.3406316	1	10	0.04	1800	-0.2024231	40.92392	-91.39359
80380	-15	-2	0	-0.3106188	-0.05885116	-4.084586	0	12.08	4004	0	0	0	0	0.02	0.3292114	1	10	0.04	1800	0.03980196	40.92392	-91.39359
80533	-11	5	6	-0.3138926	-0.06276105	-4.091189	0	12.08	4002	0	0	0	0	0.02	0.3241814	1	10	0.04	1800	-0.1927185	40.92392	-91.39359
80618	-16	-1	0	-0.3129036	-0.06383902	-4.09339	0	12.08	4003	0	0	0	0	0.02	0.3237771	1	10	0.04	1800	0.04785315	40.92392	-91.39359
80674	-16	1	3	-0.3129975	-0.06465475	-4.093635	0	12.08	4003	0	0	0	0	0.02	0.3268462	1	10	0.04	1800	0.2798299	40.92392	-91.39359
80837	-19	0	0	-0.3242778	-0.0660338	-4.099319	0	12.08	4003	0	0	0	0	0.02	0.3258361	1	10	0.04	1800	0.05588489	40.92392	-91.39359
80879	-17	0	3	-0.3277169	-0.06391917	-4.101336	0	12.08	4002	0	0	0	0	0.02	0.3252627	1	10	0.04	1800	-0.1615906	40.92392	-91.39359
81115	-13	-2	3	-0.3211645	-0.06288467	-4.107144	0	12.08	4004	0	0	0	0	0.02	0.3217801	1	10	0.04	1800	0.0619911	40.92392	-91.39359
81221	-11	-9	0	-0.3183876	-0.05898743	-4.109162	0	12.08	4003	0	0	0	0	0.02	0.320433	1	10	0.04	1800	0.05802627	40.92392	-91.39359
81281	-7	-4	2	-0.3179573	-0.05985443	-4.110873	0	12.08	4003	0	0	0	0	0.02	0.3206644	1	10	0.04	1800	0.05802627	40.92392	-91.39359
81455	-13	-3	-1	-0.3123894	-0.05525216	-4.114786	0	12.08	4003	0	0	0	0	0.02	0.3254884	1	10	0.04	1800	-0.1889343	40.92392	-91.39359
81589	-10	1	1	-0.3149795	-0.05426376	-4.115703	0	12.08	4003	0	0	0	0	0.02	0.3347209	1	10	0.04	1800	-0.1861267	40.92392	-91.39359
81704	-11	-5	3	-0.3155529	-0.05719346	-4.118394	0	12.08	4003	0	0	0	0	0.02	0.3286133	1	10	0.04	1800	0.2830543	40.92392	-91.39359
81836	-14	0	-1	-0.3185503	-0.04904087	-4.122859	0	12.08	4003	0	0	0	0	0.02	0.3259209	1	10	0.04	1800	0.0521255	40.92392	-91.39359
81936	-13	0	0	-0.315237	-0.04908906	-4.125243	0	12.08	4003	0	0	0	0	0.02	0.3263647	1	10	0.04	1800	-0.4201965	40.92392	-91.39359
81977	-14	0	5	-0.3130101	-0.0505711	-4.127626	0	12.08	4002	0	0	0	0	0.02	0.3270077	1	10	0.04	1800	0.04265971	40.92392	-91.39359
82076	-8	3	6	-0.31036	-0.05620812	-4.129703	0	12.08	4002	0	0	0	0	0.02	0.3266656	1	10	0.04	1800	-0.1932373	40.92392	-91.39359
82180	-13	0	5	-0.3091876	-0.05065615	-4.131659	0	12.08	4003	0	0	0	0	0.02	0.3275273	1	10	0.04	1800	0.2694434	40.92392	-91.39359
82308	-14	-5	2	-0.3185883	-0.04699004	-4.136732	0	12.08	4004	0	0	0	0	0.02	0.3316438	1	10	0.04	1800	0.05070807	40.92392	-91.39359
82410	-11	2	1	-0.3133702	-0.04461418	-4.13887	0	12.08	4004	0	0	0	0	0.02	0.3272932	1	10	0.04	1800	-0.1876831	40.92392	-91.39359
82496	-13	0	5	-0.3102688	-0.043346	-4.140765	0	12.08	4004	0	0	0	0	0.02	0.3228776	1	10	0.04	1800	0.2718616	40.92392	-91.39359
82585	-7	-1	1	-0.3136114	-0.04610275	-4.143638	0	12.08	4004	0	0	0	0	0.02	0.3206341	1	10	0.04	1800	-0.1897278	40.92392	-91.39359
82675	-16	0	-2	-0.3160892	-0.04272787	-4.146204	0	12.08	4003	0	0	0	0	0.02	0.3214371	1	10	0.04	1800	-0.4181824	40.92392	-91.39359
82905	-16	0	0	-0.3123866	-0.0485175	-4.151705	0	12.14	4002	0	0	0	0	0.02	0.3326333	1	10	0.04	1800	-0.1889038	40.92392	-91.39359
83033	-14	0	0	-0.3104185	-0.04942563	-4.156962	0	12.14	4003	0	0	0	0	0.02	0.3336498	1	10	0.04	1800	-0.186554	40.92392	-91.39359
83062	-8	-1	0	-0.3093765	-0.05369502	-4.15794	0	12.14	4004	0	0	0	0	0.02	0.333552	1	10	0.04	1800	-0.186554	40.92392	-91.39359
83169	-13	-2	4	-0.307765	-0.05546934	-4.16277	0	12.14	4003	0	0	0	0	0.02	0.330186	1	10	0.04	1800	0.03707095	40.92392	-91.39359
83364	-13	0	5	-0.3112535	-0.05189327	-4.167782	0	12.14	4003	0	0	0	0	0.02	0.3231313	1	10	0.04	1800	-0.1924438	40.92392	-91.39359
83389	-14	0	-2	-0.3129556	-0.05305836	-4.168149	0	12.14	4004	0	0	0	0	0.02	0.3211359	1	10	0.04	1800	-0.1924438	40.92392	-91.39359
83479	-14	-1	1	-0.3148437	-0.05464159	-4.171023	0	12.14	4003	0	0	0	0	0.02	0.3139249	1	10	0.04	1800	0.04829572	40.92392	-91.39359
83578	-13	0	-2	-0.3180076	-0.05552109	-4.176159	0	12.14	4002	0	0	0	0	0.02	0.3121277	1	10	0.04	1800	0.2848993	40.92392	-91.39359
83683	-11	0	0	-0.3169529	-0.05659668	-4.178544	0	12.14	4004	0	0	0	0	0.02	0.3121434	1	10	0.04	1800	0.04601255	40.92392	-91.39359
83927	-13	0	5	-0.3192447	-0.0600443	-4.185206	0	12.14	4004	0	0	0	0	0.02	0.3117265	1	10	0.04	1800	-0.4179077	40.92392	-91.39359
84118	-12	-1	4	-0.3189919	-0.06208442	-4.191565	0	12.14	4004	0	0	0	0	0.02	0.3186496	1	10	0.04	1800	-0.1738892	40.92392	-91.39359
84213	-6	3	2	-0.3251014	-0.06452943	-4.195599	0	12.14	4002	0	0	0	0	0.02	0.3139146	1	10	0.04	1800	-0.1799927	40.92392	-91.39359
84299	-15	0	0	-0.321173	-0.06294712	-4.198778	0	12.14	4002	0	0	0	0	0.02	0.305253	1	10	0.04	1800	-0.4073181	40.92392	-91.39359
84402	-14	1	0	-0.3303734	-0.05779899	-4.203301	0	12.14	4003	0	0	0	0	0.02	0.297324	1	10	0.04	1800	0.06355137	40.92392	-91.39359
84546	-10	-1	5	-0.3243192	-0.05894532	-4.211126	0	12.14	4002	0	0	0	0	0.02	0.2836199	1	10	0.04	1800	0.0621919	40.92392	-91.39359
84605	-13	1	1	-0.3231865	-0.05810514	-4.212471	0	12.14	4002	0	0	0	0	0.02	0.2746931	1	10	0.04	1800	0.0621919	40.92392	-91.39359
84688	-10	3	6	-0.3239247	-0.06150127	-4.216872	0	12.14	4002	0	0	0	0	0.02	0.2714703	1	10	0.04	1800	0.06113356	40.92392	-91.39359
84818	-16	-2	3	-0.3214242	-0.06397786	-4.222374	0	12.14	4003	0	0	0	0	0.02	0.2709074	1	10	0.04	1800	0.2947879	40.92392	-91.39359
84879	-10	-9	-2	-0.3214816	-0.05962847	-4.22543	0	12.14	4004	0	0	0	0	0.02	0.2689985	1	10	0.04	1800	0.05823928	40.92392	-91.39359
84982	-15	0	3	-0.3243888	-0.06242511	-4.230138	0	12.14	4002	0	0	0	0	0.02	0.2615049	1	10	0.04	1800	0.06079141	40.92392	-91.39359
85087	-15	-4	2	-0.3248471	-0.06007768	-4.235761	0	12.14	4002	0	0	0	0	0.02	0.2500808	1	10	0.04	1800	0.3025129	40.92392	-91.39359
85186	-16	-1	0	-0.3346142	-0.05537577	-4.240714	0	12.14	4003	0	0	0	0	0.02	0.2464396	1	10	0.04	1800	0.08008949	40.92392	-91.39359
85293	-16	0	0	-0.3329803	-0.05250699	-4.245911	0	12.14	4003	0	0	0	0	0.02	0.2406888	1	10	0.04	1800	0.0773191	40.92392	-91.39359
85398	-10	1	1	-0.3258641	-0.05261466	-4.247868	0	12.14	4003	0	0	0	0	0.02	0.2308343	1	10	0.04	1800	0.0773191	40.92392	-91.39359
85539	-12	6	3	-0.3208066	-0.05022158	-4.253004	0	12.14	4003	0	0	0	0	0.02	0.230892	1	10	0.04	1800	-0.1724548	40.92392	-91.39359
85603	-12	-2	2	-0.3168001	-0.05019787	-4.255448	0	12.14	4003	0	0	0	0	0.02	0.2318367	1	10	0.04	1800	0.05163947	40.92392	-91.39359
85680	-13	2	2	-0.3182235	-0.05430062	-4.257098	0	12.14	4003	0	0	0	0	0.02	0.2297696	1	10	0.04	1800	0.05163947	40.92392	-91.39359
85826	-6	-3	6	-0.3180637	-0.05758204	-4.262599	0	12.14	4002	0	0	0	0	0.02	0.2261849	1	10	0.04	1800	-0.1792603	40.92392	-91.39359
85895	-13	-5	6	-0.3149047	-0.05411702	-4.265107	0	12.14	4003	0	0	0	0	0.02	0.2201613	1	10	0.04	1800	0.04813801	40.92392	-91.39359
86077	-8	-2	4	-0.3180837	-0.04967292	-4.269386	0	12.14	4004	0	0	0	0	0.02	0.2166041	1	10	0.04	1800	-0.1892395	40.92392	-91.39359
86122	-12	0	1	-0.3145798	-0.05263023	-4.271341	0	12.14	4004	0	0	0	0	0.02	0.2181812	1	10	0.04	1800	-0.1809082	40.92392	-91.39359
86163	-20	-1	1	-0.3152359	-0.05563169	-4.273052	0	12.14	4003	0	0	0	0	0.02	0.2220718	1	10	0.04	1800	-0.1876221	40.92392	-91.39359
86308	-12	-1	4	-0.3146959	-0.05922408	-4.276232	0	12.14	4002	0	0	0	0	0.02	0.2299394	1	10	0.04	1800	-0.188446	40.92392	-91.39359
86334	-9	0	1	-0.3138859	-0.06013224	-4.277332	0	12.14	4003	0	0	0	0	0.02	0.2303017	1	10	0.04	1800	-0.1859741	40.92392	-91.39359
86427	-5	-4	0	-0.3099419	-0.05575771	-4.280021	0	12.14	4003	0	0	0	0	0.02	0.2335837	1	10	0.04	1800	-0.1931458	40.92392	-91.39359
86550	-9	2	-2	-0.3049439	-0.06161074	-4.285216	0	12.08	4004	0	0	0	0	0.02	0.2392864	1	10	0.04	1800	-0.4266663	40.92392	-91.39359
86645	-11	2	5	-0.3003981	-0.05491382	-4.28699	0	12.08	4003	0	0	0	0	0.02	0.2437818	1	10	0.04	1800	0.02486773	40.92392	-91.39359
86719	-12	4	0	-0.3056121	-0.05533858	-4.28968	0	12.08	4003	0	0	0	0	0.02	0.2440319	1	10	0.04	1800	0.02866077	40.92392	-91.39359
86823	-9	-3	5	-0.3061912	-0.06007392	-4.293775	0	12.08	4003	0	0	0	0	0.02	0.2472576	1	10	0.04	1800	0.03042464	40.92392	-91.39359
86931	-13	4	0	-0.3033499	-0.0628744	-4.295914	0	12.08	4004	0	0	0	0	0.02	0.2479985	1	10	0.04	1800	0.02936569	40.92392	-91.39359
87022	-11	-2	2	-0.3024589	-0.05938888	-4.299214	0	12.08	4003	0	0	0	0	0.02	0.2503418	1	10	0.04	1800	0.02414852	40.92392	-91.39359
87123	-11	0	5	-0.3024784	-0.05169562	-4.300805	0	12.08	4003	0	0	0	0	0.02	0.2491564	1	10	0.04	1800	-0.2078552	40.92392	-91.39359
87227	-12	-8	1	-0.3078068	-0.04954155	-4.303189	0	12.08	4002	0	0	0	0	0.02	0.2483012	1	10	0.04	1800	-0.2078552	40.92392	-91.39359
87324	-8	0	1	-0.3054194	-0.05007926	-4.304289	0	12.08	4003	0	0	0	0	0.02	0.2534523	1	10	0.04	1800	0.03598605	40.92392	-91.39359
87425	-12	6	6	-0.303576	-0.05191637	-4.308507	0	12.08	4003	0	0	0	0	0.02	0.2518885	1	10	0.04	1800	-0.2066345	40.92392	-91.39359
87526	-15	-1	1	-0.304889	-0.05107426	-4.309668	0	12.08	4002	0	0	0	0	0.02	0.2453168	1	10	0.04	1800	0.02893643	40.92392	-91.39359
87696	-9	-3	2	-0.3018652	-0.05767983	-4.315475	0	12.08	4003	0	0	0	0	0.02	0.2431149	1	10	0.04	1800	-0.204834	40.92392	-91.39359
87743	-11	5	0	-0.3029619	-0.05716975	-4.316942	0	12.08	4003	0	0	0	0	0.02	0.245147	1	10	0.04	1800	0.02428057	40.92392	-91.39359
87875	-12	-1	-1	-0.3117222	-0.04725235	-4.319754	0	12.08	4003	0	0	0	0	0.02	0.2525379	1	10	0.04	1800	0.03778934	40.92392	-91.39359
87933	-10	-2	1	-0.3124286	-0.05217557	-4.32006	0	12.08	4003	0	0	0	0	0.02	0.2543724	1	10	0.04	1800	0.2765878	40.92392	-91.39359
88089	-12	-1	0	-0.3108082	-0.04916722	-4.323422	0	12.08	4004	0	0	0	0	0.02	0.2630499	1	10	0.04	1800	0.04531118	40.92392	-91.39359
88211	-13	0	-3	-0.3066344	-0.04805424	-4.324461	0	12.08	4003	0	0	0	0	0.02	0.2688302	1	10	0.04	1800	0.0336799	40.92392	-91.39359
88288	-8	5	3	-0.3078938	-0.04172234	-4.325806	0	12.08	4003	0	0	0	0	0.02	0.2682923	1	10	0.04	1800	0.03827897	40.92392	-91.39359
88408	-8	-3	0	-0.3123932	-0.04038754	-4.328372	0	12.14	4003	0	0	0	0	0.02	0.2661896	1	10	0.04	1800	0.0420301	40.92392	-91.39359
88445	-10	4	-4	-0.3171247	-0.03693384	-4.328861	0	12.14	4002	0	0	0	0	0.02	0.2640528	1	10	0.04	1800	0.0420301	40.92392	-91.39359
88507	-10	4	1	-0.315181	-0.03895789	-4.330939	0	12.14	4003	0	0	0	0	0.02	0.2638122	1	10	0.04	1800	-0.1819763	40.92392	-91.39359
88607	-14	2	1	-0.3180529	-0.0408316	-4.332772	0	12.14	4003	0	0	0	0	0.02	0.2639736	1	10	0.04	1800	-0.1849365	40.92392	-91.39359
88726	-16	1	1	-0.3076605	-0.04804669	-4.335706	0	12.14	4002	0	0	0	0	0.02	0.2669511	1	10	0.04	1800	0.03985474	40.92392	-91.39359
88902	-16	8	1	-0.3097081	-0.04979507	-4.33974	0	12.14	4004	0	0	0	0	0.02	0.2694888	1	10	0.04	1800	-0.18927	40.92392	-91.39359
88976	-11	0	1	-0.3157595	-0.04942665	-4.34402	0	12.14	4003	0	0	0	0	0.02	0.2710753	1	10	0.04	1800	-0.1850891	40.92392	-91.39359
89045	-15	0	0	-0.3073353	-0.04493332	-4.345855	0	12.14	4004	0	0	0	0	0.02	0.270079	1	10	0.04	1800	-0.1850891	40.92392	-91.39359
89135	-9	-2	6	-0.3024513	-0.05449342	-4.348302	0	12.14	4002	0	0	0	0	0.02	0.2650874	1	10	0.04	1800	-0.1998596	40.92392	-91.39359
89232	-6	-8	1	-0.3041315	-0.05626943	-4.352154	0	12.14	4002	0	0	0	0	0.02	0.2664695	1	10	0.04	1800	-0.2081604	40.92392	-91.39359
89317	-9	4	2	-0.304565	-0.05484169	-4.353132	0	12.14	4003	0	0	0	0	0.02	0.2657386	1	10	0.04	1800	0.02441724	40.92392	-91.39359
89368	-10	-6	-2	-0.3100742	-0.05710842	-4.353376	0	12.14	4003	0	0	0	0	0.02	0.2687831	1	10	0.04	1800	-0.4333801	40.92392	-91.39359
89449	-12	-1	1	-0.3040453	-0.0579455	-4.356187	0	12.14	4004	0	0	0	0	0.02	0.2726492	1	10	0.04	1800	-0.2016907	40.92392	-91.39359
89543	-6	-4	3	-0.3073898	-0.04915908	-4.361689	0	12.14	4002	0	0	0	0	0.02	0.2739199	1	10	0.04	1800	0.03452382	40.92392	-91.39359
89635	-8	2	0	-0.3075223	-0.05290132	-4.362606	0	12.14	4003	0	0	0	0	0.02	0.2767111	1	10	0.04	1800	0.03452382	40.92392	-91.39359
89741	-13	3	1	-0.3090064	-0.05809755	-4.364746	0	12.14	4003	0	0	0	0	0.02	0.2764381	1	10	0.04	1800	0.03531044	40.92392	-91.39359
89967	-8	-3	1	-0.3071042	-0.04495307	-4.37367	0	12.14	4004	0	0	0	0	0.02	0.2982629	1	10	0.04	1800	0.036613	40.92392	-91.3936
90087	-10	4	-1	-0.3039853	-0.03564719	-4.375564	0	12.14	4003	0	0	0	0	0.02	0.3069188	1	10	0.04	1800	0.03221948	40.92392	-91.3936
90266	-11	5	1	-0.311452	-0.03577777	-4.377521	0	12.14	4002	0	0	0	0	0.02	0.2975183	1	10	0.04	1800	-0.1907349	40.92392	-91.3936
90417	-15	-3	5	-0.311653	-0.03336425	-4.380455	0	12.14	4003	0	0	0	0	0.02	0.2889111	1	10	0.04	1800	-0.4259644	40.92392	-91.3936
90493	-12	-2	2	-0.3099817	-0.03666931	-4.383939	0	12.14	4004	0	0	0	0	0.02	0.281172	1	10	0.04	1800	0.04008292	40.92392	-91.3936
90538	-19	0	4	-0.3119371	-0.03892842	-4.385345	0	12.14	4004	0	0	0	0	0.02	0.2777958	1	10	0.04	1800	-0.1929932	40.92392	-91.3936
90629	-11	-2	1	-0.3117371	-0.03464107	-4.386079	0	12.14	4003	0	0	0	0	0.02	0.2695612	1	10	0.04	1800	-0.1929932	40.92392	-91.3936
90779	-12	1	1	-0.3115336	-0.03694278	-4.390061	0	12.14	4002	0	0	0	0	0.02	0.2557717	1	10	0.04	1800	0.04544044	40.92392	-91.3936
90941	-10	2	7	-0.3254663	-0.03855	-4.394019	0	12.14	4003	0	0	0	0	0.02	0.2305616	1	10	0.04	1800	0.05867208	40.92392	-91.3936
91114	-12	-1	6	-0.325043	-0.03709187	-4.399642	0	12.14	4004	0	0	0	0	0.02	0.2132833	1	10	0.04	1800	0.2973053	40.92392	-91.3936
91148	-10	-3	0	-0.3246826	-0.03763222	-4.39958	0	12.14	4002	0	0	0	0	0.02	0.2122728	1	10	0.04	1800	0.2973053	40.92392	-91.3936
91234	-8	5	-1	-0.3228866	-0.03887374	-4.401781	0	12.14	4003	0	0	0	0	0.02	0.2060684	1	10	0.04	1800	0.06075077	40.92392	-91.3936
91534	-11	-2	0	-0.3189531	-0.04230439	-4.404653	0	12.14	4003	0	0	0	0	0.02	0.2114138	1	10	0.04	1800	0.05402383	39.85609	-80.28999
91644	-16	-1	0	-0.3192644	-0.04623062	-4.404714	0	12.14	4004	0	0	0	0	0.02	0.2105776	1	10	0.04	1800	0.0529073	40.89509	-91.0938
91721	-12	0	4	-0.3158599	-0.04566529	-4.408136	0	12.14	4004	0	0	0	0	0.02	0.2140256	1	10	0.04	1800	0.05031329	40.92315	-91.3855
91854	-11	1	4	-0.3159726	-0.0449983	-4.411009	0	12.14	4003	0	0	0	0	0.02	0.2209322	1	10	0.04	1800	-0.187439	40.92392	-91.39352
91947	-11	2	1	-0.3118826	-0.04897614	-4.414249	0	12.14	4004	0	0	0	0	0.02	0.2282386	1	10	0.04	1800	0.04191501	40.92392	-91.39359
92017	-12	0	2	-0.3101718	-0.0472756	-4.418223	0	12.14	4002	0	0	0	0	0.02	0.2337856	1	10	0.04	1800	0.0378105	40.92392	-91.39359
92205	-12	-3	4	-0.294245	-0.05101402	-4.420913	0	12.14	4003	0	0	0	0	0.02	0.2404591	1	10	0.04	1800	-0.2194824	40.92392	-91.39359
92255	-10	-8	0	-0.296247	-0.05033096	-4.42122	0	12.14	4002	0	0	0	0	0.02	0.2409965	1	10	0.04	1800	0.01770297	40.92392	-91.39359
92323	-8	0	3	-0.297481	-0.05283189	-4.422565	0	12.14	4003	0	0	0	0	0.02	0.245687	1	10	0.04	1800	0.01770297	40.92392	-91.39359
92434	-7	1	4	-0.2925963	-0.05362067	-4.425684	0	12.14	4004	0	0	0	0	0.02	0.2524411	1	10	0.04	1800	0.01202869	40.92392	-91.39359
92582	-10	1	1	-0.2878645	-0.05970189	-4.428802	0	12.14	4004	0	0	0	0	0.02	0.2566592	1	10	0.04	1800	-0.2262573	40.92392	-91.39359
92617	-13	2	2	-0.2856887	-0.05841726	-4.43088	0	12.14	4002	0	0	0	0	0.02	0.2551575	1	10	0.04	1800	-0.2329102	40.92392	-91.39359
92706	-10	0	0	-0.2965498	-0.06326317	-4.432103	0	12.14	4003	0	0	0	0	0.02	0.2525896	1	10	0.04	1800	-0.223175	40.92392	-91.39359
92810	-7	0	6	-0.2939621	-0.06155314	-4.431797	0	12.14	4004	0	0	0	0	0.02	0.2458278	1	10	0.04	1800	0.01759939	40.92392	-91.39359
92979	-9	-1	1	-0.2911401	-0.05585478	-4.437971	0	12.14	4002	0	0	0	0	0.02	0.2344949	1	10	0.04	1800	0.008489573	40.92392	-91.39359
93080	-10	-3	2	-0.2773024	-0.05343634	-4.441454	0	12.14	4003	0	0	0	0	0.02	0.2219833	1	10	0.04	1800	-0.2376099	40.92392	-91.39359
93108	-7	0	-1	-0.2792883	-0.05273286	-4.44231	0	12.14	4004	0	0	0	0	0.02	0.2198716	1	10	0.04	1800	-0.009887695	40.92392	-91.39359
93212	-12	-1	5	-0.2775049	-0.05122937	-4.444756	0	12.14	4004	0	0	0	0	0.02	0.2147213	1	10	0.04	1800	-0.4787292	40.92392	-91.39359
93307	-5	0	0	-0.2700543	-0.04818784	-4.446712	0	12.14	4002	0	0	0	0	0.02	0.2141019	1	10	0.04	1800	-0.01763916	40.92392	-91.39359
93455	-10	0	0	-0.2677129	-0.04790816	-4.450135	0	12.14	4003	0	0	0	0	0.02	0.2188841	1	10	0.04	1800	-0.2641907	40.92392	-91.39359
93575	-13	1	3	-0.2715696	-0.0537745	-4.451174	0	12.14	4003	0	0	0	0	0.02	0.2246548	1	10	0.04	1800	0.1985129	40.92392	-91.39359
93625	-6	0	0	-0.2697204	-0.05906009	-4.453069	0	12.14	4004	0	0	0	0	0.02	0.2242375	1	10	0.04	1800	-0.2545471	40.92392	-91.39359
93755	-5	0	0	-0.2658088	-0.06383002	-4.455085	0	12.19	4003	0	0	0	0	0.02	0.2184558	1	10	0.04	1800	0.1994094	40.92392	-91.39359
93804	-7	4	2	-0.2617787	-0.06506073	-4.456858	0	12.19	4004	0	0	0	0	0.02	0.2109893	1	10	0.04	1800	0.1982355	40.92392	-91.39359
93910	-6	-1	0	-0.2663831	-0.06213865	-4.458203	0	12.19	4004	0	0	0	0	0.02	0.2033308	1	10	0.04	1800	-0.03570557	40.92392	-91.39359
94031	-7	4	0	-0.265472	-0.06201205	-4.459792	0	12.19	4002	0	0	0	0	0.02	0.1902495	1	10	0.04	1800	-0.2647095	40.92392	-91.39359
94113	-8	-1	3	-0.2704997	-0.06035872	-4.460708	0	12.19	4003	0	0	0	0	0.02	0.1855641	1	10	0.04	1800	-0.02825928	40.92392	-91.39359
94210	-13	2	-2	-0.2637234	-0.05392456	-4.461258	0	12.19	4002	0	0	0	0	0.02	0.1819769	1	10	0.04	1800	-0.2709045	40.92392	-91.39359
94362	-13	1	3	-0.2582637	-0.06027067	-4.46456	0	12.19	4003	0	0	0	0	0.02	0.1889715	1	10	0.04	1800	-0.2817078	40.92392	-91.39359
94531	-9	-3	0	-0.2624214	-0.05995049	-4.46896	0	12.19	4010	0	0	0	0	0.02	0.1859425	3	10	0.04	1800	-0.04046631	40.92392	-91.39359
94662	-9	3	1	-0.2610278	-0.05552618	-4.472322	0	12.08	4003	0	0	0	0	0.02	0.1799032	3	10	0.04	1800	-0.2759399	40.92392	-91.39359
94708	-11	0	3	-0.2642387	-0.05801339	-4.47434	0	12.08	4003	0	0	0	0	0.02	0.1768107	3	10	0.04	1800	-0.2680664	40.92392	-91.39359
94793	-12	3	2	-0.2665944	-0.05543229	-4.474707	0	12.08	4004	0	0	0	0	0.02	0.177066	3	10	0.04	1800	-0.03143311	40.92392	-91.39359
94903	-4	-2	5	-0.2672353	-0.0532276	-4.477152	0	12.08	4003	0	0	0	0	0.02	0.1766684	3	10	0.04	1800	-0.2631226	40.92392	-91.39359
94998	-4	7	0	-0.2694216	-0.05307678	-4.479598	0	12.08	4004	0	0	0	0	0.02	0.1795361	3	10	0.04	1800	-0.2604065	40.92392	-91.39359
95106	-10	-3	2	-0.2774176	-0.05594727	-4.483326	0	12.08	4004	0	0	0	0	0.02	0.1745213	3	10	0.04	1800	-0.02670288	40.92392	-91.39359
95214	-8	0	-2	-0.2717803	-0.05784025	-4.485039	0	12.08	4003	0	0	0	0	0.02	0.1712881	3	10	0.04	1800	-0.02435303	40.92392	-91.39359
95306	-10	1	0	-0.2716866	-0.05701556	-4.488156	0	12.08	4002	0	0	0	0	0.02	0.1724942	3	10	0.04	1800	-0.0255127	40.92392	-91.39359
95505	-9	-2	-2	-0.2734968	-0.06078608	-4.493168	0	12.08	4002	0	0	0	0	0.02	0.162382	3	10	0.04	1800	-0.2454224	40.92392	-91.39359
95560	-15	5	-5	-0.2754025	-0.06232054	-4.493596	0	12.14	4003	0	0	0	0	0.02	0.1624035	3	10	0.04	1800	-0.2515259	40.92392	-91.39359
95720	-6	0	-5	-0.2819163	-0.06293339	-4.497753	0	12.14	4004	0	0	0	0	0.02	0.1431101	3	10	0.04	1800	-0.01132202	40.92392	-91.39359
95833	-10	5	1	-0.2797761	-0.06204305	-4.498609	0	12.14	4004	0	0	0	0	0.02	0.1290644	3	10	0.04	1800	-0.005126953	40.92392	-91.39359
95921	-6	0	-8	-0.281819	-0.06303831	-4.498914	0	12.14	4002	0	0	0	0	0.02	0.1246548	3	10	0.04	1800	-0.2419739	40.92392	-91.39359
96011	-3	-2	0	-0.2774944	-0.06621987	-4.500931	0	12.14	4003	0	0	0	0	0.02	0.1196914	3	10	0.04	1800	-0.008789063	40.92392	-91.39359
96232	-8	3	-1	-0.267586	-0.06217102	-4.506556	0	12.14	4003	0	0	0	0	0.02	0.1240608	3	10	0.04	1800	-0.02261353	40.92392	-91.39359
96392	-3	4	2	-0.2606483	-0.0587369	-4.509673	0	12.14	4004	0	0	0	0	0.02	0.1329512	3	10	0.04	1800	-0.2655945	40.92392	-91.39359
96510	-12	3	0	-0.2557794	-0.06622989	-4.510406	0	12.14	4002	0	0	0	0	0.02	0.1346387	3	10	0.04	1800	-0.04663086	40.92392	-91.39359
96542	-5	-2	3	-0.2559441	-0.06316387	-4.512239	0	12.14	4003	5	0	0	0	0.02	0.1338377	3	10	0.04	1800	-0.04916382	40.92392	-91.39359
96611	-10	0	-1	-0.2593019	-0.0532895	-4.514318	0	12.14	4004	2	0	0	0	0.02	0.134415	3	10	0.04	1800	-0.05169678	40.92392	-91.39359
96782	-10	1	-2	-0.2527995	-0.04778396	-4.51432	0	12.14	4002	1	0	0	0	0.02	0.1508172	3	10	0.04	1800	-0.2866821	40.92392	-91.39359
96865	-3	1	0	-0.2473196	-0.05260855	-4.516215	0	12.14	4002	1	0	0	0	0.02	0.1551776	3	10	0.04	1800	-0.0640564	40.92392	-91.39359
96927	-13	3	-6	-0.2432054	-0.0518535	-4.515909	0	12.14	4002	1	0	0	0	0.02	0.1567201	3	10	0.04	1800	-0.304718	40.92392	-91.39359
97018	-41	18	-5	-0.2325882	-0.06181762	-4.521349	0	12.14	4002	-2	3	0	0	0.02	0.1567163	3	10	0.04	1800	-1.210144	40.92392	-91.39359
97118	15	50	67	-0.2421959	-0.05805539	-4.521233	0	12.14	4004	0	0	0	0	0.02	0.1494997	3	10	0.04	1800	-0.5281677	40.92392	-91.39359
97225	-2	-19	-17	-0.2410302	-0.05912818	-4.52582	0	12.14	4003	0	0	0	0	0.02	0.1492768	3	10	0.04	1800	-0.7731323	40.92392	-91.39359
97326	1	12	26	-0.2387535	-0.06137513	-4.539943	0	12.14	4003	0	0	0	0	0.02	0.1481438	3	10	0.04	1800	-0.9760437	40.92392	-91.39359
97536	6	4	-11	-0.2532752	-0.06507745	-4.546482	0	12.14	4003	0	0	0	0	0.02	0.1363739	3	10	0.04	1800	-0.7237854	40.92392	-91.39359
97597	-6	9	11	-0.2547407	-0.06335869	-4.544587	0	12.14	4003	0	0	0	0	0.02	0.1380251	3	10	0.04	1800	-1.410309	40.92392	-91.39359
97679	-9	5	18	-0.2597448	-0.06265751	-4.544894	0	12.14	4002	1	-2	0	0	0.02	0.1373843	3	10	0.04	1800	-0.502533	40.92392	-91.39359
97729	-5	19	5	-0.2564596	-0.06438233	-4.544466	0	12.14	4002	1	0	0	0	0.02	0.1368733	3	10	0.04	1800	-0.502533	40.92392	-91.39359
97839	-11	0	5	-0.2577618	-0.06271521	-4.548134	0	12.14	4004	1	0	0	0	0.02	0.1331323	3	10	0.04	1800	-0.9569092	40.92392	-91.39359
97928	-5	3	15	-0.2551484	-0.06471593	-4.55064	0	12.14	4004	2	-1	0	0	0.02	0.1351602	3	10	0.04	1800	-1.177734	40.92392	-91.39359
98030	-7	14	-12	-0.258063	-0.06011003	-4.551435	0	12.14	4003	1	-2	0	0	0.02	0.1344464	3	10	0.04	1800	-1.390289	40.92392	-91.39359
98179	-25	97	234	-0.2810518	-0.04459521	-4.572471	0	12.14	4004	3	1	-2	0	0.02	0.1237556	3	10	0.04	1800	-0.4663391	40.92392	-91.39359
98259	-19	80	148	-0.2919158	-0.04074328	-4.562639	0	12.14	4004	-6	4	-1	0	0.02	0.1211201	3	10	0.04	1800	-0.9274597	40.92392	-91.39359
98441	-27	17	-147	-0.258689	-0.02767232	-4.534751	0	12.08	4004	-2	13	0	0	0.02	0.106704	3	10	0.04	1800	-1.366425	40.92392	-91.39359
98496	-3	60	74	-0.2544084	-0.04708673	-4.539948	0	12.08	4004	6	14	0	0	0.02	0.1045673	3	10	0.04	1800	-1.366425	40.92392	-91.39359
98645	-44	31	-93	-0.2602527	-0.02556567	-4.546608	0	12.08	4004	18	2	0	0	0.02	0.1128411	3	10	0.04	1800	-0.9708557	40.92392	-91.39359
98743	33	-42	-88	-0.2397127	-0.02439865	-4.56304	0	12.08	4002	-15	8	0	0	0.02	0.1216665	3	10	0.04	1800	-0.7433472	40.92392	-91.39359
98819	26	-93	-68	-0.2513377	-0.02987652	-4.560288	0	12.08	4004	-8	-3	0	0	0.02	0.1300661	3	10	0.04	1800	-0.5107422	40.92392	-91.39359
98929	-36	-70	46	-0.2944317	-0.01551229	-4.569216	0	12.08	4003	8	-12	0	0	0.02	0.1337154	3	10	0.04	1800	-0.9209595	40.92392	-91.39359
99019	-53	-55	13	-0.2660086	-0.03424501	-4.576491	0	12.08	4004	0	0	0	0	0.02	0.1382935	3	10	0.04	1800	-0.4526367	40.92392	-91.39359
99118	-15	-51	-5	-0.2798708	-0.02452574	-4.581751	0	12.08	4002	0	0	0	0	0.02	0.1415893	3	10	0.04	1800	-0.2175293	40.92392	-91.39359
99237	40	-51	-74	-0.3193668	-0.01603882	-4.580105	0	12.08	4003	0	0	0	0	0.02	0.141832	3	10	0.04	1800	-0.6330261	40.92392	-91.39359
99345	12	-10	-49	-0.3344807	-0.02455664	-4.584755	0	12.08	4003	0	0	0	0	0.02	0.1421495	3	10	0.04	1800	-0.6028748	40.92392	-91.39359
99444	-14	-15	-94	-0.3323585	-0.0214158	-4.581149	0	12.08	4002	0	0	0	0	0.02	0.1477047	3	10	0.04	1800	-0.8259277	40.92392	-91.39359
99530	-8	-74	-18	-0.3503664	-0.01686629	-4.600222	0	12.08	4003	0	0	0	0	0.02	0.1526292	1	10	0.04	1800	-1.077026	40.92392	-91.39359
99637	-15	27	0	-0.330084	-0.02423873	-4.58512	0	12.08	4002	0	0	0	0	0.02	0.1566501	1	10	0.04	1800	-1.070435	40.92392	-91.39359
99726	-4	-4	1	-0.3168827	-0.03172413	-4.590745	0	12.08	4003	0	0	0	0	0.02	0.159068	1	10	0.04	1800	-0.3816833	40.92392	-91.39359
99860	-11	0	22	-0.3326242	-0.02659209	-4.589154	0	12.08	4003	0	0	0	0	0.02	0.1629475	1	10	0.04	1800	-1.100006	40.92392	-91.39359
99948	4	5	38	-0.3538797	-0.02015704	-4.593248	0	12.08	4004	0	0	0	0	0.02	0.1618824	1	10	0.04	1800	-0.6084595	40.92392	-91.39359
100025	-25	-33	-28	-0.3406546	-0.02286517	-4.596733	0	12.08	4003	0	0	0	0	0.02	0.156534	1	10	0.04	1800	-0.3753357	40.92392	-91.39359
100126	-3	6	5	-0.3412883	-0.03233448	-4.596669	0	12.08	4004	0	0	0	0	0.02	0.1494155	1	10	0.04	1800	-0.36026	40.92392	-91.39359
