time(ms)	gyro_x(deg/s)	gyro_y(deg/s)	gyro_z(deg/s)	orientation_roll(deg)	orientation_pitch(deg)	orientation_yaw(deg)	throttle	battery(V)	loop_time(uS)	pid_output_roll	pid_output_pitch	pid_output_yaw	pid_output_throttle	ultrasonic_alt	baro_alt	flight_mode	p_gain_altitude	i_gain_altitude	d_gain_altitude	compass_heading	latitude	longitude
258016	0	-2	0	-0.4292833	0.2984895	-30.51003	0	11.85	4003	0	0	0	0	1.805524E+08	-0.1184504	3	10	0.04	1800	-0.9014587	40.92395	-91.39362
258110	-2	0	0	-0.4290042	0.3027083	-30.50698	0	11.85	4003	0	0	0	0	1.805524E+08	-0.1184767	3	10	0.04	1800	-0.6817322	40.92395	-91.39362
258267	-7	1	-1	-0.4218198	0.3046339	-30.50447	0	11.85	4003	0	0	0	0	1.805524E+08	-0.1162882	3	10	0.04	1800	-0.9075317	40.92395	-91.39362
258355	1	3	-4	-0.4235058	0.298418	-30.5024	0	11.85	4003	0	0	0	0	1.805524E+08	-0.1175832	3	10	0.04	1800	-0.9169617	40.92395	-91.39362
258506	1	-1	0	-0.4237211	0.2971474	-30.5013	0	11.91	4002	0	0	0	0	1.805524E+08	-0.1226804	3	10	0.04	1800	-0.9068298	40.92395	-91.39362
258608	-4	-5	-6	-0.4236295	0.2970825	-30.4988	0	11.91	4003	0	0	0	0	1.805524E+08	-0.1238459	3	10	0.04	1800	-1.133789	40.92395	-91.39362
258672	4	-1	0	-0.421556	0.2936786	-30.49886	0	11.91	4003	0	0	0	0	1.805524E+08	-0.1261478	3	10	0.04	1800	-1.133789	40.92395	-91.39362
258730	-2	-1	1	-0.4170764	0.2897559	-30.4988	0	11.91	4003	0	0	0	0	1.805524E+08	-0.1222821	3	10	0.04	1800	-1.135895	40.92395	-91.39362
258863	2	0	2	-0.4108054	0.2928647	-30.49727	0	11.91	4003	1	0	0	0	1.805524E+08	-0.1106307	3	10	0.04	1800	-0.9276733	40.92395	-91.39362
258933	13	10	-9	-0.4120682	0.2987052	-30.49489	0	11.91	4002	0	0	0	0	1.805524E+08	-0.1051231	3	10	0.04	1800	-0.9294128	40.92395	-91.39362
258999	-26	1	117	-0.4150444	0.3032424	-30.49899	0	11.91	4002	0	-6	-2	0	1.805524E+08	-0.1021777	3	10	0.04	1800	-0.9370117	40.92395	-91.39362
259107	-34	39	-6	-0.4292368	0.3066831	-30.52089	0	11.91	4002	10	-8	-7	0	1.805524E+08	-0.101429	3	10	0.04	1800	-1.823486	40.92395	-91.39362
259205	-14	-11	-93	-0.4493668	0.3136357	-30.53875	0	11.91	4003	1	0	-15	0	1.805524E+08	-0.09726243	3	10	0.04	1800	-1.298859	40.92395	-91.39362
259369	43	-3	-54	-0.4141558	0.3361987	-30.53789	0	11.91	4003	-14	6	-46	0	1.805524E+08	-0.08428431	3	10	0.04	1800	-1.80777	40.92395	-91.39362
259443	33	-65	-47	-0.4090644	0.3318191	-30.54175	0	11.74	4003	-12	5	-43	0	1.805524E+08	-0.07219472	3	10	0.04	1800	-1.175293	40.92395	-91.39362
259624	-105	-9	50	-0.366014	0.3073205	-30.52903	0	11.74	4004	-17	-5	-44	0	1.805524E+08	-0.05225707	3	10	0.04	1800	-1.45282	40.92395	-91.39362
259734	62	30	-3	-0.3224232	0.3026786	-30.53221	0	11.74	4004	20	2	-45	0	1.805524E+08	-0.03455451	3	10	0.04	1800	-1.741913	40.92395	-91.39362
259809	47	-23	88	-0.3485395	0.3365007	-30.51942	0	11.74	4004	12	-1	-42	0	1.805524E+08	-0.02672851	3	10	0.04	1800	-1.900909	40.92395	-91.39362
259915	23	86	76	-0.343567	0.3189496	-30.52102	0	11.74	4004	-14	-3	-42	0	1.805524E+08	-0.01948865	3	10	0.04	1800	-1.011597	40.92395	-91.39362
260019	-45	20	-57	-0.3278195	0.3070595	-30.51203	0	11.74	4004	-13	-1	-41	0	1.805524E+08	-0.01473857	3	10	0.04	1800	-1.488586	40.92395	-91.39362
260154	-3	25	-156	-0.3417255	0.274457	-30.49661	0	11.74	4004	-20	-2	-41	0	1.805524E+08	-0.006499833	3	10	0.04	1800	-1.034271	40.92395	-91.39362
260235	-65	18	-44	-0.3491098	0.2998368	-30.50695	0	11.74	4002	-20	5	-43	0	1.805524E+08	-0.004486284	3	10	0.04	1800	-1.493622	40.92395	-91.39362
260311	20	-39	-82	-0.3557251	0.279933	-30.49466	0	11.74	4004	-9	-1	-42	0	1.805524E+08	-0.008063001	3	10	0.04	1800	-1.236877	40.92395	-91.39362
260442	6	-12	46	-0.3996313	0.2972188	-30.50408	0	11.85	4003	-2	-13	-42	0	1.805524E+08	-0.01304085	3	10	0.04	1800	-1.811432	40.92395	-91.39362
260518	-46	-28	144	-0.3999864	0.3022484	-30.5094	0	11.85	4003	1	-6	-43	0	1.805524E+08	-0.009353231	3	10	0.04	1800	-1.350128	40.92395	-91.39362
260639	0	-64	148	-0.4116221	0.3221764	-30.49974	0	11.85	4003	24	-2	-45	0	1.805524E+08	-0.008121668	3	10	0.04	1800	-1.142792	40.92395	-91.39362
260736	-15	-2	32	-0.4087898	0.2729887	-30.48507	0	11.85	4002	12	12	-44	0	1.805524E+08	-0.008874492	3	10	0.04	1800	-1.167145	40.92395	-91.39362
260810	-88	52	-118	-0.4183812	0.2842308	-30.48862	0	11.85	4003	2	4	-45	0	1.805524E+08	-0.01593038	3	10	0.04	1800	-1.339264	40.92395	-91.39362
261007	18	51	-18	-0.4097139	0.2949601	-30.48861	0	11.85	4004	-11	-18	-42	0	1.805524E+08	-0.02606195	3	10	0.04	1800	-1.99173	40.92395	-91.39362
261040	-5	-20	183	-0.4077903	0.29256	-30.5061	0	11.85	4004	0	-8	-42	0	1.805524E+08	-0.02736964	3	10	0.04	1800	-1.99173	40.92395	-91.39362
261113	97	32	75	-0.3774741	0.2980332	-30.50976	0	11.85	4004	17	-25	-43	0	1.805524E+08	-0.02948047	3	10	0.04	1800	-1.160004	40.92395	-91.39362
261226	85	-30	70	-0.3687632	0.269695	-30.50071	0	11.85	4003	24	-2	-44	0	1.805524E+08	-0.02615603	3	10	0.04	1800	-1.160004	40.92395	-91.39362
261311	-148	20	-49	-0.3929167	0.2881587	-30.5059	0	11.34	4004	-6	-4	-42	0	1.805524E+08	-0.02331078	3	10	0.04	1800	-1.872223	40.92395	-91.39362
261413	54	-47	160	-0.3961315	0.2940638	-30.51067	0	11.34	4004	21	-6	-44	0	1.805524E+08	-0.01667868	3	10	0.04	1800	-1.614014	40.92395	-91.39362
261529	60	-44	196	-0.3922737	0.2980017	-30.50081	0	11.34	4003	19	14	-46	0	1.805524E+08	-0.01609525	3	10	0.04	1800	-1.80481	40.92395	-91.39362
261680	-96	-4	-131	-0.387823	0.2958739	-30.50161	0	11.34	4003	24	7	-45	0	1.805524E+08	-0.01696914	3	10	0.04	1800	-1.230652	40.92395	-91.39362
261806	35	29	1	-0.363867	0.3172586	-30.52619	0	11.34	4003	-9	-16	-41	0	1.805524E+08	-0.01694103	3	10	0.04	1800	-1.615417	40.92395	-91.39362
261929	-40	60	-205	-0.415395	0.3599666	-30.52607	0	11.34	4003	-4	-20	-40	0	1.805524E+08	-0.01899587	3	10	0.04	1800	-1.212219	40.92395	-91.39362
261983	-21	46	-140	-0.4161554	0.3779034	-30.53169	0	11.34	4003	-6	-4	-41	0	1.805524E+08	-0.01807201	3	10	0.04	1800	-1.158417	40.92395	-91.39362
262040	26	29	211	-0.3885073	0.3916565	-30.52931	0	11.34	4003	6	-25	-40	0	1.805524E+08	-0.0149921	3	10	0.04	1800	-1.158417	40.92395	-91.39362
262117	-61	79	-40	-0.3868966	0.3406875	-30.54417	0	11.34	4003	10	-5	-42	0	1.805524E+08	-0.0108522	3	10	0.04	1800	-1.621613	40.92395	-91.39362
262225	-60	-46	-45	-0.4313404	0.3622459	-30.55028	0	11.68	4003	9	23	-42	0	1.805524E+08	0.007315247	3	10	0.04	1800	-1.131226	40.92395	-91.39362
262334	-62	41	-110	-0.4095658	0.2982987	-30.54251	0	11.68	4002	-4	-8	-41	0	1.805524E+08	0.03146762	3	10	0.04	1800	-1.7742	40.92395	-91.39362
262453	-2	-4	-132	-0.4104671	0.2912176	-30.54111	0	11.68	4003	5	-18	-41	0	1.805524E+08	0.04785617	3	10	0.04	1800	-1.824249	40.92395	-91.39362
262529	-10	-47	-200	-0.4284038	0.3163353	-30.52827	0	11.68	4003	21	-20	-41	0	1.805524E+08	0.05503666	3	10	0.04	1800	-0.6777344	40.92395	-91.39362
262657	148	-47	-38	-0.4304583	0.3198275	-30.52486	0	11.68	4002	2	2	-45	0	1.805524E+08	0.06947068	3	10	0.04	1800	-1.16156	40.92395	-91.39362
262738	-46	15	5	-0.4564408	0.3000771	-30.51422	0	11.68	4002	-9	2	-42	0	1.805524E+08	0.07131051	3	10	0.04	1800	-1.317108	40.92395	-91.39362
262865	-91	41	7	-0.4214437	0.3193384	-30.53819	0	11.68	4004	-11	-3	-44	0	1.805524E+08	0.0740192	3	10	0.04	1800	-1.073029	40.92395	-91.39362
262983	-52	25	-59	-0.447174	0.3175775	-30.54086	0	11.68	4004	18	-13	-41	0	1.805524E+08	0.07407223	3	10	0.04	1800	-1.940796	40.92395	-91.39362
263057	104	79	12	-0.5545506	0.3831272	-30.56831	0	11.68	4004	4	16	-42	0	1.805524E+08	0.07590561	3	10	0.04	1800	-1.210266	40.92395	-91.39362
263156	-76	44	190	-0.5462272	0.3325121	-30.55382	0	11.8	4002	-5	-21	-40	0	1.805524E+08	0.08367311	3	10	0.04	1800	-0.9793701	40.92395	-91.39362
263243	65	-48	25	-0.4881296	0.3398081	-30.55076	0	11.8	4003	22	0	-42	0	1.805524E+08	0.08791741	3	10	0.04	1800	-1.855865	40.92395	-91.39362
263350	50	-129	130	-0.5953377	0.3258899	-30.55783	0	11.8	4002	-8	7	-43	0	1.805524E+08	0.08684742	3	10	0.04	1800	-0.8877869	40.92395	-91.39362
263442	-32	50	-145	-0.5406026	0.3094046	-30.55184	0	11.8	4002	-12	-13	-41	0	1.805524E+08	0.0840815	3	10	0.04	1800	-1.34491	40.92395	-91.39362
263554	-59	-138	-63	-0.5028946	0.3332	-30.56175	0	11.8	4004	20	-10	-43	0	1.805524E+08	0.08113971	3	10	0.04	1800	-1.229065	40.92395	-91.39362
263645	139	101	-51	-0.5757452	0.3335658	-30.55104	0	11.8	4004	8	-8	-43	0	1.805524E+08	0.07300889	3	10	0.04	1800	-0.8909302	40.92395	-91.39362
263777	-37	-49	109	-0.6187018	0.3116318	-30.56325	0	11.8	4003	0	-5	-40	0	1.805524E+08	0.05072034	3	10	0.04	1800	-0.8429871	40.92395	-91.39362
263845	27	55	-21	-0.604931	0.3176021	-30.56948	0	11.8	4004	22	9	-42	0	1.805524E+08	0.04471322	3	10	0.04	1800	-1.288544	40.92395	-91.39362
263948	-113	-194	-104	-0.6203753	0.3098264	-30.55801	0	11.8	4003	-6	-12	-41	0	1.805524E+08	0.03990168	3	10	0.04	1800	-0.6133728	40.92395	-91.39362
264155	29	-85	9	-0.5952536	0.2975051	-30.55978	0	11.74	4002	0	14	-44	0	1.805524E+08	0.04298013	3	10	0.04	1800	-1.347473	40.92395	-91.39362
264183	26	-5	116	-0.5641696	0.3037618	-30.55697	0	11.74	4003	25	12	-43	0	1.805524E+08	0.04224314	3	10	0.04	1800	-1.518372	40.92395	-91.39362
264251	-116	-51	-78	-0.5853047	0.2494784	-30.55874	0	11.74	4003	14	-10	-40	0	1.805524E+08	0.04202387	3	10	0.04	1800	-0.8771973	40.92395	-91.39362
264362	46	-95	-65	-0.5814573	0.2900788	-30.56467	0	11.74	4003	28	2	-41	0	1.805524E+08	0.04978422	3	10	0.04	1800	-1.377106	40.92395	-91.39362
264457	-86	41	-79	-0.5645811	0.2713123	-30.57347	0	11.74	4003	14	-11	-40	0	1.805524E+08	0.05403861	3	10	0.04	1800	-1.318298	40.92395	-91.39362
264564	-44	-39	156	-0.5306767	0.2973329	-30.58929	0	11.74	4003	39	-7	-41	0	1.805524E+08	0.05097605	3	10	0.04	1800	-1.318329	40.92395	-91.39362
264661	95	25	-127	-0.4834505	0.2786089	-30.58422	0	11.74	4002	36	12	-42	0	1.805524E+08	0.05017446	3	10	0.04	1800	-1.175201	40.92395	-91.39362
264832	13	-30	-93	-0.5399854	0.269199	-30.64382	0	11.74	4003	11	-4	-41	0	1.805524E+08	0.041506	3	10	0.04	1800	-1.176331	40.92395	-91.39362
264865	13	-30	-93	-0.5399854	0.269199	-30.64382	0	11.74	4003	11	-4	-41	0	1.805524E+08	0.04105516	3	10	0.04	1800	-1.176331	40.92395	-91.39362
265017	80	133	20	-0.5503066	0.3460737	-30.71088	0	11.8	4003	21	17	-39	0	1.805524E+08	0.04883209	3	10	0.04	1800	-1.198761	40.92395	-91.39362
265097	67	56	-65	-0.6019958	0.3037766	-30.74085	0	11.8	4003	-27	-8	-40	0	1.805524E+08	0.0490585	3	10	0.04	1800	-1.822235	40.92395	-91.39362
265235	-249	-44	411	-0.7734989	0.3177036	-30.91254	0	11.8	4002	-37	15	-36	0	1.805524E+08	0.0557533	3	10	0.04	1800	-1.040405	40.92395	-91.39362
265306	133	190	-607	-0.8162377	0.2557018	-30.9966	0	11.8	4003	11	-26	-25	0	1.805524E+08	0.06141389	3	10	0.04	1800	-0.5315552	40.92395	-91.39362
265370	-6	-102	-52	-0.8442508	0.3237873	-31.05867	0	11.8	4003	54	-6	-26	0	1.805524E+08	0.06863144	3	10	0.04	1800	-0.5315552	40.92395	-91.39362
265462	-268	-16	-236	-0.8166486	0.3476032	-31.28647	0	11.8	4002	-5	0	-21	0	1.805524E+08	0.07307559	3	10	0.04	1800	-0.5249023	40.92395	-91.39362
265559	-150	-129	440	-0.9451557	0.3547039	-31.52308	0	11.8	4004	68	-13	-13	0	1.805524E+08	0.07281213	3	10	0.04	1800	-0.2793274	40.92395	-91.39362
265664	16	-181	40	-0.899675	0.2189976	-31.7028	0	11.8	4004	44	16	-7	0	1.805524E+08	0.07358072	3	10	0.04	1800	-0.2793274	40.92395	-91.39362
265770	-48	-75	-19	-0.9837236	0.152993	-32.1116	0	11.8	4004	30	23	0	0	1.805524E+08	0.08235182	3	10	0.04	1800	-0.3179016	40.92395	-91.39362
265871	128	-23	640	-0.9504002	0.01183257	-32.43654	0	11.63	4003	-9	31	3	0	1.805524E+08	0.0950824	3	10	0.04	1800	0.5702916	40.92395	-91.39362
266010	313	168	-382	-0.8373528	0.1452835	-32.76634	0	11.63	4003	81	10	13	0	1.805524E+08	0.1116632	3	10	0.04	1800	0.6929658	40.92395	-91.39362
266076	162	3	232	-0.930358	0.2056517	-32.84313	0	11.63	4003	56	3	13	0	1.805524E+08	0.114216	3	10	0.04	1800	1.295694	40.92395	-91.39362
266256	63	258	-226	-1.069351	0.157995	-32.93925	0	11.63	4003	58	-62	19	0	1.805524E+08	0.1095905	3	10	0.04	1800	0.8918938	40.92395	-91.39362
266357	-42	-11	434	-1.105838	0.1560335	-32.99945	0	11.63	4002	0	-35	17	0	1.805524E+08	0.1068112	3	10	0.04	1800	0.9960939	40.92395	-91.39362
266415	-167	-206	344	-1.032864	0.1736696	-32.9887	0	11.63	4003	21	26	19	0	1.805524E+08	0.1042379	3	10	0.04	1800	1.615284	40.92395	-91.39362
266494	33	-110	414	-0.8807003	0.1718239	-33.07704	0	11.63	4004	15	5	20	0	1.805524E+08	0.09435046	3	10	0.04	1800	0.6677269	40.92395	-91.39362
266578	-5	-216	13	-0.9320412	0.2172507	-33.12811	0	11.63	4004	49	29	23	0	1.805524E+08	0.08652741	3	10	0.04	1800	0.9346448	40.92395	-91.39362
266685	11	-102	33	-0.9965889	0.2295958	-33.21729	0	11.63	4003	27	22	25	0	1.805524E+08	0.0772569	3	10	0.04	1800	0.6565464	16.34074	10.01441
266788	-13	270	0	-0.9582047	0.320299	-33.29774	0	11.63	4003	-47	-130	29	2147483647	1.805524E+08	0.07281604	8	10	0.04	1800	0.8141379	6.08954	52.30155
266938	21	-50	-48	-0.8683272	0.1710356	-33.41394	0	11.74	4004	121	81	29	-352	1.805524E+08	0.06317683	8	10	0.04	1800	1.195371	40.34343	-90.22303
266990	-36	-159	16	-0.8690206	0.1585217	-33.41968	0	11.74	4004	164	88	28	-347	1.805524E+08	0.05649913	8	10	0.04	1800	1.195371	40.8717	-91.28826
267115	-6	25	78	-0.8340819	0.2001085	-33.44531	0	11.74	4004	171	123	30	-310	1.805524E+08	0.04115047	8	10	0.04	1800	0.8539602	40.92254	-91.39077
267269	38	-42	178	-0.8349242	0.2376544	-33.46566	0	11.74	4002	221	162	28	-344	1.805524E+08	0.01193839	8	10	0.04	1800	1.488171	40.92395	-91.39361
267305	-8	-30	79	-0.8509774	0.2347597	-33.46621	0	11.74	4002	206	174	30	-300	1.805524E+08	-0.001070324	8	10	0.04	1800	1.332312	40.92395	-91.39361
267391	23	25	86	-0.8750152	0.2709344	-33.48285	0	11.74	4002	235	181	28	-346	1.805524E+08	-0.0108324	8	10	0.04	1800	0.8412774	40.92395	-91.39362
267488	-38	48	-144	-0.772997	0.2716906	-33.49549	0	11.74	4004	261	200	29	-340	1.805524E+08	-0.0229525	8	10	0.04	1800	0.7688398	40.92395	-91.39362
267694	-28	72	-81	-0.74365	0.3530601	-33.51078	0	11.74	4003	283	248	30	-347	1.805524E+08	-0.04511509	8	10	0.04	1800	1.649852	40.92395	-91.39362
267867	-240	-279	133	-0.5537894	0.04819559	-33.69818	0	11.29	4004	362	149	36	-308	1.805524E+08	-0.05414006	8	10	0.04	1800	1.019752	40.92395	-91.39362
267893	35	531	359	-0.5462762	0.003702699	-33.80284	0	11.29	4003	322	370	41	-346	1.805524E+08	-0.05571725	8	10	0.04	1800	1.019752	40.92395	-91.39362
268050	184	1027	1481	-0.1895173	-1.288991	-34.58672	0	11.29	4002	345	400	60	-347	1.805524E+08	-0.05677633	8	10	0.04	1800	0.9447569	40.92395	-91.39362
268122	126	1179	1517	-0.01449858	-2.291648	-35.25838	0	11.29	4003	0	0	0	0	1.805524E+08	-0.05166085	8	10	0.04	1800	1.654779	40.92395	-91.39362
268205	18	50	-168	-0.1605155	-2.710039	-35.77399	0	11.29	4002	0	0	0	0	1.805524E+08	-0.04838438	8	10	0.04	1800	1.654779	40.92395	-91.39362
268293	37	1	101	-0.118901	-2.215758	-35.7784	0	11.29	4003	0	0	0	0	1.805524E+08	-0.04629754	1	10	0.04	1800	1.224563	40.92395	-91.39362
268400	33	79	81	-0.246966	-1.798971	-35.78469	0	11.29	4004	0	0	0	0	1.805524E+08	-0.04801201	1	10	0.04	1800	1.847308	40.92395	-91.39362
268507	21	8	36	-0.3049169	-1.585443	-35.7891	0	11.29	4002	0	0	0	0	1.805524E+08	-0.05529471	1	10	0.04	1800	2.053945	40.92395	-91.39362
268605	-34	-26	-14	-0.3742491	-1.319159	-35.80244	0	11.29	4003	0	0	0	0	1.805524E+08	-0.06402701	1	10	0.04	1800	2.212851	40.92395	-91.39362
268703	-22	-41	25	-0.4016599	-1.174646	-35.80819	0	11.8	4003	0	0	0	0	1.805524E+08	-0.07217512	1	10	0.04	1800	1.563779	40.92395	-91.39362
268849	-5	19	-55	-0.4788109	-0.8655566	-35.81474	0	11.8	4003	0	0	0	0	1.805524E+08	-0.08696986	1	10	0.04	1800	2.082166	40.92395	-91.39362
268962	-9	2	-50	-0.4995696	-0.7288787	-35.82293	0	11.8	4004	0	0	0	0	1.805524E+08	-0.08990996	1	10	0.04	1800	1.682093	40.92395	-91.39362
269019	-10	21	-7	-0.5295776	-0.5956206	-35.83302	0	11.8	4003	0	0	0	0	1.805524E+08	-0.09049388	3	10	0.04	1800	2.387565	40.92395	-91.39362
269170	-19	1	-8	-0.5562604	-0.4809981	-35.83472	0	11.8	4003	0	0	0	0	1.805524E+08	-0.08237395	3	10	0.04	1800	2.428499	40.92395	-91.39362
269281	-8	4	15	-0.5852792	-0.3184352	-35.84627	0	11.8	4004	0	0	0	0	1.805524E+08	-0.07494944	3	10	0.04	1800	2.500158	40.92395	-91.39362
269325	-9	0	-12	-0.5925968	-0.2895718	-35.84437	0	11.8	4003	0	0	0	0	1.805524E+08	-0.07488133	3	10	0.04	1800	2.500158	40.92395	-91.39362
269403	-22	-8	-15	-0.60176	-0.2355581	-35.84871	0	11.8	4003	0	0	0	0	1.805524E+08	-0.07637003	3	10	0.04	1800	2.473428	40.92395	-91.39362
269593	-27	0	-11	-0.6227301	-0.1267591	-35.85543	0	11.8	4003	0	0	0	0	1.805524E+08	-0.07989447	3	10	0.04	1800	2.51672	40.92395	36.5574
269627	-19	0	2	-0.6340955	-0.08454546	-35.85744	0	11.8	4004	0	0	0	0	1.805524E+08	-0.0809816	3	10	0.04	1800	2.539337	40.92395	74.9427
269697	-13	-3	0	-0.6376084	-0.03316657	-35.86532	0	11.8	4002	0	0	0	0	1.805524E+08	-0.08534916	3	10	0.04	1800	2.54041	40.92395	90.94937
269804	-18	4	7	-0.6369568	-0.004006008	-35.86721	0	11.8	4004	0	0	0	0	1.805524E+08	-0.09281484	3	10	0.04	1800	1.885827	40.92395	-36.59744
269988	-18	-1	4	-0.6503395	0.06978481	-35.87503	0	11.8	4003	0	0	0	0	1.805524E+08	-0.09621582	3	10	0.04	1800	2.333823	40.92395	-91.35367
270021	-20	5	2	-0.6531829	0.07974827	-35.87533	0	11.8	4004	0	0	0	0	1.805524E+08	-0.096521	3	10	0.04	1800	2.333823	40.92395	-91.38163
270102	-15	-3	4	-0.6573357	0.1025967	-35.87851	0	11.8	4003	0	0	0	0	1.805524E+08	-0.09584882	3	10	0.04	1800	2.134896	40.92395	-91.3933
270207	-12	-2	1	-0.6656657	0.1338487	-35.88321	0	11.8	4003	0	0	0	0	1.805524E+08	-0.09618737	3	10	0.04	1800	2.127732	40.92395	-91.39359
270358	-17	2	4	-0.6701664	0.1795215	-35.89065	0	11.8	4003	0	0	0	0	1.805524E+08	-0.1025477	3	10	0.04	1800	2.139589	40.92395	-91.39362
270431	-17	-3	4	-0.672698	0.1935821	-35.89352	0	11.8	4002	0	0	0	0	1.805524E+08	-0.1052824	3	10	0.04	1800	2.367759	40.92395	-91.39362
270505	-21	0	1	-0.68143	0.2051268	-35.89761	0	11.85	4003	0	0	0	0	1.805524E+08	-0.1005087	3	10	0.04	1800	2.363976	40.92395	-91.39362
270674	-15	6	3	-0.6777035	0.2183654	-35.9028	0	11.85	4002	0	0	0	0	1.805524E+08	-0.08968399	3	10	0.04	1800	2.3707	40.92395	-91.39362
270724	-19	2	2	-0.6789523	0.2233512	-35.9053	0	11.85	4003	0	0	0	0	1.805524E+08	-0.08453356	3	10	0.04	1800	2.370376	40.92395	-91.39362
270891	-21	-3	4	-0.6846644	0.2375607	-35.91208	0	11.85	4002	0	0	0	0	1.805524E+08	-0.08147167	3	10	0.04	1800	2.393374	40.92395	-91.39362
270934	-21	2	1	-0.6994142	0.2495373	-35.91659	0	11.85	4002	0	0	0	0	1.805524E+08	-0.08308402	3	10	0.04	1800	2.394593	40.92395	-91.39362
271067	-14	4	0	-0.7001231	0.2546966	-35.92117	0	11.85	4004	0	0	0	0	1.805524E+08	-0.08190522	3	10	0.04	1800	2.398622	40.92395	-91.39362
271187	-18	-2	1	-0.6956932	0.263856	-35.92569	0	11.85	4003	0	0	0	0	1.805524E+08	-0.07721966	3	10	0.04	1800	2.173873	40.92395	-91.39362
271245	-19	2	0	-0.6950534	0.2773267	-35.92959	0	11.85	4004	0	0	0	0	1.805524E+08	-0.07596809	3	10	0.04	1800	2.397358	40.92395	-91.39362
271309	-17	0	1	-0.6942401	0.2772694	-35.93075	0	11.85	4003	0	0	0	0	1.805524E+08	-0.0750557	3	10	0.04	1800	2.397358	40.92395	-91.39362
271409	-15	3	1	-0.6985597	0.2838717	-35.93325	0	11.85	4003	0	0	0	0	1.805524E+08	-0.07647496	3	10	0.04	1800	2.394629	40.92395	-91.39362
271530	-18	-3	1	-0.692283	0.2990699	-35.93716	0	11.85	4002	0	0	0	0	1.805524E+08	-0.08060601	3	10	0.04	1800	2.194295	40.92395	-91.39362
271616	-16	-5	0	-0.6919965	0.3014082	-35.94052	0	11.85	4003	0	0	0	0	1.805524E+08	-0.08867671	3	10	0.04	1800	2.170056	40.92395	-91.39362
271725	-21	0	3	-0.6877449	0.3028314	-35.94375	0	11.85	4002	0	0	0	0	1.805524E+08	-0.0940555	3	10	0.04	1800	2.387134	40.92395	-91.39362
271811	-20	-1	-1	-0.6844829	0.3052127	-35.94656	0	11.85	4003	0	0	0	0	1.805524E+08	-0.0965123	3	10	0.04	1800	2.382664	40.92395	-91.39362
271915	-18	-2	4	-0.6889731	0.3065446	-35.94839	0	11.85	4002	0	0	0	0	1.805524E+08	-0.1040734	3	10	0.04	1800	2.385058	40.92395	-91.39362
272014	-22	0	2	-0.687849	0.307973	-35.95181	0	11.85	4003	0	0	0	0	1.805524E+08	-0.1122658	3	10	0.04	1800	2.383398	40.92395	-91.39362
272105	-17	-3	2	-0.6834949	0.3079205	-35.9562	0	11.85	4003	0	0	0	0	1.805524E+08	-0.1133393	3	10	0.04	1800	2.593997	40.92395	-91.39362
272223	-19	-3	1	-0.6869897	0.3143434	-35.96054	0	11.85	4003	0	0	0	0	1.805524E+08	-0.11762	3	10	0.04	1800	2.602658	40.92395	-91.39362
272288	-23	0	0	-0.6929932	0.3141974	-35.96066	0	11.85	4003	0	0	0	0	1.805524E+08	-0.1202408	3	10	0.04	1800	2.389213	40.92395	-91.39362
272362	-24	1	0	-0.6935189	0.3191041	-35.96182	0	11.85	4004	0	0	0	0	1.805524E+08	-0.1201767	3	10	0.04	1800	2.17232	40.92395	-91.39362
272517	-15	1	4	-0.6925986	0.3201525	-35.96908	0	11.85	4003	0	0	0	0	1.805524E+08	-0.1114652	3	10	0.04	1800	2.389674	40.92395	34.66907
272615	-12	2	1	-0.7016632	0.3124419	-35.96988	0	11.85	4003	0	0	0	0	1.805524E+08	-0.09636171	3	10	0.04	1800	2.385159	40.92395	38.07276
272692	-20	5	2	-0.7020259	0.3153685	-35.97128	0	11.85	4004	0	0	0	0	1.805524E+08	-0.08663417	3	10	0.04	1800	2.407914	40.92395	-90.34494
272821	-13	1	4	-0.7019406	0.3195159	-35.97372	0	11.85	4003	0	0	0	0	1.805524E+08	-0.07568747	3	10	0.04	1800	2.398378	40.92395	-91.39107
272872	-16	-1	4	-0.7014644	0.3141775	-35.97934	0	11.85	4002	0	0	0	0	1.805524E+08	-0.06976265	3	10	0.04	1800	2.624923	40.92395	-91.39339
272902	-18	0	0	-0.7026926	0.3158631	-35.98269	0	11.85	4004	0	0	0	0	1.805524E+08	-0.0596885	3	10	0.04	1800	2.416246	40.92395	-91.39361
273026	-17	0	0	-0.7092735	0.3167488	-35.98495	0	11.8	4004	0	0	0	0	1.805524E+08	-0.050514	1	10	0.04	1800	2.197944	40.92395	-91.39362
273102	-15	3	2	-0.7079015	0.3169233	-35.98935	0	11.8	4003	0	0	0	0	1.805524E+08	-0.04420758	1	10	0.04	1800	2.20425	40.92395	-91.39362
273133	-19	3	0	-0.7117533	0.3201179	-35.99063	0	11.8	4003	0	0	0	0	1.805524E+08	-0.04145923	1	10	0.04	1800	2.195502	40.92395	-91.39362
273182	-22	2	0	-0.7111818	0.3225553	-35.99197	0	11.8	4003	0	0	0	0	1.805524E+08	-0.03780658	1	10	0.04	1800	1.988584	40.92395	-91.39362
273282	-12	-2	-1	-0.7084953	0.3189375	-35.9952	0	11.8	4003	0	0	0	0	1.805524E+08	-0.03631161	1	10	0.04	1800	2.194294	40.92395	-91.39362
273389	-14	0	5	-0.7002274	0.3179972	-35.99759	0	11.8	4004	0	0	0	0	1.805524E+08	-0.02762226	1	10	0.04	1800	2.405764	40.92395	-91.39362
273489	-16	2	7	-0.6926346	0.3191515	-36.00265	0	11.8	4004	0	0	0	0	1.805524E+08	-0.01900671	1	10	0.04	1800	2.402999	40.92395	-91.39362
273654	-22	2	2	-0.6972024	0.3190295	-36.00857	0	11.8	4002	0	0	0	0	1.805524E+08	-0.0140624	3	10	0.04	1800	2.174588	40.92395	-91.39362
273701	-18	2	1	-0.7023276	0.3156671	-36.00845	0	11.8	4003	0	0	0	0	1.805524E+08	-0.01178976	3	10	0.04	1800	2.174588	40.92395	-91.39362
273942	-23	1	2	-0.7111079	0.3198298	-36.0101	0	11.85	4003	0	0	0	0	1.805524E+08	-0.02443841	3	10	0.04	1800	2.639398	40.92395	-91.39362
274045	-24	2	4	-0.7112974	0.3184827	-36.01376	0	11.85	4004	0	0	0	0	1.805524E+08	-0.03127475	3	10	0.04	1800	2.418364	40.92395	-91.39362
274111	-17	-4	4	-0.707208	0.3220073	-36.01535	0	11.85	4003	0	0	0	0	1.805524E+08	-0.03370652	3	10	0.04	1800	2.422467	40.92395	-91.39362
274207	-14	2	0	-0.7061948	0.3263811	-36.01699	0	11.85	4003	0	0	0	0	1.805524E+08	-0.03891937	3	10	0.04	1800	2.421982	40.92395	-91.39362
274324	-21	0	-2	-0.6962929	0.3235763	-36.01937	0	11.85	4003	2	0	0	0	1.805524E+08	-0.04373319	3	10	0.04	1800	2.401268	40.92395	-91.39362
274405	-13	5	1	-0.6926128	0.3222478	-36.02359	0	11.85	4002	2	-1	0	0	1.805524E+08	-0.04561427	3	10	0.04	1800	2.610619	40.92395	-91.39362
274504	-28	4	12	-0.7005328	0.3188041	-36.02762	0	11.85	4003	2	0	0	0	1.805524E+08	-0.04944101	3	10	0.04	1800	2.611637	40.92395	-91.39362
274596	-12	8	-5	-0.704205	0.318203	-36.03	0	11.85	4002	0	0	0	0	1.805524E+08	-0.05636223	3	10	0.04	1800	2.617807	40.92395	-91.39362
274699	-18	0	9	-0.7054184	0.3189135	-36.03548	0	11.85	4004	3	0	0	0	1.805524E+08	-0.0598557	3	10	0.04	1800	2.196068	40.92395	-91.39362
274852	-40	43	52	-0.6986001	0.3252004	-36.03847	0	11.8	4003	7	-15	0	0	1.805524E+08	-0.05282952	3	10	0.04	1800	2.209693	40.92395	-91.39362
274916	20	-54	13	-0.7049744	0.3266981	-36.06109	0	11.8	4002	3	7	0	0	1.805524E+08	-0.04623737	3	10	0.04	1800	2.209693	40.92395	-91.39362
275028	4	-74	35	-0.7279695	0.3416689	-36.05944	0	11.8	4003	1	2	0	0	1.805524E+08	-0.03411618	3	10	0.04	1800	2.496422	40.92395	-91.39362
275171	-115	-120	91	-0.7418097	0.3558508	-36.05528	0	11.8	4004	0	0	0	0	1.805524E+08	-0.01927899	3	10	0.04	1800	2.664544	40.92395	-91.39362
275259	32	-59	31	-0.7320691	0.340339	-36.05816	0	11.8	4002	0	0	0	0	1.805524E+08	-0.01242615	3	10	0.04	1800	1.967149	40.92395	-91.39362
275323	1	30	50	-0.7382842	0.3395473	-36.06012	0	11.8	4004	0	0	0	0	1.805524E+08	0.007928563	3	10	0.04	1800	1.551475	40.92395	-91.39362
275378	-25	53	14	-0.7439349	0.3312066	-36.0499	0	11.8	4003	0	0	0	0	1.805524E+08	0.01067117	3	10	0.04	1800	1.986382	40.92395	-91.39362
275463	30	-25	-49	-0.7224476	0.3385639	-36.05217	0	11.8	4003	10	-2	0	0	1.805524E+08	0.01212631	3	10	0.04	1800	2.201838	40.92395	-91.39362
275641	-62	18	10	-0.741829	0.3554384	-36.06371	0	11.8	4004	8	0	0	0	1.805524E+08	0.01614026	3	10	0.04	1800	2.458769	40.92395	-91.39362
275680	42	-67	-12	-0.7103794	0.3609113	-36.06255	0	11.8	4002	-10	-16	0	0	1.805524E+08	0.02062065	3	10	0.04	1800	2.215203	40.92395	-91.39362
275767	-46	-29	-73	-0.722933	0.3663365	-36.0535	0	11.8	4003	1	-3	0	0	1.805524E+08	0.02673938	3	10	0.04	1800	2.864667	40.92395	-91.39362
275963	0	32	1	-0.696155	0.3729221	-36.04673	0	11.8	4003	1	33	0	0	1.805524E+08	0.05894859	3	10	0.04	1800	1.953161	40.92395	-91.39362
276028	107	-7	-11	-0.696672	0.3747528	-36.05633	0	11.8	4004	-5	-22	-1	0	1.805524E+08	0.07206059	3	10	0.04	1800	2.18329	40.92395	-91.39362
276083	24	-51	95	-0.7006885	0.4012935	-36.05682	0	11.8	4004	-7	2	0	0	1.805524E+08	0.08393282	3	10	0.04	1800	1.98152	40.92395	-91.39362
276185	-40	-40	35	-0.6800866	0.3648312	-36.05688	0	11.8	4003	-1	22	0	0	1.805524E+08	0.08474574	3	10	0.04	1800	1.465638	40.92395	-91.39362
276280	0	11	53	-0.6907944	0.3563412	-36.05347	0	11.8	4005	17	-6	0	0	1.805524E+08	0.08659554	3	10	0.04	1800	2.345014	40.92395	-91.39362
276371	53	-24	-10	-0.6879909	0.3674522	-36.06081	0	11.8	4004	-7	-5	0	0	1.805524E+08	0.09608862	3	10	0.04	1800	2.456719	40.92395	-91.39362
276484	-44	-32	-36	-0.6789216	0.3559419	-36.02264	0	11.8	4003	12	1	-3	0	1.805524E+08	0.1018756	3	10	0.04	1800	2.615846	40.92395	-91.39362
276571	-77	-14	28	-0.6522794	0.3510928	-36.02045	0	11.85	4004	-9	-7	0	0	1.805524E+08	0.1035257	3	10	0.04	1800	1.832376	40.92395	-91.39362
276696	52	-4	49	-0.6108919	0.3386121	-35.99729	0	11.85	4002	-11	-3	0	0	1.805524E+08	0.1044011	3	10	0.04	1800	2.73209	40.92395	-91.39362
276822	-84	-22	-37	-0.5988142	0.338727	-36.0242	0	11.85	4004	24	3	-1	0	1.805524E+08	0.1070309	3	10	0.04	1800	2.208533	40.92395	-91.39362
276878	-7	-45	-47	-0.5474074	0.311373	-36.01851	0	11.85	4003	22	-10	0	0	1.805524E+08	0.1108622	3	10	0.04	1800	2.452725	40.92395	-91.39362
276994	166	-44	29	-0.5804632	0.3190632	-36.02089	0	11.85	4002	31	5	-2	0	1.805524E+08	0.1092124	3	10	0.04	1800	1.792975	40.92395	-91.39362
277110	-39	-37	51	-0.6369348	0.3271477	-36.01204	0	11.85	4002	-22	-12	0	0	1.805524E+08	0.09858441	3	10	0.04	1800	2.057395	40.92395	-91.39362
277190	-162	-7	-199	-0.6341993	0.2853024	-35.99671	0	11.85	4003	16	-15	0	0	1.805524E+08	0.08950742	3	10	0.04	1800	1.843026	40.92395	-91.39362
277276	-158	29	-230	-0.6619218	0.2877536	-35.98912	0	11.85	4003	27	-15	-1	0	1.805524E+08	0.08582173	3	10	0.04	1800	1.991754	40.92395	-91.39362
277424	-105	-92	44	-0.7083433	0.2942312	-36.00788	0	11.85	4003	49	-9	-1	0	1.805524E+08	0.0808015	3	10	0.04	1800	2.580967	40.92395	-91.39362
277490	53	-27	-6	-0.6964802	0.3094094	-36.01432	0	11.85	4002	40	-2	-1	0	1.805524E+08	0.0774522	3	10	0.04	1800	2.417876	40.92395	-91.39362
277575	50	-24	24	-0.7130091	0.3334695	-36.02192	0	11.74	4004	15	-12	-1	0	1.805524E+08	0.07469685	3	10	0.04	1800	2.667556	40.92395	-91.39362
277680	80	95	47	-0.7688542	0.3328025	-36.03237	0	11.74	4003	17	4	0	0	1.805524E+08	0.07460392	3	10	0.04	1800	2.474731	40.92395	-91.39362
277878	-57	85	-123	-0.8358386	0.3482779	-36.03326	0	11.74	4007	-11	-4	0	0	1.805524E+08	0.08732262	3	10	0.04	1800	2.58789	40.92395	-91.39362
277910	40	-78	-65	-0.8360444	0.3595836	-36.04947	0	11.74	4002	-13	-11	0	0	1.805524E+08	0.09008747	3	10	0.04	1800	2.184655	40.92395	-91.39362
277994	-42	-32	-10	-0.8680537	0.361601	-36.05982	0	11.74	4003	-2	-6	-1	0	1.805524E+08	0.09532259	3	10	0.04	1800	2.200163	40.92395	-91.39362
278164	-279	-28	34	-1.002867	0.3387135	-36.07559	0	11.74	4004	19	0	0	0	1.805524E+08	0.1025904	3	10	0.04	1800	3.037439	40.92395	-91.39362
278198	-84	-20	-104	-0.987784	0.3690528	-36.07937	0	11.74	4003	8	-3	0	0	1.805524E+08	0.1066299	3	10	0.04	1800	3.037439	40.92395	-91.39362
278308	5	56	-181	-0.9995664	0.3523136	-36.08329	0	11.74	4002	36	-27	0	0	1.805524E+08	0.1118747	3	10	0.04	1800	2.42993	40.92395	-91.39362
278380	68	22	-349	-1.049208	0.3518853	-36.06799	0	11.74	4003	38	-16	2	0	1.805524E+08	0.1166862	3	10	0.04	1800	2.242901	40.92395	-91.39362
278502	-204	61	-31	-1.091904	0.3692227	-36.1016	0	11.57	4003	11	-9	5	0	1.805524E+08	0.1333487	3	10	0.04	1800	3.23455	40.92395	-91.39362
278588	-41	54	99	-1.126709	0.4112913	-36.10601	0	11.57	4002	31	-18	0	0	1.805524E+08	0.1372939	3	10	0.04	1800	3.257922	40.92395	-91.39362
278672	-34	-2	-24	-1.129032	0.383456	-36.11493	0	11.57	4004	33	-10	2	0	1.805524E+08	0.141391	3	10	0.04	1800	3.281952	40.92395	-91.39362
278868	14	8	-77	-0.97168	0.3573286	-36.10931	0	11.57	4003	-6	-10	1	0	1.805524E+08	0.1409892	3	10	0.04	1800	2.436085	40.92395	-91.39362
278900	14	8	-77	-0.97168	0.3573286	-36.10931	0	11.57	4003	62	-20	-1	0	1.805524E+08	0.1405671	3	10	0.04	1800	2.436085	40.92395	-91.39362
278975	-32	-117	80	-0.9508174	0.3816079	-36.13028	0	11.57	4002	26	5	1	0	1.805524E+08	0.1321817	3	10	0.04	1800	2.79161	40.92395	-91.39362
279080	58	24	134	-0.9365967	0.3778715	-36.15125	0	11.57	4004	26	6	0	0	1.805524E+08	0.1237941	3	10	0.04	1800	3.058125	40.92395	-91.39362
279189	-93	-116	131	-0.8996332	0.3197206	-36.13897	0	11.57	4003	-6	-3	4	0	1.805524E+08	0.1169792	3	10	0.04	1800	2.971039	40.92395	-91.39362
279276	-124	-112	-43	-0.8443009	0.2888868	-36.13475	0	11.57	4003	60	-11	3	0	1.805524E+08	0.1142816	3	10	0.04	1800	2.858168	40.92395	-91.39362
279411	-114	-93	32	-0.949919	0.261633	-36.14739	0	11.68	4002	15	-7	2	0	1.805524E+08	0.1033182	3	10	0.04	1800	2.476145	40.92395	-91.39362
279497	77	42	-106	-0.9986072	0.2937194	-36.14232	0	11.68	4004	26	2	1	0	1.805524E+08	0.08997395	3	10	0.04	1800	2.873869	40.92395	-91.39362
279580	-16	109	-171	-0.9891241	0.2489436	-36.12186	0	11.68	4003	0	-18	0	0	1.805524E+08	0.08585006	3	10	0.04	1800	2.466383	40.92395	-91.39362
279683	0	-62	243	-1.064953	0.2630424	-36.13938	0	11.68	4003	0	-11	1	0	1.805524E+08	0.07830899	3	10	0.04	1800	3.217209	40.92395	-91.39362
279778	29	7	-29	-1.144942	0.3274976	-36.1362	0	11.68	4003	46	0	0	0	1.805524E+08	0.07813814	3	10	0.04	1800	2.798256	40.92395	-91.39362
279884	109	88	170	-1.118038	0.3059887	-36.13005	0	11.68	4002	13	18	-2	0	1.805524E+08	0.09337185	3	10	0.04	1800	3.118585	40.92395	-91.39362
280008	33	22	-35	-1.094319	0.2516972	-36.14822	0	11.68	4004	43	-26	6	0	1.805524E+08	0.1172758	3	10	0.04	1800	2.775619	40.92395	-91.39362
280084	-91	-23	-130	-1.084957	0.2497068	-36.14792	0	11.68	4002	66	-24	7	0	1.805524E+08	0.1390535	3	10	0.04	1800	3.043097	40.92395	-91.39362
280185	-8	8	134	-1.139972	0.3099824	-36.19368	0	11.68	4003	81	-29	4	0	1.805524E+08	0.1710385	3	10	0.04	1800	2.921404	40.92395	-91.39362
280282	-215	-17	435	-1.087492	0.3105413	-36.20865	0	11.74	4004	20	7	1	0	1.805524E+08	0.1820083	3	10	0.04	1800	2.572815	40.92395	-91.39362
280379	-105	-96	184	-1.029394	0.3366423	-36.21231	0	11.74	4003	50	-16	7	0	1.805524E+08	0.1914717	3	10	0.04	1800	2.484818	40.92395	-91.39362
280477	-81	-30	213	-1.082386	0.32643	-36.21629	0	11.74	4002	-13	21	-1	0	1.805524E+08	0.1925284	3	10	0.04	1800	2.522573	40.92395	-91.39362
280578	-30	25	38	-1.100484	0.3312195	-36.21662	0	11.74	4004	8	400	-2	2147483647	1.462474E+08	0.1925986	8	10	0.04	1800	2.618971	40.92395	-91.39362
280713	-125	57	15	-1.167184	0.4025641	-36.12403	0	11.74	4004	76	-9	4	-329	9.595293E+07	0.194447	8	10	0.04	1800	2.593817	40.92395	-91.39362
280782	20	56	-113	-1.083457	0.2624032	-36.12666	0	11.74	4004	55	-3	0	-362	6.994969E+07	0.1965687	8	10	0.04	1800	2.869274	40.92395	-91.39362
280884	39	93	57	-1.109506	0.3820163	-36.14811	0	11.74	4002	48	-15	1	-356	5.665925E+07	0.1917605	8	10	0.04	1800	2.835399	40.92395	-91.39362
280992	-65	8	18	-1.111513	0.3381413	-36.15752	0	11.74	4003	30	-11	2	-349	4.130459E+07	0.1822868	8	10	0.04	1800	2.513391	40.92395	-91.39362
281096	5	-19	-25	-1.077616	0.3655573	-36.15913	0	11.74	4003	40	-20	3	-348	3.011105E+07	0.1674336	8	10	0.04	1800	3.022502	40.92395	-91.39362
281193	-51	38	-24	-1.031366	0.3725976	-36.1661	0	11.8	4002	35	-18	2	-347	2.195095E+07	0.1527719	8	10	0.04	1800	2.466615	40.92395	-91.39362
281378	-36	8	-15	-0.9984975	0.3660079	-36.18169	0	11.8	4003	40	-11	3	-347	1.166564E+07	0.1105859	8	10	0.04	1800	2.65632	40.92395	-91.39362
281435	-44	-44	-3	-0.973862	0.3533208	-36.19184	0	11.8	4003	42	-15	3	-309	1.049907E+07	0.1060371	8	10	0.04	1800	2.408435	40.92395	-91.39362
281503	-34	3	5	-0.9813697	0.364765	-36.19973	0	11.8	4003	34	-15	3	-345	7653824	0.08769582	8	10	0.04	1800	2.338234	40.92395	-91.39362
281596	-34	-10	24	-0.9555251	0.3557012	-36.20854	0	11.8	4003	40	-19	3	-350	5579638	0.07860068	8	10	0.04	1800	2.326457	40.92395	-91.39362
281719	-22	-4	13	-0.941954	0.3560013	-36.21936	0	11.8	4003	43	-18	3	-344	3660800	0.06897878	8	10	0.04	1800	2.35153	40.92395	-91.39362
281840	-29	-1	0	-0.9238999	0.3766513	-36.22718	0	11.8	4004	44	-17	4	-318	2668724	0.06670143	8	10	0.04	1800	2.27985	40.92395	-91.39362
281884	-42	1	12	-0.9208943	0.3647113	-36.23306	0	11.8	4003	43	-21	4	-310	2401851	0.06522042	8	10	0.04	1800	2.526973	40.92395	-91.39362
282062	-23	10	-13	-0.9275351	0.3717858	-36.24375	0	11.8	4003	44	-14	4	-347	1276442	0.0315018	8	10	0.04	1800	2.237156	40.92395	-91.39362
282156	-28	-13	-5	-0.9204115	0.363677	-36.24955	0	11.8	4002	44	-15	4	-342	930526.4	0.02026234	8	10	0.04	1800	2.084606	40.92395	-91.39362
282190	-25	-6	1	-0.9168134	0.36558	-36.25279	0	11.8	4002	45	-16	4	-350	837473.8	0.01633277	8	10	0.04	1800	2.084606	40.92395	-91.39362
282286	-37	-7	-8	-0.9128	0.3713106	-36.25872	0	11.8	4004	49	-19	5	-350	610518.4	0.008364362	8	10	0.04	1800	2.725121	40.92395	-91.39362
282394	-26	1	1	-0.9108705	0.3695828	-36.26538	0	11.8	4002	47	-18	5	-349	445067.9	0.0005740557	8	10	0.04	1800	2.306026	40.92395	-91.39362
282491	-28	0	-1	-0.9037396	0.3659164	-36.2702	0	11.8	4004	48	-18	5	-310	324454.5	-0.003476793	8	10	0.04	1800	2.281083	40.92395	-91.39362
282610	-27	-4	4	-0.8985545	0.3665019	-36.27423	0	11.8	4002	49	-18	5	-345	236527.4	-0.007722565	8	10	0.04	1800	2.490326	40.92395	-91.39362
282719	-29	0	4	-0.8871084	0.3762439	-36.28137	0	11.8	4003	0	0	0	0	155185.6	-0.01375086	8	10	0.04	1800	2.724557	40.92395	-91.39362
282875	-29	0	4	-0.8744382	0.3745667	-36.28894	0	11.8	4002	0	0	0	0	101817.3	-0.02131959	8	10	0.04	1800	2.480553	40.92395	-91.39362
282897	-29	0	4	-0.8744382	0.3745667	-36.28894	0	11.8	4002	0	0	0	0	101817.3	-0.02131959	8	10	0.04	1800	2.480553	40.92395	-91.39362
282993	-32	0	7	-0.8709414	0.3733214	-36.29285	0	11.8	4003	2	-1	0	46	66802.34	-0.01758618	8	10	0.04	1800	2.70106	40.92395	-91.39362
283131	-36	-55	63	-0.8733624	0.3885849	-36.33007	0	11.8	4002	5	3	0	80	43829.04	-0.006466134	8	10	0.04	1800	2.499456	40.92395	-91.39362
283200	-50	0	-39	-0.898291	0.3941978	-36.32299	0	11.8	4002	0	0	0	0	35501.53	-0.008306917	8	10	0.04	1800	2.171997	40.92395	-91.39362
283379	-45	-13	-14	-0.8842933	0.3931108	-36.34486	0	11.8	4002	0	0	0	0	18866.99	-0.02982323	8	10	0.04	1800	2.230182	40.92395	-91.39362
283496	-30	-2	20	-0.8808547	0.4010172	-36.34762	0	11.8	4003	0	2	0	0	13754.05	-0.0300159	8	10	0.04	1800	1.547747	40.92395	-91.39362
283525	-56	38	63	-0.8905369	0.4005547	-36.35912	0	11.8	4003	8	-2	1	43	13754.05	-0.0300159	8	10	0.04	1800	1.547747	40.92395	-91.39362
283626	0	-89	35	-0.8940467	0.3955567	-36.37856	0	11.8	4004	-5	-3	0	54	9024.049	-0.03701816	8	10	0.04	1800	1.982821	40.92395	-91.39362
283704	-55	-30	-147	-0.8803588	0.3798605	-36.37227	0	11.8	4004	7	-9	1	47	7309.489	-0.03946673	8	10	0.04	1800	1.769325	40.92395	-91.39362
283815	-81	1	-113	-0.9145017	0.3397835	-36.39179	0	11.8	4007	25	-13	3	52	4795.773	-0.04093247	8	10	0.04	1800	1.976228	40.92395	-91.39362
283907	-46	-34	356	-0.8878289	0.3237941	-36.40441	0	11.8	4004	0	0	0	0	3496.133	-0.04114522	8	10	0.04	1800	2.495044	41.16883	-127.6315
284011	22	23	33	-0.8723613	0.2903182	-36.39138	0	11.8	4003	0	0	0	0	2548.694	-0.03571944	8	10	0.04	1800	2.199445	40.8008	-141.7643
284110	-52	26	-49	-0.8759335	0.2865998	-36.3912	0	11.8	4004	0	0	0	0	2064.452	-0.03004906	8	10	0.04	1800	2.249101	41.26101	-143.1243
284234	-25	77	-7	-0.8763146	0.3002862	-36.38364	0	11.8	4004	0	0	0	0	1354.504	-0.01445816	8	10	0.04	1800	1.943648	41.06573	-91.81264
284311	-62	10	-26	-0.8709164	0.3174668	-36.38492	0	11.8	4002	0	0	0	0	1097.158	-0.007075795	8	10	0.04	1800	2.229833	40.92778	-91.40493
284452	49	0	85	-0.9074489	0.3503109	-36.41579	0	11.8	4004	110	-83	-1	45	647.8815	0.008141848	8	10	0.04	1800	2.232321	40.92405	-91.39392
284536	-78	0	13	-0.8868642	0.3226507	-36.37208	0	11.8	4003	83	325	1	42	524.7936	0.01263122	8	10	0.04	1800	2.580982	40.92395	-91.39362
284620	-107	-18	-300	-0.8777537	0.2044293	-36.37857	0	11.8	4003	44	-30	6	39	425.0924	0.01590397	8	10	0.04	1800	2.630675	40.92395	-91.39362
284728	-118	27	-239	-0.8981409	0.2425694	-36.36751	0	11.8	4003	0	0	0	0	278.9204	0.02211563	8	10	0.04	1800	2.235886	40.92395	-91.39362
284820	-62	77	-45	-0.8841208	0.2680444	-36.38598	0	11.8	4003	0	0	0	0	225.9351	0.02412731	8	10	0.04	1800	2.897344	40.92395	-91.39362
284929	11	24	34	-0.8454099	0.2606587	-36.38458	0	11.74	4002	0	0	0	0	148.2534	0.02545104	8	10	0.04	1800	2.477305	40.92395	-91.39362
285053	-50	10	-14	-0.8603219	0.2886752	-36.40042	0	11.74	4004	0	0	0	0	108.0904	0.022064	8	10	0.04	1800	3.138931	40.92395	-91.39362
285122	-12	-21	48	-0.871165	0.2956773	-36.40898	0	11.74	4003	0	0	0	0	78.81156	0.01722237	8	10	0.04	1800	2.457294	40.92395	-91.39362
285231	-11	27	9	-0.8653883	0.2952213	-36.40881	0	11.74	4003	0	0	0	0	57.46729	0.01488156	8	10	0.04	1800	2.877867	40.92395	-91.39362
285366	-30	45	57	-0.8421177	0.3147663	-36.42336	0	11.74	4002	-12	4	0	42	37.72163	0.01507795	8	10	0.04	1800	2.384454	40.92395	-91.39362
285431	-33	-39	28	-0.7887003	0.318213	-36.4164	0	11.74	4003	18	2	-1	50	30.5641	0.01382068	8	10	0.04	1800	2.384454	40.92395	-91.39362
285593	2	10	144	-0.8392057	0.3178316	-36.40252	0	11.74	4002	0	0	0	0	18.06844	0.01387141	8	10	0.04	1800	2.178264	40.92395	-91.39362
285650	-84	-16	12	-0.8338218	0.3252995	-36.40124	0	11.74	4002	0	0	0	0	14.64502	0.01660028	8	10	0.04	1800	2.178264	40.92395	-91.39362
285717	8	0	45	-0.8809094	0.3399414	-36.39946	0	11.74	4003	0	0	0	0	13.18556	0.01799502	8	10	0.04	1800	2.644764	40.92395	-91.39362
285819	-16	8	32	-0.8773716	0.3448424	-36.41022	0	11.8	4004	0	0	0	0	8.668386	0.0162483	8	10	0.04	1800	2.396127	40.92395	-91.39362
285961	-69	-4	69	-0.8541011	0.3343593	-36.41256	0	11.8	4004	0	0	0	0	5.704668	0.001546819	3	10	0.04	1800	1.906371	40.92395	-91.39362
286063	-23	4	-32	-0.870708	0.3413373	-36.41855	0	11.8	4003	0	0	0	0	4.172367	-0.008544304	3	10	0.04	1800	2.159808	40.92395	-91.39362
286141	-21	-12	15	-0.8816069	0.3342987	-36.42619	0	11.8	4002	0	0	0	0	3.389197	-0.01304176	3	10	0.04	1800	1.753797	40.92395	-91.39362
286231	-43	2	27	-0.8715063	0.3419018	-36.42875	0	11.8	4004	0	0	0	0	2.240992	-0.02184898	3	10	0.04	1800	1.74144	40.92395	-91.39362
286395	-29	-6	-2	-0.8939106	0.3530108	-36.44734	0	11.8	4004	0	0	0	0	1.487655	-0.0306932	1	10	0.04	1800	2.185803	40.92395	-91.39362
286478	-48	16	26	-0.8926164	0.3540945	-36.45271	0	11.8	4002	0	0	0	0	1.098165	-0.0351837	1	10	0.04	1800	2.415048	40.92395	-91.39362
286535	-40	8	26	-0.8902633	0.3548663	-36.46275	0	11.8	4002	0	0	0	0	0.9933902	-0.0360404	1	10	0.04	1800	2.207795	40.92395	-91.39362
286633	-28	21	33	-0.8934216	0.3569186	-36.46385	0	11.8	4004	0	0	0	0	0.6691031	-0.03670621	1	10	0.04	1800	2.190591	40.92395	-91.39362
286727	-38	-25	2	-0.8953772	0.3542858	-36.47014	0	11.8	4003	0	0	0	0	0.6072349	-0.03592508	1	10	0.04	1800	2.193188	40.92395	-91.39362
286832	-40	0	0	-0.9021549	0.3568922	-36.48078	0	11.8	4003	0	0	0	0	0.4157466	-0.02819132	1	10	0.04	1800	2.017894	40.92395	-91.39362
286930	-34	0	-7	-0.9051794	0.3556885	-36.48946	0	11.8	4004	0	0	0	0	0.2901111	-0.02289768	1	10	0.04	1800	2.211512	40.92395	-91.39362
287068	-27	-10	-3	-0.9021491	0.3512502	-36.49802	0	11.8	4002	0	0	0	0	0.2251551	-0.02454219	1	10	0.04	1800	2.237008	40.92395	-91.39362
287135	-27	-8	2	-0.9065698	0.3513976	-36.49991	0	11.8	4002	0	0	0	0	0.1778021	-0.02947009	1	10	0.04	1800	2.237008	40.92395	-91.39362
287230	-29	3	4	-0.8928722	0.3600912	-36.50925	0	11.8	4004	0	0	0	0	0.1432818	-0.04518038	1	10	0.04	1800	2.442485	40.92395	-91.39362
287363	-30	10	11	-0.8848289	0.3575024	-36.51957	0	11.8	4003	0	0	0	0	0.1181166	-0.0567278	1	10	0.04	1800	2.396888	40.92395	-91.39362
287454	-29	1	5	-0.8779728	0.3541586	-36.52713	0	11.8	4003	0	0	0	0	0.1052544	-0.06472042	1	10	0.04	1800	2.397975	40.92395	-91.39362
287545	-32	0	4	-0.8733857	0.3529244	-36.53074	0	11.8	4002	0	0	0	0	0.08639719	-0.0913159	1	10	0.04	1800	2.382652	40.92395	-91.39362
287645	-30	0	3	-0.8732845	0.3531249	-36.53623	0	11.8	4002	0	0	0	0	0.07956172	-0.09774227	1	10	0.04	1800	2.374053	40.92395	-91.39362
287737	-29	1	6	-0.8689286	0.3508445	-36.54099	0	11.8	4003	0	0	0	0	0.06954022	-0.09773858	1	10	0.04	1800	2.377289	40.92395	-91.39362
287843	-26	1	1	-0.8653725	0.3560943	-36.54306	0	11.8	4003	0	0	0	0	0.06435891	-0.107736	1	10	0.04	1800	2.365261	40.92395	-91.39362
287941	-26	-2	1	-0.8609163	0.3524075	-36.54837	0	11.8	4003	0	0	0	0	0.06058174	-0.1199344	1	10	0.04	1800	2.358452	40.92395	-91.39362
288043	-36	0	5	-0.8571821	0.3511803	-36.5524	0	11.8	4004	0	0	0	0	0.05782818	-0.1244096	1	10	0.04	1800	2.349476	40.92395	-91.39362
288141	-32	8	2	-0.8538013	0.3423723	-36.55808	0	11.8	4003	0	0	0	0	0.05642082	-0.1287505	1	10	0.04	1800	2.352049	40.92395	-91.39362
