time(ms)	gyro_x(deg/s)	gyro_y(deg/s)	gyro_z(deg/s)	orientation_roll(deg)	orientation_pitch(deg)	orientation_yaw(deg)	throttle	battery(V)	loop_time(uS)	pid_output_roll	pid_output_pitch	pid_output_yaw	pid_output_throttle	ultrasonic_alt	baro_alt	flight_mode	p_gain_altitude	i_gain_altitude	d_gain_altitude	compass_heading	latitude	longitude
319943	4	-7	0	-0.4148269	0.2931888	-36.87449	0	11.85	4002	0	0	0	0	0.04939198	0.06285796	1	10	0.04	1800	1.6998	40.92395	-91.39363
320030	4	-1	3	-0.417004	0.291667	-36.87309	0	11.8	4002	0	0	0	0	0.04939198	0.06192676	1	10	0.04	1800	1.702615	40.92395	-91.39363
320144	2	0	0	-0.4156051	0.2934109	-36.86827	0	11.8	4004	0	0	0	0	0.04939198	0.06130286	1	10	0.04	1800	1.701542	40.92395	-91.39363
320269	6	-1	-1	-0.4117553	0.2937826	-36.86601	0	11.8	4002	0	0	0	0	0.04939198	0.06341736	1	10	0.04	1800	1.693609	40.92395	-91.39363
320346	5	-2	-3	-0.4102393	0.2970502	-36.8657	0	11.8	4004	0	0	0	0	0.04939198	0.06610109	1	10	0.04	1800	1.484454	40.92396	-91.39363
320439	5	-4	-1	-0.4059642	0.2962752	-36.86125	0	11.8	4006	0	0	0	0	0.04939198	0.0656851	1	10	0.04	1800	1.482111	40.92396	-91.39363
320552	2	-3	1	-0.4095759	0.2955101	-36.85722	0	11.8	4004	0	0	0	0	0.04939198	0.05948038	1	10	0.04	1800	1.474431	40.92396	-91.39363
320643	5	-1	-6	-0.4116033	0.2986633	-36.8527	0	11.8	4003	0	0	0	0	0.04939198	0.04727328	1	10	0.04	1800	1.478813	40.92396	-91.39363
320740	1	0	1	-0.4093709	0.3022113	-36.84929	0	11.8	4004	0	0	0	0	0.04939198	0.04209774	1	10	0.04	1800	1.702473	40.92396	-91.39363
320881	4	0	-1	-0.4168333	0.2966729	-36.84483	0	11.8	4004	0	0	0	0	0.04939198	0.03972975	1	10	0.04	1800	1.700084	40.92396	-91.39363
320954	1	-6	-5	-0.4165927	0.2968242	-36.84477	0	11.8	4003	0	0	0	0	0.04939198	0.04257271	1	10	0.04	1800	1.702472	40.92396	-91.39363
321063	7	0	-3	-0.4175146	0.2994577	-36.84111	0	11.8	4004	0	0	0	0	0.04939198	0.04826178	1	10	0.04	1800	1.706913	40.92396	-91.39363
321172	6	-2	-1	-0.4219248	0.2978805	-36.83793	0	11.8	4004	0	0	0	0	0.04939198	0.05148758	1	10	0.04	1800	1.708616	40.92396	-91.39363
321284	0	2	-4	-0.4294845	0.2969746	-36.83317	0	11.8	4004	0	0	0	0	0.04939198	0.05424072	1	10	0.04	1800	1.505237	40.92397	-91.39363
321324	0	3	0	-0.4291243	0.2950286	-36.8325	0	11.8	4002	0	0	0	0	0.04939198	0.06044869	1	10	0.04	1800	1.505237	40.92397	-91.39363
321452	0	1	-4	-0.4208865	0.2946429	-36.82927	0	11.8	4003	0	0	0	0	0.04939198	0.06824718	1	10	0.04	1800	1.714516	40.92397	-91.39363
321542	4	-1	-1	-0.4232965	0.2954213	-36.82689	0	11.8	4003	0	0	0	0	0.04939198	0.07433794	1	10	0.04	1800	1.709746	40.92397	-91.39363
321635	5	-3	0	-0.4219718	0.2955568	-36.82597	0	11.8	4002	0	0	0	0	0.04939198	0.07334734	1	10	0.04	1800	1.702299	40.92397	-91.39363
321739	4	4	-3	-0.4259375	0.2954213	-36.82408	0	11.8	4003	0	0	0	0	0.04939198	0.07263177	1	10	0.04	1800	1.715783	40.92397	-91.39363
321863	4	3	-3	-0.4327126	0.2912799	-36.81981	0	11.8	4003	0	0	0	0	0.04939198	0.07119208	1	10	0.04	1800	1.721963	40.92397	-91.39363
321962	5	4	-4	-0.4292813	0.2937942	-36.8184	0	11.8	4003	0	0	0	0	0.04939198	0.072378	1	10	0.04	1800	1.719974	40.92397	-91.39363
322134	0	-1	-3	-0.4263572	0.2909442	-36.81181	0	11.8	4003	0	0	0	0	0.04939198	0.07480597	1	10	0.04	1800	1.718005	40.92397	-91.39363
322185	4	1	-4	-0.4254413	0.2827163	-36.80925	0	11.8	4004	0	0	0	0	0.04939198	0.07442375	1	10	0.04	1800	1.716534	40.92397	-91.39363
322284	6	4	-1	-0.4243536	0.2860974	-36.80644	0	11.8	4004	0	0	0	0	0.04939198	0.06817846	1	10	0.04	1800	1.92806	40.92397	-91.39363
322363	1	-3	0	-0.4248267	0.2891595	-36.80455	0	11.8	4002	0	0	0	0	0.04939198	0.0635481	1	10	0.04	1800	1.721518	40.92397	-91.39363
322473	2	0	-1	-0.4201235	0.2915458	-36.80363	0	11.8	4002	0	0	0	0	0.04939198	0.06959251	1	10	0.04	1800	1.707114	40.92397	-91.39363
322531	0	-6	-2	-0.4165209	0.2948403	-36.80186	0	11.8	4002	0	0	0	0	0.04939198	0.067698	1	10	0.04	1800	1.924716	40.92397	-91.39363
322609	11	-5	0	-0.4178154	0.2979418	-36.79966	0	11.8	4003	0	0	0	0	0.04939198	0.0661246	1	10	0.04	1800	1.702756	40.92397	-91.39363
322709	4	3	0	-0.4119689	0.2942607	-36.79753	0	11.8	4004	0	0	0	0	0.04939198	0.06077505	1	10	0.04	1800	1.704498	40.92397	-91.39363
322813	9	-2	0	-0.4129204	0.2986885	-36.79258	0	11.85	4002	0	0	0	0	0.04939198	0.04259938	1	10	0.04	1800	1.698396	40.92397	-91.39363
322917	7	2	0	-0.4083456	0.295683	-36.79112	0	11.85	4004	0	0	0	0	0.04939198	0.03452124	1	10	0.04	1800	1.696023	40.92397	-91.39363
323022	6	-4	-3	-0.4060676	0.2904716	-36.78953	0	11.85	4004	0	0	0	0	0.04939198	0.03325153	1	10	0.04	1800	1.469941	40.92397	-91.39362
323133	5	-2	0	-0.4076563	0.2903511	-36.78563	0	11.85	4003	0	0	0	0	0.04939198	0.02679177	1	10	0.04	1800	1.897833	40.92397	-91.39362
323225	7	2	0	-0.4099555	0.2939569	-36.78325	0	11.85	4002	0	0	0	0	0.04939198	0.02301046	1	10	0.04	1800	1.693495	40.92397	-91.39362
323317	2	2	-2	-0.4106516	0.2924914	-36.78227	0	11.85	4004	0	0	0	0	0.04939198	0.02387721	1	10	0.04	1800	1.472112	40.92397	-91.39362
323426	5	-8	-4	-0.4152093	0.2992018	-36.77885	0	11.85	4004	0	0	0	0	0.04939198	0.021402	1	10	0.04	1800	1.699833	40.92397	-91.39362
323517	3	-2	1	-0.4179524	0.2987162	-36.77653	0	11.85	4003	0	0	0	0	0.04939198	0.01542781	1	10	0.04	1800	1.704228	40.92397	-91.39362
323702	5	0	0	-0.4257936	0.3087581	-36.76817	0	11.8	4003	0	0	0	0	0.04939198	0.002709026	1	10	0.04	1800	1.493279	40.92396	-91.39362
323818	2	2	2	-0.4192728	0.3130518	-36.76719	0	11.8	4004	0	0	0	0	0.04939198	-0.004567055	1	10	0.04	1800	1.702636	40.92396	-91.39362
323838	6	2	-8	-0.4155798	0.3154587	-36.76329	0	11.8	4003	0	0	0	0	0.04939198	-0.005011382	1	10	0.04	1800	1.486176	40.92396	-91.39362
323927	0	0	-4	-0.4173652	0.3185371	-36.76139	0	11.8	4002	0	0	0	0	0.04939198	-0.005220343	1	10	0.04	1800	1.700556	40.92396	-91.39362
324029	0	-3	-3	-0.4065982	0.3114854	-36.7559	0	11.8	4003	0	0	0	0	0.04939198	-0.01284504	1	10	0.04	1800	1.471976	40.92397	-91.39362
324202	4	0	-4	-0.4118598	0.3126839	-36.75138	0	11.8	4002	0	0	0	0	0.04939198	-0.03917645	1	10	0.04	1800	1.480018	40.92397	-91.39362
324279	4	0	-2	-0.4082665	0.3056952	-36.74839	0	11.8	4003	0	0	0	0	0.04939198	-0.04479659	1	10	0.04	1800	1.695287	40.92397	-91.39362
324359	3	5	-2	-0.409631	0.305916	-36.74595	0	11.8	4004	0	0	0	0	0.04939198	-0.05633312	1	10	0.04	1800	1.690697	40.92397	-91.39362
324446	6	3	-3	-0.4077088	0.300814	-36.74522	0	11.8	4003	0	0	0	0	0.04939198	-0.06126137	1	10	0.04	1800	1.694202	40.92397	-91.39362
324620	5	-1	1	-0.4078009	0.2991192	-36.74351	0	11.85	4004	0	0	0	0	0.04939198	-0.05824733	1	10	0.04	1800	1.690184	40.92397	-91.39362
324754	8	1	-6	-0.4124635	0.2985969	-36.73777	0	11.85	4003	0	0	0	0	0.04939198	-0.05214236	1	10	0.04	1800	1.70785	40.92397	-91.39362
324810	6	-4	-1	-0.4108986	0.2994103	-36.73631	0	11.85	4004	0	0	0	0	0.04939198	-0.05175181	1	10	0.04	1800	1.70785	40.92397	-91.39362
324902	0	0	-4	-0.4138408	0.2960693	-36.73161	0	11.85	4002	0	0	0	0	0.04939198	-0.05000575	1	10	0.04	1800	1.478387	40.92397	-91.39362
325006	4	-1	-1	-0.407645	0.2981338	-36.72703	0	11.85	4002	0	0	0	0	0.04939198	-0.04110709	1	10	0.04	1800	1.694302	40.92397	-91.39362
325108	12	-3	2	-0.4038668	0.2940164	-36.72477	0	11.85	4002	0	0	0	0	0.04939198	-0.03346296	3	10	0.04	1800	1.687095	40.92397	-91.39362
325231	6	-3	-4	-0.4090832	0.3020788	-36.71885	0	11.85	4004	0	0	0	0	0.04939198	-0.02570602	3	10	0.04	1800	1.483323	40.92397	-91.39362
325307	8	-4	0	-0.4084945	0.3009527	-36.71537	0	11.85	4003	0	0	0	0	0.04939198	-0.0220048	3	10	0.04	1800	1.699022	40.92397	-91.39362
325445	2	0	0	-0.4143579	0.2962939	-36.71141	0	11.85	4004	0	0	0	0	0.04939198	-0.03175724	3	10	0.04	1800	1.701895	40.92397	-91.39362
325538	8	0	-4	-0.410556	0.2987598	-36.70903	0	11.8	4004	0	0	0	0	0.04939198	-0.04577269	3	10	0.04	1800	1.689144	40.92397	-91.39362
325609	11	-2	-2	-0.4113185	0.2928275	-36.705	0	11.8	4003	0	0	0	0	0.04939198	-0.05991834	3	10	0.04	1800	1.701071	40.92397	-91.39362
325698	6	-3	-6	-0.4137935	0.29885	-36.70091	0	11.8	4004	0	0	0	0	0.04939198	-0.06571239	3	10	0.04	1800	1.705944	40.92397	-91.39362
325877	4	0	-2	-0.4071265	0.3037419	-36.69438	0	11.8	4003	0	0	0	0	0.04939198	-0.07445842	3	10	0.04	1800	1.698039	40.92397	-91.39362
325936	8	-2	-3	-0.4029492	0.3007447	-36.69242	0	11.8	4003	0	0	0	0	0.04939198	-0.07794077	3	10	0.04	1800	1.68564	40.92397	-91.39362
325992	0	1	-1	-0.3971153	0.305866	-36.6898	0	11.8	4003	0	0	0	0	0.04939198	-0.07716306	3	10	0.04	1800	1.676027	40.92397	-91.39362
326122	8	4	-6	-0.3961939	0.3022955	-36.68534	0	11.8	4002	0	0	0	0	0.04939198	-0.07277367	3	10	0.04	1800	1.452797	40.92397	-91.39362
326197	5	1	-9	-0.3972411	0.3025297	-36.68217	0	11.8	4003	0	0	0	0	0.04939198	-0.07018176	3	10	0.04	1800	1.669809	40.92397	-91.39362
326372	0	5	-5	-0.3977702	0.3048024	-36.67729	0	11.8	4002	0	0	0	0	0.04939198	-0.05894871	3	10	0.04	1800	1.458296	40.92397	-91.39362
326453	4	-1	-4	-0.3962005	0.3102845	-36.67381	0	11.8	4003	0	0	0	0	0.04939198	-0.05483007	3	10	0.04	1800	1.66988	40.92397	-91.39362
326536	5	1	-4	-0.3979615	0.3074576	-36.66887	0	11.8	4003	0	0	0	0	0.04939198	-0.05144306	3	10	0.04	1800	1.667423	40.92397	-91.39362
326597	7	-6	-6	-0.4010707	0.309578	-36.6671	0	11.8	4004	0	0	0	0	0.04939198	-0.04366035	3	10	0.04	1800	1.903513	40.92397	-91.39362
326706	6	0	-1	-0.3979129	0.3047914	-36.66441	0	11.8	4003	0	0	0	0	0.04939198	-0.03232101	3	10	0.04	1800	1.687796	40.92397	-91.39362
326801	3	1	0	-0.395115	0.3076281	-36.65928	0	11.8	4003	0	0	-1	0	0.04939198	-0.02301002	3	10	0.04	1800	1.452713	40.92397	-91.39362
326906	-12	39	-5	-0.4054577	0.319256	-36.66479	0	11.8	4002	-2	-11	-10	0	0.04939198	-0.002428733	3	10	0.04	1800	1.677753	40.92397	-91.39362
327048	29	13	-80	-0.4068193	0.2981881	-36.65512	0	11.8	4003	4	0	-11	0	0.04939198	0.006783553	3	10	0.04	1800	2.159096	40.92397	-91.39362
327095	25	11	21	-0.3905255	0.2909571	-36.65586	0	11.8	4003	3	-8	-11	0	0.04939198	0.007755436	3	10	0.04	1800	1.270471	40.92397	-91.39362
327196	34	10	16	-0.4080141	0.3261142	-36.65488	0	11.8	4003	16	-4	-11	0	0.04939198	0.01222499	3	10	0.04	1800	1.688434	40.92397	-91.39362
327395	10	11	7	-0.3879845	0.300766	-36.64486	0	11.8	4002	-5	0	-11	0	0.04939198	0.02127473	3	10	0.04	1800	1.509477	40.92397	-91.39362
327470	28	16	24	-0.4096501	0.3154459	-36.63997	0	11.8	4003	-3	4	-12	0	0.04939198	0.02118076	3	10	0.04	1800	1.52495	40.92397	-91.39362
327528	14	25	24	-0.4209477	0.3122838	-36.64352	0	11.8	4004	-4	4	-11	0	0.04939198	0.005383194	3	10	0.04	1800	1.460606	40.92397	-91.39362
327579	37	25	66	-0.4041611	0.309425	-36.64566	0	11.8	4002	-11	5	-12	0	0.04939198	0.002739162	3	10	0.04	1800	2.20176	40.92398	-91.39362
327681	29	-135	0	-0.3926764	0.3264953	-36.64511	0	11.8	4003	8	-6	-11	0	0.04939198	-0.003865899	3	10	0.04	1800	1.732788	40.92398	-91.39362
327785	20	27	64	-0.4248126	0.354075	-36.63801	0	11.8	4002	12	4	-11	0	0.04939198	-0.00554362	3	10	0.04	1800	1.541972	40.92398	-91.39362
327933	63	-16	-28	-0.4193322	0.3478857	-36.62511	0	11.8	4004	-6	-8	-12	0	0.04939198	0.003404756	3	10	0.04	1800	1.536354	40.92398	-91.39362
327991	-96	25	131	-0.4527927	0.3761514	-36.63128	0	11.8	4002	19	-10	-11	0	0.04939198	0.00553506	3	10	0.04	1800	1.549216	40.92398	-91.39362
328088	105	-16	75	-0.4639809	0.3617739	-36.63488	0	11.8	4004	-15	-8	-11	0	0.04939198	0.01547303	3	10	0.04	1800	2.047697	40.92398	-91.39362
328190	22	70	32	-0.4832106	0.3552454	-36.63212	0	11.8	4003	-2	16	-12	0	0.04939198	0.0224861	3	10	0.04	1800	2.304565	40.92398	-91.39362
328360	44	49	-9	-0.4466394	0.3334453	-36.62093	0	11.8	4003	5	-6	-12	0	0.04939198	0.02666873	3	10	0.04	1800	1.431171	40.92398	-91.39362
328395	63	-55	30	-0.4167079	0.3260374	-36.61647	0	11.8	4003	-4	-4	-13	0	0.04939198	0.0218936	3	10	0.04	1800	1.714179	40.92398	-91.39362
328508	-122	25	11	-0.4272099	0.2892101	-36.61237	0	11.8	4003	1	13	-12	0	0.04939198	0.02266335	3	10	0.04	1800	1.529622	40.92398	-91.39362
328651	-99	97	22	-0.3841643	0.2741281	-36.61632	0	11.8	4002	-8	14	-12	0	0.04939198	0.01887807	3	10	0.04	1800	2.199687	40.92398	-91.39362
328778	-80	52	32	-0.276342	0.2851238	-36.60836	0	11.8	4003	6	12	-13	0	0.04939198	0.02594098	3	10	0.04	1800	2.013054	40.92398	-91.39362
328809	-58	-51	-145	-0.3127086	0.2858531	-36.61833	0	11.8	4002	-7	-8	-11	0	0.04939198	0.03154897	3	10	0.04	1800	2.042007	40.92398	-91.39362
328904	109	-34	42	-0.280618	0.2842117	-36.6135	0	11.8	4003	9	0	-11	0	0.04939198	0.03785206	3	10	0.04	1800	2.051308	40.92398	-91.39362
329071	-42	-66	-100	-0.2715693	0.2691641	-36.59986	0	11.8	4004	3	19	-13	0	0.04939198	0.05113698	3	10	0.04	1800	1.266628	40.92397	-91.39362
329130	89	-40	-35	-0.3026794	0.2845728	-36.62476	0	11.74	4004	13	-15	-12	0	0.04939198	0.06075963	3	10	0.04	1800	1.560018	40.92397	-91.39362
329193	-108	-3	-53	-0.3142451	0.2890707	-36.60672	0	11.74	4002	-11	4	-12	0	0.04939198	0.06237334	3	10	0.04	1800	2.051343	40.92397	-91.39362
329295	55	-27	13	-0.3420352	0.3091604	-36.61357	0	11.74	4003	18	0	-12	0	0.04939198	0.06516064	3	10	0.04	1800	1.437151	40.92398	-91.39362
329450	-47	24	-18	-0.3373199	0.3033673	-36.60637	0	11.74	4002	-10	0	-12	0	0.04939198	0.06350309	3	10	0.04	1800	1.421974	40.92398	-91.39362
329499	-44	7	68	-0.3929517	0.3167769	-36.59536	0	11.74	4002	10	3	-13	0	0.04939198	0.06068261	3	10	0.04	1800	1.931266	40.92398	-91.39362
329660	-106	50	7	-0.3725882	0.283432	-36.59422	0	11.74	4002	12	2	-13	0	0.04939198	0.05446886	3	10	0.04	1800	1.495089	40.92397	-91.39362
329704	-51	-44	-132	-0.3491988	0.2706042	-36.59251	0	11.74	4003	-36	2	-12	0	0.04939198	0.05234579	3	10	0.04	1800	1.495089	40.92397	-91.39362
329842	8	-97	65	-0.3872787	0.2850224	-36.58475	0	11.74	4002	14	-12	-13	0	0.04939198	0.04836796	3	10	0.04	1800	2.072251	40.92397	-91.39362
329911	69	21	-85	-0.3643106	0.2983647	-36.59404	0	11.74	4003	19	19	-15	0	0.04939198	0.04442742	3	10	0.04	1800	1.743489	40.92397	-91.39362
330032	1	-94	123	-0.3838854	0.3322836	-36.60744	0	11.63	4002	-14	-4	-14	0	0.04939198	0.04284283	3	10	0.04	1800	1.482723	40.92398	-91.39362
330103	-95	-11	-75	-0.4004978	0.3045848	-36.5971	0	11.63	4003	42	10	-14	0	0.04939198	0.03684334	3	10	0.04	1800	1.521289	40.92398	-91.39362
330206	93	7	101	-0.4232401	0.3459145	-36.60078	0	11.63	4004	-8	-7	-13	0	0.04939198	0.01909885	3	10	0.04	1800	1.740732	40.92398	-91.39362
330311	-206	-32	17	-0.44136	0.3124451	-36.59405	0	11.63	4005	-38	-3	-11	0	0.04939198	0.0106679	3	10	0.04	1800	1.947981	40.92398	-91.39362
330489	54	17	31	-0.4728282	0.3246881	-36.57674	0	11.63	4004	-16	-11	-12	0	0.04939198	-0.002444525	3	10	0.04	1800	1.126172	40.92398	-91.39362
330566	85	64	184	-0.5256327	0.3492256	-36.59723	0	11.63	4002	0	-18	-10	0	0.04939198	-0.008529534	3	10	0.04	1800	1.679031	40.92398	-91.39362
330599	-96	-130	236	-0.5162213	0.3716451	-36.60042	0	11.63	4002	14	-9	-11	0	0.04939198	-0.01416085	3	10	0.04	1800	1.679031	40.92398	-91.39362
330700	-5	-115	-43	-0.5198503	0.3448226	-36.598	0	11.63	4003	0	-13	-12	0	0.04939198	-0.01997422	3	10	0.04	1800	2.161482	40.92398	-91.39362
330802	206	92	116	-0.5308933	0.3354732	-36.61061	0	11.63	4004	8	16	-14	0	0.04939198	-0.02116076	3	10	0.04	1800	1.713431	40.92398	-91.39362
330983	145	0	60	-0.5963178	0.2772566	-36.60021	0	11.51	4003	-4	-1	-13	0	0.04939198	-0.006612832	3	10	0.04	1800	2.316959	40.92398	-91.39362
331054	-129	-52	214	-0.6335113	0.2721598	-36.61836	0	11.51	4004	-24	22	-16	0	0.04445306	-0.004274917	3	10	0.04	1800	2.316959	40.92398	-91.39362
331149	-219	-3	269	-0.7310771	0.2404326	-36.63256	0	11.51	4003	-34	27	-16	0	0.02916658	-0.00537673	3	10	0.04	1800	2.644577	40.92398	-91.39362
331267	102	11	-268	-0.5775036	0.1616053	-36.64521	0	11.51	4003	-16	-22	-16	0	0.02126318	-0.006538424	3	10	0.04	1800	2.350714	40.92398	-91.39362
331299	-66	-148	140	-0.6365537	0.2291489	-36.65192	0	11.51	4002	3	14	-11	0	0.02	-0.007139042	3	10	0.04	1800	2.255835	40.92398	-91.39362
331373	6	101	123	-0.7431784	0.09789452	-36.65805	0	11.51	4003	-33	24	-15	0	0.02	-0.006535901	3	10	0.04	1800	2.691099	40.92397	-91.39362
331596	129	-62	-286	-0.7735655	-0.03321508	-36.6698	0	11.51	4003	60	-20	-9	0	0.02	0.0058205	3	10	0.04	1800	2.407272	40.92397	-91.39362
331753	93	-36	-107	-0.9064237	-0.04091535	-36.74991	0	11.51	4004	65	-8	-3	0	0.02	0.02078271	3	10	0.04	1800	2.895673	40.92397	-91.39362
331838	-172	-36	561	-0.948946	-0.1402993	-36.80983	0	11.51	4003	-36	15	-10	0	0.02	0.02373633	3	10	0.04	1800	3.214871	40.92397	-91.39362
331878	-51	-225	160	-0.9149781	-0.1465729	-36.84896	0	11.74	4002	37	-30	-8	0	0.02	0.02643624	3	10	0.04	1800	2.585855	40.92397	-91.39362
331969	-121	5	755	-0.998134	-0.1635634	-36.96769	0	11.74	4003	-32	21	-8	0	0.02	0.03240636	3	10	0.04	1800	2.548192	40.92397	-91.39362
332075	-207	-76	489	-1.104119	-0.1640051	-37.00975	0	11.74	4003	68	-23	2	0	0.02	0.03294741	3	10	0.04	1800	2.45771	40.92397	-91.39362
332176	177	-32	-189	-1.034111	-0.1663635	-37.2455	0	11.74	4004	61	-8	2	0	0.02	0.04016982	3	10	0.04	1800	3.17636	40.92397	-91.39362
332285	70	144	-28	-1.067889	-0.1328931	-37.44261	0	11.74	4002	21	-20	8	0	0.02	0.03990802	3	10	0.04	1800	3.190788	40.92397	-91.39362
332376	63	-155	936	-1.008969	-0.08878623	-37.77315	0	11.74	4004	-16	28	11	0	0.02	0.03457543	3	10	0.04	1800	3.450199	40.92397	-91.39362
332495	81	144	-169	-1.094218	-0.01850116	-37.91671	0	11.74	4007	54	-58	25	0	0.02	0.02901307	3	10	0.04	1800	3.357461	40.92397	-91.39362
332578	10	66	143	-0.9758884	-0.07243664	-38.0114	0	11.74	4002	27	-31	21	0	0.02	0.02572709	3	10	0.04	1800	3.741644	40.92397	-91.39362
332686	-45	-49	112	-0.8706373	0.0173156	-38.17956	0	11.74	4004	8	14	20	0	0.02	0.02160588	3	10	0.04	1800	3.794621	40.92397	-91.39362
332784	242	-134	-82	-0.8830917	0.06269568	-38.20414	0	11.68	4002	64	21	27	0	0.02	0.02547031	3	10	0.04	1800	3.094172	40.92397	-91.39362
332883	32	-62	-236	-1.027845	0.09128429	-38.18124	0	11.68	4003	40	3	17	0	0.02	0.02867338	3	10	0.04	1800	3.163936	40.92397	-91.39362
333062	162	78	-545	-1.036349	0.09412822	-38.19698	0	11.68	4002	47	14	30	0	0.02	0.02819828	3	10	0.04	1800	3.828405	40.92397	-91.39362
333161	-96	-24	-330	-1.003154	0.02428045	-38.23795	0	11.68	4002	1	-3	29	0	0.02	0.03055985	3	10	0.04	1800	3.809493	40.92397	-91.39362
333223	-306	103	5	-1.144033	0.1477964	-38.25152	0	11.68	4002	-3	-17	30	0	0.02	0.03481068	3	10	0.04	1800	3.646142	40.92397	-91.39362
333278	142	38	118	-1.017555	0.08988366	-38.29927	0	11.68	4004	-26	12	28	0	0.02	0.03736821	3	10	0.04	1800	3.232648	40.92397	-91.39362
333390	-100	5	248	-0.9047273	0.1406391	-38.29292	0	11.68	4002	47	-11	36	66	0.0219788	0.04868032	6	10	0.04	1800	3.9336	40.92397	-91.39362
333476	-9	131	-408	-0.8676982	0.0449329	-38.32486	0	11.68	4002	79	33	32	13	0.02289489	0.05998994	6	10	0.04	1800	2.937834	40.92397	-91.39362
333611	-97	-79	-467	-0.9118095	0.203317	-38.28015	0	11.68	4002	11	-8	33	24	0.02529618	0.07270426	6	10	0.04	1800	3.432515	40.92397	-91.39362
333696	43	276	-191	-0.8819333	0.1610704	-38.22755	0	11.57	4002	34	-28	27	29	0.02837547	0.07783391	6	10	0.04	1800	3.604977	40.92397	-91.39362
333769	269	-29	70	-0.7203493	0.09800588	-38.26677	0	11.57	4004	22	5	27	37	0.03193303	0.08311316	6	10	0.04	1800	3.246876	40.92397	-91.39362
333881	-113	76	-159	-0.7830657	0.06131103	-38.231	0	11.57	4003	51	-28	28	45	0.03480535	0.08463675	6	10	0.04	1800	2.784419	40.92397	-91.39362
333974	-250	-19	234	-0.8795172	0.1628919	-38.1793	0	11.57	4002	12	-12	22	56	0.03734459	0.09314301	6	10	0.04	1800	2.863058	40.92397	-91.39362
334068	-172	-98	421	-0.821355	0.1066165	-38.16317	0	11.57	4002	19	12	21	61	0.03908822	0.09575757	6	10	0.04	1800	4.162546	40.92397	-91.39362
334176	70	-120	202	-0.8280652	0.130026	-38.23876	0	11.57	4003	30	-3	30	71	0.04298557	0.1041918	6	10	0.04	1800	3.507535	40.92397	-91.39362
334265	111	93	6	-0.8429645	0.03913621	-38.40476	0	11.57	4003	15	-16	27	77	0.04270388	0.1050757	6	10	0.04	1800	3.557333	40.92397	-91.39362
334377	-1	-358	914	-0.9495641	-0.1283758	-38.543	0	11.57	4003	-4	-34	33	85	0.04250878	0.1077317	6	10	0.04	1800	3.735031	40.92397	-91.39362
334465	96	192	-95	-1.028847	-0.2582454	-38.71956	0	11.57	4003	48	48	38	95	0.0420558	0.1211357	6	10	0.04	1800	3.880659	40.92397	-91.39362
334545	24	441	1217	-1.10148	-1.076441	-39.33399	0	11.68	4003	50	45	52	101	0.04142941	0.1308158	6	10	0.04	1800	5.167706	40.92397	-91.39363
334647	732	297	573	-0.8195869	-1.729885	-39.40081	0	11.68	4004	-16	25	69	111	0.04141757	0.1456804	6	10	0.04	1800	6.091347	40.92397	-91.39363
334742	2482	-131	-233	1.569954	-2.708105	-38.93	0	11.68	4003	0	-314	24	116	0.04243879	0.1560672	6	10	0.04	1800	6.109223	40.92397	-91.39363
334848	1241	214	-152	3.589921	-3.93182	-38.64291	0	11.68	4004	-29	-137	31	125	0.0481074	0.1865358	6	10	0.04	1800	8.983358	40.92397	-91.39363
334934	-2009	-2759	-748	2.383999	-2.622854	-38.16206	0	11.68	4003	8	13	24	130	0.05239201	0.2009925	6	10	0.04	1800	10.07148	40.92397	-91.39363
335035	-4451	-3164	187	-1.609493	1.193497	-38.24834	0	11.68	4002	41	-196	29	138	0.05740727	0.2164019	6	10	0.04	1800	10.53849	40.92397	-91.39362
335133	1071	2290	-257	-4.269725	-1.047713	-37.4044	0	11.68	4003	-72	133	-2	149	0.05867988	0.2301545	6	10	0.04	1800	12.71293	40.92397	-91.39362
335267	1913	-5030	1112	-1.601886	1.111868	-36.41431	0	11.68	4003	-16777166	-161	-11	160	0.05348468	0.2483999	6	10	0.04	1800	8.339092	40.92397	-91.39362
335329	1322	-4763	750	-0.6491455	2.984969	-36.88451	0	11.68	4003	28	-257	-9	165	0.1184881	0.2554572	6	10	0.04	1800	8.339092	40.92397	-91.39362
335428	2892	1199	-670	2.119972	4.056607	-36.74771	0	11.68	4002	-71	-251	-25	957	0.232311	0.2568461	8	10	0.04	1800	11.35621	40.92397	-91.39362
335589	-1723	3042	1198	-2.088658	-9.073	-35.98737	0	11.17	4004	26	287	-33	197	0.4310237	0.2555991	8	10	0.04	1800	13.70241	40.92397	-91.39362
335677	-1053	3289	956	-3.118081	-10.08475	-37.83149	0	11.17	4004	-77	206	42	200	0.5295622	0.2472311	8	10	0.04	1800	11.26783	40.92397	-91.39362
335724	-825	3419	130	-3.317176	-11.80541	-38.11911	0	11.17	4003	-28	16	33	233	0.5483615	0.2459416	8	10	0.04	1800	9.837665	40.92397	-91.39362
335828	-1664	3342	-1296	-4.041008	-15.03167	-38.28945	0	11.17	4002	109	244	39	200	0.5942132	0.2409283	8	10	0.04	1800	8.175085	40.92397	-91.39362
335960	34	-1100	-617	-4.43845	-13.50914	-37.6184	0	11.17	4004	55	64	10	197	0.6276391	0.2504725	8	10	0.04	1800	4.966886	40.92397	-91.39362
336025	-330	1531	646	-4.346591	-13.2532	-37.62006	0	11.17	4004	14	142	13	199	0.6520066	0.2572015	8	10	0.04	1800	3.485925	40.92397	-91.39362
336192	-802	-1808	608	-3.752958	-12.34477	-37.70976	0	11.17	4003	-106	-200	23	229	0.674549	0.2571232	8	10	0.04	1800	3.549367	40.92396	-91.39362
336261	-1526	-1730	-1682	-5.517956	-8.68696	-37.88016	0	11.17	4003	-10	172	23	204	0.686204	0.2543821	8	10	0.04	1800	1.3475	40.92396	-91.39362
336336	-659	-2435	131	-6.092226	-6.764419	-37.81606	0	11.17	4003	-5	400	33	199	0.6921608	0.2551484	8	10	0.04	1800	2.529663	40.92396	-91.39362
336429	-2513	-1848	668	-7.717241	-5.206542	-38.06798	0	11.29	4002	-58	125	35	217	0.6990429	0.2680106	8	10	0.04	1800	1.172601	40.92396	-91.39362
336533	-482	-1060	-481	-8.799149	-2.761885	-37.42897	0	11.29	4003	66	-171	-4	187	0.7025604	0.2814408	8	10	0.04	1800	-2.791046	40.92397	-91.39362
336699	2613	2713	-1563	-5.766232	-7.985017	-36.70726	0	11.29	4003	-8	3	2	182	0.7095867	0.3526086	8	10	0.04	1800	-3.818726	40.92397	-91.39362
336793	1006	-1334	-8	-1.553116	-8.264071	-37.12705	0	11.29	4003	-36	-208	8	179	0.7111009	0.3805909	8	10	0.04	1800	-3.934296	40.92397	-91.39362
336839	1663	1611	1244	-0.8188906	-8.498618	-37.08189	0	11.29	4002	-109	318	18	192	0.7128502	0.4262936	8	10	0.04	1800	-3.561768	40.92397	-91.39362
336969	413	1062	345	1.19744	-10.10265	-36.52431	0	11.29	4002	64	64	-7	171	0.7141255	0.4711851	8	10	0.04	1800	-1.88562	40.92397	-91.39362
337099	2569	-2113	-1736	0.9802501	-6.748477	-36.32426	0	11.29	4003	-86	-273	-36	146	0.7155303	0.570624	8	10	0.04	1800	-1.497467	40.92397	-91.39362
337159	3737	137	639	4.394846	-6.166117	-36.41655	0	11.29	4004	-21	-40	-16	148	0.7157329	0.5993768	8	10	0.04	1800	0.1481263	40.92397	-91.39362
337255	1924	-671	50	7.692235	-5.63027	-36.7776	0	10.94	4003	-20	-61	-16	148	0.7162269	0.6602799	8	10	0.04	1800	3.235233	40.92397	-91.39362
337362	-1936	-5586	874	4.531885	3.346459	-36.96856	0	10.94	4004	19	-102	-4	141	0.716684	0.7461554	8	10	0.04	1800	3.690334	40.92397	-91.39362
337404	-1226	-4813	-280	3.346794	5.842281	-36.8484	0	10.94	4002	5	18	0	122	0.7167712	0.7806963	8	10	0.04	1800	7.542383	40.92397	-91.39362
337523	-1799	-3073	-13	0.3708753	10.24327	-37.19382	0	10.94	4004	-9	31	0	141	0.7169839	0.8447526	8	10	0.04	1800	11.15449	40.92397	-91.39362
337641	-2183	974	33	-3.668852	6.939164	-37.52185	0	10.94	4003	-12	64	10	147	0.7171807	0.937303	8	10	0.04	1800	14.65508	40.92397	-91.39362
337727	-75	744	-334	-4.736639	5.19367	-37.27198	0	10.94	4003	-9	-158	0	149	0.7172824	0.984399	8	10	0.04	1800	11.98237	40.92397	-91.39362
337844	-1223	1812	-38	-3.64774	0.6620764	-36.50065	0	10.94	4003	17	0	-22	164	0.7173765	1.018921	8	10	0.04	1800	12.45038	40.92397	-91.39362
337913	-2021	2193	780	-6.18643	-1.760287	-36.25978	0	10.94	4002	27	52	-12	167	0.7173945	1.021396	8	10	0.04	1800	12.44495	40.92397	-91.39362
338065	126	428	520	-5.69042	-5.065049	-36.49414	0	10.94	4003	-22	-45	-13	185	0.71745	1.021345	8	10	0.04	1800	8.388485	40.92397	-91.39362
338173	-894	2557	243	-7.646518	-6.510712	-36.69997	0	11.57	4002	47	-118	-14	193	0.7174935	0.9876396	8	10	0.04	1800	5.920623	40.92398	-91.39362
338241	1603	1547	-574	-6.616175	-9.690111	-36.24826	0	11.57	4003	-14	73	-21	188	0.7175053	0.9592379	8	10	0.04	1800	4.26316	40.92397	-91.39362
338301	1785	297	236	-5.378222	-9.668752	-35.93966	0	11.57	4004	47	-273	-43	193	0.7175191	0.9155896	8	10	0.04	1800	4.26316	40.92397	-91.39362
338370	-1509	-1370	-700	-5.090012	-6.607186	-35.5418	0	11.57	4004	14	-132	-45	197	0.7175261	0.8758624	8	10	0.04	1800	1.85628	40.92397	-91.39362
338469	1294	2978	-51	-5.83755	-6.369722	-35.71117	0	11.57	4004	33	-41	-36	194	0.7175318	0.8356483	8	10	0.04	1800	1.85628	40.92397	-91.39362
338575	776	322	811	-3.291639	-8.409194	-36.54752	0	11.57	4004	10	24	-1	197	0.7175401	0.7680081	8	10	0.04	1800	0.6985893	40.92397	-91.39362
338672	29	197	-314	-3.814603	-9.956918	-37.32265	0	11.57	4002	9	-173	-1	197	0.7175432	0.727441	8	10	0.04	1800	2.396709	40.92397	-91.39362
338777	670	213	-1429	-3.35353	-9.59718	-36.37146	0	11.57	4003	-42	-7	-28	201	0.7175475	0.6448108	8	10	0.04	1800	3.642238	40.92397	-91.39362
338893	357	1523	-1475	-5.430832	-13.81003	-36.05895	0	11.57	4002	18	-14	-35	233	0.7175498	0.5818018	8	10	0.04	1800	1.345111	40.92397	-91.39362
339012	-1382	86	670	-7.187844	-11.23452	-35.94604	0	11.57	4003	37	-152	-33	203	0.7175519	0.4955942	8	10	0.04	1800	0.06347181	40.92397	-91.39362
339105	1235	121	822	-5.579846	-9.483058	-36.10725	0	11.29	4003	9	-105	-33	218	0.7175527	0.4550792	8	10	0.04	1800	-0.5653381	40.92397	-91.39362
339175	1158	-1378	-752	-4.688122	-8.469447	-35.88877	0	11.29	4004	-40	-66	-30	218	0.7175536	0.4077812	8	10	0.04	1800	-0.5251465	40.92397	-91.39362
339283	1855	-778	1450	-3.337183	-4.875733	-36.56782	0	11.29	4003	28	-121	-9	213	0.7175543	0.3711582	8	10	0.04	1800	-0.2739868	40.92397	-91.39362
339384	1272	1689	329	-0.9838414	-3.015577	-38.00397	0	11.29	4002	-126	-275	28	248	0.7175547	0.3400055	8	10	0.04	1800	1.433818	40.92396	-91.39362
339515	-2484	1735	-1188	-3.365972	-7.711299	-38.4376	0	11.29	4003	1	-400	29	237	0.7175552	0.3331512	8	10	0.04	1800	2.370883	40.92396	-91.39362
339609	1108	1386	462	-5.524312	-9.793262	-38.7118	0	11.29	4003	-14	-400	19	211	0.7175553	0.3266031	8	10	0.04	1800	0.5584179	40.92396	-91.39362
339767	-97	123	56	-3.928017	-10.30694	-38.47208	0	11.29	4004	-58	-265	32	200	0.7175556	0.3243096	8	10	0.04	1800	1.477605	40.92395	-91.39362
339828	232	-2325	1534	-3.966503	-6.507028	-38.16637	0	11.29	4003	-123	-53	50	195	0.7175557	0.3362003	8	10	0.04	1800	-0.4189758	40.92395	-91.39362
340027	671	76	-8	-3.702687	-4.082449	-37.42882	0	11.17	4002	-36	279	32	207	0.7175558	0.3869575	8	10	0.04	1800	0.6144133	40.92395	-91.39362
340094	1918	695	-193	-0.08309556	-5.241001	-36.18691	0	11.17	4004	-143	-166	-13	179	0.7175558	0.4312462	8	10	0.04	1800	0.4901994	40.92395	-91.39362
340168	139	-1322	-482	0.2861351	-4.994382	-35.89991	0	11.17	4004	-83	65	-30	176	0.7175558	0.475076	8	10	0.04	1800	0.4901994	40.92395	-91.39362
340279	-3422	94	-299	-5.625905	-5.189685	-35.97516	0	11.17	4004	23	-89	-26	149	0.7175558	0.5439961	8	10	0.04	1800	2.647909	40.92395	-91.39362
340377	-594	-284	696	-7.086452	-6.854428	-37.28699	0	11.17	4004	19	53	12	154	0.7175558	0.6189096	8	10	0.04	1800	1.923066	40.92395	-91.39362
340567	-98	-1661	-349	-7.119613	-2.255144	-37.34644	0	11.17	4003	51	-147	-4	154	0.7175558	0.701178	8	10	0.04	1800	3.294372	40.92395	-91.39362
340637	1159	1064	-254	-6.417622	-2.188291	-37.00691	0	11.17	4003	7	128	2	151	0.7175558	0.7858596	8	10	0.04	1800	2.77681	40.92395	-91.39362
340745	-1232	1270	-207	-6.697547	-4.641089	-37.27849	0	11.17	4003	21	-19	0	145	0.7175558	0.8362066	8	10	0.04	1800	2.587285	40.92395	-91.39362
340825	471	-2790	459	-7.235834	-2.892407	-36.62645	0	11.17	4004	-29	-88	-23	160	0.7175558	0.8692423	8	10	0.04	1800	2.267978	40.92395	-91.39362
340875	1487	-1313	-738	-6.364801	-2.448242	-36.46231	0	10.09	4003	5	-40	-25	158	0.7175558	0.9206237	8	10	0.04	1800	2.267978	40.92395	-91.39362
340932	2174	1115	628	-3.90168	-3.954221	-36.62464	0	10.09	4003	12	196	0	157	0.7175558	0.9430095	8	10	0.04	1800	1.871351	40.92395	-91.39362
341036	476	229	-10	-1.510657	-6.813384	-36.96801	0	10.09	4003	0	-67	0	158	0.7175558	0.9763044	8	10	0.04	1800	1.904628	40.92395	-91.39362
341167	1241	1118	-578	-1.618874	-6.088903	-36.58711	0	10.09	4003	-27	86	-27	166	0.7175558	1.04007	8	10	0.04	1800	2.995281	40.92395	-91.39362
341239	968	1207	974	-0.7255005	-7.835653	-36.5409	0	10.09	4002	50	25	-3	165	0.7175558	1.059393	8	10	0.04	1800	4.891925	40.92395	-91.39362
341341	1265	-365	969	0.2394529	-6.463319	-36.67877	0	10.09	4002	-36	192	-8	170	0.7175558	1.075333	8	10	0.04	1800	6.763205	40.92395	-91.39363
341422	961	2078	480	2.993966	-7.271328	-36.91359	0	10.09	4004	40	236	0	171	0.7175558	1.090592	8	10	0.04	1800	8.090255	40.92395	-91.39363
341562	-152	-2152	-1180	-0.2745699	-5.350486	-36.80486	0	10.09	4003	0	-313	-16	179	0.7175558	1.090729	8	10	0.04	1800	10.96684	40.92395	-91.39363
341688	-1315	-793	-581	-1.887238	-3.963828	-36.73444	0	10.09	4003	-6	-124	-9	193	0.7175558	1.068927	8	10	0.04	1800	14.65201	40.92395	-91.39363
341763	-1149	4396	552	-2.800241	-6.961756	-37.559	0	10.83	4003	76	10	12	193	0.7175558	1.053486	8	10	0.04	1800	14.45924	40.92395	-91.39363
341836	204	3701	1530	-4.229838	-15.24215	-38.89368	0	10.83	4003	-67	129	64	215	0.7175558	1.027596	8	10	0.04	1800	13.15503	40.92395	-91.39363
341887	-764	1692	-1827	-4.719393	-16.83194	-38.83542	0	10.83	4003	63	-255	20	196	0.7175558	0.984976	8	10	0.04	1800	13.15503	40.92395	-91.39363
342007	-530	501	-717	-5.059145	-17.2083	-37.62568	0	10.83	4004	136	-9	-3	204	0.7175558	0.9340826	8	10	0.04	1800	9.661405	40.92395	-91.39363
342118	-218	-2349	-1109	-4.607984	-13.41068	-37.29929	0	10.83	4002	0	-30	-9	200	0.7175558	0.8585768	8	10	0.04	1800	6.568999	40.92394	-91.39363
342174	-287	1210	1329	-4.272867	-12.68423	-37.47991	0	10.83	4004	153	371	11	200	0.7175558	0.8377877	8	10	0.04	1800	6.568999	40.92394	-91.39363
342275	-1597	-610	178	-6.670271	-9.819871	-38.50222	0	10.83	4002	30	37	7	216	0.7175558	0.8080617	8	10	0.04	1800	6.648461	40.92394	-91.39363
342421	-1692	-136	277	-4.899146	-6.952225	-36.20932	0	10.83	4004	16	-195	-37	212	0.7175558	0.7431497	8	10	0.04	1800	5.818498	40.92394	-91.39363
342443	-811	-2735	-2533	-6.44592	-5.537592	-34.54728	0	10.83	4002	-34	-261	-77	200	0.7175558	0.7335749	8	10	0.04	1800	5.225665	40.92394	-91.39363
342624	837	1154	-468	-5.255161	-11.71136	-34.58628	0	9.7	4003	-99	-36	-48	187	0.7175558	0.7099234	8	10	0.04	1800	1.825702	40.92394	-91.39363
342652	1701	-243	-225	-4.579936	-11.83895	-34.68058	0	9.7	4002	-57	-144	-56	186	0.7175558	0.7099234	8	10	0.04	1800	1.825702	40.92394	-91.39363
342809	32	-1025	312	-4.249434	-8.860448	-36.01591	0	9.7	4002	-46	-158	-22	177	0.7175558	0.7065049	8	10	0.04	1800	2.929478	40.92394	-91.39362
342893	-1046	-679	1267	-4.960866	-7.174928	-36.62024	0	9.7	4004	-37	49	2	181	0.7175558	0.7188317	8	10	0.04	1800	2.769062	40.92394	-91.39362
343050	14	-1279	-1300	-6.849461	-4.241969	-36.42789	0	9.7	4002	-51	-130	-34	193	0.7175558	0.699321	8	10	0.04	1800	2.784895	40.92394	-91.39362
343166	-1793	-357	-474	-7.714796	-5.481812	-37.1426	0	9.7	4005	-45	-204	4	200	0.7175558	0.6551433	8	10	0.04	1800	0.8601962	40.92394	-91.39362
343216	-865	-674	-7	-8.333511	-5.508262	-37.42441	0	9.7	4002	-71	-84	22	199	0.7175558	0.6352997	8	10	0.04	1800	0.8601962	40.92394	-91.39362
343369	-2476	1323	1954	-10.34273	-5.901203	-38.09868	0	9.7	4003	71	164	42	211	0.7175558	0.5644819	8	10	0.04	1800	0.1860959	40.92394	-91.39362
343460	480	865	-743	-9.68889	-6.326482	-37.97585	0	9.7	4004	30	146	10	210	0.7175558	0.5229542	8	10	0.04	1800	-0.8625183	40.92394	-91.39362
343525	471	518	1199	-8.341043	-5.983378	-38.6165	0	12.19	4003	43	111	36	277	0.7175558	0.4527033	8	10	0.04	1800	-3.918945	40.92394	-91.39362
343659	-1716	-2223	-590	-7.716939	-5.612731	-38.06786	0	12.19	4004	74	196	20	222	0.7175558	0.4138538	8	10	0.04	1800	-7.278076	40.92395	-91.39362
343761	421	-2722	1497	-7.652801	-1.963356	-38.46036	0	12.19	4003	-3	-31	26	220	0.7175558	0.3794654	8	10	0.04	1800	-7.552765	40.92395	-91.39363
343833	2553	1080	71	-5.849754	-0.8777434	-38.25242	0	12.19	4004	-5	-39	12	216	0.7175558	0.3648754	8	10	0.04	1800	-7.558044	40.92395	-91.39363
343953	2969	3040	-694	-1.283175	-4.125888	-37.10903	0	12.19	4004	-111	131	-2	212	0.7175558	0.3586476	8	10	0.04	1800	-9.590759	40.92395	-91.39363
344018	1338	725	-2506	0.5505885	-6.721209	-36.76379	0	12.19	4003	104	-254	-42	208	0.7175558	0.3581534	8	10	0.04	1800	-10.05045	40.92395	-91.39363
344156	188	258	1076	2.26382	-6.91759	-36.57794	0	12.19	4003	-17	23	3	225	0.7175558	0.3660775	8	10	0.04	1800	-6.85614	40.92395	-91.39363
344215	638	2273	-180	1.90569	-8.951419	-37.2543	0	12.19	4004	43	268	25	202	0.7175558	0.3816648	8	10	0.04	1800	-5.913513	40.92395	-91.39363
344315	1782	-556	-598	2.811649	-12.45556	-37.92338	0	12.19	4003	63	-173	14	193	0.7175558	0.4137205	8	10	0.04	1800	-3.537323	40.92395	-91.39364
344528	1133	3352	98	7.22728	-12.02833	-37.55183	0	11.06	4004	-10	39	-6	190	0.7175558	0.4983286	8	10	0.04	1800	4.846399	40.92395	-91.39364
344584	1627	613	-1058	8.691239	-14.66842	-37.26177	0	11.06	4004	27	-202	-15	168	0.7175558	0.5409126	8	10	0.04	1800	4.415988	40.92395	-91.39364
344682	1977	-441	-1250	9.643098	-15.19823	-36.72114	0	11.06	4003	0	-124	-15	150	0.7175558	0.5769278	8	10	0.04	1800	7.11605	40.92394	-91.39365
344736	-812	308	257	8.670735	-14.49645	-36.53849	0	11.06	4003	-11	158	0	163	0.7175558	0.6324969	8	10	0.04	1800	10.29542	40.92394	-91.39365
344805	-812	308	257	8.670735	-14.01762	-36.72153	0	11.06	4003	-1	7	-14	156	0.7175558	0.6790938	8	10	0.04	1800	12.81094	40.92395	-91.39365
344993	-127	610	918	5.181223	-9.54083	-36.78559	0	11.06	4002	0	-26	0	164	0.7175558	0.8001958	8	10	0.04	1800	16.10704	40.92395	-91.39365
345048	-30	-2015	-526	4.481376	-8.974874	-36.81963	0	11.06	4004	-32	-124	-9	166	0.7175558	0.8117335	8	10	0.04	1800	18.51497	40.92395	-91.39365
345159	-149	-1896	463	3.777728	-5.916455	-37.02855	0	11.06	4003	0	-88	15	169	0.7175558	0.8761882	8	10	0.04	1800	19.32466	40.92395	-91.39365
345225	-7	-1043	-772	2.026078	-4.884051	-37.61053	0	11.06	4002	-81	-116	6	171	0.7175558	0.9103299	8	10	0.04	1800	22.63679	40.92395	-91.39365
345280	-599	-1425	-987	1.857364	-4.562726	-37.66093	0	11.06	4004	-2	-164	-1	170	0.7175558	0.9187014	8	10	0.04	1800	22.63679	40.92395	-91.39365
345393	-465	3674	658	0.3526449	-5.80303	-37.85094	0	10.83	4002	5	99	-3	172	0.7175558	0.9495555	8	10	0.04	1800	25.90388	40.92395	-91.39365
345560	884	-1264	-1389	2.252489	-8.65974	-37.70004	0	10.83	4003	25	106	24	180	0.7175558	0.9696462	8	10	0.04	1800	26.20684	40.92395	-91.39365
345635	-111	-296	-138	1.77869	-8.273803	-37.29728	0	10.83	4003	88	112	-2	178	0.7175558	0.9829428	8	10	0.04	1800	27.48571	40.92395	-91.39365
345686	607	1683	1492	1.623354	-7.594978	-37.27641	0	10.83	4003	28	296	20	181	0.7175558	0.9886007	8	10	0.04	1800	29.3276	40.92395	-91.39364
345761	758	-775	-790	2.318022	-8.530148	-37.23534	0	10.83	4003	41	-222	-8	184	0.7175558	0.9903772	8	10	0.04	1800	29.3276	40.92395	-91.39364
345944	-449	-1315	-848	0.7073577	-7.370775	-37.83968	0	10.83	4003	42	-205	12	181	0.7175558	0.9874715	8	10	0.04	1800	31.2003	40.92395	-91.39363
346007	-1255	-98	107	-0.216132	-7.498784	-38.5451	0	10.83	4002	74	-273	18	182	0.7175558	0.9942958	8	10	0.04	1800	30.54047	40.92395	-91.39363
346070	0	948	-1296	-0.2427721	-8.525415	-37.90826	0	10.83	4004	104	-60	17	179	0.7175558	1.003365	8	10	0.04	1800	29.92854	40.92395	-91.39362
346167	-665	-668	-35	-1.042422	-8.921998	-37.65194	0	9.75	4003	-31	-151	31	176	0.7175558	1.020932	8	10	0.04	1800	29.88061	40.92395	-91.39362
346265	-2665	-478	-580	-1.870665	-9.346107	-37.65015	0	9.75	4002	34	-5	4	176	0.7175558	1.035323	8	10	0.04	1800	28.26283	40.92395	-91.39362
346357	-3558	-171	193	-5.309261	-8.881128	-37.94399	0	9.75	4003	59	275	36	175	0.7175558	1.062722	8	10	0.04	1800	28.56535	40.92395	-91.39362
346455	-7176	662	-294	-13.49321	-10.40276	-38.90575	0	9.75	4004	103	-166	39	174	0.7175558	1.080957	8	10	0.04	1800	22.88869	40.92395	-91.39362
346565	-3215	-109	-207	-18.21724	-10.12141	-38.92241	0	9.75	4004	12	51	33	176	0.7175558	1.110775	8	10	0.04	1800	20.65119	40.92395	-91.39362
346702	-2074	-1035	-461	-19.24379	-7.221127	-37.74291	0	9.75	4003	32	-209	-1	184	0.7175558	1.124242	8	10	0.04	1800	9.177681	40.92395	-91.39361
346783	924	140	386	-16.75369	-6.888955	-37.2114	0	9.75	4004	-61	176	16	190	0.7175558	1.110033	8	10	0.04	1800	0.3396483	40.92395	-91.3936
346864	-2115	-2088	-954	-16.61782	-6.803428	-37.49841	0	9.75	4003	10	-146	-1	199	0.7175558	1.088931	8	10	0.04	1800	-0.6812439	40.92395	-91.3936
346945	-243	-897	-843	-16.68951	-4.972642	-37.63278	0	9.75	4004	-20	59	21	208	0.7175558	1.051803	8	10	0.04	1800	-4.400116	40.92395	-91.3936
347134	-4079	2160	1127	-16.39238	-6.307261	-38.79734	0	9.87	4003	114	104	43	409	0.7175558	0.794065	8	10	0.04	1800	-11.68228	40.92395	-91.39359
347198	31	1937	-235	-16.90268	-7.660732	-38.70125	0	9.87	4004	-201	79	30	215	0.7175558	0.7504865	8	10	0.04	1800	-16.47491	40.92395	-91.39359
347271	-1972	484	507	-16.83437	-8.777971	-38.26443	0	9.87	4003	19	-82	38	258	0.7175558	0.6601974	8	10	0.04	1800	-20.93079	40.92395	-91.39359
347337	-1196	-1938	-397	-18.35203	-6.893789	-38.35091	0	9.87	4003	-107	-20	42	257	0.7175558	0.6402798	8	10	0.04	1800	-26.88763	40.92395	-91.39358
347436	-891	1354	-304	-17.71068	-6.73395	-37.61564	0	9.87	4003	113	-115	-8	220	0.7175558	0.5407797	8	10	0.04	1800	-30.37903	40.92395	-91.39358
347644	-9704	-357	-16234	-14.65233	-11.85207	-30.46903	0	9.87	4002	400	-146	-242	241	0.7175558	0.4239036	8	10	0.04	1800	-33.55206	40.92395	-91.39358
347697	-10624	-376	-4236	-32.33199	-7.217732	-23.8642	0	9.87	4008	178	-50	-396	239	0.7175558	0.4088452	8	10	0.04	1800	-44.76184	40.92395	-91.39358
347752	-2032	-2524	-1648	-34.09474	-4.718135	-21.99502	0	9.87	4002	161	-174	-387	246	0.7175558	0.3615566	8	10	0.04	1800	-44.76184	40.92395	-91.39358
347894	3534	1244	7086	-20.35486	-10.51997	-35.54278	0	9.87	4004	-17	400	64	271	0.7175558	0.2779825	8	10	0.04	1800	-41.71899	40.92396	10.01412
348050	3971	382	-1006	-9.722845	-8.919028	-42.42282	0	9.81	4003	105	-76	92	205	0.7175558	0.2858972	8	10	0.04	1800	-33.81689	40.95925	-48.03874
348143	2718	-177	-4591	-6.733176	-8.858479	-40.04444	0	9.81	4002	-46	111	40	190	0.7175558	0.3501474	8	10	0.04	1800	-32.70349	40.53359	-90.223
348249	6835	604	-1077	-1.139461	-9.160775	-36.11446	0	9.81	4004	-52	-400	-39	185	0.7175558	0.4199136	8	10	0.04	1800	-37.18649	40.88882	-91.28822
348350	2090	1410	2388	7.296074	-8.189529	-36.92396	0	9.81	4003	97	49	3	184	0.7175558	0.4894286	8	10	0.04	1800	-36.55145	40.92367	-91.39273
348453	3216	2975	564	8.840806	-10.40072	-38.22686	0	9.81	4003	25	-400	16	161	0.7175558	0.5628837	8	10	0.04	1800	-31.39978	40.92395	-91.39357
348563	2579	-916	-586	13.10948	-11.11358	-37.94522	0	9.81	4003	0	-59	12	137	0.7175558	0.6602061	8	10	0.04	1800	-25.2551	40.92396	-91.39359
348649	3134	-94	-294	13.06958	-8.272887	-36.32477	0	9.81	4002	-196	90	-29	161	0.7175558	0.7360603	8	10	0.04	1800	-22.14282	40.92396	-91.39361
348805	366	-457	1459	10.98963	-8.289008	-36.45304	0	9.81	4003	24	7	-17	158	0.7175558	0.849871	8	10	0.04	1800	-13.58115	40.92396	-91.39362
348975	1782	-2834	616	12.78471	-4.280308	-37.00441	0	10.72	4003	32	42	8	168	0.7175558	0.9786203	8	10	0.04	1800	-8.448181	40.92396	-91.39362
349044	3550	578	275	14.11403	-2.911855	-37.16013	0	10.72	4002	-18	-120	0	0	0.7175558	1.011469	3	10	0.04	1800	-5.809021	40.92397	-91.39362
349145	3002	-758	334	17.88996	-4.415938	-37.67592	0	10.72	4004	-59	-43	14	0	0.7175558	1.043243	3	10	0.04	1800	3.680089	40.92397	-91.39362
349293	-6541	5387	-7256	19.72188	-9.594019	-31.77719	0	10.72	4004	0	0	0	0	0.7175558	1.041884	1	10	0.04	1800	-34.54611	40.92397	-91.39363
349367	1617	-6359	-1080	12.52256	-7.342441	-28.64035	0	10.72	4002	0	0	0	0	0.7175558	1.011155	1	10	0.04	1800	-37.57773	40.92397	-91.39364
349468	4084	2607	-592	16.74352	-1.657122	-28.61584	0	10.72	4003	0	0	0	0	0.7175558	0.8034925	1	10	0.04	1800	-39.53851	40.92397	-91.39364
349544	-394	-694	-170	15.88414	-2.792881	-28.6548	0	10.72	4004	0	0	0	0	0.7175558	0.7682068	1	10	0.04	1800	-36.61844	40.92397	-91.39365
349729	-92	-23	29	11.07386	-1.661136	-28.65315	0	10.72	4002	0	0	0	0	0.7175558	0.5466368	1	10	0.04	1800	-31.09259	40.92397	-91.39365
349835	37	45	-3	9.802356	-1.487696	-28.62851	0	10.72	4002	0	0	0	0	0.7175558	0.4318211	1	10	0.04	1800	-29.21555	40.92397	-91.39365
349889	-64	9	10	8.021716	-1.17407	-28.66721	0	11.46	4002	0	0	0	0	0.7175558	0.4130858	1	10	0.04	1800	-27.61606	40.92397	-91.39365
349955	-62	5	8	6.485713	-0.9292796	-28.68457	0	11.46	4002	0	0	0	0	0.7175558	0.3250792	1	10	0.04	1800	-24.32587	40.92397	-91.39365
350029	-60	-8	12	5.573434	-0.7784075	-28.69631	0	11.46	4003	0	0	0	0	0.7175558	0.2764715	1	10	0.04	1800	-22.81256	40.92397	-91.39365
