time(ms)	gyro_x(deg/s)	gyro_y(deg/s)	gyro_z(deg/s)	orientation_roll(deg)	orientation_pitch(deg)	orientation_yaw(deg)	throttle	battery(V)	loop_time(uS)	pid_output_roll	pid_output_pitch	pid_output_yaw	pid_output_throttle	ultrasonic_alt	baro_alt	flight_mode	p_gain_altitude	i_gain_altitude	d_gain_altitude	compass_heading	latitude	longitude
350244	-58	-8	8	3.287707	-0.3823299	-28.73165	0	11.46	4004	0	0	0	0	0.7175558	0.1411096	1	10	0.04	1800	-20.28073	40.92397	-91.39365
350366	-65	-1	14	2.07417	-0.1811692	-28.75476	0	11.46	4004	0	0	0	0	0.7175558	0.06232987	1	10	0.04	1800	-18.23016	40.92397	-91.39365
350457	-57	1	13	1.546511	-0.0973857	-28.76632	0	11.46	4003	0	0	0	0	0.7175558	0.02647655	1	10	0.04	1800	-17.4675	40.92397	-91.39365
350551	-57	5	11	0.8378729	0.02424937	-28.78338	0	11.46	4003	0	0	0	0	0.7175558	-0.006377108	1	10	0.04	1800	-15.96164	40.92397	-91.39365
350661	-55	1	10	0.03232975	0.1579658	-28.8065	0	11.46	4004	0	0	0	0	0.7175558	-0.04976736	1	10	0.04	1800	-14.48871	40.92397	-91.39365
350807	-60	-1	8	-0.6387378	0.2659633	-28.82458	0	11.51	4004	0	0	0	0	0.7175558	-0.07967705	1	10	0.04	1800	-14.12744	40.92397	-91.39365
351013	-60	1	9	-1.325923	0.3833046	-28.84824	0	11.51	4004	0	0	0	0	0.7175558	-0.1191973	1	10	0.04	1800	-12.70322	40.92397	-91.39365
351156	-61	4	12	-1.872273	0.4743246	-28.87385	0	11.51	4002	0	0	0	0	0.7175558	-0.1425667	1	10	0.04	1800	-11.90787	40.92397	-91.39365
351214	-57	1	10	-2.059986	0.503843	-28.88142	0	11.51	4004	0	0	0	0	0.7175558	-0.1467751	1	10	0.04	1800	-11.36453	40.92397	-91.39365
351325	-57	5	7	-2.37691	0.5516452	-28.90178	0	11.51	4004	0	0	0	0	0.7175558	-0.1740138	1	10	0.04	1800	-10.80591	40.92397	-91.39365
351469	-59	-4	6	-2.647013	0.5946973	-28.91968	0	11.51	4004	0	0	0	0	0.7175558	-0.1925642	1	10	0.04	1800	-10.1286	40.92396	-91.39365
351561	-64	5	5	-2.767319	0.614932	-28.92805	0	11.51	4002	0	0	0	0	0.7175558	-0.2136782	1	10	0.04	1800	-10.36633	40.92396	-91.39365
351662	-50	0	10	-2.96951	0.6507195	-28.94571	0	11.51	4002	0	0	0	0	0.7175558	-0.2283148	1	10	0.04	1800	-10.00555	40.92396	-91.39365
351873	-60	6	3	-3.207796	0.6935204	-28.97088	0	11.46	4002	0	0	0	0	0.7175558	-0.2617974	1	10	0.04	1800	-9.439911	40.92396	-91.39365
351974	-57	1	12	-3.29885	0.7072806	-28.98587	0	11.46	4004	0	0	0	0	0.7175558	-0.2712381	1	10	0.04	1800	-9.286652	40.92396	-91.39365
352087	-51	3	8	-3.379595	0.7200915	-28.99888	0	11.46	4002	0	0	0	0	0.7175558	-0.2791161	1	10	0.04	1800	-9.206299	40.92397	-91.39365
352253	-61	5	9	-3.490576	0.7334484	-29.01904	0	11.46	4004	0	0	0	0	0.7175558	-0.2876411	1	10	0.04	1800	-9.007874	40.92397	-91.39365
352304	-54	2	7	-3.507717	0.734893	-29.0221	0	11.46	4003	0	0	0	0	0.7175558	-0.291904	1	10	0.04	1800	-9.007874	40.92397	-91.39365
352366	-47	3	8	-3.56099	0.7428638	-29.03444	0	11.46	4003	0	0	0	0	0.7175558	-0.2920512	1	10	0.04	1800	-8.84903	40.92397	-91.39365
352468	-57	4	9	-3.607814	0.7526306	-29.04782	0	11.46	4002	0	0	0	0	0.7175558	-0.2942144	1	10	0.04	1800	-8.855255	40.92397	-91.39365
352575	-55	7	8	-3.654695	0.7585121	-29.06083	0	11.46	4003	0	0	0	0	0.7175558	-0.2916602	1	10	0.04	1800	-8.511993	40.92397	-91.39365
352679	-54	-2	3	-3.695605	0.7595178	-29.07183	0	11.51	4002	0	0	0	0	0.7175558	-0.2889906	1	10	0.04	1800	-8.872772	40.92397	-91.39365
352816	-47	3	9	-3.744452	0.7710518	-29.09169	0	11.51	4003	0	0	0	0	0.7175558	-0.2863955	1	10	0.04	1800	-8.805481	40.92397	-91.39365
352918	-50	3	8	-3.771094	0.777648	-29.10231	0	11.51	4003	0	0	0	0	0.7175558	-0.2700787	1	10	0.04	1800	-8.53598	40.92397	-91.39365
352965	-51	1	11	-3.77959	0.7822653	-29.10744	0	11.51	4003	0	0	0	0	0.7175558	-0.2650777	1	10	0.04	1800	-8.53598	40.92397	-91.39365
353095	-52	6	5	-3.807149	0.7929894	-29.1226	0	11.51	4003	0	0	0	0	0.7175558	-0.2497944	1	10	0.04	1800	-8.281464	40.92397	-91.39365
353177	-56	0	8	-3.817874	0.795678	-29.12956	0	11.51	4004	0	0	0	0	0.7175558	-0.2355813	1	10	0.04	1800	-8.479492	40.92397	-91.39365
353276	-48	-2	3	-3.843163	0.8035814	-29.13854	0	11.51	4004	0	0	0	0	0.7175558	-0.2307966	1	10	0.04	1800	-8.46344	40.92397	-91.39365
353413	-51	0	7	-3.859099	0.814116	-29.156	0	11.51	4004	0	0	0	0	0.7175558	-0.2326019	1	10	0.04	1800	-8.139465	40.92397	-91.39365
353472	-52	2	8	-3.864468	0.8137344	-29.1593	0	11.51	4004	0	0	0	0	0.7175558	-0.2273303	1	10	0.04	1800	-8.139465	40.92397	-91.39365
353647	-49	0	6	-3.875703	0.8208646	-29.17908	0	11.57	4003	0	0	0	0	0.7175558	-0.2281264	1	10	0.04	1800	-8.159149	40.92397	-91.39365
353725	-54	5	9	-3.879949	0.8182721	-29.18844	0	11.57	4002	0	0	0	0	0.7175558	-0.2308916	1	10	0.04	1800	-8.153595	40.92397	-91.39365
353777	-53	2	3	-3.880345	0.8180949	-29.19222	0	11.57	4004	0	0	0	0	0.7175558	-0.2347623	1	10	0.04	1800	-8.372833	40.92397	-91.39365
353877	-55	-1	2	-3.883924	0.8245475	-29.20004	0	11.57	4003	0	0	0	0	0.7175558	-0.2362871	1	10	0.04	1800	-8.319733	40.92397	-91.39365
354000	-56	2	4	-3.883459	0.8274747	-29.21195	0	11.57	4003	0	0	0	0	0.7175558	-0.2467814	1	10	0.04	1800	-8.1138	40.92397	-91.39365
354106	-54	2	9	-3.884634	0.8247453	-29.22013	0	11.57	4002	0	0	0	0	0.7175558	-0.2491373	1	10	0.04	1800	-8.365601	40.92397	-91.39365
354177	-52	9	4	-3.890035	0.8286242	-29.22782	0	11.57	4003	0	0	0	0	0.7175558	-0.2541832	1	10	0.04	1800	-8.293335	40.92397	-91.39365
354313	-52	2	9	-3.894256	0.8274654	-29.2371	0	11.57	4002	0	0	0	0	0.7175558	-0.2655449	1	10	0.04	1800	-8.382629	40.92397	-91.39365
354404	-49	0	4	-3.899038	0.8326857	-29.24846	0	11.57	4002	0	0	0	0	0.7175558	-0.271177	1	10	0.04	1800	-8.311523	40.92397	-91.39365
354480	-39	51	91	-3.903872	0.8379986	-29.25933	0	11.57	4002	0	0	0	0	0.7175558	-0.2765353	1	10	0.04	1800	-8.154236	40.92397	-91.39365
354600	-57	-1	3	-3.850781	0.6922388	-29.38992	0	11.57	4002	0	0	0	0	0.7175558	-0.2828384	1	10	0.04	1800	-8.174377	40.92397	-91.39365
354688	-13	-55	68	-3.386851	0.2886204	-29.52069	0	11.57	4003	0	0	0	0	0.7175558	-0.2766566	1	10	0.04	1800	-7.887665	40.92397	-91.39365
354792	170	1090	-43	-3.068365	-0.4032049	-29.59351	0	11.57	4003	0	0	0	0	0.7175558	-0.2705185	1	10	0.04	1800	-7.669098	40.92397	-91.39365
354893	-1589	837	306	-3.60514	-1.517914	-29.88806	0	11.57	4004	0	0	0	0	0.7175558	-0.2641075	1	10	0.04	1800	-7.432495	40.92397	-91.39365
354989	751	-1525	14	-3.89999	2.203048	-30.20819	0	11.57	4004	0	0	0	0	0.7175558	-0.2550907	1	10	0.04	1800	-6.791321	40.92397	-91.39365
355093	3430	-2838	755	-1.445347	4.411826	-30.62105	0	11.57	4004	0	0	0	0	0.7175558	-0.2470473	1	10	0.04	1800	-6.77066	40.92397	-91.39365
355189	2034	-2836	4213	5.33347	11.13781	-36.19098	0	11.57	4003	0	0	0	0	0.7175558	-0.2416066	1	10	0.04	1800	-4.116394	40.92397	-91.39365
355299	-184	-568	5092	5.913635	15.23949	-44.4834	0	11.57	4003	0	0	0	0	0.7175558	-0.223331	1	10	0.04	1800	-1.475983	40.92397	-91.39365
355401	-1009	-960	4557	2.885377	16.34256	-52.49582	0	11.63	4002	0	0	0	0	0.7175558	-0.1832459	1	10	0.04	1800	6.433829	40.92397	-91.39365
355492	-1978	-1287	3220	-0.6266603	19.24169	-59.15771	0	11.63	4002	0	0	0	0	0.7175558	-0.1602639	1	10	0.04	1800	10.11191	40.92397	-91.39365
355615	-2605	-2725	1974	-5.387792	19.66373	-64.54722	0	11.63	4003	0	0	0	0	0.7175558	-0.1257598	1	10	0.04	1800	12.33991	40.92397	-91.39365
355743	-992	-3958	1932	-7.378902	23.76935	-67.59908	0	11.63	4003	0	0	0	0	0.7175558	-0.07089114	1	10	0.04	1800	10.36627	40.92397	-91.39365
355810	1854	-3278	2508	-5.766826	26.48329	-69.8826	0	11.63	4002	0	0	0	0	0.7175558	-0.04496783	1	10	0.04	1800	10.36627	40.92397	-91.39365
355969	4661	3378	8319	2.905803	23.86531	-84.57905	0	11.63	4002	0	0	0	0	0.7175558	0.03091384	1	10	0.04	1800	6.673685	40.92397	-91.39365
356004	4583	2837	9105	3.96058	21.53588	-89.39772	0	11.63	4003	0	0	0	0	0.7175558	0.04237095	1	10	0.04	1800	6.673685	40.92397	-91.39365
356092	3813	167	11213	5.624803	18.91325	-106.2057	0	11.63	4004	0	0	0	0	0.7175558	0.07872813	1	10	0.04	1800	23.58997	40.92397	-91.39365
356244	2548	490	10942	5.328915	14.87171	-138.4889	0	11.63	4004	0	0	0	0	0.7175558	0.164504	1	10	0.04	1800	59.64589	40.92397	-91.39365
356356	2198	308	9478	5.053643	12.5051	-155.1889	0	11.63	4004	0	0	0	0	0.7175558	0.2160709	1	10	0.04	1800	115.6867	40.92397	-91.39366
356384	1373	-921	9049	4.933651	12.11898	-160.2452	0	11.63	4004	0	0	0	0	0.7175558	0.2251157	1	10	0.04	1800	115.6867	40.92397	-91.39366
356538	1488	-3540	10105	2.465326	16.93386	-186.7866	0	11.63	4004	0	0	0	0	0.7175558	0.2774656	1	10	0.04	1800	159.6296	40.92397	-91.39366
356634	4886	-4786	9652	2.917622	19.72766	-197.504	0	11.63	4002	0	0	0	0	0.7175558	0.2985609	1	10	0.04	1800	177.2406	40.92397	-91.39366
356745	6031	-3852	9043	9.061569	25.18887	-217.5055	0	11.63	4004	0	0	0	0	0.7175558	0.3220946	1	10	0.04	1800	197.1568	40.92396	-91.39366
356830	1630	-2755	6322	7.720648	26.9437	-230.3622	0	11.63	4002	0	0	0	0	0.7175558	0.3301532	1	10	0.04	1800	205.5323	40.92396	-91.39366
356888	2156	-2282	5327	7.002842	27.20322	-233.5302	0	11.63	4003	0	0	0	0	0.7175558	0.3502851	1	10	0.04	1800	205.5323	40.92395	-91.39365
356997	1640	368	1964	5.461886	25.52661	-239.3167	0	11.63	4003	0	0	0	0	0.7175558	0.3594851	1	10	0.04	1800	207.857	40.92395	-91.39365
357091	1029	3277	1652	3.408399	16.58128	-241.9643	0	11.63	4003	0	0	0	0	0.7175558	0.365537	1	10	0.04	1800	207.3382	40.92395	-91.39365
357275	-1155	2686	3382	-0.4577691	9.673459	-247.9304	0	11.63	4003	0	0	0	0	0.7175558	0.3664089	1	10	0.04	1800	210.2334	40.92395	-91.39365
357313	-1313	3033	3594	-1.612548	8.659515	-249.8564	0	11.63	4002	0	0	0	0	0.7175558	0.3679912	1	10	0.04	1800	213.489	40.92395	-91.39365
357398	-936	2097	3633	-4.925741	3.426759	-257.8725	0	11.63	4003	0	0	0	0	0.7175558	0.367301	1	10	0.04	1800	232.0244	40.92395	-91.39365
357543	84	4771	7108	-4.93755	-0.3803099	-268.9208	0	11.63	4002	0	0	0	0	0.7175558	0.3607498	1	10	0.04	1800	251.8114	40.92395	-91.39365
357605	-1977	-2004	7077	-5.110373	-3.079226	-276.812	0	11.63	4004	0	0	0	0	0.7175558	0.3691129	1	10	0.04	1800	-90.5791	40.92395	-91.39365
357696	-897	-2854	6635	-5.642274	2.20345	-288.5066	0	11.63	4003	0	0	0	0	0.7175558	0.3779035	1	10	0.04	1800	-82.98608	40.92395	86.45837
357829	-838	-4040	6371	-5.431826	7.714252	-302.7968	0	11.63	4003	0	0	0	0	0.7175558	0.3924226	1	10	0.04	1800	-73.2121	40.92395	-74.98277
357939	-1403	-2923	3916	-6.824753	9.115289	-311.4264	0	11.63	4002	0	0	0	0	0.7175558	0.4094651	1	10	0.04	1800	-69.9664	40.92395	-90.95055
358099	1761	47	5845	-7.233986	9.680263	-321.4108	0	11.63	4004	0	0	0	0	0.7175558	0.4173431	1	10	0.04	1800	-66.07663	40.92395	-91.39332
358186	1228	-2074	11026	-6.672358	12.25259	-341.0005	0	11.68	4004	0	0	0	0	0.7175558	0.4240263	1	10	0.04	1800	-46.47403	40.92395	-91.3936
358342	1246	-290	7058	-6.971534	6.937271	-366.7984	0	11.68	4003	0	0	0	0	0.7175558	0.435324	1	10	0.04	1800	-26.09558	40.92395	-91.39363
358405	1176	253	6194	-6.585849	6.095219	-370.3964	0	11.68	4004	0	0	0	0	0.7175558	0.4282142	1	10	0.04	1800	-19.10678	40.92395	-91.39363
358487	861	-1240	3702	-4.892246	4.363366	-378.5217	0	11.68	4003	0	0	0	0	0.7175558	0.4216086	1	10	0.04	1800	-14.25342	40.92395	-91.39363
358593	718	-1776	3312	-4.007457	5.273926	-383.7293	0	11.68	4002	0	0	0	0	0.7175558	0.4104122	1	10	0.04	1800	-10.09225	40.92395	-91.39363
358696	300	107	3128	-2.967664	3.920557	-389.2759	0	11.68	4003	0	0	0	0	0.7175558	0.3972199	1	10	0.04	1800	-8.080841	40.92395	-91.39363
358811	5346	2827	-426	1.664959	1.905317	-391.3566	0	11.68	4003	0	0	0	0	0.7175558	0.3740709	1	10	0.04	1800	-6.943268	40.92395	-91.39363
358911	166	-13	25	3.349641	1.393596	-389.9527	0	11.68	4004	0	0	0	0	0.7175558	0.3401864	1	10	0.04	1800	-5.071564	40.92395	-91.39363
359012	-54	-107	-9	3.085891	1.184018	-389.9687	0	11.68	4003	0	0	0	0	0.7175558	0.3195258	1	10	0.04	1800	-4.943817	40.92395	-91.39363
359098	-142	95	51	2.474301	1.28825	-389.9677	0	11.63	4002	0	0	0	0	0.7175558	0.2962474	1	10	0.04	1800	-3.728302	40.92395	-91.39362
359213	55	20	-35	1.954486	1.111779	-389.9833	0	11.63	4004	0	0	0	0	0.7175558	0.2571835	1	10	0.04	1800	-3.400238	40.92395	-91.39362
359297	-57	-50	18	1.905458	1.037797	-389.9724	0	11.63	4004	0	0	0	0	0.7175558	0.2402876	1	10	0.04	1800	-2.41806	40.92395	-91.39362
359420	-4	51	-1	1.330717	0.8282567	-389.9522	0	11.63	4004	0	0	0	0	0.7175558	0.1981665	1	10	0.04	1800	-1.58316	40.92395	-91.39362
359566	-41	16	5	1.003072	0.7305656	-389.9581	0	11.63	4004	0	0	0	0	0.7175558	0.1606685	1	10	0.04	1800	-1.416534	40.92395	-91.39362
359667	-59	-7	1	0.7078062	0.6444547	-389.9663	0	11.63	4002	0	0	0	0	0.7175558	0.1535192	1	10	0.04	1800	-1.060181	40.92395	-91.39362
359748	-46	9	4	0.572468	0.6345876	-389.9703	0	11.63	4004	0	0	0	0	0.7175558	0.131662	1	10	0.04	1800	-0.3858948	40.92395	-91.39362
359865	-52	0	3	0.3855331	0.5916923	-389.9777	0	11.63	4003	0	0	0	0	0.7175558	0.1152344	1	10	0.04	1800	-0.1984558	40.92395	-91.39362
359915	-62	-3	4	0.2261002	0.5646963	-389.9859	0	11.63	4003	0	0	0	0	0.7175558	0.1045495	1	10	0.04	1800	-0.2409973	40.92395	-91.39362
359982	-53	5	3	0.1331422	0.5506813	-389.9907	0	11.57	4003	0	0	0	0	0.7175558	0.08587435	1	10	0.04	1800	-0.07165527	40.92395	-91.39362
360066	-55	2	4	0.01056119	0.5215907	-390.001	0	11.57	4002	0	0	0	0	0.7175558	0.06649046	1	10	0.04	1800	0.4149963	40.92395	-91.39362
360186	-54	5	6	-0.09783339	0.5066677	-390.006	0	11.57	4002	0	0	0	0	0.7175558	0.04300916	1	10	0.04	1800	0.5264133	40.92395	-91.39363
360277	-52	3	6	-0.1600791	0.4908157	-390.0101	0	11.57	4003	0	0	0	0	0.7175558	0.03819777	1	10	0.04	1800	0.4248213	40.92395	-91.39363
360374	-55	3	5	-0.2660163	0.4669215	-390.0192	0	11.57	4002	0	0	0	0	0.7175558	0.03787798	1	10	0.04	1800	0.5944645	40.92395	-91.39363
360496	-53	4	7	-0.3318281	0.4455774	-390.0262	0	11.57	4003	0	0	0	0	0.7175558	0.03925648	1	10	0.04	1800	0.8857011	40.92395	-91.39363
360585	-48	4	-2	-0.3740892	0.4321329	-390.0311	0	11.57	4004	0	0	0	0	0.7175558	0.04352153	1	10	0.04	1800	0.9598675	40.92395	-91.39363
360709	-53	5	2	-0.4510573	0.4202664	-390.0415	0	11.57	4004	0	0	0	0	0.7175558	0.04183748	1	10	0.04	1800	0.863359	40.92395	-91.39363
360795	-50	4	4	-0.495772	0.4110409	-390.05	0	11.57	4003	0	0	0	0	0.7175558	0.03683698	1	10	0.04	1800	0.9228374	40.92395	-91.39363
360877	-48	2	4	-0.537721	0.4064224	-390.056	0	11.63	4002	0	0	0	0	0.7175558	0.03558712	1	10	0.04	1800	1.233813	40.92395	-91.39363
361076	-49	0	4	-0.5898185	0.3964477	-390.0683	0	11.63	4002	0	0	0	0	0.7175558	0.01923626	1	10	0.04	1800	1.080276	40.92395	-91.39363
361123	-46	0	7	-0.6057964	0.3916912	-390.0726	0	11.63	4002	0	0	0	0	0.7175558	0.0149849	1	10	0.04	1800	1.113225	40.92395	-91.39363
361180	-46	-1	7	-0.620455	0.3870009	-390.0771	0	11.63	4002	0	0	0	0	0.7175558	0.0144191	1	10	0.04	1800	1.140423	40.92395	-91.39363
361275	-58	4	3	-0.6372362	0.3848924	-390.0801	0	11.63	4003	0	0	0	0	0.7175558	0.01233381	1	10	0.04	1800	1.377239	40.92395	-91.39363
361357	-48	3	8	-0.6534151	0.3743547	-390.0887	0	11.63	4004	0	0	0	0	0.7175558	0.008677989	1	10	0.04	1800	1.20173	40.92395	-91.39363
361454	-55	5	1	-0.6734161	0.3708945	-390.0985	0	11.63	4004	0	0	0	0	0.7175558	0.01280097	1	10	0.04	1800	1.438878	40.92395	-91.39363
361627	-47	0	6	-0.6972973	0.3709508	-390.1118	0	11.63	4002	0	0	0	0	0.7175558	0.01197715	1	10	0.04	1800	1.493636	40.92395	-91.39363
361766	-63	0	3	-0.7155442	0.3699492	-390.123	0	11.63	4002	0	0	0	0	0.7175558	-0.001797479	1	10	0.04	1800	1.501994	40.92395	-91.39363
361891	-47	2	3	-0.7280815	0.3647341	-390.1296	0	11.63	4003	0	0	0	0	0.7175558	-0.004967701	1	10	0.04	1800	1.32163	40.92395	-91.39363
361964	-50	1	2	-0.7262893	0.3619987	-390.134	0	11.63	4002	0	0	0	0	0.7175558	-0.01215558	1	10	0.04	1800	1.533385	40.92395	-91.39363
362062	-43	3	3	-0.727302	0.3621483	-390.1422	0	11.63	4004	0	0	0	0	0.7175558	-0.01648565	1	10	0.04	1800	1.545028	40.92395	-91.39363
362153	-49	3	3	-0.7356098	0.360338	-390.1489	0	11.63	4004	0	0	0	0	0.7175558	-0.02207018	1	10	0.04	1800	1.548045	40.92395	-91.39363
362333	-44	2	4	-0.7591509	0.3627441	-390.1663	0	11.63	4003	0	0	0	0	0.7175558	-0.04023369	1	10	0.04	1800	1.800182	40.92395	-91.39363
362406	-46	3	7	-0.7620077	0.3570216	-390.1701	0	11.63	4002	0	0	0	0	0.7175558	-0.04276558	1	10	0.04	1800	1.796914	40.92395	-91.39363
362461	-52	-2	7	-0.7593805	0.3510822	-390.1758	0	11.63	4004	0	0	0	0	0.7175558	-0.04288966	1	10	0.04	1800	1.584726	40.92395	-91.39363
362531	-48	0	5	-0.7614625	0.3491693	-390.1835	0	11.63	4004	0	0	0	0	0.7175558	-0.03922937	1	10	0.04	1800	1.366704	40.92395	-91.39363
362645	-46	6	5	-0.7667944	0.3463637	-390.1893	0	11.63	4003	0	0	0	0	0.7175558	-0.04205829	1	10	0.04	1800	1.366704	40.92395	-91.39363
362738	-50	4	9	-0.7712411	0.3483187	-390.2007	0	11.57	4002	0	0	0	0	0.7175558	-0.04532328	1	10	0.04	1800	1.60236	40.92395	-91.39363
362839	-63	14	-1	-0.7672437	0.3433274	-390.2068	0	11.57	4003	0	0	0	0	0.7175558	-0.05269952	1	10	0.04	1800	1.382358	40.92395	-91.39364
362948	12	131	55	-0.887684	0.2139283	-390.3323	0	11.57	4004	0	0	0	0	0.7175558	-0.04152063	1	10	0.04	1800	1.713588	40.92395	-91.39364
363034	-616	-753	204	-0.850764	-0.3004887	-390.2204	0	11.57	4002	0	0	0	0	0.7175558	-0.03456452	1	10	0.04	1800	1.120337	40.92395	-91.39363
363199	831	-5286	-1002	-0.7824747	10.01242	-390.1897	0	11.57	4004	0	0	0	0	0.7175558	-0.009721368	1	10	0.04	1800	2.507561	40.92395	-91.39363
363254	1873	-6809	-1337	2.295616	16.9524	-388.795	0	11.57	4004	0	0	0	0	0.7175558	0.001861384	1	10	0.04	1800	2.507561	40.92395	-91.39363
363339	119	-6681	2552	3.869898	28.47781	-389.9595	0	11.57	4003	0	0	0	0	0.7175558	0.0119532	1	10	0.04	1800	0.7089041	40.92395	-91.39363
363544	4116	-7543	-4862	5.922182	51.8147	-392.4421	0	11.57	4003	0	0	0	0	0.7175558	0.07137409	1	10	0.04	1800	5.762125	40.92395	-91.39363
363576	6801	-7767	-8392	19.06479	57.60213	-384.6232	0	11.68	4004	0	0	0	0	0.7175558	0.09340747	1	10	0.04	1800	1.235781	40.92395	-91.39363
363637	9383	-9506	-10382	38.92802	62.28379	-374.3212	0	11.68	4004	0	0	0	0	0.7175558	0.1095771	1	10	0.04	1800	-2.396179	40.92395	-91.39363
363741	11767	-10202	-11653	62.4776	61.51324	-362.0164	0	11.68	4003	0	0	0	0	0.7175558	0.1494594	1	10	0.04	1800	1.233498	40.92395	-91.39363
363847	9868	-9392	-9794	106.3918	42.27772	-334.877	0	11.68	4003	0	0	0	0	0.7175558	0.1880694	1	10	0.04	1800	-3.116821	40.92395	-91.39363
363959	4766	-1812	-1674	114.4577	29.67289	-327.2502	0	11.68	4004	0	0	0	0	0.7175558	0.2056114	1	10	0.04	1800	0.929285	40.92395	-91.39363
364043	2846	-1846	-2414	112.0821	25.9433	-325.1664	0	11.68	4002	0	0	0	0	0.7175558	0.2163857	1	10	0.04	1800	16.79356	40.92395	-91.39363
364155	1952	-1043	-1365	105.4012	13.5439	-319.7332	0	11.68	4004	0	0	0	0	0.7175558	0.2379159	1	10	0.04	1800	47.95384	40.92395	-91.39363
364242	2202	-1188	-1348	101.4797	11.14692	-318.3636	0	11.68	4004	0	0	0	0	0.7175558	0.2458378	1	10	0.04	1800	58.74456	40.92395	-91.39363
364355	293	400	145	90.28364	3.696514	-315.0884	0	11.68	4003	0	0	0	0	0.7175558	0.2540221	1	10	0.04	1800	73.68136	40.92395	-91.39363
364450	-696	-177	1262	84.46161	4.120104	-316.0375	0	11.68	4003	0	0	0	0	0.7175558	0.2591786	1	10	0.04	1800	76.28064	40.92395	-91.39363
364554	-268	-196	54	73.50902	5.758563	-317.8137	0	11.63	4004	0	0	0	0	0.7175558	0.2575253	1	10	0.04	1800	77.05154	40.92394	-91.39363
364707	-440	-655	144	65.58947	4.387363	-317.594	0	11.63	4002	0	0	0	0	0.7175558	0.2444984	1	10	0.04	1800	78.48558	40.92394	-91.39363
364743	-440	-655	144	65.58947	4.387363	-317.594	0	11.63	4002	0	0	0	0	0.7175558	0.2441361	1	10	0.04	1800	78.48558	40.92394	-91.39363
364870	624	2466	371	58.43288	-0.02505808	-318.5495	0	11.63	4003	0	0	0	0	0.7175558	0.2426082	1	10	0.04	1800	82.78821	40.92394	-91.39363
364980	-382	2166	1109	54.86336	-2.926456	-319.8086	0	11.63	4003	0	0	0	0	0.7175558	0.2440988	1	10	0.04	1800	86.49962	40.92394	-91.39363
365064	-388	1679	860	51.04745	-3.826464	-321.5163	0	11.63	4003	0	0	0	0	0.7175558	0.2435379	1	10	0.04	1800	91.90966	40.92394	-91.39363
365141	-413	2298	499	48.94816	-4.44445	-322.3179	0	11.63	4004	0	0	0	0	0.7175558	0.2456159	1	10	0.04	1800	91.90966	40.92394	-91.39363
365249	-19008	8296	1182	34.48177	-9.418839	-322.9632	0	11.63	4004	0	0	0	0	0.7175558	0.2556516	1	10	0.04	1800	97.96636	40.92394	-91.39363
365318	-25232	18036	9798	-18.48755	-37.11172	-343.1397	0	11.57	4002	0	0	0	0	0.7175558	0.2765401	1	10	0.04	1800	114.7495	40.92394	-91.39363
365419	-10109	9048	5656	-29.09858	-61.35454	-361.0211	0	11.57	4003	0	0	0	0	0.7175558	0.2886356	1	10	0.04	1800	133.8108	40.92394	-91.39363
365513	-2623	4839	5214	-26.72282	-65.59743	-367.0397	0	11.57	4002	0	0	0	0	0.7175558	0.3149807	1	10	0.04	1800	145.7078	40.92394	-91.39362
365623	694	2478	1828	-18.75245	-62.7084	-372.7233	0	11.57	4002	0	0	0	0	0.7175558	0.3270999	1	10	0.04	1800	158.1404	40.92394	-91.39362
365661	1686	1705	1035	-16.68877	-61.43011	-373.4658	0	11.57	4002	0	0	0	0	0.7175558	0.3299683	1	10	0.04	1800	158.1404	40.92394	-91.39363
365727	1855	-94	-3600	-14.54538	-54.53214	-371.1817	0	11.57	4004	0	0	0	0	0.7175558	0.3328213	1	10	0.04	1800	156.2823	40.92394	-91.39363
365832	970	-660	-149	-13.64322	-47.41427	-367.676	0	11.57	4010	0	0	0	0	0.7175558	0.332744	1	10	0.04	1800	133.4014	40.92394	-91.39363
365966	361	111	-216	-10.56216	-36.52976	-369.247	0	11.57	4003	0	0	0	0	0.7175558	0.3174601	1	10	0.04	1800	100.656	40.92394	-91.39363
366036	-128	-138	-1680	-10.38865	-32.69272	-367.8643	0	11.57	4003	0	0	0	0	0.7175558	0.3135072	1	10	0.04	1800	79.2017	40.92394	-91.39363
366180	-149	82	46	-8.4297	-25.78054	-366.5573	0	11.57	4003	0	0	0	0	0.7175558	0.2751043	1	10	0.04	1800	43.12529	40.92394	-91.39363
366263	-202	67	14	-7.849307	-23.72795	-366.6052	0	11.63	4002	0	0	0	0	0.7175558	0.2569987	1	10	0.04	1800	31.6356	40.92394	74.94278
366381	-57	-218	6	-6.890565	-19.9055	-366.5872	0	11.63	4004	0	0	0	0	0.7175558	0.2296141	1	10	0.04	1800	20.77753	40.92394	90.94946
366466	-2	58	-85	-6.188048	-17.04499	-366.4971	0	11.63	4004	0	0	0	0	0.7175558	0.217134	1	10	0.04	1800	16.91668	40.92394	-74.98275
366552	-4	19	-12	-5.729208	-15.64551	-366.4514	0	11.63	4003	0	0	0	0	0.7175558	0.1871277	1	10	0.04	1800	13.9122	40.92394	-91.2607
366633	-72	-37	0	-5.24992	-14.29644	-366.4492	0	11.63	4003	0	0	0	0	0.7175558	0.1686791	1	10	0.04	1800	11.91784	40.92395	-91.38167
366803	-54	-8	5	-4.389268	-11.35244	-366.4533	0	11.63	4002	0	0	0	0	0.7175558	0.1211559	1	10	0.04	1800	7.647411	40.92395	-91.3936
366835	-41	-8	4	-4.248075	-10.82837	-366.4558	0	11.63	4003	0	0	0	0	0.7175558	0.1102483	1	10	0.04	1800	7.647411	40.92395	-91.39362
366948	-47	-12	4	-3.694345	-9.014114	-366.46	0	11.63	4003	0	0	0	0	0.7175558	0.09536706	1	10	0.04	1800	5.656866	40.92395	-91.39363
367084	-46	4	5	-3.22735	-7.495024	-366.4672	0	11.63	4002	0	0	0	0	0.7175558	0.06881087	1	10	0.04	1800	4.394369	40.92395	-91.39363
367152	-43	-1	5	-3.020806	-6.83065	-366.4704	0	11.63	4003	0	0	0	0	0.7175558	0.05907635	1	10	0.04	1800	3.917261	40.92395	-91.39364
367229	-35	2	0	-2.756014	-5.940283	-366.4753	0	11.63	4003	0	0	0	0	0.7175558	0.03584465	1	10	0.04	1800	3.237982	40.92395	-91.39364
367364	-45	3	0	-2.440551	-4.922664	-366.4812	0	11.63	4002	0	0	0	0	0.7175558	0.004102929	1	10	0.04	1800	2.53782	40.92395	-91.39364
367435	-46	-3	7	-2.314062	-4.484159	-366.4854	0	11.63	4002	0	0	0	0	0.7175558	-0.01598933	1	10	0.04	1800	2.490092	40.92395	-91.39364
367605	-39	0	2	-2.066949	-3.709273	-366.4928	0	11.63	4003	0	0	0	0	0.7175558	-0.04962702	1	10	0.04	1800	2.004729	40.92395	-91.39364
367655	-50	0	5	-1.914339	-3.211906	-366.4966	0	11.63	4003	0	0	0	0	0.7175558	-0.04991659	1	10	0.04	1800	1.813375	40.92395	-91.39364
367740	-48	2	-2	-1.820943	-2.913792	-366.5002	0	11.63	4002	0	0	0	0	0.7175558	-0.04546379	1	10	0.04	1800	1.616507	40.92395	-91.39364
367900	-43	0	-1	-1.628976	-2.280427	-366.5081	0	11.63	4002	0	0	0	0	0.7175558	-0.04474704	1	10	0.04	1800	1.182301	40.92395	-91.39364
367929	-43	2	4	-1.594083	-2.171775	-366.5091	0	11.63	4004	0	0	0	0	0.7175558	-0.04930829	1	10	0.04	1800	1.182301	40.92395	-91.39364
368015	-45	3	6	-1.47924	-1.777273	-366.517	0	11.63	4002	0	0	0	0	0.7175558	-0.0598647	1	10	0.04	1800	1.061355	40.92395	36.55744
368154	-47	-1	4	-1.395333	-1.524817	-366.5232	0	11.63	4002	0	0	0	0	0.7175558	-0.07941287	1	10	0.04	1800	0.8746325	40.92395	89.91304
368210	-47	-1	4	-1.348288	-1.376641	-366.5265	0	11.63	4002	0	0	0	0	0.7175558	-0.08061656	1	10	0.04	1800	0.7772591	40.92395	91.26036
368312	-44	2	1	-1.263426	-1.116871	-366.5331	0	11.63	4003	0	0	0	0	0.7175558	-0.08218279	1	10	0.04	1800	0.850279	40.92396	-89.91414
368450	-46	2	1	-1.212372	-0.9473073	-366.5375	0	11.63	4003	0	0	0	0	0.7175558	-0.0805466	1	10	0.04	1800	0.7224398	40.92396	-91.35369
368580	-45	4	6	-1.142957	-0.7119154	-366.5477	0	11.63	4002	0	0	0	0	0.7175558	-0.08946253	1	10	0.04	1800	0.2028209	40.92396	-91.39354
368636	-41	-3	1	-1.132377	-0.6704728	-366.5506	0	11.63	4003	0	0	0	0	0.7175558	-0.0965841	1	10	0.04	1800	0.3792981	40.92396	-91.39363
368705	-47	0	5	-1.109376	-0.5917748	-366.5545	0	11.63	4003	0	0	0	0	0.7175558	-0.1062439	1	10	0.04	1800	0.3430807	40.92396	-91.39364
368938	-35	2	4	-1.043883	-0.3712448	-366.5675	0	11.68	4002	0	0	0	0	0.7175558	-0.1308998	1	10	0.04	1800	0.2585068	40.92395	-91.39364
369013	-39	-2	1	-1.023398	-0.3018717	-366.5742	0	11.68	4004	0	0	0	0	0.7175558	-0.1383573	1	10	0.04	1800	0.2294073	40.92395	-91.39364
369112	-48	-1	2	-1.011842	-0.2565609	-366.578	0	11.68	4004	0	0	0	0	0.7175558	-0.1430152	1	10	0.04	1800	0.2120499	40.92395	-91.39364
369207	-42	5	1	-0.9870404	-0.1766254	-366.5879	0	11.68	4003	0	0	0	0	0.7175558	-0.1453726	1	10	0.04	1800	0.17112	40.92395	-91.39364
369314	-44	4	6	-0.9732106	-0.1253516	-366.5928	0	11.68	4004	0	0	0	0	0.7175558	-0.1531124	1	10	0.04	1800	0.1401867	40.92395	-91.39364
369476	-43	0	-1	-0.9539803	-0.07291512	-366.5984	0	11.68	4004	0	0	0	0	0.7175558	-0.1582621	1	10	0.04	1800	0.1246015	40.92395	-91.39364
369575	-46	3	4	-0.9418652	-0.03920195	-366.6039	0	11.68	4009	0	0	0	0	0.7175558	-0.1616442	1	10	0.04	1800	0.094426	40.92395	-91.39364
369631	-40	0	2	-0.936067	-0.01752525	-366.6078	0	11.68	4004	0	0	0	0	0.7175558	-0.1627786	1	10	0.04	1800	0.08584896	40.92395	-91.39364
369771	-41	7	4	-0.9135361	0.02572536	-366.6186	0	11.68	4002	0	0	0	0	0.7175558	-0.1762261	1	10	0.04	1800	0.06040081	40.92395	-91.39364
369840	-38	4	2	-0.9114651	0.0438114	-366.6214	0	11.68	4002	0	0	0	0	0.7175558	-0.183847	1	10	0.04	1800	0.05173254	40.92395	-91.39364
369910	-39	5	3	-0.9096403	0.05271538	-366.6233	0	11.68	4002	0	0	0	0	0.7175558	-0.1873554	1	10	0.04	1800	0.0484965	40.92395	-91.39365
370019	-37	0	6	-0.902255	0.07987422	-366.6292	0	11.68	4003	0	0	0	0	0.7175558	-0.1881048	1	10	0.04	1800	0.04926166	40.92395	-91.39365
370108	-41	-2	2	-0.8962574	0.09240115	-366.6338	0	11.68	4003	0	0	0	0	0.7175558	-0.1857504	1	10	0.04	1800	0.03075452	40.92395	-91.39365
370213	-43	4	6	-0.8952761	0.1076476	-366.6372	0	11.68	4004	0	0	0	0	0.7175558	-0.1861365	1	10	0.04	1800	-0.1856079	40.92395	-91.39365
370316	-35	0	5	-0.8852372	0.1191462	-366.648	0	11.68	4003	0	0	0	0	0.7175558	-0.1805089	1	10	0.04	1800	0.2291882	40.92395	-91.39365
370414	-39	-2	7	-0.8810422	0.1309596	-366.6532	0	11.68	4004	0	0	0	0	0.7175558	-0.1782583	1	10	0.04	1800	0.006898964	40.92395	-91.39365
370544	-40	3	0	-0.867983	0.143415	-366.6645	0	11.68	4004	0	0	0	0	0.7175558	-0.1752979	1	10	0.04	1800	-0.2186279	40.92395	-91.39365
370681	-36	0	7	-0.8617487	0.1565737	-366.6721	0	11.68	4003	0	0	0	0	0.7175558	-0.182552	1	10	0.04	1800	-0.228241	40.92395	-91.39365
370753	-45	1	3	-0.8616137	0.1653026	-366.6779	0	11.63	4004	0	0	0	0	0.7175558	-0.191276	1	10	0.04	1800	-0.2336121	40.92395	-91.39365
370824	-44	-2	7	-0.8614125	0.1723535	-366.6799	0	11.63	4003	0	0	0	0	0.7175558	-0.2034462	1	10	0.04	1800	-0.2306824	40.92395	-91.39365
370956	-37	4	2	-0.8532563	0.1765355	-366.684	0	11.63	4004	0	0	0	0	0.7175558	-0.2172233	1	10	0.04	1800	-0.2432861	40.92395	-91.39365
371080	-41	2	4	-0.8397684	0.1737295	-366.6911	0	11.63	4002	0	0	0	0	0.7175558	-0.2222225	1	10	0.04	1800	-0.0486145	40.92395	-91.39365
371190	-36	4	2	-0.8406367	0.1826524	-366.7013	0	11.63	4003	0	0	0	0	0.7175558	-0.2295312	1	10	0.04	1800	-0.2612915	40.92394	-91.39365
371214	-36	4	2	-0.8406367	0.1826524	-366.7013	0	11.63	4003	0	0	0	0	0.7175558	-0.2302266	1	10	0.04	1800	-0.2612915	40.92394	-91.39365
371314	-35	-2	3	-0.8391764	0.1846078	-366.7054	0	11.63	4004	0	0	0	0	0.7175558	-0.2340688	1	10	0.04	1800	-0.05184937	40.92394	-91.39365
371396	-42	0	2	-0.8354048	0.1827383	-366.7112	0	11.63	4004	0	0	0	0	0.7175558	-0.2317605	1	10	0.04	1800	-0.06140137	40.92394	-91.39365
371474	-36	0	2	-0.8361616	0.1856838	-366.7182	0	11.63	4004	0	0	0	0	0.7175558	-0.2340264	1	10	0.04	1800	-0.05877686	40.92394	-91.39365
371572	-39	4	3	-0.8338652	0.1888783	-366.7213	0	11.63	4002	0	0	0	0	0.7175558	-0.233674	1	10	0.04	1800	-0.06143188	40.92394	-91.39365
371729	-35	5	7	-0.8313835	0.192691	-366.7323	0	11.68	4002	0	0	0	0	0.7175558	-0.2322019	1	10	0.04	1800	-0.06219482	40.92394	-91.39365
371770	-34	-1	3	-0.8355779	0.1908326	-366.7367	0	11.68	4004	0	0	0	0	0.7175558	-0.2242507	1	10	0.04	1800	-0.2693787	40.92394	-91.39365
371876	-41	3	4	-0.8316051	0.1948898	-366.7391	0	11.68	4002	0	0	0	0	0.7175558	-0.216133	1	10	0.04	1800	-0.2693787	40.92395	-91.39365
372033	-41	0	0	-0.8233483	0.1953455	-366.7522	0	11.68	4002	0	0	0	0	0.7175558	-0.2019728	1	10	0.04	1800	-0.07220459	40.92395	-91.39365
372100	-48	2	0	-0.8199169	0.1982183	-366.755	0	11.68	4004	0	0	0	0	0.7175558	-0.1985018	1	10	0.04	1800	-0.07583618	40.92395	-91.39365
372169	-42	2	8	-0.8223642	0.2009348	-366.7584	0	11.68	4003	0	0	0	0	0.7175558	-0.2000286	1	10	0.04	1800	-0.07940674	40.92395	-91.39365
372270	-35	-1	3	-0.8219035	0.1958003	-366.7649	0	11.68	4003	0	0	0	0	0.7175558	-0.2072017	1	10	0.04	1800	0.1348299	40.92395	-91.39365
372380	-39	0	4	-0.8199312	0.1970572	-366.7696	0	11.68	4003	0	0	0	0	0.7175558	-0.2130601	1	10	0.04	1800	-0.0743103	40.92395	-91.39365
372544	-42	5	6	-0.8148883	0.1957643	-366.7807	0	11.63	4003	0	0	0	0	0.7175558	-0.2137235	1	10	0.04	1800	0.1276621	40.92395	-91.39365
372693	-37	2	7	-0.8099581	0.1963814	-366.7881	0	11.63	4003	0	0	0	0	0.7175558	-0.2069467	1	10	0.04	1800	-0.08734131	5.890378	53.12318
372775	-34	7	4	-0.806669	0.1859473	-366.7976	0	11.63	4003	0	0	0	0	0.7175558	-0.2034397	1	10	0.04	1800	0.1121861	30.39596	-47.96467
372953	-35	3	4	-0.8053718	0.1863876	-366.8078	0	11.63	4003	0	0	0	0	0.7175558	-0.1944465	1	10	0.04	1800	-0.1008301	40.89837	-91.28812
373051	-33	3	0	-0.8019337	0.1855301	-366.8104	0	11.63	4004	0	0	0	0	0.7175558	-0.1933027	1	10	0.04	1800	-0.1079407	40.92326	-91.39079
373103	-41	0	1	-0.8014601	0.1885523	-366.8112	0	11.63	4003	0	0	0	0	0.7175558	-0.1907372	1	10	0.04	1800	-0.1079407	40.92393	-91.39357
373206	-35	-3	-5	-0.7981092	0.1854742	-366.818	0	11.63	4002	0	0	0	0	0.7175558	-0.1876672	1	10	0.04	1800	-0.3198242	40.92395	-91.39364
373407	-40	0	5	-0.7984934	0.1876367	-366.8279	0	11.63	4004	0	0	0	0	0.7175558	-0.1740702	1	10	0.04	1800	-0.3208923	40.92395	-91.39365
373477	-35	-3	4	-0.7926769	0.1903516	-366.8304	0	11.68	4003	0	0	0	0	0.7175558	-0.1587952	1	10	0.04	1800	-0.1187134	40.92395	-91.39365
373563	-37	5	4	-0.7876552	0.1947524	-366.8344	0	11.68	4002	0	0	0	0	0.7175558	-0.1499972	1	10	0.04	1800	-0.1316833	40.92395	-91.39365
373619	-40	1	1	-0.7856796	0.187101	-366.8415	0	11.68	4002	0	0	0	0	0.7175558	-0.1417087	1	10	0.04	1800	-0.1309204	40.92395	-91.39365
373733	-35	0	2	-0.7869544	0.1881473	-366.8438	0	11.68	4004	0	0	0	0	0.7175558	-0.1359911	1	10	0.04	1800	-0.1309204	40.92395	-91.39365
373828	-28	3	3	-0.7835786	0.1897773	-366.852	0	11.68	4003	0	0	0	0	0.7175558	-0.1354608	1	10	0.04	1800	-0.1352234	40.92395	-91.39365
373965	-38	3	5	-0.7839261	0.1927203	-366.8572	0	11.68	4003	0	0	0	0	0.7175558	-0.1329961	1	10	0.04	1800	-0.1324768	40.92395	-91.39365
374022	-38	5	1	-0.7854152	0.1917754	-366.8617	0	11.68	4004	0	0	0	0	0.7175558	-0.1335063	1	10	0.04	1800	-0.12854	40.92395	-91.39365
374109	-35	4	0	-0.7828473	0.1929815	-366.864	0	11.68	4002	0	0	0	0	0.7175558	-0.1377082	1	10	0.04	1800	-0.1347046	40.92395	-91.39365
374207	-40	0	3	-0.7842823	0.1925354	-366.8693	0	11.68	4004	0	0	0	0	0.7175558	-0.142338	1	10	0.04	1800	-0.3398743	40.92395	-91.39365
374308	-30	-2	1	-0.7819979	0.1922576	-366.8718	0	11.68	4002	0	0	0	0	0.7175558	-0.1364831	1	10	0.04	1800	-0.3398743	40.92395	-91.39365
374526	-36	1	1	-0.7887574	0.1961773	-366.8832	0	11.63	4002	0	0	0	0	0.7175558	-0.1196257	1	10	0.04	1800	-0.1267395	40.92395	-91.39364
374624	-36	5	1	-0.7941802	0.1956281	-366.8859	0	11.63	4003	0	0	0	0	0.7175558	-0.1060336	1	10	0.04	1800	-0.1219482	40.92395	-91.39364
374728	-35	3	9	-0.7897108	0.202598	-366.8929	0	11.63	4003	0	0	0	0	0.7175558	-0.1098496	1	10	0.04	1800	0.08661146	40.92395	-91.39364
374903	-32	3	1	-0.7904443	0.2089811	-366.8983	0	11.63	4002	0	0	0	0	0.7175558	-0.1145561	1	10	0.04	1800	0.08771864	40.92395	-91.39364
374952	-36	0	3	-0.787927	0.2090412	-366.899	0	11.63	4004	0	0	0	0	0.7175558	-0.1192727	1	10	0.04	1800	0.08771864	40.92395	-91.39364
375017	-33	0	4	-0.7869673	0.2059124	-366.9035	0	11.63	4003	0	0	0	0	0.7175558	-0.122536	1	10	0.04	1800	-0.1297607	40.92395	-91.39364
375153	-43	2	7	-0.7831848	0.2092193	-366.9054	0	11.63	4004	0	0	0	0	0.7175558	-0.1371646	1	10	0.04	1800	0.08319234	40.92395	-91.39364
375225	-37	0	0	-0.7868642	0.2039334	-366.909	0	11.63	4003	0	0	0	0	0.7175558	-0.1430487	1	10	0.04	1800	-0.1356506	40.92395	-91.39364
375308	-40	4	9	-0.7827134	0.2060442	-366.9146	0	11.63	4002	0	0	0	0	0.7175558	-0.1489676	1	10	0.04	1800	-0.1334839	40.92395	-91.39364
375431	-35	-2	4	-0.7777942	0.2054912	-366.9185	0	11.63	4002	0	0	0	0	0.7175558	-0.1554484	1	10	0.04	1800	-0.1400452	40.92395	-91.39364
375541	-36	2	4	-0.781898	0.2060389	-366.925	0	11.63	4003	0	0	0	0	0.7175558	-0.159964	1	10	0.04	1800	0.2803343	40.92395	-91.39364
375591	-43	7	0	-0.7819777	0.2069886	-366.9267	0	11.63	4003	0	0	0	0	0.7175558	-0.1614332	1	10	0.04	1800	-0.3445129	40.92395	-91.39364
375693	-38	2	0	-0.7781293	0.2077644	-366.9298	0	11.63	4003	0	0	0	0	0.7175558	-0.1659805	1	10	0.04	1800	0.07478461	40.92395	-91.39364
375848	-32	2	3	-0.7788015	0.209439	-366.9346	0	11.63	4003	0	0	0	0	0.7175558	-0.179254	1	10	0.04	1800	-0.3482361	40.92395	-91.39364
375917	-29	7	5	-0.7799545	0.2065706	-366.9365	0	11.63	4002	0	0	0	0	0.7175558	-0.1827161	1	10	0.04	1800	-0.1356506	40.92395	-91.39364
376055	-33	1	-1	-0.7800467	0.2062697	-366.9392	0	11.63	4003	0	0	0	0	0.7175558	-0.1969216	1	10	0.04	1800	-0.1370239	40.92395	-91.39364
376218	-35	1	-4	-0.7742377	0.1975266	-366.944	0	11.68	4003	0	0	0	0	0.7175558	-0.2126245	1	10	0.04	1800	-0.1446838	40.92395	-91.39364
376405	-30	2	2	-0.7712275	0.20733	-366.9529	0	11.68	4003	0	0	0	0	0.7175558	-0.2128543	1	10	0.04	1800	-0.1541138	40.92395	-91.39364
376568	-38	-4	4	-0.7727697	0.2084234	-366.9599	0	11.68	4004	0	0	0	0	0.7175558	-0.204247	1	10	0.04	1800	-0.1495972	40.92395	-91.39364
376633	-34	3	-2	-0.7653312	0.2106559	-366.9619	0	11.68	4002	0	0	0	0	0.7175558	-0.1990076	1	10	0.04	1800	-0.3700562	40.92395	-91.39364
376696	-35	1	0	-0.7649257	0.2118884	-366.9637	0	11.68	4003	0	0	0	0	0.7175558	-0.1972019	1	10	0.04	1800	0.05000738	40.97493	26.90109
376758	-33	7	8	-0.7676053	0.2134381	-366.9655	0	11.68	4002	0	0	0	0	0.7175558	-0.1946656	1	10	0.04	1800	0.05000738	40.97846	35.09073
376896	-41	-1	-3	-0.7679966	0.212419	-366.9714	0	11.68	4003	0	0	0	0	0.7175558	-0.1953539	1	10	0.04	1800	-0.1602783	40.92898	-79.72259
376994	-37	-1	0	-0.7642794	0.2122106	-366.9755	0	11.68	4004	0	0	0	0	0.7175558	-0.2006454	1	10	0.04	1800	-0.1589661	40.92399	-91.2991
377061	-28	-3	1	-0.7615526	0.2110087	-366.9787	0	11.63	4004	0	0	0	0	0.7175558	-0.2072453	1	10	0.04	1800	-0.1645813	40.92395	-91.38513
377161	-40	5	2	-0.7646828	0.2060759	-366.9821	0	11.63	4002	0	0	0	0	0.7175558	-0.2111349	1	10	0.04	1800	-0.3764954	40.92395	-91.39287
377319	-36	0	4	-0.7595418	0.2090372	-366.9881	0	11.63	4002	0	0	0	0	0.7175558	-0.2067811	1	10	0.04	1800	0.04115579	40.92395	-91.39364
377456	-32	1	5	-0.7532758	0.203798	-366.9923	0	11.63	4003	0	0	0	0	0.7175558	-0.2036435	1	10	0.04	1800	-0.1692505	40.92395	-91.39364
377499	-37	1	-2	-0.7537777	0.1993802	-366.9939	0	11.63	4004	0	0	0	0	0.7175558	-0.1946084	1	10	0.04	1800	-0.3848267	40.92395	-91.39364
377583	-22	0	1	-0.7523311	0.1978525	-366.9946	0	11.63	4002	0	0	0	0	0.7175558	-0.1838675	1	10	0.04	1800	-0.1743469	40.92395	-91.39364
377669	-31	3	0	-0.7484011	0.1977176	-366.9965	0	11.63	4003	0	0	0	0	0.7175558	-0.1793553	1	10	0.04	1800	-0.3830261	40.92395	-91.39364
377747	-32	2	3	-0.7474131	0.2037553	-367.0033	0	11.63	4002	0	0	0	0	0.7175558	-0.1683113	1	10	0.04	1800	-0.1866455	40.92395	-91.39364
377803	-28	-3	2	-0.7530387	0.2049015	-367.0047	0	11.63	4004	0	0	0	0	0.7175558	-0.1608239	1	10	0.04	1800	-0.1866455	40.92395	-91.39364
377937	-32	1	0	-0.7539267	0.2051271	-367.0101	0	11.68	4002	0	0	0	0	0.7175558	-0.1538972	1	10	0.04	1800	-0.3862915	40.92395	-91.39364
377991	-38	3	4	-0.7557448	0.2050103	-367.0116	0	11.68	4004	0	0	0	0	0.7175558	-0.1357928	1	10	0.04	1800	-0.1724548	40.92395	-91.39364
378041	-39	1	5	-0.7611197	0.2048221	-367.013	0	11.68	4003	0	0	0	0	0.7175558	-0.1357928	1	10	0.04	1800	-0.1724548	40.92395	-91.39364
378146	-35	3	1	-0.7590232	0.2018183	-367.017	0	11.68	4004	0	0	0	0	0.7175558	-0.1111533	1	10	0.04	1800	-0.1685181	40.92395	-91.39364
378230	-31	2	0	-0.7562753	0.1989204	-367.021	0	11.68	4002	0	0	0	0	0.7175558	-0.09201808	1	10	0.04	1800	-0.1741943	40.92395	-91.39364
378407	-32	2	3	-0.7524378	0.203957	-367.0261	0	11.68	4003	0	0	0	0	0.7175558	-0.05764918	1	10	0.04	1800	-0.3862305	40.92395	-91.39364
378503	-32	-2	3	-0.7528316	0.2006618	-367.0314	0	11.68	4003	0	0	0	0	0.7175558	-0.04669174	1	10	0.04	1800	-0.3866577	40.92395	-91.39364
378616	-36	-3	4	-0.7511294	0.2072941	-367.0358	0	11.68	4003	0	0	0	0	0.7175558	-0.04201081	1	10	0.04	1800	0.02866503	40.92395	-91.39364
378762	-32	4	2	-0.7477818	0.2074887	-367.0409	0	11.63	4004	0	0	0	0	0.7175558	-0.03069398	1	10	0.04	1800	-0.3967896	40.92395	-91.39364
378800	-34	0	3	-0.7472785	0.2065405	-367.0424	0	11.63	4003	0	0	0	0	0.7175558	-0.02760966	1	10	0.04	1800	-0.1846619	40.92395	-91.39364
378893	-36	-2	2	-0.740225	0.2004588	-367.0454	0	11.63	4003	0	0	0	0	0.7175558	-0.03314836	1	10	0.04	1800	0.01621299	40.92395	-91.39364
379000	-22	-2	0	-0.7309031	0.2049798	-367.0491	0	11.63	4004	0	0	0	0	0.7175558	-0.04616806	1	10	0.04	1800	-0.2089844	40.92395	-91.39364
379126	-33	3	0	-0.7277455	0.1949585	-367.057	0	11.63	4002	0	0	0	0	0.7175558	-0.06115413	1	10	0.04	1800	-0.4231262	40.92395	-91.39364
379181	-29	7	3	-0.7272397	0.1954435	-367.0582	0	11.63	4004	0	0	0	0	0.7175558	-0.06302973	1	10	0.04	1800	-0.2140503	40.92395	-91.39364
379279	-23	3	3	-0.7238689	0.1951268	-367.0639	0	11.63	4004	0	0	0	0	0.7175558	-0.06432625	1	10	0.04	1800	-0.007720947	40.92395	-91.39364
379325	-31	1	3	-0.7198696	0.1958046	-367.0673	0	11.63	4003	0	0	0	0	0.7175558	-0.06740998	1	10	0.04	1800	-0.01620483	40.92395	-91.39364
379424	-33	2	1	-0.7124343	0.1957432	-367.0703	0	11.63	4003	0	0	0	0	0.7175558	-0.0674039	1	10	0.04	1800	-0.2328796	40.92395	-91.39364
379532	-30	8	2	-0.7109067	0.1889678	-367.0744	0	11.63	4003	0	0	0	0	0.7175558	-0.06931873	1	10	0.04	1800	-0.2348633	40.92395	-91.39364
379667	-30	-1	-1	-0.7072069	0.1965691	-367.0807	0	11.68	4004	0	0	0	0	0.7175558	-0.06641936	1	10	0.04	1800	-0.2418518	40.92395	-91.39364
379765	-38	1	-2	-0.7076091	0.200146	-367.0854	0	11.68	4002	0	0	0	0	0.7175558	-0.06037406	1	10	0.04	1800	-0.4518433	40.92395	-91.39364
379821	-34	-1	2	-0.7125263	0.1979736	-367.0854	0	11.68	4002	0	0	0	0	0.7175558	-0.05926452	1	10	0.04	1800	-0.4510498	40.92395	-91.39364
379936	-31	0	0	-0.7095103	0.1903654	-367.0884	0	11.68	4003	0	0	0	0	0.7175558	-0.05743124	1	10	0.04	1800	-0.2361145	40.92395	-91.39364
380021	-36	-2	7	-0.7052506	0.1897313	-367.0919	0	11.68	4003	0	0	0	0	0.7175558	-0.05674765	1	10	0.04	1800	-0.2479553	40.92395	-91.39364
380176	-34	3	2	-0.7044317	0.1930207	-367.0968	0	11.68	4003	0	0	0	0	0.7175558	-0.04677195	1	10	0.04	1800	-0.2460022	40.92395	-91.39364
380295	-29	-1	5	-0.6975636	0.1897981	-367.1043	0	11.68	4003	0	0	0	0	0.7175558	-0.04483958	1	10	0.04	1800	-0.256897	40.92395	-91.39364
380332	-29	-1	5	-0.6975636	0.1897981	-367.1043	0	11.68	4003	0	0	0	0	0.7175558	-0.0436149	1	10	0.04	1800	-0.256897	40.92395	-91.39364
380419	-28	0	4	-0.7024719	0.1944201	-367.1107	0	11.68	4004	0	0	0	0	0.7175558	-0.04167099	1	10	0.04	1800	-0.2501221	40.92395	-91.39364
380566	-20	8	0	-0.7006775	0.1856367	-367.1166	0	11.63	4002	0	0	0	0	0.7175558	-0.04509223	1	10	0.04	1800	-0.2514038	40.92395	-91.39364
380634	-34	2	3	-0.7031232	0.1841398	-367.1183	0	11.63	4004	0	0	0	0	0.7175558	-0.05095984	1	10	0.04	1800	-0.4657593	40.92395	-91.39364
380738	-34	3	2	-0.7055805	0.1817304	-367.1214	0	11.63	4003	0	0	0	0	0.7175558	-0.06227247	1	10	0.04	1800	-0.4516296	40.92395	-91.39364
380812	-30	5	4	-0.7057847	0.1825776	-367.1235	0	11.63	4004	0	0	0	0	0.7175558	-0.06660266	1	10	0.04	1800	-0.2457275	40.92395	-91.39364
