time(ms)	gyro_x(deg/s)	gyro_y(deg/s)	gyro_z(deg/s)	orientation_roll(deg)	orientation_pitch(deg)	orientation_yaw(deg)	throttle	battery(V)	loop_time(uS)	pid_output_roll	pid_output_pitch	pid_output_yaw	pid_output_throttle	ultrasonic_alt	baro_alt	flight_mode	p_gain_altitude	i_gain_altitude	d_gain_altitude	compass_heading	latitude	longitude
288331	-26	0	4	-0.8534966	0.3498786	-36.56864	0	11.8	4002	0	0	0	0	0.05300372	-0.1251205	1	10	0.04	1800	2.345508	40.92395	-91.39362
288412	-30	4	2	-0.8532594	0.3478748	-36.57633	0	11.8	4004	0	0	0	0	0.05251301	-0.1221457	3	10	0.04	1800	2.346852	40.92395	-91.39362
288584	-26	0	3	-0.8541004	0.3431942	-36.58274	0	11.74	4002	0	0	0	0	0.05153278	-0.1191117	3	10	0.04	1800	2.348632	40.92395	-91.39362
288631	-26	-3	3	-0.8507776	0.3431132	-36.58384	0	11.74	4003	0	0	0	0	0.0514216	-0.12055	3	10	0.04	1800	2.348632	40.92395	-91.39362
288692	-29	0	1	-0.8474713	0.3452349	-36.58896	0	11.74	4002	0	0	0	0	0.05115044	-0.123212	3	10	0.04	1800	2.347181	40.92395	-91.39362
288783	-23	-5	0	-0.8441768	0.3444574	-36.59049	0	11.74	4004	0	0	0	0	0.05101184	-0.126716	3	10	0.04	1800	2.342326	40.92395	-91.39362
288886	-27	-2	1	-0.8275365	0.3446661	-36.59427	0	11.74	4003	0	0	0	0	0.05085173	-0.1334554	3	10	0.04	1800	2.31103	40.92395	-91.39362
288996	-24	3	5	-0.8227565	0.3440502	-36.59903	0	11.74	4002	0	0	0	0	0.050735	-0.1424187	3	10	0.04	1800	2.305392	40.92395	-91.39362
289100	-24	-1	2	-0.8232444	0.3393083	-36.60379	0	11.74	4003	0	0	0	0	0.05064991	-0.143819	3	10	0.04	1800	2.302194	40.92395	-91.39362
289264	-22	7	1	-0.8143117	0.3419406	-36.60843	0	11.74	4004	0	0	0	0	0.05055617	-0.1417428	3	10	0.04	1800	2.295796	40.92395	-91.39362
289346	-25	2	4	-0.8068597	0.3436399	-36.61087	0	11.74	4004	0	0	0	0	0.05053049	-0.1355107	3	10	0.04	1800	2.067783	40.92395	-91.39362
289395	-25	0	2	-0.8074844	0.3420765	-36.61216	0	11.74	4003	0	0	0	0	0.05050968	-0.1288787	3	10	0.04	1800	2.067783	40.92395	-91.39362
289516	-26	0	3	-0.8137177	0.3455498	-36.6157	0	11.74	4004	0	0	0	0	0.05047918	-0.1169285	3	10	0.04	1800	2.491922	40.92395	-91.39362
289672	-22	8	5	-0.8067788	0.3435386	-36.6207	0	11.74	4004	0	0	0	0	0.05045917	-0.1121538	3	10	0.04	1800	2.055115	40.92395	-91.39362
289717	-29	0	6	-0.8055316	0.346844	-36.62394	0	11.74	4004	0	0	0	0	0.05045917	-0.1121538	3	10	0.04	1800	2.278053	40.92395	-91.39362
289809	-25	5	2	-0.8075573	0.3451403	-36.62729	0	11.74	4003	0	0	0	0	0.05044604	-0.1123433	3	10	0.04	1800	2.278053	40.92395	-91.39362
289925	-24	2	3	-0.8077755	0.3469142	-36.63181	0	11.74	4004	0	0	0	0	0.05043926	-0.1080657	3	10	0.04	1800	2.077111	40.92395	-91.39362
290075	-27	2	0	-0.7995282	0.3425294	-36.63779	0	11.74	4004	0	0	0	0	0.05043178	-0.1058325	3	10	0.04	1800	2.058836	40.92395	-91.39362
290111	-23	0	1	-0.8010585	0.3395039	-36.63852	0	11.74	4003	0	0	0	0	0.0504307	-0.106419	3	10	0.04	1800	2.270732	40.92395	-91.39362
290215	-26	0	2	-0.7953083	0.3411448	-36.64182	0	11.74	4003	0	0	0	0	0.05042737	-0.1136755	3	10	0.04	1800	2.26764	40.92395	-91.39362
290374	-19	2	0	-0.7932589	0.335958	-36.64927	0	11.8	4004	0	0	0	0	0.05042518	-0.1235982	3	10	0.04	1800	2.250629	40.92395	-91.39362
290463	-24	4	0	-0.7948125	0.3327235	-36.65317	0	11.8	4003	0	0	0	0	0.05042404	-0.1339495	1	10	0.04	1800	2.259119	40.92395	-91.39362
290510	-21	-1	3	-0.7911839	0.3349907	-36.65415	0	11.8	4002	0	0	0	0	0.05042347	-0.1407897	1	10	0.04	1800	2.259119	40.92395	-91.39362
290625	-23	0	2	-0.7848111	0.3358833	-36.65598	0	11.8	4002	0	0	0	0	0.0504228	-0.1554173	1	10	0.04	1800	2.034726	40.92395	-91.39362
290721	-26	0	0	-0.7877024	0.3378474	-36.65781	0	11.8	4002	0	0	0	0	0.05042246	-0.1609446	1	10	0.04	1800	2.246165	40.92395	-91.39362
290821	-21	2	0	-0.7779679	0.3384178	-36.65976	0	11.8	4004	0	0	0	0	0.05042195	-0.1699728	1	10	0.04	1800	2.245224	40.92395	-91.39362
290930	-24	0	0	-0.7793138	0.3383025	-36.66117	0	11.8	4002	0	0	0	0	0.05042169	-0.1736134	1	10	0.04	1800	2.462541	40.92395	-91.39362
291039	-18	0	2	-0.7769974	0.331631	-36.66489	0	11.8	4002	0	0	0	0	0.0504215	-0.1780282	1	10	0.04	1800	2.238981	40.92395	-91.39362
291155	-27	4	1	-0.7758793	0.3294176	-36.66965	0	11.8	4003	0	0	0	0	0.05042133	-0.1737408	1	10	0.04	1800	2.226041	40.92395	-91.39362
291235	-20	4	0	-0.7812092	0.3335712	-36.67209	0	11.8	4004	0	0	0	0	0.05042127	-0.1689512	1	10	0.04	1800	2.225466	40.92395	-91.39362
291340	-23	4	6	-0.7783194	0.3303347	-36.67545	0	11.85	4004	0	0	0	0	0.05042117	-0.153338	1	10	0.04	1800	2.235205	40.92395	-91.39362
291492	-22	0	4	-0.7705981	0.3275812	-36.67972	0	11.85	4003	0	0	0	0	0.05042113	-0.1402525	1	10	0.04	1800	2.013125	40.92395	-91.39362
291565	-27	0	0	-0.7697742	0.3226873	-36.68161	0	11.85	4003	0	0	0	0	0.05042109	-0.1253099	1	10	0.04	1800	2.229465	40.92395	-91.39362
291627	-19	3	0	-0.7681338	0.3232561	-36.68253	0	11.85	4003	0	0	0	0	0.05042107	-0.1175184	1	10	0.04	1800	2.222378	40.92395	-91.39362
291776	-26	-2	5	-0.7706559	0.321549	-36.68515	0	11.85	4003	0	0	0	0	0.05042105	-0.10563	1	10	0.04	1800	2.009292	40.92395	-91.39362
291921	-21	-3	0	-0.7593395	0.3149853	-36.68991	0	11.85	4002	0	0	0	0	0.05042103	-0.1020684	1	10	0.04	1800	2.20868	40.92395	-91.39362
291951	-21	1	4	-0.7617589	0.3197629	-36.6904	0	11.85	4003	0	0	0	0	0.05042103	-0.1020684	1	10	0.04	1800	2.205455	40.92395	-91.39362
292041	-20	2	2	-0.7574909	0.3198221	-36.69242	0	11.85	4003	0	0	0	0	0.05042102	-0.1036378	1	10	0.04	1800	2.215204	40.92395	-91.39362
292208	-21	-5	2	-0.7515262	0.3196248	-36.69815	0	11.85	4003	0	0	0	0	0.05042101	-0.108204	1	10	0.04	1800	2.20687	40.92395	-91.39362
292290	-19	-3	4	-0.7512645	0.3213445	-36.7006	0	11.8	4003	0	0	0	0	0.05042101	-0.1110806	1	10	0.04	1800	2.206189	40.92395	-91.39362
292344	-16	1	0	-0.7495446	0.3243062	-36.70047	0	11.8	4003	0	0	0	0	0.05042101	-0.1135628	1	10	0.04	1800	2.206189	40.92395	-91.39362
292522	-21	-3	5	-0.7439582	0.3234776	-36.70511	0	11.8	4004	0	0	0	0	0.05042101	-0.1114348	1	10	0.04	1800	1.968499	40.92395	-91.39362
292578	-21	0	3	-0.7440348	0.3250805	-36.70536	0	11.8	4003	0	0	0	0	0.05042101	-0.1124128	1	10	0.04	1800	2.187961	40.92395	-91.39362
292642	-19	5	0	-0.7427394	0.3287911	-36.70621	0	11.8	4002	0	0	0	0	0.05042101	-0.1127392	1	10	0.04	1800	2.194832	40.92395	-91.39362
292744	-21	0	2	-0.7376002	0.3326626	-36.70786	0	11.8	4003	0	0	0	0	0.05042101	-0.1137495	1	10	0.04	1800	2.18699	40.92395	-91.39362
292953	-16	0	0	-0.7431872	0.3427534	-36.71482	0	11.8	4002	0	0	0	0	0.05042101	-0.1226767	1	10	0.04	1800	2.180297	40.92395	-91.39362
293021	-18	-3	0	-0.7370075	0.3455079	-36.7161	0	11.8	4003	0	0	0	0	0.05042101	-0.1258887	1	10	0.04	1800	2.183619	40.92395	-91.39362
293167	-24	-1	4	-0.7356854	0.3416466	-36.71793	0	11.8	4003	0	0	0	0	0.05042101	-0.132166	1	10	0.04	1800	2.171553	40.92395	-91.39362
293323	-20	5	2	-0.7338619	0.3309191	-36.72367	0	11.8	4004	0	0	0	0	0.05042101	-0.1409843	1	10	0.04	1800	2.394324	40.92395	-91.39362
293377	-21	2	2	-0.7341008	0.3310627	-36.7244	0	11.8	4004	0	0	0	0	0.05042101	-0.1405406	1	10	0.04	1800	2.394324	40.92395	-91.39362
293464	-27	4	-2	-0.7315253	0.3280813	-36.72501	0	11.8	4004	0	0	0	0	0.05042101	-0.1369274	1	10	0.04	1800	1.952689	40.92395	-91.39362
293542	-20	5	0	-0.7310023	0.3218025	-36.72611	0	11.8	4004	0	0	0	0	0.05042101	-0.1340794	1	10	0.04	1800	2.168256	40.92395	-91.39362
293645	-17	2	0	-0.7288123	0.3216743	-36.72574	0	11.8	4002	0	0	0	0	0.05042101	-0.1279848	1	10	0.04	1800	2.387669	40.92395	-91.39362
293773	-20	-1	4	-0.7222103	0.3258051	-36.72782	0	11.8	4004	0	0	0	0	0.05042101	-0.1242704	1	10	0.04	1800	1.933235	40.92395	-91.39362
293875	-20	0	4	-0.7248697	0.3322608	-36.72965	0	11.8	4004	0	0	0	0	0.05042101	-0.1280626	1	10	0.04	1800	1.939176	40.92395	-91.39362
293972	-12	1	0	-0.72416	0.3342705	-36.7327	0	11.8	4002	0	0	0	0	0.05042101	-0.1257805	1	10	0.04	1800	2.37565	40.92395	-91.39362
294056	-19	-2	-1	-0.7251552	0.3360753	-36.73392	0	11.8	4003	0	0	0	0	0.05042101	-0.1253051	1	10	0.04	1800	2.146622	40.92395	-91.39362
294144	-19	-3	5	-0.7235823	0.3346242	-36.73453	0	11.8	4003	0	0	0	0	0.05042101	-0.1297338	1	10	0.04	1800	2.154246	40.92395	-91.39362
294243	-21	3	0	-0.7203228	0.3325573	-36.73911	0	11.8	4003	0	0	0	0	0.05042101	-0.1327936	1	10	0.04	1800	2.367666	40.92395	-91.39362
294350	-18	0	2	-0.7255321	0.3332881	-36.74009	0	11.8	4003	0	0	0	0	0.05042101	-0.1352367	1	10	0.04	1800	2.15565	40.92395	-91.39362
294464	-18	3	0	-0.72537	0.3340567	-36.74186	0	11.8	4002	0	0	0	0	0.05042101	-0.1338468	1	10	0.04	1800	2.165824	40.92395	-91.39362
294557	-18	0	-1	-0.7217206	0.33373	-36.74375	0	11.8	4004	0	0	0	0	0.05042101	-0.1267186	1	10	0.04	1800	2.163449	40.92395	-91.39362
294648	-13	2	0	-0.7182987	0.3322212	-36.7446	0	11.8	4004	0	0	0	0	0.05042101	-0.129369	1	10	0.04	1800	2.365849	40.92395	-91.39362
294760	-20	3	-1	-0.7182857	0.3366131	-36.74662	0	11.8	4002	0	0	0	0	0.05042101	-0.1361417	1	10	0.04	1800	2.159256	40.92395	-91.39362
294854	-21	-5	3	-0.718254	0.3356366	-36.74778	0	11.8	4003	0	0	0	0	0.05042101	-0.1368512	1	10	0.04	1800	2.148859	40.92395	-91.39362
294978	-22	3	0	-0.7235426	0.3382258	-36.74967	0	11.85	4004	0	0	0	0	0.05042101	-0.1369964	1	10	0.04	1800	2.146114	40.92395	-91.39362
295096	-20	5	-2	-0.7216913	0.3357602	-36.75052	0	11.85	4003	0	0	0	0	0.05042101	-0.136281	1	10	0.04	1800	1.938855	40.92395	-91.39362
295153	-19	0	0	-0.7257041	0.3318509	-36.75187	0	11.85	4003	0	0	0	0	0.05042101	-0.1417914	1	10	0.04	1800	1.938855	40.92395	-91.39362
295259	-14	1	-2	-0.7189447	0.3330732	-36.75455	0	11.85	4002	0	0	0	0	0.05042101	-0.1453595	1	10	0.04	1800	2.140068	40.92395	-91.39362
295442	-16	3	-5	-0.7155403	0.3316458	-36.75669	0	11.85	4004	0	0	0	0	0.05042101	-0.1634036	1	10	0.04	1800	2.139336	40.92395	-91.39362
295544	-22	0	1	-0.7183366	0.3248528	-36.75632	0	11.85	4004	0	0	0	0	0.05042101	-0.17062	1	10	0.04	1800	2.149767	40.92395	-91.39362
295644	-22	1	1	-0.718038	0.3300821	-36.76084	0	11.85	4002	0	0	0	0	0.05042101	-0.1789714	1	10	0.04	1800	2.144914	40.92395	-91.39362
295774	-23	3	0	-0.7177565	0.3308022	-36.76267	0	11.85	4002	0	0	0	0	0.05042101	-0.183851	1	10	0.04	1800	2.156761	40.92395	-91.39362
295819	-14	-4	0	-0.7158377	0.3328417	-36.76297	0	11.85	4004	0	0	0	0	0.05042101	-0.1818035	1	10	0.04	1800	1.92761	40.92395	-91.39362
295920	-22	0	3	-0.7184704	0.3267336	-36.76487	0	11.8	4003	0	0	0	0	0.05042101	-0.1705473	1	10	0.04	1800	1.921738	40.92395	-91.39362
296086	-21	2	-1	-0.7134876	0.326325	-36.76871	0	11.8	4004	0	0	0	0	0.05042101	-0.1552586	1	10	0.04	1800	2.151015	40.92395	-91.39362
296231	-16	0	4	-0.7174711	0.3352175	-36.77304	0	11.8	4004	0	0	0	0	0.05042101	-0.1612728	1	10	0.04	1800	2.371776	40.92395	-91.39362
296329	-20	2	2	-0.7115583	0.3396611	-36.77671	0	11.8	4002	0	0	0	0	0.05042101	-0.1615783	1	10	0.04	1800	1.926141	40.92395	-91.39362
296424	-17	-1	0	-0.7087012	0.3415422	-36.7786	0	11.8	4003	0	0	0	0	0.05042101	-0.1651648	1	10	0.04	1800	2.354695	40.92395	-91.39362
296595	-24	0	3	-0.7095948	0.3390965	-36.78336	0	11.8	4004	0	0	0	0	0.05042101	-0.166813	1	10	0.04	1800	1.920152	40.92395	-91.39362
296629	-16	0	0	-0.7076761	0.3371395	-36.78489	0	11.8	4003	0	0	0	0	0.05042101	-0.1653535	1	10	0.04	1800	2.130636	40.92395	-91.39362
296758	-18	-3	-1	-0.7051491	0.3397463	-36.78708	0	11.8	4003	0	0	0	0	0.05042101	-0.1592603	1	10	0.04	1800	2.353181	40.92395	-91.39362
296887	-20	4	5	-0.707961	0.3363876	-36.79245	0	11.8	4003	0	0	0	0	0.05042101	-0.1542166	1	10	0.04	1800	1.916118	40.92395	-91.39362
296931	-16	1	3	-0.7047041	0.3373721	-36.79398	0	11.8	4004	0	0	0	0	0.05042101	-0.1535021	1	10	0.04	1800	2.122237	40.92395	-91.39362
297024	-15	-1	4	-0.7036937	0.3384624	-36.79703	0	11.8	4003	0	0	0	0	0.05042101	-0.143433	1	10	0.04	1800	2.12198	40.92395	-91.39362
297122	-17	-1	5	-0.7057063	0.3445261	-36.80063	0	11.8	4003	0	0	0	0	0.05042101	-0.1394017	1	10	0.04	1800	1.919383	40.92395	-91.39362
297241	-23	0	3	-0.7114138	0.3392735	-36.80582	0	11.8	4004	0	0	0	0	0.05042101	-0.1206692	1	10	0.04	1800	2.136616	40.92395	-91.39362
297340	-22	5	3	-0.7110618	0.3348492	-36.80906	0	11.8	4003	0	0	0	0	0.05042101	-0.09854927	1	10	0.04	1800	2.126865	40.92395	-91.39362
297430	-19	0	3	-0.7089058	0.3324518	-36.81522	0	11.8	4003	0	0	0	0	0.05042101	-0.09052971	1	10	0.04	1800	1.914707	40.92395	-91.39362
297567	-11	-5	1	-0.7050058	0.3389921	-36.81784	0	11.8	4003	0	0	0	0	0.05042101	-0.06936516	1	10	0.04	1800	2.349627	40.92395	-91.39362
297628	-15	-1	5	-0.7079623	0.3395986	-36.82157	0	11.8	4003	0	0	0	0	0.05042101	-0.06402864	3	10	0.04	1800	2.135463	40.92395	-91.39362
297767	-16	0	5	-0.7079846	0.3427798	-36.82553	0	11.8	4004	0	0	0	0	0.05042101	-0.05676334	3	10	0.04	1800	2.123209	40.92395	-91.39362
297850	-20	0	0	-0.7095089	0.3366642	-36.83121	0	11.8	4002	0	0	0	0	0.05042101	-0.06096196	3	10	0.04	1800	1.921866	40.92395	-91.39362
297943	-11	0	3	-0.7009751	0.3372262	-36.83426	0	11.8	4003	0	0	0	0	0.05042101	-0.06468841	3	10	0.04	1800	2.139698	40.92395	-91.39362
298028	-20	1	0	-0.6987771	0.3341895	-36.8386	0	11.8	4002	0	0	0	0	0.04538307	-0.06421753	3	10	0.04	1800	2.126435	40.92395	-91.39362
298101	-17	0	-3	-0.6920124	0.3326013	-36.84122	0	11.8	4004	0	0	0	0	0.03309551	-0.06389911	3	10	0.04	1800	2.33176	40.92395	-91.39362
298204	-20	-4	6	-0.6943086	0.3324813	-36.84317	0	11.8	4003	0	0	0	0	0.02413788	-0.06753271	3	10	0.04	1800	2.116915	40.92395	-91.39362
298387	-18	0	0	-0.6913715	0.3294885	-36.8519	0	11.8	4002	0	0	0	0	0.02	-0.06505475	3	10	0.04	1800	2.114773	40.92395	-91.39362
298438	-14	-1	1	-0.6874676	0.3307849	-36.85367	0	11.8	4004	0	0	0	0	0.02	-0.06451426	3	10	0.04	1800	2.103093	40.92395	-91.39362
298504	-20	5	2	-0.683617	0.3339611	-36.85563	0	11.8	4004	0	0	0	0	0.02	-0.06388983	3	10	0.04	1800	2.103093	40.92395	-91.39362
298694	-17	-1	4	-0.6919203	0.3332706	-36.86179	0	11.8	4002	0	0	0	0	0.02	-0.06293316	3	10	0.04	1800	2.099506	40.92395	-91.39362
298744	-16	1	4	-0.6905766	0.336364	-36.86466	0	11.8	4004	0	0	0	0	0.02	-0.06323279	3	10	0.04	1800	2.115255	40.92395	-91.39362
298820	-14	0	0	-0.6859304	0.3338698	-36.8671	0	11.8	4004	0	0	0	0	0.02	-0.06522418	3	10	0.04	1800	2.309326	40.92395	-91.39362
298898	-16	1	-1	-0.679693	0.3366343	-36.86917	0	11.8	4003	0	0	0	0	0.02	-0.0664105	3	10	0.04	1800	1.876614	40.92395	-91.39362
299072	-11	1	-2	-0.6800728	0.3311332	-36.8754	0	11.8	4004	0	0	0	0	0.02	-0.08051465	3	10	0.04	1800	1.875268	40.92395	-91.39362
299121	-15	1	0	-0.6855509	0.3276218	-36.87711	0	11.8	4003	0	0	0	0	0.02	-0.08745045	3	10	0.04	1800	1.883815	40.92395	-91.39362
299191	-16	-4	6	-0.6815522	0.3249772	-36.88065	0	11.8	4002	0	0	0	0	0.02	-0.09120661	3	10	0.04	1800	1.883815	40.92395	-91.39362
299362	-18	-2	2	-0.6779671	0.3251634	-36.88718	0	11.8	4002	0	0	0	0	0.03010791	-0.08997433	6	10	0.04	1800	2.098625	40.92395	-91.39362
299427	-10	3	5	-0.6794361	0.3204924	-36.89005	0	11.8	4003	0	0	0	0	0.03377189	-0.08443304	6	10	0.04	1800	1.875065	40.92395	-91.39362
299563	-19	0	3	-0.6817725	0.312973	-36.8945	0	11.8	4003	0	0	0	0	0.04016848	-0.06834351	6	10	0.04	1800	2.093948	40.92395	-91.39362
299622	-17	-5	5	-0.6811807	0.3118586	-36.89652	0	11.8	4004	0	0	0	0	0.04109083	-0.06506032	6	10	0.04	1800	1.876531	40.92395	-91.39362
299708	-14	1	0	-0.6812108	0.3141617	-36.90256	0	11.8	4004	0	0	0	0	0.04334045	-0.06240399	6	10	0.04	1800	2.090414	40.92395	-91.39362
299804	-14	0	4	-0.6816809	0.3129175	-36.90891	0	11.8	4004	0	0	0	0	0.04498042	-0.06616118	6	10	0.04	1800	2.089097	40.92395	-91.39362
299972	-13	-2	2	-0.6872755	0.3140853	-36.91361	0	11.8	4004	0	0	0	0	0.046787	-0.06515162	6	10	0.04	1800	1.877741	40.92395	-91.39362
300003	-19	-1	1	-0.6886507	0.3157249	-36.91654	0	11.8	4003	0	0	0	0	0.046787	-0.06515162	6	10	0.04	1800	2.32132	40.92395	-91.39362
300161	-17	0	3	-0.6779549	0.3216459	-36.92185	0	11.8	4004	0	0	0	0	0.04747732	-0.05758062	6	10	0.04	1800	2.08951	40.92395	-91.39362
300230	-13	3	-1	-0.6733733	0.32036	-36.92313	0	11.8	4002	0	0	0	0	0.0479962	-0.05761687	6	10	0.04	1800	2.094199	40.92395	-91.39362
300274	-13	-6	-1	-0.6703389	0.3240459	-36.9227	0	11.8	4004	0	0	0	0	0.0482614	-0.05896708	6	10	0.04	1800	2.094199	40.92395	-91.39362
300378	-12	3	0	-0.6691905	0.3241328	-36.92575	0	11.8	4002	0	0	0	0	0.04824194	-0.06021616	6	10	0.04	1800	2.284647	40.92395	-91.39362
300500	-16	-1	0	-0.6671067	0.3183918	-36.93009	0	11.8	4003	0	0	0	0	0.04841469	-0.06103568	3	10	0.04	1800	2.085781	40.92395	-91.39362
300592	-15	3	-2	-0.664232	0.3120452	-36.93045	0	11.8	4004	0	0	0	0	0.04875079	-0.06523522	3	10	0.04	1800	2.072881	40.92395	-91.39362
300686	-13	3	5	-0.6560855	0.3195099	-36.93418	0	11.8	4003	0	0	0	0	0.04887262	-0.07036957	3	10	0.04	1800	2.06513	40.92395	-91.39362
300790	-11	0	6	-0.6480617	0.3202763	-36.9376	0	11.8	4004	0	0	0	0	0.0489713	-0.07441377	3	10	0.04	1800	2.041279	40.92395	-91.39362
300907	-14	-1	-4	-0.639518	0.3239589	-36.94205	0	11.8	4003	0	0	0	0	0.04914358	-0.08109734	3	10	0.04	1800	2.039562	40.92395	-91.39362
301046	-7	2	6	-0.6412584	0.3197629	-36.94822	0	11.8	4003	0	0	0	0	0.0492109	-0.08553386	6	10	0.04	1800	2.038134	40.92395	-91.39362
301132	-16	0	2	-0.6477394	0.3139323	-36.95005	0	11.8	4002	0	0	0	0	0.04927318	-0.09111957	6	10	0.04	1800	2.029667	40.92395	-91.39362
301184	-19	0	2	-0.6485204	0.3107692	-36.95139	0	11.8	4002	0	0	0	0	0.04928506	-0.09432427	6	10	0.04	1800	1.826687	40.92395	-91.39362
301309	-18	1	0	-0.6474735	0.3152464	-36.95395	0	11.8	4004	0	0	0	0	0.04639382	-0.09961069	6	10	0.04	1800	2.257365	40.92395	-91.39362
301378	-14	2	-1	-0.6423993	0.3136904	-36.95621	0	11.8	4003	0	0	0	0	0.04696347	-0.09767576	6	10	0.04	1800	2.271492	40.92395	-91.39362
301521	-8	-2	0	-0.6332273	0.3141155	-36.95957	0	11.8	4004	0	0	0	0	0.04767292	-0.09121554	6	10	0.04	1800	2.236516	40.92395	-91.39362
301585	-17	0	0	-0.6350956	0.3167753	-36.96054	0	11.8	4003	0	0	0	0	0.04763903	-0.09099521	6	10	0.04	1800	2.024232	40.92395	-91.39362
301699	-10	2	2	-0.6361386	0.3131115	-36.96225	0	11.8	4003	0	0	0	0	0.04772004	-0.08878695	3	10	0.04	1800	2.256523	40.92395	-91.39362
301788	-9	2	-2	-0.6333742	0.308195	-36.96451	0	11.8	4004	0	0	0	0	0.04780133	-0.0913096	3	10	0.04	1800	2.234756	40.92395	-91.39362
301887	-11	3	1	-0.631695	0.3064964	-36.96689	0	11.8	4004	0	0	0	0	0.04786059	-0.09440003	3	10	0.04	1800	2.022726	40.92395	-91.39362
301971	-16	0	3	-0.6312671	0.3036343	-36.96732	0	11.8	4004	0	0	0	0	0.04802808	-0.09085546	6	10	0.04	1800	2.029448	40.92395	-91.39362
302158	-16	-2	0	-0.6314568	0.3046686	-36.96927	0	11.8	4002	0	0	0	0	0.04352619	-0.08811989	6	10	0.04	1800	2.016601	40.92395	-91.39362
302265	-13	0	0	-0.6318759	0.3130398	-36.97178	0	11.8	4004	0	0	0	0	0.04511583	-0.09369195	6	10	0.04	1800	2.23694	40.92395	-91.39362
302396	-12	2	0	-0.6279935	0.3205546	-36.97507	0	11.8	4002	0	0	0	0	0.04641521	-0.1042818	6	10	0.04	1800	2.025729	40.92395	-91.39362
302451	-10	-4	1	-0.6227471	0.3280729	-36.97666	0	11.8	4003	0	0	0	0	0.04671289	-0.102793	3	10	0.04	1800	2.23029	40.92395	-91.39362
302564	-12	-1	0	-0.6261494	0.3274566	-36.97959	0	11.8	4003	0	0	0	0	0.04763424	-0.108377	3	10	0.04	1800	2.009941	40.92395	-91.39362
302725	-13	-4	-1	-0.6279987	0.3284219	-36.98008	0	11.8	4004	0	0	0	0	0.04823873	-0.1090304	3	10	0.04	1800	1.794976	40.92395	-91.39362
302756	-13	0	1	-0.6305941	0.3284775	-36.98142	0	11.8	4003	0	0	0	0	0.04845785	-0.1088498	3	10	0.04	1800	2.235529	40.92395	-91.39362
302856	-16	-3	-3	-0.6276236	0.3339613	-36.98331	0	11.8	4004	0	0	0	0	0.04863534	-0.1054811	3	10	0.04	1800	1.797474	40.92395	-91.39362
302957	-11	2	0	-0.6256965	0.331063	-36.98313	0	11.8	4004	0	0	0	0	0.04889555	-0.09808631	3	10	0.04	1800	2.011415	40.92395	-91.39362
303066	-10	0	1	-0.6178878	0.333762	-36.98471	0	11.8	4004	0	0	0	0	0.04903009	-0.09368663	1	10	0.04	1800	2.00837	40.92395	-91.39362
303204	-18	0	1	-0.6166002	0.3390403	-36.98978	0	11.74	4003	0	0	0	0	0.04915455	-0.08313729	1	10	0.04	1800	2.222646	40.92395	-91.39362
303256	-11	-4	0	-0.6178369	0.3371473	-36.98978	0	11.74	4004	0	0	0	0	0.04919966	-0.07653047	1	10	0.04	1800	2.222646	40.92395	-91.39362
303415	-17	-2	3	-0.626165	0.3356587	-36.99393	0	11.74	4003	0	0	0	0	0.04927843	-0.06052464	1	10	0.04	1800	1.795516	40.92395	-91.39362
303472	-14	-2	4	-0.6269889	0.3321628	-36.99698	0	11.74	4004	0	0	0	0	0.04930001	-0.05645386	1	10	0.04	1800	2.011535	40.92395	-91.39362
303556	-17	0	7	-0.628969	0.3280569	-36.99912	0	11.74	4003	0	0	0	0	0.04931749	-0.05489961	1	10	0.04	1800	2.011535	40.92395	-91.39362
303664	-15	0	0	-0.6276768	0.3289212	-37.0004	0	11.74	4003	0	0	0	0	0.04933768	-0.05384407	1	10	0.04	1800	2.012415	40.92395	-91.39362
303763	-9	-3	2	-0.6270236	0.3339692	-37.00248	0	11.74	4004	0	0	0	0	0.0493524	-0.05412432	1	10	0.04	1800	1.797191	40.92395	-91.39362
303880	-13	2	-1	-0.6252927	0.3253638	-37.00412	0	11.74	4004	0	0	0	0	0.04936602	-0.05304943	1	10	0.04	1800	2.023684	40.92395	-91.39362
303959	-13	0	-2	-0.6292807	0.3299211	-37.00602	0	11.74	4003	0	0	0	0	0.04937095	-0.05473283	1	10	0.04	1800	2.009406	40.92395	-91.39362
304080	-11	-2	2	-0.6287778	0.3332747	-37.00962	0	11.85	4002	0	0	0	0	0.04937666	-0.06063747	1	10	0.04	1800	1.795183	40.92395	-91.39362
304163	-8	4	1	-0.6258655	0.3315251	-37.01084	0	11.85	4004	0	0	0	0	0.04938193	-0.06879891	1	10	0.04	1800	1.795183	40.92395	-91.39362
304350	-17	1	3	-0.6360124	0.3321435	-37.01578	0	11.85	4004	0	0	0	0	0.04938605	-0.06641246	1	10	0.04	1800	2.024726	40.92395	-91.39362
304383	-12	1	7	-0.6364474	0.3339625	-37.01664	0	11.85	4003	0	0	0	0	0.04938665	-0.06603114	1	10	0.04	1800	2.024726	40.92395	-91.39362
304456	-13	4	4	-0.6352692	0.335405	-37.0195	0	11.85	4003	0	0	0	0	0.04938767	-0.06510107	1	10	0.04	1800	2.02975	40.92395	-91.39362
304558	-9	-4	0	-0.6288567	0.3304935	-37.02091	0	11.85	4004	0	0	0	0	0.04938884	-0.06222689	1	10	0.04	1800	2.031733	40.92395	-91.39362
304664	-14	-3	4	-0.642409	0.3321505	-37.025	0	11.85	4005	0	0	0	0	0.0493897	-0.05588284	1	10	0.04	1800	2.025272	40.92395	-91.39362
304792	-13	2	1	-0.6396558	0.3305315	-37.02646	0	11.85	4004	0	0	0	0	0.04939064	-0.04485244	1	10	0.04	1800	1.809234	40.92395	-91.39362
304956	-13	1	10	-0.6358055	0.3337375	-37.03373	0	11.8	4004	0	0	0	0	0.0493912	-0.04080987	1	10	0.04	1800	2.031492	40.92395	-91.39362
305126	-15	0	1	-0.6286719	0.3362381	-37.03855	0	11.8	4003	0	0	0	0	0.04939152	-0.05198665	1	10	0.04	1800	2.016785	40.92395	-91.39362
305238	-7	1	0	-0.6258001	0.3367995	-37.04416	0	11.8	4003	0	0	0	0	0.04939168	-0.05695925	1	10	0.04	1800	2.027053	40.92395	-91.39362
305329	-13	0	2	-0.6313572	0.3315777	-37.04612	0	11.8	4004	0	0	0	0	0.04939175	-0.05848767	1	10	0.04	1800	2.025543	40.92395	-91.39362
305491	-18	2	0	-0.6301295	0.3351722	-37.04795	0	11.8	4003	0	0	0	0	0.04939187	-0.05479671	1	10	0.04	1800	2.007821	40.92395	-91.39362
305599	-8	-1	0	-0.6315871	0.3344441	-37.05008	0	11.8	4004	0	0	0	0	0.0493919	-0.05192884	1	10	0.04	1800	2.010337	40.92395	-91.39362
305629	-15	-4	0	-0.6283306	0.3331657	-37.05039	0	11.8	4004	0	0	0	0	0.04939191	-0.04925909	1	10	0.04	1800	2.024431	40.92395	-91.39362
305718	-15	0	5	-0.6269418	0.3322298	-37.05124	0	11.8	4003	0	0	0	0	0.04939193	-0.04996251	1	10	0.04	1800	2.015721	40.92395	-91.39362
305957	-13	-1	0	-0.6213328	0.3288554	-37.05478	0	11.8	4003	0	0	0	0	0.04939197	-0.05388722	1	10	0.04	1800	1.787591	40.92395	-91.39362
306111	-13	2	-1	-0.6220112	0.319216	-37.05741	0	11.8	4003	0	0	0	0	0.04939198	-0.05849661	1	10	0.04	1800	1.796372	40.92395	-91.39362
306205	-11	0	1	-0.6186351	0.3249606	-37.0593	0	11.8	4004	0	0	0	0	0.04939198	-0.05041899	1	10	0.04	1800	2.009992	40.92395	-91.39362
306285	-9	0	-1	-0.6213028	0.3270117	-37.06064	0	11.8	4004	0	0	0	0	0.04939198	-0.0428764	1	10	0.04	1800	2.002789	40.92395	-91.39362
306332	-12	-2	5	-0.6175077	0.3289809	-37.06223	0	11.8	4003	0	0	0	0	0.04939198	-0.03595211	1	10	0.04	1800	1.992266	40.92395	-91.39362
306396	-9	1	4	-0.6186256	0.3307925	-37.06278	0	11.8	4004	0	0	0	0	0.04939198	-0.02677593	1	10	0.04	1800	1.992266	40.92395	-91.39362
306607	-11	-1	2	-0.6131439	0.3296855	-37.0676	0	11.8	4006	0	0	0	0	0.04939198	0.002817541	1	10	0.04	1800	1.78097	40.92395	-91.39362
306670	-10	-2	0	-0.6131793	0.3291478	-37.06907	0	11.8	4003	0	0	0	0	0.04939198	0.003512448	1	10	0.04	1800	2.209316	40.92395	-91.39362
306716	-14	0	3	-0.6160068	0.3295979	-37.07126	0	11.85	4004	0	0	0	0	0.04939198	0.003838331	1	10	0.04	1800	1.999447	40.92395	-91.39362
306783	-19	-2	0	-0.6175238	0.3267592	-37.07181	0	11.85	4002	0	0	0	0	0.04939198	0.004075898	1	10	0.04	1800	2.002838	40.92395	-91.39362
306967	-9	-1	0	-0.6186886	0.3314423	-37.07358	0	11.85	4003	0	0	0	0	0.04939198	0.00124075	1	10	0.04	1800	2.226366	40.92395	-91.39362
307057	-9	1	1	-0.619768	0.3341038	-37.07297	0	11.85	4004	0	0	0	0	0.04939198	0.0044981	1	10	0.04	1800	2.000722	40.92395	-91.39362
307204	-11	-4	0	-0.609436	0.3381847	-37.07529	0	11.85	4002	0	0	0	0	0.04939198	0.006224178	1	10	0.04	1800	2.204441	40.92395	-91.39362
307409	-7	-2	2	-0.6059967	0.3335847	-37.07956	0	11.85	4002	0	0	0	0	0.04939198	0.005249171	1	10	0.04	1800	1.986804	40.92395	-91.39362
307596	-9	-2	6	-0.6066289	0.3342397	-37.08542	0	11.85	4003	0	0	0	0	0.04939198	0.003688168	1	10	0.04	1800	2.191869	40.92244	10.01442
307723	-7	0	2	-0.5983843	0.3286677	-37.0867	0	11.74	4009	0	0	0	0	0.04939198	0.0091727	1	10	0.04	1800	1.758214	40.92179	53.12298
307806	-10	0	-1	-0.5959338	0.3292744	-37.08683	0	11.74	4003	0	0	0	0	0.04939198	0.0113573	1	10	0.04	1800	1.963119	40.92376	-78.36495
307905	-6	1	0	-0.5954863	0.3282769	-37.0878	0	11.74	4002	0	0	0	0	0.04939198	0.02064601	1	10	0.04	1800	1.965351	40.92393	-90.22105
308047	-9	2	3	-0.5866141	0.3247936	-37.09085	0	11.74	4004	0	0	0	0	0.04939198	0.03581042	1	10	0.04	1800	1.961622	40.92395	-91.39078
308116	-4	-3	-4	-0.5885286	0.3256254	-37.09122	0	11.74	4002	0	0	0	0	0.04939198	0.03849945	1	10	0.04	1800	2.18243	40.92395	-91.39336
308287	-9	0	4	-0.5889538	0.3116184	-37.09568	0	11.74	4004	0	0	0	0	0.04939198	0.04260634	1	10	0.04	1800	2.179473	40.92395	-91.39362
308326	-8	0	0	-0.5912716	0.3121292	-37.09629	0	11.74	4003	0	0	0	0	0.04939198	0.0418167	1	10	0.04	1800	2.179473	40.92395	-91.39362
308457	-6	5	0	-0.5822211	0.30881	-37.09604	0	11.74	4004	0	0	0	0	0.04939198	0.0336961	1	10	0.04	1800	1.960678	40.92395	-91.39362
308512	-6	0	0	-0.5783401	0.3138322	-37.09763	0	11.74	4003	0	0	0	0	0.04939198	0.01956493	1	10	0.04	1800	1.728631	40.92395	-91.39362
308717	-9	9	0	-0.5702333	0.313528	-37.09635	0	11.8	4003	0	0	0	0	0.04939198	-0.006617751	1	10	0.04	1800	2.158432	40.92395	-91.39362
308854	-6	5	5	-0.5653933	0.3199486	-37.09891	0	11.8	4004	0	0	0	0	0.04939198	-0.01304387	1	10	0.04	1800	1.926264	40.92395	-91.39362
308900	-6	1	0	-0.5649014	0.3210986	-37.09964	0	11.8	4004	0	0	0	0	0.04939198	-0.01625858	1	10	0.04	1800	2.139255	40.92395	-91.39362
308962	-9	-4	0	-0.5632039	0.3194781	-37.09946	0	11.8	4003	0	0	0	0	0.04939198	-0.01672472	1	10	0.04	1800	2.139255	40.92395	-91.39362
309078	-6	0	2	-0.5644128	0.3212507	-37.09836	0	11.8	4004	0	0	0	0	0.04939198	-0.01961097	1	10	0.04	1800	1.703829	40.92395	-91.39362
309170	-4	-1	-1	-0.5624526	0.320134	-37.09861	0	11.8	4003	0	0	0	0	0.04939198	-0.02548402	1	10	0.04	1800	1.917769	40.92395	-91.39362
309291	-5	0	1	-0.5579624	0.3222561	-37.09916	0	11.8	4003	0	0	0	0	0.04939198	-0.04550055	1	10	0.04	1800	2.125303	40.92395	-91.39362
309379	-5	0	0	-0.5543324	0.3197621	-37.09891	0	11.8	4003	0	0	0	0	0.04939198	-0.07407248	1	10	0.04	1800	1.687807	40.92395	-91.39362
309463	-3	5	0	-0.5543494	0.3195382	-37.10013	0	11.8	4002	0	0	0	0	0.04939198	-0.08051614	1	10	0.04	1800	1.906322	40.92395	-91.39362
309636	1	-1	-2	-0.5515736	0.3169456	-37.10263	0	11.8	4003	0	0	0	0	0.04939198	-0.1001656	1	10	0.04	1800	2.121487	40.92395	-91.39362
309736	-2	2	2	-0.5436158	0.3159749	-37.10526	0	11.8	4002	0	0	0	0	0.04939198	-0.1028552	1	10	0.04	1800	1.898285	40.92395	-91.39362
309829	-6	-3	0	-0.5504876	0.3127034	-37.10257	0	11.8	4002	0	0	0	0	0.04939198	-0.1024627	1	10	0.04	1800	2.116438	40.92395	-91.39362
309918	-10	4	0	-0.5501023	0.3084218	-37.10099	0	11.8	4003	0	0	0	0	0.04939198	-0.0941041	1	10	0.04	1800	1.897825	40.92395	-91.39362
310013	-7	2	-1	-0.5496645	0.2994919	-37.1005	0	11.8	4004	0	0	0	0	0.04939198	-0.08414165	1	10	0.04	1800	2.125045	40.92395	-91.39362
310129	-6	6	1	-0.5425776	0.3035016	-37.10001	0	11.8	4002	0	0	0	0	0.04939198	-0.07162349	1	10	0.04	1800	2.113962	40.92396	-91.39362
310218	-6	0	0	-0.5457748	0.3002589	-37.09842	0	11.8	4002	0	0	0	0	0.04939198	-0.06124117	1	10	0.04	1800	1.893029	40.92396	-91.39362
310380	-9	3	-3	-0.5360065	0.3038138	-37.09684	0	11.85	4003	0	0	0	0	0.04939198	-0.0495269	1	10	0.04	1800	1.656754	40.92396	-91.39362
310519	-10	0	3	-0.5368336	0.2939572	-37.09812	0	11.85	4003	0	0	0	0	0.04939198	-0.04985213	1	10	0.04	1800	1.88219	40.92396	-91.39362
310572	-1	3	-2	-0.5382774	0.2921895	-37.09671	0	11.85	4004	0	0	0	0	0.04939198	-0.05433946	1	10	0.04	1800	1.889984	40.92396	-91.39362
310636	-8	-1	0	-0.5302897	0.2918527	-37.09592	0	11.85	4003	0	0	0	0	0.04939198	-0.05516543	1	10	0.04	1800	1.875564	40.92396	-91.39362
310679	-4	-1	0	-0.520931	0.2948577	-37.09458	0	11.85	4003	0	0	0	0	0.04939198	-0.05756449	1	10	0.04	1800	1.860627	40.92396	-91.39362
310766	-6	0	-2	-0.5147222	0.3017689	-37.09122	0	11.85	4004	0	0	0	0	0.04939198	-0.06245038	1	10	0.04	1800	2.073715	40.92396	-91.39362
310829	-2	-1	-2	-0.5169281	0.3043681	-37.09098	0	11.85	4003	0	0	0	0	0.04939198	-0.06618834	1	10	0.04	1800	2.057866	40.92396	-91.39362
310852	-6	-2	-7	-0.5141138	0.3019226	-37.08915	0	11.85	4004	0	0	0	0	0.04939198	-0.06834184	1	10	0.04	1800	1.628986	40.92396	-91.39362
310914	-2	-1	0	-0.5131002	0.2970052	-37.08774	0	11.85	4002	0	0	0	0	0.04939198	-0.06817687	1	10	0.04	1800	1.841722	40.92396	-91.39362
311002	-5	2	-3	-0.520039	0.2988915	-37.08713	0	11.85	4002	0	0	0	0	0.04939198	-0.05887182	1	10	0.04	1800	1.847848	40.92396	-91.39362
311087	-7	-2	-1	-0.5201261	0.3022377	-37.08658	0	11.85	4002	0	0	0	0	0.04939198	-0.04538319	1	10	0.04	1800	1.856103	40.92396	-91.39362
311235	-3	4	-1	-0.5206312	0.3013546	-37.08158	0	11.85	4002	0	0	0	0	0.04939198	-0.03260519	1	10	0.04	1800	1.855274	40.92396	-91.39362
311297	-3	-4	5	-0.5227162	0.3037691	-37.07926	0	11.85	4004	0	0	0	0	0.04939198	-0.03384477	1	10	0.04	1800	1.645954	40.92396	-91.39362
311481	-3	0	-2	-0.5163245	0.3085881	-37.07773	0	11.85	4003	0	0	0	0	0.04939198	-0.03522668	1	10	0.04	1800	1.852822	40.92396	-91.39362
311563	-4	-1	-1	-0.5176848	0.3091339	-37.07755	0	11.85	4003	0	0	0	0	0.04939198	-0.03638921	1	10	0.04	1800	1.854024	40.92396	-91.39362
311699	-7	2	-3	-0.5070131	0.3046231	-37.07456	0	11.85	4004	0	0	0	0	0.04939198	-0.03545088	1	10	0.04	1800	1.839576	40.92396	-91.39362
311893	-2	0	-3	-0.5054156	0.2999152	-37.07181	0	11.8	4004	0	0	0	0	0.04939198	-0.01820367	1	10	0.04	1800	1.621741	40.92396	-91.39363
311967	-5	1	2	-0.506536	0.3007562	-37.06998	0	11.8	4003	0	0	0	0	0.04939198	-0.01123307	1	10	0.04	1800	1.617916	40.92396	-91.39363
312058	-5	0	0	-0.5126302	0.2987126	-37.0687	0	11.8	4002	0	0	0	0	0.04939198	-0.01051132	1	10	0.04	1800	1.841749	40.92396	-91.39363
312159	-4	1	-6	-0.5128856	0.3001932	-37.0665	0	11.8	4004	0	0	0	0	0.04939198	-0.01645857	1	10	0.04	1800	1.627958	40.92396	-91.39363
312307	-7	-3	-3	-0.5156688	0.30672	-37.06162	0	11.8	4002	0	0	0	0	0.04939198	-0.02049714	1	10	0.04	1800	1.85869	40.92396	-91.39363
312444	-5	8	-2	-0.5131988	0.302669	-37.05942	0	11.8	4004	0	0	0	0	0.04939198	-0.02044516	1	10	0.04	1800	2.062479	40.92396	-91.39363
312474	-5	-2	0	-0.5113349	0.3004163	-37.05936	0	11.8	4003	0	0	0	0	0.04939198	-0.0187873	1	10	0.04	1800	2.062479	40.92396	-91.39363
312562	0	3	2	-0.5121855	0.3031585	-37.05637	0	11.8	4003	0	0	0	0	0.04939198	-0.0176191	1	10	0.04	1800	1.843449	40.92396	-91.39362
312650	-5	-4	-1	-0.513072	0.3098367	-37.05558	0	11.8	4004	0	0	0	0	0.04939198	-0.01875753	1	10	0.04	1800	1.62683	40.92396	-91.39362
312816	0	3	3	-0.5097343	0.3037986	-37.05356	0	11.85	4002	0	0	0	0	0.04939198	-0.02188496	1	10	0.04	1800	1.849186	40.92396	-91.39363
312889	1	2	0	-0.5007359	0.3038707	-37.05033	0	11.85	4002	0	0	0	0	0.04939198	-0.01849408	1	10	0.04	1800	2.055867	40.92396	-91.39363
312954	0	4	-1	-0.4947638	0.3034112	-37.04825	0	11.85	4003	0	0	0	0	0.04939198	-0.01502046	1	10	0.04	1800	1.826772	40.92396	-91.39363
313028	-5	-1	-3	-0.4924042	0.3014419	-37.04728	0	11.85	4004	0	0	0	0	0.04939198	-0.01659984	1	10	0.04	1800	1.816271	40.92396	-91.39363
313148	-1	-1	-4	-0.4944322	0.3021177	-37.04416	0	11.85	4003	0	0	0	0	0.04939198	-0.02944723	1	10	0.04	1800	1.816815	40.92396	-91.39362
313295	-3	1	0	-0.4923296	0.2982621	-37.03873	0	11.85	4003	0	0	0	0	0.04939198	-0.03356078	1	10	0.04	1800	1.822677	40.92396	-91.39363
313359	0	0	-1	-0.4935423	0.3016539	-37.0369	0	11.85	4003	0	0	0	0	0.04939198	-0.03132859	1	10	0.04	1800	2.035887	40.92396	-91.39363
313440	0	-4	0	-0.4918753	0.2978707	-37.03428	0	11.85	4002	0	0	0	0	0.04939198	-0.02739752	1	10	0.04	1800	1.814847	40.92396	-91.39363
313506	-1	0	-2	-0.4854926	0.2995231	-37.03379	0	11.85	4010	0	0	0	0	0.04939198	-0.02868606	1	10	0.04	1800	1.814847	40.92396	-91.39363
313604	-2	2	-3	-0.491676	0.3025793	-37.02909	0	11.85	4003	0	0	0	0	0.04939198	-0.03029476	1	10	0.04	1800	2.033505	40.92396	36.55739
313800	-7	-1	-1	-0.495234	0.3006682	-37.02298	0	11.8	4002	0	0	0	0	0.04939198	-0.03026545	1	10	0.04	1800	1.813013	40.92396	-36.59745
313858	-1	2	-2	-0.4969153	0.2989449	-37.02054	0	11.8	4003	0	0	0	0	0.04939198	-0.02758924	1	10	0.04	1800	1.82227	40.92396	-86.46198
313972	-2	-9	-4	-0.4903579	0.300066	-37.01889	0	11.8	4002	0	0	0	0	0.04939198	-0.03075896	1	10	0.04	1800	2.038726	40.92396	-91.35368
314039	-4	0	0	-0.4901893	0.3006363	-37.01682	0	11.8	4003	0	0	0	0	0.04939198	-0.0297517	1	10	0.04	1800	1.810617	40.92396	-91.39004
314100	1	0	0	-0.4922873	0.2993498	-37.01584	0	11.8	4003	0	0	0	0	0.04939198	-0.02912387	1	10	0.04	1800	1.813822	40.92396	-91.39256
314249	-2	-6	-2	-0.493273	0.3035895	-37.01279	0	11.8	4003	0	0	0	0	0.04939198	-0.02606837	1	10	0.04	1800	1.814927	40.92397	-91.39363
314344	-1	0	-2	-0.4993453	0.3051082	-37.01096	0	11.8	4004	0	0	0	0	0.04939198	-0.04121799	1	10	0.04	1800	1.604307	40.92397	-91.39363
314405	-2	-1	-1	-0.4994097	0.3072349	-37.01078	0	11.8	4002	0	0	0	0	0.04939198	-0.04547539	1	10	0.04	1800	1.825354	40.92397	-91.39363
314511	1	0	0	-0.4919876	0.3107954	-37.01041	0	11.8	4003	0	0	0	0	0.04939198	-0.05071025	1	10	0.04	1800	1.826533	40.92396	-91.39363
314676	3	-4	-1	-0.4926238	0.3166218	-37.00626	0	11.8	4003	0	0	0	0	0.04939198	-0.05249266	1	10	0.04	1800	2.034877	40.92396	-91.39363
314747	4	-6	-4	-0.4957891	0.3130499	-37.00394	0	11.8	4002	0	0	0	0	0.04939198	-0.04998495	1	10	0.04	1800	1.819911	40.92396	-91.39363
314810	0	-2	2	-0.4980102	0.3111427	-37.00327	0	11.8	4003	0	0	0	0	0.04939198	-0.04318886	1	10	0.04	1800	1.827783	40.92396	-91.39363
314923	-2	4	-6	-0.4943632	0.3073688	-37.00046	0	11.8	4002	0	0	0	0	0.04939198	-0.03827411	1	10	0.04	1800	1.819911	40.92397	-91.39363
315045	0	0	0	-0.5016764	0.3057203	-36.99771	0	11.8	4003	0	0	0	0	0.04939198	-0.03420687	1	10	0.04	1800	1.82161	40.92397	-91.39363
315111	3	-1	-1	-0.5011379	0.3118814	-36.99564	0	11.8	4003	0	0	0	0	0.04939198	-0.03261585	1	10	0.04	1800	2.04478	40.92397	-91.39363
315199	0	6	1	-0.4945268	0.3101233	-36.9946	0	11.8	4002	0	0	0	0	0.04939198	-0.03396489	1	10	0.04	1800	1.603172	40.92397	-91.39363
315303	-5	0	-2	-0.4902068	0.307188	-36.99234	0	11.8	4003	0	0	0	0	0.04939198	-0.03649197	1	10	0.04	1800	1.592015	40.92397	-91.39363
315410	-5	2	2	-0.4891309	0.3065553	-36.98941	0	11.8	4003	0	0	0	0	0.04939198	-0.03856054	1	10	0.04	1800	2.031568	40.92396	-91.39363
315528	3	0	-4	-0.4946519	0.3096183	-36.98618	0	11.85	4004	0	0	0	0	0.04939198	-0.03810759	1	10	0.04	1800	1.823837	40.92396	-91.39363
315605	-1	0	-1	-0.4974529	0.3101057	-36.98526	0	11.85	4002	0	0	0	0	0.04939198	-0.03696146	1	10	0.04	1800	1.813844	40.92396	-91.39363
315768	-1	0	-4	-0.4886941	0.2978874	-36.97995	0	11.85	4003	0	0	0	0	0.04939198	-0.03829876	1	10	0.04	1800	2.0291	40.92396	-91.39363
315843	-1	4	-2	-0.4890016	0.3004702	-36.9794	0	11.85	4003	0	0	0	0	0.04939198	-0.0431854	1	10	0.04	1800	2.0291	40.92396	-91.39363
315916	-1	0	2	-0.489464	0.3035635	-36.97727	0	11.85	4002	0	0	0	0	0.04939198	-0.04980212	1	10	0.04	1800	1.819644	40.92396	-91.39363
316016	-4	-2	-3	-0.4889028	0.3071396	-36.9747	0	11.85	4004	0	0	0	0	0.04939198	-0.0685496	1	10	0.04	1800	1.817378	40.92396	-91.39363
316124	-3	6	-5	-0.4885533	0.3042946	-36.97452	0	11.85	4003	0	0	0	0	0.04939198	-0.07732412	1	10	0.04	1800	2.021476	40.92396	-91.39363
316224	2	0	-9	-0.4897257	0.3045884	-36.97324	0	11.85	4004	0	0	0	0	0.04939198	-0.08502062	1	10	0.04	1800	1.599844	40.92396	-91.39363
316341	-3	0	0	-0.4910404	0.3041915	-36.9711	0	11.85	4002	0	0	0	0	0.04939198	-0.08932628	1	10	0.04	1800	1.804868	40.92396	-91.39363
316504	7	2	4	-0.4849232	0.302052	-36.96726	0	11.8	4003	0	0	0	0	0.04939198	-0.1044409	1	10	0.04	1800	1.586006	40.92395	-91.39363
316617	3	-2	-1	-0.4760477	0.3046254	-36.96421	0	11.8	4003	0	0	0	0	0.04939198	-0.1133873	1	10	0.04	1800	2.00932	40.92395	-91.39363
316785	-1	1	0	-0.4676014	0.3034009	-36.96122	0	11.8	4002	0	0	0	0	0.04939198	-0.1248031	1	10	0.04	1800	1.783803	40.92395	-91.39363
316868	3	0	-2	-0.4643309	0.2992476	-36.95926	0	11.8	4004	0	0	0	0	0.04939198	-0.1194148	1	10	0.04	1800	1.77535	40.92395	-91.39363
316950	1	0	0	-0.4679704	0.2962341	-36.95792	0	11.8	4004	0	0	0	0	0.04939198	-0.1214243	1	10	0.04	1800	1.994283	40.92395	-91.39363
316988	-4	-3	1	-0.4664011	0.2990264	-36.95609	0	11.8	4004	0	0	0	0	0.04939198	-0.1219653	1	10	0.04	1800	1.984922	40.92395	-91.39363
317133	-1	0	0	-0.4663527	0.2987742	-36.95378	0	11.8	4004	0	0	0	0	0.04939198	-0.1191801	1	10	0.04	1800	1.771156	40.92395	-91.39363
317211	6	0	-7	-0.4645997	0.2990012	-36.95256	0	11.8	4003	0	0	0	0	0.04939198	-0.1114246	1	10	0.04	1800	1.993912	40.92395	-91.39363
317264	0	-1	-1	-0.4632923	0.2970783	-36.95158	0	11.8	4003	0	0	0	0	0.04939198	-0.1084269	1	10	0.04	1800	1.773115	40.92395	-91.39363
317430	0	1	-1	-0.4637292	0.3072018	-36.94804	0	11.8	4002	0	0	0	0	0.04939198	-0.09453138	1	10	0.04	1800	1.552189	40.92395	-91.39363
317541	0	0	-5	-0.4599996	0.3157173	-36.94273	0	11.8	4003	0	0	0	0	0.04939198	-0.08437857	1	10	0.04	1800	1.991961	40.92395	-91.39363
317708	0	1	2	-0.4587455	0.3145301	-36.93888	0	11.8	4004	0	0	0	0	0.04939198	-0.0731954	1	10	0.04	1800	1.548201	40.92395	-91.39363
317901	1	2	-6	-0.4588402	0.3107986	-36.93357	0	11.8	4002	0	0	0	0	0.04939198	-0.04979334	1	10	0.04	1800	1.553755	40.92395	-91.39363
318068	-2	-3	0	-0.4639254	0.306471	-36.92704	0	11.8	4003	0	0	0	0	0.04939198	-0.04240863	1	10	0.04	1800	1.770696	40.92395	-91.39363
318276	0	5	0	-0.4682378	0.2984233	-36.92186	0	11.74	4004	0	0	0	0	0.04939198	-0.03732069	1	10	0.04	1800	1.78096	65.30869	179.1504
318358	3	-1	0	-0.4665308	0.3002489	-36.92021	0	11.74	4003	0	0	0	0	0.04939198	-0.03884057	1	10	0.04	1800	1.784776	43.11858	-67.04466
318451	0	4	-5	-0.458167	0.2965432	-36.91594	0	11.74	4004	0	0	0	0	0.04939198	-0.03778917	1	10	0.04	1800	1.760872	40.94173	-91.1964
318653	5	4	-1	-0.4607797	0.2925185	-36.91148	0	11.74	4003	0	0	0	0	0.04939198	-0.03148456	1	10	0.04	1800	1.766977	40.924	-91.39315
318734	7	1	-4	-0.4523405	0.2993039	-36.90709	0	11.74	4004	0	0	0	0	0.04939198	-0.02842525	1	10	0.04	1800	1.979573	40.92395	-91.39362
318834	9	0	-3	-0.4560105	0.2973241	-36.90635	0	11.74	4003	0	0	0	0	0.04939198	-0.02164696	1	10	0.04	1800	1.768219	40.92395	-91.39363
318945	1	5	-4	-0.4478623	0.2910467	-36.90348	0	11.74	4002	0	0	0	0	0.04939198	-0.01387641	1	10	0.04	1800	1.749978	40.92395	-91.39363
319001	3	-5	-2	-0.449762	0.2941909	-36.9022	0	11.74	4002	0	0	0	0	0.04939198	-0.008731641	1	10	0.04	1800	1.749978	40.92395	-91.39363
319107	3	3	-5	-0.4467445	0.2985208	-36.89811	0	11.85	4004	0	0	0	0	0.04939198	0.001048314	1	10	0.04	1800	1.530696	40.92395	-91.39363
319218	2	-4	0	-0.4417141	0.3021077	-36.89463	0	11.85	4002	0	0	0	0	0.04939198	0.006495402	1	10	0.04	1800	1.753643	40.92395	-91.39363
319371	1	0	-1	-0.4413673	0.3052732	-36.89128	0	11.85	4003	0	0	0	0	0.04939198	0.00205238	1	10	0.04	1800	1.746897	40.92395	-91.39363
319414	4	1	-2	-0.4371163	0.3039993	-36.88914	0	11.85	4002	0	0	0	0	0.04939198	0.003995306	1	10	0.04	1800	1.74167	40.92395	-91.39363
319512	7	0	-2	-0.4304621	0.3008505	-36.8881	0	11.85	4002	0	0	0	0	0.04939198	0.009669602	1	10	0.04	1800	1.729311	40.92395	-91.39363
319736	6	0	2	-0.4218766	0.299184	-36.8806	0	11.85	4003	0	0	0	0	0.04939198	0.03897838	1	10	0.04	1800	1.711391	40.92395	-91.39363
