time(ms)	gyro_x(deg/s)	gyro_y(deg/s)	gyro_z(deg/s)	orientation_roll(deg)	orientation_pitch(deg)	orientation_yaw(deg)	throttle	battery(V)	loop_time(uS)	pid_output_roll	pid_output_pitch	pid_output_yaw	pid_output_throttle	ultrasonic_alt	baro_alt	flight_mode	p_gain_altitude	i_gain_altitude	d_gain_altitude	compass_heading	latitude	longitude
100335	-16	-2	5	-0.3379928	-0.03534569	-4.607187	0	12.14	4002	0	0	0	0	0.02	0.1426197	1	10	0.04	1800	-0.3805847	40.92392	-91.39359
100508	-3	15	17	-0.3414904	-0.02904104	-4.613118	0	12.14	4003	0	0	0	0	0.02	0.130164	1	10	0.04	1800	-0.1466675	40.92392	-91.39359
100578	-14	-1	-8	-0.3422295	-0.03514369	-4.613484	0	12.14	4002	0	0	0	0	0.02	0.1250101	1	10	0.04	1800	-0.5977478	40.92392	-91.39359
100674	-15	-2	2	-0.3431323	-0.03457868	-4.617885	0	12.14	4003	0	0	0	0	0.02	0.1143083	1	10	0.04	1800	-0.1400757	40.92392	-91.39359
100832	-12	1	3	-0.3454138	-0.03276523	-4.62357	0	12.14	4002	0	0	0	0	0.02	0.09950422	1	10	0.04	1800	-0.3644104	40.92392	-91.39359
100930	-9	0	3	-0.3359202	-0.03956691	-4.629376	0	12.14	4004	0	0	0	0	0.02	0.09643428	1	10	0.04	1800	-0.3812866	40.92392	-91.39359
101020	-10	2	5	-0.3282189	-0.03474297	-4.63231	0	12.14	4002	0	0	0	0	0.02	0.09898473	1	10	0.04	1800	-0.3893433	40.92392	-91.39359
101095	-8	-5	1	-0.3240496	-0.03501714	-4.635305	0	12.14	4002	0	0	0	0	0.02	0.09935737	1	10	0.04	1800	-0.3958435	40.92392	-91.39359
101211	-13	2	0	-0.3177897	-0.03680538	-4.639401	0	12.14	4003	0	0	0	0	0.02	0.1090648	1	10	0.04	1800	-0.4085693	40.92392	-91.39359
101240	-7	2	0	-0.315859	-0.03852737	-4.641112	0	12.14	4003	0	0	0	0	0.02	0.1112892	1	10	0.04	1800	-0.4085693	40.92392	-91.39359
101320	-13	0	-1	-0.317088	-0.03841368	-4.643374	0	12.14	4004	0	0	0	0	0.02	0.116173	1	10	0.04	1800	-0.4103699	40.92392	-91.39359
101423	-12	2	0	-0.3156737	-0.03682567	-4.645759	0	12.14	4002	0	0	0	0	0.02	0.1199828	1	10	0.04	1800	-0.4101868	40.92392	-91.39359
101608	-12	-1	2	-0.3057592	-0.02901812	-4.650649	0	12.14	4003	0	0	0	0	0.02	0.1266647	1	10	0.04	1800	-0.649292	40.92392	-91.39359
101636	-13	3	0	-0.3046065	-0.02879591	-4.651443	0	12.14	4004	0	0	0	0	0.02	0.1284416	1	10	0.04	1800	-0.4276428	40.92392	-91.39359
101742	-14	4	6	-0.3103702	-0.03173508	-4.65511	0	12.14	4002	0	0	0	0	0.02	0.1301724	1	10	0.04	1800	-0.4245911	40.92392	-91.39359
101859	-18	1	-1	-0.3082108	-0.04071526	-4.658533	0	12.14	4002	0	0	0	0	0.02	0.1287863	1	10	0.04	1800	-0.4252014	40.92392	-91.39359
101956	-4	1	5	-0.3082781	-0.03586127	-4.661161	0	12.14	4004	0	0	0	0	0.02	0.1276709	1	10	0.04	1800	-0.4197083	40.92392	-91.39359
102047	-10	2	1	-0.3047553	-0.0344626	-4.663056	0	12.02	4003	0	0	0	0	0.02	0.1283995	1	10	0.04	1800	-0.4197083	40.92392	-91.39359
102189	-10	-2	2	-0.301574	-0.03938679	-4.666111	0	12.02	4002	0	0	0	0	0.02	0.1317342	1	10	0.04	1800	-0.4313354	40.92392	-91.39359
102268	-8	-1	3	-0.2979403	-0.04428666	-4.668495	0	12.02	4003	0	0	0	0	0.02	0.1334316	1	10	0.04	1800	-0.4425964	40.92392	-91.39359
102351	-10	2	0	-0.2952823	-0.04779999	-4.671002	0	12.02	4002	0	0	0	0	0.02	0.1381138	1	10	0.04	1800	-0.4389343	40.92392	-91.39359
102457	-5	-2	0	-0.2952904	-0.0392939	-4.674853	0	12.02	4003	0	0	0	0	0.02	0.1578382	1	10	0.04	1800	-0.6757202	40.92392	-91.39359
102594	-14	-5	2	-0.2976182	-0.03698679	-4.67632	0	12.02	4003	0	0	0	0	0.02	0.1677449	1	10	0.04	1800	-0.44104	40.92392	-91.39359
102659	-10	-1	1	-0.2972243	-0.03413893	-4.677848	0	12.02	4003	0	0	0	0	0.02	0.1702577	1	10	0.04	1800	-0.44104	40.92392	-91.39359
102814	-6	-1	0	-0.2927905	-0.03368384	-4.67907	0	12.02	4002	0	0	0	0	0.02	0.1667856	1	10	0.04	1800	-0.4447021	40.92392	-91.39359
102868	-13	6	0	-0.2945262	-0.0373438	-4.682005	0	12.02	4002	0	0	0	0	0.02	0.1670656	1	10	0.04	1800	-0.6769409	40.92392	-91.39359
102968	-11	0	1	-0.2963059	-0.0377977	-4.684512	0	12.14	4002	0	0	0	0	0.02	0.1707484	1	10	0.04	1800	-0.4435425	40.92392	-91.39359
103072	-19	-1	-1	-0.2888201	-0.04841623	-4.68708	0	12.14	4003	0	0	0	0	0.02	0.1758036	1	10	0.04	1800	-0.4570007	40.92392	-91.39359
103283	-6	0	6	-0.2850962	-0.04164732	-4.688913	0	12.14	4003	0	0	0	0	0.02	0.1708046	1	10	0.04	1800	-0.4602661	40.92392	-91.39359
103349	-9	-4	-1	-0.2815324	-0.0447266	-4.688851	0	12.14	4003	0	0	0	0	0.02	0.1666515	1	10	0.04	1800	-0.4654236	40.92392	-91.39359
103402	-12	-3	-1	-0.2768448	-0.04594212	-4.690991	0	12.14	4002	0	0	0	0	0.02	0.1645288	1	10	0.04	1800	-0.471405	40.92392	-91.39359
103474	-11	10	-2	-0.2783429	-0.04357955	-4.691359	0	12.14	4004	0	0	0	0	0.02	0.1642357	1	10	0.04	1800	-0.6979065	40.92392	-91.39359
103624	-16	3	1	-0.2806935	-0.04092118	-4.691666	0	12.14	4004	0	0	0	0	0.02	0.164851	1	10	0.04	1800	-0.4656677	40.92392	-91.39359
103719	-12	-1	-2	-0.2725137	-0.03930329	-4.693682	0	12.14	4003	0	0	0	0	0.02	0.1630676	1	10	0.04	1800	-0.4744263	40.92392	-91.39359
103822	-5	-4	1	-0.2666894	-0.03833099	-4.695149	0	12.14	4003	0	0	0	0	0.02	0.161303	1	10	0.04	1800	-0.4857788	40.92392	-91.39359
103873	-13	3	6	-0.2665361	-0.03765081	-4.696617	0	12.14	4004	0	0	0	0	0.02	0.157712	1	10	0.04	1800	-0.4857788	40.92392	-91.39359
103980	-8	3	-3	-0.2698829	-0.04382462	-4.701322	0	12.14	4002	0	0	0	0	0.02	0.1553586	1	10	0.04	1800	-0.4845886	40.92392	-91.39359
104095	-11	5	2	-0.2695966	-0.04673926	-4.703767	0	12.14	4004	0	0	0	0	0.02	0.1506913	1	10	0.04	1800	-0.4852295	40.92392	-91.39359
104273	-10	2	0	-0.2734672	-0.05113114	-4.707311	0	12.14	4004	0	0	0	0	0.02	0.1400054	1	10	0.04	1800	-0.7138672	40.92392	-91.39359
104352	-10	0	1	-0.2642193	-0.05878509	-4.706884	0	12.14	4003	0	0	0	0	0.02	0.1354244	1	10	0.04	1800	-0.4890137	40.92392	-91.39359
104408	-11	6	-1	-0.2664389	-0.06535101	-4.708717	0	12.14	4003	0	0	0	0	0.02	0.1306691	1	10	0.04	1800	-0.7241516	40.92392	-91.39359
104472	-7	2	1	-0.2682097	-0.06471387	-4.709084	0	12.14	4003	0	0	0	0	0.02	0.132636	1	10	0.04	1800	-0.7241516	40.92392	-91.39359
104565	-4	0	0	-0.267603	-0.06527977	-4.710183	0	12.14	4003	0	0	0	0	0.02	0.1365732	3	10	0.04	1800	-0.4841614	40.92392	-91.39359
104817	-7	3	0	-0.2642398	-0.06012857	-4.71275	0	12.08	4004	0	0	0	0	0.02	0.1508143	3	10	0.04	1800	-0.7262878	40.92392	-91.39359
104941	-12	1	-2	-0.2513115	-0.05662151	-4.715622	0	12.08	4002	0	0	0	0	0.02	0.159709	3	10	0.04	1800	-0.5141296	40.92392	-91.39359
104987	-9	0	3	-0.2517665	-0.05899173	-4.716906	0	12.08	4004	0	0	0	0	0.02	0.160453	3	10	0.04	1800	-0.5160522	40.92392	-91.39359
105112	-14	1	3	-0.2531516	-0.05315107	-4.717456	0	12.08	4003	0	0	0	0	0.02	0.1659121	3	10	0.04	1800	-0.5085449	40.92392	-91.39359
105171	-3	1	0	-0.2547516	-0.05171837	-4.717396	0	12.08	4003	0	0	0	0	0.02	0.1733338	3	10	0.04	1800	-0.5101013	40.92392	-91.39359
105301	-5	3	1	-0.2496714	-0.05805134	-4.719902	0	12.08	4003	0	0	0	0	0.02	0.1815265	3	10	0.04	1800	-0.5220947	40.92392	-91.39359
105386	-4	0	-1	-0.2495054	-0.05811088	-4.720635	0	12.08	4002	0	0	0	0	0.02	0.1913113	3	10	0.04	1800	-0.5188293	40.92392	-91.39359
105531	-10	0	0	-0.2540649	-0.05139633	-4.719229	0	12.08	4004	0	0	0	0	0.02	0.1952511	3	10	0.04	1800	-0.5167542	40.92393	-91.3936
105586	-14	3	3	-0.2540249	-0.05223019	-4.719963	0	12.08	4004	0	0	0	0	0.02	0.1965441	3	10	0.04	1800	-0.7382202	40.92393	-91.3936
105670	-8	5	0	-0.2499208	-0.04630645	-4.722531	0	12.08	4002	0	0	0	0	0.02	0.1941495	3	10	0.04	1800	-0.512207	40.92393	-91.3936
105842	-4	-3	-3	-0.2450059	-0.04239331	-4.725647	0	12.08	4003	0	0	0	0	0.02	0.189553	3	10	0.04	1800	-0.5249023	40.92392	-91.3936
105937	1	-1	0	-0.2448074	-0.04547102	-4.727543	0	12.08	4004	0	0	0	0	0.02	0.1843129	3	10	0.04	1800	-0.5242615	40.92392	-91.3936
106002	-8	-2	3	-0.2446827	-0.04098387	-4.728277	0	12.08	4003	0	0	0	0	0.02	0.17109	3	10	0.04	1800	-0.5266418	40.92393	-91.3936
106150	5	-20	-21	-0.2460425	-0.04209999	-4.73219	0	12.08	4002	1	0	0	0	0.02	0.1557474	3	10	0.04	1800	-0.7505188	40.92393	-91.3936
106187	-8	4	-4	-0.2425434	-0.04357453	-4.730661	0	12.08	4003	0	0	0	0	0.02	0.1526218	3	10	0.04	1800	-0.7505188	40.92393	-91.3936
106253	-8	0	7	-0.2432391	-0.04342934	-4.731029	0	12.08	4003	0	0	-6	0	0.02	0.1451638	3	10	0.04	1800	-0.9842224	40.92393	-91.3936
106388	-45	-38	138	-0.2309836	-0.05529222	-4.735672	0	12.08	4003	0	-4	-13	0	0.02	0.1423898	3	10	0.04	1800	-0.7731323	40.92393	-91.3936
106476	-35	105	111	-0.1646736	-0.09575894	-4.737626	0	12.08	4003	1	-8	-13	0	0.02	0.1403583	3	10	0.04	1800	-0.5884705	40.92393	-91.3936
106558	-56	-26	47	-0.2898542	-0.05764437	-4.743619	0	12.08	4002	-8	0	-13	0	0.02	0.1431824	3	10	0.04	1800	-0.7703552	40.92393	-91.3936
106664	28	0	61	-0.2209721	-0.04947044	-4.757318	0	12.14	4003	-13	-8	-13	0	0.02	0.1471362	3	10	0.04	1800	-0.9918518	40.92393	-91.3936
106751	-58	-83	20	-0.2165137	-0.03394396	-4.759576	0	12.14	4002	0	8	-16	0	0.02	0.152709	3	10	0.04	1800	-0.6141968	40.92393	-91.39361
106880	52	56	24	-0.2106806	-0.02491198	-4.763491	0	12.14	4004	0	-4	-19	0	0.02	0.1615068	3	10	0.04	1800	-1.395935	40.92393	-91.39361
106945	66	-6	24	-0.2011334	-0.02007154	-4.755671	0	12.14	4004	-14	5	-19	0	0.02	0.1641833	3	10	0.04	1800	-0.3560181	40.92393	-91.39361
107082	40	29	45	-0.2112579	-0.03486671	-4.743693	0	12.14	4002	-11	9	-18	0	0.02	0.1696215	3	10	0.04	1800	-0.8249207	40.92393	-91.39361
107182	5	-5	-8	-0.2424412	-0.014847	-4.751758	0	12.14	4003	6	12	-17	0	0.02	0.168469	3	10	0.04	1800	-0.3484802	40.92393	-91.39361
107254	-97	-9	40	-0.2242971	-0.02172654	-4.748705	0	12.14	4005	15	-10	-18	0	0.02	0.1696572	3	10	0.04	1800	-1.448792	40.92393	-91.39361
107375	-21	22	-35	-0.2520497	-0.02114602	-4.741549	0	12.14	4003	-5	-3	-20	0	0.02	0.1741084	3	10	0.04	1800	-0.9648743	40.92393	-91.39361
107454	-62	26	48	-0.2600198	0.003126065	-4.746624	0	12.14	4003	19	12	-18	0	0.02	0.1754113	3	10	0.04	1800	-0.2880554	40.92393	-91.39361
107554	33	-38	-21	-0.2960025	-0.007929264	-4.748339	0	12.08	4002	11	4	-19	0	0.02	0.1787326	3	10	0.04	1800	-0.4761353	40.92393	-91.39361
107711	126	-86	96	-0.2389676	-0.02576409	-4.728838	0	12.08	4003	17	3	-19	0	0.02	0.1811396	3	10	0.04	1800	-0.4598999	40.92393	-91.39361
107765	-15	-14	15	-0.2831668	-0.01348489	-4.733183	0	12.08	4004	-26	7	-17	0	0.02	0.1819464	3	10	0.04	1800	-0.7172852	40.92393	-91.39361
107837	-89	3	-105	-0.2631808	-0.02785075	-4.727004	0	12.08	4003	1	28	-19	0	0.02	0.1814448	3	10	0.04	1800	-1.859589	40.92393	-91.39361
107939	-66	30	-53	-0.3236518	-0.03593324	-4.733472	0	12.08	4004	0	14	-20	0	0.02	0.185739	3	10	0.04	1800	-1.388702	40.92393	-91.39361
108039	17	158	127	-0.2913565	-0.03124513	-4.714464	0	12.08	4004	10	-10	-19	0	0.02	0.1905712	3	10	0.04	1800	-0.4851074	40.92393	-91.39361
108189	-37	-16	22	-0.3888638	-0.00996324	-4.72859	0	12.08	4002	12	-30	-19	0	0.02	0.2084888	3	10	0.04	1800	-1.510071	40.92393	-91.39362
108292	-48	-90	-210	-0.4318512	0.00519432	-4.738493	0	12.08	4004	-30	11	-19	0	0.02	0.2113317	3	10	0.04	1800	-0.5374756	40.92393	-91.39362
108329	73	-82	187	-0.3857033	-0.00169703	-4.738129	0	12.08	4003	-30	11	-19	0	0.02	0.2107853	3	10	0.04	1800	-0.691925	40.92393	-91.39362
108451	-69	66	19	-0.3664944	-0.01023507	-4.736046	0	12.08	4003	3	-23	-17	0	0.02	0.2055699	3	10	0.04	1800	-0.3389587	40.92393	-91.39362
108528	-23	119	85	-0.3659946	-0.003937467	-4.750769	0	12.08	4004	21	10	-20	0	0.02	0.1984927	3	10	0.04	1800	-0.2879333	40.92393	-91.39362
108632	-52	-39	230	-0.4479872	0.0155175	-4.754477	0	12.08	4004	-25	5	-16	0	0.02	0.1739005	3	10	0.04	1800	-0.4407654	40.92393	-91.39362
108791	-20	24	63	-0.4884454	-0.03035091	-4.749771	0	12.08	4004	6	10	-19	0	0.02	0.1504846	3	10	0.04	1800	-0.7771606	40.92393	-91.39362
108851	-18	26	-82	-0.4687321	0.007429628	-4.739377	0	12.08	4004	0	-17	-17	0	0.02	0.1448748	3	10	0.04	1800	-0.1368408	40.92393	-91.39362
108959	-18	70	-85	-0.5591131	-0.06475233	-4.74206	0	12.08	4003	6	-1	-19	0	0.02	0.1452309	3	10	0.04	1800	-0.5264282	40.92393	-91.39362
109046	-152	-63	145	-0.5762833	-0.06775431	-4.756064	0	12.08	4003	-21	5	-16	0	0.02	0.1440151	3	10	0.04	1800	-0.5078125	40.92393	-91.39362
109143	141	14	84	-0.6725675	-0.03186907	-4.756431	0	12.08	4003	2	0	-19	0	0.02	0.1467469	3	10	0.04	1800	-0.6352539	40.92393	-91.39362
109258	-42	-118	-87	-0.6043753	-0.09113356	-4.754586	0	12.08	4009	18	-30	-17	0	0.02	0.1423626	3	10	0.04	1800	-0.08694458	40.92393	-91.39362
109340	-41	174	-124	-0.5538359	-0.1363268	-4.771275	0	11.8	4004	-19	-16	-15	0	0.02	0.1375443	3	10	0.04	1800	-0.4859009	40.92393	-91.39362
109430	132	-31	-140	-0.5212406	-0.1173384	-4.785459	0	11.8	4003	23	-7	-19	0	0.02	0.1263621	3	10	0.04	1800	-0.3536072	40.92393	-91.39362
109532	-65	110	-220	-0.5795472	-0.08535752	-4.785767	0	11.8	4003	32	6	-16	0	0.02	0.111476	3	10	0.04	1800	-0.05923462	40.92393	-91.39362
109637	-1	-21	-95	-0.5710595	-0.08515475	-4.797369	0	11.8	4004	54	2	-18	0	0.02	0.1031805	3	10	0.04	1800	-0.1616821	40.92393	-91.39362
109831	54	-75	22	-0.6065417	-0.0809788	-4.830636	0	11.8	4002	19	19	-17	0	0.02	0.08564948	3	10	0.04	1800	-0.5693054	40.92393	-91.39362
109899	-173	-150	156	-0.6556714	-0.001258381	-4.835839	0	11.8	4004	21	-9	-15	0	0.02	0.08182631	3	10	0.04	1800	-0.6481628	40.92393	-91.39362
109957	158	29	159	-0.6633747	-0.05606923	-4.849107	0	11.8	4002	59	-4	-15	0	0.02	0.08000246	3	10	0.04	1800	-0.6481628	40.92393	-91.39362
110031	-62	-64	-84	-0.6810229	-0.06496377	-4.852209	0	11.8	4004	18	-34	-13	0	0.02	0.08194169	3	10	0.04	1800	-0.2189331	40.92393	-91.39362
110132	75	111	-134	-0.712001	-0.1263631	-4.867443	0	11.8	4004	4	-7	-18	0	0.02	0.08999278	3	10	0.04	1800	-0.6280823	40.92393	-91.39362
110307	-133	31	216	-0.6977451	-0.1528162	-4.879369	0	11.97	4002	-44	8	-16	0	0.02	0.1057795	3	10	0.04	1800	-0.1201172	40.92393	-91.39362
110348	-90	34	16	-0.619689	-0.1462666	-4.885848	0	11.97	4003	3	13	-14	0	0.02	0.1058645	3	10	0.04	1800	0.04800643	40.92393	-91.39362
110436	-122	-161	79	-0.6033443	-0.07517138	-4.886937	0	11.97	4003	50	5	-15	0	0.02	0.1108845	3	10	0.04	1800	-0.3670959	40.92393	-91.39362
110657	11	-36	110	-0.6757594	-0.1456672	-4.935733	0	11.97	4003	29	2	-12	0	0.02	0.1202814	3	10	0.04	1800	-0.5535583	40.92393	-91.39362
110719	39	37	-165	-0.674676	-0.1655932	-4.941764	0	11.97	4002	35	-38	-11	0	0.02	0.1268381	3	10	0.04	1800	0.1694327	40.92393	-91.39362
110846	67	125	-350	-0.6410089	-0.1873708	-4.935716	0	11.97	4002	12	-14	-13	0	0.02	0.1325834	3	10	0.04	1800	-0.3392944	40.92393	-91.39362
110971	-161	-31	60	-0.6891829	-0.1985798	-4.974745	0	11.97	4002	-5	14	-10	0	0.02	0.1309603	3	10	0.04	1800	-0.7788696	40.92393	-91.39362
111039	-67	-142	-197	-0.7425188	-0.1298389	-5.00751	0	11.97	4002	35	12	-12	0	0.02	0.1320376	3	10	0.04	1800	-0.4390564	40.92393	-91.39362
111115	175	-24	-175	-0.697926	-0.1952481	-5.002069	0	11.74	4004	33	-22	-9	0	0.02	0.1323883	3	10	0.04	1800	0.236446	40.92393	-91.39362
111232	83	-56	79	-0.7126035	-0.1781436	-5.026713	0	11.74	4003	12	-5	-13	0	0.02	0.1302697	3	10	0.04	1800	-0.03546143	40.92393	-91.39362
111322	-13	73	-110	-0.7222773	-0.1554859	-5.024529	0	11.74	4003	6	-18	-10	0	0.02	0.1309902	3	10	0.04	1800	-0.2764587	40.92393	-91.39362
111427	-103	170	-108	-0.8218257	-0.1732276	-5.044559	0	11.74	4002	10	22	-12	0	0.02	0.1336315	3	10	0.04	1800	-0.1006165	40.92393	-91.39362
111584	-206	-37	-45	-0.7461187	-0.1465219	-5.056104	0	11.74	4002	32	0	-7	0	0.02	0.1289936	3	10	0.04	1800	-0.2026672	40.92393	-91.39362
111658	39	14	-241	-0.6342815	-0.101444	-5.071038	0	11.74	4002	96	-31	-7	0	0.02	0.1346407	3	10	0.04	1800	0.1853801	40.92393	-91.39362
111864	-94	-159	234	-0.8081097	-0.08836432	-5.11704	0	11.74	4003	48	-19	-8	102	0.02	0.1475042	6	10	0.04	1800	0.305484	40.92393	-91.39362
111952	-351	73	627	-0.7914709	-0.0768078	-5.145244	0	11.74	4003	-61	-10	-8	15	0.02573436	0.1442235	6	10	0.04	1800	-0.5281372	40.92393	-91.39362
112012	-5	-5	-283	-0.7630243	-0.1430348	-5.136206	0	11.63	4004	44	24	-5	20	0.02840455	0.1427809	6	10	0.04	1800	-0.5281372	40.92393	-91.39362
112101	195	65	223	-0.7817436	-0.1832363	-5.16218	0	11.63	4004	55	-9	-6	28	0.03089326	0.1409434	6	10	0.04	1800	0.2963927	40.92393	-91.39362
112204	-2	-95	425	-0.7531374	-0.177822	-5.17148	0	11.63	4003	-41	38	-13	34	0.03407718	0.1399641	6	10	0.04	1800	-0.2144775	40.92393	-91.39362
112309	1	67	-463	-0.8598874	-0.07297983	-5.134232	0	11.63	4004	63	-27	-5	44	0.03548809	0.1425002	6	10	0.04	1800	0.2116093	40.92393	-91.39362
112413	-58	79	267	-0.8823386	-0.04943724	-5.166669	0	11.63	4002	5	-14	-12	50	0.03726335	0.1432776	6	10	0.04	1800	0.5442565	40.92393	-91.39362
112512	-103	46	338	-0.8171541	-0.007063323	-5.241501	0	11.63	4003	-23	-26	-5	60	0.03803499	0.148799	6	10	0.04	1800	0.4057935	40.92393	-91.39362
112616	-84	49	-471	-0.8239222	0.06281119	-5.280336	0	11.63	4003	25	-30	-18	66	0.03832964	0.1452614	6	10	0.04	1800	0.1936761	40.92393	-91.39362
112728	217	-17	-695	-0.7310603	0.1452286	-5.827381	0	11.63	4004	-12	-19	-6	73	0.03886377	0.1382549	6	10	0.04	1800	0.1090966	40.92393	-91.39362
112898	-134	-3	681	-0.7827259	0.04495189	-6.768832	0	11.63	4004	34	1	28	86	0.03966054	0.1177445	6	10	0.04	1800	0.7166137	40.92392	-91.39362
112999	115	142	217	-0.8689787	0.1257729	-7.370315	0	11.68	4004	21	-20	57	97	0.04007619	0.1015322	6	10	0.04	1800	1.234355	40.92392	-91.39362
113091	-15	542	-30	-0.9680867	-0.133029	-7.799387	0	11.68	4003	28	44	59	104	0.03607794	0.08898431	6	10	0.04	1800	2.54964	40.92393	-91.39362
113151	351	-956	-819	-0.9286817	-1.31288	-8.063022	0	11.68	4003	64	-150	57	113	0.03562574	0.0858151	6	10	0.04	1800	2.204514	40.92393	-91.39362
113189	311	-918	-1178	-1.205606	-1.46645	-7.977981	0	11.68	4003	-48	-92	60	114	0.0368038	0.08986211	6	10	0.04	1800	3.258957	40.92393	-91.39362
113281	1493	80	795	-0.6293844	-2.004748	-7.340123	0	11.68	4003	-21	-300	21	120	0.03747027	0.09169483	6	10	0.04	1800	3.258957	40.92393	-91.39362
113461	583	-1492	-753	2.851453	-3.532648	-6.059235	0	11.68	4002	-61	-77	-4	133	0.04531931	0.09629769	6	10	0.04	1800	3.832485	40.92392	-91.39362
113553	-89	-2147	-493	1.126825	-1.191116	-5.274747	0	11.68	4010	-91	-184	-4	142	0.05190723	0.1040929	6	10	0.04	1800	5.680209	40.92392	-91.39362
113609	-2199	-121	252	-1.009874	-1.302949	-5.743407	0	11.68	4004	26	61	6	150	0.05618675	0.1063291	6	10	0.04	1800	6.655461	40.92392	-91.39362
113666	-2916	-998	436	-4.095302	-1.265471	-5.952397	0	11.68	4002	50	-147	11	152	0.05786956	0.1081132	6	10	0.04	1800	7.034276	40.92392	-91.39362
113751	1574	1846	-1081	-3.758623	-2.310342	-5.149973	0	11.68	4004	-161	170	-6	159	0.05700999	0.1125544	6	10	0.04	1800	7.47031	40.92392	-91.39362
113868	-1766	744	-707	-3.281116	-3.707832	-3.265327	0	11.91	4002	72	-90	-56	173	0.04898014	0.125421	6	10	0.04	1800	5.061611	40.92392	-91.39362
113933	-2105	-2578	-487	-5.123188	-2.548887	-3.219232	0	11.91	4002	21	-158	-60	178	0.04754642	0.1271711	6	10	0.04	1800	2.15523	40.92392	-91.39362
114038	-1071	787	-1	-7.00963	-3.626957	-4.37656	0	11.91	4003	-5	99	-30	182	0.04646677	0.1330942	6	10	0.04	1800	1.40292	40.92392	-91.39362
114191	1423	-919	-1156	-6.58466	-3.460293	-4.337152	0	11.91	4004	-88	-400	-41	139	0.1797735	0.1457995	6	10	0.04	1800	0.2680864	40.92392	-91.39362
114232	2029	-221	-274	-5.639796	-3.928967	-3.795953	0	11.91	4004	-67	-209	-59	1992	0.2344093	0.1462296	8	10	0.04	1800	-1.275238	40.92392	-91.39362
114380	2197	100	430	-4.039822	-9.621008	-4.249727	0	11.91	4003	113	-165	-18	223	0.4357742	0.1575092	8	10	0.04	1800	-2.866241	40.92392	-91.39362
114448	4276	-74	-418	-2.128703	-10.11935	-4.678771	0	11.91	4003	-60	121	4	230	0.490942	0.1616515	8	10	0.04	1800	-2.866241	40.92392	-91.39362
114593	-422	-711	-1150	0.7642367	-15.38425	-5.989985	0	11.91	4004	-39	-97	17	220	0.5718235	0.170563	8	10	0.04	1800	1.324151	40.92392	-91.39362
114673	-709	-811	-456	0.7903907	-13.54543	-5.74032	0	11.91	4002	7	69	24	217	0.6136408	0.1894287	8	10	0.04	1800	0.9102917	40.92392	-91.39362
114737	418	-1646	690	-0.2539377	-10.23281	-5.594838	0	11.63	4003	0	69	8	242	0.6350139	0.2075796	8	10	0.04	1800	1.304678	40.92392	-91.39362
114825	-1596	-1655	967	-1.701447	-7.588496	-5.397609	0	11.63	4003	-10	214	11	237	0.6597067	0.2344092	8	10	0.04	1800	1.981102	40.92392	-91.39362
114937	-452	602	-320	-1.723102	-7.201974	-6.038202	0	11.63	4002	12	-18	13	215	0.6777076	0.2660021	8	10	0.04	1800	4.112506	40.92392	-91.39362
115028	2140	915	773	-1.319411	-6.281084	-7.867898	0	11.63	4003	-9	14	53	220	0.6908303	0.2885926	8	10	0.04	1800	4.256613	40.92392	-91.39362
115126	-1176	-1098	-1273	-0.1742467	-5.698279	-7.813389	0	11.63	4002	28	25	58	217	0.7003968	0.3084853	8	10	0.04	1800	4.318077	40.92392	-91.39362
115249	-35	1079	153	-1.975755	-5.096427	-6.253562	0	11.63	4003	-38	-94	28	222	0.7073708	0.3224941	8	10	0.04	1800	3.016801	40.92392	-91.39362
115331	890	970	521	-2.188866	-5.613084	-5.402278	0	11.63	4002	-49	167	-14	222	0.7124547	0.3363019	8	10	0.04	1800	1.4302	40.92392	-91.39362
115532	1095	-1	-1049	0.5220229	-3.397232	-5.597208	0	11.63	4002	-71	-111	-5	213	0.7180552	0.3658263	8	10	0.04	1800	5.238568	40.92392	-91.39361
115607	-309	1411	967	0.4955932	-4.148475	-5.974035	0	11.63	4002	-25	18	-13	207	0.7202438	0.3947324	8	10	0.04	1800	5.611483	40.92392	-91.39361
115708	-1252	959	332	-2.13796	-5.326721	-4.912974	0	10.77	4003	-1	-96	-14	206	0.7218392	0.4456084	8	10	0.04	1800	7.382058	40.92392	-91.39361
115767	-3703	2586	985	-4.108313	-6.043853	-5.119274	0	10.77	4002	66	-9	-3	204	0.7226546	0.467474	8	10	0.04	1800	6.1369	40.92392	-91.39361
115839	-2165	250	-331	-6.860203	-8.575877	-5.793378	0	10.77	4002	55	-400	3	170	0.7238501	0.5386879	8	10	0.04	1800	6.158794	40.92392	-91.39361
115890	-451	1352	1547	-7.040466	-9.349636	-6.240366	0	10.77	4003	-19	-33	36	180	0.7240782	0.5511662	8	10	0.04	1800	3.406486	40.92392	-91.39361
115991	-2240	-519	857	-7.572596	-9.163711	-6.87773	0	10.77	4002	49	-89	43	174	0.7244682	0.582163	8	10	0.04	1800	2.587576	40.92392	-91.39361
116110	-17	-1115	-1339	-8.241196	-8.131681	-7.127227	0	10.77	4002	6	-207	25	165	0.7251492	0.6685864	8	10	0.04	1800	0.04162763	40.92392	-91.39361
116267	-1672	-1408	598	-8.652334	-3.619195	-5.909075	0	10.77	4003	-132	234	10	169	0.7255512	0.7935318	8	10	0.04	1800	-1.378723	40.92392	-91.39361
116303	-3356	839	715	-10.78517	-3.629158	-5.517243	0	10.77	4003	197	46	3	173	0.7256092	0.8089139	8	10	0.04	1800	-1.702576	40.92392	-91.39361
116380	-239	-113	92	-12.49069	-4.626621	-5.751242	0	10.77	4003	-65	178	4	173	0.7257506	0.8700742	8	10	0.04	1800	-4.115356	40.92392	-91.39361
116479	2214	-232	-754	-10.76338	-4.782335	-5.56907	0	10.77	4002	-45	-113	-12	150	0.7258229	0.9200077	8	10	0.04	1800	-3.306152	40.92392	-91.39361
116594	1226	-730	-359	-6.324404	-4.330271	-4.756436	0	11.4	4002	-14	-196	-17	165	0.7259288	1.021532	8	10	0.04	1800	-4.715851	40.92392	-91.39361
116693	1684	-912	-665	-4.516648	-4.110734	-4.41705	0	11.4	4002	28	-96	-25	173	0.7259836	1.084116	8	10	0.04	1800	-6.813019	40.92392	-91.39361
116796	827	197	-280	-2.02755	-4.770146	-4.723613	0	11.4	4002	46	-87	-23	177	0.7260236	1.137135	8	10	0.04	1800	-5.156219	40.92392	-91.39361
116898	2288	834	-340	-0.3364932	-4.63721	-4.729716	0	11.4	4002	-7	-116	-19	177	0.7260526	1.190533	8	10	0.04	1800	-2.846008	40.92392	-91.39361
117009	2894	3731	453	1.397959	-7.529584	-4.903199	0	11.4	4004	-52	-48	-12	179	0.7260739	1.217636	8	10	0.04	1800	-3.045837	40.92392	-91.39362
117177	1438	-283	654	7.717453	-9.690478	-5.186919	0	11.4	4002	-78	104	4	176	0.7260973	1.28363	8	10	0.04	1800	3.980281	40.92392	-91.39362
117230	-1960	-2094	499	6.540493	-8.256062	-5.278592	0	11.4	4003	64	-3	-1	183	0.7261037	1.297543	8	10	0.04	1800	7.436987	40.92392	-91.39362
117282	-113	-877	-1008	4.563266	-6.929936	-5.293034	0	11.4	4003	-15	2	-19	192	0.7261089	1.301806	8	10	0.04	1800	9.434913	40.92392	-91.39362
117372	-41	-787	-665	3.917452	-6.78459	-5.370072	0	11.4	4004	45	-165	-11	201	0.7261149	1.294831	8	10	0.04	1800	12.48294	40.92392	-91.39362
117501	-1200	2061	1630	1.084372	-8.240282	-5.751689	0	11	4004	-12	-240	0	204	0.7261192	1.277535	8	10	0.04	1800	15.48052	40.92392	-91.39362
117582	494	810	622	0.4248236	-9.215391	-6.490581	0	11	4003	11	195	25	212	0.7261215	1.25829	8	10	0.04	1800	16.67054	40.92392	-91.39362
117678	-708	-3353	-1087	0.0215977	-8.235356	-6.306244	0	11	4004	-7	-290	-1	212	0.7261248	1.218329	8	10	0.04	1800	17.36597	40.92391	-91.39362
117785	-2513	1259	-14	-1.636111	-6.20197	-5.314027	0	11	4003	130	97	-7	226	0.7261264	1.177684	8	10	0.04	1800	17.58951	40.92391	-91.39362
117905	-1377	1061	-325	-4.66896	-9.387077	-5.343084	0	11	4004	17	84	-8	233	0.7261277	1.144998	8	10	0.04	1800	16.5411	40.92391	-91.39362
118025	-160	869	1606	-4.549301	-7.610318	-5.120445	0	11	4004	-84	-176	-6	213	0.7261288	1.088974	8	10	0.04	1800	13.69423	40.92391	-91.39362
118088	-1213	2138	1232	-3.990821	-7.750287	-5.166007	0	11	4004	-27	138	13	215	0.7261292	1.059802	8	10	0.04	1800	14.85645	40.92391	-91.39362
118222	885	1569	-444	-3.343027	-14.03076	-5.666011	0	11	4004	-88	242	21	218	0.7261298	1.009995	8	10	0.04	1800	12.70669	40.92391	-91.39362
118360	-3407	-1688	122	-5.550735	-11.21257	-6.174697	0	10.09	4004	132	49	45	236	0.7261302	0.9513693	8	10	0.04	1800	13.16654	40.92391	-91.39361
118439	348	-1586	626	-8.365467	-8.772031	-7.919068	0	10.09	4003	-116	-110	61	220	0.7261304	0.9124492	8	10	0.04	1800	11.55247	40.92391	-91.39361
118487	129	-3392	-88	-8.395565	-7.198709	-7.755799	0	10.09	4004	26	78	53	217	0.7261304	0.894231	8	10	0.04	1800	11.55247	40.92391	-91.39361
118579	-2871	-1226	-1311	-9.485435	-4.712272	-7.205296	0	10.09	4003	88	-68	16	215	0.7261306	0.8595171	8	10	0.04	1800	10.91464	40.92391	-91.39361
118780	-1591	697	917	-10.6112	-2.488697	-7.550266	0	10.09	4002	69	144	56	217	0.7261307	0.7912799	8	10	0.04	1800	6.172807	40.92391	-91.3936
118826	-1275	-272	-310	-10.47765	-2.953211	-7.630054	0	10.09	4003	34	-137	30	216	0.7261307	0.7840894	8	10	0.04	1800	3.658434	40.92391	-91.3936
118905	-3332	-782	-12	-11.85705	-2.140113	-7.946818	0	10.09	4002	21	-109	68	211	0.7261307	0.7582682	8	10	0.04	1800	3.553062	40.92391	-91.3936
119083	-1663	2072	-222	-12.26539	-6.528826	-7.286058	0	10.09	4002	75	149	32	218	0.7261307	0.7227256	8	10	0.04	1800	-8.482605	40.92391	-91.3936
119251	656	1059	-433	-10.32986	-9.068893	-5.422163	0	10.15	4003	-93	-138	4	205	0.7261307	0.7151567	8	10	0.04	1800	-15.27066	40.92391	-91.3936
119310	1513	175	-762	-9.415455	-9.851698	-5.401772	0	10.15	4003	5	-107	-2	205	0.7261307	0.7132762	8	10	0.04	1800	-15.27066	40.92391	-91.3936
119370	2151	1084	665	-6.116476	-10.27747	-4.858366	0	10.15	4003	-20	127	-3	203	0.7261307	0.7126492	8	10	0.04	1800	-16.84381	40.92391	-91.3936
119455	1450	-562	-412	-4.159058	-10.70505	-4.654348	0	10.15	4002	-23	-159	-33	199	0.7261307	0.7193627	8	10	0.04	1800	-15.37933	40.92391	-91.3936
119556	331	-2706	-24	-3.503355	-7.561135	-4.666146	0	10.15	4004	-8	-12	-19	197	0.7261307	0.7306863	8	10	0.04	1800	-14.42352	40.92391	-91.3936
119662	81	3108	108	-1.902992	-8.427915	-5.756012	0	10.15	4003	-13	-144	4	194	0.7261307	0.7613729	8	10	0.04	1800	-12.56525	40.9239	-91.39361
119767	1806	887	-397	-1.933905	-12.56609	-7.223845	0	10.15	4002	-77	-350	42	195	0.7261307	0.7795485	8	10	0.04	1800	-9.357666	40.9239	-91.39361
119854	3875	-431	-259	3.088104	-14.69918	-7.921966	0	10.15	4003	38	129	64	194	0.7261307	0.8063574	8	10	0.04	1800	-7.956604	40.9239	-91.39361
119959	3457	-1108	-2102	8.111787	-13.66213	-6.37112	0	10.15	4003	47	-119	-10	191	0.7261307	0.8340884	8	10	0.04	1800	-7.243805	40.9239	-91.39361
120192	3550	-4458	-350	11.12809	-10.02419	-5.107251	0	11.06	4002	-58	-385	-9	187	0.7261307	0.8996502	8	10	0.04	1800	-0.9180603	40.9239	-91.39362
120339	-2777	666	920	7.30777	-6.213994	-5.812127	0	11.06	4002	-50	139	26	193	0.7261307	0.9298871	8	10	0.04	1800	4.231214	40.9239	-91.39362
120373	-3552	-517	-373	5.044446	-5.971008	-6.123296	0	11.06	4003	45	24	23	197	0.7261307	0.9332496	8	10	0.04	1800	4.231214	40.9239	-91.39362
120452	-1490	-1513	-2070	-1.544861	-4.859554	-5.961348	0	11.06	4003	-72	-221	-13	209	0.7261307	0.9367463	8	10	0.04	1800	6.387248	40.9239	-91.39362
120552	-2199	-742	563	-2.841861	-4.894086	-5.901651	0	11.06	4002	93	-141	-3	206	0.7261307	0.9327721	8	10	0.04	1800	6.433357	40.9239	-91.39362
120699	142	180	550	-3.799322	-4.595129	-5.787845	0	11.06	4004	-90	-27	21	208	0.7261307	0.9130146	8	10	0.04	1800	4.733042	40.9239	-91.39362
120819	-866	-371	-402	-4.459553	-6.221197	-6.622481	0	11.06	4002	103	-217	15	221	0.7261307	0.8948259	8	10	0.04	1800	2.218258	40.9239	-91.39362
120919	395	523	149	-3.876578	-7.263333	-6.471756	0	11.06	4003	7	52	36	216	0.7261307	0.8752242	8	10	0.04	1800	2.021948	40.9239	-91.39362
120941	1496	-456	-25	-2.880883	-8.200953	-6.021197	0	11.06	4002	-91	-220	20	214	0.7261307	0.8752242	8	10	0.04	1800	0.7094463	40.9239	-91.39362
121040	-273	-203	-990	-1.930062	-9.567681	-6.119878	0	11.34	4002	47	-220	0	212	0.7261307	0.8461957	8	10	0.04	1800	1.072201	40.9239	-91.39362
121139	-19	1254	1424	-2.217063	-10.17092	-6.509447	0	11.34	4003	39	226	34	214	0.7261307	0.8308416	8	10	0.04	1800	1.707772	40.9239	-91.39362
121302	839	-130	-1514	-1.303807	-11.81644	-5.856826	0	11.34	4003	46	132	0	209	0.7261307	0.8020349	8	10	0.04	1800	1.624707	40.9239	-91.39362
121356	-674	-1891	-270	-1.214508	-10.70293	-5.228399	0	11.34	4004	-131	-178	-19	209	0.7261307	0.800629	8	10	0.04	1800	1.880879	40.9239	-91.39362
121462	-2289	-3	459	-5.141076	-9.431031	-4.746233	0	11.34	4002	-88	-73	-16	205	0.7261307	0.8002768	8	10	0.04	1800	3.582774	40.9239	-91.39362
121540	-373	-1355	-875	-5.466696	-8.654419	-5.112841	0	11.34	4003	-80	-196	-17	205	0.7261307	0.8038341	8	10	0.04	1800	2.50571	40.9239	-91.39362
121680	-1748	267	804	-7.706975	-8.761817	-6.719748	0	11.34	4003	48	224	42	205	0.7261307	0.8130847	8	10	0.04	1800	1.501598	40.9239	-91.39362
121747	-1350	163	1646	-8.181041	-7.885957	-7.315063	0	11.34	4003	29	-244	26	202	0.7261307	0.8186742	8	10	0.04	1800	0.9734383	40.9239	-91.39362
121854	-455	-181	-922	-9.384175	-7.143286	-6.059288	0	11.34	4003	-6	78	28	201	0.7261307	0.8305309	8	10	0.04	1800	-0.4285889	40.9239	-91.39362
121938	-1948	923	-108	-9.982221	-7.235512	-5.916232	0	11.4	4002	-68	66	11	201	0.7261307	0.8462444	8	10	0.04	1800	-2.681641	40.9239	-91.39362
122037	59	-1862	104	-10.20118	-6.691579	-5.596137	0	11.4	4004	31	168	0	200	0.7261307	0.856351	8	10	0.04	1800	-7.930664	40.9239	-91.39362
122193	-1467	1213	-407	-11.46812	-5.332119	-6.365793	0	11.4	4007	49	52	33	198	0.7261307	0.892136	8	10	0.04	1800	-8.045471	40.9239	-91.39362
122345	-1464	2544	601	-8.660514	-6.388273	-5.456708	0	11.4	4004	60	43	2	190	0.7261307	0.9376866	8	10	0.04	1800	-11.36148	40.9239	-91.39362
122423	-1912	-403	-14	-10.76012	-7.8044	-5.626231	0	11.4	4003	-15	-54	9	188	0.7261307	0.9763686	8	10	0.04	1800	-12.34949	40.9239	-91.39362
122567	-18	1161	738	-9.949381	-4.89063	-5.415249	0	11.4	4003	-15	-93	-10	187	0.7261307	0.9969079	8	10	0.04	1800	-17.69705	40.9239	-91.39362
122624	849	224	178	-9.21309	-5.775263	-5.332608	0	11.4	4002	69	-217	-6	189	0.7261307	1.058424	8	10	0.04	1800	-17.69705	40.9239	-91.39362
122727	854	225	-149	-7.20738	-9.16879	-5.160536	0	11.4	4004	79	-22	-13	190	0.7261307	1.085312	8	10	0.04	1800	-17.76602	40.9239	-91.39362
122827	-944	-594	-128	-6.654841	-8.111601	-5.036473	0	11.4	4004	58	-107	-17	190	0.7261307	1.136961	8	10	0.04	1800	-17.83755	40.9239	-91.39362
122975	226	260	352	-5.871438	-7.385375	-5.033148	0	11.46	4003	48	4	-7	189	0.7261307	1.184199	8	10	0.04	1800	-18.62039	40.9239	-91.39363
123116	6662	1555	60	-0.4294829	-7.057968	-5.368653	0	11.46	4004	19	73	-6	189	0.7261307	1.248048	8	10	0.04	1800	-16.14371	40.9239	-91.39363
123147	7497	250	-172	3.057148	-7.201061	-5.14721	0	11.46	4004	14	-161	-9	187	0.7261307	1.248048	8	10	0.04	1800	-14.38043	40.9239	-91.39363
123224	6484	103	-43	8.796074	-8.139475	-4.922087	0	11.46	4002	-43	-121	-15	188	0.7261307	1.286552	8	10	0.04	1800	-9.67868	40.9239	-91.39363
123396	6144	719	480	21.56884	-7.187344	-5.067433	0	11.46	4002	-20	24	-13	202	0.7261307	1.321358	8	10	0.04	1800	4.849382	40.9239	-91.39364
123521	-2918	2100	-92	21.65604	-9.616507	-6.30757	0	11.46	4003	22	36	13	218	0.7261307	1.300208	8	10	0.04	1800	23.17885	40.9239	-91.39365
123669	2077	1432	767	19.21782	-13.25286	-6.535916	0	11.46	4002	14	49	24	227	0.7261307	1.229365	8	10	0.04	1800	25.94136	40.9239	-91.39365
123718	-1900	349	-46	17.95973	-13.06115	-6.551229	0	11.46	4003	121	-197	15	237	0.7261307	1.180486	8	10	0.04	1800	29.3591	40.9239	-91.39365
123835	1153	6304	987	15.88839	-19.72491	-6.816202	0	10.6	4004	75	-23	-2	240	0.7261307	1.128589	8	10	0.04	1800	33.55825	40.9239	-91.39365
123931	-2303	-163	257	13.08668	-20.73995	-10.20933	0	10.6	4003	0	0	0	0	0.7261307	1.026713	1	10	0.04	1800	35.71397	40.9239	-91.39365
124027	-2439	-2353	2773	9.271224	-15.06697	-13.34318	0	10.6	4003	0	0	0	0	0.7261307	0.9857378	1	10	0.04	1800	36.6498	40.9239	-91.39365
124126	-492	-2604	1905	7.539458	-10.44976	-15.80695	0	10.6	4002	0	0	0	0	0.7261307	0.9276817	1	10	0.04	1800	37.31999	40.9239	-91.39365
124230	16550	498	9016	35.86813	2.438494	-32.63661	0	10.6	4003	0	0	0	0	0.7261307	0.7206761	1	10	0.04	1800	54.38355	40.9239	-91.39364
124330	10746	5924	8558	48.15181	6.836108	-42.11537	0	10.6	4004	0	0	0	0	0.7261307	0.6411295	1	10	0.04	1800	73.45427	40.9239	-91.39364
124486	3797	-4367	-5565	59.69383	14.30489	-42.4987	0	10.6	4004	0	0	0	0	0.7261307	0.4073944	1	10	0.04	1800	73.04025	40.9239	-91.39363
124599	11297	289	-9667	75.06346	1.037842	-28.48244	0	10.6	4002	0	0	0	0	0.7261307	0.3349755	1	10	0.04	1800	61.06864	40.92391	-91.39363
124706	9959	6159	4763	104.7665	-10.97366	-22.35448	0	11.74	4004	0	0	0	0	0.7261307	0.2150481	1	10	0.04	1800	63.41744	40.92391	-91.39363
124750	3988	3750	6916	105.6129	-2.947354	-29.13564	0	11.74	4003	0	0	0	0	0.7261307	0.1949246	1	10	0.04	1800	67.78608	40.92391	-91.39362
124820	2721	4028	6130	104.1058	1.303741	-32.78204	0	11.74	4004	0	0	0	0	0.7261307	0.1377408	1	10	0.04	1800	73.03466	40.92392	-91.39362
124918	4148	859	3322	98.23191	16.96532	-43.66129	0	11.74	4004	0	0	0	0	0.7261307	0.05456627	1	10	0.04	1800	83.09121	40.92392	-91.39362
125167	95	-22	132	78.08484	19.03008	-45.80102	0	11.74	4003	0	0	0	0	0.7261307	-0.02527202	1	10	0.04	1800	91.94898	40.92393	-91.39362
125296	-142	13	-12	68.56331	18.80843	-45.96236	0	11.74	4002	0	0	0	0	0.7261307	-0.07094897	1	10	0.04	1800	95.45491	40.92393	-91.39362
125400	-79	5	13	62.43837	18.57518	-46.00254	0	11.74	4004	0	0	0	0	0.7261307	-0.1118261	1	10	0.04	1800	96.83968	40.92393	-91.39362
125497	-74	-11	-1	57.07516	18.35973	-46.02486	0	11.74	4004	0	0	0	0	0.7261307	-0.1299441	1	10	0.04	1800	99.55213	40.92393	-91.39362
125551	-68	-1	16	53.87386	18.22677	-46.04148	0	11.8	4004	0	0	0	0	0.7261307	-0.1390179	1	10	0.04	1800	100.9975	40.92394	-91.39362
125620	-80	4	20	49.59569	18.05297	-46.07051	0	11.8	4004	0	0	0	0	0.7261307	-0.1503755	1	10	0.04	1800	101.8194	40.92394	-91.39362
125754	-61	5	17	45.85093	17.89451	-46.09391	0	11.8	4004	0	0	0	0	0.7261307	-0.1625249	1	10	0.04	1800	103.0999	40.92394	-91.39362
125820	-72	0	25	42.57841	17.76394	-46.12093	0	11.8	4004	0	0	0	0	0.7261307	-0.1680203	1	10	0.04	1800	105.2312	40.92394	-91.39362
125901	-71	0	11	40.63102	17.68053	-46.13968	0	11.8	4003	0	0	0	0	0.7261307	-0.1849863	1	10	0.04	1800	106.1528	40.92395	-91.39362
126005	-68	4	14	38.854	17.59785	-46.15551	0	11.8	4004	0	0	0	0	0.7261307	-0.1922978	1	10	0.04	1800	107.0169	40.92395	-91.39362
126132	-109	1964	219	37.59705	19.16807	-49.24183	0	11.8	4004	0	0	0	0	0.7261307	-0.2058694	1	10	0.04	1800	109.5555	40.92395	-91.39362
126210	-11782	2858	140	28.29504	16.24596	-50.12533	0	11.8	4002	0	0	0	0	0.7261307	-0.2099237	1	10	0.04	1800	113.6629	40.92395	-91.39363
126374	-7780	-3179	-1907	1.424228	21.39546	-47.79099	0	11.8	4002	0	0	0	0	0.7261307	-0.2200963	1	10	0.04	1800	114.1928	40.92395	-91.39363
126431	-6318	-2334	-2349	0.3696376	23.1225	-46.5904	0	11.8	4003	0	0	0	0	0.7261307	-0.2244673	1	10	0.04	1800	108.2014	40.92395	-91.39363
126520	-4911	-5204	861	-1.528499	30.63579	-44.82221	0	11.8	4004	0	0	0	0	0.7261307	-0.2287976	1	10	0.04	1800	97.78942	40.92395	-91.39363
126708	1122	-1377	5594	1.366765	38.36626	-53.71095	0	11.8	4003	0	0	0	0	0.7261307	-0.2261629	1	10	0.04	1800	97.78001	40.92395	-91.39362
126803	660	106	9221	3.139199	36.99292	-65.73679	0	11.8	4004	0	0	0	0	0.7261307	-0.2215499	1	10	0.04	1800	110.9507	40.92395	-91.39362
126923	-2088	-1019	6720	-1.637878	36.96415	-86.90862	0	11.8	4003	0	0	0	0	0.7261307	-0.206737	1	10	0.04	1800	123.3137	40.92395	-91.39362
127017	2577	2057	-5363	2.812602	35.34779	-87.03831	0	11.8	4002	0	0	0	0	0.7261307	-0.1772722	1	10	0.04	1800	132.8534	40.92395	-91.39362
127111	3705	4055	-8243	14.82881	30.77702	-78.80616	0	11.8	4004	0	0	0	0	0.7261307	-0.1577023	1	10	0.04	1800	123.1403	40.92395	-91.39362
127214	-5223	-208	-4335	24.36117	21.5262	-65.47498	0	11.8	4004	0	0	0	0	0.7261307	-0.1211698	1	10	0.04	1800	105.9151	40.92395	-91.39362
127308	-4005	-7072	-5166	23.0689	26.75076	-57.78669	0	11.8	4003	0	0	0	0	0.7261307	-0.09696853	1	10	0.04	1800	97.14819	40.92395	-91.39362
127397	2878	-2756	-4835	32.60283	36.8028	-45.1882	0	11.8	4002	0	0	0	0	0.7261307	-0.04373278	1	10	0.04	1800	71.88762	40.92395	-91.39362
127476	5277	1539	-887	41.50982	33.19966	-41.72811	0	11.8	4003	0	0	0	0	0.7261307	-0.01788493	1	10	0.04	1800	62.05882	40.92396	-91.39362
127610	-449	1889	4399	45.82822	32.26992	-48.62315	0	11.8	4003	0	0	0	0	0.7261307	0.02835021	1	10	0.04	1800	68.24294	40.92396	-91.39362
127695	-5201	1408	1754	42.76758	31.41751	-52.18082	0	11.8	4002	0	0	0	0	0.7261307	0.07685073	1	10	0.04	1800	73.40829	40.92396	-91.39362
127799	-6695	3284	-1535	35.78831	25.40538	-51.95189	0	11.8	4004	0	0	0	0	0.7261307	0.1099864	1	10	0.04	1800	74.66515	40.92396	-91.39362
128007	1359	-1245	-1893	37.18847	22.89458	-49.537	0	11.8	4004	0	0	0	0	0.7261307	0.1809386	1	10	0.04	1800	66.47596	40.92397	-91.39362
128102	-1187	-7948	-1392	45.9947	28.86394	-44.43823	0	11.8	4003	0	0	0	0	0.7261307	0.2157213	1	10	0.04	1800	53.51038	40.92397	-91.39362
128184	-1646	-2804	1623	46.52301	33.65995	-44.37694	0	11.8	4003	0	0	0	0	0.7261307	0.2322344	1	10	0.04	1800	46.16876	40.92397	-91.39362
128334	-6188	-1990	1630	37.23804	42.46691	-50.47172	0	11.85	4004	0	0	0	0	0.7261307	0.2758463	1	10	0.04	1800	42.18048	40.92397	-91.39362
128393	-6596	-2211	1311	35.15929	42.53918	-51.1861	0	11.85	4004	0	0	0	0	0.7261307	0.319445	1	10	0.04	1800	39.75937	40.92397	-91.39362
128489	-3011	2764	-1382	32.32613	37.63371	-51.88432	0	11.85	4003	0	0	0	0	0.7261307	0.333914	1	10	0.04	1800	38.76047	40.92397	-91.39362
128636	-1436	3931	1199	33.89364	24.81078	-47.83042	0	11.85	4003	0	0	0	0	0.7261307	0.3772999	1	10	0.04	1800	23.83957	40.92397	-91.39362
128701	-4186	2570	2220	31.80325	24.10955	-48.83691	0	11.85	4002	0	0	0	0	0.7261307	0.3887626	1	10	0.04	1800	23.83957	40.92397	-91.39362
128787	-3856	-693	3640	27.39609	15.63749	-57.92659	0	11.85	4003	0	0	0	0	0.7261307	0.3970848	1	10	0.04	1800	25.36221	40.92397	-91.39362
128883	-3426	-4148	1636	25.38415	19.64561	-61.28849	0	11.85	4003	0	0	0	0	0.7261307	0.4046447	1	10	0.04	1800	24.14975	40.92397	-91.39362
129044	-3706	-2190	204	17.62908	20.5785	-64.55544	0	11.85	4003	0	0	0	0	0.7261307	0.4117617	1	10	0.04	1800	21.80312	40.92397	-91.39362
129105	-2573	-2731	-370	16.04025	26.24384	-64.31303	0	11.85	4002	0	0	0	0	0.7261307	0.4161413	1	10	0.04	1800	15.82627	40.92398	-91.39362
129151	-182	-334	-289	15.94608	27.46569	-64.28541	0	11.85	4002	0	0	0	0	0.7261307	0.4165773	1	10	0.04	1800	15.82627	40.92398	-91.39362
129245	-2899	-200	539	12.01181	28.36808	-63.1172	0	11.85	4002	0	0	0	0	0.7261307	0.417053	1	10	0.04	1800	8.670989	40.92398	-91.39362
129369	69	-3045	-444	13.17782	28.34368	-62.57625	0	11.85	4002	0	0	0	0	0.7261307	0.4071161	1	10	0.04	1800	4.45312	40.92397	-91.39362
129504	794	2420	165	14.83896	28.72188	-62.89211	0	11.85	4004	0	0	0	0	0.7261307	0.3986487	1	10	0.04	1800	-1.828857	40.92398	-91.39362
129621	2590	803	406	19.27838	25.54039	-63.43126	0	11.85	4003	0	0	0	0	0.7261307	0.397039	1	10	0.04	1800	-4.780029	40.92398	-91.39362
129664	2801	858	1237	20.58604	25.21652	-63.91447	0	11.85	4004	0	0	0	0	0.7261307	0.3981668	1	10	0.04	1800	-5.703522	40.92398	-91.39362
129775	4534	-2131	1523	28.91595	29.02006	-67.58866	0	11.85	4003	0	0	0	0	0.7261307	0.4075036	1	10	0.04	1800	-3.548767	40.92398	-91.39362
129923	2992	2354	2391	34.85266	27.36392	-70.95388	0	11.85	4003	0	0	0	0	0.7261307	0.4241099	1	10	0.04	1800	-4.500549	40.92398	-91.39362
130002	3260	2409	1917	38.32571	27.02174	-73.39516	0	11.85	4002	0	0	0	0	0.7261307	0.4359938	1	10	0.04	1800	-7.290527	40.92398	-91.39362
130056	-559	229	424	40.05017	25.4951	-75.53792	0	11.85	4003	0	0	0	0	0.7261307	0.4601965	1	10	0.04	1800	-4.494843	40.92398	-91.39362
130159	-302	63	1752	39.59873	27.61716	-76.95749	0	11.85	4004	0	0	0	0	0.7261307	0.4753933	1	10	0.04	1800	-3.068878	40.92398	-91.39362
130210	-319	862	2808	38.49269	28.33773	-78.09328	0	11.85	4003	0	0	0	0	0.7261307	0.4943075	1	10	0.04	1800	-0.7655945	40.92398	-91.39362
130308	-2412	-1354	530	34.55817	32.46305	-81.57697	0	11.85	4003	0	0	0	0	0.7261307	0.5044438	1	10	0.04	1800	3.607154	40.92398	-91.39362
130413	-4659	1769	2036	27.79674	33.2093	-83.82967	0	11.85	4003	0	0	0	0	0.7261307	0.5310414	1	10	0.04	1800	5.949446	40.92398	-91.39362
130550	-4412	320	2033	13.01626	31.90466	-89.61094	0	11.85	4002	0	0	0	0	0.7261307	0.5523822	1	10	0.04	1800	10.1799	40.92398	-91.39362
130609	-2018	-872	-974	9.47258	31.43464	-90.22149	0	11.85	4003	0	0	0	0	0.7261307	0.5548234	1	10	0.04	1800	11.24015	40.92398	-91.39362
130707	647	1255	-3919	9.487497	29.73831	-85.63223	0	11.85	4004	0	0	0	0	0.7261307	0.565696	1	10	0.04	1800	11.92117	40.92398	-91.39362
130910	-4301	6469	-566	7.908037	18.94819	-74.91457	0	11.85	4003	0	0	0	0	0.7261307	0.5806823	1	10	0.04	1800	8.236447	40.92397	-91.39362
130929	-4301	6469	-566	7.908037	18.94819	-74.91457	0	11.85	4003	0	0	0	0	0.7261307	0.5808013	1	10	0.04	1800	8.236447	40.92397	-91.39362
