time(ms)	gyro_x(deg/s)	gyro_y(deg/s)	gyro_z(deg/s)	orientation_roll(deg)	orientation_pitch(deg)	orientation_yaw(deg)	throttle	battery(V)	loop_time(uS)	pid_output_roll	pid_output_pitch	pid_output_yaw	pid_output_throttle	ultrasonic_alt	baro_alt	flight_mode	p_gain_altitude	i_gain_altitude	d_gain_altitude	compass_heading	latitude	longitude
475846	142	-1909	-2391	-5.390603	-20.85835	-37.48654	0	11.46	4003	0	0	0	0	0.7518557	0.3236205	1	15	0.04	1800	178.8739	40.92392	-91.3936
475949	-8	-3667	-626	-5.638001	-17.49443	-36.02694	0	11.46	4004	0	0	0	0	0.7518557	0.3040722	1	15	0.04	1800	176.7242	40.92392	-91.39361
476140	-53	-137	22	-5.215858	-6.594231	-34.45886	0	11.46	4003	0	0	0	0	0.7518557	0.2690424	1	15	0.04	1800	175.9264	40.92392	-91.39361
476178	-69	644	15	-5.070568	-5.994126	-34.46692	0	11.46	4003	0	0	0	0	0.7518557	0.2582028	1	15	0.04	1800	175.9264	40.92392	-91.39361
476279	-14	576	16	-4.741898	-6.050832	-34.50996	0	11.46	4003	0	0	0	0	0.7518557	0.2396176	1	15	0.04	1800	176.5198	40.92392	-91.39361
476362	-110	-197	8	-4.235271	-6.224112	-34.54047	0	11.46	4003	0	0	0	0	0.7518557	0.2109686	1	15	0.04	1800	176.8505	40.92392	-91.39361
476519	-24	120	17	-4.031496	-4.947837	-34.55073	0	11.51	4004	0	0	0	0	0.7518557	0.18819	1	15	0.04	1800	177.6596	40.92392	-91.39361
476610	-79	-4	3	-3.702685	-4.325309	-34.5707	0	11.51	4004	0	0	0	0	0.7518557	0.1739324	1	15	0.04	1800	178.0559	40.92392	-91.39361
476667	-56	40	11	-3.660373	-4.137204	-34.57473	0	11.51	4003	0	0	0	0	0.7518557	0.1644421	1	15	0.04	1800	178.0559	40.92392	-91.39361
476762	40	-13	45	-3.561405	-3.720228	-34.60253	0	11.51	4004	0	0	0	0	0.7518557	0.1538228	1	15	0.04	1800	178.3456	40.92392	-91.39361
476867	-259	-211	243	-3.043501	-3.58749	-34.69118	0	11.51	4004	0	0	0	0	0.7518557	0.1256488	1	15	0.04	1800	178.2415	40.92393	-91.39361
477048	244	-61	11	-3.262745	-3.038865	-34.66043	0	11.51	4003	0	0	0	0	0.7518557	0.1152837	1	15	0.04	1800	179.8264	40.92393	-91.39361
477163	-33	346	-159	-2.887558	-2.266438	-33.51425	0	11.51	4002	0	0	0	0	0.7518557	0.1107646	1	15	0.04	1800	178.8397	40.92393	-91.39361
477224	151	-197	1066	-2.729292	-2.857644	-34.23093	0	11.51	4003	0	0	0	0	0.7518557	0.1103153	1	15	0.04	1800	178.5866	40.92393	-91.39361
477299	-173	-376	952	-2.151155	-2.825413	-35.49079	0	11.51	4003	0	0	0	0	0.7518557	0.1093533	1	15	0.04	1800	179.334	40.92393	-91.39361
477379	-280	218	3	-2.44852	-1.431562	-36.04152	0	11.51	4003	0	0	0	0	0.7518557	0.1116958	1	15	0.04	1800	182.0045	40.92393	-91.39362
477488	55	263	18	-2.697699	-1.628488	-36.04445	0	11.51	4002	0	0	0	0	0.7518557	0.1176947	1	15	0.04	1800	181.5042	40.92393	-91.39362
477624	-86	-81	12	-2.404685	-1.737455	-36.09183	0	11.51	4003	0	0	0	0	0.7518557	0.1222897	1	15	0.04	1800	181.9309	40.92393	-91.39361
477694	-64	40	8	-2.365952	-1.640485	-36.10593	0	11.51	4004	0	0	0	0	0.7518557	0.124882	1	15	0.04	1800	182.1023	40.92393	-91.39361
477773	-94	-51	8	-2.330049	-1.602245	-36.11411	0	11.51	4002	0	0	0	0	0.7518557	0.1245583	1	15	0.04	1800	181.959	40.92393	-91.39361
477858	-58	33	11	-2.341081	-1.46166	-36.11972	0	11.51	4004	0	0	0	0	0.7518557	0.1275133	1	15	0.04	1800	182.0223	40.92393	-91.39361
477985	-77	5	10	-2.29983	-1.378525	-36.13742	0	11.51	4003	0	0	0	0	0.7518557	0.1323822	1	15	0.04	1800	182.1111	40.92393	-91.39361
478067	-75	8	9	-2.280578	-1.344247	-36.14615	0	11.51	4003	0	0	0	0	0.7518557	0.134011	1	15	0.04	1800	182.114	40.92393	-91.39361
478169	-64	11	11	-2.26686	-1.273868	-36.15903	0	11.51	4003	0	0	0	0	0.7518557	0.1348507	1	15	0.04	1800	182.4784	40.92393	-91.39361
478331	-95	146	-53	-2.229845	-1.195708	-36.17275	0	11.51	4003	0	0	0	0	0.7518557	0.1319011	1	15	0.04	1800	182.5563	40.92393	-91.39361
478409	-411	-117	163	-2.05748	-1.24032	-36.23266	0	11.51	4002	0	0	0	0	0.7518557	0.1308197	1	15	0.04	1800	183.1005	40.92393	-91.39361
478507	132	110	41	-2.431202	-1.014395	-36.34662	0	11.51	4004	0	0	0	0	0.7518557	0.1209151	1	15	0.04	1800	181.4236	40.92393	-91.39361
478571	-94	101	6	-2.125623	-1.059079	-36.35664	0	11.51	4004	0	0	0	0	0.7518557	0.1160601	1	15	0.04	1800	181.4236	40.92393	-91.39361
478686	-69	-122	8	-2.361348	-1.182449	-36.36005	0	11.51	4003	0	0	0	0	0.7518557	0.1050163	1	15	0.04	1800	182.3763	40.92393	-91.39362
478829	-73	-17	-23	-2.285443	-1.203098	-36.37824	0	11.51	4002	0	0	0	0	0.7518557	0.08644687	1	15	0.04	1800	182.3201	40.92393	-91.39362
478934	-178	154	14	-2.084395	-0.3298412	-36.39096	0	11.51	4003	0	0	0	0	0.7518557	0.08522978	1	15	0.04	1800	182.318	40.92394	-91.39362
479003	313	-1381	1416	-2.350428	-0.1532455	-36.71721	0	11.51	4002	0	0	0	0	0.7518557	0.08276478	1	15	0.04	1800	182.7112	40.92394	-91.39362
479075	3052	-3106	3891	-1.162559	3.849512	-39.64419	0	11.51	4004	0	0	0	0	0.7518557	0.08310127	1	15	0.04	1800	184.3569	40.92394	-91.39362
479206	8521	2045	7623	10.19453	4.850078	-49.1394	0	11.51	4003	0	0	0	0	0.7518557	0.08495454	1	15	0.04	1800	189.5208	40.92394	-91.39362
479386	-2180	3193	20757	14.69663	3.789917	-88.93336	0	11.51	4003	0	0	0	0	0.7518557	0.1016247	1	15	0.04	1800	238.8415	40.92394	-91.39362
479447	556	3134	24935	12.68185	6.418967	-114.8917	0	11.51	4004	0	0	0	0	0.7518557	0.1129292	1	15	0.04	1800	-83.97565	40.92393	-91.39362
479649	4328	-3227	14516	1.427614	21.61063	-184.9715	0	11.51	4002	0	0	0	0	0.7518557	0.1358195	1	15	0.04	1800	-33.79547	40.92394	-91.39362
479766	-4239	4587	9760	-0.1178802	22.15432	-204.696	0	11.51	4002	0	0	0	0	0.7518557	0.1465682	1	15	0.04	1800	-7.086761	40.92394	-91.39362
479801	175	4952	1408	-0.9648167	11.17292	-211.8806	0	11.51	4004	0	0	0	0	0.7518557	0.1479527	1	15	0.04	1800	-0.3817749	40.92394	36.55756
479883	-739	4409	1029	-1.869785	4.504694	-213.9583	0	11.51	4003	0	0	0	0	0.7518557	0.1501155	1	15	0.04	1800	1.020763	40.92394	86.45852
480039	-228	-296	1124	-1.564241	2.329615	-216.7388	0	11.51	4002	0	0	0	0	0.7518557	0.141045	1	15	0.04	1800	4.717684	40.92394	-86.47037
480129	-1	108	-1492	-1.812999	2.357171	-215.8189	0	11.51	4002	0	0	0	0	0.7518557	0.1316106	1	15	0.04	1800	5.321713	40.92394	-91.26071
480171	-120	153	-1240	-1.691619	2.483677	-215.0985	0	11.51	4003	0	0	0	0	0.7518557	0.1276128	1	15	0.04	1800	5.321713	40.92394	-91.35376
480280	-11	-21	-15	-1.803656	2.268394	-213.3057	0	11.51	4004	0	0	0	0	0.7518557	0.1156102	1	15	0.04	1800	2.839133	40.92394	-91.39256
480420	-282	-70	-1403	-1.664234	2.022332	-211.4187	0	11.51	4003	0	0	0	0	0.7518557	0.09866655	1	15	0.04	1800	1.876265	40.92394	-91.39365
480526	12	284	74	-1.579327	1.511872	-210.5669	0	11.51	4003	0	0	0	0	0.7518557	0.09349187	1	15	0.04	1800	0.7602937	40.92394	-91.39365
480608	30	-51	-5	-1.660462	1.386158	-210.5999	0	11.51	4004	0	0	0	0	0.7518557	0.09298807	1	15	0.04	1800	0.7007756	40.92394	-91.39365
480714	-49	88	4	-1.212525	0.8406904	-210.588	0	11.51	4004	0	0	0	0	0.7518557	0.0912369	1	15	0.04	1800	1.029749	40.92394	-91.39365
480781	-122	-125	12	-1.184258	0.6593887	-210.6008	0	11.51	4002	0	0	0	0	0.7518557	0.09119982	1	15	0.04	1800	0.6798237	40.92394	-91.39365
480891	-69	24	8	-1.200722	0.6587531	-210.6176	0	11.51	4003	0	0	0	0	0.7518557	0.09002216	1	15	0.04	1800	0.5730243	40.92394	-91.39366
480983	-79	-32	6	-1.193125	0.5870285	-210.6285	0	11.51	4004	0	0	0	0	0.7518557	0.08960866	1	15	0.04	1800	0.5149084	40.92394	-91.39366
481088	-68	17	6	-1.179436	0.5421153	-210.6421	0	11.51	4003	0	0	0	0	0.7518557	0.09203677	1	15	0.04	1800	0.756598	40.92394	-91.39366
481187	-65	11	7	-1.167	0.5008169	-210.6559	0	11.51	4002	0	0	0	0	0.7518557	0.101073	1	15	0.04	1800	0.2777561	40.92394	-91.39366
481293	-72	-19	7	-1.152458	0.4239453	-210.6672	0	11.51	4003	0	0	0	0	0.7518557	0.1086563	1	15	0.04	1800	0.6913863	40.92394	-91.39366
481494	-66	2	3	-1.141503	0.3637049	-210.6882	0	11.51	4005	0	0	0	0	0.7518557	0.1123203	1	15	0.04	1800	0.4518407	40.92394	-91.39366
481535	-61	15	11	-1.136434	0.3529327	-210.6917	0	11.51	4003	0	0	0	0	0.7518557	0.1119274	1	15	0.04	1800	0.4518407	40.92394	-91.39366
481677	-73	10	10	-1.121351	0.2911572	-210.7189	0	11.51	4004	0	0	0	0	0.7518557	0.1135213	1	15	0.04	1800	0.6449817	40.92394	-91.39366
481724	-66	5	11	-1.126779	0.2761197	-210.7229	0	11.51	4004	0	0	0	0	0.7518557	0.1138073	1	15	0.04	1800	0.6449817	40.92394	-91.39366
481797	-63	1	6	-1.117449	0.2578941	-210.7294	0	11.51	4003	0	0	0	0	0.7518557	0.1086985	1	15	0.04	1800	0.4322583	40.92393	-91.39366
481899	-65	-2	9	-1.113808	0.2182842	-210.7463	0	11.51	4008	0	0	0	0	0.7518557	0.09517214	1	15	0.04	1800	0.405646	40.92393	-91.39366
482096	-68	3	3	-1.112095	0.1688309	-210.7687	0	11.51	4003	0	0	0	0	0.7518557	0.07021174	1	15	0.04	1800	0.4205382	40.92393	-91.39366
482145	-68	0	5	-1.11166	0.1650734	-210.7758	0	11.51	4003	0	0	0	0	0.7518557	0.06187572	1	15	0.04	1800	0.413992	40.92393	-91.39366
482213	-70	1	5	-1.10882	0.1555367	-210.7845	0	11.51	4004	0	0	0	0	0.7518557	0.05855717	1	15	0.04	1800	0.4102914	40.92393	-91.39366
482296	-74	1	11	-1.10657	0.1439922	-210.7926	0	11.51	4003	0	0	0	0	0.7518557	0.05720139	1	15	0.04	1800	0.6255868	40.92393	-91.39366
482404	-64	4	4	-1.095555	0.1365225	-210.8085	0	11.51	4004	0	0	0	0	0.7518557	0.06201004	3	15	0.04	1800	0.6072793	40.92393	-91.39366
482501	-72	2	9	-1.085854	0.1246607	-210.8173	0	11.51	4003	0	0	0	0	0.7518557	0.07145356	3	15	0.04	1800	0.6017641	40.92393	-91.39366
482618	-67	-2	5	-1.083415	0.1167205	-210.8358	0	11.51	4004	0	0	0	0	0.7518557	0.08264117	3	15	0.04	1800	0.5918915	40.92393	-91.39366
482710	-70	2	7	-1.078786	0.1156559	-210.8472	0	11.51	4003	0	0	0	0	0.7518557	0.0863412	3	15	0.04	1800	0.5826662	40.92393	-91.39366
482898	-65	2	8	-1.080591	0.1097032	-210.8682	0	11.51	4002	0	0	0	0	0.7518557	0.08556377	3	15	0.04	1800	0.5826182	40.92393	-91.39366
482977	-66	7	9	-1.065264	0.1005885	-210.8793	0	11.51	4003	0	0	0	0	0.7518557	0.08453303	3	15	0.04	1800	0.5678174	40.92393	-91.39366
483115	-68	2	12	-1.053796	0.09805004	-210.8948	0	11.51	4004	0	0	0	0	0.7518557	0.08483756	3	15	0.04	1800	0.5485131	40.92393	-91.39365
483241	-70	3	7	-1.061477	0.09163103	-210.9126	0	11.51	4004	0	0	0	0	0.7518557	0.07680847	3	15	0.04	1800	0.3263025	40.92393	-91.39365
483329	-62	5	2	-1.059637	0.08534233	-210.9274	0	11.51	4003	4	0	0	0	0.7518557	0.07222604	3	15	0.04	1800	0.1003191	40.92393	-91.39365
483389	-70	-1	11	-1.059139	0.08407062	-210.933	0	11.51	4003	5	0	0	0	0.7518557	0.06568706	3	15	0.04	1800	0.1003191	40.92393	-91.39365
483517	-57	8	24	-1.052772	0.08514541	-210.9448	0	11.51	4004	5	-1	0	0	0.7518557	0.0620233	3	15	0.04	1800	0.5377961	40.92393	-91.39365
483594	-84	-15	-5	-1.049738	0.08424316	-210.9569	0	11.51	4002	0	0	0	0	0.7518557	0.06435058	3	15	0.04	1800	0.539999	40.92393	-91.39365
483703	-68	3	13	-1.040505	0.08574288	-210.9712	0	11.51	4004	0	0	0	0	0.7518557	0.06636464	3	15	0.04	1800	0.2968341	40.92393	-91.39365
483787	-64	-3	9	-1.043031	0.0849273	-210.9797	0	11.51	4003	0	0	0	0	0.7518557	0.06610221	3	15	0.04	1800	0.08644018	40.92393	-91.39365
483890	-66	-1	3	-1.045346	0.08164094	-210.9954	0	11.51	4002	0	0	0	0	0.7518557	0.06574666	3	15	0.04	1800	-0.1362305	40.92393	-91.39365
483993	-64	5	9	-1.04272	0.07837015	-211.0034	0	11.51	4002	0	0	0	0	0.7518557	0.06858719	3	15	0.04	1800	0.3238088	40.92393	-91.39365
484182	-66	7	13	-1.038447	0.07064235	-211.0327	0	11.51	4004	0	0	0	0	0.7518557	0.07180689	3	15	0.04	1800	0.3017101	40.92393	-91.39365
484228	-64	2	8	-1.0358	0.07043057	-211.0404	0	11.51	4002	3	0	0	0	0.7518557	0.06925713	3	15	0.04	1800	0.08286907	40.92393	-91.39365
484289	-68	0	13	-1.037079	0.06789952	-211.0441	0	11.51	4003	4	0	0	0	0.7518557	0.06615026	3	15	0.04	1800	0.08286907	40.92393	-91.39365
484390	-60	0	2	-1.029954	0.0704017	-211.0578	0	11.51	4002	5	-1	0	0	0.7518557	0.06556075	3	15	0.04	1800	0.07638674	40.92393	-91.39365
484495	-61	-1	5	-1.027918	0.06875286	-211.0662	0	11.51	4004	7	0	0	0	0.7518557	0.06445336	3	15	0.04	1800	0.06891365	40.92393	-91.39365
484633	-55	-39	60	-1.037104	0.07113416	-211.0972	0	11.51	4003	13	0	-1	0	0.7518557	0.06771868	3	15	0.04	1800	0.7155246	40.92392	-91.39365
484831	-228	-27	-78	-1.100614	0.1167283	-211.1204	0	11	4003	-2	7	0	0	0.7518557	0.0674816	3	15	0.04	1800	0.5722232	40.92392	-91.39365
485008	-86	1	11	-1.037577	0.073393	-211.1629	0	11	4003	0	0	0	0	0.7518557	0.07360919	3	15	0.04	1800	1.403134	40.92392	-91.39365
485146	-66	-5	28	-1.005086	0.05822322	-211.179	0	11	4004	0	0	0	0	0.7518557	0.08533911	3	15	0.04	1800	1.101689	40.92392	-91.39365
485229	-72	9	-19	-1.013679	0.05945034	-211.1862	0	11	4003	4	-1	0	0	0.7518557	0.09684362	3	15	0.04	1800	0.6591517	40.92392	-91.39365
485284	-26	-53	-191	-1.013846	0.05551314	-211.1871	0	11	4002	9	0	0	0	0.7518557	0.09824629	3	15	0.04	1800	0.6762851	40.92392	-91.39365
485400	-48	-25	-117	-1.011593	0.06654225	-211.2035	0	11	4003	3	-1	0	0	0.7518557	0.1055731	3	15	0.04	1800	0.6492957	40.92392	-91.39365
485489	-67	-45	-8	-0.9843203	0.06232166	-211.2348	0	11	4003	5	6	2	0	0.7518557	0.1086515	3	15	0.04	1800	0.6403147	40.92392	-91.39365
485662	-101	-24	27	-0.968102	0.06674735	-211.253	0	11.51	4003	19	-8	2	0	0.7518557	0.1269295	3	15	0.04	1800	1.287791	40.92392	-91.39365
485725	-79	-5	-1	-0.9604117	0.07325675	-211.2532	0	11.51	4003	14	0	2	0	0.7518557	0.1360678	3	15	0.04	1800	1.543953	40.92392	-91.39365
485856	-58	40	29	-0.9841018	0.07764859	-211.2829	0	11.51	4002	0	-6	3	0	0.7518557	0.1396854	3	15	0.04	1800	1.569212	40.92392	-91.39365
485958	-100	-116	85	-0.9753158	0.06827758	-211.29	0	11.51	4004	0	6	2	0	0.7518557	0.1400403	3	15	0.04	1800	0.68736	40.92392	-91.39365
486077	-30	9	40	-0.9944108	0.07065614	-211.307	0	11.51	4002	0	0	0	0	0.7518557	0.1456168	3	15	0.04	1800	0.6779329	40.92392	-91.39365
486111	-122	-20	33	-1.017538	0.07846186	-211.3065	0	11.51	4002	0	0	0	0	0.7518557	0.1487655	3	15	0.04	1800	1.16781	40.92392	-91.39365
486184	-49	60	-50	-1.016779	0.07360651	-211.319	0	11.51	4002	9	9	0	0	0.7518557	0.1478551	3	15	0.04	1800	0.692423	40.92392	-91.39365
486346	-121	-60	-24	-1.021604	0.04826651	-211.3446	0	11.51	4003	9	-1	1	0	0.7518557	0.1417701	3	15	0.04	1800	1.573069	40.92392	-91.39365
486396	-180	-10	3	-1.020006	0.02407567	-211.3546	0	11.51	4004	22	12	1	0	0.7518557	0.1389491	3	15	0.04	1800	1.573069	40.92392	-91.39365
486492	-179	-102	-56	-1.068988	0.07054322	-211.3646	0	11.51	4002	41	5	1	0	0.7518557	0.1345375	3	15	0.04	1800	0.7307095	40.92392	-91.39365
486601	-85	-22	135	-1.084104	0.137059	-211.3839	0	11.46	4003	33	19	1	0	0.7518557	0.1345358	3	15	0.04	1800	1.41036	40.92392	-91.39365
486698	-65	88	1	-0.9693658	0.07422815	-211.4229	0	11.46	4003	15	-23	3	0	0.7518557	0.1359421	3	15	0.04	1800	0.903478	40.92392	-91.39365
486827	-52	20	-110	-0.9328671	0.01302006	-211.4297	0	11.46	4004	0	0	0	0	0.7518557	0.1279291	3	15	0.04	1800	0.6197432	40.92392	-91.39365
486907	-118	25	-119	-0.9113845	-0.01813092	-211.4267	0	11.46	4004	-1	8	-4	0	0.7518557	0.1203474	3	15	0.04	1800	1.419911	40.92392	-91.39365
487015	-87	-97	-82	-0.9598809	-0.003181088	-211.4469	0	11.46	4002	-9	-9	-2	0	0.7518557	0.1150003	3	15	0.04	1800	1.47711	40.92392	-91.39365
487109	-74	-50	43	-0.9554429	0.02385771	-211.4556	0	11.46	4004	-3	-11	0	0	0.7518557	0.1108176	3	15	0.04	1800	1.316128	40.92392	-91.39365
487209	-174	31	-33	-0.9856811	0.01822424	-211.4875	0	11.46	4004	10	22	-2	0	0.7518557	0.1122371	3	15	0.04	1800	0.8712218	40.92392	-91.39365
487358	-107	27	45	-1.014996	0.08440705	-211.5038	0	11.46	4002	18	14	-5	0	0.7518557	0.1158682	3	15	0.04	1800	1.349454	40.92392	-91.39365
487472	-117	0	-121	-1.068248	0.08510555	-211.4878	0	11.51	4004	6	17	-13	0	0.7518557	0.1168967	3	15	0.04	1800	0.9856191	40.92392	-91.39365
487517	-9	41	41	-1.052429	0.08840917	-211.5032	0	11.51	4003	19	18	-14	0	0.7518557	0.1193329	3	15	0.04	1800	0.7473226	40.92392	-91.39365
487596	-92	-90	34	-1.108368	0.1061155	-211.5241	0	11.51	4003	0	-13	-14	0	0.7518557	0.1253491	3	15	0.04	1800	0.8158519	40.92392	-91.39365
487700	-63	49	-68	-1.120713	0.1469471	-211.5232	0	11.51	4002	12	-17	-15	0	0.7518557	0.1371627	3	15	0.04	1800	1.098533	40.92392	-91.39365
487851	-68	-36	35	-1.149632	0.1114204	-211.5679	0	11.51	4003	7	18	-12	0	0.7518557	0.1583631	3	15	0.04	1800	1.77227	40.92392	-91.39365
487965	-82	19	-8	-1.146723	0.09694599	-211.611	0	11.51	4004	-4	29	-12	0	0.7518557	0.1709271	3	15	0.04	1800	0.9572603	40.92392	-91.39365
488064	-164	-52	-61	-1.147955	0.09200928	-211.619	0	11.51	4003	30	-4	-12	0	0.7518557	0.194886	3	15	0.04	1800	1.784953	40.92392	-91.39365
488115	-121	29	-39	-1.143403	0.09363179	-211.6392	0	11.51	4004	0	30	-11	0	0.7518557	0.1969333	3	15	0.04	1800	1.843674	40.92392	-91.39365
488251	-42	62	-80	-1.090397	0.1252562	-211.6448	0	11.51	4003	11	-24	-11	0	0.7518557	0.2185113	3	15	0.04	1800	1.286178	40.92392	-91.39365
488319	-164	15	88	-1.085201	0.1136617	-211.6631	0	11.51	4002	-1	2	-11	0	0.7518557	0.2236339	3	15	0.04	1800	1.047195	40.92392	-91.39365
488510	-44	-68	44	-1.099521	0.08886471	-211.6908	0	11.34	4002	28	8	-12	0	0.7518557	0.2431176	3	15	0.04	1800	1.519964	40.92392	-91.39364
488566	-41	100	24	-1.08453	0.05982765	-211.6967	0	11.34	4004	18	15	-10	0	0.7518557	0.250296	3	15	0.04	1800	1.519964	40.92392	-91.39364
488655	-63	98	56	-1.013613	0.01276753	-211.7226	0	11.34	4004	4	26	-9	0	0.7518557	0.2547125	3	15	0.04	1800	1.632998	40.92392	-91.39364
488698	-87	41	-37	-0.9782643	0.01230224	-211.7274	0	11.34	4002	8	0	-9	0	0.7518557	0.2581349	3	15	0.04	1800	1.605412	40.92392	-91.39364
488794	0	-18	101	-0.927604	-0.02334772	-211.7341	0	11.34	4002	40	-14	-11	0	0.7518557	0.2596965	3	15	0.04	1800	0.5538675	40.92392	-91.39364
488954	0	156	132	-0.9829237	0.03901341	-211.7762	0	11.34	4002	11	-3	-7	0	0.7518557	0.2462948	3	15	0.04	1800	1.741838	40.92392	-91.39364
489011	-51	93	-131	-1.056803	0.05036062	-211.7793	0	11.34	4002	41	-12	-11	0	0.7518557	0.2437268	3	15	0.04	1800	0.9455104	40.92392	-91.39364
489100	-157	30	146	-1.031841	0.05006215	-211.7914	0	11.34	4003	28	4	-9	0	0.7518557	0.2354288	3	15	0.04	1800	1.238917	40.92392	-91.39364
489198	-69	-94	-216	-1.061593	0.09999169	-211.7811	0	11.34	4003	28	-9	-7	0	0.7518557	0.2300363	3	15	0.04	1800	1.035246	40.92392	-91.39364
489416	25	10	-108	-1.045773	0.1292537	-211.8254	0	11.46	4003	18	15	-6	0	0.7518557	0.218876	3	15	0.04	1800	0.7321147	40.92393	-91.39364
489560	-99	-32	-111	-0.8970024	0.1141559	-211.8536	0	11.46	4003	37	0	-5	0	0.7518557	0.2317705	3	15	0.04	1800	1.352389	40.92393	-91.39364
489627	-72	137	-131	-1.012285	0.08867008	-211.8764	0	11.46	4003	56	-11	-7	0	0.7518557	0.2399161	3	15	0.04	1800	0.2019539	40.92393	-91.39364
489822	168	43	-187	-1.125548	0.01403616	-211.9237	0	11.46	4002	56	-41	-3	0	0.7518557	0.2727022	3	15	0.04	1800	1.581328	40.92393	-41.72274
489916	-169	16	37	-1.160058	0.02658965	-211.964	0	11.46	4004	0	14	-5	0	0.7518557	0.2809765	3	15	0.04	1800	1.579661	40.92393	-76.46696
490021	-177	-125	64	-1.250394	0.02979991	-212.0347	0	11.46	4004	47	10	-6	0	0.7518557	0.2865507	3	15	0.04	1800	1.122406	40.92393	-91.27274
490187	-245	-107	343	-1.233454	0.03843354	-212.0936	0	11.46	4003	27	25	-1	0	0.7518557	0.3016309	3	15	0.04	1800	1.508728	40.92393	-91.39266
490257	-281	66	69	-1.290349	-0.05916372	-212.1057	0	11.11	4002	-12	31	-4	0	0.7518557	0.3077496	3	15	0.04	1800	1.966516	40.92393	-91.39362
490324	-24	205	-167	-1.25017	0.008643168	-212.1236	0	11.11	4002	43	8	2	0	0.7518557	0.3114763	3	15	0.04	1800	1.308126	40.92393	-91.39364
490489	-167	-127	6	-1.330985	-0.03192654	-212.1752	0	11.11	4002	13	47	-4	0	0.7518557	0.3100887	3	15	0.04	1800	2.08444	40.92393	-91.39364
490679	-202	21	690	-1.375535	-0.04530518	-212.2382	0	11.11	4004	-6	-15	0	0	0.7518557	0.3071463	3	15	0.04	1800	1.487993	40.92393	-91.39364
490883	-118	-153	448	-1.413555	-0.05026913	-212.2558	0	11.11	4004	10	32	-2	0	0.7518557	0.3108352	3	15	0.04	1800	1.749043	40.92393	-91.39364
491008	-70	-58	368	-1.450974	-0.03532119	-212.2824	0	11.11	4004	44	24	3	0	0.7518557	0.30547	3	15	0.04	1800	1.284435	40.92393	-91.39364
491027	3	12	279	-1.489581	-0.06211647	-212.3009	0	11.11	4002	74	-24	7	0	0.7518557	0.30547	3	15	0.04	1800	2.346986	40.92393	-91.39364
491137	-127	-40	274	-1.490098	-0.06173479	-212.3544	0	11.46	4002	57	-6	2	0	0.7518557	0.2846021	3	15	0.04	1800	1.903535	40.92393	-91.39364
491246	-224	-186	338	-1.411327	-0.07622372	-212.3995	0	11.46	4004	51	-3	7	0	0.7518557	0.2740449	3	15	0.04	1800	1.910808	40.92393	-91.39364
491295	-20	17	230	-1.399621	-0.06264563	-212.4087	0	11.46	4002	56	-19	9	0	0.7518557	0.266619	3	15	0.04	1800	2.251817	40.92393	-91.39364
491397	107	105	48	-1.248992	-0.2737182	-212.4467	0	11.46	4002	26	15	8	0	0.7518557	0.2617512	3	15	0.04	1800	1.87938	40.92393	-91.39364
491501	-269	-214	91	-1.177262	-0.3683218	-212.4625	0	11.46	4003	78	-30	14	0	0.7518557	0.2613238	3	15	0.04	1800	1.90706	40.92393	-91.39364
491601	2	-29	114	-1.213929	-0.3658357	-212.4758	0	11.46	4003	34	9	1	0	0.7518557	0.2598812	3	15	0.04	1800	1.935127	40.92393	-91.39364
491699	-23	-124	-289	-1.163735	-0.3000605	-212.5038	0	11.46	4003	67	-17	10	0	0.7518557	0.2602903	3	15	0.04	1800	1.539079	40.92393	-91.39364
491857	-101	-103	-83	-1.205079	-0.3356374	-212.4965	0	11.46	4004	61	-32	7	0	0.7518557	0.2442551	3	15	0.04	1800	1.003391	40.92393	-91.39364
491907	-232	-17	-80	-1.238303	-0.3690512	-212.4617	0	11.46	4004	18	29	7	0	0.7518557	0.2373183	3	15	0.04	1800	2.029627	40.92393	-91.39364
492079	-126	127	171	-1.509682	-0.2662401	-212.5284	0	11	4003	27	10	12	0	0.7518557	0.2253045	3	15	0.04	1800	2.724381	40.92393	-91.39364
492118	-104	-150	255	-1.437721	-0.1778567	-212.5417	0	11	4004	71	9	2	0	0.7518557	0.2241951	3	15	0.04	1800	2.724381	40.92393	-91.39364
492214	-180	-48	80	-1.361439	-0.1534114	-212.5466	0	11	4004	35	23	6	0	0.7518557	0.2215842	3	15	0.04	1800	1.822153	40.92393	-91.39364
492316	85	160	44	-1.168374	-0.5755916	-212.5455	0	11	4004	76	-5	12	0	0.7518557	0.218365	3	15	0.04	1800	1.954631	40.92393	-91.39363
492479	22	-152	-353	-1.280972	-0.3359641	-212.5581	0	11	4004	56	-23	8	0	0.7518557	0.2057722	3	15	0.04	1800	1.852488	40.92393	-91.39363
492552	-271	-51	418	-1.478215	-0.2395405	-212.588	0	11	4003	18	6	11	0	0.7518557	0.1980864	3	15	0.04	1800	2.652996	40.92393	-91.39363
492676	-2	-43	-335	-1.159709	-0.465726	-212.51	0	11	4003	101	20	10	0	0.7518557	0.2047864	3	15	0.04	1800	2.046787	40.92393	-91.39363
492731	-181	-129	599	-1.30128	-0.4736981	-212.5223	0	11	4004	55	23	12	0	0.7518557	0.2122177	3	15	0.04	1800	1.639732	40.92393	-91.39363
492818	-64	-70	356	-1.32024	-0.4947129	-212.5576	0	11	4002	81	8	4	0	0.7518557	0.221791	3	15	0.04	1800	2.059421	40.92393	-91.39363
492969	9	281	-477	-1.310517	-0.4468399	-212.5466	0	11.11	4004	91	-24	12	0	0.7518557	0.2359309	3	15	0.04	1800	2.429579	40.92393	-91.39363
493034	-13	-150	96	-1.261634	-0.471796	-212.5421	0	11.11	4004	89	10	7	0	0.6808891	0.2441049	8	15	0.04	1800	2.052955	40.92393	-91.39363
493207	-271	-55	198	-1.202608	-0.6001676	-212.4724	0	11.11	4004	54	-19	-1	52	0.419335	0.2660433	8	15	0.04	1800	3.069334	40.92393	-91.39363
493239	-38	-85	-305	-1.131684	-0.6022227	-212.3871	0	11.11	4004	40	42	3	55	0.3816204	0.2728032	8	15	0.04	1800	1.6816	40.92393	-91.39363
493310	-103	236	254	-1.035196	-0.6736238	-212.3522	0	11.11	4004	73	46	-2	51	0.3171284	0.2827286	8	15	0.04	1800	1.6816	40.92393	-91.39363
493417	52	56	-424	-1.083204	-0.8320422	-212.1153	0	11.11	4004	101	-23	3	51	0.2225767	0.2945226	8	15	0.04	1800	1.835685	40.92393	-91.39363
493686	296	13	79	-0.7586127	-1.007208	-212.2936	0	11.11	4003	59	-15	1	103	0.1284679	0.3129117	8	15	0.04	1800	2.027695	40.92393	-91.39363
493771	-589	-47	-162	-0.5353964	-0.927061	-212.5071	0	11.11	4002	39	-12	3	64	0.1050863	0.3122937	8	15	0.04	1800	1.204732	40.92393	-91.39363
493820	-726	-514	-132	-1.1761	-0.6380852	-212.4442	0	11.11	4004	73	22	3	69	0.09313582	0.3067787	8	15	0.04	1800	1.637027	40.92393	-91.39363
493982	228	452	645	-0.8303711	-0.5890405	-213.2721	0	10.6	4003	69	-3	39	63	0.0756152	0.3037665	8	15	0.04	1800	1.438954	40.92393	-91.39363
494201	-219	-1045	-640	-0.5603927	-1.162977	-214.3429	0	10.6	4002	7	-220	48	100	0.05817665	0.3024821	8	15	0.04	1800	3.429214	40.92393	-91.39363
494246	-28	-270	-381	-0.9580427	-3.534483	-213.1096	0	10.6	4002	-36	129	19	54	0.05162955	0.3004958	8	15	0.04	1800	3.898964	40.92393	-91.39363
494328	150	-1151	-1392	-0.8896857	-3.655303	-212.1388	0	10.6	4004	-53	-27	-8	60	0.04983584	0.3053882	8	15	0.04	1800	4.801137	40.92393	-91.39363
494439	-2618	191	98	-2.686807	-4.184741	-211.6801	0	10.6	4004	-22	0	-10	59	0.04720609	0.3237649	8	15	0.04	1800	4.869345	40.92393	-91.39363
494520	-388	320	-141	-2.991315	-3.398249	-211.8489	0	10.6	4002	-38	-38	-18	58	0.04625284	0.3289611	8	15	0.04	1800	4.144195	40.92393	-91.39363
494700	1100	-105	-252	-1.10225	-2.66	-211.6665	0	10.6	4002	-105	-56	-20	106	0.04434869	0.3348975	8	15	0.04	1800	3.651055	40.92393	-91.39363
494782	204	-163	-817	0.5492035	-2.564065	-211.0012	0	11.29	4006	-34	-83	-26	104	0.04393835	0.3358479	8	15	0.04	1800	2.409981	40.92393	-91.39363
494866	-253	-321	1151	0.9529302	-2.575317	-211.0416	0	11.29	4002	-134	62	-17	98	0.04360598	0.3355024	8	15	0.04	1800	0.477492	40.92393	-91.39363
494980	-916	731	-192	0.4376533	-2.322967	-211.9296	0	11.29	4003	-61	-87	-4	59	0.04311867	0.3427151	8	15	0.04	1800	-0.2626648	40.92393	-91.39362
495092	-2054	289	707	-1.729981	-2.423723	-212.1921	0	11.29	4003	-105	-56	4	56	0.04286673	0.3463075	8	15	0.04	1800	-0.2922058	40.92393	-91.39362
495150	-2337	-50	88	-5.470613	-2.508656	-212.1803	0	11.29	4003	71	-119	7	55	0.04273796	0.3475471	8	15	0.04	1800	-1.499451	40.92393	-91.39362
495277	1452	304	-786	-7.499127	-2.628499	-210.2185	0	11.29	4006	-16	-105	-53	54	0.04251316	0.3643986	8	15	0.04	1800	-1.874817	40.92393	-91.39362
495297	1452	304	-786	-7.499127	-2.628499	-210.2185	0	11.29	4006	0	-36	-73	95	0.04248074	0.3684326	8	15	0.04	1800	-1.874817	40.92393	-91.39362
495375	5058	146	-761	-1.493877	-3.427666	-208.852	0	11.29	4002	251	5	-77	62	0.04242531	0.3694795	8	15	0.04	1800	-2.178802	40.92393	-91.39362
495656	1130	1495	490	1.265313	-6.475468	-212.6974	0	11.34	4004	-91	24	13	71	0.04229073	0.3579761	8	15	0.04	1800	1.369544	40.92393	-91.39362
495687	201	-1134	602	1.556599	-6.588793	-213.5468	0	11.34	4002	-64	-151	65	71	0.04225574	0.3511696	8	15	0.04	1800	2.504563	40.92393	-91.39362
495728	-155	-3514	2658	1.877604	-3.462912	-215.8072	0	11.34	4003	-182	-82	98	64	0.04224906	0.3473699	8	15	0.04	1800	2.972604	40.92393	-91.39362
495811	24	126	-846	3.619137	-2.536546	-218.0044	0	11.34	4007	-68	69	137	107	0.04223279	0.3440212	8	15	0.04	1800	8.231017	40.92393	-91.39362
495875	-2253	1068	-2177	1.619458	-2.794328	-216.8946	0	11.34	4003	-36	-14	98	107	0.04222092	0.3434815	8	15	0.04	1800	7.89766	40.92393	-91.39362
496006	-2906	391	-631	-5.649637	-3.149966	-213.5315	0	11.34	4002	-139	33	28	106	0.04220995	0.3416679	8	15	0.04	1800	4.043479	40.92393	-91.39362
496061	-2829	164	-448	-8.213573	-3.206141	-212.7191	0	11.34	4003	-102	-54	15	69	0.04220785	0.342689	8	15	0.04	1800	1.549749	40.92393	-91.39362
496166	-3079	-37	-121	-10.97179	-2.947788	-211.9563	0	11.34	4002	21	-33	-22	72	0.04220137	0.3416363	8	15	0.04	1800	-0.2998657	40.92393	-91.39362
496260	676	347	-240	-13.81958	-2.688577	-210.4636	0	11.34	4003	-2	-22	-45	71	0.04219802	0.3402184	8	15	0.04	1800	-3.360992	40.92393	-91.39362
496440	8554	2473	-1176	0.2191104	-5.687173	-206.0172	0	11.06	4004	286	206	-151	71	0.04219433	0.337259	8	15	0.04	1800	-5.373444	40.92393	-91.39362
496473	908	2521	1309	1.747905	-7.99357	-206.0128	0	11.06	4003	243	-57	-155	105	0.04219331	0.3407706	8	15	0.04	1800	-2.793884	40.92393	-91.39362
496532	-2218	-984	3016	-0.1134597	-10.00148	-209.9258	0	11.06	4003	-40	-17	6	109	0.04219249	0.3437887	8	15	0.04	1800	1.1635	40.92393	-91.39362
496584	2419	-3332	2354	0.3971515	-2.854841	-216.455	0	11.06	4002	-170	-121	117	62	0.04219129	0.3452609	8	15	0.04	1800	6.698427	40.92393	-91.39362
496630	4188	32	1969	5.08475	-2.010148	-218.8677	0	11.06	4003	-91	-333	187	59	0.04219067	0.3532008	8	15	0.04	1800	6.698427	40.92393	-91.39362
496686	2629	-569	809	6.998429	-1.962062	-219.5733	0	11.06	4003	8	27	176	63	0.04219035	0.3577489	8	15	0.04	1800	10.41957	40.92393	-91.39362
496790	-3646	631	-4582	2.098876	-3.788504	-215.2105	0	11.06	4003	-28	-85	16	98	0.04218989	0.3767772	8	15	0.04	1800	9.42622	40.92393	-91.39362
496891	-4055	-20	-1099	-4.336327	-4.088863	-212.7525	0	11.06	4002	-94	57	-2	66	0.04218972	0.38543	8	15	0.04	1800	7.539614	40.92393	-91.39362
496988	-6714	1866	-465	-11.06617	-6.606577	-211.6244	0	11.06	4003	81	-55	-22	105	0.04218953	0.392569	8	15	0.04	1800	4.487241	40.92393	-91.39362
497069	680	-3240	-104	-16.44296	-5.629903	-211.4847	0	11.06	4004	85	185	-17	68	0.04218935	0.3906578	8	15	0.04	1800	0.2329236	40.92393	-91.39362
497177	-12504	-9341	-2561	-22.18766	0.6026341	-208.2987	0	11.23	4002	400	-400	-99	67	0.04218929	0.3852188	8	15	0.04	1800	-2.637634	40.92393	-91.39362
497298	-31085	-19810	1279	-64.23318	30.51468	-208.5085	0	11.23	4004	400	-400	-87	66	0.04218918	0.3741611	8	15	0.04	1800	-14.53943	40.92393	-91.39362
497380	-6353	-4060	-6254	-34.8949	63.50467	-202.0465	0	11.23	4003	-400	-400	-303	72	0.04218915	0.3619817	8	15	0.04	1800	-60.2702	40.92393	-91.39362
497547	-10927	3376	1192	-48.72761	40.99887	-194.8778	0	11.23	4003	0	0	0	0	0.04218908	0.3257525	8	15	0.04	1800	238.3729	40.92393	-91.39362
497594	-1249	484	659	-50.41903	37.4544	-196.4422	0	11.23	4003	0	0	0	0	0.04218907	0.3193549	8	15	0.04	1800	238.3729	40.92393	-91.39362
497724	6345	-1420	1768	-33.01415	38.63205	-197.8524	0	11.23	4004	0	0	0	0	0.04218905	0.2800227	8	15	0.04	1800	230.6405	40.92393	-91.39362
497851	9023	-2601	3621	-20.23025	38.05999	-202.3108	0	11.23	4004	0	0	0	0	0.04218903	0.185504	1	15	0.04	1800	232.3944	40.92393	-91.39362
497991	1196	-1967	1540	-19.69912	40.2168	-211.8432	0	11.23	4002	0	0	0	0	0.04218902	0.1578245	1	15	0.04	1800	252.5862	40.92393	-91.39362
498085	-788	1508	-779	-20.6938	36.13105	-212.0067	0	11.4	4004	0	0	0	0	0.04218902	0.1040462	1	15	0.04	1800	256.0647	40.92393	-91.39362
498191	-444	491	-387	-21.36752	32.06319	-210.5228	0	11.4	4003	0	0	0	0	0.04218902	0.07842084	1	15	0.04	1800	256.1272	40.92393	-91.39362
498401	-218	181	-161	-21.80842	28.08592	-211.2274	0	11.4	4002	0	0	0	0	0.04218902	0.02311046	1	15	0.04	1800	258.8318	40.92394	-91.39362
498510	-34	-58	81	-22.10414	26.2222	-211.1778	0	11.4	4004	0	0	0	0	0.04218902	0.009263596	1	15	0.04	1800	259.3262	40.92395	-91.39362
498607	-77	-4	17	-22.44553	24.1177	-211.2197	0	11.4	4003	0	0	0	0	0.04218902	0.003905258	1	15	0.04	1800	-99.56985	40.92395	-91.39362
498724	-74	0	13	-22.66818	22.7706	-211.239	0	11.4	4003	0	0	0	0	0.04218902	-0.007448914	1	15	0.04	1800	-99.19397	40.92395	-91.39362
498805	-73	-2	15	-22.85824	21.59155	-211.2641	0	11.4	4004	0	0	0	0	0.04218902	-0.01090775	1	15	0.04	1800	-98.24121	40.92395	-91.39362
498971	-81	-1	17	-23.07925	20.24579	-211.295	0	11.4	4003	0	0	0	0	0.04218902	-0.03481064	1	15	0.04	1800	-97.60489	40.92395	-91.39362
499020	-72	-1	12	-23.17645	19.65808	-211.3132	0	11.4	4003	0	0	0	0	0.04218902	-0.04447667	1	15	0.04	1800	-97.33209	40.92395	-91.39362
499100	-74	0	11	-23.30581	18.86783	-211.337	0	11.4	4003	0	0	0	0	0.04218902	-0.06521378	1	15	0.04	1800	-96.91006	40.92395	-91.39362
499213	-76	-5	12	-23.38013	18.39528	-211.3542	0	11.4	4003	0	0	0	0	0.04218902	-0.08200771	1	15	0.04	1800	-96.80145	40.92395	-91.39361
499334	-73	-7	19	-23.55524	17.38067	-211.4002	0	11.4	4004	0	0	0	0	0.04218902	-0.09465604	1	15	0.04	1800	-96.29938	40.92396	-91.39361
499411	-75	-8	11	-23.61366	17.04051	-211.4168	0	11.4	4003	0	0	0	0	0.04218902	-0.1162457	1	15	0.04	1800	-96.1564	40.92396	-91.39361
499592	-71	-3	15	-23.74739	16.29565	-211.465	0	11.4	4003	0	0	0	0	0.04218902	-0.132167	1	15	0.04	1800	-95.73563	40.92396	-91.39359
499659	-65	-1	13	-23.7975	16.04221	-211.4816	0	11.4	4003	0	0	0	0	0.04218902	-0.1365961	1	15	0.04	1800	-95.48123	40.92396	-91.39359
499809	-77	1	13	-23.89969	15.49843	-211.5217	0	11.4	4004	0	0	0	0	0.04218902	-0.1321821	1	15	0.04	1800	-95.44568	40.92397	-91.39359
499842	-77	-5	12	-23.91834	15.40444	-211.5303	0	11.4	4004	0	0	0	0	0.04218902	-0.1310706	1	15	0.04	1800	-95.44568	40.92397	-91.39359
499919	-87	-4	7	-23.95428	15.2245	-211.5462	0	11.4	4004	0	0	0	0	0.04218902	-0.1253709	1	15	0.04	1800	-95.30927	40.92397	-91.39359
500069	-74	-3	9	-24.02082	14.90376	-211.5775	0	11.4	4004	0	0	0	0	0.04218902	-0.1316497	1	15	0.04	1800	-95.01627	40.92397	-91.39359
500203	-77	0	12	-24.0841	14.63908	-211.5998	0	11.4	4004	0	0	0	0	0.04218902	-0.1413459	1	15	0.04	1800	-95.05084	40.92398	-91.39358
500241	-74	-1	8	-24.1065	14.52715	-211.612	0	11.4	4003	0	0	0	0	0.04218902	-0.144403	1	15	0.04	1800	-94.87717	40.92398	-91.39358
500318	-70	0	8	-24.12758	14.4226	-211.6222	0	11.4	4002	0	0	0	0	0.04218902	-0.1528844	1	15	0.04	1800	-94.94223	40.92398	-91.39358
500499	-1872	3408	-2383	-25.60708	11.22983	-210.7657	0	11.4	4003	0	0	0	0	0.04218902	-0.1647607	1	15	0.04	1800	-93.01501	40.92398	-91.39357
500523	-1872	3408	-2383	-25.60708	11.22983	-210.7657	0	11.4	4003	0	0	0	0	0.04218902	-0.1650067	1	15	0.04	1800	-93.01501	40.92398	-91.39357
500664	1200	-1517	1341	-24.81123	12.20703	-209.5753	0	11.4	4003	0	0	0	0	0.04218902	-0.1526275	1	15	0.04	1800	259.7037	40.92398	-91.39357
500793	244	-979	309	-24.18333	13.94316	-210.5705	0	11.4	4003	0	0	0	0	0.04218902	-0.1225251	1	15	0.04	1800	-97.20749	40.92397	-91.39357
500887	7140	-15897	3158	-16.85741	26.16258	-213.7065	0	11.46	4004	0	0	0	0	0.04218902	-0.1151321	1	15	0.04	1800	-98.61865	40.92397	-91.39356
500926	-1749	-13745	-2187	-16.88487	32.69722	-213.8408	0	11.46	4004	0	0	0	0	0.04218902	-0.1116314	1	15	0.04	1800	-89.54105	40.92397	-91.39356
501031	3049	-15026	-445	-12.43885	56.60055	-209.4304	0	11.46	4004	0	0	0	0	0.04218902	-0.1140135	1	15	0.04	1800	-86.78207	40.92396	-91.39356
501138	1589	-14803	1034	-13.06237	64.55801	-209.8701	0	11.46	4002	0	0	0	0	0.04218902	-0.1196888	1	15	0.04	1800	-80.98602	40.92396	-91.39356
501227	-909	-5723	4257	-24.32988	65.57034	-215.841	0	11.46	4004	0	0	0	0	0.04218902	-0.1261799	1	15	0.04	1800	-63.4299	40.92395	-91.39355
501335	-1266	-2913	4650	-32.39355	58.55526	-220.8001	0	11.46	4002	0	0	0	0	0.04218902	-0.1284206	1	15	0.04	1800	-49.25146	40.92395	-91.39355
501425	409	-1771	2013	-37.87989	45.6791	-226.2196	0	11.46	4004	0	0	0	0	0.04218902	-0.1274698	1	15	0.04	1800	-29.79181	40.92394	-91.39355
501567	-3252	-2386	-2005	-41.36211	36.11624	-226.419	0	11.46	4003	0	0	0	0	0.04218902	-0.1163504	1	15	0.04	1800	-24.77386	40.92393	-91.39355
501639	-3850	-3036	-2612	-42.51965	34.41305	-223.0993	0	11.46	4003	0	0	0	0	0.04218902	-0.1009001	1	15	0.04	1800	-26.42975	40.92393	-91.39355
501728	-4396	-2384	-4109	-43.57354	33.29203	-215.1313	0	11.46	4003	0	0	0	0	0.04218902	-0.08116991	1	15	0.04	1800	-28.81766	40.92393	-91.39355
501835	-4942	205	-4306	-45.40585	30.41927	-206.8661	0	11.46	4004	0	0	0	0	0.04218902	-0.04625116	1	15	0.04	1800	-39.40875	40.92393	-91.39355
501934	-3530	726	-3880	-46.93474	26.4619	-202.4781	0	11.46	4004	0	0	0	0	0.04218902	-0.004266326	1	15	0.04	1800	-45.548	40.92393	-91.39355
502034	-5597	-3880	1599	-51.26723	20.2781	-200.8839	0	11.46	4003	0	0	0	0	0.04218902	0.02588133	1	15	0.04	1800	-52.27676	40.92392	-91.39355
502133	-6826	-3586	1469	-58.38723	17.52462	-202.6595	0	11.46	4003	0	0	0	0	0.04218902	0.04901172	1	15	0.04	1800	-50.94165	40.92392	-91.39355
502257	-697	220	-988	-62.36234	9.312534	-203.9881	0	11.46	4002	0	0	0	0	0.04218902	0.07586413	1	15	0.04	1800	-52.7702	40.92392	-91.39355
502464	-5353	-1297	-2131	-64.33769	10.54709	-192.9256	0	11.46	4003	0	0	0	0	0.04218902	0.1177209	1	15	0.04	1800	-63.15018	40.92391	-91.39356
502554	-4486	-837	46	-68.10841	9.240011	-191.6466	0	11.46	4004	0	0	0	0	0.04218902	0.1344134	1	15	0.04	1800	-66.24716	40.92391	-91.39357
502644	-1364	-2423	541	-69.46087	6.299065	-192.4615	0	11.46	4003	0	0	0	0	0.04218902	0.15355	1	15	0.04	1800	-67.45462	40.92391	-91.39357
502759	-1668	-5915	-5265	-64.64256	14.00125	-186.901	0	11.46	4007	0	0	0	0	0.04218902	0.1674013	1	15	0.04	1800	-63.64972	40.92391	-91.39358
502851	-4106	-5829	-2133	-64.29478	24.57981	-180.0956	0	11.46	4003	0	0	0	0	0.04218902	0.1753846	1	15	0.04	1800	-62.59634	40.92391	-91.39358
503044	-1786	-1760	-3798	-60.65829	28.0048	-164.0223	0	11.46	4003	0	0	0	0	0.04218902	0.1817627	1	15	0.04	1800	-75.38782	40.92391	-91.39358
503087	-3158	-1693	-3128	-60.27139	28.00862	-162.1679	0	11.46	4003	0	0	0	0	0.04218902	0.1853163	1	15	0.04	1800	-75.38782	40.92391	-91.39358
503165	-3066	-2042	-2149	-60.80231	27.18719	-159.3528	0	11.46	4002	0	0	0	0	0.04218902	0.197152	1	15	0.04	1800	-78.99207	40.92391	-91.39358
503344	2226	-3301	3698	-51.19508	24.0368	-155.9598	0	11.46	4003	0	0	0	0	0.04218902	0.2078348	1	15	0.04	1800	-80.83514	40.92391	-91.39359
503417	1107	-181	9825	-50.08675	12.78746	-165.014	0	11.46	4002	0	0	0	0	0.04218902	0.2101866	1	15	0.04	1800	-75.06168	40.9239	-91.39358
503583	621	2957	3959	-43.90182	-24.32837	-187.7257	0	11.46	4003	0	0	0	0	0.04218902	0.1888902	1	15	0.04	1800	-62.97681	40.9239	-91.39358
503664	159	-38	2484	-42.4544	-28.92205	-190.9217	0	11.51	4003	0	0	0	0	0.04218902	0.1842612	1	15	0.04	1800	-61.8555	40.9239	-91.39358
503753	2100	-1407	4426	-38.70033	-31.24833	-196.546	0	11.51	4003	0	0	0	0	0.04218902	0.1797253	1	15	0.04	1800	-56.76553	40.9239	-91.39358
503870	2308	161	864	-30.63148	-34.83671	-204.1039	0	11.51	4004	0	0	0	0	0.04218902	0.1795219	1	15	0.04	1800	-47.01233	40.9239	-91.39358
503954	1639	337	-3653	-30.32008	-34.79126	-202.7343	0	11.51	4004	0	0	0	0	0.04218902	0.1879037	1	15	0.04	1800	-47.13855	40.9239	-91.39358
504058	-984	461	-11294	-36.96061	-28.30106	-190.0768	0	11.51	4003	0	0	0	0	0.04218902	0.1952741	1	15	0.04	1800	-53.20142	40.92389	-91.39359
504165	63	-1287	-8464	-48.45427	-16.07047	-167.3917	0	11.51	4002	0	0	0	0	0.04218902	0.2070587	1	15	0.04	1800	-79.56097	40.9239	-91.3936
504269	-2754	-4171	-6107	-50.5948	-8.613331	-159.667	0	11.51	4003	0	0	0	0	0.04218902	0.2185529	1	15	0.04	1800	-86.09335	40.9239	-91.3936
504355	240	-4767	-2224	-53.2284	0.7387802	-152.5794	0	11.51	4003	0	0	0	0	0.04218902	0.2291592	1	15	0.04	1800	-88.30554	40.92389	-91.3936
504515	1266	133	7746	-47.77184	-4.407503	-157.5771	0	11.46	4003	0	0	0	0	0.04218902	0.2505409	1	15	0.04	1800	-79.87518	40.92389	-91.39361
504641	3216	6776	5588	-40.46148	-30.7964	-174.7484	0	11.46	4003	0	0	0	0	0.04218902	0.2662616	1	15	0.04	1800	-71.00806	40.92389	-91.39361
504691	3143	5333	5536	-37.24903	-36.22301	-177.8356	0	11.46	4003	0	0	0	0	0.04218902	0.2743156	1	15	0.04	1800	-71.00806	40.9239	-91.39362
504747	613	1811	5049	-32.54893	-42.79003	-183.3916	0	11.46	4004	0	0	0	0	0.04218902	0.2779006	1	15	0.04	1800	-68.98975	40.9239	-91.39362
504850	-28	589	6455	-28.06326	-47.34132	-193.0618	0	11.46	4004	0	0	0	0	0.04218902	0.2762069	1	15	0.04	1800	-64.52972	40.9239	-91.39362
505105	486	757	-5145	-24.83212	-50.66901	-203.4009	0	11.46	4004	0	0	0	0	0.04218902	0.2741223	1	15	0.04	1800	-47.50693	40.92392	-91.39362
505205	1701	-556	-13867	-42.12103	-36.55798	-181.2493	0	11.46	4004	0	0	0	0	0.04218902	0.2735409	1	15	0.04	1800	-70.39865	40.92392	-91.39362
505263	220	-761	-12126	-45.8993	-30.91394	-174.1607	0	11.46	4004	0	0	0	0	0.04218902	0.2702805	1	15	0.04	1800	-70.39865	40.92393	-91.39362
505374	-1628	-2846	-1733	-51.59381	-15.1681	-157.1432	0	11.46	4003	0	0	0	0	0.04218902	0.2690143	1	15	0.04	1800	-94.18152	40.92393	-91.39362
505491	673	-2180	796	-52.95504	-14.37802	-158.45	0	11.51	4002	0	0	0	0	0.04218902	0.2872289	1	15	0.04	1800	-93.84018	40.92393	-91.39362
505574	2800	-642	1733	-48.80564	-16.13531	-159.4239	0	11.51	4002	0	0	0	0	0.04218902	0.2927658	1	15	0.04	1800	-89.01944	40.92393	-91.39362
505649	-839	3749	6807	-44.5829	-26.17996	-167.5585	0	11.51	4003	0	0	0	0	0.04218902	0.2996562	1	15	0.04	1800	-86.46509	40.92393	-91.39362
505759	486	4805	7430	-39.1507	-42.25616	-176.9957	0	11.51	4002	0	0	0	0	0.04218902	0.3047435	1	15	0.04	1800	-80.53745	40.92393	-91.39362
505866	-4171	595	6509	-35.13182	-53.01068	-189.4333	0	11.51	4002	0	0	0	0	0.04218902	0.2955961	1	15	0.04	1800	-73.64056	40.92393	-91.39363
505960	472	-561	4269	-31.45356	-54.9506	-198.4931	0	11.51	4002	0	0	0	0	0.04218902	0.2915197	1	15	0.04	1800	-58.33444	40.92393	-91.39363
506120	3016	-879	-654	-25.84512	-52.91501	-201.4043	0	11.51	4003	0	0	0	0	0.04218902	0.3151332	1	15	0.04	1800	-53.97577	40.92393	-91.39363
506172	-39	-622	-2901	-28.05414	-48.23436	-198.1288	0	11.51	4002	0	0	0	0	0.04218902	0.3211958	1	15	0.04	1800	-55.87833	40.92393	-91.39364
506265	-1587	1682	-4958	-33.42209	-45.73198	-193.9392	0	11.51	4004	0	0	0	0	0.04218902	0.3455107	1	15	0.04	1800	-60.21606	40.92393	-91.39364
506413	-212	-2342	-4438	-44.24486	-36.48392	-180.4228	0	11.46	4003	0	0	0	0	0.04218902	0.372652	1	15	0.04	1800	-78.0704	40.92393	-91.39364
506580	-486	1775	-1788	-45.92967	-30.24861	-175.4359	0	11.46	4004	0	0	0	0	0.04218902	0.3978253	1	15	0.04	1800	-81.0253	40.92393	-91.39364
506712	-280	-361	-1928	-48.51894	-30.14265	-171.6594	0	11.46	4003	0	0	0	0	0.04218902	0.3810287	1	15	0.04	1800	-85.34052	40.92393	-91.39364
506753	751	-529	753	-48.36529	-29.33437	-170.775	0	11.46	4004	0	0	0	0	0.04218902	0.37763	1	15	0.04	1800	-87.31754	40.92393	-91.39364
506874	2862	4256	9244	-37.59861	-42.81779	-183.546	0	11.46	4003	0	0	0	0	0.04218902	0.3724427	1	15	0.04	1800	-79.87366	40.92393	-91.39364
506962	3326	3754	8135	-27.34631	-52.14057	-193.4495	0	11.46	4003	0	0	0	0	0.04218902	0.3737195	1	15	0.04	1800	-69.68918	40.92393	-91.39364
507055	4676	273	3264	-15.55628	-57.35773	-202.5165	0	11.46	4004	0	0	0	0	0.04218902	0.3781772	1	15	0.04	1800	-61.1998	40.92393	-91.39364
507159	4033	656	728	-10.06954	-55.73695	-205.3939	0	11.46	4003	0	0	0	0	0.04218902	0.3840136	1	15	0.04	1800	-54.77563	40.92393	-91.39364
507263	2424	-662	-1302	-8.600167	-54.42696	-205.1245	0	11.46	4003	0	0	0	0	0.04218902	0.3916855	1	15	0.04	1800	-55.63293	40.92393	-91.39363
