time(ms)	gyro_x(deg/s)	gyro_y(deg/s)	gyro_z(deg/s)	orientation_roll(deg)	orientation_pitch(deg)	orientation_yaw(deg)	throttle	battery(V)	loop_time(uS)	pid_output_roll	pid_output_pitch	pid_output_yaw	pid_output_throttle	ultrasonic_alt	baro_alt	flight_mode	p_gain_altitude	i_gain_altitude	d_gain_altitude	compass_heading	latitude	longitude
162938	15	0	0	0.1393711	-0.02145824	0.5265601	0	11.97	4003	0	0	0	0	0.7261307	0.08599299	1	10	0.04	1800	-1.352692	40.92395	-91.39361
163043	7	1	-4	0.1370855	-0.01602546	0.528333	0	11.97	4002	0	0	0	0	0.7261307	0.08402562	1	10	0.04	1800	-1.574951	40.92395	-91.39361
163138	15	-2	-2	0.1389283	-0.02114981	0.532429	0	11.97	4004	0	0	0	0	0.7261307	0.08958425	1	10	0.04	1800	-1.582275	40.92395	-91.39361
163265	16	4	-1	0.1447578	-0.02247052	0.536342	0	11.97	4003	0	0	0	0	0.7261307	0.09096847	1	10	0.04	1800	-1.587433	40.92395	-91.39361
163333	16	1	-9	0.145579	-0.02343119	0.5391546	0	11.97	4004	0	0	0	0	0.7261307	0.0892722	1	10	0.04	1800	-1.592468	40.92395	-91.39361
163441	18	-5	-4	0.1489005	-0.01864376	0.5425171	0	11.97	4002	0	0	0	0	0.7261307	0.09299931	1	10	0.04	1800	-1.371857	40.92395	-91.39361
163541	14	0	0	0.1519469	-0.0182919	0.5450239	0	11.97	4003	0	0	0	0	0.7261307	0.09398429	1	10	0.04	1800	-1.59967	40.92395	-91.39361
163696	12	-4	1	0.1555853	-0.01731077	0.548264	0	11.97	4003	0	0	0	0	0.7261307	0.0925485	1	10	0.04	1800	-1.83609	40.92395	-91.39361
163859	9	4	-4	0.1542664	-0.01679702	0.5516266	0	11.97	4003	0	0	0	0	0.7261307	0.07589667	1	10	0.04	1800	-1.381622	40.92395	-91.39361
163953	12	-2	0	0.1469195	-0.01420695	0.5553561	0	11.97	4002	0	0	0	0	0.7261307	0.0712871	1	10	0.04	1800	-1.370728	40.92395	-91.39361
164053	8	-2	0	0.1508704	-0.01449483	0.5570068	0	11.97	4003	0	0	0	0	0.7261307	0.05908559	1	10	0.04	1800	-1.365784	40.92395	-91.39361
164157	10	4	-3	0.1429165	-0.02154569	0.5606137	0	11.97	4002	0	0	0	0	0.7261307	0.05404287	1	10	0.04	1800	-1.591766	40.92395	-91.39361
164262	13	2	1	0.1381249	-0.0246227	0.5644045	0	11.97	4002	0	0	0	0	0.7261307	0.04974976	1	10	0.04	1800	-1.582001	40.92395	-91.39361
164419	11	-1	0	0.1351792	-0.03171779	0.5671557	0	11.97	4003	0	0	0	0	0.7261307	0.05160415	1	10	0.04	1800	-1.588867	40.92395	-91.39361
164521	8	4	2	0.1331348	-0.02613066	0.5696619	0	11.91	4004	0	0	0	0	0.7261307	0.04355466	1	10	0.04	1800	-1.795868	40.92395	-91.39361
164591	13	10	-3	0.1338704	-0.02832233	0.5718625	0	11.91	4004	0	0	0	0	0.7261307	0.03865826	1	10	0.04	1800	-1.350098	40.92395	-91.39361
164678	17	-5	1	0.1336965	-0.02686576	0.5736355	0	11.91	4002	0	0	0	0	0.7261307	0.03180061	1	10	0.04	1800	-1.799774	40.92395	-91.39361
164771	6	5	-1	0.137398	-0.01935003	0.5773033	0	11.91	4002	0	0	0	0	0.7261307	0.0202863	1	10	0.04	1800	-1.58136	40.92395	-91.39361
164870	10	2	-2	0.1405884	-0.0215958	0.5782204	0	11.91	4002	0	0	0	0	0.7261307	0.01077286	1	10	0.04	1800	-1.587494	40.92395	-91.39361
164977	13	-4	-3	0.1417239	-0.0220186	0.5819495	0	11.91	4003	0	0	0	0	0.7261307	-0.0009654111	1	10	0.04	1800	-1.587372	40.92395	-91.39361
165076	16	-2	-6	0.1415951	-0.02739674	0.5869627	0	11.91	4003	0	0	0	0	0.7261307	-0.01005682	1	10	0.04	1800	-1.361969	40.92395	-91.39361
165178	9	1	-1	0.1403586	-0.0285955	0.5891027	0	11.91	4003	0	0	0	0	0.7261307	-0.0195268	1	10	0.04	1800	-1.818909	40.92395	-91.39361
165431	12	0	0	0.1514551	-0.02828074	0.5947279	0	11.97	4004	0	0	0	0	0.7261307	-0.03289956	1	10	0.04	1800	-1.597626	40.92395	-91.39361
165623	19	-3	-4	0.1497349	-0.03493646	0.5990689	0	11.97	4004	0	0	0	0	0.7261307	-0.01992645	1	10	0.04	1800	-1.597321	40.92395	-91.39361
165735	14	2	3	0.1458435	-0.03316696	0.6017591	0	11.97	4002	0	0	0	0	0.7261307	-0.01318327	1	10	0.04	1800	-1.594116	40.92395	-91.39361
165801	9	1	-5	0.1422658	-0.03162688	0.604877	0	11.97	4004	0	0	0	0	0.7261307	-0.01317509	1	10	0.04	1800	-1.582855	40.92395	-91.39361
165901	11	-2	-1	0.1460433	-0.0359281	0.6068334	0	11.97	4003	0	0	0	0	0.7261307	-0.0136426	1	10	0.04	1800	-1.587006	40.92395	-91.39361
166022	13	2	-3	0.1440643	-0.03869706	0.6131915	0	11.97	4003	0	0	0	0	0.7261307	-0.01110647	1	10	0.04	1800	-1.581543	40.92395	-91.39361
166105	12	6	-3	0.1436852	-0.03564826	0.6144144	0	11.97	4002	0	0	0	0	0.7261307	-0.006195486	1	10	0.04	1800	-1.586395	40.92395	-91.39361
166210	8	-3	0	0.149044	-0.03062508	0.6187552	0	11.97	4004	0	0	0	0	0.7261307	0.002963356	1	10	0.04	1800	-1.600525	40.92395	-91.39361
166384	14	2	-2	0.1444552	-0.03580696	0.6226069	0	11.91	4003	0	0	0	0	0.7261307	0.005473677	1	10	0.04	1800	-1.367432	40.92395	-91.39361
166488	13	3	-2	0.1436581	-0.03871521	0.627987	0	11.91	4002	0	0	0	0	0.7261307	-0.000389415	1	10	0.04	1800	-1.361603	40.92395	-91.39361
166532	5	0	0	0.1369621	-0.04352784	0.6296378	0	11.91	4004	0	0	0	0	0.7261307	-0.002068966	1	10	0.04	1800	-1.591705	40.92395	-91.39361
166612	9	-2	-8	0.135763	-0.03686051	0.6317164	0	11.91	4002	0	0	0	0	0.7261307	-0.001484526	1	10	0.04	1800	-1.354584	40.92395	-91.39361
166744	14	0	-3	0.1435238	-0.03259553	0.6347734	0	11.91	4003	0	0	0	0	0.7261307	0.004584654	1	10	0.04	1800	-1.580841	40.92395	-91.39361
166819	11	-3	-1	0.1524019	-0.03104755	0.6374024	0	11.91	4004	0	0	0	0	0.7261307	0.009655253	1	10	0.04	1800	-1.606323	40.92395	-91.39361
166922	15	0	-8	0.1550723	-0.03245066	0.6398478	0	11.91	4004	0	0	0	0	0.7261307	0.01855412	1	10	0.04	1800	-1.621033	40.92395	-91.39361
167069	14	-3	-4	0.1544849	-0.02202927	0.6440663	0	11.91	4003	0	0	0	0	0.7261307	0.02635483	1	10	0.04	1800	-1.380585	40.92395	-91.39361
167147	7	1	-2	0.1550403	-0.02727658	0.6489576	0	11.91	4004	0	0	0	0	0.7261307	0.02861399	1	10	0.04	1800	-1.832001	40.92395	-91.39361
167225	17	-4	-1	0.1602035	-0.02765998	0.6509752	0	11.91	4004	0	0	0	0	0.7261307	0.04375274	1	10	0.04	1800	-1.614868	40.92395	-91.39361
167325	13	-3	-1	0.1526857	-0.02752664	0.6572114	0	11.97	4003	0	0	0	0	0.7261307	0.05131049	1	10	0.04	1800	-1.608002	40.92395	-91.39361
167500	9	-3	-3	0.1487956	-0.03293929	0.6619192	0	11.97	4003	0	0	0	0	0.7261307	0.06045641	1	10	0.04	1800	-1.598999	40.92395	-91.39361
167577	17	0	-1	0.1501489	-0.03423201	0.6645475	0	11.97	4002	0	0	0	0	0.7261307	0.06177462	1	10	0.04	1800	-1.602478	40.92395	-91.39361
167630	12	4	-1	0.153047	-0.03447397	0.6666259	0	11.97	4003	0	0	0	0	0.7261307	0.06359976	1	10	0.04	1800	-1.599182	40.92395	-91.39361
167732	12	5	-3	0.151709	-0.03420848	0.669866	0	11.97	4002	0	0	0	0	0.7261307	0.06398679	1	10	0.04	1800	-1.603455	40.92395	-91.39361
167858	9	-2	-6	0.1516174	-0.02936201	0.6744514	0	11.97	4004	0	0	0	0	0.7261307	0.06776611	1	10	0.04	1800	-1.380432	40.92395	-91.39361
167937	14	2	-3	0.1498768	-0.02668788	0.6757963	0	11.97	4003	0	0	0	0	0.7261307	0.06431024	1	10	0.04	1800	-1.37674	40.92395	-91.39361
168083	12	3	-5	0.1465554	-0.0225791	0.6814818	0	11.97	4002	0	0	0	0	0.7261307	0.05487151	1	10	0.04	1800	-1.817413	40.92395	-91.39361
168269	9	0	2	0.1552001	-0.02882511	0.6834383	0	11.97	4002	0	0	0	0	0.7261307	0.04126551	1	10	0.04	1800	-1.610168	40.80831	49.56339
168471	12	0	-1	0.1519997	-0.02743165	0.6908967	0	11.97	4003	0	0	0	0	0.7261307	0.04001816	1	10	0.04	1800	-1.602753	40.92299	-90.22302
168645	9	-5	-2	0.1559587	-0.02207335	0.6976833	0	11.97	4003	0	0	0	0	0.7261307	0.05611476	1	10	0.04	1800	-1.610718	40.92395	-91.39275
168751	11	3	-1	0.1558731	-0.02572182	0.6992729	0	11.97	4002	0	0	0	0	0.7261307	0.05986238	3	10	0.04	1800	-1.610046	40.92395	-91.3936
168846	14	0	-1	0.1594682	-0.03112441	0.7030022	0	11.97	4003	0	0	0	0	0.7261307	0.06388705	3	10	0.04	1800	-1.617798	40.92395	-91.39361
168999	4	3	-1	0.1575599	-0.02877851	0.707404	0	11.97	4002	0	0	0	0	0.7261307	0.06949843	3	10	0.04	1800	-1.391418	40.92395	-91.39361
169043	19	0	-6	0.1587859	-0.02845148	0.7089324	0	11.97	4004	0	0	0	0	0.7261307	0.07272927	3	10	0.04	1800	-1.386108	40.92395	-91.39361
169170	10	0	-7	0.1521571	-0.03119885	0.713151	0	11.97	4003	0	0	0	0	0.7261307	0.08078656	3	10	0.04	1800	-1.385254	40.92395	-91.39361
169249	13	-4	-3	0.1487657	-0.02945602	0.715535	0	11.97	4003	0	0	0	0	0.7261307	0.09595113	3	10	0.04	1800	-1.371399	40.92395	-91.39361
169416	11	-7	-1	0.1499054	-0.02496058	0.7205478	0	11.97	4002	0	0	0	0	0.7261307	0.09966572	3	10	0.04	1800	-1.596252	40.92395	-91.39361
169562	16	-6	-2	0.1497807	-0.02219279	0.7256221	0	11.97	4002	0	0	0	0	0.7261307	0.09487984	3	10	0.04	1800	-1.601227	40.92395	-91.39361
169700	16	-2	0	0.1524609	-0.022135	0.7267225	0	11.97	4002	0	0	0	0	0.7261307	0.09189139	3	10	0.04	1800	-1.14798	40.92395	-91.39361
169794	10	1	-2	0.1556011	-0.0223837	0.7292292	0	11.97	4003	0	0	0	0	0.7261307	0.09328383	3	10	0.04	1800	-1.382355	40.92395	-91.39361
169851	13	-1	-7	0.1539869	-0.02139652	0.7310019	0	11.97	4002	0	0	0	0	0.7261307	0.0971244	3	10	0.04	1800	-1.382355	40.92395	-91.39361
169951	15	1	0	0.1599727	-0.0231832	0.7353426	0	11.97	4003	0	0	0	0	0.7261307	0.09801689	3	10	0.04	1800	-1.381531	40.92395	-91.39361
170110	11	3	-2	0.1584773	-0.02037027	0.7390106	0	11.91	4002	0	0	0	0	0.7261307	0.08562628	3	10	0.04	1800	-1.625488	40.92395	-91.39361
170170	11	4	-1	0.1616701	-0.02303688	0.7421283	0	11.91	4003	0	0	0	0	0.7261307	0.07993115	3	10	0.04	1800	-1.612427	40.92395	-91.39361
170327	17	-2	0	0.1566296	-0.0309824	0.7464077	0	11.91	4003	0	0	0	0	0.7261307	0.06198302	3	10	0.04	1800	-1.612	40.92395	-91.39361
170377	14	0	-1	0.1566398	-0.03078807	0.749343	0	11.91	4004	0	0	0	0	0.7261307	0.05902568	3	10	0.04	1800	-1.607147	40.92395	-91.39361
170484	13	-1	-2	0.1519177	-0.03379441	0.7510546	0	11.91	4003	0	0	0	0	0.7261307	0.04812616	3	10	0.04	1800	-1.601074	40.92395	-91.39361
170575	10	-1	0	0.1497263	-0.03057394	0.7558231	0	11.91	4002	0	0	0	0	0.7261307	0.04383637	3	10	0.04	1800	-1.375	40.92395	-91.39361
170691	11	2	-5	0.1545815	-0.03141633	0.7586357	0	11.91	4003	0	0	0	0	0.7261307	0.05071793	3	10	0.04	1800	-1.601685	40.92395	-91.39361
170797	15	-1	-3	0.152455	-0.0325551	0.763343	0	11.91	4004	0	0	0	0	0.7261307	0.06205714	3	10	0.04	1800	-1.601776	40.92395	-91.39361
170864	11	8	-6	0.1524738	-0.03092731	0.7657273	0	11.91	4002	0	0	0	0	0.7261307	0.06983252	3	10	0.04	1800	-1.378632	40.92395	-91.39361
170968	14	0	-3	0.1536291	-0.03215805	0.7675615	0	11.91	4003	0	0	0	0	0.7261307	0.06976362	3	10	0.04	1800	-1.374115	40.92395	36.55744
171070	13	-1	1	0.1534341	-0.03495194	0.7692735	0	11.91	4003	0	0	0	0	0.7261307	0.07281594	3	10	0.04	1800	-1.376953	40.92395	90.94943
171210	15	-1	-3	0.1533963	-0.03075857	0.7732474	0	11.91	4002	0	0	0	0	0.7261307	0.07640451	3	10	0.04	1800	-1.61795	40.92395	-86.47034
171302	9	2	-3	0.1474643	-0.03100685	0.7788716	0	11.91	4003	0	0	0	0	0.7261307	0.0670341	3	10	0.04	1800	-1.371735	40.92395	-91.35373
171380	16	-3	-2	0.1497107	-0.03017981	0.7809502	0	11.91	4003	0	0	-1	0	0.7261307	0.05478589	3	10	0.04	1800	-1.607666	40.92395	-91.39002
171484	13	-2	1	0.1502261	-0.02670837	0.782723	0	11.91	4003	0	0	-5	0	0.7261307	0.0357126	3	10	0.04	1800	-1.593567	40.92395	-91.39358
171592	17	-1	-4	0.1544979	-0.0296848	0.7853518	0	11.91	4003	-1	0	-5	0	0.7261307	0.0270697	3	10	0.04	1800	-1.599274	40.92395	-91.39361
171680	2	21	32	0.1473653	-0.02245673	0.7857189	0	11.91	4003	-1	0	-8	0	0.7261307	0.02315123	3	10	0.04	1800	-1.602264	40.92395	-91.39361
171802	51	-90	-217	0.09867087	0.004919824	0.7859007	0	11.91	4003	1	0	-26	0	0.7261307	0.01585626	3	10	0.04	1800	-1.992126	40.92395	-91.39361
171922	51	-5	-1	0.1140929	0.005035508	0.8024207	0	11.97	4003	5	2	-37	0	0.7261307	0.01122209	3	10	0.04	1800	-2.243805	40.92395	-91.39361
171988	83	26	11	0.1234984	-0.009887922	0.7859754	0	11.97	4003	2	-4	-46	0	0.7261307	0.008067533	3	10	0.04	1800	-1.953827	40.92395	-91.39361
172090	-39	-9	18	0.1391072	-0.02602012	0.7962478	0	11.97	4004	0	4	-47	0	0.7261307	0.004664002	3	10	0.04	1800	-1.7612	40.92395	-91.39361
172191	-30	-45	-1	0.1314543	-0.0003785706	0.8079842	0	11.97	4003	5	-1	-55	0	0.7261307	-0.0006500381	3	10	0.04	1800	-1.980743	40.92395	-91.39361
172312	-12	0	-38	0.1569966	-0.000713483	0.8218618	0	11.97	4003	-28	3	-56	0	0.7261307	-0.004732132	3	10	0.04	1800	-2.076019	40.92395	-91.39361
172394	-19	8	-23	0.1595033	-0.02719074	0.829625	0	11.97	4003	0	0	0	0	0.7261307	-0.00561442	3	10	0.04	1800	-2.282837	40.92395	-91.39361
172571	-39	-25	39	0.178482	-0.01851045	0.8317654	0	11.97	4003	1	-1	0	0	0.7261307	0.003657813	3	10	0.04	1800	-2.065613	40.92395	-91.39361
172641	-12	-47	25	0.1567685	-0.003720694	0.8373306	0	11.97	4002	2	2	0	0	0.7261307	0.01474974	3	10	0.04	1800	-1.82489	40.92395	-91.39361
172874	44	30	51	0.1409646	-0.02100012	0.8637208	0	11.68	4003	4	-18	-2	0	0.7261307	0.04727652	3	10	0.04	1800	-1.318726	40.92395	-91.39362
173088	71	98	-24	0.09825798	-0.01760537	0.8557019	0	11.68	4002	4	3	-24	0	0.7261307	0.08222541	3	10	0.04	1800	-1.7211	40.92395	-91.39362
173182	56	-6	-56	0.1526036	-0.05095806	0.8625495	0	11.68	4003	-15	-12	-24	0	0.7261307	0.09000541	3	10	0.04	1800	-1.529846	40.92395	-91.39362
173264	88	73	9	0.1367223	-0.04716643	0.865544	0	11.68	4003	-13	11	-25	0	0.7261307	0.1015833	3	10	0.04	1800	-1.931702	40.92395	-91.39362
173354	-116	83	-42	0.09814803	-0.05199214	0.8701857	0	11.68	4002	0	-9	-24	0	0.7261307	0.09465948	3	10	0.04	1800	-1.757446	40.92395	-91.39362
173422	-24	-94	76	0.07361804	-0.03734554	0.8683512	0	11.68	4004	-30	-4	-25	0	0.7261307	0.09145343	3	10	0.04	1800	-1.953094	40.92395	-91.39362
173480	-60	81	-111	0.05485924	-0.02860441	0.8767266	0	11.68	4004	0	10	-25	0	0.7261307	0.08886564	3	10	0.04	1800	-1.872009	40.92395	-91.39362
173579	90	-86	-12	0.0904734	-0.06140507	0.8837594	0	11.68	4003	-37	16	-24	0	0.7261307	0.08899218	3	10	0.04	1800	-1.703735	40.92395	-91.39362
173717	-66	51	-58	0.07536664	-0.04089014	0.8885227	0	11.85	4003	-15	16	-27	0	0.7261307	0.08634301	3	10	0.04	1800	-1.938843	40.92395	-91.39362
173778	127	-45	13	0.1256828	-0.03850769	0.8858342	0	11.85	4004	1	-12	-25	0	0.7261307	0.08715318	3	10	0.04	1800	-1.938843	40.92395	-91.39362
173863	-64	87	-156	0.108203	-0.07453346	0.89225	0	11.85	4004	-21	-11	-25	0	0.7261307	0.08372959	3	10	0.04	1800	-1.977722	40.92395	-91.39362
174063	140	98	-76	0.1351533	-0.08856334	0.8834597	0	11.85	4004	-31	-3	-24	0	0.7261307	0.08220492	3	10	0.04	1800	-1.982758	40.92395	-91.39362
174284	5	-13	-8	0.1555892	-0.09014645	0.8837725	0	11.85	4003	-23	-3	-26	0	0.7261307	0.06820213	3	10	0.04	1800	-2.071198	40.92395	-91.39362
174393	38	-71	124	0.153906	-0.1142386	0.886342	0	11.85	4002	-21	-2	-26	0	0.7261307	0.06439867	3	10	0.04	1800	-1.60733	40.92395	-91.39362
174487	102	49	0	0.1199646	-0.1264819	0.8943027	0	11.85	4002	-28	-5	-24	0	0.7261307	0.06738552	3	10	0.04	1800	-2.020081	40.92395	-91.39362
174564	127	30	-43	0.1387385	-0.139318	0.9070828	0	11.85	4003	12	9	-27	0	0.7261307	0.07030936	3	10	0.04	1800	-1.127747	40.92395	-91.39362
174696	18	127	-138	0.1497616	-0.09771	0.9012108	0	11.85	4003	-19	8	-26	0	0.7261307	0.07353025	3	10	0.04	1800	-1.593262	40.92395	-91.39362
174782	-72	-70	-153	0.1400035	-0.08411068	0.9111065	0	11.85	4004	2	-17	-26	0	0.7261307	0.07543215	3	10	0.04	1800	-1.775452	40.92395	-91.39362
174870	83	0	131	0.1888381	-0.08003685	0.9048244	0	11.85	4004	-9	-12	-23	0	0.7261307	0.07725396	3	10	0.04	1800	-1.342896	40.92395	-91.39362
175003	-105	56	-139	0.2294017	-0.0786104	0.9048083	0	11.85	4004	-14	16	-27	0	0.7261307	0.07987816	3	10	0.04	1800	-1.467987	40.92395	-91.39362
175135	26	72	-99	0.2394837	-0.1043541	0.9134895	0	11.85	4004	-26	17	-26	0	0.7261307	0.07942612	3	10	0.04	1800	-1.978088	40.92395	-91.39362
175293	112	-102	46	0.2527368	-0.07396697	0.9089505	0	11.85	4003	17	18	-26	0	0.7261307	0.0752119	3	10	0.04	1800	-2.266846	40.92395	-91.39362
175447	55	-10	53	0.2544212	-0.08930983	0.9313269	0	11.85	4002	-9	-9	-25	0	0.7261307	0.06577989	3	10	0.04	1800	-2.190918	40.92395	-91.39362
175520	41	127	-77	0.2697619	-0.08335157	0.9327265	0	11.91	4002	-31	22	-28	0	0.7261307	0.0642866	3	10	0.04	1800	-2.170135	40.92395	-91.39362
175590	-1	62	-29	0.2358942	-0.07272191	0.9422008	0	11.91	4003	-39	19	-25	0	0.7261307	0.06763562	3	10	0.04	1800	-1.338623	40.92395	-91.39362
175659	18	19	148	0.2525289	-0.08608689	0.9533888	0	11.91	4003	-35	-4	-25	0	0.7261307	0.07723774	3	10	0.04	1800	-2.621979	40.92395	-91.39362
175795	-20	-196	-37	0.2783245	-0.08295521	0.9557785	0	11.91	4003	4	-3	-27	0	0.7261307	0.08771964	3	10	0.04	1800	-2.410797	40.92395	-91.39362
175863	26	-97	46	0.1740066	-0.06684824	0.9479338	0	11.91	4004	11	-18	-26	0	0.7261307	0.08829148	3	10	0.04	1800	-2.410797	40.92395	-91.39362
175965	25	167	-65	0.1721342	-0.05011212	0.9512365	0	11.91	4004	-7	-14	-25	0	0.7261307	0.07867716	3	10	0.04	1800	-1.630859	40.92395	-91.39362
176062	69	10	-66	0.1159428	-0.03843879	0.9472033	0	11.91	4004	-19	-8	-26	0	0.7261307	0.07270422	3	10	0.04	1800	-1.995544	40.92395	-91.39362
176165	83	54	22	0.1515321	-0.01080522	0.9511817	0	11.91	4004	0	-2	-27	0	0.7261307	0.06244418	3	10	0.04	1800	-1.349457	40.92395	-91.39362
176361	-115	-125	-87	0.1277059	-0.04420418	0.9628508	0	11.91	4003	-20	-19	-26	0	0.7261307	0.06046776	3	10	0.04	1800	-1.585632	40.92395	-91.39362
176420	73	-182	65	0.1999474	-0.03572081	0.9676787	0	11.91	4004	3	-31	-27	0	0.7261307	0.06170845	3	10	0.04	1800	-2.076721	40.92395	-91.39362
176600	59	11	-20	0.1379328	-0.02566143	0.958088	0	11.85	4003	-37	0	-25	0	0.7261307	0.06294334	3	10	0.04	1800	-1.551697	40.92395	-91.39362
176709	-74	112	-108	0.1668451	-0.001449594	0.976938	0	11.85	4002	-20	23	-26	0	0.7261307	0.06140641	3	10	0.04	1800	-2.004364	40.92395	-91.39362
176755	37	29	-143	0.1452633	0.01548709	0.974986	0	11.85	4002	9	28	-29	0	0.7261307	0.06092945	3	10	0.04	1800	-2.004364	40.92395	-91.39362
176868	-37	-26	-157	0.1552452	0.01751045	0.9698526	0	11.85	4003	-25	8	-28	0	0.7261307	0.05982515	3	10	0.04	1800	-1.608459	40.92395	-91.39362
176959	60	-47	39	0.2137791	0.01192417	0.9754171	0	11.85	4004	15	19	-29	0	0.7261307	0.06113017	3	10	0.04	1800	-1.876862	40.92395	-91.39362
177158	-82	-15	-127	0.2586984	-0.002062696	1.002131	0	11.85	4003	-17	-2	-28	0	0.7261307	0.06275672	3	10	0.04	1800	-2.6091	40.92395	-91.39362
177179	116	177	-58	0.2109268	-0.02387792	1.002737	0	11.85	4003	-30	15	-27	0	0.7261307	0.06275672	3	10	0.04	1800	-2.6091	40.92395	-91.39362
177261	-50	-81	-79	0.2691331	0.006415403	1.015826	0	11.85	4004	-13	-5	-28	0	0.7261307	0.06523281	3	10	0.04	1800	-1.513367	40.92395	-91.39362
177368	-71	-124	-107	0.3039362	0.0178797	1.029099	0	11.91	4003	-31	-1	-28	0	0.7261307	0.06682653	3	10	0.04	1800	-2.16217	40.92395	-91.39362
177511	-88	3	-86	0.3284745	0.02485102	1.065608	0	11.91	4003	-35	14	-28	0	0.7261307	0.06614035	3	10	0.04	1800	-2.363068	40.92395	-91.39362
177579	-98	-191	-21	0.4043711	0.01786781	1.074777	0	11.91	4002	-17	-6	-30	0	0.7261307	0.07793474	3	10	0.04	1800	-1.924347	40.92395	-91.39362
177765	188	89	106	0.3578715	0.04131322	1.054305	0	11.91	4003	4	15	-31	0	0.7261307	0.09027346	3	10	0.04	1800	-2.901733	40.92395	-91.39362
177829	106	111	102	0.3185576	0.0009699361	1.038349	0	11.91	4002	-12	10	-28	0	0.7261307	0.08840275	3	10	0.04	1800	-1.574402	40.92395	-91.39362
177887	104	-123	26	0.3549943	-0.006555187	1.040858	0	11.91	4003	-3	-19	-28	0	0.7261307	0.08408155	3	10	0.04	1800	-1.574402	40.92395	-91.39362
177970	7	-8	164	0.2565234	0.01275684	1.043801	0	11.91	4004	3	-2	-31	0	0.7261307	0.08028166	3	10	0.04	1800	-2.248749	40.92395	-91.39362
178076	7	-57	66	0.1747617	0.01865029	1.036409	0	11.91	4003	-25	-29	-28	0	0.7261307	0.07443082	3	10	0.04	1800	-1.877106	40.92395	-91.39362
178205	60	120	139	0.3423611	0.0280666	1.062314	0	11.91	4004	13	0	-30	0	0.7261307	0.07250766	3	10	0.04	1800	-2.239227	40.92395	-91.39362
178315	10	-26	-20	0.1938992	0.03125235	1.064696	0	11.85	4003	-26	-2	-27	0	0.7261307	0.07715856	3	10	0.04	1800	-2.17981	40.92395	-91.39362
178417	-76	-184	262	0.1412042	0.04021244	1.055461	0	11.85	4002	-6	10	-30	0	0.7261307	0.07951277	3	10	0.04	1800	-1.56778	40.92395	-91.39362
178551	84	63	-177	0.1403034	0.04029538	1.010609	0	11.85	4002	-56	17	-28	0	0.7261307	0.07802708	3	10	0.04	1800	-1.521973	40.92395	-91.39362
178604	69	-121	173	0.2065399	0.01052751	0.9807187	0	11.85	4002	-1	-30	-24	0	0.7261307	0.07525413	3	10	0.04	1800	-1.591187	40.92395	-91.39362
178716	167	50	76	0.1017115	0.02112149	0.9341587	0	11.85	4003	-32	1	-26	0	0.7261307	0.06557292	3	10	0.04	1800	-2.231049	40.92395	-91.39362
178768	36	60	112	0.03298717	0.03726852	0.9073135	0	11.85	4004	22	7	-27	0	0.7261307	0.05982646	3	10	0.04	1800	-1.916351	40.92395	-91.39362
178842	-106	98	-217	0.04626742	0.06176728	0.8791873	0	11.85	4004	-5	-29	-21	0	0.7261307	0.05635693	3	10	0.04	1800	-1.873993	40.92395	-91.39362
178936	-106	-65	-99	-0.03218757	0.02091038	0.8274799	0	11.85	4002	2	-15	-23	0	0.7261307	0.03916138	3	10	0.04	1800	-1.545929	40.92395	-91.39362
179088	41	80	-162	-0.04886406	-0.008324527	0.7388404	0	11.85	4004	-41	2	-20	0	0.7261307	0.02964789	3	10	0.04	1800	-1.4086	40.92395	-91.39362
179158	-25	86	39	-0.06671351	0.004960744	0.6799124	0	11.85	4003	-42	-7	-17	0	0.7261307	0.02086872	3	10	0.04	1800	-0.7483521	40.92395	-91.39362
179247	83	-61	28	-0.1818923	0.01927699	0.6667067	0	11.68	4002	-27	5	-21	0	0.7261307	0.02170442	3	10	0.04	1800	-1.112152	40.92395	-91.39362
179431	-181	-122	-88	-0.2982493	-0.04649615	0.6144544	0	11.68	4003	-38	22	-20	0	0.7261307	0.04108759	3	10	0.04	1800	-0.9508667	40.92395	-91.39362
179478	-22	65	-164	-0.2672506	0.01965502	0.6223987	0	11.68	4003	7	98	-19	36	0.6574965	0.04991186	6	10	0.04	1800	-1.12912	40.92395	-91.39362
179551	-158	29	318	-0.4003404	0.1149075	0.574359	0	11.68	4003	-55	5	-19	45	0.4900974	0.05759406	8	10	0.04	1800	-1.20932	40.92395	-91.39362
179634	16	-247	-239	-0.3499439	0.1131035	0.5407257	0	11.68	4003	16	11	-11	39	0.4045386	0.06237034	8	10	0.04	1800	-0.8804932	40.92395	-91.39362
179814	-47	-143	-461	-0.6342846	0.08748277	0.4461298	0	11.68	4004	12	-13	-19	36	0.2551696	0.08276985	8	10	0.04	1800	-0.6282654	40.92395	-91.39362
179938	267	-35	316	-0.5777654	0.007487189	0.3793668	0	11.68	4003	7	16	-15	42	0.1810999	0.09256072	8	10	0.04	1800	-0.3181763	40.92395	-91.39362
180038	51	-29	-119	-0.496532	0.07979774	0.2671615	0	11.68	4003	15	41	-8	42	0.1542506	0.09438449	8	10	0.04	1800	-0.5040588	40.92395	-91.39362
180140	-89	0	-313	-0.4637029	0.1322926	0.2549997	0	11.85	4003	13	-5	-2	39	0.1148869	0.09994107	8	10	0.04	1800	-0.2431946	40.92395	-91.39362
180269	33	-73	-63	-0.3800281	0.1612854	0.2106896	0	11.85	4004	9	3	-4	34	0.09453511	0.1130707	8	10	0.04	1800	-0.5499878	40.92395	-91.39362
180350	1	39	-28	-0.4682147	0.3056277	0.2224891	0	11.85	4003	-52	-9	-14	36	0.07969864	0.1290243	8	10	0.04	1800	-0.6875916	40.92395	-91.39362
180433	-226	61	485	-0.3598034	0.3449123	0.1957815	0	11.85	4004	-32	-15	-10	34	0.06888286	0.144902	8	10	0.04	1800	-0.5615234	40.92395	-91.39362
180534	61	-173	-126	-0.3979177	0.3461106	0.2966175	0	11.85	4003	-39	-25	-17	39	0.06335483	0.1527878	8	10	0.04	1800	-0.4793396	40.92395	-91.39362
180661	-199	-41	99	-0.3290896	0.07973756	0.3873816	0	11.85	4003	-54	-13	-15	62	0.05370398	0.1736948	8	10	0.04	1800	-0.6181335	40.92395	-91.39362
180742	-239	18	-22	-0.2450028	0.09693521	0.4300459	0	11.85	4002	-49	-19	-16	37	0.05105995	0.1871197	8	10	0.04	1800	-0.5666504	40.92395	-91.39362
180860	33	165	-65	-0.1067582	0.05125749	0.4692434	0	11.85	4002	-70	-50	-12	33	0.04718352	0.2089067	8	10	0.04	1800	-0.9612732	40.92395	-91.39362
180945	64	-87	52	0.05302137	-0.005913456	0.4841608	0	11.85	4004	-49	-31	-18	41	0.04577838	0.2141762	8	10	0.04	1800	-1.802399	40.92395	-91.39362
181081	67	-12	-521	-0.02353689	0.08316115	0.5684075	0	11.4	4002	-53	-23	-8	74	0.04371829	0.2243307	8	10	0.04	1800	-1.163483	40.92395	-91.39362
181151	115	289	-401	0.01483062	0.062691	0.5500142	0	11.4	4002	-50	-38	-15	50	0.04297153	0.2207033	8	10	0.04	1800	-0.9276733	40.92395	-91.39362
181289	96	85	-265	-0.2529744	0.1293224	0.5883693	0	11.4	4002	-8	-76	-15	80	0.04166785	0.2094024	8	10	0.04	1800	-0.5175476	40.92395	-91.39362
181360	110	40	-392	-0.2601589	0.1338029	0.6025493	0	11.4	4004	-24	-46	-11	48	0.04131068	0.2059213	8	10	0.04	1800	-0.9812317	40.92395	-91.39362
181451	65	-4	-537	-0.2323431	0.07641542	0.5777975	0	11.4	4003	-95	-38	-21	47	0.04102137	0.2029311	8	10	0.04	1800	-1.228058	40.92395	-91.39362
181557	-84	8	-440	-0.2705209	0.03630154	0.5845092	0	11.4	4004	-54	-35	-20	47	0.04059721	0.2010455	8	10	0.04	1800	-1.294159	40.92395	-91.39362
181679	137	134	-198	-0.2292157	0.1265024	0.5721088	0	11.4	4003	-121	-56	-21	64	0.04037791	0.2152091	8	10	0.04	1800	-1.268341	40.92395	-91.39362
181749	-234	-97	-35	-0.3369633	0.01468557	0.4921291	0	11.4	4003	-71	-101	-16	56	0.04026583	0.2324222	8	10	0.04	1800	-1.400513	40.92395	-91.39362
181892	-51	6	575	-0.3413357	0.06338277	0.4265369	0	11.4	4004	-88	-32	-16	32	0.04007015	0.2797154	8	10	0.04	1800	-0.630249	40.92395	-91.39362
181984	-15	122	18	-0.408883	0.04800526	0.4097351	0	11.68	4003	-61	-58	-12	38	0.04001654	0.2927933	8	10	0.04	1800	-0.9013672	40.92395	-91.39362
182089	-29	-60	76	-0.4507787	0.1017656	0.3885193	0	11.68	4002	-95	-60	-17	40	0.03993795	0.3119934	8	10	0.04	1800	-0.8704529	40.92395	-91.39362
182190	168	-4	-272	-0.481073	0.1663948	0.4089199	0	11.68	4002	-33	-69	-9	32	0.03988639	0.3277261	8	10	0.04	1800	-0.571167	40.92395	-91.39362
182257	279	122	-374	-0.5447721	0.1953834	0.3744537	0	11.68	4003	-107	-80	-11	32	0.03987655	0.3335548	8	10	0.04	1800	-0.8842468	40.92395	-91.39362
182338	-198	-143	330	-0.5866004	0.187464	0.3613094	0	11.68	4003	-97	-60	-8	52	0.03985972	0.35169	8	10	0.04	1800	-0.9599915	40.92395	-91.39362
182439	-256	-157	60	-0.5104342	0.1559262	0.3858691	0	11.68	4003	-85	-46	-9	36	0.03983506	0.3767255	8	10	0.04	1800	-0.4980469	40.92395	-91.39362
182569	-193	-132	-99	-0.6098233	0.04314385	0.3690573	0	11.68	4003	-124	-86	-7	35	0.03982231	0.3897774	8	10	0.04	1800	0.0299812	40.92395	-91.39362
182652	187	95	-211	-0.6405534	0.02592315	0.3669923	0	11.68	4004	-71	-84	-17	34	0.03981301	0.4054651	8	10	0.04	1800	-0.3448792	40.92395	-91.39362
182746	77	-210	123	-0.6290785	-0.1251486	0.378384	0	11.68	4004	-27	-75	-13	34	0.03980623	0.4163452	8	10	0.04	1800	-0.2246094	40.92395	-91.39362
182857	71	70	-231	-0.654635	-0.04192239	0.3470922	0	11.68	4003	-27	-100	-6	37	0.03980129	0.4209326	8	10	0.04	1800	-0.6045227	40.92395	-91.39362
182959	-221	-64	157	-0.7915941	-0.1716299	0.248415	0	11.29	4003	-85	-99	-4	65	0.03979672	0.4276896	8	10	0.04	1800	0.4294333	40.92395	-91.39362
183051	-119	-25	-273	-0.7350736	-0.0922793	0.2146696	0	11.29	4004	-93	-78	-6	72	0.03979506	0.4237728	8	10	0.04	1800	0.0244654	40.92395	-91.39362
183143	-216	-53	369	-0.7424964	-0.1416972	0.09886922	0	11.29	4003	-73	-109	0	77	0.03979372	0.420229	8	10	0.04	1800	-0.08029175	40.92395	-91.39362
183295	207	58	-494	-0.7763006	-0.1857005	0.04865576	0	11.29	4004	-76	-45	2	46	0.03979138	0.3972885	8	10	0.04	1800	0.178225	40.92395	-91.39362
183356	-256	-29	219	-0.7885839	-0.1241412	0.01945137	0	11.29	4004	-101	-69	-7	49	0.03979073	0.393259	8	10	0.04	1800	0.178225	40.92395	-91.39362
183452	80	122	-352	-0.780669	-0.2692091	-0.0005910397	0	11.29	4003	-25	-108	2	47	0.03979	0.3806822	8	10	0.04	1800	0.4208983	40.92395	-91.39362
183554	-137	-345	424	-0.9194547	-0.2667524	-0.05021787	0	11.29	4002	-92	-38	-7	81	0.03978946	0.371879	8	10	0.04	1800	0.4763885	40.92395	-91.39362
183668	-177	102	-69	-0.8689291	-0.1577585	-0.03655038	0	11.29	4003	-19	-110	2	50	0.03978906	0.3658195	8	10	0.04	1800	0.7121156	40.92395	-91.39362
183774	40	40	-395	-0.8397766	-0.2441576	-0.009719586	0	11.74	4002	-95	-75	-6	43	0.03978869	0.360244	8	10	0.04	1800	-0.2615662	40.92395	-91.39362
183853	28	145	-280	-0.8387317	-0.1952171	-0.02861326	0	11.74	4004	-53	-75	-5	45	0.03978856	0.3610412	8	10	0.04	1800	0.2182611	40.92395	-91.39362
183956	-257	47	198	-0.7529184	-0.2108952	-0.0172565	0	11.74	4003	-95	-88	-7	48	0.03978841	0.3582175	8	10	0.04	1800	0.244537	40.92395	-91.39362
184055	-211	-99	478	-0.9181201	-0.2235212	-0.007510602	0	11.74	4003	-36	-98	0	54	0.0397883	0.3502217	8	10	0.04	1800	0.1252046	40.92395	-91.39362
184204	-51	-134	-492	-0.942197	-0.05861394	0.05119649	0	11.74	4004	-44	-100	-3	81	0.03978819	0.3375615	8	10	0.04	1800	0.314072	40.92395	-91.39362
184305	81	159	441	-0.9533399	-0.07630238	0.02381607	0	11.74	4003	-50	-66	-3	75	0.03978813	0.3335147	8	10	0.04	1800	-0.2817383	40.92395	-91.39362
184372	146	-42	-302	-0.8013684	-0.2301465	0.05133647	0	11.74	4004	-100	-78	-2	77	0.0397881	0.3333142	8	10	0.04	1800	0.5261829	40.92395	-91.39362
184453	46	-112	-73	-0.8325114	-0.1773687	0.007750181	0	11.74	4004	-61	400	7	50	0.03978808	0.3309647	8	10	0.04	1800	0.1875241	41.2554	79.08104
184610	-2322	90	1131	-1.666877	-0.1986614	-0.5922611	0	11.74	4003	-127	-136	24	55	0.03978805	0.3173143	8	10	0.04	1800	-0.3695984	35.3262	95.8046
184728	-3385	215	-1883	-8.13118	-1.000863	-1.725555	0	11.63	4004	-110	6	42	43	0.03978804	0.3179676	8	10	0.04	1800	-0.697998	40.38737	-89.87731
184847	-4607	962	-1424	-16.29883	-1.979924	0.8199914	0	11.63	4003	-12	-400	-22	42	0.03978802	0.3316002	8	10	0.04	1800	-5.694427	40.90947	-91.35268
184886	-4637	1025	-2484	-18.73127	-2.026305	2.103221	0	11.63	4004	70	26	-96	52	0.03978802	0.3342518	8	10	0.04	1800	-5.694427	40.91961	-91.38133
184960	-1523	1402	-3549	-24.26489	-2.468561	7.315542	0	11.63	4003	-25	63	-199	49	0.03978802	0.3342786	8	10	0.04	1800	-13.09366	40.92384	-91.39328
185067	-1969	-2073	-3004	-23.54151	0.9420188	12.14205	0	11.63	4003	160	-98	-356	51	0.03978802	0.3322874	8	10	0.04	1800	-18.10971	40.92395	-91.39361
185154	-2612	-80	388	-26.3084	1.391343	13.48438	0	11.63	4003	234	-178	-340	48	0.03978802	0.3297597	8	10	0.04	1800	-20.2294	40.92395	-91.39362
185241	1540	-4939	1652	-22.8458	5.803759	11.01059	0	11.63	4004	195	-380	-230	43	0.03978802	0.3371883	8	10	0.04	1800	-26.38794	40.92395	-91.39362
185434	14313	5017	3783	-4.612612	2.295954	1.808393	0	11.63	4003	-103	-66	20	49	0.03978802	0.3963499	8	10	0.04	1800	-27.60468	40.92395	-91.39362
185484	11129	5542	2630	16.77978	-7.5583	-3.956736	0	11.63	4004	-96	-40	104	54	0.03978802	0.4091446	8	10	0.04	1800	-18.70663	40.92395	-91.39362
185557	7526	3029	1091	20.46812	-9.522378	-4.662061	0	11.63	4003	71	1	120	59	0.03978802	0.4228964	8	10	0.04	1800	-9.712769	40.92395	-91.39362
185761	-5579	10996	4131	23.53429	-12.51071	2.03143	0	11.34	4002	213	400	1	73	0.03978802	0.3789899	8	10	0.04	1800	-37.5224	40.92395	-91.39363
185826	797	6743	-1032	16.92785	-20.41256	2.016425	0	11.34	4003	0	195	-69	77	0.03978802	0.3358403	8	10	0.04	1800	-30.82611	40.92395	-91.39363
185869	6602	3447	-244	19.21115	-24.60681	2.774823	0	11.34	4004	-58	90	-76	86	0.03978802	0.3043784	8	10	0.04	1800	-30.82611	40.92395	-91.39363
185950	-1309	4142	-941	19.88704	-29.79139	2.115603	0	11.34	4002	50	319	-56	71	0.03978802	0.2760938	8	10	0.04	1800	-22.3757	40.92395	-91.39363
186059	528	7949	577	18.86093	-40.28862	0.4404361	0	11.34	4004	-10	293	6	76	0.03978802	0.2273886	8	10	0.04	1800	-18.60248	40.92395	-91.39363
186172	-188	2549	-918	16.03506	-51.60123	0.9432155	0	11.34	4003	119	400	-43	83	0.03978802	0.1595119	8	10	0.04	1800	-11.51178	40.92395	-91.39363
186302	290	-3127	317	12.57238	-51.65344	1.271556	0	11.34	4002	93	400	-34	128	0.03978802	0.085105	8	10	0.04	1800	-11.86218	40.92395	-91.39363
186466	-878	-9288	480	9.309367	-36.70338	0.1188384	0	11.34	4003	22	231	0	79	0.03978802	0.01716768	8	10	0.04	1800	-11.67899	40.92395	-91.39363
186550	-1008	-14921	-399	7.480918	-24.44356	-0.07215751	0	11.17	4003	74	119	-3	74	0.03978802	0.005165701	8	10	0.04	1800	-13.20883	40.92395	-91.39363
186674	-535	-108	-22	9.88159	-0.8228022	1.8658	0	11.17	4009	194	309	-54	122	0.03978802	-0.02044209	8	10	0.04	1800	-16.07837	40.92395	-91.39363
186749	-201	827	536	8.960127	-1.541448	1.402779	0	11.17	4004	63	261	-38	117	0.03978802	-0.04586312	8	10	0.04	1800	-15.64816	40.92395	-91.39363
186854	749	-1584	159	8.322254	-1.315229	1.035092	0	11.17	4003	88	171	-24	78	0.03978802	-0.06961983	8	10	0.04	1800	-14.7916	40.92395	-91.39363
186969	175	-6463	100	8.508554	9.952563	-0.09845879	0	11.17	4002	116	22	12	75	0.03978802	-0.09750864	8	10	0.04	1800	-12.58609	40.92395	-91.39363
187073	315	-6997	-483	8.120371	17.12576	0.006974814	0	11.17	4003	103	-10	0	70	0.03978802	-0.1023313	8	10	0.04	1800	-12.61783	40.92395	-91.39363
187206	-35	-2939	-191	7.362286	33.13326	-0.285338	0	11.17	4004	185	-93	9	74	0.03978802	-0.10506	8	10	0.04	1800	-11.89136	40.92395	-91.39363
187271	380	-1576	99	6.969061	34.96986	-0.3212889	0	11.17	4003	207	-97	0	73	0.03978802	-0.1087756	8	10	0.04	1800	-11.89136	40.92395	-91.39363
187434	472	3235	-143	6.107294	31.38223	-0.5103052	0	11.68	4003	217	-78	10	125	0.03978802	-0.1419979	8	10	0.04	1800	-9.213501	40.92395	-91.39363
187521	145	1830	344	6.125631	28.35777	-0.509685	0	11.68	4002	252	-139	7	77	0.03978802	-0.1637933	8	10	0.04	1800	-6.515045	40.92395	-91.39363
187559	-254	-11	-41	6.132418	26.64372	-0.5721655	0	11.68	4003	233	10	12	128	0.03978802	-0.1686359	8	10	0.04	1800	-6.20697	40.92395	-91.39363
187620	105	1237	-154	5.92574	26.30416	-0.7050169	0	11.68	4003	227	26	13	87	0.03978802	-0.1842334	8	10	0.04	1800	-5.819977	40.92395	-91.39363
187728	-32	259	164	6.075218	26.29439	-0.7423196	0	11.68	4003	378	-40	13	74	0.03978802	-0.2064058	8	10	0.04	1800	-6.250244	40.92395	-91.39363
187832	-122	1456	-201	5.916033	25.91704	-0.8396111	0	11.68	4003	274	-200	20	75	0.03978802	-0.212986	8	10	0.04	1800	-5.858734	40.92395	-91.39363
187931	-2	3417	-186	5.433175	22.47422	-1.009887	0	11.68	4003	400	-210	21	73	0.03978802	-0.2258512	8	10	0.04	1800	-4.850372	40.92396	-91.39363
188118	286	3150	1159	4.790264	9.480424	-2.046221	0	11.68	4002	349	122	50	119	0.03978802	-0.2277314	8	10	0.04	1800	-2.605652	40.92396	-91.39363
188176	-212	-715	44	4.549919	7.851547	-1.939055	0	11.68	4008	331	149	52	74	0.03978802	-0.2215838	8	10	0.04	1800	-2.667389	40.92396	-91.39363
188216	-385	-1237	-777	4.187061	8.236272	-1.86011	0	11.68	4003	356	115	53	77	0.03978802	-0.2203395	8	10	0.04	1800	-1.299683	40.92396	-91.39363
188327	629	354	-198	4.545715	8.236246	-1.848266	0	11.51	4003	377	-377	34	83	0.03978802	-0.2198538	8	10	0.04	1800	-0.9032593	40.92395	-91.39363
188410	-565	277	172	4.584979	7.433187	-1.73375	0	11.51	4003	287	-75	38	0	0.03978802	-0.2250865	3	10	0.04	1800	-1.868805	40.92395	-21.03375
188514	-95	1356	24	4.267504	6.763897	-1.664353	0	11.51	4004	255	-55	37	0	0.03978802	-0.2354832	3	10	0.04	1800	-1.113312	40.92395	6.4066
188646	59	746	-152	4.173936	4.377967	-1.680482	0	11.51	4002	318	-87	42	0	0.03978802	-0.2442438	3	10	0.04	1800	-2.118439	40.92395	-82.35396
188720	-28	286	-491	3.870108	4.144931	-1.611269	0	11.51	4003	277	-104	34	0	0.03978802	-0.2460521	3	10	0.04	1800	-1.228455	40.92395	-90.58006
188885	-177	968	-127	3.518408	2.906093	-1.683476	0	11.51	4002	0	0	0	0	0.03978802	-0.2500488	1	10	0.04	1800	-0.2780762	40.92396	-91.39165
188924	-102	861	93	3.455208	2.411203	-1.674853	0	11.51	4004	0	0	0	0	0.03978802	-0.2525999	1	10	0.04	1800	-0.2780762	40.92396	-91.39304
189043	-36	147	-30	3.209442	1.421988	-1.658164	0	11.51	4003	0	0	0	0	0.03978802	-0.2648996	1	10	0.04	1800	-0.184845	40.92396	-91.39362
189114	-52	217	15	3.068258	1.134574	-1.647099	0	11.51	4003	0	0	0	0	0.03978802	-0.27504	1	10	0.04	1800	-0.2173157	40.92396	-91.39363
189291	-57	119	-17	2.846814	0.7560419	-1.637439	0	11.8	4003	0	0	0	0	0.03978802	-0.2925967	1	10	0.04	1800	-0.3610229	40.92396	-91.39364
189343	-50	144	-1	2.771353	0.6150488	-1.630897	0	11.8	4003	0	0	0	0	0.03978802	-0.2942002	1	10	0.04	1800	-0.2011414	40.92396	-91.39363
189412	-57	115	12	2.727368	0.5460874	-1.628147	0	11.8	4003	0	0	0	0	0.03978802	-0.2962787	1	10	0.04	1800	-0.08154297	40.92396	-91.39363
189545	-47	63	13	2.572871	0.3143238	-1.621303	0	11.8	4003	0	0	0	0	0.03978802	-0.3021539	1	10	0.04	1800	-0.2948608	40.92396	-91.39364
189619	-49	66	15	2.512159	0.2117991	-1.609993	0	11.8	4004	0	0	0	0	0.03978802	-0.3057486	1	10	0.04	1800	0.2839744	40.92396	-91.39364
189739	-50	68	-20	2.453759	0.1149522	-1.60394	0	11.8	4003	0	0	0	0	0.03978802	-0.3081072	1	10	0.04	1800	0.3354104	40.92396	-91.39363
189822	-46	67	-7	2.405987	0.02240953	-1.606325	0	11.8	4004	0	0	0	0	0.03978802	-0.3070329	1	10	0.04	1800	0.47652	40.92396	-91.39363
189993	-37	40	27	2.317244	-0.1360133	-1.61195	0	11.8	4003	0	0	0	0	0.03978802	-0.312044	1	10	0.04	1800	-0.0786438	40.92396	-91.39363
190067	-31	42	0	2.290085	-0.1885709	-1.617819	0	11.8	4003	0	0	0	0	0.03978802	-0.3114485	1	10	0.04	1800	-0.02301025	40.92396	-91.39363
190119	-39	40	9	2.269971	-0.2269842	-1.624666	0	11.8	4004	0	0	0	0	0.03978802	-0.3108205	1	10	0.04	1800	0.2333582	40.92396	-91.39364
190244	-32	22	1	2.229619	-0.3078213	-1.632797	0	11.8	4003	0	0	0	0	0.03978802	-0.3136656	1	10	0.04	1800	0.5457325	40.92396	-91.39364
190350	-30	24	9	2.21121	-0.3509563	-1.639277	0	11.8	4003	0	0	0	0	0.03978802	-0.3173985	1	10	0.04	1800	0.7958352	40.92396	-91.39363
190415	-36	30	4	2.195054	-0.3820467	-1.644841	0	11.8	4004	0	0	0	0	0.03978802	-0.3206117	1	10	0.04	1800	0.3528122	40.92396	-91.39363
190515	-31	16	3	2.179047	-0.4107505	-1.653279	0	11.8	4003	0	0	0	0	0.03978802	-0.3214578	1	10	0.04	1800	0.6327327	40.92396	-91.39363
190613	-28	19	5	2.168829	-0.4532228	-1.661165	0	11.8	4004	0	0	0	0	0.03978802	-0.3230806	1	10	0.04	1800	0.4173032	40.92396	-91.39363
190713	-30	17	6	2.15668	-0.4868704	-1.670947	0	11.8	4004	0	0	0	0	0.03978802	-0.3281459	1	10	0.04	1800	0.4469109	40.92396	-91.39364
190813	-27	18	6	2.150708	-0.512893	-1.680056	0	11.8	4004	0	0	0	0	0.03978802	-0.3301871	1	10	0.04	1800	0.2299885	40.92396	-91.39363
190951	-31	15	6	2.140783	-0.5500126	-1.692895	0	11.8	4003	0	0	0	0	0.03978802	-0.3204989	1	10	0.04	1800	0.4555883	40.92396	-91.39363
191017	-28	15	6	2.141805	-0.562806	-1.698458	0	11.8	4002	0	0	0	0	0.03978802	-0.3114438	1	10	0.04	1800	0.4724308	40.92396	-91.39363
191121	-29	11	0	2.131158	-0.5887974	-1.705855	0	11.8	4002	0	0	0	0	0.03978802	-0.3003325	1	10	0.04	1800	0.7116585	40.92396	-91.39363
191289	-26	13	1	2.123011	-0.6322131	-1.716188	0	11.8	4004	0	0	0	0	0.03978802	-0.287196	1	10	0.04	1800	0.4957942	40.92395	-91.39363
191421	-22	16	5	2.115646	-0.659299	-1.725726	0	11.8	4003	0	0	0	0	0.03978802	-0.2757213	1	10	0.04	1800	0.7435626	40.92395	-91.39363
191479	-116	209	-79	2.599288	-0.6053998	-1.500448	0	11.8	4003	0	0	0	0	0.03978802	-0.2712735	1	10	0.04	1800	0.9161899	40.92395	-91.39363
191541	187	606	-138	2.481537	-1.297022	-1.481479	0	11.8	4002	0	0	0	0	0.03978802	-0.2662015	1	10	0.04	1800	0.6134609	40.92395	-91.39363
191648	433	-460	-180	2.485138	-1.767362	-1.371251	0	11.8	4004	0	0	0	0	0.03978802	-0.2513222	1	10	0.04	1800	1.10209	40.92395	-91.39363
191721	-8	315	-130	2.520314	-2.276399	-1.299664	0	11.8	4003	0	0	0	0	0.03978802	-0.230968	1	10	0.04	1800	0.665096	40.92395	-91.39363
191805	-110	239	-48	2.733234	-2.706185	-1.146642	0	11.8	4003	0	0	0	0	0.03978802	-0.2176997	1	10	0.04	1800	0.5631337	40.92395	-91.39363
191933	3501	797	818	4.219584	-3.633228	-1.815275	0	11.8	4003	0	0	0	0	0.03978802	-0.2105397	1	10	0.04	1800	0.7104188	40.92395	-91.39363
192027	-5094	-6060	638	4.271738	-1.308411	-2.822194	0	11.8	4002	0	0	0	0	0.03978802	-0.1985528	1	10	0.04	1800	3.215806	40.92395	-91.39363
192100	711	-2315	1289	1.318891	4.094877	-3.652951	0	11.8	4002	0	0	0	0	0.03978802	-0.1881027	1	10	0.04	1800	3.215806	40.92395	-91.39363
192253	-1467	-1549	1	0.2806202	6.674071	-5.657405	0	11.8	4002	0	0	0	0	0.03978802	-0.1719175	1	10	0.04	1800	5.349339	40.92395	-91.39363
192337	291	-1442	248	-0.5373285	8.763031	-5.731804	0	11.8	4003	0	0	0	0	0.03978802	-0.1573604	1	10	0.04	1800	4.864122	40.92395	-91.39363
192433	466	-301	2423	-1.92306	10.84946	-9.154473	0	11.8	4003	0	0	0	0	0.03978802	-0.1466845	1	10	0.04	1800	7.996737	40.92395	-91.39363
192504	-20	-1641	2650	-2.028563	11.91855	-11.8798	0	11.8	4003	0	0	0	0	0.03978802	-0.1264159	1	10	0.04	1800	9.700309	40.92395	-91.39363
192607	-230	-409	4036	-2.931598	12.83214	-15.36198	0	11.8	4003	0	0	0	0	0.03978802	-0.1045992	1	10	0.04	1800	12.13118	40.92395	-91.39363
192712	1068	-3123	3379	-3.15357	16.71028	-24.78593	0	11.8	4004	0	0	0	0	0.03978802	-0.06218835	1	10	0.04	1800	16.12251	40.92395	-91.39364
192805	2963	-4305	1587	-1.448889	19.29762	-27.64512	0	11.8	4003	0	0	0	0	0.03978802	-0.04408656	1	10	0.04	1800	21.13397	40.92393	109.9525
192912	2437	-3836	-4202	7.537116	26.03995	-23.89844	0	11.8	4003	0	0	0	0	0.03978802	0.01108386	1	10	0.04	1800	27.86997	40.92393	193.9138
193010	2918	-1860	-4794	16.83045	27.4726	-16.10297	0	11.8	4003	0	0	0	0	0.03978802	0.03399816	1	10	0.04	1800	24.1459	40.92394	-5.31213
193112	-446	-1852	-3648	18.39677	29.40919	-11.43124	0	11.8	4004	0	0	0	0	0.03978802	0.06193451	1	10	0.04	1800	24.0394	40.92395	-90.69638
193294	-7104	3678	-3524	6.474581	28.23514	-1.198938	0	11.8	4004	0	0	0	0	0.03978802	0.1446764	1	10	0.04	1800	19.00138	40.92395	-91.38799
193531	-2521	3810	1076	-7.027959	15.6331	7.246191	0	11.8	4008	0	0	0	0	0.03978802	0.258927	1	10	0.04	1800	-1.628326	40.92396	-91.39364
193655	1078	1926	282	-7.07416	8.31249	3.800609	0	11.8	4003	0	0	0	0	0.03978802	0.2901775	1	10	0.04	1800	-4.372833	40.92396	-91.39364
193731	1280	1679	-78	-5.75217	7.087154	3.746747	0	11.8	4004	0	0	0	0	0.03978802	0.3110182	1	10	0.04	1800	-6.225159	40.92396	-91.39364
193826	-284	1404	277	-3.531044	3.253106	3.773769	0	11.8	4002	0	0	0	0	0.03978802	0.3231108	1	10	0.04	1800	-7.758667	40.92396	-91.39364
193922	862	193	2317	-2.911313	0.7929505	2.467905	0	11.8	4003	0	0	0	0	0.03978802	0.3245729	1	10	0.04	1800	-8.746094	40.92396	-91.39364
194024	277	-880	707	0.2749994	1.022378	-3.034488	0	11.8	4002	0	0	0	0	0.03978802	0.3247303	1	10	0.04	1800	-5.916046	40.92396	-91.39364
194130	685	130	11	2.199782	1.247862	-2.785833	0	11.8	4003	0	0	0	0	0.03978802	0.3212619	1	10	0.04	1800	-6.65332	40.92395	-91.39364
194283	13	-407	17	1.502539	0.6785349	-2.846235	0	11.8	4003	0	0	0	0	0.03978802	0.3015249	1	10	0.04	1800	-5.620911	40.92395	-91.39364
194390	-114	167	22	1.62845	0.8637616	-2.804603	0	11.8	4002	0	0	0	0	0.03978802	0.2820866	1	10	0.04	1800	-4.942932	40.92395	-91.39363
194523	15	-124	-2	1.180452	0.6139305	-2.81842	0	11.8	4003	0	0	0	0	0.03978802	0.2418457	1	10	0.04	1800	-4.705048	40.92395	-91.39363
194623	-17	-17	6	0.9530596	0.5419539	-2.825267	0	11.8	4003	0	0	0	0	0.03978802	0.2237923	1	10	0.04	1800	-4.254578	40.92395	-91.39363
194708	-43	-25	3	0.863714	0.5520276	-2.826978	0	11.8	4003	0	0	0	0	0.03978802	0.1997864	1	10	0.04	1800	-3.810028	40.92395	-91.39363
