time(ms)	gyro_x(deg/s)	gyro_y(deg/s)	gyro_z(deg/s)	orientation_roll(deg)	orientation_pitch(deg)	orientation_yaw(deg)	throttle	battery(V)	loop_time(uS)	pid_output_roll	pid_output_pitch	pid_output_yaw	pid_output_throttle	ultrasonic_alt	baro_alt	flight_mode	p_gain_altitude	i_gain_altitude	d_gain_altitude
125274	-207	1020	-547	3.009625	-12.00236	-33.14701	0	10.15	4004	66	-103	-22	293	1.239439	2.399719	5	10	0.04	1800
125369	-908	1394	-3	2.730367	-12.16981	-33.18382	0	10.15	4003	17	-59	-20	296	1.229176	2.399195	5	10	0.04	1800
125495	1108	780	234	1.425878	-11.18403	-33.54123	0	10.49	4003	-70	219	-3	299	1.231248	2.386745	5	10	0.04	1800
125570	-448	-189	524	2.539892	-11.40206	-33.29018	0	10.49	4003	9	-13	-12	313	1.201619	2.375481	5	10	0.04	1800
125694	254	-736	460	0.6665379	-5.719556	-34.19825	0	10.49	4002	-7	-115	-7	326	1.161805	2.335348	5	10	0.04	1800
125768	274	-470	798	1.449476	-5.401478	-34.3873	0	10.49	4004	65	90	4	326	1.111807	2.32025	5	10	0.04	1800
125944	25	1358	1119	0.4280582	-7.947468	-34.51559	0	10.49	4003	-6	71	6	307	1.084054	2.267323	5	10	0.04	1800
126087	480	-883	-106	-1.40059	-4.505811	-32.34016	0	10.49	4002	17	-96	-33	316	1.122506	2.222444	5	10	0.04	1800
126188	244	-1475	-646	-0.6493601	-2.511021	-33.09139	0	10.49	4002	17	-15	-4	311	1.136931	2.199708	5	10	0.04	1800
126356	285	552	247	1.599229	-2.379512	-34.22949	0	10.49	4003	156	-321	-9	336	1.107342	2.12538	5	10	0.04	1800
126500	1640	-382	-2215	2.289775	-2.851166	-32.26781	0	9.64	4002	-123	32	-66	312	1.207257	2.088423	5	10	0.04	1800
126588	-1396	-116	501	2.424727	-2.632934	-31.57478	0	9.64	4002	73	-84	-44	311	1.107578	2.051586	5	10	0.04	1800
126786	723	-1018	-1616	5.544804	-7.913343	-32.1783	0	9.64	4002	-25	-18	-24	319	1.144714	2.00545	5	10	0.04	1800
126809	723	-1018	-1616	5.544804	-7.913343	-32.1783	0	9.64	4002	-25	-18	-24	319	1.143193	1.999236	5	10	0.04	1800
126938	-684	-452	849	4.001959	-7.306706	-32.26227	0	9.64	4002	0	-81	-51	342	1.134234	1.965698	5	10	0.04	1800
127008	-1709	-4022	-1320	3.068881	-6.843671	-32.03302	0	9.64	4002	33	-358	-64	322	1.190657	1.937081	5	10	0.04	1800
127125	-1977	-424	-144	1.800083	-4.569999	-31.67424	0	9.64	4004	21	175	-57	341	1.221594	1.913059	5	10	0.04	1800
127281	7	2381	2384	0.07825579	-4.305627	-31.70745	0	9.64	4003	-147	400	-27	318	1.076169	1.881692	5	10	0.04	1800
127459	776	1447	-740	1.60785	-5.862671	-33.7665	0	9.81	4003	-90	-48	-6	327	1.018848	1.868545	5	10	0.04	1800
127589	625	1788	373	3.484468	-9.785615	-34.28148	0	9.81	4004	-20	34	1	322	1.070957	1.868505	5	10	0.04	1800
127628	487	825	-1555	3.928456	-10.43253	-33.80767	0	9.81	4003	96	-76	-23	311	1.080931	1.870752	5	10	0.04	1800
127718	-188	2369	-1747	2.873427	-12.0831	-33.17123	0	9.81	4004	-110	-50	-39	304	1.070858	1.877825	5	10	0.04	1800
127823	-1183	-1200	-406	2.562095	-13.53197	-32.26698	0	9.81	4002	-98	-49	-53	298	1.066033	1.894081	5	10	0.04	1800
127930	-482	1921	-517	2.848265	-14.11777	-32.70407	0	9.81	4003	3	-25	-42	298	1.05557	1.939234	5	10	0.04	1800
128028	-131	1897	285	2.388931	-14.39214	-33.59283	0	9.81	4004	-42	178	-8	292	1.077289	1.95528	5	10	0.04	1800
128155	298	1750	53	3.082331	-16.57263	-33.58901	0	9.81	4002	63	-40	-16	280	1.07261	2.01619	5	10	0.04	1800
128339	-229	-3508	952	1.663614	-8.561855	-33.11147	0	10.49	4003	48	-103	-17	284	1.178218	2.090692	5	10	0.04	1800
128461	-909	-1104	466	0.01809339	-4.226698	-33.53228	0	10.49	4003	18	46	-3	288	1.141142	2.143369	5	10	0.04	1800
128546	91	-1533	-110	-0.8791582	-2.778684	-33.67084	0	10.49	4002	65	-93	-9	286	1.159316	2.188762	5	10	0.04	1800
128636	127	-823	165	-0.4462261	-0.9740207	-33.62882	0	10.49	4004	-29	-5	-3	287	1.1457	2.207803	5	10	0.04	1800
128755	2286	787	-43	1.265126	-2.811271	-33.56169	0	10.49	4003	44	-81	-12	281	1.197554	2.257828	5	10	0.04	1800
128922	1979	-1702	136	7.966476	-3.764208	-32.67139	0	10.49	4003	43	-67	-29	297	1.244001	2.293252	5	10	0.04	1800
128990	2320	-631	111	9.349046	-2.550026	-32.93476	0	10.49	4002	15	-61	-23	300	1.236564	2.296404	5	10	0.04	1800
129136	1987	-513	-12	12.22064	-1.618653	-34.0293	0	10.49	4003	68	-38	0	302	1.252456	2.303673	5	10	0.04	1800
129169	2344	-495	-167	13.36578	-1.583036	-34.13091	0	10.49	4003	-3	-23	6	303	1.234604	2.303742	5	10	0.04	1800
129322	1725	150	426	14.13734	-0.8320233	-34.44923	0	10.49	4004	-99	-56	14	307	1.167138	2.296871	5	10	0.04	1800
129465	-448	2829	-963	14.04096	-6.983726	-33.14675	0	10.49	4003	-136	255	-3	339	1.26054	2.255755	5	10	0.04	1800
129626	-1089	721	284	8.644851	-8.931082	-32.67503	0	10.49	4004	70	-235	-52	324	1.158628	2.180863	5	10	0.04	1800
129772	-328	-391	-1935	5.888374	-9.507537	-32.43451	0	10.49	4004	30	-322	-45	327	1.164219	2.096965	5	10	0.04	1800
129844	-1368	736	1534	4.562992	-8.645206	-33.00157	0	10.49	4003	-147	400	-14	323	1.149867	2.06564	5	10	0.04	1800
130020	604	1594	-1317	1.066801	-6.228969	-32.70319	0	10.49	4004	-175	182	-49	349	1.195846	1.990337	5	10	0.04	1800
130169	-914	-768	-961	2.137295	-7.231293	-31.97161	0	9.3	4004	-11	-42	-58	363	1.197014	1.928458	5	10	0.04	1800
130341	1596	1810	1491	1.742027	-6.140642	-31.2139	0	9.3	4003	-202	400	-56	334	1.172221	1.855124	5	10	0.04	1800
130425	-1148	-1118	509	0.8696362	-6.967666	-31.80965	0	9.3	4003	117	-22	-48	334	1.170459	1.818915	5	10	0.04	1800
130474	-608	-1588	1709	0.293771	-6.060478	-32.72615	0	9.3	4003	-92	118	-43	334	1.178643	1.805416	5	10	0.04	1800
130558	729	-147	66	-1.252075	-4.544502	-33.35781	0	9.3	4002	-146	88	-2	329	1.18635	1.787222	5	10	0.04	1800
130718	640	782	802	2.146172	-5.142357	-33.32453	0	9.3	4003	13	187	-15	326	1.149631	1.755211	5	10	0.04	1800
130764	741	89	-886	2.18248	-4.900288	-32.62627	0	9.3	4004	-23	126	-50	347	1.149631	1.755211	5	10	0.04	1800
130880	-199	-1986	-235	3.38215	-5.979658	-32.03101	0	9.3	4004	-70	-292	-53	321	1.148513	1.73083	5	10	0.04	1800
131017	794	2457	910	2.454772	-7.255013	-33.76447	0	9.3	4004	-224	253	-5	321	1.140777	1.723041	5	10	0.04	1800
131190	-385	1013	-917	3.527321	-7.613263	-32.92409	0	9.64	4004	7	-117	-34	319	1.029639	1.731813	5	10	0.04	1800
131333	256	1548	510	3.182878	-10.054	-32.88635	0	9.64	4004	-91	202	-20	320	1.071455	1.750734	5	10	0.04	1800
131406	-1130	1120	-142	2.316584	-10.78135	-33.17058	0	9.64	4003	-84	144	-10	323	1.063296	1.774377	5	10	0.04	1800
131448	-1130	1120	-142	2.316584	-10.78135	-33.17058	0	9.64	4003	16	-52	-28	318	1.15095	1.78527	5	10	0.04	1800
131534	-80	574	181	2.556429	-11.02583	-33.53793	0	9.64	4002	-113	107	-2	307	1.063536	1.806262	5	10	0.04	1800
131659	-342	2285	1231	3.370866	-12.94588	-33.06815	0	9.64	4002	-98	40	-17	309	1.142146	1.847612	5	10	0.04	1800
131799	381	-2239	304	1.844765	-10.68808	-33.54817	0	9.64	4002	3	-201	-12	304	1.153684	1.872809	5	10	0.04	1800
131853	695	-648	751	2.000312	-9.641491	-33.56083	0	9.64	4002	-105	63	5	304	1.18013	1.906264	5	10	0.04	1800
132036	-698	-28	312	0.7518166	-11.24381	-34.23341	0	9.75	4003	-41	46	18	305	1.187489	1.982848	5	10	0.04	1800
132072	-711	-166	642	0.2079948	-10.99828	-34.47731	0	9.75	4004	-107	124	29	308	1.179872	1.990655	5	10	0.04	1800
132135	-136	520	-920	0.1013659	-11.28124	-34.53636	0	9.75	4004	60	-115	-3	300	1.055715	2.012458	5	10	0.04	1800
132287	115	-1571	700	2.046045	-13.49087	-33.44843	0	9.75	4008	-114	186	-15	302	1.110356	2.061613	5	10	0.04	1800
132375	-1679	-3426	501	1.256979	-6.931998	-33.11131	0	9.75	4003	-34	43	-23	302	1.116535	2.07967	5	10	0.04	1800
132438	-1209	-2834	-431	0.9540036	-5.619972	-33.39288	0	9.75	4004	94	-186	-18	307	1.071049	2.097767	5	10	0.04	1800
132577	1029	1912	-1640	2.888844	-7.622764	-34.29645	0	9.75	4002	-104	6	1	306	1.165341	2.10989	5	10	0.04	1800
132636	1029	1912	-1640	2.888844	-7.622764	-34.29645	0	9.75	4002	-74	-22	-20	307	1.027546	2.129593	5	10	0.04	1800
132773	-574	516	-253	2.089582	-10.17126	-33.22292	0	9.75	4003	13	-80	-13	303	1.00376	2.146252	5	10	0.04	1800
132838	-240	100	46	2.238462	-10.31179	-33.37906	0	9.75	4003	124	-55	-10	303	1.033298	2.167635	5	10	0.04	1800
132931	610	1367	104	4.440243	-11.68679	-33.6024	0	9.7	4003	74	-27	-11	302	1.069368	2.185648	5	10	0.04	1800
133144	196	2410	-21	5.439948	-12.73738	-34.30699	0	9.7	4004	-76	-1	2	305	1.184787	2.226676	5	10	0.04	1800
133333	15	-803	-62	5.365972	-13.86989	-33.22393	0	9.7	4004	78	-151	-29	312	1.196803	2.25681	5	10	0.04	1800
133390	584	-379	-438	5.575658	-12.99503	-33.04084	0	9.7	4003	55	-73	-25	310	1.077123	2.260019	5	10	0.04	1800
133486	-226	-558	132	5.550359	-11.97038	-33.18642	0	9.7	4004	-1	-85	-6	312	1.112178	2.264623	5	10	0.04	1800
133540	-515	-1783	-75	5.089173	-9.476974	-33.15855	0	9.7	4004	34	-191	-14	311	1.100224	2.266347	5	10	0.04	1800
133639	-1639	53	527	4.159147	-8.148396	-33.42024	0	9.7	4003	-39	-46	-6	315	1.096518	2.26425	5	10	0.04	1800
133741	-310	-1717	666	0.4136012	-4.771252	-33.07621	0	9.7	4004	-41	-35	-18	322	1.086622	2.262314	5	10	0.04	1800
133921	-689	-569	512	-0.387738	-2.77764	-32.74262	0	9.53	4004	-70	46	-33	328	1.142784	2.244195	5	10	0.04	1800
134018	929	983	-1281	0.483319	-3.696827	-32.35339	0	9.53	4002	-24	-156	-37	316	1.134555	2.238921	5	10	0.04	1800
134046	929	983	-1281	0.483319	-3.696827	-32.35339	0	9.53	4002	18	-27	-53	324	1.128013	2.237799	5	10	0.04	1800
134186	864	-1017	490	2.781433	-4.095179	-31.56444	0	9.53	4004	-52	-45	-65	319	1.134627	2.237569	5	10	0.04	1800
134270	1440	464	-41	3.823363	-3.936911	-31.39161	0	9.53	4010	34	-108	-63	322	1.156592	2.230404	5	10	0.04	1800
134353	1626	254	154	4.556505	-4.34213	-31.39605	0	9.53	4002	34	-36	-49	322	1.142411	2.216254	5	10	0.04	1800
134472	-70	385	-452	6.80925	-7.513503	-31.6495	0	9.53	4004	-38	5	-62	328	1.143079	2.190749	5	10	0.04	1800
134589	524	-445	-794	7.216559	-7.214426	-31.31443	0	9.53	4004	13	-99	-65	327	1.205726	2.167771	5	10	0.04	1800
134644	1498	870	-57	7.672523	-6.991663	-31.08683	0	9.53	4004	-87	-12	-70	346	1.216849	2.13993	5	10	0.04	1800
134825	1106	1235	189	9.059672	-9.177379	-31.58639	0	9.36	4004	129	-169	-54	337	1.111142	2.080982	5	10	0.04	1800
134903	-1064	516	-235	9.452985	-10.05309	-31.26837	0	9.36	4003	53	15	-64	346	1.136474	2.027517	5	10	0.04	1800
135045	-1206	-166	590	3.866191	-6.52603	-32.39908	0	9.36	4004	-120	22	-28	356	1.078621	1.930915	5	10	0.04	1800
135176	-1728	-500	2334	1.790835	-5.206225	-33.42587	0	9.36	4002	-190	400	22	358	1.108492	1.823947	5	10	0.04	1800
135241	538	766	858	1.09694	-4.835597	-34.9009	0	9.36	4003	59	-208	42	360	1.154155	1.752859	5	10	0.04	1800
135329	-748	-2486	-1019	1.12108	-3.096094	-35.41104	0	9.36	4002	35	-213	57	364	1.178862	1.695755	5	10	0.04	1800
135463	-1129	-1587	-1350	-0.01034384	-1.549263	-34.73512	0	9.36	4010	-21	-97	19	362	1.123305	1.558035	5	10	0.04	1800
135549	-241	-171	-1671	-0.77251	-1.448712	-34.02996	0	9.36	4003	-39	36	-4	376	1.132237	1.516336	5	10	0.04	1800
135638	-4	-487	-2067	0.4235934	-3.700567	-33.13013	0	8.85	4002	22	-285	-18	417	1.129051	1.418683	5	10	0.04	1800
135800	1028	1479	1066	0.5681085	-4.96156	-32.31754	0	8.85	4002	-22	216	-35	362	0.9878736	1.30413	5	10	0.04	1800
135845	-1403	-2853	-749	1.26127	-4.918339	-32.30691	0	8.85	4002	14	190	-63	400	0.9827252	1.291736	5	10	0.04	1800
136002	228	1788	2204	1.072272	-5.560313	-32.70286	0	8.85	4002	14	330	-1	353	0.9578975	1.230839	5	10	0.04	1800
136044	138	2599	1101	1.406552	-7.463115	-33.49036	0	8.85	4004	-69	-125	0	357	0.9410378	1.204066	5	10	0.04	1800
136183	-1335	-2484	974	2.24953	-5.748044	-34.07242	0	8.85	4002	136	-75	12	349	0.9205369	1.17734	5	10	0.04	1800
136355	-982	-2072	-1411	0.5480531	-2.823388	-32.40626	0	8.85	4003	50	-256	-56	380	0.866334	1.144378	5	10	0.04	1800
136551	531	-438	656	3.857024	-5.839911	-30.64655	0	8.73	4004	-7	18	-77	386	0.834654	1.117916	5	10	0.04	1800
136571	564	-212	2333	3.985537	-5.212064	-30.97034	0	8.73	4002	-7	18	-77	386	0.829667	1.112563	5	10	0.04	1800
136708	-1032	-1298	-35	3.627535	-4.176439	-32.4644	0	8.73	4003	67	-309	-29	365	0.8148823	1.063194	5	10	0.04	1800
136850	750	-325	2043	4.150244	-3.702722	-35.59534	0	8.73	4002	6	-101	41	360	0.8345605	1.00408	5	10	0.04	1800
136904	257	-1372	-1379	4.897386	-3.694189	-35.78522	0	8.73	4004	7	-60	23	398	0.8367516	0.9955265	5	10	0.04	1800
136991	-911	-433	-695	4.168674	-2.65643	-35.61195	0	8.73	4002	-158	13	44	397	0.8320456	0.958757	5	10	0.04	1800
137163	1111	-44	-678	6.15456	-3.59104	-34.34674	0	8.73	4002	31	-26	-4	0	0.8008927	0.9055668	3	10	0.04	1800
137197	-2188	-1821	-197	4.491326	-2.264646	-33.55898	0	8.73	4002	2	-1	-11	0	0.7964007	0.8976738	3	10	0.04	1800
137372	-215	-79	882	2.324773	1.636954	-34.57156	0	8.73	4004	66	-13	37	0	0.7798447	0.8305659	3	10	0.04	1800
137471	377	984	114	0.743381	0.07160231	-35.13193	0	8.79	4003	25	-4	33	0	0.7733752	0.8018376	3	10	0.04	1800
137576	-90	-31	388	1.249023	-0.6640968	-34.987	0	8.79	4002	0	0	0	0	0.7686589	0.751965	3	10	0.04	1800
137717	-840	1024	-852	-1.045917	-0.6667407	-34.34348	0	8.79	4003	0	0	0	0	0.7634634	0.687869	3	10	0.04	1800
137836	3173	-2032	-4556	1.953035	3.469583	-26.18857	0	8.79	4003	0	0	0	0	0.7614332	0.6476292	3	10	0.04	1800
137974	-7156	3303	-1573	2.23359	-22.39886	-24.79611	0	8.79	4004	0	0	0	0	0.7595551	0.5974455	3	10	0.04	1800
138156	48	-198	37	1.289847	-16.48236	-24.74732	0	8.79	4004	0	0	0	0	0.7578762	0.5133197	3	10	0.04	1800
138215	-116	80	7	1.245297	-15.83296	-24.7552	0	8.79	4004	0	0	0	0	0.7575144	0.4865195	3	10	0.04	1800
138297	-66	-5	18	0.890354	-13.79036	-24.7892	0	8.79	4003	0	0	0	0	0.7572213	0.4629461	3	10	0.04	1800
138361	-70	3	11	0.8161356	-13.32674	-24.79709	0	8.79	4003	0	0	0	0	0.7568828	0.4354358	3	10	0.04	1800
138480	-63	-9	16	0.5433055	-11.67993	-24.82706	0	9.53	4002	0	0	0	0	0.756636	0.4001381	1	10	0.04	1800
138603	-67	-5	19	0.3681684	-10.62011	-24.85085	0	9.53	4003	0	0	0	0	0.756456	0.3788646	1	10	0.04	1800
138749	-64	-2	14	0.1250547	-9.162538	-24.88852	0	9.53	4004	0	0	0	0	0.7562578	0.3375992	1	10	0.04	1800
138797	-64	-3	18	0.04852347	-8.665251	-24.90504	0	9.53	4002	0	0	0	0	0.7562034	0.3206402	1	10	0.04	1800
138865	-68	-1	12	-0.03350229	-8.207185	-24.92142	0	9.53	4004	0	0	0	0	0.7561803	0.3147313	1	10	0.04	1800
138975	-63	0	14	-0.1317346	-7.595428	-24.94546	0	9.53	4003	0	0	0	0	0.7561086	0.2766986	1	10	0.04	1800
139068	-70	2	10	-0.1880783	-7.225454	-24.96154	0	9.53	4002	0	0	0	0	0.7560716	0.2621308	1	10	0.04	1800
139222	-59	-3	12	-0.3218945	-6.441472	-24.9975	0	9.53	4004	0	0	0	0	0.7560308	0.2608978	1	10	0.04	1800
139272	-63	0	18	-0.364518	-6.173443	-25.01328	0	9.64	4003	0	0	0	0	0.7560249	0.2625939	1	10	0.04	1800
139409	-64	3	10	-0.4475683	-5.707067	-25.04288	0	9.64	4002	0	0	0	0	0.7560067	0.271925	1	10	0.04	1800
139458	-61	-1	12	-0.4684805	-5.604713	-25.0496	0	9.64	4004	0	0	0	0	0.7560001	0.2774323	1	10	0.04	1800
139606	-63	4	15	-0.5338128	-5.230676	-25.07652	0	9.64	4004	0	0	0	0	0.7559905	0.2897006	1	10	0.04	1800
139697	-59	3	17	-0.5824376	-4.922314	-25.10569	0	9.64	4003	0	0	0	0	0.7559855	0.2951744	1	10	0.04	1800
139793	-63	-1	11	-0.6123689	-4.785652	-25.11927	0	9.64	4003	0	0	0	0	0.7559819	0.3043418	1	10	0.04	1800
139880	-64	3	10	-0.6297375	-4.659132	-25.13383	0	9.64	4003	0	0	0	0	0.75598	0.3102472	1	10	0.04	1800
139967	-58	-3	13	-0.6678904	-4.44558	-25.16471	0	9.64	4003	0	0	0	0	0.7559778	0.3118862	1	10	0.04	1800
140235	-59	2	18	-0.7127077	-4.144693	-25.20881	0	9.64	4004	0	0	0	0	0.7559745	0.2663093	1	10	0.04	1800
140382	-62	4	10	-0.7342928	-3.981377	-25.24324	0	9.64	4003	0	0	0	0	0.7559736	0.25289	1	10	0.04	1800
140534	-51	3	13	-0.7563729	-3.875178	-25.26862	0	9.64	4004	0	0	0	0	0.755973	0.2413321	1	10	0.04	1800
140715	-59	2	8	-0.7824241	-3.74028	-25.31045	0	9.64	4002	0	0	0	0	0.7559725	0.2219825	1	10	0.04	1800
140837	-55	0	11	-0.7908213	-3.688544	-25.33174	0	9.64	4002	0	0	0	0	0.7559723	0.2203808	1	10	0.04	1800
141015	-53	1	12	-0.8044468	-3.599788	-25.3677	0	9.64	4002	0	0	0	0	0.7559723	0.2260128	1	10	0.04	1800
141168	-53	1	10	-0.8071516	-3.554792	-25.3932	0	9.64	4003	0	0	0	0	0.7559723	0.2336629	1	10	0.04	1800
141254	-60	-1	15	-0.8080289	-3.512764	-25.42048	0	9.64	4003	0	0	0	0	0.7559723	0.2386574	1	10	0.04	1800
141319	-51	0	9	-0.8133117	-3.498873	-25.43362	0	9.64	4002	0	0	0	0	0.7559723	0.2347743	1	10	0.04	1800
141430	-54	-4	14	-0.8171577	-3.470178	-25.45906	0	9.64	4003	0	0	0	0	0.7559723	0.2251758	1	10	0.04	1800
141460	-52	2	14	-0.8188668	-3.466485	-25.4667	0	9.64	4004	0	0	0	0	0.7559723	0.2180538	1	10	0.04	1800
141636	-54	3	12	-0.8255824	-3.444546	-25.49459	0	9.64	4003	0	0	0	0	0.7559723	0.2144748	1	10	0.04	1800
141704	-58	3	10	-0.8278788	-3.428223	-25.51159	0	9.64	4002	0	0	0	0	0.7559723	0.2099778	1	10	0.04	1800
141856	-53	-1	13	-0.835204	-3.416902	-25.53465	0	9.64	4002	0	0	0	0	0.7559723	0.1963233	1	10	0.04	1800
