time(ms)	gyro_x(deg/s)	gyro_y(deg/s)	gyro_z(deg/s)	orientation_roll(deg)	orientation_pitch(deg)	orientation_yaw(deg)	throttle	battery(V)	loop_time(uS)	pid_output_roll	pid_output_pitch	pid_output_yaw	pid_output_throttle	ultrasonic_alt	baro_alt	flight_mode	p_gain_altitude	i_gain_altitude	d_gain_altitude
62803	-1223	-2423	-379	-0.3097887	-8.227832	-32.19476	0	10.09	4002	246	-400	-25	0	1.083093	2.046975	3	14	0.04	1800
62899	27	-3070	-1819	0.1977803	-4.474181	-32.2062	0	10.09	4004	84	19	-4	0	1.083177	2.0387	3	14	0.04	1800
63016	-36	-1110	925	1.181681	-1.642771	-32.25943	0	10.09	4003	108	-64	-6	0	1.083275	2.008857	3	14	0.04	1800
63104	1175	492	754	2.057614	-1.708779	-32.54222	0	10.09	4004	29	-68	4	0	1.083346	1.97863	3	14	0.04	1800
63183	1072	932	121	4.004786	-3.512119	-32.69402	0	10.09	4003	42	21	-7	0	1.083398	1.947649	3	14	0.04	1800
63290	-244	-1184	-165	4.146395	-2.444163	-32.68231	0	10.09	4004	-51	-10	-12	0	1.083435	1.917299	3	14	0.04	1800
63399	1011	-421	-759	4.815863	-2.186475	-32.78416	0	10.09	4002	6	-177	-3	0	1.083463	1.883502	3	14	0.04	1800
63510	-470	4865	1009	7.208951	-7.4978	-32.38541	0	10.04	4002	22	121	-1	0	1.083488	1.848414	3	14	0.04	1800
63638	353	1924	1182	5.687014	-10.68151	-32.32288	0	10.04	4003	-47	62	5	0	1.083501	1.806752	3	14	0.04	1800
63701	-39	1358	1984	5.563911	-11.13418	-32.67507	0	10.04	4003	-28	143	11	0	1.083508	1.776763	3	14	0.04	1800
63794	-260	326	654	5.120686	-11.04196	-33.00375	0	10.04	4003	-61	95	1	0	1.083516	1.741871	3	14	0.04	1800
63914	-293	-379	208	4.186095	-10.98748	-32.74081	0	10.04	4002	105	-133	-9	0	1.083522	1.705929	3	14	0.04	1800
64102	-889	-886	412	2.940673	-8.926233	-32.77729	0	10.04	4002	-93	160	5	0	1.083529	1.635091	3	14	0.04	1800
64184	884	1772	-1044	3.127054	-10.39126	-32.13749	0	10.04	4004	36	-141	-35	0	1.08353	1.617152	3	14	0.04	1800
64327	-110	-1027	940	3.340236	-9.396648	-31.78665	0	9.41	4003	30	-155	-21	0	1.083533	1.556941	3	14	0.04	1800
64475	-902	275	-150	4.455271	-8.152257	-33.44962	0	9.41	4003	130	-189	2	0	1.083534	1.47989	3	14	0.04	1800
64594	453	-3078	-2077	2.229549	-4.98749	-33.50191	0	9.41	4003	-43	-104	8	0	1.083535	1.428022	3	14	0.04	1800
64643	173	-2954	213	2.73961	-3.304941	-33.5217	0	9.41	4004	34	79	8	0	1.083536	1.360057	3	14	0.04	1800
64704	-1227	-2221	-545	1.923544	-0.3070509	-33.72358	0	9.41	4004	-75	-137	14	0	1.083536	1.344804	3	14	0.04	1800
64852	-395	-1124	-263	1.758154	2.481533	-33.07853	0	9.41	4003	47	-193	-5	0	1.083536	1.256304	3	14	0.04	1800
64904	164	964	696	1.756289	1.496812	-32.69417	0	9.41	4003	-20	52	12	0	1.083536	1.237134	3	14	0.04	1800
65109	1916	2209	624	3.695919	-0.02157976	-32.78241	0	9.41	4003	-115	202	14	0	1.083536	1.171128	3	14	0.04	1800
65161	-94	298	-1105	4.646998	-3.495389	-32.82559	0	9.41	4004	51	52	4	0	1.083536	1.154921	3	14	0.04	1800
65304	756	-953	-1991	5.502935	-3.632894	-32.50491	0	9.64	4003	-8	-190	-36	0	1.083536	1.105875	3	14	0.04	1800
65372	472	844	-670	6.605102	-4.567585	-32.17358	0	9.64	4004	-54	260	-17	0	1.083536	1.08504	3	14	0.04	1800
65433	-471	-1071	429	6.2725	-4.467131	-32.04922	0	9.64	4003	60	-115	-25	0	1.083536	1.06855	3	14	0.04	1800
65490	-561	-1371	530	5.950954	-3.5826	-32.24638	0	9.64	4003	-13	-42	-13	0	1.083536	1.063512	3	14	0.04	1800
65664	-177	3614	1182	4.512338	-4.348513	-33.81841	0	9.64	4004	-47	142	37	0	1.083536	1.010265	3	14	0.04	1800
65742	-517	3548	396	4.267212	-7.802913	-33.57631	0	9.64	4004	-8	57	8	0	1.083536	0.9891835	3	14	0.04	1800
65857	-902	1447	-234	2.296186	-10.22167	-32.7818	0	9.64	4002	70	-88	-2	0	1.083536	0.9422166	3	14	0.04	1800
65965	199	4021	623	2.14219	-13.97412	-32.97938	0	9.64	4003	62	300	-2	0	1.083536	0.8981211	3	14	0.04	1800
66003	199	4021	623	2.14219	-13.97412	-32.97938	0	9.64	4003	-63	4	-5	0	1.083536	0.8815072	3	14	0.04	1800
66158	-727	-266	-1694	0.9345203	-16.42644	-32.74732	0	10.77	4002	-112	-55	-1	0	1.083536	0.8508587	3	14	0.04	1800
66200	-1147	-351	345	1.203269	-16.43653	-32.7783	0	10.77	4003	-11	-197	-5	0	1.083536	0.8406804	3	14	0.04	1800
66357	-2199	-1921	-400	0.861381	-17.69531	-30.98549	0	10.77	4003	-12	57	-59	0	1.083536	0.8044924	3	14	0.04	1800
66401	-4576	-2096	-907	-1.078528	-16.08781	-30.6715	0	10.77	4002	83	-13	-74	0	1.083536	0.7880991	3	14	0.04	1800
66564	-2873	-1742	113	-8.399012	-9.649871	-31.96658	0	10.77	4004	-100	139	-15	0	1.083536	0.7378247	3	14	0.04	1800
66608	-2845	-934	413	-9.520393	-8.598544	-32.39363	0	10.77	4003	-174	62	1	0	1.083536	0.7256608	3	14	0.04	1800
66734	-620	-602	-339	-9.186884	-6.477073	-32.11753	0	10.77	4003	-1	-30	-20	0	1.083536	0.6956056	3	14	0.04	1800
66883	2142	-901	959	-7.658315	-4.362621	-32.174	0	10.77	4002	0	0	0	0	1.083536	0.6545228	3	14	0.04	1800
66937	2142	-901	959	-7.658315	-4.362621	-32.174	0	10.77	4002	0	0	0	0	1.083536	0.6284277	3	14	0.04	1800
67007	988	1957	-1444	3.113857	-3.986396	-31.6908	0	10.77	4003	0	0	0	0	1.083536	0.5866023	3	14	0.04	1800
67106	-11	-111	-76	1.602568	-3.648494	-31.45103	0	10.94	4002	0	0	0	0	1.083536	0.5569962	3	14	0.04	1800
67225	-61	33	39	1.174423	-3.084903	-31.48697	0	10.94	4004	0	0	0	0	1.083536	0.5196181	3	14	0.04	1800
67296	-37	72	-64	0.9628761	-2.852612	-31.50782	0	10.94	4003	0	0	0	0	1.083536	0.4828682	3	14	0.04	1800
67443	-11	32	66	0.7232302	-2.534885	-31.54224	0	10.94	4004	0	0	0	0	1.083536	0.4443278	1	14	0.04	1800
67502	-61	13	25	0.5079993	-2.242976	-31.5538	0	10.94	4003	0	0	0	0	1.083536	0.4172683	1	14	0.04	1800
67622	-85	-33	24	0.3123734	-2.01607	-31.58277	0	10.94	4002	0	0	0	0	1.083536	0.4024071	1	14	0.04	1800
67766	-70	-13	-7	0.01749495	-1.640029	-31.61731	0	10.94	4004	0	0	0	0	1.083536	0.3662433	1	14	0.04	1800
67873	-71	0	-53	-0.1338959	-1.446576	-31.63351	0	10.94	4004	0	0	0	0	1.083536	0.3347127	1	14	0.04	1800
67960	-52	17	19	-0.2504713	-1.297366	-31.6557	0	10.94	4003	0	0	0	0	1.083536	0.320001	1	14	0.04	1800
68024	-72	16	48	-0.3180005	-1.21474	-31.67508	0	10.94	4004	0	0	0	0	1.083536	0.3034957	1	14	0.04	1800
68166	-65	-4	21	-0.4130667	-1.096265	-31.69465	0	10.94	4002	0	0	0	0	1.083536	0.2933142	1	14	0.04	1800
68202	-55	7	-23	-0.4949048	-0.9848775	-31.71263	0	10.94	4004	0	0	0	0	1.083536	0.2920254	1	14	0.04	1800
68324	-58	19	4	-0.5425826	-0.9231229	-31.73011	0	10.94	4004	0	0	0	0	1.083536	0.2863005	1	14	0.04	1800
68410	-81	13	2	-0.6061186	-0.83194	-31.75157	0	10.94	4004	0	0	0	0	1.083536	0.2847085	1	14	0.04	1800
68522	-46	8	26	-0.689893	-0.7410316	-31.77975	0	10.94	4002	0	0	0	0	1.083536	0.2807966	1	14	0.04	1800
68598	-49	5	13	-0.7175586	-0.6963111	-31.79198	0	10.94	4003	0	0	0	0	1.083536	0.2833059	1	14	0.04	1800
68698	-60	-4	13	-0.7768858	-0.6260054	-31.81846	0	10.94	4004	0	0	0	0	1.083536	0.288605	1	14	0.04	1800
68853	-65	-3	10	-0.817642	-0.5656177	-31.8349	0	10.94	4002	0	0	0	0	1.083536	0.3099301	1	14	0.04	1800
68949	-60	1	21	-0.869593	-0.5114162	-31.85893	0	11	4010	0	0	0	0	1.083536	0.3219399	1	14	0.04	1800
69076	-56	-2	7	-0.8927434	-0.4697001	-31.87671	0	11	4004	0	0	0	0	1.083536	0.3330953	1	14	0.04	1800
69122	-54	0	2	-0.9014974	-0.4609118	-31.88105	0	11	4004	0	0	0	0	1.083536	0.3360078	1	14	0.04	1800
69279	-52	-1	12	-0.9246647	-0.4271118	-31.9104	0	11	4004	0	0	0	0	1.083536	0.3433704	1	14	0.04	1800
69425	-51	8	4	-0.9459731	-0.3864525	-31.93736	0	11	4004	0	0	0	0	1.083536	0.3384129	1	14	0.04	1800
69570	-54	3	12	-0.9602802	-0.3691815	-31.95718	0	11	4003	0	0	0	0	1.083536	0.3323275	1	14	0.04	1800
69640	-54	-3	15	-0.9706974	-0.3520634	-31.97626	0	11	4003	0	0	0	0	1.083536	0.3309932	1	14	0.04	1800
69825	-55	-3	17	-0.9783018	-0.3285347	-32.00511	0	11	4004	0	0	0	0	1.083536	0.3291208	1	14	0.04	1800
69906	-51	0	10	-0.9805643	-0.3193167	-32.01951	0	11	4003	0	0	0	0	1.083536	0.3283164	1	14	0.04	1800
69982	-53	2	7	-0.9836474	-0.3112357	-32.03539	0	11	4004	0	0	0	0	1.083536	0.3280692	1	14	0.04	1800
70030	-60	0	10	-0.9829478	-0.3052151	-32.04051	0	11	4004	0	0	0	0	1.083536	0.3290051	1	14	0.04	1800
70120	-51	1	7	-0.9875844	-0.2884213	-32.06194	0	11	4002	0	0	0	0	1.083536	0.3317005	1	14	0.04	1800
70265	-59	3	10	-0.995407	-0.278871	-32.08385	0	11	4002	0	0	0	0	1.083536	0.3218195	1	14	0.04	1800
70447	-51	2	8	-0.998172	-0.2735409	-32.11345	0	11	4004	0	0	0	0	1.083536	0.2986088	1	14	0.04	1800
70601	-55	1	10	-1.008575	-0.262432	-32.14648	0	11	4002	0	0	0	0	1.083536	0.2882511	1	14	0.04	1800
70714	-47	0	8	-1.011718	-0.2591479	-32.15789	0	11	4003	0	0	0	0	1.083536	0.2731698	1	14	0.04	1800
70825	-57	8	7	-1.005026	-0.2626551	-32.17126	0	11.06	4004	0	0	0	0	1.083536	0.2547329	1	14	0.04	1800
70902	-55	0	9	-1.006858	-0.2614371	-32.18792	0	11.06	4002	0	0	0	0	1.083536	0.2468028	1	14	0.04	1800
70998	-51	3	8	-1.005249	-0.2592832	-32.20251	0	11.06	4004	0	0	0	0	1.083536	0.2358133	1	14	0.04	1800
71100	-55	10	11	-1.005654	-0.2580448	-32.21832	0	11.06	4003	0	0	0	0	1.083536	0.2283601	1	14	0.04	1800
71210	-50	4	12	-1.005211	-0.2554724	-32.23577	0	11.06	4004	0	0	0	0	1.083536	0.231826	1	14	0.04	1800
71330	-54	3	7	-0.9958637	-0.2471658	-32.25604	0	11.06	4003	0	0	0	0	1.083536	0.2350935	1	14	0.04	1800
71491	-55	4	13	-0.9939806	-0.2511171	-32.28357	0	11.06	4002	0	0	0	0	1.083536	0.2516359	1	14	0.04	1800
71580	-48	4	8	-0.9936424	-0.2468258	-32.29351	0	11.06	4003	0	0	0	0	1.083536	0.2638922	1	14	0.04	1800
71681	-51	1	9	-0.9866323	-0.2447606	-32.31463	0	11	4003	0	0	0	0	1.083536	0.2674049	1	14	0.04	1800
71802	-49	7	6	-0.9867005	-0.2493465	-32.32971	0	11	4004	0	0	0	0	1.083536	0.2704687	1	14	0.04	1800
71903	-47	5	12	-0.9819557	-0.2515194	-32.34845	0	11	4002	0	0	0	0	1.083536	0.2729269	1	14	0.04	1800
71990	-52	6	7	-0.9823774	-0.2495904	-32.36236	0	11	4003	0	0	0	0	1.083536	0.2750823	1	14	0.04	1800
72127	-51	-2	8	-0.9785051	-0.2421032	-32.37268	0	11	4002	0	0	0	0	1.083536	0.2819923	1	14	0.04	1800
72268	-51	2	9	-0.988088	-0.2470484	-32.39636	0	11	4004	0	0	0	0	1.083536	0.2956825	1	14	0.04	1800
72296	-54	6	11	-0.9906323	-0.2536264	-32.40167	0	11	4004	0	0	0	0	1.083536	0.29793	1	14	0.04	1800
72386	-52	0	5	-0.98928	-0.2530568	-32.41101	0	11	4003	0	0	0	0	1.083536	0.3065985	1	14	0.04	1800
72552	-52	1	8	-0.9809873	-0.2562252	-32.43561	0	11	4003	0	0	0	0	1.083536	0.3184541	1	14	0.04	1800
72593	-58	6	10	-0.9855463	-0.2582347	-32.44458	0	11.06	4002	0	0	0	0	1.083536	0.3195803	1	14	0.04	1800
72739	-50	1	10	-0.9780899	-0.2534463	-32.46277	0	11.06	4004	0	0	0	0	1.083536	0.3150838	1	14	0.04	1800
72854	-46	0	8	-0.9755768	-0.2498055	-32.48163	0	11.06	4003	0	0	0	0	1.083536	0.3099118	1	14	0.04	1800
72912	-50	-2	7	-0.9762621	-0.2516108	-32.48609	0	11.06	4005	0	0	0	0	1.083536	0.3062646	1	14	0.04	1800
72975	-51	-2	6	-0.9712453	-0.247814	-32.49927	0	11.06	4002	0	0	0	0	1.083536	0.2997335	1	14	0.04	1800
73077	-53	-4	7	-0.9728197	-0.245202	-32.51191	0	11.06	4002	0	0	0	0	1.083536	0.2984981	1	14	0.04	1800
73199	-52	3	11	-0.9788948	-0.2448439	-32.52436	0	11.06	4002	0	0	0	0	1.083536	0.2948821	1	14	0.04	1800
73303	-45	-1	6	-0.9690306	-0.2487066	-32.54084	0	11.06	4004	0	0	0	0	1.083536	0.2942048	1	14	0.04	1800
73412	-41	2	13	-0.9699765	-0.2477689	-32.55079	0	11.06	4002	0	0	0	0	1.083536	0.2968495	1	14	0.04	1800
73525	-45	5	2	-0.9717246	-0.2542306	-32.56293	0	11	4003	0	0	0	0	1.083536	0.3030199	1	14	0.04	1800
73586	-44	4	14	-0.9708875	-0.2603091	-32.57123	0	11	4004	0	0	0	0	1.083536	0.313465	1	14	0.04	1800
73743	-43	-4	8	-0.9598141	-0.2639608	-32.58533	0	11	4004	0	0	0	0	1.083536	0.3354505	1	14	0.04	1800
73813	-42	6	3	-0.9558015	-0.2629541	-32.59705	0	11	4002	0	0	0	0	1.083536	0.3452655	1	14	0.04	1800
73920	-52	-3	13	-0.950541	-0.2631318	-32.60932	0	11	4003	0	0	0	0	1.083536	0.3509735	1	14	0.04	1800
73962	-40	1	6	-0.9447638	-0.2677151	-32.6225	0	11	4003	0	0	0	0	1.083536	0.3509735	1	14	0.04	1800
74103	-49	6	7	-0.9369447	-0.275641	-32.63556	0	11	4003	0	0	0	0	1.083536	0.3423532	1	14	0.04	1800
74178	-53	-1	15	-0.938162	-0.2729036	-32.64368	0	11	4003	0	0	0	0	1.083536	0.3401072	1	14	0.04	1800
74286	-38	3	5	-0.9234684	-0.2747667	-32.66278	0	11	4004	0	0	0	0	1.083536	0.3355974	1	14	0.04	1800
74436	-46	5	12	-0.9291265	-0.2631631	-32.68634	0	11.06	4004	0	0	0	0	1.083536	0.3338384	1	14	0.04	1800
74534	-45	6	8	-0.9294358	-0.2654568	-32.69556	0	11.06	4002	0	0	0	0	1.083536	0.3303754	1	14	0.04	1800
74644	-45	-3	5	-0.9242538	-0.2631761	-32.71217	0	11.06	4003	0	0	0	0	1.083536	0.3163945	1	14	0.04	1800
74716	-45	-3	5	-0.9185513	-0.2608813	-32.72028	0	11.06	4003	0	0	0	0	1.083536	0.3080023	1	14	0.04	1800
74891	-52	7	7	-0.9070918	-0.2658178	-32.74574	0	11.06	4004	0	0	0	0	1.083536	0.2944506	1	14	0.04	1800
74967	-49	2	9	-0.9066613	-0.2662926	-32.75312	0	11.06	4002	0	0	0	0	1.083536	0.289131	1	14	0.04	1800
75038	-56	1	10	-0.9084415	-0.2686703	-32.76685	0	11.06	4004	0	0	0	0	1.083536	0.2882085	1	14	0.04	1800
75156	-49	0	9	-0.9048731	-0.2704014	-32.77998	0	11.06	4004	0	0	0	0	1.083536	0.2981142	1	14	0.04	1800
75260	-48	1	4	-0.903735	-0.2711454	-32.79273	0	11.06	4003	0	0	0	0	1.083536	0.299207	1	14	0.04	1800
75342	-42	0	12	-0.9014004	-0.2688098	-32.80274	0	11	4004	0	0	0	0	1.083536	0.2955478	1	14	0.04	1800
75485	-47	4	7	-0.9010122	-0.2661978	-32.81934	0	11	4004	0	0	0	0	1.083536	0.2925693	1	14	0.04	1800
75572	-42	1	11	-0.9010743	-0.2662055	-32.83021	0	11	4003	0	0	0	0	1.083536	0.2971568	1	14	0.04	1800
75649	-41	-1	4	-0.8982345	-0.2675977	-32.83784	0	11	4004	0	0	0	0	1.083536	0.2998418	1	14	0.04	1800
75755	-45	2	8	-0.8928888	-0.2704788	-32.85242	0	11	4003	0	0	0	0	1.083536	0.2931267	1	14	0.04	1800
75970	-36	1	0	-0.892343	-0.2728458	-32.88032	0	11	4004	0	0	0	0	1.083536	0.2789139	1	14	0.04	1800
76072	-47	6	10	-0.892426	-0.2737262	-32.88831	0	11	4002	0	0	0	0	1.083536	0.2715049	1	14	0.04	1800
76228	-28	7	5	-0.8943141	-0.2709823	-32.9109	0	11.11	4004	0	0	0	0	1.083536	0.2588248	1	14	0.04	1800
76328	-45	9	7	-0.8838229	-0.2697967	-32.9184	0	11.11	4003	0	0	0	0	1.083536	0.2548	1	14	0.04	1800
76463	-40	-1	6	-0.8887862	-0.2714796	-32.93678	0	11.11	4002	0	0	0	0	1.083536	0.2479538	1	14	0.04	1800
76616	-47	4	5	-0.8700833	-0.2718347	-32.95411	0	11.11	4003	0	0	0	0	1.083536	0.2467469	1	14	0.04	1800
76776	-40	9	7	-0.871362	-0.2734853	-32.96821	0	11.11	4004	0	0	0	0	1.083536	0.2576873	1	14	0.04	1800
76885	-45	3	7	-0.8665426	-0.2763984	-32.98383	0	11.11	4002	0	0	0	0	1.083536	0.2666574	1	14	0.04	1800
76975	-40	0	14	-0.8675612	-0.2726471	-32.99567	0	11.11	4004	0	0	0	0	1.083536	0.2739666	1	14	0.04	1800
77080	-44	4	9	-0.871146	-0.2742042	-33.00617	0	11.11	4003	0	0	0	0	1.083536	0.2762673	1	14	0.04	1800
77247	-39	0	8	-0.8607595	-0.2719307	-33.02082	0	11.11	4003	0	0	0	0	1.083536	0.2755931	1	14	0.04	1800
77454	-41	-2	12	-0.8533882	-0.2691047	-33.04316	0	11.11	4002	0	0	0	0	1.083536	0.2750994	1	14	0.04	1800
77645	-34	1	4	-0.863881	-0.2768671	-33.06367	0	11.11	4003	0	0	0	0	1.083536	0.2608568	1	14	0.04	1800
77813	-42	5	2	-0.859633	-0.2818689	-33.07703	0	11.11	4003	0	0	0	0	1.083536	0.2612445	1	14	0.04	1800
77894	-39	-1	5	-0.8525857	-0.2715241	-33.0904	0	11.11	4002	0	0	0	0	1.083536	0.2668625	1	14	0.04	1800
77943	-36	-1	2	-0.8520517	-0.2729999	-33.09266	0	11.11	4002	0	0	0	0	1.083536	0.2679982	1	14	0.04	1800
78087	-39	2	7	-0.8596987	-0.2755086	-33.1092	0	11.11	4002	0	0	0	0	1.083536	0.2659869	1	14	0.04	1800
78164	-33	2	7	-0.8545732	-0.2752509	-33.1153	0	11.11	4004	0	0	0	0	1.083536	0.2652577	1	14	0.04	1800
78258	-39	0	2	-0.8488346	-0.2788875	-33.12733	0	11.11	4003	0	0	0	0	1.083536	0.2657666	1	14	0.04	1800
78328	-40	5	3	-0.8400974	-0.2768492	-33.13923	0	11.11	4002	0	0	0	0	1.083536	0.2682754	1	14	0.04	1800
78421	-39	5	6	-0.8371522	-0.2754931	-33.14643	0	11.11	4002	0	0	0	0	1.083536	0.2701044	1	14	0.04	1800
78455	-36	3	4	-0.8348864	-0.272877	-33.14869	0	11.11	4002	0	0	0	0	1.083536	0.2699606	1	14	0.04	1800
78627	-45	5	3	-0.8187609	-0.278991	-33.16431	0	11.11	4004	0	0	0	0	1.083536	0.2639049	1	14	0.04	1800
78711	-36	0	4	-0.8155868	-0.2834756	-33.1742	0	11.11	4003	0	0	0	0	1.083536	0.2552616	1	14	0.04	1800
78797	-42	3	2	-0.8151374	-0.281267	-33.18085	0	11.11	4004	0	0	0	0	1.083536	0.2355718	1	14	0.04	1800
78910	-41	0	8	-0.8142747	-0.2772504	-33.19239	0	11.11	4004	0	0	0	0	1.083536	0.2199295	1	14	0.04	1800
78971	-32	6	5	-0.812582	-0.2763444	-33.19709	0	11.11	4002	0	0	0	0	1.083536	0.2122351	1	14	0.04	1800
79160	-40	1	8	-0.8260086	-0.2709206	-33.21565	0	11.11	4003	0	0	0	0	1.083536	0.1966746	1	14	0.04	1800
79195	-44	-4	10	-0.8255388	-0.2701303	-33.2198	0	11.11	4004	0	0	0	0	1.083536	0.1934881	1	14	0.04	1800
79342	-28	-5	8	-0.818556	-0.2618949	-33.22895	0	11.11	4002	0	0	0	0	1.083536	0.1943394	1	14	0.04	1800
79417	-33	7	6	-0.8164982	-0.2613097	-33.23408	0	11.11	4002	0	0	0	0	1.083536	0.1979443	1	14	0.04	1800
79469	-46	0	5	-0.8181005	-0.2630558	-33.24294	0	11.11	4003	0	0	0	0	1.083536	0.2005723	1	14	0.04	1800
79601	-38	1	5	-0.8164816	-0.2668655	-33.25191	0	11.11	4002	0	0	0	0	1.083536	0.2067575	1	14	0.04	1800
79730	-33	-5	2	-0.8171327	-0.2660688	-33.2682	0	11.11	4004	0	0	0	0	1.083536	0.2243955	1	14	0.04	1800
79951	-40	-2	3	-0.8013521	-0.2718948	-33.29012	0	11.06	4004	0	0	0	0	1.083536	0.2273269	1	14	0.04	1800
80023	-39	11	5	-0.802655	-0.2738356	-33.29591	0	11.06	4004	0	0	0	0	1.083536	0.2193618	1	14	0.04	1800
80136	-41	1	3	-0.7980878	-0.2733697	-33.30275	0	11.06	4004	0	0	0	0	1.083536	0.2077392	1	14	0.04	1800
80181	-36	7	3	-0.7959494	-0.274252	-33.30434	0	11.06	4004	0	0	0	0	1.083536	0.2055345	1	14	0.04	1800
80286	-35	0	4	-0.8023819	-0.2737697	-33.31697	0	11.06	4004	0	0	0	0	1.083536	0.1920412	1	14	0.04	1800
80405	-38	1	2	-0.798624	-0.2806665	-33.32564	0	11.06	4004	0	0	0	0	1.083536	0.1796407	1	14	0.04	1800
80485	-39	0	4	-0.796113	-0.2824041	-33.33748	0	11.06	4003	0	0	0	0	1.083536	0.1657757	1	14	0.04	1800
80534	-41	1	7	-0.7989854	-0.2792041	-33.34004	0	11.06	4003	0	0	0	0	1.083536	0.1606525	1	14	0.04	1800
80701	-31	-3	4	-0.7877155	-0.2751666	-33.35439	0	11.06	4003	0	0	0	0	1.083536	0.1414951	1	14	0.04	1800
80902	-32	-4	5	-0.7806045	-0.2712025	-33.37276	0	11.06	4002	0	0	0	0	1.083536	0.1295806	1	14	0.04	1800
80984	-40	1	3	-0.7735739	-0.276524	-33.37892	0	11.06	4002	0	0	0	0	1.083536	0.129139	1	14	0.04	1800
81041	-40	2	7	-0.7688053	-0.2776423	-33.38887	0	11.06	4003	0	0	0	0	1.083536	0.1291224	1	14	0.04	1800
81152	-36	5	9	-0.7684675	-0.2784276	-33.3968	0	11.06	4003	0	0	0	0	1.083536	0.1323096	1	14	0.04	1800
81257	-27	1	4	-0.7588512	-0.2780779	-33.40224	0	11.06	4003	0	0	0	0	1.083536	0.1353031	1	14	0.04	1800
81380	-27	5	7	-0.7618034	-0.2740587	-33.41933	0	11.06	4002	0	0	0	0	1.083536	0.1390756	1	14	0.04	1800
81541	-36	1	8	-0.757571	-0.2733581	-33.42964	0	11.06	4003	0	0	0	0	1.083536	0.1382172	1	14	0.04	1800
81620	-29	-3	2	-0.7548626	-0.2737683	-33.43752	0	11.11	4003	0	0	0	0	1.083536	0.1476142	1	14	0.04	1800
81683	-36	2	-1	-0.7543962	-0.2717936	-33.4424	0	11.11	4002	0	0	0	0	1.083536	0.1565447	1	14	0.04	1800
81743	-33	0	2	-0.7513877	-0.2716428	-33.44514	0	11.11	4003	0	0	0	0	1.083536	0.1628812	1	14	0.04	1800
81864	-33	-5	7	-0.7473376	-0.2734642	-33.45345	0	11.11	4004	0	0	0	0	1.083536	0.173975	1	14	0.04	1800
82020	-34	-1	0	-0.762956	-0.2760782	-33.46318	0	11.11	4003	0	0	0	0	1.083536	0.1834154	1	14	0.04	1800
82056	-33	1	7	-0.7529537	-0.2801589	-33.46837	0	11.11	4002	0	0	0	0	1.083536	0.1842335	1	14	0.04	1800
82140	-36	2	10	-0.7564558	-0.2851023	-33.47155	0	11.11	4003	0	0	0	0	1.083536	0.1856326	1	14	0.04	1800
82342	-27	-1	1	-0.7605063	-0.2753136	-33.48496	0	11.11	4003	0	0	0	0	1.083536	0.188901	1	10	0.04	1800
82434	-33	4	5	-0.7591524	-0.2741791	-33.4921	0	11.11	4002	0	0	0	0	1.083536	0.2008977	1	10	0.04	1800
82508	-28	0	10	-0.7552679	-0.2735772	-33.49894	0	11.11	4002	0	0	0	0	1.083536	0.2050622	1	10	0.04	1800
82599	-30	5	8	-0.7529395	-0.2794079	-33.50907	0	11.11	4004	0	0	0	0	1.083536	0.2066105	1	10	0.04	1800
82693	-26	1	-1	-0.747429	-0.280557	-33.51359	0	11.11	4002	0	0	0	0	1.083536	0.2072669	1	10	0.04	1800
82770	-26	0	3	-0.7395276	-0.2720677	-33.52134	0	11.11	4003	0	0	0	0	1.083536	0.2063012	1	10	0.04	1800
82867	-32	2	4	-0.7384147	-0.2747902	-33.52732	0	11.11	4004	0	0	0	0	1.083536	0.2071114	1	10	0.04	1800
82952	-33	1	2	-0.7249391	-0.2761962	-33.53623	0	11.11	4003	0	0	0	0	1.083536	0.2025153	1	10	0.04	1800
83042	-27	-3	10	-0.7215287	-0.2811045	-33.54459	0	11.11	4004	0	0	0	0	1.083536	0.1989517	1	10	0.04	1800
83149	-34	2	0	-0.7211698	-0.2762698	-33.55167	0	11.11	4004	0	0	0	0	1.083536	0.2017155	1	10	0.04	1800
83260	-26	0	4	-0.7090649	-0.2689999	-33.55827	0	11.11	4003	0	0	0	0	1.083536	0.2013447	1	10	0.04	1800
83293	-31	-1	2	-0.7123902	-0.2717378	-33.56205	0	11.11	4004	0	0	0	0	1.083536	0.2011653	1	10	0.04	1800
83448	-27	8	5	-0.7029639	-0.2727151	-33.57298	0	11.11	4003	0	0	0	0	1.083536	0.2089161	1	10	0.04	1800
83511	-27	6	2	-0.6978894	-0.274888	-33.57597	0	11.11	4002	0	0	0	0	1.083536	0.2141332	1	10	0.04	1800
83593	-31	-4	3	-0.7019726	-0.2747214	-33.58726	0	11.11	4004	0	0	0	0	1.083536	0.2211522	1	10	0.04	1800
83722	-17	7	2	-0.6944702	-0.2793367	-33.59623	0	11.11	4003	0	0	0	0	1.083536	0.2357939	1	10	0.04	1800
83815	-29	0	4	-0.6908512	-0.2759334	-33.60368	0	11.11	4003	0	0	0	0	1.083536	0.2532437	1	10	0.04	1800
83892	-27	3	7	-0.6959983	-0.274428	-33.61204	0	11.11	4004	0	0	0	0	1.083536	0.2640632	1	10	0.04	1800
83958	-25	2	2	-0.6918097	-0.2775303	-33.61821	0	11.11	4003	0	0	0	0	1.083536	0.2681937	1	10	0.04	1800
84059	-33	6	6	-0.689968	-0.2784371	-33.62437	0	11.11	4003	0	0	0	0	1.083536	0.268873	1	10	0.04	1800
84190	-26	2	0	-0.6896867	-0.2815806	-33.63121	0	11.11	4003	0	0	0	0	1.083536	0.2721803	1	10	0.04	1800
84362	-28	0	4	-0.6793607	-0.2855087	-33.64592	0	11.06	4004	0	0	0	0	1.083536	0.2730115	1	10	0.04	1800
84440	-26	3	0	-0.6823454	-0.2870691	-33.6508	0	11.06	4004	0	0	0	0	1.083536	0.2792158	1	10	0.04	1800
84514	-31	1	2	-0.6795447	-0.2886758	-33.65879	0	11.06	4002	0	0	0	0	1.083536	0.2842363	1	10	0.04	1800
84612	-29	-3	6	-0.6829476	-0.2901088	-33.66594	0	11.06	4004	0	0	0	0	1.083536	0.2794438	1	10	0.04	1800
84679	-28	-2	6	-0.6798916	-0.2886775	-33.66972	0	11.06	4004	0	0	0	0	1.083536	0.2789893	1	10	0.04	1800
84827	-26	-2	5	-0.6760653	-0.2901432	-33.68223	0	11.06	4002	0	0	0	0	1.083536	0.2815984	1	10	0.04	1800
84891	-24	0	7	-0.6718453	-0.2882383	-33.6862	0	11.06	4003	0	0	0	0	1.083536	0.283678	1	10	0.04	1800
85001	-27	-5	7	-0.6703046	-0.2953459	-33.69395	0	11.06	4003	0	0	0	0	1.083536	0.2900487	1	10	0.04	1800
85058	-22	-2	0	-0.6687623	-0.2941029	-33.69511	0	11.06	4004	0	0	0	0	1.083536	0.2930761	1	10	0.04	1800
85199	-28	-4	1	-0.6600705	-0.3000961	-33.70506	0	11.11	4004	0	0	0	0	1.083536	0.2958768	1	10	0.04	1800
85274	-22	4	3	-0.657056	-0.2999834	-33.71086	0	11.11	4004	0	0	0	0	1.083536	0.2935138	3	10	0.04	1800
85316	-21	1	0	-0.6544899	-0.2983362	-33.7133	0	11.11	4004	0	0	0	0	1.083536	0.2919861	5	10	0.04	1800
85456	-27	7	0	-0.6536346	-0.2993805	-33.72068	0	11.11	4003	0	0	0	0	0.8017031	0.2780409	5	10	0.04	1800
85521	-25	1	-2	-0.6504954	-0.3045924	-33.72636	0	11.11	4002	0	0	0	0	0.6576561	0.2738868	5	10	0.04	1800
85625	-23	4	4	-0.6502777	-0.3058226	-33.72972	0	11.11	4004	0	0	0	0	0.4457117	0.2668819	5	10	0.04	1800
85779	-25	-1	6	-0.6426494	-0.3087178	-33.73942	0	11.11	4003	0	0	0	0	0.3326695	0.2628109	5	10	0.04	1800
85832	-18	-1	1	-0.6430694	-0.3087694	-33.74278	0	11.11	4004	0	0	0	0	0.2539952	0.2519275	5	10	0.04	1800
85945	-21	6	5	-0.6316594	-0.3030275	-33.74803	0	11.11	4004	0	0	0	0	0.1955252	0.2426011	3	10	0.04	1800
86060	-28	-4	7	-0.6312137	-0.3043675	-33.75663	0	11.11	4003	0	0	0	0	0.1409056	0.2304517	3	10	0.04	1800
86184	-25	0	9	-0.6274471	-0.3010501	-33.76451	0	11.11	4002	0	0	0	0	0.1126661	0.2273659	3	10	0.04	1800
86234	-27	3	6	-0.6276165	-0.3023128	-33.76957	0	11.11	4002	0	0	0	0	0.1050696	0.226856	3	10	0.04	1800
86376	-26	2	2	-0.6268845	-0.3001134	-33.7772	0	11.11	4003	0	0	0	0	0.07939684	0.2152169	6	10	0.04	1800
86489	-19	1	4	-0.6230009	-0.297878	-33.78294	0	11.11	4002	0	0	0	0	0.06965755	0.200156	6	10	0.04	1800
86615	-28	2	8	-0.618288	-0.3040665	-33.79087	0	11.11	4004	0	0	0	0	0.05891797	0.1760503	6	10	0.04	1800
86666	-21	1	2	-0.6199079	-0.3051366	-33.79521	0	11.11	4004	0	0	0	0	0.05596584	0.1724347	6	10	0.04	1800
86706	-19	-1	3	-0.6078749	-0.3050885	-33.79863	0	11.11	4003	0	0	0	0	0.05469106	0.1717966	6	10	0.04	1800
86825	-21	-2	2	-0.6072859	-0.3015525	-33.80522	0	11.11	4003	0	0	0	0	0.04677374	0.1765313	6	10	0.04	1800
86952	-25	6	6	-0.6051176	-0.3048204	-33.81108	0	11.06	4004	0	0	0	0	0.04567293	0.197162	6	10	0.04	1800
87090	-27	5	4	-0.5960094	-0.3046652	-33.81981	0	11.06	4002	0	0	0	0	0.04181689	0.2306597	6	10	0.04	1800
87121	-13	6	3	-0.5968043	-0.3063791	-33.82389	0	11.06	4003	0	0	0	0	0.04195701	0.2343649	6	10	0.04	1800
87265	-17	0	0	-0.5969494	-0.30804	-33.83104	0	11.06	4003	0	0	0	0	0.04225346	0.247576	6	10	0.04	1800
87305	-20	6	5	-0.5905076	-0.3072133	-33.83488	0	11.06	4004	0	0	0	0	0.04217605	0.2471989	6	10	0.04	1800
87452	-15	6	6	-0.5924888	-0.3071975	-33.84562	0	11.06	4003	0	0	0	0	0.04241417	0.2457336	6	10	0.04	1800
87567	-22	0	9	-0.5954039	-0.3080294	-33.85356	0	11.06	4003	0	0	0	0	0.04249035	0.2441285	6	10	0.04	1800
87667	-28	-4	7	-0.5943544	-0.3038641	-33.86015	0	11.06	4003	0	0	0	0	0.0427656	0.2358838	6	10	0.04	1800
87713	-23	6	8	-0.5909273	-0.3036768	-33.86302	0	11.06	4004	0	0	0	0	0.04285155	0.2324046	6	10	0.04	1800
87801	-16	1	4	-0.5868478	-0.3047651	-33.86863	0	11.06	4004	0	0	0	0	0.04259533	0.2276712	6	10	0.04	1800
87998	-20	3	0	-0.5913711	-0.3077086	-33.87858	0	11.06	4002	0	0	0	0	0.04208351	0.2196588	3	10	0.04	1800
88072	-10	-4	2	-0.590535	-0.3041392	-33.88517	0	11.06	4003	0	0	0	0	0.04192619	0.2216542	3	10	0.04	1800
88145	-19	5	3	-0.5891085	-0.3006756	-33.88786	0	11.06	4004	0	0	0	0	0.04184578	0.2240496	3	10	0.04	1800
88257	-19	-3	3	-0.5847157	-0.3086982	-33.89506	0	11.06	4003	0	0	0	0	0.0417279	0.2387257	3	10	0.04	1800
88339	-14	-1	3	-0.5795633	-0.3066594	-33.8997	0	11.06	4003	0	0	0	0	0.04168517	0.2414274	3	10	0.04	1800
88381	-15	1	-1	-0.5777586	-0.3057607	-33.90092	0	11.06	4003	0	0	0	0	0.04166695	0.2417841	3	10	0.04	1800
88486	-21	-1	0	-0.5906621	-0.3020936	-33.90672	0	11.06	4002	0	0	0	0	0.04162252	0.2382429	3	10	0.04	1800
88584	-19	3	3	-0.5834783	-0.3068714	-33.91087	0	11.06	4003	1	0	0	0	0.04158141	0.2186981	3	10	0.04	1800
88730	-19	13	-11	-0.5770735	-0.3233429	-33.92054	0	11.06	4003	4	1	0	0	0.04155444	0.2005381	3	10	0.04	1800
88878	-64	31	91	-0.5680364	-0.3389891	-33.93216	0	11.06	4002	6	-4	-1	0	0.04153675	0.1784272	3	10	0.04	1800
88933	-22	2	-72	-0.5731162	-0.337485	-33.93576	0	11.06	4004	4	0	1	0	0.0415276	0.1664896	3	10	0.04	1800
89033	-54	-11	20	-0.5937304	-0.316466	-33.93509	0	11.06	4003	6	13	0	0	0.04152293	0.1635567	3	10	0.04	1800
89065	-29	-36	-14	-0.5567993	-0.3444681	-33.93918	0	11.06	4002	3	-1	0	0	0.04152093	0.1634719	3	10	0.04	1800
89156	38	144	-80	-0.5395615	-0.3470519	-33.93803	0	11.06	4004	-12	23	1	0	0.04151608	0.1620844	3	10	0.04	1800
89283	-120	-41	-8	-0.6196696	-0.2654772	-33.95939	0	11.06	4002	20	4	0	0	0.04151072	0.1591346	3	10	0.04	1800
89351	-15	50	14	-0.6219236	-0.3053762	-33.94679	0	11.06	4004	11	-5	2	0	0.04150926	0.161359	3	10	0.04	1800
89473	-49	-30	24	-0.577652	-0.3090631	-33.95279	0	11.06	4002	0	0	0	0	0.0415071	0.1709352	3	10	0.04	1800
89618	-9	-44	-25	-0.5748861	-0.3053108	-33.95327	0	11.06	4002	0	-10	0	0	0.04150599	0.1733613	3	10	0.04	1800
89702	-77	-77	26	-0.5685518	-0.2918648	-33.95884	0	11.06	4003	21	-19	-1	0	0.04150496	0.1822495	3	10	0.04	1800
89774	7	41	-95	-0.5100047	-0.3313674	-33.96906	0	11.06	4002	9	11	0	0	0.04150443	0.1896485	3	10	0.04	1800
89871	15	51	-33	-0.5028948	-0.335749	-33.98219	0	11.06	4003	15	11	0	0	0.04150416	0.1920608	3	10	0.04	1800
90007	-14	90	-50	-0.455329	-0.3640199	-33.98884	0	11.06	4003	-3	6	2	0	0.04150376	0.2011179	3	10	0.04	1800
90140	23	66	-37	-0.5725446	-0.3077166	-34.00461	0	11.06	4004	-25	2	3	0	0.0415035	0.2082473	3	10	0.04	1800
90302	174	144	89	-0.5610624	-0.3842731	-34.04063	0	11.06	4004	-15	26	-1	0	0.04150333	0.217304	3	10	0.04	1800
90344	-125	-142	139	-0.5920071	-0.357697	-34.03708	0	11.06	4002	35	-11	3	0	0.04150324	0.2284069	3	10	0.04	1800
90448	-128	-81	236	-0.5514224	-0.3791596	-34.04856	0	11.06	4004	0	15	1	0	0.04150319	0.2353924	3	10	0.04	1800
90675	-143	-39	48	-0.4897841	-0.4405979	-34.0635	0	11.06	4003	16	15	3	0	0.04150309	0.2327846	3	10	0.04	1800
90816	-20	-95	-92	-0.4953748	-0.3919985	-34.06564	0	11.06	4002	-3	12	1	0	0.04150306	0.2386454	3	10	0.04	1800
90926	120	111	49	-0.4432804	-0.4434935	-34.08049	0	11.06	4004	16	0	1	9	0.04182889	0.2403853	6	10	0.04	1800
91000	-199	-4	30	-0.4753563	-0.4290956	-34.0864	0	11.06	4002	27	-4	7	12	0.04202226	0.2506977	6	10	0.04	1800
91086	113	55	-95	-0.5062912	-0.5038982	-34.10084	0	11.06	4003	28	-32	4	14	0.04159775	0.2592735	6	10	0.04	1800
91216	-143	-142	333	-0.6177936	-0.5426862	-34.10802	0	11.06	4003	7	46	1	18	0.04107241	0.2700157	6	10	0.04	1800
91284	-147	-268	-12	-0.606768	-0.5715922	-34.10412	0	11.06	4003	6	35	3	21	0.0404305	0.2708516	6	10	0.04	1800
91370	88	25	-370	-0.5778762	-0.5939979	-34.09849	0	11.06	4004	7	-2	0	24	0.04098011	0.2742012	6	10	0.04	1800
91460	-29	98	167	-0.6827884	-0.554082	-34.13287	0	11.06	4003	-51	38	1	26	0.04141988	0.2789667	6	10	0.04	1800
91591	8	-137	-337	-0.643093	-0.5569504	-34.10121	0	11.06	4003	45	-42	6	30	0.04190717	0.2829083	6	10	0.04	1800
91699	73	79	-394	-0.6504837	-0.555374	-34.10542	0	11.06	4002	30	-37	7	34	0.04235536	0.2839718	6	10	0.04	1800
91773	10	-79	-135	-0.6336944	-0.6214677	-34.12628	0	11.06	4004	67	-5	8	37	0.04273568	0.2832432	6	10	0.04	1800
91880	-143	-54	165	-0.6418281	-0.6093602	-34.14531	0	11.06	4004	-5	-7	9	40	0.04293156	0.2860994	6	10	0.04	1800
91913	-90	-44	277	-0.7116358	-0.6258374	-34.15969	0	11.06	4003	-35	47	0	42	0.0429945	0.2898875	6	10	0.04	1800
92005	-115	-74	-175	-0.7863114	-0.5783317	-34.145	0	11.06	4003	44	-11	5	44	0.04314803	0.2949213	6	10	0.04	1800
92109	-225	-109	427	-0.7887195	-0.5309425	-34.17826	0	11.06	4004	5	30	4	47	0.04308844	0.2957522	6	10	0.04	1800
92300	-3	-16	-116	-0.9194983	-0.5170565	-34.19519	0	11.06	4004	37	-35	10	53	0.0431333	0.2999557	6	10	0.04	1800
92338	17	-34	-112	-0.8400356	-0.5725086	-34.18663	0	11.06	4002	24	13	9	54	0.03881997	0.3002355	6	10	0.04	1800
92407	161	34	-48	-0.8919647	-0.6095038	-34.19713	0	11.06	4002	46	0	6	57	0.03757016	0.3009179	6	10	0.04	1800
92512	-182	-30	431	-1.165353	-0.4764773	-34.2376	0	11.06	4003	16	18	11	61	0.03333763	0.3044415	6	10	0.04	1800
92632	-110	18	-583	-0.8535612	-0.6348431	-34.25987	0	11.06	4002	-9	37	7	62	0.03601521	0.3071176	6	10	0.04	1800
92776	-131	-72	252	-1.174923	-0.4749654	-34.30817	0	11.06	4004	-37	4	6	67	0.03753956	0.3160715	6	10	0.04	1800
92818	56	77	-57	-1.14118	-0.5112041	-34.30071	0	11.06	4003	39	7	8	68	0.0381417	0.3188222	6	10	0.04	1800
92986	61	-113	-120	-0.6049381	-0.7058939	-34.27619	0	11.06	4003	15	7	7	74	0.03994023	0.3291701	6	10	0.04	1800
93060	-6	-41	-148	-0.754576	-0.6228072	-34.27134	0	11.06	4004	-14	24	0	76	0.04036374	0.3354501	6	10	0.04	1800
93136	-1	101	-559	-0.5856004	-0.745027	-34.25766	0	11.06	4002	57	25	3	78	0.04090605	0.338697	6	10	0.04	1800
93250	104	-27	289	-0.7300144	-0.6681824	-34.3115	0	10.72	4004	5	29	13	82	0.03852629	0.3381041	6	10	0.04	1800
93323	66	53	-3	-0.7920101	-0.7115288	-34.29369	0	10.72	4004	-16	38	0	87	0.03216326	0.3380454	6	10	0.04	1800
93485	-110	121	343	-0.9175515	-0.6878358	-34.31904	0	10.72	4002	65	30	14	89	0.03475275	0.339228	6	10	0.04	1800
93616	33	206	232	-0.8394901	-0.6383916	-34.30993	0	10.72	4004	52	-18	7	95	0.03713933	0.3431218	6	10	0.04	1800
93687	159	34	-762	-0.8204473	-0.6013471	-34.29826	0	10.72	4003	34	1	12	96	0.03867552	0.3512585	6	10	0.04	1800
93756	-135	1	580	-0.9069497	-0.5360073	-34.3274	0	10.72	4004	36	5	6	99	0.03921274	0.3567962	6	10	0.04	1800
93855	-36	-101	-412	-0.8903472	-0.6196821	-34.31179	0	10.72	4004	31	24	16	103	0.04055808	0.359958	6	10	0.04	1800
93942	33	0	418	-0.8338526	-0.6542922	-34.3463	0	10.72	4003	49	-1	6	105	0.04080278	0.3601255	6	10	0.04	1800
