time(ms)	gyro_x(deg/s)	gyro_y(deg/s)	gyro_z(deg/s)	orientation_roll(deg)	orientation_pitch(deg)	orientation_yaw(deg)	throttle	battery(V)	loop_time(uS)	pid_output_roll	pid_output_pitch	pid_output_yaw	pid_output_throttle	ultrasonic_alt	baro_alt	flight_mode	p_gain_altitude	i_gain_altitude	d_gain_altitude
31649	-242	-1171	-1499	5.081017	-10.32953	-32.33336	0	11.11	4002	-81	-205	-7	304	1.149624	1.017931	5	14	0.04	1800
31784	-1376	-126	403	4.657624	-10.78818	-32.62089	0	11.11	4004	-135	0	-2	296	1.062931	1.053257	5	14	0.04	1800
31860	-1376	-126	403	4.657624	-10.78818	-32.55324	0	11.11	4004	-134	231	14	295	1.097129	1.076364	5	14	0.04	1800
31976	-1568	-1449	-1614	1.583663	-7.497404	-32.10427	0	11.11	4003	96	-215	-34	283	1.158764	1.133749	5	14	0.04	1800
32049	-242	666	1019	0.694505	-6.787143	-32.12764	0	11.11	4005	-7	157	-40	286	1.086055	1.170207	5	14	0.04	1800
32202	2	377	54	1.139425	-7.367577	-31.91805	0	9.98	4002	-99	192	-23	291	1.157589	1.24401	5	14	0.04	1800
32283	785	653	814	2.724919	-8.361862	-32.01642	0	9.98	4003	-119	50	-7	290	1.223316	1.286078	5	14	0.04	1800
32367	-1156	-890	-948	2.843356	-9.564807	-32.22825	0	9.98	4004	37	-241	-25	285	1.212986	1.323338	5	14	0.04	1800
32452	-2092	-3045	-92	2.482797	-9.757853	-31.92926	0	9.98	4004	173	-168	-27	288	1.210157	1.358282	5	14	0.04	1800
32601	-106	789	872	0.6912675	-8.409976	-32.34882	0	9.98	4003	-127	137	3	267	1.242652	1.45366	5	14	0.04	1800
32685	153	-102	-394	1.512298	-9.485873	-32.12343	0	9.98	4003	40	-61	-27	277	1.262201	1.511733	5	14	0.04	1800
32789	-840	-1243	804	1.467909	-8.361621	-32.51186	0	9.98	4003	81	-104	1	258	1.261471	1.558263	5	14	0.04	1800
32877	-267	-913	1012	0.2864988	-5.6923	-32.89719	0	9.98	4003	-16	-60	7	275	1.247064	1.655262	5	14	0.04	1800
32997	1174	1922	88	0.606563	-6.244175	-32.72989	0	9.98	4003	-59	-20	-1	279	1.32003	1.71107	5	14	0.04	1800
33057	549	3055	181	1.718703	-9.561134	-32.49162	0	9.98	4003	73	-21	-8	282	1.202068	1.74858	5	14	0.04	1800
33223	350	446	1414	1.592552	-9.795926	-32.58926	0	10.72	4003	25	-38	9	266	1.2014	1.834303	5	14	0.04	1800
33262	574	1305	-99	1.878219	-9.7389	-32.95523	0	10.72	4004	-54	-25	-7	282	1.195651	1.845486	5	14	0.04	1800
33366	-126	1155	-2	1.694535	-10.28348	-33.33782	0	10.72	4004	-5	24	17	268	1.194987	1.899393	5	14	0.04	1800
33513	515	279	140	2.283527	-10.97245	-33.13574	0	10.72	4002	-51	-19	8	275	1.200628	1.943459	5	14	0.04	1800
33601	334	214	-704	1.939487	-10.5998	-33.00549	0	10.72	4003	-57	79	1	291	1.235535	1.963493	5	14	0.04	1800
33696	732	344	-505	2.158794	-10.152	-32.74447	0	10.72	4003	-11	-26	-5	295	1.096933	1.984932	5	14	0.04	1800
33836	-110	-211	-321	2.62626	-7.434243	-32.92111	0	10.72	4003	95	9	5	301	1.167821	1.988118	5	14	0.04	1800
33962	502	1521	-6	5.879491	-9.979441	-32.92425	0	10.72	4004	25	-120	-6	318	1.169519	1.964476	5	14	0.04	1800
33998	293	1112	295	6.095229	-10.36733	-32.96221	0	10.72	4003	8	24	7	313	1.211822	1.958533	5	14	0.04	1800
34154	1281	944	-844	7.62465	-11.44458	-32.05949	0	10.49	4003	125	-90	-28	316	1.214225	1.89084	5	14	0.04	1800
34216	-431	949	198	7.922702	-13.01432	-31.77493	0	10.49	4003	-44	23	-19	316	1.197315	1.881771	5	14	0.04	1800
34308	-109	329	-199	6.924043	-12.79065	-31.50322	0	10.49	4002	-104	104	-39	321	1.189423	1.815055	5	14	0.04	1800
34461	-1223	-582	-1166	4.525166	-11.91389	-30.83992	0	10.49	4004	117	-150	-62	330	1.162849	1.742791	5	14	0.04	1800
34541	-2179	-4385	-2005	1.656821	-9.739333	-29.66047	0	10.49	4004	75	-93	-97	362	1.139177	1.694514	5	14	0.04	1800
34629	-363	1295	1815	-0.9928331	-5.265531	-29.2755	0	10.49	4004	-50	8	-84	334	1.049335	1.594806	5	14	0.04	1800
34689	1612	3214	2601	-0.3104301	-6.088689	-29.74401	0	10.49	4002	-8	-56	-72	359	1.066509	1.579713	5	14	0.04	1800
34771	-141	-374	-110	2.078443	-7.844792	-31.10371	0	10.49	4003	207	-382	-35	358	1.095878	1.536887	5	14	0.04	1800
34892	224	-412	-581	1.392024	-12.18116	-33.05015	0	10.49	4003	-104	-103	39	337	1.096169	1.44242	5	14	0.04	1800
34976	1041	1903	62	2.947557	-16.23394	-33.41256	0	10.43	4004	177	-83	20	336	1.07195	1.388767	5	14	0.04	1800
35082	2144	1836	1071	4.440361	-16.57318	-32.70175	0	10.43	4003	-79	38	-6	337	1.06195	1.307654	5	14	0.04	1800
35254	-1854	-2405	921	5.020022	-14.43881	-32.08796	0	10.43	4004	89	-22	-16	355	0.936821	1.20904	5	14	0.04	1800
35303	-2042	-3168	789	4.061274	-11.54971	-31.95289	0	10.43	4002	136	-183	-25	348	0.9480283	1.199555	5	14	0.04	1800
35393	-804	-2751	-470	3.836603	-9.598539	-31.5118	0	10.43	4004	23	-213	-21	343	1.010499	1.169814	5	14	0.04	1800
35584	707	255	612	3.882441	-6.878035	-32.21902	0	10.43	4004	-46	173	0	322	1.015772	1.115277	5	14	0.04	1800
35648	396	1223	738	4.528637	-7.119284	-32.64088	0	10.43	4004	-160	216	6	322	0.9926429	1.105046	5	14	0.04	1800
35792	-1060	1799	1001	2.978345	-8.317905	-32.75862	0	10.43	4003	-36	29	-22	316	0.9016736	1.083445	5	14	0.04	1800
35895	-1139	-1491	1461	2.316208	-7.728656	-33.18515	0	10.43	4002	48	-326	14	304	0.9528299	1.097536	5	14	0.04	1800
35979	78	1431	-1110	0.8153781	-6.061585	-33.25788	0	9.58	4004	-7	47	-5	305	0.9781204	1.114369	5	14	0.04	1800
36147	2097	299	-990	3.390959	-7.961888	-32.40692	0	9.58	4003	-134	123	-22	302	0.9640434	1.154299	5	14	0.04	1800
36296	1404	-536	-2191	4.978475	-8.117232	-31.13539	0	9.58	4003	28	-37	-67	296	1.086096	1.195355	5	14	0.04	1800
36400	-720	-377	-462	6.324768	-9.837328	-31.50205	0	9.58	4003	51	54	-40	291	1.146063	1.243712	5	14	0.04	1800
36501	-756	-2180	431	7.58006	-9.997408	-31.85953	0	9.58	4004	165	-112	-15	280	1.176007	1.319972	5	14	0.04	1800
36605	-239	-1563	-824	6.534483	-8.554244	-32.07278	0	9.58	4004	-58	92	8	270	1.201189	1.349431	5	14	0.04	1800
36750	306	-521	-2529	6.813523	-11.67966	-32.12009	0	9.58	4004	-49	-14	3	281	1.221964	1.47618	5	14	0.04	1800
36792	542	-1324	-1443	6.867683	-12.11262	-31.99796	0	9.58	4004	19	-253	-46	280	1.192755	1.492502	5	14	0.04	1800
36897	-10	-413	482	6.478057	-11.22202	-31.94499	0	10.26	4003	-130	277	-14	283	1.173375	1.549131	5	14	0.04	1800
36990	-436	-1335	544	6.290533	-9.068031	-32.39896	0	10.26	4003	-39	120	-8	286	1.27061	1.604975	5	14	0.04	1800
37093	-24	-2331	-587	5.460541	-8.00141	-32.80999	0	10.26	4003	61	-93	-4	276	1.272307	1.662491	5	14	0.04	1800
37265	399	-618	-2147	6.130923	-11.1221	-32.73007	0	10.26	4002	49	109	-12	290	1.232941	1.723889	5	14	0.04	1800
37340	935	947	931	6.804543	-11.17397	-32.26478	0	10.26	4003	90	-67	-42	286	1.282302	1.755243	5	14	0.04	1800
37472	-499	-360	457	6.017854	-10.13406	-31.94009	0	10.26	4004	6	221	-29	287	1.224067	1.832674	5	14	0.04	1800
37549	916	275	-478	6.927687	-9.94156	-31.95743	0	10.26	4004	-90	357	-11	290	1.248199	1.849822	5	14	0.04	1800
37621	257	1100	-64	7.119843	-13.11811	-32.454	0	10.26	4002	-191	342	6	293	1.280402	1.870359	5	14	0.04	1800
37724	190	-1442	559	7.125008	-11.69086	-32.47379	0	10.26	4002	-137	69	0	298	1.310681	1.897924	5	14	0.04	1800
37880	-348	963	225	6.002953	-10.95962	-32.23075	0	10.38	4003	-21	-97	-15	294	1.205	1.915741	5	14	0.04	1800
37949	-959	-1560	-109	4.722735	-10.09607	-32.42773	0	10.38	4003	36	-124	-13	300	1.048532	1.923428	5	14	0.04	1800
38076	-1035	1613	-2	2.74223	-8.941446	-32.47624	0	10.38	4002	8	43	-11	301	1.165817	1.934298	5	14	0.04	1800
38112	-1044	1279	-1624	2.155479	-10.33356	-32.28977	0	10.38	4003	84	-175	-30	299	1.179199	1.936585	5	14	0.04	1800
38227	392	-219	-183	1.662531	-11.41337	-31.77341	0	10.38	4003	-28	-41	-13	292	1.196623	1.960702	5	14	0.04	1800
38289	-103	295	-209	1.749308	-11.01118	-31.85263	0	10.38	4002	5	-69	-20	296	1.179998	1.965228	5	14	0.04	1800
38384	554	777	-793	1.675814	-11.60322	-32.01054	0	10.38	4002	-13	84	-35	297	1.151569	1.980482	5	14	0.04	1800
38544	-515	2160	896	2.50525	-15.41754	-31.32354	0	10.38	4004	38	-58	-29	300	1.218669	2.00531	5	14	0.04	1800
38696	-101	802	1397	1.315534	-13.83243	-31.91958	0	10.49	4003	-33	49	-13	303	1.093663	2.011315	5	14	0.04	1800
38830	116	2344	-717	3.361679	-17.82586	-31.77651	0	10.49	4002	-30	33	-28	307	1.094178	2.005395	5	14	0.04	1800
38922	-44	-934	1468	2.096705	-17.38261	-32.07593	0	10.49	4003	37	-145	-14	310	1.120683	1.994762	5	14	0.04	1800
39032	664	469	-704	2.302744	-13.95868	-31.94411	0	10.49	4002	92	-132	-31	309	1.163599	1.971938	5	14	0.04	1800
39091	-56	1809	1205	2.410924	-14.81907	-31.91941	0	10.49	4004	86	-81	-36	312	1.167872	1.968806	5	14	0.04	1800
39198	56	1019	806	1.91223	-14.68969	-31.72711	0	10.49	4002	61	-32	-32	316	1.04244	1.936923	5	14	0.04	1800
39290	-858	-2543	512	1.872849	-13.37437	-31.819	0	10.49	4003	109	44	-33	313	1.055047	1.922405	5	14	0.04	1800
39432	166	-2252	-386	-0.5380117	-10.02524	-33.5777	0	10.49	4002	-60	-150	24	315	1.093302	1.883758	5	14	0.04	1800
39530	-170	-598	-507	1.929232	-6.760507	-32.94655	0	10.49	4003	-81	111	14	320	1.094379	1.871378	5	14	0.04	1800
39617	272	75	-117	1.957489	-6.76158	-32.71259	0	10.26	4004	-57	152	-13	320	1.163944	1.856975	5	14	0.04	1800
39717	-18	-1641	-51	0.6100878	-5.959486	-32.02722	0	10.26	4003	-43	-125	-8	312	1.166686	1.834428	5	14	0.04	1800
39774	-168	-867	-794	0.6370338	-5.443637	-31.94771	0	10.26	4005	44	-161	-37	320	1.175213	1.830808	5	14	0.04	1800
39957	344	-273	-243	0.779801	-4.070418	-32.93261	0	10.26	4003	-41	-38	16	316	1.217635	1.794715	5	14	0.04	1800
39980	344	-273	-243	0.779801	-4.070418	-32.93261	0	10.26	4003	60	-49	-5	315	1.234992	1.789044	5	14	0.04	1800
40068	-937	-834	-143	1.540129	-2.874414	-32.8065	0	10.26	4003	113	-288	-17	321	1.220042	1.760298	5	14	0.04	1800
40169	83	-448	-54	1.188225	-2.959266	-32.86084	0	10.26	4002	-42	-123	12	322	1.138295	1.72498	5	14	0.04	1800
40280	575	-52	-191	1.35586	-3.488635	-32.79165	0	10.26	4002	77	-54	-18	342	1.208694	1.678385	5	14	0.04	1800
40420	-1118	-593	-1041	0.705844	-7.318047	-32.73055	0	10.26	4003	112	-398	-15	330	1.249008	1.602984	5	14	0.04	1800
40474	500	1078	1020	0.7749381	-7.751193	-32.61025	0	10.26	4004	-15	126	0	335	1.124107	1.591426	5	14	0.04	1800
40594	1802	3243	287	4.297018	-10.58093	-32.62097	0	9.64	4004	-25	-59	-24	323	1.164868	1.538832	5	14	0.04	1800
40677	-1200	1407	716	3.314101	-12.38672	-32.30493	0	9.64	4003	-11	32	-57	322	1.147258	1.52582	5	14	0.04	1800
40829	624	1304	-340	2.918068	-12.32317	-30.64171	0	9.64	4002	20	31	-70	338	1.098358	1.471328	5	14	0.04	1800
40899	53	486	605	3.473938	-11.94914	-31.34036	0	9.64	4002	-31	-37	-26	333	1.107012	1.457452	5	14	0.04	1800
40992	2859	2414	-715	4.357999	-13.46684	-31.86059	0	9.64	4002	-43	-61	-15	322	1.113385	1.437402	5	14	0.04	1800
41160	-92	1582	1036	6.881891	-15.01161	-31.88935	0	9.64	4003	70	-146	-26	318	1.079719	1.407524	5	14	0.04	1800
41196	18	305	-784	6.839554	-15.47419	-32.1071	0	9.64	4003	-40	259	0	317	1.119271	1.404956	5	14	0.04	1800
41299	1875	1011	387	8.445019	-16.29795	-32.26379	0	9.64	4004	-198	362	3	312	1.170532	1.40718	5	14	0.04	1800
41382	1530	-1573	-1487	8.729052	-15.06514	-31.40317	0	9.64	4003	51	-162	-51	313	1.133958	1.418053	5	14	0.04	1800
41496	280	-2326	-236	10.9737	-12.59152	-31.41343	0	10.04	4003	68	-109	-29	311	1.064883	1.423844	5	14	0.04	1800
41621	569	-199	1623	11.42216	-8.855334	-32.59732	0	10.04	4003	-75	176	22	301	1.065742	1.450209	5	14	0.04	1800
41684	-3301	-1661	-143	7.070929	-8.532687	-33.16515	0	10.04	4003	142	-124	-5	299	1.077725	1.472775	5	14	0.04	1800
41776	125	-45	-682	4.962106	-7.643005	-32.58433	0	10.04	4004	-122	189	-10	298	1.078927	1.505282	5	14	0.04	1800
41944	-1597	-869	-1297	2.675791	-7.699159	-32.11377	0	10.04	4003	34	-144	-29	297	1.194719	1.562267	5	14	0.04	1800
42002	-1375	-2620	-601	1.715776	-6.336607	-32.26771	0	10.04	4003	121	-138	-20	296	1.221914	1.570957	5	14	0.04	1800
42096	-1560	-405	1239	1.300522	-5.396721	-32.45338	0	10.04	4003	-71	166	6	299	1.197317	1.594347	5	14	0.04	1800
42197	-997	-390	136	-0.1779578	-4.721992	-32.53083	0	10.04	4002	-27	51	-18	293	1.180131	1.647141	5	14	0.04	1800
42290	1019	863	-463	1.281683	-5.976465	-32.34658	0	10.04	4004	-46	-54	-20	295	1.210561	1.700979	5	14	0.04	1800
42368	-139	274	-83	0.8748297	-6.943861	-31.84042	0	10.49	4002	-125	-13	-31	294	1.207325	1.709702	5	14	0.04	1800
42481	106	2695	1116	1.572563	-8.994521	-32.02871	0	10.49	4003	49	107	-24	295	1.251663	1.758562	5	14	0.04	1800
42573	-104	1447	-977	2.039977	-14.38165	-32.28731	0	10.49	4002	96	-145	-25	294	1.264701	1.799875	5	14	0.04	1800
42682	615	652	949	2.752162	-14.73577	-32.0095	0	10.49	4004	-79	129	-9	280	1.243444	1.82693	5	14	0.04	1800
42791	-1658	-918	871	0.9921392	-11.8864	-32.24847	0	10.49	4002	8	83	-10	297	1.208004	1.876375	5	14	0.04	1800
42900	-323	-1505	1057	0.04979102	-9.665528	-32.78999	0	10.49	4004	5	-57	16	282	1.238381	1.900433	5	14	0.04	1800
43010	-384	-2381	-401	0.09404004	-7.421205	-33.09367	0	10.49	4002	101	-82	2	295	1.152346	1.944782	5	14	0.04	1800
43167	-1025	-505	-407	-0.0085796	-7.400692	-32.79728	0	10.49	4003	-22	93	7	300	1.111514	1.972667	5	14	0.04	1800
43294	-557	1367	-726	1.241094	-9.449586	-32.28547	0	10.04	4004	85	-92	-16	312	1.021327	1.977522	5	14	0.04	1800
43364	-1222	-170	342	-0.3393952	-9.945495	-32.78822	0	10.04	4004	84	-116	-9	309	1.099431	1.971365	5	14	0.04	1800
43522	283	250	130	1.136276	-11.833	-32.71805	0	10.04	4003	41	-280	-20	323	1.145082	1.951114	5	14	0.04	1800
43635	-1305	-1094	-1336	1.243303	-12.38837	-32.76605	0	10.04	4004	53	-159	9	314	1.135064	1.925435	5	14	0.04	1800
43754	-163	-322	-845	1.019196	-11.85176	-32.17728	0	10.04	4002	-6	61	5	315	1.128425	1.902817	5	14	0.04	1800
43773	-163	-322	-845	1.019196	-11.85176	-32.17728	0	10.04	4002	74	-203	-28	316	1.124657	1.898726	5	14	0.04	1800
43872	1735	773	393	1.646292	-13.50345	-32.68948	0	10.04	4003	131	41	-22	316	1.113259	1.885615	5	14	0.04	1800
43965	1353	-1103	-13	3.350704	-13.46438	-32.69047	0	10.04	4003	-10	-2	15	312	0.9796395	1.875554	5	14	0.04	1800
44131	1654	2109	1023	4.92594	-13.05443	-32.2303	0	9.81	4002	-69	111	0	314	1.031844	1.869006	5	14	0.04	1800
44203	327	141	714	5.724184	-13.56619	-32.5517	0	9.81	4002	-136	187	2	312	1.079255	1.864052	5	14	0.04	1800
44298	705	129	-1011	6.677974	-11.91886	-32.066	0	9.81	4002	39	-38	-15	309	1.09236	1.860073	5	14	0.04	1800
44371	-223	691	-600	6.541155	-12.49576	-32.09839	0	9.81	4002	42	17	-26	308	1.076607	1.860183	5	14	0.04	1800
44475	864	1264	872	7.792785	-13.10745	-32.21737	0	9.81	4004	-79	282	-14	307	1.102006	1.863244	5	14	0.04	1800
44579	-275	671	-544	7.319091	-13.76912	-31.69274	0	9.81	4002	69	-97	-58	312	1.154979	1.86396	5	14	0.04	1800
44693	-473	-1631	-1344	6.231089	-11.93648	-31.58857	0	9.81	4004	3	-109	-3	311	1.015232	1.861491	5	14	0.04	1800
44843	-327	837	-664	6.278005	-10.38764	-31.95496	0	9.81	4003	3	159	-25	311	1.029693	1.858961	5	14	0.04	1800
44883	-1048	-996	-1783	5.766282	-10.95903	-31.90071	0	9.81	4002	114	-130	-38	309	0.9267238	1.859656	5	14	0.04	1800
44993	273	-637	-913	6.605926	-11.51567	-31.50382	0	9.81	4002	-180	154	-22	307	1.034217	1.86384	5	14	0.04	1800
45079	-19	-214	384	6.908853	-12.0044	-31.30838	0	10.04	4003	-13	16	-19	307	1.062583	1.866206	5	14	0.04	1800
45188	-1164	-1940	-1111	3.718315	-8.885935	-32.30761	0	10.04	4003	-127	281	7	307	1.113769	1.868902	5	14	0.04	1800
45321	-375	1185	111	3.412501	-8.206687	-32.19674	0	10.04	4004	23	77	-28	302	1.267519	1.885259	5	14	0.04	1800
45375	-375	1185	111	3.412501	-8.206687	-32.19674	0	10.04	4004	-105	255	-8	304	1.251527	1.894416	5	14	0.04	1800
45498	-1527	-2730	-1567	1.637426	-5.296176	-31.39182	0	10.04	4003	41	-169	-42	305	1.211145	1.906408	5	14	0.04	1800
45569	-1292	88	50	0.2726153	-5.587519	-32.10118	0	10.04	4002	63	-144	-7	303	1.221049	1.913867	5	14	0.04	1800
45704	-469	2035	12	1.361178	-8.724904	-32.94347	0	10.04	4003	-86	-83	20	306	1.268028	1.921981	5	14	0.04	1800
45787	-928	-1596	-663	0.2520455	-8.819287	-32.77182	0	10.04	4002	6	-165	0	304	1.238034	1.925476	5	14	0.04	1800
45869	690	-115	-326	0.04077286	-8.287686	-32.61435	0	10.04	4004	-45	-70	-28	308	1.178247	1.926086	5	14	0.04	1800
46017	-1652	-3457	-1181	-0.06432503	-7.737749	-32.78218	0	10.15	4002	-10	-69	12	305	1.18048	1.931388	5	14	0.04	1800
46094	750	-1668	218	-0.5421463	-4.186208	-32.38682	0	10.15	4003	-76	102	7	306	1.199077	1.934237	5	14	0.04	1800
46170	1472	1441	-180	1.146909	-5.235395	-32.6214	0	10.15	4004	-134	22	11	308	1.195437	1.934537	5	14	0.04	1800
46362	220	-2213	-800	3.731832	-4.532241	-32.66269	0	10.15	4003	-11	-205	0	304	1.137946	1.948496	5	14	0.04	1800
46381	1404	1621	487	4.234835	-4.470048	-32.40454	0	10.15	4003	-11	-205	0	304	1.122044	1.948496	5	14	0.04	1800
46550	158	-636	1345	4.717407	-5.38134	-32.77334	0	10.15	4003	2	-65	23	302	1.110948	1.968213	5	14	0.04	1800
46585	251	-1783	-587	4.924506	-3.363435	-32.30048	0	10.15	4004	1	180	-6	303	1.124774	1.97046	5	14	0.04	1800
46681	297	500	867	5.826068	-3.383858	-32.26827	0	10.15	4004	95	88	-5	303	1.158368	1.979038	5	14	0.04	1800
46778	1798	1889	1194	6.712365	-5.395286	-32.20861	0	10.15	4002	-6	253	-9	307	1.216805	1.984283	5	14	0.04	1800
46891	2249	248	-1315	7.720113	-7.935813	-32.25145	0	10.15	4003	34	-96	-34	302	1.143069	1.991599	5	14	0.04	1800
46998	790	-2706	-2449	8.943501	-9.312613	-31.45803	0	10.89	4004	-125	156	-11	303	1.112241	1.999511	5	14	0.04	1800
47128	-911	-2630	-393	8.213177	-6.143778	-31.41277	0	10.89	4003	41	-75	-24	306	1.0735	2.004769	5	14	0.04	1800
47226	1205	-1645	-530	6.948771	-3.907259	-32.40273	0	10.89	4004	-141	-77	-9	306	1.131772	2.005995	5	14	0.04	1800
47350	-150	2423	404	7.383645	-5.115448	-32.23658	0	10.89	4002	-15	-235	-17	308	1.017763	2.004095	5	14	0.04	1800
47510	-1935	-660	-1563	5.531014	-6.886861	-31.01228	0	10.89	4004	-67	-98	-43	307	1.085847	1.999193	5	14	0.04	1800
47633	-44	1608	846	2.484846	-9.478613	-32.41924	0	10.89	4002	-100	21	0	301	1.03864	2.006998	5	14	0.04	1800
47687	-245	1235	670	2.807843	-10.63132	-32.67878	0	10.89	4002	-9	-152	3	301	1.023647	2.014352	5	14	0.04	1800
47815	-1022	1218	350	1.98562	-13.86312	-31.98356	0	9.87	4002	105	-134	-20	302	1.131945	2.031806	5	14	0.04	1800
47882	685	2749	-628	2.493062	-15.1029	-31.65866	0	9.87	4002	-53	33	-37	300	1.130047	2.042505	5	14	0.04	1800
47974	110	581	-17	3.806917	-15.68505	-32.2539	0	9.87	4002	-132	112	-19	300	1.124986	2.055495	5	14	0.04	1800
48241	-1128	664	534	1.010167	-14.94389	-32.4393	0	9.87	4002	108	-180	-3	305	1.045966	2.059788	5	14	0.04	1800
48353	-1153	2145	410	0.3844549	-16.11864	-32.28645	0	9.87	4003	50	-39	-16	308	1.108564	2.061602	5	14	0.04	1800
48434	-975	20	-436	-1.571678	-15.54365	-32.31236	0	9.87	4004	14	-72	-27	311	1.148951	2.057216	5	14	0.04	1800
48508	-802	1564	-586	-1.710387	-15.53574	-32.06139	0	9.87	4002	50	-50	-25	309	1.141253	2.052284	5	14	0.04	1800
48538	-644	387	-447	-2.140602	-15.41947	-32.06161	0	9.87	4004	46	10	-26	312	1.058604	2.039939	5	14	0.04	1800
48753	-1131	-115	-47	-0.523709	-10.825	-32.32162	0	10.26	4003	24	31	-1	309	1.095869	2.028677	5	14	0.04	1800
48856	-757	-2280	-195	-0.950523	-9.183957	-32.73258	0	10.26	4003	41	-126	-13	312	1.09184	2.020456	5	14	0.04	1800
48984	-18	1065	543	-1.065424	-6.802848	-32.36938	0	10.26	4003	-16	248	-16	317	1.251642	1.992134	5	14	0.04	1800
49058	-1169	-1285	-1666	-1.115649	-6.790153	-31.6942	0	10.26	4004	126	-153	-49	323	1.236125	1.969453	5	14	0.04	1800
49203	128	177	-382	0.3987372	-6.391322	-31.69656	0	10.26	4003	102	-84	-51	326	1.180799	1.91194	5	14	0.04	1800
49297	-120	-1043	-321	1.579166	-9.177096	-31.99595	0	10.26	4004	20	-226	-9	336	1.046054	1.86343	5	14	0.04	1800
49397	-1293	1002	1571	1.719876	-7.679802	-32.52581	0	10.26	4003	97	-400	-7	334	1.009383	1.808564	5	14	0.04	1800
49454	-1293	1002	1571	1.719876	-7.679802	-32.52581	0	10.26	4003	-117	138	0	338	0.9893581	1.79455	5	14	0.04	1800
49602	35	-606	1009	4.652261	-6.481896	-33.20905	0	10.26	4004	-58	56	13	348	0.8784091	1.683044	5	14	0.04	1800
49721	-118	-2598	-1692	5.451596	-3.636406	-31.87622	0	10.89	4002	-9	-55	-23	324	0.930664	1.636637	5	14	0.04	1800
49794	-350	232	1664	5.705536	-3.953053	-31.06381	0	10.89	4003	-26	37	-40	325	0.9192393	1.615337	5	14	0.04	1800
49867	-1666	-2691	-1806	5.140259	-4.17993	-31.03773	0	10.89	4004	124	-360	-55	322	0.9764248	1.58364	5	14	0.04	1800
49948	-2033	-3920	-1587	3.764261	-2.366059	-31.66089	0	10.89	4002	-53	200	-20	326	1.04624	1.56487	5	14	0.04	1800
50075	964	-395	-1431	3.236176	-0.8965182	-32.08386	0	10.89	4002	-80	79	-13	322	1.213175	1.538894	5	14	0.04	1800
50181	783	3570	-751	3.465524	-2.949524	-32.35855	0	10.89	4002	-19	191	5	335	1.194988	1.519883	5	14	0.04	1800
50292	1987	-272	-709	6.52983	-6.930393	-32.14994	0	10.89	4002	-65	-169	-21	320	1.11447	1.499398	5	14	0.04	1800
50361	1210	3629	-606	8.452696	-8.921227	-31.75603	0	10.89	4003	0	312	-47	319	1.167767	1.490181	5	14	0.04	1800
50449	-538	-574	-718	7.413217	-12.0948	-31.40849	0	10.89	4004	-19	84	-53	314	1.210769	1.490221	5	14	0.04	1800
50627	4248	5798	1514	9.116766	-13.88202	-29.20889	0	10.94	4003	-61	65	-106	307	1.146831	1.508973	5	14	0.04	1800
50655	4248	5798	1514	9.116766	-13.88202	-29.20889	0	10.94	4003	-210	400	-75	307	1.144377	1.513133	5	14	0.04	1800
50837	-325	-315	1872	4.530907	-7.264571	-31.58394	0	10.94	4004	-13	0	-26	302	1.120397	1.54597	5	14	0.04	1800
50937	1450	2620	2517	5.466294	-7.930646	-32.50677	0	10.94	4004	-79	116	25	298	1.131383	1.588718	5	14	0.04	1800
51031	-917	193	-300	7.004633	-11.41209	-32.66952	0	10.94	4003	160	-235	-5	295	1.165956	1.616239	5	14	0.04	1800
51092	-2567	810	-395	4.951613	-12.16175	-32.43075	0	10.94	4003	137	-37	-11	293	1.253147	1.658324	5	14	0.04	1800
51174	-568	1437	-486	3.941736	-14.94889	-32.30424	0	10.94	4003	47	-68	-16	292	1.227895	1.697734	5	14	0.04	1800
51277	-627	-1673	-437	2.479911	-14.06639	-32.4389	0	10.94	4003	-66	-129	-11	287	1.262724	1.76132	5	14	0.04	1800
51422	-977	1665	-464	1.022534	-11.24624	-32.9267	0	10.94	4002	31	-56	-2	266	1.142643	1.871749	5	14	0.04	1800
51469	-651	1459	40	0.5112408	-11.67282	-32.97588	0	10.55	4003	18	-25	16	282	1.135944	1.886185	5	14	0.04	1800
51571	209	434	270	0.5330349	-10.86642	-32.93711	0	10.55	4003	50	-38	-1	287	1.143818	1.967173	5	14	0.04	1800
51619	-165	597	-279	0.7719826	-10.51301	-32.9087	0	10.55	4003	-15	18	0	270	1.152058	1.979218	5	14	0.04	1800
51754	1165	686	-1242	2.33307	-11.51197	-32.10555	0	10.55	4003	70	-133	-23	291	1.174307	2.042012	5	14	0.04	1800
51834	3	-331	-51	3.353579	-11.54126	-31.67499	0	10.55	4004	-28	-46	-30	292	1.170362	2.071846	5	14	0.04	1800
51959	-1143	-3113	284	1.192591	-5.482923	-32.29979	0	10.55	4002	40	-121	-10	294	1.134139	2.114074	5	14	0.04	1800
52098	-470	-1526	594	1.661805	-2.452186	-32.75048	0	10.55	4002	31	-14	10	281	1.173637	2.171871	5	14	0.04	1800
52152	-1482	-2904	-897	0.4227323	-0.2554322	-32.90458	0	10.55	4003	75	-101	7	293	1.186133	2.179201	5	14	0.04	1800
52276	1201	858	-2	2.622567	1.56958	-31.98995	0	10.55	4004	-3	-10	-34	282	1.22098	2.205688	5	14	0.04	1800
52358	-1020	-1585	-478	2.290179	1.534121	-31.77816	0	11	4004	55	5	-33	302	1.081948	2.223772	5	14	0.04	1800
52428	112	-2181	1208	2.106464	3.281087	-32.08575	0	11	4004	42	-37	-2	304	1.104538	2.227552	5	14	0.04	1800
52526	1769	239	1236	4.200668	4.177774	-32.89826	0	11	4003	-89	138	15	310	1.237672	2.225107	5	14	0.04	1800
52680	1091	2921	1838	5.898793	0.03444409	-33.07637	0	11	4002	-75	46	26	321	1.288992	2.195632	5	14	0.04	1800
52735	-453	3333	-1287	4.765635	-3.941532	-32.95599	0	11	4003	-51	104	10	327	1.280521	2.174349	5	14	0.04	1800
52826	738	4457	636	4.781632	-11.45156	-32.63038	0	11	4002	-100	177	14	332	1.245327	2.157918	5	14	0.04	1800
52942	319	174	-517	5.555227	-12.39039	-32.09966	0	11	4004	-89	302	-29	327	1.128121	2.095001	5	14	0.04	1800
53031	3020	3303	498	8.122443	-14.53791	-31.26948	0	11	4003	58	-33	-37	328	1.120823	2.059158	5	14	0.04	1800
53136	247	-210	-644	7.684516	-14.56799	-30.67254	0	11	4004	-46	90	-66	335	1.124717	1.987978	5	14	0.04	1800
53297	811	-3716	-554	6.944947	-4.622295	-31.12308	0	10.09	4002	-102	97	-49	352	1.118101	1.91049	5	14	0.04	1800
53341	321	-3046	604	6.816687	-2.641261	-31.11045	0	10.09	4003	155	-158	-40	335	1.124225	1.873072	5	14	0.04	1800
53530	2844	4280	-2903	5.470403	-6.139955	-30.13703	0	10.09	4004	-261	292	-73	344	1.093798	1.802777	5	14	0.04	1800
53550	2844	4280	-2903	5.470403	-6.139955	-30.13703	0	10.09	4004	-158	-122	-95	327	1.109956	1.786471	5	14	0.04	1800
53643	-3648	-823	-730	4.204301	-7.563509	-28.52528	0	10.09	4004	187	-274	-105	323	1.112342	1.766515	5	14	0.04	1800
53748	1577	4026	1692	3.39862	-6.311079	-28.44271	0	10.09	4003	-7	123	-103	323	1.073412	1.737186	5	14	0.04	1800
53965	-2160	-99	-698	-3.435277	-8.10001	-32.89779	0	10.09	4002	75	-63	-26	328	1.102848	1.694114	5	14	0.04	1800
54109	-2708	619	-558	-8.474412	-6.384696	-31.86288	0	10.09	4004	-47	-88	-40	319	0.9020151	1.686746	5	14	0.04	1800
54207	-816	1790	1206	-9.547571	-7.696929	-31.79945	0	10.77	4002	-115	186	-3	310	0.8683364	1.688694	5	14	0.04	1800
54260	-1881	631	-2202	-10.4389	-8.538428	-31.60713	0	10.77	4003	0	-198	-44	311	0.9018373	1.695479	5	14	0.04	1800
54375	1520	-64	-586	-8.216716	-10.40738	-30.85615	0	10.77	4003	174	-400	-52	307	0.9587001	1.705566	5	14	0.04	1800
54452	354	1910	34	-5.010026	-12.81397	-30.66175	0	10.77	4003	124	-146	-74	303	0.9840721	1.723725	5	14	0.04	1800
54575	-171	1345	2059	-3.854499	-14.29849	-29.43441	0	10.77	4004	-39	155	-52	293	1.042377	1.763919	5	14	0.04	1800
54679	3243	1097	1632	-0.2923502	-12.96676	-32.20649	0	10.77	4002	-195	400	-19	290	1.048091	1.799517	5	14	0.04	1800
54739	2108	1443	-614	3.015539	-14.35016	-31.96954	0	10.77	4004	-28	41	-15	297	1.059284	1.815777	5	14	0.04	1800
54843	1569	-647	494	5.578725	-13.87743	-32.2114	0	10.77	4003	11	-166	-10	293	1.130229	1.876888	5	14	0.04	1800
55030	2014	1916	458	8.180449	-14.03278	-33.49726	0	10.77	4002	-9	186	28	281	1.114743	1.957255	5	14	0.04	1800
55119	1196	1271	-1603	10.5834	-16.97868	-33.33997	0	10.77	4003	-34	-76	5	251	1.159352	2.007995	5	14	0.04	1800
55170	687	2916	161	10.71275	-18.60682	-32.94555	0	10.77	4004	-151	240	6	278	1.184309	2.062026	5	14	0.04	1800
55250	158	967	-843	10.39366	-20.37318	-32.56201	0	10.77	4002	51	-79	-5	251	1.19462	2.147137	5	14	0.04	1800
55362	777	-1817	359	10.18308	-18.2306	-32.92231	0	10.77	4003	8	-56	6	279	1.220118	2.213653	5	14	0.04	1800
55455	1465	-1987	458	10.88672	-13.93157	-33.06182	0	10.77	4004	-67	-12	15	274	1.195622	2.2782	5	14	0.04	1800
55559	-2176	-2811	-927	7.549078	-7.154756	-32.38237	0	10.77	4002	50	-13	-28	278	1.155426	2.323282	5	14	0.04	1800
55645	-2056	-1826	327	4.801585	-4.456983	-32.36736	0	10.77	4004	-38	-66	0	271	1.092031	2.404667	5	14	0.04	1800
55741	-1126	-966	71	2.173133	-1.26668	-32.84985	0	10.77	4004	95	-119	-5	274	1.130034	2.453445	5	14	0.04	1800
55849	-1025	1126	-225	1.197307	-2.077993	-33.09866	0	10.77	4004	44	35	4	273	1.158488	2.544388	5	14	0.04	1800
55952	-1783	-998	-152	-0.6176589	-5.057356	-32.46551	0	10.77	4002	-106	-23	-14	255	1.163798	2.581042	5	14	0.04	1800
56065	-1976	-2269	-691	-2.688821	-3.174709	-32.31889	0	10.77	4002	29	-238	-11	287	1.164705	2.636314	5	14	0.04	1800
56214	-2	1067	1514	-2.107136	-3.814729	-32.30583	0	10.77	4004	-51	66	5	293	1.158891	2.670136	5	14	0.04	1800
56276	623	-504	-1166	-2.6545	-5.785267	-32.05053	0	10.77	4003	-147	253	-5	294	1.143638	2.672682	5	14	0.04	1800
56388	279	-1939	-712	-0.7153106	-6.468411	-31.93108	0	10.77	4003	174	-353	-26	299	1.257318	2.666928	5	14	0.04	1800
56429	1599	898	-95	2.36614	-9.975521	-32.31189	0	10.77	4004	-6	85	-22	305	1.269884	2.663413	5	14	0.04	1800
56532	1684	-2110	-551	3.466115	-8.853091	-31.84688	0	10.77	4002	-66	-16	-19	309	1.163551	2.640525	5	14	0.04	1800
56665	1183	1320	649	5.407366	-8.276636	-31.92082	0	10.77	4002	-126	167	-12	313	1.189879	2.59447	5	14	0.04	1800
56772	982	1233	-1211	7.216662	-11.09182	-31.81566	0	10.77	4003	-11	-166	-43	314	1.206394	2.562092	5	14	0.04	1800
56837	-2116	-2457	-271	6.666776	-11.02325	-31.82158	0	10.77	4003	211	-238	-25	315	1.203905	2.535053	5	14	0.04	1800
56999	-489	-799	-906	4.226771	-9.614017	-31.31551	0	10.43	4003	0	-218	-39	326	1.213549	2.47475	5	14	0.04	1800
57086	-1328	-1622	33	2.771242	-10.30513	-32.73498	0	10.43	4003	134	-296	0	326	1.209573	2.405838	5	14	0.04	1800
57143	-1578	-2473	-458	2.429708	-9.64396	-33.08346	0	10.43	4004	76	-207	2	338	1.229746	2.368347	5	14	0.04	1800
57310	325	1727	-1537	2.773603	-13.13668	-32.39946	0	10.43	4002	64	-229	-33	327	1.172954	2.279721	5	14	0.04	1800
57341	1026	4107	1103	3.279116	-14.6663	-32.38808	0	10.43	4002	-43	142	-1	328	1.144804	2.266623	5	14	0.04	1800
57470	838	-414	57	3.776903	-16.13233	-32.01965	0	10.43	4003	29	-53	-23	324	1.131451	2.190849	5	14	0.04	1800
57548	738	2529	2231	4.378166	-15.88287	-32.04856	0	10.43	4004	85	187	-5	325	1.149026	2.168515	5	14	0.04	1800
57651	649	1012	778	6.399823	-17.54864	-32.88359	0	10.43	4002	-66	178	16	338	1.170131	2.114287	5	14	0.04	1800
57781	-1612	-2543	-1620	2.733299	-17.13135	-32.48211	0	10.43	4003	-95	174	-5	341	1.199984	2.070285	5	14	0.04	1800
57946	774	-1861	-902	2.638976	-12.63707	-31.76127	0	10.32	4002	38	-293	-22	322	1.143308	2.002831	5	14	0.04	1800
58008	-1493	-52	-711	4.24551	-12.28669	-31.4341	0	10.32	4004	-126	15	-43	324	1.135732	1.977004	5	14	0.04	1800
58065	-2408	-2471	-405	3.586915	-12.15134	-31.73306	0	10.32	4004	177	-269	-27	325	1.137258	1.932986	5	14	0.04	1800
58212	-408	460	330	4.029985	-9.07254	-32.06535	0	10.32	4003	18	-143	-14	321	1.134573	1.910137	5	14	0.04	1800
58361	-553	-971	-775	1.020896	-7.498032	-33.27176	0	10.32	4004	-122	-11	17	321	1.147028	1.866113	5	14	0.04	1800
58381	-769	893	-109	0.8150942	-7.620747	-33.37	0	10.32	4003	5	-48	1	328	1.144052	1.836042	5	14	0.04	1800
58480	-1221	919	-128	-0.08799345	-8.726071	-32.73129	0	10.32	4003	29	168	-28	325	1.048996	1.827327	5	14	0.04	1800
58585	45	2908	-229	-0.5919719	-9.610345	-31.75739	0	10.32	4004	-38	200	-38	318	1.129426	1.802117	5	14	0.04	1800
58664	-474	-324	-867	-0.5370961	-10.48833	-31.33698	0	10.32	4003	-12	-38	-23	319	1.111323	1.787516	5	14	0.04	1800
58778	1715	2376	36	1.426874	-10.36004	-31.9726	0	11	4003	-35	307	-19	309	0.9951501	1.777264	5	14	0.04	1800
58902	-407	-3028	255	1.868238	-8.983583	-31.93277	0	11	4002	-112	272	-13	304	1.087874	1.793748	5	14	0.04	1800
58942	-2106	-1528	464	1.624575	-7.649229	-32.04469	0	11	4003	46	129	-20	302	1.087874	1.793748	5	14	0.04	1800
59030	216	3629	1561	0.3659811	-8.899883	-32.73255	0	11	4002	-15	-101	4	302	1.131267	1.809427	5	14	0.04	1800
59146	110	-13	70	1.345453	-12.14347	-33.22623	0	11	4003	28	-107	-2	303	1.097943	1.825399	5	14	0.04	1800
59237	42	2111	-265	1.98762	-12.64691	-32.93193	0	11	4004	-106	-101	6	308	1.095662	1.828263	5	14	0.04	1800
59341	-5	1532	-1756	2.212461	-14.90423	-32.30206	0	11	4003	-59	106	-13	308	1.039136	1.831628	5	14	0.04	1800
59484	1084	619	1270	2.621114	-16.70205	-31.8859	0	11	4004	-3	173	-10	307	1.076967	1.838028	5	14	0.04	1800
59577	1082	3016	1263	2.964117	-18.05354	-32.35835	0	11	4002	-72	208	-2	303	1.160342	1.85058	5	14	0.04	1800
59665	-325	600	539	2.946593	-18.43287	-32.48143	0	11	4003	-3	-72	-1	302	1.119029	1.858188	5	14	0.04	1800
59891	-772	-1132	-748	2.107634	-13.83049	-32.13332	0	10.21	4004	36	-22	-27	305	0.969627	1.870507	5	14	0.04	1800
59991	-900	-863	711	0.9354997	-12.52261	-32.61685	0	10.21	4004	-56	1	12	303	1.077369	1.889136	5	14	0.04	1800
60056	-90	-2498	577	0.4359376	-10.00997	-32.76934	0	10.21	4003	-148	207	5	307	1.109442	1.892288	5	14	0.04	1800
60184	-249	-2235	-343	0.9601988	-5.692896	-32.68208	0	10.21	4003	116	-284	-21	304	1.131034	1.906165	5	14	0.04	1800
60281	596	-231	-737	0.8710672	-3.142034	-31.95787	0	10.21	4003	32	224	-22	304	1.140843	1.914525	5	14	0.04	1800
60433	-354	-1491	-286	5.224722	-3.541915	-31.44123	0	10.21	4003	-6	321	-28	301	1.141297	1.936306	5	14	0.04	1800
60530	386	-796	-840	4.911183	-5.282723	-32.40931	0	10.21	4003	9	-185	-15	305	1.034223	1.946929	5	14	0.04	1800
60584	982	-409	636	5.039051	-5.060243	-32.84986	0	10.21	4003	-74	10	17	306	1.058736	1.950368	5	14	0.04	1800
60666	1228	-1343	-1616	6.233812	-5.673747	-33.08721	0	10.26	4002	-7	-255	-3	308	1.108351	1.950808	5	14	0.04	1800
60825	801	-924	-1443	7.782098	-9.785249	-31.94153	0	10.26	4003	-21	-267	-35	316	1.151344	1.937096	5	14	0.04	1800
60870	-636	-1551	-1379	7.869069	-9.528373	-31.32524	0	10.26	4002	-72	291	-27	322	1.13273	1.929447	5	14	0.04	1800
61003	-1021	-2648	-1450	6.580602	-6.19772	-31.09179	0	10.26	4004	60	-297	-28	310	1.107767	1.919089	5	14	0.04	1800
61108	1496	806	272	5.114729	-5.13513	-31.92768	0	10.26	4002	150	-160	-30	311	1.097519	1.91347	5	14	0.04	1800
61160	1566	672	-588	5.70469	-5.883916	-32.12287	0	10.26	4003	-141	144	-1	0	0.9973442	1.910042	3	14	0.04	1800
61317	-667	1974	797	4.630455	-8.399323	-32.57293	0	10.26	4003	117	-99	-12	0	1.037731	1.916808	3	14	0.04	1800
61357	90	1761	300	3.733903	-8.834775	-32.54019	0	10.26	4004	-84	44	-19	0	1.042311	1.919279	3	14	0.04	1800
61473	-1376	-4970	-239	3.942932	-6.942041	-32.35862	0	10.26	4003	104	-224	-24	0	1.053483	1.93337	3	14	0.04	1800
61556	-1084	-936	-320	2.804595	-4.980774	-31.77253	0	9.64	4003	149	-235	-41	0	1.059194	1.941631	3	14	0.04	1800
61657	-1621	2036	413	0.9487642	-7.695924	-32.24462	0	9.64	4003	200	-188	-16	0	1.065791	1.949273	3	14	0.04	1800
61770	1876	2671	-1664	2.190639	-11.09908	-31.77499	0	9.64	4003	90	-83	-45	0	1.0706	1.95644	3	14	0.04	1800
61862	-1719	1169	222	2.366757	-14.11212	-31.74658	0	9.64	4003	61	-34	-16	0	1.075049	1.985774	3	14	0.04	1800
62004	15	309	283	1.454197	-12.26212	-33.26617	0	9.64	4003	6	-96	9	0	1.077349	2.009317	3	14	0.04	1800
62126	624	2846	-197	1.528923	-13.65277	-33.29897	0	9.64	4004	-13	-16	7	0	1.079477	2.033033	3	14	0.04	1800
62185	172	2809	-1180	1.854421	-14.5891	-33.10387	0	9.64	4004	-2	63	3	0	1.080249	2.041539	3	14	0.04	1800
62311	-82	-2582	232	-0.08497538	-12.26073	-32.3993	0	9.64	4004	19	20	-21	0	1.08114	2.051952	3	14	0.04	1800
62364	213	-2602	-500	-0.1188719	-10.40454	-32.26714	0	9.64	4002	-33	-72	-12	0	1.081789	2.06164	3	14	0.04	1800
62498	-1234	89	127	-0.419189	-8.053026	-32.68544	0	10.09	4002	-5	-46	-5	0	1.082263	2.072387	3	14	0.04	1800
