time(ms)	gyro_x(deg/s)	gyro_y(deg/s)	gyro_z(deg/s)	orientation_roll(deg)	orientation_pitch(deg)	orientation_yaw(deg)	throttle	battery(V)	loop_time(uS)	pid_output_roll	pid_output_pitch	pid_output_yaw	pid_output_throttle	ultrasonic_alt	baro_alt	flight_mode	p_gain_altitude	i_gain_altitude	d_gain_altitude
94072	-20	23	-764	-0.909431	-0.4767496	-34.34376	0	10.72	4004	26	22	14	111	0.04153116	0.3717312	6	10	0.04	1800
94267	154	101	341	-0.8539742	-0.5207723	-34.38984	0	10.32	4004	39	6	15	120	0.04112783	0.3899381	6	10	0.04	1800
94355	47	63	995	-0.8868444	-0.4869725	-34.40276	0	10.32	4002	32	28	13	122	0.0395241	0.3854759	6	10	0.04	1800
94398	96	-269	224	-0.8696553	-0.4548593	-34.39104	0	10.32	4003	17	32	15	123	0.04022595	0.3816262	6	10	0.04	1800
94502	-125	-153	-392	-0.8717184	-0.5066605	-34.39609	0	10.32	4004	38	48	21	126	0.04103679	0.3731509	6	10	0.04	1800
94606	-224	0	378	-0.7566832	-0.2127092	-34.465	0	10.32	4003	9	-24	14	128	0.04145122	0.3670612	6	10	0.04	1800
94710	104	-192	73	-0.6580423	-0.2996012	-34.4484	0	10.32	4003	92	49	22	132	0.04172058	0.3632439	6	10	0.04	1800
94841	-13	-319	309	-0.4903598	-0.4148008	-34.52268	0	10.32	4003	12	43	0	135	0.04202485	0.3558367	6	10	0.04	1800
94945	-132	-7	-705	-0.4360657	-0.3925692	-34.52544	0	10.32	4002	-22	-32	14	139	0.04344494	0.3448697	6	10	0.04	1800
95073	-18	-66	349	-0.4423332	-0.4401162	-34.59311	0	10.94	4002	13	-17	14	144	0.04479216	0.3326496	6	10	0.04	1800
95126	58	-189	-108	-0.4888857	-0.540898	-34.76781	0	10.94	4004	12	54	28	146	0.04449755	0.3283778	6	10	0.04	1800
95261	151	-207	578	-0.4396967	-0.5400404	-34.92097	0	10.94	4004	67	51	31	149	0.04384636	0.3279565	6	10	0.04	1800
95351	47	27	-155	-0.4534772	-0.3082891	-34.94214	0	10.94	4002	-9	-20	24	152	0.04393676	0.335148	6	10	0.04	1800
95436	-170	-220	733	-0.5280539	-0.3262283	-34.98829	0	10.94	4003	38	13	24	154	0.0439957	0.3418674	6	10	0.04	1800
95533	260	-161	-29	-0.4701776	-0.2198561	-34.95809	0	10.94	4003	34	-22	28	157	0.04491101	0.3580763	6	10	0.04	1800
95643	33	-306	983	-0.4762638	-0.1097687	-35.03565	0	10.94	4003	113	56	30	161	0.04482402	0.36673	6	10	0.04	1800
95807	110	-56	-849	-0.4626181	0.0773842	-35.03251	0	10.94	4002	-41	-14	29	165	0.04478323	0.3712008	6	10	0.04	1800
95874	4	124	-590	-0.4212552	0.1626702	-35.20272	0	10.94	4003	6	-4	33	168	0.04487686	0.3745446	6	10	0.04	1800
96061	-12	-501	419	-0.4883087	0.4487023	-36.07968	0	10.43	4002	-7	-35	55	174	0.04525939	0.401245	6	10	0.04	1800
96157	-389	-373	-67	-0.5155587	0.8079091	-36.33766	0	10.43	4003	-51	29	63	175	0.04565357	0.4095783	6	10	0.04	1800
96261	-440	-1050	-378	-0.4252525	1.893098	-37.58873	0	10.43	4003	71	0	90	179	0.04678919	0.4109694	6	10	0.04	1800
96399	61	1200	-698	1.360255	0.2700526	-37.58523	0	10.43	4003	-152	23	87	183	0.04636471	0.4024434	6	10	0.04	1800
96483	874	871	504	3.017866	-0.1492112	-37.01877	0	10.43	4002	-170	241	85	186	0.04635336	0.4011948	6	10	0.04	1800
96582	569	1870	-2302	4.802396	-4.986793	-35.67473	0	10.43	4002	-81	-58	32	187	0.05236105	0.3986482	6	10	0.04	1800
96742	-1621	-1427	465	2.936867	-7.795892	-32.24746	0	10.43	4004	-115	-11	-30	193	0.06011133	0.4024524	6	10	0.04	1800
96765	-2994	-2800	54	1.526683	-6.429592	-32.59436	0	10.43	4004	0	-93	-7	194	0.0609602	0.4028417	6	10	0.04	1800
96971	-1309	91	-1065	-2.027209	-3.315381	-32.61234	0	10.72	4002	-43	-6	-45	203	0.05431714	0.4077219	6	10	0.04	1800
97003	-625	378	-1660	-2.307454	-3.600765	-32.09427	0	10.72	4004	-56	6	-60	204	0.05296713	0.4109728	6	10	0.04	1800
97123	-2312	120	-537	-3.773149	-3.47112	-30.68653	0	10.72	4002	93	-81	-69	205	0.05260709	0.4130487	6	10	0.04	1800
97222	-1135	223	647	-5.621493	-4.085454	-31.99169	0	10.72	4003	129	-114	-26	209	0.05483309	0.4135295	6	10	0.04	1800
97265	-1241	333	365	-5.826681	-4.527378	-32.40168	0	10.72	4003	105	-75	-11	210	0.05562668	0.4167559	6	10	0.04	1800
97368	1477	591	-966	-5.404217	-3.811921	-32.52328	0	10.72	4002	34	-12	-38	212	0.05695034	0.419883	6	10	0.04	1800
97523	1585	-96	784	-2.370321	-4.289828	-31.86527	0	10.72	4003	50	12	-55	217	0.05983303	0.427596	6	10	0.04	1800
97572	1260	1437	845	-0.2864416	-5.123641	-32.59819	0	10.72	4003	-62	19	-27	220	0.05902902	0.4276659	6	10	0.04	1800
97725	641	969	1136	4.219134	-5.682471	-33.14294	0	10.72	4003	-58	-198	-39	224	0.0537217	0.442626	6	10	0.04	1800
97804	375	1649	75	4.374258	-7.502891	-32.85685	0	10.04	4003	89	-121	-25	226	0.05384231	0.4499092	6	10	0.04	1800
97961	-744	-104	161	4.717913	-7.414289	-34.25836	0	10.04	4002	-87	-9	18	228	0.06976974	0.4581847	6	10	0.04	1800
97989	-114	-101	851	4.717913	-7.414289	-34.25836	0	10.04	4002	-87	-9	18	228	0.07486637	0.4585855	6	10	0.04	1800
98102	-311	890	36	3.717848	-8.562282	-34.54251	0	10.04	4002	19	0	9	232	0.08905663	0.4620444	6	10	0.04	1800
98235	-535	949	-181	2.8088	-8.780769	-34.22271	0	10.04	4003	61	-14	8	236	0.1032478	0.4606744	6	10	0.04	1800
98370	-356	-345	10	3.994677	-10.51656	-33.61496	0	10.04	4004	-4	-50	-12	242	0.112475	0.4418353	6	10	0.04	1800
98441	-3194	-2133	-125	1.056893	-8.197145	-33.42984	0	10.04	4003	-21	-74	-12	244	0.1144356	0.4373327	6	10	0.04	1800
98543	415	850	721	-2.200153	-6.957818	-33.39814	0	10.04	4003	-94	-9	-5	250	0.1081491	0.4365788	6	10	0.04	1800
98674	-1270	-1678	-498	-3.650048	-5.650461	-32.84693	0	10.04	4003	7	66	-27	253	0.102535	0.4497992	6	10	0.04	1800
98773	-48	-100	582	-4.318592	-4.807001	-32.87969	0	10.49	4003	-55	45	-32	254	0.1032663	0.4552449	6	10	0.04	1800
98921	-22	-875	-585	-2.005917	-3.634623	-33.90306	0	10.49	4004	103	-34	5	256	0.1160409	0.4635896	6	10	0.04	1800
99029	2343	3152	263	1.486402	-7.201385	-33.98333	0	10.49	4003	-64	25	5	256	0.1426332	0.4718861	6	10	0.04	1800
99126	54	-93	250	2.878014	-9.662919	-33.78943	0	10.49	4002	52	-227	9	3619	0.1653365	0.4776112	5	10	0.04	1800
99215	-874	-2434	-1022	-0.4507349	-6.87126	-32.84673	0	10.49	4003	20	-182	-44	290	0.195474	0.4996674	5	10	0.04	1800
99279	-730	2885	1984	0.1735845	-7.334637	-33.17503	0	10.49	4003	-1	-103	-23	284	0.2251814	0.5133768	5	10	0.04	1800
99399	-41	-1269	594	-0.07785001	-9.678233	-34.47488	0	10.49	4003	64	-313	-3	290	0.3651593	0.5584773	5	10	0.04	1800
99455	665	-2502	-625	1.163595	-8.472649	-34.35655	0	10.49	4003	38	-138	19	284	0.4041377	0.5738302	5	10	0.04	1800
99620	1881	-648	-962	4.928255	-9.086049	-33.9785	0	10.38	4003	41	-286	-10	288	0.6666294	0.6338874	5	10	0.04	1800
99657	1773	456	295	5.665187	-8.722545	-33.875	0	10.38	4003	-157	279	5	287	0.7093492	0.6445142	5	10	0.04	1800
99797	-436	-1545	1525	5.645759	-7.085706	-32.68809	0	10.38	4004	-162	304	-19	286	0.8036008	0.6674519	5	10	0.04	1800
99919	-1007	-2328	209	3.109601	-4.159943	-33.04891	0	10.38	4003	56	11	-25	285	0.9023806	0.7024449	5	10	0.04	1800
100079	-425	352	723	1.847018	-3.459294	-33.67624	0	10.38	4003	15	-53	-27	284	0.9906262	0.7709147	5	10	0.04	1800
100195	-1611	1681	1122	-0.5806298	-4.540777	-33.81382	0	10.38	4008	52	29	-13	284	1.048972	0.8030684	5	10	0.04	1800
100247	-1661	-2043	-842	-0.7874235	-5.289481	-33.77093	0	10.38	4002	32	-350	2	284	1.094833	0.8372383	5	10	0.04	1800
100351	-1634	-1282	-521	-2.437208	-4.739424	-33.8707	0	10.38	4004	81	-207	-12	277	1.146843	0.8692776	5	10	0.04	1800
100455	441	-413	-333	-1.86088	-5.859927	-34.167	0	10.38	4003	-85	-95	20	270	1.12819	0.9394149	5	10	0.04	1800
100637	-531	550	413	-0.3016919	-10.56824	-32.87634	0	10.83	4003	65	-177	-22	269	1.133614	1.031462	5	10	0.04	1800
100779	1268	1118	544	1.360949	-10.43117	-32.54539	0	10.83	4002	46	-215	-61	257	1.198714	1.153861	5	10	0.04	1800
100888	-127	-2356	-867	3.705101	-13.01199	-33.81323	0	10.83	4003	64	-313	-12	254	1.13591	1.279851	5	10	0.04	1800
101033	2202	-94	32	2.589463	-10.8141	-33.20448	0	10.83	4003	43	4	-27	257	1.17563	1.385575	5	10	0.04	1800
101070	1867	-814	-225	3.675524	-10.42123	-32.94203	0	10.83	4003	-141	77	-17	259	1.156112	1.423858	5	10	0.04	1800
101248	-142	-1261	407	3.822381	-6.40182	-33.7394	0	10.83	4004	-16	-177	3	254	1.233407	1.566524	5	10	0.04	1800
101306	580	45	710	3.677892	-6.235742	-33.71938	0	10.83	4004	-72	171	2	251	1.114915	1.628211	5	10	0.04	1800
101366	-226	-961	-578	4.264137	-7.460093	-33.10404	0	10.83	4004	99	-217	-30	251	1.152291	1.691076	5	10	0.04	1800
101499	964	328	-10	4.305921	-8.298457	-32.30944	0	10.55	4003	-93	-101	-30	250	1.138492	1.7738	5	10	0.04	1800
101624	-239	1503	-1126	4.312801	-12.10938	-32.87091	0	10.55	4003	6	-6	-34	260	1.15056	2.012716	5	10	0.04	1800
101715	1583	912	97	4.392964	-13.02978	-33.32615	0	10.55	4003	-108	103	-7	251	1.200845	2.042386	5	10	0.04	1800
101757	2069	792	1133	6.201265	-12.84901	-33.4784	0	10.55	4003	-94	51	-2	250	1.222283	2.05781	5	10	0.04	1800
101954	-63	276	-382	5.52634	-11.95935	-33.93678	0	10.55	4002	34	-37	1	232	1.250249	2.198198	5	10	0.04	1800
102020	-92	1329	-59	5.105466	-12.13918	-33.7774	0	10.55	4004	-133	-26	-7	227	1.242873	2.264477	5	10	0.04	1800
102134	-1318	-1504	-709	3.514593	-11.53746	-33.73311	0	10.55	4002	-94	-62	-7	245	1.247205	2.315513	5	10	0.04	1800
102187	-1942	-1923	-16	1.727417	-8.37203	-33.71299	0	10.55	4003	40	-34	-5	249	1.225159	2.394725	5	10	0.04	1800
102307	889	-709	-545	1.342401	-6.693578	-33.2906	0	10.55	4004	-110	44	-7	252	1.237491	2.450423	5	10	0.04	1800
102471	-171	-2414	723	0.947218	-2.962422	-33.65878	0	10.77	4003	-23	-93	-1	245	1.200455	2.530101	5	10	0.04	1800
102606	2396	2733	-761	2.186091	-4.799805	-33.69857	0	10.77	4004	79	-180	-12	257	1.234842	2.581059	5	10	0.04	1800
102688	2264	3706	358	4.85671	-7.9423	-33.47326	0	10.77	4002	-66	-59	-18	270	1.258792	2.5897	5	10	0.04	1800
102792	1778	2877	-1213	6.926628	-12.93185	-32.85384	0	10.77	4002	59	-168	-54	274	1.192066	2.590498	5	10	0.04	1800
102891	-2516	-1660	956	5.038728	-13.32698	-32.94196	0	10.77	4003	19	-52	-5	276	1.191453	2.587418	5	10	0.04	1800
102963	-110	-1909	1154	3.196535	-10.22921	-33.28856	0	10.77	4002	-28	-81	-11	279	1.191299	2.58305	5	10	0.04	1800
103157	-1021	-40	-404	0.840314	-7.553399	-34.78908	0	10.77	4003	57	22	17	291	1.206427	2.556496	5	10	0.04	1800
103192	-2187	-734	676	-0.08449546	-7.453837	-35.25299	0	10.77	4002	170	-116	27	295	1.262018	2.551646	5	10	0.04	1800
103368	823	-1551	-1837	-2.365816	-4.576838	-33.94033	0	10.72	4003	-37	-1	5	305	1.235719	2.505357	5	10	0.04	1800
103487	0	-395	-887	-1.509545	-5.313614	-33.24067	0	10.72	4004	45	-211	-26	290	1.146295	2.463362	5	10	0.04	1800
103649	2832	1836	1858	0.4271153	-5.671279	-32.84216	0	10.72	4003	-50	139	-12	294	1.06673	2.398098	5	10	0.04	1800
103678	2665	1363	578	2.06149	-6.651278	-32.75885	0	10.72	4004	-3	-40	-35	296	1.100995	2.387671	5	10	0.04	1800
103774	-843	-660	693	2.722747	-6.897579	-33.91603	0	10.72	4004	70	0	-8	299	1.132184	2.351689	5	10	0.04	1800
103878	1180	1289	-942	3.503079	-6.923363	-33.72257	0	10.72	4002	51	-50	-19	300	1.148711	2.27854	5	10	0.04	1800
104036	200	1686	-608	2.082772	-9.501698	-34.22648	0	10.72	4004	-46	-123	5	305	1.026297	2.202133	5	10	0.04	1800
104182	-1097	-704	-759	1.460573	-12.55713	-34.33844	0	10.72	4004	-28	-181	9	301	1.100619	2.103865	5	10	0.04	1800
104219	-707	2174	1049	1.219477	-12.69352	-34.57864	0	10.09	4002	-15	90	6	306	1.085911	2.090236	5	10	0.04	1800
104373	612	-374	-1365	1.490909	-13.70338	-34.55323	0	10.09	4003	7	-159	-2	306	0.9376404	1.998764	5	10	0.04	1800
104441	754	-1649	-1238	2.700114	-11.96935	-34.42416	0	10.09	4003	-99	23	13	311	0.9545426	1.966786	5	10	0.04	1800
104497	-591	760	-349	3.154186	-12.23343	-34.45682	0	10.09	4003	-63	-104	23	337	0.9877133	1.945827	5	10	0.04	1800
104601	12	-669	-138	3.025501	-11.92944	-34.36878	0	10.09	4004	-131	114	19	335	1.042936	1.892925	5	10	0.04	1800
104674	1012	-302	-368	3.199796	-10.36017	-34.27917	0	10.09	4004	-24	-91	2	306	1.07405	1.84483	5	10	0.04	1800
104812	1110	1967	-353	3.777632	-10.89171	-34.13301	0	10.09	4003	-200	270	2	302	1.079193	1.816563	5	10	0.04	1800
104941	83	1007	1429	5.567628	-12.16771	-33.22742	0	10.09	4003	-129	332	-8	302	1.083694	1.788495	5	10	0.04	1800
105045	-1171	734	806	4.593114	-11.90328	-33.24323	0	10.09	4004	-28	-150	-26	303	1.085592	1.761396	5	10	0.04	1800
105132	-1678	-1292	-406	3.145435	-9.838545	-33.59666	0	10.77	4004	1	16	9	297	0.9980074	1.754435	5	10	0.04	1800
105272	-103	277	59	1.886805	-6.443248	-34.28933	0	10.77	4003	-25	85	5	292	1.094327	1.760243	5	10	0.04	1800
105306	-436	-2052	-774	2.038513	-6.60774	-34.11333	0	10.77	4003	66	-204	-8	289	1.143165	1.760243	5	10	0.04	1800
105395	-497	-4508	-1551	2.113552	-4.727399	-33.53217	0	10.77	4004	139	-400	-30	292	1.192628	1.771134	5	10	0.04	1800
105492	196	143	-632	1.232153	-1.640886	-33.32718	0	10.77	4004	60	-104	-31	288	1.199315	1.781017	5	10	0.04	1800
105645	830	694	1640	3.598501	-2.849432	-33.51392	0	10.77	4003	-56	-99	-22	286	1.192565	1.814694	5	10	0.04	1800
105722	218	-1114	-1488	3.468114	-3.461954	-33.64215	0	10.77	4004	60	-189	-21	292	1.161438	1.839273	5	10	0.04	1800
105805	289	770	589	4.487881	-7.280672	-34.02763	0	10.77	4002	-18	41	13	285	1.180742	1.859508	5	10	0.04	1800
105862	189	-491	767	4.200968	-7.087087	-34.13179	0	10.77	4004	-29	24	22	284	1.186907	1.8769	5	10	0.04	1800
106024	-705	802	1347	3.895357	-7.425048	-34.24292	0	10.21	4002	83	78	19	287	1.185649	1.907383	5	10	0.04	1800
106068	-608	-1121	-845	4.014766	-7.764526	-34.19987	0	10.21	4004	84	-136	-2	287	1.067084	1.911233	5	10	0.04	1800
106180	540	1207	1246	3.012627	-6.34765	-34.36481	0	10.21	4004	-59	230	13	291	1.080377	1.923059	5	10	0.04	1800
106280	-213	-1382	-942	3.836521	-6.835318	-34.30302	0	10.21	4004	-48	-34	19	285	1.118175	1.959303	5	10	0.04	1800
106365	471	628	1039	4.847473	-7.43254	-33.51561	0	10.21	4002	12	65	-10	275	1.151746	1.996613	5	10	0.04	1800
106492	1731	2373	1817	6.104966	-8.601204	-32.85817	0	10.21	4003	-33	-181	-44	261	1.140675	2.038488	5	10	0.04	1800
106595	-22	-1490	1000	5.972764	-7.223255	-34.14413	0	10.21	4003	-77	-92	12	266	1.07011	2.107541	5	10	0.04	1800
106730	1438	1335	847	6.913902	-8.148968	-34.35059	0	10.21	4004	-35	199	20	272	1.078118	2.150232	5	10	0.04	1800
106793	-506	56	-736	7.433315	-9.66545	-33.84499	0	10.21	4004	165	-251	-14	273	1.200684	2.185479	5	10	0.04	1800
106943	-684	-711	1419	5.343642	-7.46659	-32.51714	0	10.49	4002	-29	11	-14	280	1.146235	2.225835	5	10	0.04	1800
106983	-406	-224	1688	4.395592	-6.827478	-32.55446	0	10.49	4002	-95	145	-23	279	1.132797	2.230066	5	10	0.04	1800
107038	-496	-2131	-1390	4.001734	-7.304469	-32.45923	0	10.49	4002	-45	170	-33	277	1.120702	2.234991	5	10	0.04	1800
107156	-1155	464	1242	4.437468	-6.988167	-31.9428	0	10.49	4004	-71	119	-43	276	1.133162	2.265035	5	10	0.04	1800
107276	-127	63	1726	2.507376	-4.954293	-34.20599	0	10.49	4004	31	-169	12	275	1.14164	2.300526	5	10	0.04	1800
107382	746	2935	1206	2.990255	-6.134217	-34.44448	0	10.49	4003	14	210	25	277	1.161327	2.323169	5	10	0.04	1800
107431	-285	-1968	-1695	2.655903	-8.335873	-33.67434	0	10.49	4004	102	-163	-24	276	1.161917	2.328196	5	10	0.04	1800
107575	-1290	-2086	-1274	1.113192	-5.631145	-33.30176	0	10.49	4003	7	-227	-25	280	1.09855	2.359728	5	10	0.04	1800
107667	82	31	-471	2.047521	-5.515093	-33.33307	0	10.49	4003	-69	60	-14	283	1.09727	2.374545	5	10	0.04	1800
107752	595	-58	584	1.768752	-5.510656	-33.58234	0	10.49	4004	-125	181	-8	279	1.116688	2.383956	5	10	0.04	1800
107904	2377	4125	-264	4.039155	-10.13466	-32.35127	0	10.09	4002	-176	-34	-68	282	1.108503	2.404352	5	10	0.04	1800
108097	-1067	-738	311	5.09494	-12.78689	-32.59983	0	10.09	4004	36	-119	-35	280	1.092267	2.430551	5	10	0.04	1800
108203	-726	1008	221	5.717823	-12.21266	-32.88436	0	10.09	4003	42	72	-28	283	1.133038	2.445349	5	10	0.04	1800
108270	-2125	-1831	-1220	4.374969	-11.5982	-32.91782	0	10.09	4002	39	-217	-40	283	1.188021	2.44844	5	10	0.04	1800
108362	-1618	-3478	-1632	2.300435	-9.889787	-33.2257	0	10.09	4004	183	-385	-39	286	1.195849	2.45474	5	10	0.04	1800
108507	-820	-2661	-3273	2.718666	-12.9345	-32.41504	0	10.09	4003	28	-283	-24	283	1.071956	2.452319	5	10	0.04	1800
108541	-411	1170	1049	2.526194	-13.0342	-32.29635	0	10.09	4003	76	-36	-64	284	1.039095	2.455177	5	10	0.04	1800
108774	56	-3913	-1235	-4.90767	-3.272097	-30.38868	0	10.49	4003	89	-153	-81	274	1.115123	2.496159	5	10	0.04	1800
108927	4121	1818	96	5.845142	-10.96809	-31.8191	0	10.49	4004	-137	-47	-30	257	1.027401	2.556978	5	10	0.04	1800
108961	2234	1449	670	7.345049	-11.29556	-32.27592	0	10.49	4004	88	-35	-23	268	1.040149	2.57676	5	10	0.04	1800
109048	1957	443	-759	9.058968	-12.084	-33.73685	0	10.49	4003	11	-193	-10	269	1.071502	2.615578	5	10	0.04	1800
109082	626	1012	-862	12.14321	-14.98444	-33.32173	0	10.49	4004	92	-28	-11	270	1.139632	2.648782	5	10	0.04	1800
109142	1091	1514	222	12.17179	-16.80805	-32.84731	0	10.49	4003	-79	-65	-27	269	1.209524	2.674976	5	10	0.04	1800
109193	205	523	-2	12.94204	-18.86988	-32.43938	0	10.49	4004	74	-187	-44	268	1.23807	2.712229	5	10	0.04	1800
109302	1227	-116	-1993	12.04448	-15.37876	-32.33221	0	10.49	4003	-100	44	-58	243	1.115265	2.780715	5	10	0.04	1800
109335	-528	24	589	13.10927	-14.98207	-31.9344	0	10.49	4003	-2	-4	-38	239	1.179858	2.835375	5	10	0.04	1800
109438	-2326	-3756	804	7.894561	-10.91217	-32.89458	0	10.43	4003	-39	-87	-6	259	1.259833	2.878294	5	10	0.04	1800
109496	-419	-3569	364	6.392336	-6.842439	-33.41671	0	10.43	4002	-63	-55	6	255	1.260789	2.949268	5	10	0.04	1800
109608	-2530	-1228	10	2.967538	-3.31112	-34.77484	0	10.43	4003	48	17	31	251	1.250782	2.995624	5	10	0.04	1800
109730	-768	-2046	729	0.8955142	-0.5040081	-34.91943	0	10.43	4003	-64	-64	28	258	1.231525	3.08009	5	10	0.04	1800
109804	-727	135	-1621	1.783857	-0.6873983	-34.35331	0	10.43	4003	94	-207	-22	255	1.212394	3.120195	5	10	0.04	1800
109984	-135	434	240	1.106665	-5.394929	-32.88103	0	10.43	4002	-5	28	-22	249	1.185449	3.196019	5	10	0.04	1800
110062	110	1119	481	2.195547	-6.345954	-33.17911	0	10.43	4002	72	-94	-12	266	1.195497	3.234767	5	10	0.04	1800
110193	-1352	409	180	1.22408	-7.877692	-33.85049	0	10.43	4004	27	-14	6	272	1.188823	3.251948	5	10	0.04	1800
110276	-410	361	-280	0.6627122	-7.753253	-33.96136	0	10.43	4004	53	-51	1	270	1.090418	3.268692	5	10	0.04	1800
110372	1038	2018	374	1.208799	-8.771906	-33.56224	0	10.66	4004	-47	135	-8	263	1.134508	3.28889	5	10	0.04	1800
110420	582	297	70	2.132954	-9.524288	-33.14074	0	10.66	4004	31	81	-20	273	1.131659	3.298925	5	10	0.04	1800
110513	39	-1389	-62	2.349867	-7.766149	-33.02512	0	10.66	4002	-32	-35	-16	269	1.009439	3.309743	5	10	0.04	1800
110601	99	-1044	66	2.737249	-6.126815	-33.40026	0	10.66	4002	97	-37	-11	277	1.002923	3.313893	5	10	0.04	1800
110751	703	245	800	2.333103	-4.866824	-33.7257	0	10.66	4004	-46	201	-3	284	1.098985	3.310658	5	10	0.04	1800
110795	-710	105	-400	2.628784	-5.58309	-33.79766	0	10.66	4003	-46	201	-3	284	1.160311	3.300953	5	10	0.04	1800
110901	-353	-742	274	1.475191	-6.569317	-34.19519	0	10.66	4002	41	117	10	287	1.206145	3.283214	5	10	0.04	1800
111034	2216	1730	-304	2.432375	-6.882074	-33.47745	0	10.66	4003	-151	279	-11	290	1.250012	3.249095	5	10	0.04	1800
111090	476	99	-518	3.068884	-7.378647	-33.14008	0	10.66	4004	46	-17	-48	298	1.233827	3.229832	5	10	0.04	1800
111211	-447	-2381	-1047	0.4378274	-3.644041	-33.92849	0	10.66	4002	-22	-154	-5	309	1.0603	3.184602	5	10	0.04	1800
111326	986	3269	304	3.754014	-5.377056	-34.67263	0	9.3	4003	-165	345	27	298	1.084527	3.157223	5	10	0.04	1800
111395	211	1952	-1808	3.386464	-7.479333	-33.49922	0	9.3	4003	-22	-20	-32	300	1.127668	3.10776	5	10	0.04	1800
111589	-496	1341	1675	3.92072	-7.141715	-32.07933	0	9.3	4004	-77	84	-13	318	1.139053	3.020292	5	10	0.04	1800
111623	-464	-44	574	3.942644	-7.637201	-32.46495	0	9.3	4002	22	-111	-20	299	1.137103	3.009548	5	10	0.04	1800
111817	-540	-1284	420	3.556077	-6.31733	-33.12468	0	9.3	4004	-27	-105	-38	294	1.163802	2.946414	5	10	0.04	1800
111931	37	652	537	2.896342	-6.42204	-32.80667	0	9.3	4002	-47	-3	-14	294	1.202184	2.900807	5	10	0.04	1800
112004	289	1141	755	3.894969	-7.972057	-33.19109	0	9.3	4004	-63	4	-3	295	1.094196	2.879969	5	10	0.04	1800
112115	-308	474	-708	4.514958	-9.333386	-33.2129	0	9.3	4002	179	-287	-21	295	1.097659	2.848102	5	10	0.04	1800
112294	889	-102	-2665	6.718577	-14.51711	-31.41603	0	10.38	4002	-94	170	-66	310	1.142004	2.787789	5	10	0.04	1800
112456	744	237	-329	4.889202	-13.80187	-32.27902	0	10.38	4002	-103	3	-20	299	1.144859	2.731827	5	10	0.04	1800
112528	669	1350	2357	5.492138	-13.33666	-33.41327	0	10.38	4004	-130	-114	20	297	1.164706	2.709933	5	10	0.04	1800
112639	-1185	1178	218	3.417791	-14.7041	-33.1211	0	10.38	4004	-39	90	-32	291	1.168631	2.684424	5	10	0.04	1800
112722	76	-393	-2591	1.562786	-13.63846	-31.91677	0	10.38	4002	-67	100	-86	284	1.055665	2.683108	5	10	0.04	1800
112829	497	707	-87	2.913797	-11.44712	-29.00636	0	10.38	4002	68	224	-151	291	1.052723	2.686495	5	10	0.04	1800
112956	-934	-4518	2936	1.50363	-4.77578	-32.2808	0	10.38	4002	45	16	14	284	1.022788	2.68525	5	10	0.04	1800
113017	-1904	-2701	953	0.9357325	-2.686564	-33.48837	0	10.38	4003	38	-74	6	282	1.031134	2.690066	5	10	0.04	1800
113122	-724	268	41	0.1496971	-3.108169	-36.06674	0	10.83	4003	64	-19	37	277	0.957052	2.697938	5	10	0.04	1800
113290	-130	394	-1928	-0.6054533	-2.648265	-34.89027	0	10.83	4002	13	-89	-1	277	1.104071	2.723384	5	10	0.04	1800
113347	-533	548	-891	0.2645474	-4.039026	-33.64624	0	10.83	4003	133	-25	-23	278	1.166056	2.732708	5	10	0.04	1800
113441	1	1473	4	-0.1697205	-5.731085	-32.61741	0	10.83	4004	-9	-216	-31	275	1.140728	2.750952	5	10	0.04	1800
113535	186	-1181	-2267	-0.4315082	-5.609203	-32.23033	0	10.83	4004	118	95	-42	269	1.138269	2.771962	5	10	0.04	1800
113657	1674	-363	784	3.479627	-12.77845	-33.08153	0	10.83	4002	0	-71	-30	267	1.216813	2.833811	5	10	0.04	1800
113752	322	-726	-362	4.71915	-9.768345	-33.52476	0	10.83	4004	-54	75	-7	253	1.218447	2.871636	5	10	0.04	1800
113886	1467	1496	269	5.217899	-11.9965	-33.78613	0	10.83	4002	-61	-84	-4	262	1.201778	2.929998	5	10	0.04	1800
113987	-172	-270	-1271	6.243187	-13.31573	-33.05075	0	10.83	4003	91	-124	-26	263	1.261212	2.987427	5	10	0.04	1800
114139	-1677	-1573	31	2.694907	-12.0239	-32.96341	0	10.04	4002	71	-61	-26	261	1.134245	3.050271	5	10	0.04	1800
114212	-581	-984	-192	1.949641	-11.26952	-33.24599	0	10.04	4003	52	-155	-15	257	1.098282	3.08752	5	10	0.04	1800
114274	609	-1186	-1125	2.029641	-9.88423	-33.35891	0	10.04	4002	-6	-120	-23	243	1.101153	3.122525	5	10	0.04	1800
114353	-610	-21	210	3.437317	-8.904264	-33.5444	0	10.04	4004	54	-7	-12	261	1.131146	3.167305	5	10	0.04	1800
114459	-1404	-2032	-271	1.684407	-8.139783	-33.67329	0	10.04	4002	68	-181	-19	260	1.192503	3.209368	5	10	0.04	1800
114626	-709	-657	-344	1.722838	-5.663273	-33.92791	0	10.04	4003	36	-50	-4	264	1.272481	3.275926	5	10	0.04	1800
114676	747	-1274	-133	1.769068	-4.520639	-33.89682	0	10.04	4003	-32	74	5	264	1.290597	3.28423	5	10	0.04	1800
114744	-180	-822	-115	2.346554	-4.081221	-33.90306	0	10.04	4003	119	-97	3	246	1.27092	3.301682	5	10	0.04	1800
114922	-165	-1653	-430	2.911986	-6.387509	-32.94545	0	10.04	4002	56	-70	-23	264	1.278628	3.374465	5	10	0.04	1800
115031	-174	1390	-8	0.9245866	-6.574072	-33.78762	0	10.32	4004	-27	121	-1	271	1.266676	3.392766	5	10	0.04	1800
115146	83	-167	-370	3.246078	-9.532336	-33.58082	0	10.32	4004	49	-120	-9	277	1.227574	3.398848	5	10	0.04	1800
115274	140	-69	-1365	3.4776	-9.414973	-33.04465	0	10.32	4002	28	-163	-39	284	1.19093	3.395373	5	10	0.04	1800
115329	1387	3111	248	3.866513	-10.1637	-33.04047	0	10.32	4003	-218	296	-13	285	1.170971	3.384436	5	10	0.04	1800
115474	80	-2425	-863	3.181174	-12.39291	-32.78015	0	10.32	4003	139	-288	-50	287	1.159813	3.356199	5	10	0.04	1800
115591	-456	145	-208	4.046454	-12.00927	-33.60207	0	10.32	4003	-52	201	3	288	1.075408	3.321465	5	10	0.04	1800
115623	388	24	-365	3.879924	-12.30437	-33.91956	0	10.32	4004	51	-21	-7	295	1.091347	3.315494	5	10	0.04	1800
115760	654	-380	-585	6.348314	-13.62037	-34.13638	0	10.32	4002	-5	135	22	290	1.188141	3.261327	5	10	0.04	1800
115879	817	-1379	374	4.92753	-13.53173	-34.11585	0	10.26	4003	8	-31	18	290	1.065531	3.248189	5	10	0.04	1800
115988	1217	-17	25	6.267922	-12.94239	-33.80309	0	10.26	4002	144	-319	-11	299	1.062766	3.207121	5	10	0.04	1800
116059	-483	1042	-599	6.036287	-13.23032	-33.33305	0	10.26	4004	82	-86	-32	292	1.104491	3.17821	5	10	0.04	1800
116148	-133	141	1160	5.736109	-13.19227	-33.6152	0	10.26	4002	-68	68	8	296	1.092837	3.159127	5	10	0.04	1800
116189	-355	-481	1199	5.29581	-12.40739	-33.80723	0	10.26	4003	-149	205	12	287	0.964781	3.144309	5	10	0.04	1800
116294	500	-911	-185	3.38854	-10.94945	-34.05805	0	10.26	4003	73	-7	-19	287	0.9725196	3.127217	5	10	0.04	1800
116430	-866	-1542	-875	2.938853	-8.390619	-33.53437	0	10.26	4002	69	-134	-21	287	0.9551372	3.101937	5	10	0.04	1800
116541	-382	-979	1172	2.19592	-7.887545	-33.59064	0	10.26	4002	-91	-22	3	287	1.046929	3.085409	5	10	0.04	1800
116604	-419	24	-16	2.156785	-8.877024	-33.80908	0	10.26	4002	201	-213	-4	287	1.081494	3.080918	5	10	0.04	1800
116706	-178	2078	779	2.393106	-9.305271	-34.16984	0	10.26	4004	-61	319	0	289	1.117105	3.0553	5	10	0.04	1800
116809	-611	944	1160	1.235053	-10.65846	-34.32355	0	9.53	4002	25	-51	14	287	1.142404	3.034339	5	10	0.04	1800
116912	1002	-2195	762	1.349591	-8.909928	-34.145	0	9.53	4004	-105	91	19	286	1.102931	3.015348	5	10	0.04	1800
117083	1665	359	132	2.17727	-9.194444	-34.2258	0	9.53	4002	-131	61	9	284	1.175249	2.991714	5	10	0.04	1800
117229	312	315	-704	4.160698	-10.98836	-33.29653	0	9.53	4003	121	-223	-24	289	1.195901	2.971593	5	10	0.04	1800
117322	71	-695	-457	5.00348	-10.51806	-33.05413	0	9.53	4004	-84	170	-13	296	1.241485	2.95762	5	10	0.04	1800
117430	-174	-1237	-239	4.118094	-7.862012	-33.46247	0	9.53	4004	47	-79	-20	297	1.276424	2.931983	5	10	0.04	1800
117623	-1299	-2242	-1777	2.434254	-5.692527	-34.64285	0	9.53	4003	-60	-57	28	287	1.286387	2.907945	5	10	0.04	1800
117670	-1670	-5	1658	1.917531	-5.271932	-34.69934	0	9.53	4004	165	-20	6	290	1.273905	2.890743	5	10	0.04	1800
117808	958	550	-66	0.8461901	-4.789087	-33.83913	0	10.77	4004	-96	309	-13	282	1.204061	2.882686	5	10	0.04	1800
117843	302	-986	-880	0.7957482	-4.399529	-33.52136	0	10.77	4002	-25	-121	-24	283	1.083655	2.882441	5	10	0.04	1800
117922	-148	-365	-194	1.585971	-4.168027	-33.2937	0	10.77	4003	153	-300	-22	281	1.047398	2.882204	5	10	0.04	1800
118056	367	-1531	-1308	3.301421	-4.098334	-33.59641	0	10.77	4004	101	-334	-14	285	1.106605	2.88256	5	10	0.04	1800
118128	-517	-2317	-902	2.483535	-2.71725	-34.11441	0	10.77	4003	4	-29	-9	289	0.9959447	2.880331	5	10	0.04	1800
118267	1563	1876	124	5.097546	-2.32199	-34.41521	0	10.77	4003	-101	285	23	288	1.026725	2.859879	5	10	0.04	1800
118381	1964	1295	-869	6.641953	-2.706312	-32.80977	0	10.77	4003	148	-400	-30	285	1.023623	2.849763	5	10	0.04	1800
118455	2409	-39	-241	9.481733	-4.012717	-31.90315	0	10.77	4003	2	-291	-59	284	1.089424	2.845914	5	10	0.04	1800
118542	562	2910	1340	10.14416	-5.688492	-31.96813	0	10.77	4003	-120	154	-37	285	1.046268	2.840264	5	10	0.04	1800
118706	2214	-2398	-399	10.16249	-10.35693	-30.38893	0	10.26	4004	-81	35	-79	291	1.003928	2.824387	5	10	0.04	1800
118832	169	4987	1669	10.75239	-10.0043	-32.81986	0	10.26	4004	2	-190	-40	285	0.9609432	2.813447	5	10	0.04	1800
118946	-220	366	640	10.53399	-13.45101	-33.3847	0	10.26	4003	-5	48	-26	281	0.9602545	2.811491	5	10	0.04	1800
119003	-1265	-3014	802	10.15285	-12.42671	-33.46545	0	10.26	4003	21	-127	3	280	1.006656	2.814345	5	10	0.04	1800
119088	-1642	-2559	115	6.71993	-6.120754	-33.18176	0	10.26	4002	9	193	-29	277	1.06894	2.826745	5	10	0.04	1800
119235	-1714	-1375	-114	2.91964	-5.252571	-33.60664	0	10.26	4002	-25	-23	-13	271	1.088415	2.842539	5	10	0.04	1800
119292	-1879	-1408	-266	1.025664	-2.698975	-33.76676	0	10.26	4003	20	-48	-12	264	1.137081	2.866478	5	10	0.04	1800
119396	-171	352	661	0.4879012	-1.379049	-33.85564	0	10.26	4002	-135	59	5	270	1.182131	2.898496	5	10	0.04	1800
119623	136	1281	778	-0.4600362	-5.887619	-33.49301	0	10.72	4003	-12	4	0	270	1.201885	2.949459	5	10	0.04	1800
119762	-44	971	125	-0.3041391	-6.301973	-34.44432	0	10.72	4004	6	-48	12	261	1.252163	3.005194	5	10	0.04	1800
119824	-164	1103	248	-0.135694	-6.929992	-34.58969	0	10.72	4003	3	14	10	264	1.261643	3.011036	5	10	0.04	1800
119888	277	1163	-195	-0.1331974	-7.252427	-34.49701	0	10.72	4002	-99	-30	14	272	1.277853	3.026325	5	10	0.04	1800
120033	-541	954	-198	0.490041	-8.334084	-33.91739	0	10.72	4004	29	-25	-1	275	1.15927	3.049611	5	10	0.04	1800
120181	972	1639	-219	-0.6153806	-8.949768	-33.98005	0	10.72	4004	-20	12	0	279	1.064271	3.056368	5	10	0.04	1800
120231	835	873	3	0.003961735	-9.148928	-34.03787	0	10.72	4002	-65	-12	-8	277	1.031175	3.05947	5	10	0.04	1800
120387	-360	1724	247	0.6264713	-9.770127	-34.23163	0	10.72	4002	24	-59	6	283	1.079956	3.056404	5	10	0.04	1800
120452	-234	999	-100	0.6482328	-10.60136	-34.16901	0	9.92	4004	46	-29	4	290	1.108235	3.05412	5	10	0.04	1800
120513	200	2093	-537	0.9124094	-11.32203	-33.84236	0	9.92	4004	13	-33	-9	295	1.15659	3.042391	5	10	0.04	1800
120614	-609	1900	-397	0.4052508	-12.33447	-33.76248	0	9.92	4004	-41	80	-9	292	1.169952	3.010761	5	10	0.04	1800
120694	-338	-998	587	0.6838433	-12.23899	-33.50631	0	9.92	4003	-20	-54	-13	293	1.130396	2.985328	5	10	0.04	1800
120804	989	-974	-949	1.120334	-9.0486	-33.35022	0	9.92	4003	-100	76	-31	293	1.132544	2.960885	5	10	0.04	1800
120854	34	-2421	679	2.101191	-7.226725	-33.42168	0	9.92	4004	25	56	-14	294	1.140781	2.954323	5	10	0.04	1800
120975	-982	-2191	-241	1.760126	-3.259284	-33.42962	0	9.92	4002	85	-63	-18	287	1.179099	2.924925	5	10	0.04	1800
121060	348	624	-409	1.843918	-2.687546	-33.56479	0	9.92	4003	-21	109	-11	290	1.191886	2.904233	5	10	0.04	1800
121225	-666	-1411	-622	1.189975	-0.9201282	-33.82214	0	9.92	4003	2	-63	-11	295	1.141168	2.870223	5	10	0.04	1800
121314	-687	669	-238	0.4632852	-1.987357	-34.09026	0	9.98	4003	96	-63	-11	302	1.154553	2.804263	5	10	0.04	1800
121422	803	2221	1567	0.1789467	-3.632144	-34.32237	0	9.98	4004	-100	-119	-5	311	1.134268	2.752702	5	10	0.04	1800
121478	622	886	796	1.599069	-3.6457	-34.05605	0	9.98	4002	-140	378	14	307	1.145332	2.711008	5	10	0.04	1800
121603	433	-605	-519	1.084675	-0.9699339	-34.40436	0	9.98	4003	36	-127	0	336	1.060429	2.627672	5	10	0.04	1800
121637	199	1317	1601	1.40373	-1.626096	-34.72256	0	9.98	4004	-106	98	38	316	1.060407	2.612277	5	10	0.04	1800
121722	-325	405	48	1.425009	-2.945952	-34.85399	0	9.98	4003	100	20	-8	348	1.171221	2.493204	5	10	0.04	1800
121744	-308	-236	374	1.338079	-2.152024	-34.16873	0	9.98	4004	-2	204	-2	317	1.226189	2.403843	5	10	0.04	1800
121764	124	690	1613	1.616588	-1.472837	-34.22684	0	9.98	4003	100	-123	1	327	1.221634	2.34615	5	10	0.04	1800
121792	2111	1186	-1298	3.319609	-2.887212	-34.11507	0	9.98	4003	-54	-27	-2	321	1.238353	2.309799	5	10	0.04	1800
121836	1144	2011	-555	5.46839	-5.209033	-33.64756	0	9.98	4002	97	-212	-6	319	1.255322	2.241508	5	10	0.04	1800
121987	-611	-1297	-1382	6.702112	-7.275059	-32.15103	0	9.92	4004	123	-400	-69	345	1.1765	2.120595	5	10	0.04	1800
122138	-790	-233	2644	4.646076	0.07582463	-34.31178	0	9.92	4003	87	50	37	313	1.14681	2.058822	5	10	0.04	1800
122273	793	2833	824	5.213438	-1.591567	-35.59295	0	9.92	4004	63	96	47	310	1.107205	1.997108	5	10	0.04	1800
122340	-566	-963	-1692	4.149612	-6.526997	-34.43213	0	9.92	4002	30	-114	-7	312	1.081919	1.972332	5	10	0.04	1800
122454	260	1276	700	3.092525	-4.232574	-32.8023	0	9.92	4002	131	-185	-31	305	1.123601	1.948249	5	10	0.04	1800
122533	1506	368	-102	4.447482	-4.685035	-33.11282	0	9.92	4002	116	-313	-26	305	1.135474	1.937895	5	10	0.04	1800
122671	-492	-714	690	5.305458	-5.470184	-33.01455	0	9.92	4004	-20	-85	-13	316	1.088659	1.932572	5	10	0.04	1800
122782	273	-272	511	4.892075	-4.88815	-33.50909	0	9.98	4003	-123	80	-3	325	1.124318	1.928379	5	10	0.04	1800
122837	237	1513	-526	5.668475	-5.410605	-33.42395	0	9.98	4003	0	-44	-24	301	1.178739	1.918793	5	10	0.04	1800
123031	-1361	-3851	-1691	1.554556	-4.769582	-33.21088	0	9.98	4002	158	-339	-42	302	1.16785	1.919306	5	10	0.04	1800
123086	312	-256	-401	1.661572	-4.43806	-32.9145	0	9.98	4003	-11	-103	-39	302	1.112388	1.917122	5	10	0.04	1800
123204	-982	-2068	601	2.833834	-4.920285	-32.34184	0	9.98	4003	-91	-34	-29	305	1.090277	1.916732	5	10	0.04	1800
123319	1717	2051	793	3.743775	-4.998693	-32.25211	0	9.98	4003	-178	307	-32	310	1.047867	1.922426	5	10	0.04	1800
123354	-172	-220	-283	4.531234	-5.959082	-32.10031	0	9.98	4003	154	-114	-55	295	1.043339	1.929169	5	10	0.04	1800
123423	-1598	-2291	-104	3.155232	-5.381962	-32.40089	0	9.98	4003	89	-186	-41	293	1.024064	1.949738	5	10	0.04	1800
123539	301	-265	-559	2.140508	-4.563255	-32.87901	0	9.98	4004	53	-142	-28	293	0.9369839	1.977211	5	10	0.04	1800
123664	-786	-831	-1981	0.8941132	-6.583216	-32.40372	0	9.98	4002	-124	309	-29	282	0.9533796	2.010501	5	10	0.04	1800
123839	-218	-2589	1499	1.046378	-3.224551	-33.21262	0	10.09	4003	-10	-50	9	265	1.063996	2.105061	5	10	0.04	1800
123971	-148	-1049	-894	1.323163	-0.2059216	-34.62676	0	10.09	4004	39	-79	13	277	1.111972	2.149106	5	10	0.04	1800
124022	252	-839	-368	1.720194	-0.3563994	-34.69164	0	10.09	4004	105	-121	9	276	1.11829	2.18134	5	10	0.04	1800
124139	-905	-235	-1586	3.040196	-3.165591	-33.02184	0	10.09	4002	126	-118	-31	279	1.103867	2.218709	5	10	0.04	1800
124271	631	1481	666	2.29264	-6.260142	-32.82259	0	10.09	4004	26	81	-30	282	1.156498	2.275244	5	10	0.04	1800
124336	986	1281	793	2.958182	-7.598784	-33.12285	0	10.09	4003	-64	-92	-15	278	1.15945	2.296255	5	10	0.04	1800
124383	500	-309	567	3.732213	-8.409161	-34.08342	0	10.09	4003	-45	-10	12	280	1.161119	2.30301	5	10	0.04	1800
124535	290	218	-463	5.309735	-8.396211	-34.30039	0	10.09	4004	123	-192	-2	280	1.19014	2.346295	5	10	0.04	1800
124683	302	199	-375	5.860979	-11.53181	-33.58992	0	10.15	4003	89	-95	-17	287	1.180637	2.381956	5	10	0.04	1800
124783	-32	-300	708	5.455578	-9.597815	-33.56575	0	10.15	4003	-70	48	0	290	1.308811	2.391168	5	10	0.04	1800
124948	-152	578	106	6.122037	-10.43315	-33.8117	0	10.15	4002	55	-11	4	295	1.29272	2.393069	5	10	0.04	1800
125007	-853	1026	647	5.735824	-10.26346	-33.86955	0	10.15	4004	20	23	5	301	1.303393	2.390812	5	10	0.04	1800
125092	117	240	-734	4.526484	-10.16468	-33.71448	0	10.15	4004	23	-110	-20	293	1.291203	2.392	5	10	0.04	1800
