time(ms)	gyro_x(deg/s)	gyro_y(deg/s)	gyro_z(deg/s)	orientation_roll(deg)	orientation_pitch(deg)	orientation_yaw(deg)	throttle	battery(V)	loop_time(uS)	pid_output_roll	pid_output_pitch	pid_output_yaw	pid_output_throttle	ultrasonic_alt	baro_alt	flight_mode	p_gain_altitude	i_gain_altitude	d_gain_altitude	compass_heading	latitude	longitude
33675	47	-1	-4	0.6653783	-0.1885947	0.9701238	0	12.08	4004	0	0	5	5	0.3855318	0.3593311	1	6	0.04	1800	-0.1559753	40.92393	-91.39362
33710	50	2	-3	0.6689639	-0.1907456	0.9729974	0	12.08	4004	0	0	5	5	0.3855318	0.3629011	1	6	0.04	1800	0.07992963	40.92393	-91.39362
33845	40	-9	-1	0.6760651	-0.1895831	0.9776438	0	12.08	4002	0	0	5	5	0.3855318	0.3688725	1	6	0.04	1800	0.06200629	40.92393	-91.39362
33993	45	0	-1	0.6770269	-0.180546	0.985285	0	12.08	4003	0	0	5	5	0.3855318	0.3730743	3	6	0.04	1800	-0.1746521	40.92393	-91.39362
34085	55	-3	-5	0.6758371	-0.180665	0.9895642	0	12.08	4003	0	0	5	5	0.3855318	0.3766843	3	6	0.04	1800	0.0637086	40.92393	-91.39362
34205	43	0	-3	0.6800122	-0.1888634	0.9929881	0	12.08	4003	0	0	5	5	0.3855318	0.3809138	3	6	0.04	1800	0.05782064	40.92393	-91.39362
34240	42	-5	0	0.680207	-0.1873526	0.9947609	0	12.08	4002	0	0	5	5	0.3855318	0.3800016	3	6	0.04	1800	0.05725561	40.92393	-91.39362
34417	44	2	-5	0.6856386	-0.1856761	1.00332	0	12.14	4002	0	0	5	5	0.3855318	0.3699687	3	6	0.04	1800	-0.1948242	40.92393	-91.39362
34492	39	0	-8	0.6891206	-0.1836113	1.005521	0	12.14	4002	0	0	5	5	0.3855318	0.3653709	3	6	0.04	1800	0.0429375	40.92393	-91.39362
34556	48	3	-6	0.6881142	-0.1859862	1.008578	0	12.14	4002	0	0	5	5	0.3855318	0.361595	3	6	0.04	1800	-0.2001038	40.92393	-91.39362
34636	34	7	1	0.6903496	-0.1866877	1.012368	0	12.14	4003	0	0	5	5	0.3855318	0.3493976	3	6	0.04	1800	0.03759037	40.92393	-91.39362
34708	45	4	-7	0.6882243	-0.1845466	1.017871	0	12.14	4003	0	0	5	5	0.3855318	0.3404939	3	6	0.04	1800	0.04647201	40.92393	-91.39362
34849	112	-84	175	0.7009863	-0.1632138	1.018847	0	12.14	4004	0	0	5	5	0.3855318	0.3337769	3	6	0.04	1800	0.04332836	40.92393	-91.39362
34970	45	39	-318	0.7635795	-0.1467952	1.05112	0	12.14	4003	0	0	5	5	0.3855318	0.3244336	3	6	0.04	1800	0.4970101	40.92393	-91.39362
35029	75	34	75	0.7412574	-0.1291299	1.014006	0	12.14	4004	0	0	5	5	0.3855318	0.3183029	3	6	0.04	1800	-0.03475952	40.92393	-91.39362
35112	79	0	-44	0.756311	-0.157805	1.03283	0	12.14	4003	0	0	5	5	0.3855318	0.3062861	3	6	0.04	1800	0.188864	40.92393	-91.39362
35338	51	78	-145	0.725893	-0.1269672	0.9745725	0	12.02	4003	0	0	5	5	0.3855318	0.2748333	3	6	0.04	1800	0.7134654	40.92393	-91.39362
35506	6	-117	6	0.758665	-0.1714593	1.035471	0	12.02	4002	0	0	5	5	0.3855318	0.2755903	3	6	0.04	1800	0.8995736	40.92393	-91.39362
35569	23	-2	101	0.7622781	-0.1722601	1.035945	0	12.02	4004	0	0	5	5	0.3855318	0.279103	3	6	0.04	1800	0.8605493	40.92393	-91.39362
35620	93	-13	286	0.7242727	-0.1561256	1.014659	0	12.02	4004	0	0	5	5	0.3855318	0.2866897	3	6	0.04	1800	0.8605493	40.92393	-91.39362
35830	112	-28	-162	0.6450989	-0.1723594	1.051288	0	12.02	4003	0	0	5	5	0.3855318	0.3153398	3	6	0.04	1800	0.5189861	40.92393	-91.39362
35921	112	-20	-64	0.6616728	-0.1812111	1.047983	0	12.02	4003	0	0	5	5	0.3855318	0.3261153	3	6	0.04	1800	0.5989031	40.92393	-91.39362
35957	6	-25	-59	0.6591858	-0.1683739	1.048533	0	12.02	4003	0	0	5	5	0.3855318	0.3261153	3	6	0.04	1800	0.5989031	40.92393	-91.39362
36043	23	-33	-27	0.6770101	-0.1355254	1.049698	0	12.02	4003	0	0	5	5	0.3855318	0.3419182	3	6	0.04	1800	-0.1863708	40.92393	-91.39362
36189	79	0	-82	0.7116348	-0.1064726	1.057272	0	11.97	4003	0	0	5	5	0.3855318	0.3381858	3	6	0.04	1800	0.5254369	40.92393	-91.39362
36328	102	-149	31	0.7545628	-0.1057995	1.065215	0	11.97	4002	0	0	5	5	0.3855318	0.3268631	3	6	0.04	1800	0.4053462	40.92393	-91.39362
36408	194	69	-229	0.7887835	-0.03805947	1.065333	0	11.97	4002	0	0	5	5	0.3855318	0.3254267	3	6	0.04	1800	-0.2176514	40.92393	-91.39362
36482	30	-148	218	0.8413372	0.00193459	1.066422	0	11.97	4002	0	0	5	5	0.3855318	0.3227555	3	6	0.04	1800	0.2659944	40.92393	-91.39362
36596	-78	-37	273	0.7981429	-0.006688209	1.058483	0	11.97	4003	0	0	5	5	0.3855318	0.3179818	3	6	0.04	1800	0.3476643	40.92393	-91.39362
36626	-19	-276	600	0.8153269	0.03421291	1.041044	0	11.97	4004	0	0	5	5	0.3855318	0.3179818	3	6	0.04	1800	0.3476643	40.92393	-91.39362
36724	87	181	-38	0.8872747	0.01000249	1.095004	0	11.97	4002	0	0	5	5	0.3855318	0.3208736	3	6	0.04	1800	0.1254167	40.92393	-91.39362
36885	23	-32	-107	0.796719	0.1606516	1.068877	0	11.97	4002	0	0	5	5	0.3855318	0.3234471	3	6	0.04	1800	-0.216217	40.92393	-91.39362
36928	63	-82	-258	0.7714712	0.1665043	1.077368	0	11.97	4002	0	0	5	5	0.3855318	0.3241503	3	6	0.04	1800	-0.216217	40.92393	-91.39362
37062	-84	3	-365	0.7409889	0.1498836	1.080122	0	12.02	4003	0	0	5	5	0.3855318	0.3186276	3	6	0.04	1800	0.6396835	40.92393	-91.39362
37155	193	4	781	0.7829475	0.2065454	1.038917	0	12.02	4004	0	0	5	5	0.3855318	0.3130126	3	6	0.04	1800	-0.3139038	40.92393	-91.39362
37319	-80	56	-389	0.7794464	0.1352979	1.098074	0	12.02	4004	0	0	5	5	0.3855318	0.306187	3	6	0.04	1800	0.3710927	40.92393	-91.39362
37391	90	-58	522	0.7765585	0.1726363	1.089521	0	12.02	4003	0	0	5	5	0.3855318	0.3023891	3	6	0.04	1800	-0.07421875	40.92393	-91.39362
37549	157	107	77	0.8018655	0.1892955	1.10135	0	12.02	4002	0	0	5	5	0.3855318	0.2814826	3	6	0.04	1800	-0.3861389	40.92393	-91.39362
37667	-18	76	152	0.7599193	0.2021859	1.098424	0	12.02	4004	0	0	5	5	0.3855318	0.278225	3	6	0.04	1800	0.1414897	40.92393	-91.39362
37784	67	96	8	0.788869	0.2218041	1.108437	0	12.02	4003	0	0	5	5	0.3855318	0.2724604	3	6	0.04	1800	0.1446343	40.92393	-91.39362
37846	41	-62	-65	0.7781807	0.1689932	1.11072	0	12.02	4002	0	0	5	5	0.3855318	0.2715147	3	6	0.04	1800	0.1850163	40.92393	-91.39362
37953	154	-11	255	0.7893454	0.2765544	1.112906	0	12.02	4004	0	0	5	5	0.3855318	0.2716559	3	6	0.04	1800	0.4219813	40.92393	-91.39362
38104	108	-40	-211	0.8046023	0.2679745	1.135514	0	12.02	4003	0	0	5	5	0.3855318	0.2698994	3	6	0.04	1800	0.3439479	40.92393	-91.39362
38241	171	-31	-190	0.7627632	0.2979439	1.123366	0	12.02	4002	0	0	5	5	0.3855318	0.2689896	3	6	0.04	1800	-0.05471802	40.92393	-91.39362
38334	-4	-77	-259	0.7024036	0.3741068	1.128258	0	12.02	4002	0	0	5	5	0.3855318	0.2789751	3	6	0.04	1800	-0.06530762	40.92393	-91.39362
38547	78	-132	55	0.7276787	0.4565654	1.103061	0	12.02	4003	0	0	5	5	0.3855318	0.2909322	3	6	0.04	1800	1.272413	40.92393	-91.39362
38609	66	-46	-465	0.7713062	0.5388749	1.089986	0	12.02	4003	0	0	5	5	0.3855318	0.2887036	3	6	0.04	1800	0.6514516	40.92393	-91.39362
38797	-123	-115	-220	0.9458199	0.6988187	1.082546	0	12.02	4004	0	0	5	5	0.3855318	0.29052	3	6	0.04	1800	-1.147675	40.92394	-91.39362
38892	17	131	406	0.963299	0.857928	1.079379	0	11.8	4003	0	0	5	5	0.3855318	0.2978899	3	6	0.04	1800	-0.4135132	40.92394	-91.39362
38935	72	-57	-52	0.9924171	0.9399255	1.072415	0	11.8	4002	0	0	5	5	0.3855318	0.3003946	3	6	0.04	1800	-0.4135132	40.92394	-91.39362
39124	-12	8	684	0.9486438	1.064459	1.029342	0	11.8	4003	0	0	5	5	0.3855318	0.3260654	3	6	0.04	1800	-0.6407166	40.92394	-91.39362
39191	174	30	-35	0.9932151	1.197257	1.050061	0	11.8	4002	0	0	5	5	0.3855318	0.3238565	3	6	0.04	1800	-0.6810303	40.92394	-91.39362
39247	188	-228	-430	0.9556373	1.261436	1.073847	0	11.8	4002	0	0	5	5	0.3855318	0.3248915	3	6	0.04	1800	-0.6810303	40.92394	-91.39362
39395	153	181	-649	0.807393	1.127427	1.077827	0	11.8	4002	0	0	5	5	0.3855318	0.333075	3	6	0.04	1800	-0.7381287	40.92394	-91.39362
39516	-143	96	-190	0.6973418	1.060441	1.024007	0	11.8	4003	0	0	5	5	0.3855318	0.3333759	3	6	0.04	1800	0.2827199	40.92394	-91.39362
39579	13	80	-74	0.7429897	0.9778282	0.9978508	0	11.8	4004	0	0	5	5	0.3855318	0.3320348	3	6	0.04	1800	0.3601257	40.92394	-91.39362
39693	77	-122	117	1.009651	1.070297	1.000616	0	11.8	4004	0	0	5	5	0.3855318	0.3441308	3	6	0.04	1800	0.2681438	40.92394	-91.39362
39803	53	-28	-548	0.9330051	1.091239	1.028653	0	11.68	4003	0	0	5	5	0.3855318	0.3693035	3	6	0.04	1800	0.4718537	40.92394	-91.39362
39858	-16	63	114	0.9429675	1.111198	0.9971635	0	11.68	4003	0	0	5	5	0.3855318	0.3902114	3	6	0.04	1800	0.4718537	40.92394	-91.39362
40022	128	63	-766	0.935651	1.265242	1.000554	0	11.68	4003	0	0	5	5	0.3855318	0.4118223	3	6	0.04	1800	0.0409783	40.92394	-91.39362
40074	-63	63	-379	0.7581414	1.194489	0.9651518	0	11.68	4004	0	0	5	5	0.3855318	0.4096531	3	6	0.04	1800	-0.9822693	40.92394	-91.39362
40184	92	63	-624	0.8560441	1.168188	0.966841	0	11.68	4003	0	0	5	5	0.3855318	0.4078929	3	6	0.04	1800	0.2301871	40.92394	-91.39362
40288	7	223	12	0.993658	1.093226	0.9633207	0	11.68	4003	0	0	5	5	0.3855318	0.4071217	3	6	0.04	1800	-0.6338806	40.92394	-91.39362
40382	764	-720	735	0.9536105	1.140253	0.8116096	0	11.68	4003	-300	300	5	5	0.3855318	0.4025511	8	6	0.04	1800	0.3532545	40.92394	-91.39362
40534	-220	-2328	-856	1.224283	3.828023	1.408194	0	11.68	4004	0	0	5	5	0.3855318	0.3941321	8	6	0.04	1800	0.023273	40.92394	-91.39362
40643	-301	-536	-315	-0.2286133	8.259085	1.761276	0	11.68	4003	-2	0	5	5	0.3855318	0.3929297	8	6	0.04	1800	-0.02175903	40.92394	-91.39362
40751	-281	1191	685	-0.6435142	7.976764	1.868828	0	11.63	4003	-2	0	5	5	0.3855318	0.40403	8	6	0.04	1800	0.5455594	40.92394	-91.39362
40829	-120	2184	305	-0.845563	4.931791	1.727499	0	11.63	4003	-2	-2	5	5	0.3855318	0.4140629	8	6	0.04	1800	0.7948013	40.92394	-91.39362
40971	-176	1481	833	-1.049851	1.223	1.343016	0	11.63	4003	-2	0	5	5	0.3855318	0.461644	8	6	0.04	1800	0.7174051	40.92394	-91.39362
41082	-447	591	-29	-1.473922	-0.3606532	0.9589857	0	11.63	4003	-2	0	5	5	0.3855318	0.4914103	8	6	0.04	1800	0.8785074	40.92394	-91.39362
41133	229	18	-85	-1.70932	-0.6595375	0.9719733	0	11.63	4003	-2	0	5	5	0.3855318	0.5023756	8	6	0.04	1800	1.921462	40.92394	-91.39362
41315	-327	1167	-910	-1.522706	-3.02975	0.9344823	0	11.63	4003	-2	0	5	5	0.3855318	0.5380945	8	6	0.04	1800	2.165609	40.92394	-91.39362
41406	404	4417	1166	-0.1149243	-11.04385	0.76582	0	11.63	4004	-4	0	5	5	0.3855318	0.5517902	8	6	0.04	1800	-0.1229553	40.92394	-91.39362
41614	520	1195	-953	0.5921949	-19.43377	0.5627322	0	11.63	4003	-4	0	5	5	0.3855318	0.5634219	8	6	0.04	1800	0.3751822	40.92394	-91.39362
41740	-15	-4664	5795	-0.1753115	-12.5415	-7.355313	0	11.8	4003	-4	0	5	5	0.3855318	0.5565336	8	6	0.04	1800	0.5456637	40.92394	-91.39362
41872	1901	-4123	-2687	1.652768	-6.76823	-9.082887	0	11.8	4003	-4	0	5	5	0.3855318	0.5579413	8	6	0.04	1800	7.665502	40.92394	-91.39362
41976	226	-1675	-5135	3.175203	-2.137674	-3.282052	0	11.8	4002	-4	0	5	5	0.3855318	0.5600385	8	6	0.04	1800	9.961425	40.92394	-91.39362
42092	-423	1623	-107	-0.6593536	-3.732427	2.263837	0	11.8	4004	-6	0	5	5	0.3855318	0.549671	8	6	0.04	1800	7.37917	40.92394	-91.39362
42279	-232	2136	2228	0.4485648	-12.1588	2.305217	0	11.8	4002	-6	-2	5	5	0.3855318	0.5513387	8	6	0.04	1800	3.980975	40.92394	-91.39362
42421	2928	-1922	1735	5.329423	-6.472187	-6.809221	0	11.8	4003	-6	0	5	5	0.3855318	0.5505417	8	6	0.04	1800	6.974695	40.92394	-91.39362
42519	1513	-2027	-565	9.479243	-1.773352	-7.892477	0	11	4002	-6	0	5	5	0.3855318	0.5463051	8	6	0.04	1800	6.169547	40.92394	-91.39362
42682	-3312	694	-2105	7.042686	5.670653	-2.178019	0	11	4003	-4	-2	5	5	0.3855318	0.508007	8	6	0.04	1800	7.949791	40.92394	-91.39362
42797	-5342	6825	-1360	-1.521606	-4.229084	-0.3972577	0	11	4004	-6	0	5	5	0.3855318	0.483905	8	6	0.04	1800	6.748584	40.92394	-91.39362
42883	-895	2240	-716	-6.737209	-13.2996	1.787124	0	11	4004	-6	0	5	5	0.3855318	0.4661752	8	6	0.04	1800	3.220439	40.92394	-91.39362
42994	-645	-1870	-1612	-8.257204	-11.4237	3.386521	0	11	4003	-6	0	5	5	0.3855318	0.4583992	8	6	0.04	1800	-2.001099	40.92394	-91.39362
43062	990	-386	-532	-5.280957	-9.108682	4.270039	0	11	4003	-6	0	5	5	0.3855318	0.4594939	8	6	0.04	1800	-5.7211	40.92394	-91.39362
43237	-403	91	419	-4.913169	-7.254757	3.722272	0	11	4003	-4	-2	5	5	0.3855318	0.46134	8	6	0.04	1800	-5.258911	40.92394	-91.39362
43404	1287	405	652	-2.552758	-6.163677	1.139159	0	11	4003	-8	-2	5	5	0.3855318	0.4700132	8	6	0.04	1800	-3.262848	40.92394	-91.39362
43437	1017	441	777	-1.87262	-6.309412	0.9616764	0	11.8	4003	-8	-2	5	5	0.3855318	0.47172	8	6	0.04	1800	-3.262848	40.92394	-91.39362
43526	667	260	-698	-1.084116	-7.029612	0.9034089	0	11.8	4004	-8	-2	5	5	0.3855318	0.4738387	8	6	0.04	1800	-2.903229	40.92394	-91.39362
43736	-484	-203	115	-1.245299	-5.921911	1.564594	0	11.8	4004	-8	-2	5	5	0.3855318	0.470208	8	6	0.04	1800	-2.739777	40.92394	-91.39362
43845	-39	-644	-52	-2.060177	-4.738836	1.578086	0	11.8	4002	-8	-2	5	5	0.3855318	0.4652857	8	6	0.04	1800	-1.811554	40.92394	-91.39362
43982	-152	-551	246	-2.080026	-4.037226	1.707777	0	11.8	4004	-8	-2	5	5	0.3855318	0.4529037	8	6	0.04	1800	-2.459442	40.92394	-91.39362
44102	146	111	395	-2.352929	-2.871694	1.714332	0	11.8	4003	-8	-2	5	5	0.3855318	0.4374218	8	6	0.04	1800	-1.117767	40.92394	-91.39362
44121	146	111	395	-2.352929	-2.871694	1.714332	0	11.8	4003	-8	-2	5	5	0.3855318	0.4352438	8	6	0.04	1800	-1.117767	40.92394	-91.39362
44227	-216	-549	-329	-2.435504	-2.373186	1.822473	0	11.8	4004	-8	-4	5	5	0.3855318	0.4256283	8	6	0.04	1800	-1.237366	40.92393	-91.39362
44422	357	59	490	-2.113059	-1.503573	1.585547	0	11.8	4003	-8	-4	5	5	0.3855318	0.4168158	8	6	0.04	1800	-1.435974	40.92393	-91.39362
44507	140	-489	352	-1.866432	-0.8751187	1.422624	0	11.8	4004	-8	-4	5	5	0.3855318	0.4152936	8	6	0.04	1800	-1.30484	40.92393	-91.39362
44588	-165	-745	-326	-1.873991	-0.2745058	1.635544	0	11.8	4003	-8	-4	5	5	0.3855318	0.4152143	8	6	0.04	1800	-0.5999451	40.92393	-91.39362
44644	362	279	-193	-1.782231	0.04556932	1.489917	0	11.8	4002	-8	-4	5	5	0.3855318	0.4179654	8	6	0.04	1800	0.5918189	40.92393	-91.39362
44772	-97	-54	-50	-1.551792	0.2452123	1.466444	0	11.8	4002	0	0	5	5	0.3855318	0.4177352	3	6	0.04	1800	-0.2593384	40.92393	-91.39362
44932	89	1868	-526	-2.071748	-0.9587036	1.979831	0	11.8	4004	0	0	5	5	0.3855318	0.4186593	3	6	0.04	1800	-0.400177	40.92393	-91.39362
45016	-457	742	46	-2.328718	-3.166059	1.542744	0	11.8	4003	0	0	5	5	0.3855318	0.415722	3	6	0.04	1800	-1.302307	40.92393	-91.39362
45223	-92	8	-20	-2.188204	-2.90359	1.572848	0	11.8	4002	0	0	5	5	0.3855318	0.4061579	3	6	0.04	1800	-1.274445	40.92393	-91.39362
45294	35	-208	-265	-1.936539	-2.870758	1.568948	0	11.74	4004	0	0	5	5	0.3855318	0.4005716	3	6	0.04	1800	-0.7652893	40.92393	-91.39362
45364	-182	24	118	-1.844755	-2.661155	1.55708	0	11.74	4003	0	0	5	5	0.3855318	0.3967259	3	6	0.04	1800	-1.262421	40.92393	-91.39362
45433	392	0	-354	-1.576534	-2.562155	1.590149	0	11.74	4003	0	0	5	5	0.3855318	0.3964729	3	6	0.04	1800	-1.088928	40.92393	-91.39362
45507	87	62	260	-1.426294	-2.541207	1.530915	0	11.74	4004	0	0	5	5	0.3855318	0.3979865	3	6	0.04	1800	-1.54483	40.92393	-91.39362
45629	-5	92	-292	-1.506964	-2.20926	1.55273	0	11.74	4002	0	0	5	5	0.3855318	0.393371	3	6	0.04	1800	-1.465637	40.92393	-91.39362
45815	-93	-44	-208	-1.502469	-2.312227	1.547353	0	11.74	4003	0	0	5	5	0.3855318	0.3790458	3	6	0.04	1800	-1.728485	40.92393	-91.39362
45866	241	-204	194	-1.43173	-2.234236	1.542705	0	11.74	4003	0	0	5	5	0.3855318	0.3781634	3	6	0.04	1800	-0.9190063	40.92393	-91.39362
45980	117	-249	-98	-1.148056	-2.159093	1.539018	0	11.74	4002	0	0	5	5	0.3855318	0.3850836	3	6	0.04	1800	-1.321564	40.92393	-91.39362
46103	156	-98	15	-0.9537292	-1.96	1.506416	0	11.74	4003	0	0	5	5	0.3855318	0.3864636	3	6	0.04	1800	-1.557861	40.92393	-91.39362
46195	-179	-721	281	-0.8889241	-1.241759	1.485553	0	11.8	4003	0	0	5	5	0.3855318	0.3864706	3	6	0.04	1800	-2.168701	40.92393	-91.39362
46294	248	-691	344	-0.8691788	-0.03725605	1.542779	0	11.8	4003	0	0	5	5	0.3855318	0.3902819	3	6	0.04	1800	-1.102448	40.92393	-91.39362
46347	641	-776	112	-0.7604942	0.3354253	1.558123	0	11.8	4003	0	0	5	5	0.3855318	0.3905521	3	6	0.04	1800	-0.5063782	40.92393	-91.39362
46501	538	-722	450	0.4500603	2.201395	1.105752	0	11.8	4003	0	0	5	5	0.3855318	0.3821691	3	6	0.04	1800	0.4177445	40.92393	-91.39362
46533	370	-870	287	0.6312038	2.364753	1.041614	0	11.8	4003	0	0	5	5	0.3855318	0.3809902	3	6	0.04	1800	-0.06311035	40.92393	-91.39362
46644	116	-654	596	0.8293538	4.089139	1.317607	0	11.8	4002	0	0	5	5	0.3855318	0.3795926	3	6	0.04	1800	0.2329005	40.92393	-91.39362
46767	1229	1117	513	2.547299	3.152369	0.4283004	0	11.8	4004	0	0	5	5	0.3855318	0.3749554	3	6	0.04	1800	1.078984	40.92393	-91.39362
46903	-131	1592	-1426	3.581175	-0.01030614	0.3782859	0	11.8	4002	0	0	5	5	0.3855318	0.3744489	3	6	0.04	1800	0.4133799	40.92393	-91.39362
46942	-982	1358	140	3.025181	-1.636315	1.006649	0	11.8	4002	0	0	5	5	0.3855318	0.3737803	3	6	0.04	1800	0.1848354	40.92393	-91.39362
47074	-827	295	-48	1.66678	-2.994223	2.048749	0	11.57	4004	0	0	5	5	0.3855318	0.3794785	3	6	0.04	1800	0.367642	40.92393	-91.39362
47192	7	-199	597	0.9346354	-3.326821	2.121931	0	11.57	4004	0	0	5	5	0.3855318	0.3930014	3	6	0.04	1800	-0.2464905	40.92393	-91.39362
47268	-79	-267	130	1.155316	-2.871034	2.022516	0	11.57	4002	0	0	5	5	0.3855318	0.3981748	3	6	0.04	1800	-0.8429871	40.92393	-91.39362
47339	-203	-291	87	1.052377	-2.672207	2.00898	0	11.57	4002	0	0	5	5	0.3855318	0.4044614	3	6	0.04	1800	-0.1265869	40.92393	-91.39362
47497	-22	177	-192	0.5263599	-2.63277	2.010785	0	11.57	4003	0	0	5	5	0.3855318	0.4089273	3	6	0.04	1800	0.1879922	40.92393	-91.39362
47643	177	-157	21	0.4473467	-2.45224	2.059448	0	11.57	4002	0	0	5	5	0.3855318	0.4060741	3	6	0.04	1800	0.1467631	40.92393	-91.39362
47753	-40	38	203	0.6861283	-2.566423	2.059246	0	11.57	4003	0	0	5	5	0.3855318	0.4130027	3	6	0.04	1800	-0.3375549	40.92393	-91.39362
47791	65	-193	639	0.8580157	-2.701779	2.029646	0	11.57	4003	0	0	5	5	0.3855318	0.4132926	3	6	0.04	1800	-0.1558228	40.92393	-91.39362
47963	-96	-51	13	0.652715	-2.655398	2.038107	0	11.57	4002	0	0	5	5	0.3855318	0.4059266	3	6	0.04	1800	-0.4204102	40.92393	-91.39362
48016	40	-156	-105	0.6704178	-2.534949	2.056317	0	11.74	4003	0	0	5	5	0.3855318	0.4052523	3	6	0.04	1800	-0.1536865	40.92393	-91.39362
48198	-156	-73	32	0.6344057	-3.075347	2.057096	0	11.74	4002	0	0	5	5	0.3855318	0.4021817	3	6	0.04	1800	0.1776795	40.92393	-91.39362
48299	-260	-303	550	0.4603278	-3.009815	2.051414	0	11.74	4002	0	0	5	5	0.3855318	0.387488	3	6	0.04	1800	-0.1579895	40.92393	-91.39362
48437	-179	-192	-86	0.5863404	-2.338833	2.006672	0	11.74	4003	0	0	5	5	0.3855318	0.3714435	3	6	0.04	1800	-0.3109436	40.92393	-91.39362
48506	399	44	-166	0.4866571	-2.262508	2.053253	0	11.74	4003	0	0	5	5	0.3855318	0.3594642	3	6	0.04	1800	-0.08712769	40.92393	-91.39362
48665	-186	-202	193	0.4588943	-1.90772	2.00657	0	11.74	4004	0	0	5	5	0.3855318	0.3430654	3	6	0.04	1800	0.05363228	40.92393	-91.39362
48738	19	-202	-210	0.3770592	-2.033295	1.981273	0	11.74	4004	0	0	5	5	0.3855318	0.3403244	3	6	0.04	1800	-0.1168823	40.92393	-91.39362
48832	-84	105	469	0.3653488	-1.952309	2.019528	0	11.74	4003	0	0	5	5	0.3855318	0.3453546	3	6	0.04	1800	0.330711	40.92393	-91.39362
48869	-241	-224	-132	0.5084618	-1.994874	1.982145	0	11.46	4003	0	0	5	5	0.3855318	0.3454466	3	6	0.04	1800	-0.3998413	40.92393	-91.39362
49043	185	66	-108	0.6344553	-1.878845	1.997369	0	11.46	4003	0	0	5	5	0.3855318	0.3149775	3	6	0.04	1800	-0.4683838	40.92394	-91.39362
49187	-75	-253	-478	0.8440969	-1.692075	1.987813	0	11.46	4004	0	0	5	5	0.3855318	0.3072239	3	6	0.04	1800	-0.09646606	40.92394	-91.39362
49303	-181	41	464	0.9665409	-1.674786	1.979669	0	11.46	4003	0	0	5	5	0.3855318	0.2923878	3	6	0.04	1800	-0.6994324	40.92394	-91.39362
49447	-182	97	267	0.8160062	-1.255354	1.914131	0	11.46	4002	0	0	5	5	0.3855318	0.2828069	3	6	0.04	1800	-0.6280823	40.92394	-91.39362
49570	-698	238	420	0.641812	-1.156528	1.828832	0	11.46	4003	0	0	5	5	0.3054064	0.2864782	8	6	0.04	1800	-1.53653	40.92394	-91.39362
49621	-1115	-71	426	-0.5318756	-1.878425	1.519834	0	11.46	4004	0	0	5	5	0.2838523	0.2899109	8	6	0.04	1800	-0.2286377	40.92394	-91.39362
49679	-646	-1225	-35	-1.167475	-1.465023	1.570936	0	11.46	4004	0	0	5	5	0.2469949	0.2932351	8	6	0.04	1800	-0.2286377	40.92394	-91.39362
49789	144	-1088	309	-1.06732	0.3568781	1.496598	0	11.46	4004	0	0	5	5	0.204413	0.3019631	8	6	0.04	1800	-0.050354	40.92394	-91.39362
49878	727	-816	-973	-0.1096549	1.64254	2.018317	0	11.51	4002	0	-2	5	5	0.1733708	0.3080691	8	6	0.04	1800	-0.5216675	40.92393	-91.39362
49975	571	-436	179	0.5809172	2.797122	1.939509	0	11.51	4003	0	-2	5	5	0.150741	0.3104794	8	6	0.04	1800	1.54305	40.92393	-91.39362
50123	296	-247	339	1.446514	4.330191	2.078256	0	11.51	4003	0	0	5	5	0.1298061	0.3158929	8	6	0.04	1800	1.608903	40.92394	-91.39362
50209	157	752	615	1.709392	3.958647	1.7004	0	11.51	4002	3	-5	5	5	0.1189823	0.3283187	8	6	0.04	1800	1.181523	40.92393	-91.39362
50315	-535	911	102	1.598569	1.98521	2.091511	0	11.51	4003	2	-4	5	5	0.1089692	0.3500308	8	6	0.04	1800	2.010391	40.92393	-91.39362
50435	-180	481	443	1.606459	0.898335	2.666101	0	11.51	4003	0	-2	5	5	0.1037922	0.3657377	8	6	0.04	1800	1.321563	40.92393	-91.39362
50504	-888	482	-81	1.196733	0.1658532	2.523831	0	11.51	4003	0	-2	5	5	0.1011463	0.3701834	8	6	0.04	1800	1.594325	40.92393	-91.39362
50683	-17	474	-690	0.3005376	-1.598245	2.587357	0	11.51	4003	2	-2	5	5	0.09652688	0.3751386	8	6	0.04	1800	1.775087	40.92393	-91.39362
50816	445	344	458	0.9887366	-3.143578	2.643583	0	11.63	4002	2	-2	5	5	0.09379918	0.3655972	8	6	0.04	1800	0.4066532	40.92393	-91.39362
50974	-48	464	-566	0.5760471	-4.415475	2.308841	0	11.63	4003	2	-2	5	5	0.09244657	0.3603421	8	6	0.04	1800	0.1230794	40.92393	-91.39362
51083	400	-98	-464	0.688377	-4.586683	2.110414	0	11.63	4003	2	-2	5	5	0.0913898	0.3560259	8	6	0.04	1800	0.05806088	40.92393	-91.39362
51141	-440	240	-1128	0.4454941	-5.182134	1.841789	0	11.63	4003	2	-2	5	5	0.09123742	0.3555636	8	6	0.04	1800	0.841876	40.92393	-91.39362
51277	401	572	155	0.6720101	-6.324623	1.83886	0	11.63	4004	2	-2	5	5	0.0906758	0.3604206	8	6	0.04	1800	0.5053345	40.92393	-91.39362
51394	-414	737	918	1.439053	-8.28022	1.50333	0	11.63	4004	2	-2	5	5	0.09045634	0.3607053	8	6	0.04	1800	-0.31073	40.92393	-91.39362
51530	156	-1037	-902	1.527691	-7.554132	0.6263604	0	11.63	4004	2	-2	5	5	0.09029637	0.3568068	8	6	0.04	1800	1.082268	40.92393	-91.39362
51629	-569	-210	-811	1.363021	-7.274327	1.101295	0	10.94	4002	2	-2	5	5	0.09014836	0.3595333	8	6	0.04	1800	-0.1056824	40.92393	-91.39362
51643	758	55	333	1.642235	-7.520882	1.40701	0	10.94	4007	4	-2	5	5	0.09014836	0.3595333	8	6	0.04	1800	-0.1056824	40.92393	-91.39362
51788	-1091	-1506	-664	0.2694487	-5.455345	2.326175	0	10.94	4003	4	-2	5	5	0.09003273	0.3529365	8	6	0.04	1800	-0.9966736	40.92393	-91.39362
51856	-199	-1003	-545	-0.8270297	-4.304614	2.924226	0	10.94	4003	6	-4	5	5	0.09000105	0.3497757	8	6	0.04	1800	-2.300751	40.92393	-91.39362
52027	-1166	79	140	-4.286535	-3.367125	4.903478	0	10.94	4002	4	-4	5	5	0.08995461	0.3437731	8	6	0.04	1800	-4.57373	40.92393	-91.39362
52107	-992	559	238	-5.660859	-2.739366	4.983031	0	10.94	4002	4	-4	5	5	0.08992414	0.3338385	8	6	0.04	1800	-4.495605	40.92393	-91.39362
52172	-1657	1386	-930	-7.755823	-2.34744	5.601072	0	10.94	4002	4	-4	5	5	0.0899131	0.3244745	8	6	0.04	1800	-6.570343	40.92393	-91.39362
52253	1047	2433	-691	-7.397751	-6.462058	7.466287	0	10.94	4004	4	-4	5	5	0.08990034	0.3137652	8	6	0.04	1800	-9.82132	40.92393	-91.39362
52442	2514	-891	1855	2.661841	-11.63491	1.86785	0	10.94	4003	4	-4	5	5	0.08988853	0.3128526	8	6	0.04	1800	-9.867798	40.92393	-91.39362
52570	72	-2112	-444	5.767726	-9.621424	0.7125377	0	11.51	4003	4	-4	5	5	0.0898793	0.3223586	8	6	0.04	1800	-6.122253	40.92393	-91.39362
52706	1379	971	-574	3.647995	-7.931931	2.593924	0	11.51	4003	4	-4	5	5	0.08987472	0.3401728	8	6	0.04	1800	-2.552612	40.92393	-91.39362
52782	-38	-670	960	4.390409	-8.317772	2.156439	0	11.51	4002	4	-6	5	5	0.08987236	0.3420845	8	6	0.04	1800	-0.9091492	40.92393	-91.39362
52893	519	2223	-1199	3.52651	-10.27401	0.5206055	0	11.51	4004	4	-6	5	5	0.08987064	0.3478842	8	6	0.04	1800	1.022288	40.92393	-91.39362
52947	1129	2468	-907	4.224477	-13.46191	1.064538	0	11.51	4003	4	-4	5	5	0.08986976	0.3524225	8	6	0.04	1800	0.6038824	40.92393	-91.39362
53134	3676	1007	-1470	7.009853	-15.08519	5.068933	0	11.51	4003	6	-6	5	5	0.08986799	0.3946609	8	6	0.04	1800	0.09466277	40.92393	-91.39362
53350	-4683	-4879	1671	3.45028	-8.557518	4.015992	0	11.51	4004	6	-8	5	5	0.08986695	0.4372056	8	6	0.04	1800	0.08091923	40.92393	-91.39362
53418	-802	-2797	2053	0.8242408	-4.480175	2.888217	0	11.51	4003	4	-6	5	5	0.08986677	0.4445729	8	6	0.04	1800	-2.340454	40.92393	-91.39362
53509	-2362	-939	667	-2.05277	-2.317749	0.6472757	0	11.51	4003	4	-6	5	5	0.08986656	0.4505085	8	6	0.04	1800	-3.739746	40.92393	-91.39362
53571	-1356	-2127	-1253	-4.321615	-1.62933	0.3892161	0	11.51	4002	4	-6	5	5	0.08986645	0.4502005	8	6	0.04	1800	-3.739746	40.92393	-91.39362
53729	1794	3245	498	-1.883173	-5.064035	1.299369	0	11.51	4004	6	-6	5	5	0.08986627	0.4454287	8	6	0.04	1800	-7.030853	40.92393	-91.39362
53778	-255	1513	-608	-2.110515	-8.388194	2.11213	0	11.51	4003	6	-6	5	5	0.08986621	0.4455024	8	6	0.04	1800	-5.610016	40.92393	-91.39362
53910	2744	3087	-913	0.7282082	-12.76307	1.506645	0	11.51	4003	6	-6	5	5	0.08986615	0.4440142	8	6	0.04	1800	-7.007111	40.92393	-91.39362
53981	-1340	-2372	104	1.461065	-12.38379	0.9418014	0	11.51	4002	6	-8	5	5	0.08986612	0.4432092	8	6	0.04	1800	-5.402802	40.92393	-91.39362
54124	632	2194	-598	0.06772079	-9.419744	2.159187	0	11.51	4004	6	-9	5	5	0.08986608	0.440391	8	6	0.04	1800	-4.981384	40.92393	-91.39362
54159	632	2194	-598	0.06772079	-9.419744	2.159187	0	11.51	4004	6	-8	5	5	0.08986607	0.4406352	8	6	0.04	1800	-4.981384	40.92393	-91.39362
54334	192	297	12	-3.012887	-13.98567	4.764434	0	11.57	4003	8	-10	5	5	0.08986603	0.4501354	8	6	0.04	1800	-7.15564	40.92393	-91.39362
54408	-954	-3091	263	-3.035138	-12.85554	3.611586	0	11.57	4003	8	-10	5	5	0.08986603	0.4785329	8	6	0.04	1800	-7.971497	40.92393	-91.39362
54463	1524	407	2792	-2.839274	-10.83748	2.469308	0	11.57	4002	9	-11	5	5	0.08986603	0.4838363	8	6	0.04	1800	-7.971497	40.92393	-91.39362
54638	-707	1499	-1406	-0.78461	-14.1341	1.10245	0	11.57	4003	6	-10	5	5	0.08986603	0.5052472	8	6	0.04	1800	-4.948395	40.92393	-91.39362
54729	2884	4495	-588	-0.3374965	-16.76742	3.660545	0	11.57	4003	6	-12	5	5	0.08986603	0.5078856	8	6	0.04	1800	-7.436859	40.92393	-91.39362
54850	-744	2613	1663	0.5339271	-23.88342	3.743961	0	11.57	4003	6	-10	5	5	0.08986603	0.5096872	8	6	0.04	1800	-7.418457	40.92393	-91.39362
54978	304	-3868	491	2.665144	-18.67499	1.143265	0	11.57	4005	6	-10	5	5	0.08986603	0.5087015	8	6	0.04	1800	-5.197937	40.92393	-91.39362
55059	-338	-4602	-513	2.866885	-13.68312	1.44275	0	11.57	4002	6	-14	5	5	0.08986603	0.5078894	8	6	0.04	1800	-2.738922	40.92393	-91.39362
55140	-1407	-1546	-514	1.612748	-10.33839	1.874813	0	11.57	4003	6	-14	5	5	0.08986603	0.5088228	8	6	0.04	1800	-3.17746	40.92393	-91.39362
55292	2126	3	-887	-0.146322	-6.689454	2.111524	0	11.57	4003	8	-14	5	5	0.08986603	0.5101959	8	6	0.04	1800	-4.074219	40.92393	-91.39362
55347	2468	2094	216	1.069201	-7.471067	2.373979	0	11.57	4002	8	-14	5	5	0.08986603	0.5065235	8	6	0.04	1800	-4.074219	40.92393	-91.39362
55444	116	-2064	787	1.874848	-13.49024	2.811688	0	11.57	4003	8	-14	5	5	0.08986603	0.4990626	8	6	0.04	1800	-4.298645	40.92393	-91.39362
55564	-1366	-3297	-309	-0.7371081	-7.438599	3.114974	0	11.57	4002	8	-14	5	5	0.08986603	0.470819	8	6	0.04	1800	-4.450287	40.92393	-91.39362
55667	-61	-1494	879	-1.833457	-4.558056	2.238207	0	11.57	4002	8	-14	5	5	0.08986603	0.4497871	8	6	0.04	1800	-5.934357	40.92393	-91.39362
55750	-223	420	515	-1.012912	-5.354269	1.201282	0	11.57	4004	8	-14	5	5	0.08986603	0.4282301	8	6	0.04	1800	-7.022949	40.92393	-91.39362
55909	-1466	45	-1943	-1.884614	-7.407177	2.826845	0	11.57	4002	8	-14	5	5	0.08986603	0.4052866	8	6	0.04	1800	-8.525269	40.92393	-91.39362
55977	-1290	1553	494	-2.707293	-7.68962	3.386968	0	11.57	4004	8	-14	5	5	0.08986603	0.3924584	8	6	0.04	1800	-8.525269	40.92393	-91.39362
56051	-760	-308	-611	-2.82353	-11.13606	3.13741	0	11.57	4009	8	-14	5	5	0.08986603	0.3890686	8	6	0.04	1800	-10.06088	40.92393	-91.39362
56164	2448	1214	769	-2.547754	-12.68181	3.274922	0	10.09	4004	10	-16	5	5	0.08986603	0.3863305	8	6	0.04	1800	-10.68903	40.92393	-91.39362
56260	823	946	-1122	-0.560606	-13.91023	3.6727	0	10.09	4003	10	-16	5	5	0.08986603	0.3887218	8	6	0.04	1800	-13.32544	40.92393	-91.39362
56345	2078	1420	170	2.988346	-15.96113	3.805191	0	10.09	4002	8	-18	5	5	0.08986603	0.4015916	8	6	0.04	1800	-12.58298	40.92393	-91.39362
56463	1274	-127	484	4.015422	-14.27037	1.768589	0	10.09	4003	8	-18	5	5	0.08986603	0.4315145	8	6	0.04	1800	-7.404633	40.92393	-91.39362
56533	1372	351	437	4.520127	-14.09109	1.241069	0	10.09	4002	10	-18	5	5	0.08986603	0.4491151	8	6	0.04	1800	-3.17749	40.92393	-91.39362
56639	-899	-1985	-531	3.958915	-12.04931	0.5236544	0	10.09	4003	10	-21	5	5	0.08986603	0.4681676	8	6	0.04	1800	-1.586639	40.92393	-91.39362
56741	-886	-2866	705	2.392299	-8.791077	0.5653844	0	10.09	4004	10	-20	5	5	0.08986603	0.4958106	8	6	0.04	1800	1.17849	40.92393	-91.39362
56845	1295	372	73	2.570203	-7.781628	1.20221	0	10.09	4004	13	-18	5	5	0.08986603	0.5103284	8	6	0.04	1800	1.031684	40.92393	-91.39362
56950	-8481	1404	-538	2.318297	-8.368023	1.366634	0	10.09	4002	12	-18	5	5	0.08986603	0.5186481	8	6	0.04	1800	0.4662278	40.92393	-91.39362
57054	540	-1369	-598	0.6985647	-10.00179	0.6560053	0	10.43	4004	10	-20	5	5	0.08986603	0.5202658	8	6	0.04	1800	-3.001038	40.92393	-91.39362
57164	-219	-368	-2314	-0.4124432	-8.584635	2.691226	0	10.43	4003	10	-20	5	5	0.08986603	0.519671	8	6	0.04	1800	-3.165436	40.92393	-91.39362
57314	-2209	-625	-10	-1.42147	-11.75274	2.7739	0	10.43	4002	10	-20	5	5	0.08986603	0.5165185	8	6	0.04	1800	-3.472229	40.92393	-91.39362
57364	-1366	-167	245	-2.068986	-11.98938	2.467313	0	10.43	4004	10	-20	5	5	0.08986603	0.5152069	8	6	0.04	1800	-1.849121	40.92393	-91.39362
57494	311	1674	991	-0.4937456	-16.30749	1.606633	0	10.43	4004	10	-20	5	5	0.08986603	0.5101609	8	6	0.04	1800	-0.8666077	40.92393	-91.39362
57588	-575	-3573	-1354	-0.8076255	-15.94719	2.441895	0	10.43	4003	10	-20	5	5	0.08986603	0.5040345	8	6	0.04	1800	-0.3226013	40.92393	-91.39362
57666	204	-1597	473	-0.6988547	-10.6507	3.184723	0	10.43	4002	12	-22	5	5	0.08986603	0.5048352	8	6	0.04	1800	-1.437469	40.92393	-91.39362
57829	1762	1341	724	1.190592	-11.24896	3.06535	0	10.43	4003	12	-22	5	5	0.08986603	0.5116584	8	6	0.04	1800	-2.518524	40.92393	-91.39362
57872	-815	-1291	895	2.351676	-12.84654	2.208833	0	10.43	4003	12	-22	5	5	0.08986603	0.5177522	8	6	0.04	1800	-1.539398	40.92393	-91.39362
57976	-2076	-3114	551	0.7694682	-9.937615	1.247138	0	11.74	4004	10	-22	5	5	0.08986603	0.5286217	8	6	0.04	1800	-0.2187195	40.92393	-91.39362
58068	-1119	-82	-1021	-2.348607	-7.407055	0.8099306	0	11.74	4004	10	-22	5	5	0.08986603	0.5327814	8	6	0.04	1800	-2.173584	40.92393	-91.39362
58171	-601	334	-743	-1.88403	-9.087463	1.721805	0	11.74	4004	10	-22	5	5	0.08986603	0.536741	8	6	0.04	1800	-4.384521	40.92393	-91.39362
58282	39	-256	716	-2.960314	-8.98278	2.024763	0	11.74	4002	14	-22	5	5	0.08986603	0.5382436	8	6	0.04	1800	-7.6521	40.92393	-91.39362
58403	-410	1078	-850	-1.014218	-11.5881	2.790781	0	11.74	4003	12	-22	5	5	0.08986603	0.5462337	8	6	0.04	1800	-11.44577	40.92393	-91.39362
58495	544	-920	-1009	-0.4525648	-12.13747	3.037554	0	11.74	4003	12	-22	5	5	0.08986603	0.5498769	8	6	0.04	1800	-10.63632	40.92393	-91.39362
58586	-809	2997	2016	-0.8073531	-13.9164	2.407739	0	11.74	4003	14	-24	5	5	0.08986603	0.551484	8	6	0.04	1800	-10.93066	40.92393	-91.39362
58688	161	274	-421	-0.2108599	-18.49891	1.317264	0	11.74	4003	14	-24	5	5	0.08986603	0.5537633	8	6	0.04	1800	-9.327332	40.92393	-91.39362
58791	274	-328	-266	0.8629582	-17.98776	1.418388	0	11.74	4003	12	-22	5	5	0.08986603	0.5697728	8	6	0.04	1800	-8.151245	40.92393	-91.39362
58890	-2986	-4761	-1937	-3.225306	-14.64674	1.721869	0	10.38	4003	12	-22	5	5	0.08986603	0.5760959	8	6	0.04	1800	-5.098389	40.92393	-91.39362
58994	2055	305	746	-1.445889	-11.84949	3.015815	0	10.38	4003	12	-22	5	5	0.08986603	0.5576556	8	6	0.04	1800	-7.879791	40.92393	-91.39362
59110	-1587	-2737	1113	-0.6796607	-9.67514	2.178215	0	10.38	4003	14	-22	5	5	0.08986603	0.5342532	8	6	0.04	1800	-7.118561	40.92393	-91.39362
59200	-1153	152	-1204	-2.403423	-8.039288	0.9981201	0	10.38	4003	14	-22	5	5	0.08986603	0.5034668	8	6	0.04	1800	-8.759766	40.92393	-91.39362
59298	1193	2299	21	-1.543348	-12.05672	1.796475	0	10.38	4002	14	-20	5	5	0.08986603	0.470992	8	6	0.04	1800	-8.848633	40.92393	-91.39362
59399	-952	1392	-279	-2.19507	-13.6785	2.334003	0	10.38	4004	14	-20	5	5	0.08986603	0.4426597	8	6	0.04	1800	-9.334686	40.92393	-91.39362
59503	603	507	-1561	-2.912581	-15.1049	3.080463	0	10.38	4003	14	-22	5	5	0.08986603	0.4237715	8	6	0.04	1800	-11.2406	40.92393	-91.39362
59607	123	1744	463	-1.630131	-16.30402	3.320069	0	10.38	4003	14	-22	5	5	0.08986603	0.4126323	8	6	0.04	1800	-12.36737	40.92393	-91.39362
59723	1166	400	489	0.8474714	-16.87576	2.22571	0	10.38	4004	14	-20	5	5	0.08986603	0.4081626	8	6	0.04	1800	-12.23383	40.92393	-91.39362
59798	1093	519	-199	1.547359	-16.60328	1.268746	0	10.38	4003	16	-24	5	5	0.08986603	0.4100288	8	6	0.04	1800	-12.23383	40.92393	-91.39362
59902	3958	3056	-673	4.749461	-17.82325	1.130431	0	11.63	4004	14	-20	5	5	0.08986603	0.4140316	8	6	0.04	1800	-9.719727	40.92393	-91.39362
60036	-2100	-3164	746	3.773062	-17.57119	2.639205	0	11.63	4004	14	-20	5	5	0.08986603	0.4280249	8	6	0.04	1800	-6.27829	40.92393	-91.39362
60110	-1154	-2836	460	2.234431	-13.76066	2.139627	0	11.63	4003	14	-20	5	5	0.08986603	0.434303	8	6	0.04	1800	-5.527863	40.92393	-91.39362
60217	813	-540	1969	1.350435	-9.764081	1.982588	0	11.63	4004	16	-24	5	5	0.08986603	0.4462101	8	6	0.04	1800	-6.441742	40.92393	-91.39362
60302	-2477	-1603	-1170	0.1645503	-8.538569	1.944718	0	11.63	4004	14	-20	5	5	0.08986603	0.4557759	8	6	0.04	1800	-6.045013	40.92393	-91.39362
60411	-373	-889	-954	-1.043483	-7.605004	2.286768	0	11.63	4003	16	-20	5	5	0.08986603	0.4653949	8	6	0.04	1800	-7.661926	40.92393	-91.39362
60504	565	979	-1107	-0.6945049	-9.600287	2.805886	0	11.63	4003	16	-20	5	5	0.08986603	0.4684566	8	6	0.04	1800	-7.379761	40.92393	-91.39362
60703	-342	-1457	-1313	2.733682	-12.37337	4.336151	0	11.63	4003	16	-20	5	5	0.08986603	0.4640248	8	6	0.04	1800	-6.168243	40.92393	-91.39362
60787	-1453	-1175	1586	-1.514977	-8.265327	3.625116	0	9.92	4004	16	-20	5	5	0.08986603	0.4564919	8	6	0.04	1800	-3.316803	40.92393	-91.39362
60877	-772	-980	144	-2.487405	-7.550913	2.467934	0	9.92	4004	16	-20	5	5	0.08986603	0.4452922	8	6	0.04	1800	-8.560608	40.92393	-91.39362
60945	660	-208	-401	-2.601436	-7.760689	2.06285	0	9.92	4002	16	-18	5	5	0.08986603	0.4334339	8	6	0.04	1800	-12.72052	40.92393	-91.39362
61012	161	650	371	-1.323458	-8.840054	2.161577	0	9.92	4002	16	-18	5	5	0.08986603	0.4224786	8	6	0.04	1800	-7.984314	40.92393	-91.39362
61086	-1218	-699	-358	-1.656087	-9.574574	2.274725	0	9.92	4003	16	-18	5	5	0.08986603	0.4176	8	6	0.04	1800	-8.074615	40.92393	-91.39362
61254	-1367	499	304	-1.156028	-15.40568	2.924466	0	9.92	4003	16	-18	5	5	0.08986603	0.4123578	8	6	0.04	1800	-8.568573	40.92393	-91.39362
61367	701	1225	2055	-0.8536211	-14.96648	1.880351	0	9.92	4003	16	-18	5	5	0.08986603	0.413517	8	6	0.04	1800	-10.50305	40.92393	-91.39362
61422	-765	833	386	-0.9453908	-16.21842	1.055511	0	9.92	4002	16	-18	5	5	0.08986603	0.4222299	8	6	0.04	1800	-8.048584	40.92393	-91.39362
61516	-1362	-1009	-1640	0.2777663	-20.01675	2.286432	0	9.92	4003	16	-20	5	5	0.08986603	0.4392809	8	6	0.04	1800	-7.399231	40.92393	-91.39362
61608	-1357	-86	-891	-2.362242	-18.15111	3.496132	0	11.57	4004	16	-20	5	5	0.08986603	0.4588348	8	6	0.04	1800	-8.644836	40.92393	-91.39362
61761	-640	877	1192	-2.381567	-18.88193	2.426047	0	11.57	4003	18	-20	5	5	0.08986603	0.4886106	8	6	0.04	1800	-10.2269	40.92393	-91.39362
61833	1457	-150	-724	-0.2330571	-20.00129	1.630095	0	11.57	4002	16	-18	5	5	0.08986603	0.519934	8	6	0.04	1800	-8.404297	40.92393	-91.39362
61905	-596	-3179	583	0.9617671	-18.12777	1.588823	0	11.57	4004	16	-18	5	5	0.08986603	0.5411812	8	6	0.04	1800	-8.345459	40.92393	-91.39362
61985	533	-2508	968	1.400789	-14.83952	1.588256	0	11.57	4002	16	-18	5	5	0.08986603	0.5675805	8	6	0.04	1800	-9.433929	40.92393	-91.39362
62127	-680	-1628	490	-0.774217	-9.235828	1.566431	0	11.57	4004	16	-18	5	5	0.08986603	0.6109235	8	6	0.04	1800	-11.35535	40.92393	-91.39362
62165	1138	-972	11	-0.8048039	-9.083943	1.919744	0	11.57	4004	16	-18	5	5	0.08986603	0.6153501	8	6	0.04	1800	-11.42947	40.92393	-91.39362
62244	-697	194	270	0.2406766	-9.299448	2.954923	0	11.57	4003	16	-18	5	5	0.08986603	0.6279709	8	6	0.04	1800	-13.35928	40.92393	-91.39362
62395	465	2091	-1894	-2.609274	-9.475622	3.314476	0	11.57	4003	16	-18	5	5	0.08986603	0.640703	8	6	0.04	1800	-12.70383	40.92393	-91.39362
62438	1208	2528	-866	-1.868028	-11.40369	3.593651	0	11.57	4003	16	-18	5	5	0.08986603	0.641587	8	6	0.04	1800	-16.65094	40.92393	-91.39362
62565	-636	2144	-73	-0.9698922	-16.63149	4.445865	0	11.51	4004	16	-18	5	5	0.08986603	0.6333842	8	6	0.04	1800	-14.8287	40.92393	-91.39362
62703	-829	-2122	258	-2.613219	-17.85338	2.726709	0	11.51	4004	16	-18	5	5	0.08986603	0.5947227	8	6	0.04	1800	-11.88828	40.92393	-91.39362
62749	-144	-4219	1094	-2.097626	-13.66721	2.666214	0	11.51	4004	16	-18	5	5	0.08986603	0.5816369	8	6	0.04	1800	-11.88846	40.92393	-91.39362
62901	1529	698	1220	-1.406257	-9.41891	2.236366	0	11.51	4003	19	-21	5	5	0.08986603	0.5439578	8	6	0.04	1800	-12.33081	40.92393	-91.39362
62970	-21	-15	657	-0.6939107	-11.31058	0.8990657	0	11.51	4004	18	-20	5	5	0.08986603	0.5308464	8	6	0.04	1800	-11.42828	40.92393	-91.39362
63083	971	150	-1256	-0.3823974	-10.52751	0.6905087	0	11.51	4004	16	-18	5	5	0.08986603	0.5304779	8	6	0.04	1800	-8.873962	40.92393	-91.39362
63127	-705	1443	-1056	1.640801	-12.66632	2.887604	0	11.51	4003	16	-18	5	5	0.08986603	0.5327799	8	6	0.04	1800	-11.0751	40.92393	-91.39362
63323	-1117	643	385	-1.861186	-14.6119	3.686335	0	11.51	4003	16	-18	5	5	0.08986603	0.5602301	8	6	0.04	1800	-9.588989	40.92393	-91.39362
63476	1021	1979	776	-2.956583	-15.19716	1.086286	0	11.34	4002	16	-18	5	5	0.08986603	0.5808447	8	6	0.04	1800	-8.93985	40.92393	-91.39362
63639	19	-626	-2353	-2.003124	-19.25048	2.363141	0	11.34	4004	18	-20	5	5	0.08986603	0.5995671	8	6	0.04	1800	-9.912445	40.92393	-91.39362
63789	-576	-1467	678	-1.505243	-16.31185	3.966336	0	11.34	4004	18	-20	5	5	0.08986603	0.6227	8	6	0.04	1800	-10.15424	40.92393	-91.39362
63897	-838	-2546	668	-3.690651	-8.444287	1.518169	0	11.34	4004	16	-18	5	5	0.08986603	0.6539345	8	6	0.04	1800	-8.364136	40.92393	-91.39362
64058	-1048	-1856	-531	-1.594635	-5.044873	0.6505601	0	11.34	4003	16	-18	5	5	0.08986603	0.7074829	8	6	0.04	1800	-10.79138	40.92393	-91.39362
64173	-757	-505	-1161	-2.641362	-4.197783	1.83346	0	11.34	4008	16	-18	5	5	0.08986603	0.7189563	8	6	0.04	1800	-12.12677	40.92393	-91.39362
64278	2067	4346	-2201	-0.3686486	-9.737802	3.456103	0	11.34	4002	16	-18	5	5	0.08986603	0.7402058	8	6	0.04	1800	-15.32074	40.92393	-91.39362
64367	255	2180	1541	1.242722	-16.7166	3.185306	0	11.51	4004	16	-18	5	5	0.08986603	0.7451008	8	6	0.04	1800	-12.53452	40.92393	-91.39362
64562	-2926	-760	-1081	2.971942	-14.52843	1.226795	0	11.51	4002	16	-18	5	5	0.08986603	0.7297978	8	6	0.04	1800	-5.020142	40.92393	-91.39362
64685	-1111	-3694	-1626	-0.1460528	-8.572999	2.406052	0	11.51	4005	16	-18	5	5	0.08986603	0.7231862	8	6	0.04	1800	-7.912659	40.92393	-91.39362
64802	-1943	-642	-2468	-0.8663062	-9.218291	2.97989	0	11.51	4003	16	-18	5	5	0.08986603	0.717995	8	6	0.04	1800	-10.5379	40.92393	-91.39362
64837	-735	-904	-637	-1.639742	-8.33934	3.662893	0	11.51	4003	16	-18	5	5	0.08986603	0.7162154	8	6	0.04	1800	-9.225128	40.92393	-91.39362
65034	1182	924	1196	-3.488802	-5.170412	1.553582	0	11.51	4003	18	-18	5	5	0.08986603	0.7032986	8	6	0.04	1800	-8.766449	40.92393	-91.39362
65071	368	1213	1221	-2.75177	-6.450043	0.7816758	0	11.51	4004	18	-16	5	5	0.08986603	0.7030574	8	6	0.04	1800	-8.766449	40.92393	-91.39362
65146	503	-142	-1662	-2.330669	-7.802048	0.167628	0	11.51	4003	18	-16	5	5	0.08986603	0.7022654	8	6	0.04	1800	-11.45654	40.92393	-91.39362
65335	1402	927	255	-1.424138	-10.43913	1.648223	0	11.46	4003	18	-18	5	5	0.08986603	0.721235	8	6	0.04	1800	-7.907135	40.92393	-91.39362
65354	1402	927	255	-1.424138	-10.43913	1.648223	0	11.46	4003	18	-18	5	5	0.08986603	0.7271004	8	6	0.04	1800	-7.907135	40.92393	-91.39362
65497	-164	-479	433	-0.2785849	-11.66769	1.37719	0	11.46	4002	0	0	5	5	0.08986603	0.7435405	3	6	0.04	1800	-8.295593	40.92393	-91.39362
65689	142	513	-1749	-1.026624	-8.69503	-0.2572795	0	11.46	4003	0	0	5	5	0.08986603	0.7909892	3	6	0.04	1800	-7.74054	40.92393	-91.39362
65797	973	278	388	-2.273755	-9.272023	0.820114	0	11.46	4003	0	0	5	5	0.08986603	0.8043054	3	6	0.04	1800	-6.04071	40.92393	-91.39362
65852	747	560	171	-3.167686	-9.138577	1.055157	0	11.46	4002	0	0	5	5	0.08986603	0.8124484	3	6	0.04	1800	-3.721649	40.92393	-91.39362
65900	313	2013	1531	-3.418771	-9.519239	0.7523541	0	11.46	4003	0	0	5	5	0.08986603	0.8202223	3	6	0.04	1800	-3.302643	40.92393	-91.39362
