time(ms)	gyro_x(deg/s)	gyro_y(deg/s)	gyro_z(deg/s)	orientation_roll(deg)	orientation_pitch(deg)	orientation_yaw(deg)	throttle	battery(V)	loop_time(uS)	pid_output_roll	pid_output_pitch	pid_output_yaw	pid_output_throttle	ultrasonic_alt	baro_alt	flight_mode	p_gain_altitude	i_gain_altitude	d_gain_altitude	compass_heading	latitude	longitude
66068	-5	1077	-1038	-1.645316	-13.76905	0.1454124	0	11.51	4003	0	0	5	5	0.08986603	0.8521599	3	6	0.04	1800	-1.21759	40.92393	-91.39362
66211	2813	3745	580	-0.8896053	-19.89088	1.724802	0	11.51	4004	0	0	5	5	0.08986603	0.8514395	3	6	0.04	1800	-2.559174	40.92393	-91.39362
66275	69	3716	1545	-0.01028959	-20.42921	0.9340844	0	11.51	4004	0	0	5	5	0.08986603	0.8505882	3	6	0.04	1800	-2.87912	40.92393	-91.39362
66389	-2921	-3880	1234	1.877998	-19.79939	-0.6608722	0	11.51	4003	0	0	5	5	0.08986603	0.858076	3	6	0.04	1800	-0.5570984	40.92393	-91.39362
66544	-130	-4697	552	-1.336998	-8.030139	-0.6953706	0	11.51	4003	0	0	5	5	0.08986603	0.8664731	3	6	0.04	1800	-0.08831787	40.92393	-91.39362
66602	-1301	-5253	-1559	-1.704355	-2.062308	-0.05665517	0	11.51	4003	0	0	5	5	0.08986603	0.8737178	3	6	0.04	1800	-0.9086609	40.92393	-91.39362
66741	-3056	-784	-1132	-2.906985	-0.4589565	0.9219911	0	11.51	4002	0	0	5	5	0.08986603	0.9011902	3	6	0.04	1800	-1.961792	40.92393	-91.39362
66798	-537	2309	546	-4.684523	-2.228535	0.9437053	0	11.51	4004	0	0	5	5	0.08986603	0.9042123	3	6	0.04	1800	-2.35733	40.92393	-91.39362
66900	-625	1654	-856	-4.836037	-9.409448	0.9765759	0	10.6	4002	0	0	5	5	0.08986603	0.9209387	3	6	0.04	1800	-5.040649	40.92393	-91.39362
66972	551	2256	96	-4.112073	-11.24962	1.055136	0	10.6	4003	0	0	5	5	0.08986603	0.9488927	3	6	0.04	1800	-5.040649	40.92393	-91.39362
67143	1661	2621	1683	-2.158845	-16.13237	1.169692	0	10.6	4003	0	0	5	5	0.08986603	0.9690467	3	6	0.04	1800	-9.63736	40.92393	-91.39362
67289	-279	-1324	0	-1.144811	-17.44006	0.2626891	0	10.6	4004	0	0	5	5	0.08986603	0.9985307	3	6	0.04	1800	-8.97406	40.92393	-91.39362
67372	448	-3594	-597	-1.203458	-13.40772	0.4395774	0	10.6	4004	0	0	5	5	0.08986603	1.014828	3	6	0.04	1800	-8.344299	40.92393	-91.39362
67556	-439	751	-1866	-1.091796	-12.79062	0.6878544	0	10.6	4004	0	0	5	5	0.08986603	1.08226	3	6	0.04	1800	-10.97403	40.92393	-91.39362
67604	-417	-2082	-142	-0.7440327	-13.68405	1.371735	0	10.6	4003	0	0	5	5	0.08986603	1.099701	3	6	0.04	1800	-12.24045	40.92393	-91.39362
67700	-2901	-4440	77	-2.026567	-10.95626	1.514874	0	10.6	4003	0	0	5	5	0.08986603	1.131275	3	6	0.04	1800	-12.24045	40.92393	-91.39362
67858	1287	-542	1031	-2.193743	-8.201897	0.4289609	0	11	4002	0	0	5	5	0.08986603	1.189053	3	6	0.04	1800	-14.62451	40.92393	-91.39362
67934	1323	-758	-743	-0.7042532	-8.633844	0.2127764	0	11	4003	0	0	5	5	0.08986603	1.208887	3	6	0.04	1800	-13.95129	40.92393	-91.39362
68018	-672	-600	-878	-0.2453965	-9.432844	0.4498177	0	11	4004	0	0	5	5	0.08986603	1.226381	3	6	0.04	1800	-15.38214	40.92393	-91.39362
68123	758	1372	1401	-0.6972258	-13.73841	0.7825392	0	11	4003	0	0	5	5	0.08986603	1.246636	3	6	0.04	1800	-15.1087	40.92393	-91.39362
68197	-595	-366	-142	-0.5431869	-14.32591	0.8137794	0	11	4004	0	0	5	5	0.2785332	1.24915	8	6	0.04	1800	-13.28064	40.92393	-91.39362
68390	-724	1424	68	-0.05704119	-12.4374	0.470073	0	11	4002	3	0	5	5	0.6079093	1.252764	8	6	0.04	1800	-16.02649	40.92393	-91.39362
68541	1423	3825	1666	1.007896	-18.1638	0.6313093	0	11	4002	2	0	5	5	0.8024027	1.248233	8	6	0.04	1800	-13.47659	40.92393	-91.39361
68632	-106	247	-1314	0.7060072	-21.58367	1.100247	0	11	4002	2	0	5	5	0.8784041	1.237694	8	6	0.04	1800	-10.02182	40.92393	-91.39361
68763	-497	269	1376	-0.6253904	-21.0374	1.090323	0	10.89	4003	2	0	5	5	0.9487134	1.234518	8	6	0.04	1800	-9.609161	40.92393	-91.39361
68796	-779	281	130	-1.351261	-20.84459	1.141524	0	10.89	4003	2	0	5	5	0.9621271	1.232154	8	6	0.04	1800	-9.609161	40.92393	-91.39361
68918	-875	-3711	-1605	-3.934337	-16.96595	0.5615173	0	10.89	4002	4	0	5	5	1.003644	1.219508	8	6	0.04	1800	-8.095428	40.92393	-91.39361
69001	20	-2536	-1197	-2.143341	-13.44617	0.17926	0	10.89	4002	4	0	5	5	1.018693	1.215158	8	6	0.04	1800	-9.58374	40.92393	-91.39361
69072	418	-1469	1652	-1.825884	-12.58807	0.1137213	0	10.89	4002	4	0	5	5	1.030883	1.210493	8	6	0.04	1800	-9.098938	40.92393	-91.39361
69170	14	-1998	-276	-3.231212	-8.878774	0.8793139	0	10.89	4004	4	-2	5	5	1.048755	1.201338	8	6	0.04	1800	-11.98074	40.92393	-91.39361
69269	654	-294	496	-2.788278	-8.387364	0.6744188	0	10.89	4002	4	-2	5	5	1.055233	1.197035	8	6	0.04	1800	-15.83923	40.92393	-91.39361
69456	-734	2591	-661	-3.689165	-9.75257	1.587621	0	10.89	4003	6	0	5	5	1.068174	1.179978	8	6	0.04	1800	-16.74432	40.92393	-91.39361
69548	-328	2629	842	-3.316511	-14.89735	0.7312122	0	10.89	4003	6	0	5	5	1.070962	1.166179	8	6	0.04	1800	-15.01968	40.92393	-91.39361
69640	2294	4290	588	-2.412868	-18.80748	0.1767834	0	10.89	4004	8	-3	5	5	1.075051	1.136999	8	6	0.04	1800	-15.7478	40.92393	-91.39361
69700	55	298	109	-1.075397	-21.18147	0.7774765	0	10.94	4002	8	-2	5	5	1.075831	1.126269	8	6	0.04	1800	-21.66562	40.92393	-91.39361
69893	-114	2605	1614	-4.782514	-18.89871	0.6236449	0	10.94	4004	8	0	5	5	1.078706	1.081492	8	6	0.04	1800	-17.21567	40.92393	-91.39361
70072	1513	1301	278	-3.972246	-19.44131	-1.370097	0	10.94	4002	8	-1	5	5	1.080648	1.022588	8	6	0.04	1800	-13.72931	40.92393	-91.39361
70165	975	3024	-597	-1.059976	-20.91411	-1.502194	0	10.94	4002	8	0	5	5	1.081406	0.9841082	8	6	0.04	1800	-13.45395	40.92393	-91.39361
70241	1793	2426	-573	-0.8140955	-23.03791	-0.6927628	0	10.94	4002	10	0	5	5	1.08168	0.9684922	8	6	0.04	1800	-10.76178	40.92393	-91.39361
70398	-666	-3120	304	2.286465	-21.3639	2.248964	0	10.94	4002	10	0	5	5	1.082083	0.9302996	8	6	0.04	1800	-10.39252	40.92393	-91.39361
70483	-884	-2863	2132	-0.951933	-13.13917	0.9351979	0	10.94	4004	10	0	5	5	1.082347	0.9103272	8	6	0.04	1800	-8.708679	40.92393	-91.39361
70649	2234	-2698	-260	-0.3216838	-7.97182	-0.9633498	0	11.23	4003	9	2	5	5	1.082553	0.89345	8	6	0.04	1800	-6.570892	40.92393	-91.39361
70717	-1575	-4345	-478	-0.8002592	-4.428509	-0.3065677	0	11.23	4004	9	2	5	5	1.082583	0.89068	8	6	0.04	1800	-6.228821	40.92393	-91.39361
70884	302	-989	732	-2.843936	2.59162	0.3854327	0	11.23	4004	8	2	5	5	1.082709	0.8819925	8	6	0.04	1800	-6.49118	40.92393	-91.39361
70978	954	2583	189	-2.499366	-1.538095	-0.5144424	0	11.23	4003	8	2	5	5	1.082736	0.8807195	8	6	0.04	1800	-6.015015	40.92393	-91.39361
71068	-692	4076	-1116	-2.113995	-8.77937	0.06965747	0	11.23	4003	8	2	5	5	1.082767	0.8779008	8	6	0.04	1800	-4.033997	40.92393	-91.39361
71208	666	2398	225	-1.452603	-16.1284	1.17563	0	11.23	4003	6	2	5	5	1.082796	0.885228	8	6	0.04	1800	-5.82132	40.92393	-91.39361
71349	1608	-152	-1659	1.911777	-20.12922	1.234876	0	11.23	4004	6	2	5	5	1.082818	0.9163174	8	6	0.04	1800	-4.247589	40.92393	-91.39361
71391	1260	-73	-1135	2.760316	-20.49723	1.309645	0	11.23	4002	6	2	5	5	1.082821	0.9224052	8	6	0.04	1800	-2.937103	40.92393	-91.39361
71457	-1157	-2118	16	2.032973	-19.24499	2.128715	0	11.23	4004	6	2	5	5	1.082827	0.9431555	8	6	0.04	1800	-2.937103	40.92393	-91.39361
71675	437	-2300	1242	-3.060149	-7.832618	1.354989	0	11.29	4002	4	2	5	5	1.082838	1.001432	8	6	0.04	1800	-1.95694	40.92393	-91.39361
71854	-1142	-1770	33	-0.1906608	-6.656897	-0.5642633	0	11.29	4004	0	2	5	5	1.082844	1.064161	8	6	0.04	1800	-0.9933777	40.92393	-91.39362
71928	475	1718	913	-0.5221283	-6.437959	-0.5450565	0	11.29	4004	0	2	5	5	1.082846	1.081513	8	6	0.04	1800	-0.5458984	40.92393	-91.39362
72018	-65	2159	-923	2.605865	-13.08966	1.116041	0	11.29	4002	0	2	5	5	1.082847	1.1071	8	6	0.04	1800	-2.370544	40.92393	-91.39362
72115	-1086	893	1059	1.396963	-14.87286	0.7156851	0	11.29	4003	-2	2	5	5	1.082848	1.136448	8	6	0.04	1800	-1.701996	40.92393	-91.39362
72218	-638	802	-389	0.4161704	-15.52256	0.2963984	0	11.29	4003	1	2	5	5	1.082849	1.164563	8	6	0.04	1800	-1.115875	40.92393	-91.39362
72256	-53	3187	801	0.5590014	-19.78809	0.3495174	0	11.29	4004	0	2	5	5	1.082849	1.182087	8	6	0.04	1800	0.2631702	40.92393	-91.39362
72356	-1783	-1062	734	-0.5973808	-20.10373	0.2537308	0	11.29	4002	0	2	5	5	1.08285	1.229063	8	6	0.04	1800	-1.121246	40.92393	-91.39362
72487	-2935	-3582	856	-4.215173	-15.02939	-0.3369892	0	11.4	4003	-4	0	5	5	1.08285	1.256095	8	6	0.04	1800	-0.8110657	40.92393	-91.39362
72634	-1887	-2152	-1456	-9.164907	-12.56072	0.8094022	0	11.4	4004	-4	2	5	5	1.08285	1.301721	8	6	0.04	1800	-4.504333	40.92393	-91.39362
72730	498	-3183	-1403	-8.054903	-10.15764	1.950497	0	11.4	4003	-4	2	5	5	1.08285	1.316089	8	6	0.04	1800	-6.706604	40.92393	-91.39362
72825	2444	363	805	-5.937247	-8.376856	1.737622	0	11.4	4004	-8	2	5	5	1.08285	1.331397	8	6	0.04	1800	-6.664642	40.92393	-91.39362
72906	1151	-86	-469	-2.332864	-9.551309	0.6232822	0	11.4	4003	-7	2	5	5	1.08285	1.341476	8	6	0.04	1800	-8.676697	40.92393	-91.39362
72955	1618	-629	-251	-1.645707	-9.386394	0.6090863	0	11.4	4003	-8	2	5	5	1.08285	1.347341	8	6	0.04	1800	-8.676697	40.92393	-91.39362
73062	197	-1257	-290	-0.3058137	-7.33126	0.3929169	0	11.4	4004	-8	2	5	5	1.08285	1.342621	8	6	0.04	1800	-8.334717	40.92393	-91.39362
73279	-1054	-2810	-1129	0.3189322	-9.180521	0.8674961	0	11.4	4004	-10	2	5	5	1.08285	1.309275	8	6	0.04	1800	-7.321503	40.92393	-91.39362
73430	-36	1355	-1360	-0.9214611	-10.46375	0.5355988	0	11.23	4003	-10	2	5	5	1.08285	1.278674	8	6	0.04	1800	-6.249451	40.92393	-91.39362
73564	-494	3248	1334	-1.532604	-16.44526	0.7722971	0	11.23	4004	-12	4	5	5	1.08285	1.245408	8	6	0.04	1800	-6.433136	40.92393	-91.39362
73618	-2299	-922	321	-3.464907	-16.87075	1.033098	0	11.23	4002	-12	4	5	5	1.08285	1.240131	8	6	0.04	1800	-8.753906	40.92393	-91.39362
73712	-538	580	-328	-3.527897	-16.98427	1.378852	0	11.23	4002	-12	2	5	5	1.08285	1.205347	8	6	0.04	1800	-8.063202	40.92393	-91.39362
73898	-1086	-1280	-514	-4.249299	-17.15562	1.449998	0	11.23	4004	-14	4	5	5	1.08285	1.173814	8	6	0.04	1800	-11.75522	40.92393	-91.39362
74042	1408	3482	1074	-3.564421	-18.53653	1.016986	0	11.23	4004	-13	1	5	5	1.08285	1.137061	8	6	0.04	1800	-12.93051	40.92393	-91.39362
74109	20	-225	955	-4.363238	-19.7874	0.9020241	0	11.23	4003	-14	2	5	5	1.08285	1.131628	8	6	0.04	1800	-12.72607	40.92393	-91.39362
74222	-1778	-660	-67	-5.12074	-16.6318	1.978251	0	11.17	4002	-16	4	5	5	1.08285	1.107844	8	6	0.04	1800	-12.01688	40.92393	-91.39362
74256	-2859	-1859	-1297	-5.8547	-16.5154	1.795776	0	11.17	4003	-16	4	5	5	1.08285	1.103074	8	6	0.04	1800	-12.01688	40.92393	-91.39362
74364	2040	-1180	557	-3.843916	-13.90089	1.422136	0	11.17	4002	-16	4	5	5	1.08285	1.096074	8	6	0.04	1800	-11.86725	40.92393	-91.39362
74528	618	-2221	-698	-1.163907	-8.351119	-0.7271478	0	11.17	4003	-16	6	5	5	1.08285	1.083146	8	6	0.04	1800	-11.73373	40.92393	-91.39362
74575	2167	88	-497	0.139969	-8.046495	-0.6711023	0	11.17	4002	-16	6	5	5	1.08285	1.080219	8	6	0.04	1800	-8.956665	40.92393	-91.39362
74716	-1544	-1415	-1550	0.4124922	-8.735878	0.327238	0	11.17	4003	-16	6	5	5	1.08285	1.076995	8	6	0.04	1800	-8.841736	40.92393	-91.39362
74762	672	-224	-1213	0.2186708	-8.000391	1.093109	0	11.17	4003	-14	6	5	5	1.08285	1.076778	8	6	0.04	1800	-10.50006	40.92393	-91.39362
74895	2311	1761	1084	0.9496048	-9.928539	2.113321	0	11.17	4004	-14	6	5	5	1.08285	1.069532	8	6	0.04	1800	-11.01111	40.92393	-91.39362
74978	-111	953	-496	0.9970762	-12.40632	4.340923	0	11.17	4004	-14	6	5	5	1.08285	1.067678	8	6	0.04	1800	-7.827698	40.92393	-91.39362
75116	-1850	-1253	843	-0.3410546	-11.84724	2.223101	0	11.06	4003	-14	6	5	5	1.08285	1.060466	8	6	0.04	1800	-6.197968	40.92393	-91.39362
75276	-1612	-503	-408	-2.0574	-10.63848	0.7955679	0	11.06	4004	-14	6	5	5	1.08285	1.046037	8	6	0.04	1800	-4.888733	40.92393	-91.39362
75406	1565	494	-191	-1.827297	-11.70208	2.440134	0	11.06	4002	-14	6	5	5	1.08285	1.040178	8	6	0.04	1800	-6.206604	40.92393	-91.39362
75479	169	1726	-70	0.4262889	-13.13838	0.7528828	0	11.06	4004	-12	4	5	5	1.08285	1.031727	8	6	0.04	1800	-5.9104	40.92393	-91.39362
75614	592	295	614	2.070762	-13.46924	0.8134513	0	11.06	4002	-9	6	5	5	1.08285	1.016875	8	6	0.04	1800	-5.852112	40.92393	-91.39362
75747	1464	3240	686	-0.8677943	-12.99048	1.885175	0	11.06	4003	-10	6	5	5	1.08285	1.012234	8	6	0.04	1800	-4.167084	40.92393	-91.39362
75933	279	1479	940	-0.8458456	-14.29076	1.061114	0	11.06	4003	-12	4	5	5	1.08285	1.008918	8	6	0.04	1800	-3.674744	40.92393	-91.39362
76102	-1792	307	444	-0.3750046	-16.00087	1.11036	0	10.66	4004	-10	2	5	5	1.08285	1.016441	8	6	0.04	1800	-1.600159	40.92393	-91.39362
76193	15	-590	5	0.3382508	-14.92035	0.1421753	0	10.66	4002	-8	4	5	5	1.08285	1.030764	8	6	0.04	1800	-2.359467	40.92393	-91.39362
76321	-1470	-1969	419	-1.820162	-12.09484	-0.2571147	0	10.66	4002	-8	4	5	5	1.08285	1.061495	8	6	0.04	1800	-1.364655	40.92393	-91.39362
76473	-2488	-2281	-1096	-4.249042	-8.203112	0.5770333	0	10.66	4002	-8	4	5	5	1.08285	1.098058	8	6	0.04	1800	-0.5953674	40.92393	-91.39362
76545	-1314	-709	-657	-7.389373	-7.353248	1.561009	0	10.66	4004	-8	4	5	5	1.08285	1.11525	8	6	0.04	1800	-4.468201	40.92393	-91.39362
76705	-166	-239	1567	-10.69098	-7.220155	1.090251	0	10.66	4003	-4	2	5	5	1.08285	1.155942	8	6	0.04	1800	-7.007904	40.92393	-91.39362
76824	1810	2434	508	-8.324948	-9.809752	0.5503899	0	10.66	4003	-6	4	5	5	1.08285	1.169702	8	6	0.04	1800	-12.07446	40.92393	-91.39362
76880	252	1103	-913	-7.113449	-11.14342	0.5111097	0	10.66	4004	-3	4	5	5	1.08285	1.181193	8	6	0.04	1800	-14.86346	40.92393	-91.39362
76988	585	-1436	-837	-5.877964	-12.11701	0.7202063	0	10.77	4003	-4	4	5	5	1.08285	1.188906	8	6	0.04	1800	-15.47763	40.92393	-91.39362
77085	332	-932	-547	-2.14679	-11.72704	0.6064583	0	10.77	4004	-3	2	5	5	1.08285	1.196127	8	6	0.04	1800	-18.39871	40.92393	-91.39362
77187	-525	-1715	557	-1.727087	-11.3779	0.2204007	0	10.77	4003	-4	2	5	5	1.08285	1.200363	8	6	0.04	1800	-16.12177	40.92393	-91.39362
77381	-34	-630	-1289	0.533548	-9.180501	0.7971416	0	10.77	4004	-4	2	5	5	1.08285	1.212894	8	6	0.04	1800	-20.95209	40.92393	-91.39362
77457	-1839	-2794	32	-0.660435	-5.722032	0.31961	0	10.77	4002	-2	2	5	5	1.08285	1.21305	8	6	0.04	1800	-20.16806	40.92393	-91.39362
77523	-161	-1478	531	-1.787179	-3.537359	0.03699526	0	10.77	4004	-2	2	5	5	1.08285	1.215716	8	6	0.04	1800	-18.80417	40.92393	-91.39362
77647	685	44	-511	-1.004848	-2.085808	0.4424468	0	10.77	4002	-2	-1	5	5	1.08285	1.214723	8	6	0.04	1800	-24.21552	40.92393	-91.39362
77788	-338	392	-386	0.4570867	-4.063787	0.9949871	0	10.77	4002	0	2	5	5	1.08285	1.209005	8	6	0.04	1800	-29.87088	40.92393	-91.39362
77934	309	706	336	-1.525249	-3.271464	0.0285953	0	11.57	4003	0	2	5	5	1.08285	1.186643	8	6	0.04	1800	-24.7197	40.92393	-91.39362
77991	817	566	-1036	-1.337461	-3.578625	0.3043907	0	11.57	4008	0	0	5	5	1.08285	1.163203	8	6	0.04	1800	-24.7197	40.92393	-91.39362
78134	-904	-149	-83	-0.06289128	-6.240407	1.914369	0	11.57	4002	5	-1	5	5	1.08285	1.129329	8	6	0.04	1800	-28.03201	40.92393	-91.39361
78205	-782	4162	-46	-0.5928391	-10.51543	3.191126	0	11.57	4004	4	0	5	5	1.08285	1.115208	8	6	0.04	1800	-27.77551	40.92393	-91.39361
78241	-841	2259	-1145	-0.7810981	-15.70242	3.064431	0	11.57	4002	4	0	5	5	1.08285	1.106627	8	6	0.04	1800	-30.16739	40.92393	-91.39361
78324	2079	4754	725	0.04939491	-19.50259	2.849156	0	11.57	4002	2	-2	5	5	1.08285	1.095287	8	6	0.04	1800	-25.39804	40.92393	-91.39361
78522	-41	4059	1277	1.065945	-23.6854	1.848299	0	11.57	4004	4	-2	5	5	1.08285	1.043974	8	6	0.04	1800	-8.883087	40.92393	-91.39361
78600	-1254	1545	1372	0.837048	-26.4823	0.03267926	0	11.57	4003	4	-2	5	5	1.08285	1.021357	8	6	0.04	1800	-7.570557	40.92393	-91.39361
78667	172	1308	708	1.135714	-25.74595	-0.9615947	0	11.23	4003	4	-5	5	5	1.08285	1.008803	8	6	0.04	1800	-5.09256	40.92393	-91.39361
78828	-59	732	-663	-0.4202673	-26.17818	-1.03099	0	11.23	4004	6	-7	5	5	1.08285	0.9783989	8	6	0.04	1800	-3.1091	40.92393	-91.39361
78975	2140	1084	-1583	-3.549818	-22.47905	1.771569	0	11.23	4004	7	-7	5	5	1.08285	0.9364263	8	6	0.04	1800	-3.216034	40.92393	-91.39361
79039	712	1957	1667	-1.930158	-21.00499	1.688398	0	11.23	4003	6	-8	5	5	1.08285	0.9215485	8	6	0.04	1800	-4.330017	40.92392	-91.39361
79194	-227	-702	593	-3.403348	-14.67644	1.113653	0	11.23	4002	6	-8	5	5	1.08285	0.8840396	8	6	0.04	1800	-3.134094	40.92392	-91.39361
79409	-987	-2486	0	-4.8033	-3.550278	3.32518	0	11.23	4002	7	-12	5	5	1.08285	0.8818228	8	6	0.04	1800	-2.402527	40.92392	-91.39361
79542	1105	299	65	-3.312671	-5.4875	1.205707	0	11.17	4003	9	-12	5	5	1.08285	0.9012747	8	6	0.04	1800	-2.877258	40.92392	-91.39361
79609	2413	2566	877	-0.5914018	-8.018422	0.3100199	0	11.17	4003	8	-12	5	5	1.08285	0.9167684	8	6	0.04	1800	-1.661865	40.92392	-91.39361
79681	-284	-1018	-1259	-1.745635	-8.856988	0.9640818	0	11.17	4003	6	-12	5	5	1.08285	0.9399827	8	6	0.04	1800	-1.16333	40.92392	-91.39361
79836	1191	4374	971	-1.713463	-10.45869	0.7663456	0	11.17	4003	6	-12	5	5	1.08285	0.9763261	8	6	0.04	1800	-1.117096	40.92392	-91.39361
79902	830	4381	-699	0.358474	-15.18265	0.5451216	0	11.17	4003	11	-14	5	5	1.08285	0.9968657	8	6	0.04	1800	-0.6166382	40.92392	-91.39361
80021	-1014	-512	121	-0.4264692	-18.58801	-0.5193475	0	11.17	4004	10	-14	5	5	1.08285	1.042599	8	6	0.04	1800	-0.2565613	40.92392	-91.39361
80129	475	1087	80	-0.851096	-18.27104	-0.4703959	0	11.17	4003	10	-14	5	5	1.08285	1.064812	8	6	0.04	1800	-0.3544922	40.92392	-91.39361
80292	-2934	-5958	-1899	-3.85878	-13.94121	2.20481	0	11.17	4003	10	-16	5	5	1.08285	1.135212	8	6	0.04	1800	-1.62204	40.92392	-91.39361
80361	-1593	-2828	-350	-5.028081	-11.76131	2.499639	0	11.17	4003	10	-16	5	5	1.08285	1.151304	8	6	0.04	1800	-2.045471	40.92392	-91.39361
80589	159	-2497	-1113	-1.968324	-7.012934	-0.2517338	0	11.23	4004	10	-16	5	5	1.08285	1.283116	8	6	0.04	1800	0.345672	40.92392	-91.39361
80751	67	57	-653	0.6561564	-9.490132	0.09554755	0	11.23	4003	8	-16	5	5	1.08285	1.377462	8	6	0.04	1800	1.002754	40.92392	-91.39361
80790	1839	1355	-1062	1.061242	-10.08674	0.4244882	0	11.23	4003	11	-16	5	5	1.08285	1.391247	8	6	0.04	1800	1.002754	40.92392	-91.39361
80922	-1525	-3439	-278	1.265897	-11.25022	1.375202	0	11.23	4004	10	-16	5	5	1.08285	1.456158	8	6	0.04	1800	2.502591	40.92392	-91.39361
80989	-456	-476	1435	-0.2009705	-9.256223	0.9215219	0	11.23	4003	10	-16	5	5	1.08285	1.481088	8	6	0.04	1800	3.628042	40.92392	-91.39361
81170	-1667	-1748	-410	-0.9304534	-7.249518	1.219738	0	11.23	4003	10	-14	5	5	1.08285	1.560644	8	6	0.04	1800	6.860715	40.92392	-91.39361
81287	891	1544	1678	-0.9835166	-7.62637	0.9175226	0	11.23	4004	10	-14	5	5	1.08285	1.596289	8	6	0.04	1800	5.968987	40.92392	-91.39361
81407	-365	-1922	-960	-0.07371156	-7.575171	-0.1827511	0	11.06	4003	10	-14	5	5	1.08285	1.627894	8	6	0.04	1800	6.549301	40.92392	-91.39361
81442	-1089	-1901	-506	-0.121239	-7.532087	-0.3694459	0	11.06	4003	10	-14	5	5	1.08285	1.631205	8	6	0.04	1800	6.549301	40.92392	-91.39361
81619	-1655	-780	-484	0.1248525	-10.01264	0.6787384	0	11.06	4003	12	-12	5	5	1.08285	1.644892	8	6	0.04	1800	15.33349	40.92392	-91.39361
81654	-1294	-2288	-1392	-0.2549035	-10.05408	0.8905495	0	11.06	4003	15	-12	5	5	1.08285	1.650725	8	6	0.04	1800	14.78163	40.92392	-91.39361
81736	-2065	-3978	-1540	-1.85366	-7.098454	1.84767	0	11.06	4002	14	-12	5	5	1.08285	1.655847	8	6	0.04	1800	14.80214	40.92392	-91.3936
81940	1736	1121	636	-1.820732	-8.138327	0.4715842	0	11.06	4003	16	-10	5	5	1.08285	1.633123	8	6	0.04	1800	16.20887	40.92392	-91.3936
82089	-1217	-1186	-1707	-2.617822	-6.546901	2.336319	0	11.06	4003	18	-8	5	5	1.08285	1.590958	8	6	0.04	1800	23.69572	40.92392	-91.3936
82247	-1138	-222	2644	-4.331669	-6.74117	1.076103	0	11.11	4002	23	-7	5	5	1.08285	1.556332	8	6	0.04	1800	33.07031	40.92393	-91.3936
82431	807	4343	862	-4.885494	-12.4906	-1.054806	0	11.11	4004	24	-4	5	5	1.08285	1.470368	8	6	0.04	1800	1.275919	40.92393	-91.3936
82534	-2919	3380	-571	-6.840758	-18.12858	0.2117729	0	11.11	4002	24	-4	5	5	1.08285	1.427003	8	6	0.04	1800	-4.77652	40.92393	-91.3936
82631	-227	4612	-711	-10.5182	-20.55399	1.70245	0	11.11	4004	28	0	5	5	1.08285	1.405646	8	6	0.04	1800	-4.985504	40.92393	-91.39359
82778	1853	6394	699	-9.251776	-27.09606	1.215474	0	11.11	4004	32	2	5	5	1.08285	1.374672	8	6	0.04	1800	-9.166656	40.92393	-91.39359
82850	-1687	2418	890	-7.313309	-29.21446	0.4030395	0	11.11	4003	32	2	5	5	1.08285	1.365285	8	6	0.04	1800	-12.88757	40.92393	-91.39359
82993	-170	1259	-992	-9.963994	-23.19657	-0.7851604	0	11.11	4004	38	4	5	5	1.08285	1.357907	8	6	0.04	1800	-14.32928	40.92393	-91.39359
83087	1330	3549	524	-9.121863	-24.85704	-0.04085244	0	10.43	4004	43	3	5	5	1.08285	1.358347	8	6	0.04	1800	-16.76407	40.92393	-91.39359
83231	132	148	173	-6.231917	-26.8179	1.40732	0	10.43	4004	42	4	5	5	1.08285	1.361873	8	6	0.04	1800	-19.18347	40.92393	-91.39359
83285	-2148	-1019	431	-6.628668	-25.3266	0.8876494	0	10.43	4003	47	5	5	5	1.08285	1.372056	8	6	0.04	1800	-18.49191	40.92393	-91.39359
83413	1266	-1613	1087	-7.010303	-21.50018	-0.06586205	0	10.43	4003	46	6	5	5	1.08285	1.394956	8	6	0.04	1800	-16.35507	40.92393	-91.39359
83481	1023	-2470	888	-6.37816	-17.22747	0.3231834	0	10.43	4003	53	5	5	5	1.08285	1.40359	8	6	0.04	1800	-17.612	40.92393	-91.39359
83747	-1083	-2213	-946	-6.951488	-5.563029	0.1478859	0	10.43	4002	54	10	5	5	1.08285	1.462276	8	6	0.04	1800	-18.00983	40.92393	-91.39358
83844	1722	-375	1221	-5.030267	-5.929914	-0.06950364	0	10.43	4003	58	10	5	5	1.08285	1.493326	8	6	0.04	1800	-18.65726	40.92393	-91.39358
83972	351	667	371	-3.748743	-4.821485	0.4526155	0	10.43	4004	62	10	5	5	1.08285	1.53524	8	6	0.04	1800	-22.70197	40.92393	-91.39358
84047	1656	1526	-241	-3.176883	-6.590233	0.8332987	0	11.11	4002	62	10	5	5	1.08285	1.564769	8	6	0.04	1800	-23.81421	40.92393	-91.39358
84121	-96	-817	708	-2.604893	-7.772934	1.440033	0	11.11	4003	62	10	5	5	1.08285	1.580413	8	6	0.04	1800	-24.20657	40.92393	-91.39358
84179	642	-1019	628	-4.224243	-6.021552	2.157279	0	11.11	4004	64	12	5	5	1.08285	1.597241	8	6	0.04	1800	-26.57895	40.92393	-91.39358
84253	-1087	-346	2201	-5.576971	-4.870759	1.596856	0	11.11	4004	64	12	5	5	1.08285	1.616277	8	6	0.04	1800	-26.81479	40.92393	-91.39358
84384	-748	-1315	-182	-6.447488	-6.06486	0.01523371	0	11.11	4003	68	12	5	5	1.08285	1.666556	8	6	0.04	1800	-30.34726	40.92393	-91.39358
84493	1264	11	-1523	-4.382815	-7.153008	0.5966117	0	11.11	4002	81	14	5	5	1.08285	1.704776	8	6	0.04	1800	-31.36841	40.92393	-91.39358
84545	-1392	-2345	324	-5.118661	-5.349259	0.7876308	0	11.11	4003	70	12	5	5	1.08285	1.724321	8	6	0.04	1800	-31.54669	40.92393	-91.39358
84721	-346	-682	35	-6.984145	-3.480397	-0.06217477	0	11.11	4004	70	12	5	5	1.08285	1.797785	8	6	0.04	1800	-35.93298	40.92393	-91.39358
84759	1379	113	-875	-6.487084	-4.176594	0.08745784	0	11.11	4004	70	12	5	5	1.08285	1.812956	8	6	0.04	1800	-35.93298	40.92393	-91.39358
84887	463	4060	344	-6.284427	-9.68237	0.9143883	0	11.34	4002	72	12	5	5	1.08285	1.844941	8	6	0.04	1800	-37.59241	40.92393	-91.39358
85021	449	5479	50	-5.433058	-17.70581	1.526836	0	11.34	4003	72	12	5	5	1.08285	1.86387	8	6	0.04	1800	-37.61179	40.92393	-91.39358
85069	-606	3166	1235	-5.786942	-23.11175	1.676862	0	11.34	4002	70	12	5	5	1.08285	1.867516	8	6	0.04	1800	-36.01495	40.92393	-91.39358
85137	-1177	153	388	-7.514699	-23.20907	0.825469	0	11.34	4003	70	12	5	5	1.08285	1.886921	8	6	0.04	1800	-31.52734	40.92393	-91.39358
85219	1116	-30	-573	-7.334111	-22.14519	0.137577	0	11.34	4002	70	7	5	5	1.08285	1.898794	8	6	0.04	1800	-29.08588	40.92393	-91.39358
85317	3463	-4228	-1686	-0.07296158	-20.51933	0.7610466	0	11.34	4004	70	8	5	5	1.08285	1.911825	8	6	0.04	1800	-26.82715	40.92393	-91.39358
85441	1957	-4483	-228	1.408606	-10.91706	1.849567	0	11.34	4004	66	10	5	5	1.08285	1.902807	8	6	0.04	1800	-21.45755	40.92393	-91.39358
85652	4241	-872	928	14.71461	-5.984435	0.9383576	0	11.34	4003	64	8	5	5	1.08285	1.818545	8	6	0.04	1800	-20.35626	40.92393	-91.39358
85774	1621	351	-1051	17.82255	-6.176952	1.686109	0	10.94	4004	58	5	5	5	1.08285	1.702691	8	6	0.04	1800	-2.600983	40.92393	-91.39358
85901	-12789	-9781	3059	1.91881	7.63066	-17.6595	0	10.94	4004	58	6	5	5	1.08285	1.524114	8	6	0.04	1800	-46.82831	40.92393	-91.39358
85993	10214	2337	-5774	-0.04532522	13.61334	-15.79157	0	10.94	4003	54	6	5	5	1.08285	1.316409	8	6	0.04	1800	-55.35611	40.92393	-91.39358
86051	5683	5807	-7326	11.14244	5.82045	-8.088591	0	10.94	4003	54	6	5	5	1.08285	1.278581	8	6	0.04	1800	-55.04025	40.92393	-91.39358
86168	3925	6485	-2503	13.19298	-11.49691	3.72706	0	10.94	4003	48	8	5	5	1.08285	1.184505	8	6	0.04	1800	-57.77802	40.92393	-91.39359
86244	310	4861	698	14.50328	-17.86985	3.89368	0	10.94	4003	48	8	5	5	1.08285	1.153588	8	6	0.04	1800	-50.93628	40.92393	-91.39359
86312	-2034	4017	2770	12.78879	-20.07848	1.307527	0	10.94	4003	40	8	5	5	1.08285	1.131436	8	6	0.04	1800	-36.88083	40.92393	-91.39359
86386	2363	5170	3807	12.43981	-22.5314	-1.650673	0	10.94	4002	40	8	5	5	1.08285	1.120574	8	6	0.04	1800	-25.56519	40.92393	-91.39359
86485	3976	3673	-1543	15.88848	-26.53847	-1.998918	0	10.94	4002	40	8	5	5	1.08285	1.108526	8	6	0.04	1800	-13.12375	40.92393	-91.39359
86621	-2114	4392	-2788	9.01189	-30.93885	4.272166	0	10.94	4002	0	0	5	5	1.08285	1.121279	3	6	0.04	1800	-5.519806	40.92393	-91.39359
86778	-4206	3963	-2037	-6.080281	-35.27784	10.8553	0	11.46	4003	0	0	5	5	1.08285	1.158563	3	6	0.04	1800	-7.911591	40.92393	-91.3936
86870	-4013	3989	-2486	-14.12371	-36.50305	14.62879	0	11.46	4004	0	0	5	5	1.08285	1.173778	3	6	0.04	1800	-14.0144	40.92393	-91.3936
87041	3772	-578	-300	-21.31712	-34.66045	19.10266	0	11.46	4004	0	0	5	5	1.08285	1.204891	3	6	0.04	1800	-21.3226	40.92393	-91.3936
87144	1975	283	2680	-12.35485	-30.75985	16.01433	0	11.46	4004	0	0	5	5	1.08285	1.219784	3	6	0.04	1800	-18.19812	40.92393	-91.3936
87259	1777	-1071	3332	-2.219247	-27.89115	9.362103	0	11.46	4003	0	0	5	5	1.08285	1.281989	3	6	0.04	1800	-9.773285	40.92393	-91.39361
87381	1142	-2739	2054	0.878039	-23.02774	4.69697	0	11.46	4002	0	0	5	5	1.08285	1.327994	3	6	0.04	1800	-6.434937	40.92393	-91.39361
87585	-16556	-32758	13785	-23.6833	41.65828	-20.32014	0	11.46	4002	0	0	5	5	1.08285	1.344969	3	6	0.04	1800	-1.397247	40.92393	-91.39362
87689	-28031	-32758	12206	-76.98326	68.98343	-41.64998	0	11.46	4004	0	0	5	5	1.08285	1.258811	3	6	0.04	1800	139.0662	40.92393	-91.39362
87850	32507	-32758	8258	-57.65888	102.8157	-69.48782	0	11.46	4002	0	0	5	5	1.08285	1.142989	3	6	0.04	1800	-48.14713	40.92393	-91.39362
87932	732	16245	4002	-55.54158	114.9775	-76.60992	0	11.46	4003	0	0	5	5	1.08285	1.039194	3	6	0.04	1800	228.0818	40.92393	-91.39362
88077	-920	17889	2108	-55.99368	50.53856	-81.05151	0	11.46	4002	0	0	5	5	1.08285	0.9314243	3	6	0.04	1800	185.5639	40.92393	-91.39362
88223	-161	9468	3742	-53.61659	16.61723	-91.94527	0	11.46	4004	0	0	5	5	1.08285	0.844794	3	6	0.04	1800	151.999	40.92393	-91.39362
88266	-414	3753	-40	-50.83949	11.68487	-93.87303	0	11.46	4003	0	0	5	5	1.08285	0.7705971	3	6	0.04	1800	146.0403	40.92393	-91.39362
88394	-195	-1710	-77	-44.45287	17.59985	-93.43788	0	11.46	4002	0	0	5	5	1.08285	0.7029607	3	6	0.04	1800	141.3514	40.92393	-91.39362
88494	-64	540	79	-37.25593	27.28147	-93.26864	0	11.51	4002	0	0	5	5	1.08285	0.613637	3	6	0.04	1800	139.4615	40.92393	-91.39363
88645	-76	-13	2	-31.34241	33.57779	-93.30869	0	11.51	4002	0	0	5	5	1.08285	0.5581775	3	6	0.04	1800	137.6867	40.92393	-91.39363
88705	-69	-45	4	-27.5711	37.69579	-93.33939	0	11.51	4002	0	0	5	5	1.08285	0.5249918	3	6	0.04	1800	132.7478	40.92393	-91.39363
88779	-73	32	12	-25.31637	40.21762	-93.35227	0	11.51	4003	0	0	5	5	1.08285	0.466806	3	6	0.04	1800	129.4357	40.92393	-91.39363
88890	-70	5	14	-22.29066	43.54779	-93.37681	0	11.51	4002	0	0	5	5	1.08285	0.431516	3	6	0.04	1800	125.6372	40.92393	-91.39363
88987	-73	15	19	-18.84709	47.34075	-93.40934	0	11.51	4002	0	0	5	5	1.08285	0.4079544	3	6	0.04	1800	115.654	40.92394	-91.39363
89060	-75	8	19	-17.33541	48.99146	-93.42808	0	11.51	4003	0	0	5	5	1.08285	0.3915588	3	6	0.04	1800	110.0092	40.92394	-91.39363
89174	-65	2	14	-14.69785	51.89508	-93.45817	0	11.51	4003	0	0	5	5	1.08285	0.393828	3	6	0.04	1800	95.0789	40.92394	-91.39364
89233	-73	4	12	-13.55588	53.15506	-93.47435	0	11.51	4004	0	0	5	5	1.08285	0.3951633	3	6	0.04	1800	87.50624	40.92394	-91.39364
89393	-67	5	15	-11.55012	55.35585	-93.50853	0	11.51	4004	0	0	5	5	1.08285	0.4003313	3	6	0.04	1800	70.80336	40.92394	-91.39364
89542	-71	-21	8	-9.514855	57.6156	-93.54723	0	11.51	4004	0	0	5	5	1.08285	0.3786452	3	6	0.04	1800	55.2314	40.92394	-91.39364
89582	-68	1	13	-8.810041	58.39707	-93.5576	0	11.51	4004	0	0	5	5	1.08285	0.3750874	3	6	0.04	1800	48.82386	40.92394	-91.39364
89702	-71	5	17	-7.585874	59.74899	-93.58934	0	11.51	4004	0	0	5	5	1.08285	0.3577211	3	6	0.04	1800	39.14985	40.92394	-91.39364
89833	-75	3	15	-7.045273	60.3341	-93.60185	0	11.51	4003	0	0	5	5	1.08285	0.3409381	3	6	0.04	1800	36.05016	40.92394	-91.39364
89939	-68	4	15	-5.905854	61.61089	-93.63792	0	11.51	4003	0	0	5	5	1.08285	0.3228087	3	6	0.04	1800	29.46535	40.92394	-91.39364
90082	29	4608	630	-4.852706	59.10975	-93.75205	0	11.51	4002	0	0	5	5	1.08285	0.3147024	3	6	0.04	1800	24.44255	40.92394	-91.39364
90306	-1998	-492	4167	-16.32092	53.69365	-102.9076	0	11.57	4004	0	0	5	5	1.08285	0.3114873	3	6	0.04	1800	25.02172	40.92394	-91.39364
90417	1524	-758	4741	-24.73558	53.46279	-113.6147	0	11.57	4003	0	0	5	5	1.08285	0.3179274	3	6	0.04	1800	26.09713	40.92394	-91.39364
90552	628	-3987	-239	-24.30367	55.33954	-116.5045	0	11.57	4003	0	0	5	5	1.08285	0.3357664	3	6	0.04	1800	28.83805	40.92394	-91.39364
90620	2951	-1307	2720	-22.37239	60.43452	-117.7985	0	11.57	4003	0	0	5	5	1.08285	0.3500265	3	6	0.04	1800	20.94015	40.92394	-91.39364
90671	2884	-1441	4097	-22.89872	59.91228	-121.9703	0	11.57	4003	0	0	5	5	1.08285	0.3552821	3	6	0.04	1800	18.55536	40.92394	-91.39364
90900	-732	-3103	780	-26.9608	64.27875	-126.9839	0	11.57	4002	0	0	5	5	1.08285	0.37539	3	6	0.04	1800	14.06221	40.92395	-91.39364
90969	1292	-3402	1332	-26.91018	66.77661	-127.9793	0	11.57	4004	0	0	5	5	1.08285	0.40365	3	6	0.04	1800	5.675176	40.92395	-91.39364
91110	7781	-2446	3699	-21.88401	69.98006	-135.3027	0	11.57	4003	0	0	5	5	1.08285	0.4500341	3	6	0.04	1800	-8.136597	40.92395	-91.39364
91170	7000	-2426	3417	-20.34153	69.75045	-137.2099	0	11.57	4002	0	0	5	5	1.08285	0.4803602	3	6	0.04	1800	-13.49701	40.92395	-91.39364
91330	2293	-5729	1287	-18.313	79.77464	-145.3729	0	11.57	4004	0	0	5	5	1.08285	0.5438716	3	6	0.04	1800	-41.43878	40.92395	-91.39364
91359	1736	-6313	1340	-19.12388	81.04956	-146.0203	0	11.57	4002	0	0	5	5	1.08285	0.5523491	3	6	0.04	1800	-41.43878	40.92395	-91.39364
91497	2758	-1355	2519	-25.8371	81.74072	-151.0128	0	11.57	4003	0	0	5	5	1.08285	0.5812635	3	6	0.04	1800	-79.36835	40.92395	-91.39364
91643	1235	2200	2200	-30.12408	71.01382	-156.5353	0	11.57	4003	0	0	5	5	1.08285	0.5774577	3	6	0.04	1800	254.0454	40.92395	-91.39364
91712	3384	2104	-1969	-31.33217	67.80981	-157.5203	0	11.57	4003	0	0	5	5	1.08285	0.5742207	3	6	0.04	1800	254.0454	40.92395	-91.39364
91935	-1869	1123	-3236	-26.0988	56.82549	-149.6829	0	11.57	4003	0	0	5	5	1.08285	0.5583307	3	6	0.04	1800	201.1102	40.92395	-91.39365
92021	-3220	-603	-296	-29.11086	58.08201	-145.323	0	11.57	4003	0	0	5	5	1.08285	0.5632836	3	6	0.04	1800	191.3207	40.92395	-91.39365
92171	711	-1440	1060	-32.11924	58.75015	-146.5352	0	11.57	4004	0	0	5	5	1.08285	0.5787556	3	6	0.04	1800	195.7279	40.92395	-91.39365
92267	2766	-704	7	-30.96685	58.89423	-147.7769	0	11.57	4004	0	0	5	5	1.08285	0.5947384	3	6	0.04	1800	198.4129	40.92395	-91.39365
92445	527	-153	1982	-28.58436	58.31564	-149.5221	0	11.57	4003	0	0	5	5	1.08285	0.6189507	3	6	0.04	1800	197.0533	40.92395	-91.39365
92522	-1235	-2101	1927	-32.5239	56.10057	-152.4557	0	11.57	4003	0	0	5	5	1.08285	0.6367164	3	6	0.04	1800	202.4617	40.92395	-91.39365
92611	-2468	1101	2435	-41.25005	50.31447	-157.3126	0	11.57	4004	0	0	5	5	1.08285	0.6388623	3	6	0.04	1800	206.2155	40.92395	-91.39365
92714	-1701	1473	-663	-45.29867	45.99543	-158.4723	0	11.57	4003	0	0	5	5	1.08285	0.6534722	3	6	0.04	1800	204.8293	40.92395	-91.39365
92786	444	2475	-3114	-44.52042	44.39494	-156.5323	0	11.57	4002	0	0	5	5	1.08285	0.6609474	3	6	0.04	1800	201.6143	40.92395	-91.39365
92907	-1207	1547	-1903	-43.82697	43.74798	-150.4948	0	11.63	4003	0	0	5	5	1.08285	0.6675181	3	6	0.04	1800	190.7049	40.92395	-91.39365
93080	-517	-1381	872	-46.34294	44.05504	-150.4737	0	11.63	4003	0	0	5	5	1.08285	0.6794865	3	6	0.04	1800	188.4731	40.92395	-91.39365
93183	493	-1869	-528	-44.46796	47.21515	-150.8443	0	11.63	4002	0	0	5	5	1.08285	0.6975663	3	6	0.04	1800	193.658	40.92395	-91.39365
93272	4544	793	-1592	-41.12677	48.6431	-149.8571	0	11.63	4003	0	0	5	5	1.08285	0.705847	3	6	0.04	1800	196.2331	40.92395	-91.39365
93340	1288	2	-466	-35.06705	48.56595	-148.4849	0	11.63	4004	0	0	5	5	1.08285	0.7145035	3	6	0.04	1800	195.0486	40.92395	-91.39365
93385	140	311	1380	-35.60489	47.35297	-149.3106	0	11.63	4003	0	0	5	5	1.08285	0.7182797	3	6	0.04	1800	193.0441	40.92395	-91.39365
93486	-1917	-1082	3025	-39.31787	46.21654	-152.1214	0	11.63	4003	0	0	5	5	1.08285	0.7391948	3	6	0.04	1800	192.6253	40.92395	-91.39365
93580	-919	-1583	2092	-42.44828	45.05559	-155.0286	0	11.63	4003	0	0	5	5	1.08285	0.7529227	3	6	0.04	1800	196.3546	40.92395	-91.39365
93737	-605	915	-1431	-45.74257	45.15393	-156.1125	0	11.63	4002	0	0	5	5	1.08285	0.7705083	3	6	0.04	1800	203.7084	40.92396	-91.39365
93892	-3382	3521	-3129	-40.22959	45.4443	-146.0034	0	11.57	4003	0	0	5	5	1.08285	0.7784054	3	6	0.04	1800	192.6877	40.92396	-91.39365
93945	126	548	-2566	-38.67787	44.69967	-142.7419	0	11.57	4002	0	0	5	5	1.08285	0.7793052	3	6	0.04	1800	185.6503	40.92396	-91.39365
94101	927	-2179	228	-37.06723	49.10279	-140.8932	0	11.57	4003	0	0	5	5	1.08285	0.8009079	3	6	0.04	1800	181.4316	40.92396	-91.39365
94257	2738	-592	324	-31.43541	53.18658	-141.4843	0	11.57	4004	0	0	5	5	1.08285	0.8210879	3	6	0.04	1800	186.3613	40.92396	-91.39365
94294	4970	1661	333	-28.00696	52.21297	-142.0001	0	11.57	4004	0	0	5	5	1.08285	0.8291984	3	6	0.04	1800	187.7765	40.92396	-91.39365
94436	-186	140	404	-27.2515	50.86827	-143.0366	0	11.57	4003	0	0	5	5	1.08285	0.846974	3	6	0.04	1800	186.5052	40.92396	-91.39365
94491	100	-3176	339	-26.63219	52.60882	-143.1809	0	11.57	4004	0	0	5	5	1.08285	0.8567121	3	6	0.04	1800	187.5327	40.92396	-91.39365
94711	-507	-1235	1266	-32.38129	54.90814	-146.1606	0	11.57	4002	0	0	5	5	1.08285	0.8922846	3	6	0.04	1800	192.5953	40.92396	-91.39366
94852	744	2161	-560	-35.8862	50.10043	-148.1947	0	11.63	4003	0	0	5	5	1.08285	0.9045303	3	6	0.04	1800	196.9837	40.92396	-91.39366
94907	-83	2208	-813	-35.37271	48.91526	-147.7611	0	11.63	4002	0	0	5	5	1.08285	0.9054618	3	6	0.04	1800	196.9837	40.92396	-91.39366
95022	-2775	281	-303	-38.05484	46.3312	-146.1086	0	11.63	4002	0	0	5	5	1.08285	0.901539	3	6	0.04	1800	190.9865	40.92396	-91.39366
95131	-1613	727	1898	-43.86503	44.36451	-148.0242	0	11.63	4002	0	0	5	5	1.08285	0.8978329	3	6	0.04	1800	190.8092	40.92396	-91.39366
95226	-436	-278	1694	-45.27795	42.93887	-150.0256	0	11.63	4003	0	0	5	5	1.08285	0.8959168	3	6	0.04	1800	192.5783	40.92396	-91.39366
95349	760	-1028	-1351	-45.21512	42.2049	-152.0331	0	11.63	4002	0	0	5	5	1.08285	0.9027835	3	6	0.04	1800	194.5187	40.92396	-91.39366
95476	1631	-221	-1862	-34.94321	47.83335	-146.2233	0	11.63	4004	0	0	5	5	1.08285	0.9141839	3	6	0.04	1800	192.9303	40.92396	-91.39367
95614	-1041	1153	824	-35.23023	46.00725	-145.9344	0	11.63	4003	0	0	5	5	1.08285	0.919194	3	6	0.04	1800	190.6621	40.92396	-91.39367
95655	-1262	814	1651	-37.43462	43.86637	-147.4057	0	11.63	4004	0	0	5	5	1.08285	0.9197863	3	6	0.04	1800	189.4092	40.92396	-91.39367
95733	-1726	1716	1010	-39.97729	41.55943	-148.9037	0	11.63	4004	0	0	5	5	1.08285	0.9296132	3	6	0.04	1800	189.7607	40.92396	-91.39367
95910	-4148	3797	-71	-50.55818	32.41307	-150.2137	0	11.63	4004	0	0	5	5	1.08285	0.9507008	3	6	0.04	1800	184.9008	40.92396	-91.39367
95985	-3070	3396	-764	-54.33386	28.43189	-149.6038	0	11.63	4003	0	0	5	5	1.08285	0.9550273	1	6	0.04	1800	181.4133	40.92396	-91.39367
96059	-2956	3460	-1538	-56.0853	26.75443	-148.4308	0	11.63	4002	0	0	5	5	1.08285	0.9533451	1	6	0.04	1800	177.8528	40.92396	-91.39367
96116	-5458	2205	-1016	-58.52137	26.58599	-146.7737	0	11.63	4004	0	0	5	5	1.08285	0.950499	1	6	0.04	1800	174.472	40.92397	-91.39368
96174	-5258	2484	-600	-60.75557	26.20019	-146.3783	0	11.63	4003	0	0	5	5	1.08285	0.9443757	1	6	0.04	1800	171.5312	40.92397	-91.39368
96313	-2249	1411	1184	-68.15939	22.56593	-147.3448	0	11.63	4003	0	0	5	5	1.08285	0.9452001	1	6	0.04	1800	169.4995	40.92397	-91.39368
96379	-2462	700	1685	-68.84899	21.13408	-148.7713	0	11.63	4004	0	0	5	5	1.08285	0.9451936	1	6	0.04	1800	169.2383	40.92397	-91.39368
96550	1101	922	3483	-67.19558	13.83105	-156.4316	0	11.63	4002	0	0	5	5	1.08285	0.9418251	1	6	0.04	1800	171.0996	40.92397	-91.39368
96638	-1099	1574	4075	-66.82076	9.449399	-160.6594	0	11.63	4003	0	0	5	5	1.08285	0.9365661	1	6	0.04	1800	172.1745	40.92397	-91.39368
96756	-824	2511	3494	-69.61774	-1.937837	-170.6466	0	11.63	4004	0	0	5	5	1.08285	0.9198476	1	6	0.04	1800	176.0794	40.92397	-91.39368
96849	-785	3443	2985	-68.78656	-6.680596	-174.0727	0	11.63	4003	0	0	5	5	1.08285	0.9165081	1	6	0.04	1800	176.9837	40.92397	-91.39368
96904	-2048	4029	2321	-69.36001	-11.7389	-177.0637	0	11.63	4004	0	0	5	5	1.08285	0.9165934	1	6	0.04	1800	177.0994	40.92397	-91.39368
96966	-3597	5030	2075	-72.51321	-18.92466	-180.2969	0	11.63	4002	0	0	5	5	1.08285	0.9151713	1	6	0.04	1800	177.5594	40.92397	-91.39368
97087	-3334	6503	2180	-75.71472	-27.31518	-183.4227	0	11.63	4004	0	0	5	5	1.08285	0.9095529	1	6	0.04	1800	179.9169	40.92397	-91.39368
97225	-909	5403	2022	-75.25402	-39.47181	-188.0113	0	11.63	4003	0	0	5	5	1.08285	0.8906512	1	6	0.04	1800	183.1944	40.92397	-91.39368
97354	626	2754	-673	-73.58438	-46.17864	-192.9675	0	11.63	4002	0	0	5	5	1.08285	0.8629233	1	6	0.04	1800	195.6483	40.92397	-91.39368
97402	622	3630	-542	-73.94302	-45.36285	-192.5231	0	11.63	4003	0	0	5	5	1.08285	0.848044	1	6	0.04	1800	195.6483	40.92397	-91.39368
97579	5916	834	2672	-65.23544	-39.58512	-194.884	0	11.63	4003	0	0	5	5	1.08285	0.8399947	1	6	0.04	1800	196.8404	40.92397	-91.39368
97726	5236	418	1700	-49.00052	-35.40836	-200.3587	0	11.63	4002	0	0	5	5	1.08285	0.8235476	1	6	0.04	1800	198.0444	40.92397	-91.39368
97760	4770	-1914	1731	-46.62309	-34.40816	-201.3654	0	11.63	4004	0	0	5	5	1.08285	0.8231897	1	6	0.04	1800	198.0444	40.92397	-91.39368
97876	3573	-913	-437	-40.01817	-23.95658	-201.6027	0	11.63	4004	0	0	5	5	1.08285	0.8238909	1	6	0.04	1800	187.3365	40.92397	-91.39368
97930	2532	-853	913	-37.92002	-20.96801	-201.811	0	11.63	4004	0	0	5	5	1.08285	0.8289488	1	6	0.04	1800	160.1933	40.92397	-91.39368
98092	-1312	-482	457	-37.42365	-18.5425	-205.1039	0	11.63	4002	0	0	5	5	1.08285	0.8459879	1	6	0.04	1800	102.3568	40.92397	-91.39368
98228	-904	99	234	-43.1563	-15.56231	-204.4303	0	11.63	4002	0	0	5	5	1.08285	0.8473432	1	6	0.04	1800	76.50908	40.92397	-91.39368
98294	-1582	86	-196	-44.23673	-15.03052	-204.4767	0	11.63	4004	0	0	5	5	1.08285	0.8554503	1	6	0.04	1800	69.11671	40.92397	-91.39368
98366	-1043	587	-1364	-48.85023	-10.24763	-201.4059	0	11.63	4002	0	0	5	5	1.08285	0.8677124	1	6	0.04	1800	62.98621	40.92397	-91.39368
98501	3052	-1377	1491	-48.74693	-6.637112	-201.195	0	11.63	4003	0	0	5	5	1.08285	0.8772318	1	6	0.04	1800	59.19748	40.92397	-91.39368
98566	810	-634	1066	-46.36605	-7.538898	-204.1071	0	11.63	4002	0	0	5	5	1.08285	0.8801473	1	6	0.04	1800	56.14716	40.92397	-91.39368
98678	2266	766	1652	-44.98959	-8.174604	-206.0634	0	11.63	4004	0	0	5	5	1.08285	0.8840503	1	6	0.04	1800	55.38958	40.92397	-91.39368
98731	2613	1739	2254	-42.04472	-10.90664	-208.3413	0	11.63	4003	0	0	5	5	1.08285	0.8854268	1	6	0.04	1800	55.75057	40.92397	-91.39368
98839	-1306	-361	-5	-42.76835	-14.83168	-210.4772	0	11.63	4003	0	0	5	5	1.08285	0.8921214	1	6	0.04	1800	52.9915	40.92397	-91.39368
98889	-401	-501	465	-43.47067	-14.12991	-210.655	0	11.63	4002	0	0	5	5	1.08285	0.8989796	1	6	0.04	1800	51.58123	40.92397	-91.39368
99058	334	1304	254	-41.38512	-17.9738	-212.3069	0	11.63	4002	0	0	5	5	1.08285	0.9028459	1	6	0.04	1800	49.49661	40.92397	-91.39368
99122	-81	1301	-356	-41.54523	-18.96153	-212.399	0	11.63	4004	0	0	5	5	1.08285	0.8936969	1	6	0.04	1800	46.61326	40.92397	-91.39368
99186	-148	943	-755	-41.76528	-19.16277	-212.0418	0	11.57	4003	0	0	5	5	1.08285	0.8863639	1	6	0.04	1800	45.06943	40.92397	-91.39368
99287	1478	1492	-1455	-41.6226	-18.92307	-209.6465	0	11.57	4003	0	0	5	5	1.08285	0.879004	1	6	0.04	1800	42.66281	40.92397	-91.39368
