time(ms)	gyro_x(deg/s)	gyro_y(deg/s)	gyro_z(deg/s)	orientation_roll(deg)	orientation_pitch(deg)	orientation_yaw(deg)	throttle	battery(V)	loop_time(uS)	pid_output_roll	pid_output_pitch	pid_output_yaw	pid_output_throttle	ultrasonic_alt	baro_alt	flight_mode	p_gain_altitude	i_gain_altitude	d_gain_altitude	compass_heading	latitude	longitude
535071	-521	1247	2011	-0.7630875	-4.502058	0.07532714	0	11.06	4004	0	12	5	5	0.4253927	0.5681764	8	15	0.04	1600	-3.071991	40.92392	-91.39362
535141	-647	392	429	-1.267209	-4.807322	-0.04145667	0	11.06	4003	0	12	5	5	0.4208183	0.5938523	8	15	0.04	1600	-3.748169	40.92392	-91.39362
535266	-900	311	1506	-0.2117475	-4.264873	0.1912581	0	11.06	4003	0	12	5	5	0.4165865	0.6141179	8	15	0.04	1600	-5.379913	40.92392	-91.39362
535400	966	59	1230	0.01668861	-3.396382	-1.060373	0	10.21	4003	3	15	5	5	0.41381	0.6495015	8	15	0.04	1600	-3.195709	40.92392	-91.39362
535576	-286	-182	-1195	-1.230168	-5.225577	0.1514038	0	10.21	4003	0	15	5	5	0.411328	0.7268691	8	15	0.04	1600	-3.130066	40.92392	-91.39362
535666	562	-189	-744	-0.03710464	-3.828879	1.630649	0	10.21	4004	3	18	5	5	0.4107932	0.7641232	8	15	0.04	1600	-2.243103	40.92392	-91.39362
535736	-780	494	-591	-0.5164244	-5.10832	1.534018	0	10.21	4004	3	18	5	5	0.4101753	0.8244511	8	15	0.04	1600	-2.033356	40.92392	-91.39362
535850	1209	-520	1031	-0.4018105	-4.439114	0.5640449	0	10.21	4002	3	21	5	5	0.4096036	0.8891985	8	15	0.04	1600	-0.7759094	40.92392	-91.39362
535920	-471	1111	1179	0.5363327	-5.246064	0.1956131	0	10.21	4002	3	21	5	5	0.4094945	0.9125991	8	15	0.04	1600	0.1441948	40.92392	-91.39362
535981	-711	97	1035	-0.1146094	-5.545887	-0.2291347	0	10.21	4004	3	21	5	5	0.409308	0.95164	8	15	0.04	1600	-0.8422241	40.92392	-91.39362
536162	761	540	145	0.1768675	-5.501631	0.4185922	0	10.21	4003	0	24	5	5	0.4089355	1.051029	8	15	0.04	1600	-1.092987	40.92392	-91.39362
536255	-12	-769	-25	-0.3887134	-4.858505	0.3047105	0	10.21	4003	3	24	5	5	0.4088552	1.093238	8	15	0.04	1600	0.3046721	40.92392	-91.39362
536337	1001	-494	-1644	0.8009844	-4.586062	1.08133	0	11	4003	7	30	5	5	0.4087625	1.141322	8	15	0.04	1600	2.769002	40.92392	-91.39362
536527	-425	-1117	-453	-1.134591	-1.077233	0.5260978	0	11	4003	6	30	5	5	0.4086456	1.253376	8	15	0.04	1600	5.291621	40.92392	-91.39362
536662	55	-490	-46	-1.848751	-1.483845	0.1890096	0	11	4004	6	27	5	5	0.4086	1.327068	8	15	0.04	1600	4.376936	40.92392	-91.39362
536718	-504	1877	428	-1.614819	-2.133278	0.4686066	0	11	4002	10	29	5	5	0.4085835	1.359336	8	15	0.04	1600	8.208054	40.92393	-91.39362
536816	-672	-147	1425	-3.744079	-4.767019	-0.03419318	0	11	4002	9	30	5	5	0.4085701	1.37773	8	15	0.04	1600	6.361224	40.92392	-91.39362
536947	1597	-489	10	-1.995129	-4.803971	-0.01502042	0	11	4002	9	30	5	5	0.4085467	1.417311	8	15	0.04	1600	7.114017	40.92392	-91.39362
536985	876	-851	-966	-1.386115	-4.536293	0.03591889	0	11	4003	9	30	5	5	0.4085433	1.421599	8	15	0.04	1600	6.044769	40.92392	-91.39362
537115	-1487	2135	2301	-2.162568	-4.080114	0.1757209	0	11	4004	18	36	5	5	0.4085329	1.422438	8	15	0.04	1600	7.325191	40.92392	-91.39362
537228	311	436	577	-3.019927	-7.818419	0.04169789	0	10.77	4003	15	30	5	5	0.4085275	1.413189	8	15	0.04	1600	5.728208	40.92393	-91.39362
537259	311	436	577	-3.019927	-7.818419	0.04169789	0	10.77	4003	15	29	5	5	0.408526	1.408735	8	15	0.04	1600	5.728208	40.92392	-91.39362
537385	-1536	2196	2600	-1.715169	-6.669805	0.4277069	0	10.77	4003	15	30	5	5	0.4085215	1.384213	8	15	0.04	1600	2.219636	40.92392	-91.39362
537505	1142	1055	137	-2.661772	-11.23667	-0.1897492	0	10.77	4002	21	30	5	5	0.4085192	1.361936	8	15	0.04	1600	2.859252	40.92392	-91.39362
537633	-361	3288	251	-2.232037	-11.84026	-0.1887568	0	10.77	4004	25	29	5	5	0.4085166	1.294137	8	15	0.04	1600	4.622808	40.92393	-91.39362
537714	-502	3998	-680	-2.652995	-17.06111	0.3759301	0	10.77	4004	24	30	5	5	0.408516	1.257319	8	15	0.04	1600	1.59675	40.92392	-91.39362
537775	-796	3692	-516	-3.138412	-18.25861	0.5083684	0	10.77	4003	24	30	5	5	0.4085154	1.218181	8	15	0.04	1600	1.59675	40.92392	-91.39362
537950	-1857	-5151	474	-3.393332	-12.72414	0.07731871	0	10.77	4004	25	32	5	5	0.4085144	1.107362	8	15	0.04	1600	0.1204118	40.92392	-91.39362
537974	-1857	-5151	474	-3.393332	-12.72414	0.07731871	0	10.77	4004	21	27	5	5	0.4085143	1.071986	8	15	0.04	1600	0.1204118	40.92392	-91.39362
538146	-866	2606	-1106	3.202056	1.487844	0.2036961	0	11.11	4003	27	24	5	5	0.4085138	0.9819377	8	15	0.04	1600	1.162199	40.92392	-91.39362
538315	-24	1284	713	0.8748549	-3.57099	1.929644	0	11.11	4002	30	21	5	5	0.4085134	0.8593891	8	15	0.04	1600	-0.1005859	40.92392	-91.39362
538480	-975	840	-405	-4.138358	-3.322361	2.70307	0	11.11	4002	30	21	5	5	0.4085132	0.8318151	8	15	0.04	1600	-0.2014465	40.92392	-91.39362
538629	381	2058	847	-4.445671	-7.831916	-0.09439862	0	11.11	4003	33	18	5	5	0.4085131	0.8159477	8	15	0.04	1600	0.03918068	40.92392	-91.39362
538722	42	1268	915	-3.35144	-10.07135	-0.2432019	0	11.11	4002	36	15	5	5	0.4085131	0.8130844	8	15	0.04	1600	-1.556244	40.92392	-91.39362
538931	350	-294	918	-1.483302	-5.782276	1.137933	0	11.11	4002	43	12	5	5	0.4085131	0.8424575	8	15	0.04	1600	-5.077911	40.92392	-91.39362
539079	-680	-1038	881	-2.989562	-5.749801	0.6762577	0	10.21	4004	42	12	5	5	0.4085131	0.8738592	8	15	0.04	1600	-5.364563	40.92392	-91.39362
539148	-996	-221	1001	-2.579182	-5.234797	0.004031289	0	10.21	4003	50	10	5	5	0.4085131	0.9092553	8	15	0.04	1600	-4.54007	40.92392	-91.39362
539223	-1079	-1010	957	-3.318899	-4.157315	-0.3502275	0	10.21	4004	42	9	5	5	0.4085131	0.9706672	8	15	0.04	1600	-5.136505	40.92392	-91.39362
539319	-350	-1533	-603	-3.32029	-3.92659	0.2220909	0	10.21	4002	45	6	5	5	0.4085131	1.045014	8	15	0.04	1600	-5.941162	40.92392	-91.39362
539429	-58	-1702	281	-3.217786	-3.456115	0.4188028	0	10.21	4004	45	6	5	5	0.4085131	1.170414	8	15	0.04	1600	-7.777008	40.92392	-91.39362
539545	-132	-1324	-60	-3.288423	-1.055074	0.3161921	0	10.21	4003	45	6	5	5	0.4085131	1.253694	8	15	0.04	1600	-7.375763	40.92392	-91.39362
539697	378	-1356	-1305	-5.396876	-1.768838	0.7532415	0	10.21	4002	48	3	5	5	0.4085131	1.398796	8	15	0.04	1600	-3.925293	40.92391	-91.39362
539768	-757	4297	125	-5.279265	-4.103967	0.6787855	0	10.21	4004	48	3	5	5	0.4085131	1.462968	8	15	0.04	1600	-5.673615	40.92391	-91.39362
539867	-506	1615	-767	-7.380903	-12.21636	0.5945025	0	10.21	4004	51	0	5	5	0.4085131	1.567618	8	15	0.04	1600	-5.745636	40.92391	-91.39362
539923	-1128	1568	1	-7.481224	-12.56782	0.6594128	0	10.21	4003	51	0	5	5	0.4085131	1.607446	8	15	0.04	1600	-7.112396	40.92391	-91.39362
540035	-1872	3316	-520	-11.76952	-16.5312	0.6415788	0	10.66	4003	51	-3	5	5	0.4085131	1.680076	8	15	0.04	1600	-9.756683	40.92391	-91.39362
540202	1043	2610	-269	-10.52971	-21.27802	1.127354	0	10.66	4003	51	-3	5	5	0.4085131	1.784272	8	15	0.04	1600	-15.68808	40.92391	-91.39362
540351	197	-360	2	-6.882037	-21.23648	1.038675	0	10.66	4003	51	-3	5	5	0.4085131	1.852328	8	15	0.04	1600	-15.99118	40.92391	-91.39362
540440	1823	-3926	279	-6.375838	-14.41956	0.8573589	0	10.66	4002	51	-6	5	5	0.4085131	1.883505	8	15	0.04	1600	-13.28925	40.92391	-91.39362
540546	-1046	-2352	418	-4.548717	-9.125111	0.008130629	0	10.66	4003	51	-6	5	5	0.4085131	1.910834	8	15	0.04	1600	-12.06625	40.92391	-91.39362
540570	-1046	-2352	418	-4.548717	-9.125111	0.008130629	0	10.66	4003	51	-6	5	5	0.4085131	1.917433	8	15	0.04	1600	-12.06625	40.92391	-91.39362
540715	703	-1640	-1587	-5.069171	-7.824051	-0.5259772	0	10.66	4004	0	0	5	5	0.4085131	1.957197	3	15	0.04	1600	-12.45779	40.92391	-91.39362
540908	-546	-105	439	-3.257975	-5.099895	0.1174093	0	11.23	4003	0	0	5	5	0.4085131	1.973043	3	15	0.04	1600	-12.34488	40.92391	-91.39362
540989	1261	-2445	-1029	-2.261509	-3.818696	-0.0146439	0	11.23	4004	0	0	5	5	0.4085131	1.98641	3	15	0.04	1600	-12.3548	40.92391	-91.39362
541066	-126	318	939	-1.662338	-2.630711	-0.4490233	0	11.23	4004	0	0	5	5	0.4085131	1.977829	3	15	0.04	1600	-11.32382	40.92391	-91.39362
541232	6121	-1468	-891	5.583558	-1.552918	-0.1583283	0	11.23	4003	0	0	5	5	0.4085131	1.948492	3	15	0.04	1600	-9.546204	40.92391	-91.39362
541296	1049	957	1026	7.733324	-1.373937	-0.2170333	0	11.23	4002	0	0	5	5	0.4085131	1.895198	3	15	0.04	1600	-8.833313	40.92391	-91.39362
541410	43	354	-166	7.824675	-5.229323	-0.4149066	0	11.23	4003	0	0	5	5	0.4085131	1.845638	3	15	0.04	1600	-2.042572	40.92391	-91.39362
541617	-953	2971	1210	1.117829	-12.05468	-0.8393986	0	11.23	4002	0	0	5	5	0.4085131	1.695883	3	15	0.04	1600	2.907601	40.92391	-91.39362
541809	-343	-1341	432	-0.2715337	-10.15244	-0.05089382	0	10.89	4004	0	0	5	5	0.4085131	1.550732	3	15	0.04	1600	3.567557	40.92391	-91.39362
541909	461	-2605	319	-0.8144983	-5.733561	-0.3798835	0	10.89	4002	0	0	5	5	0.4085131	1.486593	3	15	0.04	1600	4.231263	40.92391	-91.39362
541955	307	-1892	252	-0.3068646	-4.302849	-0.5576152	0	10.89	4004	0	0	5	5	0.4085131	1.442876	3	15	0.04	1600	4.624211	40.92391	-91.39362
542092	-1367	-2896	-1210	-1.277755	-1.702316	-0.8024885	0	10.89	4002	0	0	5	5	0.4085131	1.370191	3	15	0.04	1600	5.883398	40.92391	-91.39362
542221	-237	-2666	-623	0.6678677	2.754892	0.527792	0	10.89	4002	0	0	5	5	0.4085131	1.319946	3	15	0.04	1600	7.819822	40.92392	-91.39362
542363	550	823	667	0.3215425	4.535145	0.5229208	0	10.89	4004	0	0	5	5	0.4085131	1.285445	3	15	0.04	1600	8.61834	40.92392	-91.39362
542461	-67	2452	713	-1.084231	0.5226038	-0.03080202	0	10.89	4004	0	0	5	5	0.4085131	1.261974	3	15	0.04	1600	12.82279	40.92392	-91.39362
542581	504	2490	503	-0.4389255	-3.488551	-0.492065	0	10.89	4002	0	0	5	5	0.4085131	1.247686	3	15	0.04	1600	11.28145	40.92392	-91.39362
542706	652	114	-966	0.8916858	-6.891621	0.1460304	0	10.77	4003	0	0	5	5	0.4085131	1.208058	3	15	0.04	1600	10.29551	40.92392	-91.39363
542771	-1273	-397	-727	0.6383098	-6.725707	0.4309677	0	10.77	4003	0	0	5	5	0.4085131	1.202173	3	15	0.04	1600	9.170115	40.92392	-91.39363
542938	-797	-991	-267	-0.6400115	-8.015127	0.0613559	0	10.77	4004	0	0	5	5	0.4085131	1.150371	3	15	0.04	1600	11.1437	40.92392	-91.39363
543026	-3179	330	2153	-2.026719	-7.798274	0.137334	0	10.77	4003	0	0	5	5	0.4085131	1.138869	3	15	0.04	1600	11.1437	40.92392	-91.39363
543088	-2350	225	-909	-6.935091	-8.823426	-0.1371291	0	10.77	4004	0	0	5	5	0.4085131	1.133671	3	15	0.04	1600	11.534	40.92392	-91.39363
543167	-1238	2410	687	-7.525967	-10.53721	-0.3157694	0	10.77	4002	0	0	5	5	0.4085131	1.120421	3	15	0.04	1600	7.824805	40.92392	-91.39363
543300	-997	2078	107	-9.158463	-13.28504	-0.1038398	0	10.77	4003	0	0	5	5	0.4085131	1.112198	3	15	0.04	1600	5.818044	40.92392	-91.39363
543374	-955	1365	72	-9.300386	-14.90809	-0.3755431	0	10.77	4004	0	0	5	5	0.4085131	1.11172	3	15	0.04	1600	4.036538	40.92392	-91.39363
543488	1727	-3085	-223	-4.466547	-12.3309	0.02880146	0	10.77	4003	0	0	5	5	0.4085131	1.129198	3	15	0.04	1600	-0.3895569	40.92392	-91.39364
543581	688	-1967	-575	-3.62704	-7.310471	0.6455501	0	10.77	4003	0	0	5	5	0.4085131	1.142761	3	15	0.04	1600	-0.06686401	40.92392	-91.39364
543733	-701	-408	984	-3.707514	-8.92809	-0.55145	0	9.92	4003	0	0	5	5	0.4085131	1.169296	3	15	0.04	1600	1.951021	40.92392	-91.39364
543904	-771	1299	552	-4.270683	-10.21284	-1.748248	0	9.92	4004	0	0	5	5	0.4085131	1.224242	3	15	0.04	1600	-1.342255	40.92393	-91.39364
544023	686	-1476	-1534	-4.637531	-10.2315	-0.3118674	0	9.92	4004	0	0	5	5	0.4085131	1.256944	3	15	0.04	1600	-3.188782	40.92393	-91.39364
544108	268	-1077	-1834	-4.091008	-9.415188	0.04514703	0	9.92	4002	0	0	5	5	0.4085131	1.293133	3	15	0.04	1600	-4.349518	40.92393	-91.39364
544231	84	-217	-103	-3.685934	-8.554984	0.03186388	0	9.92	4003	0	0	5	5	0.4085131	1.320461	3	15	0.04	1600	-5.768707	40.92393	-91.39365
544421	-114	1724	2016	-2.20529	-11.40957	-0.9506617	0	9.92	4002	0	0	5	5	0.4085131	1.377253	3	15	0.04	1600	-5.034363	40.92393	-91.39365
544496	195	496	-1357	-1.770699	-12.63002	-1.066115	0	9.92	4004	0	0	5	5	0.4085131	1.395268	3	15	0.04	1600	-4.634918	40.92393	-91.39365
544656	-470	-168	-247	-1.374027	-11.88597	-0.2094657	0	10.32	4004	0	0	5	5	0.4085131	1.433183	3	15	0.04	1600	-5.427399	40.92393	-91.39365
544716	-425	492	1392	-1.51557	-11.22279	-0.03901986	0	10.32	4003	0	0	5	5	0.4085131	1.444656	3	15	0.04	1600	-5.299866	40.92393	-91.39365
544797	681	-1567	-777	-1.114506	-10.18062	0.3329	0	10.32	4004	0	0	5	5	0.4085131	1.454798	3	15	0.04	1600	-4.95578	40.92393	-91.39365
544903	9	-314	929	-0.3466824	-8.634918	-0.1750051	0	10.32	4004	0	0	5	5	0.4085131	1.474979	3	15	0.04	1600	-5.496277	40.92393	-91.39365
544980	-90	-1920	383	-0.5612633	-8.714648	-0.600338	0	10.32	4004	0	0	5	5	0.4085131	1.484098	3	15	0.04	1600	-4.378418	40.92393	-91.39365
545208	-579	-1777	1266	-0.7912129	-3.857899	0.1993406	0	10.32	4003	3	3	5	5	0.4085131	1.537194	8	15	0.04	1600	-0.9188843	40.92393	-91.39365
545340	851	1753	-1499	-2.446277	-7.573673	-0.1434284	0	10.32	4004	3	3	5	5	0.4085131	1.5629	8	15	0.04	1600	-0.939209	40.92393	-91.39365
545500	-1913	2036	-639	-3.766684	-14.0188	-0.3523758	0	10.26	4004	3	3	5	5	0.4085131	1.573033	8	15	0.04	1600	-3.309998	40.92393	-91.39365
545629	1115	-929	-1295	-3.633461	-16.01546	-0.04391343	0	10.26	4003	6	3	5	5	0.4085131	1.567506	8	15	0.04	1600	-5.29187	40.92393	-91.39365
545764	-420	-2467	-747	-3.009254	-12.31855	0.7897462	0	10.26	4004	6	3	5	5	0.4085131	1.54644	8	15	0.04	1600	-5.165131	40.92393	-91.39365
545835	242	-3727	-2029	-3.474416	-9.788363	0.988588	0	10.26	4004	7	3	5	5	0.4085131	1.539302	8	15	0.04	1600	-5.829834	40.92393	-91.39365
545954	-1196	202	2046	-3.758466	-6.35662	-0.2590607	0	10.26	4002	9	3	5	5	0.4085131	1.531508	8	15	0.04	1600	-4.937408	40.92393	-91.39365
546168	-831	-1495	-1038	-4.765851	-7.647488	-0.6972911	0	10.26	4004	12	9	5	5	0.4085131	1.514325	8	15	0.04	1600	-9.897003	40.92393	-91.39364
546239	192	-62	-833	-4.719934	-7.450721	-0.9197121	0	10.26	4003	16	9	5	5	0.4085131	1.51147	8	15	0.04	1600	-10.81134	40.92393	-91.39364
546319	817	-1060	-413	-3.371287	-7.358993	-0.9791412	0	10.26	4004	15	9	5	5	0.4085131	1.512887	8	15	0.04	1600	-13.68829	40.92393	-91.39364
546394	867	1561	1059	-1.700008	-7.794662	-1.144824	0	9.92	4004	15	5	5	5	0.4085131	1.519111	8	15	0.04	1600	-12.18262	40.92393	-91.39364
546515	36	1602	436	-1.284649	-9.421679	-0.9968821	0	9.92	4004	15	6	5	5	0.4085131	1.529676	8	15	0.04	1600	-14.35904	40.92393	-91.39364
546577	541	968	-70	-0.0735156	-10.54518	-0.3807498	0	9.92	4004	15	6	5	5	0.4085131	1.532945	8	15	0.04	1600	-13.51892	40.92393	-91.39364
546786	125	53	-599	-0.1291827	-12.73948	-0.7309994	0	9.92	4002	21	5	5	5	0.4085131	1.55849	8	15	0.04	1600	-10.78958	40.92393	-91.39364
546880	-312	854	243	1.590762	-13.58533	-0.7802631	0	9.92	4003	21	6	5	5	0.4085131	1.602308	8	15	0.04	1600	-9.272308	40.92393	-91.39364
547089	-796	734	2000	1.307225	-12.2577	-0.3637413	0	9.92	4004	24	6	5	5	0.4085131	1.663331	8	15	0.04	1600	-5.359863	40.92393	-91.39364
547180	-31	-2264	-2327	-0.3640829	-11.38218	-0.05065033	0	9.92	4004	28	3	5	5	0.4085131	1.694887	8	15	0.04	1600	-5.762146	40.92393	-91.39364
547354	198	-464	-391	-1.397351	-8.227264	-0.002843875	0	10.26	4003	27	6	5	5	0.4085131	1.732481	8	15	0.04	1600	-4.758545	40.92393	-91.39364
547457	-2406	769	178	-3.107407	-8.792981	-0.862868	0	10.26	4002	27	6	5	5	0.4085131	1.754274	8	15	0.04	1600	-3.700592	40.92393	-91.39364
547486	-338	1643	786	-3.523207	-9.243544	-1.13848	0	10.26	4003	27	6	5	5	0.4085131	1.774046	8	15	0.04	1600	-3.790131	40.92393	-91.39364
547602	-862	-733	-790	-2.443584	-11.12645	-1.093369	0	10.26	4004	27	3	5	5	0.4085131	1.792586	8	15	0.04	1600	-5.108154	40.92393	-91.39364
547694	-213	-39	202	-2.091426	-10.09368	-0.5486423	0	10.26	4003	30	3	5	5	0.4085131	1.798337	8	15	0.04	1600	-5.057343	40.92393	-91.39363
547816	286	-992	353	-2.023186	-7.415266	-0.004587539	0	10.26	4004	30	3	5	5	0.4085131	1.809764	8	15	0.04	1600	-5.935516	40.92393	-91.39363
547902	-718	-2476	-602	-2.67791	-5.791867	-0.2430379	0	10.26	4004	30	3	5	5	0.4085131	1.819052	8	15	0.04	1600	-5.526276	40.92393	-91.39363
547987	325	-1011	-994	-2.378208	-5.122715	-0.5810442	0	10.26	4003	30	3	5	5	0.4085131	1.830254	8	15	0.04	1600	-5.040192	40.92393	-91.39363
548188	-245	-1779	-727	-2.735817	-1.78372	-0.1080188	0	10.26	4003	33	3	5	5	0.4085131	1.867837	8	15	0.04	1600	-6.260071	40.92393	-91.39363
548306	153	1368	-44	-2.773444	-1.966215	0.07775607	0	10.26	4004	33	3	5	5	0.4085131	1.892089	8	15	0.04	1600	-7.670715	40.92393	-91.39363
548423	727	930	-290	-0.6525031	-3.916615	0.3967658	0	10.26	4003	36	0	5	5	0.4085131	1.923433	8	15	0.04	1600	-7.663391	40.92393	-91.39363
548513	-240	-1161	-600	-1.691462	-4.798345	0.2524004	0	10.26	4002	36	0	5	5	0.4085131	1.94052	8	15	0.04	1600	-6.478546	40.92393	-91.39363
548579	-308	801	-423	-1.936587	-5.046865	-0.07788695	0	10.26	4004	36	0	5	5	0.4085131	1.950488	8	15	0.04	1600	-6.2995	40.92393	-91.39363
548684	-1171	759	-748	-2.464723	-8.632903	-0.93283	0	10.26	4003	36	0	5	5	0.4085131	1.956021	8	15	0.04	1600	-7.092377	40.92393	-91.39363
548761	1031	632	207	-1.975824	-9.270148	-0.8887571	0	10.26	4003	36	-4	5	5	0.4085131	1.956134	8	15	0.04	1600	-7.147736	40.92393	-91.39363
548931	-920	-1100	-1918	-4.163578	-10.46267	-0.6225084	0	10.26	4004	36	-3	5	5	0.4085131	1.956342	8	15	0.04	1600	-6.967682	40.92393	-91.39363
548966	616	-480	573	-3.867099	-9.839016	-0.4521322	0	10.26	4002	36	-6	5	5	0.4085131	1.955275	8	15	0.04	1600	-6.627167	40.92393	-91.39363
549079	94	2255	1364	-3.378653	-9.158033	-0.551791	0	10.66	4003	36	-6	5	5	0.4085131	1.953161	8	15	0.04	1600	-8.160156	40.92393	-91.39363
549223	1535	-108	-1204	-2.141612	-11.28417	-0.7146452	0	10.66	4004	36	-3	5	5	0.4085131	1.948488	8	15	0.04	1600	-8.149567	40.92393	-91.39363
549308	1654	535	-146	-1.204903	-11.47906	-0.9802912	0	10.66	4004	36	-7	5	5	0.4085131	1.948109	8	15	0.04	1600	-7.777588	40.92393	-91.39363
549418	1563	-283	-2197	1.747778	-13.19186	-0.1259004	0	10.66	4008	36	-6	5	5	0.4085131	1.954513	8	15	0.04	1600	-8.256866	40.92393	-91.39363
549488	-241	532	364	2.062808	-13.24625	-0.0497974	0	10.66	4004	36	-6	5	5	0.4085131	1.955427	8	15	0.04	1600	-5.371979	40.92393	-91.39363
549583	-1335	124	1320	0.6303077	-12.33091	-0.8113657	0	10.66	4002	36	-6	5	5	0.4085131	1.964455	8	15	0.04	1600	-4.623322	40.92393	-91.39363
549653	-377	-291	-658	-1.075752	-11.52373	-0.8011484	0	10.66	4003	36	-10	5	5	0.4085131	1.971478	8	15	0.04	1600	-3.623108	40.92393	-91.39363
549815	-732	-2601	-1244	-1.471226	-7.127196	0.04529458	0	10.66	4002	36	-9	5	5	0.4085131	2.000683	8	15	0.04	1600	-4.904419	40.92393	-91.39363
549981	457	-795	755	-3.305468	-4.353532	-0.2071688	0	10.09	4003	33	-9	5	5	0.4085131	2.013283	8	15	0.04	1600	-3.459137	40.92393	-91.39363
550070	-289	-1485	-395	-3.251752	-3.21362	-0.3134165	0	10.09	4004	33	-9	5	5	0.4085131	2.024829	8	15	0.04	1600	-3.364716	40.92393	-91.39363
550138	-152	-493	-777	-2.511721	-3.373335	-0.4283384	0	10.09	4003	33	-9	5	5	0.4085131	2.031354	8	15	0.04	1600	-3.788788	40.92393	-91.39363
550200	-495	-119	410	-2.748844	-3.481568	-0.52649	0	10.09	4004	33	-9	5	5	0.4085131	2.036419	8	15	0.04	1600	-5.02475	40.92393	-91.39363
550291	825	-1386	-659	-2.272763	-2.611436	0.04534902	0	10.09	4004	33	-9	5	5	0.4085131	2.038191	8	15	0.04	1600	-5.330872	40.92393	-91.39363
550426	-215	-210	-813	-1.761727	-1.462281	0.3843435	0	10.09	4004	33	-9	5	5	0.4085131	2.039537	8	15	0.04	1600	-5.208466	40.92393	-91.39363
550527	158	1583	734	-1.889112	-2.644534	-0.004889775	0	10.09	4002	30	-9	5	5	0.4085131	2.037815	8	15	0.04	1600	-6.606262	40.92393	-91.39363
550576	-162	265	609	-1.636053	-3.208107	-0.03964431	0	10.09	4002	30	-9	5	5	0.4085131	2.035231	8	15	0.04	1600	-6.606262	40.92393	-91.39363
550697	-339	-334	-863	-1.774475	-3.942388	-0.16463	0	10.09	4003	30	-13	5	5	0.4085131	2.023157	8	15	0.04	1600	-8.282623	40.92393	-91.39363
550781	-148	214	917	-2.425428	-3.32074	-0.0001326129	0	10.09	4003	30	-12	5	5	0.4085131	2.012008	8	15	0.04	1600	-8.142517	40.92393	-91.39363
550959	544	-2171	-1218	-2.803532	-3.694494	0.657679	0	10.55	4003	30	-15	5	5	0.4085131	1.994341	8	15	0.04	1600	-8.381317	40.92393	-91.39363
551009	-67	-1616	-733	-2.34481	-3.415415	0.67308	0	10.55	4003	30	-15	5	5	0.4085131	1.995001	8	15	0.04	1600	-10.63553	40.92393	-91.39363
551215	-1544	633	256	-1.790996	-4.659017	0.2869138	0	10.55	4003	30	-15	5	5	0.4085131	1.992972	8	15	0.04	1600	-13.85266	40.92393	-91.39363
551353	2023	-1711	-1269	-2.892184	-4.287072	0.4252781	0	10.55	4002	27	-15	5	5	0.4085131	1.986148	8	15	0.04	1600	-11.53644	40.92393	-91.39364
551475	963	-1801	-1148	-2.585215	-2.855653	0.9085016	0	10.55	4003	27	-16	5	5	0.4085131	1.971132	8	15	0.04	1600	-10.74988	40.92393	-91.39364
551560	-1179	-1236	641	-2.832441	-2.327598	0.8891682	0	10.55	4004	27	-15	5	5	0.4085131	1.959775	8	15	0.04	1600	-12.23276	40.92393	-91.39364
551689	646	-715	-1637	-2.860807	-2.505993	0.1157307	0	10.55	4003	27	-18	5	5	0.4085131	1.940542	8	15	0.04	1600	-14.55145	40.92393	-91.39364
551745	-233	-138	558	-2.703442	-3.544777	-0.2975662	0	10.55	4004	27	-18	5	5	0.4085131	1.937514	8	15	0.04	1600	-13.10443	40.92393	-91.39364
551829	-716	46	892	-2.571599	-3.147187	-0.7859263	0	10.89	4004	24	-22	5	5	0.4085131	1.928835	8	15	0.04	1600	-8.410583	40.92392	-91.39364
551881	819	573	-1678	-2.118739	-3.997462	-0.6710572	0	10.89	4003	24	-21	5	5	0.4085131	1.922449	8	15	0.04	1600	-6.447784	40.92392	-91.39364
551984	-83	2941	740	-1.26086	-5.921442	-0.4647022	0	10.89	4002	24	-25	5	5	0.4085131	1.902513	8	15	0.04	1600	-13.20166	40.92392	-91.39364
552168	-54	4009	-1445	-2.623982	-11.37156	0.5778565	0	10.89	4003	24	-24	5	5	0.4085131	1.882177	8	15	0.04	1600	-9.690063	40.92392	-91.39364
552235	1337	4351	-1905	-2.248363	-14.01456	0.573157	0	10.89	4004	21	-27	5	5	0.4085131	1.879674	8	15	0.04	1600	-9.690063	40.92392	-91.39364
552375	580	3418	338	-1.507274	-20.71573	-0.1405582	0	10.89	4003	21	-34	5	5	0.4085131	1.879436	8	15	0.04	1600	-6.753113	40.92392	-91.39364
552424	1056	5043	820	-0.7556431	-23.91336	-0.1336451	0	10.89	4003	21	-33	5	5	0.4085131	1.882168	8	15	0.04	1600	-6.599854	40.92392	-91.39364
552488	104	5188	1319	-0.5179844	-25.75086	-0.1253193	0	10.89	4002	21	-33	5	5	0.4085131	1.887142	8	15	0.04	1600	-6.258881	40.92392	-91.39364
552584	-1587	1953	1414	-1.918929	-29.66879	-0.3421093	0	10.89	4004	18	-39	5	5	0.4085131	1.894787	8	15	0.04	1600	-4.855133	40.92392	-91.39364
552762	87	1096	1178	-2.269437	-29.33843	-0.5316842	0	9.47	4003	18	-48	5	5	0.4085131	1.905795	8	15	0.04	1600	-5.445526	40.92391	-91.39364
552816	-27	-3356	-1664	-2.725799	-26.00906	-0.2948021	0	9.47	4004	18	-48	5	5	0.4085131	1.905405	8	15	0.04	1600	-3.988892	40.92391	-91.39364
552998	286	-1620	-991	-1.740025	-15.19691	0.2646421	0	9.47	4003	15	-54	5	5	0.4085131	1.87961	8	15	0.04	1600	-2.605682	40.92391	-91.39364
553141	430	-4282	-2436	-1.880158	-11.0398	0.09691758	0	9.47	4003	12	-63	5	5	0.4085131	1.854905	8	15	0.04	1600	-2.474701	40.92391	-91.39364
553248	142	1879	61	-0.9972992	-9.093835	0.1567226	0	9.47	4004	12	-63	5	5	0.4085131	1.845538	8	15	0.04	1600	-2.55011	40.92391	-91.39364
553398	-572	-4320	-864	-1.941084	-11.27414	0.2329125	0	9.47	4002	12	-72	5	5	0.4085131	1.821412	8	15	0.04	1600	-2.158875	40.92391	-91.39364
553488	-852	-3959	1249	-2.566608	-6.71953	-0.273698	0	9.47	4003	9	-79	5	5	0.4085131	1.803915	8	15	0.04	1600	-1.611633	40.9239	-91.39365
553614	1085	-1279	-831	-2.634856	-2.460817	-0.9329026	0	10.66	4003	9	-78	5	5	0.4085131	1.787873	8	15	0.04	1600	-0.9228821	40.9239	-91.39365
553715	-672	-3084	-891	-1.461622	-0.8220614	-0.1349703	0	10.66	4003	12	-87	5	5	0.4085131	1.772164	8	15	0.04	1600	-1.874054	40.9239	-91.39364
553819	532	82	1157	-1.525811	1.181514	0.4450183	0	10.66	4003	13	-93	5	5	0.4085131	1.751168	8	15	0.04	1600	-1.785187	40.9239	-91.39365
553938	715	1900	933	-0.9080849	-1.731484	0.4186283	0	10.66	4003	12	-93	5	5	0.4085131	1.736544	8	15	0.04	1600	-1.565308	40.9239	-91.39364
554072	-610	2026	805	-0.7924065	-6.002763	-0.05773209	0	10.66	4002	12	-93	5	5	0.4085131	1.690399	8	15	0.04	1600	-1.602203	40.9239	-91.39364
554165	88	1657	1475	-0.9635316	-7.318867	-0.4919646	0	10.66	4003	12	-93	5	5	0.4085131	1.664829	8	15	0.04	1600	-0.2393188	40.9239	-91.39364
554285	-12	2386	1453	-0.587023	-11.30636	-0.2211115	0	10.66	4004	9	-102	5	5	0.4085131	1.643578	8	15	0.04	1600	-0.7018738	40.9239	-91.39365
554402	-1271	-242	829	-0.953572	-12.80812	-0.282492	0	10.66	4003	9	-108	5	5	0.4085131	1.634407	8	15	0.04	1600	-1.079529	40.92389	-91.39365
554475	1076	1143	-1379	-0.8035313	-12.62007	-0.3332844	0	10.66	4003	9	-108	5	5	0.4085131	1.623796	8	15	0.04	1600	-1.54361	40.92389	-91.39365
554642	988	697	-1052	-1.065289	-17.10028	-0.5488445	0	10.6	4003	9	-117	5	5	0.4085131	1.618763	8	15	0.04	1600	-1.700806	40.92389	-91.39365
554690	186	-799	1414	0.05909712	-16.20493	-0.5660108	0	10.6	4004	10	-123	5	5	0.4085131	1.615174	8	15	0.04	1600	-2.081696	40.92389	-91.39365
554778	-280	31	2339	0.8407895	-14.83901	-0.5369219	0	10.6	4003	9	-123	5	5	0.4085131	1.595712	8	15	0.04	1600	-2.609894	40.92389	-91.39365
554864	-698	-2075	-1242	-0.2760289	-14.25459	-0.6121932	0	10.6	4003	9	-123	5	5	0.4085131	1.589827	8	15	0.04	1600	-1.677216	40.92389	-91.39365
555042	-837	-2795	1828	0.3254955	-4.136345	-0.3796344	0	10.6	4003	12	-132	5	5	0.4085131	1.582709	8	15	0.04	1600	-2.604767	40.92389	-91.39364
555165	185	-1751	365	-1.09984	-0.7248654	-0.8140629	0	10.6	4003	12	-138	5	5	0.4085131	1.599032	8	15	0.04	1600	-2.892426	40.92389	-91.39364
555262	968	-378	-608	0.768477	0.4657248	-0.526168	0	10.6	4003	16	-144	5	5	0.4085131	1.611266	8	15	0.04	1600	-3.006073	40.92388	-91.39364
555349	-1997	2845	-509	0.1712361	-1.983201	-0.7647304	0	10.6	4002	15	-144	5	5	0.4085131	1.634099	8	15	0.04	1600	-3.332153	40.92388	-91.39364
555399	-810	3810	379	-1.138557	-6.896409	-1.206626	0	10.6	4003	15	-144	5	5	0.4085131	1.639899	8	15	0.04	1600	-4.872223	40.92388	-91.39364
555458	844	2069	-10	-1.162345	-9.649645	-1.12454	0	9.87	4002	16	-147	5	5	0.4085131	1.663698	8	15	0.04	1600	-4.374756	40.92388	-91.39364
555633	59	1823	-1828	-0.5871081	-17.67826	-1.304062	0	9.87	4004	19	-150	5	5	0.4085131	1.720512	8	15	0.04	1600	-4.785126	40.92388	-91.39364
555742	-367	-2735	-70	-1.29495	-16.44668	-0.8942804	0	9.87	4004	18	-150	5	5	0.4085131	1.735196	8	15	0.04	1600	-5.230865	40.92388	-91.39364
555799	121	-6074	-609	-1.646312	-11.21627	-0.3765734	0	9.87	4003	22	-153	5	5	0.4085131	1.737426	8	15	0.04	1600	-4.277466	40.92388	-91.39364
555920	-974	-3240	1049	-1.11765	-2.633262	-0.2685364	0	9.87	4003	21	-153	5	5	0.4085131	1.757292	8	15	0.04	1600	-6.117493	40.92388	-91.39364
556104	-981	-4164	10	-2.12173	4.049046	-1.027798	0	9.87	4002	24	-156	5	5	0.4085131	1.789071	8	15	0.04	1600	-8.990112	40.92388	-91.39364
556221	-134	4492	-97	-1.164605	1.154285	-0.565663	0	9.87	4003	27	-153	5	5	0.4085131	1.833172	8	15	0.04	1600	-9.800354	40.92388	-91.39364
556240	-1038	4652	273	-1.48817	-1.738629	-0.632108	0	9.87	4002	27	-153	5	5	0.4085131	1.833172	8	15	0.04	1600	-9.095306	40.92388	-91.39364
556387	943	4889	-97	-1.680821	-10.05879	-0.2791936	0	9.87	4003	33	-153	5	5	0.4085131	1.868373	8	15	0.04	1600	-9.585327	40.92388	-91.39363
556547	-417	4184	-264	-0.6534953	-19.65717	0.08287857	0	9.87	4002	40	-150	5	5	0.4085131	1.869064	8	15	0.04	1600	-8.509338	40.92388	-91.39363
556612	-1942	2081	-638	-2.264993	-22.71145	-0.3223912	0	9.87	4004	39	-150	5	5	0.4085131	1.858543	8	15	0.04	1600	-8.375244	40.92388	-91.39363
556731	376	519	540	-1.319541	-22.28176	-0.5300821	0	9.87	4002	43	-147	5	5	0.4085131	1.83592	8	15	0.04	1600	-9.417725	40.92388	-91.39363
556797	-586	1909	-181	-1.392326	-21.96107	-0.4366678	0	9.87	4002	42	-147	5	5	0.4085131	1.81034	8	15	0.04	1600	-9.417725	40.92388	-91.39363
556924	0	882	397	-2.658003	-20.77697	0.2071858	0	9.87	4003	48	-144	5	5	0.4085131	1.782546	8	15	0.04	1600	-8.028473	40.92388	-91.39363
556994	-1409	602	2573	-3.593107	-20.16148	-0.05353811	0	9.87	4002	48	-144	5	5	0.4085131	1.773882	8	15	0.04	1600	-8.664459	40.92388	-91.39363
557091	-1251	1670	1396	-4.39888	-20.09828	-0.04374204	0	9.87	4004	55	-141	5	5	0.4085131	1.774588	8	15	0.04	1600	-8.462708	40.92389	-91.39362
557234	889	-418	16	-4.046509	-20.45025	0.2095972	0	10.38	4003	61	-135	5	5	0.4085131	1.799496	8	15	0.04	1600	-8.826721	40.92389	-91.39362
557314	-729	378	616	-3.615107	-20.00703	0.1141129	0	10.38	4003	60	-135	5	5	0.4085131	1.832051	8	15	0.04	1600	-9.854767	40.92389	-91.39362
557408	-356	-975	-16	-5.095623	-21.76956	-0.4279369	0	10.38	4002	67	-129	5	5	0.4085131	1.860172	8	15	0.04	1600	-9.479462	40.92389	-91.39362
557460	56	-3068	-396	-5.045591	-20.44871	-0.3414183	0	10.38	4004	66	-129	5	5	0.4085131	1.896729	8	15	0.04	1600	-9.479462	40.92389	-91.39362
557620	-852	-4636	709	-4.755129	-8.614744	-0.0759975	0	10.38	4004	73	-123	5	5	0.4085131	1.960331	8	15	0.04	1600	-9.97406	40.92389	-91.39362
557795	-94	-3219	276	-5.869303	1.200833	-0.7565731	0	10.38	4003	79	-114	5	5	0.4085131	2.095363	8	15	0.04	1600	-10.32031	40.92389	-91.39362
557860	-278	-1823	1114	-5.052314	3.491298	-0.6713295	0	10.38	4003	78	-114	5	5	0.4085131	2.260653	8	15	0.04	1600	-10.996	40.92389	-91.39362
557907	-1640	-3243	-1252	-5.212944	4.163064	-0.564961	0	10.38	4003	78	-114	5	5	0.4085131	2.298828	8	15	0.04	1600	-10.996	40.92389	-91.39362
558095	438	-67	-1787	-7.675645	2.500729	-1.236852	0	10.38	4004	78	-114	5	5	0.4085131	2.512365	8	15	0.04	1600	-13.85339	40.92389	-91.39362
558134	1040	-3154	-139	-5.790303	3.700423	-0.4824866	0	9.92	4003	81	-102	5	5	0.4085131	2.575958	8	15	0.04	1600	-19.11987	40.9239	-91.39362
558192	-494	-1070	1563	-6.549958	6.226071	0.01321103	0	9.92	4003	84	-96	5	5	0.4085131	2.622065	8	15	0.04	1600	-25.94342	40.9239	-91.39362
558234	-262	-2293	205	-6.684146	6.333665	-0.1655886	0	9.92	4004	84	-96	5	5	0.4085131	2.632514	8	15	0.04	1600	-25.94342	40.9239	-91.39362
558295	1344	-777	-601	-6.768287	5.768966	-1.043524	0	9.92	4002	100	-115	5	5	0.4085131	2.661288	8	15	0.04	1600	-28.8616	40.9239	-91.39362
558396	-767	-1182	1077	-5.645887	5.341228	-1.492324	0	9.92	4003	94	-87	5	5	0.4085131	2.722244	8	15	0.04	1600	-28.8616	40.9239	-91.39362
558513	-969	104	-1183	-6.823569	4.206979	-1.208876	0	9.92	4003	93	-87	5	5	0.4085131	2.712848	8	15	0.04	1600	-39.00565	40.9239	-91.39362
558647	2758	5036	-309	-2.607029	-2.318332	0.5167171	0	9.92	4003	99	-78	5	5	0.4085131	2.501704	8	15	0.04	1600	-45.31009	40.9239	-91.39362
558698	507	2277	298	-0.8338234	-8.597943	1.048625	0	9.92	4003	99	-78	5	5	0.4085131	2.451275	8	15	0.04	1600	-38.13168	40.9239	-91.39362
558885	1359	4534	1970	4.841789	-14.26873	-0.3534788	0	9.92	4002	99	-66	5	5	0.4085131	2.101836	8	15	0.04	1600	-27.20245	40.92391	-91.39362
558969	1698	1131	-665	4.921198	-15.35172	-0.2406996	0	10.09	4003	102	-57	5	5	0.4085131	1.989048	8	15	0.04	1600	-13.20065	40.92391	-91.39362
559011	-405	2176	1511	4.887537	-15.60705	-0.2216187	0	10.09	4002	102	-57	5	5	0.4085131	1.989048	8	15	0.04	1600	-13.20065	40.92391	-91.39362
559119	1500	382	-63	4.648033	-15.48466	0.02784025	0	10.09	4003	106	-41	5	5	0.4085131	1.806288	8	15	0.04	1600	-8.694153	40.92392	-91.39362
559341	-358	-45	293	-4.427236	-6.709235	0.575325	0	10.09	4004	108	-36	5	5	0.4085131	1.636297	8	15	0.04	1600	-5.889282	40.92392	-91.39361
559447	-1371	-1953	-241	-5.971525	-6.151888	0.9635898	0	10.09	4004	108	-36	5	5	0.4085131	1.546575	8	15	0.04	1600	-5.781982	40.92392	-91.39361
559521	-281	-3014	-582	-6.410618	-3.28939	1.202723	0	10.09	4002	108	-36	5	5	0.4085131	1.503487	8	15	0.04	1600	-6.71579	40.92392	-91.39361
559649	-111	-654	-98	-7.117885	-2.356482	0.4607846	0	10.09	4003	111	-27	5	5	0.4085131	1.450467	8	15	0.04	1600	-8.114838	40.92392	-91.39361
559802	242	-1798	113	-8.225127	-1.804379	-0.5887251	0	10.09	4002	111	-27	5	5	0.4085131	1.408697	8	15	0.04	1600	-8.381378	40.92392	-91.39361
559942	-1585	879	795	-8.292263	-4.107327	-0.7279035	0	10.26	4003	111	-18	5	5	0.4085131	1.354098	8	15	0.04	1600	-9.461761	40.92393	-91.39361
559994	-277	332	-403	-8.85868	-4.900666	-0.9419462	0	10.26	4003	111	-18	5	5	0.4085131	1.344372	8	15	0.04	1600	-10.85358	40.92393	-91.39361
560196	2306	865	1208	-0.6607897	-5.803869	-0.3810519	0	10.26	4003	111	-4	5	5	0.4085131	1.307096	8	15	0.04	1600	-12.8486	40.92393	-91.39361
560306	1879	2371	-1126	4.511221	-8.045351	-0.7538873	0	10.26	4003	111	-3	5	5	0.4085131	1.3035	8	15	0.04	1600	-11.99997	40.92393	-91.39361
560409	2476	1161	422	6.1029	-10.14643	-0.09686559	0	10.26	4003	111	6	5	5	0.4085131	1.316227	8	15	0.04	1600	-4.901672	40.92393	-91.39361
560474	2091	200	-1141	7.644369	-10.3678	0.7634219	0	10.26	4003	111	6	5	5	0.4085131	1.326787	8	15	0.04	1600	-1.668457	40.92393	-91.39361
560639	962	1882	29	8.141965	-14.13596	0.009955787	0	10.26	4002	105	12	5	5	0.4085131	1.348153	8	15	0.04	1600	4.342007	40.92393	-91.39362
560684	783	1413	505	7.547306	-15.21444	-0.5033757	0	10.26	4004	105	12	5	5	0.4085131	1.361711	8	15	0.04	1600	8.483093	40.92393	-91.39362
560910	-2345	-1082	-414	4.063976	-12.68252	-0.2005126	0	11	4002	102	21	5	5	0.4085131	1.388362	8	15	0.04	1600	11.51269	40.92394	-91.39362
561039	-1804	110	2240	0.1335293	-10.78686	-0.005460888	0	11	4003	96	27	5	5	0.4085131	1.403386	8	15	0.04	1600	12.39924	40.92394	-91.39362
561110	-2123	-1324	-552	-1.885864	-9.566907	-0.4079233	0	11	4003	93	29	5	5	0.4085131	1.404911	8	15	0.04	1600	12.83771	40.92394	-91.39362
561205	173	-1949	-797	-2.673494	-6.723696	-0.02642957	0	11	4004	93	30	5	5	0.4085131	1.400881	8	15	0.04	1600	12.27243	40.92394	-91.39362
561270	-1906	-767	665	-3.463201	-5.459003	0.02724208	0	11	4002	93	30	5	5	0.4085131	1.393377	8	15	0.04	1600	11.76405	40.92394	-91.39362
561483	426	138	-655	-4.80845	-6.645252	-0.9540396	0	11	4003	84	39	5	5	0.4085131	1.379028	8	15	0.04	1600	10.92585	40.92394	-91.39362
561574	41	-982	-1625	-4.637608	-6.520325	-0.6740546	0	11	4003	84	39	5	5	0.4085131	1.378887	8	15	0.04	1600	10.34075	40.92394	-91.39362
561725	-244	98	-1025	-3.841496	-5.196603	0.9203364	0	9.13	4002	78	45	5	5	0.4085131	1.413823	8	15	0.04	1600	8.479759	40.92395	-91.39362
561815	-1144	239	-44	-4.29826	-5.468999	0.6766059	0	9.13	4003	78	45	5	5	0.4085131	1.43328	8	15	0.04	1600	7.180648	40.92395	-91.39362
561928	485	-630	-2185	-5.749789	-5.494328	0.7314278	0	9.13	4003	72	42	5	5	0.4085131	1.462533	8	15	0.04	1600	7.970611	40.92395	-91.39362
562034	-1146	700	2143	-6.459538	-4.905254	-0.4945046	0	9.13	4003	70	45	5	5	0.4085131	1.506303	8	15	0.04	1600	8.548751	40.92395	-91.39362
562105	-137	-311	298	-6.234648	-5.059534	-0.9580922	0	9.13	4002	69	45	5	5	0.4085131	1.527172	8	15	0.04	1600	6.63443	40.92395	-91.39362
562282	-1287	1086	2109	-6.044108	-3.711835	-0.7505574	0	9.13	4003	63	45	5	5	0.4085131	1.578872	8	15	0.04	1600	5.951296	40.92395	-91.39362
562416	272	39	390	-6.350394	-5.710079	-0.5380511	0	9.13	4002	57	45	5	5	0.4085131	1.627326	8	15	0.04	1600	3.878589	40.92395	-91.39362
562483	1559	806	796	-4.393209	-5.633635	-0.0519854	0	9.13	4002	57	45	5	5	0.4085131	1.648896	8	15	0.04	1600	1.950782	40.92395	-91.39362
562563	-1935	489	441	-4.116433	-6.545854	0.02178482	0	10.55	4002	55	42	5	5	0.4085131	1.666391	8	15	0.04	1600	2.739753	40.92395	-91.39362
562678	-947	-630	616	-4.03019	-7.141963	-0.3245504	0	10.55	4004	54	42	5	5	0.4085131	1.708823	8	15	0.04	1600	0.4881447	40.92395	-91.39362
562855	-263	-3120	-1483	-4.37344	-6.986815	-0.1103159	0	10.55	4004	51	39	5	5	0.4085131	1.746895	8	15	0.04	1600	-2.286469	40.92394	-91.39362
562912	47	-2465	-1008	-4.434881	-5.872411	0.1217567	0	10.55	4004	51	39	5	5	0.4085131	1.768684	8	15	0.04	1600	-1.041168	40.92394	-91.39363
563043	1149	-1340	-192	-4.063357	-5.787221	-0.09441485	0	10.55	4002	45	33	5	5	0.4085131	1.797154	8	15	0.04	1600	-2.612885	40.92394	-91.39363
563078	700	-1796	322	-3.39537	-5.053914	-0.1621403	0	10.55	4003	43	36	5	5	0.4085131	1.811668	8	15	0.04	1600	-2.258453	40.92394	-91.39363
563177	-181	-383	-2591	-3.41057	-4.793553	-0.2559453	0	10.55	4003	42	36	5	5	0.4085131	1.844276	8	15	0.04	1600	-0.2015076	40.92394	-91.39363
563283	-107	991	1108	-4.844154	-7.307033	-0.8783115	0	10.55	4003	42	36	5	5	0.4085131	1.880757	8	15	0.04	1600	-2.028656	40.92394	-91.39363
563384	-1271	555	1410	-3.697077	-5.18188	-0.8789949	0	10.55	4002	39	27	5	5	0.4085131	1.908196	8	15	0.04	1600	-1.428894	40.92394	-91.39363
563461	-274	628	-1947	-4.773406	-6.065706	-0.738278	0	10.15	4003	40	23	5	5	0.4085131	1.924682	8	15	0.04	1600	-1.285553	40.92394	-91.39363
563601	2999	440	506	-3.869254	-5.456679	0.2586935	0	10.15	4003	39	24	5	5	0.4085131	1.954094	8	15	0.04	1600	-0.834137	40.92394	-91.39363
563651	1911	1437	623	-1.170259	-6.006965	0.1103886	0	10.15	4003	39	24	5	5	0.4085131	1.958958	8	15	0.04	1600	0.4409714	40.92394	-91.39363
563820	2359	2374	363	4.679801	-12.6837	-0.01510117	0	10.15	4004	37	20	5	5	0.4085131	2.004116	8	15	0.04	1600	2.191495	40.92394	-91.39363
563898	2084	2934	125	7.864011	-15.91782	0.3668856	0	10.15	4003	36	21	5	5	0.4085131	2.022261	8	15	0.04	1600	6.897057	40.92394	-91.39363
563934	32	1890	674	7.864011	-15.91782	0.3668856	0	10.15	4004	36	21	5	5	0.4085131	2.028107	8	15	0.04	1600	6.897057	40.92394	-91.39363
564163	-2182	-1050	1200	7.822354	-13.75248	-0.01959927	0	10.15	4003	36	18	5	5	0.4085131	2.074092	8	15	0.04	1600	10.3229	40.92393	-91.39363
564343	-426	-1841	1497	0.9567399	-8.525706	-0.8232843	0	10.15	4004	39	15	5	5	0.4085131	2.101761	8	15	0.04	1600	12.20399	40.92393	-91.39363
564430	-99	-1658	-881	0.3265236	-5.782434	-0.9853091	0	9.75	4003	39	12	5	5	0.4085131	2.108259	8	15	0.04	1600	13.92405	40.92393	-91.39363
564518	-1106	281	669	-0.1093693	-5.485535	-0.8630646	0	9.75	4004	39	12	5	5	0.4085131	2.116534	8	15	0.04	1600	16.21512	40.92393	-91.39363
564587	278	-1070	-1007	-0.9766368	-5.260472	-0.5860652	0	9.75	4004	45	9	5	5	0.4085131	2.12651	8	15	0.04	1600	16.21512	40.92393	-91.39363
564660	-905	415	10	-0.7195694	-5.10478	-0.6702654	0	9.75	4004	54	10	5	5	0.4085131	2.130487	8	15	0.04	1600	16.30454	40.92393	-91.39363
564740	-386	-1451	-1379	-2.355152	-4.944198	-0.4409149	0	9.75	4002	48	6	5	5	0.4085131	2.149513	8	15	0.04	1600	15.96661	40.92393	-91.39363
564819	589	-827	-49	-2.537082	-3.750442	-0.6142422	0	9.75	4003	48	6	5	5	0.4085131	2.164212	8	15	0.04	1600	17.35828	40.92393	-91.39363
565054	-959	-2222	-928	-2.962937	-2.951942	-0.1698138	0	9.75	4002	54	3	5	5	0.4085131	2.212718	8	15	0.04	1600	15.11763	40.92393	-91.39362
565205	1261	-590	132	-4.102952	-3.329242	-0.1718543	0	9.75	4003	63	0	5	5	0.4085131	2.245941	8	15	0.04	1600	18.4608	40.92393	-91.39362
565302	-1863	-1028	434	-3.733803	-2.350845	-0.2336227	0	10.38	4004	69	-3	5	5	0.4085131	2.255703	8	15	0.04	1600	18.75813	40.92393	-91.39362
565389	-268	-843	-1154	-6.196345	-2.194989	-0.3422532	0	10.38	4003	69	-3	5	5	0.4085131	2.273948	8	15	0.04	1600	18.86589	40.92393	-91.39362
565468	527	-180	-456	-4.606782	-2.548315	0.1060173	0	10.38	4002	78	-9	5	5	0.4085131	2.2813	8	15	0.04	1600	17.73106	40.92393	-91.39362
565552	-3133	4509	1252	-5.404274	-4.515927	-0.2604461	0	10.38	4004	78	-9	5	5	0.4085131	2.284714	8	15	0.04	1600	13.49563	40.92393	-91.39362
565618	-1737	4319	1750	-8.489914	-12.18598	-0.893514	0	10.38	4004	87	-12	5	5	0.4085131	2.283914	8	15	0.04	1600	8.358148	40.92393	-91.39362
565682	-2818	1795	-424	-10.59391	-15.31972	-0.5630246	0	10.38	4002	87	-12	5	5	0.4085131	2.273289	8	15	0.04	1600	5.92795	40.92393	-91.39362
565779	-2220	1871	-1534	-12.55291	-16.98519	-0.4126396	0	10.38	4003	100	-19	5	5	0.4085131	2.241661	8	15	0.04	1600	2.168861	40.92393	-91.39362
565885	465	830	-193	-11.36405	-18.53724	0.3400457	0	10.38	4002	99	-18	5	5	0.4085131	2.214478	8	15	0.04	1600	-8.224396	40.92393	-91.39362
565986	-436	775	1495	-10.07594	-17.88047	0.09973872	0	10.38	4004	109	-25	5	5	0.4085131	2.166994	8	15	0.04	1600	-9.874481	40.92392	-91.39361
566090	-1005	2861	2039	-9.263632	-19.48169	-0.3937768	0	10.38	4003	108	-24	5	5	0.4085131	2.081175	8	15	0.04	1600	-13.50974	40.92392	-91.39361
566320	-860	399	180	-7.645511	-17.83069	-0.8214387	0	9.64	4002	133	-37	5	5	0.4085131	1.94602	8	15	0.04	1600	-15.27914	40.92392	-91.3936
566432	-718	3119	102	-8.147169	-19.49555	-0.7218271	0	9.64	4004	132	-36	5	5	0.4085131	1.822734	8	15	0.04	1600	-16.2818	40.92392	-91.3936
566597	-231	-2370	537	-8.188199	-18.98277	0.2115416	0	9.64	4003	141	-39	5	5	0.4085131	1.679567	8	15	0.04	1600	-18.24402	40.92392	-91.3936
566653	-141	-5823	-1417	-8.081064	-13.23309	0.4024315	0	9.64	4003	141	-39	5	5	0.4085131	1.661518	8	15	0.04	1600	-18.46426	40.92392	-91.3936
566783	-1312	-1316	920	-10.07406	-7.704721	-1.316933	0	9.64	4003	153	-48	5	5	0.4085131	1.55982	8	15	0.04	1600	-18.43246	40.92391	-91.39359
566879	2871	505	-995	-7.629245	-5.716246	-0.9626397	0	9.64	4003	153	-48	5	5	0.4085131	1.508634	8	15	0.04	1600	-19.30856	40.92391	-91.39359
566935	2678	2794	-100	-5.741596	-6.651576	-0.7826348	0	9.64	4002	162	-51	5	5	0.4085131	1.478963	8	15	0.04	1600	-20.41562	40.92391	-91.39359
567026	2180	739	-337	-2.06889	-11.46735	-0.6508075	0	10.72	4003	171	-54	5	5	0.4085131	1.439878	8	15	0.04	1600	-19.72787	40.92391	-91.39359
567177	818	1339	505	1.904248	-11.72731	-0.254832	0	10.72	4003	171	-54	5	5	0.4085131	1.396532	8	15	0.04	1600	-18.40048	40.92391	-91.39359
567263	-510	-1318	985	3.12924	-11.53897	-0.5269334	0	10.72	4002	180	-60	5	5	0.4085131	1.358597	8	15	0.04	1600	-16.24484	40.92391	-91.39359
567310	-1434	-2873	-1526	1.994434	-10.5318	-0.2613988	0	10.72	4003	180	-60	5	5	0.4085131	1.333888	8	15	0.04	1600	-16.24484	40.92391	-91.39359
567497	-2904	-487	676	-6.895483	-4.618391	-0.04989191	0	10.72	4002	189	-63	5	5	0.4085131	1.280201	8	15	0.04	1600	-17.22098	40.92391	-91.39358
567611	-1210	-2909	113	-9.542447	-1.973067	-0.4015133	0	10.72	4002	198	-63	5	5	0.4085131	1.267672	8	15	0.04	1600	-18.16125	40.92391	-91.39358
567694	2139	-2169	-658	-9.279393	1.598094	-0.3582096	0	10.72	4004	198	-63	5	5	0.4085131	1.260446	8	15	0.04	1600	-19.00934	40.92391	-91.39358
567833	2588	-1368	-431	-2.320464	1.991546	-0.3631364	0	10.72	4003	207	-66	5	5	0.4085131	1.243325	8	15	0.04	1600	-17.64896	40.92391	-91.39358
567981	1462	-1139	-693	2.070278	1.574295	-0.5675853	0	10.04	4004	213	-66	5	5	0.4085131	1.239837	8	15	0.04	1600	-16.85672	40.92391	-91.39358
568089	-166	-2636	-1193	2.186319	2.265275	-0.5337601	0	10.04	4003	213	-66	5	5	0.4085131	1.277048	8	15	0.04	1600	-15.28616	40.92391	-91.39358
