time(ms)	gyro_x(deg/s)	gyro_y(deg/s)	gyro_z(deg/s)	orientation_roll(deg)	orientation_pitch(deg)	orientation_yaw(deg)	throttle	battery(V)	loop_time(uS)	pid_output_roll	pid_output_pitch	pid_output_yaw	pid_output_throttle	ultrasonic_alt	baro_alt	flight_mode	p_gain_altitude	i_gain_altitude	d_gain_altitude	compass_heading	latitude	longitude
99402	-517	516	-4483	-41.73043	-15.51923	-202.1387	0	11.57	4004	0	0	5	5	1.08285	0.8652927	1	6	0.04	1800	38.86487	40.92397	-91.39368
99508	867	865	-3964	-43.56258	-10.65357	-194.9296	0	11.57	4004	0	0	5	5	1.08285	0.8487411	1	6	0.04	1800	36.88465	40.92397	-91.39368
99664	19	2377	-3180	-42.91693	-9.614269	-187.9747	0	11.57	4002	0	0	5	5	1.08285	0.8272904	1	6	0.04	1800	32.52388	40.92397	-91.39368
99718	507	625	-3204	-43.63419	-8.156451	-184.5359	0	11.57	4003	0	0	5	5	1.08285	0.8203117	1	6	0.04	1800	29.63238	40.92397	-91.39368
99891	-804	807	-1971	-46.17451	-5.593162	-177.4931	0	11.57	4002	0	0	5	5	1.08285	0.8098139	1	6	0.04	1800	25.77756	40.92397	-91.39368
100003	-1917	-1174	-2322	-49.3056	0.2016308	-174.2204	0	11.57	4004	0	0	5	5	1.08285	0.8034931	1	6	0.04	1800	24.71123	40.92397	-91.39369
100083	2236	-94	-363	-45.06482	1.176969	-172.3169	0	11.63	4003	0	0	5	5	1.08285	0.8035456	1	6	0.04	1800	21.98607	40.92397	-91.39369
100165	210	-1301	-396	-43.25827	3.239645	-171.8124	0	11.63	4004	0	0	5	5	1.08285	0.8078514	1	6	0.04	1800	21.89619	40.92397	-91.39369
100225	-123	-304	-571	-42.78444	4.712609	-171.3872	0	11.63	4002	0	0	5	5	1.08285	0.806576	1	6	0.04	1800	21.52668	40.92397	-91.39369
100339	1105	878	-650	-41.16609	6.294644	-170.0016	0	11.63	4004	0	0	5	5	1.08285	0.8015977	1	6	0.04	1800	18.92124	40.92397	-91.39369
100500	-473	2053	-157	-38.42383	2.019894	-170.7554	0	11.63	4003	0	0	5	5	1.08285	0.8089695	1	6	0.04	1800	16.88861	40.92397	-91.39369
100540	-1339	1503	263	-39.4795	0.2889986	-170.7514	0	11.63	4003	0	0	5	5	1.08285	0.8114542	1	6	0.04	1800	15.44609	40.92397	-91.39369
100630	-1835	2517	460	-41.23935	-2.121569	-171.2036	0	11.63	4004	0	0	5	5	1.08285	0.828594	1	6	0.04	1800	13.78259	40.92397	-91.39369
100780	-3983	1350	817	-45.77539	-6.474785	-171.6085	0	11.63	4003	0	0	5	5	1.08285	0.8518407	1	6	0.04	1800	11.02083	40.92397	-91.39369
100924	299	-908	-402	-54.34555	-10.907	-175.5294	0	11.63	4003	0	0	5	5	1.08285	0.8759518	1	6	0.04	1800	9.353966	40.92397	-91.39369
100987	1620	-2754	-1276	-53.81451	-9.215158	-174.9548	0	11.63	4003	0	0	5	5	1.08285	0.8897274	1	6	0.04	1800	9.353966	40.92397	-91.39369
101162	2513	-371	1510	-48.17442	-6.351026	-175.5607	0	11.63	4003	0	0	5	5	1.08285	0.9166454	1	6	0.04	1800	16.20138	40.92397	-91.39369
101266	3411	-1615	2600	-43.13507	-7.897466	-179.7165	0	11.63	4003	0	0	5	5	1.08285	0.9314731	1	6	0.04	1800	20.12617	40.92397	-91.39369
101317	4340	-1851	2917	-40.7671	-7.869119	-181.2616	0	11.63	4003	0	0	5	5	1.08285	0.9418767	1	6	0.04	1800	22.65805	40.92397	-91.39369
101544	3126	-2419	4162	-21.2025	-6.068075	-194.8898	0	11.63	4003	0	0	5	5	1.08285	0.9477507	1	6	0.04	1800	32.72567	40.92397	-91.3937
101753	2575	-354	3547	-11.37303	-5.955153	-204.7884	0	11.63	4003	0	0	5	5	1.08285	0.9365534	1	6	0.04	1800	39.98522	40.92396	-91.3937
101890	-1654	959	8312	-5.559425	-9.017411	-221.6578	0	11.63	4004	0	0	5	5	1.08285	0.9325823	1	6	0.04	1800	55.62673	40.92396	-91.3937
102007	788	937	1021	-5.276033	-10.62213	-229.5056	0	11.63	4004	0	0	5	5	1.08285	0.9189934	1	6	0.04	1800	64.36643	40.92396	-91.3937
102079	-1325	1138	606	-4.805138	-13.09732	-233.1943	0	11.63	4003	0	0	5	5	1.08285	0.9063545	1	6	0.04	1800	68.256	40.92396	-91.3937
102151	-868	-980	1094	-5.698881	-13.17786	-233.5296	0	11.63	4004	0	0	5	5	1.08285	0.8975003	1	6	0.04	1800	68.51512	40.92396	-91.3937
102280	828	-997	2558	-5.340124	-12.13554	-237.4959	0	11.63	4004	0	0	5	5	1.08285	0.8732352	1	6	0.04	1800	73.274	40.92396	-91.3937
102427	-700	-1907	4849	-3.648421	-8.802514	-250.1616	0	11.63	4004	0	0	5	5	1.08285	0.8567578	1	6	0.04	1800	84.15424	40.92396	-91.3937
102473	-314	-877	3611	-3.486367	-7.610512	-254.8709	0	11.63	4002	0	0	5	5	1.08285	0.8456258	1	6	0.04	1800	92.19916	40.92396	-91.3937
102528	3760	-2429	2254	-2.033725	-6.171401	-256.3202	0	11.63	4004	0	0	5	5	1.08285	0.8338156	1	6	0.04	1800	98.17349	40.92396	-91.3937
102686	225	-50	1115	0.4463694	-3.510603	-258.0071	0	11.63	4002	0	0	5	5	1.08285	0.8118021	1	6	0.04	1800	101.4572	40.92395	-91.3937
102735	257	-77	-678	0.4331966	-3.915878	-258.282	0	11.63	4004	0	0	5	5	1.08285	0.8059346	1	6	0.04	1800	102.3123	40.92395	-91.3937
102890	-115	-80	-16	0.06467997	-3.515596	-258.0633	0	11.63	4004	0	0	5	5	1.08285	0.7917	1	6	0.04	1800	103.4236	40.92395	-91.3937
103030	-72	-50	28	-0.2113097	-3.313097	-258.0794	0	11.63	4004	0	0	5	5	1.08285	0.7848527	1	6	0.04	1800	103.3667	40.92395	-91.3937
103094	-88	-73	15	-0.3356155	-3.208622	-258.0918	0	11.63	4003	0	0	5	5	1.08285	0.7817959	1	6	0.04	1800	102.8261	40.92395	-91.3937
103184	94	-26	-106	-0.6058619	-2.965887	-257.9207	0	11.63	4002	0	0	5	5	1.08285	0.7809269	1	6	0.04	1800	103.1531	40.92395	-91.3937
103247	-49	40	5	-0.6072334	-3.039235	-258.0877	0	11.63	4002	0	0	5	5	1.08285	0.7822652	1	6	0.04	1800	102.6669	40.92395	-91.3937
103377	-81	-25	-48	-0.7849008	-3.189114	-257.9381	0	11.63	4002	0	0	5	5	1.08285	0.7870319	1	6	0.04	1800	102.1499	40.92395	-91.3937
103569	32	-12	111	-0.8882995	-2.987206	-258.1209	0	11.63	4002	0	0	5	5	1.08285	0.7995842	1	6	0.04	1800	102.2271	40.92395	-91.3937
103787	-34	14	92	-0.8549656	-3.042797	-258.0713	0	11.68	4003	0	0	5	5	1.08285	0.8180545	1	6	0.04	1800	102.0645	40.92395	-91.39369
103931	-40	35	20	-0.9027741	-3.000163	-258.1719	0	11.68	4002	0	0	5	5	1.08285	0.8321786	1	6	0.04	1800	102.2382	40.92395	-91.39369
104018	0	17	29	-0.9351221	-3.051106	-258.2086	0	11.68	4003	0	0	5	5	1.08285	0.8455584	1	6	0.04	1800	101.8735	40.92395	-91.39369
104110	-102	72	142	-0.9558769	-3.052271	-258.2455	0	11.68	4007	0	0	5	5	1.08285	0.8568268	1	6	0.04	1800	102.1197	40.92395	-91.39369
104186	-1	-35	-4	-0.8519158	-3.027006	-258.3137	0	11.68	4002	0	0	5	5	1.08285	0.859791	1	6	0.04	1800	102.1039	40.92395	-91.39369
104237	-62	151	-180	-0.8892835	-2.98575	-258.321	0	11.68	4002	0	0	5	5	1.08285	0.8593099	1	6	0.04	1800	102.0311	40.92395	-91.39369
104391	-126	70	12	-0.8885454	-2.977592	-258.3313	0	11.68	4004	0	0	5	5	1.08285	0.8530645	1	6	0.04	1800	102.0103	40.92395	-91.39369
104468	-40	47	104	-1.073398	-2.65458	-258.3637	0	11.68	4002	0	0	5	5	1.08285	0.8523068	1	6	0.04	1800	102.1726	40.92395	-91.39369
104633	-108	4	14	-1.016454	-2.861521	-258.4471	0	11.68	4003	0	0	5	5	1.08285	0.8543701	1	6	0.04	1800	102.0246	40.92395	-91.39369
104758	-50	-1	61	-1.07322	-2.847517	-258.4776	0	11.68	4003	0	0	5	5	1.08285	0.857991	1	6	0.04	1800	101.7576	40.92395	-91.39369
104874	-41	-1	20	-1.089213	-2.862545	-258.4933	0	11.68	4004	0	0	5	5	1.08285	0.8569594	1	6	0.04	1800	101.7911	40.92395	-91.39368
104923	-50	-18	30	-1.080418	-2.869574	-258.5127	0	11.68	4004	0	0	5	5	1.08285	0.8570402	1	6	0.04	1800	102.0739	40.92395	-91.39368
105068	-42	-1	18	-1.104027	-2.833472	-258.5376	0	11.68	4003	0	0	5	5	1.08285	0.8552772	1	6	0.04	1800	101.9146	40.92395	-91.39368
105104	-55	10	30	-1.100546	-2.825834	-258.5518	0	11.68	4004	0	0	5	5	1.08285	0.8502968	1	6	0.04	1800	101.9146	40.92395	-91.39368
105174	-57	5	3	-1.10136	-2.820862	-258.5575	0	11.68	4003	0	0	5	5	1.08285	0.8491881	1	6	0.04	1800	101.9781	40.92395	-91.39368
105342	-69	-112	20	-1.102737	-2.799944	-258.602	0	11.68	4002	0	0	5	5	1.08285	0.8467123	1	6	0.04	1800	101.5947	40.92395	-91.39368
105475	-142	-205	171	-1.135084	-2.812741	-258.6146	0	11.68	4004	0	0	5	5	1.08285	0.8546505	1	6	0.04	1800	102.2255	40.92395	-91.39368
105529	-16	-20	103	-1.123671	-2.751838	-258.6536	0	11.68	4003	0	0	5	5	1.08285	0.8587713	1	6	0.04	1800	101.6739	40.92395	-91.39368
105589	-129	-9	-88	-1.06396	-2.76098	-258.6743	0	11.68	4003	0	0	5	5	1.08285	0.8598302	1	6	0.04	1800	101.6739	40.92395	-91.39368
105689	-40	52	15	-1.178324	-2.770057	-258.6223	0	11.68	4004	0	0	5	5	1.08285	0.8597851	1	6	0.04	1800	101.1165	40.92395	-91.39368
105803	-74	2	30	-1.158621	-2.821652	-258.6485	0	11.68	4004	0	0	5	5	1.08285	0.863593	1	6	0.04	1800	101.8746	40.92396	-91.39368
105943	-54	-42	-14	-1.114404	-2.851254	-258.7041	0	11.68	4002	0	0	5	5	1.08285	0.8657013	1	6	0.04	1800	101.7653	40.92396	-91.39368
106093	-30	27	49	-1.166101	-2.757436	-258.7271	0	11.68	4002	0	0	5	5	1.08285	0.8595794	1	6	0.04	1800	101.8563	40.92396	-91.39368
106210	-16	15	29	-1.156183	-2.835193	-258.7574	0	11.68	4003	0	0	5	5	1.08285	0.8533556	1	6	0.04	1800	101.4005	40.92396	-91.39368
106318	-108	0	135	-1.097003	-2.836476	-258.8327	0	11.68	4004	0	0	5	5	1.08285	0.8524055	1	6	0.04	1800	102.5069	40.92396	-91.39368
106429	-42	-1	29	-1.105996	-2.857066	-258.8597	0	11.63	4003	0	0	5	5	1.08285	0.8562191	1	6	0.04	1800	101.3978	40.92396	-91.39368
106560	-26	-19	23	-1.151089	-2.893046	-258.8937	0	11.63	4004	0	0	5	5	1.08285	0.8545871	1	6	0.04	1800	100.8036	40.92396	-91.39368
106628	-70	0	37	-1.120268	-2.866523	-258.8952	0	11.63	4004	0	0	5	5	1.08285	0.8537878	1	6	0.04	1800	100.5404	40.92396	-91.39368
106714	-57	-6	32	-1.106417	-2.850757	-258.9071	0	11.63	4003	0	0	5	5	1.08285	0.8493762	1	6	0.04	1800	101.0075	40.92397	-91.39368
106773	-113	-29	51	-1.142856	-2.875613	-258.9325	0	11.63	4004	0	0	5	5	1.08285	0.8487061	1	6	0.04	1800	101.0511	40.92397	-91.39368
106856	-65	-16	5	-1.162451	-2.867363	-258.9272	0	11.63	4004	0	0	5	5	1.08285	0.8485291	1	6	0.04	1800	100.7763	40.92397	-91.39368
107036	-42	37	2	-1.175164	-2.720127	-258.9624	0	11.63	4003	0	0	5	5	1.08285	0.8526718	1	6	0.04	1800	100.8633	40.92397	-91.39368
107178	-17	43	12	-1.11823	-2.841286	-258.9994	0	11.63	4002	0	0	5	5	1.08285	0.8560023	1	6	0.04	1800	100.4552	40.92397	-91.39368
107339	-24	52	-2	-1.080932	-2.955543	-259.0263	0	11.68	4002	0	0	5	5	1.08285	0.8475155	1	6	0.04	1800	99.86185	40.92397	-91.39369
107393	-27	33	42	-1.038495	-3.033594	-259.0448	0	11.68	4003	0	0	5	5	1.08285	0.8429263	1	6	0.04	1800	99.90721	40.92397	-91.39369
107541	-45	31	37	-0.9778463	-3.14028	-259.0633	0	11.68	4003	0	0	5	5	1.08285	0.8226965	1	6	0.04	1800	100.5103	40.92397	-91.39369
107638	-148	76	-142	-0.9446961	-3.198469	-259.0883	0	11.68	4003	0	0	5	5	1.08285	0.8066177	1	6	0.04	1800	100.7136	40.92397	-91.39369
107728	-31	-24	-15	-0.9797539	-3.119066	-259.0995	0	11.68	4003	0	0	5	5	1.08285	0.7809489	1	6	0.04	1800	100.7328	40.92397	-91.39369
107813	-37	-21	47	-0.9952176	-3.082585	-259.1238	0	11.68	4004	0	0	5	5	1.08285	0.7700869	1	6	0.04	1800	100.6683	40.92397	-91.39369
107859	-77	-11	14	-1.006989	-3.064793	-259.1276	0	11.68	4003	0	0	5	5	1.08285	0.7598979	1	6	0.04	1800	100.725	40.92397	-91.39369
108021	-28	1	0	-1.037535	-3.026727	-259.1671	0	11.68	4002	0	0	5	5	1.08285	0.738099	1	6	0.04	1800	100.8403	40.92397	-91.39369
108184	-38	19	0	-1.034014	-3.008382	-259.1906	0	11.68	4002	0	0	5	5	1.08285	0.7227532	1	6	0.04	1800	100.7638	40.92397	-91.39369
108298	-118	-87	-50	-0.9708101	-3.104876	-259.2139	0	11.68	4003	0	0	5	5	1.08285	0.6967699	1	6	0.04	1800	100.9645	40.92397	-91.39369
108361	-69	-45	-20	-0.9464397	-3.095132	-259.2191	0	11.68	4003	0	0	5	5	1.08285	0.6766007	1	6	0.04	1800	100.9313	40.92397	-91.39369
108526	-84	-50	15	-0.9844651	-3.047625	-259.2481	0	11.68	4002	0	0	5	5	1.08285	0.6235116	1	6	0.04	1800	100.9988	40.92397	-91.3937
108577	-77	-68	-4	-1.015494	-2.996185	-259.2556	0	11.68	4003	0	0	5	5	1.08285	0.6046243	1	6	0.04	1800	101.1338	40.92397	-91.3937
108632	-89	-63	24	-1.060488	-2.918453	-259.2772	0	11.68	4004	0	0	5	5	1.08285	0.5993063	1	6	0.04	1800	101.2556	40.92397	-91.3937
108745	-33	38	51	-1.173211	-2.708609	-259.2947	0	11.68	4002	0	0	5	5	1.08285	0.5746676	1	6	0.04	1800	100.7362	40.92397	-91.3937
108888	-33	3	-20	-1.055711	-2.871087	-259.3158	0	11.68	4002	0	0	5	5	1.08285	0.5566399	1	6	0.04	1800	100.9943	40.92398	-91.3937
109000	-74	-27	24	-1.06292	-2.925976	-259.3318	0	11.68	4003	0	0	5	5	1.08285	0.5453039	1	6	0.04	1800	100.8912	40.92398	-91.3937
109054	-74	-44	41	-1.066978	-2.91915	-259.3434	0	11.68	4002	0	0	5	5	1.08285	0.5453606	1	6	0.04	1800	100.8912	40.92398	-91.3937
109188	-46	-43	27	-1.068959	-2.875548	-259.3775	0	11.68	4003	0	0	5	5	1.08285	0.54285	1	6	0.04	1800	100.8189	40.92398	-91.3937
109258	-87	-24	25	-1.098764	-2.835663	-259.3896	0	11.68	4003	0	0	5	5	1.08285	0.5323328	1	6	0.04	1800	101.0134	40.92398	-91.3937
109343	-42	3	-13	-1.132436	-2.724573	-259.3995	0	11.68	4002	0	0	5	5	1.08285	0.5273264	1	6	0.04	1800	101.0836	40.92398	-91.3937
109427	-10	38	-7	-1.136464	-2.741547	-259.4231	0	11.68	4002	0	0	5	5	1.08285	0.5270274	1	6	0.04	1800	101.0836	40.92398	-91.3937
109559	-69	-19	-11	-1.083226	-2.815604	-259.4397	0	11.68	4002	0	0	5	5	1.08285	0.5175999	1	6	0.04	1800	100.9553	40.92398	-91.3937
109682	-41	8	13	-1.124372	-2.758616	-259.4575	0	11.68	4002	0	0	5	5	1.08285	0.5168216	1	6	0.04	1800	100.8642	40.92398	-91.3937
109803	-44	7	24	-1.120549	-2.759782	-259.4827	0	11.68	4003	0	0	5	5	1.08285	0.5212789	1	6	0.04	1800	100.629	40.92398	-91.3937
109988	-91	-147	-150	-1.090335	-2.802876	-259.4922	0	11.68	4004	0	0	5	5	1.08285	0.5101548	1	6	0.04	1800	100.7379	40.92398	-91.3937
110043	-46	-18	14	-1.085318	-2.845877	-259.5097	0	11.68	4002	0	0	5	5	1.08285	0.5052514	1	6	0.04	1800	100.9625	40.92398	-91.3937
110154	-56	2	19	-1.128134	-2.73355	-259.5346	0	11.68	4003	0	0	5	5	1.08285	0.4931429	1	6	0.04	1800	101.0704	40.92398	-91.3937
110225	-48	9	23	-1.120561	-2.765219	-259.5416	0	11.68	4003	0	0	5	5	1.08285	0.4913606	1	6	0.04	1800	101.0545	40.92398	-91.3937
110269	-58	-12	16	-1.100493	-2.788944	-259.5523	0	11.68	4002	0	0	5	5	1.08285	0.4941636	1	6	0.04	1800	100.8965	40.92398	-91.3937
110367	-47	4	20	-1.12178	-2.768824	-259.5832	0	11.68	4004	0	0	5	5	1.08285	0.4954697	1	6	0.04	1800	100.8824	40.92398	-91.3937
110469	-40	4	26	-1.121293	-2.765146	-259.6137	0	11.68	4003	0	0	5	5	1.08285	0.5045503	1	6	0.04	1800	101.1506	40.92398	-91.3937
110641	-44	4	0	-1.10625	-2.758914	-259.6409	0	11.68	4003	0	0	5	5	1.08285	0.5148436	1	6	0.04	1800	100.649	40.92398	-91.3937
110699	-46	2	10	-1.10704	-2.767274	-259.6571	0	11.68	4004	0	0	5	5	1.08285	0.5198138	1	6	0.04	1800	100.6673	40.92398	-91.3937
110797	-46	3	8	-1.112922	-2.763013	-259.6762	0	11.68	4002	0	0	5	5	1.08285	0.5332827	1	6	0.04	1800	101.085	40.92398	-91.39371
110956	-48	0	15	-1.114756	-2.764914	-259.699	0	11.68	4004	0	0	5	5	1.08285	0.5502106	1	6	0.04	1800	100.8793	40.92398	-91.39371
111067	-44	-4	17	-1.102759	-2.767126	-259.7265	0	11.68	4003	0	0	5	5	1.08285	0.5596028	1	6	0.04	1800	100.8759	40.92398	-91.39371
111155	-42	3	14	-1.098276	-2.766453	-259.7343	0	11.68	4004	0	0	5	5	1.08285	0.5695874	1	6	0.04	1800	100.903	40.92398	-91.39371
111272	-46	-3	11	-1.094007	-2.776245	-259.7525	0	11.68	4004	0	0	5	5	1.08285	0.5778579	1	6	0.04	1800	100.8948	40.92398	-91.39371
111388	-39	-5	26	-1.08725	-2.776438	-259.7797	0	11.68	4002	0	0	5	5	1.08285	0.5793092	1	6	0.04	1800	100.8977	40.92398	-91.39371
111428	-34	-3	7	-1.085231	-2.767743	-259.7885	0	11.68	4004	0	0	5	5	1.08285	0.580074	1	6	0.04	1800	100.6422	40.92398	-91.39371
111492	-34	-2	21	-1.091503	-2.771261	-259.7973	0	11.68	4004	0	0	5	5	1.08285	0.5802118	1	6	0.04	1800	101.1768	40.92399	-91.39371
111594	-44	-3	11	-1.074604	-2.768413	-259.8268	0	11.68	4003	0	0	5	5	1.08285	0.5852138	1	6	0.04	1800	100.6504	40.92399	-91.39371
111801	-41	-2	17	-1.074625	-2.773965	-259.8637	0	11.63	4004	0	0	5	5	1.08285	0.5777122	1	6	0.04	1800	100.6322	40.92399	-91.39371
111925	-43	0	15	-1.068668	-2.775865	-259.8827	0	11.63	4003	0	0	5	5	1.08285	0.5705136	1	6	0.04	1800	101.1876	40.92399	-91.39371
112102	-45	-2	16	-1.077389	-2.782039	-259.9149	0	11.63	4002	0	0	5	5	1.08285	0.5572659	1	6	0.04	1800	101.1127	40.92398	-91.39371
112197	-41	68	-93	-1.068405	-2.760473	-259.9121	0	11.63	4003	0	0	5	5	1.08285	0.5495332	1	6	0.04	1800	101.1504	40.92398	-91.39371
112413	20	37	-2	-1.060729	-2.79295	-259.9672	0	11.63	4003	0	0	5	5	1.08285	0.5295734	1	6	0.04	1800	100.7941	40.92398	-91.39371
112587	31	138	8	-1.046854	-2.891365	-260.0164	0	11.63	4002	0	0	5	5	1.08285	0.5517781	1	6	0.04	1800	100.8795	40.92398	-91.39371
112677	8	39	87	-0.8467181	-3.303549	-259.9991	0	11.63	4002	0	0	5	5	1.08285	0.5717575	1	6	0.04	1800	100.3091	40.92398	-91.39371
112738	-41	-5	61	-0.9078379	-3.212929	-260.0055	0	11.63	4003	0	0	5	5	1.08285	0.590986	1	6	0.04	1800	100.8986	40.92398	-91.39371
112954	-37	31	44	-0.8746927	-3.226141	-260.0729	0	11.63	4003	0	0	5	5	1.08285	0.6206621	1	6	0.04	1800	101.2933	40.92397	-91.39371
113131	-53	12	23	-0.8432549	-3.244878	-260.0887	0	11.63	4002	0	0	5	5	1.08285	0.6367528	1	6	0.04	1800	100.6844	40.92397	-91.39371
113364	-24	21	-5	-0.8691685	-3.212361	-260.1345	0	11.63	4003	0	0	5	5	1.08285	0.6504414	1	6	0.04	1800	100.9744	40.92397	-91.39371
113548	-55	-6	6	-0.843657	-3.254017	-260.1722	0	11.68	4003	0	0	5	5	1.08285	0.6643777	1	6	0.04	1800	101.0359	40.92397	-91.39371
113745	-40	8	4	-0.8487463	-3.234239	-260.2079	0	11.68	4003	0	0	5	5	1.08285	0.6626602	1	6	0.04	1800	100.9556	40.92397	-91.39371
113875	-33	2	16	-0.8472928	-3.22846	-260.2304	0	11.68	4003	0	0	5	5	1.08285	0.6613055	1	6	0.04	1800	101.0052	40.92397	-91.39371
113910	-41	4	11	-0.8517974	-3.22453	-260.2363	0	11.68	4002	0	0	5	5	1.08285	0.6581377	1	6	0.04	1800	101.0515	40.92397	-91.39371
114010	-55	4	24	-0.8439497	-3.225384	-260.2518	0	11.68	4004	0	0	5	5	1.08285	0.6477981	1	6	0.04	1800	101.058	40.92397	-91.39371
114099	-36	0	20	-0.8513707	-3.234078	-260.2723	0	11.68	4003	0	0	5	5	1.08285	0.6454836	1	6	0.04	1800	100.7837	40.92397	-91.39371
114315	-37	-3	2	-0.8389263	-3.224202	-260.2964	0	11.68	4003	0	0	5	5	1.08285	0.6277874	1	6	0.04	1800	100.7626	40.92396	-91.3937
350499	14	1	-3	0.1893743	-0.07877433	0.2855155	0	11.63	4004	0	0	5	5	1.08285	0.02676061	1	10	0.04	1800	-3.112732	40.92393	-91.39363
350690	14	0	-1	0.1876038	-0.07829458	0.2869829	0	11.63	4004	0	0	5	5	1.08285	0.03870351	1	10	0.04	1800	-3.325592	40.92393	-91.39363
350777	8	-1	3	0.1820997	-0.07142638	0.2863106	0	11.63	4003	0	0	5	5	1.08285	0.04513329	1	10	0.04	1800	-3.333893	40.92393	-91.39363
350821	7	0	2	0.1829128	-0.07153248	0.2868608	0	11.63	4003	0	0	5	5	1.08285	0.053816	1	10	0.04	1800	-3.097656	40.92393	-91.39363
350934	8	-3	-7	0.1796148	-0.07337481	0.2884506	0	11.63	4004	0	0	5	5	1.08285	0.063154	1	10	0.04	1800	-3.309753	40.92393	-91.39363
351106	12	-2	-1	0.1735567	-0.08053628	0.2899179	0	11.63	4002	0	0	5	5	1.08285	0.08210841	1	10	0.04	1800	-3.084839	40.92393	-91.39363
351238	9	0	-3	0.1782631	-0.07924575	0.291202	0	11.63	4003	0	0	5	5	1.08285	0.07703395	1	10	0.04	1800	-3.08844	40.92393	-91.39363
351391	10	-2	1	0.1761977	-0.083184	0.2912633	0	11.57	4004	0	0	5	5	1.08285	0.06499006	1	10	0.04	1800	-3.295776	40.92393	-91.39363
351470	19	-4	0	0.1703942	-0.07718004	0.2915078	0	11.57	4002	0	0	5	5	1.08285	0.06495481	1	10	0.04	1800	-3.066833	40.92393	-91.39363
351506	14	-1	0	0.1722354	-0.07885426	0.2921804	0	11.57	4003	0	0	5	5	1.08285	0.06676413	1	10	0.04	1800	-3.066833	40.92393	-91.39363
351660	11	-1	0	0.1714997	-0.07560693	0.2933424	0	11.57	4003	0	0	5	5	1.08285	0.06606364	1	10	0.04	1800	-3.29776	40.92393	-91.39363
351708	11	-1	0	0.172616	-0.07319018	0.294137	0	11.57	4003	0	0	5	5	1.08285	0.05937565	1	10	0.04	1800	-3.29776	40.92393	-91.39363
351802	11	2	1	0.1735524	-0.07205591	0.2947481	0	11.57	4010	0	0	5	5	1.08285	0.05698405	1	10	0.04	1800	-3.078827	40.92393	-91.39363
351982	12	0	6	0.1808693	-0.06862501	0.2959709	0	11.57	4004	0	0	5	5	1.08285	0.05144599	1	10	0.04	1800	-3.327271	40.92393	-91.39363
352078	7	0	-1	0.183631	-0.0664042	0.2975603	0	11.57	4003	0	0	5	5	1.08285	0.05335685	1	10	0.04	1800	-3.109467	40.92393	-91.39363
352221	21	-2	2	0.1983297	-0.07090247	0.2992721	0	11.63	4002	0	0	5	5	1.08285	0.06539913	1	10	0.04	1800	-3.329895	40.92393	-91.39363
352282	12	-3	0	0.1973927	-0.07067011	0.2996389	0	11.63	4002	0	0	5	5	1.08285	0.07319541	1	10	0.04	1800	-3.129089	40.92393	-91.39363
352464	15	-4	0	0.1973329	-0.06992854	0.3009838	0	11.63	4003	0	0	5	5	1.08285	0.08245053	1	10	0.04	1800	-3.320404	40.92393	-91.39363
352506	18	-7	0	0.1977448	-0.07166379	0.3008004	0	11.63	4004	0	0	5	5	1.08285	0.08376015	1	10	0.04	1800	-3.565918	40.92393	-91.39363
352641	14	0	-4	0.2037989	-0.07488722	0.3023286	0	11.63	4003	0	0	5	5	1.08285	0.1022914	1	10	0.04	1800	-3.118744	40.92393	-91.39363
352675	20	7	0	0.2031469	-0.08091284	0.3023285	0	11.63	4002	0	0	5	5	1.08285	0.1052966	1	10	0.04	1800	-3.34375	40.92393	-91.39363
352834	13	2	1	0.2104428	-0.0775374	0.3067908	0	11.63	4002	0	0	5	5	1.08285	0.1108579	1	10	0.04	1800	-3.356598	40.92393	-91.39363
352932	18	2	2	0.2092231	-0.0777844	0.3069741	0	11.63	4004	0	0	5	5	1.08285	0.1094583	1	10	0.04	1800	-3.139893	40.92393	-91.39363
353036	11	2	-1	0.2031567	-0.07475721	0.3066072	0	11.63	4002	0	0	5	5	1.08285	0.1014065	1	10	0.04	1800	-3.142487	40.92393	-91.39363
353074	19	-5	-1	0.2060798	-0.07344991	0.3066683	0	11.63	4004	0	0	5	5	1.08285	0.09974287	1	10	0.04	1800	-3.142487	40.92393	-91.39363
353173	13	0	0	0.2092038	-0.07795642	0.3078911	0	11.63	4003	0	0	5	5	1.08285	0.09554189	1	10	0.04	1800	-2.918427	40.92393	-91.39363
353329	13	2	-2	0.205917	-0.08039881	0.3113149	0	11.63	4003	0	0	5	5	1.08285	0.08398463	1	10	0.04	1800	-3.377533	40.92393	-91.39363
353367	13	-6	-1	0.2085408	-0.07774934	0.3114372	0	11.63	4004	0	0	5	5	1.08285	0.08408951	1	10	0.04	1800	-3.350067	40.92393	-91.39363
353438	10	-1	-2	0.2104429	-0.07848489	0.3127822	0	11.63	4004	0	0	5	5	1.08285	0.08269049	1	10	0.04	1800	-2.918182	40.92393	-91.39363
353602	16	2	-5	0.2027608	-0.07319396	0.3159004	0	11.63	4003	0	0	5	5	1.08285	0.0798307	1	10	0.04	1800	-3.341797	40.92392	-91.39363
353645	11	0	-4	0.2035093	-0.07262819	0.3155946	0	11.63	4003	0	0	5	5	1.08285	0.07874803	1	10	0.04	1800	-3.337891	40.92392	-91.39363
353782	8	-1	0	0.208557	-0.06795547	0.3158394	0	11.63	4003	0	0	5	5	1.08285	0.06151699	1	10	0.04	1800	-3.14798	40.92392	-91.39363
353925	14	-2	-5	0.208681	-0.08169618	0.3188349	0	11.63	4003	0	0	5	5	1.08285	0.04413113	1	10	0.04	1800	-3.351257	40.92392	-91.39363
353962	10	1	-5	0.208681	-0.08169618	0.3188349	0	11.63	4003	0	0	5	5	1.08285	0.03478859	1	10	0.04	1800	-3.351257	40.92392	-91.39363
354038	9	-1	-1	0.2120838	-0.08031731	0.320608	0	11.57	4003	0	0	5	5	1.08285	0.02208433	1	10	0.04	1800	-3.146545	40.92392	-91.39363
354143	14	-3	-4	0.2159851	-0.08335085	0.3227479	0	11.57	4002	0	0	5	5	1.08285	0.007424434	1	10	0.04	1800	-3.36261	40.92392	-91.39363
354293	17	-1	0	0.2119985	-0.08317402	0.3231145	0	11.57	4004	0	0	5	5	1.08285	-0.02823801	1	10	0.04	1800	-3.151886	40.92392	-91.39363
354432	11	3	0	0.2220735	-0.08775833	0.324704	0	11.57	4003	0	0	5	5	1.08285	-0.04840477	1	10	0.04	1800	-3.145355	40.92392	-91.39363
354523	9	0	0	0.2200832	-0.08480399	0.3275163	0	11.57	4002	0	0	5	5	1.08285	-0.04877574	1	10	0.04	1800	-3.371094	40.92392	-91.39363
354695	8	-1	-7	0.2078083	-0.07862149	0.3307569	0	11.57	4004	0	0	5	5	1.08285	-0.03509129	1	10	0.04	1800	-3.15567	40.92392	-91.39363
354786	9	4	5	0.2148374	-0.0831971	0.332041	0	11.57	4003	0	0	5	5	1.08285	-0.02537682	1	10	0.04	1800	-3.136841	40.92392	-91.39363
354995	14	6	-1	0.222388	-0.07942028	0.3358927	0	11.63	4003	0	0	5	5	1.08285	-0.02151531	1	10	0.04	1800	-3.158844	40.92392	-91.39363
355066	11	3	0	0.2214978	-0.07989068	0.3394385	0	11.63	4003	0	0	5	5	1.08285	-0.01645002	1	10	0.04	1800	-3.373749	40.92392	-91.39363
355181	13	-1	3	0.2200474	-0.0767596	0.3427401	0	11.63	4003	0	0	5	5	1.08285	-0.01244393	1	10	0.04	1800	-3.152649	40.92392	-91.39363
355292	13	0	-1	0.2227613	-0.0781185	0.3440852	0	11.63	4002	0	0	5	5	1.08285	-0.008451818	1	10	0.04	1800	-3.367706	40.92392	-91.39363
355345	12	-1	5	0.2240024	-0.08219655	0.3448189	0	11.63	4003	0	0	5	5	1.08285	-0.006621649	1	10	0.04	1800	-3.157654	40.92392	-91.39363
355443	15	-2	0	0.2367377	-0.08756185	0.3464698	0	11.63	4003	0	0	5	5	1.08285	-0.008094701	1	10	0.04	1800	-3.168854	40.92392	-91.39363
355588	14	-4	-4	0.2341147	-0.08501641	0.3523391	0	11.63	4002	0	0	5	5	1.08285	-0.01372548	3	10	0.04	1800	-3.17215	40.92392	-91.39363
355620	14	-4	-4	0.2341147	-0.08501641	0.3523391	0	11.63	4002	0	0	5	5	1.08285	-0.01222565	3	10	0.04	1800	-3.17215	40.92392	-91.39363
355840	19	-5	-3	0.2372157	-0.0853608	0.3597365	0	11.63	4002	0	0	5	5	1.08285	-0.01052398	3	10	0.04	1800	-3.175171	40.92392	-91.39363
355985	24	-3	-6	0.2394384	-0.07338894	0.3645051	0	11.63	4004	0	0	5	5	1.08285	-0.01036365	3	10	0.04	1800	-3.177521	40.92392	-91.39363
356036	14	-7	-1	0.2398095	-0.07337702	0.3651776	0	11.63	4002	0	0	5	5	1.08285	-0.01035153	3	10	0.04	1800	-3.178802	40.92392	-91.39363
356109	18	2	-4	0.2430566	-0.07572021	0.3679899	0	11.63	4002	0	0	5	5	1.08285	-0.01031402	3	10	0.04	1800	-3.629578	40.92392	-91.39363
356246	11	-7	-2	0.2495397	-0.07593062	0.3698849	0	11.63	4002	0	0	5	5	1.08285	-0.008243932	3	10	0.04	1800	-3.408875	40.92392	-91.39363
356301	18	-1	-4	0.2513909	-0.07174534	0.3710466	0	11.63	4002	0	0	5	5	1.08285	-0.002906182	3	10	0.04	1800	-3.640106	40.92392	-91.39363
356421	22	-3	0	0.2555262	-0.0699674	0.3747146	0	11.63	4003	0	0	5	5	1.08285	0.006326162	3	10	0.04	1800	-3.621735	40.92392	-91.39363
356528	15	3	0	0.2605474	-0.07543781	0.3778323	0	11.63	4003	0	0	5	5	1.08285	0.01245217	3	10	0.04	1800	-3.40979	40.92392	-91.39363
356567	15	-5	1	0.2569659	-0.07486812	0.3781991	0	11.63	4003	0	0	5	5	1.08285	0.01229872	3	10	0.04	1800	-3.625671	40.92392	-91.39363
356737	11	-3	2	0.2595185	-0.08426967	0.3840065	0	11.57	4003	0	0	5	5	1.08285	0.01118691	3	10	0.04	1800	-3.217163	40.92392	-91.39363
356819	24	1	-2	0.2572908	-0.0846962	0.3850457	0	11.57	4003	0	0	5	5	1.08285	0.01490546	3	10	0.04	1800	-3.208527	40.92392	-91.39363
356930	17	-1	5	0.2660459	-0.07768892	0.3876746	0	11.57	4003	0	0	5	5	1.08285	0.02751882	3	10	0.04	1800	-3.434845	40.92392	-91.39363
356984	12	0	0	0.2653842	-0.0795378	0.3875524	0	11.57	4004	0	0	5	5	1.08285	0.03042375	3	10	0.04	1800	-3.434296	40.92392	-91.39363
357075	17	5	-3	0.2667782	-0.08304983	0.3882247	0	11.57	4003	0	0	5	5	1.08285	0.03647796	3	10	0.04	1800	-3.220032	40.92392	-91.39363
357236	17	-1	-5	0.2619282	-0.08462024	0.3914041	0	11.57	4004	0	0	5	5	1.08285	0.04362565	3	10	0.04	1800	-3.42984	40.92392	-91.39363
357281	17	3	-2	0.2628645	-0.08881261	0.3920765	0	11.57	4003	0	0	5	5	1.08285	0.04489396	3	10	0.04	1800	-3.44165	40.92392	-91.39363
357447	20	-4	0	0.2715658	-0.08746416	0.3974564	0	11.57	4003	0	0	5	5	1.08285	0.0566667	3	10	0.04	1800	-3.227142	40.92392	-91.39363
357532	22	0	-6	0.2711564	-0.0890731	0.4003297	0	11.57	4002	0	0	5	5	1.08285	0.06163172	3	10	0.04	1800	-3.444763	40.92392	-91.39363
357635	19	2	-1	0.2655001	-0.09401087	0.4020416	0	11.63	4004	0	0	5	5	1.08285	0.06634256	3	10	0.04	1800	-3.226349	40.92392	-91.39363
357692	18	-1	-2	0.2642334	-0.09510656	0.4016749	0	11.63	4004	0	0	5	5	1.08285	0.06779367	3	10	0.04	1800	-2.997498	40.92392	-91.39363
357745	25	0	-1	0.2719625	-0.09578928	0.4033867	0	11.63	4003	0	0	5	5	1.08285	0.06779951	3	10	0.04	1800	-3.670532	40.92392	-91.39363
357879	24	1	0	0.2687056	-0.09140199	0.4053427	0	11.63	4003	0	0	5	5	1.08285	0.07176598	3	10	0.04	1800	-3.223999	40.92392	-91.39363
357935	16	0	-3	0.269868	-0.0935918	0.4083993	0	11.63	4004	0	0	5	5	1.08285	0.07252815	3	10	0.04	1800	-3.224182	40.92392	-91.39363
358033	12	-1	-8	0.2674154	-0.0944915	0.4121287	0	11.63	4003	0	0	5	5	1.08285	0.07574224	3	10	0.04	1800	-3.230896	40.92392	-91.39363
358170	19	-1	-5	0.2765382	-0.09390801	0.4184869	0	11.63	4004	0	0	5	5	1.08285	0.06765693	3	10	0.04	1800	-3.456757	40.92392	-91.39363
358238	13	1	0	0.2801985	-0.09791441	0.4198938	0	11.63	4003	0	0	5	5	1.08285	0.0624136	3	10	0.04	1800	-3.241333	40.92392	-91.39363
358407	14	-5	-3	0.2846821	-0.09417003	0.4248457	0	11.63	4002	0	0	5	5	1.08285	0.07089603	3	10	0.04	1800	-3.245728	40.92392	-91.39363
358537	16	3	2	0.2773342	-0.09390679	0.4260687	0	11.63	4003	0	0	5	5	1.08285	0.07505718	3	10	0.04	1800	-3.252625	40.92392	-91.39363
358623	13	-1	-1	0.2777583	-0.09196798	0.4279029	0	11.63	4003	0	0	5	5	1.08285	0.07741368	3	10	0.04	1800	-3.447815	40.92392	-91.39363
358705	33	15	-40	0.2770624	-0.08867341	0.4313884	0	11.63	4004	0	0	5	5	1.08285	0.08860096	3	10	0.04	1800	-3.232849	40.92392	-91.39363
358788	39	3	-60	0.2678891	-0.09042317	0.4360361	0	11.63	4004	0	0	5	5	1.08285	0.09246192	3	10	0.04	1800	-3.426544	40.92392	-91.39363
358871	15	-36	118	0.2922514	-0.1019347	0.4402533	0	11.63	4002	0	0	5	5	1.08285	0.08716011	3	10	0.04	1800	-3.069305	40.92392	-91.39363
358965	68	10	-189	0.217136	-0.07753394	0.4569581	0	11.63	4003	0	0	5	5	1.08285	0.08041213	3	10	0.04	1800	-3.644897	40.92392	-91.39363
358995	9	86	46	0.2263624	-0.1110092	0.4593484	0	11.63	4003	0	0	5	5	1.08285	0.08009148	3	10	0.04	1800	-3.644897	40.92392	-91.39363
359202	95	62	53	0.2256491	-0.1376044	0.4401445	0	11.63	4002	0	0	5	5	1.08285	0.09387221	3	10	0.04	1800	-2.984985	40.92392	-91.39363
359257	19	65	-37	0.2245217	-0.1259012	0.4455279	0	11.63	4003	0	0	5	5	1.08285	0.101687	3	10	0.04	1800	-2.984985	40.92392	-91.39363
359405	121	-110	-185	0.2185648	-0.1337079	0.4516329	0	11.63	4003	0	0	5	5	1.08285	0.1166995	3	10	0.04	1800	-3.413696	40.92392	-91.39363
359520	90	-85	13	0.2392155	-0.1354595	0.4484493	0	11.63	4002	0	0	5	5	1.08285	0.1246947	3	10	0.04	1800	-2.989441	40.92392	-91.39363
359585	191	-16	-29	0.2297612	-0.1015386	0.446066	0	11.63	4004	0	0	5	5	1.08285	0.1265221	3	10	0.04	1800	-3.342804	40.92392	-91.39363
359769	13	-3	30	0.201373	-0.1107409	0.4417276	0	11.63	4003	0	0	5	5	1.08285	0.1155032	3	10	0.04	1800	-3.573151	40.92392	-91.39363
359803	51	3	-134	0.1842322	-0.09112634	0.4423968	0	11.63	4003	0	0	5	5	1.08285	0.1158159	3	10	0.04	1800	-3.573151	40.92392	-91.39363
359936	41	6	75	0.1766662	-0.04893668	0.4301326	0	11.63	4004	0	0	5	5	1.08285	0.1285476	3	10	0.04	1800	-3.198395	40.92392	-91.39363
360031	-53	121	30	0.1694406	-0.09885255	0.4303053	0	11.63	4003	0	0	5	5	1.08285	0.1339903	3	10	0.04	1800	-3.152069	40.92392	-91.39363
360143	192	59	-10	0.1933561	-0.07737473	0.4173931	0	11.63	4004	0	0	5	5	1.08285	0.1403008	3	10	0.04	1800	-3.348358	40.92392	-91.39363
360203	1	-101	23	0.1760538	-0.05447312	0.4174594	0	11.63	4002	0	0	5	5	1.08285	0.1436747	3	10	0.04	1800	-2.936127	40.92392	-91.39363
360307	-44	200	113	0.1665726	-0.02882361	0.40307	0	11.46	4004	0	0	5	5	1.08285	0.1443238	3	10	0.04	1800	-3.340576	40.92392	-91.39363
360472	-54	0	63	0.1786234	-0.06639501	0.3942015	0	11.46	4004	0	0	5	5	1.08285	0.1469353	3	10	0.04	1800	-3.845886	40.92392	-91.39363
360541	152	-183	-47	0.1643048	-0.0574952	0.4101547	0	11.46	4002	0	0	5	5	1.08285	0.1428075	3	10	0.04	1800	-3.77887	40.92392	-91.39363
360574	91	-17	-47	0.1770429	-0.0389901	0.3999549	0	11.46	4003	0	0	5	5	1.08285	0.1404793	3	10	0.04	1800	-2.897949	40.92392	-91.39363
360655	18	23	27	0.1136105	-0.007917236	0.3955362	0	11.46	4003	0	0	5	5	1.08285	0.1397087	3	10	0.04	1800	-3.501862	40.92392	-91.39363
360856	165	-84	173	0.06646319	0.1309681	0.3947902	0	11.46	4004	0	0	5	5	1.08285	0.1423274	3	10	0.04	1800	-3.18515	40.92392	-91.39363
361035	36	195	188	0.01795989	0.1356161	0.3924718	0	11.46	4003	0	0	5	5	1.08285	0.1290514	3	10	0.04	1800	-3.336823	40.92392	-91.39363
361147	-96	102	-246	-0.06085188	0.1343317	0.3959807	0	11.46	4003	0	0	5	5	1.08285	0.113663	3	10	0.04	1800	-3.141693	40.92392	-91.39363
361215	79	-335	-338	-0.03315797	0.3178974	0.3792217	0	11	4002	0	0	5	5	1.08285	0.1028412	3	10	0.04	1800	-3.49411	40.92392	-91.39363
361251	-103	-433	208	-0.04539165	0.4197897	0.3607002	0	11	4002	0	0	5	5	1.08285	0.08814981	3	10	0.04	1800	-3.49411	40.92392	-91.39363
361365	0	-159	227	-0.001256681	0.5822762	0.3196666	0	11	4002	0	0	5	5	1.08285	0.08090892	3	10	0.04	1800	-3.521271	40.92392	-91.39362
361440	-83	-139	148	-0.028517	0.5313816	0.3074865	0	11	4003	0	0	5	5	1.08285	0.07282579	3	10	0.04	1800	-3.031342	40.92392	-91.39362
361558	100	-96	-655	-0.08386603	0.3532387	0.3144601	0	11	4004	0	0	5	5	1.08285	0.0548028	3	10	0.04	1800	-2.93689	40.92392	-91.39362
361675	167	-99	-286	0.03936208	0.4413484	0.3286091	0	11	4003	0	0	5	5	1.08285	0.04986773	3	10	0.04	1800	-2.945862	40.92392	-91.39362
361778	56	-444	-306	0.004415787	0.2539479	0.2825917	0	11	4003	0	0	5	5	1.08285	0.05046211	3	10	0.04	1800	-3.303558	40.92392	-91.39362
361895	-34	-19	-522	-0.1645233	0.244331	0.28241	0	11	4004	0	0	5	5	1.08285	0.05311362	3	10	0.04	1800	-2.875366	40.92392	-91.39362
361937	-146	-165	80	-0.1573379	0.2331152	0.2635894	0	11	4003	0	0	5	5	1.08285	0.05479193	3	10	0.04	1800	-3.307098	40.92392	-91.39362
362155	210	288	-327	-0.1623939	0.1132791	0.220497	0	11.46	4004	0	0	5	5	1.08285	0.06284679	3	10	0.04	1800	-2.925751	40.92392	-91.39362
362314	173	485	-240	-0.2194467	0.1913927	0.1710707	0	11.46	4003	0	0	5	5	1.08285	0.0577601	3	10	0.04	1800	-2.81723	40.92392	-91.39362
362370	250	285	163	-0.1066045	0.1149853	0.1320921	0	11.46	4003	0	0	5	5	1.08285	0.05359145	3	10	0.04	1800	-3.244232	40.92392	-91.39362
362493	-89	-231	253	-0.1293127	-0.0562622	0.1332642	0	11.46	4004	0	0	5	5	1.08285	0.04507835	3	10	0.04	1800	-2.977753	40.92392	-91.39362
362575	11	278	518	-0.181539	0.2074534	0.09093697	0	11.46	4004	0	0	5	5	1.08285	0.0542355	3	10	0.04	1800	-2.907776	40.92392	-91.39362
362622	-291	-102	-322	-0.1498316	0.164187	0.1080209	0	11.46	4002	0	0	5	5	1.08285	0.05843071	3	10	0.04	1800	-3.076263	40.92392	-91.39362
362724	-21	176	150	-0.1620159	-0.07385622	0.1054292	0	11.46	4004	0	0	5	5	1.08285	0.08239841	3	10	0.04	1800	-2.428955	40.92392	-91.39362
362854	-122	210	777	-0.118729	0.3177745	0.02833102	0	11.46	4002	0	0	5	5	1.08285	0.1079132	3	10	0.04	1800	-2.393951	40.92392	-91.39362
362956	0	-200	124	-0.01665863	0.1055773	0.05217786	0	11.46	4003	0	0	5	5	1.08285	0.138009	3	10	0.04	1800	-3.107178	40.92392	-91.39362
363041	189	313	269	-0.1306281	0.23729	0.06232295	0	11.51	4004	0	0	5	5	1.08285	0.1553345	3	10	0.04	1800	-2.563934	40.92392	-91.39362
363214	-228	283	889	-0.1840042	0.2410244	0.02545004	0	11.51	4002	0	0	5	5	1.08285	0.1644421	3	10	0.04	1800	-3.292389	40.92392	-91.39362
363238	-110	-50	889	-0.1840042	0.2410244	0.02545004	0	11.51	4002	0	0	5	5	1.08285	0.162696	3	10	0.04	1800	-3.292389	40.92392	-91.39362
363361	-9	19	141	-0.1408801	0.2450789	0.03750347	0	11.51	4003	0	0	5	5	1.08285	0.1520542	3	10	0.04	1800	-2.812225	40.92392	-91.39362
363444	93	249	-22	-0.05741632	0.4239537	0.04948451	0	11.51	4003	0	0	5	5	1.08285	0.1452437	3	10	0.04	1800	-2.672852	40.92392	-91.39362
363575	92	391	75	-0.2908636	0.2975385	0.05707776	0	11.51	4003	0	0	5	5	1.08285	0.1333238	3	10	0.04	1800	-2.539734	40.92392	-91.39362
363745	-166	115	374	-0.4385479	0.2140022	-0.004042637	0	11.51	4004	0	0	5	5	1.08285	0.14579	3	10	0.04	1800	-2.843994	40.92392	-91.39362
363779	-295	-318	654	-0.4443684	0.08669221	-0.03397356	0	11.51	4004	0	0	5	5	1.08285	0.1518058	3	10	0.04	1800	-2.027252	40.92392	-91.39362
363846	92	-115	88	-0.4592509	0.02892702	-0.03183544	0	11.51	4003	0	0	5	5	1.08285	0.1742677	3	10	0.04	1800	-2.027252	40.92392	-91.39362
363963	11	290	-348	-0.4104787	0.06966722	-0.06310911	0	11.29	4002	0	0	5	5	1.08285	0.18746	3	10	0.04	1800	-2.431396	40.92392	-91.39362
364064	-115	126	190	-0.4000079	0.05976292	-0.09178711	0	11.29	4004	0	0	5	5	1.08285	0.195451	3	10	0.04	1800	-1.999969	40.92392	-91.39362
364162	65	-155	-130	-0.3090565	-0.1205133	-0.09044324	0	11.29	4002	0	0	5	5	1.08285	0.2073562	3	10	0.04	1800	-2.760529	40.92392	-91.39362
364382	-54	48	313	-0.4312003	-0.1199799	-0.1093107	0	11.29	4004	0	0	5	5	1.08285	0.2380786	3	10	0.04	1800	-2.192352	40.92392	-91.39362
364521	67	274	31	-0.4684053	-0.2955627	-0.1654598	0	11.29	4004	0	0	5	5	1.08285	0.2244944	3	10	0.04	1800	-3.267151	40.92392	-91.39362
364583	17	102	-217	-0.4562925	-0.01117035	-0.1558734	0	11.29	4004	0	0	5	5	1.08285	0.2135981	3	10	0.04	1800	-2.509735	40.92392	-91.39362
364644	85	-52	283	-0.4045505	-0.08768757	-0.1738456	0	11.29	4004	0	0	5	5	1.08285	0.2091586	3	10	0.04	1800	-2.509735	40.92392	-91.39362
364810	-126	-25	-604	-0.4714792	-0.09673319	-0.1670317	0	11.51	4003	0	0	5	5	1.08285	0.2041216	3	10	0.04	1800	-1.988342	40.92392	-91.39362
364869	-4	123	97	-0.6301174	-0.0226822	-0.1822902	0	11.51	4003	0	0	5	5	1.08285	0.1939395	8	10	0.04	1800	-2.130768	40.92392	-91.39362
364967	-205	-484	79	-0.4383148	0.374892	-0.2025053	0	11.51	4003	0	0	5	5	1.08285	0.1747024	8	10	0.04	1800	-1.963593	40.92392	-91.39362
365043	-374	-746	573	-0.5644746	0.4644436	-0.2628805	0	11.51	4003	0	0	5	5	1.08285	0.1571255	8	10	0.04	1800	-2.584381	40.92392	-91.39362
365201	-156	-895	641	-0.5067582	1.215677	-0.2355772	0	11.51	4002	0	0	5	5	1.08285	0.1470788	8	10	0.04	1800	-2.22406	40.92392	-91.39362
365261	2	300	-171	-0.4325553	1.0162	-0.5721406	0	11.51	4002	0	0	5	5	1.08285	0.1439243	8	10	0.04	1800	-1.973328	40.92392	-91.39362
365426	667	1325	98	-0.07672521	0.2656826	-0.5606372	0	11.51	4002	0	0	5	5	1.08285	0.1667503	8	10	0.04	1800	-1.034241	40.92392	-91.39362
365641	367	1493	296	0.5154708	-2.64458	-0.1279561	0	11.51	4003	0	2	5	5	1.08285	0.2021785	8	10	0.04	1800	-0.7229919	40.92392	-91.39362
365742	531	251	354	0.7297314	-3.88205	-0.05686415	0	10.83	4003	2	2	5	5	1.08285	0.2141202	8	10	0.04	1800	0.8109745	40.92392	-91.39362
365844	-789	1131	-84	0.7081482	-5.329996	-0.1258561	0	10.83	4004	0	2	5	5	1.08285	0.2278011	8	10	0.04	1800	0.8031664	40.92392	-91.39362
365997	-42	-1171	212	-0.1265379	-4.793156	0.1865645	0	10.83	4003	0	2	5	5	1.08285	0.2449058	8	10	0.04	1800	-0.151123	40.92392	-91.39362
366077	-685	-268	593	-0.4056111	-3.978783	0.01943389	0	10.83	4002	0	2	5	5	1.08285	0.2628705	8	10	0.04	1800	-0.6336975	40.92392	-91.39362
366171	-1154	-1071	-26	-1.0722	-2.722105	-0.1960867	0	10.83	4003	0	2	5	5	1.08285	0.266849	8	10	0.04	1800	0.02708898	40.92392	-91.39362
366264	244	178	285	-1.464169	-2.266233	-0.1709996	0	10.83	4004	0	2	5	5	1.08285	0.2664155	8	10	0.04	1800	0.2802118	40.92392	-91.39362
366357	-289	-785	-957	-1.688262	-1.486047	-0.1014632	0	10.83	4003	0	2	5	5	1.08285	0.2785672	8	10	0.04	1800	-0.0640564	40.92392	-91.39362
366425	-412	113	908	-1.673327	-1.562881	0.1750871	0	10.83	4003	0	2	5	5	1.08285	0.2813392	8	10	0.04	1800	0.1641385	40.92392	-91.39362
366621	-297	-129	44	-1.03546	-2.505295	-0.23255	0	11.29	4003	2	4	5	5	1.08285	0.3008979	8	10	0.04	1800	0.7045432	40.92392	-91.39362
366700	-655	2	234	-0.9525388	-2.911698	-0.04912027	0	11.29	4002	0	4	5	5	1.08285	0.3200408	8	10	0.04	1800	0.9079328	40.92392	-91.39362
366819	-107	334	605	-1.309911	-2.095646	-0.06660679	0	11.29	4003	0	4	5	5	1.08285	0.3330745	8	10	0.04	1800	-0.1274109	40.92392	-91.39362
366964	382	-471	-326	-0.365889	-1.967476	-0.08362266	0	11.29	4004	0	4	5	5	1.08285	0.3417782	8	10	0.04	1800	0.4654568	40.92392	-91.39362
367075	-284	-421	-101	-0.004821965	-1.50036	-0.009421092	0	11.29	4009	0	4	5	5	1.08285	0.3412622	8	10	0.04	1800	-0.6329956	40.92392	-91.39362
367190	-238	-439	894	-1.052115	-1.217472	-0.2988807	0	11.29	4003	0	4	5	5	1.08285	0.3372544	8	10	0.04	1800	0.01547675	40.92392	-91.39362
367292	-471	-1652	-269	-1.344196	-0.3952692	-0.2875223	0	11.29	4002	0	4	5	5	1.08285	0.3360128	8	10	0.04	1800	0.178601	40.92392	-91.39362
367473	-499	997	220	-1.809786	0.545995	-0.4606678	0	11.34	4002	0	4	5	5	1.08285	0.3360584	8	10	0.04	1800	-0.6794434	40.92392	-91.39362
367593	179	348	-697	-2.148881	0.2154964	-0.6610352	0	11.34	4004	0	4	5	5	1.08285	0.3698795	8	10	0.04	1800	0.4068343	40.92392	-91.39362
367735	623	907	-1002	-2.246683	-1.889478	-0.692169	0	11.34	4003	0	6	5	5	1.08285	0.3935	8	10	0.04	1800	0.7580478	40.92392	-91.39362
367819	-50	1497	58	-1.616284	-3.222715	-0.6016359	0	11.34	4004	0	4	5	5	1.08285	0.3912326	8	10	0.04	1800	1.147068	40.92392	-91.39362
367981	435	213	-676	-0.969098	-5.553536	0.3102541	0	11.34	4004	0	6	5	5	1.08285	0.3768339	8	10	0.04	1800	2.330779	40.92392	-91.39362
368074	205	-83	-253	-0.2283641	-6.618666	1.001393	0	11.34	4002	0	6	5	5	1.08285	0.366016	8	10	0.04	1800	1.144291	40.92392	-91.39362
368171	-208	3	-152	0.6741647	-7.200788	2.113624	0	11.34	4004	0	6	5	5	1.08285	0.3494756	8	10	0.04	1800	0.2623205	40.92392	-91.39362
368266	-852	-825	134	0.462033	-6.879582	1.787109	0	11.34	4004	0	6	5	5	1.08285	0.332694	8	10	0.04	1800	-0.1037598	40.92392	-91.39362
368443	-1699	-2292	-635	-3.405948	-3.537019	1.634424	0	10.21	4004	0	4	5	5	1.08285	0.3051044	8	10	0.04	1800	-1.791443	40.92392	-91.39362
