time(ms)	gyro_x(deg/s)	gyro_y(deg/s)	gyro_z(deg/s)	orientation_roll(deg)	orientation_pitch(deg)	orientation_yaw(deg)	throttle	battery(V)	loop_time(uS)	pid_output_roll	pid_output_pitch	pid_output_yaw	pid_output_throttle	ultrasonic_alt	baro_alt	flight_mode	p_gain_altitude	i_gain_altitude	d_gain_altitude	compass_heading	latitude	longitude
368557	-1686	-118	188	-6.102182	-1.76325	1.521765	0	10.21	4004	0	6	5	5	1.08285	0.2975216	8	10	0.04	1800	-2.463379	40.92392	-91.39362
368774	1234	1258	1477	-9.189497	-2.107173	0.5364745	0	10.21	4002	0	6	5	5	1.08285	0.3063651	8	10	0.04	1800	-2.169983	40.92392	-91.39362
368877	1323	523	-1096	-5.311008	-4.28091	-0.1108832	0	10.21	4002	0	6	5	5	1.08285	0.3323303	8	10	0.04	1800	-1.082123	40.92392	-91.39362
368981	1701	-1092	557	-3.289568	-4.476041	1.256681	0	10.21	4003	0	4	5	5	1.08285	0.3478832	8	10	0.04	1800	-0.3430176	40.92392	-91.39362
369079	488	-484	1598	-0.1957789	-2.650907	-0.3355593	0	10.21	4003	0	6	5	5	1.08285	0.3528253	8	10	0.04	1800	0.7097996	40.92392	-91.39362
369303	1151	-502	-121	4.658613	-2.360956	-0.0550647	0	10.21	4002	2	6	5	5	1.08285	0.3664392	8	10	0.04	1800	2.310158	40.92392	-91.39362
369410	-713	-792	-2352	6.076921	-1.577745	1.542456	0	11.34	4002	2	6	5	5	1.08285	0.3672154	8	10	0.04	1800	1.384489	40.92392	-91.39362
369527	-1862	-499	-837	3.538166	-0.7741441	4.68884	0	11.34	4003	2	4	5	5	1.08285	0.3557155	8	10	0.04	1800	-3.111664	40.92392	-91.39362
369636	-2375	17	9	1.498463	-1.163751	4.871418	0	11.34	4004	2	4	5	5	1.08285	0.3390729	8	10	0.04	1800	-4.471619	40.92392	-91.39362
369749	-731	74	1186	-2.072336	-1.241642	3.243212	0	11.34	4004	0	6	5	5	1.08285	0.3218275	8	10	0.04	1800	-4.930817	40.92392	-91.39362
369899	-843	-272	196	-3.458066	-1.97638	1.728481	0	11.34	4004	0	6	5	5	1.08285	0.3176763	8	10	0.04	1800	-5.070496	40.92392	-91.39362
370139	-719	1165	1159	-5.008983	-2.112991	0.6467493	0	11.34	4004	2	4	5	5	1.08285	0.2962397	8	10	0.04	1800	-3.075684	40.92392	-91.39362
370266	1612	1987	-537	-4.472172	-4.303684	0.7022746	0	10.77	4003	4	4	5	5	1.08285	0.2934605	8	10	0.04	1800	-2.656006	40.92392	-91.39362
370335	-13	-728	60	-3.913673	-5.428409	1.368148	0	10.77	4002	4	4	5	5	1.08285	0.2903413	8	10	0.04	1800	-3.444702	40.92392	-91.39362
370502	57	-149	28	-2.94888	-6.468407	-0.1922999	0	10.77	4003	2	4	5	5	1.08285	0.2794883	8	10	0.04	1800	-2.67749	40.92392	-91.39362
370623	1001	20	554	-1.65545	-6.713677	-1.046412	0	10.77	4002	2	4	5	5	1.08285	0.2715975	8	10	0.04	1800	-1.128723	40.92392	-91.39362
370720	173	320	780	-1.007017	-6.346131	-1.07399	0	10.77	4003	2	4	5	5	1.08285	0.2672263	8	10	0.04	1800	0.0228707	40.92392	-91.39362
370807	1061	-1346	-635	0.08699325	-4.814838	-0.1954706	0	10.77	4003	2	4	5	5	1.08285	0.2716295	8	10	0.04	1800	0.1995399	40.92392	-91.39362
370979	-761	73	1280	0.5120662	-3.544767	0.002634071	0	10.77	4002	2	4	5	5	1.08285	0.2740175	8	10	0.04	1800	0.1839957	40.92392	-91.39362
371068	435	1193	-522	0.7612668	-3.930511	0.4771895	0	10.77	4003	2	4	5	5	1.08285	0.2626734	8	10	0.04	1800	0.4911747	40.92392	-91.39362
371133	-253	1085	601	1.148253	-4.484592	1.066369	0	10.77	4002	5	4	5	5	1.08285	0.259928	8	10	0.04	1800	-1.225525	40.92392	-91.39362
371219	-850	696	-542	-0.257689	-6.173186	1.341338	0	11	4003	4	4	5	5	1.08285	0.2592722	8	10	0.04	1800	-0.7008667	40.92392	-91.39362
371388	425	-1184	-272	-1.588558	-4.807175	0.9062857	0	11	4004	2	0	5	5	1.08285	0.2434915	8	10	0.04	1800	-2.382721	40.92392	-91.39362
371441	-307	-2000	276	-1.063547	-1.705366	0.6494722	0	11	4002	2	0	5	5	1.08285	0.2252744	8	10	0.04	1800	-2.382721	40.92392	-91.39362
371594	1697	604	-1259	-0.7666659	-0.7359763	0.9093046	0	11	4003	2	2	5	5	1.08285	0.2002346	8	10	0.04	1800	-1.513397	40.92392	-91.39362
371706	-652	-1769	330	0.5350552	-0.4933513	1.340756	0	11	4003	2	2	5	5	1.08285	0.1807823	8	10	0.04	1800	-1.096954	40.92392	-91.39362
371772	-10	-303	538	0.5534727	-0.0839181	1.381611	0	11	4002	2	2	5	5	1.08285	0.1740478	8	10	0.04	1800	-0.5323486	40.92392	-91.39362
371877	162	1142	-160	-0.615202	-2.717867	0.5137445	0	11	4003	2	2	5	5	1.08285	0.1684266	8	10	0.04	1800	-1.204071	40.92392	-91.39362
371989	227	-303	1333	-0.1201884	-4.017236	-1.343543	0	11	4004	2	2	5	5	1.08285	0.1661322	8	10	0.04	1800	-1.955017	40.92392	-91.39362
372126	438	1253	-7	1.180981	-3.694877	-3.108261	0	11.34	4004	2	2	5	5	1.08285	0.1713108	8	10	0.04	1800	-1.630707	40.92392	-91.39362
372215	-144	433	-437	1.597802	-4.645558	-2.416964	0	11.34	4004	2	2	5	5	1.08285	0.1803155	8	10	0.04	1800	-1.869629	40.92392	-91.39362
372327	-169	204	-1376	1.590882	-6.43484	-0.3509156	0	11.34	4004	2	2	5	5	1.08285	0.1845082	8	10	0.04	1800	-1.596954	40.92392	-91.39362
372424	-1953	826	372	0.4337367	-7.644028	1.001254	0	11.34	4003	2	2	5	5	1.08285	0.1939967	8	10	0.04	1800	-3.220947	40.92392	-91.39362
372591	471	-1037	226	-1.121374	-5.741094	0.4442149	0	11.34	4002	4	0	5	5	1.08285	0.2224624	8	10	0.04	1800	-2.474335	40.92392	-91.39362
372743	-744	2378	415	-0.6277854	-4.028119	0.8624154	0	11.34	4004	4	0	5	5	1.08285	0.2358544	8	10	0.04	1800	-2.129395	40.92392	-91.39362
372876	-157	3414	221	-0.3976026	-8.911867	2.464456	0	11.34	4004	4	0	5	5	1.08285	0.2409327	8	10	0.04	1800	-1.897858	40.92392	-91.39362
373073	588	-2024	-369	0.7727008	-12.64212	-0.2357936	0	11.29	4003	4	0	5	5	1.08285	0.2517227	8	10	0.04	1800	-2.174469	40.92392	-91.39362
373173	-547	-2490	361	0.5627413	-7.393786	-0.3083943	0	11.29	4002	4	0	5	5	1.08285	0.2460949	8	10	0.04	1800	-1.688293	40.92392	-91.39362
373279	-30	-928	383	-0.1010451	-5.080519	-0.477168	0	11.29	4003	4	0	5	5	1.08285	0.243349	8	10	0.04	1800	-2.422363	40.92392	-91.39362
373425	-318	-1911	292	-0.3293701	-1.780786	-1.118294	0	11.29	4003	4	0	5	5	1.08285	0.2398421	8	10	0.04	1800	0.1825653	40.92392	-91.39362
373518	-1024	-663	-1021	-0.9705315	-0.8576129	-0.8530596	0	11.29	4002	4	0	5	5	1.08285	0.2397123	8	10	0.04	1800	0.1002933	40.92392	-91.39362
373586	-714	-1217	196	-1.403826	-0.7545201	0.2244686	0	11.29	4003	4	0	5	5	1.08285	0.238087	8	10	0.04	1800	-0.7089539	40.92392	-91.39362
373723	-487	1736	-1055	-3.401808	-0.6456792	0.3872663	0	11.29	4002	4	2	5	5	1.08285	0.2367806	8	10	0.04	1800	-0.4914551	40.92392	-91.39362
373829	1023	-954	-786	-2.332826	-4.576474	0.9776306	0	11.29	4003	4	2	5	5	1.08285	0.240896	8	10	0.04	1800	-0.4387207	40.92392	-91.39362
373993	-130	1880	1227	-3.978709	-4.770201	0.1651012	0	10.94	4003	4	2	5	5	1.08285	0.2499678	8	10	0.04	1800	0.00840904	40.92392	-91.39362
374078	2705	1173	-287	-2.243794	-6.171225	0.169144	0	10.94	4004	7	-1	5	5	1.08285	0.2550658	8	10	0.04	1800	-0.2671509	40.92392	-91.39362
374202	-303	2833	634	-1.518347	-7.983143	-0.2917019	0	10.94	4004	6	0	5	5	1.08285	0.2672587	8	10	0.04	1800	0.767245	40.92392	-91.39362
374276	1458	458	-309	-0.5485106	-8.424378	0.6375865	0	10.94	4003	2	2	5	5	1.08285	0.2699593	8	10	0.04	1800	0.7320569	40.92392	-91.39362
374327	-1234	779	-1163	-1.885617	-9.05527	0.8108583	0	10.94	4003	4	2	5	5	1.08285	0.2688513	8	10	0.04	1800	2.034679	40.92392	-91.39362
374473	989	-575	530	-0.8822691	-8.398843	1.003289	0	10.94	4003	6	0	5	5	1.08285	0.260796	8	10	0.04	1800	1.184368	40.92392	-91.39362
374524	956	-626	973	-0.5393956	-7.581267	0.815627	0	10.94	4002	6	0	5	5	1.08285	0.2596069	8	10	0.04	1800	2.297474	40.92392	-91.39362
374690	-362	127	-240	-1.783218	-5.759904	0.04411609	0	10.94	4003	4	2	5	5	1.08285	0.2476275	8	10	0.04	1800	2.11941	40.92392	-91.39362
374780	-1200	-940	40	-2.627283	-5.389678	-0.3814745	0	10.94	4004	4	2	5	5	1.08285	0.2393394	8	10	0.04	1800	2.780765	40.92392	-91.39362
374836	-1223	-1788	712	-2.897365	-4.398153	-0.4203551	0	10.94	4003	6	2	5	5	1.08285	0.2352595	8	10	0.04	1800	2.793009	40.92392	-91.39362
375004	-617	810	-1168	-3.464082	-1.89898	1.333215	0	11.34	4002	6	2	5	5	1.08285	0.2238546	8	10	0.04	1800	0.5385326	40.92392	-91.39362
375159	-589	-542	1026	-4.631626	-0.8560517	1.300658	0	11.34	4003	6	0	5	5	1.08285	0.2212276	8	10	0.04	1800	-0.769043	40.92392	-91.39362
375267	-1028	1675	409	-3.49752	-0.9250277	1.26538	0	11.34	4004	6	2	5	5	1.08285	0.2253565	8	10	0.04	1800	-1.581421	40.92392	-91.39362
375410	-897	-1002	50	-6.294653	-2.462324	0.9148079	0	11.34	4002	8	2	5	5	1.08285	0.2321504	8	10	0.04	1800	-3.111298	40.92392	-91.39362
375485	89	-1368	699	-5.766671	-2.283903	1.199387	0	11.34	4003	8	2	5	5	1.08285	0.2358079	8	10	0.04	1800	-2.985779	40.92392	-91.39362
375571	-1584	944	-568	-6.345436	-2.571704	1.057312	0	11.34	4002	9	2	5	5	1.08285	0.2390719	8	10	0.04	1800	-3.837769	40.92392	-91.39362
375654	2571	1846	507	-5.695536	-5.507786	1.131976	0	11.34	4003	8	2	5	5	1.08285	0.2419313	8	10	0.04	1800	-4.73761	40.92392	-91.39362
375785	1502	869	11	-1.662048	-8.565144	1.296345	0	11.34	4003	9	2	5	5	1.08285	0.2437135	8	10	0.04	1800	-5.726013	40.92392	-91.39362
375972	821	-1909	592	-1.278543	-3.592078	1.031396	0	10.6	4002	10	2	5	5	1.08285	0.2452804	8	10	0.04	1800	-4.943085	40.92392	-91.39362
376143	312	1206	-1861	2.957866	-9.162612	0.6646395	0	10.6	4003	8	2	5	5	1.08285	0.2336506	8	10	0.04	1800	-3.990356	40.92392	-91.39362
376272	-2939	-1563	-979	0.07743382	-8.428221	6.361724	0	10.6	4002	8	2	5	5	1.08285	0.2060266	8	10	0.04	1800	-6.319458	40.92392	-91.39362
376441	668	-761	2813	-6.162766	-4.041285	0.5843611	0	10.6	4004	11	2	5	5	1.08285	0.1978211	8	10	0.04	1800	-7.578613	40.92392	-91.39362
376501	1744	-784	902	-4.632534	-3.311829	-1.060557	0	10.6	4004	10	2	5	5	1.08285	0.2004756	8	10	0.04	1800	-6.082886	40.92392	-91.39362
376593	-209	-545	547	-3.694165	-2.698567	-1.33484	0	10.6	4004	12	2	5	5	1.08285	0.2097959	8	10	0.04	1800	-6.441162	40.92392	-91.39362
376679	659	-373	-395	-4.702124	-1.596164	0.3557091	0	10.6	4002	10	2	5	5	1.08285	0.214656	8	10	0.04	1800	-4.047546	40.92392	-91.39362
376875	951	501	-19	-4.145979	-1.520514	1.352013	0	11.29	4002	12	2	5	5	1.08285	0.2149409	8	10	0.04	1800	-5.032898	40.92392	-91.39362
376997	1298	229	575	-3.332211	-2.975289	1.096939	0	11.29	4004	12	2	5	5	1.08285	0.2153071	8	10	0.04	1800	-4.137268	40.92392	-91.39362
377105	149	1606	571	-2.251335	-3.935189	1.292622	0	11.29	4002	12	2	5	5	1.08285	0.2254842	8	10	0.04	1800	-3.933228	40.92392	-91.39362
377230	1112	-829	851	-2.717403	-5.507941	1.455493	0	11.29	4004	14	2	5	5	1.08285	0.2299298	8	10	0.04	1800	-3.394501	40.92392	-91.39362
377287	1053	-1416	251	-1.388153	-4.339046	1.21147	0	11.29	4002	14	2	5	5	1.08285	0.2389794	8	10	0.04	1800	-3.59729	40.92392	-91.39362
377409	-252	-1353	551	-2.092777	-2.587107	0.04428378	0	11.29	4003	14	-1	5	5	1.08285	0.264472	8	10	0.04	1800	-0.6377563	40.92392	-91.39362
377466	1086	1411	298	-0.8201379	-1.902799	0.3767878	0	11.29	4004	14	0	5	5	1.08285	0.2688266	8	10	0.04	1800	-0.8982849	40.92392	-91.39362
377597	-963	-4990	152	-2.912674	4.022454	0.3038157	0	11.29	4004	14	0	5	5	1.08285	0.285495	8	10	0.04	1800	1.947603	40.92392	-91.39362
377716	338	6646	683	-0.471503	0.06099501	0.4834875	0	11.23	4004	14	0	5	5	1.08285	0.3005306	8	10	0.04	1800	1.410026	40.92392	-91.39362
377747	-837	6735	114	-0.5949633	-3.742556	0.1938427	0	11.23	4002	16	-1	5	5	1.08285	0.3037194	8	10	0.04	1800	1.410026	40.92392	-91.39362
377919	698	489	368	-3.845189	-10.06303	-0.3861768	0	11.23	4002	16	0	5	5	1.08285	0.293005	8	10	0.04	1800	2.296823	40.92392	-91.39362
377972	1205	1855	-161	-3.195552	-12.45168	0.3204467	0	11.23	4003	16	2	5	5	1.08285	0.2905314	8	10	0.04	1800	1.951016	40.92392	-91.39362
378057	644	-120	725	-2.093295	-12.50975	1.386335	0	11.23	4004	16	2	5	5	1.08285	0.2754709	8	10	0.04	1800	2.137488	40.92392	-91.39362
378219	-470	-1752	-731	-3.576151	-7.263537	1.950838	0	11.23	4003	16	2	5	5	1.08285	0.2693761	8	10	0.04	1800	1.222798	40.92392	-91.39362
378371	-419	-3751	172	-3.983222	-0.01123283	0.7675613	0	11.23	4003	21	2	5	5	1.08285	0.2782811	8	10	0.04	1800	1.745777	40.92392	-91.39362
378481	469	1306	780	-1.916133	-2.273605	0.9223866	0	11.23	4003	18	2	5	5	1.08285	0.2922535	8	10	0.04	1800	2.248847	40.92392	-91.39362
378604	298	337	-629	-3.115767	-2.793832	1.26595	0	10.6	4004	18	2	5	5	1.08285	0.3084952	8	10	0.04	1800	2.906455	40.92392	-91.39362
378694	-1135	-529	1101	-2.48727	-3.113519	0.920384	0	10.6	4003	21	2	5	5	1.08285	0.3289832	8	10	0.04	1800	1.549178	40.92392	-91.39362
378813	-1791	749	-574	-5.440087	-3.593819	0.5753453	0	10.6	4003	20	2	5	5	1.08285	0.3388934	8	10	0.04	1800	0.6375653	40.92392	-91.39362
378899	75	861	-600	-5.105803	-5.492976	0.846629	0	10.6	4004	18	2	5	5	1.08285	0.346151	8	10	0.04	1800	-0.7720032	40.92392	-91.39362
378974	-493	-946	-10	-5.619998	-4.871795	0.9090017	0	10.6	4004	18	2	5	5	1.08285	0.3600251	8	10	0.04	1800	-0.3970032	40.92392	-91.39362
379166	-1240	1787	539	-5.574491	-8.302255	0.529793	0	10.6	4004	22	4	5	5	1.08285	0.3665989	8	10	0.04	1800	-1.393158	40.92392	-91.39362
379243	2746	-2122	1830	-3.90681	-7.98008	-0.1185899	0	10.6	4003	20	4	5	5	1.08285	0.3637439	8	10	0.04	1800	-1.394592	40.92392	-91.39362
379353	795	-47	-1023	-1.13982	-9.004601	-1.580272	0	10.6	4003	20	4	5	5	1.08285	0.3468951	8	10	0.04	1800	-0.510437	40.92392	-91.39362
379435	-291	-3083	-2296	-2.542259	-3.843386	1.264403	0	10.6	4004	20	4	5	5	1.08285	0.3263704	8	10	0.04	1800	-1.347168	40.92392	-91.39362
379534	36	907	-8	-2.838685	-2.348324	1.718167	0	10.6	4003	20	4	5	5	1.08285	0.2895205	8	10	0.04	1800	-3.922333	40.92392	-91.39362
379644	-333	-1091	833	-2.23007	-2.255085	1.033971	0	10.6	4004	24	4	5	5	1.08285	0.2721963	8	10	0.04	1800	-3.256866	40.92392	-91.39362
379702	-735	-107	887	-2.516651	-1.812197	0.5744973	0	10.6	4003	20	4	5	5	1.08285	0.2667336	8	10	0.04	1800	-3.256866	40.92392	-91.39362
379780	-1274	4369	1078	-3.486712	-7.228588	-0.4203532	0	10.6	4004	20	6	5	5	1.08285	0.259135	8	10	0.04	1800	-1.710693	40.92392	-91.39362
379907	1448	-206	-614	-3.952851	-9.377672	0.1361644	0	10.6	4003	24	7	5	5	1.08285	0.2549869	8	10	0.04	1800	-0.5393372	40.92392	-91.39362
379990	-915	-650	364	-3.452121	-7.017205	0.2718596	0	10.6	4002	20	6	5	5	1.08285	0.2528509	8	10	0.04	1800	-2.904114	40.92392	-91.39362
380137	-561	-323	121	-3.255229	-5.123125	0.3853971	0	10.6	4002	20	6	5	5	1.08285	0.2542636	8	10	0.04	1800	-2.874603	40.92392	-91.39362
380228	19	-1750	127	-2.36815	-1.347962	1.153512	0	10.6	4002	20	6	5	5	1.08285	0.2695616	8	10	0.04	1800	-2.445465	40.92392	-91.39362
380289	-573	-3129	-1193	-2.811593	-0.4891906	1.336664	0	10.6	4004	20	6	5	5	1.08285	0.2800814	8	10	0.04	1800	-2.445465	40.92392	-91.39362
380482	-2242	463	238	-2.191314	-4.801727	0.7773593	0	10.89	4003	20	4	5	5	1.08285	0.3010019	8	10	0.04	1800	-2.975037	40.92392	-91.39362
380568	1256	518	544	-2.236475	-4.335846	0.7557875	0	10.89	4002	20	8	5	5	1.08285	0.3081243	8	10	0.04	1800	-3.471039	40.92392	-91.39362
380705	-448	-1487	264	-2.241754	-1.973489	1.016685	0	10.89	4004	20	8	5	5	1.08285	0.3155185	8	10	0.04	1800	-2.552429	40.92392	-91.39362
380774	-345	468	366	-2.298036	-1.344085	1.281768	0	10.89	4002	20	8	5	5	1.08285	0.3199778	8	10	0.04	1800	-3.227905	40.92392	-91.39362
380964	146	264	428	-1.807379	-1.342348	1.26399	0	10.89	4002	20	6	5	5	1.08285	0.3295633	8	10	0.04	1800	-3.294525	40.92392	-91.39362
381050	-2654	-1376	591	-0.9877396	-1.864876	0.9312149	0	10.89	4004	20	6	5	5	1.08285	0.3307611	8	10	0.04	1800	-2.909271	40.92392	-91.39362
381104	532	-372	-965	-1.453045	-1.189893	0.7853153	0	10.89	4004	20	8	5	5	1.08285	0.3246781	8	10	0.04	1800	-3.135956	40.92392	-91.39362
381184	-896	1203	-164	-1.858941	-2.738336	0.4609295	0	10.89	4002	20	8	5	5	1.08285	0.3185029	8	10	0.04	1800	-2.624603	40.92392	-91.39362
381263	-420	1169	-854	-2.852841	-4.330873	0.8202439	0	10.89	4004	20	8	5	5	1.08285	0.3156558	8	10	0.04	1800	-3.171875	40.92392	-91.39362
381424	-183	1729	172	-2.682791	-8.818915	1.281587	0	9.98	4003	20	10	5	5	1.08285	0.3030896	8	10	0.04	1800	-2.588531	40.92393	-91.39362
381581	442	-2391	-289	-1.908911	-1.483974	0.1403247	0	9.98	4003	20	10	5	5	1.08285	0.2878094	8	10	0.04	1800	-1.660339	40.92393	-91.39362
381689	-326	-1927	-799	-2.162431	0.03971981	-0.1089887	0	9.98	4002	20	10	5	5	1.08285	0.2904647	8	10	0.04	1800	-0.8982849	40.92393	-91.39362
381818	11	1361	487	-3.109221	-2.543936	0.04847453	0	9.98	4004	22	10	5	5	1.08285	0.3102828	8	10	0.04	1800	-1.24472	40.92393	-91.39362
381909	1409	-671	-802	-1.573149	-2.521372	0.6306477	0	9.98	4003	22	10	5	5	1.08285	0.3187679	8	10	0.04	1800	-1.891235	40.92393	-91.39362
382030	-286	-517	507	-2.195243	-0.9018616	0.5644417	0	9.98	4002	20	12	5	5	1.08285	0.3343569	8	10	0.04	1800	-1.361481	40.92393	-91.39362
382078	896	616	888	-1.438042	-0.8046602	0.6132666	0	9.98	4002	20	12	5	5	1.08285	0.3451844	8	10	0.04	1800	-1.108276	40.92393	-91.39362
382232	-2050	277	802	-1.729999	-3.67404	0.6368341	0	11	4004	20	12	5	5	1.08285	0.3531661	8	10	0.04	1800	-0.5624084	40.92393	-91.39362
382285	-1267	1961	1074	-4.322304	-4.697449	0.5023452	0	11	4002	20	12	5	5	1.08285	0.3518685	8	10	0.04	1800	-0.09674072	40.92393	-91.39362
382357	-1238	2026	535	-5.4225	-6.185055	0.186541	0	11	4003	22	10	5	5	1.08285	0.347762	8	10	0.04	1800	-1.334137	40.92393	-91.39362
382566	-950	-1739	1021	-4.301332	-6.507574	-0.05149162	0	11	4003	22	12	5	5	1.08285	0.3288867	8	10	0.04	1800	-4.130371	40.92393	-91.39362
382673	-13	543	-1277	-3.506738	-4.32162	-0.2751604	0	11	4003	22	12	5	5	1.08285	0.3123462	8	10	0.04	1800	-4.049286	40.92393	-91.39362
382765	783	1192	197	-2.397337	-6.64022	0.08335648	0	11	4004	20	12	5	5	1.08285	0.27672	8	10	0.04	1800	-4.556061	40.92393	-91.39362
382977	-283	-2018	-2015	-3.498688	-2.859892	1.240231	0	11	4004	20	12	5	5	1.08285	0.2475116	8	10	0.04	1800	-5.355072	40.92393	-91.39362
383189	125	-1094	-1187	-3.122719	-4.820511	0.5766461	0	10.6	4002	20	12	5	5	1.08285	0.2215351	8	10	0.04	1800	-4.454926	40.92393	-91.39362
383365	333	-691	-785	-0.9666664	-3.645982	1.002378	0	10.6	4004	20	12	5	5	1.08285	0.2080304	8	10	0.04	1800	-3.747803	40.92393	-91.39362
383419	-769	-1300	25	-1.353189	-3.34015	0.9832888	0	10.6	4003	20	12	5	5	1.08285	0.2194618	8	10	0.04	1800	-3.747803	40.92393	-91.39362
383519	-303	-530	3	-2.694347	-2.58552	0.8834561	0	10.6	4003	20	12	5	5	1.08285	0.258071	8	10	0.04	1800	-3.613861	40.92393	-91.39362
383617	181	-716	146	-3.226017	0.5312567	1.328162	0	10.6	4002	20	12	5	5	1.08285	0.2879758	8	10	0.04	1800	-3.210052	40.92393	-91.39362
383653	106	-202	-671	-3.353367	0.1321796	1.169128	0	10.6	4002	20	12	5	5	1.08285	0.2973668	8	10	0.04	1800	-2.377014	40.92393	-91.39362
383758	-883	1492	1704	-3.716671	-1.602677	0.4196897	0	10.6	4003	20	12	5	5	1.08285	0.3424221	8	10	0.04	1800	-3.01767	40.92393	-91.39362
383871	777	-1883	-149	-3.454819	-1.478882	0.247936	0	10.6	4002	20	14	5	5	1.08285	0.3628963	8	10	0.04	1800	-2.532074	40.92393	-91.39362
384004	-458	-698	-239	-2.005365	-1.229754	0.7547498	0	10.6	4002	20	11	5	5	1.08285	0.3754065	8	10	0.04	1800	-3.187195	40.92393	-91.39362
384164	-673	1290	451	-0.6832255	-1.992821	2.171631	0	10.89	4002	20	14	5	5	1.08285	0.3767479	8	10	0.04	1800	-2.813934	40.92393	-91.39362
384218	-2381	933	847	-1.661835	-2.77357	1.974601	0	10.89	4003	20	14	5	5	1.08285	0.3718698	8	10	0.04	1800	-2.813934	40.92393	-91.39362
384262	1146	486	1125	-1.76852	-3.472618	1.401689	0	10.89	4003	20	14	5	5	1.08285	0.3645643	8	10	0.04	1800	-2.738983	40.92393	-91.39362
384377	-567	383	790	-1.96406	-4.221256	0.5249209	0	10.89	4002	20	14	5	5	1.08285	0.3383676	8	10	0.04	1800	-0.4732361	40.92393	-91.39362
384501	-1069	-6177	-434	-2.786851	-2.048249	0.1183131	0	10.89	4003	20	11	5	5	1.08285	0.3138844	8	10	0.04	1800	-0.09832764	40.92393	-91.39362
384608	-1277	832	385	-2.936458	2.05931	-0.4928741	0	10.89	4003	24	14	5	5	1.08285	0.2966308	8	10	0.04	1800	-1.218445	40.92393	-91.39362
384657	-1297	1847	-470	-3.567132	0.9627427	-0.400934	0	10.89	4003	20	12	5	5	1.08285	0.2987653	8	10	0.04	1800	-1.218445	40.92393	-91.39362
384767	-343	923	-1576	-2.83799	-6.170001	0.9616967	0	10.89	4004	20	14	5	5	1.08285	0.2908397	8	10	0.04	1800	-2.147736	40.92393	-91.39362
384887	-340	-145	-30	-1.99817	-6.734118	1.512299	0	10.89	4003	20	11	5	5	1.08285	0.2473675	8	10	0.04	1800	-2.296326	40.92393	-91.39362
384956	-111	-1365	-191	-1.959114	-5.407325	1.224707	0	10.89	4003	20	12	5	5	1.08285	0.2210852	8	10	0.04	1800	-2.44931	40.92393	-91.39362
385074	-982	1220	1889	-2.207552	-6.338834	0.5123509	0	10.21	4003	20	14	5	5	1.08285	0.1805289	8	10	0.04	1800	-2.226868	40.92393	-91.39362
385153	-455	-179	866	-2.167425	-5.5514	0.08190398	0	10.21	4003	20	14	5	5	1.08285	0.1767361	8	10	0.04	1800	-1.907257	40.92393	-91.39362
385283	42	-503	-407	-1.086469	-2.579179	0.04449894	0	10.21	4002	22	14	5	5	1.08285	0.1576272	8	10	0.04	1800	-3.101074	40.92393	-91.39362
385409	-271	-992	72	-0.8076373	-2.442354	0.9073498	0	10.21	4002	22	14	5	5	1.08285	0.1585605	8	10	0.04	1800	-4.254944	40.92393	-91.39362
385475	-927	-144	1293	-1.943322	-1.090419	1.18109	0	10.21	4003	20	16	5	5	1.08285	0.1626892	8	10	0.04	1800	-2.342773	40.92393	-91.39362
385623	322	1425	510	-2.129263	-6.453045	0.5644613	0	10.21	4003	18	16	5	5	1.08285	0.1710803	8	10	0.04	1800	-2.802094	40.92393	-91.39362
385709	1913	707	-172	-1.032647	-7.227189	1.700785	0	10.21	4004	18	16	5	5	1.08285	0.1824988	8	10	0.04	1800	-1.467255	40.92393	-91.39362
385799	-261	612	1004	-0.007236655	-7.59898	2.53672	0	10.21	4002	18	16	5	5	1.08285	0.1992633	8	10	0.04	1800	-0.7456055	40.92393	-91.39362
385842	-934	502	88	-0.3261475	-7.324486	2.531116	0	10.21	4002	18	16	5	5	1.08285	0.2092127	8	10	0.04	1800	-0.7456055	40.92393	-91.39362
385936	-49	-1660	-570	-3.195087	-7.287982	0.9201735	0	10.43	4004	18	16	5	5	1.08285	0.2334974	8	10	0.04	1800	-0.04623413	40.92393	-91.39362
386088	273	-355	-734	-1.38703	-3.42923	1.070962	0	10.43	4003	18	16	5	5	1.08285	0.2648333	8	10	0.04	1800	0.8156428	40.92393	-91.39362
386176	-1187	-915	-153	-2.371599	-3.219474	1.161637	0	10.43	4004	18	16	5	5	1.08285	0.3133108	8	10	0.04	1800	1.059295	40.92393	-91.39362
386322	-2039	36	1041	-5.961314	-2.271358	0.9499797	0	10.43	4003	18	16	5	5	1.08285	0.3486174	8	10	0.04	1800	0.5406457	40.92393	-91.39362
386395	-600	-2275	-377	-7.293634	-2.536882	0.8929238	0	10.43	4003	20	16	5	5	1.08285	0.38634	8	10	0.04	1800	0.5794342	40.92393	-91.39362
386508	-527	716	-71	-7.529956	-0.9018852	0.7361925	0	10.43	4003	21	16	5	5	1.08285	0.4247088	8	10	0.04	1800	0.0514856	40.92393	-91.39362
386524	-317	2596	1427	-7.271844	-2.006488	0.5245843	0	10.43	4003	20	16	5	5	1.08285	0.4247088	8	10	0.04	1800	0.0514856	40.92393	-91.39362
386618	1255	2363	748	-4.976161	-5.653867	0.7524257	0	10.43	4003	20	16	5	5	1.08285	0.4357197	8	10	0.04	1800	-2.140961	40.92393	-91.39362
386796	-202	3729	463	-4.078182	-12.18792	0.8557717	0	10.77	4002	21	16	5	5	1.08285	0.4406935	8	10	0.04	1800	-4.156738	40.92393	-91.39362
386862	172	1273	-24	-4.20912	-13.56834	1.138333	0	10.77	4003	18	13	5	5	1.08285	0.4372229	8	10	0.04	1800	-3.888306	40.92393	-91.39362
386925	427	-1383	-493	-3.61404	-12.76219	1.225803	0	10.77	4004	18	14	5	5	1.08285	0.4332108	8	10	0.04	1800	-4.226196	40.92393	-91.39362
387092	674	-655	272	-2.464112	-13.19099	0.6145211	0	10.77	4003	18	14	5	5	1.08285	0.4055926	8	10	0.04	1800	-4.346405	40.92393	-91.39362
387145	580	-3031	-1350	-2.402897	-9.431023	1.663032	0	10.77	4004	18	14	5	5	1.08285	0.3869568	8	10	0.04	1800	-2.932434	40.92393	-91.39362
387248	-2046	1155	516	-2.051404	-6.842071	1.901401	0	10.77	4004	18	16	5	5	1.08285	0.3703845	8	10	0.04	1800	-4.24054	40.92393	-91.39362
387412	-457	2574	2222	-0.2073266	-8.758956	-0.06710461	0	10.77	4003	18	14	5	5	1.08285	0.3167575	8	10	0.04	1800	-4.068176	40.92393	-91.39362
387552	479	-3185	-804	1.279211	-10.37422	-1.200803	0	10.77	4004	18	14	5	5	1.08285	0.2945205	8	10	0.04	1800	-0.6190186	40.92393	-91.39362
387615	-1779	-1886	-1939	0.02786427	-4.70293	0.5971747	0	11.23	4002	18	14	5	5	1.08285	0.2783349	8	10	0.04	1800	-0.656311	40.92393	-91.39362
387679	-718	-2126	-1536	-0.9574827	-3.642802	1.4738	0	11.23	4004	18	14	5	5	1.08285	0.261535	8	10	0.04	1800	-2.053284	40.92393	-91.39362
387832	-2516	-81	379	-1.821619	-2.772212	1.503961	0	11.23	4003	20	14	5	5	1.08285	0.2297896	8	10	0.04	1800	-3.884186	40.92393	-91.39362
387874	-2336	-901	-618	-4.615752	-2.479896	0.9642694	0	11.23	4003	20	14	5	5	1.08285	0.2255976	8	10	0.04	1800	-3.403534	40.92393	-91.39362
388004	-2183	1704	-331	-9.112706	-2.738736	0.2379474	0	11.23	4002	20	14	5	5	1.08285	0.2112671	8	10	0.04	1800	-6.29007	40.92393	-91.39362
388132	96	-893	696	-8.444415	-3.478196	0.3672559	0	11.23	4004	18	14	5	5	1.08285	0.2073043	8	10	0.04	1800	-6.739227	40.92393	-91.39362
388183	2140	-314	-826	-7.154731	-2.654484	0.6695572	0	11.23	4002	18	14	5	5	1.08285	0.2088616	8	10	0.04	1800	-9.1716	40.92393	-91.39362
388361	732	-791	-656	-5.256716	-2.192821	0.9434538	0	11.23	4003	20	14	5	5	1.08285	0.2278927	8	10	0.04	1800	-7.884796	40.92393	-91.39362
388413	761	48	657	-4.834401	-2.247958	0.681167	0	11.23	4004	20	14	5	5	1.08285	0.2503799	8	10	0.04	1800	-9.810394	40.92393	-91.39362
388580	-262	797	1340	-1.997572	-3.029351	-0.2814579	0	10.49	4002	18	14	5	5	1.08285	0.2877755	8	10	0.04	1800	-7.862152	40.92393	-91.39362
388674	401	424	-1706	-2.838555	-3.900412	-0.4530915	0	10.49	4004	20	14	5	5	1.08285	0.3188445	8	10	0.04	1800	-7.566376	40.92393	-91.39362
388852	1666	15	355	0.4193745	-2.568217	1.235003	0	10.49	4002	20	14	5	5	1.08285	0.3658455	8	10	0.04	1800	-9.219788	40.92393	-91.39362
388938	1049	1172	-583	2.033348	-4.686778	1.717585	0	10.49	4002	20	14	5	5	1.08285	0.4026401	8	10	0.04	1800	-8.039215	40.92393	-91.39362
388986	-96	-862	-301	2.075525	-4.910168	1.643568	0	10.49	4004	20	14	5	5	1.08285	0.4177957	8	10	0.04	1800	-8.039215	40.92393	-91.39362
389110	-548	48	-203	-0.413806	-3.275846	1.279188	0	10.49	4003	20	14	5	5	1.08285	0.4547181	8	10	0.04	1800	-6.449493	40.92393	-91.39362
389238	-667	-890	-107	-0.7429276	-2.086908	1.809057	0	10.49	4004	20	14	5	5	1.08285	0.4818981	8	10	0.04	1800	-5.328705	40.92393	-91.39362
389390	-819	-1043	726	-1.04195	-0.4135291	2.143888	0	10.49	4004	18	16	5	5	1.08285	0.5089824	8	10	0.04	1800	-4.830444	40.92393	-91.39362
389499	-490	538	324	-2.196663	-0.5463589	1.530021	0	11.06	4004	18	16	5	5	1.08285	0.5240031	8	10	0.04	1800	-3.050476	40.92393	-91.39362
389622	-60	-54	1443	-2.681489	-2.769905	0.2449012	0	11.06	4003	18	16	5	5	1.08285	0.5541554	8	10	0.04	1800	-3.47699	40.92393	-91.39362
389776	1499	-683	-327	-0.5271196	-1.637533	0.4867314	0	11.06	4003	18	16	5	5	1.08285	0.5701043	8	10	0.04	1800	-2.800751	40.92393	-91.39362
389868	-326	-156	934	0.199739	-2.366726	1.122946	0	11.06	4003	18	16	5	5	1.08285	0.5752386	8	10	0.04	1800	-2.511017	40.92393	-91.39362
390007	-974	154	1100	-0.9859951	-3.961975	0.9923346	0	11.06	4004	18	14	5	5	1.08285	0.5695952	8	10	0.04	1800	-0.4259949	40.92393	-91.39362
390075	874	-1715	-1227	-1.203563	-2.193816	1.26237	0	11.06	4003	18	14	5	5	1.08285	0.5587064	8	10	0.04	1800	-1.750427	40.92393	-91.39362
390271	258	255	513	-1.430783	-3.919987	1.867365	0	11.06	4003	16	16	5	5	1.08285	0.5366514	8	10	0.04	1800	-0.3224182	40.92393	-91.39362
390317	2102	-123	1177	-0.7322056	-3.472134	1.244601	0	11.06	4003	16	13	5	5	1.08285	0.533357	8	10	0.04	1800	0.5836663	40.92393	-91.39362
390396	-125	-546	651	-0.4026004	-3.127641	0.6387669	0	10.49	4003	16	14	5	5	1.08285	0.524413	8	10	0.04	1800	4.850727	40.92393	-91.39362
390473	-1577	-227	933	-0.8432127	-1.498905	0.05085187	0	10.49	4003	16	14	5	5	1.08285	0.5102038	8	10	0.04	1800	4.049513	40.92393	-91.39362
390611	-274	1866	-716	-3.039425	-2.4605	-0.4651761	0	10.49	4003	14	14	5	5	1.08285	0.4642327	8	10	0.04	1800	5.519752	40.92393	-91.39362
390677	-1406	-442	422	-3.533086	-4.317215	-0.8226375	0	10.49	4004	14	15	5	5	1.08285	0.4500666	8	10	0.04	1800	4.800086	40.92393	-91.39362
390819	341	-558	-199	-3.054362	-1.391765	0.6249362	0	10.49	4003	14	16	5	5	1.08285	0.3910367	8	10	0.04	1800	5.273742	40.92393	-91.39362
390875	1010	-2038	895	-2.442185	-0.4506392	0.5419581	0	10.49	4002	12	16	5	5	1.08285	0.3608803	8	10	0.04	1800	5.273742	40.92393	-91.39362
390971	13016	-6435	12777	11.77522	26.03652	-19.96848	0	10.49	4004	12	16	5	5	1.08285	0.3221665	8	10	0.04	1800	4.666201	40.92393	-91.39362
391144	-6389	8938	2949	5.585059	19.75802	-39.72982	0	10.49	4004	14	14	5	5	1.08285	0.2791587	8	10	0.04	1800	46.94395	40.92393	-91.39362
391308	-3154	12228	-7470	-12.57556	-12.13058	-29.72069	0	10.21	4004	10	14	5	5	1.08285	0.2578917	8	10	0.04	1800	29.20012	40.92393	-91.39362
391448	-2600	4063	-259	-15.35051	-20.69569	-18.6073	0	10.21	4004	12	14	5	5	1.08285	0.2531158	8	10	0.04	1800	6.539642	40.92393	-91.39362
391502	-912	997	1122	-15.35108	-21.86821	-19.37349	0	10.21	4003	12	14	5	5	1.08285	0.2591702	8	10	0.04	1800	2.143203	40.92393	-91.39362
391589	1666	3504	3647	-9.847181	-23.93009	-23.45927	0	10.21	4002	12	14	5	5	1.08285	0.3049043	8	10	0.04	1800	-0.1137085	40.92393	-91.39362
391639	1265	3738	644	-6.476283	-26.03947	-25.54636	0	10.21	4002	10	12	5	5	1.08285	0.329872	8	10	0.04	1800	0.2387342	40.92393	-91.39362
391743	2980	5541	-679	-3.365558	-28.62321	-25.85732	0	10.21	4002	10	12	5	5	1.08285	0.3855163	8	10	0.04	1800	1.029635	40.92393	-91.39362
391942	1809	-754	-268	0.9263996	-32.66278	-22.83289	0	10.21	4004	10	12	5	5	1.08285	0.4813258	8	10	0.04	1800	0.3242393	40.92393	-91.39362
391980	-928	-6727	784	1.809929	-26.42933	-23.04274	0	10.21	4003	10	12	5	5	1.08285	0.5253287	8	10	0.04	1800	-0.1617432	40.92393	-91.39362
392084	-508	-8295	1689	-0.5320848	-8.825137	-24.08657	0	10.21	4003	8	11	5	5	1.08285	0.585803	8	10	0.04	1800	0.684481	40.92393	-91.39362
392142	-454	-7181	673	-0.230646	-4.628567	-24.43232	0	10.21	4002	8	12	5	5	1.08285	0.6111311	8	10	0.04	1800	0.4046122	40.92393	-91.39362
392294	-613	413	391	2.174811	2.914538	-24.46846	0	9.98	4003	6	12	5	5	1.08285	0.6909126	8	10	0.04	1800	-0.3344727	40.92393	-91.39362
392385	-1731	-255	-345	0.7331753	1.601607	-23.86922	0	9.98	4007	6	12	5	5	1.08285	0.7218775	8	10	0.04	1800	-0.3868408	40.92393	-91.39362
392569	-344	-1600	-1347	-1.197907	0.1511484	-23.04345	0	9.98	4003	4	12	5	5	1.08285	0.7954473	8	10	0.04	1800	-1.873444	40.92393	-91.39362
392712	1062	-310	-812	-1.737658	3.711625	-23.04298	0	9.98	4004	2	10	5	5	1.08285	0.8220119	8	10	0.04	1800	-2.056702	40.92393	-91.39362
392840	-705	-92	-317	-1.130193	0.8239698	-22.97142	0	9.98	4004	0	10	5	5	1.08285	0.8327838	8	10	0.04	1800	-0.8742676	40.92393	-91.39362
392911	383	-51	-64	-1.545262	0.9279538	-22.77747	0	9.98	4004	0	10	5	5	1.08285	0.830861	8	10	0.04	1800	-0.1895447	40.92393	-91.39362
393049	1116	284	136	-0.8027346	-1.163025	-23.61271	0	9.98	4002	-2	10	5	5	1.08285	0.8046173	8	10	0.04	1800	0.07574475	40.92393	-91.39362
393284	6803	-7244	-5818	-3.795871	-15.97824	-30.51048	0	9.13	4003	-4	10	5	5	1.08285	0.6986442	8	10	0.04	1800	4.309053	40.92393	-91.39363
393453	344	-1509	403	0.3397625	1.391279	-19.28756	0	9.13	4004	-8	10	5	5	1.08285	0.6526986	8	10	0.04	1800	0.8807632	40.92393	-91.39363
393677	736	-165	1521	0.3719139	0.8822442	-23.42488	0	9.13	4003	-12	10	5	5	1.08285	0.6162959	8	10	0.04	1800	4.015913	40.92393	-91.39363
393782	658	-528	435	1.902308	1.405602	-25.0321	0	9.13	4002	-16	7	5	5	1.08285	0.6309841	8	10	0.04	1800	5.68366	40.92392	-91.39363
393856	702	-941	-995	1.098094	0.5230318	-24.70404	0	9.13	4003	-16	8	5	5	1.08285	0.6546002	8	10	0.04	1800	9.424139	40.92392	-91.39363
394070	-709	557	-202	1.681976	-2.424459	-24.47679	0	10.77	4003	-20	10	5	5	1.08285	0.7267257	8	10	0.04	1800	9.113853	40.92393	-91.39364
394106	368	-299	-616	1.088852	-2.816351	-24.25329	0	10.77	4003	-21	12	5	5	1.08285	0.7371498	8	10	0.04	1800	9.113853	40.92393	-91.39364
394248	739	939	898	1.376286	-3.024723	-24.00529	0	10.77	4002	-22	12	5	5	1.08285	0.8149924	8	10	0.04	1800	11.40025	40.92393	-91.39364
394345	-354	-1548	1305	2.615413	-3.812357	-23.78107	0	10.77	4002	-28	12	5	5	1.08285	0.8538115	8	10	0.04	1800	12.36602	40.92393	-91.39364
394399	-666	-902	420	1.899122	-3.093155	-23.96001	0	10.77	4002	-28	12	5	5	1.08285	0.8852475	8	10	0.04	1800	14.97518	40.92393	-91.39364
394546	829	513	286	1.106133	-3.05149	-24.38307	0	10.77	4002	-30	14	5	5	1.08285	0.9535698	8	10	0.04	1800	16.9665	40.92393	-91.39365
394612	-565	2609	-580	-0.08383676	-6.79093	-24.2329	0	10.77	4004	-30	14	5	5	1.08285	0.9918211	8	10	0.04	1800	18.15732	40.92393	-91.39365
394694	-741	-786	-286	-0.8374366	-6.903803	-23.97449	0	10.77	4004	-31	16	5	5	1.08285	1.03072	8	10	0.04	1800	17.08632	40.92393	-91.39365
394835	-1270	-901	810	-0.7179391	-3.753038	-23.5841	0	10.77	4003	-35	18	5	5	1.08285	1.116526	8	10	0.04	1800	17.58774	40.92393	-91.39365
394920	-1053	-996	-199	-1.820711	-3.673716	-23.76891	0	10.77	4002	-36	18	5	5	1.08285	1.141978	8	10	0.04	1800	17.45111	40.92393	-91.39365
395003	1166	-1515	-936	-1.995403	-0.9682686	-24.60784	0	10.38	4004	-39	20	5	5	1.08285	1.158956	8	10	0.04	1800	19.3449	40.92393	-91.39365
395096	405	1465	-6	-0.449343	-2.201031	-24.83758	0	10.38	4004	-40	20	5	5	1.08285	1.204152	8	10	0.04	1800	20.88263	40.92393	-91.39365
395185	1140	576	-208	0.3322286	-2.964202	-24.42466	0	10.38	4004	-41	22	5	5	1.08285	1.219095	8	10	0.04	1800	20.3209	40.92393	-91.39365
395289	-417	-413	-133	1.465125	-2.946122	-23.89996	0	10.38	4004	-42	22	5	5	1.08285	1.242233	8	10	0.04	1800	20.9459	40.92393	-91.39365
395415	-1592	4141	1288	0.04945423	-5.917128	-24.00401	0	10.38	4004	-44	26	5	5	1.08285	1.27084	8	10	0.04	1800	21.82829	40.92393	-91.39365
395479	-3418	2896	513	-2.029255	-9.801815	-24.07309	0	10.38	4003	-44	26	5	5	1.08285	1.27386	8	10	0.04	1800	21.43068	40.92393	-91.39365
395560	590	1386	-1361	-4.700967	-12.36252	-23.71542	0	10.38	4004	-57	36	5	5	1.08285	1.278771	8	10	0.04	1800	17.90914	40.92393	-91.39365
395680	-859	1386	-744	-4.427412	-14.2511	-23.50693	0	10.38	4004	-48	30	5	5	1.08285	1.271114	8	10	0.04	1800	16.13701	40.92393	-91.39365
395862	-770	-3082	290	-2.284429	-14.32188	-22.96225	0	10.6	4003	-50	34	5	5	1.08285	1.23917	8	10	0.04	1800	11.78279	40.92393	-91.39365
395964	2694	8097	-6777	-0.9732733	-6.78363	-24.72169	0	10.6	4003	-51	38	5	5	1.08285	1.229565	8	10	0.04	1800	11.26892	40.92394	-91.39365
396138	-3016	-2588	174	-4.71738	-7.241799	-22.34795	0	10.6	4004	-52	40	5	5	1.08285	1.150088	8	10	0.04	1800	7.168395	40.92394	-91.39365
396168	254	-632	215	-5.497336	-6.064195	-22.60239	0	10.6	4003	-52	40	5	5	1.08285	1.098162	8	10	0.04	1800	7.168395	40.92394	-91.39365
396232	1929	-422	-344	-4.264363	-5.373949	-23.08439	0	10.6	4003	-52	40	5	5	1.08285	1.063283	8	10	0.04	1800	7.785255	40.92394	-91.39365
396405	1906	3358	810	0.1129226	-9.595062	-24.0765	0	10.6	4003	-54	44	5	5	1.08285	0.9301102	8	10	0.04	1800	11.24912	40.92394	-91.39365
396539	448	-1635	-1923	1.31747	-9.986491	-22.91585	0	10.6	4004	-54	46	5	5	1.08285	0.8683282	8	10	0.04	1800	11.924	40.92394	-91.39365
396577	-1018	846	756	1.362184	-9.656897	-22.96135	0	10.6	4003	-54	46	5	5	1.08285	0.8591039	8	10	0.04	1800	12.29002	40.92394	-91.39365
396765	1030	440	418	2.408358	-8.346036	-23.37645	0	10.6	4003	-64	60	5	5	1.08285	0.8067707	8	10	0.04	1800	13.98642	40.92395	-91.39365
396929	-1425	-1504	306	0.8176207	-7.223528	-23.16059	0	11.11	4003	-62	62	5	5	1.08285	0.803196	8	10	0.04	1800	17.32321	40.92395	-91.39365
396977	-11	11	472	0.03200984	-6.512994	-23.24924	0	11.11	4003	-52	52	5	5	1.08285	0.8026058	8	10	0.04	1800	17.29665	40.92395	-91.39365
397130	-2445	-2239	717	-2.470824	-7.021454	-24.18752	0	11.11	4003	0	0	5	5	1.08285	0.8151041	3	10	0.04	1800	17.85727	40.92395	-91.39365
397233	364	-2795	280	-2.710429	-1.714652	-24.42643	0	11.11	4003	0	0	5	5	1.08285	0.8357944	3	10	0.04	1800	17.83767	40.92395	-91.39365
397319	-2327	-1144	6	-3.944497	0.6363704	-24.41273	0	11.11	4003	0	0	5	5	1.08285	0.8660289	3	10	0.04	1800	18.2455	40.92395	-91.39365
397409	-2270	30	-57	-6.357219	0.8916809	-24.22885	0	11.11	4003	0	0	5	5	1.08285	0.9056998	3	10	0.04	1800	19.40344	40.92395	-91.39365
397532	-689	-218	-619	-10.17098	-3.934898	-23.4978	0	11.11	4004	0	0	5	5	1.08285	0.9487922	3	10	0.04	1800	17.25752	40.92395	-91.39365
397645	-199	887	-81	-8.732914	-4.342718	-23.53348	0	11.11	4004	0	0	5	5	1.08285	1.021388	3	10	0.04	1800	13.32568	40.92395	-91.39365
397882	-470	-171	-274	-4.786884	-2.387064	-22.2358	0	9.41	4002	0	0	5	5	1.08285	1.085259	3	10	0.04	1800	9.873172	40.92395	-91.39365
398053	1313	1998	922	-0.8297686	-5.397064	-22.56522	0	9.41	4004	0	0	5	5	1.08285	1.106491	3	10	0.04	1800	8.720587	40.92395	-91.39365
398275	479	-2551	291	-0.4095322	-1.678902	-24.55755	0	9.41	4003	0	0	5	5	1.08285	1.110802	3	10	0.04	1800	8.369733	40.92395	-91.39365
398455	-479	-1522	-1036	0.1054456	0.8020944	-23.21227	0	9.41	4002	0	0	5	5	1.08285	1.118432	3	10	0.04	1800	8.785641	40.92395	-91.39364
398575	1253	-2707	-336	-0.314065	2.596065	-22.97792	0	9.41	4002	0	0	5	5	1.08285	1.138079	3	10	0.04	1800	12.39957	40.92396	-91.39364
398690	-721	1257	1662	-0.5755205	3.501426	-24.79789	0	10.72	4004	0	0	5	5	1.08285	1.156048	3	10	0.04	1800	14.78082	40.92396	-91.39364
398756	930	350	-727	-2.026344	3.066366	-25.1045	0	10.72	4002	0	0	5	5	1.08285	1.161256	3	10	0.04	1800	18.09896	40.92396	-91.39364
398890	-57	673	-562	-0.4049734	0.5957437	-23.68799	0	10.72	4007	0	0	5	5	1.08285	1.192937	3	10	0.04	1800	18.71687	40.92396	-91.39363
398994	-3257	1904	1545	-2.947799	-3.513711	-24.1752	0	10.72	4003	0	0	5	5	1.08285	1.209683	3	10	0.04	1800	19.64532	40.92396	-91.39363
399101	467	2005	1104	-3.43604	-7.004585	-24.45407	0	10.72	4004	0	0	5	5	1.08285	1.232931	3	10	0.04	1800	18.67452	40.92396	-91.39363
399222	286	3054	-153	-4.520272	-11.81061	-23.85813	0	10.72	4003	0	0	5	5	1.08285	1.27533	3	10	0.04	1800	20.89328	40.92396	-91.39363
399297	-1119	-878	575	-4.586515	-11.95804	-23.50803	0	10.72	4003	0	0	5	5	1.08285	1.289122	3	10	0.04	1800	18.46726	40.92396	-91.39363
399402	-2057	-628	169	-8.444206	-9.121432	-24.1894	0	10.72	4003	0	0	5	5	1.08285	1.303843	3	10	0.04	1800	18.98884	40.92396	-91.39363
399444	-769	367	-563	-8.936021	-8.80712	-24.16233	0	10.72	4002	0	0	5	5	1.08285	1.311986	3	10	0.04	1800	18.23901	40.92396	-91.39363
399530	-372	218	-454	-8.324606	-8.373968	-24.06672	0	10.66	4003	0	0	5	5	1.08285	1.328767	3	10	0.04	1800	14.88789	40.92396	-91.39363
399683	-1296	-211	-454	-10.96954	-6.0629	-24.14346	0	10.66	4004	0	0	5	5	1.08285	1.353151	3	10	0.04	1800	12.92975	40.92396	-91.39362
399785	-1585	3065	210	-10.41888	-9.617013	-24.22232	0	10.66	4004	0	0	5	5	1.08285	1.384619	3	10	0.04	1800	11.74455	40.92396	-91.39362
399884	-962	91	439	-11.40028	-10.47447	-24.24038	0	10.66	4002	0	0	5	5	1.08285	1.403773	3	10	0.04	1800	7.65323	40.92396	-91.39362
400003	-105	2380	-114	-10.5724	-11.27411	-24.05303	0	10.66	4004	0	0	5	5	1.08285	1.426777	3	10	0.04	1800	4.800394	40.92396	-91.39362
400068	841	797	-1927	-11.21211	-12.61529	-23.43062	0	10.66	4003	0	0	5	5	1.08285	1.43265	3	10	0.04	1800	3.758454	40.92396	-91.39362
400183	224	-1771	363	-7.449761	-9.806944	-23.15904	0	10.66	4002	0	0	5	5	1.08285	1.444267	3	10	0.04	1800	4.28313	40.92396	-91.39362
400276	2662	40	829	-4.864404	-7.619283	-23.92766	0	10.66	4002	0	0	5	5	1.08285	1.445748	3	10	0.04	1800	4.565553	40.92396	-91.39362
400491	365	-305	-610	-1.80624	-5.81238	-24.52802	0	10.94	4002	0	0	5	5	1.08285	1.423851	3	10	0.04	1800	6.668772	40.92396	-91.39362
400598	95	-1195	348	-2.219067	-4.714881	-23.85607	0	10.94	4003	0	0	5	5	1.08285	1.411729	3	10	0.04	1800	6.849339	40.92396	-91.39362
400630	204	597	-959	-2.326638	-4.328629	-23.60076	0	10.94	4002	0	0	5	5	1.08285	1.400164	3	10	0.04	1800	8.86281	40.92396	-91.39362
400813	568	-398	193	-0.7867887	-2.543652	-23.78405	0	10.94	4003	0	0	5	5	1.08285	1.379103	3	10	0.04	1800	8.640147	40.92396	-91.39362
400911	2129	-258	-850	0.3656114	-0.1359071	-23.98608	0	10.94	4003	0	0	5	5	1.08285	1.373295	3	10	0.04	1800	8.187803	40.92396	-91.39362
401056	1119	-447	-1800	0.5887872	-0.8447963	-23.03114	0	10.94	4002	0	0	5	5	1.08285	1.365278	3	10	0.04	1800	10.82907	40.92396	-91.39362
401175	-786	655	819	0.9695715	-0.6812955	-23.16488	0	10.94	4003	0	0	5	5	1.08285	1.35723	3	10	0.04	1800	13.04174	40.92396	-91.39362
401372	-1294	-1795	-530	-2.879072	0.06621715	-24.73449	0	10.83	4003	0	0	5	5	1.08285	1.345209	3	10	0.04	1800	15.17123	40.92396	-91.39362
401455	-2726	1082	385	-7.93836	1.515763	-24.44928	0	10.83	4002	0	0	5	5	1.08285	1.345811	3	10	0.04	1800	15.2991	40.92396	-91.39362
401540	-312	2171	-774	-8.669168	-0.3257139	-23.45584	0	10.83	4004	0	0	5	5	1.08285	1.345823	3	10	0.04	1800	14.30115	40.92396	-91.39362
401683	-545	-699	-1295	-10.14532	-2.385275	-22.61045	0	10.83	4004	0	0	5	5	1.08285	1.351925	3	10	0.04	1800	12.39842	40.92396	-91.39362
401886	1472	-575	9	-6.089478	-1.119126	-24.18767	0	10.83	4002	0	0	5	5	1.08285	1.367036	3	10	0.04	1800	12.74515	40.92396	-91.39361
402017	342	480	129	-2.699696	-0.6465297	-23.73716	0	10.83	4004	0	0	5	5	1.08285	1.388119	3	10	0.04	1800	11.62248	40.92396	-91.39361
402204	-1244	-607	1116	-0.8039925	-4.714434	-21.59348	0	10.83	4003	0	0	5	5	1.08285	1.415864	3	10	0.04	1800	14.96215	40.92396	-91.39361
402352	-1135	-2103	834	-3.730919	-1.99458	-23.52146	0	11.23	4002	0	0	5	5	1.08285	1.43944	1	10	0.04	1800	16.26112	40.92396	-91.39361
402400	-1045	-2357	1079	-4.826818	0.147402	-24.69877	0	11.23	4002	0	0	5	5	1.08285	1.442126	1	10	0.04	1800	17.49996	40.92396	-91.39361
402526	-427	-3176	1335	-5.654088	5.606898	-26.99252	0	11.23	4002	0	0	5	5	1.08285	1.447176	1	10	0.04	1800	19.32337	40.92396	-91.3936
402614	-1293	-3165	1040	-6.559381	8.788886	-28.0332	0	11.23	4002	0	0	5	5	1.08285	1.438255	1	10	0.04	1800	22.34635	40.92396	-91.3936
