time(ms)	gyro_x(deg/s)	gyro_y(deg/s)	gyro_z(deg/s)	orientation_roll(deg)	orientation_pitch(deg)	orientation_yaw(deg)	throttle	battery(V)	loop_time(uS)	pid_output_roll	pid_output_pitch	pid_output_yaw	pid_output_throttle	ultrasonic_alt	baro_alt	flight_mode	p_gain_altitude	i_gain_altitude	d_gain_altitude	compass_heading	latitude	longitude
402822	-3957	-1428	904	-22.04546	21.11752	-31.61361	0	11.23	4002	0	0	5	5	1.08285	1.394609	1	10	0.04	1800	27.79383	40.92396	-91.3936
402891	-3548	-691	954	-24.44812	22.23193	-32.13055	0	11.23	4004	0	0	5	5	1.08285	1.367557	1	10	0.04	1800	27.79383	40.92396	-91.3936
402944	-3548	-691	954	-26.86368	22.8858	-32.62609	0	11.23	4004	0	0	5	5	1.08285	1.300337	1	10	0.04	1800	29.88121	40.92396	-91.3936
403077	3078	-32756	3601	-13.85902	85.2092	-33.28729	0	11.23	4002	0	0	5	5	1.08285	1.122245	1	10	0.04	1800	184.3215	40.92395	-91.3936
403150	2935	-32756	3886	-14.73479	97.91231	-35.32693	0	11.23	4003	0	0	5	5	1.08285	1.06332	1	10	0.04	1800	184.3215	40.92395	-91.3936
403282	2709	23016	-246	-25.53839	102.9813	-43.17366	0	11.23	4003	0	0	5	5	1.08285	0.7375396	1	10	0.04	1800	-24.07941	40.92395	-91.3936
403345	5578	15944	-2435	-19.64994	88.65231	-42.1946	0	11.23	4003	0	0	5	5	1.08285	0.6903717	1	10	0.04	1800	-24.07941	40.92395	-91.3936
403489	-2411	11696	744	-10.28962	52.99091	-47.43121	0	11.23	4003	0	0	5	5	1.08285	0.6339418	1	10	0.04	1800	155.9883	40.92395	-91.39359
403596	1532	8739	552	-10.14363	42.16476	-49.14032	0	11.23	4002	0	0	5	5	1.08285	0.5149976	1	10	0.04	1800	147.3956	40.92395	-91.39359
403656	344	11479	172	-9.502877	37.9121	-49.34739	0	11.23	4003	0	0	5	5	1.08285	0.4598591	1	10	0.04	1800	147.3956	40.92395	-91.39359
403884	2099	18900	2174	-8.232303	-14.02416	-53.26979	0	11.23	4004	0	0	5	5	1.08285	0.3095051	1	10	0.04	1800	38.51395	40.92395	-91.39359
404011	-108	453	110	-7.482162	-14.95132	-54.73025	0	11.23	4002	0	0	5	5	1.08285	0.2216216	1	10	0.04	1800	34.08809	40.92395	-91.39359
404106	-93	114	30	-7.214089	-13.41223	-54.74896	0	11.23	4003	0	0	5	5	1.08285	0.1795254	1	10	0.04	1800	29.88165	40.92395	-91.39359
404212	-122	0	12	-6.762601	-10.5009	-54.76204	0	11.29	4004	0	0	5	5	1.08285	0.1145235	1	10	0.04	1800	24.05265	40.92395	-91.39359
404270	-120	7	10	-6.571057	-9.214419	-54.77211	0	11.29	4003	0	0	5	5	1.08285	0.08111494	1	10	0.04	1800	22.39522	40.92395	-91.39359
404375	-118	2	9	-6.395685	-8.043566	-54.7809	0	11.29	4003	0	0	5	5	1.08285	0.04292915	1	10	0.04	1800	20.72108	40.92395	-91.39359
404550	-111	8	8	-5.950903	-5.084222	-54.80324	0	11.29	4004	0	0	5	5	1.08285	-0.01271076	1	10	0.04	1800	17.52919	40.92395	-91.39359
404634	-118	6	9	-5.830068	-4.265293	-54.81093	0	11.29	4002	0	0	5	5	1.08285	-0.04444503	1	10	0.04	1800	16.19997	40.92395	-91.39359
404720	-112	5	8	-5.66161	-3.17178	-54.82014	0	11.29	4004	0	0	5	5	1.08285	-0.0627488	1	10	0.04	1800	15.47882	40.92395	-91.39359
404788	-114	7	8	-5.559851	-2.518592	-54.82637	0	11.29	4004	0	0	5	5	1.08285	-0.07229057	1	10	0.04	1800	14.87994	40.92395	-91.39359
404988	-113	3	1	-5.311089	-0.8872153	-54.84413	0	11.29	4002	0	0	5	5	1.08285	-0.1163269	1	10	0.04	1800	13.49132	40.92395	-91.39359
405072	-109	5	5	-5.236693	-0.4351351	-54.85268	0	11.34	4003	0	0	5	5	1.08285	-0.1254943	1	10	0.04	1800	13.42052	40.92395	-91.39359
405140	-117	5	8	-5.176788	-0.01742078	-54.86067	0	11.34	4002	0	0	5	5	1.08285	-0.1303333	1	10	0.04	1800	13.10973	40.92395	-91.39359
405229	-110	4	12	-5.069729	0.7151831	-54.87318	0	11.34	4003	0	0	5	5	1.08285	-0.1353593	1	10	0.04	1800	12.83816	40.92395	-91.39359
405283	-117	6	7	-5.044522	0.8764979	-54.87648	0	11.34	4003	0	0	5	5	1.08285	-0.1372062	1	10	0.04	1800	12.83816	40.92395	-91.39359
405448	-114	5	8	-4.921147	1.701811	-54.89333	0	11.34	4004	0	0	5	5	1.08285	-0.1386657	1	10	0.04	1800	11.77709	40.92395	-91.39359
405554	-115	8	5	-4.889941	1.934891	-54.89919	0	11.34	4010	0	0	5	5	1.08285	-0.138905	1	10	0.04	1800	11.80615	40.92395	-91.39359
405625	-115	-3	3	-4.858303	2.15162	-54.90419	0	11.34	4003	0	0	5	5	1.08285	-0.1374619	1	10	0.04	1800	11.4796	40.92394	-91.39359
405764	-110	3	5	-4.790164	2.593514	-54.91896	0	11.34	4002	0	0	5	5	1.08285	-0.1373651	1	10	0.04	1800	11.18431	40.92394	-91.39359
405813	-105	1	7	-4.781944	2.672049	-54.92226	0	11.34	4003	0	0	5	5	1.08285	-0.1368387	1	10	0.04	1800	11.18431	40.92394	-91.39359
405916	-109	2	8	-4.734327	2.951868	-54.93513	0	11.34	4004	0	0	5	5	1.08285	-0.1337836	1	10	0.04	1800	11.00655	40.92394	-91.39359
405965	-112	5	3	-4.717118	3.072493	-54.94038	0	11.29	4002	0	0	5	5	1.08285	-0.1337136	1	10	0.04	1800	10.89561	40.92394	-91.39358
406087	-112	6	6	-4.689524	3.233384	-54.94917	0	11.29	4002	0	0	5	5	1.08285	-0.1330268	1	10	0.04	1800	10.89872	40.92394	-91.39358
406208	-109	2	5	-4.650922	3.422894	-54.96138	0	11.29	4004	0	0	5	5	1.08285	-0.1399499	1	10	0.04	1800	11.03657	40.92394	-91.39358
406366	-113	0	4	-4.625082	3.578923	-54.97499	0	11.29	4004	0	0	5	5	1.08285	-0.148168	1	10	0.04	1800	10.91235	40.92394	-91.39358
406456	-115	5	7	-4.606137	3.706587	-54.98518	0	11.29	4002	0	0	5	5	1.08285	-0.1557638	1	10	0.04	1800	10.56389	40.92394	-91.39358
406626	-109	6	5	-4.587117	3.815618	-54.99684	0	11.29	4004	0	0	5	5	1.08285	-0.1660333	1	10	0.04	1800	10.58139	40.92394	-91.39358
406822	-111	3	8	-4.556376	3.951829	-55.01607	0	11.29	4002	0	0	5	5	1.08285	-0.1706394	1	10	0.04	1800	10.46751	40.92393	-91.39358
406892	-109	1	10	-4.551683	3.987091	-55.02156	0	11.34	4004	0	0	5	5	1.08285	-0.1754148	1	10	0.04	1800	10.66452	40.92393	-91.39358
406966	-110	7	4	-4.541842	4.039142	-55.03114	0	11.34	4002	0	0	5	5	1.08285	-0.1788895	1	10	0.04	1800	10.62796	40.92393	-91.39358
407096	-107	6	0	-4.541689	4.072536	-55.03938	0	11.34	4004	0	0	5	5	1.08285	-0.1874439	1	10	0.04	1800	10.34939	40.92393	-91.39358
407196	-117	3	0	-4.538095	4.115773	-55.05049	0	11.34	4003	0	0	5	5	1.08285	-0.193341	1	10	0.04	1800	10.61722	40.92393	-91.39358
407299	-113	3	6	-4.538342	4.144445	-55.0602	0	11.34	4002	0	0	5	5	1.08285	-0.196719	1	10	0.04	1800	10.63673	40.92393	-91.39358
407358	-111	4	5	-4.532138	4.160147	-55.06648	0	11.34	4002	0	0	5	5	1.08285	-0.1960804	1	10	0.04	1800	10.31642	40.92393	-91.39358
407523	-109	9	4	-4.513522	4.19858	-55.08058	0	11.34	4002	0	0	5	5	1.08285	-0.1839216	1	10	0.04	1800	10.33177	40.92393	-91.39358
407615	-113	5	0	-4.512965	4.213087	-55.08443	0	11.34	4003	0	0	5	5	1.08285	-0.1811259	1	10	0.04	1800	10.31654	40.92393	-91.39358
407697	-107	1	5	-4.514115	4.229033	-55.08974	0	11.34	4003	0	0	5	5	1.08285	-0.1773331	1	10	0.04	1800	10.57794	40.92393	-91.39358
407801	-109	8	5	-4.515029	4.244591	-55.09859	0	11.34	4004	0	0	5	5	1.08285	-0.17739	1	10	0.04	1800	10.26094	40.92393	-91.39358
407925	-111	1	7	-4.513031	4.268818	-55.11177	0	11.34	4003	0	0	5	5	1.08285	-0.1767201	1	10	0.04	1800	10.26043	40.92393	-91.39358
408049	-112	2	9	-4.510565	4.278572	-55.11958	0	11.34	4004	0	0	5	5	1.08285	-0.1766739	1	10	0.04	1800	10.26787	40.92393	-91.39358
408180	-108	1	0	-4.50784	4.295333	-55.1274	0	11.34	4002	0	0	5	5	1.08285	-0.1732882	1	10	0.04	1800	10.49751	40.92393	-91.39358
408306	-110	0	3	-4.500275	4.310901	-55.13509	0	11.34	4003	0	0	5	5	1.08285	-0.1698599	1	10	0.04	1800	10.44057	40.92393	-91.39358
408407	-110	5	0	-4.494749	4.320373	-55.14607	0	11.34	4003	0	0	5	5	1.08285	-0.1649963	1	10	0.04	1800	10.22838	40.92393	-91.39358
408593	-103	4	8	-4.49685	4.318222	-55.15913	0	11.34	4003	0	0	5	5	1.08285	-0.1579149	1	10	0.04	1800	10.23519	40.92393	-91.39358
408674	-109	1	11	-4.494417	4.318519	-55.16756	0	11.4	4004	0	0	5	5	1.08285	-0.1565437	1	10	0.04	1800	10.30598	40.92393	-91.39358
408763	-106	0	8	-4.490772	4.32218	-55.17567	0	11.4	4004	0	0	5	5	1.08285	-0.155931	1	10	0.04	1800	10.45184	40.92393	-91.39358
408879	-110	1	2	-4.482296	4.329007	-55.18343	0	11.4	4002	0	0	5	5	1.08285	-0.1524908	1	10	0.04	1800	10.42384	40.92393	-91.39358
408951	-112	1	3	-4.483052	4.334023	-55.18922	0	11.4	4002	0	0	5	5	1.08285	-0.1510119	1	10	0.04	1800	10.26144	40.92393	-91.39358
409077	-108	3	6	-4.484668	4.345344	-55.20247	0	11.4	4003	0	0	5	5	1.08285	-0.1586016	1	10	0.04	1800	10.24984	40.92393	-91.39358
409237	-103	0	5	-4.482504	4.350887	-55.21181	0	11.4	4003	0	0	5	5	1.08285	-0.1603485	1	10	0.04	1800	10.4009	40.92393	-91.39358
409287	-116	8	3	-4.481696	4.354768	-55.21626	0	11.4	4003	0	0	5	5	1.08285	-0.1545952	1	10	0.04	1800	10.13431	40.92393	-91.39358
409363	-118	0	3	-4.488034	4.357948	-55.22499	0	11.4	4002	0	0	5	5	1.08285	-0.1453316	1	10	0.04	1800	10.24825	40.92393	-91.39358
409481	-106	6	5	-4.492109	4.355508	-55.23305	0	11.4	4003	0	0	5	5	1.08285	-0.1350269	1	10	0.04	1800	10.45071	40.92393	-91.39358
409570	-107	5	1	-4.482043	4.357074	-55.24239	0	11.34	4004	0	0	5	5	1.08285	-0.1308876	1	10	0.04	1800	10.23169	40.92393	-91.39358
409722	-104	10	0	-4.476411	4.358057	-55.24916	0	11.34	4004	0	0	5	5	1.08285	-0.1227007	1	10	0.04	1800	10.21699	40.92393	-91.39358
409845	-105	2	3	-4.460536	4.358764	-55.26015	0	11.34	4003	0	0	5	5	1.08285	-0.1092597	1	10	0.04	1800	10.20743	40.92393	-91.39358
409880	-104	3	4	-4.459777	4.360973	-55.26314	0	11.34	4004	0	0	5	5	1.08285	-0.1031095	1	10	0.04	1800	10.20743	40.92393	-91.39358
410026	-108	0	4	-4.45656	4.361682	-55.27431	0	11.34	4003	0	0	5	5	1.08285	-0.08984052	1	10	0.04	1800	10.15385	40.92393	-91.39358
410065	-111	3	8	-4.460826	4.357654	-55.27693	0	11.34	4003	0	0	5	5	1.08285	-0.08481035	1	10	0.04	1800	10.44048	40.92393	-91.39358
410184	-98	4	4	-4.453958	4.359926	-55.28304	0	11.34	4004	0	0	5	5	1.08285	-0.07291923	1	10	0.04	1800	10.19645	40.92393	-91.39358
410295	-95	4	1	-4.451172	4.359472	-55.29085	0	11.34	4002	0	0	5	5	1.08285	-0.06402657	1	10	0.04	1800	10.21847	40.92393	-91.39358
410445	-100	6	2	-4.448293	4.369285	-55.30251	0	11.34	4002	0	0	5	5	1.08285	-0.06308344	1	10	0.04	1800	10.1734	40.92392	-91.39358
410532	-104	0	1	-4.440479	4.365836	-55.30556	0	11.34	4003	0	0	5	5	1.08285	-0.06493204	1	10	0.04	1800	10.15297	40.92392	-91.39358
410602	-106	4	3	-4.43694	4.363587	-55.31111	0	11.34	4002	0	0	5	5	1.08285	-0.06927507	1	10	0.04	1800	10.4133	40.92392	-91.39358
410683	-101	0	0	-4.438384	4.360065	-55.31514	0	11.34	4003	0	0	5	5	1.08285	-0.07582733	1	10	0.04	1800	10.1713	40.92392	-91.39358
410757	-100	-2	5	-4.439388	4.360732	-55.31953	0	11.34	4002	0	0	5	5	1.08285	-0.07663272	1	10	0.04	1800	10.17279	40.92392	-91.39358
410804	-101	1	5	-4.436567	4.362719	-55.32149	0	11.34	4002	0	0	5	5	1.08285	-0.07748233	1	10	0.04	1800	10.42503	40.92392	-91.39358
410911	-106	0	3	-4.436771	4.365519	-55.33186	0	11.34	4003	0	0	5	5	1.08285	-0.08385178	1	10	0.04	1800	10.36988	40.92392	-91.39358
411041	-103	5	0	-4.43504	4.37582	-55.33992	0	11.34	4004	0	0	5	5	1.08285	-0.09527996	1	10	0.04	1800	10.14316	40.92392	-91.39358
411170	-98	5	5	-4.434691	4.377048	-55.34889	0	11.34	4003	0	0	5	5	1.08285	-0.1056778	1	10	0.04	1800	10.14607	40.92392	-91.39358
411255	-96	0	2	-4.43679	4.381288	-55.35622	0	11.34	4003	0	0	5	5	1.08285	-0.109607	1	10	0.04	1800	10.15072	40.92392	-91.39358
411338	-100	1	7	-4.431187	4.383461	-55.35951	0	11.34	4003	0	0	5	5	1.08285	-0.1153008	1	10	0.04	1800	10.14258	40.92392	-91.39358
411499	-109	2	1	-4.41701	4.373442	-55.37086	0	11.46	4003	0	0	5	5	1.08285	-0.1157919	1	10	0.04	1800	10.35691	40.92392	-91.39358
411571	-104	4	3	-4.421253	4.372748	-55.3752	0	11.46	4003	0	0	5	5	1.08285	-0.1079507	1	10	0.04	1800	10.1395	40.92392	-91.39358
411680	-102	0	4	-4.428065	4.370241	-55.38423	0	11.46	4004	0	0	5	5	1.08285	-0.09576809	1	10	0.04	1800	10.35409	40.92392	-91.39358
411737	-105	4	5	-4.431002	4.371242	-55.38643	0	11.46	4003	0	0	5	5	1.08285	-0.08534372	1	10	0.04	1800	10.10837	40.92392	-91.39358
411832	-106	0	6	-4.430493	4.376055	-55.3885	0	11.46	4003	0	0	5	5	1.08285	-0.07723345	1	10	0.04	1800	10.14315	40.92392	-91.39358
411959	-107	6	1	-4.425621	4.372363	-55.39857	0	11.46	4003	0	0	5	5	1.08285	-0.07225134	1	10	0.04	1800	10.14962	40.92392	-91.39358
412103	-102	5	7	-4.420883	4.37819	-55.40663	0	11.46	4004	0	0	5	5	1.08285	-0.07205155	1	10	0.04	1800	10.14477	40.92392	-91.39358
412207	-102	5	8	-4.422086	4.376502	-55.41444	0	11.46	4003	0	0	5	5	1.08285	-0.06832926	1	10	0.04	1800	10.16475	40.92392	-91.39358
412338	-101	8	9	-4.42284	4.373322	-55.42323	0	11.4	4004	0	0	5	5	1.08285	-0.06208333	1	10	0.04	1800	10.14458	40.92392	-91.39358
412429	-99	2	3	-4.416555	4.374471	-55.4283	0	11.4	4004	0	0	5	5	1.08285	-0.05911327	1	10	0.04	1800	10.13802	40.92392	-91.39358
412583	-105	9	2	-4.411203	4.372966	-55.43575	0	11.4	4003	0	0	5	5	1.08285	-0.06321449	1	10	0.04	1800	10.08977	40.92392	-91.39358
412652	-101	0	4	-4.415744	4.371948	-55.43874	0	11.4	4004	0	0	5	5	1.08285	-0.06694365	1	10	0.04	1800	10.09748	40.92392	-91.39358
412807	-99	3	2	-4.410339	4.367055	-55.4474	0	11.4	4002	0	0	5	5	1.08285	-0.08358677	1	10	0.04	1800	10.07501	40.92391	-91.39358
413008	-101	6	3	-4.410635	4.370687	-55.46272	0	11.4	4004	0	0	5	5	1.08285	-0.1079295	1	10	0.04	1800	10.0973	40.92391	-91.39358
413196	-113	2	3	-4.405818	4.368536	-55.47243	0	11.4	4003	0	0	5	5	1.08285	-0.1096817	1	10	0.04	1800	10.10512	40.92391	-91.39358
413280	-104	10	2	-4.399067	4.36179	-55.47774	0	11.4	4002	0	0	5	5	1.08285	-0.1170114	1	10	0.04	1800	10.35766	40.92391	-91.39358
413351	-96	6	4	-4.395298	4.36147	-55.48189	0	11.4	4004	0	0	5	5	1.08285	-0.1205966	1	10	0.04	1800	10.14975	40.92391	-91.39358
413431	-99	3	8	-4.390625	4.355863	-55.48811	0	11.4	4004	0	0	5	5	1.08285	-0.1253075	1	10	0.04	1800	10.10437	40.92391	-91.39358
413482	-102	5	7	-4.390295	4.354085	-55.48946	0	11.4	4002	0	0	5	5	1.08285	-0.1342417	1	10	0.04	1800	10.04942	40.92391	-91.39358
413649	-98	3	1	-4.395577	4.350927	-55.49776	0	11.4	4004	0	0	5	5	1.08285	-0.1387951	1	10	0.04	1800	10.14337	40.92391	-91.39358
413758	-104	0	8	-4.392624	4.351205	-55.50539	0	11.4	4003	0	0	5	5	1.08285	-0.1440617	1	10	0.04	1800	10.08723	40.92391	-91.39358
413812	-107	5	2	-4.399189	4.348996	-55.50972	0	11.4	4004	0	0	5	5	1.08285	-0.1472004	1	10	0.04	1800	10.10108	40.92391	-91.39358
413863	-95	0	1	-4.399283	4.351402	-55.51442	0	11.4	4003	0	0	5	5	1.08285	-0.1458087	1	10	0.04	1800	10.14536	40.92391	-91.39358
414083	-96	2	3	-4.400656	4.350609	-55.52229	0	11.4	4003	0	0	5	5	1.08285	-0.1474383	1	10	0.04	1800	10.11895	40.92391	-91.39358
414129	-91	4	-1	-4.396708	4.350982	-55.52827	0	11.4	4002	0	0	5	5	1.08285	-0.142306	1	10	0.04	1800	10.1149	40.92391	-91.39358
414233	-94	2	6	-4.384241	4.34926	-55.53676	0	11.4	4002	0	0	5	5	1.08285	-0.1327559	1	10	0.04	1800	10.07401	40.92391	-91.39358
414298	-96	8	7	-4.381911	4.343589	-55.54262	0	11.4	4003	0	0	5	5	1.08285	-0.1144182	1	10	0.04	1800	10.117	40.92391	-91.39358
414353	-98	2	3	-4.380365	4.343364	-55.54951	0	11.4	4003	0	0	5	5	1.08285	-0.1066803	1	10	0.04	1800	10.09117	40.92391	-91.39358
414435	-94	4	0	-4.377378	4.348174	-55.55342	0	11.4	4003	0	0	5	5	1.08285	-0.09764875	1	10	0.04	1800	10.08405	40.92391	-91.39358
414478	-89	5	4	-4.375362	4.348855	-55.55525	0	11.4	4003	0	0	5	5	1.08285	-0.0937046	1	10	0.04	1800	10.08355	40.92391	-91.39358
414576	-102	4	0	-4.369163	4.344901	-55.56148	0	11.4	4002	0	0	5	5	1.08285	-0.08954045	1	10	0.04	1800	10.07231	40.92391	-91.39358
414677	-102	8	7	-4.370311	4.342355	-55.56789	0	11.4	4002	0	0	5	5	1.08285	-0.08513313	1	10	0.04	1800	10.11442	40.92391	-91.39358
414856	-97	2	4	-4.363026	4.334945	-55.57582	0	11.4	4003	0	0	5	5	1.08285	-0.07995702	1	10	0.04	1800	10.06266	40.92391	-91.39358
414925	-94	1	0	-4.358603	4.335371	-55.58107	0	11.4	4004	0	0	5	5	1.08285	-0.07506387	1	10	0.04	1800	9.994324	40.92391	-91.39358
415077	-101	2	2	-4.360623	4.335871	-55.58913	0	11.4	4002	0	0	5	5	1.08285	-0.06476662	1	10	0.04	1800	10.2773	40.92391	-91.39358
415123	-97	0	8	-4.35869	4.340499	-55.59474	0	11.4	4004	0	0	5	5	1.08285	-0.06233099	1	10	0.04	1800	10.04566	40.92391	-91.39358
415210	-98	0	5	-4.35501	4.339552	-55.59834	0	11.4	4002	0	0	5	5	1.08285	-0.05664623	1	10	0.04	1800	10.09278	40.92391	-91.39358
415326	-90	3	5	-4.351761	4.344868	-55.60225	0	11.4	4004	0	0	5	5	1.08285	-0.05219206	1	10	0.04	1800	9.99724	40.92391	-91.39358
415369	-92	3	4	-4.354249	4.348774	-55.60634	0	11.4	4002	0	0	5	5	1.08285	-0.05130597	1	10	0.04	1800	9.99305	40.92391	-91.39358
415477	-88	4	5	-4.357707	4.346458	-55.61073	0	11.4	4002	0	0	5	5	1.08285	-0.04151049	1	10	0.04	1800	10.01778	40.92391	-91.39358
415557	-92	2	8	-4.355274	4.350977	-55.61433	0	11.4	4002	0	0	5	5	1.08285	-0.0351094	1	10	0.04	1800	10.0946	40.92391	-91.39358
415742	-98	2	-3	-4.352132	4.349358	-55.6172	0	11.4	4003	0	0	5	5	1.08285	-0.02603329	1	10	0.04	1800	10.0302	40.92391	-91.39358
415806	-95	5	1	-4.351214	4.352532	-55.61824	0	11.4	4003	0	0	5	5	1.08285	-0.02592467	1	10	0.04	1800	10.22241	40.92391	-91.39358
415880	-89	-2	-4	-4.352698	4.363788	-55.62294	0	11.4	4003	0	0	5	5	1.08285	-0.0272014	1	10	0.04	1800	10.06419	40.92391	-91.39358
415956	-83	8	1	-4.348446	4.362364	-55.62575	0	11.4	4003	0	0	5	5	1.08285	-0.02813213	1	10	0.04	1800	10.10638	40.92391	-91.39358
416072	-87	2	0	-4.346966	4.368227	-55.63045	0	11.4	4002	0	0	5	5	1.08285	-0.03146243	1	10	0.04	1800	10.04282	40.92391	-91.39358
416217	-87	6	0	-4.339614	4.358589	-55.6371	0	11.4	4004	0	0	5	5	1.08285	-0.0433738	1	10	0.04	1800	10.18697	40.92392	-91.39358
416286	-89	1	2	-4.340161	4.361531	-55.63985	0	11.4	4003	0	0	5	5	1.08285	-0.05340471	1	10	0.04	1800	9.957287	40.92392	-91.39358
416414	-89	1	2	-4.339637	4.363368	-55.64296	0	11.4	4004	0	0	5	5	1.08285	-0.07163264	1	10	0.04	1800	10.19819	40.92392	-91.39358
416540	-90	-1	9	-4.34011	4.363657	-55.65266	0	11.4	4004	0	0	5	5	1.08285	-0.09791944	1	10	0.04	1800	10.01279	40.92392	-91.39358
416585	-91	0	5	-4.338539	4.361544	-55.65468	0	11.4	4003	0	0	5	5	1.08285	-0.1029617	1	10	0.04	1800	10.00689	40.92392	-91.39358
416668	-93	5	-1	-4.340186	4.369268	-55.65669	0	11.34	4003	0	0	5	5	1.08285	-0.1170342	1	10	0.04	1800	10.02287	40.92392	-91.39358
416842	-91	6	-1	-4.341864	4.372022	-55.66609	0	11.34	4002	0	0	5	5	1.08285	-0.1442083	1	10	0.04	1800	10.05637	40.92392	-91.39358
416905	-96	4	-4	-4.339509	4.365795	-55.66676	0	11.34	4002	0	0	5	5	1.08285	-0.1508399	1	10	0.04	1800	10.03699	40.92392	-91.39358
417025	-97	3	5	-4.338003	4.371642	-55.67513	0	11.34	4003	0	0	5	5	1.08285	-0.1614177	1	10	0.04	1800	10.21883	40.92392	-91.39359
417078	-95	1	6	-4.335473	4.368492	-55.67842	0	11.34	4002	0	0	5	5	1.08285	-0.1667132	1	10	0.04	1800	10.22311	40.92392	-91.39359
417175	-101	2	5	-4.335795	4.364506	-55.68221	0	11.34	4002	0	0	5	5	1.08285	-0.1680288	1	10	0.04	1800	10.01434	40.92392	-91.39359
417296	-88	5	3	-4.329998	4.362522	-55.68806	0	11.34	4003	0	0	5	5	1.08285	-0.1662801	1	10	0.04	1800	10.15285	40.92392	-91.39359
417390	-96	3	5	-4.33319	4.361607	-55.69582	0	11.34	4002	0	0	5	5	1.08285	-0.1613458	1	10	0.04	1800	10.01194	40.92392	-91.39359
417425	-107	0	9	-4.331225	4.361722	-55.69887	0	11.34	4004	0	0	5	5	1.08285	-0.1596605	1	10	0.04	1800	10.01194	40.92392	-91.39359
417522	-88	0	3	-4.329658	4.362722	-55.70216	0	11.34	4003	0	0	5	5	1.08285	-0.147482	1	10	0.04	1800	10.01006	40.92392	-91.39359
417674	-88	3	3	-4.335395	4.354535	-55.70729	0	11.34	4003	0	0	5	5	1.08285	-0.1390318	1	10	0.04	1800	9.801339	40.92392	-91.39359
417789	-96	4	0	-4.335886	4.358734	-55.71162	0	11.34	4004	0	0	5	5	1.08285	-0.1348965	1	10	0.04	1800	10.21295	40.92392	-91.39359
417900	-92	-3	0	-4.329526	4.356846	-55.71626	0	11.34	4002	0	0	5	5	1.08285	-0.1364461	1	10	0.04	1800	9.999088	40.92392	-91.39359
418050	-143	-190	5	-4.686412	4.449329	-55.73542	0	11.34	4002	0	0	5	5	1.08285	-0.1268842	1	10	0.04	1800	10.35344	40.92393	-91.39359
418238	965	-759	-190	-4.255057	4.210688	-55.69698	0	11.34	4002	0	0	5	5	1.08285	-0.09802765	1	10	0.04	1800	13.11158	40.92393	-91.39359
418388	-193	-845	-1791	-1.331542	8.034325	-52.46629	0	11.34	4003	0	0	5	5	1.08285	-0.06575623	1	10	0.04	1800	9.024878	40.92393	-91.39359
418425	1803	144	-2205	1.357558	7.294493	-49.72376	0	11.4	4004	0	0	5	5	1.08285	-0.06339776	1	10	0.04	1800	7.107627	40.92393	-91.39359
418580	1122	-678	-3788	6.62903	6.209694	-43.0939	0	11.4	4003	0	0	5	5	1.08285	-0.04658217	1	10	0.04	1800	2.506272	40.92393	-91.39359
418633	-924	0	-3476	6.41121	5.540926	-38.98358	0	11.4	4003	0	0	5	5	1.08285	-0.03922023	1	10	0.04	1800	0.4495812	40.92393	-91.39359
418708	-2262	-1166	-2599	4.996068	5.37624	-34.23169	0	11.4	4003	0	0	5	5	1.08285	-0.02916019	1	10	0.04	1800	-1.584106	40.92393	-91.39359
418826	-3568	314	-3432	3.204155	2.890513	-29.54296	0	11.4	4002	0	0	5	5	1.08285	0.0009820905	1	10	0.04	1800	-11.00235	40.92393	-91.39359
418971	-2336	4640	-8832	0.9977374	-7.692255	-16.44136	0	11.4	4004	0	0	5	5	1.08285	0.05118741	1	10	0.04	1800	-29.40805	40.92393	-91.39359
419066	-736	5180	-11517	-2.139556	-16.8003	0.9780815	0	11.4	4002	0	0	5	5	1.08285	0.08515086	1	10	0.04	1800	-42.3989	40.92393	-91.39359
419165	2542	7694	-11905	-6.987288	-28.58654	26.69952	0	11.4	4003	0	0	5	5	1.08285	0.1284013	1	10	0.04	1800	-68.81061	40.92393	-91.39359
419237	4590	7261	-12502	-8.27914	-32.53809	40.19479	0	11.4	4003	0	0	5	5	1.08285	0.1501687	1	10	0.04	1800	-80.50635	40.92393	-91.39359
419328	7697	8599	-9807	-7.575097	-42.85547	65.93531	0	11.4	4002	0	0	5	5	1.08285	0.1884333	1	10	0.04	1800	253.5112	40.92393	-91.39359
419400	9344	9406	-9548	-5.615107	-49.14828	76.44186	0	11.4	4004	0	0	5	5	1.08285	0.2309633	1	10	0.04	1800	244.0241	40.92393	-91.39359
419557	4830	-827	-8231	-7.836537	-52.75922	99.17668	0	11.4	4003	0	0	5	5	1.08285	0.3235339	1	10	0.04	1800	222.5869	40.92393	-91.39359
419682	2900	-2287	-4393	-13.9511	-43.06627	113.7137	0	11.4	4002	0	0	5	5	1.08285	0.3629225	1	10	0.04	1800	195.0685	40.92393	-91.39359
419728	3009	-328	-3892	-14.31847	-41.65311	115.9989	0	11.4	4003	0	0	5	5	1.08285	0.3904474	1	10	0.04	1800	183.852	40.92393	-91.39359
419853	-312	-4636	-6976	-22.64004	-34.55241	127.5244	0	11.4	4004	0	0	5	5	1.08285	0.4409786	1	10	0.04	1800	172.9434	40.92393	-91.3936
420011	-4445	-5671	-1650	-29.63033	-16.11772	137.4672	0	11.4	4003	0	0	5	5	1.08285	0.4893977	1	10	0.04	1800	140.4514	40.92393	-91.3936
420076	-4485	-2981	-2713	-35.99795	-9.200134	139.9966	0	11.4	4004	0	0	5	5	1.08285	0.5032849	1	10	0.04	1800	140.3282	40.92393	-91.3936
420180	-697	3428	-1834	-37.86649	-9.0207	141.4466	0	11.46	4004	0	0	5	5	1.08285	0.5182891	1	10	0.04	1800	139.1795	40.92393	-91.3936
420219	-3525	-223	-3348	-39.70248	-8.556592	145.469	0	11.46	4002	0	0	5	5	1.08285	0.5257002	1	10	0.04	1800	138.5752	40.92393	-91.3936
420291	-4756	-1385	357	-43.80742	-6.844817	146.6214	0	11.46	4003	0	0	5	5	1.08285	0.5346506	1	10	0.04	1800	137.6651	40.92393	-91.3936
420463	-3454	2176	-75	-52.61152	-3.572503	145.8676	0	11.46	4004	0	0	5	5	1.08285	0.5565966	1	10	0.04	1800	138.8509	40.92393	-91.3936
420521	-3330	4222	-759	-54.78965	-5.120207	146.1516	0	11.46	4003	0	0	5	5	1.08285	0.5622627	1	10	0.04	1800	138.8509	40.92393	-91.39361
420644	232	2767	645	-58.82655	-12.81332	146.7829	0	11.46	4003	0	0	5	5	1.08285	0.5712075	1	10	0.04	1800	134.5198	40.92393	-91.39361
420768	7270	321	208	-52.35917	-18.28488	146.568	0	11.46	4003	0	0	5	5	1.08285	0.6032175	1	10	0.04	1800	132.5073	40.92393	-91.39361
420824	9508	-3493	643	-36.89297	-13.19159	146.6043	0	11.46	4003	0	0	5	5	1.08285	0.608308	1	10	0.04	1800	131.6581	40.92393	-91.39361
420902	3682	-3026	-532	-29.58423	-9.656532	146.666	0	11.46	4002	0	0	5	5	1.08285	0.6259135	1	10	0.04	1800	133.2463	40.92393	-91.39361
421107	-2648	611	2002	-30.74752	-5.684941	144.1575	0	11.4	4003	0	0	5	5	1.08285	0.6402025	1	10	0.04	1800	133.1103	40.92393	-91.39362
421140	-3039	-527	2708	-33.49135	-7.573867	141.3668	0	11.4	4004	0	0	5	5	1.08285	0.6404797	1	10	0.04	1800	132.5908	40.92393	-91.39362
421247	561	1305	3446	-32.51431	-11.79536	135.7689	0	11.4	4004	0	0	5	5	1.08285	0.6411892	1	10	0.04	1800	139.8217	40.92393	-91.39362
421321	-1648	-1340	2717	-32.73948	-12.61514	132.7422	0	11.4	4003	0	0	5	5	1.08285	0.6435825	1	10	0.04	1800	144.3167	40.92393	-91.39362
421400	1426	-847	3681	-31.29764	-13.16478	129.1782	0	11.4	4002	0	0	5	5	1.08285	0.6472068	1	10	0.04	1800	148.4176	40.92393	-91.39362
421504	-1019	-315	360	-29.38389	-13.63002	125.0246	0	11.4	4004	0	0	5	5	1.08285	0.64944	1	10	0.04	1800	150.676	40.92394	-91.39362
421687	-3987	982	-3234	-38.65762	-12.33126	131.618	0	11.4	4003	0	0	5	5	1.08285	0.6476771	1	10	0.04	1800	145.0408	40.92393	-91.39362
421761	-1607	2676	-3338	-42.27956	-12.06041	135.16	0	11.4	4004	0	0	5	5	1.08285	0.6462406	1	10	0.04	1800	141.5304	40.92393	-91.39362
421881	-331	2052	-3240	-45.11998	-12.72273	142.7213	0	11.4	4003	0	0	5	5	1.08285	0.6378627	1	10	0.04	1800	134.972	40.92393	-91.39362
422039	-2048	3455	-4183	-49.84124	-12.10391	151.4908	0	11.4	4002	0	0	5	5	1.08285	0.6550333	1	10	0.04	1800	125.446	40.92393	-91.39362
422103	-550	2893	-3409	-53.04531	-10.63266	157.6977	0	11.4	4004	0	0	5	5	1.08285	0.6591361	1	10	0.04	1800	111.779	40.92393	-91.39362
422226	-2027	-340	-2942	-55.15463	-7.837448	162.7509	0	11.4	4003	0	0	5	5	1.08285	0.6893672	1	10	0.04	1800	107.0916	40.92393	-91.39362
422323	-9148	4262	-4195	-68.19692	-1.844825	172.0276	0	11.4	4004	0	0	5	5	1.08285	0.6995205	1	10	0.04	1800	103.5801	40.92393	-91.39362
422374	-10728	1205	-5390	-73.37369	-0.7381387	174.5817	0	11.4	4004	0	0	5	5	1.08285	0.7103118	1	10	0.04	1800	103.5801	40.92393	-91.39362
422491	-11461	3219	-7386	-87.94546	13.93544	187.8096	0	11.4	4004	0	0	5	5	1.08285	0.7300917	1	10	0.04	1800	103.7033	40.92393	-91.39362
422636	-3387	747	-3127	-91.45578	34.78256	204.3857	0	11.4	4002	0	0	5	5	1.08285	0.7606744	1	10	0.04	1800	103.2822	40.92393	-91.39363
422709	-1085	230	-1191	-89.53043	37.40716	206.0713	0	11.4	4002	0	0	5	5	1.08285	0.7705467	1	10	0.04	1800	96.7633	40.92393	-91.39363
422781	-1627	1135	-1053	-84.8665	37.22622	207.9049	0	11.4	4007	0	0	5	5	1.08285	0.7841094	1	10	0.04	1800	111.2257	40.92393	-91.39363
422921	-782	252	2725	-82.24345	32.78866	207.2155	0	11.4	4004	0	0	5	5	1.08285	0.8177719	1	10	0.04	1800	137.1393	40.92393	-91.39364
423009	1182	437	899	-79.91895	28.7005	205.2359	0	11.4	4003	0	0	5	5	1.08285	0.8277768	1	10	0.04	1800	163.6212	40.92393	-91.39364
423120	1885	1692	1706	-72.66666	24.60757	202.5852	0	11.4	4003	0	0	5	5	1.08285	0.8405768	1	10	0.04	1800	193.7239	40.92393	-91.39364
423172	1712	1989	1980	-70.98013	22.6783	201.5597	0	11.4	4004	0	0	5	5	1.08285	0.8467605	1	10	0.04	1800	198.7003	40.92393	-91.39364
423272	3166	823	2270	-65.77607	17.80597	197.4888	0	11.4	4004	0	0	5	5	1.08285	0.8478674	1	10	0.04	1800	202.3962	40.92393	-91.39365
423399	1766	862	5028	-60.12968	9.578285	188.8582	0	11.4	4002	0	0	5	5	1.08285	0.8436792	1	10	0.04	1800	206.7592	40.92393	-91.39365
423455	2503	-498	5739	-60.23032	6.234139	185.8017	0	11.4	4003	0	0	5	5	1.08285	0.8425686	1	10	0.04	1800	206.7592	40.92393	-91.39365
423587	-1161	-400	1731	-64.08678	1.150128	178.4659	0	11.4	4002	0	0	5	5	1.08285	0.8481358	1	10	0.04	1800	177.9195	40.92393	-91.39365
423689	1342	-777	-736	-64.66852	1.91599	178.2996	0	11.4	4003	0	0	5	5	1.08285	0.8656039	1	10	0.04	1800	154.3243	40.92393	-91.39365
423820	-1209	1141	-965	-66.01463	4.76756	178.9849	0	11.4	4003	0	0	5	5	1.08285	0.8797089	1	10	0.04	1800	110.5724	40.92393	-91.39365
423910	-2157	2464	-516	-69.75047	4.70299	180.8476	0	11.4	4003	0	0	5	5	1.08285	0.8764467	1	10	0.04	1800	105.7883	40.92393	-91.39365
424095	261	672	1037	-74.47797	-3.496736	176.9039	0	11.4	4002	0	0	5	5	1.08285	0.8573775	1	10	0.04	1800	117.748	40.92393	-91.39365
424232	4444	-1410	6414	-70.43221	-11.13263	168.1624	0	11.4	4002	0	0	5	5	1.08285	0.8401174	1	10	0.04	1800	115.2411	40.92393	-91.39365
424358	14530	-7442	8559	-40.1422	-19.52342	146.5912	0	11.4	4003	0	0	5	5	1.08285	0.8333135	1	10	0.04	1800	46.01128	40.92393	-91.39365
424437	13128	-8857	3709	-23.64889	-13.93053	140.0447	0	11.4	4003	0	0	5	5	1.08285	0.8277093	1	10	0.04	1800	55.60526	40.92393	-91.39365
424572	-5693	-7420	1630	-17.89189	-2.134538	136.9807	0	11.4	4003	0	0	5	5	1.08285	0.8198442	1	10	0.04	1800	85.60442	40.92393	-91.39366
424646	328	-4671	958	-25.48227	3.592319	133.2638	0	11.4	4002	0	0	5	5	1.08285	0.809842	1	10	0.04	1800	101.2917	40.92393	-91.39366
424721	6192	-1488	1931	-21.14594	6.792264	131.7943	0	11.4	4003	0	0	5	5	1.08285	0.797219	1	10	0.04	1800	107.7942	40.92393	-91.39366
424882	3216	1569	364	-12.77699	6.453249	130.9233	0	11.4	4002	0	0	5	5	1.08285	0.7820628	1	10	0.04	1800	113.1402	40.92393	-91.39367
425009	471	-1020	1485	-9.707661	5.195817	129.9595	0	11.4	4004	0	0	5	5	1.08285	0.7744333	1	10	0.04	1800	113.2902	40.92393	-91.39367
425137	2307	4264	561	-10.79671	0.01635727	126.6124	0	11.4	4002	0	0	5	5	1.08285	0.7708619	1	10	0.04	1800	119.9911	40.92393	-91.39367
425192	3512	-112	1356	-7.354978	-4.774218	124.7583	0	11.4	4004	0	0	5	5	1.08285	0.7705758	1	10	0.04	1800	119.9561	40.92393	-91.39367
425299	1073	44	-1522	-6.054496	-5.230623	128.975	0	11.4	4004	0	0	5	5	1.08285	0.7713033	1	10	0.04	1800	122.7867	40.92393	-91.39368
425355	3367	-1924	-1276	-4.011175	-3.024473	130.3479	0	11.4	4004	0	0	5	5	1.08285	0.7706401	1	10	0.04	1800	122.8002	40.92393	-91.39368
425558	-2088	-991	1152	-6.625465	-6.471708	132.3989	0	11.4	4003	0	0	5	5	1.08285	0.7669922	1	10	0.04	1800	112.7572	40.92392	-91.39368
425732	-1034	-5140	-1206	-9.462536	-0.8606769	131.3979	0	11.4	4003	0	0	5	5	1.08285	0.7754366	1	10	0.04	1800	114.1828	40.92392	-91.39368
425796	866	-2032	-728	-8.259055	4.266909	134.7065	0	11.4	4003	0	0	5	5	1.08285	0.7754759	1	10	0.04	1800	117.365	40.92392	-91.39368
425910	2556	-880	-904	-5.864913	7.533881	135.309	0	11.4	4004	0	0	5	5	1.08285	0.770943	1	10	0.04	1800	122.3223	40.92392	-91.39368
426000	1906	-2439	-3754	0.1054862	12.38282	140.635	0	11.4	4002	0	0	5	5	1.08285	0.7726727	1	10	0.04	1800	121.5354	40.92393	-91.39369
426127	-187	-1814	-6301	3.360059	14.64786	148.9339	0	11.4	4003	0	0	5	5	1.08285	0.7792946	1	10	0.04	1800	114.5451	40.92393	-91.39369
426178	-942	-1987	-7225	3.800163	15.66257	152.696	0	11.4	4004	0	0	5	5	1.08285	0.7823842	1	10	0.04	1800	114.5451	40.92393	-91.39369
426252	-3122	4229	-8846	3.175158	13.01347	171.7176	0	11.4	4004	0	0	5	5	1.08285	0.782552	1	10	0.04	1800	94.1475	40.92393	-91.39369
426316	-1352	5485	-9135	3.028638	9.86328	176.6901	0	11.4	4004	0	0	5	5	1.08285	0.7832352	1	10	0.04	1800	78.8108	40.92393	-91.3937
426424	1932	7849	-9286	2.952233	-4.666452	189.6012	0	11.4	4004	0	0	5	5	1.08285	0.7840518	1	10	0.04	1800	63.89493	40.92393	-91.3937
426567	-910	779	1254	1.904094	-19.086	203.5159	0	11.4	4004	0	0	5	5	1.08285	0.7867396	1	10	0.04	1800	40.02873	40.92393	-91.3937
426680	675	-4423	-1853	2.901898	-16.6907	203.2021	0	11.4	4003	0	0	5	5	1.08285	0.7842667	1	10	0.04	1800	40.51162	40.92393	-91.3937
426814	1747	-1416	-1338	6.48227	-8.763794	208.155	0	11.4	4003	0	0	5	5	1.08285	0.7794315	1	10	0.04	1800	38.86943	40.92393	-91.3937
426866	2280	294	-1178	7.60388	-8.883423	208.8352	0	11.4	4002	0	0	5	5	1.08285	0.7686589	1	10	0.04	1800	38.86943	40.92393	-91.3937
426976	918	-1864	-1160	11.90707	-7.149014	211.6207	0	11.4	4002	0	0	5	5	1.08285	0.7479206	1	10	0.04	1800	36.55872	40.92393	-91.3937
427068	1045	-1303	-604	13.36454	-5.988529	212.7972	0	11.4	4004	0	0	5	5	1.08285	0.7435762	1	10	0.04	1800	35.35695	40.92393	-91.3937
427188	1303	289	-2107	14.84574	-3.624923	213.3047	0	11.4	4003	0	0	5	5	1.08285	0.7463458	1	10	0.04	1800	33.78755	40.92393	-91.3937
427276	2067	1351	-3612	16.92898	-5.380873	216.7086	0	11.4	4004	0	0	5	5	1.08285	0.748024	1	10	0.04	1800	33.78755	40.92393	-91.39371
427329	1916	1255	-3540	18.00424	-6.64758	218.6893	0	11.4	4003	0	0	5	5	1.08285	0.7499706	1	10	0.04	1800	30.49123	40.92393	-91.39371
427555	1952	643	-4228	23.95162	-15.84597	229.2029	0	11.4	4002	0	0	5	5	1.08285	0.7667077	1	10	0.04	1800	23.76401	40.92393	-91.39371
427679	-90	-2102	-4204	23.66685	-20.7279	240.5085	0	11.4	4004	0	0	5	5	1.08285	0.7638309	1	10	0.04	1800	13.24079	40.92393	-91.39371
427789	1636	-1178	-4610	22.40463	-21.94926	248.0457	0	11.4	4004	0	0	5	5	1.08285	0.7609006	1	10	0.04	1800	10.23392	40.92393	-91.39371
427910	904	348	-3508	21.4059	-23.59402	254.8944	0	11.4	4003	0	0	5	5	1.08285	0.7582811	1	10	0.04	1800	6.969195	40.92393	-91.39371
427995	-561	571	-3338	17.90516	-28.19868	264.1232	0	11.4	4003	0	0	5	5	1.08285	0.7570645	1	10	0.04	1800	0.6375734	40.92393	-91.39371
428197	-1549	-2269	1178	13.01506	-27.3574	268.4394	0	11.4	4003	0	0	5	5	1.08285	0.7402675	1	10	0.04	1800	-3.889496	40.92393	-91.39371
428354	495	151	1611	13.58231	-23.83789	264.935	0	11.46	4002	0	0	5	5	1.08285	0.7391897	1	10	0.04	1800	-3.53952	40.92393	-91.39371
428433	1229	1500	4623	18.424	-23.19575	258.7394	0	11.46	4004	0	0	5	5	1.08285	0.7348059	1	10	0.04	1800	-2.729187	40.92393	-91.39371
428502	-1201	-1154	3933	20.72696	-21.42808	253.7031	0	11.46	4004	0	0	5	5	1.08285	0.7335663	1	10	0.04	1800	0.2907984	40.92393	-91.39371
428587	-1545	-1118	510	19.28806	-17.42867	250.6384	0	11.46	4003	0	0	5	5	1.08285	0.7263585	1	10	0.04	1800	5.334	40.92393	-91.39372
428627	-1881	-1367	687	18.69019	-16.44864	250.3368	0	11.46	4003	0	0	5	5	1.08285	0.7216679	1	10	0.04	1800	5.334	40.92393	-91.39372
428857	1091	-814	-199	18.82466	-15.52557	247.1916	0	11.46	4004	0	0	5	5	1.08285	0.7162305	1	10	0.04	1800	6.759154	40.92393	-91.39372
428959	-760	-184	147	18.78312	-15.02282	246.9628	0	11.46	4004	0	0	5	5	1.08285	0.7121046	1	10	0.04	1800	7.651321	40.92394	-91.39372
429043	417	-1258	-2561	17.74549	-14.52977	249.8224	0	11.46	4004	0	0	5	5	1.08285	0.6981802	1	10	0.04	1800	7.343942	40.92394	-91.39372
429174	731	-2202	-2475	17.85385	-10.99153	254.0341	0	11.4	4004	0	0	5	5	1.08285	0.6747006	1	10	0.04	1800	4.094774	40.92394	-91.39372
429242	549	-2781	-4783	17.72167	-9.107981	257.8303	0	11.4	4004	0	0	5	5	1.08285	0.6700014	1	10	0.04	1800	2.403489	40.92394	-91.39372
429339	325	-1645	-9102	15.97292	-7.132604	269.7925	0	11.4	4002	0	0	5	5	1.08285	0.6418352	1	10	0.04	1800	-1.345062	40.92394	-91.39372
429479	-407	-2150	-4091	11.55658	-14.59629	295.7313	0	11.4	4004	0	0	5	5	1.08285	0.6215271	1	10	0.04	1800	-19.14349	40.92394	-91.39372
429551	-761	-1932	-2506	10.05895	-14.33163	298.5339	0	11.4	4004	0	0	5	5	1.08285	0.6181329	1	10	0.04	1800	-22.81146	40.92394	-91.39372
429677	922	774	-2083	10.32286	-14.80798	305.1261	0	11.4	4003	0	0	5	5	1.08285	0.6198143	1	10	0.04	1800	-27.08197	40.92394	-91.39372
429738	-963	-432	1820	11.00561	-14.5192	305.1803	0	11.4	4003	0	0	5	5	1.08285	0.6199008	1	10	0.04	1800	-28.82379	40.92394	-91.39372
429882	-1519	1895	2795	9.44937	-15.25142	300.8711	0	11.4	4003	0	0	5	5	1.08285	0.6281627	1	10	0.04	1800	-27.13821	40.92394	-91.39372
429947	230	1806	3522	10.63496	-18.46406	295.3207	0	11.4	4004	0	0	5	5	1.08285	0.6407973	1	10	0.04	1800	-23.48767	40.92394	-91.39372
430044	-1559	-1411	2384	11.01695	-18.21791	291.9598	0	11.4	4003	0	0	5	5	1.08285	0.6449036	1	10	0.04	1800	-20.7554	40.92394	-91.39372
430186	-2397	-2703	1243	6.312032	-11.27929	288.5592	0	11.4	4003	0	0	5	5	1.08285	0.6332664	1	10	0.04	1800	-18.91754	40.92394	-91.39372
430247	-2135	-1584	1345	4.474158	-8.662744	287.1302	0	11.4	4004	0	0	5	5	1.08285	0.6262891	1	10	0.04	1800	-19.26974	40.92394	-91.39372
430355	-2553	-1486	422	1.842576	-6.678032	285.1544	0	11.4	4004	0	0	5	5	1.08285	0.6097748	1	10	0.04	1800	-19.26974	40.92394	-91.39372
430467	801	-2037	-61	1.47546	-3.861465	285.4288	0	11.4	4002	0	0	5	5	1.08285	0.5944309	1	10	0.04	1800	-23.27948	40.92394	-91.39372
430577	899	-917	-868	3.924735	-2.630867	285.7549	0	11.4	4003	0	0	5	5	1.08285	0.5749136	1	10	0.04	1800	-28.8688	40.92394	-91.39372
430627	-120	600	-1476	2.981823	-1.257851	287.406	0	11.4	4003	0	0	5	5	1.08285	0.5529804	1	10	0.04	1800	-28.26764	40.92394	-91.39372
430767	-2693	-2161	-618	-3.464534	3.599757	289.8696	0	11.4	4004	0	0	5	5	1.08285	0.5302175	1	10	0.04	1800	-27.51663	40.92394	-91.39372
430861	-3600	-1875	13	-8.177528	7.616003	290.0736	0	11.4	4002	0	0	5	5	1.08285	0.5110697	1	10	0.04	1800	-28.58679	40.92395	-91.39373
430930	663	3823	-1267	-11.549	5.799553	290.5112	0	11.4	4003	0	0	5	5	1.08285	0.5057386	1	10	0.04	1800	-28.48792	40.92395	-91.39373
431059	316	-1917	-1147	-8.86152	4.076501	292.7596	0	11.4	4003	0	0	5	5	1.08285	0.5020231	1	10	0.04	1800	-29.3924	40.92395	-91.39373
431130	890	-152	1395	-6.724733	7.063435	292.5687	0	11.4	4002	0	0	5	5	1.08285	0.5023361	1	10	0.04	1800	-31.12866	40.92395	-91.39373
431225	2029	3476	2261	-5.051135	3.128861	289.2012	0	11.4	4003	0	0	5	5	1.08285	0.5037677	1	10	0.04	1800	-27.6217	40.92395	-91.39373
431402	-388	1352	3195	-3.795514	-2.471059	280.4173	0	11.4	4003	0	0	5	5	1.08285	0.4943986	1	10	0.04	1800	-21.0491	40.92395	-91.39373
431478	-3211	627	1011	-5.999691	-3.5994	278.3436	0	11.4	4004	0	0	5	5	1.08285	0.4927511	1	10	0.04	1800	-19.09821	40.92395	-91.39373
431582	-461	-152	5719	-8.988362	-5.122444	274.2047	0	11.4	4003	0	0	5	5	1.08285	0.4869933	1	10	0.04	1800	-15.98062	40.92395	-91.39373
431639	-291	1521	7733	-8.523994	-7.467722	266.3608	0	11.4	4004	0	0	5	5	1.08285	0.4859712	1	10	0.04	1800	-12.19492	40.92395	-91.39373
431812	-440	-2125	637	-5.974297	-14.8366	256.5698	0	11.4	4002	0	0	5	5	1.08285	0.4892275	1	10	0.04	1800	-6.413696	40.92395	-91.39373
431836	-440	-2125	637	-5.974297	-14.8366	256.5698	0	11.4	4002	0	0	5	5	1.08285	0.4912905	1	10	0.04	1800	-6.413696	40.92395	-91.39373
431988	-5988	27	-1338	-11.52406	-11.38453	258.8813	0	11.4	4004	0	0	5	5	1.08285	0.5067585	1	10	0.04	1800	-3.374481	40.92395	-91.39373
432056	-1705	306	879	-17.71536	-11.36081	259.4353	0	11.4	4002	0	0	5	5	1.08285	0.5213012	1	10	0.04	1800	-8.64975	40.92395	-91.39373
432237	-3941	552	-898	-24.98438	-16.55163	257.9429	0	11.4	4002	0	0	5	5	1.08285	0.5282045	1	10	0.04	1800	-8.197571	40.92395	-91.39373
432311	2623	962	282	-27.44255	-17.09743	258.3376	0	11.4	4003	0	0	5	5	1.08285	0.5297592	1	10	0.04	1800	-10.39801	40.92395	-91.39373
432397	151	-1437	-94	-22.77944	-17.26715	257.4093	0	11.4	4003	0	0	5	5	1.08285	0.5261476	1	10	0.04	1800	-10.62637	40.92395	-91.39373
432518	-602	728	443	-24.24071	-17.4444	257.3882	0	11.4	4002	0	0	5	5	1.08285	0.5329319	1	10	0.04	1800	-9.267242	40.92395	-91.39373
432584	-1464	-744	664	-24.91089	-17.58003	256.6946	0	11.4	4004	0	0	5	5	1.08285	0.5397201	1	10	0.04	1800	-9.770416	40.92395	-91.39373
432642	718	-970	635	-25.48937	-16.69929	255.5583	0	11.46	4002	0	0	5	5	1.08285	0.5505798	1	10	0.04	1800	-8.850128	40.92394	-91.39373
432787	1149	652	1882	-22.03214	-17.8743	253.336	0	11.46	4009	0	0	5	5	1.08285	0.56058	1	10	0.04	1800	-7.011108	40.92394	-91.39373
432824	875	-215	1574	-21.13531	-18.16686	252.3554	0	11.46	4002	0	0	5	5	1.08285	0.5638065	1	10	0.04	1800	-6.744141	40.92394	-91.39373
432913	-659	-650	648	-20.61114	-17.45168	251.2604	0	11.46	4003	0	0	5	5	1.08285	0.5665024	1	10	0.04	1800	-5.35556	40.92394	-91.39373
433101	1574	1209	2543	-20.84991	-15.29807	249.7142	0	11.46	4002	0	0	5	5	1.08285	0.5768964	1	10	0.04	1800	-1.912537	40.92394	-91.39373
433177	2131	2659	2428	-18.27573	-17.84231	246.8601	0	11.46	4003	0	0	5	5	1.08285	0.5958731	1	10	0.04	1800	0.1611155	40.92394	-91.39373
433271	-1116	-4697	1946	-17.78419	-16.98606	242.1933	0	11.46	4003	0	0	5	5	1.08285	0.6050918	1	10	0.04	1800	2.502181	40.92394	-91.39373
433347	-1458	-5487	-712	-19.22609	-11.76123	241.3741	0	11.46	4003	0	0	5	5	1.08285	0.6145903	1	10	0.04	1800	6.843751	40.92394	-91.39373
433459	3873	-1517	-6516	-16.72359	-2.688724	251.4363	0	11.46	4002	0	0	5	5	1.08285	0.6077899	1	10	0.04	1800	11.04982	40.92394	-91.39373
433650	1446	-346	616	-5.802907	-1.113844	260.5351	0	11.4	4003	0	0	5	5	1.08285	0.5767064	1	10	0.04	1800	3.057264	40.92394	-91.39374
433742	1800	-2470	140	-3.40251	0.9320661	259.9634	0	11.4	4002	0	0	5	5	1.08285	0.5411344	1	10	0.04	1800	3.50712	40.92394	-91.39374
433826	917	822	-87	1.266858	3.628219	260.5624	0	11.4	4003	0	0	5	5	1.08285	0.5128327	1	10	0.04	1800	3.285821	40.92394	-91.39374
433884	-1341	2052	831	0.9792227	1.486081	260.1668	0	11.4	4002	0	0	5	5	1.08285	0.4871434	1	10	0.04	1800	2.973613	40.92394	-91.39374
433966	-1964	372	1095	-0.8959182	0.9408991	259.062	0	11.4	4004	0	0	5	5	1.08285	0.4570012	1	10	0.04	1800	3.689452	40.92394	-91.39374
434037	-1533	1446	-37	-5.351854	0.3404427	257.798	0	11.4	4002	0	0	5	5	1.08285	0.4351177	1	10	0.04	1800	3.821775	40.92394	-91.39374
