time(ms)	gyro_x(deg/s)	gyro_y(deg/s)	gyro_z(deg/s)	orientation_roll(deg)	orientation_pitch(deg)	orientation_yaw(deg)	throttle	battery(V)	loop_time(uS)	pid_output_roll	pid_output_pitch	pid_output_yaw	pid_output_throttle	ultrasonic_alt	baro_alt	flight_mode	p_gain_altitude	i_gain_altitude	d_gain_altitude	compass_heading	latitude	longitude
668944	-518	-665	246	-8.132057	5.470705	126.9522	0	10.77	4002	87	-111	5	5	1.213533	2.794604	8	15	0.04	1600	-5.620483	40.92391	-91.39359
669124	3946	731	-582	1.283467	1.829174	127.6255	0	10.09	4002	87	-111	5	5	1.213533	2.73457	8	15	0.04	1600	-4.678497	40.92391	-91.39359
669271	2377	722	-1756	3.373757	-1.747505	127.3777	0	10.09	4003	81	-111	5	5	1.213533	2.632601	8	15	0.04	1600	-0.9734497	40.92391	-91.39359
669444	3227	2660	-1249	11.00833	-11.85321	128.2447	0	10.09	4004	72	-111	5	5	1.213533	2.488053	8	15	0.04	1600	9.1309	40.92391	-91.39359
669539	1136	1810	588	13.10803	-15.01465	128.0436	0	10.09	4003	63	-111	5	5	1.213533	2.306099	8	15	0.04	1600	12.84544	40.92391	-91.3936
669668	-2961	-1719	1345	9.594133	-11.91551	126.6594	0	10.09	4003	63	-111	5	5	1.213533	2.105539	8	15	0.04	1600	19.84408	40.92391	-91.3936
669831	-1683	-2013	-261	3.549168	-1.932606	127.3689	0	10.09	4002	54	-111	5	5	1.213533	1.872904	8	15	0.04	1600	24.46221	40.92391	-91.3936
669981	-1354	-1140	324	-1.556525	-0.5288856	127.4109	0	10.09	4004	42	-114	5	5	1.213533	1.774255	8	15	0.04	1600	23.53398	40.92391	-91.39361
670178	-3768	1842	-131	-3.022323	-2.928299	127.38	0	9.81	4002	30	-111	5	5	1.213533	1.603204	8	15	0.04	1600	23.36145	40.92391	-91.39361
670337	1700	-616	-272	-7.219122	-7.659922	127.0397	0	9.81	4003	18	-111	5	5	1.213533	1.491543	8	15	0.04	1600	18.8804	40.92391	-91.39362
670421	-800	-3552	654	-4.241314	-4.823965	126.6655	0	9.81	4004	18	-111	5	5	1.213533	1.404607	8	15	0.04	1600	16.37111	40.92391	-91.39362
670491	893	-1250	-652	-4.850975	-1.172243	126.5965	0	9.81	4002	10	-136	5	5	1.213533	1.359395	8	15	0.04	1600	17.45352	40.92391	-91.39362
670546	1170	-2541	-729	-3.807662	0.3591311	126.8776	0	9.81	4002	9	-114	5	5	1.213533	1.33275	8	15	0.04	1600	17.79346	40.92391	-91.39362
670701	166	-897	-586	-1.323637	2.554054	127.4342	0	9.81	4004	-3	-111	5	5	1.213533	1.260506	8	15	0.04	1600	15.58619	40.92391	-91.39362
670829	-12	-2933	-1478	-0.9633593	4.96636	127.4277	0	9.81	4003	-6	-117	5	5	1.213533	1.211852	8	15	0.04	1600	13.91993	40.92391	-91.39362
670882	0	58	144	-0.7119784	5.495753	127.2344	0	9.81	4004	-12	-111	5	5	1.213533	1.205357	8	15	0.04	1600	16.04751	40.92391	-91.39362
670983	-979	-44	-821	-0.9774418	4.458964	127.7503	0	9.92	4002	-15	-108	5	5	1.213533	1.171697	8	15	0.04	1600	15.01263	40.92391	-91.39362
671060	-1027	1383	295	-2.158159	2.150414	127.5504	0	9.92	4003	-21	-108	5	5	1.213533	1.161721	8	15	0.04	1600	14.29587	40.92391	-91.39362
671225	-1504	1840	-674	-1.940063	-6.100286	127.7791	0	9.92	4003	-30	-105	5	5	1.213533	1.151249	8	15	0.04	1600	11.10834	40.92391	-91.39363
671276	596	1578	-844	-2.180083	-7.317982	128.1633	0	9.92	4003	-30	-105	5	5	1.213533	1.151008	8	15	0.04	1600	11.14008	40.92391	-91.39363
671495	-1117	1281	-237	-6.012293	-15.07972	127.8098	0	9.92	4003	-36	-108	5	5	1.213533	1.185322	8	15	0.04	1600	8.418777	40.92391	-91.39363
671644	-1792	-1608	-1435	-9.477407	-9.97804	127.7046	0	9.92	4004	-39	-105	5	5	1.213533	1.22713	8	15	0.04	1600	3.01382	40.92391	-91.39363
671701	-1367	-286	904	-9.756128	-9.205745	127.8067	0	9.92	4003	-39	-105	5	5	1.213533	1.245406	8	15	0.04	1600	1.944829	40.92391	-91.39363
671838	-446	-2488	201	-9.284481	-6.354208	127.111	0	9.92	4004	-50	-129	5	5	1.213533	1.287039	8	15	0.04	1600	0.2187684	40.92391	-91.39363
671966	-1728	809	-308	-10.26743	-5.715521	126.6025	0	10.26	4002	-45	-102	5	5	1.213533	1.301837	8	15	0.04	1600	-1.525848	40.92391	-91.39363
672020	-1379	-2542	-1197	-12.19618	-5.686955	126.6552	0	10.26	4002	-45	-102	5	5	1.213533	1.305568	8	15	0.04	1600	-2.724091	40.92391	-91.39363
672095	1958	-1637	501	-10.32893	-3.083923	126.8298	0	10.26	4004	-39	-102	5	5	1.213533	1.308447	8	15	0.04	1600	-4.998199	40.92391	-91.39363
672232	1712	-1860	-1707	-3.445186	-0.8902794	128.0952	0	10.26	4002	-45	-102	5	5	1.213533	1.30856	8	15	0.04	1600	-6.596527	40.92391	-91.39363
672325	1356	-1414	1287	-0.08619554	1.229709	128.41	0	10.26	4004	-45	-102	5	5	1.213533	1.306979	8	15	0.04	1600	-6.11734	40.92391	-91.39363
672376	622	-2106	797	0.08861065	2.332893	128.2592	0	10.26	4004	-45	-102	5	5	1.213533	1.309044	8	15	0.04	1600	-6.735687	40.92391	-91.39363
672507	901	-1133	-1171	1.023197	3.623996	127.8153	0	10.26	4002	-42	-102	5	5	1.213533	1.31705	8	15	0.04	1600	-4.095093	40.92391	-91.39363
672660	1245	731	798	1.067937	3.306755	126.7487	0	10.26	4004	-39	-102	5	5	1.213533	1.337181	8	15	0.04	1600	-1.680298	40.92391	-91.39363
672840	-1581	-1482	372	3.061064	2.439807	127.9205	0	10.72	4002	-30	-102	5	5	1.213533	1.372824	8	15	0.04	1600	1.398112	40.92391	-91.39363
672935	1349	-657	1127	2.270921	3.865922	128.576	0	10.72	4003	-36	-102	5	5	1.213533	1.402788	8	15	0.04	1600	2.025231	40.92391	-91.39363
673061	-1463	2264	-217	1.436856	-1.073155	128.4344	0	10.72	4003	-30	-105	5	5	1.213533	1.43593	8	15	0.04	1600	3.028177	40.92391	-91.39363
673239	-2608	-65	-703	-3.026281	-5.188604	127.4941	0	10.72	4003	-24	-102	5	5	1.213533	1.503732	8	15	0.04	1600	1.36265	40.92391	-91.39362
673287	-2850	1748	1519	-5.718472	-6.088641	127.276	0	10.72	4004	-24	-102	5	5	1.213533	1.521125	8	15	0.04	1600	1.36265	40.92391	-91.39362
673341	-1807	780	-1147	-7.044734	-6.766489	127.4132	0	10.72	4004	-9	-102	5	5	1.213533	1.536973	8	15	0.04	1600	1.14777	40.92391	-91.39362
673491	-1815	478	-917	-10.18812	-10.05995	128.3724	0	10.72	4003	-15	-102	5	5	1.213533	1.566432	8	15	0.04	1600	-2.093872	40.92391	-91.39362
673553	-1304	-648	-2009	-10.88384	-9.703515	128.7583	0	10.72	4003	-3	-111	5	5	1.213533	1.609763	8	15	0.04	1600	-3.723877	40.92391	-91.39362
673645	33	3333	1729	-11.61537	-12.92259	128.6093	0	10.72	4003	-9	-105	5	5	1.213533	1.646161	8	15	0.04	1600	-8.259094	40.92391	-91.39362
673750	31	574	-280	-10.3162	-14.12317	128.157	0	9.98	4003	0	-102	5	5	1.213533	1.688989	8	15	0.04	1600	-9.032898	40.92391	-91.39362
673878	-324	-808	-356	-9.056578	-12.34724	128.0672	0	9.98	4003	0	-102	5	5	1.213533	1.770162	8	15	0.04	1600	-12.23676	40.92391	-91.39362
674041	537	-3942	-1046	-3.42137	-7.771957	129.2267	0	9.98	4003	9	-105	5	5	1.213533	1.876811	8	15	0.04	1600	-14.26102	40.92391	-91.39362
674154	-283	-2143	-646	-3.606225	-2.504031	129.5872	0	9.98	4003	9	-105	5	5	1.213533	1.939404	8	15	0.04	1600	-11.94556	40.92391	-91.39362
674243	-1190	-2098	594	-3.687309	-2.158237	128.2171	0	9.98	4002	15	-102	5	5	1.213533	1.98737	8	15	0.04	1600	-13.04749	40.92391	-91.39362
674297	-977	-3251	1220	-4.00511	-1.27424	127.9858	0	9.98	4003	15	-102	5	5	1.213533	2.049392	8	15	0.04	1600	-11.96506	40.92391	-91.39362
674358	447	-2339	-331	-4.026129	1.745475	128.2134	0	9.98	4002	18	-122	5	5	1.213533	2.081795	8	15	0.04	1600	-12.53729	40.92391	-91.39362
674552	799	4396	302	-2.170787	-0.5465794	129.289	0	9.98	4002	21	-102	5	5	1.213533	2.218627	8	15	0.04	1600	-14.38089	40.92391	-91.39362
674587	-331	4092	-590	-2.417237	-3.375099	129.2172	0	9.98	4003	21	-102	5	5	1.213533	2.233632	8	15	0.04	1600	-14.38089	40.92391	-91.39362
674769	99	1631	644	-2.355746	-11.60424	128.5341	0	9.64	4003	27	-105	5	5	1.213533	2.349308	8	15	0.04	1600	-13.36084	40.92391	-91.39362
674941	-931	4749	-544	-2.956593	-16.79859	128.4567	0	9.64	4003	33	-105	5	5	1.213533	2.438253	8	15	0.04	1600	-10.0983	40.92391	-91.39361
674997	-492	1588	-524	-3.996259	-19.15036	128.7077	0	9.64	4003	39	-111	5	5	1.213533	2.461605	8	15	0.04	1600	-10.59293	40.92391	-91.39361
675213	1288	2792	620	-2.965879	-13.55848	129.1684	0	9.64	4002	42	-111	5	5	1.213533	2.563873	8	15	0.04	1600	-10.91763	40.92391	-91.39361
675332	962	369	566	0.1966742	-16.21959	128.9922	0	9.64	4002	42	-105	5	5	1.213533	2.605162	8	15	0.04	1600	-9.348145	40.92391	-91.39361
675423	-569	-1239	-443	-0.8138238	-13.17934	128.9412	0	9.64	4004	45	-108	5	5	1.213533	2.638677	8	15	0.04	1600	-7.65332	40.92391	-91.39361
675536	793	3361	31	0.1986834	-14.47934	128.642	0	9.98	4003	0	0	5	5	1.213533	2.665681	3	15	0.04	1600	-6.772949	40.92391	-91.39361
675566	793	3361	31	0.1986834	-14.47934	128.642	0	9.98	4003	0	0	5	5	1.213533	2.67182	3	15	0.04	1600	-6.772949	40.92391	-91.39361
675711	2665	1672	-809	2.440752	-19.58588	128.0447	0	9.98	4004	0	0	5	5	1.213533	2.715758	3	15	0.04	1600	-4.707764	40.92391	-91.39361
675790	853	635	-801	4.117733	-19.31916	128.307	0	9.98	4004	0	0	5	5	1.213533	2.726366	3	15	0.04	1600	-4.593811	40.92391	-91.39361
675910	-25	-2891	-1678	1.392386	-13.78883	129.8037	0	9.98	4004	0	0	5	5	1.213533	2.735252	3	15	0.04	1600	-2.378326	40.92391	-91.39361
676106	-2108	-7919	183	-0.8809496	-4.841215	128.8672	0	9.98	4003	0	0	5	5	1.213533	2.759852	3	15	0.04	1600	-0.2648315	40.92391	-91.39361
676228	-381	-2712	1371	-4.025176	8.429337	127.9092	0	9.98	4003	0	0	5	5	1.213533	2.752352	3	15	0.04	1600	2.400001	40.92391	-91.39361
676267	-596	-2107	124	-4.107926	9.349677	127.7862	0	9.98	4003	0	0	5	5	1.213533	2.750708	3	15	0.04	1600	2.400001	40.92391	-91.39361
676452	466	-278	-2358	-4.004455	4.107609	127.9721	0	9.98	4003	0	0	5	5	1.213533	2.744181	3	15	0.04	1600	3.382993	40.92391	-91.39361
676486	885	-104	-1162	-3.68566	3.268986	128.1287	0	10.55	4003	0	0	5	5	1.213533	2.742598	3	15	0.04	1600	3.570564	40.92391	-91.39361
676558	2020	-894	-401	-2.09953	2.596081	128.7587	0	10.55	4004	0	0	5	5	1.213533	2.737693	3	15	0.04	1600	2.043508	40.92391	-91.39361
676745	-925	-1848	766	-0.2180565	0.8431899	128.4152	0	10.55	4003	0	0	5	5	1.213533	2.735068	3	15	0.04	1600	4.657177	40.92391	-91.39361
676802	212	-3749	-361	-1.308198	2.9992	128.5229	0	10.55	4003	0	0	5	5	1.213533	2.742392	3	15	0.04	1600	7.317482	40.92391	-91.39361
676898	1228	-334	117	-1.560803	4.56725	128.2589	0	10.55	4004	0	0	5	5	1.213533	2.750782	3	15	0.04	1600	9.85637	40.92391	-91.39361
676965	1343	1447	951	-0.6051116	3.777578	128.6662	0	10.55	4002	0	0	5	5	1.213533	2.75725	3	15	0.04	1600	11.17464	40.92391	-91.39361
677150	932	-565	-1315	-1.183681	-1.116109	128.6275	0	10.55	4003	0	0	5	5	1.213533	2.766074	3	15	0.04	1600	14.20019	40.92391	-91.39362
677170	987	-1445	-1788	-0.8715054	-1.784159	128.9268	0	10.55	4004	0	0	5	5	1.213533	2.766074	3	15	0.04	1600	16.4063	40.92391	-91.39362
677297	118	4339	1175	-0.2904058	-5.282177	128.9156	0	10.55	4002	0	0	5	5	1.213533	2.760141	3	15	0.04	1600	17.86248	40.92391	-91.39362
677483	1261	1205	-183	-0.8781755	-12.77123	128.5672	0	10.55	4003	0	0	5	5	1.213533	2.751912	3	15	0.04	1600	18.01896	40.92391	-91.39362
677524	319	1786	226	-0.1629477	-13.38315	128.4609	0	10.55	4002	0	0	5	5	1.213533	2.748824	3	15	0.04	1600	16.0407	40.92391	-91.39362
677648	-2320	3039	-266	-1.71135	-17.74216	128.1151	0	10.55	4002	0	0	5	5	1.213533	2.730331	3	15	0.04	1600	16.57079	40.92391	-91.39362
677753	-2062	3566	614	-7.741988	-20.00424	127.5484	0	10.55	4003	0	0	5	5	1.213533	2.700222	3	15	0.04	1600	13.47412	40.92391	-91.39362
677883	-2367	-2534	1315	-10.79851	-19.57373	127.0656	0	10.55	4003	0	0	5	5	1.213533	2.671386	3	15	0.04	1600	6.896198	40.92391	-91.39362
677973	755	-1515	-191	-10.59459	-12.19307	127.98	0	10.55	4002	0	0	5	5	1.213533	2.635174	3	15	0.04	1600	4.789751	40.92391	-91.39362
678045	-152	-3487	63	-9.649858	-9.266699	128.3331	0	10.55	4003	0	0	5	5	1.213533	2.599832	3	15	0.04	1600	5.475049	40.92391	-91.39362
678154	74	-1282	-262	-8.765323	-5.840671	128.1067	0	10.55	4003	0	0	5	5	1.213533	2.553682	3	15	0.04	1600	5.342141	40.92391	-91.39362
678202	-84	-425	800	-7.037114	-7.86121	127.0645	0	10.55	4003	0	0	5	5	1.213533	2.52876	3	15	0.04	1600	4.215906	40.92391	-91.39362
678284	790	-857	542	-6.063522	-6.383942	126.7485	0	9.98	4002	0	0	5	5	1.213533	2.481015	3	15	0.04	1600	3.949569	40.92391	-91.39362
678358	-18	-1863	73	-5.613343	-4.722884	126.8626	0	9.98	4004	0	0	5	5	1.213533	2.442569	3	15	0.04	1600	5.76296	40.92391	-91.39362
678470	-363	2949	243	-5.642831	-6.783453	126.8825	0	9.98	4003	0	0	5	5	1.213533	2.375311	3	15	0.04	1600	5.360561	40.92391	-91.39362
678600	1398	562	-1122	-4.16326	-9.609778	127.6539	0	9.98	4002	0	0	5	5	1.213533	2.300063	3	15	0.04	1600	3.232297	40.92391	-91.39362
678810	166	3617	66	-3.042637	-10.01963	127.6953	0	9.98	4003	0	0	5	5	1.213533	2.142678	3	15	0.04	1600	2.711924	40.92391	-91.39362
678993	-1740	346	-464	-3.000471	-15.22657	127.8377	0	9.98	4002	0	0	5	5	1.213533	2.019066	3	15	0.04	1600	4.227534	40.92391	-91.39362
679148	-2691	1611	2	-5.633019	-13.48772	127.312	0	9.98	4004	0	0	5	5	1.213533	1.928325	3	15	0.04	1600	2.379309	40.92391	-91.39362
679234	-1634	-1628	-1117	-8.496603	-14.09048	126.9392	0	10.38	4002	0	0	5	5	1.213533	1.875603	3	15	0.04	1600	1.756687	40.92391	-91.39362
679275	-1355	-1583	51	-8.702274	-12.76476	127.0935	0	10.38	4003	0	0	5	5	1.213533	1.85003	3	15	0.04	1600	0.2219615	40.92391	-91.39362
679378	-1560	-1687	2244	-9.798304	-7.728589	127.4953	0	10.38	4003	0	0	5	5	1.213533	1.796387	3	15	0.04	1600	-0.8685913	40.92391	-91.39362
679479	2926	-939	507	-8.063625	-3.403598	128.2961	0	10.38	4004	0	0	5	5	1.213533	1.745601	3	15	0.04	1600	-2.033508	40.92391	-91.39362
679757	-63	-2116	-924	-2.517508	-0.08187029	128.1687	0	10.38	4003	0	0	5	5	1.213533	1.631968	3	15	0.04	1600	-0.6021118	40.92391	-91.39362
679816	754	195	723	-2.257451	0.1217549	127.8929	0	10.38	4003	0	0	5	5	1.213533	1.603941	3	15	0.04	1600	-0.6021118	40.92391	-91.39362
679925	712	761	868	-1.575812	1.301217	127.2668	0	10.38	4002	0	0	5	5	1.213533	1.549876	3	15	0.04	1600	0.3641731	40.92391	-91.39362
680012	496	1934	1458	-0.7931093	0.1697749	127.0024	0	10.38	4003	0	0	5	5	1.213533	1.521502	3	15	0.04	1600	1.794084	40.92391	-91.39362
680137	87	-185	-1153	-0.08441214	-2.122382	127.7857	0	9.7	4003	0	0	5	5	1.213533	1.474904	3	15	0.04	1600	3.836666	40.92391	-91.39362
680267	64	1692	-440	-1.096769	-6.069188	127.8557	0	9.7	4002	0	0	5	5	1.213533	1.406912	3	15	0.04	1600	4.530385	40.92391	-91.39362
680334	-28	864	869	-0.6395926	-7.564745	127.6925	0	9.7	4003	0	0	5	5	1.213533	1.393825	3	15	0.04	1600	5.920417	40.92391	-91.39362
680457	-300	243	-328	-1.154537	-8.843659	127.4936	0	9.7	4004	0	0	5	5	1.213533	1.270832	3	15	0.04	1600	6.92732	40.92391	-91.39362
680604	793	-142	-1076	-1.414792	-9.030878	127.2783	0	9.7	4003	0	0	5	5	1.213533	1.217551	3	15	0.04	1600	8.54657	40.92391	-91.39362
680780	1337	3017	-1158	1.326386	-14.41443	128.5385	0	9.7	4002	0	0	5	5	1.213533	1.092889	3	15	0.04	1600	8.567059	40.92391	-91.39362
680856	-595	-2711	-703	-4.561292	-12.0181	130.4249	0	9.7	4002	0	0	5	5	1.213533	1.04708	3	15	0.04	1600	5.531523	40.92391	-91.39362
680992	-168	-17	-74	-4.122829	-6.763044	130.4738	0	9.7	4003	0	0	5	5	1.213533	0.9518152	3	15	0.04	1600	3.592002	40.92391	-91.39362
681049	-84	-182	-57	-3.827659	-6.294521	130.448	0	10.77	4004	0	0	5	5	1.213533	0.9241074	3	15	0.04	1600	2.909741	40.92391	-91.39362
681176	-67	-267	9	-3.587676	-4.989257	130.4249	0	10.77	4003	0	0	5	5	1.213533	0.8353977	3	15	0.04	1600	1.887071	40.92391	-91.39362
681267	-92	-53	46	-3.370613	-3.939821	130.4304	0	10.77	4002	0	0	5	5	1.213533	0.7805776	1	15	0.04	1600	1.715252	40.92391	-91.39362
681305	-129	-66	28	-3.292166	-3.747549	130.4194	0	10.77	4002	0	0	5	5	1.213533	0.7679129	1	15	0.04	1600	1.715252	40.92391	-91.39362
681450	-100	-62	-2	-3.030824	-2.989045	130.3957	0	10.77	4002	0	0	5	5	1.213533	0.673368	1	15	0.04	1600	0.9105	40.92391	-91.39362
681546	-91	-48	-40	-2.857804	-2.51718	130.3742	0	10.77	4004	0	0	5	5	1.213533	0.6478605	1	15	0.04	1600	0.3602076	40.92391	-91.39362
681578	-98	4	19	-2.821823	-2.373141	130.3738	0	10.77	4002	0	0	5	5	1.213533	0.6364005	1	15	0.04	1600	0.8252024	40.92391	-91.39362
681760	-116	-16	5	-2.59743	-1.771526	130.3307	0	10.77	4003	0	0	5	5	1.213533	0.5587747	1	15	0.04	1600	0.6881495	40.92391	-91.39362
681881	-122	-14	-4	-2.443684	-1.390453	130.3037	0	10.77	4004	0	0	5	5	1.213533	0.5368569	1	15	0.04	1600	0.2765638	40.92391	-91.39362
681945	-125	-20	25	-2.389869	-1.22323	130.2893	0	10.77	4004	0	0	5	5	1.213533	0.5084441	1	15	0.04	1600	0.8260902	40.92391	-91.39362
682041	-116	-6	33	-2.335661	-1.064487	130.2723	0	10.72	4002	0	0	5	5	1.213533	0.4782759	1	15	0.04	1600	0.5055287	40.92391	-91.39362
682083	-116	-25	6	-2.260327	-0.864877	130.2499	0	10.72	4004	0	0	5	5	1.213533	0.4732469	1	15	0.04	1600	0.01301125	40.92391	-91.39362
682288	-113	0	22	-2.148652	-0.5755206	130.2103	0	10.72	4002	0	0	5	5	1.213533	0.4413785	1	15	0.04	1600	-0.6785889	40.92391	-91.39362
682395	-109	-8	9	-2.067405	-0.3758973	130.1793	0	10.72	4002	0	0	5	5	1.213533	0.4260305	1	15	0.04	1600	-0.3999329	40.92391	-91.39362
682582	-107	-6	12	-1.967158	-0.1370715	130.1359	0	10.72	4002	0	0	5	5	1.213533	0.4039314	1	15	0.04	1600	-0.9326477	40.92391	-91.39362
682646	-113	-9	15	-1.947682	-0.07311808	130.1233	0	10.72	4002	0	0	5	5	1.213533	0.3839613	1	15	0.04	1600	-1.185608	40.92391	-91.39362
682722	-112	0	14	-1.911447	0.02091513	130.1031	0	10.72	4003	0	0	5	5	1.213533	0.3671777	1	15	0.04	1600	-1.222565	40.92392	-91.39362
682792	-112	-9	18	-1.875298	0.09929658	130.0815	0	10.72	4004	0	0	5	5	1.213533	0.3602664	1	15	0.04	1600	-1.047302	40.92392	-91.39362
682885	-109	0	12	-1.849526	0.163474	130.0586	0	10.77	4003	0	0	5	5	1.213533	0.3589846	1	15	0.04	1600	-1.110809	40.92392	-91.39362
682976	-109	-4	13	-1.822389	0.2219654	130.0383	0	10.77	4002	0	0	5	5	1.213533	0.3680133	1	15	0.04	1600	-1.337616	40.92392	-91.39362
683041	-107	-3	12	-1.809615	0.2672834	130.025	0	10.77	4004	0	0	5	5	1.213533	0.3657447	1	15	0.04	1600	-1.37616	40.92392	-91.39362
683146	-103	-5	5	-1.796324	0.3185917	130.002	0	10.77	4002	0	0	5	5	1.213533	0.3630812	1	15	0.04	1600	-1.618073	40.92392	-91.39362
683318	-105	-5	10	-1.777225	0.3900479	129.9691	0	10.77	4003	0	0	5	5	1.213533	0.3692806	1	15	0.04	1600	-1.422913	40.92392	-91.39362
683459	-109	-1	18	-1.759905	0.4373777	129.9313	0	10.77	4004	0	0	5	5	1.213533	0.3738893	1	15	0.04	1600	-1.443695	40.92392	-91.39362
683513	-111	-7	15	-1.756352	0.4590954	129.9178	0	10.77	4003	0	0	5	5	1.213533	0.3754084	1	15	0.04	1600	-1.460052	40.92392	-91.39362
683600	-104	-8	14	-1.743376	0.4712068	129.9019	0	10.77	4003	0	0	5	5	1.213533	0.378296	1	15	0.04	1600	-1.467468	40.92392	-91.39362
683751	-108	-8	14	-1.733556	0.5322197	129.8661	0	10.77	4004	0	0	5	5	1.213533	0.3756759	1	15	0.04	1600	-1.489014	40.92392	-91.39362
683902	-107	-2	10	-1.720379	0.5782155	129.8375	0	10.77	4003	0	0	5	5	1.213533	0.361316	1	15	0.04	1600	-1.499542	40.92392	-91.39362
684064	-109	-3	6	-1.714215	0.6177607	129.8046	0	10.77	4002	0	0	5	5	1.213533	0.3546448	1	15	0.04	1600	-1.529999	40.92392	-91.39362
684166	-114	-1	10	-1.710148	0.6342045	129.779	0	10.77	4002	0	0	5	5	1.213533	0.3506155	1	15	0.04	1600	-1.517395	40.92392	-91.39362
684297	-108	-1	11	-1.706351	0.6529566	129.7587	0	10.77	4002	0	0	5	5	1.213533	0.3450402	1	15	0.04	1600	-1.307922	40.92392	-91.39362
684433	-109	3	16	-1.690936	0.6790959	129.7324	0	10.77	4002	0	0	5	5	1.213533	0.3648486	1	15	0.04	1600	-1.555176	40.92392	-91.39362
684570	-703	1655	-2	-1.797081	0.8807148	129.4741	0	10.77	4003	0	0	5	5	1.213533	0.4021161	1	15	0.04	1600	-1.035492	40.92392	-91.39362
684649	-1658	-760	950	-4.130124	-1.037583	128.6838	0	10.77	4004	0	0	5	5	1.213533	0.4318152	1	15	0.04	1600	-0.08303833	40.92392	-91.39362
684704	-1559	-2403	-1358	-4.66469	2.813069	129.2236	0	10.77	4003	0	0	5	5	1.213533	0.4451277	1	15	0.04	1600	0.1870845	40.92392	-91.39362
684897	332	-2014	3199	-3.408664	6.930003	128.4669	0	10.77	4003	0	0	5	5	1.213533	0.4927826	1	15	0.04	1600	0.240896	40.92392	-91.39362
685087	-3665	-164	5806	-11.57543	7.096809	107.6979	0	10.77	4003	0	0	5	5	1.213533	0.5402075	1	15	0.04	1600	10.14847	40.92392	-91.39362
685255	-1156	2564	6426	-16.79108	2.282104	93.07605	0	10.77	4004	0	0	5	5	1.213533	0.5934617	1	15	0.04	1600	12.76494	40.92392	-91.39362
685307	-824	-587	6559	-16.65813	1.248044	89.49054	0	10.77	4003	0	0	5	5	1.213533	0.6217381	1	15	0.04	1600	12.99626	40.92392	-91.39362
685421	-1303	-3567	2996	-15.2998	5.618196	77.11082	0	10.77	4004	0	0	5	5	1.213533	0.6609179	1	15	0.04	1600	19.91239	40.92392	-91.39362
685511	3808	-3020	-1802	-13.04776	9.912008	76.83216	0	10.77	4004	0	0	5	5	1.213533	0.6925721	1	15	0.04	1600	22.45371	40.92392	-91.39362
685579	2956	-1778	-2183	-9.561495	12.63545	79.18201	0	10.83	4004	0	0	5	5	1.213533	0.740796	1	15	0.04	1600	25.0133	40.92392	-91.39362
685694	2709	1610	601	-5.425087	13.32427	80.61858	0	10.83	4004	0	0	5	5	1.213533	0.8080852	1	15	0.04	1600	26.17426	40.92392	-91.39362
685819	1523	-467	2313	-2.713415	13.89935	76.29593	0	10.83	4002	0	0	5	5	1.213533	0.8771139	1	15	0.04	1600	27.59293	40.92392	-91.39362
685994	415	560	3963	-1.939568	15.60495	69.54968	0	10.83	4003	0	0	5	5	1.213533	0.9805114	1	15	0.04	1600	33.96256	40.92392	-91.39362
686081	670	-4899	4689	-1.443173	17.5388	61.8299	0	10.83	4003	0	0	5	5	1.213533	1.00434	1	15	0.04	1600	36.81438	40.92392	-91.39362
686200	2757	-3637	577	-0.3009536	24.31607	56.24512	0	10.83	4003	0	0	5	5	1.213533	1.025301	1	15	0.04	1600	50.74954	40.92392	-91.39362
686279	1472	-3105	418	2.640101	26.02163	55.74085	0	10.83	4004	0	0	5	5	1.213533	1.031055	1	15	0.04	1600	56.54991	40.92392	-91.39362
686387	740	-1479	1399	3.074115	27.01171	54.24375	0	10.83	4002	0	0	5	5	1.213533	1.036526	1	15	0.04	1600	61.8426	40.92392	-91.39362
686552	-3879	6736	352	-3.058658	17.21057	50.85694	0	10.83	4004	0	0	5	5	1.213533	1.045371	1	15	0.04	1600	84.8129	40.92392	-91.39362
686660	-1397	4013	-270	-6.590205	8.066213	50.68562	0	10.83	4003	0	0	5	5	1.213533	1.046877	1	15	0.04	1600	83.36395	40.92392	-91.39362
686686	-1397	4013	-270	-6.590205	8.066213	50.68562	0	10.83	4003	0	0	5	5	1.213533	1.046298	1	15	0.04	1600	83.36395	40.92392	-91.39362
686896	1065	2336	-1469	-6.414742	-0.4497096	56.05283	0	10.83	4003	0	0	5	5	1.213533	1.036419	1	15	0.04	1600	56.84011	40.92392	-91.39362
687051	-698	1156	1358	-4.610868	-1.974425	58.20952	0	10.83	4002	0	0	5	5	1.213533	1.023165	1	15	0.04	1600	42.15461	40.92392	-91.39362
687167	-1693	-5815	879	-7.57425	-0.6873999	54.87378	0	10.83	4003	0	0	5	5	1.213533	1.006765	1	15	0.04	1600	40.80904	40.92392	-91.39362
687187	-2463	-6489	508	-8.341262	2.83446	54.49318	0	10.83	4002	0	0	5	5	1.213533	1.006765	1	15	0.04	1600	40.80904	40.92392	-91.39362
687333	1301	-5098	962	-7.368498	12.85713	53.56157	0	10.83	4003	0	0	5	5	1.213533	0.9631401	1	15	0.04	1600	47.15828	40.92392	-91.39362
687465	-1877	-3963	1386	-8.180748	17.30408	50.18633	0	10.89	4003	0	0	5	5	1.213533	0.9570447	1	15	0.04	1600	59.89301	40.92392	-91.39362
687536	-1393	-2976	-428	-9.912892	17.97509	49.61307	0	10.89	4004	0	0	5	5	1.213533	0.9596686	1	15	0.04	1600	69.64709	40.92392	-91.39363
687699	773	3876	-907	-9.752194	4.620028	52.10806	0	10.89	4004	0	0	5	5	1.213533	0.9837592	1	15	0.04	1600	77.06427	40.92392	-91.39363
687864	1147	2747	-1524	-8.466331	-5.676444	56.10706	0	10.89	4002	0	0	5	5	1.213533	0.9993627	1	15	0.04	1600	55.09834	40.92392	-91.39363
687896	1085	2736	-1185	-7.958324	-6.093853	56.83028	0	10.89	4002	0	0	5	5	1.213533	1.004996	1	15	0.04	1600	48.59863	40.92392	-91.39363
688061	230	102	-90	-5.71594	-5.582091	58.11634	0	10.89	4002	0	0	5	5	1.213533	1.017655	1	15	0.04	1600	42.20649	40.92392	-91.39363
688131	732	3147	2236	-5.214296	-5.847793	57.06765	0	10.89	4004	0	0	5	5	1.213533	1.006117	1	15	0.04	1600	41.67868	40.92392	-91.39364
688262	-2074	-8057	1799	-4.948852	0.7957595	51.93579	0	10.89	4003	0	0	5	5	1.213533	0.9846445	1	15	0.04	1600	40.40012	40.92392	-91.39364
688398	112	-3201	653	-3.482861	8.84177	49.20001	0	10.83	4003	0	0	5	5	1.213533	0.9746118	1	15	0.04	1600	57.38382	40.92392	-91.39364
688584	-538	2044	-948	-5.823143	7.020785	49.46157	0	10.83	4002	0	0	5	5	1.213533	0.9964787	1	15	0.04	1600	73.52535	40.92392	-91.39364
688802	681	2548	-2707	-7.697153	-16.67286	54.61728	0	10.83	4004	0	0	5	5	1.213533	1.031909	1	15	0.04	1600	58.14978	40.92392	-91.39365
688875	1465	2042	-5676	-9.237463	-15.75455	64.78549	0	10.83	4004	0	0	5	5	1.213533	1.053551	1	15	0.04	1600	51.53302	40.92392	-91.39365
688929	1645	1543	-4885	-8.823582	-14.93269	70.71124	0	10.83	4003	0	0	5	5	1.213533	1.071671	1	15	0.04	1600	42.08404	40.92392	-91.39365
689002	2387	-533	-2710	-5.424879	-11.92092	78.59475	0	10.83	4003	0	0	5	5	1.213533	1.090336	1	15	0.04	1600	31.73394	40.92392	-91.39365
689125	760	1943	-1072	-4.840513	-11.62602	83.79256	0	10.89	4004	0	0	5	5	1.213533	1.098361	1	15	0.04	1600	29.26807	40.92392	-91.39365
689261	-252	-5087	108	-2.459395	-8.120342	83.66242	0	10.89	4003	0	0	5	5	1.213533	1.118959	1	15	0.04	1600	29.11442	40.92392	-91.39365
689463	-1591	-2093	-3374	-4.555202	-6.912111	86.70798	0	10.89	4004	0	0	5	5	1.213533	1.136688	1	15	0.04	1600	35.73908	40.92392	-91.39365
689563	-1718	1019	-5385	-9.367169	-7.217361	97.02323	0	10.89	4002	0	0	5	5	1.213533	1.152723	1	15	0.04	1600	33.93615	40.92392	-91.39365
689664	-2947	1422	-7511	-13.42767	-8.544228	107.6018	0	10.89	4004	0	0	5	5	1.213533	1.169061	1	15	0.04	1600	22.13795	40.92392	-91.39365
689800	1277	1569	-7600	-16.4006	-8.645968	124.5841	0	10.89	4002	0	0	5	5	1.213533	1.190711	1	15	0.04	1600	7.660323	40.92392	-91.39365
689946	-461	353	-7584	-17.72525	-3.608104	141.26	0	10.89	4003	0	0	5	5	1.213533	1.204418	1	15	0.04	1600	-4.107178	40.92392	-91.39365
690038	1137	2237	-5918	-15.02355	-0.6957087	156.6888	0	10.83	4002	0	0	5	5	1.213533	1.219743	1	15	0.04	1600	-9.459656	40.92392	-91.39365
690144	894	1695	-4334	-12.61641	-0.9123701	162.2775	0	10.83	4003	0	0	5	5	1.213533	1.243692	1	15	0.04	1600	-15.96429	40.92392	-91.39365
690272	2095	3598	-68	-8.921185	-6.35524	167.6396	0	10.83	4003	0	0	5	5	1.213533	1.260143	1	15	0.04	1600	-24.80701	40.92392	-91.39365
690397	939	772	2286	-4.01069	-9.065924	164.2946	0	10.83	4004	0	0	5	5	1.213533	1.268306	1	15	0.04	1600	-23.47772	40.92392	-91.39365
690519	-137	-2525	1344	-3.312627	-8.033996	160.7565	0	10.83	4003	0	0	5	5	1.213533	1.265397	1	15	0.04	1600	-18.1485	40.92392	-91.39365
690630	228	-1866	23	-3.320268	-3.006776	160.2175	0	10.83	4003	0	0	5	5	1.213533	1.253543	1	15	0.04	1600	-17.86331	40.92392	-91.39365
690744	-164	-1661	-215	-2.667188	-1.810564	160.4026	0	10.83	4004	0	0	5	5	1.213533	1.243071	1	15	0.04	1600	-19.75418	40.92392	-91.39365
690850	-745	-517	163	-2.270821	0.1319373	160.4007	0	10.83	4002	0	0	5	5	1.213533	1.221318	1	15	0.04	1600	-21.04111	40.92392	-91.39365
691032	-2394	-1906	-1595	-4.961266	2.584526	161.4902	0	10.89	4003	0	0	5	5	1.213533	1.20211	1	15	0.04	1600	-23.22144	40.92392	-91.39365
691159	-2575	-3814	-4142	-8.432967	9.76919	167.9161	0	10.89	4002	0	0	5	5	1.213533	1.199578	1	15	0.04	1600	-32.20541	40.92392	-91.39365
691278	2778	-640	-5796	-1.708115	20.93663	183.3377	0	10.89	4003	0	0	5	5	1.213533	1.21837	1	15	0.04	1600	-54.70697	40.92392	-91.39365
691415	5079	493	-2815	8.459251	23.38335	190.5904	0	10.89	4003	0	0	5	5	1.213533	1.235969	1	15	0.04	1600	-60.44461	40.92392	-91.39365
691586	-401	2313	-185	12.30782	17.57342	191.218	0	10.89	4004	0	0	5	5	1.213533	1.279583	1	15	0.04	1600	-52.85443	40.92392	-91.39365
691664	-911	2020	-1673	9.997771	15.69818	192.5367	0	10.89	4003	0	0	5	5	1.213533	1.285752	1	15	0.04	1600	-47.5282	40.92392	-91.39365
691783	-3118	1947	-1691	4.224078	13.34484	197.8995	0	10.89	4003	0	0	5	5	1.213533	1.29511	1	15	0.04	1600	-42.19797	40.92393	-91.39365
691950	-857	437	1855	-3.569358	9.530128	196.6969	0	10.83	4003	0	0	5	5	1.213533	1.295128	1	15	0.04	1600	-41.55023	40.92291	-91.39366
692032	1503	808	1895	-3.043401	8.543641	194.5094	0	10.83	4003	0	0	5	5	1.213533	1.293275	1	15	0.04	1600	-39.77264	40.92291	-91.39366
692065	-1678	-1562	1187	-3.034974	8.426541	193.6558	0	10.83	4004	0	0	5	5	1.213533	1.29217	1	15	0.04	1600	-37.04541	40.92291	-91.39366
692308	93	-167	-124	-2.899759	6.741853	194.6676	0	10.83	4002	0	0	5	5	1.213533	1.262094	1	15	0.04	1600	-39.67133	40.92291	-91.39367
692500	4275	-6019	-459	3.065494	13.97453	195.3064	0	10.83	4004	0	0	5	5	1.213533	1.235289	1	15	0.04	1600	-41.63965	40.92399	-91.39367
692643	-830	763	-273	6.172189	17.55601	196.4195	0	10.83	4004	0	0	5	5	1.213533	1.227769	1	15	0.04	1600	-46.30121	40.92399	-91.39367
692757	-172	5	-1	6.286644	17.50779	196.2434	0	10.83	4002	0	0	5	5	1.213533	1.203027	1	15	0.04	1600	-47.53824	40.92398	-91.39368
692846	39	-209	-68	6.344692	17.53588	196.2567	0	10.83	4003	0	0	5	5	1.213533	1.186456	1	15	0.04	1600	-47.99786	40.92398	-91.39368
693030	-88	-7	27	6.645896	17.56923	196.2028	0	10.83	4002	0	0	5	5	1.213533	1.151108	1	15	0.04	1600	-48.51724	40.92398	-91.39368
693053	-112	-1	-18	6.727298	17.6065	196.2064	0	10.83	4002	0	0	5	5	1.213533	1.14766	1	15	0.04	1600	-48.41888	40.92398	-91.39368
693229	-27	-113	-25	6.802863	17.5734	196.1862	0	10.83	4003	0	0	5	5	1.213533	1.142022	1	15	0.04	1600	-48.5076	40.92398	-91.39368
693309	-41	-79	-9	6.983763	17.7121	196.1744	0	10.83	4002	0	0	5	5	1.213533	1.144621	1	15	0.04	1600	-48.95816	40.92397	-91.39368
693363	-227	184	16	7.027315	17.73842	196.1651	0	10.83	4003	0	0	5	5	1.213533	1.14877	1	15	0.04	1600	-48.95816	40.92397	-91.39368
693537	-139	96	130	7.045168	17.58809	196.2643	0	10.83	4002	0	0	5	5	1.213533	1.17236	1	15	0.04	1600	-49.28632	40.92397	-91.39368
693660	-130	-8	177	5.382195	14.7015	197.0593	0	10.89	4003	0	0	5	5	1.213533	1.187202	1	15	0.04	1600	-49.26483	40.92397	-91.39368
693705	-149	-118	-476	5.633729	14.72737	197.2342	0	10.89	4003	0	0	5	5	1.213533	1.189995	1	15	0.04	1600	-49.85706	40.92397	-91.39368
693850	-352	305	-69	5.499629	15.03824	198.7259	0	10.89	4004	0	0	5	5	1.213533	1.205051	1	15	0.04	1600	-51.27759	40.92397	-91.39369
693908	-720	964	89	5.372635	14.6415	198.7747	0	10.89	4002	0	0	5	5	1.213533	1.204225	1	15	0.04	1600	-50.67078	40.92397	-91.39369
694000	-720	964	89	5.372635	14.6415	198.7747	0	10.89	4002	0	0	5	5	1.213533	1.204225	1	15	0.04	1600	-50.67078	40.92397	-91.39369
694024	-720	964	89	5.372635	14.6415	198.7747	0	10.89	4002	0	0	5	5	1.213533	1.204225	1	15	0.04	1600	-50.67078	40.92397	-91.39369
694115	-720	964	89	5.372635	14.6415	198.7747	0	10.89	4002	0	0	5	5	1.213533	1.204225	1	15	0.04	1600	-50.67078	40.92397	-91.39369
694207	-720	964	89	5.372635	14.6415	198.7747	0	10.89	4002	0	0	5	5	1.213533	1.204225	1	15	0.04	1600	-50.67078	40.92397	-91.39369
694299	-720	964	89	5.372635	14.6415	198.7747	0	10.89	4002	0	0	5	5	1.213533	1.204225	1	15	0.04	1600	-50.67078	40.92397	-91.39369
694388	-720	964	89	5.372635	14.6415	198.7747	0	10.89	4002	0	0	5	5	1.213533	1.204225	1	15	0.04	1600	-50.67078	40.92397	-91.39369
694477	-720	964	89	5.372635	14.6415	198.7747	0	10.89	4002	0	0	5	5	1.213533	1.204225	1	15	0.04	1600	-50.67078	40.92397	-91.39369
694564	-720	964	89	5.372635	14.6415	198.7747	0	10.89	4002	0	0	5	5	1.213533	1.204225	1	15	0.04	1600	-50.67078	40.92397	-91.39369
694653	-720	964	89	5.372635	14.6415	198.7747	0	10.89	4002	0	0	5	5	1.213533	1.204225	1	15	0.04	1600	-50.67078	40.92397	-91.39369
694741	-720	964	89	5.372635	14.6415	198.7747	0	10.89	4002	0	0	5	5	1.213533	1.204225	1	15	0.04	1600	-50.67078	40.92397	-91.39369
694831	-720	964	89	5.372635	14.6415	198.7747	0	10.89	4002	0	0	5	5	1.213533	1.204225	1	15	0.04	1600	-50.67078	40.92397	-91.39369
694918	-720	964	89	5.372635	14.6415	198.7747	0	10.89	4002	0	0	5	5	1.213533	1.204225	1	15	0.04	1600	-50.67078	40.92397	-91.39369
695007	-720	964	89	5.372635	14.6415	198.7747	0	10.89	4002	0	0	5	5	1.213533	1.204225	1	15	0.04	1600	-50.67078	40.92397	-91.39369
695099	-720	964	89	5.372635	14.6415	198.7747	0	10.89	4002	0	0	5	5	1.213533	1.204225	1	15	0.04	1600	-50.67078	40.92397	-91.39369
695204	-720	964	89	5.372635	14.6415	198.7747	0	10.89	4002	0	0	5	5	1.213533	1.204225	1	15	0.04	1600	-50.67078	40.92397	-91.39369
695283	-720	964	89	5.372635	14.6415	198.7747	0	10.89	4002	0	0	5	5	1.213533	1.204225	1	15	0.04	1600	-50.67078	40.92397	-91.39369
695372	-720	964	89	5.372635	14.6415	198.7747	0	10.89	4002	0	0	5	5	1.213533	1.204225	1	15	0.04	1600	-50.67078	40.92397	-91.39369
695459	-720	964	89	5.372635	14.6415	198.7747	0	10.89	4002	0	0	5	5	1.213533	1.204225	1	15	0.04	1600	-50.67078	40.92397	-91.39369
695550	-720	964	89	5.372635	14.6415	198.7747	0	10.89	4002	0	0	5	5	1.213533	1.204225	1	15	0.04	1600	-50.67078	40.92397	-91.39369
695643	-720	964	89	5.372635	14.6415	198.7747	0	10.89	4002	0	0	5	5	1.213533	1.204225	1	15	0.04	1600	-50.67078	40.92397	-91.39369
695735	-720	964	89	5.372635	14.6415	198.7747	0	10.89	4002	0	0	5	5	1.213533	1.204225	1	15	0.04	1600	-50.67078	40.92397	-91.39369
695828	-720	964	89	5.372635	14.6415	198.7747	0	10.89	4002	0	0	5	5	1.213533	1.204225	1	15	0.04	1600	-50.67078	40.92397	-91.39369
695920	-720	964	89	5.372635	14.6415	198.7747	0	10.89	4002	0	0	5	5	1.213533	1.204225	1	15	0.04	1600	-50.67078	40.92397	-91.39369
696010	-720	964	89	5.372635	14.6415	198.7747	0	10.89	4002	0	0	5	5	1.213533	1.204225	1	15	0.04	1600	-50.67078	40.92397	-91.39369
696100	-720	964	89	5.372635	14.6415	198.7747	0	10.89	4002	0	0	5	5	1.213533	1.204225	1	15	0.04	1600	-50.67078	40.92397	-91.39369
696192	-720	964	89	5.372635	14.6415	198.7747	0	10.89	4002	0	0	5	5	1.213533	1.204225	1	15	0.04	1600	-50.67078	40.92397	-91.39369
696284	-720	964	89	5.372635	14.6415	198.7747	0	10.89	4002	0	0	5	5	1.213533	1.204225	1	15	0.04	1600	-50.67078	40.92397	-91.39369
696374	-720	964	89	5.372635	14.6415	198.7747	0	10.89	4002	0	0	5	5	1.213533	1.204225	1	15	0.04	1600	-50.67078	40.92397	-91.39369
696456	-720	964	89	5.372635	14.6415	198.7747	0	10.89	4002	0	0	5	5	1.213533	1.204225	1	15	0.04	1600	-50.67078	40.92397	-91.39369
696548	-720	964	89	5.372635	14.6415	198.7747	0	10.89	4002	0	0	5	5	1.213533	1.204225	1	15	0.04	1600	-50.67078	40.92397	-91.39369
696640	-720	964	89	5.372635	14.6415	198.7747	0	10.89	4002	0	0	5	5	1.213533	1.204225	1	15	0.04	1600	-50.67078	40.92397	-91.39369
696732	-720	964	89	5.372635	14.6415	198.7747	0	10.89	4002	0	0	5	5	1.213533	1.204225	1	15	0.04	1600	-50.67078	40.92397	-91.39369
696824	-720	964	89	5.372635	14.6415	198.7747	0	10.89	4002	0	0	5	5	1.213533	1.204225	1	15	0.04	1600	-50.67078	40.92397	-91.39369
696916	-720	964	89	5.372635	14.6415	198.7747	0	10.89	4002	0	0	5	5	1.213533	1.204225	1	15	0.04	1600	-50.67078	40.92397	-91.39369
697008	-720	964	89	5.372635	14.6415	198.7747	0	10.89	4002	0	0	5	5	1.213533	1.204225	1	15	0.04	1600	-50.67078	40.92397	-91.39369
697099	-720	964	89	5.372635	14.6415	198.7747	0	10.89	4002	0	0	5	5	1.213533	1.204225	1	15	0.04	1600	-50.67078	40.92397	-91.39369
697190	-720	964	89	5.372635	14.6415	198.7747	0	10.89	4002	0	0	5	5	1.213533	1.204225	1	15	0.04	1600	-50.67078	40.92397	-91.39369
697281	-720	964	89	5.372635	14.6415	198.7747	0	10.89	4002	0	0	5	5	1.213533	1.204225	1	15	0.04	1600	-50.67078	40.92397	-91.39369
697372	-720	964	89	5.372635	14.6415	198.7747	0	10.89	4002	0	0	5	5	1.213533	1.204225	1	15	0.04	1600	-50.67078	40.92397	-91.39369
697460	-720	964	89	5.372635	14.6415	198.7747	0	10.89	4002	0	0	5	5	1.213533	1.204225	1	15	0.04	1600	-50.67078	40.92397	-91.39369
697548	-720	964	89	5.372635	14.6415	198.7747	0	10.89	4002	0	0	5	5	1.213533	1.204225	1	15	0.04	1600	-50.67078	40.92397	-91.39369
697637	-720	964	89	5.372635	14.6415	198.7747	0	10.89	4002	0	0	5	5	1.213533	1.204225	1	15	0.04	1600	-50.67078	40.92397	-91.39369
697717	-720	964	89	5.372635	14.6415	198.7747	0	10.89	4002	0	0	5	5	1.213533	1.204225	1	15	0.04	1600	-50.67078	40.92397	-91.39369
697807	-720	964	89	5.372635	14.6415	198.7747	0	10.89	4002	0	0	5	5	1.213533	1.204225	1	15	0.04	1600	-50.67078	40.92397	-91.39369
697897	-720	964	89	5.372635	14.6415	198.7747	0	10.89	4002	0	0	5	5	1.213533	1.204225	1	15	0.04	1600	-50.67078	40.92397	-91.39369
697990	-720	964	89	5.372635	14.6415	198.7747	0	10.89	4002	0	0	5	5	1.213533	1.204225	1	15	0.04	1600	-50.67078	40.92397	-91.39369
698083	-720	964	89	5.372635	14.6415	198.7747	0	10.89	4002	0	0	5	5	1.213533	1.204225	1	15	0.04	1600	-50.67078	40.92397	-91.39369
698175	-720	964	89	5.372635	14.6415	198.7747	0	10.89	4002	0	0	5	5	1.213533	1.204225	1	15	0.04	1600	-50.67078	40.92397	-91.39369
698264	-720	964	89	5.372635	14.6415	198.7747	0	10.89	4002	0	0	5	5	1.213533	1.204225	1	15	0.04	1600	-50.67078	40.92397	-91.39369
698352	-720	964	89	5.372635	14.6415	198.7747	0	10.89	4002	0	0	5	5	1.213533	1.204225	1	15	0.04	1600	-50.67078	40.92397	-91.39369
698443	-720	964	89	5.372635	14.6415	198.7747	0	10.89	4002	0	0	5	5	1.213533	1.204225	1	15	0.04	1600	-50.67078	40.92397	-91.39369
698531	-720	964	89	5.372635	14.6415	198.7747	0	10.89	4002	0	0	5	5	1.213533	1.204225	1	15	0.04	1600	-50.67078	40.92397	-91.39369
698619	-720	964	89	5.372635	14.6415	198.7747	0	10.89	4002	0	0	5	5	1.213533	1.204225	1	15	0.04	1600	-50.67078	40.92397	-91.39369
698705	-720	964	89	5.372635	14.6415	198.7747	0	10.89	4002	0	0	5	5	1.213533	1.204225	1	15	0.04	1600	-50.67078	40.92397	-91.39369
698795	-720	964	89	5.372635	14.6415	198.7747	0	10.89	4002	0	0	5	5	1.213533	1.204225	1	15	0.04	1600	-50.67078	40.92397	-91.39369
698875	-720	964	89	5.372635	14.6415	198.7747	0	10.89	4002	0	0	5	5	1.213533	1.204225	1	15	0.04	1600	-50.67078	40.92397	-91.39369
698965	-720	964	89	5.372635	14.6415	198.7747	0	10.89	4002	0	0	5	5	1.213533	1.204225	1	15	0.04	1600	-50.67078	40.92397	-91.39369
699061	-720	964	89	5.372635	14.6415	198.7747	0	10.89	4002	0	0	5	5	1.213533	1.204225	1	15	0.04	1600	-50.67078	40.92397	-91.39369
699152	-720	964	89	5.372635	14.6415	198.7747	0	10.89	4002	0	0	5	5	1.213533	1.204225	1	15	0.04	1600	-50.67078	40.92397	-91.39369
699243	-720	964	89	5.372635	14.6415	198.7747	0	10.89	4002	0	0	5	5	1.213533	1.204225	1	15	0.04	1600	-50.67078	40.92397	-91.39369
699330	-720	964	89	5.372635	14.6415	198.7747	0	10.89	4002	0	0	5	5	1.213533	1.204225	1	15	0.04	1600	-50.67078	40.92397	-91.39369
699420	-720	964	89	5.372635	14.6415	198.7747	0	10.89	4002	0	0	5	5	1.213533	1.204225	1	15	0.04	1600	-50.67078	40.92397	-91.39369
699512	-720	964	89	5.372635	14.6415	198.7747	0	10.89	4002	0	0	5	5	1.213533	1.204225	1	15	0.04	1600	-50.67078	40.92397	-91.39369
699604	-720	964	89	5.372635	14.6415	198.7747	0	10.89	4002	0	0	5	5	1.213533	1.204225	1	15	0.04	1600	-50.67078	40.92397	-91.39369
699693	-720	964	89	5.372635	14.6415	198.7747	0	10.89	4002	0	0	5	5	1.213533	1.204225	1	15	0.04	1600	-50.67078	40.92397	-91.39369
699783	-720	964	89	5.372635	14.6415	198.7747	0	10.89	4002	0	0	5	5	1.213533	1.204225	1	15	0.04	1600	-50.67078	40.92397	-91.39369
699871	-720	964	89	5.372635	14.6415	198.7747	0	10.89	4002	0	0	5	5	1.213533	1.204225	1	15	0.04	1600	-50.67078	40.92397	-91.39369
699964	-720	964	89	5.372635	14.6415	198.7747	0	10.89	4002	0	0	5	5	1.213533	1.204225	1	15	0.04	1600	-50.67078	40.92397	-91.39369
700057	-720	964	89	5.372635	14.6415	198.7747	0	10.89	4002	0	0	5	5	1.213533	1.204225	1	15	0.04	1600	-50.67078	40.92397	-91.39369
700140	-720	964	89	5.372635	14.6415	198.7747	0	10.89	4002	0	0	5	5	1.213533	1.204225	1	15	0.04	1600	-50.67078	40.92397	-91.39369
700233	-720	964	89	5.372635	14.6415	198.7747	0	10.89	4002	0	0	5	5	1.213533	1.204225	1	15	0.04	1600	-50.67078	40.92397	-91.39369
700326	-720	964	89	5.372635	14.6415	198.7747	0	10.89	4002	0	0	5	5	1.213533	1.204225	1	15	0.04	1600	-50.67078	40.92397	-91.39369
700418	-720	964	89	5.372635	14.6415	198.7747	0	10.89	4002	0	0	5	5	1.213533	1.204225	1	15	0.04	1600	-50.67078	40.92397	-91.39369
700511	-720	964	89	5.372635	14.6415	198.7747	0	10.89	4002	0	0	5	5	1.213533	1.204225	1	15	0.04	1600	-50.67078	40.92397	-91.39369
700604	-720	964	89	5.372635	14.6415	198.7747	0	10.89	4002	0	0	5	5	1.213533	1.204225	1	15	0.04	1600	-50.67078	40.92397	-91.39369
700695	-720	964	89	5.372635	14.6415	198.7747	0	10.89	4002	0	0	5	5	1.213533	1.204225	1	15	0.04	1600	-50.67078	40.92397	-91.39369
700785	-720	964	89	5.372635	14.6415	198.7747	0	10.89	4002	0	0	5	5	1.213533	1.204225	1	15	0.04	1600	-50.67078	40.92397	-91.39369
700876	-720	964	89	5.372635	14.6415	198.7747	0	10.89	4002	0	0	5	5	1.213533	1.204225	1	15	0.04	1600	-50.67078	40.92397	-91.39369
700968	-720	964	89	5.372635	14.6415	198.7747	0	10.89	4002	0	0	5	5	1.213533	1.204225	1	15	0.04	1600	-50.67078	40.92397	-91.39369
701059	-720	964	89	5.372635	14.6415	198.7747	0	10.89	4002	0	0	5	5	1.213533	1.204225	1	15	0.04	1600	-50.67078	40.92397	-91.39369
701150	-720	964	89	5.372635	14.6415	198.7747	0	10.89	4002	0	0	5	5	1.213533	1.204225	1	15	0.04	1600	-50.67078	40.92397	-91.39369
701241	-720	964	89	5.372635	14.6415	198.7747	0	10.89	4002	0	0	5	5	1.213533	1.204225	1	15	0.04	1600	-50.67078	40.92397	-91.39369
701332	-720	964	89	5.372635	14.6415	198.7747	0	10.89	4002	0	0	5	5	1.213533	1.204225	1	15	0.04	1600	-50.67078	40.92397	-91.39369
