time(ms)	gyro_x(deg/s)	gyro_y(deg/s)	gyro_z(deg/s)	orientation_roll(deg)	orientation_pitch(deg)	orientation_yaw(deg)	throttle	battery(V)	loop_time(uS)	pid_output_roll	pid_output_pitch	pid_output_yaw	pid_output_throttle	ultrasonic_alt	baro_alt	flight_mode	p_gain_altitude	i_gain_altitude	d_gain_altitude	compass_heading	latitude	longitude
568345	-4017	860	-969	-1.137525	-1.703628	0.321395	0	10.04	4004	219	-66	5	5	0.4085131	1.349389	8	15	0.04	1600	-14.7753	40.92391	-91.39358
568537	-1792	-874	-69	-10.42246	-1.24639	-0.1179047	0	10.04	4003	222	-63	5	5	0.4085131	1.348855	8	15	0.04	1600	-15.02557	40.92391	-91.39357
568727	-820	-2912	-1450	-14.60552	-0.2032123	0.5501372	0	10.04	4002	219	-63	5	5	0.4085131	1.348905	8	15	0.04	1600	-21.65024	40.92391	-91.39358
568803	373	-392	135	-13.44307	-0.3257828	1.109485	0	10.04	4003	219	-63	5	5	0.4085131	1.358431	8	15	0.04	1600	-25.62082	40.92391	-91.39358
568907	3747	-1820	-691	-8.061692	-1.937914	0.8392975	0	10.09	4004	216	-60	5	5	0.4085131	1.380053	8	15	0.04	1600	-26.05423	40.92391	-91.39358
568930	3747	-1820	-691	-8.061692	-1.937914	0.8392975	0	10.09	4004	216	-60	5	5	0.4085131	1.392031	8	15	0.04	1600	-26.05423	40.92391	-91.39358
569080	4464	-633	-2187	-1.722655	-3.236797	0.2697051	0	10.09	4004	213	-54	5	5	0.4085131	1.427928	8	15	0.04	1600	-26.86655	40.92391	-91.39358
569181	3866	2054	467	6.133585	-5.299448	0.8028185	0	10.09	4003	213	-54	5	5	0.4085131	1.488113	8	15	0.04	1600	-23.83228	40.92391	-91.39358
569225	3757	2865	1018	7.341048	-6.472026	0.68556	0	10.09	4003	207	-48	5	5	0.4085131	1.501469	8	15	0.04	1600	-23.7663	40.92391	-91.39358
569462	1287	2952	1253	11.58832	-9.757421	-0.08365557	0	10.09	4003	198	-42	5	5	0.4085131	1.592125	8	15	0.04	1600	-2.162506	40.92392	-91.39358
569539	731	801	111	8.402001	-13.55141	-0.3753624	0	10.09	4003	198	-42	5	5	0.4085131	1.594592	8	15	0.04	1600	5.357331	40.92392	-91.39358
569652	1154	1374	-2207	8.584484	-16.00439	0.4571305	0	10.09	4003	189	-33	5	5	0.4085131	1.580815	8	15	0.04	1600	9.349607	40.92392	-91.39358
569810	-253	-602	604	8.275995	-16.17771	0.9867421	0	10.32	4002	177	-27	5	5	0.4085131	1.522351	8	15	0.04	1600	15.821	40.92392	-91.39359
569953	268	2149	1130	10.08649	-17.19713	-0.4617723	0	10.32	4004	165	-22	5	5	0.4085131	1.422294	8	15	0.04	1600	22.54022	40.92392	-91.39359
570168	-616	-444	720	-3.657083	-6.834702	0.06424917	0	10.32	4004	150	-13	5	5	0.4085131	1.276701	8	15	0.04	1600	22.59905	40.92393	-91.39359
570405	847	-1237	436	-0.7388204	-4.19271	-0.3022543	0	10.32	4003	138	-3	5	5	0.4085131	1.144905	8	15	0.04	1600	18.82321	40.92393	-91.3936
570554	373	-194	624	1.307153	-1.212229	0.009208295	0	10.32	4003	123	6	5	5	0.4085131	1.098054	8	15	0.04	1600	18.95057	40.92393	-91.39361
570589	-2749	-1026	-1535	-0.4564708	-1.35622	0.05662201	0	10.32	4004	123	6	5	5	0.4085131	1.083137	8	15	0.04	1600	18.90141	40.92393	-91.39361
570682	-2228	-444	-381	-3.144431	-1.491139	-0.0416577	0	9.7	4002	85	14	5	5	0.4085131	1.059637	8	15	0.04	1600	19.27369	40.92393	-91.39361
570761	-1043	-285	-303	-2.74082	-1.434956	-0.249018	0	9.7	4004	114	15	5	5	0.4085131	1.035074	8	15	0.04	1600	16.54292	40.92393	-91.39361
570889	-2001	123	-280	-5.045909	-1.870771	-0.3923176	0	9.7	4004	100	17	5	5	0.4085131	1.02188	8	15	0.04	1600	14.18131	40.92393	-91.39362
571048	1245	3162	1135	-2.116715	-5.355461	-0.4751191	0	9.7	4003	88	27	5	5	0.4085131	1.010711	8	15	0.04	1600	10.99546	40.92394	-91.39362
571163	3871	3382	1643	3.167891	-11.75219	-0.1802039	0	9.7	4003	87	27	5	5	0.4085131	1.010164	8	15	0.04	1600	9.204538	40.92394	-91.39362
571242	2685	1567	-280	5.731933	-13.48593	-0.09440531	0	9.7	4004	79	33	5	5	0.4085131	1.020583	8	15	0.04	1600	11.85753	40.92394	-91.39362
571308	708	2871	1179	6.688009	-15.87856	-0.6141449	0	9.7	4004	78	33	5	5	0.4085131	1.03896	8	15	0.04	1600	13.6682	40.92394	-91.39362
571368	-272	1490	665	7.410861	-16.53423	-0.803119	0	9.7	4002	78	33	5	5	0.4085131	1.062568	8	15	0.04	1600	14.92039	40.92394	-91.39362
571535	-693	-707	-286	2.559206	-9.194071	-0.2469666	0	9.7	4003	66	39	5	5	0.4085131	1.13212	8	15	0.04	1600	15.33442	40.92394	-91.39362
571568	-1531	-977	-903	1.835428	-9.182911	-0.1619337	0	9.7	4003	66	39	5	5	0.4085131	1.14455	8	15	0.04	1600	14.66053	40.92395	-91.39362
571672	-1159	-892	250	-1.534277	-9.760075	-0.6492358	0	10.38	4004	57	42	5	5	0.4085131	1.223136	8	15	0.04	1600	13.84939	40.92395	-91.39362
571818	-107	-129	798	-2.499851	-8.289415	-0.7372928	0	10.38	4003	52	45	5	5	0.4085131	1.28764	8	15	0.04	1600	15.31898	40.92395	-91.39362
571990	-674	-1294	352	-3.004348	-6.38519	-0.3003603	0	10.38	4002	46	48	5	5	0.4085131	1.464101	8	15	0.04	1600	13.67739	40.92395	-91.39363
572142	-160	-922	-1942	-2.958045	-7.636369	-0.7764486	0	10.38	4004	45	48	5	5	0.4085131	1.554212	8	15	0.04	1600	15.2574	40.92395	-91.39363
572302	-965	833	2122	-2.850026	-5.804147	-0.6764256	0	10.38	4003	46	61	5	5	0.4085131	1.694755	8	15	0.04	1600	13.74809	40.92395	-91.39363
572366	-1344	-328	-224	-3.510042	-6.777375	-0.9826429	0	10.38	4003	40	54	5	5	0.4085131	1.755535	8	15	0.04	1600	12.15965	40.92395	-91.39363
572470	-116	-955	-1060	-2.115983	-6.901928	-0.7398323	0	10.38	4003	39	54	5	5	0.4085131	1.953615	8	15	0.04	1600	11.70935	40.92395	-91.39363
572641	-5	-269	-26	-1.498579	-4.534485	-1.124508	0	10.32	4003	39	57	5	5	0.4085131	2.066312	8	15	0.04	1600	10.86057	40.92395	-91.39363
572678	-1104	-851	460	-1.762318	-4.393994	-1.103021	0	10.32	4002	39	57	5	5	0.4085131	2.080489	8	15	0.04	1600	10.86057	40.92395	-91.39363
572808	-701	565	38	-2.336055	-4.122183	-1.177246	0	10.32	4003	39	60	5	5	0.4085131	2.140891	8	15	0.04	1600	11.44484	40.92395	-91.39363
572949	-1258	-469	-2149	-2.262415	-6.676335	-1.334115	0	10.32	4002	42	63	5	5	0.4085131	2.247326	8	15	0.04	1600	9.033859	40.92395	-91.39363
573051	1039	-186	2189	-1.506829	-6.693478	-0.5349029	0	10.32	4003	42	63	5	5	0.4085131	2.289721	8	15	0.04	1600	7.858012	40.92395	-91.39363
573161	-509	1336	767	-1.728635	-6.530041	-0.09723093	0	10.32	4003	48	63	5	5	0.4085131	2.350409	8	15	0.04	1600	7.909582	40.92395	-91.39363
573238	705	-103	-953	-2.047268	-6.727039	-0.4202313	0	10.32	4003	48	63	5	5	0.4085131	2.37121	8	15	0.04	1600	7.380123	40.92395	-91.39363
573310	-740	-277	-1072	-1.235548	-7.393206	-0.4139343	0	10.32	4002	54	60	5	5	0.4085131	2.389437	8	15	0.04	1600	7.380123	40.92395	-91.39362
573370	-1149	2407	479	-1.422024	-8.353096	-0.7375082	0	10.32	4003	54	60	5	5	0.4085131	2.399432	8	15	0.04	1600	5.643497	40.92395	-91.39362
573470	-1135	-243	584	-2.32326	-10.43223	-0.5846369	0	10.72	4003	54	60	5	5	0.4085131	2.415577	8	15	0.04	1600	4.038563	40.92395	-91.39362
573648	-1124	-1278	-1325	-2.630272	-8.932089	0.1742222	0	10.72	4003	54	60	5	5	0.4085131	2.395504	8	15	0.04	1600	0.2634176	40.92395	-91.39362
573758	127	-778	-1249	-2.936623	-8.036027	0.3733779	0	10.72	4003	66	60	5	5	0.4085131	2.354493	8	15	0.04	1600	-0.7115479	40.92395	-91.39362
573861	-423	-1041	948	-3.079892	-6.103384	0.201359	0	10.72	4002	75	60	5	5	0.4085131	2.291719	8	15	0.04	1600	-2.125061	40.92395	-91.39362
573912	-669	195	237	-3.065128	-5.245241	0.01410445	0	10.72	4004	75	60	5	5	0.4085131	2.291719	8	15	0.04	1600	-2.125061	40.92395	-91.39362
574023	455	1628	519	-2.74184	-7.310001	-0.1512877	0	10.72	4002	87	63	5	5	0.4085131	2.165973	8	15	0.04	1600	-6.202698	40.92395	-91.39362
574124	-1432	991	293	-3.220861	-8.085876	-0.2018798	0	10.72	4004	87	63	5	5	0.4085131	2.09026	8	15	0.04	1600	-7.846924	40.92395	-91.39362
574302	-1401	771	1613	-4.873626	-5.240899	0.08847329	0	10.72	4002	99	60	5	5	0.4085131	1.958147	8	15	0.04	1600	-11.42419	40.92395	-91.39362
574462	-1330	1915	1178	-5.832863	-5.245154	-0.116734	0	10.66	4002	114	63	5	5	0.4085131	1.850333	8	15	0.04	1600	-16.59955	40.92395	-91.39361
574516	-1854	-1407	-648	-6.592528	-6.322578	-0.02648888	0	10.66	4002	114	63	5	5	0.4085131	1.759064	8	15	0.04	1600	-16.59955	40.92395	-91.39361
574689	-1791	747	1184	-5.770349	-8.134869	0.1978201	0	10.66	4002	126	63	5	5	0.4085131	1.663363	8	15	0.04	1600	-20.69315	40.92395	-91.3936
574806	-1081	-235	270	-5.65252	-5.316307	0.09502673	0	10.66	4003	138	63	5	5	0.4085131	1.555065	8	15	0.04	1600	-22.84174	40.92395	-91.3936
574848	-1073	-124	-851	-5.936136	-5.278139	0.0792033	0	10.66	4004	138	63	5	5	0.4085131	1.537744	8	15	0.04	1600	-23.43408	40.92395	-91.3936
575042	-912	-633	-238	-8.213403	-5.209594	-0.05929168	0	10.66	4004	150	66	5	5	0.4085131	1.394682	8	15	0.04	1600	-25.75433	40.92395	-91.39359
575133	-1653	841	548	-9.29695	-4.264349	0.4095911	0	10.66	4004	162	66	5	5	0.4085131	1.332382	8	15	0.04	1600	-28.8067	40.92395	-91.39359
575184	-1859	1826	758	-10.18316	-5.22605	0.5033698	0	10.66	4003	162	66	5	5	0.4085131	1.325953	8	15	0.04	1600	-29.79053	40.92395	-91.39359
575338	-868	-548	760	-12.28149	-7.419547	0.5958377	0	10.49	4003	177	63	5	5	0.4085131	1.297383	8	15	0.04	1600	-33.11905	40.92395	-91.39359
575425	-1465	-651	-556	-12.9299	-6.961544	0.5037759	0	10.49	4003	186	62	5	5	0.4085131	1.290946	8	15	0.04	1600	-33.80258	40.92395	-91.39358
575509	4529	291	353	-8.008187	-5.976048	0.2650823	0	10.49	4002	186	63	5	5	0.4085131	1.291742	8	15	0.04	1600	-34.88306	40.92395	-91.39358
575583	3421	-247	-2011	-4.030369	-6.406568	0.6129823	0	10.49	4002	198	66	5	5	0.4085131	1.312904	8	15	0.04	1600	-34.72824	40.92395	-91.39358
575617	3256	-411	-1644	-2.666025	-6.477644	0.6397909	0	10.49	4003	198	66	5	5	0.4085131	1.319453	8	15	0.04	1600	-31.6409	40.92395	-91.39358
575703	4060	1616	625	5.378238	-7.864932	1.164354	0	10.49	4004	198	66	5	5	0.4085131	1.340713	8	15	0.04	1600	-31.98346	40.92395	-91.39358
575920	1405	-73	982	7.320877	-8.237258	0.2355736	0	10.49	4004	204	69	5	5	0.4085131	1.417652	8	15	0.04	1600	-22.38712	40.92395	-91.39358
576043	2880	-1989	-3067	9.893282	-7.926084	0.8442942	0	10.49	4004	210	66	5	5	0.4085131	1.474537	8	15	0.04	1600	-17.03967	40.92395	-91.39358
576194	328	-658	-581	9.383713	-8.514531	1.311362	0	9.7	4003	213	69	5	5	0.4085131	1.505887	8	15	0.04	1600	-9.661987	40.92395	-91.39358
576256	1072	-1056	-692	8.585078	-9.00253	1.476088	0	9.7	4003	213	69	5	5	0.4085131	1.522468	8	15	0.04	1600	-8.425232	40.92395	-91.39358
576377	2436	748	2336	9.527705	-7.439737	0.1794882	0	9.7	4004	216	69	5	5	0.4085131	1.537307	8	15	0.04	1600	-2.139679	40.92395	-91.39358
576448	-1828	-1058	267	8.16117	-7.536184	-0.1776459	0	9.7	4004	216	69	5	5	0.4085131	1.535057	8	15	0.04	1600	1.178853	40.92395	-91.39358
576544	-2086	-878	-715	2.389018	-6.010039	0.5808398	0	9.7	4003	216	66	5	5	0.4085131	1.530764	8	15	0.04	1600	6.519057	40.92395	-91.39358
576625	-2125	493	-1215	-0.7284768	-5.952156	0.862754	0	9.7	4003	213	66	5	5	0.4085131	1.50432	8	15	0.04	1600	9.107749	40.92395	-91.39358
576799	433	1426	3007	-3.691083	-7.251694	0.3320455	0	9.7	4004	210	66	5	5	0.4085131	1.458597	8	15	0.04	1600	6.246574	40.92395	-91.39358
576879	88	1030	1623	-1.940081	-8.474843	-0.657121	0	9.7	4002	251	79	5	5	0.4085131	1.431177	8	15	0.04	1600	7.131588	40.92395	-91.39358
576955	-1323	1301	1707	-2.307313	-8.298155	-1.218179	0	9.7	4004	210	66	5	5	0.4085131	1.408246	8	15	0.04	1600	7.131588	40.92395	-91.39358
577058	-3018	606	584	-6.628072	-7.140084	-1.050978	0	10.38	4003	204	63	5	5	0.4085131	1.39272	8	15	0.04	1600	7.063064	40.92395	-91.39358
577253	1500	-739	-1792	-6.408419	-4.631756	1.025428	0	10.38	4003	195	66	5	5	0.4085131	1.334034	8	15	0.04	1600	2.807321	40.92395	-91.39358
577328	3181	1751	1410	-2.908773	-8.443965	0.01748925	0	10.38	4004	186	66	5	5	0.4085131	1.328817	8	15	0.04	1600	4.388125	40.92395	-91.39358
577367	3414	742	1577	-0.7438905	-8.836581	-0.4499617	0	10.38	4003	186	66	5	5	0.4085131	1.324908	8	15	0.04	1600	4.581995	40.92395	-91.39358
577481	1624	733	-845	2.689729	-9.721907	-0.01016089	0	10.38	4003	186	66	5	5	0.4085131	1.326789	8	15	0.04	1600	4.816864	40.92395	-91.39358
577661	-879	1272	909	3.735642	-8.785616	0.3701089	0	10.38	4003	186	66	5	5	0.4085131	1.35112	8	15	0.04	1600	9.034644	40.92395	-91.39358
577789	-3400	667	-131	0.09250703	-9.41132	-0.3365092	0	10.38	4003	186	66	5	5	0.4085131	1.370646	8	15	0.04	1600	10.76907	40.92395	-91.39358
577848	-3485	465	808	-1.52633	-9.754228	-0.4409738	0	10.38	4003	186	66	5	5	0.4085131	1.397838	8	15	0.04	1600	10.35419	40.92395	-91.39358
578022	-834	748	984	-6.195051	-7.440591	0.3456633	0	9.81	4003	174	66	5	5	0.4085131	1.429576	8	15	0.04	1600	6.557745	40.92395	-91.39359
578107	-805	218	1096	-7.031729	-7.05615	0.6075445	0	9.81	4004	165	66	5	5	0.4085131	1.460248	8	15	0.04	1600	5.484595	40.92395	-91.39359
578230	-1487	16	-621	-8.853984	-7.982102	-0.09893291	0	9.81	4002	165	66	5	5	0.4085131	1.491576	8	15	0.04	1600	5.077803	40.92395	-91.39359
578264	-308	-287	1632	-8.845976	-8.196259	-0.7054983	0	9.81	4002	150	69	5	5	0.4085131	1.519299	8	15	0.04	1600	4.214421	40.92395	-91.39359
578442	-1747	228	238	-8.974523	-6.568652	-0.6117082	0	9.81	4004	138	69	5	5	0.4085131	1.562115	8	15	0.04	1600	1.153493	40.92395	-91.3936
578636	-1634	473	-871	-10.94365	-7.589991	-0.4593271	0	9.81	4002	147	82	5	5	0.4085131	1.641133	8	15	0.04	1600	-0.4266663	40.92395	-91.39361
578780	-1128	-1470	-362	-10.10331	-7.091289	0.1687262	0	9.81	4003	111	65	5	5	0.4085131	1.737198	8	15	0.04	1600	-4.767914	40.92395	-91.39361
578833	-1000	-348	2556	-9.850158	-6.999711	0.08530308	0	9.64	4003	111	66	5	5	0.4085131	1.761683	8	15	0.04	1600	-4.579224	40.92395	-91.39361
578989	65	-442	-634	-8.752345	-9.27574	-0.3088386	0	9.64	4003	96	72	5	5	0.4085131	1.890191	8	15	0.04	1600	-8.259064	40.92395	-91.39362
579037	-644	-1419	-332	-8.832128	-8.80976	-0.5625231	0	9.64	4003	96	72	5	5	0.4085131	1.904525	8	15	0.04	1600	-8.259064	40.92395	-91.39362
579120	727	-1039	-464	-7.163231	-7.250775	0.1663038	0	9.64	4004	96	72	5	5	0.4085131	1.992258	8	15	0.04	1600	-9.93866	40.92395	-91.39362
579196	2998	353	1084	-2.03302	-8.166587	0.3263776	0	9.64	4003	84	72	5	5	0.4085131	2.100768	8	15	0.04	1600	-10.88156	40.92395	-91.39362
579321	3436	-1689	447	5.140418	-3.926434	0.1177744	0	9.64	4004	84	72	5	5	0.4085131	2.194807	8	15	0.04	1600	-8.937805	40.92395	-91.39362
579395	2894	752	1822	7.828304	-2.919015	-0.3360769	0	9.64	4004	69	72	5	5	0.4085131	2.258137	8	15	0.04	1600	-5.755707	40.92395	-91.39362
579485	1808	1917	545	8.908872	-4.244654	-1.03391	0	9.64	4003	69	72	5	5	0.4085131	2.33522	8	15	0.04	1600	-3.475006	40.92395	-91.39362
579646	-2992	-4426	-1653	6.101668	-2.129285	-0.6498529	0	10.38	4004	57	75	5	5	0.4085131	2.433473	8	15	0.04	1600	7.738698	40.92395	-91.39362
579776	30	-4083	132	2.160309	5.338455	0.4783436	0	10.38	4003	45	78	5	5	0.4085131	2.477222	8	15	0.04	1600	9.148175	40.92396	-91.39363
579845	-349	-1997	923	-0.6152794	9.802213	-0.07971245	0	10.38	4004	45	78	5	5	0.4085131	2.498767	8	15	0.04	1600	14.0515	40.92396	-91.39363
579938	-2617	-1762	1399	-2.173745	10.45404	-0.7854956	0	10.38	4003	33	81	5	5	0.4085131	2.518659	8	15	0.04	1600	19.86024	40.92396	-91.39363
580023	749	2774	67	-3.274194	9.0113	-1.055273	0	10.38	4003	33	81	5	5	0.4085131	2.521055	8	15	0.04	1600	22.83227	40.92396	-91.39363
580162	-965	2167	-485	-2.070557	0.2576085	-0.433706	0	10.38	4002	21	78	5	5	0.4085131	2.514345	8	15	0.04	1600	21.90653	40.92396	-91.39364
580232	-274	2049	617	-2.252337	-2.325224	-0.3331553	0	10.38	4004	21	78	5	5	0.4085131	2.503136	8	15	0.04	1600	18.67501	40.92396	-91.39364
580395	859	1175	-216	-1.480744	-7.467488	-0.8147721	0	10.38	4003	12	81	5	5	0.4085131	2.476604	8	15	0.04	1600	18.62823	40.92396	-91.39364
580485	683	-521	59	0.4162959	-6.904337	-1.107163	0	10.32	4003	10	83	5	5	0.4085131	2.462452	8	15	0.04	1600	15.56782	40.92396	-91.39365
580571	379	1465	-620	0.8880911	-6.384961	-0.6076742	0	10.32	4002	9	84	5	5	0.4085131	2.45437	8	15	0.04	1600	16.69148	40.92396	-91.39365
580688	-844	-1582	-1335	-1.666554	-6.553474	0.3838555	0	10.32	4002	-3	100	5	5	0.4085131	2.434508	8	15	0.04	1600	16.66251	40.92396	-91.39365
580816	-1072	2637	1602	-0.9584309	-6.734813	0.3271542	0	10.32	4004	-5	83	5	5	0.4085131	2.405119	8	15	0.04	1600	19.16648	40.92396	-91.39365
580989	1114	-616	574	0.3958933	-6.798888	-0.4391527	0	10.32	4004	-6	84	5	5	0.4085131	2.352185	8	15	0.04	1600	14.3294	40.92396	-91.39365
581181	-97	567	-488	1.155067	-7.155731	-0.1292696	0	10.32	4003	-9	84	5	5	0.4085131	2.322001	8	15	0.04	1600	12.47585	40.92396	-91.39365
581338	-125	1580	88	0.9306646	-7.272507	0.23802	0	10.32	4003	-15	81	5	5	0.4085131	2.30895	8	15	0.04	1600	15.78905	40.92396	-91.39365
581508	665	1505	669	0.3735657	-10.9507	-0.1870642	0	10.49	4002	-18	81	5	5	0.4085131	2.306252	8	15	0.04	1600	14.8851	40.92396	-91.39365
581610	1093	-829	-361	1.031083	-8.949746	0.3042601	0	10.49	4004	-18	78	5	5	0.4085131	2.306343	8	15	0.04	1600	15.39468	40.92396	-91.39365
581706	-234	874	591	1.929365	-7.130555	0.119498	0	10.49	4003	-18	78	5	5	0.4085131	2.298776	8	15	0.04	1600	13.92795	40.92396	-91.39365
581788	1307	2247	827	2.723403	-8.203039	0.2438461	0	10.49	4004	-18	75	5	5	0.4085131	2.291019	8	15	0.04	1600	13.92795	40.92395	-91.39365
581870	-952	-1762	-365	2.798865	-7.260624	0.1693629	0	10.49	4004	-18	75	5	5	0.4085131	2.278879	8	15	0.04	1600	14.20707	40.92395	-91.39365
582003	-943	597	71	1.410701	-7.921058	0.2565221	0	10.49	4002	-18	69	5	5	0.4085131	2.267962	8	15	0.04	1600	13.64376	40.92395	-91.39365
582112	-274	545	620	2.777665	-7.707014	0.4349445	0	10.49	4004	-15	63	5	5	0.4085131	2.267096	8	15	0.04	1600	15.27324	40.92395	-91.39365
582202	1770	2844	915	3.340736	-10.10199	0.5201888	0	10.49	4004	-15	63	5	5	0.4085131	2.270533	8	15	0.04	1600	14.87683	40.92395	-91.39365
582294	3078	33	311	6.000458	-10.07663	0.3370043	0	10.32	4004	-11	56	5	5	0.4085131	2.278748	8	15	0.04	1600	14.72322	40.92395	-91.39365
582435	1641	1109	-392	10.39321	-11.00724	0.7045537	0	10.32	4002	-8	50	5	5	0.4085131	2.282031	8	15	0.04	1600	17.46515	40.92395	-91.39365
582530	1121	-814	1372	11.40625	-10.73448	0.9028825	0	10.32	4003	-9	51	5	5	0.4085131	2.299358	8	15	0.04	1600	18.81433	40.92395	-91.39365
582578	729	-237	66	12.03511	-8.416109	0.320316	0	10.32	4003	-9	51	5	5	0.4085131	2.303238	8	15	0.04	1600	22.05936	40.92395	-91.39365
582691	-2417	-505	-9	11.86682	-7.548193	-0.1492675	0	10.32	4003	-3	45	5	5	0.4085131	2.31312	8	15	0.04	1600	22.97615	40.92395	-91.39365
582804	-8466	737	-1352	-2.70158	-10.87921	0.1121778	0	10.32	4003	9	36	5	5	0.4085131	2.310684	8	15	0.04	1600	23.7301	40.92394	-91.39365
582989	-4589	499	-679	-16.87348	-14.03706	0.9038059	0	10.32	4004	9	36	5	5	0.4085131	2.333216	8	15	0.04	1600	15.21792	40.92394	-91.39364
583068	-6673	-2060	-449	-23.0534	-11.56967	0.9186624	0	10.32	4002	18	27	5	5	0.4085131	2.363364	8	15	0.04	1600	5.713192	40.92394	-91.39364
583223	-3549	523	1121	-27.34402	-10.19621	1.470836	0	9.92	4004	32	10	5	5	0.4085131	2.400028	8	15	0.04	1600	1.512075	40.92393	-91.39363
583350	127	487	749	-29.61086	-6.388093	3.638163	0	9.92	4004	42	4	5	5	0.4085131	2.364169	8	15	0.04	1600	-12.98892	40.92393	-91.39363
583477	4701	2189	1847	-22.05013	-7.940012	3.452402	0	9.92	4003	45	3	5	5	0.4085131	2.292834	8	15	0.04	1600	-17.89767	40.92393	-91.39363
583601	342	5682	896	-15.23593	-15.92706	1.711659	0	9.92	4004	63	-9	5	5	0.4085131	2.064623	8	15	0.04	1600	-20.74615	40.92393	-91.39362
583738	-1122	-1866	-614	-9.647248	-21.42768	1.191047	0	9.92	4003	75	-18	5	5	0.4085131	1.852793	8	15	0.04	1600	-24.06683	40.92393	-91.39362
583826	1089	-4719	-906	-8.757892	-16.27972	1.520651	0	9.92	4002	75	-18	5	5	0.4085131	1.795874	8	15	0.04	1600	-24.17169	40.92393	-91.39362
583917	6125	8798	23633	12.26078	-16.90766	-20.71426	0	9.92	4004	94	-30	5	5	0.4085131	1.598815	8	15	0.04	1600	-11.11084	40.92392	-91.39362
583981	-4168	6524	8703	24.37642	-27.42237	-44.64948	0	9.92	4003	93	-30	5	5	0.4085131	1.447838	8	15	0.04	1600	11.70062	40.92392	-91.39362
584038	-9875	-3271	-80	15.68905	-24.49809	-48.6998	0	9.92	4003	115	-39	5	5	0.4085131	1.396444	8	15	0.04	1600	22.94882	40.92392	-91.39361
584207	-2352	-7060	-5682	1.615536	-10.31853	-37.12861	0	9.92	4004	114	-39	5	5	0.4085131	1.216704	8	15	0.04	1600	15.79591	40.92392	-91.39361
584263	-5411	-4461	-1893	-5.786902	-0.09549437	-30.05483	0	9.92	4004	129	-51	5	5	0.4085131	1.197502	8	15	0.04	1600	9.779698	40.92391	-91.3936
584364	-2842	-3567	298	-10.08117	5.604104	-29.82656	0	9.92	4004	129	-51	5	5	0.4085131	1.128303	8	15	0.04	1600	5.959092	40.92391	-91.3936
584408	-2118	-2759	1478	-10.86403	6.747877	-30.575	0	9.92	4004	147	-57	5	5	0.4085131	1.100599	8	15	0.04	1600	5.959092	40.92391	-91.39359
584561	-1113	288	1111	-11.58547	6.805628	-33.64895	0	9.92	4004	147	-57	5	5	0.4085131	1.036178	8	15	0.04	1600	6.368237	40.92391	-91.39359
584725	-968	1233	-2459	-13.42079	-0.849301	-33.69992	0	9.92	4004	162	-63	5	5	0.4085131	1.016498	8	15	0.04	1600	2.157228	40.92391	-91.39359
584845	5567	-2629	634	-7.814281	-2.961221	-32.2563	0	9.92	4002	180	-69	5	5	0.4085131	1.025185	8	15	0.04	1600	-1.487885	40.92391	-91.39359
584928	5755	-3903	-534	-4.374217	-1.332215	-32.37308	0	9.92	4002	180	-69	5	5	0.4085131	1.037033	8	15	0.04	1600	-1.487885	40.92391	-91.39359
585077	2395	2521	446	6.742522	-2.780542	-33.31797	0	10.26	4002	180	-69	5	5	0.4085131	1.084158	8	15	0.04	1600	2.982781	40.92391	-91.39359
585218	2274	1927	986	5.921297	-7.003228	-32.24398	0	10.26	4003	0	0	5	5	0.4085131	1.133365	3	15	0.04	1600	5.321914	40.92391	-91.39358
585252	1875	1359	-917	6.559061	-7.868315	-32.04619	0	10.26	4002	0	0	5	5	0.4085131	1.157901	3	15	0.04	1600	5.707242	40.92391	-91.39358
585425	866	1618	1289	7.554509	-12.36369	-32.43531	0	10.26	4004	0	0	5	5	0.4085131	1.277958	1	15	0.04	1600	9.856163	40.92391	-91.39358
585553	1514	1533	188	6.957134	-16.27532	-32.45451	0	10.26	4003	0	0	5	5	0.4085131	1.369356	1	15	0.04	1600	13.27498	40.92391	-91.39358
585678	1434	660	-365	6.616138	-16.93475	-32.1503	0	10.26	4003	0	0	5	5	0.4085131	1.452774	1	15	0.04	1600	17.27295	40.92391	-91.39357
585819	-19505	-2495	15603	-27.99728	3.481767	1.779812	0	10.26	4003	0	0	5	5	0.4085131	1.49373	1	15	0.04	1600	49.65292	40.92391	-91.39357
585960	-5431	7781	2973	-35.67152	-25.20375	-2.711593	0	10.94	4004	0	0	5	5	0.4085131	1.469481	1	15	0.04	1600	56.56457	40.92391	-91.39357
586117	5905	-1557	3148	-28.75541	-31.32432	-14.62174	0	10.94	4003	0	0	5	5	0.4085131	1.366866	1	15	0.04	1600	68.92358	40.92391	-91.39357
586230	5630	-4203	2946	-12.83464	-30.13545	-18.65956	0	10.94	4003	0	0	5	5	0.4085131	1.306867	1	15	0.04	1600	89.47189	40.92391	-91.39357
586293	5570	-2470	4630	-8.197278	-28.28589	-20.83609	0	10.94	4004	0	0	5	5	0.4085131	1.265465	1	15	0.04	1600	89.47189	40.92391	-91.39357
586424	-1146	575	6924	-1.954798	-25.53898	-32.06602	0	10.94	4002	0	0	5	5	0.4085131	1.200434	1	15	0.04	1600	103.6169	40.92391	-91.39357
586493	-5298	-757	9397	-1.312592	-24.22761	-41.47026	0	10.94	4006	0	0	5	5	0.4085131	1.170248	1	15	0.04	1600	115.0781	40.92391	-91.39357
586630	-6277	-1231	7321	-2.915527	-23.63864	-59.77127	0	10.94	4002	0	0	5	5	0.4085131	1.100699	1	15	0.04	1600	141.278	40.92391	-91.39357
586728	-1286	-424	1290	-6.534394	-21.37783	-71.34831	0	10.94	4004	0	0	5	5	0.4085131	1.076164	1	15	0.04	1600	157.9319	40.92391	-91.39357
586809	-1288	621	-449	-5.140251	-20.84381	-71.50353	0	11	4002	0	0	5	5	0.4085131	1.058992	1	15	0.04	1600	166.8379	40.92391	-91.39357
586939	2092	-2129	-1840	-2.549844	-20.2411	-69.2354	0	11	4004	0	0	5	5	0.4085131	1.001681	1	15	0.04	1600	182.0406	40.92391	-91.39357
587107	3980	-1179	-3769	12.95861	-17.8362	-67.16274	0	11	4004	0	0	5	5	0.4085131	0.9587654	1	15	0.04	1600	190.6221	40.92392	-91.39358
587278	-177	-1892	-3711	14.65708	-15.66128	-55.48675	0	11	4004	0	0	5	5	0.4085131	0.9443803	1	15	0.04	1600	166.8359	40.92392	-91.39358
587400	-2781	1531	-97	7.040834	-14.47783	-50.05507	0	11	4003	0	0	5	5	0.4085131	0.9438774	1	15	0.04	1600	156.1637	40.92392	-91.39358
587588	-6475	-739	5399	-1.653289	-11.00184	-61.43998	0	11	4002	0	0	5	5	0.4085131	0.9251821	1	15	0.04	1600	154.8703	40.92393	-91.39359
587775	-3191	1930	2464	-5.110389	-14.53691	-72.8652	0	11.06	4003	0	0	5	5	0.4085131	0.9081502	1	15	0.04	1600	177.1369	40.92393	-91.39359
587822	-1486	2475	1719	-5.433772	-16.1058	-73.99059	0	11.06	4003	0	0	5	5	0.4085131	0.9064234	1	15	0.04	1600	183.4029	40.92393	-91.39359
587953	3033	-1030	-1467	2.485723	-17.73744	-72.29026	0	11.06	4003	0	0	5	5	0.4085131	0.9082329	1	15	0.04	1600	193.1788	40.92393	-91.3936
588018	6539	-1415	-2470	5.381939	-17.00629	-71.16884	0	11.06	4003	0	0	5	5	0.4085131	0.9064637	1	15	0.04	1600	193.1788	40.92393	-91.3936
588169	2088	-645	-3834	22.24647	-17.40309	-63.85512	0	11.06	4006	0	0	5	5	0.4085131	0.9070098	1	15	0.04	1600	186.9261	40.92393	-91.3936
588225	929	-3613	-5247	20.95337	-16.94913	-58.32788	0	11.06	4002	0	0	5	5	0.4085131	0.9067733	1	15	0.04	1600	175.681	40.92394	-91.39361
588397	-1706	-582	-421	10.94837	-12.49959	-49.34534	0	11.06	4003	0	0	5	5	0.4085131	0.8983492	1	15	0.04	1600	151.8109	40.92394	-91.39362
588471	-4291	286	3974	4.254004	-11.8217	-52.7982	0	11.06	4004	0	0	5	5	0.4085131	0.8951641	1	15	0.04	1600	148.7523	40.92394	-91.39362
588582	-2864	-923	5317	0.8897381	-10.4412	-60.63307	0	11.06	4003	0	0	5	5	0.4085131	0.8844211	1	15	0.04	1600	152.5141	40.92394	-91.39362
588720	-2816	2108	3572	-3.151525	-10.8397	-68.80563	0	11.06	4004	0	0	5	5	0.4085131	0.870591	1	15	0.04	1600	159.9563	40.92395	-91.39362
588901	-641	2854	1553	-6.228524	-14.64753	-76.96511	0	11.06	4003	0	0	5	5	0.4085131	0.8598635	1	15	0.04	1600	181.5681	40.92395	-91.39362
589023	3050	-942	-1119	2.203019	-15.88379	-77.57439	0	11.06	4002	0	0	5	5	0.4085131	0.8665318	1	15	0.04	1600	191.9828	40.92395	-91.39362
589113	9473	-1605	-3946	9.426551	-15.02193	-74.13069	0	11.06	4004	0	0	5	5	0.4085131	0.8730025	1	15	0.04	1600	193.7951	40.92395	-91.39362
589281	2803	-345	-5214	20.75065	-14.60528	-64.95078	0	11.06	4003	0	0	5	5	0.4085131	0.8785874	1	15	0.04	1600	181.0512	40.92395	-91.39362
589389	-306	-3084	-2885	17.46795	-13.05137	-58.24044	0	11.06	4004	0	0	5	5	0.4085131	0.8829304	1	15	0.04	1600	171.5612	40.92395	-91.39363
589475	-638	-198	-861	14.29628	-11.32915	-56.306	0	11.06	4004	0	0	5	5	0.4085131	0.8771031	1	15	0.04	1600	159.8955	40.92395	-91.39363
589577	-4572	781	2574	5.130767	-14.47612	-57.53036	0	11	4003	0	0	5	5	0.4085131	0.8708494	1	15	0.04	1600	147.2198	40.92395	-91.39364
589740	-7062	1652	4558	-1.975317	-11.68303	-68.78546	0	11	4003	0	0	5	5	0.4085131	0.8306999	1	15	0.04	1600	162.4253	40.92395	-91.39364
589831	-2079	65	1555	-2.111092	-12.55064	-71.08719	0	11	4003	0	0	5	5	0.4085131	0.8183113	1	15	0.04	1600	164.8609	40.92395	-91.39365
589901	-5150	2392	2807	-4.14216	-13.48073	-73.89057	0	11	4003	0	0	5	5	0.4085131	0.8112989	1	15	0.04	1600	171.4798	40.92395	-91.39365
590009	2252	185	-1610	-1.931646	-18.62141	-75.33566	0	11	4004	0	0	5	5	0.4085131	0.8057164	1	15	0.04	1600	186.771	40.92396	-91.39365
590154	9889	-2968	-3637	3.518683	-18.10732	-71.95357	0	11	4003	0	0	5	5	0.4085131	0.8109732	1	15	0.04	1600	192.0485	40.92396	-91.39365
590217	5426	-1874	34	19.72767	-14.00438	-68.34438	0	11	4002	0	0	5	5	0.4085131	0.8165405	1	15	0.04	1600	183.6402	40.92396	-91.39365
590349	178	-1706	-4660	21.37969	-15.82976	-60.20819	0	11	4002	0	0	5	5	0.4085131	0.8244772	1	15	0.04	1600	168.9496	40.92396	-91.39365
590440	-209	-1257	-1870	15.60571	-13.06672	-53.77183	0	11.06	4002	0	0	5	5	0.4085131	0.8402641	1	15	0.04	1600	158.3233	40.92396	-91.39365
590495	-3022	-870	-275	14.06652	-12.56096	-53.17812	0	11.06	4004	0	0	5	5	0.4085131	0.8658682	1	15	0.04	1600	151.0097	40.92396	-91.39365
590627	-1064	17	3784	4.973807	-10.66634	-59.06852	0	11.06	4003	0	0	5	5	0.4085131	0.8894535	1	15	0.04	1600	149.1923	40.92396	-91.39365
590742	-5183	2332	2332	-0.5739315	-11.51	-68.60915	0	11.06	4009	0	0	5	5	0.4085131	0.9209729	1	15	0.04	1600	162.2037	40.92396	-91.39365
590824	-2010	-208	1698	-1.686394	-11.75621	-69.79741	0	11.06	4002	0	0	5	5	0.4085131	0.9395434	1	15	0.04	1600	164.3547	40.92396	-91.39365
590955	1642	1498	-57	-4.42608	-15.74361	-74.40395	0	11.06	4003	0	0	5	5	0.4085131	0.9588385	1	15	0.04	1600	178.0724	40.92397	-91.39365
591030	1575	-756	-402	-0.7333536	-15.67962	-73.82822	0	11.06	4004	0	0	5	5	0.4085131	0.970724	1	15	0.04	1600	181.3592	40.92397	-91.39365
591243	4333	-1447	-949	19.71814	-13.27802	-69.86748	0	11.06	4002	0	0	5	5	0.4085131	0.9883193	1	15	0.04	1600	181.7069	40.92397	-91.39366
591415	2127	-1291	-4016	20.92316	-16.02401	-65.00559	0	11.06	4002	0	0	5	5	0.4085131	1.012313	1	15	0.04	1600	175.1117	40.92397	-91.39366
591481	-936	-179	-1476	14.25267	-13.83257	-59.40627	0	11.06	4002	0	0	5	5	0.4085131	1.020072	1	15	0.04	1600	158.7548	40.92397	-91.39366
591654	-4223	-971	-197	6.001237	-16.44374	-57.3471	0	11.06	4003	0	0	5	5	0.4085131	1.045862	1	15	0.04	1600	153.3946	40.92397	-91.39367
591779	-434	-629	1471	-0.2909415	-13.13103	-60.94496	0	11.06	4002	0	0	5	5	0.4085131	1.048759	1	15	0.04	1600	154.4156	40.92397	-91.39367
591981	230	-112	477	-0.04076913	-14.23088	-65.88277	0	11.06	4004	0	0	5	5	0.4085131	1.054595	1	15	0.04	1600	166.7651	40.92397	-91.39367
592068	-644	811	-2197	-1.623693	-14.43249	-64.41862	0	11.06	4002	0	0	5	5	0.4085131	1.062541	1	15	0.04	1600	167.673	40.92397	-91.39367
592119	1852	579	-3543	-0.6630325	-14.6094	-61.18138	0	11.06	4003	0	0	5	5	0.4085131	1.068126	1	15	0.04	1600	167.0669	40.92397	-91.39367
592212	1690	1798	-4840	0.8735892	-15.98002	-54.31403	0	11.06	4004	0	0	5	5	0.4085131	1.071236	1	15	0.04	1600	163.4085	40.92397	-91.39368
592364	3419	-3670	-5197	7.516556	-14.38185	-35.92839	0	11.06	4003	0	0	5	5	0.4085131	1.07739	1	15	0.04	1600	137.1749	40.92397	-91.39368
592412	3002	501	-4104	8.777925	-13.85832	-33.51852	0	11.06	4004	0	0	5	5	0.4085131	1.088462	1	15	0.04	1600	137.1749	40.92397	-91.39368
592599	1008	-2270	-4763	11.39096	-20.40919	-20.58698	0	11.06	4002	0	0	5	5	0.4085131	1.101069	1	15	0.04	1600	114.617	40.92397	-91.39368
592779	-214	-1543	-3513	7.119283	-17.13713	-6.063799	0	11.06	4003	0	0	5	5	0.4085131	1.098047	1	15	0.04	1600	101.7331	40.92398	-91.39368
592857	1875	-2444	-3532	7.073167	-14.07111	0.6642526	0	11.06	4002	0	0	5	5	0.4085131	1.093384	1	15	0.04	1600	89.98447	40.92398	-91.39368
592931	-889	504	-1060	7.538069	-12.57578	2.680209	0	11.06	4002	0	0	5	5	0.4085131	1.08177	1	15	0.04	1600	85.36665	40.92398	-91.39368
593103	-98	-550	-4152	11.71659	-15.5886	10.73451	0	11.11	4002	0	0	5	5	0.4085131	1.070443	1	15	0.04	1600	75.69599	40.92398	-91.39368
593189	2264	-1106	-6139	11.95425	-15.40758	16.3952	0	11.11	4002	0	0	5	5	0.4085131	1.051775	1	15	0.04	1600	68.52087	40.92398	-91.39368
593280	2097	1098	-7646	13.31647	-16.23898	27.95795	0	11.11	4002	0	0	5	5	0.4085131	1.043875	1	15	0.04	1600	57.93662	40.92398	-91.39368
593452	2936	-1495	-6399	15.64825	-17.19543	50.47652	0	11.11	4002	0	0	5	5	0.4085131	1.035842	1	15	0.04	1600	38.81683	40.92398	-91.39369
593504	2386	1085	-5017	15.57545	-18.87128	56.28139	0	11.11	4002	0	0	5	5	0.4085131	1.037059	1	15	0.04	1600	30.68497	40.92398	-91.39369
593680	-312	-592	-2681	17.37323	-21.91091	67.25876	0	11.11	4002	0	0	5	5	0.4085131	1.044516	1	15	0.04	1600	22.83476	40.92398	-91.39369
593780	-55	-1224	-1825	13.67064	-23.25765	72.81891	0	11.11	4004	0	0	5	5	0.4085131	1.052155	1	15	0.04	1600	19.60008	40.92398	-91.39369
593944	-866	-1847	-1565	11.98708	-22.50731	76.18005	0	11.11	4003	0	0	5	5	0.4085131	1.069836	1	15	0.04	1600	18.00961	40.92398	-91.39369
594019	-1701	-1210	-452	8.01933	-19.37248	77.94769	0	11.11	4004	0	0	5	5	0.4085131	1.079044	1	15	0.04	1600	15.28815	40.92398	-91.39369
594135	-2464	-1270	190	4.364609	-17.30668	78.02975	0	11.11	4003	0	0	5	5	0.4085131	1.098017	1	15	0.04	1600	14.89954	40.92398	-91.3937
594169	-1803	-1503	-44	3.331413	-16.48445	77.99503	0	11.11	4003	0	0	5	5	0.4085131	1.103085	1	15	0.04	1600	14.42695	40.92398	-91.3937
594322	500	143	-471	3.054775	-11.64491	78.23901	0	11.11	4002	0	0	5	5	0.4085131	1.12163	1	15	0.04	1600	13.50067	40.92398	-91.3937
594355	445	578	-1121	3.409941	-11.68326	78.70052	0	11.11	4004	0	0	5	5	0.4085131	1.127602	1	15	0.04	1600	13.33504	40.92398	-91.3937
594448	-435	555	-1195	3.486937	-11.97328	80.04986	0	11.11	4003	0	0	5	5	0.4085131	1.132054	1	15	0.04	1600	12.17523	40.92398	-91.3937
594607	128	2136	-3184	1.659608	-15.5498	85.62442	0	11.11	4003	0	0	5	5	0.4085131	1.138115	1	15	0.04	1600	8.923127	40.92398	-91.3937
594657	386	1966	-3530	1.612118	-16.33723	87.47704	0	11.11	4002	0	0	5	5	0.4085131	1.133486	1	15	0.04	1600	5.582121	40.92398	-91.3937
594852	4012	120	-2705	8.579106	-17.47082	100.6221	0	11.11	4004	0	0	5	5	0.4085131	1.136563	1	15	0.04	1600	-1.6409	40.92398	-91.3937
594905	2192	806	-1191	10.39239	-18.9555	103.2054	0	11.11	4003	0	0	5	5	0.4085131	1.136827	1	15	0.04	1600	-3.298889	40.92398	-91.3937
594977	1227	1578	1136	12.11647	-22.7055	101.2689	0	11.11	4003	0	0	5	5	0.4085131	1.135594	1	15	0.04	1600	0.2967732	40.92398	-91.3937
595055	-117	-802	1416	13.11934	-23.40388	100.3732	0	11.11	4004	0	0	5	5	0.4085131	1.130248	1	15	0.04	1600	1.422064	40.92398	-91.3937
595294	-745	2501	-832	11.49263	-33.8574	98.3613	0	11.11	4003	0	0	5	5	0.4085131	1.109514	1	15	0.04	1600	5.112164	40.92398	-91.3937
595368	-973	3539	-3159	8.827077	-40.7197	102.3613	0	11.11	4002	0	0	5	5	0.4085131	1.106822	1	15	0.04	1600	4.049184	40.92398	-91.3937
595519	-564	-3436	-2003	4.26701	-41.59733	107.9436	0	11.11	4004	0	0	5	5	0.4085131	1.103045	1	15	0.04	1600	-3.605865	40.92398	-91.3937
595556	2331	-3782	221	4.36712	-39.10162	108.3871	0	11.11	4004	0	0	5	5	0.4085131	1.102699	1	15	0.04	1600	-3.605865	40.92398	-91.3937
595670	-2439	-1322	-641	3.963773	-31.71963	107.3772	0	11.11	4004	0	0	5	5	0.4085131	1.090604	1	15	0.04	1600	-1.620422	40.92398	-91.3937
595760	2431	2767	-455	5.757916	-34.60236	108.2641	0	11.11	4004	0	0	5	5	0.4085131	1.080659	1	15	0.04	1600	-3.985504	40.92398	-91.3937
595886	-3652	2135	-3132	3.02214	-39.69673	107.7054	0	11.06	4004	0	0	5	5	0.4085131	1.063026	1	15	0.04	1600	-5.019318	40.92398	-91.3937
596053	-5947	-3500	-3885	-16.43951	-37.19473	122.1981	0	11.06	4002	0	0	5	5	0.4085131	1.053719	1	15	0.04	1600	-21.7594	40.92397	-91.3937
596136	-3983	-4740	1864	-23.16623	-31.18023	123.0767	0	11.06	4004	0	0	5	5	0.4085131	1.038775	1	15	0.04	1600	-23.76199	40.92397	-91.3937
596208	1615	310	4279	-19.32582	-26.24124	118.7725	0	11.06	4004	0	0	5	5	0.4085131	1.027204	1	15	0.04	1600	-21.68658	40.92397	-91.3937
596344	-1024	-2641	891	-19.50645	-25.02675	115.0439	0	11.06	4004	0	0	5	5	0.4085131	1.007626	1	15	0.04	1600	-14.8844	40.92397	-91.3937
596404	299	-3190	3579	-19.22265	-21.45306	113.1583	0	11.06	4003	0	0	5	5	0.4085131	1.005472	1	15	0.04	1600	-13.49274	40.92397	-91.3937
596503	-736	1454	4903	-14.44902	-23.42417	104.4311	0	11.06	4003	0	0	5	5	0.4085131	0.9979909	1	15	0.04	1600	-4.97464	40.92397	-91.3937
596532	-1580	2303	2831	-14.19439	-25.57636	102.3312	0	11.06	4004	0	0	5	5	0.4085131	0.9968441	1	15	0.04	1600	-4.97464	40.92397	-91.3937
596700	3149	4449	1706	-10.94427	-34.38661	100.119	0	11.06	4003	0	0	5	5	0.4085131	0.9922271	1	15	0.04	1600	-6.319794	40.92397	-91.3937
596840	965	3222	1037	-0.3407927	-48.35576	96.63374	0	11.06	4003	0	0	5	5	0.4085131	0.98452	1	15	0.04	1600	-5.613434	40.92397	-91.3937
596928	230	3725	734	1.283873	-52.40183	95.6833	0	11.06	4003	0	0	5	5	0.4085131	0.9804797	1	15	0.04	1600	-4.853668	40.92397	-91.3937
597102	3626	10396	1089	8.744198	-69.86559	93.59604	0	11.06	4003	0	0	5	5	0.4085131	0.9744225	1	15	0.04	1600	-2.856232	40.92397	-91.3937
597218	9919	11736	4055	29.76257	-91.37316	87.89768	0	11.06	4004	0	0	5	5	0.4085131	0.9717045	1	15	0.04	1600	18.15719	40.92397	-91.3937
597341	6567	10765	-93	50.5022	-105.1381	83.99888	0	11.06	4002	0	0	5	5	0.4085131	0.9709846	1	15	0.04	1600	56.363	40.92397	-91.3937
597464	6426	7917	-1309	51.93236	-113.1177	85.76904	0	11.06	4004	0	0	5	5	0.4085131	0.9665009	1	15	0.04	1600	55.31378	40.92397	-91.3937
597537	3807	3336	-604	51.13136	-112.7712	86.71026	0	11.06	4003	0	0	5	5	0.4085131	0.9624222	1	15	0.04	1600	45.28782	40.92397	-91.3937
597670	-186	1146	424	39.78535	-99.84383	87.73965	0	11.11	4002	0	0	5	5	0.4085131	0.9630633	1	15	0.04	1600	18.3858	40.92397	-91.3937
597764	-1115	2388	1610	37.54784	-95.05515	86.59818	0	11.11	4003	0	0	5	5	0.4085131	0.9659707	1	15	0.04	1600	15.89885	40.92397	-91.3937
597911	-939	4440	1700	34.00735	-86.18668	81.22752	0	11.11	4004	0	0	5	5	0.4085131	0.9723603	1	15	0.04	1600	16.33961	40.92396	-91.3937
597996	-962	2978	310	31.29927	-82.84914	79.51847	0	11.11	4004	0	0	5	5	0.4085131	0.9763347	1	15	0.04	1600	16.4925	40.92396	-91.3937
598065	-1496	169	-223	26.0845	-76.26302	79.57101	0	11.11	4002	0	0	5	5	0.4085131	0.9815725	1	15	0.04	1600	13.00679	40.92396	-91.3937
598095	-1452	-1080	-315	22.7617	-70.29567	79.81719	0	11.11	4003	0	0	5	5	0.4085131	0.9823056	1	15	0.04	1600	11.26212	40.92396	-91.3937
598181	-335	21	-983	18.60453	-63.16464	80.93153	0	11.11	4002	0	0	5	5	0.4085131	0.9798573	1	15	0.04	1600	9.817887	40.92396	-91.3937
598313	-1352	-1702	-1382	14.88896	-56.1134	82.84451	0	11.11	4002	0	0	5	5	0.4085131	0.9690906	1	15	0.04	1600	5.260582	40.92396	-91.3937
598439	780	-516	-1197	10.22578	-47.02998	87.85712	0	11.11	4003	0	0	5	5	0.4085131	0.9656854	1	15	0.04	1600	-0.4113464	40.92395	-91.3937
598492	478	-639	-415	10.13661	-45.52958	88.27518	0	11.11	4004	0	0	5	5	0.4085131	0.9601457	1	15	0.04	1600	-0.4113464	40.92395	-91.3937
598625	876	-1110	-597	11.30457	-39.41686	88.40448	0	11.11	4003	0	0	5	5	0.4085131	0.9554836	1	15	0.04	1600	-2.373169	40.92395	-91.3937
598680	1885	-765	-841	11.67993	-37.47287	89.2935	0	11.11	4002	0	0	5	5	0.4085131	0.9510851	1	15	0.04	1600	-3.850891	40.92395	-91.3937
598728	2658	-1285	-1199	12.26641	-35.425	90.30795	0	11.11	4004	0	0	5	5	0.4085131	0.9497369	1	15	0.04	1600	-6.017761	40.92395	-91.3937
598955	597	-3000	-2639	9.559018	-26.93521	97.61877	0	11.11	4003	0	0	5	5	0.4085131	0.9700248	1	15	0.04	1600	-18.16986	40.92395	-91.39371
599152	1985	-5637	-3327	4.515001	-14.48843	110.1858	0	11.11	4003	0	0	5	5	0.4085131	0.9874618	1	15	0.04	1600	-35.95355	40.92395	-91.39371
599270	1331	-3670	-2259	2.952067	-10.61017	116.2363	0	11.11	4003	0	0	5	5	0.4085131	0.9977421	1	15	0.04	1600	-43.71918	40.92395	-91.39371
599367	1266	-3718	-1778	1.664063	-9.832134	118.3761	0	11.11	4003	0	0	5	5	0.4085131	0.9912394	1	15	0.04	1600	-46.19806	40.92395	-91.39371
599434	1291	-3542	-1650	0.134642	-9.11716	120.2284	0	11.11	4004	0	0	5	5	0.4085131	0.9930363	1	15	0.04	1600	-47.83426	40.92395	-91.39371
599611	5	-256	-119	-6.642215	-13.37275	123.5955	0	11.11	4003	0	0	5	5	0.4085131	0.9928187	1	15	0.04	1600	-51.08798	40.92394	-91.39371
599708	-261	139	133	-9.109047	-16.1581	123.585	0	11.11	4002	0	0	5	5	0.4085131	0.9960584	1	15	0.04	1600	-51.57507	40.92394	-91.39371
599798	-303	-274	32	-13.21012	-21.77729	123.2652	0	11.11	4002	0	0	5	5	0.4085131	1.000066	1	15	0.04	1600	-52.28226	40.92394	-91.39371
599845	-454	247	237	-14.30593	-22.88048	123.2016	0	11.11	4003	0	0	5	5	0.4085131	1.000911	1	15	0.04	1600	-52.28226	40.92394	-91.39371
600003	-3224	4285	3612	-20.72926	-34.90024	118.7131	0	11.11	4002	0	0	5	5	0.4085131	0.9995179	1	15	0.04	1600	-53.00848	40.92394	-91.39371
600067	-4068	2906	5356	-21.51055	-41.62157	113.4679	0	11.11	4003	0	0	5	5	0.4085131	0.9970925	1	15	0.04	1600	-50.12491	40.92394	-91.39371
600172	-1283	2105	1353	-19.14153	-48.45539	107.204	0	11.11	4004	0	0	5	5	0.4085131	0.9968198	1	15	0.04	1600	-44.31146	40.92394	-91.39371
600247	-1961	46	-2314	-22.12183	-49.50964	108.5766	0	11.06	4002	0	0	5	5	0.4085131	0.9933236	1	15	0.04	1600	-42.59024	40.92394	-91.39372
600414	-1763	-6877	-1421	-29.19728	-35.05519	114.8612	0	11.06	4002	0	0	5	5	0.4085131	0.9812206	1	15	0.04	1600	-46.67487	40.92394	-91.39372
600648	-2548	-10579	3588	-31.92976	-18.73893	112.2279	0	11.06	4003	0	0	5	5	0.4085131	0.971302	1	15	0.04	1600	-34.9588	40.92394	-91.39373
600712	-2606	-11731	3584	-31.5777	-16.46885	110.1334	0	11.06	4003	0	0	5	5	0.4085131	0.9733889	1	15	0.04	1600	-25.34241	40.92393	-91.39373
600814	-4864	-5675	1072	-33.78111	-13.54365	103.2079	0	11.06	4003	0	0	5	5	0.4085131	0.9928256	1	15	0.04	1600	-18.01672	40.92393	-91.39373
601072	-2783	-8395	4184	-25.9225	-17.53298	98.42537	0	11.06	4002	0	0	5	5	0.4085131	1.025202	1	15	0.04	1600	-4.761841	40.92393	-91.39373
601202	-9084	-4369	9657	-29.96185	-12.37611	85.36639	0	11.11	4003	0	0	5	5	0.4085131	1.026878	1	15	0.04	1600	9.616009	40.92393	-91.39374
601297	-9934	-2963	12113	-37.9298	-22.66919	59.32558	0	11.11	4004	0	0	5	5	0.4085131	1.023827	1	15	0.04	1600	28.65129	40.92393	-91.39374
601372	-5239	-3789	8616	-38.2828	-27.31742	47.84739	0	11.11	4003	0	0	5	5	0.4085131	1.021756	1	15	0.04	1600	40.39252	40.92393	-91.39374
601507	-2217	-390	8332	-28.92456	-31.82016	31.86198	0	11.11	4003	0	0	5	5	0.4085131	1.018742	1	15	0.04	1600	50.94367	40.92393	-91.39374
601596	1232	-3760	8828	-18.36292	-34.49402	17.45363	0	11.11	4003	0	0	5	5	0.4085131	1.01605	1	15	0.04	1600	71.84222	40.92393	-91.39374
601772	-15	-2582	3323	1.802295	-23.47288	0.5154058	0	11.11	4004	0	0	5	5	0.4085131	0.9995974	1	15	0.04	1600	100.315	40.92393	-91.39374
601793	-15	-2582	3323	1.802295	-23.47288	0.5154058	0	11.11	4004	0	0	5	5	0.4085131	0.9952965	1	15	0.04	1600	100.315	40.92393	-91.39374
601960	-747	1038	-1239	2.9333	-6.593602	-2.460242	0	11.11	4003	0	0	5	5	0.4085131	0.9712321	1	15	0.04	1600	112.2485	40.92393	-91.39374
602106	-5421	3032	-255	-4.078417	-16.94108	0.8587394	0	11.06	4002	0	0	5	5	0.4085131	0.9478737	1	15	0.04	1600	100.9015	40.92393	-91.39375
602295	1576	-2705	-497	-1.244133	-11.01305	3.149204	0	11.06	4003	0	0	5	5	0.4085131	0.9099944	1	15	0.04	1600	94.52174	40.92393	-91.39375
602387	124	-1643	-1066	0.5624003	-4.109758	5.842311	0	11.06	4003	0	0	5	5	0.4085131	0.8769262	1	15	0.04	1600	93.69314	40.92392	-91.39375
602468	-1041	-1046	-97	-0.1384704	-2.509805	6.50414	0	11.06	4004	0	0	5	5	0.4085131	0.8650419	1	15	0.04	1600	93.52607	40.92392	-91.39375
