time(ms)	gyro_x(deg/s)	gyro_y(deg/s)	gyro_z(deg/s)	orientation_roll(deg)	orientation_pitch(deg)	orientation_yaw(deg)	throttle	battery(V)	loop_time(uS)	pid_output_roll	pid_output_pitch	pid_output_yaw	pid_output_throttle	ultrasonic_alt	baro_alt	flight_mode	p_gain_altitude	i_gain_altitude	d_gain_altitude	compass_heading	latitude	longitude
602624	-1023	1071	-1595	3.894012	0.6900768	8.820604	0	11.06	4002	0	0	5	5	0.4085131	0.8391346	1	15	0.04	1600	91.55747	40.92392	-91.39375
602768	-392	1279	-2511	2.420331	-2.962724	13.92377	0	11.06	4004	0	0	5	5	0.4085131	0.8084812	1	15	0.04	1600	83.66934	40.92392	-91.39375
602827	219	-530	-1798	2.806339	-3.567561	16.21395	0	11.06	4002	0	0	5	5	0.4085131	0.7970299	1	15	0.04	1600	79.0677	40.92392	-91.39375
602893	-572	-2020	-1644	3.131639	-1.921516	18.10653	0	11.06	4004	0	0	5	5	0.4085131	0.7850187	1	15	0.04	1600	77.16328	40.92392	-91.39375
603081	-189	-418	-1964	-0.2854511	4.3027	20.19702	0	11.11	4003	0	0	5	5	0.4085131	0.7485464	1	15	0.04	1600	78.78778	40.92392	-91.39375
603146	-1258	2707	1425	-1.188391	3.649284	20.53148	0	11.11	4004	0	0	5	5	0.4085131	0.7413198	1	15	0.04	1600	75.85993	40.92392	-91.39375
603268	-851	-251	-1384	-1.668505	-0.137414	18.6257	0	11.11	4004	0	0	5	5	0.4085131	0.7428756	1	15	0.04	1600	74.81671	40.92392	-91.39375
603322	-207	1017	115	-1.877192	-0.1883049	19.868	0	11.11	4004	0	0	5	5	0.4085131	0.7429395	1	15	0.04	1600	73.25385	40.92392	-91.39375
603426	-1470	-1878	366	-3.34243	1.617976	18.48357	0	11.11	4003	0	0	5	5	0.4085131	0.744918	1	15	0.04	1600	72.22339	40.92392	-91.39375
603535	369	247	-460	-5.318485	1.721947	18.24535	0	11.11	4003	0	0	5	5	0.4085131	0.7415975	1	15	0.04	1600	74.42567	40.92392	-91.39375
603584	1106	-209	377	-3.856947	1.810088	18.34879	0	11.11	4003	0	0	5	5	0.4085131	0.7410851	1	15	0.04	1600	73.77679	40.92392	-91.39375
603799	353	719	-20	-1.89506	0.6578928	18.39321	0	11.11	4004	0	0	5	5	0.4085131	0.7488275	1	15	0.04	1600	73.06049	40.92392	-91.39375
603925	259	-685	682	-4.515866	3.810567	16.83434	0	11.11	4002	0	0	5	5	0.4085131	0.7607372	1	15	0.04	1600	74.88958	40.92392	-91.39375
604143	17	54	-681	-3.233915	3.289973	17.71972	0	11.11	4003	0	0	5	5	0.4085131	0.7723391	1	15	0.04	1600	76.26289	40.92391	-91.39375
604246	103	62	234	-4.082516	3.127161	17.91168	0	11.11	4002	0	0	5	5	0.4085131	0.777747	1	15	0.04	1600	75.06129	40.92391	-91.39375
604352	-448	-28	153	-3.045114	3.44168	17.52795	0	11.11	4003	0	0	5	5	0.4085131	0.7780709	1	15	0.04	1600	75.14695	40.92391	-91.39375
604437	2	101	71	-3.222538	3.272704	17.37933	0	11.11	4004	0	0	5	5	0.4085131	0.7657402	1	15	0.04	1600	74.65072	40.92391	-91.39375
604544	120	-151	134	-2.51317	3.60347	17.25693	0	11.11	4004	0	0	5	5	0.4085131	0.7545788	1	15	0.04	1600	75.72563	40.92391	-91.39375
604687	-290	-122	-68	-2.452939	3.818399	17.4395	0	11.11	4004	0	0	5	5	0.4085131	0.7293941	1	15	0.04	1600	74.94956	40.92391	-91.39375
604798	802	1608	2361	-2.68136	2.43295	16.13875	0	11.11	4003	0	0	5	5	0.4085131	0.724183	1	15	0.04	1600	75.88901	40.92391	-91.39375
604880	1022	-2837	-344	-0.7083181	3.22308	14.76547	0	11.11	4002	0	0	5	5	0.4085131	0.7188157	1	15	0.04	1600	77.0188	40.92391	-91.39375
604937	-1340	414	-945	-0.3789353	5.705275	15.97023	0	11.11	4004	0	0	5	5	0.4085131	0.7174828	1	15	0.04	1600	77.83144	40.92391	-91.39375
605040	434	-1375	32	-2.800068	3.470013	16.39516	0	11.11	4004	0	0	5	5	0.4085131	0.7079328	1	15	0.04	1600	75.29731	40.92391	-91.39375
605169	251	713	-276	-2.061563	4.307619	16.1535	0	11.11	4004	0	0	5	5	0.4085131	0.701831	1	15	0.04	1600	76.71929	40.92391	-91.39375
605299	770	-901	225	-2.357898	3.10692	16.04126	0	11.11	4004	0	0	5	5	0.4085131	0.6970009	1	15	0.04	1600	74.93723	40.92391	-91.39375
605499	202	-378	96	-2.451753	3.902587	15.83724	0	11.11	4002	0	0	5	5	0.4085131	0.6890774	1	15	0.04	1600	76.28407	40.92391	-91.39375
605569	-251	-63	20	-2.375758	4.023899	15.71668	0	11.11	4003	0	0	5	5	0.4085131	0.6893013	1	15	0.04	1600	76.67047	40.92391	-91.39375
605692	-116	304	93	-2.775647	4.190108	15.73753	0	11.11	4004	0	0	5	5	0.4085131	0.6906084	1	15	0.04	1600	76.44992	40.92391	-91.39375
605741	107	200	57	-2.731354	4.044394	15.6926	0	11.11	4002	0	0	5	5	0.4085131	0.6910526	1	15	0.04	1600	76.44992	40.92391	-91.39375
605862	-301	184	-5	-2.808915	4.333548	15.60297	0	11.11	4002	0	0	5	5	0.4085131	0.7047182	1	15	0.04	1600	77.06005	40.92391	-91.39375
605917	-111	33	37	-2.916704	4.256135	15.59704	0	11.11	4003	0	0	5	5	0.4085131	0.7090656	1	15	0.04	1600	76.5102	40.92391	-91.39375
606014	-118	-30	-68	-2.276082	4.517188	15.58854	0	11.11	4004	0	0	5	5	0.4085131	0.7277564	1	15	0.04	1600	76.69662	40.92391	-91.39375
606129	-212	233	9	-2.402814	4.411977	15.60132	0	11.11	4002	0	0	5	5	0.4085131	0.7523959	1	15	0.04	1600	76.71143	40.92391	-91.39375
606228	-144	-179	38	-2.477368	4.560061	15.55761	0	11.11	4004	0	0	5	5	0.4085131	0.7603207	1	15	0.04	1600	76.56994	40.92391	-91.39375
606380	15	30	23	-2.601272	4.504136	15.62071	0	11.11	4003	0	0	5	5	0.4085131	0.7842668	1	15	0.04	1600	76.84554	40.92391	-91.39375
606404	62	27	39	-2.535271	4.491504	15.59901	0	11.11	4003	0	0	5	5	0.4085131	0.7842668	1	15	0.04	1600	76.84554	40.92391	-91.39375
606482	-171	64	15	-2.374804	4.564634	15.57217	0	11.11	4004	0	0	5	5	0.4085131	0.7900473	1	15	0.04	1600	76.55623	40.92391	-91.39375
606597	-50	-34	25	-2.400714	4.515631	15.53983	0	11.11	4003	0	0	5	5	0.4085131	0.797903	1	15	0.04	1600	76.28421	40.92391	-91.39375
606782	-71	5	-19	-2.350343	4.553597	15.54943	0	11.06	4004	0	0	5	5	0.4085131	0.8095647	1	15	0.04	1600	76.42507	40.92391	-91.39375
606855	16	-15	-5	-2.246899	4.599076	15.55358	0	11.06	4002	0	0	5	5	0.4085131	0.8114842	1	15	0.04	1600	76.43037	40.92391	-91.39375
607025	-27	-57	-31	-2.106171	4.672888	15.63391	0	11.06	4004	0	0	5	5	0.4085131	0.8103197	1	15	0.04	1600	76.58259	40.92391	-91.39375
607133	201	212	17	-1.984348	4.699614	15.78523	0	11.06	4004	0	0	5	5	0.4085131	0.8084746	1	15	0.04	1600	76.61536	40.92391	-91.39375
607301	-105	153	8	-1.143035	4.598758	15.87136	0	11.06	4003	0	0	5	5	0.4085131	0.8036468	1	15	0.04	1600	76.23371	40.92391	-91.39375
607383	110	-83	-63	-0.7986838	4.425752	15.94949	0	11.06	4003	0	0	5	5	0.4085131	0.8027496	1	15	0.04	1600	76.24446	40.92391	-91.39375
607558	-393	50	-210	-1.073774	4.56872	16.44624	0	11.06	4004	0	0	5	5	0.4085131	0.7958437	1	15	0.04	1600	75.39106	40.92391	-91.39375
607694	154	-198	73	-1.182815	4.783833	16.30128	0	11.06	4004	0	0	5	5	0.4085131	0.796227	1	15	0.04	1600	75.3281	40.92392	-91.39375
607790	-153	-170	31	-0.958606	5.157632	16.23385	0	11.06	4002	0	0	5	5	0.4085131	0.7991628	1	15	0.04	1600	76.11983	40.92392	-91.39375
607956	-7	-257	244	-2.652918	4.052003	17.18696	0	11.06	4003	0	0	5	5	0.4085131	0.8109565	1	15	0.04	1600	74.94822	40.92298	-91.39375
608116	-604	0	-624	-1.72057	4.235356	17.74189	0	11.06	4003	0	0	5	5	0.4085131	0.8281244	1	15	0.04	1600	72.86745	40.92303	-91.39374
608191	-394	93	-805	-2.009519	4.295743	18.42818	0	11.06	4003	0	0	5	5	0.4085131	0.8366895	1	15	0.04	1600	72.67966	40.92303	-91.39374
608310	-300	-257	-11	-2.417162	4.447704	18.99951	0	11.06	4004	0	0	5	5	0.4085131	0.8588845	1	15	0.04	1600	71.82362	40.92306	-91.39374
608392	-378	-121	323	-2.764213	4.591743	18.90298	0	11.06	4004	0	0	5	5	0.4085131	0.8629303	1	15	0.04	1600	72.03574	40.92306	-91.39374
608533	576	-157	416	-3.521942	4.090981	18.31481	0	11.11	4004	0	0	5	5	0.4085131	0.8711112	1	15	0.04	1600	72.77169	40.92303	-91.39374
608648	952	-474	565	-2.564761	4.015548	17.60648	0	11.11	4002	0	0	5	5	0.4085131	0.8741615	1	15	0.04	1600	73.04259	40.92303	-91.39374
608737	439	-276	616	-0.9816775	4.774395	16.308	0	11.11	4004	0	0	5	5	0.4085131	0.8786541	1	15	0.04	1600	75.33152	40.92303	-91.39374
608798	-506	161	-121	-0.8417382	4.846297	16.05356	0	11.11	4004	0	0	5	5	0.4085131	0.878701	1	15	0.04	1600	75.43066	40.92303	-91.39374
608902	-190	53	86	-1.126757	4.712879	16.14214	0	11.11	4008	0	0	5	5	0.4085131	0.8674457	1	15	0.04	1600	75.48451	40.92303	-91.39374
609075	-257	57	46	-1.153751	4.680933	15.82361	0	11.11	4003	0	0	5	5	0.4085131	0.8461931	1	15	0.04	1600	76.00422	40.92303	-91.39374
609110	-36	107	85	-1.124546	4.624398	15.78186	0	11.11	4002	0	0	5	5	0.4085131	0.8433178	1	15	0.04	1600	75.91008	40.92303	-91.39374
609208	-157	-96	-202	-0.9006188	4.601031	15.85828	0	11.11	4004	0	0	5	5	0.4085131	0.8238798	1	15	0.04	1600	75.37421	40.92303	-91.39374
609330	-64	-195	488	-2.039918	4.663321	16.1097	0	11.11	4003	0	0	5	5	0.4085131	0.8067862	1	15	0.04	1600	75.04787	40.92303	-91.39374
609483	19	-13	178	-1.53421	4.864677	15.41767	0	11.11	4003	0	0	5	5	0.4085131	0.7854335	1	15	0.04	1600	76.15495	40.92303	-91.39374
609588	-201	73	-153	-1.560579	4.873553	15.67343	0	11.11	4003	0	0	5	5	0.4085131	0.7723166	1	15	0.04	1600	75.95388	40.92303	-91.39374
609666	-33	-40	-3	-1.626082	4.85519	15.76862	0	11.11	4002	0	0	5	5	0.4085131	0.7675723	1	15	0.04	1600	75.69873	40.92303	-91.39374
609771	-69	-21	7	-1.545362	4.927972	15.69544	0	11.11	4002	0	0	5	5	0.4085131	0.7548531	1	15	0.04	1600	76.07394	40.92303	-91.39374
609804	-124	3	-42	-1.541089	4.91818	15.70443	0	11.11	4003	0	0	5	5	0.4085131	0.7518147	1	15	0.04	1600	75.98655	40.92303	-91.39374
609888	-64	53	29	-1.610353	4.892317	15.71916	0	11.11	4003	0	0	5	5	0.4085131	0.7431501	1	15	0.04	1600	75.71331	40.92303	-91.39374
610084	-156	-8	76	-1.494275	4.956155	15.52548	0	11.11	4003	0	0	5	5	0.4085131	0.7370461	1	15	0.04	1600	75.69429	40.92303	-91.39374
610118	-163	17	-11	-1.512951	4.93837	15.51167	0	11.11	4003	0	0	5	5	0.4085131	0.7361767	1	15	0.04	1600	75.98512	40.92303	-91.39374
610182	-126	20	84	-1.593274	4.94537	15.48464	0	11.11	4003	0	0	5	5	0.4085131	0.734114	1	15	0.04	1600	75.98512	40.92303	-91.39374
610284	-89	-11	158	-1.574014	4.888662	15.35981	0	11.11	4004	0	0	5	5	0.4085131	0.7379585	1	15	0.04	1600	76.10851	40.92303	-91.39374
610404	-242	20	254	-1.722174	4.866081	14.9815	0	11.06	4003	0	0	5	5	0.4085131	0.743318	1	15	0.04	1600	76.41838	40.92303	-91.39374
610511	39	-30	220	-1.784963	4.880752	14.43387	0	11.06	4002	0	0	5	5	0.4085131	0.7595102	1	15	0.04	1600	76.92324	40.92303	-91.39374
610649	-234	-35	-137	-1.674853	4.898188	14.51904	0	11.06	4003	0	0	5	5	0.4085131	0.7750493	1	15	0.04	1600	76.93678	40.92303	-91.39374
610780	23	-11	52	-1.730035	4.842813	14.52539	0	11.06	4004	0	0	5	5	0.4085131	0.8066636	1	15	0.04	1600	77.17188	40.92303	-91.39374
610889	-83	26	-23	-1.560409	4.884361	14.51182	0	11.06	4004	0	0	5	5	0.4085131	0.8156866	1	15	0.04	1600	76.7225	40.92303	-91.39374
610997	-97	-13	-61	-1.484959	4.892238	14.58146	0	11.06	4004	0	0	5	5	0.4085131	0.8250675	1	15	0.04	1600	77.00605	40.92303	-91.39374
611089	-11	31	-44	-1.391262	4.855726	14.67487	0	11.06	4004	0	0	5	5	0.4085131	0.8284754	1	15	0.04	1600	76.69371	40.92303	-91.39374
611241	2	66	-84	-1.189401	4.719904	14.86916	0	11.06	4004	0	0	5	5	0.4085131	0.8409801	1	15	0.04	1600	76.53431	40.92303	-91.39374
611321	-17	45	-40	-1.051857	4.659962	14.92737	0	11.06	4003	0	0	5	5	0.4085131	0.8509253	1	15	0.04	1600	76.02254	40.92303	-91.39374
611401	1236	644	574	-0.668198	4.367156	14.91418	0	11.06	4002	0	0	5	5	0.4085131	0.85523	1	15	0.04	1600	75.94815	40.92303	-91.39374
611579	-2032	793	-1300	0.9622518	4.952844	15.32632	0	11.06	4002	0	0	5	5	0.4085131	0.868636	1	15	0.04	1600	75.82679	40.92303	-91.39374
611768	-1659	3288	-2900	-1.964746	-0.4936225	21.76154	0	11.06	4004	0	0	5	5	0.4085131	0.8655897	1	15	0.04	1600	66.04822	40.92303	-91.39374
611871	4529	737	-4838	-0.3743482	-4.601535	28.05439	0	11.06	4003	0	0	5	5	0.4085131	0.8616514	1	15	0.04	1600	58.73103	40.92303	-91.39374
612004	-4635	509	-6243	-1.774096	-5.759912	43.4652	0	11.06	4003	0	0	5	5	0.4085131	0.8647702	1	15	0.04	1600	48.75872	40.92396	-91.39374
612090	2754	-3422	-4589	-5.047434	-5.9627	52.74814	0	11.11	4002	0	0	5	5	0.4085131	0.868375	1	15	0.04	1600	40.89395	40.92396	-91.39374
612225	-6025	-45	-6168	-0.7690518	8.313126	63.76431	0	11.11	4004	0	0	5	5	0.4085131	0.8877839	1	15	0.04	1600	38.6527	40.92399	-91.39374
612307	-2060	4903	-5832	-9.237712	1.068482	74.41125	0	11.11	4003	0	0	5	5	0.4085131	0.9153289	1	15	0.04	1600	26.0806	40.92399	-91.39374
612406	1522	-408	-1837	-6.499691	3.267875	81.39747	0	11.11	4003	0	0	5	5	0.4085131	0.9424204	1	15	0.04	1600	19.01315	40.92399	-91.39374
612611	597	-701	-584	-4.374773	0.483504	84.81638	0	11.11	4003	0	0	5	5	0.4085131	0.9779297	1	15	0.04	1600	16.00179	40.92399	-91.39374
612723	3384	-1076	-2172	-2.167572	3.007192	86.45153	0	11.11	4003	0	0	5	5	0.4085131	0.9902889	1	15	0.04	1600	16.09247	40.92399	-91.39374
612798	2415	122	-1395	-0.07959104	3.614326	88.60818	0	11.11	4003	0	0	5	5	0.4085131	1.000015	1	15	0.04	1600	15.75046	40.92399	-91.39374
613028	1467	506	-4133	8.012822	10.24809	97.52553	0	11.11	4002	0	0	5	5	0.4085131	1.025774	1	15	0.04	1600	15.17275	40.92399	-91.39375
613117	-2513	2116	-2614	9.288472	5.334315	103.3489	0	11.11	4004	0	0	5	5	0.4085131	1.041978	1	15	0.04	1600	12.11131	40.92399	-91.39375
613245	56	1939	636	7.596486	1.15484	106.5608	0	11.11	4002	0	0	5	5	0.4085131	1.05596	1	15	0.04	1600	8.471731	40.92399	-91.39375
613291	-662	2425	1555	7.595509	-0.2006	105.8757	0	11.11	4003	0	0	5	5	0.4085131	1.06034	1	15	0.04	1600	8.471731	40.92399	-91.39375
613466	-1907	21	-1542	6.077379	-3.090209	106.6083	0	11.11	4002	0	0	5	5	0.4085131	1.049502	1	15	0.04	1600	8.803448	40.92399	-91.39375
613508	-1415	-2170	-1260	5.525425	-2.260812	107.3957	0	11.11	4004	0	0	5	5	0.4085131	1.04725	1	15	0.04	1600	8.803448	40.92399	-91.39375
613660	764	-663	645	4.586413	-0.486365	106.9128	0	11.11	4002	0	0	5	5	0.4085131	1.038562	1	15	0.04	1600	5.162771	40.92398	-91.39375
613707	-1280	-573	1801	4.364007	0.2675065	105.5427	0	11.11	4003	0	0	5	5	0.4085131	1.033964	1	15	0.04	1600	6.522512	40.92398	-91.39375
613845	163	-1584	1023	2.942116	4.480117	101.0852	0	11.11	4002	0	0	5	5	0.4085131	1.022709	1	15	0.04	1600	7.891927	40.92398	-91.39375
613897	741	-820	-21	3.452939	5.206492	100.8493	0	11.11	4002	0	0	5	5	0.4085131	1.018806	1	15	0.04	1600	9.398129	40.92398	-91.39375
614035	-1974	3053	219	1.418256	4.961823	101.0787	0	11.11	4004	0	0	5	5	0.4085131	0.999494	1	15	0.04	1600	8.391831	40.92397	-91.39375
614210	-934	-1327	130	-0.589786	2.471383	103.6638	0	11.11	4004	0	0	5	5	0.4085131	0.9739613	1	15	0.04	1600	6.184554	40.92397	-91.39375
614395	-1340	570	-577	-4.116731	3.957359	104.5228	0	11.11	4004	0	0	5	5	0.4085131	0.9498605	1	15	0.04	1600	7.340038	40.92397	-91.39375
614520	781	-767	567	-3.565799	4.411234	105.0313	0	11.11	4002	0	0	5	5	0.4085131	0.9473773	1	15	0.04	1600	7.316196	40.92397	-91.39375
614624	306	-204	-11	-1.394573	6.111423	104.0984	0	11.11	4004	0	0	5	5	0.4085131	0.9422185	1	15	0.04	1600	8.546591	40.92397	-91.39375
614749	-608	1513	-495	-1.534038	5.387166	104.8726	0	11.11	4002	0	0	5	5	0.4085131	0.9359409	1	15	0.04	1600	8.221874	40.92397	-91.39375
614795	-957	2055	-29	-1.882922	4.44431	105.0097	0	11.11	4003	0	0	5	5	0.4085131	0.9351091	1	15	0.04	1600	8.221874	40.92397	-91.39375
614985	-230	-712	393	-4.102589	2.272304	102.5277	0	11.11	4003	0	0	5	5	0.4085131	0.9373336	1	15	0.04	1600	8.087357	40.92397	-91.39376
615092	211	-433	117	-4.20354	3.273601	102.2612	0	11.11	4004	0	0	5	5	0.4085131	0.9325943	1	15	0.04	1600	8.526923	40.92389	-91.39376
615169	197	-310	-7	-3.913119	3.620908	102.1368	0	11.11	4002	0	0	5	5	0.4085131	0.9276296	1	15	0.04	1600	9.367613	40.92389	-91.39376
615284	54	-306	-108	-3.432095	4.293417	102.3367	0	11.11	4004	0	0	5	5	0.4085131	0.9226078	1	15	0.04	1600	9.729875	40.92393	-91.39377
615347	-174	45	67	-3.414491	4.432504	102.3269	0	11.11	4002	0	0	5	5	0.4085131	0.921076	1	15	0.04	1600	9.734012	40.92393	-91.39377
615450	41	-144	124	-3.525193	4.220514	102.3485	0	11.11	4002	0	0	5	5	0.4085131	0.9196997	1	15	0.04	1600	9.65623	40.92398	-91.39377
615597	-128	59	177	-3.329954	4.215537	101.9353	0	11.11	4003	0	0	5	5	0.4085131	0.913333	1	15	0.04	1600	10.08888	40.92398	-91.39377
615699	104	-284	104	-3.609842	4.149393	102.1157	0	11.06	4002	0	0	5	5	0.4085131	0.9114493	1	15	0.04	1600	10.16967	40.92398	-91.39377
615782	251	-315	108	-3.290143	4.474257	101.9258	0	11.06	4004	0	0	5	5	0.4085131	0.9127634	1	15	0.04	1600	10.27253	40.92397	-91.39377
615925	3	-162	26	-2.95832	5.038068	102.4747	0	11.06	4004	0	0	5	5	0.4085131	0.9110725	1	15	0.04	1600	10.44811	40.92397	-91.39377
616058	-169	-154	62	-2.757422	5.660767	102.3648	0	11.06	4003	0	0	5	5	0.4085131	0.911289	1	15	0.04	1600	10.32085	40.92397	-91.39377
616166	-193	122	-41	-2.903504	5.626096	102.2364	0	11.06	4002	0	0	5	5	0.4085131	0.9075736	1	15	0.04	1600	10.53614	40.92397	-91.39376
616274	-107	267	-38	-2.971415	5.362153	102.2911	0	11.06	4003	0	0	5	5	0.4085131	0.9120539	1	15	0.04	1600	10.64324	40.92397	-91.39376
616398	-240	-22	-9	-2.949089	5.166492	102.3017	0	11.06	4003	0	0	5	5	0.4085131	0.9144796	1	15	0.04	1600	10.25639	40.92397	-91.39376
616539	-115	49	-5	-3.135308	5.191561	102.3126	0	11.06	4002	0	0	5	5	0.4085131	0.9179657	1	15	0.04	1600	10.3257	40.92397	-91.39376
616589	-177	98	-35	-3.238819	5.044353	102.3388	0	11.11	4002	0	0	5	5	0.4085131	0.9176022	1	15	0.04	1600	10.11508	40.92397	-91.39376
616689	-80	-227	-137	-3.108018	5.119353	102.601	0	11.11	4002	0	0	5	5	0.4085131	0.9180999	1	15	0.04	1600	9.946941	40.92397	-91.39376
616739	-94	-332	-55	-3.100011	5.280708	102.655	0	11.11	4003	0	0	5	5	0.4085131	0.9186211	1	15	0.04	1600	9.834611	40.92397	-91.39376
616929	-2	-192	418	-2.979968	6.075811	102.0573	0	11.11	4004	0	0	5	5	0.4085131	0.9248466	1	15	0.04	1600	10.33384	40.92397	-91.39376
616974	2	-214	341	-2.942153	6.199566	101.8425	0	11.11	4003	0	0	5	5	0.4085131	0.9278231	1	15	0.04	1600	10.7669	40.92397	-91.39376
617041	220	-180	-87	-2.69392	6.562387	101.7458	0	11.11	4004	0	0	5	5	0.4085131	0.9307153	1	15	0.04	1600	10.88067	40.92397	-91.39376
617162	-464	379	-116	-2.606896	6.138266	101.8747	0	11.11	4002	0	0	5	5	0.4085131	0.9363836	1	15	0.04	1600	10.66937	40.92397	-91.39376
617268	-123	-139	149	-2.963897	5.886497	101.8977	0	11.11	4003	0	0	5	5	0.4085131	0.9390067	1	15	0.04	1600	10.41405	40.92397	-91.39375
617385	-206	345	-304	-3.075827	5.809141	101.9577	0	11.11	4002	0	0	5	5	0.4085131	0.9403439	1	15	0.04	1600	10.49357	40.92396	-91.39375
617418	-303	489	-358	-3.166375	5.570117	102.1429	0	11.11	4003	0	0	5	5	0.4085131	0.94107	1	15	0.04	1600	10.40958	40.92396	-91.39375
617655	-759	231	-2900	-3.730274	4.734471	106.6836	0	11.11	4004	0	0	5	5	0.4085131	0.9488604	1	15	0.04	1600	8.094209	40.92396	-91.39375
617771	752	558	-4607	-3.164823	4.796183	113.1459	0	11.11	4003	0	0	5	5	0.4085131	0.9539751	1	15	0.04	1600	6.123598	40.92396	-91.39375
617937	1573	-966	-4379	2.386738	6.325513	126.5961	0	11.11	4002	0	0	5	5	0.4085131	0.9575468	1	15	0.04	1600	-2.415619	40.92396	-91.39375
618054	1319	103	-4297	6.752862	6.834021	137.2843	0	11.11	4002	0	0	5	5	0.4085131	0.9528196	1	15	0.04	1600	-8.281342	40.92396	-91.39375
618118	1738	964	-4139	7.815753	6.3255	139.5696	0	11.11	4002	0	0	5	5	0.4085131	0.9460639	1	15	0.04	1600	-11.29349	40.92396	-91.39374
618273	-57	779	-3267	11.55084	2.441241	149.4873	0	11.11	4003	0	0	5	5	0.4085131	0.9199688	1	15	0.04	1600	-15.31967	40.92396	-91.39374
618379	-1287	1718	-3617	10.76798	-0.5828328	154.9334	0	11.11	4002	0	0	5	5	0.4085131	0.9050902	1	15	0.04	1600	-17.60046	40.92396	-91.39374
618479	-1282	719	-3004	8.532732	-3.661048	160.8052	0	11.11	4002	0	0	5	5	0.4085131	0.8910084	1	15	0.04	1600	-22.37769	40.92396	-91.39374
618510	-379	549	-1555	7.568237	-4.725418	163.2492	0	11.11	4004	0	0	5	5	0.4085131	0.8839071	1	15	0.04	1600	-24.71222	40.92396	-91.39374
618694	-290	66	432	7.470313	-5.342614	164.4599	0	11.11	4002	0	0	5	5	0.4085131	0.8667	1	15	0.04	1600	-25.48779	40.92396	-91.39374
618767	-158	-189	-38	7.270293	-5.252021	164.1237	0	11.11	4004	0	0	5	5	0.4085131	0.8520784	1	15	0.04	1600	-25.18219	40.92396	-91.39374
618838	49	-87	1	7.236029	-5.013688	164.1521	0	11.11	4004	0	0	5	5	0.4085131	0.8418107	1	15	0.04	1600	-25.10681	40.92396	-91.39374
618983	-624	-48	644	7.032452	-5.179706	163.5742	0	11.11	4003	0	0	5	5	0.4085131	0.8291048	1	15	0.04	1600	-25.0675	40.92396	-91.39374
619078	-1733	-234	5065	6.127876	-4.339036	160.8709	0	11.11	4004	0	0	5	5	0.4085131	0.8222692	1	15	0.04	1600	-25.04474	40.92396	-91.39374
619167	-2574	2931	12867	3.9243	-5.629747	137.6756	0	11.11	4004	0	0	5	5	0.4085131	0.8205729	1	15	0.04	1600	-12.827	40.92396	-91.39374
619254	-2466	568	15335	3.247805	-7.287047	121.9343	0	11.11	4003	0	0	5	5	0.4085131	0.8177497	1	15	0.04	1600	-4.22168	40.92396	-91.39374
619330	-757	-2456	16045	3.994331	-3.704362	95.53465	0	11.11	4002	0	0	5	5	0.4085131	0.8151866	1	15	0.04	1600	3.917554	40.92396	-91.39374
619441	3719	68	11079	6.329477	1.723024	65.97924	0	11.11	4004	0	0	5	5	0.4085131	0.8109323	1	15	0.04	1600	27.60867	40.92396	-91.39374
619534	4767	-1371	10164	10.64796	4.04405	54.56089	0	11.11	4003	0	0	5	5	0.4085131	0.8096136	1	15	0.04	1600	39.66683	40.92396	-91.39374
619621	1905	607	10210	16.78135	10.50896	31.94726	0	11.11	4004	0	0	5	5	0.4085131	0.810719	1	15	0.04	1600	62.86724	40.92396	-91.39374
619692	-1178	706	9354	15.0054	12.10552	20.86239	0	11.11	4003	0	0	5	5	0.4085131	0.8109069	1	15	0.04	1600	79.57896	40.92396	-91.39374
619771	-2436	493	6244	11.72468	13.6618	12.40267	0	11.11	4004	0	0	5	5	0.4085131	0.8099512	1	15	0.04	1600	92.53828	40.92396	-91.39374
619898	-870	535	-776	8.010285	11.52599	6.319517	0	11.11	4003	0	0	5	5	0.4085131	0.8147354	1	15	0.04	1600	102.2549	40.92396	-91.39374
619972	94	404	-934	8.313146	10.20703	8.297032	0	11.11	4004	0	0	5	5	0.4085131	0.8193626	1	15	0.04	1600	100.1612	40.92396	-91.39374
620030	-251	176	-507	8.39786	10.02747	8.683514	0	11.11	4003	0	0	5	5	0.4085131	0.8243515	1	15	0.04	1600	100.1612	40.92396	-91.39373
620204	-285	234	-196	8.102044	9.017339	9.762075	0	11.11	4004	0	0	5	5	0.4085131	0.822772	1	15	0.04	1600	96.65672	40.92396	-91.39373
620325	-54	-307	-81	8.020243	8.856933	9.88424	0	11.11	4003	0	0	5	5	0.4085131	0.8201777	1	15	0.04	1600	96.41052	40.92396	-91.39373
620363	-105	40	-159	8.183395	8.99406	10.02919	0	11.11	4003	0	0	5	5	0.4085131	0.8159194	1	15	0.04	1600	96.38495	40.92396	-91.39373
620507	-55	-76	-58	8.277611	9.07626	10.26293	0	11.11	4004	0	0	5	5	0.4085131	0.8151611	1	15	0.04	1600	96.00906	40.92396	-91.39373
620581	-69	-57	-207	8.159307	8.930781	10.37084	0	11.11	4003	0	0	5	5	0.4085131	0.823548	1	15	0.04	1600	96.3418	40.92396	-91.39373
620701	542	751	-1061	8.585325	8.510493	11.28506	0	11.11	4004	0	0	5	5	0.4085131	0.8268715	1	15	0.04	1600	95.25372	40.92396	-91.39373
620882	-385	471	785	10.69445	6.095688	15.21839	0	11.11	4004	0	0	5	5	0.4085131	0.8295216	1	15	0.04	1600	88.4347	40.92396	-91.39374
620969	-617	332	1296	9.663062	5.876812	12.74171	0	11.06	4004	0	0	5	5	0.4085131	0.8269686	1	15	0.04	1600	90.06667	40.92396	-91.39374
621176	-1076	785	3214	7.379975	3.986928	4.677307	0	11.06	4003	0	0	5	5	0.4085131	0.8129186	1	15	0.04	1600	93.82896	40.92396	-91.39374
621280	396	-69	-404	5.993693	4.158025	1.951385	0	11.06	4003	0	0	5	5	0.4085131	0.803044	1	15	0.04	1600	103.185	40.92396	-91.39374
621347	178	-28	-215	6.738346	4.027425	3.012909	0	11.06	4004	0	0	5	5	0.4085131	0.7935439	1	15	0.04	1600	103.0009	40.92396	-91.39374
621575	117	-147	-543	7.529316	4.178859	3.903042	0	11.06	4003	0	0	5	5	0.4085131	0.7909415	1	15	0.04	1600	102.2743	40.92396	-91.39374
621670	40	-62	-782	7.83017	4.244444	4.664071	0	11.06	4003	0	0	5	5	0.4085131	0.7975075	1	15	0.04	1600	102.1118	40.92396	-91.39374
621816	-1017	-3188	-770	7.015162	6.584482	5.652731	0	11.06	4003	0	0	5	5	0.4085131	0.8061454	1	15	0.04	1600	100.1094	40.92396	-91.39374
621885	-994	-5265	-664	5.975098	10.15269	6.712518	0	11.06	4003	0	0	5	5	0.4085131	0.8106135	1	15	0.04	1600	101.7423	40.92396	-91.39374
621979	-63	-7760	3001	5.340596	22.22316	4.22727	0	11.06	4003	0	0	5	5	0.4085131	0.8263508	1	15	0.04	1600	114.4324	40.92396	-91.39374
622103	-189	724	1215	0.8835712	31.20606	-2.021689	0	11.06	4003	0	0	5	5	0.4085131	0.830834	1	15	0.04	1600	122.8096	40.92396	-91.39374
622156	371	832	-1075	1.237643	30.26455	-1.848186	0	11.06	4003	0	0	5	5	0.4085131	0.8306811	1	15	0.04	1600	122.2181	40.92396	-91.39374
622262	-229	4512	-323	2.411266	27.27858	-0.6059388	0	11.06	4004	0	0	5	5	0.4085131	0.8325295	1	15	0.04	1600	121.3693	40.92396	-91.39374
622437	1140	4781	-1907	6.080757	4.636165	4.253489	0	11.06	4002	0	0	5	5	0.4085131	0.8383244	1	15	0.04	1600	97.95065	40.92396	-91.39374
622589	436	1755	-173	7.806938	-2.73962	6.145507	0	11.06	4002	0	0	5	5	0.4085131	0.8395209	1	15	0.04	1600	91.64869	40.92396	-91.39374
622705	715	1416	-605	9.388461	-7.024114	6.33827	0	11.06	4004	0	0	5	5	0.4085131	0.8325838	1	15	0.04	1600	89.55021	40.92396	-91.39374
622736	742	668	-513	9.874441	-7.791066	6.672565	0	11.06	4004	0	0	5	5	0.4085131	0.8319972	1	15	0.04	1600	89.55021	40.92396	-91.39374
622849	-494	-7	452	10.53533	-7.986568	6.370082	0	11.11	4002	0	0	5	5	0.4085131	0.8355634	1	15	0.04	1600	90.15874	40.92397	-91.39374
622965	-286	-49	37	10.24065	-7.90392	5.861078	0	11.11	4003	0	0	5	5	0.4085131	0.8440412	1	15	0.04	1600	91.76937	40.92397	-91.39374
623039	-255	-224	-208	10.09339	-7.844491	5.926011	0	11.11	4003	0	0	5	5	0.4085131	0.8500499	1	15	0.04	1600	91.76394	40.92397	-91.39374
623171	-136	-5123	-4371	8.875956	-3.685126	9.391953	0	11.11	4002	0	0	5	5	0.4085131	0.8586396	1	15	0.04	1600	93.47547	40.92397	-91.39374
623289	-2857	-3130	-8266	7.548865	4.468327	25.09113	0	11.11	4002	0	0	5	5	0.4085131	0.8633089	1	15	0.04	1600	84.7069	40.92397	-91.39374
623382	-2922	-805	-15743	3.425572	6.852654	44.17333	0	11.11	4002	0	0	5	5	0.4085131	0.8675315	1	15	0.04	1600	60.45494	40.92397	-91.39374
623466	-1962	3609	-21338	2.914939	2.866672	76.22389	0	11.11	4003	0	0	5	5	0.4085131	0.8658248	1	15	0.04	1600	39.09444	40.92397	-91.39374
623513	-2103	3720	-20541	2.39061	0.4492408	87.80833	0	11.11	4003	0	0	5	5	0.4085131	0.8691409	1	15	0.04	1600	21.50154	40.92397	-91.39374
623727	-676	-745	-606	-3.806092	-4.800246	129.9515	0	11.11	4003	0	0	5	5	0.4085131	0.8765233	1	15	0.04	1600	-4.326965	40.92397	-91.39374
623828	-822	-1884	1770	-4.01372	-3.36887	129.958	0	11.11	4002	0	0	5	5	0.4085131	0.8784181	1	15	0.04	1600	-10.53543	40.92397	-91.39374
623895	-1445	-2459	99	-5.528022	-1.236552	128.5594	0	11.11	4002	0	0	5	5	0.4085131	0.8820519	1	15	0.04	1600	-10.1297	40.92397	-91.39374
624123	1306	1634	8379	-3.294867	-1.366842	117.9706	0	11.11	4004	0	0	5	5	0.4085131	0.8876087	1	15	0.04	1600	-4.709625	40.92397	-91.39374
624271	167	-2984	1096	1.540812	4.649224	106.7719	0	11.11	4003	0	0	5	5	0.4085131	0.8897429	1	15	0.04	1600	3.906302	40.92397	-91.39374
624382	-1094	195	337	0.8272369	5.944169	106.1564	0	11.11	4004	0	0	5	5	0.4085131	0.8943197	1	15	0.04	1600	6.169693	40.92397	-91.39374
624414	-1195	323	-125	0.01169929	5.463692	106.1397	0	11.11	4003	0	0	5	5	0.4085131	0.8959762	1	15	0.04	1600	5.827884	40.92397	-91.39374
624524	-399	551	-755	-1.148157	5.327199	106.6446	0	11.11	4003	0	0	5	5	0.4085131	0.9010013	1	15	0.04	1600	6.080562	40.92397	-91.39374
624678	144	-168	-419	-1.010466	4.446592	107.8454	0	11.06	4004	0	0	5	5	0.4085131	0.9118298	1	15	0.04	1600	4.73173	40.92397	-91.39374
624773	772	229	-646	-0.2699323	4.941366	108.9098	0	11.06	4004	0	0	5	5	0.4085131	0.9225304	1	15	0.04	1600	4.404528	40.92397	-91.39374
624808	474	573	-598	0.3566833	4.604221	109.2536	0	11.06	4002	0	0	5	5	0.4085131	0.9248712	1	15	0.04	1600	4.404528	40.92397	-91.39374
624922	373	738	-870	-0.7117614	5.132394	110.4033	0	11.06	4003	0	0	5	5	0.4085131	0.9336261	1	15	0.04	1600	3.588568	40.92397	-91.39374
625038	-18	-595	525	0.5170333	5.516768	110.873	0	11.06	4003	0	0	5	5	0.4085131	0.947533	1	15	0.04	1600	2.638685	40.92397	-91.39374
625103	164	460	169	0.752782	5.713836	110.4059	0	11.06	4003	0	0	5	5	0.4085131	0.950303	1	15	0.04	1600	2.753626	40.92397	-91.39374
625263	-292	344	-1156	-0.6244434	4.196512	112.1268	0	11.06	4003	0	0	5	5	0.4085131	0.9619132	1	15	0.04	1600	1.813712	40.92397	-91.39374
625346	204	588	-161	-0.5534164	3.71535	112.8653	0	11.06	4004	0	0	5	5	0.4085131	0.962621	1	15	0.04	1600	1.349034	40.92397	-91.39374
625396	259	480	343	-0.1691006	3.057549	112.6476	0	11.06	4003	0	0	5	5	0.4085131	0.9620883	1	15	0.04	1600	1.445266	40.92397	-91.39374
625539	439	0	-68	0.7393004	2.568558	112.2146	0	11.06	4003	0	0	5	5	0.4085131	0.9575978	1	15	0.04	1600	1.400403	40.92397	-91.39374
625649	-54	27	49	1.097113	2.824676	112.2904	0	11.06	4004	0	0	5	5	0.4085131	0.9546403	1	15	0.04	1600	1.441659	40.92398	-91.39374
625752	-126	1099	611	1.398231	1.698678	111.5112	0	11.06	4003	0	0	5	5	0.4085131	0.9557787	1	15	0.04	1600	1.420578	40.92398	-91.39374
625843	-80	1466	758	1.337508	0.2326335	110.7527	0	11.06	4003	0	0	5	5	0.4085131	0.9653956	1	15	0.04	1600	1.96437	40.92398	-91.39374
626028	115	456	974	2.365596	-3.057497	106.4765	0	11.06	4003	0	0	5	5	0.4085131	0.9895647	1	15	0.04	1600	4.003727	40.92398	-91.39374
626106	-343	585	213	2.226881	-3.743466	105.816	0	11.06	4003	0	0	5	5	0.4085131	0.9852232	1	15	0.04	1600	4.003727	40.92398	-91.39374
626192	-221	177	-560	1.516805	-4.821168	106.55	0	11.06	4004	0	0	5	5	0.4085131	0.9746536	1	15	0.04	1600	4.470808	40.92398	-91.39374
626311	-77	-276	-228	1.420307	-4.825155	107.5698	0	11.06	4003	0	0	5	5	0.4085131	0.9536394	1	15	0.04	1600	3.954689	40.92398	-91.39374
626356	-57	-197	52	1.407538	-4.47755	107.6321	0	11.06	4004	0	0	5	5	0.4085131	0.9507533	1	15	0.04	1600	3.721112	40.92398	-91.39374
626536	-111	285	-25	1.784031	-4.725818	107.6473	0	11.06	4003	0	0	5	5	0.4085131	0.9298445	1	15	0.04	1600	3.771662	40.92398	-91.39374
626573	-111	285	-25	1.758383	-4.900073	107.68	0	11.06	4003	0	0	5	5	0.4085131	0.9285043	1	15	0.04	1600	3.469034	40.92398	-91.39374
626660	-85	-135	214	1.949151	-5.680411	107.4801	0	11.06	4004	0	0	5	5	0.4085131	0.9269059	1	15	0.04	1600	3.645959	40.92398	-91.39374
626769	152	-253	72	2.039376	-5.43864	107.3086	0	11.06	4004	0	0	5	5	0.4085131	0.9257836	1	15	0.04	1600	3.704939	40.92398	-91.39374
626939	-154	-45	35	1.971274	-5.085018	107.7088	0	11.06	4004	0	0	5	5	0.4085131	0.9111625	1	15	0.04	1600	3.684005	40.92398	-91.39374
627019	-149	491	-114	2.066019	-5.342911	107.7369	0	11.06	4003	0	0	5	5	0.4085131	0.9075176	1	15	0.04	1600	3.734461	40.92398	-91.39374
627086	46	626	-438	2.127296	-6.329059	108.2523	0	11.06	4002	0	0	5	5	0.4085131	0.9053805	1	15	0.04	1600	3.330889	40.92398	-91.39374
627163	-49	409	-166	2.212776	-7.011429	108.6115	0	11.06	4002	0	0	5	5	0.4085131	0.900967	1	15	0.04	1600	3.176857	40.92398	-91.39374
627227	-19	267	-25	2.248005	-7.233378	108.6582	0	11.06	4004	0	0	5	5	0.4085131	0.8964281	1	15	0.04	1600	2.906121	40.92398	-91.39374
627320	120	-128	78	2.481376	-7.489818	108.4448	0	11.11	4003	0	0	5	5	0.4085131	0.8929019	1	15	0.04	1600	2.983375	40.92398	-91.39374
627467	340	388	-217	3.987274	-7.69275	108.9346	0	11.11	4003	0	0	5	5	0.4085131	0.8929853	1	15	0.04	1600	2.950655	40.92398	-91.39374
627516	28	407	-185	4.188684	-7.935267	109.0457	0	11.11	4002	0	0	5	5	0.4085131	0.8924044	1	15	0.04	1600	2.950655	40.92398	-91.39374
627689	-12	-538	-40	3.853257	-7.875916	109.4804	0	11.11	4004	0	0	5	5	0.4085131	0.8947765	1	15	0.04	1600	2.668558	40.92398	-91.39374
627822	-77	-111	-293	3.782296	-7.065696	109.7412	0	11.11	4004	0	0	5	5	0.4085131	0.8956213	1	15	0.04	1600	2.680928	40.92398	-91.39374
627963	-26	118	-261	3.854603	-7.230185	110.5211	0	11.11	4002	0	0	5	5	0.4085131	0.8981206	1	15	0.04	1600	2.211832	40.92398	-91.39374
628018	-13	96	-344	3.90271	-7.269711	110.6883	0	11.11	4003	0	0	5	5	0.4085131	0.8971765	1	15	0.04	1600	2.211832	40.92398	-91.39374
628104	-87	118	-263	3.953086	-7.410678	111.0398	0	11.11	4003	0	0	5	5	0.4085131	0.8979737	1	15	0.04	1600	1.859317	40.92398	-91.39374
628230	261	103	-45	4.484002	-7.347506	111.2403	0	11.06	4004	0	0	5	5	0.4085131	0.8982114	1	15	0.04	1600	1.70427	40.92398	-91.39374
628308	-95	363	-65	4.649565	-7.719753	111.3523	0	11.06	4004	0	0	5	5	0.4085131	0.8949617	1	15	0.04	1600	1.578264	40.92398	-91.39374
628452	-215	150	70	4.544854	-8.233325	111.3601	0	11.06	4003	0	0	5	5	0.4085131	0.8895247	1	15	0.04	1600	1.524702	40.92398	-91.39374
628633	76	-100	-59	4.502502	-8.193831	111.3192	0	11.06	4004	0	0	5	5	0.4085131	0.8789675	1	15	0.04	1600	1.297163	40.92398	-91.39374
628746	-134	-21	145	4.706223	-8.363637	111.1956	0	11.06	4003	0	0	5	5	0.4085131	0.8707021	1	15	0.04	1600	1.40825	40.92397	-91.39374
628789	-74	-249	-21	4.624481	-8.230942	111.1017	0	11.06	4003	0	0	5	5	0.4085131	0.8690312	1	15	0.04	1600	1.389792	40.92397	-91.39374
628921	-39	-233	-151	4.58011	-7.939188	111.27	0	11.06	4003	0	0	5	5	0.4085131	0.863419	1	15	0.04	1600	1.267506	40.92397	-91.39374
628996	-138	-198	-122	4.625749	-7.530977	111.4567	0	11.06	4003	0	0	5	5	0.4085131	0.8621898	1	15	0.04	1600	1.372037	40.92397	-91.39374
629144	-66	152	303	4.34813	-7.342127	111.0639	0	11.11	4003	0	0	5	5	0.4085131	0.8481278	1	15	0.04	1600	1.219516	40.92397	-91.39374
629263	126	-50	-91	4.456222	-7.549676	110.8922	0	11.11	4003	0	0	5	5	0.4085131	0.8414548	1	15	0.04	1600	1.50114	40.92397	-91.39374
629506	-272	-37	291	4.677072	-7.937107	111.2928	0	11.11	4004	0	0	5	5	0.4085131	0.8457887	1	15	0.04	1600	0.8266017	40.92397	-91.39373
629670	-9	183	-395	4.769227	-8.167353	110.7109	0	11.11	4003	0	0	5	5	0.4085131	0.8540753	1	15	0.04	1600	1.47807	40.92397	-91.39373
629790	-134	30	7	4.672861	-8.377085	111.1767	0	11.11	4004	0	0	5	5	0.4085131	0.8593035	1	15	0.04	1600	1.3147	40.92397	-91.39373
629892	-187	164	153	4.656879	-8.447629	110.6252	0	11.11	4004	0	0	5	5	0.4085131	0.8599579	1	15	0.04	1600	1.344319	40.92397	-91.39373
630036	-105	127	67	4.451779	-8.94919	110.7115	0	11.06	4003	0	0	5	5	0.4085131	0.8564541	1	15	0.04	1600	1.246991	40.92397	-91.39373
630099	-87	106	99	4.456609	-9.074575	110.6004	0	11.06	4002	0	0	5	5	0.4085131	0.8602716	1	15	0.04	1600	1.484684	40.92397	-91.39373
630231	-139	-4	15	4.278322	-9.239611	110.4976	0	11.06	4003	0	0	5	5	0.4085131	0.8629186	1	15	0.04	1600	1.475373	40.92397	-91.39373
630458	-63	91	8	4.247349	-9.360125	110.6285	0	11.06	4010	0	0	5	5	0.4085131	0.8685451	1	15	0.04	1600	1.328382	40.92397	-91.39373
630506	-37	80	16	4.269981	-9.397526	110.6216	0	11.06	4004	0	0	5	5	0.4085131	0.868911	1	15	0.04	1600	1.328382	40.92397	-91.39373
630576	-160	82	57	4.295666	-9.469571	110.5874	0	11.06	4004	0	0	5	5	0.4085131	0.8675368	1	15	0.04	1600	1.302132	40.92397	-91.39373
630821	-99	53	84	3.93364	-9.4975	110.3581	0	11.06	4003	0	0	5	5	0.4085131	0.8519828	1	15	0.04	1600	1.281226	40.92397	-91.39373
631006	-13	-48	-122	3.872817	-9.713916	110.3505	0	11	4004	0	0	5	5	0.4085131	0.8506253	1	15	0.04	1600	1.386649	40.92397	-91.39373
631184	-91	-180	23	3.915488	-9.147802	110.28	0	11	4004	0	0	5	5	0.4085131	0.8559132	1	15	0.04	1600	1.462729	40.92397	-91.39373
631365	-98	-189	-31	3.796137	-8.75106	110.628	0	11	4003	0	0	5	5	0.4085131	0.8869697	1	15	0.04	1600	1.196987	40.92397	-91.39373
631503	62	-26	4	3.78019	-8.600392	110.5032	0	11	4003	0	0	5	5	0.4085131	0.9162086	1	15	0.04	1600	1.220472	40.92397	-91.39373
631673	25	-152	-158	4.031454	-8.629241	111.1253	0	11	4004	0	0	5	5	0.4085131	0.9396091	1	15	0.04	1600	1.494726	40.92397	-91.39373
631708	-50	21	-149	4.098709	-8.541594	111.2123	0	11	4002	0	0	5	5	0.4085131	0.9426917	1	15	0.04	1600	1.072996	40.92397	-91.39373
631771	-211	33	-167	3.965929	-8.517651	111.381	0	11	4003	0	0	5	5	0.4085131	0.9552417	1	15	0.04	1600	0.8530003	40.92397	-91.39373
631887	-133	415	209	4.160154	-8.750993	111.3587	0	11.06	4003	0	0	5	5	0.4085131	0.9628818	1	15	0.04	1600	0.6690449	40.92397	-91.39373
631989	-650	376	602	3.609259	-9.589458	110.6836	0	11.06	4002	0	0	5	5	0.4085131	0.9694129	1	15	0.04	1600	0.3156177	40.92397	-91.39373
632150	-30	48	259	3.018875	-10.46921	109.2394	0	11.06	4004	0	0	5	5	0.4085131	0.9781355	1	15	0.04	1600	1.225262	40.92397	-91.39373
632298	80	-137	-167	2.980243	-11.17822	109.5924	0	11.06	4002	0	0	5	5	0.4085131	0.9783601	1	15	0.04	1600	1.591121	40.92397	-91.39373
632480	-64	58	-258	3.497156	-9.85807	109.8849	0	11.06	4004	0	0	5	5	0.4085131	0.9816436	1	15	0.04	1600	1.730724	40.92397	-91.39373
632604	-133	128	105	3.479511	-9.707403	110.3295	0	11.06	4002	0	0	5	5	0.4085131	0.9807877	1	15	0.04	1600	1.192613	40.92397	-91.39373
632725	-88	107	122	3.392124	-10.03525	109.5801	0	11.11	4002	0	0	5	5	0.4085131	0.980931	1	15	0.04	1600	1.537941	40.92397	-91.39373
632868	-60	280	101	3.273331	-10.44744	109.5718	0	11.11	4004	0	0	5	5	0.4085131	0.9842026	1	15	0.04	1600	1.441381	40.92397	-91.39373
632935	-200	178	-46	3.309026	-10.97139	109.4662	0	11.11	4004	0	0	5	5	0.4085131	0.9833431	1	15	0.04	1600	1.407934	40.92397	-91.39373
632972	-339	3	57	3.028917	-11.10631	109.4948	0	11.11	4002	0	0	5	5	0.4085131	0.9827963	1	15	0.04	1600	1.415033	40.92397	-91.39373
633097	-114	-38	-220	2.931106	-10.98587	109.4412	0	11.11	4004	0	0	5	5	0.4085131	0.989233	1	15	0.04	1600	1.51052	40.92397	-91.39373
633132	-93	-29	-182	2.866056	-10.9609	109.5537	0	11.11	4004	0	0	5	5	0.4085131	0.9912653	1	15	0.04	1600	1.529043	40.92397	-91.39373
633158	202	-186	-31	3.001936	-10.8241	109.6568	0	11.11	4003	0	0	5	5	0.4085131	0.9946102	1	15	0.04	1600	1.451484	40.92397	-91.39373
633255	-132	162	32	3.341635	-10.59767	109.6212	0	11.11	4004	0	0	5	5	0.4085131	0.9977071	1	15	0.04	1600	1.602409	40.92397	-91.39373
633332	-75	204	32	3.331576	-10.74472	109.6039	0	11.11	4004	0	0	5	5	0.4085131	0.9933614	1	15	0.04	1600	1.602409	40.92397	-91.39372
633598	-144	-170	17	3.008868	-10.96645	109.5198	0	11.17	4004	0	0	5	5	0.4085131	0.9809169	1	15	0.04	1600	1.323964	40.92397	-91.39372
633817	-49	88	-15	3.061488	-10.82347	109.7104	0	11.17	4003	0	0	5	5	0.4085131	0.9666301	1	15	0.04	1600	1.352029	40.92397	-91.39372
633946	-31	-136	82	3.090677	-10.81009	109.592	0	11.17	4004	0	0	5	5	0.4085131	0.9644431	1	15	0.04	1600	1.284775	40.92397	-91.39372
634023	-131	54	-36	3.098617	-10.78415	109.5279	0	11.17	4002	0	0	5	5	0.4085131	0.9660544	1	15	0.04	1600	1.241358	40.92397	-91.39372
634102	-171	-58	-24	2.962946	-10.83042	109.6336	0	11.17	4002	0	0	5	5	0.4085131	0.9686981	1	15	0.04	1600	1.323118	40.92397	-91.39372
634257	-44	54	-127	3.030231	-10.74127	109.6486	0	11.17	4004	0	0	5	5	0.4085131	0.9791868	1	15	0.04	1600	1.357989	40.92397	-91.39372
634430	-153	6	183	3.033939	-10.73957	109.6027	0	11.11	4003	0	0	5	5	0.4085131	0.993759	1	15	0.04	1600	1.312246	40.92397	-91.39372
634475	-72	-146	36	2.902129	-10.7074	109.4719	0	11.11	4003	0	0	5	5	0.4085131	0.9950175	1	15	0.04	1600	1.397483	40.92397	-91.39372
634533	93	-165	-67	2.918358	-10.60783	109.4866	0	11.11	4003	0	0	5	5	0.4085131	1.000114	1	15	0.04	1600	1.695997	40.92397	-91.39372
634778	-79	-111	168	2.914827	-10.70791	109.4289	0	11.11	4002	0	0	5	5	0.4085131	1.006153	1	15	0.04	1600	1.254116	40.92396	-91.39372
634917	-40	141	-164	2.880902	-10.75088	109.4673	0	11.11	4002	0	0	5	5	0.4085131	1.010805	1	15	0.04	1600	1.535368	40.92396	-91.39372
634980	-29	196	-94	2.925222	-10.84025	109.5397	0	11.11	4003	0	0	5	5	0.4085131	1.015584	1	15	0.04	1600	1.494239	40.92396	-91.39372
635077	-240	4	143	2.842258	-11.01325	109.3606	0	11.11	4004	0	0	5	5	0.4085131	1.020062	1	15	0.04	1600	1.505972	40.92396	-91.39372
635136	-70	-2	114	2.677372	-10.99871	109.2139	0	11.11	4004	0	0	5	5	0.4085131	1.025529	1	15	0.04	1600	1.381625	40.92396	-91.39372
635314	-32	17	-87	2.759284	-11.17745	109.2799	0	11.11	4003	0	0	5	5	0.4085131	1.03571	1	15	0.04	1600	1.712744	40.92396	-91.39372
635401	22	-97	4	2.787631	-11.12219	109.3206	0	11.11	4002	0	0	5	5	0.4085131	1.04059	1	15	0.04	1600	1.46118	40.92396	-91.39372
635490	-30	-217	60	2.746274	-10.94199	109.1917	0	11.11	4002	0	0	5	5	0.4085131	1.040959	1	15	0.04	1600	1.66495	40.92396	-91.39372
635605	-846	-504	215	1.232769	-9.612826	108.7767	0	11.11	4003	0	0	5	5	0.4085131	1.03037	1	15	0.04	1600	1.59427	40.92396	-91.39372
635720	-841	2	169	-0.0538643	-9.128774	108.303	0	11.11	4003	0	0	5	5	0.4085131	1.021585	1	15	0.04	1600	1.535362	40.92396	-91.39372
635859	1339	631	-869	0.1451533	-12.10326	108.6454	0	11.11	4004	0	0	5	5	0.4085131	1.011867	1	15	0.04	1600	1.381772	40.92396	-91.39372
635955	1911	-1228	-1715	2.353507	-9.662291	110.7937	0	11.11	4003	0	0	5	5	0.4085131	1.003393	1	15	0.04	1600	0.6323518	40.92396	-91.39372
636053	-332	467	-2792	2.156695	-10.61703	116.0175	0	11.11	4002	0	0	5	5	0.4085131	0.9999563	1	15	0.04	1600	-1.013336	40.92396	-91.39372
636142	341	-102	-2566	0.6598901	-10.34934	118.9054	0	11.11	4004	0	0	5	5	0.4085131	1.009714	1	15	0.04	1600	-2.6586	40.92396	-91.39372
636233	836	1556	-2248	0.7300854	-11.70055	124.1713	0	11.11	4003	0	0	5	5	0.4085131	1.023868	1	15	0.04	1600	-4.546478	40.92396	-91.39372
