time(ms)	gyro_x(deg/s)	gyro_y(deg/s)	gyro_z(deg/s)	orientation_roll(deg)	orientation_pitch(deg)	orientation_yaw(deg)	throttle	battery(V)	loop_time(uS)	pid_output_roll	pid_output_pitch	pid_output_yaw	pid_output_throttle	ultrasonic_alt	baro_alt	flight_mode	p_gain_altitude	i_gain_altitude	d_gain_altitude	compass_heading	latitude	longitude
33080	-298	-2823	-521	3.700682	-1.288201	341.5841	0	12.25	4003	1502	1502	1340	1502	0.02	1.564429	8	10	0.08	2800	332.212	40.92392	-91.39363
33120	-372	-747	-345	3.356364	-0.2126626	329.7596	0	12.25	4004	1502	1502	1340	1502	0.02	1.56246	8	10	0.08	2800	329.7534	40.92392	-91.39363
33230	921	840	137	1.30074	-2.707586	332.0575	0	12.25	4004	1502	1502	1340	1502	0.02	1.560997	8	10	0.08	2800	334.7758	40.92392	-91.39363
33346	327	-1004	475	1.285318	-2.998763	332.8227	0	12.25	4003	1502	1502	1340	1502	0.02	1.556537	8	10	0.08	2800	336.7178	40.92392	-91.39363
33480	555	373	-157	-1.934328	-3.048772	332.4617	0	12.31	4004	1502	1503	1340	1503	0.02	1.562635	8	10	0.08	2800	333.3234	40.92392	-91.39363
33524	2066	1063	-520	-1.474519	-3.757523	332.6466	0	12.31	4004	1502	1503	1340	1503	0.02	1.562321	8	10	0.08	2800	333.3234	40.92392	-91.39363
33641	-1348	-1855	470	-2.370936	-4.718162	330.8959	0	12.31	4003	1502	1503	1341	1503	0.02	1.56081	8	10	0.08	2800	335.0966	40.92392	-91.39363
33674	1135	-1066	958	-2.117001	-4.718162	330.8959	0	12.31	4002	1503	1503	1341	1503	0.02	1.565238	8	10	0.08	2800	335.0966	40.92392	-91.39363
33831	-1050	-227	576	-2.36166	-5.442647	329.0521	0	12.31	4003	1503	1503	1341	1503	0.02	1.577354	8	10	0.08	2800	332.2352	40.92392	-91.39362
33878	-349	-1406	1452	-2.859848	-5.15781	328.7657	0	12.31	4002	1503	1503	1341	1503	0.02	1.588373	8	10	0.08	2800	332.2352	40.92392	-91.39362
34063	-241	1651	1367	-1.093259	-3.027809	327.5103	0	12.31	4004	1503	1503	1340	1502	0.02	1.622596	8	10	0.08	2800	331.7406	40.92392	-91.39362
34160	-46	546	-832	-2.365115	-4.650972	327.7418	0	12.31	4003	1503	1502	1340	1502	0.02	1.644507	8	10	0.08	2800	331.2835	40.92391	-91.39362
34206	-495	101	-274	-2.265563	-4.759327	328.0157	0	12.31	4002	1503	1502	1339	1502	0.02	1.662723	8	10	0.08	2800	331.2835	40.92391	-91.39362
34297	328	770	420	-2.404112	-3.242456	328.7155	0	12.14	4003	1502	1502	1340	1502	0.02	1.6798	8	10	0.08	2800	332.7213	40.92391	-91.39362
34414	-2326	1013	93	-4.161074	-3.690384	329.2615	0	12.14	4004	1502	1502	1340	1502	0.02	1.702476	8	10	0.08	2800	333.8411	40.92391	-91.39362
34535	155	1834	502	-8.273429	-7.246562	328.3798	0	12.14	4004	1502	1502	1340	1502	0.02	1.707787	8	10	0.08	2800	333.836	40.92391	-91.39362
34678	414	-445	1143	-5.118148	-6.935479	337.7944	0	12.14	4002	1502	1502	1340	1503	0.02	1.710606	8	10	0.08	2800	338.0577	40.92391	-91.39362
34769	-1529	1642	-1561	-6.85395	-6.508963	337.5571	0	12.14	4003	1502	1503	1340	1503	0.02	1.709967	8	10	0.08	2800	334.2879	40.92391	-91.39362
34823	449	-1356	-165	-7.267331	-6.901232	337.7628	0	12.14	4003	1502	1503	1339	1503	0.02	1.704862	8	10	0.08	2800	337.0946	40.92391	-91.39362
34875	-504	-2032	431	-7.457026	-5.826391	337.7685	0	12.14	4002	1502	1503	1341	1503	0.02	1.699638	8	10	0.08	2800	337.0946	40.92391	-91.39362
35038	-517	2107	1823	-10.5091	-5.070268	336.7037	0	12.14	4004	1503	1503	1341	1503	0.02	1.674865	8	10	0.08	2800	335.0301	40.92392	-91.39361
35147	1631	-684	184	-7.585374	-5.908368	335.1914	0	12.14	4003	1503	1503	1339	1503	0.02	1.639608	8	10	0.08	2800	338.4861	40.92392	-91.39361
35207	399	-18	-702	-7.223955	-4.868559	335.3376	0	12.36	4004	1503	1503	1340	1503	0.02	1.630392	8	10	0.08	2800	337.5066	40.92392	-91.39361
35332	-5860	274	-831	-8.336739	-5.073219	335.5357	0	12.36	4004	1503	1502	1340	1502	0.02	1.616655	8	10	0.08	2800	337.7919	40.92392	-91.39361
35383	-3808	1305	-1175	-10.736	-5.468983	335.5866	0	12.36	4004	1503	1502	1340	1502	0.02	1.616075	8	10	0.08	2800	337.7919	40.92392	-91.39361
35474	2407	-1679	-1976	-10.88258	-4.920961	337.3354	0	12.36	4003	1503	1502	1340	1502	0.02	1.613643	8	10	0.08	2800	340.0075	40.92392	-91.3936
35617	-4041	-1983	-1619	-8.15586	0.2436472	341.2535	0	12.36	4002	1502	1502	1340	1502	0.02	1.601205	8	10	0.08	2800	347.2521	40.92392	-91.3936
35676	-483	414	-210	-10.11248	1.726376	342.8736	0	12.36	4003	1502	1502	1340	1502	0.02	1.596382	8	10	0.08	2800	351.0114	40.92392	-91.3936
35872	885	-1004	1356	-7.810983	-1.116927	352.7172	0	12.36	4002	1502	1502	1339	1503	0.02	1.58919	8	10	0.08	2800	352.6145	40.92392	-91.3936
35937	-1565	-1466	-304	-7.792418	0.4780351	352.1745	0	12.36	4004	1502	1503	1340	1503	0.02	1.597246	8	10	0.08	2800	354.0185	40.92392	-91.3936
36076	272	-1177	533	-9.670443	2.755839	349.6813	0	12.36	4003	1502	1503	1340	1503	0.02	1.625753	8	10	0.08	2800	349.9075	40.92393	-91.3936
36132	1854	-457	610	-9.070209	2.721929	348.8778	0	12.31	4002	1503	1503	1341	1503	0.02	1.653299	8	10	0.08	2800	348.0909	40.92393	-91.3936
36270	114	-2231	586	-8.200415	1.952887	345.0953	0	12.31	4004	1503	1503	1340	1503	0.02	1.67451	8	10	0.08	2800	342.0578	40.92393	-91.3936
36316	700	-1933	1309	-7.8821	3.909182	343.4608	0	12.31	4003	1503	1503	1340	1503	0.02	1.689856	8	10	0.08	2800	338.5037	40.92393	-91.3936
36472	-1059	128	369	-9.756754	-1.017736	338.8966	0	12.31	4004	1503	1503	1339	1503	0.02	1.72179	8	10	0.08	2800	332.8608	40.92393	-91.3936
36538	2132	47	-138	-9.290331	-1.308901	338.4973	0	12.31	4003	1503	1502	1340	1502	0.02	1.740884	8	10	0.08	2800	333.6428	40.92393	-91.3936
36714	-840	-899	-618	-7.252619	1.78157	327.2756	0	12.31	4003	1502	1502	1340	1502	0.02	1.773148	8	10	0.08	2800	329.071	40.92393	-91.3936
36861	1346	649	-1537	-4.369423	2.61038	331.8455	0	12.31	4002	1502	1502	1340	1502	0.02	1.804098	8	10	0.08	2800	331.8666	40.92393	-91.3936
36938	-2454	1145	-2106	-4.436728	1.940591	332.7153	0	12.31	4004	1502	1502	1340	1502	0.02	1.824162	8	10	0.08	2800	335.1797	40.92393	-91.3936
37070	1521	-720	-1548	-6.618115	0.9650584	336.6508	0	12.02	4003	1502	1503	1339	1503	0.02	1.850768	8	10	0.08	2800	340.6428	40.92394	-91.39361
37170	-203	-1722	-2060	-3.160299	4.568917	339.6692	0	12.02	4004	1502	1503	1341	1503	0.02	1.867093	8	10	0.08	2800	342.2102	40.92394	-91.39361
37275	-1449	-836	-263	-3.423231	6.181841	341.7265	0	12.02	4002	1503	1503	1341	1503	0.02	1.88903	8	10	0.08	2800	341.1454	40.92394	-91.39361
37460	644	1541	-1353	-4.071986	5.754488	343.3093	0	12.02	4003	1503	1503	1340	1503	0.02	1.914721	8	10	0.08	2800	343.8303	40.92394	-91.39361
37536	-933	2205	-531	-4.274119	3.78709	343.396	0	12.02	4004	1503	1503	1340	1503	0.02	1.920652	8	10	0.08	2800	341.6416	40.92394	-91.39361
37690	2675	-2123	-572	-2.583276	3.964015	343.1245	0	12.02	4004	1503	1502	1340	1502	0.02	1.932565	8	10	0.08	2800	343.7061	40.92394	-91.39362
37853	4	434	494	-3.232756	0.4657379	341.0036	0	12.02	4003	1502	1502	1340	1502	0.02	1.930901	8	10	0.08	2800	341.1243	40.92394	-91.39362
37929	1699	-2260	374	-2.438586	0.6158739	340.5253	0	12.25	4003	1502	1502	1340	1502	0.02	1.925315	8	10	0.08	2800	339.4172	40.92394	-91.39362
38013	2368	-2576	-486	-0.458809	3.181605	340.2387	0	12.25	4003	1502	1502	1340	1502	0.02	1.922291	8	10	0.08	2800	338.7598	40.92394	-91.39362
38058	1572	-405	1472	1.189674	4.728821	339.6537	0	12.25	4002	1502	1502	1339	1502	0.02	1.919548	8	10	0.08	2800	338.7532	40.92394	-91.39362
38148	1377	3647	849	2.065085	0.4194838	338.9375	0	12.25	4003	1503	1503	1340	1503	0.02	1.903641	8	10	0.08	2800	332.041	40.92394	-91.39362
38294	-1811	-158	-1189	-3.631642	1.726391	327.1048	0	12.25	4003	1515	1503	1341	1503	0.02	1.877389	8	10	0.08	2800	330.9701	40.92394	-91.39362
38380	5516	410	1035	-1.833486	1.622154	327.8098	0	12.25	4002	1582	1503	1340	1503	0.02	1.867199	8	10	0.08	2800	329.9777	40.92394	-91.39362
38440	-1352	523	547	-1.687207	0.9983217	327.2189	0	12.25	4003	1590	1503	1340	1502	0.02	1.8464	8	10	0.08	2800	331.1101	40.92394	-91.39362
38648	3259	1796	-3126	0.1552431	0.05481348	329.2386	0	12.25	4002	1568	1503	1340	1503	0.02	1.810402	8	10	0.08	2800	331.8914	40.92393	-91.39362
38709	-838	-602	-2732	3.732	-2.082453	333.7503	0	12.25	4004	1532	1502	1339	1502	0.02	1.804093	8	10	0.08	2800	336.1494	40.92393	-91.39362
38757	-1371	-2422	-971	2.945243	-1.172659	334.692	0	12.25	4004	1530	1502	1340	1503	0.02	1.799263	8	10	0.08	2800	336.1494	40.92393	-91.39362
38863	534	491	-683	-0.09966524	0.2837726	337.5706	0	11.97	4003	1502	1502	1340	1502	0.02	1.796458	8	10	0.08	2800	341.2769	40.92393	-91.39362
38924	810	-840	87	0.4209274	0.5147277	338.0745	0	11.97	4003	1502	1502	1340	1502	0.02	1.797712	8	10	0.08	2800	341.2769	40.92393	-91.39362
39034	1894	1221	1318	2.532653	1.023068	338.1905	0	11.97	4004	1502	1502	1339	1502	0.02	1.804231	8	10	0.08	2800	343.1559	40.92393	-91.39362
39133	-403	336	1139	0.2385554	-2.275459	336.2047	0	11.97	4003	1517	1507	1341	1503	0.02	1.81898	8	10	0.08	2800	339.9159	40.92393	-91.39362
39275	623	378	1611	-1.815976	-3.064914	334.3846	0	11.97	4003	1564	1581	1340	1503	0.02	1.839311	8	10	0.08	2800	336.5565	40.92393	-91.39363
39337	1649	374	1014	-0.6070229	-2.982472	333.302	0	11.97	4003	1542	1653	1340	1502	0.02	1.849754	8	10	0.08	2800	333.3965	40.92393	-91.39363
39480	-884	2552	1609	-1.384557	-8.891872	330.0203	0	11.97	4004	1550	1655	1340	1503	0.02	1.869077	8	10	0.08	2800	327.1942	40.92393	-91.39363
39581	539	2209	192	-2.26846	-11.18649	329.253	0	11.97	4003	1549	1652	1340	1503	0.02	1.883569	8	10	0.08	2800	331.3383	40.92392	-91.39363
39645	-1674	1271	723	-1.401747	-13.62198	327.5509	0	11.97	4004	1559	1619	1340	1503	0.02	1.886574	8	10	0.08	2800	335.2564	40.92392	-91.39363
39796	-229	-2571	726	-1.136131	-11.55814	325.153	0	12.02	4003	1552	1505	1341	1503	0.02	1.898621	8	10	0.08	2800	334.0262	40.92392	-91.39363
39938	-127	286	616	-2.353801	-6.52247	323.4536	0	12.02	4004	1557	1504	1340	1502	0.02	1.911249	8	10	0.08	2800	329.3455	40.92392	-91.39363
40100	998	1015	-12	1.222931	-8.741697	321.9933	0	12.02	4003	1502	1502	1340	1502	0.02	1.923656	8	10	0.08	2800	324.0922	40.92392	-91.39363
40204	479	-2003	-1653	3.384521	-5.163864	322.8104	0	12.02	4004	1502	1502	1340	1503	0.02	1.926142	8	10	0.08	2800	326.1382	40.92392	-91.39363
40263	-2583	-662	-1753	3.066015	-3.868059	323.2524	0	12.02	4003	1502	1503	1340	1503	0.02	1.93297	8	10	0.08	2800	329.7137	40.92392	-91.39363
40391	1052	290	-1169	1.689851	-5.687301	327.1124	0	12.02	4004	1503	1503	1341	1503	0.02	1.939655	8	10	0.08	2800	333.4701	40.92392	-91.39363
40440	-1127	-1229	-2762	1.769781	-5.132426	327.9407	0	12.02	4004	1503	1503	1341	1503	0.02	1.950229	8	10	0.08	2800	335.94	40.92392	-91.39363
40561	-3055	-1209	36	-0.1455806	-2.419364	329.6962	0	12.02	4003	1503	1503	1341	1503	0.02	1.956704	8	10	0.08	2800	336.1174	40.92392	-91.39362
40711	-568	-1151	-1138	-3.052703	-0.9489063	330.7614	0	12.08	4003	1503	1503	1340	1503	0.02	1.962237	8	10	0.08	2800	339.8998	40.92392	-91.39362
40820	-2196	1467	-758	-1.564007	-2.993069	340.3531	0	12.08	4004	1503	1502	1340	1502	0.02	1.962466	8	10	0.08	2800	340.5034	40.92392	-91.39362
40895	-4117	1400	-622	-5.049772	-4.739459	339.9037	0	12.08	4004	1503	1502	1340	1502	0.02	1.959983	8	10	0.08	2800	338.148	40.92392	-91.39362
40972	-1303	-270	-228	-7.190087	-5.580741	339.2745	0	12.08	4002	1502	1502	1339	1502	0.02	1.956596	8	10	0.08	2800	339.2935	40.92392	-91.39362
41081	139	-1054	1165	-4.258503	-6.565172	338.0457	0	12.08	4003	1502	1502	1339	1502	0.02	1.95064	8	10	0.08	2800	338.7267	40.92392	-91.39362
41138	-2232	-1632	-597	-4.989048	-4.414476	337.7448	0	12.08	4004	1502	1502	1340	1502	0.02	1.951404	8	10	0.08	2800	340.4629	40.92392	-91.39362
41246	-1297	-419	1329	-6.505598	-1.639149	336.6422	0	12.08	4003	1502	1502	1340	1503	0.02	1.950114	8	10	0.08	2800	336.9563	40.92392	-91.39362
41312	781	2418	331	-6.860438	-3.625182	335.6782	0	12.08	4004	1502	1503	1340	1503	0.02	1.943212	8	10	0.08	2800	335.676	40.92392	-91.39362
41443	-598	-821	-262	-5.697724	-5.25513	334.2331	0	12.08	4003	1503	1503	1340	1503	0.02	1.93687	8	10	0.08	2800	336.1949	40.92392	-91.39362
41530	809	-751	-20	-5.71666	-4.115984	334.859	0	12.08	4003	1503	1503	1341	1503	0.02	1.929579	8	10	0.08	2800	338.1971	40.92392	-91.39362
41629	-2087	537	533	-7.668913	-4.330224	334.0387	0	12.08	4003	1503	1503	1340	1503	0.02	1.913657	8	10	0.08	2800	336.3723	40.92392	-91.39362
41799	-1091	-1119	1046	-5.678031	-1.913957	334.2359	0	12.08	4003	1503	1502	1340	1502	0.02	1.889917	8	10	0.08	2800	339.1562	40.92392	-91.39362
41867	-2586	-601	-1884	-7.839388	-0.502138	334.6688	0	12.08	4003	1503	1502	1340	1502	0.02	1.883861	8	10	0.08	2800	339.5294	40.92392	-91.39362
41941	542	575	-842	-7.222237	-0.7454504	335.2246	0	12.08	4002	1502	1502	1340	1502	0.02	1.877466	8	10	0.08	2800	340.1507	40.92392	-91.39362
42085	-510	-181	-905	-7.871435	-0.3820962	336.5977	0	12.08	4002	1502	1502	1340	1502	0.02	1.873254	8	10	0.08	2800	341.7914	40.92392	-91.39362
42282	-251	-1846	581	-6.848577	1.197756	337.9345	0	12.08	4003	1502	1503	1340	1503	0.02	1.885174	8	10	0.08	2800	347.6598	40.92393	-91.39362
42389	262	1089	414	-7.64983	1.691268	338.7003	0	12.08	4003	1502	1503	1340	1503	0.02	1.911966	8	10	0.08	2800	347.9887	40.92393	-91.39361
42562	319	-3474	1205	-8.510882	2.047128	349.928	0	12.14	4004	1503	1503	1340	1503	0.02	1.941837	8	10	0.08	2800	351.7482	40.92393	-91.39361
42653	1218	-516	-189	-7.30655	5.16826	348.7173	0	12.14	4004	1503	1503	1339	1503	0.02	1.947491	8	10	0.08	2800	346.44	40.92393	-91.39361
42713	450	-238	1544	-6.70912	5.164115	348.3456	0	12.14	4002	1503	1503	1340	1503	0.02	1.949541	8	10	0.08	2800	346.44	40.92393	-91.39361
42892	1084	82	25	-4.95144	4.463389	346.9718	0	12.14	4003	1503	1502	1340	1502	0.02	1.937565	8	10	0.08	2800	342.1215	40.92393	-91.39362
42917	416	-837	1087	-5.37279	3.112628	346.293	0	12.14	4004	1502	1502	1339	1502	0.02	1.933995	8	10	0.08	2800	341.7526	40.92393	-91.39362
42956	1065	1367	45	-1.862681	3.398742	347.0295	0	12.14	4002	1502	1502	1339	1502	0.02	1.923752	8	10	0.08	2800	339.801	40.92394	-91.39362
42983	-2397	502	398	-4.14088	2.787398	347.3122	0	12.14	4003	1502	1502	1339	1502	0.02	1.923752	8	10	0.08	2800	341.3425	40.92394	-91.39362
43131	-1137	595	-86	-4.352461	1.742542	349.3239	0	12.14	4003	1502	1503	1339	1421	0.02	1.914254	8	10	0.08	2800	344.7245	40.92394	-91.39362
43235	1514	-1701	-262	-6.885808	3.924292	350.0866	0	12.19	4004	1503	1503	1340	1417	0.02	1.89881	8	10	0.08	2800	343.2899	40.92394	-91.39362
43377	-1343	1967	-1191	-3.258645	3.931124	353.0151	0	12.19	4003	1503	1503	1341	1418	0.02	1.887734	8	10	0.08	2800	346.8191	40.92394	-91.39362
43461	1319	95	-2616	-3.627466	3.07464	354.8981	0	12.19	4002	1503	1503	1341	1490	0.02	1.881273	8	10	0.08	2800	349.9985	40.92394	-91.39362
43630	3423	-475	-1453	0.1984165	6.252173	0.3331257	0	12.19	4002	1503	1502	1341	1502	0.02	1.865559	8	10	0.08	2800	358.1198	40.92394	-91.39362
43772	-2533	1472	-2002	0.3914338	2.985883	2.827119	0	12.19	4002	1502	1502	1341	1387	0.02	1.8663	8	10	0.08	2800	358.1947	40.92394	-91.39362
43829	-1221	1644	-1662	-0.1500742	2.18762	3.372548	0	12.19	4004	1502	1502	1341	1461	0.02	1.870404	8	10	0.08	2800	357.8678	40.92394	-91.39362
43880	-11	-1855	-1054	-1.06931	2.376415	4.894994	0	12.19	4004	1502	1502	1341	1502	0.02	1.871734	8	10	0.08	2800	3.659882	40.92394	-91.39362
43983	2624	-2277	-691	1.006946	5.488738	7.587545	0	12.19	4004	1502	1503	1341	1503	0.02	1.88716	8	10	0.08	2800	9.31958	40.92394	-91.39362
44104	60	150	-1074	0.5144966	5.238964	8.999163	0	12.08	4003	1502	1503	1342	1503	0.02	1.908538	8	10	0.08	2800	9.409485	40.92394	-91.39362
44204	428	548	-757	1.705158	3.999627	9.233187	0	12.08	4004	1503	1503	1342	1503	0.02	1.943425	8	10	0.08	2800	11.4574	40.92394	-91.39362
44364	138	-750	284	3.42735	-0.6874131	8.96825	0	12.08	4002	1503	1503	1341	1503	0.02	2.025228	8	10	0.08	2800	8.059967	40.92394	-91.39362
44445	446	-1681	-368	2.589948	2.420315	9.10564	0	12.08	4004	1503	1503	1341	1502	0.02	2.04909	8	10	0.08	2800	4.360718	40.92394	-91.39363
44547	444	654	335	3.53533	1.981555	8.842184	0	12.08	4003	1503	1502	1341	1502	0.02	2.070191	8	10	0.08	2800	4.801971	40.92394	-91.39363
44620	-932	1394	160	3.179591	1.242892	8.422103	0	12.08	4004	1502	1502	1341	1502	0.02	2.079169	8	10	0.08	2800	4.801971	40.92394	-91.39363
44781	520	-1141	666	3.111897	-0.1839761	352.8303	0	12.08	4003	1502	1502	1341	1502	0.02	2.091797	8	10	0.08	2800	353.0141	40.92393	-91.39364
44911	668	64	544	2.664591	0.4224935	350.6815	0	12.08	4002	1502	1503	1341	1503	0.02	2.105608	8	10	0.08	2800	347.6853	40.92393	-91.39364
45031	749	90	110	3.89611	-0.7615007	348.4519	0	12.36	4002	1502	1503	1342	1503	0.02	2.123392	8	10	0.08	2800	341.1655	40.92393	-91.39364
45103	129	-823	538	4.697258	-0.6179308	347.7036	0	12.36	4004	1503	1503	1342	1503	0.02	2.134679	8	10	0.08	2800	340.8654	40.92393	-91.39364
45186	-154	664	1008	4.557947	-0.3553537	335.4368	0	12.36	4004	1503	1503	1342	1503	0.02	2.143476	8	10	0.08	2800	335.5997	40.92393	-91.39364
45249	165	646	1101	3.72122	-0.7514304	334.7622	0	12.36	4003	1503	1503	1342	1503	0.02	2.148599	8	10	0.08	2800	334.7706	40.92393	-91.39364
45368	709	1210	574	2.936965	-2.944945	334.0382	0	12.36	4002	1503	1502	1341	1502	0.02	2.162327	8	10	0.08	2800	335.214	40.92393	-91.39364
45539	436	-376	-22	4.064261	-1.943576	334.4237	0	12.36	4003	1502	1502	1341	1502	0.02	2.161318	8	10	0.08	2800	335.264	40.92393	-91.39364
45573	-1163	1563	-83	4.004665	-2.417136	334.2782	0	12.36	4003	1502	1502	1341	1502	0.02	2.158944	8	10	0.08	2800	335.264	40.92393	-91.39364
45717	1787	1097	-253	1.993351	-4.351391	334.8323	0	12.36	4003	1502	1502	1341	1502	0.02	2.139171	8	10	0.08	2800	333.1926	40.92392	-91.39364
45761	1182	442	-55	3.110718	-4.412394	335.0207	0	12.36	4003	1502	1502	1341	1502	0.02	2.12578	8	10	0.08	2800	333.1926	40.92392	-91.39364
45860	-1280	-166	-629	2.962527	-4.623727	335.3047	0	12.36	4004	1502	1503	1341	1503	0.02	2.114236	8	10	0.08	2800	334.3705	40.92392	-91.39364
46010	-4696	-179	-623	1.140643	-3.459123	335.4564	0	12.08	4004	1503	1503	1342	1503	0.02	2.075835	8	10	0.08	2800	337.2996	40.92392	-91.39364
46063	-1925	2315	-282	-0.2268885	-3.59032	335.3345	0	12.08	4004	1503	1503	1342	1503	0.02	2.06593	8	10	0.08	2800	337.2996	40.92392	-91.39364
46167	3458	288	550	3.255734	-6.012051	335.4982	0	12.08	4003	1503	1503	1342	1503	0.02	2.046853	8	10	0.08	2800	339.2686	40.92392	-91.39364
46269	-7452	-22	803	0.8507525	-6.366503	335.9327	0	12.08	4004	1503	1503	1341	1502	0.02	2.032305	8	10	0.08	2800	339.2054	40.92392	-91.39364
46485	1499	-922	-979	-2.05365	-5.197154	337.496	0	12.08	4002	1502	1502	1341	1502	0.02	2.004884	8	10	0.08	2800	343.6371	40.92391	-91.39363
46652	-1696	685	-1073	-2.301537	-2.727619	339.8751	0	12.08	4004	1502	1502	1341	1502	0.02	2.000075	8	10	0.08	2800	347.6935	40.92391	-91.39363
46732	-2157	1526	-235	-4.129709	-3.789955	339.9906	0	12.08	4003	1502	1502	1341	1503	0.02	1.999111	8	10	0.08	2800	349.7206	40.92391	-91.39363
46813	-599	830	-1103	-5.655133	-4.928242	340.9648	0	12.08	4002	1502	1503	1341	1503	0.02	1.991688	8	10	0.08	2800	350.7616	40.92391	-91.39363
46881	303	2065	-1076	-5.55469	-6.085076	353.257	0	12.08	4003	1502	1503	1342	1503	0.02	1.985556	8	10	0.08	2800	353.0832	40.92391	-91.39362
47032	436	-1719	606	-6.568883	-4.340432	353.5569	0	12.08	4003	1503	1503	1342	1503	0.02	1.964112	8	10	0.08	2800	357.6983	40.92391	-91.39362
47142	24	735	747	-6.565211	-3.396444	353.9236	0	12.08	4004	1503	1503	1341	1503	0.02	1.947076	8	10	0.08	2800	358.4022	40.92391	-91.39362
47189	-761	1048	482	-6.648378	-3.546908	353.9688	0	12.08	4004	1503	1503	1341	1502	0.02	1.942279	8	10	0.08	2800	358.819	40.92391	-91.39362
47370	1018	-1200	164	-8.429713	-3.145643	353.8961	0	12.08	4003	1502	1502	1341	1502	0.02	1.888506	8	10	0.08	2800	0.4121704	40.92391	-91.39362
47430	1373	-12	1259	-6.498935	-2.553999	354.0215	0	12.08	4003	1502	1502	1341	1502	0.02	1.857729	8	10	0.08	2800	1.334839	40.92391	-91.39362
47534	-1007	-127	1863	-7.823105	-2.78794	353.5448	0	12.08	4003	1502	1502	1341	1502	0.02	1.816092	8	10	0.08	2800	1.699158	40.92391	-91.39362
47593	1136	-935	707	-8.022947	-2.54983	3.774963	0	12.08	4003	1502	1502	1341	1502	0.02	1.769907	8	10	0.08	2800	4.249298	40.92392	-91.39362
47740	-2407	-2464	824	-6.761729	-1.165935	4.170025	0	11.91	4004	1502	1503	1342	1503	0.02	1.700949	8	10	0.08	2800	2.032135	40.92392	-91.39362
47826	-2779	-2344	266	-9.133377	1.060456	4.200035	0	11.91	4002	1503	1503	1342	1503	0.02	1.659695	8	10	0.08	2800	2.127045	40.92392	-91.39362
47894	-860	399	-73	-8.588661	2.11096	5.018228	0	11.91	4002	1503	1503	1342	1503	0.02	1.636967	8	10	0.08	2800	4.462708	40.92392	-91.39362
48018	-155	-725	-2	-9.095899	3.106367	5.617306	0	11.91	4003	1503	1503	1341	1503	0.02	1.582432	8	10	0.08	2800	7.878448	40.92392	-91.39362
48031	-155	-725	-2	-9.095899	3.106367	5.617306	0	11.91	4003	1503	1503	1341	1503	0.02	1.582432	8	10	0.08	2800	7.878448	40.92392	-91.39362
48188	-515	-1094	1094	-10.20181	3.313288	2.72917	0	11.91	4002	1502	1465	1341	1503	0.02	1.526256	8	10	0.08	2800	7.942047	40.92392	-91.39362
48351	2753	-1155	-176	-7.486274	6.283471	0.9389697	0	11.91	4003	1502	1459	1342	1503	0.02	1.501822	8	10	0.08	2800	3.870148	40.92393	-91.39362
48481	-2062	-2244	-796	-5.337551	9.978951	0.6932525	0	11.91	4004	1498	1382	1342	1503	0.02	1.498091	8	10	0.08	2800	1.969116	40.92393	-91.39362
48597	-1152	1758	-550	-4.727416	9.341138	359.8998	0	11.97	4003	1497	1376	1342	1503	0.02	1.497574	8	10	0.08	2800	358.7558	40.92393	-91.39362
48722	2615	-3575	-848	-2.506949	11.35857	0.5368599	0	11.97	4004	1496	1396	1341	1502	0.02	1.497265	8	10	0.08	2800	2.188751	40.92393	-91.39362
48807	-2396	236	570	-1.914967	12.97418	0.4721521	0	11.97	4003	1495	1418	1341	1503	0.02	1.500999	8	10	0.08	2800	357.299	40.92393	-91.39362
48883	-936	982	-1195	-4.64821	9.806114	1.59411	0	11.97	4003	1503	1504	1341	1502	0.02	1.515378	8	10	0.08	2800	359.5836	40.92393	-91.39362
48995	1110	460	1420	-3.082787	8.679964	0.781421	0	11.97	4002	1503	1502	1341	1502	0.02	1.55032	8	10	0.08	2800	2.444305	40.92393	-91.39362
49094	2126	-744	722	-2.780474	6.511397	359.9416	0	11.97	4004	1502	1502	1341	1502	0.02	1.571801	8	10	0.08	2800	0.3618774	40.92393	-91.39362
49169	2118	926	767	-0.6850716	6.039687	359.2806	0	11.97	4002	1502	1502	1341	1502	0.02	1.6149	8	10	0.08	2800	357.201	40.92393	-91.39362
49274	1082	-42	-512	-0.2779247	4.534031	359.0114	0	11.97	4003	1502	1502	1341	1502	0.02	1.627506	8	10	0.08	2800	355.9129	40.92393	-91.39362
49330	1631	-81	-206	0.5068853	4.357841	359.3204	0	11.97	4002	1502	1507	1341	1503	0.02	1.645918	8	10	0.08	2800	354.0532	40.92393	-91.39362
49449	1684	1865	-1069	3.071835	1.01301	0.704476	0	11.97	4003	1503	1555	1341	1502	0.02	1.679628	8	10	0.08	2800	356.5295	40.92393	-91.39362
49481	1381	1467	180	3.631114	0.4093243	0.9332888	0	11.97	4004	1503	1552	1341	1502	0.02	1.684377	8	10	0.08	2800	354.7448	40.92393	-91.39362
49667	346	706	-1298	1.228278	-0.001889133	349.6508	0	11.97	4003	1550	1531	1341	1503	0.02	1.710425	8	10	0.08	2800	349.3881	40.92393	-91.39362
49758	-1129	784	677	0.6629077	-2.198596	349.5693	0	11.97	4003	1621	1528	1341	1503	0.02	1.727224	8	10	0.08	2800	349.2995	40.92393	-91.39363
49825	-697	-2020	-944	-0.961971	-1.038746	349.9386	0	11.97	4003	1631	1534	1341	1502	0.02	1.742079	8	10	0.08	2800	350.608	40.92393	-91.39363
49922	-748	1586	523	-1.885396	0.05313215	350.4067	0	11.97	4003	1625	1533	1341	1502	0.02	1.760563	8	10	0.08	2800	348.607	40.92393	-91.39363
50038	357	277	-327	-2.369655	-2.106961	350.7888	0	11.97	4003	1577	1527	1342	1503	0.02	1.780945	8	10	0.08	2800	352.0033	40.92393	-91.39364
50134	-3281	722	56	-2.683542	-0.2311629	350.8554	0	11.97	4003	1681	1552	1341	1503	0.02	1.792781	8	10	0.08	2800	349.7088	40.92393	-91.39364
50204	-1714	32	-558	-5.586388	-0.9005181	350.4122	0	11.97	4003	1686	1554	1342	1503	0.02	1.798185	8	10	0.08	2800	351.127	40.92393	-91.39364
50265	799	797	-84	-5.062881	-1.934043	350.6628	0	11.97	4003	1635	1552	1341	1502	0.02	1.804597	8	10	0.08	2800	349.0387	40.92393	-91.39364
50364	-1224	-734	-1329	-5.197633	-1.450559	351.3148	0	12.08	4002	1572	1539	1341	1503	0.02	1.814564	8	10	0.08	2800	351.3958	40.92393	-91.39365
50533	1966	1415	-361	0.5864982	-3.009329	353.4116	0	12.08	4003	1503	1505	1342	1503	0.02	1.834419	8	10	0.08	2800	353.9514	40.92393	-91.39365
50624	2034	-431	-520	2.332139	-2.455082	354.4588	0	12.08	4003	1503	1508	1341	1503	0.02	1.85524	8	10	0.08	2800	354.7582	40.92393	-91.39365
50699	-448	967	910	2.909367	-2.578178	354.6782	0	12.08	4004	1503	1567	1342	1503	0.02	1.866048	8	10	0.08	2800	352.688	40.92393	-91.39365
50793	2911	4173	-361	4.233268	-7.720591	353.8915	0	12.08	4003	1503	1692	1342	1503	0.02	1.87311	8	10	0.08	2800	352.9686	40.92393	-91.39365
50870	582	2861	359	5.93136	-11.19261	353.6613	0	12.08	4004	1503	1683	1342	1503	0.02	1.896261	8	10	0.08	2800	353.6317	40.92392	-91.39365
51016	1391	237	160	3.929696	-10.57932	353.1682	0	12.08	4003	1502	1502	1341	1502	0.02	1.919225	8	10	0.08	2800	352.2024	40.92392	-91.39365
51112	1965	-4275	-562	6.710621	-7.506831	353.1335	0	12.08	4004	1503	1502	1341	1502	0.02	1.92419	8	10	0.08	2800	347.058	40.92392	-91.39365
51249	-1557	-2027	1343	5.26134	-1.213479	341.2827	0	12.14	4002	1532	1430	1341	1503	0.02	1.912106	8	10	0.08	2800	341.6175	40.92392	-91.39365
51303	-5	-2252	-17	3.974022	3.077197	340.4255	0	12.14	4004	1530	1406	1342	1503	0.02	1.910806	8	10	0.08	2800	338.8817	40.92392	-91.39365
51423	-1122	1421	478	4.478648	4.296201	339.6234	0	12.14	4003	1533	1430	1341	1502	0.02	1.894884	8	10	0.08	2800	336.6257	40.92392	-91.39365
51530	-2034	-477	276	-0.1240656	2.744538	339.3489	0	12.14	4004	1609	1498	1341	1502	0.02	1.882659	8	10	0.08	2800	336.6501	40.92392	-91.39365
51632	-2365	1991	353	-3.303525	1.532326	339.0025	0	12.14	4003	1631	1503	1341	1503	0.02	1.862641	8	10	0.08	2800	336.6501	40.92392	-91.39365
51806	507	-1041	-991	-4.655083	-3.599185	339.5148	0	12.14	4003	1632	1503	1342	1503	0.02	1.835561	8	10	0.08	2800	335.3026	40.92392	-91.39365
51903	-3089	-889	-309	-7.554263	-2.371734	339.9941	0	12.14	4004	1620	1503	1342	1503	0.02	1.802775	8	10	0.08	2800	340.4607	40.92392	-91.39365
51951	4014	-243	-1361	-8.028044	-1.703911	341.7019	0	12.14	4004	1509	1501	1341	1502	0.02	1.785212	8	10	0.08	2800	343.9031	40.92392	-91.39365
52041	3791	826	-2496	-1.929151	-2.976626	343.5226	0	12.14	4002	1502	1502	1341	1502	0.02	1.75465	8	10	0.08	2800	348.3577	40.92392	-91.39365
52097	1482	-1111	-1066	-0.9528529	-3.016648	344.2556	0	12.14	4003	1502	1502	1341	1502	0.02	1.733998	8	10	0.08	2800	348.3577	40.92392	-91.39365
52217	571	-325	90	-8.656276	-0.4471168	346.2204	0	12.36	4004	1539	1502	1341	1502	0.02	1.706902	8	10	0.08	2800	350.0784	40.92392	-91.39365
52298	183	-113	-983	-5.992994	0.3458482	347.5959	0	12.36	4004	1564	1502	1341	1502	0.02	1.6896	8	10	0.08	2800	355.386	40.92392	-91.39365
52461	-1557	1825	-131	-11.16991	-1.668169	357.5491	0	12.36	4004	1590	1500	1341	1508	0.02	1.675114	8	10	0.08	2800	357.6884	40.92392	-91.39364
52572	1166	-1575	29	-8.291768	-2.81798	356.4113	0	12.36	4003	1521	1502	1341	1538	0.02	1.650849	8	10	0.08	2800	2.105835	40.92392	-91.39364
52615	2068	-3128	1383	-7.050933	-1.609704	355.7879	0	12.36	4003	1505	1503	1341	1537	0.02	1.647206	8	10	0.08	2800	359.181	40.92392	-91.39364
52753	-1727	2345	1466	-8.070657	-1.103475	351.7892	0	12.36	4002	1503	1502	1341	1502	0.02	1.624077	8	10	0.08	2800	351.9285	40.92392	-91.39364
52830	2590	898	1489	-6.926044	-2.576766	350.4885	0	12.36	4002	1503	1502	1341	1502	0.02	1.619218	8	10	0.08	2800	353.9556	40.92392	-91.39363
52948	-1835	-2276	1428	-4.864834	-2.284023	348.4023	0	12.36	4004	1503	1502	1341	1507	0.02	1.615331	8	10	0.08	2800	350.2489	40.92392	-91.39363
53002	134	-1132	575	-5.311119	-0.1130527	347.6717	0	12.14	4003	1515	1500	1341	1509	0.02	1.6117	8	10	0.08	2800	348.5947	40.92392	-91.39363
53117	-469	-960	1510	-6.000102	-2.890792	345.0996	0	12.14	4002	1505	1500	1341	1504	0.02	1.613454	8	10	0.08	2800	343.631	40.92392	-91.39363
53203	2275	-1068	1165	-5.411712	-1.432291	344.4972	0	12.14	4002	1502	1503	1341	1503	0.02	1.617697	8	10	0.08	2800	345.7032	40.92392	-91.39363
53328	-872	-1277	701	-3.749557	-1.485647	342.9899	0	12.14	4003	1503	1457	1341	1502	0.02	1.624516	8	10	0.08	2800	342.4096	40.92392	-91.39363
53383	1033	-2031	1639	-3.939726	0.4272729	342.7442	0	12.14	4003	1503	1400	1341	1502	0.02	1.632468	8	10	0.08	2800	345.0248	40.92392	-91.39363
53541	-173	-1091	-114	-4.220302	3.896979	341.7182	0	12.14	4002	1503	1448	1341	1502	0.02	1.654176	8	10	0.08	2800	342.5855	40.92392	-91.39363
53677	-1812	2590	238	-3.290402	1.833479	339.6177	0	12.14	4003	1503	1453	1341	1502	0.02	1.686161	8	10	0.08	2800	336.5728	40.92392	-91.39363
53732	-2556	1764	1802	-4.253203	0.5907756	338.7902	0	12.14	4004	1503	1456	1341	1503	0.02	1.701885	8	10	0.08	2800	336.746	40.92392	-91.39363
53844	1307	-1888	-318	-3.557203	0.1305276	337.4345	0	12.14	4002	1502	1502	1341	1502	0.02	1.712443	8	10	0.08	2800	333.1601	40.92392	-91.39363
53942	-1839	-489	-275	1.889926	-0.5316399	339.6094	0	12.14	4004	1502	1502	1341	1502	0.02	1.720452	8	10	0.08	2800	336.3086	40.92392	-91.39363
54047	-5044	-704	-2643	-4.428731	1.51478	341.5974	0	12.14	4004	1502	1502	1341	1503	0.02	1.732935	8	10	0.08	2800	337.3711	40.92393	-91.39363
54103	2433	155	-1216	-3.44636	1.599005	343.7686	0	12.14	4003	1502	1503	1341	1503	0.02	1.734624	8	10	0.08	2800	340.4412	40.92393	-91.39363
54212	-3029	-15	-2629	-0.9600584	1.614666	346.8495	0	12.14	4003	1503	1503	1342	1503	0.02	1.749111	8	10	0.08	2800	344.1	40.92393	-91.39363
54298	-391	680	-1433	-2.442644	1.482411	348.8879	0	12.14	4004	1503	1503	1342	1503	0.02	1.774458	8	10	0.08	2800	348.1075	40.92393	-91.39363
54404	-281	-131	-1859	-2.878725	1.301956	350.312	0	12.14	4002	1503	1503	1341	1503	0.02	1.800876	8	10	0.08	2800	349.7327	40.92393	-91.39363
54562	-1278	-382	154	-1.686583	2.741017	352.9496	0	12.14	4002	1503	1502	1341	1502	0.02	1.865285	8	10	0.08	2800	354.6113	40.92393	-91.39363
54653	1252	515	-1372	-1.290135	2.560338	353.825	0	12.14	4004	1503	1502	1341	1502	0.02	1.903919	8	10	0.08	2800	352.9102	40.92393	-91.39363
54762	-1967	1388	111	-1.821051	0.6598197	354.3301	0	12.14	4002	1502	1502	1341	1502	0.02	1.922844	8	10	0.08	2800	354.7744	40.92393	-91.39363
54869	-1649	-945	-448	-3.118884	0.08723507	354.4952	0	12.14	4004	1502	1502	1341	1502	0.02	1.972404	8	10	0.08	2800	359.0363	40.92393	-91.39363
54905	-1053	-161	1111	-3.699432	0.5917708	354.3062	0	12.14	4008	1502	1502	1341	1502	0.02	1.985414	8	10	0.08	2800	359.0363	40.92393	-91.39363
55043	1133	-294	1329	-3.942148	-1.20567	352.8853	0	12.14	4003	1502	1503	1341	1503	0.02	2.02276	8	10	0.08	2800	357.2523	40.92392	-91.39363
55174	1670	2895	1710	-2.148186	-2.499657	351.256	0	12.14	4003	1503	1503	1342	1503	0.02	2.036804	8	10	0.08	2800	353.7755	40.92392	-91.39363
55230	-1088	-353	2236	-2.459795	-4.243705	349.0386	0	12.14	4002	1503	1503	1342	1503	0.02	2.048177	8	10	0.08	2800	350.7019	40.92392	-91.39363
55336	1619	-650	719	-3.009247	-1.055493	347.6241	0	12.14	4002	1503	1503	1341	1503	0.02	2.051678	8	10	0.08	2800	348.4255	40.92392	-91.39363
55463	-1227	-257	586	-2.435498	-2.19179	345.6702	0	12.14	4002	1503	1502	1341	1502	0.02	2.057893	8	10	0.08	2800	343.178	40.92392	-91.39363
55501	1405	145	953	-2.393217	-2.206676	345.6023	0	12.14	4003	1503	1502	1341	1502	0.02	2.060255	8	10	0.08	2800	339.2142	40.92392	-91.39363
55590	2371	-284	1020	-2.013379	-2.47036	345.3175	0	12.14	4003	1502	1502	1341	1502	0.02	2.065907	8	10	0.08	2800	342.83	40.92392	-91.39363
55720	2262	2020	-668	-1.157385	-2.784556	345.8463	0	11.68	4002	1502	1502	1341	1502	0.02	2.080851	8	10	0.08	2800	343.3383	40.92392	-91.39363
55797	231	665	-1292	0.5948478	-3.197413	347.1933	0	11.68	4002	1502	1502	1341	1502	0.02	2.097556	8	10	0.08	2800	346.3358	40.92392	-91.39363
55933	755	-2368	-43	-6.430885	0.8473316	348.8272	0	11.68	4003	1502	1503	1342	1503	0.02	2.114359	8	10	0.08	2800	349.0517	40.92392	-91.39363
56032	1901	2742	-282	0.4900972	0.2913896	349.4832	0	11.68	4004	1503	1503	1342	1503	0.02	2.125835	8	10	0.08	2800	348.4241	40.92392	-91.39362
56121	-2147	1093	-1572	0.7901085	-1.341061	349.9037	0	11.68	4002	1503	1503	1342	1503	0.02	2.131942	8	10	0.08	2800	349.0122	40.92392	-91.39362
56201	-2823	-414	-760	-2.04816	-2.09936	350.0929	0	11.68	4002	1503	1503	1341	1503	0.02	2.135719	8	10	0.08	2800	347.4641	40.92392	-91.39362
56368	-1492	870	634	-3.265301	-0.6357983	350.4298	0	11.68	4003	1503	1502	1341	1502	0.02	2.149646	8	10	0.08	2800	349.226	40.92392	-91.39362
56459	-457	238	622	-5.112163	-1.702041	350.3149	0	11.68	4002	1502	1502	1341	1502	0.02	2.152632	8	10	0.08	2800	348.5505	40.92392	-91.39362
56588	-2239	257	-542	-2.806901	-3.452713	350.292	0	12.25	4003	1502	1502	1341	1502	0.02	2.14113	8	10	0.08	2800	350.1585	40.92392	-91.39362
56623	-2182	-342	1083	-3.910732	-3.275634	350.2517	0	12.25	4002	1502	1502	1341	1502	0.02	2.123413	8	10	0.08	2800	350.1585	40.92392	-91.39362
56741	-699	1922	-1262	-4.966309	-2.354294	351.4593	0	12.25	4003	1502	1502	1341	1503	0.02	2.094864	8	10	0.08	2800	352.7166	40.92392	-91.39362
56851	1796	-492	324	-3.997957	-3.985095	351.9028	0	12.25	4002	1503	1503	1342	1503	0.02	2.050065	8	10	0.08	2800	354.2928	40.92392	-91.39362
56883	1320	-2032	490	-3.266415	-2.759362	352.0478	0	12.25	4003	1503	1503	1342	1503	0.02	2.043158	8	10	0.08	2800	355.6808	40.92392	-91.39362
56923	-2784	-360	-241	-5.469756	-2.252683	350.9901	0	12.25	4004	1503	1503	1342	1503	0.02	2.026312	8	10	0.08	2800	355.1375	40.92392	-91.39362
56961	1157	721	118	-6.619157	-1.568084	350.0037	0	12.25	4002	1503	1503	1341	1503	0.02	2.001002	8	10	0.08	2800	355.3413	40.92392	-91.39362
57015	-49	93	550	-4.584959	-2.335	349.168	0	12.25	4004	1503	1502	1341	1502	0.02	1.987132	8	10	0.08	2800	354.3857	40.92392	-91.39362
57070	526	625	-411	-5.883202	-1.553088	349.6837	0	12.25	4003	1502	1502	1341	1502	0.02	1.978664	8	10	0.08	2800	353.5848	40.92392	-91.39362
57089	-352	1139	-863	-5.281582	-2.159608	350.5277	0	12.25	4002	1502	1502	1341	1502	0.02	1.976061	8	10	0.08	2800	355.0508	40.92392	-91.39362
57125	215	-2099	-493	-4.635994	-0.9180144	351.2062	0	12.25	4003	1502	1502	1341	1502	0.02	1.974807	8	10	0.08	2800	358.5103	40.92392	-91.39362
57173	-723	830	364	-4.397278	0.6524001	1.61376	0	12.02	4002	1502	1503	1341	1503	0.02	1.98287	8	10	0.08	2800	1.72229	40.92392	-91.39362
57241	802	1169	-418	-5.557839	-2.58331	1.071159	0	12.02	4004	1503	1503	1342	1503	0.02	1.977309	8	10	0.08	2800	357.4796	40.92392	-91.39362
57335	502	-1910	-900	-3.783355	-1.127773	1.271736	0	12.02	4002	1503	1503	1342	1503	0.02	1.971967	8	10	0.08	2800	359.8277	40.92392	-91.39362
57432	2012	1232	-614	-1.282954	0.03204212	1.662524	0	12.02	4004	1503	1503	1341	1503	0.02	1.957064	8	10	0.08	2800	359.8156	40.92392	-91.39362
57585	267	606	1107	-1.53059	-0.986492	1.916297	0	12.02	4003	1503	1502	1341	1502	0.02	1.933494	8	10	0.08	2800	359.7135	40.92392	-91.39362
57634	-1689	-1304	-260	-2.357587	-0.6891812	1.784992	0	12.02	4003	1503	1502	1341	1502	0.02	1.924033	8	10	0.08	2800	358.7308	40.92392	-91.39362
57742	275	989	-19	-4.153132	0.4429813	1.887042	0	12.02	4004	1502	1502	1341	1502	0.02	1.895064	8	10	0.08	2800	359.6082	40.92392	-91.39362
57798	150	701	446	-3.937627	-0.2037539	2.079028	0	12.02	4002	1502	1502	1341	1502	0.02	1.88582	8	10	0.08	2800	359.6082	40.92392	-91.39362
57872	2107	214	749	-3.220675	-0.9448932	2.784053	0	12.02	4004	1502	1502	1341	1502	0.02	1.872468	8	10	0.08	2800	4.578827	40.92392	-91.39362
58040	219	-273	-1407	-4.514608	-1.278545	2.996477	0	11.8	4002	1502	1503	1342	1503	0.02	1.848325	8	10	0.08	2800	2.857513	40.92392	-91.39362
58141	2101	-303	-2034	-0.9486338	-2.001788	5.163084	0	11.8	4004	1503	1503	1342	1503	0.02	1.832447	8	10	0.08	2800	5.121002	40.92392	-91.39362
58158	-769	-2545	-662	-0.6654311	-1.055354	5.625062	0	11.8	4004	1503	1503	1342	1503	0.02	1.832447	8	10	0.08	2800	7.472839	40.92392	-91.39362
58304	-1258	1730	-1336	1.1016	0.8400985	9.028311	0	11.8	4004	1503	1503	1341	1503	0.02	1.823582	8	10	0.08	2800	11.13449	40.92392	-91.39362
58410	-2516	588	-537	-0.7591862	-0.00333395	9.804248	0	11.8	4004	1503	1502	1341	1502	0.02	1.82843	8	10	0.08	2800	9.403687	40.92392	-91.39362
58520	-2118	-1002	-73	-3.572582	2.631239	10.66199	0	11.8	4003	1502	1502	1341	1502	0.02	1.826026	8	10	0.08	2800	11.24643	40.92392	-91.39362
58623	-67	-308	309	-5.173467	2.724133	10.42427	0	11.8	4004	1502	1502	1341	1502	0.02	1.831002	8	10	0.08	2800	11.98788	40.92392	-91.39362
58684	1132	2633	1178	-3.990229	2.165317	8.97731	0	11.8	4003	1502	1502	1341	1502	0.02	1.833967	8	10	0.08	2800	12.28821	40.92392	-91.39362
58821	1120	630	480	-3.073634	-0.06302395	7.186341	0	11.97	4004	1502	1503	1341	1503	0.02	1.845455	8	10	0.08	2800	10.95248	40.92392	-91.39362
58889	215	-404	471	-1.441701	0.4397417	5.52729	0	11.97	4004	1503	1503	1342	1503	0.02	1.852863	8	10	0.08	2800	4.983612	40.92392	-91.39362
58999	302	1031	696	-0.04557044	-0.0881299	4.295581	0	11.97	4003	1503	1503	1342	1503	0.02	1.86889	8	10	0.08	2800	3.321869	40.92392	-91.39362
59125	-422	-698	243	-2.736407	-0.8771509	2.548665	0	11.97	4003	1503	1503	1341	1503	0.02	1.882217	8	10	0.08	2800	0.3171387	40.92392	-91.39363
59156	-422	-698	243	-2.736407	-0.8771509	2.548665	0	11.97	4003	1503	1503	1341	1502	0.02	1.889694	8	10	0.08	2800	0.3171387	40.92392	-91.39363
59309	1990	137	-104	-0.2017009	0.07361326	0.8534355	0	11.97	4003	1502	1502	1341	1502	0.02	1.91231	8	10	0.08	2800	355.083	40.92392	-91.39363
59350	1528	1394	1542	0.384365	-0.07843962	0.4523125	0	11.97	4002	1502	1502	1341	1502	0.02	1.919585	8	10	0.08	2800	355.083	40.92392	-91.39363
59441	803	2639	570	1.031666	-2.289965	359.674	0	11.97	4003	1502	1502	1341	1502	0.02	1.925148	8	10	0.08	2800	355.8857	40.92392	-91.39363
59520	31	334	-135	1.343406	-5.114541	358.6317	0	11.97	4003	1502	1502	1341	1503	0.02	1.933211	8	10	0.08	2800	350.8224	40.92392	-91.39363
59669	127	-301	-1289	0.2739988	-1.88347	348.5177	0	11.97	4002	1502	1503	1342	1503	0.02	1.931713	8	10	0.08	2800	350.2026	40.92392	-91.39363
59759	1536	-682	521	0.9113041	-1.34846	348.8923	0	12.08	4003	1503	1503	1342	1503	0.02	1.930323	8	10	0.08	2800	350.612	40.92392	-91.39363
59820	-1593	1816	-285	-0.7141899	-1.942218	348.7673	0	12.08	4004	1503	1503	1342	1503	0.02	1.929485	8	10	0.08	2800	350.612	40.92392	-91.39363
59956	1864	-1357	-641	0.7469125	-2.440094	348.286	0	12.08	4004	1503	1503	1341	1502	0.02	1.935115	8	10	0.08	2800	349.4413	40.92392	-91.39363
60067	-1849	2470	624	3.43781	-3.589134	348.0981	0	12.08	4003	1503	1502	1341	1502	0.02	1.931342	8	10	0.08	2800	347.2613	40.92392	-91.39363
60232	-1149	-760	452	1.828536	-0.9686912	347.8226	0	12.08	4003	1502	1502	1341	1502	0.02	1.921991	8	10	0.08	2800	347.368	40.92392	-91.39363
60320	-817	937	-1265	0.4840174	-1.465699	348.0937	0	12.08	4002	1502	1502	1341	1502	0.02	1.908464	8	10	0.08	2800	347.3789	40.92392	-91.39363
60399	-1110	145	-338	-0.1781714	-1.538427	348.7319	0	12.08	4004	1502	1503	1341	1503	0.02	1.898583	8	10	0.08	2800	344.9446	40.92392	-91.39363
60486	1107	725	-1286	-1.441957	-1.78762	349.6751	0	12.08	4004	1502	1503	1342	1503	0.02	1.88678	8	10	0.08	2800	349.9064	40.92392	-91.39363
60536	-507	-1546	-1435	0.2851349	-0.8371814	350.6578	0	12.08	4002	1503	1503	1342	1503	0.02	1.873469	8	10	0.08	2800	351.878	40.92392	-91.39363
60673	-1716	-693	478	0.4815168	-1.331296	351.3453	0	11.85	4004	1503	1503	1342	1503	0.02	1.864748	8	10	0.08	2800	351.2292	40.92392	-91.39363
60748	1815	1238	-2658	0.6849775	0.1005689	353.2532	0	11.85	4004	1503	1503	1341	1502	0.02	1.866788	8	10	0.08	2800	352.0862	40.92392	-91.39363
60812	979	4104	-2809	3.777961	-3.955278	355.8363	0	11.85	4003	1503	1502	1341	1502	0.02	1.873206	8	10	0.08	2800	359.4634	40.92392	-91.39363
60966	-1404	-3783	200	-7.088693	-1.81996	358.9554	0	11.85	4003	1502	1502	1341	1502	0.02	1.885891	8	10	0.08	2800	3.101135	40.92392	-91.39363
61032	-347	-3544	-244	-7.593691	0.2674185	359.2861	0	11.85	4004	1502	1502	1341	1502	0.02	1.89153	8	10	0.08	2800	3.101135	40.92392	-91.39363
61146	-793	1098	605	-8.341897	-0.3534655	357.155	0	11.85	4004	1502	1502	1341	1503	0.02	1.917483	8	10	0.08	2800	2.830444	40.92392	-91.39363
61299	633	-191	1826	-5.85072	0.6901833	354.9908	0	11.85	4003	1502	1503	1342	1503	0.02	1.94401	8	10	0.08	2800	2.081268	40.92392	-91.39363
61361	-227	497	1590	-5.911933	-0.2070426	353.615	0	11.85	4003	1503	1503	1342	1503	0.02	1.952191	8	10	0.08	2800	359.0367	40.92392	-91.39363
61481	779	1450	364	-5.484703	-2.128286	350.8776	0	11.85	4003	1503	1503	1341	1503	0.02	1.968003	8	10	0.08	2800	356.7866	40.92392	-91.39362
61502	1309	1502	958	-4.909207	-3.095541	350.2643	0	11.91	4004	1503	1503	1341	1503	0.02	1.970778	8	10	0.08	2800	354.6061	40.92392	-91.39362
61642	-430	-1416	821	-4.763288	-3.065483	348.7451	0	11.91	4004	1503	1502	1341	1502	0.02	1.985038	8	10	0.08	2800	356.2786	40.92392	-91.39362
61729	-627	-1842	801	-5.059384	-1.312937	348.0172	0	11.91	4004	1503	1502	1341	1502	0.02	1.992324	8	10	0.08	2800	353.4418	40.92392	-91.39362
61824	701	-342	-255	-5.60601	-0.904873	346.7853	0	11.91	4003	1502	1502	1341	1502	0.02	2.004001	8	10	0.08	2800	352.9845	40.92392	-91.39362
61907	1717	1900	-485	-2.909516	-2.325772	346.3613	0	11.91	4003	1502	1502	1341	1502	0.02	2.012895	8	10	0.08	2800	350.0693	40.92392	-91.39362
62046	-1496	-567	-781	-4.535062	-3.540332	346.2802	0	11.91	4003	1502	1503	1341	1503	0.02	2.03207	8	10	0.08	2800	349.3802	40.92392	-91.39362
62182	-1056	-1897	-812	-3.314454	1.241385	347.0927	0	11.91	4002	1503	1503	1342	1503	0.02	2.05644	8	10	0.08	2800	349.5489	40.92392	-91.39362
62278	-1997	1910	316	-6.935143	0.817772	346.8777	0	11.91	4003	1503	1503	1342	1503	0.02	2.058298	8	10	0.08	2800	346.8819	40.92392	-91.39362
62336	1887	1405	753	-6.591894	-0.8244008	347.1856	0	11.91	4002	1503	1503	1341	1503	0.02	2.058234	8	10	0.08	2800	350.461	40.92392	-91.39362
62418	2461	1460	770	-4.690613	-1.893786	347.7794	0	11.91	4003	1503	1502	1341	1502	0.02	2.05787	8	10	0.08	2800	351.4698	40.92392	-91.39362
62579	681	-1233	-292	-4.782083	-0.8236507	348.9432	0	11.97	4003	1502	1502	1341	1502	0.02	2.042248	8	10	0.08	2800	355.492	40.92392	-91.39362
62710	-1365	1619	901	-3.115544	1.326153	348.9279	0	11.97	4002	1502	1502	1341	1502	0.02	2.015155	8	10	0.08	2800	352.0878	40.92392	-91.39362
62745	-1096	3002	1767	-3.867506	-0.03089561	348.4705	0	11.97	4004	1502	1502	1341	1503	0.02	1.997792	8	10	0.08	2800	352.0878	40.92392	-91.39362
62817	725	1972	1550	-3.747957	-3.176413	347.3729	0	11.97	4003	1502	1503	1341	1503	0.02	1.982073	8	10	0.08	2800	352.2971	40.92392	-91.39362
62932	866	452	1096	-0.3535534	0.8692185	346.2227	0	11.97	4002	1503	1503	1342	1503	0.02	1.966437	8	10	0.08	2800	348.5824	40.92392	-91.39362
63096	517	-76	-488	-0.6602302	-0.07122841	345.7206	0	11.97	4004	1503	1503	1342	1503	0.02	1.931628	8	10	0.08	2800	346.8282	40.92393	-91.39362
