time(ms)	gyro_x(deg/s)	gyro_y(deg/s)	gyro_z(deg/s)	orientation_roll(deg)	orientation_pitch(deg)	orientation_yaw(deg)	throttle	battery(V)	loop_time(uS)	pid_output_roll	pid_output_pitch	pid_output_yaw	pid_output_throttle	ultrasonic_alt	baro_alt	flight_mode	p_gain_altitude	i_gain_altitude	d_gain_altitude
4250140	7	0	2	0.1340296	-0.01502558	0.01559115	0	12.31	4003	0	0	0	0	1.154537	-0.01943273	3	5	0.0001	10
4250187	8	-2	2	0.1323853	-0.0166373	0.01559108	0	12.31	4002	0	0	0	0	1.154537	-0.01729491	3	5	0.0001	10
4250312	2	-5	3	0.1237425	-0.01961625	0.01436803	0	12.31	4004	0	0	0	0	1.154537	-0.005787353	3	5	0.0001	10
4250395	9	-6	4	0.1182368	-0.009105879	0.01357335	0	12.31	4002	0	0	0	0	1.154537	-0.0001672253	3	5	0.0001	10
4250498	15	-27	-37	0.1101365	0.009894181	0.003791141	0	12.31	4002	1	7	0	0	1.154537	0.005629458	3	5	0.0001	10
4250695	62	6	-151	0.1076189	-4.674264E-05	0.009104226	0	12.31	4004	-2	5	2	0	1.154537	-0.004288734	3	5	0.0001	10
4250753	-43	-17	-4	0.1083129	-0.01508215	0.009407354	0	12.31	4002	-2	16	-1	0	1.154537	-0.007109434	3	5	0.0001	10
4250811	-81	-97	-12	0.08351152	0.0295874	0.003415062	0	12.31	4002	30	0	0	0	1.154537	-0.004431927	3	5	0.0001	10
4250916	264	23	111	0.1083871	0.0317727	-0.001294999	0	12.31	4003	22	2	-1	0	1.154537	0.0007988799	3	5	0.0001	10
4251049	-89	22	-19	0.08919469	0.002487089	-0.002698695	0	12.31	4004	14	16	1	0	1.154537	-0.004985291	3	5	0.0001	10
4251125	-148	55	-60	0.0636116	-0.02337867	-0.007845808	0	12.31	4003	-19	-17	2	0	1.154537	-0.002589286	3	5	0.0001	10
4251245	-53	-41	125	0.06358284	-0.04641195	-0.02075822	0	12.31	4003	34	-1	0	0	1.154537	0.007564097	3	5	0.0001	10
4251332	117	24	-34	0.03956717	-0.06610499	-0.02051817	0	12.19	4003	-15	4	0	0	1.154537	0.003755762	3	5	0.0001	10
4251479	-94	-45	-413	-0.1468717	0.08391249	-0.01096568	0	12.19	4004	6	-9	7	0	1.154537	0.005998591	3	5	0.0001	10
4251539	-164	109	-27	-0.3482625	0.1180797	-0.03772971	0	12.19	4003	5	-3	0	0	1.154537	0.008640673	3	5	0.0001	10
4251716	1540	585	118	0.312642	0.3671616	-0.2000405	0	12.19	4002	-125	33	20	0	1.154537	0.01722059	3	5	0.0001	10
4251770	-907	1014	-1113	1.287431	-3.183044	-0.21563	0	12.19	4002	-51	211	31	0	1.154537	0.01722059	3	5	0.0001	10
4251874	-2108	5457	2079	-2.980072	-11.48456	-2.080459	0	12.19	4004	123	374	47	0	1.154537	0.08993471	3	5	0.0001	10
4251921	-371	3556	944	-3.350763	-12.70168	-2.459031	0	12.19	4003	137	47	48	0	1.154537	0.110233	3	5	0.0001	10
4252026	720	1605	1234	0.1050941	-14.93901	-2.313083	0	12.19	4003	-89	218	71	0	1.154537	0.1291242	3	5	0.0001	10
4252142	-328	-2894	-613	-1.73606	-10.51434	-1.003696	0	12.19	4003	-29	-204	3	0	1.154537	0.1817984	3	5	0.0001	10
4252237	673	-2905	560	-1.301873	-8.455173	-0.7736253	0	12.19	4002	-80	-52	31	0	1.154537	0.2136285	3	5	0.0001	10
4252329	1026	739	1449	0.2817446	-5.519356	-0.83504	0	11.91	4002	-69	-84	28	0	1.154537	0.2343812	3	5	0.0001	10
4252422	2293	-331	-800	5.316525	-6.690547	-0.06633583	0	11.91	4002	3	-202	-6	0	1.154537	0.2606289	3	5	0.0001	10
4252534	-1319	-4023	1	4.776619	-3.198688	0.3676772	0	11.91	4003	-24	-108	-13	0	1.154537	0.3092383	3	5	0.0001	10
4252625	-426	-2605	172	2.740429	-0.075374	0.6030571	0	11.91	4003	-38	52	-4	0	1.154537	0.3388235	3	5	0.0001	10
4252730	403	-402	362	1.931794	0.5486953	0.2487635	0	11.91	4004	15	-76	2	0	1.154537	0.389585	3	5	0.0001	10
4252841	-452	-1576	-157	0.8741661	2.072456	-0.1088412	0	11.91	4004	-27	-130	-9	0	1.154537	0.4402282	3	5	0.0001	10
4253023	188	27	13	1.63115	-2.090611	0.1617483	0	11.91	4002	-39	81	0	0	1.154537	0.531968	3	5	0.0001	10
4253075	188	27	13	1.63115	-2.090611	0.1617483	0	11.91	4002	-30	15	-1	0	1.154537	0.5673084	3	5	0.0001	10
4253138	188	27	13	1.63115	-2.090611	0.1617483	0	11.91	4002	-32	-295	-31	0	1.154537	0.6021439	3	5	0.0001	10
4253300	-439	1452	-214	0.4950088	-7.047855	0.03651562	0	10.32	4003	-3	-28	-8	0	1.154537	0.6451887	3	5	0.0001	10
4253390	-669	1032	1121	-0.9596062	-7.20688	-0.05957839	0	10.32	4004	-100	198	19	0	1.154537	0.6868815	3	5	0.0001	10
4253482	-648	462	472	-1.673381	-7.773276	0.3655854	0	10.32	4002	-72	-223	-7	0	1.154537	0.708236	3	5	0.0001	10
4253537	-708	691	2070	-1.863763	-7.696674	0.1268888	0	10.32	4002	-7	-256	-6	0	1.154537	0.7083883	3	5	0.0001	10
4253703	720	1532	759	-0.08693727	-4.856809	0.2787901	0	10.32	4004	44	152	-10	0	1.154537	0.7014251	3	5	0.0001	10
4253740	720	1532	759	-0.08693727	-4.856809	0.2787901	0	10.32	4004	62	-204	-11	0	1.154537	0.7065281	3	5	0.0001	10
4253866	-1460	638	1245	-3.92255	-6.313057	0.2851552	0	10.32	4003	12	-164	-17	0	1.154537	0.7056596	3	5	0.0001	10
4253956	-2315	3630	1337	-5.821848	-9.299883	-0.9503855	0	10.32	4003	53	239	32	0	1.154537	0.7021671	3	5	0.0001	10
4254117	-40	2680	941	-6.158925	-11.60212	-0.3806615	0	11.29	4002	-6	-169	3	0	1.154537	0.7011589	3	5	0.0001	10
4254151	-40	2680	941	-6.158925	-11.60212	-0.3806615	0	11.29	4002	69	128	-9	0	1.154537	0.7018019	3	5	0.0001	10
4254296	739	297	-1128	-4.935867	-13.89496	0.7094562	0	11.29	4007	-19	87	-10	0	1.154537	0.7037225	3	5	0.0001	10
4254382	284	-1676	-832	-3.003837	-12.35763	0.5902983	0	11.29	4002	98	-106	-19	0	1.154537	0.7132418	3	5	0.0001	10
4254444	1707	2807	1556	-1.380169	-12.88774	0.390567	0	11.29	4004	-132	256	11	0	1.154537	0.7177335	3	5	0.0001	10
4254537	64	2800	1144	-0.9889222	-15.95656	0.2512022	0	11.29	4003	-56	217	8	0	1.154537	0.7221322	3	5	0.0001	10
4254646	378	1878	1478	-0.4553553	-14.96196	0.3558082	0	11.29	4003	18	17	-11	0	1.154537	0.7498994	3	5	0.0001	10
4254770	1577	-1253	-1536	-0.06511132	-13.7465	0.4590057	0	11.29	4002	-86	177	10	0	1.154537	0.7782822	3	5	0.0001	10
4254822	1266	1044	1015	1.614803	-12.70475	0.5656408	0	11.29	4004	-34	-9	0	0	1.154537	0.7868389	3	5	0.0001	10
4254927	194	-704	-360	1.812813	-12.71671	0.8429769	0	11.29	4005	-38	153	-17	0	1.154537	0.8297105	3	5	0.0001	10
4255100	11	-3276	480	1.481569	-9.149783	0.9654432	0	11.51	4004	-34	-119	-24	0	1.154537	0.9370891	3	5	0.0001	10
4255190	-623	-4571	-818	0.6288782	-3.903589	0.4865881	0	11.51	4004	76	-200	-19	0	1.154537	0.9868774	3	5	0.0001	10
4255226	526	-1505	14	0.7620196	-3.294807	0.2696037	0	11.51	4003	6	199	8	0	1.154537	1.010361	3	5	0.0001	10
4255364	-334	-2483	-1785	1.023088	-4.254807	0.03839441	0	11.51	4002	-47	-191	-10	0	1.154537	1.062111	3	5	0.0001	10
4255433	556	-864	-1663	0.8674332	-3.408774	0.5807957	0	11.51	4004	-34	-239	-20	-2	1.154537	1.072057	4	5	0.0001	10
4255537	-1213	-853	-247	-0.03206622	-4.283682	0.3723684	0	11.51	4004	0	-18	-2	0	1.193485	1.103774	4	5	0.0001	10
4255639	-703	-305	-951	-0.6152829	-5.350468	0.393661	0	11.51	4004	34	-228	-7	0	1.200186	1.115961	4	5	0.0001	10
4255741	208	4423	1326	-1.356369	-11.34456	-0.2566162	0	11.51	4004	-75	-22	12	0	1.168612	1.129211	4	5	0.0001	10
4255841	-1678	559	259	-1.392807	-15.59576	-0.4946529	0	11.51	4008	-72	151	29	0	1.103464	1.122912	4	5	0.0001	10
4255943	1256	-3780	-484	-1.622673	-12.61266	-0.1850087	0	11.11	4002	65	-238	-15	0	1.165734	1.109297	4	5	0.0001	10
4256043	-1089	-2533	-1106	-0.4303654	-9.631057	0.3259345	0	11.11	4002	82	-321	-26	-1	1.1842	1.099463	4	5	0.0001	10
4256144	-1483	-1526	-17	-1.671962	-7.805031	0.2679068	0	11.11	4002	37	-122	-3	-1	1.173499	1.081184	4	5	0.0001	10
4256325	218	-694	-1277	-0.004860314	-6.870083	0.07240561	0	11.11	4003	90	-297	-11	0	1.108051	1.027626	4	5	0.0001	10
4256399	417	1048	-953	0.5003268	-7.736501	0.2762071	0	11.11	4004	75	-29	-20	-1	1.138528	1.02032	4	5	0.0001	10
4256438	-276	1301	-1082	0.3840435	-9.077368	0.2679277	0	11.11	4002	75	-29	-20	-1	1.138528	1.02032	4	5	0.0001	10
4256553	784	290	-1812	0.6712216	-12.94653	1.272891	0	11.11	4002	110	-235	-50	-1	1.111511	0.9482618	4	5	0.0001	10
4256703	737	1920	235	1.198307	-14.43526	0.9804242	0	11.11	4003	14	-136	-36	0	1.140916	0.8860938	4	5	0.0001	10
4256762	-442	2370	867	1.086636	-15.21716	0.6264863	0	11.11	4003	8	40	-7	-1	1.156538	0.8506029	4	5	0.0001	10
4256845	-495	-464	918	0.14782	-14.98361	0.03537489	0	12.08	4003	-35	-50	6	0	1.163198	0.8255126	4	5	0.0001	10
4257002	-240	488	-2	0.2123482	-11.78069	-0.127052	0	12.08	4004	-45	83	9	0	1.149055	0.7488981	4	5	0.0001	10
4257061	23	1090	-1088	-0.08188951	-12.24161	0.08891265	0	12.08	4004	6	-61	2	0	1.056637	0.7139057	4	5	0.0001	10
4257211	1085	1020	422	-0.2878945	-18.25045	-0.3406721	0	12.08	4004	28	-94	9	0	0.8881382	0.6498469	4	5	0.0001	10
4257308	-18022	-26453	-4230	-2.228567	-15.4906	-0.3982069	0	12.08	4004	47	-61	16	3	0.7069904	0.6073465	4	5	0.0001	10
4257349	7021	-7490	283	-4.716109	-3.699098	0.4487898	0	12.08	4003	-354	-400	-48	2	0.6481935	0.5971192	4	5	0.0001	10
4257494	-498	7452	2649	-0.532766	-4.46806	-4.718162	0	12.08	4004	51	-103	115	4	0.4509668	0.5263804	4	5	0.0001	10
4257575	-1746	2857	-1576	-2.520612	-9.853021	-5.182586	0	12.08	4003	115	232	147	4	0.3918725	0.492387	4	5	0.0001	10
4257748	-910	977	-2573	-2.675825	-12.92049	0.1579021	0	11.4	4003	104	64	-16	9	0.353104	0.404193	4	5	0.0001	10
4257795	1170	1551	-893	-2.541049	-13.65027	0.6074948	0	11.4	4004	-70	-18	-7	9	0.3494182	0.3933914	4	5	0.0001	10
4257858	-334	1533	91	-1.470738	-15.10509	1.224036	0	11.4	4003	11	150	-26	9	0.3508001	0.3738829	4	5	0.0001	10
4257962	-1665	-675	-971	-2.001984	-15.77235	1.189604	0	11.4	4004	110	-200	-14	5	0.3391928	0.3348663	4	5	0.0001	10
4258136	1878	-2988	-872	5.796972	-12.28612	-0.01994014	0	11.4	4004	22	-171	-4	4	0.4206541	0.3114948	4	5	0.0001	10
4258188	1064	-3009	-1243	6.389322	-11.31672	0.1868006	0	11.4	4004	86	-143	-27	4	0.4590785	0.306442	4	5	0.0001	10
4258258	346	259	806	8.005077	-10.01548	0.9888306	0	11.4	4003	24	124	-36	3	0.5124643	0.3054608	4	5	0.0001	10
4258400	-1087	900	871	6.74879	-9.029169	1.353137	0	11.4	4003	-25	-93	-26	3	0.5642075	0.3036486	4	5	0.0001	10
4258461	-599	-1011	1621	4.359258	-7.93368	1.128309	0	11.4	4003	-71	144	-9	6	0.5921707	0.3092235	4	5	0.0001	10
4258642	-2927	-2412	-1644	2.058646	-5.629891	0.4157057	0	11.4	4003	58	-166	-15	3	0.6383728	0.3213586	4	5	0.0001	10
4258772	-670	-2613	-854	-3.145366	-3.615555	0.4404006	0	11	4004	88	-341	-22	1	0.6665541	0.3382159	4	5	0.0001	10
4258867	761	-2064	-841	-2.590467	-3.166601	0.1466339	0	11	4004	-76	252	39	1	0.6582668	0.3384	4	5	0.0001	10
4259032	1013	139	-1273	-4.587126	-6.300949	-0.2416819	0	11	4004	-150	113	7	1	0.6765127	0.3475621	4	5	0.0001	10
4259106	-1149	-826	-1443	-3.46831	-7.127581	0.5581686	0	11	4002	-98	204	7	1	0.6718362	0.3498457	4	5	0.0001	10
4259173	-1149	-826	-1443	-3.46831	-7.127581	0.5581686	0	11	4002	107	-367	-28	3	0.6604303	0.3541158	4	5	0.0001	10
4259265	-2448	1885	1345	-4.553948	-8.549371	0.1093917	0	11	4003	8	-251	3	3	0.6537886	0.3511592	4	5	0.0001	10
4259432	165	-2350	-2409	-1.003783	-14.74504	-0.3695747	0	11	4004	-35	-111	6	1	0.6395507	0.3296592	4	5	0.0001	10
4259514	-1472	-6742	-2134	-3.089245	-9.967292	0.6629035	0	11	4002	-56	-249	-30	1	0.6395507	0.3296592	4	5	0.0001	10
4259557	488	-3864	-578	-3.101542	-4.869649	1.476891	0	11	4002	-85	-91	-36	1	0.6280627	0.3239234	4	5	0.0001	10
4259658	1243	1017	-838	-1.221027	-6.126732	0.4145102	0	12.02	4004	76	56	-16	2	0.6169809	0.32608	4	5	0.0001	10
4259757	2031	4812	1860	-0.4084727	-7.690323	0.1675495	0	12.02	4002	-62	230	-15	6	0.5869173	0.3449516	4	5	0.0001	10
4259989	1309	2827	121	-0.09693243	-15.24412	1.361582	0	12.02	4003	5	53	-38	4	0.534496	0.3566341	4	5	0.0001	10
4260104	202	-1080	515	1.250026	-16.48136	1.107058	0	12.02	4004	80	-111	-26	4	0.5160486	0.3420914	4	5	0.0001	10
4260183	-903	-3969	1129	-0.1012291	-9.871663	0.7112759	0	12.02	4003	48	-151	-15	4	0.4935314	0.3331323	4	5	0.0001	10
4260322	1312	1269	-59	0.6661462	-6.632986	-0.5118185	0	12.02	4003	-56	-22	29	8	0.4363882	0.3006563	4	5	0.0001	10
4260440	1541	-211	-428	1.807839	-7.560985	-0.2589041	0	12.02	4003	-22	-9	3	4	0.383912	0.2814121	4	5	0.0001	10
4260604	-911	-1240	68	1.120744	-8.915803	0.5190147	0	10.89	4004	20	-50	-17	5	0.3037107	0.2514661	4	5	0.0001	10
4260762	257	3715	-359	1.044035	-10.27551	0.3619916	0	10.89	4004	-4	-95	-19	5	0.2001212	0.2290807	4	5	0.0001	10
4260850	180	771	537	0.9786273	-12.43619	0.1251924	0	10.89	4002	-2	-54	4	6	0.184328	0.2255822	4	5	0.0001	10
4260882	189	-579	-770	1.155262	-12.54358	0.01881577	0	10.89	4004	77	-232	-7	12	0.1634956	0.2118909	4	5	0.0001	10
4260980	-1006	-511	-978	1.158363	-12.67002	-0.1387661	0	10.89	4004	-127	242	15	12	0.1573001	0.1881017	4	5	0.0001	10
4261070	-728	-84	-1092	-0.5082483	-13.79518	0.1321827	0	10.89	4004	-75	400	11	6	0.1746524	0.1673337	4	5	0.0001	10
4261161	-1109	513	-525	-1.602279	-14.95449	-0.03756741	0	10.89	4004	7	-146	-2	11	0.178316	0.164043	4	5	0.0001	10
4261262	987	-3195	-2839	-2.281481	-12.44851	0.577167	0	10.89	4003	113	-9	-30	5	0.2692112	0.1428509	4	5	0.0001	10
4261373	-382	2575	1856	-2.510289	-11.73575	0.3627328	0	10.89	4003	-25	152	-8	4	0.3214859	0.1508916	4	5	0.0001	10
4261477	435	-41	2235	-1.675117	-12.354	-0.582345	0	9.98	4003	-73	261	40	4	0.4296205	0.1721807	4	5	0.0001	10
4261603	1126	1912	929	-0.4373493	-11.68671	-0.9478855	0	9.98	4004	77	-252	-1	3	0.5828159	0.2088249	4	5	0.0001	10
4261670	1126	1912	929	-0.4373493	-11.68671	-0.9478855	0	9.98	4004	70	-96	-32	1	0.6460196	0.23399	4	5	0.0001	10
4261883	-132	556	1869	4.501397	-5.192693	0.03667553	0	9.98	4003	-71	-16	13	0	0.8664482	0.3228824	4	5	0.0001	10
4261988	-2308	-1124	231	1.856434	-5.357088	-0.6617197	0	9.98	4002	-32	152	2	0	0.9484657	0.392304	4	5	0.0001	10
4262076	996	-1051	-943	1.565757	-3.216267	0.4539522	0	9.98	4004	-93	27	-10	0	1.024288	0.4494758	4	5	0.0001	10
4262196	-1560	-2127	-975	0.8134578	-2.250487	1.124779	0	9.98	4003	55	-400	-48	-1	1.102746	0.535944	4	5	0.0001	10
4262331	1444	2286	1326	-0.1520443	-4.455455	0.284594	0	9.98	4004	-44	107	14	0	1.014987	0.585014	4	5	0.0001	10
4262460	-244	-917	417	0.7763934	-5.698402	-0.4198568	0	10.72	4003	56	77	10	0	1.008121	0.641118	4	5	0.0001	10
4262482	-424	-2809	-1830	0.0273907	-5.005935	-0.5140433	0	10.72	4004	52	-353	10	0	1.016589	0.6669911	4	5	0.0001	10
4262570	282	753	1318	0.1946443	-4.817987	-0.5942166	0	10.72	4004	57	130	-17	0	1.019662	0.7351557	4	5	0.0001	10
4262655	61	400	392	0.4924381	-5.979959	0.6868117	0	10.72	4003	56	70	-21	0	1.02843	0.7540565	4	5	0.0001	10
4262786	-176	-1277	-1237	0.6251303	-6.824358	0.9674002	0	10.72	4004	69	-195	-36	0	1.101966	0.8104538	4	5	0.0001	10
4262906	838	3649	1200	-0.1216556	-8.435449	0.3930662	0	10.72	4002	145	-160	-23	0	1.169975	0.8671396	4	5	0.0001	10
4263039	-645	59	718	-0.1192579	-11.48095	0.8802482	0	10.72	4003	-78	329	-11	-1	1.282769	0.9245791	4	5	0.0001	10
4263093	-1595	-796	-1213	-0.8939788	-11.16767	1.351774	0	10.72	4002	115	-30	-47	-1	1.258215	0.9454153	4	5	0.0001	10
4263157	-1654	-534	-1699	-2.897118	-11.51736	1.871459	0	10.72	4002	10	-182	-53	0	1.216229	0.9800528	4	5	0.0001	10
4263249	619	3495	1327	-2.935943	-13.92537	1.804534	0	11.34	4003	-59	136	-34	0	1.099947	1.014603	4	5	0.0001	10
4263475	-624	-402	488	-0.5668108	-18.91593	0.9999527	0	11.34	4003	-32	51	-20	0	0.9979755	1.098582	4	5	0.0001	10
4263622	-271	-174	-273	-1.781617	-13.22837	0.146829	0	11.34	4004	-43	41	8	0	1.040796	1.135659	4	5	0.0001	10
4263732	113	-370	195	-1.798072	-11.28947	-0.002046672	0	11.34	4002	-22	-5	0	0	1.066078	1.148353	4	5	0.0001	10
4263769	219	72	-329	-1.782333	-10.99991	0.07901562	0	11.34	4002	25	-152	-14	0	1.105564	1.147789	4	5	0.0001	10
4263899	-1736	284	-87	-1.692657	-12.27025	-0.005085922	0	11.34	4003	16	-13	6	0	1.150272	1.145075	4	5	0.0001	10
4263963	1288	361	246	-2.882151	-11.21802	0.3577478	0	11.34	4003	-78	28	-6	0	1.18104	1.142391	4	5	0.0001	10
4264132	-385	794	-52	-1.618433	-13.10656	0.5828478	0	11.34	4004	-10	-28	-11	-1	1.151749	1.14583	4	5	0.0001	10
4264211	-873	-1587	-59	-2.303257	-9.989605	0.2218649	0	11.85	4003	7	-48	-2	-1	1.133914	1.148808	4	5	0.0001	10
4264282	-22	296	221	-2.72095	-8.838135	0.147649	0	11.85	4004	-56	70	5	1	1.040853	1.146086	4	5	0.0001	10
4264399	-1362	-271	-634	-2.565994	-9.19077	0.9186763	0	11.85	4003	14	-143	-31	0	1.110229	1.135184	4	5	0.0001	10
4264562	328	-667	530	-5.5056	-5.830525	1.834296	0	11.85	4002	28	-94	-49	0	1.116013	1.06937	4	5	0.0001	10
4264655	933	-254	662	-4.494625	-4.526444	1.783941	0	11.85	4002	4	-22	-45	-1	1.232427	1.038674	4	5	0.0001	10
4264763	894	-101	251	-4.089818	-3.823484	0.8896441	0	11.85	4002	-14	-29	-17	0	1.278422	0.9823422	3	5	0.0001	10
4264852	718	719	-466	-2.671808	-3.900396	0.5760936	0	11.85	4003	0	-24	-14	0	1.274222	0.910253	3	5	0.0001	10
4264962	4311	-3269	-1368	-0.02447857	-1.274173	0.3936922	0	11.85	4003	-20	-33	-2	0	1.271161	0.8293756	3	5	0.0001	10
4265109	-1383	-815	-18	-1.489654	-4.869701	1.74227	0	11.06	4003	12	85	-13	0	1.267302	0.6633385	3	5	0.0001	10
4265151	-698	509	480	-3.574512	-3.324734	1.737369	0	11.06	4003	95	84	-23	0	1.266865	0.6503227	3	5	0.0001	10
4265265	-13	-360	-1316	-3.705312	-7.613286	1.658207	0	11.06	4004	-17	8	-22	0	1.265797	0.6186377	3	5	0.0001	10
4265359	-732	366	-1270	-2.717448	-10.04129	3.610069	0	11.06	4002	-97	260	-58	0	1.265019	0.6267527	3	5	0.0001	10
4265525	-1455	-3471	867	-6.907838	-6.840555	3.508696	0	11.06	4004	57	-110	-38	0	1.264162	0.6727788	3	5	0.0001	10
4265583	414	-3104	1260	-7.194689	-2.410655	1.92752	0	11.06	4002	24	-56	-2	0	1.264038	0.6823156	3	5	0.0001	10
4265698	1296	154	951	-5.076456	-1.348366	-0.5615419	0	11.06	4003	-39	-25	55	0	1.263656	0.7593135	3	5	0.0001	10
4265759	-1070	520	-43	-5.184963	-2.470294	-1.096268	0	11.06	4002	35	-36	39	0	1.263517	0.7883725	3	5	0.0001	10
4265874	-1196	-1091	-1218	-10.50017	-1.847931	0.4693513	0	11.06	4003	-34	-100	2	0	1.263357	0.8203509	3	5	0.0001	10
4265945	-341	-1379	-836	-11.06278	-0.8997445	0.8809887	0	11.06	4003	23	-73	-3	0	1.263275	0.8430241	3	5	0.0001	10
4266062	1005	4472	1389	-7.88337	-4.65815	1.46093	0	11.06	4002	21	316	-7	0	1.263132	0.8996978	3	5	0.0001	10
4266194	1852	1077	1747	-4.598595	-8.712343	0.4422716	0	11.06	4003	38	-95	-4	0	1.263076	0.928745	3	5	0.0001	10
4266287	-1584	-3897	-1150	-4.539427	-6.167902	0.2555528	0	11.06	4003	-3	141	28	0	1.263036	0.9718373	3	5	0.0001	10
4266379	2445	-583	114	-4.003761	-4.433612	0.340502	0	11.06	4003	49	-153	-18	0	1.263006	0.989906	3	5	0.0001	10
4266465	-1356	-982	48	2.894824	-6.250595	1.661293	0	11.06	4002	-12	-23	-27	0	1.262984	0.996278	3	5	0.0001	10
4266549	-1890	-3888	171	-0.2701583	-3.166575	1.638455	0	11.06	4002	1	-101	-13	0	1.262968	1.003289	3	5	0.0001	10
4266659	318	-1398	64	-2.880147	3.552459	0.4358113	0	11.06	4003	-38	-68	18	0	1.262957	1.014307	3	5	0.0001	10
4266738	439	-317	126	-2.273741	3.539675	0.2811882	0	11.06	4002	-117	249	35	0	1.262951	1.017031	3	5	0.0001	10
4266898	-564	-2047	-1251	-4.428081	0.3503234	1.120498	0	11.06	4004	-76	-348	-5	0	1.262941	1.005066	3	5	0.0001	10
4266975	-2788	950	-730	-5.90169	-3.172703	1.349136	0	10.94	4003	9	-150	-11	0	1.262938	0.9875339	3	5	0.0001	10
4267037	-799	2757	263	-7.640814	-5.742936	1.449298	0	10.94	4003	-34	-103	-9	0	1.262937	0.9803019	3	5	0.0001	10
4267134	276	-2500	-642	-6.5233	-6.089436	1.883548	0	10.94	4004	4	-192	-42	0	1.262933	0.9307129	3	5	0.0001	10
4267237	-2749	-180	744	-9.411397	-5.339852	2.630342	0	10.94	4003	-21	149	-35	0	1.262931	0.9001345	3	5	0.0001	10
4267343	-525	-1473	-364	-9.325014	-5.025064	2.863909	0	10.94	4002	82	-192	-65	0	1.262929	0.8730088	3	5	0.0001	10
4267434	-929	-1122	1047	-9.031308	-4.378721	2.63275	0	10.94	4003	41	-118	-26	0	1.262928	0.8498031	3	5	0.0001	10
4267541	1594	-1120	-318	-4.28968	-3.591179	0.2677873	0	10.94	4002	8	-196	9	0	1.262928	0.8292025	3	5	0.0001	10
4267666	2253	3493	-318	-1.908648	-6.144152	-0.06822233	0	10.94	4002	-50	208	36	0	1.262927	0.814749	3	5	0.0001	10
4267782	-52	2265	107	-0.9997131	-9.428279	1.234784	0	10.94	4004	90	148	-24	0	1.262927	0.8039683	3	5	0.0001	10
4267864	-1374	2990	1299	-1.82959	-11.23527	1.606437	0	12.48	4002	-22	162	-8	0	1.262927	0.7899747	3	5	0.0001	10
4267970	-336	39	-1630	-3.330276	-11.32109	2.252418	0	12.48	4002	-4	-2	-27	0	1.262927	0.7631429	3	5	0.0001	10
4268044	1751	435	-691	-1.668429	-12.93169	2.446901	0	12.48	4004	35	-90	-41	0	1.262927	0.7534198	3	5	0.0001	10
4268188	1084	-1	204	1.08408	-9.567348	0.773101	0	12.48	4003	-6	-88	9	0	1.262927	0.7356922	3	5	0.0001	10
4268309	464	540	-383	2.43111	-8.233021	0.2371069	0	12.48	4004	7	-73	19	0	1.262927	0.7187842	3	5	0.0001	10
4268362	66	321	-511	2.177144	-7.84027	0.4377127	0	12.48	4003	-11	-39	0	0	1.262927	0.7121473	3	5	0.0001	10
4268499	-102	1960	744	2.039135	-9.885859	1.394513	0	12.48	4002	-75	230	0	0	1.262927	0.6825194	3	5	0.0001	10
4268590	-305	0	-1836	1.496308	-11.56619	1.7738	0	12.48	4002	-91	168	-5	0	1.262927	0.667837	3	5	0.0001	10
4268757	-583	-385	156	0.04735842	-11.39982	2.245569	0	11.29	4003	-25	51	-1	0	1.262927	0.5969389	3	5	0.0001	10
4268836	-331	-2704	186	-1.043174	-10.35612	1.009611	0	11.29	4002	52	-138	2	0	1.262927	0.5780717	3	5	0.0001	10
4268971	1205	2138	752	-1.467223	-11.79455	0.6627255	0	11.29	4003	-152	192	13	0	1.262927	0.5679272	3	5	0.0001	10
4269142	-1926	-1968	1181	-0.4537571	-1.823247	0.5302119	0	11.29	4002	41	-68	29	0	1.262927	0.5856827	3	5	0.0001	10
4269252	-1378	-384	868	-1.228825	-0.8648252	0.4857749	0	11.29	4002	-62	37	24	0	1.262927	0.5948966	3	5	0.0001	10
4269348	164	-3404	-2015	-1.602802	-1.546731	0.9579512	0	11.29	4003	-62	37	24	0	1.262927	0.5953573	3	5	0.0001	10
4269437	1901	179	932	0.4389475	-1.522579	2.739779	0	11.29	4004	-123	-145	-48	0	1.262927	0.5843176	3	5	0.0001	10
4269563	583	-1312	-1188	0.4319747	-2.623785	2.441581	0	11.29	4004	35	246	-29	0	1.262927	0.5794744	3	5	0.0001	10
4269641	-1220	-6044	-384	-0.2390027	-0.01466981	1.419737	0	10.38	4003	123	337	-11	0	1.262927	0.5777198	3	5	0.0001	10
4269766	172	2055	2068	0.2438043	1.039531	0.6315406	0	10.38	4003	78	-71	-6	0	1.262927	0.5728274	3	5	0.0001	10
4269862	-1432	1145	395	-2.187336	-0.9081815	-0.02040906	0	10.38	4002	-62	46	30	0	1.262927	0.5721633	3	5	0.0001	10
4269990	-2207	931	-536	-6.24192	-3.775058	0.9172502	0	10.38	4004	-6	214	-9	0	1.262927	0.5662953	3	5	0.0001	10
4270065	-2342	2945	1718	-8.439209	-5.382784	0.9887559	0	10.38	4004	74	-190	-23	0	1.262927	0.5632067	3	5	0.0001	10
4270150	-1860	3	-1815	-9.771067	-8.615745	0.927078	0	10.38	4002	-66	-105	1	0	1.262927	0.5651143	3	5	0.0001	10
4270253	1229	2668	1777	-7.285398	-10.86959	0.526208	0	10.38	4004	139	-299	-14	0	1.262927	0.5784996	3	5	0.0001	10
4270396	1538	719	894	-3.830791	-12.51063	-0.4591908	0	10.38	4004	4	139	28	0	1.262927	0.6201189	3	5	0.0001	10
4270556	-159	991	453	-1.070159	-12.49645	0.08348677	0	10.38	4002	-131	291	31	0	1.262927	0.6484394	3	5	0.0001	10
4270623	1577	119	-1438	0.1708457	-13.48108	1.07549	0	11.68	4003	62	32	-16	0	1.262927	0.6674163	3	5	0.0001	10
4270680	-521	-1694	448	1.046122	-12.88058	1.429203	0	11.68	4002	-7	65	-12	0	1.262927	0.6746047	3	5	0.0001	10
4270842	2750	869	206	1.7022	-7.834741	0.968348	0	11.68	4002	-52	29	-4	0	1.262927	0.6782871	3	5	0.0001	10
4270979	-198	-1773	-809	3.851978	-5.757778	1.364188	0	11.68	4002	0	-101	-17	0	1.262927	0.6822175	3	5	0.0001	10
4271041	-757	-1216	-1587	2.92925	-3.62029	1.888171	0	11.68	4004	63	-69	-42	0	1.262927	0.6869645	3	5	0.0001	10
4271134	-73	-33	-1139	2.566051	-3.779658	2.08038	0	11.68	4003	16	-321	-64	0	1.262927	0.6823111	3	5	0.0001	10
4271222	-1090	2689	1627	1.5905	-10.80968	1.69653	0	11.68	4004	-4	69	-8	0	1.262927	0.6776958	3	5	0.0001	10
4271326	-488	-1272	-894	-2.315689	-8.357215	2.688717	0	11.68	4002	-4	-337	-48	0	1.262927	0.6268991	3	5	0.0001	10
4271456	2236	3097	1201	-0.6884629	-10.40559	2.547855	0	11.68	4002	-106	-81	-13	0	1.262927	0.5836517	3	5	0.0001	10
4271540	-899	-145	-1318	0.3773256	-16.07648	2.075265	0	11	4004	-23	-71	-38	0	1.262927	0.5324424	3	5	0.0001	10
4271668	5	533	433	-0.1102412	-16.62531	2.334491	0	11	4003	-25	19	-27	0	1.262927	0.4599909	3	5	0.0001	10
4271745	2162	4404	457	3.583456	-19.7224	2.626706	0	11	4003	-69	220	-25	0	1.262927	0.4360079	3	5	0.0001	10
4271856	607	-236	395	4.910436	-22.60555	1.843385	0	11	4004	43	5	-31	0	1.262927	0.37052	3	5	0.0001	10
4271930	70	-1944	-937	4.53345	-19.71297	1.732227	0	11	4002	-20	42	-22	0	1.262927	0.3539925	3	5	0.0001	10
4272032	-1176	120	-1059	4.40594	-19.94768	1.859222	0	11	4004	59	18	-30	0	1.262927	0.3307971	3	5	0.0001	10
4272142	-1092	-3469	-721	1.289281	-17.05456	2.668719	0	11	4003	28	-283	-29	0	1.262927	0.3199533	3	5	0.0001	10
4272248	-240	-4563	438	0.2273506	-11.7482	2.832831	0	11	4003	7	-74	-37	0	1.262927	0.32193	3	5	0.0001	10
4272354	645	-2373	709	0.01559323	-4.874636	1.754707	0	11	4003	6	-45	-9	0	1.262927	0.3305668	3	5	0.0001	10
4272412	-285	-4220	612	-0.2444239	-1.258406	1.120061	0	11.46	4003	-1	-78	11	0	1.262927	0.3305668	3	5	0.0001	10
4272572	5249	-5274	-4256	-0.1630675	-3.502069	2.198889	0	11.46	4003	-400	-400	-33	0	1.262927	0.3288716	3	5	0.0001	10
4272631	2596	-4354	-2032	1.244484	-0.9893245	3.985676	0	11.46	4002	-26	18	-117	0	1.262927	0.3248864	3	5	0.0001	10
4272774	1800	-604	1881	3.826602	2.663209	3.872235	0	11.46	4002	0	0	0	0	1.262927	0.3009177	3	5	0.0001	10
4272911	1157	-605	4476	-2.132693	-5.319532	-4.258529	0	11.46	4003	0	0	0	0	1.262927	0.2507885	3	5	0.0001	10
4272968	334	368	1354	-1.339205	-5.850475	-5.738914	0	11.46	4003	0	0	0	0	1.262927	0.2315065	3	5	0.0001	10
4273080	-87	-45	-5	-1.113828	-4.975742	-6.562964	0	11.46	4003	0	0	0	0	1.262927	0.1855737	1	5	0.0001	10
4273130	-24	12	16	-1.043472	-4.800611	-6.560702	0	11.46	4004	0	0	0	0	1.262927	0.1594552	1	5	0.0001	10
4273206	16	50	-50	-0.9370571	-4.179046	-6.56798	0	11.46	4004	0	0	0	0	1.262927	0.136747	1	5	0.0001	10
4273389	4	16	51	-0.7824449	-3.318063	-6.588277	0	11.74	4003	0	0	0	0	1.262927	0.1028709	1	5	0.0001	10
4273435	-32	9	-3	-0.7396186	-3.020687	-6.592067	0	11.74	4003	0	0	0	0	1.262927	0.08270009	1	5	0.0001	10
4273512	-24	-3	-16	-0.6783397	-2.754151	-6.598732	0	11.74	4002	0	0	0	0	1.262927	0.06460321	1	5	0.0001	10
4273620	-39	-9	8	-0.6223455	-2.401619	-6.607168	0	11.74	4004	0	0	0	0	1.262927	0.05495694	1	5	0.0001	10
4273777	-10	7	-21	-0.5283154	-1.800264	-6.625629	0	11.74	4004	0	0	0	0	1.262927	0.01299091	1	5	0.0001	10
4273836	-16	-7	23	-0.5152329	-1.7111	-6.631131	0	11.74	4002	0	0	0	0	1.262927	-0.000341751	1	5	0.0001	10
4273907	-43	10	14	-0.4676146	-1.486408	-6.641645	0	11.74	4002	0	0	0	0	1.262927	-0.008020316	1	5	0.0001	10
4274026	-28	-15	33	-0.4163674	-1.286908	-6.650693	0	11.74	4003	0	0	0	0	1.262927	-0.01696553	1	5	0.0001	10
4274110	-27	-12	1	-0.382602	-1.107176	-6.659435	0	11.74	4002	0	0	0	0	1.262927	-0.03108062	1	5	0.0001	10
4274209	-7	0	13	-0.3458696	-0.9547809	-6.667382	0	11.85	4003	0	0	0	0	1.262927	-0.03822498	1	5	0.0001	10
4274316	-7	-6	-3	-0.3103339	-0.8252271	-6.674291	0	11.85	4004	0	0	0	0	1.262927	-0.04347247	1	5	0.0001	10
4274473	-24	2	16	-0.2836124	-0.6802818	-6.691776	0	11.85	4004	0	0	0	0	1.262927	-0.0321468	1	5	0.0001	10
4274514	-26	-2	-2	-0.2751018	-0.6473914	-6.696057	0	11.85	4004	0	0	0	0	1.262927	-0.02890459	1	5	0.0001	10
4274617	-21	6	17	-0.2581625	-0.5512006	-6.70584	0	11.85	4004	0	0	0	0	1.262927	-0.03700864	1	5	0.0001	10
4274748	-12	4	-3	-0.2299897	-0.4475119	-6.716357	0	11.85	4004	0	0	0	0	1.262927	-0.05550064	1	5	0.0001	10
4274817	-17	-4	10	-0.2173652	-0.4042905	-6.722593	0	11.85	4003	0	0	0	0	1.262927	-0.06097198	1	5	0.0001	10
4274966	-17	1	0	-0.1882202	-0.3127645	-6.731888	0	11.85	4003	0	0	0	0	1.262927	-0.06825188	1	5	0.0001	10
4275077	-22	-5	4	-0.171974	-0.2464558	-6.740386	0	11.85	4003	0	0	0	0	1.262927	-0.07498396	1	5	0.0001	10
4275136	-14	4	1	-0.1687638	-0.2354718	-6.741487	0	11.91	4003	0	0	0	0	1.262927	-0.08129285	1	5	0.0001	10
4275239	-16	4	-1	-0.1493789	-0.1769234	-6.749434	0	11.91	4004	0	0	0	0	1.262927	-0.09149536	1	5	0.0001	10
4275339	-13	-6	9	-0.1350597	-0.146779	-6.75671	0	11.91	4003	0	0	0	0	1.262927	-0.09000828	1	5	0.0001	10
4275437	-18	-1	2	-0.1195979	-0.1165319	-6.760194	0	11.91	4004	0	0	0	0	1.262927	-0.08363095	1	5	0.0001	10
4275533	-5	-3	6	-0.1050128	-0.09131096	-6.768447	0	11.91	4003	0	0	0	0	1.262927	-0.07784186	1	5	0.0001	10
4275612	-20	4	2	-0.09349086	-0.07661622	-6.773094	0	11.91	4004	0	0	0	0	1.262927	-0.08222803	1	5	0.0001	10
4275777	-8	-1	-3	-0.09341533	-0.04403462	-6.781409	0	11.91	4002	0	0	0	0	1.262927	-0.1161048	1	5	0.0001	10
4275889	-14	0	0	-0.08251702	-0.02216375	-6.789172	0	11.91	4004	0	0	0	0	1.262927	-0.1394658	1	5	0.0001	10
4275975	-11	-1	3	-0.08380922	-0.01739821	-6.791312	0	11.91	4003	0	0	0	0	1.262927	-0.1487939	1	5	0.0001	10
4276039	-13	-5	9	-0.07623854	-0.0001827865	-6.798831	0	11.91	4002	0	0	0	0	1.262927	-0.1507082	1	5	0.0001	10
4276185	-19	0	3	-0.07460424	0.01156024	-6.806472	0	11.91	4003	0	0	0	0	1.262927	-0.1633095	1	5	0.0001	10
4276251	-11	3	2	-0.07038485	0.01721006	-6.810812	0	11.91	4003	0	0	0	0	1.262927	-0.1714524	1	5	0.0001	10
4276313	-9	1	2	-0.07282389	0.02123797	-6.814358	0	11.91	4004	0	0	0	0	1.262927	-0.173347	1	5	0.0001	10
4276396	-15	-11	1	-0.07019859	0.02658272	-6.816131	0	11.91	4002	0	0	0	0	1.262927	-0.172791	1	5	0.0001	10
4276583	-4	-2	1	-0.065249	0.03710945	-6.824383	0	11.91	4003	0	0	0	0	1.262927	-0.1873974	1	5	0.0001	10
4276616	-3	-1	9	-0.06282133	0.03976978	-6.828479	0	11.91	4003	0	0	0	0	1.262927	-0.1967647	1	5	0.0001	10
4276708	-19	2	2	-0.05428581	0.04558684	-6.831964	0	11.91	4002	0	0	0	0	1.262927	-0.2027039	1	5	0.0001	10
4276766	-15	0	5	-0.06221506	0.04675591	-6.835204	0	11.91	4004	0	0	0	0	1.262927	-0.2082714	1	5	0.0001	10
4276939	-19	3	1	-0.05241346	0.05417263	-6.840403	0	11.91	4002	0	0	0	0	1.262927	-0.2024733	1	5	0.0001	10
4277050	-14	0	2	-0.060045	0.05871014	-6.843336	0	11.91	4004	0	0	0	0	1.262927	-0.1993681	1	5	0.0001	10
4277093	-4	0	6	-0.06054572	0.06079083	-6.845964	0	11.91	4002	0	0	0	0	1.262927	-0.2048526	1	5	0.0001	10
4277195	-10	-3	7	-0.05289607	0.06512102	-6.851469	0	11.91	4004	0	0	0	0	1.262927	-0.2154937	1	5	0.0001	10
4277315	-8	4	2	-0.05844581	0.06535944	-6.855137	0	11.91	4003	0	0	0	0	1.262927	-0.2108667	1	5	0.0001	10
4277365	-12	3	5	-0.06256298	0.06778742	-6.859966	0	11.91	4002	0	0	0	0	1.262927	-0.208337	1	5	0.0001	10
4277476	-21	-2	0	-0.05610546	0.0707153	-6.863205	0	11.91	4003	0	0	0	0	1.262927	-0.2048295	1	5	0.0001	10
4277589	-16	0	1	-0.0471177	0.07125202	-6.869257	0	11.91	4004	0	0	0	0	1.262927	-0.2051943	1	5	0.0001	10
4277658	-13	-1	7	-0.03963792	0.07252937	-6.871275	0	11.91	4004	0	0	0	0	1.262927	-0.2086271	1	5	0.0001	10
4277779	-3	-1	4	-0.03344369	0.07206191	-6.875188	0	11.91	4003	0	0	0	0	1.262927	-0.2098086	1	5	0.0001	10
4277849	-3	0	3	-0.02989729	0.07592166	-6.879591	0	11.97	4002	0	0	0	0	1.262927	-0.2069644	1	5	0.0001	10
4278042	-8	-1	1	-0.03521506	0.07481673	-6.885947	0	11.97	4003	0	0	0	0	1.262927	-0.2009946	1	5	0.0001	10
4278107	-16	0	0	-0.03877635	0.07456472	-6.88662	0	11.97	4003	0	0	0	0	1.262927	-0.1996625	1	5	0.0001	10
4278220	-10	3	0	-0.03102422	0.08032848	-6.894261	0	11.97	4003	0	0	0	0	1.262927	-0.2041633	1	5	0.0001	10
4278300	-17	-2	2	-0.02634592	0.08079241	-6.895973	0	11.97	4004	0	0	0	0	1.262927	-0.2043839	1	5	0.0001	10
4278373	-4	-4	1	-0.02090897	0.07863624	-6.899825	0	11.97	4003	0	0	0	0	1.262927	-0.1969633	1	5	0.0001	10
4278448	-7	-1	1	-0.0209579	0.07973165	-6.902943	0	11.97	4003	0	0	0	0	1.262927	-0.1903441	1	5	0.0001	10
4278584	-8	0	3	-0.01521005	0.08053051	-6.907527	0	11.97	4004	0	0	0	0	1.262927	-0.1842238	1	5	0.0001	10
4278655	-1	0	0	-0.01229568	0.08158128	-6.910339	0	11.97	4004	0	0	0	0	1.262927	-0.1790872	1	5	0.0001	10
4278736	-11	-3	0	-0.008845945	0.08095427	-6.915659	0	11.97	4002	0	0	0	0	1.262927	-0.1593618	1	5	0.0001	10
4278840	-12	-1	2	-0.005048952	0.0755806	-6.920549	0	11.97	4004	0	0	0	0	1.262927	-0.1446366	1	5	0.0001	10
4279016	-13	-4	0	0.003521816	0.0756764	-6.927031	0	11.97	4002	0	0	0	0	1.262927	-0.1368156	1	5	0.0001	10
4279049	-23	0	5	0.004049299	0.07398394	-6.928803	0	11.97	4004	0	0	0	0	1.262927	-0.1368156	1	5	0.0001	10
4279133	-5	3	0	0.003556024	0.07294263	-6.932411	0	11.97	4003	0	0	0	0	1.262927	-0.1295098	1	5	0.0001	10
4279264	-5	1	-5	0.008851112	0.06402177	-6.936568	0	11.97	4004	0	0	0	0	1.262927	-0.1236357	1	5	0.0001	10
4279335	-12	-1	3	0.009551813	0.06434455	-6.940236	0	11.97	4003	0	0	0	0	1.262927	-0.1284499	1	5	0.0001	10
4279474	0	-4	2	0.00344088	0.06680893	-6.945127	0	11.97	4003	0	0	0	0	1.262927	-0.1388887	1	5	0.0001	10
4279563	-16	0	2	0.004829891	0.0688424	-6.9491	0	11.97	4003	0	0	0	0	1.262927	-0.1406206	1	5	0.0001	10
4279643	-10	0	4	0.00503569	0.06740893	-6.951485	0	11.97	4003	0	0	0	0	1.262927	-0.1445738	1	5	0.0001	10
4279786	-9	5	5	0.01018864	0.06890524	-6.956805	0	11.97	4003	0	0	0	0	1.262927	-0.1517243	1	5	0.0001	10
4279844	-5	0	3	0.01336647	0.06702141	-6.96078	0	11.97	4002	0	0	0	0	1.262927	-0.1638666	1	5	0.0001	10
4279963	-5	2	0	0.009840541	0.05985281	-6.965914	0	11.97	4003	0	0	0	0	1.262927	-0.1834815	1	5	0.0001	10
4280067	-7	1	2	0.01279785	0.0574985	-6.968052	0	11.97	4002	0	0	0	0	1.262927	-0.1987232	1	5	0.0001	10
4280199	-17	4	0	0.009316493	0.05885795	-6.974594	0	11.97	4004	0	0	0	0	1.262927	-0.2161494	1	5	0.0001	10
4280251	-12	-3	8	0.003760929	0.06029181	-6.977162	0	11.97	4004	0	0	0	0	1.262927	-0.2191589	1	5	0.0001	10
4280406	0	3	-2	0.005271664	0.1061801	-6.974651	0	11.97	4004	0	0	0	0	1.262927	-0.2316336	1	5	0.0001	10
4280601	-35	-53	-16	0.009235644	0.07038838	-6.973309	0	11.97	4003	0	0	0	0	1.262927	-0.2355796	1	5	0.0001	10
4280693	25	45	-24	0.01561662	0.1224737	-6.952888	0	11.97	4004	0	0	0	0	1.262927	-0.2342541	1	5	0.0001	10
4280754	-94	209	-588	0.2626327	0.01707961	-6.730968	0	11.97	4003	0	0	0	0	1.262927	-0.229979	1	5	0.0001	10
4280891	-56	-42	60	0.02046427	0.05489012	-6.77737	0	11.97	4003	0	0	0	0	1.262927	-0.2282082	1	5	0.0001	10
4280956	11	27	0	0.021193	0.02930939	-6.769177	0	11.97	4002	0	0	0	0	1.262927	-0.230754	1	5	0.0001	10
