time(ms)	gyro_x(deg/s)	gyro_y(deg/s)	gyro_z(deg/s)	orientation_roll(deg)	orientation_pitch(deg)	orientation_yaw(deg)	throttle	battery(V)	loop_time(uS)	pid_output_roll	pid_output_pitch	pid_output_yaw	pid_output_throttle	ultrasonic_alt	baro_alt	flight_mode	p_gain_altitude	i_gain_altitude	d_gain_altitude
4310919	31	1	-9	0.469015	-0.05627882	1.557303	0	12.08	4003	0	0	0	0	0.02	0.2022973	1	2	0	10
4310949	40	-1	-5	0.4697694	-0.06116714	1.560972	0	12.08	4004	0	0	0	0	0.02	0.2031018	1	2	0	10
4311059	31	-3	-8	0.4698073	-0.06311629	1.577051	0	12.08	4003	0	0	0	0	0.02	0.2014513	1	2	0	10
4311172	37	-7	-11	0.4788562	-0.06395326	1.590991	0	12.08	4004	0	0	0	0	0.02	0.1924649	1	2	0	10
4311339	37	4	-10	0.4900601	-0.06575849	1.615692	0	12.08	4004	0	0	0	0	0.02	0.1676894	1	2	0	10
4311403	40	0	-15	0.4923505	-0.06147182	1.62633	0	12.08	4003	0	0	0	0	0.02	0.1650428	1	2	0	10
4311483	35	4	-13	0.4893178	-0.06890486	1.642716	0	12.08	4004	0	0	0	0	0.02	0.1557408	1	2	0	10
4311571	39	-2	-10	0.4892133	-0.06882949	1.659774	0	12.08	4003	0	0	0	0	0.02	0.1523429	1	2	0	10
4311694	42	0	-8	0.4903607	-0.07603114	1.674936	0	12.08	4003	0	0	0	0	0.02	0.1599433	1	2	0	10
4311773	36	0	-11	0.4922837	-0.07399854	1.679826	0	12.08	4002	0	0	0	0	0.02	0.1598827	1	2	0	10
4311867	36	1	-9	0.504941	-0.07802036	1.701715	0	12.08	4004	0	0	0	0	0.02	0.1628391	1	2	0	10
4311976	31	0	-11	0.511023	-0.07609478	1.721217	0	11.97	4003	0	0	0	0	0.02	0.1648962	1	2	0	10
4312053	28	-1	-6	0.5090793	-0.0700661	1.731304	0	11.97	4002	0	0	0	0	0.02	0.1694353	1	2	0	10
4312191	43	2	-8	0.5217094	-0.06619016	1.750807	0	11.97	4004	0	0	0	0	0.02	0.164048	1	2	0	10
4312250	37	5	-9	0.5218556	-0.06968775	1.761079	0	11.97	4002	0	0	0	0	0.02	0.1589345	1	2	0	10
4312373	37	0	-10	0.5170951	-0.06690691	1.774528	0	11.97	4002	0	0	0	0	0.02	0.1488217	1	2	0	10
4312457	35	-4	-14	0.5189797	-0.0717356	1.789201	0	11.97	4003	0	0	0	0	0.02	0.1462926	1	2	0	10
4312580	37	3	-13	0.510502	-0.06945462	1.81329	0	11.97	4003	0	0	0	0	0.02	0.1372326	1	2	0	10
4312679	49	-4	-7	0.5177017	-0.06419986	1.82937	0	11.97	4003	0	0	0	0	0.02	0.1352525	1	2	0	10
4312754	42	-5	-7	0.5224077	-0.06200792	1.839091	0	11.97	4003	0	0	0	0	0.02	0.1328198	1	2	0	10
4312871	51	0	-9	0.5261663	-0.0590677	1.851624	0	11.97	4002	0	0	0	0	0.02	0.1298232	1	2	0	10
4312964	49	3	-11	0.5304639	-0.0609139	1.86587	0	12.08	4003	0	0	0	0	0.02	0.1257502	1	2	0	10
4313077	42	4	-11	0.5310667	-0.05812918	1.885435	0	12.08	4004	0	0	0	0	0.02	0.123747	1	2	0	10
4313162	45	-7	-12	0.5298227	-0.06062765	1.894423	0	12.08	4002	0	0	0	0	0.02	0.1286566	1	2	0	10
4313302	35	-3	-10	0.5269837	-0.06200282	1.913069	0	12.08	4002	0	0	0	0	0.02	0.1355813	1	2	0	10
4313369	41	0	-5	0.5259147	-0.06383933	1.921567	0	12.08	4004	0	0	0	0	0.02	0.1409262	1	2	0	10
4313485	43	0	-11	0.5356976	-0.06974747	1.940704	0	12.08	4003	0	0	0	0	0.02	0.154528	1	2	0	10
4313577	48	-2	-7	0.5397452	-0.06537405	1.95067	0	12.08	4003	0	0	0	0	0.02	0.1553029	1	2	0	10
4313681	38	2	-9	0.5368863	-0.06388899	1.963876	0	12.08	4004	0	0	0	0	0.02	0.1588795	1	2	0	10
4313830	47	0	-9	0.5368886	-0.06108149	1.988698	0	12.08	4004	0	0	0	0	0.02	0.1629747	1	2	0	10
4313968	40	-2	-6	0.5407912	-0.05121045	2.011565	0	12.08	4003	0	0	0	0	0.02	0.1804547	1	2	0	10
4314051	43	-4	-8	0.5405729	-0.05309523	2.0252	0	12.08	4004	0	0	0	0	0.02	0.1853502	1	2	0	10
4314128	47	5	-10	0.5383662	-0.05308311	2.035472	0	12.08	4003	0	0	0	0	0.02	0.1837011	1	2	0	10
4314196	46	0	-13	0.5442184	-0.0569806	2.04611	0	12.08	4002	0	0	0	0	0.02	0.1821825	1	2	0	10
4314254	50	4	-11	0.5485266	-0.05717615	2.056995	0	12.08	4004	0	0	0	0	0.02	0.1821389	1	2	0	10
4314341	41	0	-4	0.5483556	-0.05965697	2.065616	0	12.08	4004	0	0	0	0	0.02	0.1871349	1	2	0	10
4314466	47	2	-16	0.5450616	-0.06097608	2.085976	0	12.08	4003	0	0	0	0	0.02	0.1978004	1	2	0	10
4314550	45	0	-9	0.5414962	-0.0682807	2.09478	0	12.08	4002	0	0	0	0	0.02	0.2047458	1	2	0	10
4314737	40	-1	-13	0.5423819	-0.06054472	2.122966	0	12.02	4002	0	0	0	0	0.02	0.197969	1	2	0	10
4314782	52	1	-10	0.5443829	-0.06573982	2.134583	0	12.02	4002	0	0	0	0	0.02	0.1975069	1	2	0	10
4314946	49	0	-11	0.5563416	-0.06404994	2.159894	0	12.02	4003	0	0	0	0	0.02	0.1948547	1	2	0	10
4315026	45	-4	-12	0.5605466	-0.06551967	2.172734	0	12.02	4003	0	0	0	0	0.02	0.1908777	1	2	0	10
4315076	47	-4	-12	0.5651794	-0.06145681	2.185207	0	12.02	4004	0	0	0	0	0.02	0.1900135	1	2	0	10
4315191	49	0	-9	0.5716664	-0.06432436	2.201044	0	12.02	4002	0	0	0	0	0.02	0.1875627	1	2	0	10
4315277	44	-1	-11	0.5693234	-0.06975907	2.217612	0	12.02	4002	0	0	0	0	0.02	0.1889839	1	2	0	10
4315383	55	-2	-8	0.5797763	-0.06962901	2.231858	0	12.02	4004	0	0	0	0	0.02	0.1868898	1	2	0	10
4315455	45	-4	-6	0.5816011	-0.06918615	2.236626	0	12.02	4004	0	0	0	0	0.02	0.185921	1	2	0	10
4315605	45	-5	-12	0.5874146	-0.06915876	2.261939	0	12.02	4003	0	0	0	0	0.02	0.1701229	1	2	0	10
4315714	43	2	-7	0.5917488	-0.06999736	2.279181	0	12.08	4004	0	0	0	0	0.02	0.1638965	1	2	0	10
4315748	44	-3	-8	0.5897918	-0.07053848	2.286763	0	12.08	4003	0	0	0	0	0.02	0.1619726	1	2	0	10
4315852	55	-4	-9	0.5876372	-0.07665863	2.303025	0	12.08	4002	0	0	0	0	0.02	0.1606652	1	2	0	10
4315973	52	-4	-9	0.5894416	-0.0726224	2.319227	0	12.08	4004	0	0	0	0	0.02	0.1586004	1	2	0	10
4316048	40	4	-8	0.5918603	-0.06850795	2.335368	0	12.08	4003	0	0	0	0	0.02	0.1600972	1	2	0	10
4316224	50	-6	1	0.5911168	-0.07171952	2.366243	0	12.08	4004	0	0	0	0	0.02	0.1719556	1	2	0	10
4316297	45	2	-2	0.5976221	-0.07730907	2.375597	0	12.08	4003	0	0	0	0	0.02	0.1747817	1	2	0	10
4316371	55	0	-8	0.598582	-0.07461945	2.386602	0	12.08	4002	0	0	0	0	0.02	0.1800498	1	2	0	10
4316473	50	-6	-12	0.5967886	-0.071555	2.402376	0	12.08	4003	0	0	0	0	0.02	0.1876246	1	2	0	10
4316600	53	7	-7	0.5936256	-0.07037885	2.422368	0	11.97	4002	0	0	0	0	0.02	0.194061	1	2	0	10
4316772	40	-1	-10	0.6047606	-0.05849778	2.448231	0	11.97	4004	0	0	0	0	0.02	0.2063406	1	2	0	10
4316874	49	-2	-11	0.5983395	-0.05739582	2.464554	0	11.97	4003	0	0	0	0	0.02	0.2079309	1	2	0	10
4316970	45	3	-8	0.5988563	-0.05908703	2.481246	0	11.97	4003	0	0	0	0	0.02	0.208244	1	2	0	10
4317101	43	-5	-8	0.602949	-0.05866401	2.498059	0	11.97	4004	0	0	0	0	0.02	0.1943417	1	2	0	10
4317305	52	-3	-9	0.6206793	-0.07147267	2.532664	0	11.97	4004	0	0	0	0	0.02	0.1734335	1	2	0	10
4317371	47	2	-9	0.6197037	-0.07652466	2.543119	0	11.97	4003	0	0	0	0	0.02	0.1741389	1	2	0	10
4317562	43	1	-5	0.629995	-0.07190906	2.576502	0	12.08	4004	0	0	0	0	0.02	0.1853003	1	2	0	10
4317600	38	0	-11	0.6254178	-0.06871933	2.582309	0	12.08	4002	0	0	0	0	0.02	0.1873696	1	2	0	10
4317661	42	-5	-9	0.6242813	-0.07146569	2.594537	0	12.08	4004	0	0	0	0	0.02	0.1924168	1	2	0	10
4317765	58	-2	-7	0.6257281	-0.06308501	2.613002	0	12.08	4002	0	0	0	0	0.02	0.2002756	1	2	0	10
4317869	49	-2	-6	0.6274686	-0.06352816	2.626697	0	12.08	4003	0	0	0	0	0.02	0.2126298	1	2	0	10
4318037	54	0	-12	0.6227026	-0.06748213	2.653905	0	12.08	4003	0	0	0	0	0.02	0.2237126	1	2	0	10
4318149	53	2	-11	0.6219666	-0.07640484	2.670657	0	12.08	4003	0	0	0	0	0.02	0.2343915	1	2	0	10
4318272	47	-4	-10	0.6258274	-0.06868225	2.691566	0	12.08	4003	0	0	0	0	0.02	0.2536862	1	2	0	10
4318346	55	3	-10	0.6220058	-0.0737711	2.703305	0	12.08	4003	0	0	0	0	0.02	0.2585223	1	2	0	10
4318432	42	3	-8	0.6270872	-0.07282992	2.719935	0	12.02	4002	0	0	0	0	0.02	0.2569893	1	2	0	10
4318495	58	7	-10	0.6268509	-0.07505745	2.730148	0	12.02	4004	0	0	0	0	0.02	0.258611	1	2	0	10
4318666	49	-7	-14	0.6369244	-0.0688104	2.761758	0	12.02	4003	0	0	0	0	0.02	0.27806	1	2	0	10
4318773	34	4	-10	0.6342015	-0.07725007	2.779855	0	12.02	4004	0	0	0	0	0.02	0.2789222	1	2	0	10
4318924	53	1	-7	0.6493437	-0.08315673	2.801683	0	12.02	4002	0	0	0	0	0.02	0.2857078	1	2	0	10
4318945	53	1	-7	0.6493437	-0.08315673	2.801683	0	12.02	4002	0	0	0	0	0.02	0.2887211	1	2	0	10
4319074	40	-6	-10	0.6457611	-0.07925418	2.822226	0	12.02	4003	0	0	0	0	0.02	0.2869495	1	2	0	10
4319172	46	-2	-8	0.641886	-0.07229393	2.83592	0	12.02	4002	0	0	0	0	0.02	0.2823849	1	2	0	10
4319246	49	2	-6	0.6398553	-0.0742713	2.846068	0	12.02	4003	0	0	0	0	0.02	0.2833484	1	2	0	10
4319353	53	0	-14	0.641496	-0.07711193	2.861721	0	12.08	4003	0	0	0	0	0.02	0.2886676	1	2	0	10
4319494	52	-2	-6	0.6740887	-0.07914829	2.884267	0	12.08	4004	0	0	0	0	0.02	0.3060486	1	2	0	10
4319569	51	-7	-11	0.6684432	-0.07243503	2.894477	0	12.08	4002	0	0	0	0	0.02	0.3179187	1	2	0	10
4319691	47	-1	-10	0.6657536	-0.0723416	2.909212	0	12.08	4004	0	0	0	0	0.02	0.3267099	1	2	0	10
4319829	49	1	-10	0.6872495	-0.07216522	2.933329	0	12.08	4003	0	0	0	0	0.02	0.3445933	1	20	0	0
4319899	53	2	-5	0.6868409	-0.07044006	2.948614	0	12.08	4004	0	0	0	0	0.02	0.3516702	1	20	0	0
4320078	47	5	-10	0.6900015	-0.06936311	2.974355	0	12.08	4004	0	0	0	0	0.02	0.3607467	1	20	0	0
4320222	53	2	-11	0.6852214	-0.07161991	2.996854	0	12.08	4004	0	0	0	0	0.02	0.3636339	1	20	0	0
4320352	37	5	-9	0.6836699	-0.07586484	3.01587	0	12.08	4003	0	0	0	0	0.02	0.3563891	1	20	0	0
4320402	61	-4	-5	0.6779733	-0.07208814	3.02663	0	12.08	4004	0	0	0	0	0.02	0.3536835	1	20	0	0
4320478	47	3	-10	0.677097	-0.07655996	3.037085	0	12.08	4004	0	0	0	0	0.02	0.3540293	1	20	0	0
4320539	54	0	-11	0.6772866	-0.08124779	3.046317	0	12.08	4002	0	0	0	0	0.02	0.355871	1	20	0	0
4320653	54	5	-10	0.6814166	-0.07864348	3.061234	0	12.08	4004	0	0	0	0	0.02	0.3525651	1	20	0	0
4320759	44	0	-15	0.6827637	-0.08243033	3.078293	0	12.08	4004	0	0	0	0	0.02	0.3464765	1	20	0	0
4320916	52	-2	-11	0.6834013	-0.08665643	3.106661	0	12.08	4002	0	0	0	0	0.02	0.3373227	1	20	0	0
4321002	43	-6	-8	0.6896707	-0.0811921	3.117666	0	12.08	4003	0	0	0	0	0.02	0.3284458	1	20	0	0
4321096	55	-7	-10	0.6974384	-0.08607475	3.133991	0	12.08	4004	0	0	0	0	0.02	0.3254821	1	20	0	0
4321158	37	2	-8	0.6991072	-0.08216317	3.151293	0	12.08	4003	0	0	0	0	0.02	0.3243203	1	20	0	0
4321346	55	0	-8	0.6942893	-0.07455357	3.180762	0	12.08	4002	0	0	0	0	0.02	0.3245375	1	20	0	0
4321367	51	-5	-10	0.694444	-0.07362053	3.185837	0	12.08	4003	0	0	0	0	0.02	0.3245392	1	20	0	0
4321459	57	5	-8	0.7009189	-0.07288873	3.202956	0	12.08	4002	0	0	0	0	0.02	0.3278289	1	20	0	0
4321571	52	3	-8	0.7123129	-0.07591455	3.219951	0	12.08	4004	0	0	0	0	0.02	0.3429715	1	20	0	0
4321710	38	-1	-9	0.709426	-0.07722271	3.242206	0	12.08	4002	0	0	0	0	0.02	0.3471381	3	20	0	0
4321822	49	-1	-10	0.7120481	-0.08399185	3.259081	0	12.08	4003	0	0	0	0	0.02	0.3453536	3	20	0	0
4321890	59	-3	-13	0.711033	-0.08488679	3.272165	0	12.08	4004	0	0	0	0	0.02	0.345543	3	20	0	0
4322002	51	-3	-7	0.7196882	-0.07759223	3.288796	0	12.08	4004	0	0	0	0	0.02	0.3396016	3	20	0	0
4322100	64	0	-9	0.7145851	-0.07751047	3.312946	0	12.02	4003	0	0	0	0	0.02	0.3372127	3	20	0	0
4322227	55	0	-14	0.7257951	-0.0848279	3.335751	0	12.02	4004	0	0	0	0	0.02	0.3249667	3	20	0	0
4322333	54	-5	-9	0.7206318	-0.09147137	3.353726	0	12.02	4002	0	0	0	0	0.02	0.3136555	3	20	0	0
4322440	56	-4	-12	0.7238286	-0.09822445	3.370906	0	12.02	4002	-3	0	0	0	0.02	0.2854128	3	20	0	0
4322461	60	-1	-13	0.7263396	-0.0992441	3.376899	0	12.02	4002	-3	0	0	0	0.02	0.2854128	3	20	0	0
4322647	113	-9	-27	0.7237591	-0.1028953	3.408924	0	12.02	4003	-9	2	-1	0	0.02	0.2673727	3	20	0	0
4322687	-3	22	-104	0.725225	-0.1098913	3.433621	0	12.02	4003	-10	6	-1	0	0.02	0.2664476	3	20	0	0
4322763	19	-37	138	0.7249354	-0.1293011	3.434966	0	12.02	4004	-20	-5	-1	0	0.02	0.266329	3	20	0	0
4322860	103	4	2	0.7293779	-0.1234776	3.462716	0	12.02	4004	1	-3	-2	0	0.02	0.2753217	3	20	0	0
4322977	173	-11	57	0.7320627	-0.1406927	3.473351	0	12.02	4003	2	0	-4	0	0.02	0.2805559	3	20	0	0
4323176	138	45	-39	0.6964025	-0.1048315	3.531186	0	12.02	4003	-29	10	-5	0	0.02	0.2948473	3	20	0	0
4323207	90	60	-10	0.700147	-0.118336	3.529105	0	12.02	4003	-15	12	-4	0	0.02	0.3024399	3	20	0	0
4323273	-17	77	16	0.7266948	-0.1355955	3.539016	0	12.02	4004	-33	18	-5	0	0.02	0.3078492	3	20	0	0
4323393	30	46	-95	0.735058	-0.1496825	3.561339	0	12.02	4004	-26	2	-5	0	0.02	0.3276619	3	20	0	0
4323469	29	-86	-35	0.7005895	-0.1382813	3.584694	0	12.02	4002	-21	14	-6	0	0.02	0.3400462	3	20	0	0
4323575	294	33	56	0.6911713	-0.1239355	3.60181	0	12.02	4004	-11	0	-6	0	0.02	0.3545588	3	20	0	0
4323665	260	131	-239	0.686428	-0.09118861	3.60481	0	12.02	4003	-55	-25	-4	0	0.02	0.3676416	3	20	0	0
4323843	-38	-628	211	0.7567462	0.02074549	3.560553	0	12.02	4004	72	-127	-7	0	0.02	0.38856	3	20	0	0
4323876	-38	-628	211	0.7567462	0.02074549	3.560553	0	12.02	4004	-42	-209	-7	0	0.02	0.3946826	3	20	0	0
4324062	-1395	1517	338	-1.529007	-8.532872	2.028119	0	10.55	4003	-4	-183	47	0	0.02	0.4324341	3	20	0	0
4324109	480	2116	-113	-1.477492	-10.51616	1.805397	0	10.55	4003	-55	109	37	0	0.02	0.4552076	3	20	0	0
4324222	172	-1055	-717	-1.158718	-10.83396	2.912504	0	10.55	4003	-93	-123	3	0	0.02	0.4888979	3	20	0	0
4324286	-534	-3966	-822	-1.085283	-7.953625	3.604449	0	10.55	4002	68	-89	-15	0	0.02	0.5165898	3	20	0	0
4324378	-536	-1495	1613	-2.110616	-2.088277	3.586701	0	10.55	4002	0	24	13	0	0.02	0.5545865	3	20	0	0
4324557	-726	1318	1515	-1.553159	-2.22063	2.562426	0	10.55	4003	35	330	40	0	0.02	0.6335669	3	20	0	0
4324612	1537	1494	1371	-0.677672	-3.725843	2.09663	0	10.55	4003	41	247	44	0	0.02	0.6706462	3	20	0	0
4324717	2356	-103	531	4.116982	-4.367009	2.79652	0	10.55	4004	-21	55	-10	0	0.02	0.7103362	3	20	0	0
4324786	-1499	-2217	-1032	3.920832	-1.616722	4.252173	0	10.55	4002	83	-269	-45	0	0.02	0.7877884	3	20	0	0
4324967	1963	1770	1070	4.183202	-5.29123	3.340528	0	10.94	4004	-61	10	16	0	0.02	0.8798538	3	20	0	0
4325030	1963	1770	1070	4.183202	-5.29123	3.340528	0	10.94	4004	-30	-5	21	0	0.02	0.8905806	3	20	0	0
4325095	1493	-111	34	5.627419	-6.26136	2.858042	0	10.94	4003	-52	-123	9	0	0.02	0.9411618	3	20	0	0
4325206	912	3267	850	6.490777	-8.76129	3.10517	0	10.94	4003	-268	182	14	0	0.02	0.9709973	3	20	0	0
4325281	-616	-1600	-370	6.312659	-9.494392	3.672837	0	10.94	4004	38	-10	-10	0	0.02	1.000859	3	20	0	0
4325400	-178	486	1450	3.280918	-5.520351	3.742935	0	10.94	4004	-28	149	3	0	0.02	1.053275	3	20	0	0
4325481	-139	1672	50	2.165737	-7.884255	3.383726	0	10.94	4003	62	-186	-16	0	0.02	1.081195	3	20	0	0
4325621	-757	-492	-748	0.372187	-8.537026	3.370872	0	10.94	4004	81	19	-7	0	0.02	1.13514	3	20	0	0
4325703	-757	-492	-748	0.372187	-8.537026	3.370872	0	10.94	4004	68	-69	-22	0	0.02	1.162866	3	20	0	0
4325872	-5	-357	-88	0.8464491	-13.22585	4.377294	0	11.57	4003	-134	248	-19	0	0.02	1.198341	3	20	0	0
4325926	-167	-2424	-192	0.6737252	-11.94188	4.157702	0	11.57	4003	4	-109	-23	0	0.02	1.228685	3	20	0	0
4326006	131	-2724	-445	0.9643668	-11.05187	3.954088	0	11.57	4004	-13	-236	1	0	0.02	1.241803	3	20	0	0
4326107	-271	-2180	-152	2.876531	-7.271336	3.284196	0	11.57	4004	54	-205	-3	0	0.02	1.258825	3	20	0	0
4326218	-998	-865	-522	1.106492	-6.581383	3.184122	0	11.57	4004	80	125	1	0	0.02	1.295583	3	20	0	0
4326281	313	-180	185	0.6800386	-6.52944	3.221586	0	11.57	4003	-138	5	8	0	0.02	1.305999	3	20	0	0
4326383	-1485	-1316	185	0.5200956	-6.08027	3.515807	0	11.57	4002	-2	152	-1	0	0.02	1.314449	3	20	0	0
4326547	-188	-2375	-484	-1.439432	-4.130473	3.266166	0	11.57	4004	102	204	23	0	0.02	1.323094	3	20	0	0
4326596	-715	116	1540	-1.934367	-3.828212	2.256235	0	11.57	4002	-17	-183	27	0	0.02	1.32512	3	20	0	0
4326706	-642	-2223	-1917	-3.213918	-3.28705	2.413553	0	11.11	4004	-9	-175	22	0	0.02	1.315511	3	20	0	0
4326841	232	1186	658	-1.474663	-1.876942	3.374993	0	11.11	4003	-88	-177	5	0	0.02	1.280868	3	20	0	0
4326895	-441	911	652	-0.9445504	-3.131278	3.349115	0	11.11	4004	-121	114	18	0	0.02	1.257952	3	20	0	0
4326994	262	-643	-1522	-0.4933072	-3.607782	3.804532	0	11.11	4002	36	-325	-28	0	0.02	1.238669	3	20	0	0
4327093	-715	883	-1387	-2.227154	-5.886719	3.185229	0	11.11	4003	-25	-239	-16	0	0.02	1.217794	3	20	0	0
4327188	1273	1633	780	-0.5968384	-7.876172	2.820063	0	11.11	4003	97	49	11	0	0.02	1.183405	3	20	0	0
4327276	-947	1934	63	-0.05352238	-9.417598	3.008073	0	11.11	4004	127	61	0	0	0.02	1.157062	3	20	0	0
4327415	915	1674	-7	-0.05848771	-10.67087	3.505711	0	11.11	4006	-20	-133	7	0	0.02	1.102993	3	20	0	0
4327486	-248	1866	1895	0.3400699	-10.79357	3.372881	0	11.11	4002	-120	-236	-2	0	0.02	1.092377	3	20	0	0
4327579	-1425	-14	-735	-0.05453734	-11.06069	3.097043	0	11.11	4004	151	42	22	0	0.02	1.038047	3	20	0	0
4327705	-26	203	258	-1.881433	-13.88853	1.883381	0	11.63	4002	48	24	16	0	0.02	1.005522	3	20	0	0
4327799	-1763	-2361	-667	-2.198008	-10.0105	2.60232	0	11.63	4004	-95	-195	21	0	0.02	0.9604938	3	20	0	0
4327917	-323	229	-172	-0.168082	-7.235293	3.747058	0	11.63	4004	94	100	-4	0	0.02	0.9347806	3	20	0	0
4328009	429	-187	-1455	-1.59105	-7.876908	3.666849	0	11.63	4002	59	-266	-27	0	0.02	0.9271095	3	20	0	0
4328073	1058	-565	-609	-1.27384	-8.349875	3.738558	0	11.63	4003	53	-267	-10	0	0.02	0.9157293	3	20	0	0
4328239	1916	1196	247	3.54686	-10.34939	3.861783	0	11.63	4004	69	-59	-31	0	0.02	0.887738	3	20	0	0
4328336	2121	-679	-1642	4.3247	-10.69626	4.605549	0	11.63	4002	-23	-301	-45	0	0.02	0.8757824	3	20	0	0
4328375	1961	97	514	5.178651	-10.20593	4.666726	0	11.63	4002	-87	91	-20	0	0.02	0.8711581	3	20	0	0
4328492	221	2989	1967	6.694489	-10.36242	3.762532	0	11.46	4002	-87	-268	-14	0	0.02	0.8644302	3	20	0	0
4328567	-250	1398	2354	6.635011	-11.02669	2.664508	0	11.46	4004	19	-167	57	0	0.02	0.8609769	3	20	0	0
4328665	1018	-2835	-1493	4.766608	-7.1782	1.686853	0	11.46	4002	-97	-68	48	0	0.02	0.8615188	3	20	0	0
4328752	-600	-1958	-2032	4.872846	-4.74827	2.665045	0	11.46	4003	-8	190	2	0	0.02	0.8626791	3	20	0	0
4328863	-2312	-362	118	1.896272	-3.610127	3.497478	0	11.46	4002	72	46	1	0	0.02	0.8544029	3	20	0	0
4329028	-869	-1894	-464	-2.014082	-2.925407	3.201483	0	11.46	4003	-34	-83	-3	0	0.02	0.8526879	3	20	0	0
4329078	-746	375	-2	-2.848915	-3.053421	3.301877	0	11.46	4004	23	199	8	0	0.02	0.8565952	3	20	0	0
4329196	-208	1311	-563	-2.052459	-5.526739	2.735447	0	11.46	4002	80	-63	2	0	0.02	0.8559483	3	20	0	0
4329266	-356	317	-466	-2.267396	-7.268391	2.371297	0	11.46	4004	37	-151	18	0	0.02	0.8620247	3	20	0	0
4329430	-116	359	-1026	-1.34263	-8.214278	2.557556	0	11.17	4002	-26	-120	-6	0	0.02	0.877443	3	20	0	0
4329581	105	-2117	-995	-0.8201787	-6.750621	3.492901	0	11.17	4003	28	-282	-15	0	0.02	0.8651081	3	20	0	0
4329669	-255	251	-552	-1.129846	-6.581686	3.096679	0	11.17	4002	30	92	8	0	0.02	0.8457233	3	20	0	0
4329839	972	-562	-727	-1.166233	-6.848957	2.438769	0	11.17	4002	-76	-343	12	0	0.02	0.8455554	3	20	0	0
4329911	-778	-751	-1365	-0.09225978	-8.290237	3.347009	0	11.17	4004	68	-16	-14	0	0.02	0.8413245	3	20	0	0
4329957	-220	-3216	152	-0.7622852	-6.063465	3.546759	0	11.17	4004	10	-274	-3	0	0.02	0.8417994	3	20	0	0
4330055	-297	-2065	-183	-1.840386	-4.139933	3.190288	0	11.17	4003	46	-137	-15	0	0.02	0.8541089	3	20	0	0
4330126	-120	-1565	-984	-1.982279	-3.51119	3.120358	0	11.17	4002	28	-119	4	0	0.02	0.8611037	3	20	0	0
4330253	-549	-1490	946	-2.279875	-2.638281	2.585542	0	11.23	4002	85	70	16	0	0.02	0.8875698	3	20	0	0
4330377	-302	-162	365	-1.163088	-1.126723	2.854279	0	11.23	4004	-58	107	29	0	0.02	0.9056929	3	20	0	0
4330454	194	-506	-1510	-0.6655972	-2.557478	2.950766	0	11.23	4004	60	-272	5	0	0.02	0.9561843	3	20	0	0
4330518	207	335	461	-1.185859	-3.000878	3.076881	0	11.23	4004	-61	198	9	31	0.02	0.9785665	3	20	0	0
4330617	1166	246	-914	0.2068385	-3.365186	3.710827	0	11.23	4002	-28	-180	-14	25	0.2109931	0.9963467	4	20	0	0
4330718	-557	-1303	-1015	0.04179573	-4.428282	3.458291	0	11.23	4004	47	-86	-18	30	0.4693187	1.016165	4	20	0	0
4330833	-128	1613	544	-0.1648732	-5.514729	3.376302	0	11.23	4003	-49	253	0	5	0.7078208	1.036096	4	20	0	0
4330899	563	-812	-1038	-0.3422547	-6.077215	3.41126	0	11.23	4004	-15	-398	-14	5	0.7977358	1.044742	4	20	0	0
4331030	705	1625	1146	0.5873871	-7.066962	3.87768	0	11.23	4002	-7	287	-1	1	0.9317627	1.054376	4	20	0	0
4331101	-860	-1113	-862	0.2944549	-7.284143	3.85122	0	11.23	4002	-61	238	13	0	0.9786988	1.062087	4	20	0	0
4331231	-727	320	740	-1.861719	-8.100802	2.911562	0	11.29	4002	-67	175	18	0	1.000617	1.073851	4	20	0	0
4331307	744	-3104	-1004	-1.891047	-6.211789	3.022927	0	11.29	4004	-25	-266	-7	0	1.018522	1.079643	4	20	0	0
4331454	607	1142	542	-1.145019	-3.939917	2.849992	0	11.29	4004	-73	57	27	0	0.9933463	1.083823	4	20	0	0
4331500	-869	663	-325	-1.039394	-5.921929	2.659372	0	11.29	4004	103	267	14	0	1.050106	1.083922	4	20	0	0
4331613	249	68	299	-1.617272	-6.820751	2.959951	0	11.29	4003	-41	11	8	-1	1.058136	1.091566	4	20	0	0
4331742	180	1542	526	-0.3729683	-6.640163	3.898444	0	11.29	4003	0	119	-30	-2	1.174741	1.101062	4	20	0	0
4331828	1242	197	-1029	-0.5907627	-8.600905	4.21015	0	11.29	4003	103	-102	-29	-4	1.202219	1.10463	4	20	0	0
4331928	1683	-1444	-287	0.838739	-9.012243	3.931095	0	11.29	4003	2	-128	-12	-4	1.253244	1.107937	4	20	0	0
4332037	1523	-1248	-263	3.472764	-7.816588	3.562037	0	11.29	4003	9	-138	-10	-5	1.284535	1.106492	4	20	0	0
4332139	-578	-1034	-23	1.994469	-6.881248	3.831711	0	11.63	4003	93	-60	-14	-5	1.251254	1.095241	4	20	0	0
4332212	54	185	-36	2.108081	-6.739717	3.871983	0	11.63	4004	125	-167	-14	-4	1.172397	1.078256	4	20	0	0
4332316	-904	-2726	87	1.204244	-5.751783	3.651371	0	11.63	4003	71	-156	-7	-3	1.156208	1.060921	4	20	0	0
4332451	37	831	217	0.2270843	-2.507997	3.547025	0	11.63	4003	79	-12	-5	-2	1.126083	1.029665	4	20	0	0
4332517	37	831	217	0.2270843	-2.507997	3.547025	0	11.63	4003	-67	-123	-4	-2	1.077464	1.01468	4	20	0	0
4332616	-9	-550	-341	1.61191	-4.010902	3.389511	0	11.63	4004	32	76	9	-1	0.9996836	0.9953232	4	20	0	0
4332819	1823	1326	-548	1.040707	-7.338928	3.286789	0	11.63	4003	5	-185	-5	4	0.7161984	0.936068	4	20	0	0
4332919	5433	-1613	-247	1.707255	-5.653814	2.792232	0	11.63	4003	16	-55	14	14	0.5087795	0.878649	4	20	0	0
4333003	-1613	-2160	-1492	4.94577	-2.705173	3.334404	0	10.72	4003	15	-37	-23	16	0.4349243	0.8409209	4	20	0	0
4333114	-1074	741	1135	0.8149133	-4.598747	3.059449	0	10.72	4004	-94	27	21	20	0.3588568	0.78493	4	20	0	0
4333233	-253	898	994	0.2044337	-3.723137	2.884847	0	10.72	4004	95	142	16	40	0.285737	0.7392649	4	20	0	0
4333345	184	320	-372	-0.9040923	-5.810337	2.166748	0	10.72	4002	45	102	23	21	0.2788162	0.7154172	4	20	0	0
4333450	-2101	110	-1	-3.587289	-5.765231	2.123138	0	10.72	4003	-65	-209	25	20	0.3093328	0.7011344	4	20	0	0
4333591	-3835	1541	1347	-6.247193	-5.657928	1.348336	0	10.72	4003	150	129	49	20	0.3881746	0.7045122	4	20	0	0
4333637	989	855	577	-6.765099	-6.301468	1.475904	0	10.72	4003	54	27	38	20	0.4059865	0.7072914	4	20	0	0
4333751	-37	1133	926	-4.118748	-7.25579	2.081933	0	10.72	4004	34	67	48	14	0.5479294	0.7320077	4	20	0	0
4333861	-197	2773	-1202	-4.362042	-9.87886	1.793552	0	10.72	4004	7	-196	26	12	0.6880726	0.7730389	4	20	0	0
4333912	-339	782	-137	-4.363031	-11.73905	1.844619	0	11.68	4004	153	23	58	6	0.7215479	0.781441	4	20	0	0
4334047	1065	2435	162	-2.1367	-12.22411	2.292868	0	11.68	4003	5	55	41	3	0.7487251	0.8333872	4	20	0	0
4334127	3972	-851	-388	0.4200593	-12.27713	3.137244	0	11.68	4003	-67	-77	-3	3	0.8576976	0.8622807	4	20	0	0
4334206	1344	1026	495	4.296508	-11.18898	3.704731	0	11.68	4004	-47	167	1	1	0.9471002	0.8982178	4	20	0	0
4334325	1382	-1480	190	6.030749	-11.44715	2.77319	0	11.68	4003	41	-73	8	0	1.044496	0.9413083	4	20	0	0
4334399	-174	-1591	-145	7.193428	-8.382995	2.751789	0	11.68	4002	85	-144	11	-6	1.151559	0.9657879	4	20	0	0
4334516	28	148	-11	4.564449	-4.799701	3.922803	0	11.68	4004	-134	119	-8	-5	1.254836	1.004933	4	20	0	0
4334617	-1466	-472	49	3.078657	-6.055951	4.224366	0	11.68	4003	-3	-47	-21	-4	1.220989	1.030481	4	20	0	0
4334718	-1216	-2529	-231	1.656435	-4.243865	4.382771	0	11.68	4002	-10	-17	-23	-4	1.251377	1.042722	4	20	0	0
4334798	-337	-528	791	-0.8518554	-1.842518	3.925089	0	11.63	4004	-12	30	-12	-5	1.292543	1.047115	4	20	0	0
4334905	601	1725	132	-0.279698	-4.053557	3.383088	0	11.63	4002	-99	106	0	-6	1.38063	1.059562	4	20	0	0
4335005	374	-917	217	0.5773369	-5.147194	3.64201	0	11.63	4003	-51	-70	-9	-6	1.316214	1.072291	4	20	0	0
4335103	-1247	-1145	101	-0.3138597	-3.962982	3.569587	0	11.63	4002	28	36	-3	-11	1.302687	1.066974	4	20	0	0
4335204	1329	-991	-601	0.2986724	-2.5831	3.8787	0	11.63	4004	-63	68	-17	-5	1.291744	1.059873	4	20	0	0
4335340	-1287	-18	367	0.2666071	-3.019313	3.793666	0	11.63	4002	-52	-77	-8	-4	1.230338	1.039341	4	20	0	0
4335414	-2318	-2011	-275	-1.958676	-1.753068	3.320657	0	11.63	4009	9	-96	11	-2	1.136624	1.031735	4	20	0	0
4335546	-458	1875	192	-1.354708	-2.404737	1.744812	0	11.63	4002	-19	14	48	3	0.833227	1.007638	4	20	0	0
4335607	-727	-1431	1075	-0.5115056	-4.153103	2.383475	0	11.63	4003	49	-84	31	8	0.6925749	0.9834142	4	20	0	0
4335761	1328	545	642	-1.500791	-2.15611	2.898642	0	11.74	4003	38	-9	-5	27	0.4790516	0.9253672	4	20	0	0
4335850	428	327	-420	-0.6194912	-2.169922	3.171624	0	11.74	4004	99	-171	-22	17	0.4092763	0.8825079	4	20	0	0
4335950	-1610	1102	1823	-2.170678	-3.58253	3.059988	0	11.74	4004	132	-153	19	18	0.3769077	0.8434664	4	20	0	0
4336018	796	-967	354	-3.311834	-2.991203	1.509772	0	11.74	4004	-7	-86	68	21	0.3941871	0.8313613	4	20	0	0
4336106	754	-1084	-865	-2.536683	-2.104194	0.6985975	0	11.74	4004	-50	-98	77	19	0.4205315	0.8249246	4	20	0	0
4336248	571	-339	-86	-1.35765	-0.6029938	1.994526	0	11.74	4004	87	68	16	15	0.5293303	0.8071982	4	20	0	0
4336314	519	1105	1167	-0.7622504	-0.6395699	2.83141	0	11.74	4003	57	303	12	7	0.6169034	0.7957811	4	20	0	0
4336467	-264	768	-1305	-0.9917563	-6.852236	3.149579	0	11.74	4003	-14	-143	-2	4	0.7405536	0.7810502	4	20	0	0
4336506	1144	2632	499	-0.7406744	-7.875124	3.336283	0	11.74	4004	-14	-143	-2	4	0.8087834	0.7758538	4	20	0	0
4336607	-1989	1170	-463	-1.804461	-10.50461	3.647931	0	11.74	4003	29	-39	1	4	0.7958099	0.7714328	4	20	0	0
4336830	322	115	-722	0.542004	-8.99651	3.006609	0	11.46	4004	14	-43	1	0	0.9996969	0.7907661	4	20	0	0
4336922	2782	-1069	-2032	2.807387	-9.339505	3.759206	0	11.46	4004	-13	-8	-21	-2	1.000906	0.8384305	4	20	0	0
4337093	-127	-765	102	8.283565	-10.6603	5.412875	0	11.46	4003	102	-59	-45	-3	1.170289	0.8742521	4	20	0	0
4337152	-3013	-2591	403	5.876881	-7.820021	4.831054	0	11.46	4003	123	-85	-33	-4	1.214963	0.8890269	4	20	0	0
4337242	-379	-2579	202	3.765962	-4.525535	4.250867	0	11.46	4003	-56	44	-8	-4	1.22889	0.9120993	4	20	0	0
4337399	-1451	1413	183	-0.6561082	-2.281833	3.142437	0	11.46	4003	63	-110	10	-4	1.127403	0.9331644	4	20	0	0
4337473	-437	1874	-540	-1.502025	-4.991958	3.41826	0	11.46	4004	21	-107	-14	-3	1.1714	0.9367277	4	20	0	0
4337529	266	448	-56	-1.567474	-6.046071	3.895474	0	11.46	4004	-30	78	-17	-6	1.199217	0.9405684	4	20	0	0
4337633	-392	560	493	-2.345417	-4.745377	3.312379	0	11.51	4002	-11	38	10	-8	1.243625	0.9434011	4	20	0	0
4337738	-103	819	353	-2.099584	-5.222982	3.024281	0	11.51	4002	-142	91	20	-4	1.212232	0.9403368	4	20	0	0
4337817	441	11	-55	1.032523	-7.729588	2.45839	0	11.51	4002	31	-155	16	-1	1.091009	0.9350968	4	20	0	0
4337935	12	-1581	-497	0.2618592	-5.468511	2.675966	0	11.51	4003	-35	-184	17	0	0.9231321	0.8930926	4	20	0	0
4338025	-302	491	-441	0.6658779	-6.978781	2.390302	0	11.51	4003	24	-192	18	1	0.8291994	0.8673656	4	20	0	0
4338113	-242	198	-818	0.2948264	-7.548757	2.354695	0	11.51	4002	-1	-342	5	9	0.6797509	0.830635	4	20	0	0
4338216	-387	-611	1990	-1.690818	-0.1698112	2.767631	0	11.51	4003	95	-55	25	12	0.5419503	0.7940156	4	20	0	0
4338320	219	4384	386	-2.408903	-4.421704	0.5625793	0	11.51	4009	-7	141	85	30	0.4314182	0.7541634	4	20	0	0
4338476	399	-2888	-1950	-3.198357	-7.371688	1.485369	0	11.51	4003	-77	46	46	20	0.371612	0.6976221	4	20	0	0
4338527	991	-1497	-938	-2.314201	-5.307878	2.479823	0	11.57	4002	-26	-21	16	22	0.363743	0.6889591	4	20	0	0
4338715	1767	2722	1206	-1.33276	-7.736626	4.067483	0	11.57	4004	-6	94	-6	34	0.4249141	0.6534624	4	20	0	0
4338766	2103	2076	-870	0.1267342	-9.357324	4.343222	0	11.57	4003	-57	97	-36	31	0.4539382	0.6572129	4	20	0	0
4338871	1849	336	-206	2.490039	-10.31482	4.66587	0	11.57	4002	-41	294	-13	25	0.5628655	0.7026359	4	20	0	0
4338971	-1445	2929	1460	1.724777	-12.5775	3.522755	0	11.57	4002	65	-288	-10	13	0.6509222	0.7513806	4	20	0	0
4339151	1188	-2144	-658	1.470901	-10.01084	3.298745	0	11.57	4003	33	-127	-17	4	0.6915033	0.8247234	4	20	0	0
4339244	-1302	-566	-750	1.370448	-9.455724	3.591611	0	11.57	4002	117	-9	-15	4	0.8056454	0.850563	4	20	0	0
4339404	230	-1144	-1137	0.9103815	-6.559099	4.105234	0	11.06	4003	74	-226	-44	2	0.914391	0.8712515	4	20	0	0
4339504	-543	-1863	-126	-0.6028509	-6.717543	3.691877	0	11.06	4004	-5	-300	-16	0	1.03478	0.8843486	4	20	0	0
4339544	-478	-774	855	-0.928588	-6.495551	3.449502	0	11.06	4003	42	-222	-1	-1	1.060373	0.8863091	4	20	0	0
4339742	384	610	463	-0.02056132	-7.759344	3.290561	0	11.06	4008	-21	109	-19	0	1.084186	0.9134563	3	20	0	0
4339760	570	-375	-1079	-0.2402992	-7.50114	3.656905	0	11.06	4002	-21	109	-19	0	1.08762	0.9255187	3	20	0	0
4339948	-459	-3814	477	-1.518051	-4.631557	3.478981	0	11.06	4004	-83	-136	16	0	1.100275	0.971688	3	20	0	0
4340015	-3780	-1228	1458	-3.568005	-1.477468	2.862353	0	11.06	4002	38	161	26	0	1.103742	0.9887866	3	20	0	0
4340082	-2035	-1765	-106	-6.793019	0.2154242	2.529142	0	11.06	4003	-147	108	24	0	1.107748	1.006254	3	20	0	0
4340161	-286	-3032	185	-7.53664	4.095435	2.813592	0	11.06	4004	-15	-83	24	0	1.109795	1.013917	3	20	0	0
4340272	2868	354	-1618	-6.348205	5.047632	2.798115	0	11.06	4004	-139	79	29	0	1.112797	1.02674	3	20	0	0
4340399	-130	226	-85	-2.881663	1.994658	3.09907	0	11.51	4004	-80	177	7	0	1.114766	1.045716	3	20	0	0
4340539	952	800	103	-1.920245	0.05735386	3.809915	0	11.51	4004	-65	58	-1	0	1.116058	1.062187	3	20	0	0
4340583	1670	2510	1031	-0.7398654	-2.725572	3.561518	0	11.51	4004	-64	224	8	0	1.116058	1.062187	3	20	0	0
4340667	-382	-392	312	-0.1632668	-3.822344	3.218653	0	11.51	4003	-22	49	-1	0	1.116726	1.074852	3	20	0	0
4340827	-2337	-1785	-237	0.05499051	-3.87215	3.218324	0	11.51	4003	155	64	0	0	1.117462	1.084818	3	20	0	0
4340932	441	859	-483	-1.081043	-4.345241	2.473164	0	11.51	4003	-14	-83	23	0	1.117749	1.085362	3	20	0	0
4340954	946	-1711	-1162	0.5093475	-4.32877	2.222826	0	11.51	4003	8	-352	11	0	1.117827	1.084521	3	20	0	0
4341058	-1339	-1924	-1137	0.167726	-2.106202	2.066989	0	11.51	4003	-58	-202	16	0	1.118016	1.080439	3	20	0	0
4341245	-377	4730	88	0.9402426	-1.651907	2.36764	0	11.51	4002	60	-90	29	0	1.118253	1.060215	3	20	0	0
4341304	1038	3620	-807	1.913283	-9.695543	2.386524	0	10.83	4008	103	-41	14	0	1.118304	1.055262	3	20	0	0
4341368	262	2405	-885	1.827739	-11.6966	2.422626	0	10.83	4002	14	-141	24	0	1.118346	1.051651	3	20	0	0
4341498	1866	28	-1348	3.179876	-15.24587	3.288303	0	10.83	4004	7	-277	-7	0	1.118394	1.051097	3	20	0	0
4341577	142	2227	731	3.363162	-15.14284	3.831853	0	10.83	4004	-56	239	-1	0	1.118429	1.049785	3	20	0	0
