time(ms)	gyro_x(deg/s)	gyro_y(deg/s)	gyro_z(deg/s)	orientation_roll(deg)	orientation_pitch(deg)	orientation_yaw(deg)	throttle	battery(V)	loop_time(uS)	pid_output_roll	pid_output_pitch	pid_output_yaw	pid_output_throttle	ultrasonic_alt	baro_alt	flight_mode	p_gain_altitude	i_gain_altitude	d_gain_altitude
4653107	38	0	-2	0.5298262	-0.09888598	-56.84483	0	10.49	4002	0	0	0	0	0.04356102	0.4175497	3	8	0.002	500
4653286	27	-1	0	0.5291597	-0.1015927	-56.83628	0	10.49	4004	0	0	0	0	0.04356102	0.4246787	3	8	0.002	500
4653350	32	0	-7	0.5358858	-0.1009038	-56.8328	0	10.49	4003	0	0	0	0	0.04356102	0.4336068	3	8	0.002	500
4653419	29	-2	-6	0.5357592	-0.1002628	-56.82902	0	10.49	4002	0	0	0	0	0.04356102	0.4403386	3	8	0.002	500
4653515	27	-4	0	0.541656	-0.0988398	-56.82249	0	10.49	4003	0	0	0	0	0.04356102	0.4401156	3	8	0.002	500
4653631	34	-2	-4	0.5348617	-0.1011729	-56.8148	0	10.49	4003	0	0	0	0	0.04356102	0.4391487	3	8	0.002	500
4653689	30	1	-5	0.5304964	-0.098506	-56.81229	0	10.49	4004	0	0	0	0	0.04356102	0.4381597	3	8	0.002	500
4653831	32	2	-7	0.5359684	-0.1056047	-56.80106	0	10.49	4002	0	0	0	0	0.04356102	0.4323997	3	8	0.002	500
4653893	39	0	-1	0.5349098	-0.104928	-56.79819	0	10.49	4004	0	0	0	0	0.04356102	0.4306996	3	8	0.002	500
4654017	27	0	-2	0.5341472	-0.1137776	-56.79002	0	10.49	4002	0	0	0	0	0.04356102	0.43421	3	8	0.002	500
4654177	36	-4	1	0.5351677	-0.1062437	-56.7822	0	10.49	4004	-2	0	0	0	0.04356102	0.4332079	3	8	0.002	500
4654216	39	-6	-3	0.5318733	-0.1033492	-56.78104	0	10.49	4003	-1	0	0	0	0.04356102	0.4331	3	8	0.002	500
4654347	24	17	41	0.548201	-0.08998293	-56.77982	0	10.49	4002	-3	1	-1	0	0.04356102	0.4327023	3	8	0.002	500
4654399	2	30	-17	0.542145	-0.09813529	-56.77151	0	10.49	4003	-2	3	0	0	0.04356102	0.4337041	3	8	0.002	500
4654544	60	-64	-386	0.552904	-0.1949019	-56.76257	0	10.49	4003	-9	2	5	0	0.04356102	0.4423452	3	8	0.002	500
4654673	67	109	682	0.5316438	-0.1511126	-56.91851	0	10.49	4003	29	-47	0	0	0.04356102	0.4406713	3	8	0.002	500
4654711	24	-287	-666	0.6323634	-0.1661467	-56.87687	0	10.49	4002	-3	8	9	0	0.04356102	0.43912	3	8	0.002	500
4654810	-7	-418	-473	0.56787	-0.1139581	-56.95116	0	10.32	4004	23	-57	-1	0	0.04356102	0.4429127	3	8	0.002	500
4654968	258	-3	-304	0.6021011	-0.04924887	-56.98111	0	10.32	4004	-56	58	8	0	0.04356102	0.4465047	3	8	0.002	500
4655136	626	546	115	0.3797024	-0.1402612	-56.95868	0	10.32	4004	-112	24	4	0	0.04356102	0.442267	3	8	0.002	500
4655251	388	-156	-278	0.4708836	-0.3073289	-56.94369	0	10.32	4003	-102	-3	0	0	0.04356102	0.441658	3	8	0.002	500
4655331	-314	-463	-168	0.3572803	-0.5305659	-56.93882	0	10.32	4003	0	0	0	0	0.04356102	0.4425727	3	8	0.002	500
4655436	-26	-356	-543	0.4088097	-0.557946	-56.94947	0	10.32	4004	0	0	0	0	0.04356102	0.4444223	3	8	0.002	500
4655555	69	-150	-542	0.4280751	-0.5797507	-56.96582	0	10.32	4004	0	0	0	0	0.04356102	0.4377753	3	8	0.002	500
4655665	-71	1	-340	0.4377106	-0.4985175	-56.89628	0	10.32	4004	-20	42	8	0	0.04356102	0.4360369	3	8	0.002	500
4655774	155	149	78	0.4289388	-0.4817936	-56.98504	0	10.43	4004	13	26	-1	0	0.04356102	0.433055	3	8	0.002	500
4655911	164	-105	-321	0.6664594	-0.4039039	-56.94933	0	10.43	4004	-66	49	3	0	0.04356102	0.4452117	3	8	0.002	500
4655979	-22	-427	-373	0.6821443	-0.215498	-56.92067	0	10.43	4003	-44	-23	3	0	0.04356102	0.4469308	3	8	0.002	500
4656079	746	460	205	0.5225034	-0.3827113	-56.92923	0	10.43	4003	-92	74	1	0	0.04356102	0.460828	3	8	0.002	500
4656178	654	-62	-166	0.7039806	-0.5027481	-56.91799	0	10.43	4004	-117	-31	0	0	0.04356102	0.4699827	3	8	0.002	500
4656276	-453	-227	524	0.9550508	-0.785125	-56.92758	0	10.43	4002	51	21	1	0	0.04356102	0.4756199	3	8	0.002	500
4656446	-65	479	-854	1.84111	-1.542295	-56.90601	0	10.43	4004	-24	120	-7	0	0.04356102	0.4618993	3	8	0.002	500
4656520	573	-23	-506	2.030489	-1.60464	-56.89497	0	10.43	4003	-90	-11	-1	0	0.04356102	0.4477	3	8	0.002	500
4656703	-334	-110	-122	1.83414	-2.055059	-56.94274	0	10.04	4004	-40	71	-9	0	0.04356102	0.4165285	3	8	0.002	500
4656777	-402	66	938	1.812689	-2.158066	-56.99235	0	10.04	4004	-14	-52	13	0	0.04356102	0.4053099	3	8	0.002	500
4656862	299	-468	40	2.164419	-2.115251	-56.96426	0	10.04	4004	19	-41	16	0	0.04356102	0.3949318	3	8	0.002	500
4656958	729	264	-1419	2.187398	-2.529145	-56.98839	0	10.04	4003	85	85	21	0	0.04356102	0.3939698	3	8	0.002	500
4657107	-4949	4071	1474	3.356908	-1.813913	-56.9086	0	10.04	4002	-296	-400	63	0	0.04356102	0.3955216	3	8	0.002	500
4657184	-4949	4071	1474	3.356908	-1.813913	-56.9086	0	10.04	4002	0	0	0	0	0.04356102	0.409392	3	8	0.002	500
4657355	10189	-5586	6875	34.4814	19.2163	-65.43626	0	10.04	4004	0	0	0	0	0.04356102	0.4421228	3	8	0.002	500
4657422	6264	-229	13837	40.73153	29.06841	-73.32514	0	10.04	4003	0	0	0	0	0.04356102	0.468252	3	8	0.002	500
4657530	12261	-5329	23055	23.61778	49.94876	-116.5921	0	10.38	4003	0	0	0	0	0.04356102	0.4777809	3	8	0.002	500
4657608	-1846	-20929	-4414	21.28069	68.03867	-128.748	0	10.38	4007	0	0	0	0	0.04356102	0.4819583	3	8	0.002	500
4657664	4294	5031	4579	20.73413	72.07526	-129.2103	0	10.38	4003	0	0	0	0	0.04356102	0.4838293	3	8	0.002	500
4657760	2510	11441	2843	19.28902	66.22843	-132.7379	0	10.38	4004	0	0	0	0	0.04356102	0.4915204	3	8	0.002	500
4657880	-129	-1242	-213	16.76231	55.86411	-131.5333	0	10.38	4002	0	0	0	0	0.04356102	0.4937411	3	8	0.002	500
4657909	-30	-3837	-317	16.23306	57.53904	-131.4509	0	10.38	4003	0	0	0	0	0.04356102	0.4902314	3	8	0.002	500
4657997	106	2882	-110	15.18808	63.60325	-130.9992	0	10.38	4004	0	0	0	0	0.04356102	0.4741297	3	8	0.002	500
4658158	225	-1129	-135	13.05621	62.71212	-131.0888	0	10.38	4003	0	0	0	0	0.04356102	0.4378566	3	8	0.002	500
4658253	44	-651	-108	12.05268	66.80093	-130.8938	0	10.38	4004	0	0	0	0	0.04356102	0.4204631	3	8	0.002	500
4658306	25	827	37	10.80348	67.01854	-131.0115	0	10.38	4003	0	0	0	0	0.04356102	0.4118537	1	8	0.002	500
4658411	81	-293	-86	9.798215	67.54444	-131.0445	0	10.38	4003	0	0	0	0	0.04356102	0.4075829	1	8	0.002	500
4658515	81	-686	-88	9.064656	69.59149	-130.9915	0	10.38	4003	0	0	0	0	0.04356102	0.3989224	1	8	0.002	500
4658616	16	582	154	8.44388	71.79243	-130.927	0	10.38	4003	0	0	0	0	0.04356102	0.3916553	1	8	0.002	500
4658721	38	276	21	7.73537	71.79643	-130.9824	0	10.38	4004	0	0	0	0	0.04356102	0.3827867	1	8	0.002	500
4658826	37	-176	-29	7.175724	72.50304	-130.9801	0	10.38	4003	0	0	0	0	0.04356102	0.3722102	1	8	0.002	500
4658931	38	-540	-50	6.876505	73.32582	-130.9541	0	10.38	4004	0	0	0	0	0.04356102	0.3789179	1	8	0.002	500
4659036	27	484	17	6.463985	74.45677	-130.9363	0	10.38	4002	0	0	0	0	0.04356102	0.3928883	1	8	0.002	500
4659136	37	-107	-19	6.06026	74.62531	-130.9433	0	10.38	4003	0	0	0	0	0.04356102	0.4015918	1	8	0.002	500
4659282	31	342	35	5.650912	75.69596	-130.9173	0	10.38	4004	0	0	0	0	0.04356102	0.4099344	1	8	0.002	500
4659361	36	-308	-28	5.369944	76.00054	-130.9123	0	10.43	4003	0	0	0	0	0.04356102	0.4033315	1	8	0.002	500
4659444	14	235	27	5.215553	76.41046	-130.9057	0	10.43	4003	0	0	0	0	0.04356102	0.3985999	1	8	0.002	500
4659549	21	119	14	4.941168	76.86305	-130.8921	0	10.43	4004	0	0	0	0	0.04356102	0.3836338	1	8	0.002	500
4659661	37	-100	-22	4.751709	77.07925	-130.8867	0	10.43	4003	0	0	0	0	0.04356102	0.3748232	1	8	0.002	500
4659762	41	-42	-7	4.58526	77.30878	-130.8855	0	10.43	4004	0	0	0	0	0.04356102	0.3713301	1	8	0.002	500
4659867	34	24	-1	4.444868	77.55484	-130.8791	0	10.43	4002	0	0	0	0	0.04356102	0.3584999	1	8	0.002	500
4659954	35	22	-1	4.327418	77.74815	-130.8704	0	10.43	4004	0	0	0	0	0.04356102	0.3502058	1	8	0.002	500
4660059	31	19	3	4.219898	77.91151	-130.8642	0	10.43	4002	0	0	0	0	0.04356102	0.3459157	1	8	0.002	500
4660163	30	5	-4	4.126022	78.04863	-130.8579	0	10.43	4004	0	0	0	0	0.04356102	0.3314973	1	8	0.002	500
4660268	36	-5	-4	4.038715	78.17233	-130.8518	0	10.43	4002	0	0	0	0	0.04356102	0.3153602	1	8	0.002	500
4660375	38	2	-1	3.968552	78.28441	-130.8453	0	10.43	4008	0	0	0	0	0.04356102	0.2962437	1	8	0.002	500
4660478	39	0	-4	3.907078	78.37888	-130.8395	0	10.43	4002	0	0	0	0	0.04356102	0.2801664	1	8	0.002	500
4660585	34	-1	0	3.84862	78.46326	-130.8324	0	10.43	4003	0	0	0	0	0.04356102	0.2590019	1	8	0.002	500
4660683	35	-2	-5	3.801335	78.54248	-130.8261	0	10.43	4004	0	0	0	0	0.04356102	0.2580642	1	8	0.002	500
4660783	31	0	1	3.752876	78.6076	-130.8202	0	10.43	4004	0	0	0	0	0.04356102	0.2565239	1	8	0.002	500
4660886	32	-1	-6	3.723151	78.6615	-130.8131	0	10.43	4002	0	0	0	0	0.04356102	0.2604547	1	8	0.002	500
4660986	33	-3	-3	3.692445	78.71545	-130.8065	0	10.43	4002	0	0	0	0	0.04356102	0.2575428	1	8	0.002	500
4661132	41	-2	-1	3.654904	78.76827	-130.7998	0	10.43	4003	0	0	0	0	0.04356102	0.2571257	1	8	0.002	500
4661193	36	-6	-4	3.639361	78.79636	-130.7958	0	10.43	4003	0	0	0	0	0.04356102	0.2607873	1	8	0.002	500
4661298	37	1	0	3.614453	78.82786	-130.791	0	10.38	4003	0	0	0	0	0.04356102	0.2595657	1	8	0.002	500
4661546	35	0	-7	3.591213	78.88882	-130.7732	0	10.38	4003	0	0	0	0	0.04356102	0.258086	1	8	0.002	500
4661674	31	0	-2	3.566594	78.91777	-130.7617	0	10.38	4002	0	0	0	0	0.04356102	0.2615988	1	8	0.002	500
4661704	30	4	-5	3.562186	78.92729	-130.7597	0	10.38	4003	0	0	0	0	0.04356102	0.2610211	1	8	0.002	500
4661809	31	1	-8	3.556971	78.94704	-130.7529	0	10.38	4004	0	0	0	0	0.04356102	0.2649661	1	8	0.002	500
4661914	35	0	-4	3.555891	78.95734	-130.7453	0	10.38	4003	0	0	0	0	0.04356102	0.2813576	1	8	0.002	500
4662019	33	-8	0	3.543793	78.97718	-130.7415	0	10.38	4002	0	0	0	0	0.04356102	0.2993814	1	8	0.002	500
4662123	35	-3	-5	3.538525	78.98501	-130.7387	0	10.38	4004	0	0	0	0	0.04356102	0.3132934	1	8	0.002	500
4662227	36	0	-3	3.538901	78.98715	-130.7312	0	10.43	4003	0	0	0	0	0.04356102	0.3208031	1	8	0.002	500
4662332	37	0	-2	3.533912	78.99842	-130.7243	0	10.43	4004	0	0	0	0	0.04356102	0.3231775	1	8	0.002	500
4662428	36	-1	-2	3.531735	79.00807	-130.7168	0	10.43	4003	0	0	0	0	0.04356102	0.3184168	1	8	0.002	500
4662536	33	-4	-6	3.534117	79.02006	-130.7076	0	10.43	4003	0	0	0	0	0.04356102	0.3236073	1	8	0.002	500
4662638	33	0	-12	3.539734	79.02573	-130.696	0	10.43	4002	0	0	0	0	0.04356102	0.3305453	1	8	0.002	500
4662741	41	-4	-5	3.535107	79.0352	-130.6864	0	10.43	4003	0	0	0	0	0.04356102	0.3370257	1	8	0.002	500
4662857	40	-10	-5	3.535764	79.03936	-130.6789	0	10.43	4004	0	0	0	0	0.04356102	0.3523716	1	8	0.002	500
4662948	36	-3	-4	3.531769	79.04264	-130.672	0	10.43	4003	0	0	0	0	0.04356102	0.353405	1	8	0.002	500
4663058	39	3	-5	3.523555	79.0459	-130.6643	0	10.43	4003	0	0	0	0	0.04356102	0.3531519	1	8	0.002	500
4663164	33	5	-7	3.514902	79.04247	-130.6595	0	10.43	4003	0	0	0	0	0.04356102	0.3501464	1	8	0.002	500
4663262	30	2	-6	3.509082	79.04183	-130.6551	0	10.43	4004	0	0	0	0	0.04356102	0.3431016	1	8	0.002	500
4663365	36	0	0	3.502306	79.04273	-130.6472	0	10.43	4003	0	0	0	0	0.04356102	0.3337964	1	8	0.002	500
4663469	37	1	-6	3.506157	79.03938	-130.6373	0	10.43	4003	0	0	0	0	0.04356102	0.3233663	1	8	0.002	500
4663574	41	3	-4	3.510808	79.03101	-130.6289	0	10.43	4002	0	0	0	0	0.04356102	0.3181942	1	8	0.002	500
4663679	36	0	-2	3.513326	79.02908	-130.6248	0	10.43	4003	0	0	0	0	0.04356102	0.3159303	1	8	0.002	500
4663783	38	0	-5	3.517522	79.03386	-130.6148	0	10.43	4002	0	0	0	0	0.04356102	0.3124213	1	8	0.002	500
4663887	32	-7	-5	3.518345	79.03055	-130.6071	0	10.43	4004	0	0	0	0	0.04356102	0.3041385	1	8	0.002	500
4663991	31	-1	-7	3.51603	79.02039	-130.598	0	10.43	4003	0	0	0	0	0.04356102	0.2987843	1	8	0.002	500
4664083	35	0	-3	3.521505	79.02406	-130.5917	0	10.43	4004	0	0	0	0	0.04356102	0.291603	1	8	0.002	500
4664192	34	-8	-5	3.520399	79.03075	-130.5846	0	10.43	4003	0	0	0	0	0.04356102	0.2935773	1	8	0.002	500
4664377	36	1	-8	3.524392	79.03251	-130.5712	0	10.43	4003	0	0	0	0	0.04356102	0.3211828	1	8	0.002	500
4664550	39	-2	-4	3.516133	79.02876	-130.5589	0	10.43	4003	0	0	0	0	0.04356102	0.3464861	1	8	0.002	500
4664686	35	-5	-1	3.517896	79.03108	-130.5488	0	10.43	4002	0	0	0	0	0.04356102	0.3614908	1	8	0.002	500
4664751	37	3	-5	3.518774	79.02553	-130.5432	0	10.43	4004	0	0	0	0	0.04356102	0.3648447	1	8	0.002	500
4664875	30	-3	-3	3.511715	79.0225	-130.5354	0	10.43	4003	0	0	0	0	0.04356102	0.3675737	1	8	0.002	500
4664919	34	6	-3	3.520187	79.02238	-130.5266	0	10.43	4002	0	0	0	0	0.04356102	0.369637	1	8	0.002	500
4665020	42	-2	0	3.519562	79.02232	-130.5219	0	10.43	4003	0	0	0	0	0.04356102	0.3793249	1	8	0.002	500
4665195	43	-6	-1	3.510912	79.01553	-130.513	0	10.43	4003	0	0	0	0	0.04356102	0.3846987	1	8	0.002	500
4665320	33	3	-3	3.517764	79.01672	-130.5044	0	10.43	4003	0	0	0	0	0.04356102	0.3736866	1	8	0.002	500
4665422	38	-2	-4	3.523324	79.01672	-130.4956	0	10.43	4002	0	0	0	0	0.04356102	0.3634581	1	8	0.002	500
4665504	41	2	-4	3.522532	79.0146	-130.485	0	10.43	4003	0	0	0	0	0.04356102	0.3498935	1	8	0.002	500
4665659	33	3	-2	3.533046	79.00725	-130.4761	0	10.43	4003	0	0	0	0	0.04356102	0.3295636	1	8	0.002	500
4665701	32	4	-5	3.531018	79.00619	-130.4735	0	10.43	4003	0	0	0	0	0.04356102	0.3198898	1	8	0.002	500
4665800	37	0	-6	3.5277	79.01172	-130.4662	0	10.43	4003	0	0	0	0	0.04356102	0.3100045	1	8	0.002	500
4665941	39	-1	0	3.524353	79.00792	-130.4585	0	10.43	4003	0	0	0	0	0.04356102	0.2974689	1	8	0.002	500
4666001	33	2	-4	3.526624	79.00834	-130.4535	0	10.43	4002	0	0	0	0	0.04356102	0.2963007	1	8	0.002	500
4666090	40	0	-5	3.527138	79.00549	-130.4474	0	10.43	4007	0	0	0	0	0.04356102	0.2932128	1	8	0.002	500
4666239	30	0	-7	3.52615	79.00874	-130.4374	0	10.43	4003	0	0	0	0	0.04356102	0.3000531	1	8	0.002	500
4666347	35	6	-1	3.519877	79.00708	-130.4295	0	10.43	4003	0	0	0	0	0.04356102	0.3013422	1	8	0.002	500
4666400	41	0	-4	3.51912	79.00735	-130.4277	0	10.43	4002	0	0	0	0	0.04356102	0.3023207	1	8	0.002	500
4666542	37	-1	-2	3.530273	79.0052	-130.417	0	10.43	4004	0	0	0	0	0.04356102	0.30079	1	8	0.002	500
4666623	30	-2	-5	3.528614	79.00758	-130.4114	0	10.43	4004	0	0	0	0	0.04356102	0.3095228	1	8	0.002	500
4666705	42	-1	-2	3.53467	79.00716	-130.4035	0	10.43	4003	0	0	0	0	0.04356102	0.3273322	1	8	0.002	500
4666809	34	1	-5	3.535589	79.00282	-130.3971	0	10.43	4003	0	0	0	0	0.04356102	0.3302207	1	8	0.002	500
4666919	41	-4	0	3.536762	79.007	-130.3914	0	10.43	4003	0	0	0	0	0.04356102	0.3295109	1	8	0.002	500
4667024	44	2	-8	3.544455	79.00797	-130.3824	0	10.43	4004	0	0	0	0	0.04356102	0.3235481	1	8	0.002	500
4667122	36	0	-3	3.554143	79.00906	-130.3753	0	10.43	4002	0	0	0	0	0.04356102	0.3210833	1	8	0.002	500
4667220	37	-1	-2	3.552134	79.00766	-130.3676	0	10.43	4003	0	0	0	0	0.04356102	0.3200143	1	8	0.002	500
4667325	40	-8	-6	3.554215	79.00288	-130.3595	0	10.43	4004	0	0	0	0	0.04356102	0.3163997	1	8	0.002	500
4667419	35	4	-3	3.551328	79.00568	-130.3529	0	10.43	4004	0	0	0	0	0.04356102	0.3182576	1	8	0.002	500
4667472	41	0	-3	3.549131	79.00818	-130.3452	0	10.43	4003	0	0	0	0	0.04356102	0.3221953	1	8	0.002	500
4667575	45	0	-3	3.553211	79.00665	-130.338	0	10.43	4003	0	0	0	0	0.04356102	0.3284924	1	8	0.002	500
4667672	40	1	-3	3.562348	79.00701	-130.3296	0	10.43	4004	0	0	0	0	0.04356102	0.3362586	1	8	0.002	500
4667793	39	-3	-2	3.566832	79.00851	-130.321	0	10.43	4003	0	0	0	0	0.04356102	0.3531565	1	8	0.002	500
4667873	41	3	-4	3.568774	79.01516	-130.3147	0	10.43	4002	0	0	0	0	0.04356102	0.3636211	1	8	0.002	500
4667995	41	-2	-4	3.570706	79.01653	-130.3082	0	10.43	4002	0	0	0	0	0.04356102	0.3902802	1	8	0.002	500
4668084	40	0	-8	3.567678	79.01448	-130.3013	0	10.43	4003	0	0	0	0	0.04356102	0.393046	1	8	0.002	500
4668180	39	2	-13	3.571492	79.01577	-130.2928	0	10.43	4004	0	0	0	0	0.04356102	0.4079138	1	8	0.002	500
4668287	47	-1	-3	3.57462	79.01752	-130.2861	0	10.43	4002	0	0	0	0	0.04356102	0.4232914	1	8	0.002	500
4668386	44	0	-5	3.575358	79.01752	-130.2793	0	10.43	4002	0	0	0	0	0.04356102	0.4295225	1	8	0.002	500
4668487	45	-2	1	3.58159	79.01503	-130.2735	0	10.43	4004	0	0	0	0	0.04356102	0.4321754	1	8	0.002	500
4668591	42	-2	-6	3.586868	79.01716	-130.2663	0	10.43	4002	0	0	0	0	0.04356102	0.4356333	1	8	0.002	500
4668696	37	3	0	3.588668	79.01691	-130.2588	0	10.43	4002	0	0	0	0	0.04356102	0.4349831	1	8	0.002	500
4668796	44	-7	-5	3.595586	79.01689	-130.2502	0	10.43	4002	0	0	0	0	0.04356102	0.4282409	1	8	0.002	500
4668909	42	1	-6	3.59858	79.02121	-130.2421	0	10.43	4003	0	0	0	0	0.04356102	0.4235264	1	8	0.002	500
4668995	46	-8	-6	3.599483	79.0201	-130.2364	0	10.43	4004	0	0	0	0	0.04356102	0.4248181	1	8	0.002	500
4669100	42	-3	-6	3.596115	79.01951	-130.2266	0	10.43	4003	0	0	0	0	0.04356102	0.4227416	1	8	0.002	500
4669205	41	-1	-4	3.600909	79.02351	-130.2182	0	10.43	4003	0	0	0	0	0.04356102	0.4256974	1	8	0.002	500
4669310	48	-2	-7	3.605617	79.01943	-130.2096	0	10.43	4003	0	0	0	0	0.04356102	0.4304876	1	8	0.002	500
4669415	44	2	-2	3.607967	79.02322	-130.1987	0	10.43	4004	0	0	0	0	0.04356102	0.434451	1	8	0.002	500
4669525	40	-7	-7	3.608982	79.02387	-130.1893	0	10.43	4003	0	0	0	0	0.04356102	0.433122	1	8	0.002	500
4669629	38	2	-6	3.606466	79.0266	-130.1812	0	10.43	4003	0	0	0	0	0.04356102	0.4392388	1	8	0.002	500
4669729	42	-6	-2	3.606162	79.02962	-130.1729	0	10.43	4004	0	0	0	0	0.04356102	0.4445499	1	8	0.002	500
4669834	40	0	-4	3.604476	79.02829	-130.1659	0	10.43	4002	0	0	0	0	0.04356102	0.4503051	1	8	0.002	500
4669939	43	-1	-4	3.59885	79.02496	-130.1595	0	10.43	4006	0	0	0	0	0.04356102	0.4534916	1	8	0.002	500
4670044	48	1	-3	3.597885	79.02824	-130.1517	0	10.43	4003	0	0	0	0	0.04356102	0.46336	1	8	0.002	500
4670149	37	-4	-6	3.600252	79.02145	-130.1437	0	10.43	4003	0	0	0	0	0.04356102	0.4717139	1	8	0.002	500
4670254	42	1	-4	3.599781	79.02654	-130.1345	0	10.43	4002	0	0	0	0	0.04356102	0.4778754	1	8	0.002	500
4670359	41	0	-4	3.599829	79.03294	-130.127	0	10.43	4002	0	0	0	0	0.04356102	0.487728	1	8	0.002	500
4670469	41	3	-6	3.597393	79.02887	-130.1175	0	10.43	4004	0	0	0	0	0.04356102	0.5063355	1	8	0.002	500
4670590	44	0	-8	3.601281	79.02208	-130.1093	0	10.43	4004	0	0	0	0	0.04356102	0.5181448	1	8	0.002	500
4670661	48	0	-7	3.605776	79.02573	-130.0995	0	10.43	4004	0	0	0	0	0.04356102	0.5185368	1	8	0.002	500
4670781	42	0	-5	3.607433	79.02779	-130.088	0	10.43	4008	0	0	0	0	0.04356102	0.5263221	1	8	0.002	500
4670862	45	-1	-1	3.605415	79.02354	-130.0784	0	10.43	4002	0	0	0	0	0.04356102	0.532023	1	8	0.002	500
4671030	49	0	-2	3.597644	79.02585	-130.0703	0	10.43	4003	0	0	0	0	0.04356102	0.5250643	1	8	0.002	500
