time(ms)	gyro_x(deg/s)	gyro_y(deg/s)	gyro_z(deg/s)	orientation_roll(deg)	orientation_pitch(deg)	orientation_yaw(deg)	throttle	battery(V)	loop_time(uS)	pid_output_roll	pid_output_pitch	pid_output_yaw	pid_output_throttle	ultrasonic_alt	baro_alt	flight_mode	p_gain_altitude	i_gain_altitude	d_gain_altitude
4403921	-630	-2064	-702	-4.416978	-7.497972	54.21125	0	10.6	4002	-116	-192	29	0	1.079078	0.5153056	3	35	0	60
4404082	-206	963	691	-3.251791	-6.8672	54.44158	0	11.34	4003	-57	2	37	0	1.079078	0.5268251	3	35	0	60
4404130	109	-1247	-1814	-3.555572	-6.455048	54.84087	0	11.34	4004	-78	-188	-16	0	1.079078	0.5311442	3	35	0	60
4404259	476	2451	-732	-1.497488	-8.105773	56.13934	0	11.34	4003	74	141	-16	0	1.079078	0.5409124	3	35	0	60
4404339	-738	-1415	-1084	-1.769511	-9.955549	56.41501	0	11.34	4003	65	-163	-44	0	1.079078	0.5472148	3	35	0	60
4404490	476	-1106	1248	-0.8201401	-6.942618	56.64224	0	11.34	4003	0	0	0	0	1.079078	0.5579648	3	35	0	60
4404655	1420	-2494	-33	0.9420659	-0.8972239	56.04477	0	11.34	4004	0	0	0	0	1.079078	0.5672699	1	35	0	60
4404724	1802	-2017	-152	2.483083	1.555594	56.09454	0	11.34	4003	0	0	0	0	1.079078	0.5668857	1	35	0	60
4404801	2398	-2307	368	5.293859	5.164598	56.13316	0	11.34	4004	0	0	0	0	1.079078	0.5538688	1	35	0	60
4404888	-561	2073	2489	5.504982	8.121018	55.54026	0	11.34	4003	0	0	0	0	1.079078	0.5350389	1	35	0	60
4405015	772	6847	1096	6.140175	-29.93627	47.28176	0	11.4	4003	0	0	0	0	1.079078	0.492102	1	35	0	60
4405123	127	-8317	-893	4.861772	-31.11312	47.68475	0	11.4	4003	0	0	0	0	1.079078	0.4470336	1	35	0	60
4405177	121	-17155	-885	3.679129	-17.92579	48.67223	0	11.4	4004	0	0	0	0	1.079078	0.419308	1	35	0	60
4405333	-1571	4683	1332	7.527347	0.4934776	51.50439	0	11.4	4002	0	0	0	0	1.079078	0.3747901	1	35	0	60
4405383	-2342	2717	141	5.443379	-1.034042	50.99047	0	11.4	4002	0	0	0	0	1.079078	0.3514436	1	35	0	60
4405505	-12	4	-5	4.086238	-0.3659813	50.92909	0	11.4	4003	0	0	0	0	1.079078	0.3008833	1	35	0	60
4405588	-10	12	-1	3.523559	0.3232337	50.93062	0	11.4	4003	0	0	0	0	1.079078	0.2738957	1	35	0	60
4405697	0	2	-1	3.000177	0.8912675	50.93184	0	11.4	4003	0	0	0	0	1.079078	0.2274537	1	35	0	60
4405754	7	-3	-3	2.695492	1.23543	50.93214	0	11.4	4004	0	0	0	0	1.079078	0.2090126	1	35	0	60
4405871	0	-1	-1	2.284288	1.69989	50.93239	0	11.51	4002	0	0	0	0	1.079078	0.1660686	1	35	0	60
4405965	-5	1	1	1.926581	2.104504	50.93275	0	11.51	4003	0	0	0	0	1.079078	0.1531782	1	35	0	60
4406067	-2	2	-2	1.613597	2.45534	50.93465	0	11.51	4002	0	0	0	0	1.079078	0.1226206	1	35	0	60
4406173	-2	1	0	1.338091	2.764657	50.93483	0	11.51	4004	0	0	0	0	1.079078	0.08425771	1	35	0	60
4406282	7	2	-4	1.096125	3.031073	50.93623	0	11.51	4004	0	0	0	0	1.079078	0.05919261	1	35	0	60
4406390	-1	0	0	0.8895711	3.264349	50.93636	0	11.51	4003	0	0	0	0	1.079078	0.03239093	1	35	0	60
4406478	0	1	-2	0.7096353	3.46947	50.93709	0	11.51	4003	0	0	0	0	1.079078	0.02167507	1	35	0	60
4406622	1	3	0	0.4595413	3.757523	50.94099	0	11.51	4004	0	0	0	0	1.079078	0.001910066	1	35	0	60
4406688	2	-1	0	0.3750036	3.850111	50.94228	0	11.51	4002	0	0	0	0	1.079078	-0.003376845	1	35	0	60
4406805	1	0	-3	0.2643931	3.976943	50.94344	0	11.51	4004	0	0	0	0	1.079078	0.00127042	1	35	0	60
4406896	5	0	-3	0.1639218	4.083435	50.9446	0	11.51	4003	0	0	0	0	1.079078	0.004194545	1	35	0	60
4406996	3	2	-2	0.1028743	4.148712	50.9463	0	11.51	4003	0	0	0	0	1.079078	0.003201614	1	35	0	60
4407116	2	1	0	0.002088956	4.265251	50.94942	0	11.51	4004	0	0	0	0	1.079078	0.00647192	1	35	0	60
4407198	2	1	2	-0.0480283	4.316088	50.95003	0	11.51	4004	0	0	0	0	1.079078	0.008719277	1	35	0	60
4407291	5	2	-3	-0.1105776	4.380049	50.95345	0	11.51	4002	0	0	0	0	1.079078	0.008574493	1	35	0	60
4407396	4	-4	0	-0.1653067	4.436585	50.95668	0	11.51	4002	0	0	0	0	1.079078	0.006547472	1	35	0	60
4407499	3	3	-4	-0.2246557	4.506364	50.9612	0	11.51	4003	0	0	0	0	1.079078	0.01477837	1	35	0	60
4407658	9	0	-6	-0.270755	4.563354	50.96718	0	11.51	4002	0	0	0	0	1.079078	0.01483332	1	35	0	60
4407751	2	-2	0	-0.2977236	4.599879	50.97011	0	11.51	4004	0	0	0	0	1.079078	0.009878676	1	35	0	60
4407850	3	0	-2	-0.3163638	4.632843	50.97371	0	11.51	4002	0	0	0	0	1.079078	0.009873032	1	35	0	60
4407909	2	2	-3	-0.3289018	4.649148	50.97639	0	11.51	4002	0	0	0	0	1.079078	0.0090963	1	35	0	60
4408007	5	2	0	-0.3493835	4.678017	50.97774	0	11.51	4003	0	0	0	0	1.079078	0.009119601	1	35	0	60
4408128	7	-1	-1	-0.363045	4.695512	50.98048	0	11.51	4003	0	0	0	0	1.079078	0.01778505	1	35	0	60
4408238	5	-4	1	-0.3741421	4.713526	50.98323	0	11.51	4004	0	0	0	0	1.079078	0.01736994	1	35	0	60
4408372	2	-3	-3	-0.4004824	4.7349	50.98634	0	11.51	4004	0	0	0	0	1.079078	0.004735366	1	35	0	60
4408459	9	-1	0	-0.4112469	4.749435	50.98799	0	11.51	4004	0	0	0	0	1.079078	-0.0007174995	1	35	0	60
4408535	7	0	-2	-0.4135235	4.754395	50.99037	0	11.51	4002	0	0	0	0	1.079078	-0.01072758	1	35	0	60
4408602	7	0	-2	-0.4207698	4.768705	50.99422	0	11.51	4004	0	0	0	0	1.079078	-0.01216063	1	35	0	60
4408698	2	0	-1	-0.4234908	4.783899	50.99709	0	11.57	4003	0	0	0	0	1.079078	-0.008189488	1	35	0	60
4408802	11	6	-4	-0.4300117	4.796588	51.00026	0	11.57	4003	0	0	0	0	1.079078	-0.001526426	1	35	0	60
4408911	9	-7	-6	-0.4379774	4.805973	51.00526	0	11.57	4002	0	0	0	0	1.079078	-0.00265976	1	35	0	60
4409088	9	1	0	-0.4401582	4.825365	51.01009	0	11.57	4003	0	0	0	0	1.079078	-0.008321345	1	35	0	60
4409152	10	3	-6	-0.4517928	4.82857	51.0132	0	11.57	4002	0	0	0	0	1.079078	-0.01061358	1	35	0	60
4409273	10	-6	-3	-0.4527906	4.828222	51.01857	0	11.57	4004	0	0	0	0	1.079078	-0.01388315	1	35	0	60
4409338	4	-4	-3	-0.4572404	4.832724	51.01997	0	11.57	4004	0	0	0	0	1.079078	-0.01982394	1	35	0	60
4409455	7	3	0	-0.4605534	4.841713	51.02779	0	11.57	4003	0	0	0	0	1.079078	-0.02334355	1	35	0	60
4409558	9	3	-5	-0.4533896	4.842515	51.03395	0	11.57	4004	0	0	0	0	1.079078	-0.03566052	1	35	0	60
4409633	5	0	-4	-0.4609455	4.84687	51.03853	0	11.57	4003	0	0	0	0	1.079078	-0.05486994	1	35	0	60
4409751	9	-7	-4	-0.4526694	4.852334	51.04573	0	11.57	4003	0	0	0	0	1.079078	-0.06285724	1	35	0	60
4409822	7	-2	-5	-0.4499388	4.851942	51.0511	0	11.57	4004	0	0	0	0	1.079078	-0.07033855	1	35	0	60
4409925	14	6	-4	-0.4517158	4.855554	51.0569	0	11.57	4002	0	0	0	0	1.079078	-0.06929425	1	35	0	60
4409986	10	0	-2	-0.4512367	4.862188	51.0602	0	11.57	4003	0	0	0	0	1.079078	-0.06614941	1	35	0	60
4410085	4	7	-8	-0.4427761	4.862302	51.06612	0	11.57	4002	0	0	0	0	1.079078	-0.06849684	1	35	0	60
4410177	0	0	-2	-0.4395058	4.86375	51.06996	0	11.57	4004	0	0	0	0	1.079078	-0.06822512	1	35	0	60
4410252	6	-2	-4	-0.4337585	4.858275	51.07289	0	11.57	4010	0	0	0	0	1.079078	-0.06585279	1	35	0	60
4410393	8	3	-8	-0.4323619	4.861437	51.08174	0	11.57	4003	0	0	0	0	1.079078	-0.0683364	1	35	0	60
4410488	11	-4	-3	-0.4294558	4.867717	51.08669	0	11.57	4004	0	0	0	0	1.079078	-0.06893936	1	35	0	60
4410585	7	-4	-1	-0.4308526	4.864627	51.09029	0	11.57	4003	0	0	0	0	1.079078	-0.06229388	1	35	0	60
4410670	13	-7	-3	-0.4198818	4.867453	51.09517	0	11.57	4003	0	0	0	0	1.079078	-0.05413633	1	35	0	60
4410767	10	-1	-2	-0.4274585	4.866372	51.1006	0	11.57	4003	0	0	0	0	1.079078	-0.04807958	1	35	0	60
4410880	12	-2	-4	-0.4243538	4.872221	51.10432	0	11.57	4002	0	0	0	0	1.079078	-0.0344342	1	35	0	60
4410945	7	-3	-4	-0.4262687	4.868734	51.10909	0	11.57	4004	0	0	0	0	1.079078	-0.03097247	1	35	0	60
4411048	4	-2	0	-0.4341179	4.862571	51.11507	0	11.57	4003	0	0	0	0	1.079078	-0.02590741	1	35	0	60
4411157	4	8	-4	-0.438228	4.869165	51.12325	0	11.57	4003	0	0	0	0	1.079078	-0.02980751	1	35	0	60
4411253	19	3	0	-0.4388368	4.86444	51.12923	0	11.57	4003	0	0	0	0	1.079078	-0.03497116	1	35	0	60
4411422	7	-5	-5	-0.4301102	4.86326	51.13985	0	11.57	4004	0	0	0	0	1.079078	-0.03172536	1	35	0	60
4411511	3	2	-4	-0.4192099	4.863114	51.14577	0	11.57	4002	0	0	0	0	1.079078	-0.02571036	1	35	0	60
4411594	18	0	-2	-0.413798	4.858491	51.15059	0	11.57	4003	0	0	0	0	1.079078	-0.02863068	1	35	0	60
4411661	9	-2	-5	-0.4065725	4.861118	51.15437	0	11.57	4004	0	0	0	0	1.079078	-0.03575576	1	35	0	60
4411770	6	3	-7	-0.4061699	4.858789	51.15932	0	11.57	4002	0	0	0	0	1.079078	-0.05048456	1	35	0	60
4411878	6	-3	-3	-0.4009263	4.866472	51.16628	0	11.57	4003	0	0	0	0	1.079078	-0.06754048	1	35	0	60
4411976	-9	16	9	-0.4051641	4.87321	51.17482	0	11.57	4004	0	0	0	0	1.079078	-0.06898598	1	35	0	60
4412078	12	1	-11	-0.4104582	4.865971	51.18202	0	11.57	4002	0	0	0	0	1.079078	-0.07457865	1	35	0	60
4412177	12	0	-1	-0.4092172	4.868864	51.18813	0	11.57	4003	0	0	0	0	1.079078	-0.0739908	1	35	0	60
4412284	10	2	-3	-0.4118862	4.872125	51.19923	0	11.57	4004	0	0	0	0	1.079078	-0.06971356	1	35	0	60
4412384	12	2	0	-0.4099889	4.871307	51.20625	0	11.57	4003	0	0	0	0	1.079078	-0.06539965	1	35	0	60
4412453	16	-13	-10	-0.375757	4.913382	51.21658	0	11.57	4003	0	0	0	0	1.079078	-0.06164817	1	35	0	60
4412560	-394	441	-8	-0.8561459	4.200479	51.1736	0	11.57	4004	0	0	0	0	1.079078	-0.05373364	1	35	0	60
4412705	-417	1116	-14	-1.22842	3.538639	51.19077	0	11.57	4004	0	0	0	0	1.079078	-0.02644319	1	35	0	60
4412758	46	4409	-985	-1.401196	0.07887127	51.95106	0	11.57	4004	0	0	0	0	1.079078	-0.01908177	1	35	0	60
4412856	1999	2761	-209	-0.03063241	-3.720532	51.98685	0	11.57	4002	0	0	0	0	1.079078	-0.01330729	1	35	0	60
4413034	402	1174	-3692	2.698516	-12.60355	59.34869	0	11.57	4003	0	0	0	0	1.079078	0.01108835	1	35	0	60
4413120	535	-2313	-2863	2.62924	-12.01049	64.60425	0	11.57	4004	0	0	0	0	1.079078	0.01206467	1	35	0	60
4413269	1145	-1979	-2761	4.647483	-8.380595	70.1522	0	11.57	4004	0	0	0	0	1.079078	0.01672016	1	35	0	60
4413330	128	-1733	-3410	5.415987	-7.29498	73.67157	0	11.57	4004	0	0	0	0	1.079078	0.03032163	1	35	0	60
4413372	-6	-657	-2820	5.919212	-7.019096	77.18238	0	11.57	4004	0	0	0	0	1.079078	0.03612316	1	35	0	60
4413490	-625	-851	-2541	5.86729	-8.477637	81.35509	0	11.57	4004	0	0	0	0	1.079078	0.0672459	1	35	0	60
4413575	450	198	-2787	4.597325	-9.365234	85.59066	0	11.57	4003	0	0	0	0	1.079078	0.1096487	1	35	0	60
4413666	1330	-1449	-4062	4.089626	-9.668458	91.77508	0	11.57	4002	0	0	0	0	1.079078	0.1853882	1	35	0	60
4413788	-1035	-1156	-4518	3.508424	-8.482591	99.49863	0	11.57	4004	0	0	0	0	1.079078	0.2337696	1	35	0	60
4413901	-4429	-612	-8408	-3.31243	-7.007674	110.5291	0	11.57	4003	0	0	0	0	1.079078	0.2945553	1	35	0	60
4414026	-1930	2297	-8185	-9.811454	-6.90479	124.9307	0	11.57	4002	0	0	0	0	1.079078	0.3595098	1	35	0	60
4414070	-2460	3929	-6011	-12.14991	-8.579314	132.7561	0	11.57	4002	0	0	0	0	1.079078	0.3704632	1	35	0	60
4414222	-1870	5400	-3105	-18.77785	-14.70274	141.9896	0	11.51	4002	0	0	0	0	1.079078	0.4189997	1	35	0	60
4414318	1312	6265	-1765	-17.44366	-22.00496	145.9573	0	11.51	4003	0	0	0	0	1.079078	0.4585617	1	35	0	60
4414373	1328	3966	-2739	-15.84337	-25.61364	148.4757	0	11.51	4003	0	0	0	0	1.079078	0.4756335	1	35	0	60
4414477	2429	602	-2800	-14.16529	-26.07925	153.3006	0	11.51	4004	0	0	0	0	1.079078	0.4949968	1	35	0	60
4414586	3329	672	-3162	-10.52693	-25.3277	157.7139	0	11.51	4004	0	0	0	0	1.079078	0.5105446	1	35	0	60
4414760	4378	3717	-5393	-0.04735756	-24.81254	172.3799	0	11.51	4003	0	0	0	0	1.079078	0.5213213	1	35	0	60
4414852	1839	1908	-3952	0.7943795	-27.07934	177.6387	0	11.51	4003	0	0	0	0	1.079078	0.5218257	1	35	0	60
4414965	-4376	1045	2388	-2.618591	-27.69919	179.3387	0	11.51	4003	0	0	0	0	1.079078	0.5239311	1	35	0	60
4415029	-6142	-327	5396	-6.005372	-27.03699	174.9732	0	11.57	4003	0	0	0	0	1.079078	0.521069	1	35	0	60
4415105	-7098	-2670	8952	-8.855403	-25.58534	167.0263	0	11.57	4003	0	0	0	0	1.079078	0.522359	1	35	0	60
4415188	-6061	-6103	14075	-10.77105	-21.36384	147.0521	0	11.57	4004	0	0	0	0	1.079078	0.5276999	1	35	0	60
4415320	-6547	-6333	11423	-11.65088	-15.55592	125.3009	0	11.57	4004	0	0	0	0	1.079078	0.514263	1	35	0	60
4415381	-4940	-6578	9193	-13.87097	-10.66215	114.3609	0	11.57	4003	0	0	0	0	1.079078	0.5063766	1	35	0	60
4415485	-475	-4494	7648	-13.01999	-5.407749	99.95747	0	11.57	4002	0	0	0	0	1.079078	0.4893847	1	35	0	60
4415686	-2340	440	265	-7.300263	-9.137287	82.59974	0	11.57	4004	0	0	0	0	1.079078	0.4402131	1	35	0	60
4415732	-831	-2078	-491	-7.697975	-8.634706	82.73296	0	11.57	4004	0	0	0	0	1.079078	0.4188681	1	35	0	60
4415839	-161	-4191	2953	-5.513929	0.9449839	80.85448	0	11.57	4004	0	0	0	0	1.079078	0.3878074	1	35	0	60
4415933	429	-3346	4305	-5.428814	5.155719	74.5894	0	11.57	4002	0	0	0	0	1.079078	0.3365152	1	35	0	60
4416066	4823	950	443	-0.8212349	4.668897	67.06358	0	11.57	4004	0	0	0	0	1.079078	0.2971786	1	35	0	60
4416099	388	459	-192	-0.08052171	4.769525	67.22309	0	11.57	4004	0	0	0	0	1.079078	0.272883	1	35	0	60
4416170	6	0	26	-0.00602824	4.272183	67.24468	0	11.57	4003	0	0	0	0	1.079078	0.2479313	1	35	0	60
4416300	19	1	-12	-0.02896668	3.409849	67.27186	0	11.57	4003	0	0	0	0	1.079078	0.2166751	1	35	0	60
4416424	23	-10	-9	-0.05604139	2.997306	67.27913	0	11.57	4004	0	0	0	0	1.079078	0.1820615	1	35	0	60
4416562	23	-1	-3	-0.0855976	2.408085	67.29066	0	11.57	4002	0	0	0	0	1.079078	0.1542099	1	35	0	60
4416579	23	-1	-3	-0.0855976	2.408085	67.29066	0	11.57	4002	0	0	0	0	1.079078	0.1495258	1	35	0	60
4416748	13	0	-4	-0.1074181	1.940469	67.30232	0	11.57	4002	0	0	0	0	1.079078	0.1147584	1	35	0	60
4416780	16	-5	0	-0.1130466	1.85809	67.30354	0	11.57	4002	0	0	0	0	1.079078	0.1098931	1	35	0	60
4416917	15	1	-8	-0.1237956	1.572718	67.31404	0	11.63	4003	0	0	0	0	1.079078	0.08074103	1	35	0	60
4417019	13	3	-1	-0.1271592	1.397042	67.32106	0	11.63	4002	0	0	0	0	1.079078	0.05960164	1	35	0	60
4417127	20	0	-9	-0.1464684	1.184794	67.33064	0	11.63	4002	0	0	0	0	1.079078	0.02139639	1	35	0	60
4417172	13	-5	-8	-0.1492562	1.093599	67.33595	0	11.63	4003	0	0	0	0	1.079078	0.004347279	1	35	0	60
4417283	22	-5	-2	-0.1558182	0.9669831	67.34285	0	11.63	4004	0	0	0	0	1.079078	-0.01575662	1	35	0	60
4417464	10	-2	-3	-0.1516092	0.79625	67.35426	0	11.63	4003	0	0	0	0	1.079078	-0.05162211	1	35	0	60
4417603	22	-1	-3	-0.1621394	0.6793783	67.36409	0	11.63	4004	0	0	0	0	1.079078	-0.05987641	1	35	0	60
4417678	10	0	-9	-0.1625907	0.6109531	67.36818	0	11.63	4003	0	0	0	0	1.079078	-0.06670301	1	35	0	60
4417821	20	0	-4	-0.1616514	0.5357024	67.37978	0	11.63	4004	0	0	0	0	1.079078	-0.07587353	1	35	0	60
4417884	18	0	-4	-0.1630927	0.4962387	67.38399	0	11.63	4004	0	0	0	0	1.079078	-0.07714455	1	35	0	60
4417934	20	-1	-6	-0.1658854	0.4653214	67.38985	0	11.63	4004	0	0	0	0	1.079078	-0.07661698	1	35	0	60
4418065	22	0	-2	-0.1780925	0.4227751	67.39998	0	11.63	4003	0	0	0	0	1.079078	-0.08270602	1	35	0	60
4418135	16	-4	-4	-0.1903601	0.3699585	67.41023	0	11.63	4004	0	0	0	0	1.079078	-0.08742526	1	35	0	60
4418304	20	-5	-5	-0.1845847	0.3206928	67.42079	0	11.63	4004	0	0	0	0	1.079078	-0.09939866	1	35	0	60
4418342	17	-8	-5	-0.1849373	0.3067074	67.42458	0	11.63	4004	0	0	0	0	1.079078	-0.1007717	1	35	0	60
4418489	19	-6	-8	-0.1845277	0.2679658	67.43361	0	11.63	4003	0	0	0	0	1.079078	-0.1026196	1	35	0	60
4418570	19	0	0	-0.1825811	0.2488224	67.44026	0	11.63	4002	0	0	0	0	1.079078	-0.0970429	1	35	0	60
4418627	20	-3	-13	-0.1807962	0.2377799	67.44215	0	11.63	4003	0	0	0	0	1.079078	-0.0957134	1	35	0	60
4418734	17	-2	-7	-0.1820912	0.2251021	67.45247	0	11.63	4003	0	0	0	0	1.079078	-0.08651298	1	35	0	60
4418833	13	3	-8	-0.1781481	0.2138751	67.4615	0	11.63	4002	0	0	0	0	1.079078	-0.07839807	1	35	0	60
4418938	20	-4	-6	-0.1771251	0.2035347	67.46864	0	11.63	4004	0	0	0	0	1.079078	-0.06773954	1	35	0	60
4419036	14	2	-9	-0.1754378	0.1932584	67.4756	0	11.63	4004	0	0	0	0	1.079078	-0.05529665	1	35	0	60
4419153	16	5	-3	-0.1800129	0.1769125	67.48653	0	11.63	4002	0	0	0	0	1.079078	-0.05306172	1	35	0	60
4419229	23	3	-6	-0.1755092	0.170323	67.49269	0	11.63	4002	0	0	0	0	1.079078	-0.05542488	1	35	0	60
4419335	26	2	-4	-0.1753636	0.1654261	67.50307	0	11.63	4002	0	0	0	0	1.079078	-0.05443396	1	35	0	60
4419421	25	2	-5	-0.1780131	0.1584121	67.50966	0	11.63	4003	0	0	0	0	1.079078	-0.05988032	1	35	0	60
4419524	22	1	-2	-0.1737327	0.153427	67.51711	0	11.63	4002	0	0	0	0	1.079078	-0.06584074	1	35	0	60
4419627	14	0	-7	-0.1782939	0.1478157	67.52541	0	11.63	4004	0	0	0	0	1.079078	-0.06451093	1	35	0	60
4419750	20	3	-5	-0.1818418	0.1409954	67.53169	0	11.63	4003	0	0	0	0	1.079078	-0.06875923	1	35	0	60
4419839	22	-2	-3	-0.1771575	0.1392328	67.53914	0	11.63	4003	0	0	0	0	1.079078	-0.08147495	1	35	0	60
4419930	14	2	-2	-0.1728571	0.1314856	67.54298	0	11.63	4004	0	0	0	0	1.079078	-0.09616364	1	35	0	60
4420026	22	1	-8	-0.1703624	0.1253942	67.55208	0	11.63	4003	0	0	0	0	1.079078	-0.1057786	1	35	0	60
4420134	6	2	-1	-0.1696203	0.1245428	67.55916	0	11.63	4004	0	0	0	0	1.079078	-0.1171798	1	35	0	60
4420261	25	-5	-7	-0.1693614	0.1251402	67.56837	0	11.63	4003	0	0	0	0	1.079078	-0.1270911	1	35	0	60
4420339	16	-4	0	-0.1686741	0.117873	67.57393	0	11.63	4003	0	0	0	0	1.079078	-0.1323778	1	35	0	60
4420448	19	4	-6	-0.170582	0.1115352	67.58156	0	11.63	4004	0	0	0	0	1.079078	-0.1385379	1	35	0	60
4420523	10	0	-6	-0.1740846	0.1107657	67.58925	0	11.63	4004	0	0	0	0	1.079078	-0.1393216	1	35	0	60
4420675	14	1	-5	-0.1641433	0.1086348	67.59663	0	11.63	4002	0	0	0	0	1.079078	-0.1437729	1	35	0	60
4420764	18	1	-5	-0.1578994	0.109195	67.60426	0	11.63	4002	0	0	0	0	1.079078	-0.138061	1	35	0	60
4420823	23	6	-4	-0.1549734	0.1124838	67.6089	0	11.63	4002	0	0	0	0	1.079078	-0.137703	1	35	0	60
4420926	15	0	0	-0.1457712	0.1142507	67.61842	0	11.63	4004	0	0	0	0	1.079078	-0.1342047	1	35	0	60
4421029	20	0	-4	-0.1454987	0.1175649	67.62502	0	11.63	4003	0	0	0	0	1.079078	-0.1256569	1	35	0	60
4421130	27	1	-3	-0.1418366	0.113158	67.63411	0	11.63	4004	0	0	0	0	1.079078	-0.1287432	1	35	0	60
4421234	20	-1	-7	-0.132505	0.110171	67.64406	0	11.63	4003	0	0	0	0	1.079078	-0.132943	1	35	0	60
4421345	26	0	-7	-0.1347675	0.1063971	67.65413	0	11.63	4003	0	0	0	0	1.079078	-0.1348095	1	35	0	60
4421427	17	0	-1	-0.133774	0.1071413	67.65926	0	11.63	4004	0	0	0	0	1.079078	-0.1353943	1	35	0	60
4421582	23	-1	-12	-0.1341785	0.1066898	67.6689	0	11.63	4004	0	0	0	0	1.079078	-0.1378806	1	35	0	60
4421641	16	0	-7	-0.1304463	0.1064741	67.67891	0	11.63	4003	0	0	0	0	1.079078	-0.1304781	1	35	0	60
4421724	22	-5	-6	-0.1281567	0.1079713	67.68636	0	11.63	4003	0	0	0	0	1.079078	-0.1262251	1	35	0	60
4421825	18	2	-4	-0.134506	0.1052421	67.69356	0	11.63	4003	0	0	0	0	1.079078	-0.1179995	1	35	0	60
4422033	24	-1	-10	-0.1320657	0.1032356	67.70967	0	11.63	4003	0	0	0	0	1.079078	-0.1228544	1	35	0	60
4422060	26	6	-8	-0.1306518	0.1037273	67.71309	0	11.63	4004	0	0	0	0	1.079078	-0.1255459	3	35	0	60
4422134	23	-8	-6	-0.1305328	0.1079611	67.71785	0	11.63	4003	0	0	0	0	1.079078	-0.1286554	3	35	0	60
4422241	12	0	-6	-0.1268129	0.1099202	67.72847	0	11.63	4002	0	0	0	0	1.079078	-0.1289149	3	35	0	60
4422392	23	1	-2	-0.1262611	0.108125	67.73872	0	11.63	4004	0	0	0	0	1.079078	-0.1134178	3	35	0	60
4422442	21	-1	-2	-0.126517	0.1038483	67.74068	0	11.63	4003	0	0	0	0	1.079078	-0.1058658	3	35	0	60
4422546	14	-4	-3	-0.1231048	0.1005849	67.75038	0	11.63	4002	0	0	0	0	1.079078	-0.1019736	3	35	0	60
4422709	20	2	-5	-0.1204428	0.1028148	67.76161	0	11.63	4002	0	0	0	0	1.079078	-0.08964311	3	35	0	60
4422758	14	1	-8	-0.1242791	0.1048525	67.76711	0	11.63	4004	0	0	0	0	1.079078	-0.08914285	3	35	0	60
4422970	19	-1	-6	-0.1281468	0.1055248	67.77956	0	11.63	4002	0	0	0	0	1.079078	-0.09783828	3	35	0	60
4423065	23	4	-4	-0.1286852	0.1050382	67.79457	0	11.63	4003	0	0	0	0	1.079078	-0.09820881	3	35	0	60
4423177	22	2	-6	-0.1327562	0.09930041	67.80049	0	11.63	4003	0	0	0	0	1.079078	-0.08930086	3	35	0	60
4423278	23	0	-3	-0.1211726	0.09773265	67.80824	0	11.57	4004	0	0	0	0	1.079078	-0.0861888	3	35	0	60
4423359	19	-1	0	-0.1224985	0.1001628	67.81203	0	11.57	4002	0	0	0	0	1.079078	-0.08569399	3	35	0	60
4423480	21	3	-2	-0.1304116	0.09253801	67.82076	0	11.57	4003	0	0	0	0	1.079078	-0.07653224	3	35	0	60
4423620	19	3	-4	-0.1239252	0.08000205	67.82985	0	11.57	4002	0	0	0	0	1.079078	-0.06244469	3	35	0	60
4423756	19	-17	-65	-0.1264361	0.07388643	67.84097	0	11.57	4004	0	0	0	0	1.079078	-0.03707588	3	35	0	60
4423820	27	-2	49	-0.1284874	0.08081807	67.84243	0	11.57	4004	0	0	0	0	1.079078	-0.02904864	3	35	0	60
4423893	9	-10	-41	-0.1386453	0.07917432	67.85777	0	11.57	4004	1	-1	0	0	1.079078	-0.01762629	3	35	0	60
4423963	36	27	-24	-0.1450291	0.08639807	67.86406	0	11.57	4003	-3	4	0	0	1.079078	-0.002856883	3	35	0	60
4424066	-13	-20	-7	-0.121304	0.09180338	67.86864	0	11.57	4004	5	-5	-1	0	1.079078	0.02130458	3	35	0	60
4424181	4	45	-58	-0.1369001	0.07997997	67.88148	0	11.57	4004	1	2	0	0	1.079078	0.03424363	3	35	0	60
4424336	-9	40	33	-0.1340617	0.06736622	67.89088	0	11.57	4004	4	2	-2	0	1.079078	0.038721	3	35	0	60
4424439	4	23	54	-0.1115013	0.06471543	67.89961	0	11.57	4003	6	-5	-1	0	1.079078	0.03892885	3	35	0	60
4424508	45	37	-1	-0.1110836	0.07015689	67.90665	0	11.57	4004	-10	-3	-2	0	1.079078	0.039349	3	35	0	60
4424573	41	65	44	-0.0958271	0.06607827	67.91123	0	11.57	4002	-3	0	-1	0	1.079078	0.0434884	3	35	0	60
4424663	30	-13	29	-0.1084213	0.07550373	67.91559	0	11.57	4003	-7	2	-2	0	1.079078	0.04788621	3	35	0	60
4424776	115	-26	86	-0.04449612	0.0590361	67.91271	0	11.57	4003	-18	-18	-2	0	1.079078	0.04648948	3	35	0	60
4424871	64	2	-26	-0.09400541	0.09997487	67.94463	0	11.57	4004	23	2	-3	0	1.079078	0.0410235	3	35	0	60
4425029	48	46	14	-0.0675025	0.09953993	67.9436	0	11.57	4003	0	0	0	0	1.079078	0.03482249	3	35	0	60
4425155	18	30	-52	-0.05684334	0.096026	67.95921	0	11.63	4002	0	0	0	0	1.079078	0.02999593	3	35	0	60
4425198	45	44	-79	-0.06155464	0.102115	67.96207	0	11.63	4002	0	0	0	0	1.079078	0.02707483	3	35	0	60
4425305	61	-5	30	-0.06507517	0.1084008	67.97321	0	11.63	4004	0	0	0	0	1.079078	0.03130558	3	35	0	60
4425388	41	1	2	-0.0763813	0.1174083	67.9883	0	11.63	4004	2	-9	0	0	1.079078	0.03416181	3	35	0	60
4425532	35	-8	70	-0.08096027	0.1119874	67.99434	0	11.63	4004	3	8	0	0	1.079078	0.05408109	3	35	0	60
4425618	73	54	107	-0.1160779	0.1183946	68.00851	0	11.63	4004	3	-6	-1	0	1.079078	0.06947292	3	35	0	60
4425683	-17	-25	-62	-0.1146796	0.09609427	68.00919	0	11.63	4002	6	-2	0	0	1.079078	0.09113163	3	35	0	60
4425830	264	105	-151	-0.08017806	0.07417986	68.0267	0	11.63	4003	-53	25	-2	0	1.079078	0.1167056	3	35	0	60
4425914	36	-115	-104	-0.247162	0.1031496	68.03411	0	11.63	4002	-44	11	-2	0	1.079078	0.1264262	3	35	0	60
4426042	-127	-161	-160	-0.2199154	0.06801076	68.06406	0	11.57	4002	23	-6	1	0	1.079078	0.1399949	3	35	0	60
4426096	96	2	-148	-0.07959063	0.003278448	68.04545	0	11.57	4002	-27	11	-2	0	1.079078	0.1438212	3	35	0	60
4426287	62	38	-195	-0.03884853	-0.01119584	68.03287	0	11.57	4003	-16	-29	-5	0	1.079078	0.1574359	3	35	0	60
4426335	264	-7	-538	0.04517289	0.04069955	67.94832	0	11.57	4004	-25	5	7	0	1.079078	0.1603115	3	35	0	60
4426391	-122	1797	716	-0.2099163	-1.692086	67.54383	0	11.57	4004	-70	-36	26	0	1.079078	0.1710997	3	35	0	60
4426515	-692	3383	-932	0.2862139	-7.595626	67.24075	0	11.57	4011	76	-148	7	0	1.079078	0.2051845	3	35	0	60
4426582	-1266	5483	1210	-0.8683435	-13.50963	66.59865	0	11.57	4003	22	367	43	0	1.079078	0.2352872	3	35	0	60
4426745	644	-3200	-571	-0.8250976	-15.21321	67.30978	0	11.57	4003	-19	-263	15	0	1.079078	0.258135	3	35	0	60
4426819	-667	-4142	-276	-0.70476	-8.820056	67.9791	0	11.57	4003	154	-400	-18	0	1.079078	0.2710613	3	35	0	60
4426912	2025	618	653	0.1038666	-6.978282	68.54688	0	11.57	4004	-86	229	-16	0	1.079078	0.2837278	3	35	0	60
4426995	-648	-2119	-585	1.401769	-5.858769	68.60123	0	11.51	4003	6	154	-17	0	1.079078	0.3049396	3	35	0	60
4427118	605	-410	-523	-0.3487823	-2.728193	68.63328	0	11.51	4004	-44	-3	1	0	1.079078	0.3573393	3	35	0	60
4427178	-571	-2117	-1527	-0.7500879	-3.10747	68.53461	0	11.51	4004	103	-335	-31	0	1.079078	0.3907195	3	35	0	60
4427312	-271	852	608	-0.7781514	-1.983689	68.54978	0	11.51	4003	53	-216	-15	0	1.079078	0.4368921	3	35	0	60
4427491	2894	4255	1254	2.12216	-4.281167	67.60782	0	11.51	4002	-50	83	27	0	1.079078	0.5100937	3	35	0	60
4427557	1955	3942	1416	3.019861	-6.15738	67.43771	0	11.51	4003	-40	-81	-25	0	1.079078	0.5448824	3	35	0	60
4427692	-1178	-4120	-346	3.422113	-6.580783	68.98248	0	11.51	4003	-56	268	-17	0	1.079078	0.5905993	3	35	0	60
4427800	1414	8	317	1.28106	-4.166742	68.95313	0	11.51	4003	-53	243	-8	0	1.079078	0.6488276	3	35	0	60
4427902	-273	-1931	104	1.216689	-4.884022	68.72189	0	10.94	4003	0	-122	-15	0	1.079078	0.6733398	3	35	0	60
4427973	-757	-4839	-114	0.5416394	-1.678536	68.83454	0	10.94	4004	62	-267	-30	0	1.079078	0.6995915	3	35	0	60
4428092	91	-892	-284	1.728287	-1.65089	68.65367	0	10.94	4003	24	-195	-30	0	1.079078	0.7621582	3	35	0	60
4428206	-1940	-2202	79	0.7711627	-1.281008	68.69044	0	10.94	4004	-3	5	-33	0	1.079078	0.8177412	3	35	0	60
4428319	-316	2942	1064	-1.019706	-4.337743	68.28624	0	10.94	4004	-56	45	11	0	1.079078	0.8864768	3	35	0	60
4428370	-321	-127	481	-1.330137	-5.050912	68.19553	0	10.94	4003	-85	64	2	0	1.079078	0.9175351	3	35	0	60
4428468	-1282	426	-1581	-1.841459	-5.109166	68.10867	0	10.94	4004	-70	252	11	0	1.079078	0.9498308	3	35	0	60
4428570	-38	477	-952	-2.739232	-8.69022	67.82892	0	10.94	4002	35	-118	-12	0	1.079078	0.9806575	3	35	0	60
4428698	-172	1102	-856	-2.445017	-11.67146	68.5343	0	10.94	4002	-73	246	6	0	1.079078	1.006672	3	35	0	60
4428764	1480	2469	-1162	-2.113009	-13.50738	69.15317	0	10.43	4003	-11	45	-14	0	1.079078	1.017201	3	35	0	60
4428941	791	3449	1057	-0.04145446	-17.62863	69.12717	0	10.43	4004	-109	181	-10	0	1.079078	1.038987	3	35	0	60
4428992	-340	1320	712	-0.2820281	-19.03703	68.67992	0	10.43	4004	-93	50	0	0	1.079078	1.048601	3	35	0	60
4429075	1031	-1083	-721	0.598657	-16.66201	68.32796	0	10.43	4004	-23	44	-24	0	1.079078	1.063655	3	35	0	60
4429164	-478	-3642	-709	0.473986	-14.54809	68.4171	0	10.43	4004	97	-190	-18	0	1.079078	1.084151	3	35	0	60
4429311	-2929	-3410	-1112	-2.610841	-7.337154	68.1961	0	10.43	4004	12	230	4	0	1.079078	1.097734	3	35	0	60
4429371	-1406	-663	-553	-5.024918	-5.840777	68.12299	0	10.43	4003	11	-119	-8	0	1.079078	1.100774	3	35	0	60
4429493	-735	-236	480	-5.757811	-6.442313	68.30541	0	10.43	4004	43	-334	0	0	1.079078	1.113049	3	35	0	60
4429564	-375	936	1721	-5.399454	-6.356296	67.85148	0	10.43	4003	-49	-132	7	0	1.079078	1.127197	3	35	0	60
4429668	-1	1108	1010	-5.756961	-6.211948	67.89329	0	10.43	4004	22	-215	-16	0	1.079078	1.145716	3	35	0	60
4429795	1717	505	971	-2.946931	-5.978588	68.01286	0	10.38	4004	-22	82	-4	0	1.079078	1.174216	3	35	0	60
4429917	361	869	1054	-2.260474	-5.786049	67.80785	0	10.38	4002	-74	267	14	0	1.079078	1.176559	3	35	0	60
4429998	911	1572	1134	-2.203258	-6.458899	67.69186	0	10.38	4002	3	-205	-8	0	1.079078	1.152036	3	35	0	60
4430077	-760	1439	-94	-1.719262	-7.425124	68.10359	0	10.38	4003	71	158	1	0	1.079078	1.145472	3	35	0	60
4430184	1986	311	-1550	-2.316186	-8.301345	68.38187	0	10.38	4002	0	-263	-22	0	1.079078	1.101876	3	35	0	60
4430345	-398	1863	48	-1.157266	-11.9481	68.34686	0	10.38	4004	-4	-228	-27	0	1.079078	1.038707	3	35	0	60
4430379	-56	3356	1453	-1.694518	-13.85765	68.28875	0	10.38	4004	-53	155	10	0	1.079078	1.027773	3	35	0	60
4430481	-459	-1903	-1698	-2.924345	-16.21116	68.41779	0	10.38	4003	-49	-317	-18	0	1.079078	0.9791062	3	35	0	60
4430600	-800	-568	-988	-2.022207	-14.21593	68.05992	0	9.81	4003	4	241	6	0	1.079078	0.9099969	3	35	0	60
4430691	-83	258	1744	-2.462892	-14.62958	67.5854	0	9.81	4002	48	-367	-7	0	1.079078	0.8597016	3	35	0	60
4430789	1135	2855	592	-1.336328	-14.87632	67.50811	0	9.81	4003	20	-27	4	0	1.079078	0.8229019	3	35	0	60
4430916	846	2029	191	1.08514	-16.80662	68.18745	0	9.81	4004	-46	280	-11	0	1.079078	0.7886399	3	35	0	60
4430984	-966	-641	-809	-1.094991	-17.09519	68.47974	0	9.81	4003	-49	400	-6	0	1.079078	0.7696474	3	35	0	60
4431127	-119	-3967	-1418	-0.5433457	-9.453856	69.3647	0	9.81	4002	-6	-235	-50	0	1.079078	0.7427421	3	35	0	60
4431210	-1794	-365	695	-2.078202	-8.728942	69.08177	0	9.81	4004	24	-227	-45	0	1.079078	0.7053949	3	35	0	60
4431256	35	179	322	-2.557348	-8.291924	68.96195	0	9.81	4003	-11	242	-2	0	1.079078	0.6853163	3	35	0	60
4431403	2269	61	-2024	0.2151274	-8.031103	69.51078	0	9.81	4004	-15	-125	-68	0	1.079078	0.6565955	3	35	0	60
4431475	222	-987	-1043	1.697044	-9.046548	70.21384	0	9.81	4004	83	-116	-66	0	1.079078	0.6374235	3	35	0	60
4431560	-1090	-1186	259	0.2012705	-6.647734	70.35155	0	10.66	4004	-93	285	-56	0	1.079078	0.6269162	3	35	0	60
4431675	1459	1870	-251	0.373912	-9.005637	69.19379	0	10.66	4002	5	-143	-42	0	1.079078	0.592665	3	35	0	60
4431759	316	-2561	242	1.744349	-8.980274	68.62292	0	10.66	4002	43	-239	-16	0	1.079078	0.5715939	3	35	0	60
4431853	-498	-1977	1310	0.31387	-1.742806	68.77835	0	10.66	4002	70	-400	-34	0	1.079078	0.5426451	3	35	0	60
4432030	867	-1875	-690	-0.04402609	-5.06376	68.93167	0	10.66	4004	-5	-154	-30	0	1.079078	0.5051732	3	35	0	60
4432091	-484	-2382	-700	0.1039983	-3.800951	68.97408	0	10.66	4003	-17	-53	-36	0	1.079078	0.493466	3	35	0	60
4432161	-2190	-37	127	-1.04253	-3.99339	68.68392	0	10.66	4004	45	-58	0	0	1.079078	0.4738089	3	35	0	60
4432243	913	57	847	-2.112457	-4.469495	67.91828	0	10.66	4004	10	-71	7	0	1.079078	0.4639051	3	35	0	60
4432346	418	3427	643	-0.1993407	-7.390819	67.16275	0	10.66	4004	-25	249	34	0	1.079078	0.4356694	3	35	0	60
4432448	447	1685	690	-1.124504	-10.33013	66.8638	0	9.58	4003	27	6	24	0	1.079078	0.417446	3	35	0	60
4432541	191	-12	-505	-0.7581422	-10.07568	67.24657	0	9.58	4004	-87	45	9	0	1.079078	0.4080241	3	35	0	60
4432639	191	-12	-505	-0.7581422	-10.07568	67.24657	0	9.58	4004	-48	-47	3	0	1.079078	0.3993079	3	35	0	60
4432756	-261	-853	-1125	-1.404896	-7.994576	67.43472	0	9.58	4003	-116	294	39	0	1.079078	0.3865383	3	35	0	60
4432863	1708	-1901	-1049	0.7101761	-8.050557	67.54398	0	9.58	4004	47	-400	1	0	1.079078	0.3831763	3	35	0	60
4433039	-334	-2798	-1111	0.4717897	-7.021701	67.88212	0	9.58	4002	22	-88	22	0	1.079078	0.3921829	3	35	0	60
4433051	-334	-2798	-1111	0.4717897	-7.021701	67.88212	0	9.58	4002	-30	47	8	0	1.079078	0.3946738	3	35	0	60
4433131	-722	-1572	-819	0.6810158	-8.087327	68.11068	0	9.58	4004	66	-322	-19	0	1.079078	0.3954028	3	35	0	60
4433279	438	942	197	-1.944582	-8.549675	67.73181	0	9.58	4004	-1	-32	3	0	1.079078	0.389601	3	35	0	60
4433321	1356	-833	279	-1.499201	-8.706838	67.55323	0	9.98	4004	31	-352	23	0	1.079078	0.3865195	3	35	0	60
4433428	-538	2018	-14	-1.222134	-10.21014	67.0223	0	9.98	4004	15	66	21	0	1.079078	0.3861485	3	35	0	60
4433549	255	445	740	-1.994695	-10.19767	67.05463	0	9.98	4003	25	59	10	0	1.079078	0.3943803	3	35	0	60
4433629	755	1966	379	-0.8652613	-10.6511	67.32637	0	9.98	4004	-30	250	19	0	1.079078	0.4035407	3	35	0	60
4433868	-54	1896	1121	-1.938492	-14.54928	68.09012	0	9.98	4002	5	-40	-24	0	0.9857674	0.4467798	4	35	0	60
4433995	348	-1037	-644	-1.912589	-15.21293	67.90509	0	9.98	4004	-21	163	34	4	0.8773783	0.4564178	4	35	0	60
4434071	1069	-36	1669	-0.6878818	-14.91162	67.26856	0	9.98	4004	62	-259	13	3	0.8949121	0.4562447	4	35	0	60
4434136	286	-3790	154	-0.01043677	-11.65773	67.23402	0	9.98	4003	62	-259	13	3	0.9013969	0.4604442	4	35	0	60
4434285	-316	-605	1259	0.6956285	-6.401767	67.63467	0	10.72	4003	-23	227	23	3	0.9007223	0.4618399	4	35	0	60
