time(ms)	gyro_x(deg/s)	gyro_y(deg/s)	gyro_z(deg/s)	orientation_roll(deg)	orientation_pitch(deg)	orientation_yaw(deg)	throttle	battery(V)	loop_time(uS)	pid_output_roll	pid_output_pitch	pid_output_yaw	pid_output_throttle	ultrasonic_alt	baro_alt	flight_mode	p_gain_altitude	i_gain_altitude	d_gain_altitude
4496192	-273	-2984	-477	-3.003962	5.031739	72.89442	0	10.32	4003	-49	30	-7	-83	1.293468	3.757093	5	35	0	300
4496287	-8	-2243	298	-3.756027	7.235674	72.04536	0	10.32	4004	-17	15	9	-82	1.171284	3.855548	5	35	0	300
4496442	735	1069	-188	-2.051842	4.470242	72.03132	0	10.32	4003	-92	137	3	-99	1.293994	4.067787	5	35	0	300
4496498	-731	36	-320	-2.370213	3.081979	72.17353	0	10.32	4004	-28	-59	-6	-172	1.311258	4.128273	5	35	0	300
4496636	-59	-834	245	-2.832122	3.337878	72.18394	0	10.32	4004	-44	-48	1	-105	1.206593	4.207217	5	35	0	300
4496707	-457	167	912	-3.373561	2.72388	71.85081	0	10.32	4003	-29	-60	6	-99	1.229822	4.227439	5	35	0	300
4496821	-358	285	61	-3.857469	1.338782	71.51482	0	10.32	4003	-10	-100	13	-101	1.302463	4.271893	5	35	0	300
4496919	365	840	-981	-3.879116	0.2384485	71.8082	0	10.32	4002	21	-66	18	0	1.333857	4.289387	5	35	0	300
4497012	60	2945	478	-3.830884	-2.582563	71.75211	0	10.09	4003	-28	103	10	0	1.359287	4.298161	3	35	0	300
4497134	880	1770	-683	-3.015735	-7.229478	72.10176	0	10.09	4004	1	6	-12	0	1.396569	4.304633	3	35	0	300
4497273	-868	2911	479	-4.246338	-10.4255	72.55766	0	10.09	4004	32	-3	-4	0	1.42103	4.283262	3	35	0	300
4497375	498	2147	795	-5.280195	-12.66041	71.75862	0	10.09	4003	-18	234	32	0	1.437079	4.253573	3	35	0	300
4497428	498	2147	795	-5.280195	-12.66041	71.75862	0	10.09	4003	46	8	34	0	1.44014	4.2405	3	35	0	300
4497565	378	2227	-1248	-5.926113	-17.45045	71.27341	0	10.09	4003	-80	273	16	0	1.449617	4.199552	3	35	0	300
4497728	117	1318	-125	-3.812921	-17.22693	73.35493	0	10.09	4003	0	237	-29	0	1.457021	4.117725	3	35	0	300
4497785	2252	1501	-2033	-3.361494	-18.24316	73.67245	0	10.09	4003	-66	112	-34	0	1.458089	4.093811	3	35	0	300
4497861	-941	-2791	960	0.4982737	-19.8186	73.54571	0	10.09	4004	-72	230	-30	0	1.461393	4.027506	3	35	0	300
4497934	-1208	-2960	1121	0.05753483	-17.58589	73.08498	0	9.98	4003	39	15	-8	0	1.462591	3.980575	3	35	0	300
4498119	-111	2425	373	1.757682	-10.97565	72.0035	0	9.98	4004	-105	218	19	0	1.464682	3.872016	3	35	0	300
4498188	-775	1216	191	0.4237134	-12.02183	71.70026	0	9.98	4004	-45	104	14	0	1.465255	3.828491	3	35	0	300
4498261	246	-149	-1742	-0.3169776	-12.44946	72.06268	0	9.98	4003	-45	104	14	0	1.465719	3.784363	3	35	0	300
4498476	-2653	-948	295	-7.348998	-12.18427	71.90771	0	9.98	4004	32	-141	11	0	1.466646	3.683012	3	35	0	300
4498607	327	5713	1091	-7.520589	-14.41428	71.04256	0	9.98	4003	-31	342	15	0	1.467007	3.627138	3	35	0	300
4498648	327	5713	1091	-7.520589	-14.41428	71.04256	0	9.98	4003	10	-185	-3	0	1.467076	3.613852	3	35	0	300
4498750	-1834	-833	-1343	-9.011659	-17.96582	71.86063	0	9.98	4002	-109	64	-30	0	1.467245	3.587471	3	35	0	300
4498932	-802	380	814	-7.958209	-10.20834	73.57686	0	10.32	4003	71	-97	-26	0	1.467457	3.528002	3	35	0	300
4499071	2328	1478	255	-4.960668	-10.74328	73.06631	0	10.32	4003	19	-96	-26	0	1.467539	3.472097	3	35	0	300
4499181	209	-2401	-459	-3.510755	-7.623687	73.57896	0	10.32	4003	114	-241	-39	0	1.467593	3.393431	3	35	0	300
4499357	995	-911	173	-1.781443	-6.890168	73.15488	0	10.32	4003	-56	90	-11	0	1.467636	3.270948	3	35	0	300
4499418	1009	2612	1038	-0.6936072	-7.889443	72.60249	0	10.32	4002	-92	400	11	0	1.467647	3.230659	3	35	0	300
4499485	396	-335	1366	-0.2591163	-7.845835	72.06361	0	10.32	4003	-77	317	20	0	1.467661	3.133022	3	35	0	300
4499592	91	-155	-15	-1.489164	-5.299251	71.59255	0	10.32	4003	-103	-71	7	0	1.467668	3.072833	3	35	0	300
4499766	40	-950	145	-1.377121	-6.873528	70.75652	0	10.32	4002	46	-258	40	0	1.467681	2.926932	3	35	0	300
4499867	658	-1930	-35	-1.930356	-3.189693	70.98002	0	11	4002	-13	-11	27	0	1.467684	2.861693	3	35	0	300
4499969	191	-2119	-1252	-1.810969	-2.139275	71.0906	0	11	4003	-21	210	54	0	1.467688	2.754164	3	35	0	300
4500102	-224	-2175	-199	-3.881229	-1.280334	70.1222	0	11	4004	6	-10	89	0	1.467691	2.660512	3	35	0	300
4500214	624	843	1056	-4.326947	-1.910654	68.10327	0	11	4002	-75	-117	89	0	1.467693	2.566141	3	35	0	300
4500269	624	843	1056	-4.326947	-1.910654	68.10327	0	11	4002	5	-36	108	0	1.467693	2.566141	3	35	0	300
4500387	-1714	4178	1043	-4.534072	-4.210084	67.53893	0	11	4004	-76	-117	114	0	1.467695	2.477708	3	35	0	300
4500527	245	2104	-1394	-5.773135	-10.97788	69.27164	0	11	4004	-72	10	54	0	1.467695	2.443788	3	35	0	300
4500638	-3029	1305	-3425	-8.274304	-12.82501	70.90292	0	11	4003	-13	272	-3	0	1.467696	2.348849	3	35	0	300
4500680	-545	2986	-188	-10.98406	-14.55578	73.25512	0	10.6	4003	-1	-202	-37	0	1.467696	2.29131	3	35	0	300
4500825	-793	3626	1562	-9.020601	-15.51474	74.7091	0	10.6	4004	31	-66	-72	0	1.467696	2.073136	3	35	0	300
4500876	-508	1213	-539	-9.044946	-16.04804	74.45966	0	10.6	4002	-21	-26	-36	0	1.467696	2.007756	3	35	0	300
4501007	2480	-1063	836	-5.696647	-12.82378	73.98241	0	10.6	4004	-64	332	-35	0	1.467696	1.813542	3	35	0	300
4501074	4992	1118	-1000	-1.643297	-13.04516	74.39227	0	10.6	4003	-50	-181	-55	0	1.467696	1.799348	3	35	0	300
4501181	2555	-2909	291	4.928784	-14.1013	74.27419	0	10.6	4002	-30	204	-35	0	1.467696	1.703121	3	35	0	300
4501295	1777	-2616	821	10.01146	-7.75359	74.04395	0	10.6	4003	-30	-190	-54	0	1.467696	1.521244	3	35	0	300
4501468	2362	10982	1174	4.77133	-1.071074	74.18328	0	10.6	4004	0	0	0	0	1.467696	1.4169	3	35	0	300
4501506	-1700	6870	-157	4.503374	-5.020905	74.33773	0	10.6	4003	0	0	0	0	1.467696	1.225409	3	35	0	300
4501639	-1	-193	-1457	3.020913	-1.622959	74.05657	0	11.11	4010	0	0	0	0	1.467696	1.164993	3	35	0	300
4501690	-16	540	487	2.526216	-1.228814	74.65069	0	11.11	4002	0	0	0	0	1.467696	1.109406	3	35	0	300
4501847	-45	78	18	1.632802	-0.7125421	74.65125	0	11.11	4004	0	0	0	0	1.467696	0.9944534	1	35	0	300
4501938	-39	-4	-94	1.360855	-0.5907562	74.64618	0	11.11	4004	0	0	0	0	1.467696	0.9218988	1	35	0	300
4502017	-37	-16	-78	1.211587	-0.503786	74.63394	0	11.11	4003	0	0	0	0	1.467696	0.871464	1	35	0	300
4502124	-60	-12	49	0.9545972	-0.429495	74.6239	0	11.11	4002	0	0	0	0	1.467696	0.8096688	1	35	0	300
4502228	-45	6	34	0.7586834	-0.3406638	74.61772	0	11.11	4003	0	0	0	0	1.467696	0.7320418	1	35	0	300
4502312	-61	5	18	0.5738769	-0.270896	74.60732	0	11.11	4003	0	0	0	0	1.467696	0.6718677	1	35	0	300
4502522	-27	0	27	0.2712823	-0.135973	74.58827	0	11.11	4002	0	0	0	0	1.467696	0.5919819	1	35	0	300
4502653	-46	7	-10	0.1042336	-0.06791052	74.57384	0	11.11	4003	0	0	0	0	1.467696	0.533965	1	35	0	300
4502726	-49	-26	-18	0.0511669	-0.03231667	74.56986	0	11.11	4003	0	0	0	0	1.467696	0.5069618	1	35	0	300
4502889	-56	21	-24	-0.05335533	0.01761249	74.5618	0	11.11	4003	0	0	0	0	1.467696	0.4505416	1	35	0	300
4503022	-42	11	-26	-0.1494931	0.06284541	74.55082	0	11.11	4003	0	0	0	0	1.467696	0.4131328	1	35	0	300
4503088	-30	10	-7	-0.1940886	0.08082534	74.54765	0	11.11	4002	0	0	0	0	1.467696	0.4002765	1	35	0	300
4503220	-38	-6	-7	-0.2589531	0.1091181	74.53667	0	11.11	4004	0	0	0	0	1.467696	0.3860512	1	35	0	300
4503371	-34	0	-8	-0.3226045	0.1291705	74.52757	0	11.11	4004	0	0	0	0	1.467696	0.3624859	1	35	0	300
4503431	-41	3	2	-0.3307696	0.1327775	74.52556	0	11.11	4003	0	0	0	0	1.467696	0.3526773	1	35	0	300
4503526	-42	0	-1	-0.3638133	0.1463755	74.52092	0	11.17	4004	0	0	0	0	1.467696	0.3391617	1	35	0	300
4503614	-38	-1	2	-0.397031	0.1521276	74.5139	0	11.17	4002	0	0	0	0	1.467696	0.3261507	1	35	0	300
4503789	-40	1	0	-0.4341587	0.1819023	74.5056	0	11.17	4002	0	0	0	0	1.467696	0.3064589	1	35	0	300
4503841	-34	-4	6	-0.4498649	0.1878267	74.50194	0	11.17	4003	0	0	0	0	1.467696	0.2995608	1	35	0	300
4503914	-33	1	6	-0.4614474	0.1948122	74.49858	0	11.17	4002	0	0	0	0	1.467696	0.2931902	1	35	0	300
4504115	-36	1	4	-0.4979988	0.2020894	74.48985	0	11.17	4004	0	0	0	0	1.467696	0.2916989	1	35	0	300
4504199	-39	2	6	-0.5007164	0.2107165	74.48711	0	11.17	4002	0	0	0	0	1.467696	0.2878358	1	35	0	300
4504377	-36	8	4	-0.5217983	0.2228777	74.48112	0	11.17	4004	0	0	0	0	1.467696	0.2880429	1	35	0	300
4504408	-36	8	4	-0.5217983	0.2228777	74.48112	0	11.17	4004	0	0	0	0	1.467696	0.2868899	1	35	0	300
4504543	-39	-5	4	-0.5254865	0.2341799	74.47649	0	11.17	4002	0	0	0	0	1.467696	0.2875519	1	35	0	300
4504667	-41	0	0	-0.5344273	0.2476591	74.4705	0	11.17	4004	0	0	0	0	1.467696	0.2980503	1	35	0	300
4504782	-41	-3	1	-0.550349	0.2428243	74.46843	0	11.17	4005	0	0	0	0	1.467696	0.2984511	1	35	0	300
4504816	-37	3	3	-0.5525245	0.2422452	74.46758	0	11.17	4003	0	0	0	0	1.467696	0.2999884	1	35	0	300
4504903	-28	7	6	-0.5445336	0.2469252	74.46342	0	11.17	4004	0	0	0	0	1.467696	0.3042614	1	35	0	300
4505061	-36	3	5	-0.5475345	0.2458694	74.45671	0	11.17	4003	0	0	0	0	1.467696	0.2890458	1	35	0	300
4505166	-30	1	1	-0.5560201	0.246727	74.45415	0	11.17	4004	0	0	0	0	1.467696	0.2818248	1	35	0	300
4505281	-29	-1	3	-0.5540708	0.2494574	74.45	0	11.17	4004	0	0	0	0	1.467696	0.2838505	1	35	0	300
4505333	-33	-4	1	-0.5553433	0.2509564	74.44798	0	11.23	4004	0	0	0	0	1.467696	0.2832845	1	35	0	300
4505420	-34	2	2	-0.5528655	0.250874	74.44646	0	11.23	4003	0	0	0	0	1.467696	0.2826596	1	35	0	300
4505549	-36	-2	3	-0.5496441	0.2480483	74.44328	0	11.23	4003	0	0	0	0	1.467696	0.2806566	1	35	0	300
4505660	-31	-3	10	-0.5533039	0.2495253	74.44139	0	11.23	4002	0	0	0	0	1.467696	0.2871311	1	35	0	300
4505832	-38	3	6	-0.5509446	0.2528352	74.43498	0	11.23	4002	0	0	0	0	1.467696	0.2938532	1	35	0	300
4505957	-35	0	0	-0.5527437	0.2603241	74.4287	0	11.23	4004	0	0	0	0	1.467696	0.2962182	1	35	0	300
4506058	-34	-3	4	-0.5539659	0.2577482	74.4229	0	11.23	4004	0	0	0	0	1.467696	0.3008639	1	35	0	300
4506285	-33	3	3	-0.5526209	0.2609787	74.41844	0	11.23	4002	0	0	0	0	1.467696	0.3243103	1	35	0	300
4506446	-36	5	1	-0.5510637	0.2624275	74.41484	0	11.23	4003	0	0	0	0	1.467696	0.34912	1	35	0	300
4506607	-33	0	2	-0.5509807	0.2560614	74.40898	0	11.23	4002	0	0	0	0	1.467696	0.3796907	1	35	0	300
4506714	-40	7	1	-0.5536135	0.2609628	74.4055	0	11.23	4002	0	0	0	0	1.467696	0.3799339	1	35	0	300
4506808	-36	5	2	-0.5507048	0.2559362	74.40239	0	11.23	4003	0	0	0	0	1.467696	0.3733669	1	35	0	300
4506853	-35	2	5	-0.5527128	0.2561194	74.40227	0	11.23	4004	0	0	0	0	1.467696	0.3675664	1	35	0	300
4506978	-30	-3	0	-0.5520238	0.2534065	74.39586	0	11.23	4004	0	0	0	0	1.467696	0.3610715	1	35	0	300
4507011	-38	2	0	-0.5516115	0.251997	74.39439	0	11.23	4003	0	0	0	0	1.467696	0.3587992	1	35	0	300
4507116	-39	1	1	-0.5466415	0.2541913	74.39299	0	11.23	4002	0	0	0	0	1.467696	0.349952	1	35	0	300
4507266	-33	3	4	-0.5445052	0.2560694	74.39049	0	11.23	4002	0	0	0	0	1.467696	0.342767	1	35	0	300
4507338	-33	2	4	-0.5417644	0.2540931	74.38914	0	11.23	4002	0	0	0	0	1.467696	0.3384315	1	35	0	300
4507420	-40	1	-1	-0.5420703	0.2462673	74.38713	0	11.23	4003	0	0	0	0	1.467696	0.3291599	1	35	0	300
4507593	-33	1	-1	-0.5384185	0.2496864	74.38567	0	11.23	4003	0	0	0	0	1.467696	0.3152221	1	35	0	300
4507751	-30	0	4	-0.5320895	0.2541497	74.38194	0	11.23	4002	0	0	0	0	1.467696	0.2959443	1	35	0	300
4507846	-29	7	0	-0.5369616	0.2543912	74.38011	0	11.23	4003	0	0	0	0	1.467696	0.2829205	1	35	0	300
4508010	-29	2	0	-0.530329	0.2564819	74.37639	0	11.23	4004	0	0	0	0	1.467696	0.26345	1	35	0	300
4508125	-28	0	1	-0.5231494	0.2576926	74.37437	0	11.29	4002	0	0	0	0	1.467696	0.2490885	1	35	0	300
4508232	-34	3	1	-0.5253307	0.2597972	74.37218	0	11.29	4003	0	0	0	0	1.467696	0.248496	1	35	0	300
4508355	-28	-1	2	-0.5229359	0.2582091	74.36656	0	11.29	4003	0	0	0	0	1.467696	0.246346	1	35	0	300
4508477	-34	3	6	-0.5215856	0.253654	74.36339	0	11.29	4003	0	0	0	0	1.467696	0.2381746	1	35	0	300
4508530	-31	3	3	-0.5168101	0.2537528	74.36119	0	11.29	4002	0	0	0	0	1.467696	0.2413281	1	35	0	300
4508624	-38	0	0	-0.5145525	0.2503992	74.35838	0	11.29	4002	0	0	0	0	1.467696	0.2479249	1	35	0	300
4508735	-29	0	6	-0.5085532	0.2482307	74.35533	0	11.29	4003	0	0	0	0	1.467696	0.2625594	1	35	0	300
4508870	-36	2	-2	-0.5083464	0.2464663	74.35283	0	11.29	4002	0	0	0	0	1.467696	0.2758323	1	35	0	300
4508946	-28	2	-2	-0.5047113	0.2463606	74.35246	0	11.29	4003	0	0	0	0	1.467696	0.2808686	1	35	0	300
4509168	-36	0	0	-0.498286	0.2486413	74.34715	0	11.29	4004	0	0	0	0	1.467696	0.3107628	1	35	0	300
4509289	-29	2	1	-0.4974461	0.2500516	74.34502	0	11.29	4004	0	0	0	0	1.467696	0.3089862	1	35	0	300
4509391	-25	4	3	-0.4904146	0.247012	74.34453	0	11.29	4003	0	0	0	0	1.467696	0.3103056	1	35	0	300
4509494	-28	0	-4	-0.4815982	0.2461732	74.34367	0	11.29	4003	0	0	0	0	1.467696	0.3114772	1	35	0	300
4509615	-29	2	-1	-0.4850415	0.249083	74.34367	0	11.29	4003	0	0	0	0	1.467696	0.3128404	1	35	0	300
4509678	-34	0	0	-0.4850914	0.2513807	74.34349	0	11.29	4004	0	0	0	0	1.467696	0.3161754	1	35	0	300
4509747	-25	-2	-4	-0.4797267	0.2514715	74.34319	0	11.29	4002	0	0	0	0	1.467696	0.3172324	1	35	0	300
4509851	-29	2	-2	-0.4813441	0.2521603	74.34349	0	11.29	4003	0	0	0	0	1.467696	0.3157518	1	35	0	300
4510031	-26	1	0	-0.4772767	0.2502613	74.34245	0	11.29	4002	0	0	0	0	1.467696	0.3048654	1	35	0	300
4510070	-20	0	0	-0.4711163	0.2494565	74.34209	0	11.29	4004	0	0	0	0	1.467696	0.3010358	1	35	0	300
4510173	-20	5	-2	-0.4606045	0.247956	74.34294	0	11.29	4004	0	0	0	0	1.467696	0.2935913	1	35	0	300
4510322	-28	1	0	-0.452208	0.250675	74.34142	0	11.29	4002	0	0	0	0	1.467696	0.2665007	1	35	0	300
4510372	-24	-2	1	-0.4496816	0.2543862	74.3416	0	11.29	4003	0	0	0	0	1.467696	0.2637969	1	35	0	300
4510467	-28	3	0	-0.4527821	0.2553146	74.3416	0	11.29	4002	0	0	0	0	1.467696	0.2560925	1	35	0	300
4510595	-28	3	-1	-0.4466671	0.2558112	74.34184	0	11.29	4004	0	0	0	0	1.467696	0.2584099	1	35	0	300
4510676	-30	-2	5	-0.4442079	0.2546981	74.34087	0	11.29	4004	0	0	0	0	1.467696	0.2633796	1	35	0	300
4510785	-25	-1	-6	-0.4412013	0.2451469	74.34142	0	11.29	4004	0	0	0	0	1.467696	0.2687151	1	35	0	300
4510836	-20	1	-1	-0.4394789	0.2425708	74.34099	0	11.29	4003	0	0	0	0	1.467696	0.2690634	1	35	0	300
4510960	-26	1	-2	-0.4431012	0.2435767	74.34093	0	11.29	4003	0	0	0	0	1.467696	0.2669766	1	35	0	300
4511042	-26	4	-1	-0.4443947	0.2453078	74.34251	0	11.29	4003	0	0	0	0	1.467696	0.2605646	1	35	0	300
4511193	-25	0	1	-0.4420569	0.2557316	74.34325	0	11.29	4004	0	0	0	0	1.467696	0.2503922	1	35	0	300
4511314	-28	0	0	-0.4446311	0.2585847	74.34398	0	11.29	4003	0	0	0	0	1.467696	0.2312072	1	35	0	300
4511397	-24	-1	2	-0.4434155	0.2640464	74.34465	0	11.29	4002	0	0	0	0	1.467696	0.2187722	1	35	0	300
4511478	-22	7	-2	-0.4418662	0.2549253	74.34526	0	11.29	4003	0	0	0	0	1.467696	0.2144781	1	35	0	300
4511587	-25	2	-4	-0.4419354	0.2579567	74.34618	0	11.29	4003	0	0	0	0	1.467696	0.2126574	1	35	0	300
4511641	-28	3	-1	-0.4353485	0.251181	74.34758	0	11.29	4003	0	0	0	0	1.467696	0.2096768	1	35	0	300
4511768	-28	1	-5	-0.431732	0.2521778	74.34917	0	11.29	4003	0	0	0	0	1.467696	0.2109127	1	35	0	300
4511822	-23	3	-5	-0.4286329	0.2510443	74.3499	0	11.29	4002	0	0	0	0	1.467696	0.2199659	1	35	0	300
4511906	-23	0	-1	-0.4272595	0.246543	74.35149	0	11.29	4004	0	0	0	0	1.467696	0.229738	1	35	0	300
4512009	-21	-1	-2	-0.4241725	0.2461755	74.35307	0	11.29	4002	0	0	0	0	1.467696	0.2391224	1	35	0	300
4512118	-27	0	-6	-0.4188049	0.2442592	74.35649	0	11.29	4004	0	0	0	0	1.467696	0.2601493	1	35	0	300
4512225	-30	-3	-2	-0.4195273	0.2493605	74.35789	0	11.29	4004	0	0	0	0	1.467696	0.2730545	1	35	0	300
4512350	-20	-3	-6	-0.4044956	0.2484926	74.35924	0	11.29	4003	0	0	0	0	1.467696	0.2895735	1	35	0	300
4512459	-18	-2	-5	-0.4025172	0.2439193	74.36131	0	11.29	4003	0	0	0	0	1.467696	0.2954799	1	35	0	300
4512565	-22	-2	2	-0.3976145	0.2490342	74.36369	0	11.29	4002	0	0	0	0	1.467696	0.2931288	1	35	0	300
4512613	-24	-2	0	-0.3999393	0.2481798	74.36369	0	11.29	4002	0	0	0	0	1.467696	0.2955867	1	35	0	300
4512774	-24	0	-2	-0.4083736	0.2502244	74.36594	0	11.29	4003	0	0	0	0	1.467696	0.3096378	1	35	0	300
4512883	-20	0	-4	-0.4021515	0.2504182	74.36703	0	11.29	4002	0	0	0	0	1.467696	0.3181416	1	35	0	300
4512957	-18	0	-1	-0.4107833	0.2446224	74.3674	0	11.29	4004	0	0	0	0	1.467696	0.3181416	1	5	0	300
4513160	-21	-3	-1	-0.4068075	0.2461676	74.36868	0	11.29	4002	0	0	0	0	1.467696	0.3117069	1	5	0	300
4513334	-19	2	4	-0.4032138	0.2368755	74.36966	0	11.29	4003	0	0	0	0	1.467696	0.2812535	1	5	0	300
4513500	-23	2	0	-0.393226	0.2375864	74.37027	0	11.29	4003	0	0	0	0	1.467696	0.272898	1	5	0	300
4513594	-17	0	-3	-0.3887696	0.2337606	74.37076	0	11.23	4003	0	0	0	0	1.467696	0.2741839	1	5	0	300
4513698	-18	0	-1	-0.3872679	0.2329041	74.371	0	11.23	4003	0	0	0	0	1.467696	0.2813267	1	5	0	300
4513800	-19	1	-4	-0.3780381	0.237403	74.37021	0	11.23	4003	0	0	0	0	1.467696	0.2838784	1	5	0	300
4513903	-23	0	0	-0.3770815	0.2426115	74.37143	0	11.23	4003	0	0	0	0	1.467696	0.2840013	1	5	0	300
4514017	-23	4	-1	-0.3742966	0.2406445	74.3735	0	11.23	4004	0	0	0	0	1.467696	0.2770929	1	5	0	300
4514119	-17	0	0	-0.3809327	0.240706	74.37332	0	11.23	4002	0	0	0	0	1.467696	0.2665264	1	5	0	300
4514231	-17	-4	4	-0.376572	0.2481366	74.37393	0	11.23	4004	0	0	0	0	1.467696	0.2623471	1	5	0	300
4514322	-25	1	-2	-0.375292	0.2470912	74.37601	0	11.23	4002	0	0	0	0	1.467696	0.2632214	1	5	0	300
4514409	-13	1	2	-0.3728359	0.2412805	74.37717	0	11.23	4004	0	0	0	0	1.467696	0.2621315	1	5	0	300
4514510	-20	4	-3	-0.3729624	0.2452103	74.37857	0	11.29	4003	0	0	0	0	1.467696	0.261146	1	5	0	300
4514639	-14	1	1	-0.369657	0.2446899	74.38126	0	11.29	4003	0	0	0	0	1.467696	0.2644938	1	5	0	300
4514740	-19	-3	-1	-0.3609581	0.242794	74.38242	0	11.29	4003	0	0	0	0	1.467696	0.266244	1	5	0	300
4514897	-11	1	-2	-0.353417	0.2367138	74.38614	0	11.29	4002	0	0	0	0	1.467696	0.2730708	3	5	0	300
4514929	-21	-4	-5	-0.35553	0.2410827	74.38663	0	11.29	4004	0	0	0	0	1.467696	0.2743008	3	5	0	300
4515040	-20	2	-4	-0.3553879	0.2431494	74.39029	0	11.29	4004	0	0	0	0	1.467696	0.2721656	3	5	0	300
4515149	-19	0	0	-0.3542262	0.2389785	74.39444	0	11.29	4004	0	0	0	0	1.467696	0.2600312	3	5	0	300
4515253	-12	6	-2	-0.3460198	0.2372262	74.39694	0	11.29	4003	1	-1	0	0	1.467696	0.2374651	3	5	0	300
4515388	0	25	16	-0.3228016	0.2262959	74.39999	0	11.29	4003	2	2	0	0	1.467696	0.2270815	3	5	0	300
4515502	38	12	64	-0.3319991	0.2154712	74.39961	0	11.29	4002	5	-2	-1	0	1.467696	0.2206692	3	5	0	300
4515669	-32	-61	-1	-0.2550541	0.2539354	74.42146	0	11.29	4003	-4	0	0	0	1.467696	0.2212403	3	5	0	300
4515786	-34	22	59	-0.2773565	0.2565703	74.4058	0	11.29	4003	-7	16	-1	0	1.467696	0.2242747	3	5	0	300
4515855	-8	7	-81	-0.2578569	0.2586472	74.40764	0	11.29	4004	24	4	0	0	1.467696	0.2293799	3	5	0	300
4515993	35	193	-2	-0.3668382	0.2551903	74.39912	0	11.29	4003	21	-7	0	0	1.467696	0.252515	3	5	0	300
4516047	-55	-31	126	-0.3710274	0.2660784	74.39495	0	11.29	4003	30	-36	-1	0	1.467696	0.2646636	3	5	0	300
4516282	-2	-38	-444	-0.4267427	0.2962387	74.40586	0	11.29	4003	36	-59	7	0	1.467696	0.2846504	3	5	0	300
4516379	183	880	-40	-0.4923899	-0.1105346	74.48016	0	10.49	4004	63	-112	3	0	1.467696	0.2823916	3	5	0	300
4516446	683	1622	-1794	-0.1676157	-2.324688	74.6507	0	10.49	4003	-76	242	-14	0	1.467696	0.2885275	3	5	0	300
4516548	-1845	4387	2335	-1.154624	-7.317043	73.93541	0	10.49	4002	-13	327	36	0	1.467696	0.3155652	3	5	0	300
4516676	-1810	-292	-948	-3.675645	-11.17457	72.98402	0	10.49	4002	62	-283	36	0	1.467696	0.3441952	3	5	0	300
4516841	417	-2557	-210	-4.943738	-7.59823	73.91135	0	10.49	4004	8	-329	10	0	1.467696	0.3689981	3	5	0	300
4516913	652	-185	-460	-4.565226	-5.633688	74.77822	0	10.49	4003	-42	272	-23	0	1.467696	0.3798826	3	5	0	300
4517030	90	-2275	-138	-2.667562	-4.794283	75.47983	0	10.49	4003	107	-286	-41	0	1.467696	0.4220015	3	5	0	300
4517063	965	-938	-372	-2.536661	-4.46321	75.4587	0	10.49	4002	-45	109	-44	0	1.467696	0.4309351	3	5	0	300
4517149	1498	3511	2089	-0.7547615	-5.283948	75.14722	0	10.49	4004	-164	309	0	0	1.467696	0.4887084	3	5	0	300
4517255	-820	-1524	-54	0.2364848	-7.079952	74.48085	0	10.6	4004	-11	142	-1	0	1.467696	0.5380906	3	5	0	300
4517369	-165	-1945	-875	-2.051587	-3.775355	74.11654	0	10.6	4003	11	122	17	0	1.467696	0.6081051	3	5	0	300
4517451	-76	-946	-934	-2.084892	-4.668352	73.57863	0	10.6	4003	2	140	8	0	1.467696	0.6081051	3	5	0	300
4517583	-1429	-2914	-863	-2.401532	-3.958314	73.68256	0	10.6	4003	135	199	11	0	1.467696	0.676598	3	5	0	300
4517665	202	3451	-1219	-5.015493	-6.858096	73.52922	0	10.6	4003	-60	-81	14	0	1.467696	0.7376056	3	5	0	300
4517768	-1361	-1096	-2169	-3.622432	-11.36169	73.44153	0	10.6	4002	50	-28	8	0	1.467696	0.7729192	3	5	0	300
4517840	1870	965	-415	-3.202335	-11.51425	73.93343	0	10.6	4003	-22	139	-7	0	1.467696	0.7876338	3	5	0	300
4517977	159	-218	337	-0.98697	-11.96843	74.77074	0	10.6	4004	106	-250	-42	0	1.467696	0.8237866	3	5	0	300
4518130	1704	1554	2218	0.3009483	-8.271508	75.18643	0	10.6	4002	-76	280	3	0	1.467696	0.8393491	3	5	0	300
4518176	-1265	1761	340	0.03692621	-10.23788	74.29381	0	9.53	4002	-40	400	4	0	1.467696	0.8433774	3	5	0	300
4518310	3389	-3415	-770	1.350959	-9.677118	73.588	0	9.53	4004	-75	-78	28	0	1.467696	0.8608884	3	5	0	300
4518344	3389	-3415	-770	1.350959	-9.677118	73.588	0	9.53	4004	-142	-150	-1	0	1.467696	0.8608884	3	5	0	300
4518455	1799	374	1433	7.248907	-6.722509	73.478	0	9.53	4004	-42	138	17	0	1.467696	0.8734785	3	5	0	300
4518596	-592	1438	1800	2.22714	-4.804297	74.09792	0	9.53	4003	-101	289	28	0	1.467696	0.9207723	3	5	0	300
4518711	-1541	5738	1651	0.2604975	-8.797516	73.34328	0	9.53	4004	-18	49	16	0	1.467696	0.9750632	3	5	0	300
4518762	584	1986	-809	-1.168203	-14.32839	72.79374	0	9.53	4003	-18	49	16	0	1.467696	0.9926143	3	5	0	300
4518827	803	515	-1678	-0.8767332	-15.57208	73.04896	0	9.53	4003	-31	91	45	0	1.467696	1.000843	3	5	0	300
4518931	803	515	-1678	-0.8767332	-15.57208	73.04896	0	9.53	4003	85	136	3	0	1.467696	1.042974	3	5	0	300
4519071	-348	1185	612	-3.081108	-15.59096	74.72342	0	9.53	4003	61	178	-3	0	1.467696	1.060282	3	5	0	300
4519139	-348	1185	612	-3.081108	-15.59096	74.72342	0	9.53	4003	-30	-118	-9	0	1.467696	1.090042	3	5	0	300
4519258	-546	-1478	5	-2.736586	-19.34515	74.17265	0	9.87	4002	4	-34	-3	0	1.467696	1.136405	3	5	0	300
4519335	-758	-5239	-404	-4.099301	-11.66117	74.21497	0	9.87	4002	-25	45	-6	0	1.467696	1.153924	3	5	0	300
4519543	-1908	-3587	-145	-8.333971	-6.304701	74.71302	0	9.87	4004	40	-110	-13	0	1.467696	1.219409	3	5	0	300
4519678	466	-2101	-720	-8.866204	-3.651451	74.81458	0	9.87	4002	89	-38	-22	0	1.467696	1.273959	3	5	0	300
4519742	229	1154	1547	-5.632345	-4.122816	73.90942	0	9.87	4002	-4	103	8	0	1.467696	1.307675	3	5	0	300
4519843	1237	-2073	1631	-3.617864	-2.199186	73.6063	0	9.87	4002	56	102	18	0	1.467696	1.353117	3	5	0	300
4519970	-210	1479	1017	-2.845182	-2.299425	73.41077	0	9.58	4003	-12	-123	18	0	1.467696	1.402523	3	5	0	300
4520086	352	602	673	-2.363029	-3.021718	73.51146	0	9.58	4004	17	94	20	0	1.467696	1.424324	3	5	0	300
4520164	111	1559	-797	-2.130957	-4.341387	73.68909	0	9.58	4002	-15	-104	-4	0	1.467696	1.446376	3	5	0	300
4520267	12	1051	-1935	-1.811925	-8.803714	74.43902	0	9.58	4003	43	-192	-7	0	1.467696	1.454478	3	5	0	300
4520371	236	669	-1169	-1.718937	-12.67766	74.59029	0	9.58	4003	-1	-93	-26	0	1.467696	1.448801	3	5	0	300
4520459	3	-2698	-908	-1.433182	-10.72907	74.5991	0	9.58	4003	88	-200	-26	0	1.467696	1.437098	3	5	0	300
4520627	-372	187	1182	-0.4734312	-6.943241	75.02785	0	9.58	4004	-71	173	-14	0	1.467696	1.402835	3	5	0	300
4520678	-2135	-242	-485	-3.066252	-7.001184	75.30457	0	9.58	4003	55	-146	-46	0	1.467696	1.402835	3	5	0	300
4520835	-1459	-788	-497	-7.102502	-7.579946	74.38289	0	9.58	4003	65	14	-13	0	1.467696	1.351705	3	5	0	300
4520911	238	2489	1214	-6.789265	-8.809175	73.81362	0	10.94	4002	52	60	24	0	1.467696	1.312399	3	5	0	300
4520989	-723	1945	702	-7.427899	-11.31906	72.85543	0	10.94	4003	56	-110	26	0	1.467696	1.293856	3	5	0	300
4521038	-723	1945	702	-7.427899	-11.31906	72.85543	0	10.94	4003	35	-194	12	0	1.467696	1.273165	3	5	0	300
4521180	1535	1873	1305	-4.753382	-11.96727	73.83221	0	10.94	4002	-79	126	19	0	1.467696	1.204742	3	5	0	300
4521262	-165	-2821	-171	-3.687723	-10.85734	73.88615	0	10.94	4004	60	-83	15	0	1.426845	1.189001	4	5	0	300
4521330	699	-30	618	-3.393723	-8.784961	73.92885	0	10.94	4002	-103	116	11	16	1.35699	1.166419	4	5	0	300
4521499	1290	887	516	-3.314958	-9.029433	74.68942	0	10.94	4003	-120	157	-13	14	1.131664	1.110895	4	5	0	300
4521537	1290	887	516	-3.314958	-9.029433	74.68942	0	10.94	4003	-120	157	-13	14	1.131664	1.110895	4	5	0	300
4521671	790	1465	1057	-2.550184	-9.895517	75.46206	0	10.94	4003	-36	177	-35	11	0.9943728	1.071337	4	5	0	300
4521815	-1023	280	648	-1.798549	-7.522266	74.09994	0	10.94	4002	-72	-177	40	31	0.7863462	0.9782985	4	5	0	300
4521843	-1023	280	648	-1.798549	-7.522266	74.09994	0	10.94	4002	-37	249	58	14	0.6839932	0.9592351	4	5	0	300
4521947	751	2787	-2523	-1.57146	-11.79839	72.55162	0	10.66	4002	-98	-19	-28	33	0.5356997	0.9483349	4	5	0	300
4522068	-2183	-2549	-582	-0.4296905	-15.63979	75.4963	0	10.66	4002	31	43	-34	15	0.4214983	0.8920502	4	5	0	300
4522158	-1848	-3761	-2138	-3.984621	-9.44501	76.16616	0	10.66	4004	85	-309	-73	14	0.3141377	0.7884152	4	5	0	300
4522341	1971	611	823	-4.613512	-9.529674	74.57592	0	10.66	4004	-73	7	-28	18	0.2461554	0.7203792	4	5	0	300
4522347	1971	611	823	-4.613512	-9.529674	74.57592	0	10.66	4004	-46	14	-17	6	0.2461554	0.7203792	4	5	0	300
4522530	267	-692	397	-1.559244	-7.770564	76.01529	0	10.66	4004	-77	246	-58	0	0.2960685	0.6475838	4	5	0	300
4522589	3336	1667	1002	0.1383989	-7.945714	76.20381	0	10.66	4003	-73	-20	-51	15	0.2893104	0.6414009	4	5	0	300
4522739	-1978	-1655	470	0.3899227	-8.679209	74.2193	0	10.66	4004	36	-163	0	-4	0.4252033	0.652196	4	5	0	300
4522770	-392	-2127	-214	-0.5792816	-7.74874	73.907	0	9.75	4004	54	-352	0	-4	0.4618131	0.6553835	4	5	0	300
4522900	1337	1692	352	-0.5100145	-7.47304	74.28127	0	9.75	4002	-73	239	1	-6	0.5244158	0.6682833	4	5	0	300
4523006	-354	2838	-464	-1.199545	-13.34607	74.50278	0	9.75	4004	33	171	-6	-5	0.6637393	0.7107605	4	5	0	300
4523076	-1369	630	571	-1.600679	-16.33461	73.68009	0	9.75	4004	-19	-24	16	-10	0.7408892	0.7360572	4	5	0	300
4523165	1181	2771	459	-1.821269	-16.3157	73.79775	0	9.75	4002	-44	182	0	-5	0.7865716	0.7464918	4	5	0	300
4523258	-792	-1013	-293	-1.821269	-16.3157	73.79775	0	9.75	4002	47	-202	-27	-10	0.8469714	0.7706134	4	5	0	300
4523372	-3275	-4755	-1012	-7.924064	-10.27932	75.35156	0	9.75	4003	65	128	-24	-3	0.7987235	0.7964627	4	5	0	300
4523406	-1374	-2874	254	-8.770883	-8.576487	75.06438	0	9.75	4002	3	-303	-15	-4	0.818424	0.8096105	4	5	0	300
4523569	-103	-660	-16	-9.398553	-7.797212	73.88181	0	9.75	4004	-36	100	12	-5	0.9214877	0.869408	4	5	0	300
4523614	-103	-660	-16	-9.398553	-7.797212	73.88181	0	9.75	4004	-22	-254	25	-3	0.9214877	0.869408	4	5	0	300
4523753	1491	-2756	-1090	-4.145209	-4.503159	73.26246	0	10.49	4003	-50	-33	17	0	0.9406326	0.8827398	4	5	0	300
4523867	985	-779	-129	-2.644695	-2.302398	74.37385	0	10.49	4002	-42	-200	1	-1	0.8601161	0.8901493	4	5	0	300
4523927	738	3473	1111	-1.246714	-4.731695	74.18692	0	10.49	4003	37	-19	-14	-1	0.8803939	0.8920088	4	5	0	300
4524041	-104	1561	274	-2.013153	-9.784056	73.3573	0	10.49	4003	-45	146	41	0	0.8882208	0.8928451	4	5	0	300
4524098	-104	1561	274	-2.013153	-9.784056	73.3573	0	10.49	4003	-11	-372	3	2	0.8834814	0.8910045	4	5	0	300
4524205	-525	945	-1664	-1.246196	-13.49647	73.98552	0	10.49	4008	20	203	3	2	0.8666797	0.8960792	4	5	0	300
4524353	895	-1982	-938	-1.999012	-13.15915	75.41517	0	10.49	4003	75	-316	-28	4	0.8461948	0.9051605	4	5	0	300
4524414	468	3129	869	-1.21746	-13.53487	75.32989	0	10.49	4002	-76	170	-23	2	0.8171489	0.9030667	4	5	0	300
4524521	658	-1994	-140	-1.311621	-10.73835	74.64609	0	10.15	4004	-24	-90	-4	4	0.7624838	0.8968323	4	5	0	300
4524608	658	-1994	-140	-1.311621	-10.73835	74.64609	0	10.15	4004	-89	231	36	5	0.7153591	0.8844233	4	5	0	300
4524749	-530	-1226	-661	1.751798	-8.298963	72.97922	0	10.15	4004	112	-285	24	9	0.6520244	0.8707082	4	5	0	300
4524800	-530	-1226	-661	1.751798	-8.298963	72.97922	0	10.15	4004	57	-147	28	9	0.6026291	0.8585896	4	5	0	300
4524943	-413	-1513	-165	-1.799317	-7.752054	73.64738	0	10.15	4004	-29	-273	12	8	0.5316772	0.8428571	4	5	0	300
4525007	-882	-655	1180	-2.047216	-6.659369	73.02408	0	10.15	4004	37	-87	18	15	0.5007814	0.8400278	4	5	0	300
4525153	1476	1393	192	-3.543974	-7.520094	71.10429	0	10.15	4002	-65	89	88	9	0.4343707	0.8221769	4	5	0	300
4525311	890	-1363	-1526	-2.467011	-6.11223	71.70759	0	10.15	4004	17	-149	72	8	0.32901	0.7918844	4	5	0	300
4525400	-1016	1541	-59	-1.955358	-6.007656	72.21673	0	10.15	4003	75	75	36	12	0.3158838	0.777473	4	5	0	300
4525511	-1872	341	-1475	-2.989252	-7.361897	72.63789	0	10.04	4003	74	152	52	9	0.2903408	0.7743542	4	5	0	300
4525619	-273	2026	311	-3.997417	-8.046642	72.8577	0	10.04	4004	-9	-89	17	9	0.2506614	0.7784024	4	5	0	300
4525716	513	4400	1488	-2.278134	-9.508151	73.90341	0	10.04	4004	-56	-314	-9	8	0.2217724	0.7784805	4	5	0	300
4525790	139	3252	-1178	-2.687277	-11.50107	73.88272	0	10.04	4003	0	390	16	8	0.2195849	0.7720718	4	5	0	300
4525945	388	-2516	-1456	-0.821172	-14.26872	73.49373	0	10.04	4003	-64	-319	-14	5	0.2320438	0.7357829	4	5	0	300
4526007	583	1517	913	0.5048994	-10.99042	73.96333	0	10.04	4004	18	-286	-1	8	0.2393746	0.7321998	4	5	0	300
4526162	-1895	-4598	-1454	-2.467743	-9.153878	74.8726	0	10.04	4004	-26	81	-33	1	0.3061087	0.739862	4	5	0	300
4526306	-2391	-3115	-916	-6.516664	-4.546961	74.91211	0	10.04	4003	40	-284	-30	-14	0.4134563	0.7512953	4	5	0	300
4526386	-2391	-3115	-916	-6.516664	-4.546961	74.91211	0	10.04	4003	48	-37	0	-5	0.4671398	0.7680964	4	5	0	300
4526487	1368	1710	1633	-6.49509	-5.525739	72.7914	0	9.58	4003	-40	265	61	0	0.531978	0.8051431	4	5	0	300
4526590	400	1871	390	-4.065526	-9.292975	72.86029	0	9.58	4004	-112	366	43	-3	0.5864037	0.8166729	4	5	0	300
4526713	115	-2237	-2016	-4.336874	-9.648466	73.58233	0	9.58	4003	5	106	-18	0	0.636237	0.8306577	4	5	0	300
4526867	-414	-1168	299	-2.522078	-8.272268	74.01542	0	9.58	4004	-23	-7	15	-6	0.6935779	0.8438349	4	5	0	300
4526920	331	-732	-915	-2.618853	-8.013863	74.07852	0	9.58	4003	-2	-167	6	-12	0.744991	0.8493569	4	5	0	300
4527035	-1059	-114	-420	-1.614739	-7.891649	73.8502	0	9.58	4003	87	133	3	-6	0.8103198	0.8646377	4	5	0	300
4527168	2110	-498	-416	-3.100906	-7.917447	73.57662	0	9.58	4003	23	-394	-30	-7	0.7769248	0.8866451	4	5	0	300
4527193	1503	-2423	-739	0.3649184	-6.508837	74.64289	0	9.58	4004	47	-154	-12	-7	0.8299024	0.8925627	4	5	0	300
4527293	-850	-225	-755	-0.2708541	-5.339118	75.17097	0	9.53	4004	57	-99	-33	-3	0.8743766	0.9208412	4	5	0	300
4527390	2118	-2382	-1046	1.067518	-6.505736	75.10599	0	9.53	4004	34	-289	-11	-16	0.9604322	0.9567994	4	5	0	300
4527481	2118	-2382	-1046	1.067518	-6.505736	75.10599	0	9.53	4004	-38	332	1	-3	0.9786423	0.9912528	4	5	0	300
4527579	-462	1057	1938	-1.112917	-6.098987	74.33638	0	9.53	4002	12	-205	-18	-6	1.030115	1.017566	4	5	0	300
4527694	-223	-1483	43	-0.8821652	-5.563383	74.11346	0	9.53	4004	100	-266	0	-9	1.130473	1.073974	4	5	0	300
4527841	-1044	975	1033	-4.774839	-6.02731	74.01627	0	9.53	4004	-33	24	12	-9	1.187007	1.111229	4	5	0	300
4527892	-840	-2491	-918	-5.39515	-5.897191	73.94754	0	9.53	4002	109	-400	-7	-15	1.234277	1.120602	4	5	0	300
4527988	-605	-1525	-61	-6.896426	-3.05825	74.48106	0	9.53	4004	-56	-10	-4	-11	1.286663	1.128534	4	5	0	300
4528116	-1063	-1596	-917	-7.420861	-3.618307	74.65884	0	9.53	4002	121	-271	-24	-14	1.382977	1.154162	4	5	0	300
4528297	849	1265	-891	-5.982313	-5.766233	74.96339	0	10.09	4004	26	-262	-21	3	1.201969	1.197154	4	5	0	300
