time(ms)	gyro_x(deg/s)	gyro_y(deg/s)	gyro_z(deg/s)	orientation_roll(deg)	orientation_pitch(deg)	orientation_yaw(deg)	throttle	battery(V)	loop_time(uS)	pid_output_roll	pid_output_pitch	pid_output_yaw	pid_output_throttle	ultrasonic_alt	baro_alt	flight_mode	p_gain_altitude	i_gain_altitude	d_gain_altitude
4590629	-725	2419	2038	0.5487552	-14.52274	67.09248	0	9.47	4003	91	-58	-43	47	1.084846	0.7576283	5	10	0.001	350
4590722	-362	-3783	74	-0.2179005	-14.10075	66.15374	0	9.47	4003	110	-318	-16	44	1.133931	0.7808997	5	10	0.001	350
4590902	-1224	-915	-442	-0.5044805	-6.681255	64.24941	0	9.47	4004	-46	-25	46	25	1.152609	0.8333251	5	10	0.001	350
4590915	-1224	-915	-442	-0.5044805	-6.681255	64.24941	0	9.47	4004	-46	-25	46	25	1.148823	0.8525244	5	10	0.001	350
4591038	-1815	-1703	-812	-4.010528	-4.73183	64.659	0	9.47	4002	-74	-90	19	23	1.165592	0.8858141	5	10	0.001	350
4591136	-1537	-603	359	-8.466325	-0.9141406	65.89137	0	9.47	4003	2	-86	0	18	1.098029	0.9664081	5	10	0.001	350
4591197	-692	711	1375	-8.923523	-0.6620123	65.76733	0	9.47	4004	88	166	-17	35	1.098029	0.9664081	5	10	0.001	350
4591301	1423	-485	15	-7.413598	-2.929286	65.5091	0	9.47	4003	-3	-276	-22	32	1.174063	1.065432	5	10	0.001	350
4591416	409	970	529	-5.685502	-2.839709	65.16175	0	10.43	4004	29	-67	22	16	1.182257	1.142365	5	10	0.001	350
4591508	-165	-686	-1321	-5.677828	-3.078398	65.14801	0	10.43	4002	37	188	4	17	1.195368	1.192433	5	10	0.001	350
4591609	-165	-686	-1321	-5.677828	-3.078398	65.14801	0	10.43	4002	57	-203	9	13	1.179424	1.271317	5	10	0.001	350
4591709	1181	1148	-1838	-5.644377	-7.293145	65.00452	0	10.43	4002	-53	227	35	14	1.192479	1.328075	5	10	0.001	350
4591887	1513	2284	1065	-2.880186	-11.46929	65.13911	0	10.43	4004	-8	106	0	26	1.162755	1.416136	5	10	0.001	350
4591978	762	1353	-1288	-1.084767	-12.55215	65.71114	0	10.43	4004	-39	-132	0	23	1.029534	1.432921	5	10	0.001	350
4592008	-346	-724	280	-0.927573	-13.19809	65.46808	0	10.43	4003	12	-258	-1	12	1.096948	1.46181	5	10	0.001	350
4592137	665	938	-157	-1.200764	-11.5323	65.31136	0	10.43	4003	-43	-154	-9	4	1.147821	1.544037	5	10	0.001	350
4592247	-414	-2910	-1768	-2.308493	-12.39649	65.54292	0	10.43	4003	99	-123	-14	2	1.073606	1.612257	5	10	0.001	350
4592359	335	-3416	-1353	-2.377356	-10.76983	65.97849	0	10.15	4003	84	-342	-28	1	1.053431	1.685905	5	10	0.001	350
4592469	159	236	638	-2.42451	-8.385666	66.43102	0	10.15	4002	3	-82	-26	1	1.196958	1.791263	5	10	0.001	350
4592577	1753	1811	135	-0.2068044	-11.5977	65.88453	0	10.15	4003	96	-187	-22	1	1.174494	1.852395	5	10	0.001	350
4592675	885	-246	786	1.294404	-13.12563	65.43554	0	10.15	4002	-54	67	20	1	1.230714	1.915632	5	10	0.001	350
4592741	-642	1975	1252	1.006712	-13.55149	64.54636	0	10.15	4004	82	-260	14	1	1.248434	1.948452	5	10	0.001	350
4592817	185	-1867	-1836	0.1904992	-13.95149	64.52826	0	10.15	4003	-36	257	29	2	1.253218	1.978234	5	10	0.001	350
4592921	45	-2619	461	-0.89394	-8.939663	65.30916	0	10.15	4003	-31	-118	9	3	1.236857	2.001604	5	10	0.001	350
4593061	1166	-1702	-244	-1.143715	-4.745676	66.02821	0	10.15	4002	-45	24	-12	4	1.189664	2.023537	5	10	0.001	350
4593187	-1079	3677	747	-0.8047802	-9.242453	65.77598	0	10.15	4003	-19	-44	-2	7	1.195407	2.038347	5	10	0.001	350
4593230	-1079	3677	747	-0.8047802	-9.242453	65.77598	0	10.15	4003	50	-346	-8	3	1.211591	2.040647	5	10	0.001	350
4593333	1017	3669	1392	-1.082864	-12.83215	65.65256	0	10.15	4003	11	19	-15	4	1.156346	2.054628	5	10	0.001	350
4593515	104	1737	-1079	-0.8171443	-17.30584	65.74512	0	10.15	4003	-20	8	-18	4	1.194012	2.068608	5	10	0.001	350
4593560	-132	-1320	-556	-1.294616	-17.03394	65.93253	0	10.15	4004	30	-58	-12	4	1.215412	2.069222	5	10	0.001	350
4593621	-438	-1969	-489	-1.17383	-16.27227	66.05976	0	10.15	4003	36	39	-21	9	1.093871	2.069347	5	10	0.001	350
4593747	-786	-83	-206	-4.015911	-13.28035	66.03586	0	10.15	4004	0	64	4	6	1.134959	2.050663	5	10	0.001	350
4593827	-1547	-1653	-2	-4.485249	-12.67668	65.91904	0	10.15	4002	-66	117	-14	9	1.175661	2.04566	5	10	0.001	350
4593972	777	-418	90	-5.788434	-5.957479	65.54735	0	10.15	4002	83	-27	-21	4	1.246374	2.041129	5	10	0.001	350
4594072	-34	-398	753	-4.936309	-6.137358	64.95223	0	10.15	4003	-36	175	24	4	1.237529	2.051064	5	10	0.001	350
4594172	173	1039	841	-4.990037	-5.164176	64.6281	0	9.41	4004	8	-278	8	4	1.302559	2.057255	5	10	0.001	350
4594300	-1150	410	313	-5.91767	-5.57111	65.49774	0	9.41	4003	-46	294	-12	4	1.373009	2.059728	5	10	0.001	350
4594340	-1150	410	313	-5.91767	-5.57111	65.49774	0	9.41	4003	-77	-155	-21	9	1.400648	2.053678	5	10	0.001	350
4594515	-1030	758	1498	-9.887332	-3.051627	65.49295	0	9.41	4002	-16	154	1	12	1.412175	2.017318	5	10	0.001	350
4594578	1254	2639	2016	-8.788256	-4.049944	64.9353	0	9.41	4002	-73	-255	0	7	1.39159	1.998816	5	10	0.001	350
4594700	1010	626	375	-6.687247	-5.911046	64.45134	0	9.41	4004	-5	-314	5	8	1.330579	1.964363	5	10	0.001	350
4594767	1084	1224	-1640	-3.785498	-8.603981	64.9139	0	9.41	4004	92	-181	-5	9	1.270281	1.937888	5	10	0.001	350
4594934	1066	2144	575	-3.020331	-14.743	66.47151	0	9.41	4003	-146	198	-28	10	1.218945	1.850621	5	10	0.001	350
4594993	711	231	-2301	-2.490867	-16.02826	67.22859	0	9.41	4004	19	-350	-66	12	1.218945	1.850621	5	10	0.001	350
4595093	413	936	1119	-1.706673	-17.76877	67.18087	0	10.21	4004	-115	159	-23	21	1.18321	1.758606	5	10	0.001	350
4595139	212	-2988	94	-1.211122	-15.95018	66.67924	0	10.21	4003	-129	210	-27	12	1.196395	1.729934	5	10	0.001	350
4595276	-15	-5975	-1050	-1.140067	-10.59173	66.41058	0	10.21	4004	137	-198	-26	13	1.175049	1.675882	5	10	0.001	350
4595334	-287	2181	2144	0.2358808	-8.451527	65.5615	0	10.21	4003	0	-189	-16	11	1.1552	1.621401	5	10	0.001	350
4595484	506	-107	991	-0.4389911	-7.704579	64.77077	0	10.21	4003	-69	63	40	11	1.206758	1.579332	5	10	0.001	350
4595619	-1931	2141	925	-2.395847	-8.194887	64.86678	0	10.21	4003	-26	31	21	12	1.210508	1.554092	5	10	0.001	350
4595653	-1437	3319	372	-3.626805	-10.56079	65.08533	0	10.21	4004	109	-68	-7	19	1.196336	1.546629	5	10	0.001	350
4595771	-746	1828	-101	-3.501811	-13.90519	65.49543	0	10.21	4003	-35	283	15	20	1.079471	1.525634	5	10	0.001	350
4595862	-1072	-113	48	-5.343974	-14.08856	66.26966	0	10.21	4004	52	-400	-30	18	1.118544	1.490139	5	10	0.001	350
4595940	-829	-193	296	-5.539713	-13.72062	65.62941	0	10.38	4003	-4	-53	9	20	1.164022	1.435147	5	10	0.001	350
4596040	337	872	-562	-5.089803	-13.78409	64.56783	0	10.38	4004	-71	-165	19	23	1.19878	1.410372	5	10	0.001	350
4596159	-909	1019	740	-5.460723	-13.42095	64.09487	0	10.38	4003	-101	-168	23	39	1.12922	1.345874	5	10	0.001	350
4596306	-358	-921	-1346	-5.974204	-13.13567	64.46162	0	10.38	4003	6	215	39	23	1.127441	1.306361	5	10	0.001	350
4596400	333	1199	1470	-5.699702	-12.65235	64.46796	0	10.38	4002	-48	300	37	21	1.143496	1.254413	5	10	0.001	350
4596521	1095	185	1058	-3.079891	-11.4444	64.43503	0	10.38	4004	-60	93	35	21	1.132911	1.21527	5	10	0.001	350
4596607	1129	-2013	-970	-1.6541	-7.995845	65.02891	0	10.38	4002	-116	-17	18	26	1.141455	1.192215	5	10	0.001	350
4596652	-1221	-262	1699	-1.489921	-6.596384	64.84336	0	10.38	4003	33	14	33	25	1.140226	1.171786	5	10	0.001	350
4596795	707	-2803	-5	-2.2139	-3.142668	64.89565	0	10.38	4003	-86	-157	25	26	1.118205	1.136707	5	10	0.001	350
4596885	1582	1064	109	-1.27541	-2.191749	65.09991	0	10.38	4003	-134	130	10	31	1.013153	1.059806	5	10	0.001	350
4596959	-1059	1032	-455	-0.8596761	-4.584746	65.51779	0	9.36	4004	118	44	-12	29	0.8993234	1.00257	5	10	0.001	350
4597042	-349	-455	-1143	-1.806728	-5.726725	65.3923	0	9.36	4002	55	-192	-19	53	0.7609143	0.9495748	5	10	0.001	350
4597193	2081	210	-1228	-0.7946873	-4.93036	65.01041	0	9.36	4003	-31	79	13	31	0.5714368	0.8682226	5	10	0.001	350
4597304	428	2388	-183	-0.1769495	-7.015917	66.68217	0	9.36	4003	-54	232	-38	33	0.4419535	0.8180683	5	10	0.001	350
4597363	-597	2885	-1267	-0.7638613	-8.492105	67.12653	0	9.36	4003	-7	222	-49	30	0.3744704	0.7844448	5	10	0.001	350
4597465	1385	-4133	1083	-3.191282	-15.48049	62.75888	0	9.36	4002	54	-106	88	30	0.3012634	0.7384628	5	10	0.001	350
4597588	1708	-1344	-456	4.433642	-1.97997	61.78707	0	9.36	4003	-108	-60	72	60	0.2378727	0.6703048	5	10	0.001	350
4597677	-2459	518	-334	3.510581	-1.999091	62.84289	0	9.36	4004	113	18	32	61	0.2204939	0.6275141	5	10	0.001	350
4597775	-1081	-2408	-2114	0.183555	-1.852982	65.25149	0	9.36	4002	133	72	21	33	0.2488403	0.5887162	5	10	0.001	350
4597852	-1211	2198	1317	-0.5102735	-1.802168	66.33045	0	9.98	4004	133	72	21	33	0.2782623	0.5690688	5	10	0.001	350
4597953	-2210	1908	-697	-1.861867	-2.721062	66.50513	0	9.98	4002	68	-260	-29	34	0.2929338	0.5642157	5	10	0.001	350
4598075	410	470	-923	-6.835454	-5.763053	64.03404	0	9.98	4004	-24	212	47	29	0.4819207	0.5519082	5	10	0.001	350
4598167	-108	2685	1292	-5.985578	-6.690941	63.57525	0	9.98	4002	1	-327	38	55	0.5534763	0.554801	5	10	0.001	350
4598305	998	343	166	-4.961367	-7.014464	64.60883	0	9.98	4003	62	94	8	50	0.7366543	0.585279	5	10	0.001	350
4598393	1403	1946	208	-3.596821	-8.375443	65.31734	0	9.98	4006	2	-40	-6	30	0.8341526	0.6147935	5	10	0.001	350
4598446	1403	1946	208	-3.596821	-8.375443	65.31734	0	9.98	4006	-31	225	3	28	0.8341526	0.6147935	5	10	0.001	350
4598634	-233	286	1604	-3.58259	-8.397604	65.32446	0	9.98	4004	51	-379	0	47	1.012221	0.6942568	5	10	0.001	350
4598668	46	-1990	-1039	-3.486407	-8.455045	65.15374	0	9.98	4003	51	-379	0	47	1.094395	0.7183309	5	10	0.001	350
4598742	179	683	319	-2.973601	-11.18792	64.542	0	9.58	4004	102	-261	6	47	1.159652	0.7392406	5	10	0.001	350
4598884	219	-2217	-831	-2.10335	-9.280772	65.60936	0	9.58	4003	106	-347	-19	24	1.252747	0.7769058	5	10	0.001	350
4598951	699	-118	-1230	-1.898686	-8.281486	65.8223	0	9.58	4003	-30	-207	-7	25	1.259946	0.798008	5	10	0.001	350
4599091	1904	941	-954	-0.2777893	-9.86203	65.99966	0	9.58	4003	-43	157	6	25	1.154483	0.8632705	5	10	0.001	350
4599163	-606	3359	1250	-0.09348253	-13.52089	65.86911	0	9.58	4003	74	-93	-22	23	1.171215	0.8815494	5	10	0.001	350
4599245	754	194	-1038	-0.8904305	-14.31965	65.88262	0	9.58	4003	63	-345	-8	22	1.173129	0.9111817	5	10	0.001	350
4599407	-1446	-81	443	-4.943157	-12.53557	66.05552	0	9.58	4004	-33	8	-5	37	1.288173	1.00108	5	10	0.001	350
4599500	-2595	324	-457	-7.852507	-13.01131	66.15306	0	9.58	4003	35	168	-11	35	1.310546	1.024922	5	10	0.001	350
4599579	-1514	2314	758	-8.682776	-14.0161	66.09431	0	9.58	4003	-63	248	-7	18	1.316552	1.060659	5	10	0.001	350
4599701	-904	-1092	-601	-10.15742	-13.53816	66.35611	0	10.38	4003	-44	267	0	17	1.338056	1.147907	5	10	0.001	350
4599807	2003	1560	373	-9.012755	-14.57665	65.29353	0	10.38	4002	102	-81	-7	14	1.403041	1.21793	5	10	0.001	350
4599859	2184	2339	747	-7.768414	-15.14565	65.2664	0	10.38	4003	-104	330	11	12	1.403041	1.21793	5	10	0.001	350
4599952	582	-3319	-1061	-5.946718	-13.96673	65.49493	0	10.38	4004	25	-40	-12	21	1.23796	1.360811	5	10	0.001	350
4600049	338	-1049	1465	-5.175394	-6.383872	66.439	0	10.38	4004	-10	239	-7	17	1.273323	1.467723	5	10	0.001	350
4600159	340	-1646	-88	-2.936664	-4.562036	66.32889	0	10.38	4004	54	-281	-30	2	1.342376	1.553625	5	10	0.001	350
4600285	1532	-191	-355	-0.7132961	-6.265043	65.9435	0	10.38	4004	40	-269	-17	4	1.299658	1.732802	5	10	0.001	350
4600418	-1620	-2158	302	-0.8798413	-7.01711	65.68677	0	10.38	4003	77	-38	1	2	1.327841	1.79671	5	10	0.001	350
4600501	234	-1623	-133	-1.754401	-3.559528	65.51602	0	10.38	4003	30	127	3	1	1.232196	1.875667	5	10	0.001	350
4600626	600	464	108	-1.727698	-3.764166	65.39201	0	10.04	4004	-134	280	5	1	1.377587	1.965959	5	10	0.001	350
4600745	-48	-736	-239	-1.354887	-3.896833	66.52821	0	10.04	4003	-84	64	-23	1	1.30013	2.017832	5	10	0.001	350
4600813	-180	-679	127	-1.822981	-3.289384	66.76582	0	10.04	4003	-70	162	-17	2	1.299051	2.028994	5	10	0.001	350
4600966	-825	328	976	-5.995565	-7.251155	65.65425	0	10.04	4004	4	164	-1	1	1.291618	2.117364	5	10	0.001	350
4601033	584	284	825	-6.52953	-6.50059	65.6422	0	10.04	4003	-56	-32	9	1	1.324682	2.14137	5	10	0.001	350
4601084	1888	-349	-1097	-4.87762	-6.489155	66.0481	0	10.04	4002	-56	-32	9	1	1.349474	2.151256	5	10	0.001	350
4601149	1119	2926	1150	-3.797501	-7.056386	66.20634	0	10.04	4003	-49	294	-11	3	1.367766	2.157746	5	10	0.001	350
4601278	402	-3051	484	-2.387519	-6.512092	66.39387	0	10.04	4002	-16	32	-12	7	1.208122	2.161838	5	10	0.001	350
4601391	514	-3762	-1219	-2.428692	-2.283779	65.92255	0	10.04	4003	2	-378	-25	5	1.224512	2.154262	5	10	0.001	350
4601445	2018	1539	-897	-1.273623	-2.153679	65.97505	0	10.04	4003	-125	206	4	10	1.2584	2.140334	5	10	0.001	350
4601549	2030	2404	753	-0.5255621	-3.564871	65.84615	0	9.36	4004	84	-272	-10	6	1.263011	2.112813	5	10	0.001	350
4601752	1369	1500	784	-2.135783	-4.01776	65.71826	0	9.36	4003	-45	-307	-31	8	1.106155	2.03599	5	10	0.001	350
4601788	1369	1500	784	-2.135783	-4.01776	65.71826	0	9.36	4003	-69	213	12	9	1.106155	2.03599	5	10	0.001	350
4601906	-101	-523	-602	-3.624557	-7.257246	64.71526	0	9.36	4002	58	-72	35	22	1.009731	1.939165	5	10	0.001	350
4601976	222	-1870	-1298	-2.661835	-7.821388	64.85587	0	9.36	4002	44	-375	3	22	1.029082	1.904272	5	10	0.001	350
4602082	598	1890	1461	-2.288705	-7.845072	64.8732	0	9.36	4004	-45	244	35	13	1.029711	1.839731	5	10	0.001	350
4602188	408	3646	839	-2.28358	-10.00317	65.25091	0	9.36	4002	82	53	1	15	1.111331	1.707779	5	10	0.001	350
4602241	437	2953	-595	-2.64436	-11.08837	65.55133	0	9.36	4003	-64	150	-19	16	1.10567	1.669003	5	10	0.001	350
4602345	923	613	-260	-0.5647348	-13.34438	66.93647	0	9.36	4004	7	255	-41	20	1.139456	1.606937	5	10	0.001	350
4602518	-391	-179	-628	-0.5969411	-15.60267	66.6404	0	9.64	4003	53	-138	-36	44	1.216913	1.406102	5	10	0.001	350
4602623	-167	-376	48	-0.9487595	-10.91277	67.43269	0	9.64	4004	-58	164	-50	48	1.171206	1.271323	5	10	0.001	350
4602688	-416	-373	-1222	-1.891075	-10.29344	67.81744	0	9.64	4002	-26	112	-68	51	1.188252	1.211308	5	10	0.001	350
4602847	-1571	845	-953	-2.070359	-12.65773	66.81633	0	9.64	4003	0	-167	-57	33	1.179028	0.9902678	5	10	0.001	350
4602900	-166	3754	1117	-2.678236	-14.52125	66.647	0	9.64	4002	-92	302	-5	28	1.154028	0.9450899	5	10	0.001	350
4603022	-783	1485	468	-3.049349	-16.1794	66.82006	0	9.64	4004	-18	11	-28	30	1.102612	0.8835666	5	10	0.001	350
4603047	-2188	3744	-673	-4.472253	-18.62725	67.03296	0	9.64	4004	50	60	-46	32	1.081119	0.8688935	5	10	0.001	350
4603150	-2028	-1031	-286	-6.252844	-18.44316	67.52232	0	9.64	4004	19	78	-47	35	1.008564	0.7968031	5	10	0.001	350
4603271	-239	-2418	-335	-9.271458	-14.0568	67.69372	0	9.64	4004	-54	-109	-53	59	0.8576728	0.7320817	5	10	0.001	350
4603363	1921	609	1962	-7.251542	-11.93123	66.84836	0	10.15	4003	-109	180	-29	32	0.7722123	0.7035096	5	10	0.001	350
4603523	-236	-2532	-726	-3.316539	-8.255815	67.1153	0	10.15	4002	109	-77	-48	30	0.5233927	0.6423495	5	10	0.001	350
4603556	-236	-2532	-726	-3.316539	-8.255815	67.1153	0	10.15	4002	17	-239	-52	34	0.481515	0.6328635	5	10	0.001	350
4603787	-600	-23702	1728	-5.02375	70.84631	76.03638	0	10.15	4003	120	-400	-274	63	0.3099932	0.5269154	5	10	0.001	350
4603870	17772	-26652	6564	-0.9782571	81.34698	73.85381	0	10.15	4004	-400	-400	-138	35	0.3099932	0.5269154	5	10	0.001	350
4604019	2143	-32758	18574	-12.98585	133.6724	57.21209	0	10.15	4003	0	0	0	0	0.4142024	0.4616249	5	10	0.001	350
4604088	-14663	-1977	12078	-84.21887	117.1866	30.74663	0	10.15	4004	0	0	0	0	0.5781456	0.4341955	5	10	0.001	350
4604215	2749	998	-111	-89.8568	59.26596	15.94247	0	10.15	4004	0	0	0	0	1.158476	0.3803979	5	10	0.001	350
4604320	2961	-2438	-6273	-66.52462	58.02564	21.32884	0	10.43	4004	0	0	0	0	1.617437	0.3399858	5	10	0.001	350
4604422	1080	5143	-2610	-33.96397	52.67811	35.16186	0	10.43	4002	0	0	0	0	1.0612	0.2517902	5	10	0.001	350
4604499	1176	2763	-2151	-28.31911	41.92661	37.24646	0	10.43	4003	0	0	0	0	0.7736152	0.1925976	5	10	0.001	350
4604661	-190	-450	334	-23.21525	29.82748	38.5153	0	10.43	4003	0	0	0	0	0.5075689	0.109593	5	10	0.001	350
4604739	-81	82	-189	-20.76853	22.14324	38.37585	0	10.43	4004	0	0	0	0	0.3659262	0.04869625	3	10	0.001	350
4604809	-147	48	-137	-18.59954	15.49629	38.38007	0	10.43	4003	0	0	0	0	0.3145826	0.02838088	3	10	0.001	350
4604909	-134	-22	63	-16.69023	9.654462	38.37805	0	10.43	4004	0	0	0	0	0.2552646	-0.01061594	3	10	0.001	350
4604958	44	-10	-89	-16.06102	7.878468	38.37786	0	10.43	4003	0	0	0	0	0.2393079	-0.0307168	3	10	0.001	350
4605169	-36	-46	21	-13.10233	-1.256856	38.37315	0	10.49	4004	0	0	0	0	0.1720177	-0.08786141	3	10	0.001	350
4605223	2	54	-43	-12.27132	-3.804857	38.36636	0	10.49	4004	0	0	0	0	0.1575168	-0.1011252	3	10	0.001	350
4605286	-56	-39	35	-11.52844	-6.094931	38.35731	0	10.49	4002	0	0	0	0	0.145771	-0.110295	3	10	0.001	350
4605432	-22	9	15	-10.20954	-10.15807	38.3523	0	10.49	4003	0	0	0	0	0.1285506	-0.119301	1	10	0.001	350
4605550	-26	10	-4	-9.355843	-12.75676	38.35109	0	10.49	4002	0	0	0	0	0.1196472	-0.1232502	1	10	0.001	350
4605644	-34	13	0	-8.612722	-15.01778	38.34523	0	10.49	4003	0	0	0	0	0.1131567	-0.1249915	1	10	0.001	350
4605727	-30	3	-2	-8.164989	-16.36399	38.34237	0	10.49	4002	0	0	0	0	0.1084251	-0.1153827	1	10	0.001	350
4605821	-30	2	2	-7.575834	-18.1715	38.33748	0	10.49	4004	0	0	0	0	0.1060068	-0.1086683	1	10	0.001	350
4605962	-29	-1	4	-6.757322	-20.68652	38.33126	0	10.49	4003	0	0	0	0	0.1017848	-0.09120801	1	10	0.001	350
4606050	-27	0	3	-6.339812	-21.93899	38.32906	0	10.49	4004	0	0	0	0	0.100135	-0.09295239	1	10	0.001	350
4606129	-25	8	0	-6.093877	-22.69162	38.32821	0	10.49	4003	0	0	0	0	0.0992918	-0.09503128	1	10	0.001	350
4606215	-27	-3	0	-5.759497	-23.69693	38.32454	0	10.49	4002	0	0	0	0	0.09831761	-0.1021475	1	10	0.001	350
4606303	-35	0	0	-5.564686	-24.29968	38.32265	0	10.49	4002	0	0	0	0	0.09760743	-0.1059414	1	10	0.001	350
4606525	-29	-1	0	-5.07175	-25.79159	38.32003	0	10.49	4002	0	0	0	0	0.09671228	-0.1069007	1	10	0.001	350
4606628	-28	3	0	-4.808131	-26.58633	38.31795	0	10.49	4004	0	0	0	0	0.09643714	-0.1132411	1	10	0.001	350
4606688	-30	0	1	-4.750602	-26.76505	38.31722	0	10.49	4003	0	0	0	0	0.09629651	-0.1153317	1	10	0.001	350
4606826	-22	0	3	-4.500368	-27.54588	38.3135	0	10.49	4003	0	0	0	0	0.09609033	-0.1172432	1	10	0.001	350
4606913	-28	-1	-5	-4.416285	-27.81333	38.31307	0	10.49	4004	0	0	0	0	0.0960156	-0.1151364	1	10	0.001	350
4607011	-29	2	2	-4.29878	-28.16679	38.31124	0	10.55	4004	0	0	0	0	0.09592926	-0.1095815	1	10	0.001	350
4607107	-30	2	-1	-4.15856	-28.57395	38.30941	0	10.55	4003	0	0	0	0	0.09584938	-0.09697052	1	10	0.001	350
4607185	-32	5	3	-4.100725	-28.7479	38.30953	0	10.55	4002	0	0	0	0	0.09582043	-0.08693558	1	10	0.001	350
4607301	-24	0	-4	-4.020369	-28.98912	38.31099	0	10.55	4003	0	0	0	0	0.09577797	-0.06593894	1	10	0.001	350
4607387	-21	4	4	-3.949429	-29.19538	38.31112	0	10.55	4004	0	0	0	0	0.09576259	-0.06171625	1	10	0.001	350
4607528	-27	-4	3	-3.870457	-29.42985	38.30788	0	10.55	4003	0	0	0	0	0.09574004	-0.04346855	1	10	0.001	350
4607644	-21	0	-1	-3.82184	-29.57914	38.30507	0	10.55	4004	0	0	0	0	0.09572837	-0.02883423	1	10	0.001	350
4607711	-27	-2	1	-3.791534	-29.67274	38.3055	0	10.55	4004	0	0	0	0	0.09572241	-0.02255331	1	10	0.001	350
4607825	-28	3	3	-3.7551	-29.7867	38.30452	0	10.55	4003	0	0	0	0	0.09571367	0.001547253	1	10	0.001	350
4607899	-21	2	-3	-3.709891	-29.92156	38.30416	0	10.49	4004	0	0	0	0	0.09570915	0.01458002	1	10	0.001	350
4607996	-28	3	2	-3.686939	-29.98226	38.30489	0	10.49	4002	0	0	0	0	0.09570586	0.01998134	1	10	0.001	350
4608129	-24	2	-3	-3.647141	-30.08529	38.30489	0	10.49	4004	0	0	0	0	0.09570346	0.01836084	1	10	0.001	350
4608195	-20	1	0	-3.634683	-30.13458	38.30416	0	10.49	4003	0	0	0	0	0.09570171	0.01168203	1	10	0.001	350
4608433	-25	9	0	-3.59676	-30.26392	38.30519	0	10.49	4002	0	0	0	0	0.09569951	0.006029898	1	10	0.001	350
4608564	-30	0	1	-3.580121	-30.32301	38.30391	0	10.49	4004	0	0	0	0	0.09569865	-0.002282125	1	10	0.001	350
4608710	-27	2	4	-3.56958	-30.36912	38.30782	0	10.49	4004	0	0	0	0	0.09569808	-0.0155272	1	10	0.001	350
4608846	-24	0	-3	-3.558322	-30.40816	38.30623	0	10.55	4004	0	0	0	0	0.0956977	-0.02909396	1	10	0.001	350
4608948	-25	-4	2	-3.546343	-30.44392	38.30574	0	10.55	4004	0	0	0	0	0.09569746	-0.02828309	1	10	0.001	350
4609002	-28	-7	-2	-3.541932	-30.45743	38.30416	0	10.55	4002	0	0	0	0	0.09569737	-0.02996455	1	10	0.001	350
4609105	-28	0	1	-3.533774	-30.47665	38.3041	0	10.55	4003	0	0	0	0	0.09569727	-0.03758457	1	10	0.001	350
4609211	-20	7	-3	-3.528494	-30.49483	38.30373	0	10.55	4003	0	0	0	0	0.09569719	-0.03898082	1	10	0.001	350
4609365	-27	8	-1	-3.521667	-30.51951	38.30227	0	10.55	4003	0	0	0	0	0.09569713	-0.03802277	1	10	0.001	350
4609459	-28	2	6	-3.519449	-30.52778	38.3022	0	10.55	4004	0	0	0	0	0.0956971	-0.03388044	1	10	0.001	350
4609545	-20	6	2	-3.515642	-30.53378	38.30147	0	10.55	4003	0	0	0	0	0.09569708	-0.03184483	1	10	0.001	350
4609619	-26	4	1	-3.51178	-30.54192	38.29952	0	10.55	4003	0	0	0	0	0.09569706	-0.02362527	1	10	0.001	350
4609787	-19	6	-1	-3.503144	-30.55564	38.29976	0	10.55	4002	0	0	0	0	0.09569703	0.006728205	1	10	0.001	350
4609878	-22	1	1	-3.495405	-30.56986	38.29964	0	10.55	4003	0	0	0	0	0.09569703	0.0182215	1	10	0.001	350
4609932	-24	0	-1	-3.491044	-30.5732	38.29952	0	10.55	4003	0	0	0	0	0.09569703	0.02604616	1	10	0.001	350
4610063	814	1544	-942	-3.53871	-31.29756	38.73753	0	10.55	4003	0	0	0	0	0.09569703	0.04156376	1	10	0.001	350
4610134	-973	-6730	-2240	-5.210929	-27.22861	40.58527	0	10.55	4002	0	0	0	0	0.09569703	0.04811333	1	10	0.001	350
4610218	-942	-9401	-1165	-7.116056	-19.84226	42.81987	0	10.55	4004	0	0	0	0	0.09569703	0.05173273	1	10	0.001	350
4610352	-2804	-15424	1564	-9.389042	2.373897	43.71714	0	10.55	4002	0	0	0	0	0.09569703	0.05459331	1	10	0.001	350
4610417	-2867	-12610	1474	-11.8707	11.25879	41.38461	0	10.55	4004	0	0	0	0	0.09569703	0.05529037	1	10	0.001	350
4610612	2682	-501	-469	-10.83231	4.004692	35.0304	0	10.55	4004	0	0	0	0	0.09569703	0.05783708	1	10	0.001	350
4610661	2411	-8216	295	-7.738416	1.199318	35.29238	0	10.55	4003	0	0	0	0	0.09569703	0.06189153	1	10	0.001	350
4610768	-1477	-7878	2042	-5.334053	4.020636	34.22463	0	10.55	4003	0	0	0	0	0.09569703	0.08482733	1	10	0.001	350
4610811	-1864	-3253	4629	-7.428559	0.7154055	30.34508	0	10.55	4002	0	0	0	0	0.09569703	0.09106704	1	10	0.001	350
4610912	-1923	-5366	1905	-7.354846	-2.642597	25.21491	0	10.55	4010	0	0	0	0	0.09569703	0.1267857	1	10	0.001	350
4611025	-1968	1878	-1600	-10.40377	0.0440452	23.21453	0	10.55	4004	0	0	0	0	0.09569703	0.1984801	1	10	0.001	350
4611100	1739	-1085	-4944	-9.620417	-4.31052	29.62149	0	10.55	4004	0	0	0	0	0.09569703	0.2516727	1	10	0.001	350
4611264	-3020	-2661	-2203	-5.42833	-6.734674	36.57563	0	10.55	4004	0	0	0	0	0.09569703	0.2921462	1	10	0.001	350
4611368	-2087	-3174	3020	-8.512671	-7.37433	36.44048	0	10.55	4004	0	0	0	0	0.09569703	0.3096746	1	10	0.001	350
4611464	-2711	-2989	3282	-11.39184	-5.316385	31.77074	0	10.55	4002	0	0	0	0	0.09569703	0.3194729	1	10	0.001	350
4611557	217	-2579	1031	-13.66981	-6.371456	27.98443	0	10.55	4003	0	0	0	0	0.09569703	0.3164482	1	10	0.001	350
4611645	4260	-7150	-1090	-12.42243	-4.401591	28.05991	0	10.6	4003	0	0	0	0	0.09569703	0.3120746	1	10	0.001	350
4611719	3936	-3924	-1920	-8.37815	2.551419	28.55756	0	10.6	4004	0	0	0	0	0.09569703	0.3009181	1	10	0.001	350
4611866	913	-1091	119	-4.07863	7.727999	33.10624	0	10.6	4004	0	0	0	0	0.09569703	0.2775036	1	10	0.001	350
4611995	-88	-210	303	-4.000076	12.98069	30.71282	0	10.6	4002	0	0	0	0	0.09569703	0.264755	1	10	0.001	350
4612061	-41	4	-5	-3.644191	11.84222	30.72963	0	10.6	4002	0	0	0	0	0.09569703	0.2582861	1	10	0.001	350
4612148	-20	-5	23	-3.207599	10.33617	30.72156	0	10.6	4004	0	0	0	0	0.09569703	0.2374479	1	10	0.001	350
4612278	-20	-11	-20	-2.703253	8.650488	30.72169	0	10.6	4002	0	0	0	0	0.09569703	0.2077338	1	10	0.001	350
4612311	-21	2	10	-2.587097	8.274074	30.72162	0	10.6	4003	0	0	0	0	0.09569703	0.2060382	1	10	0.001	350
4612383	-25	7	4	-2.381587	7.577711	30.7193	0	10.6	4002	0	0	0	0	0.09569703	0.2014228	1	10	0.001	350
4612499	-18	0	18	-2.100542	6.626323	30.71428	0	10.6	4004	0	0	0	0	0.09569703	0.1857368	1	10	0.001	350
4612577	-23	1	-8	-1.775436	5.563584	30.71086	0	10.6	4004	0	0	0	0	0.09569703	0.1769798	1	10	0.001	350
4612681	-17	-5	4	-1.561549	4.874664	30.70927	0	10.6	4004	0	0	0	0	0.09569703	0.1685739	1	10	0.001	350
4612882	-18	-1	8	-1.281847	3.915332	30.70701	0	10.6	4002	0	0	0	0	0.09569703	0.1604186	1	10	0.001	350
4612946	-23	-3	-6	-1.180039	3.58909	30.70512	0	10.6	4004	0	0	0	0	0.09569703	0.1664709	1	10	0.001	350
4613019	-16	6	1	-1.048038	3.152736	30.70463	0	10.6	4004	0	0	0	0	0.09569703	0.1712862	1	10	0.001	350
4613108	-17	-2	-2	-0.9734139	2.893851	30.70493	0	10.6	4004	0	0	0	0	0.09569703	0.1866597	1	10	0.001	350
4613249	-21	3	-1	-0.8328965	2.446096	30.70182	0	10.6	4002	0	0	0	0	0.09569703	0.1804921	1	10	0.001	350
4613322	-15	0	-3	-0.7405974	2.149904	30.70249	0	10.6	4003	0	0	0	0	0.09569703	0.1805934	1	10	0.001	350
4613376	-16	0	4	-0.714806	2.060155	30.7017	0	10.6	4004	0	0	0	0	0.09569703	0.1775037	1	10	0.001	350
4613498	-21	-1	-1	-0.6156948	1.742528	30.6998	0	10.55	4004	0	0	0	0	0.09569703	0.1595327	1	10	0.001	350
4613582	-19	0	6	-0.5710129	1.602761	30.69907	0	10.55	4004	0	0	0	0	0.09569703	0.1497378	1	10	0.001	350
4613689	-16	0	2	-0.4925175	1.356909	30.69785	0	10.55	4004	0	0	0	0	0.09569703	0.1493496	1	10	0.001	350
4613785	-17	2	5	-0.4566371	1.254013	30.69749	0	10.55	4002	0	0	0	0	0.09569703	0.1385249	1	10	0.001	350
4613904	-19	2	3	-0.3888527	1.033751	30.69621	0	10.55	4002	0	0	0	0	0.09569703	0.1314723	1	10	0.001	350
4614054	-22	4	-2	-0.3465338	0.8861175	30.69621	0	10.55	4002	0	0	0	0	0.09569703	0.1339952	1	10	0.001	350
4614104	-14	-2	0	-0.3256178	0.8182507	30.69517	0	10.55	4004	0	0	0	0	0.09569703	0.1368635	1	10	0.001	350
4614176	-15	5	0	-0.305946	0.7628217	30.69437	0	10.55	4003	0	0	0	0	0.09569703	0.1423018	1	10	0.001	350
4614321	-15	10	0	-0.2695065	0.6607619	30.69541	0	10.6	4002	0	0	0	0	0.09569703	0.1453295	1	10	0.001	350
4614384	-17	0	0	-0.25858	0.614099	30.6948	0	10.6	4004	0	0	0	0	0.09569703	0.1389948	1	10	0.001	350
4614486	-24	-5	-5	-0.2464506	0.553616	30.69401	0	10.6	4003	0	0	0	0	0.09569703	0.1257806	1	10	0.001	350
4614634	-17	-3	0	-0.2284268	0.4817492	30.68998	0	10.6	4004	0	0	0	0	0.09569703	0.1245569	1	10	0.001	350
4614693	-13	2	-2	-0.2156936	0.4577894	30.68943	0	10.6	4004	0	0	0	0	0.09569703	0.1299134	1	10	0.001	350
4614841	-25	5	1	-0.1984938	0.4012282	30.68668	0	10.6	4003	0	0	0	0	0.09569703	0.1250669	1	10	0.001	350
4614927	-12	2	0	-0.183313	0.3613616	30.6879	0	10.6	4004	0	0	0	0	0.09569703	0.1179167	1	10	0.001	350
4615128	-15	3	1	-0.1675881	0.3082014	30.68644	0	10.6	4003	0	0	0	0	0.09569703	0.09686265	1	10	0.001	350
4615210	-16	1	-5	-0.1580625	0.2757792	30.6865	0	10.6	4003	0	0	0	0	0.09569703	0.09882767	1	10	0.001	350
4615347	-21	-2	-1	-0.1470456	0.250628	30.68613	0	10.55	4007	0	0	0	0	0.09569703	0.1033035	1	10	0.001	350
4615477	-18	-6	-1	-0.1437653	0.2371602	30.68741	0	10.55	4003	0	0	0	0	0.09569703	0.1106107	1	10	0.001	350
4615670	-15	1	-1	-0.1289645	0.2037957	30.68632	0	10.55	4004	0	0	0	0	0.09569703	0.1112508	1	10	0.001	350
4615776	-22	2	2	-0.1244253	0.1971167	30.68686	0	10.55	4003	0	0	0	0	0.09569703	0.1098177	1	10	0.001	350
4615819	-19	0	1	-0.124144	0.1964102	30.68644	0	10.55	4004	0	0	0	0	0.09569703	0.1087457	1	10	0.001	350
4615964	-14	0	0	-0.117488	0.1819165	30.68662	0	10.55	4004	0	0	0	0	0.09569703	0.104564	1	10	0.001	350
4616057	-17	-3	1	-0.1177058	0.1793987	30.68638	0	10.55	4004	0	0	0	0	0.09569703	0.09971926	1	10	0.001	350
4616228	-18	1	-1	-0.103008	0.1680332	30.68552	0	10.55	4002	0	0	0	0	0.09569703	0.1087207	1	10	0.001	350
4616285	-16	-2	1	-0.1023242	0.1670673	30.68662	0	10.55	4004	0	0	0	0	0.09569703	0.1160082	1	10	0.001	350
4616428	-18	0	0	-0.08653711	0.1579261	30.68845	0	10.55	4002	0	0	0	0	0.09569703	0.1327393	1	10	0.001	350
4616532	-15	3	0	-0.08853093	0.158244	30.68864	0	10.55	4003	0	0	0	0	0.09569703	0.1385979	1	10	0.001	350
4616651	-14	5	-3	-0.08972143	0.1441476	30.68565	0	10.55	4002	0	0	0	0	0.09569703	0.1503926	1	10	0.001	350
4616755	-12	-2	1	-0.08561074	0.1429746	30.68601	0	10.55	4003	0	0	0	0	0.09569703	0.1540844	1	10	0.001	350
4616859	-14	4	-1	-0.08065619	0.1453651	30.6854	0	10.55	4004	0	0	0	0	0.09569703	0.1582343	1	10	0.001	350
4616925	-18	4	-2	-0.07927287	0.1415526	30.68565	0	10.55	4002	0	0	0	0	0.09569703	0.1654107	1	10	0.001	350
4617035	-16	4	1	-0.07628391	0.1388423	30.68626	0	10.55	4004	0	0	0	0	0.09569703	0.1785057	1	10	0.001	350
4617126	-9	2	1	-0.06986243	0.1362231	30.68613	0	10.55	4003	0	0	0	0	0.09569703	0.1885115	1	10	0.001	350
4617327	-13	0	1	-0.06208978	0.1317967	30.68699	0	10.55	4003	0	0	0	0	0.09569703	0.2295711	1	10	0.001	350
4617389	-12	3	4	-0.06063186	0.131483	30.68613	0	10.55	4002	0	0	0	0	0.09569703	0.2437647	1	10	0.001	350
4617488	-16	2	-1	-0.05898138	0.1231762	30.68528	0	10.55	4004	0	0	0	0	0.09569703	0.2666178	1	10	0.001	350
4617607	-14	5	7	-0.05928113	0.1223022	30.68382	0	10.55	4004	0	0	0	0	0.09569703	0.2979581	1	10	0.001	350
4617637	-14	0	1	-0.0583132	0.1219366	30.68418	0	10.55	4002	0	0	0	0	0.09569703	0.3019075	1	10	0.001	350
4617711	-15	-3	6	-0.05915352	0.1239499	30.68327	0	10.55	4002	0	0	0	0	0.09569703	0.3136895	1	10	0.001	350
4617861	-11	5	3	-0.05536596	0.1212904	30.68266	0	10.55	4004	0	0	0	0	0.09569703	0.326515	1	10	0.001	350
4617944	-13	-4	-1	-0.05432834	0.1242616	30.68021	0	10.55	4004	0	0	0	0	0.09569703	0.3307804	1	10	0.001	350
4618084	-18	0	-3	-0.05323687	0.1218663	30.68058	0	10.55	4002	0	0	0	0	0.09569703	0.3363315	1	10	0.001	350
4618178	-15	7	-3	-0.05317697	0.1115065	30.67985	0	10.55	4002	0	0	0	0	0.09569703	0.3322686	1	10	0.001	350
4618271	-14	0	0	-0.05138039	0.1195182	30.67801	0	10.55	4002	0	0	0	0	0.09569703	0.3216815	1	10	0.001	350
4618325	-12	3	1	-0.04976889	0.1179741	30.67808	0	10.55	4003	0	0	0	0	0.09569703	0.3201549	1	10	0.001	350
4618426	-14	4	-3	-0.04154294	0.1152936	30.67698	0	10.55	4003	0	0	0	0	0.09569703	0.3055362	1	10	0.001	350
4618575	-10	0	2	-0.04233272	0.1158166	30.67478	0	10.55	4003	0	0	0	0	0.09569703	0.2828606	1	10	0.001	350
4618689	-12	2	2	-0.04285641	0.1163965	30.67533	0	10.55	4002	0	0	0	0	0.09569703	0.2692959	1	10	0.001	350
4618732	-8	2	0	-0.04496232	0.1161477	30.67563	0	10.55	4002	0	0	0	0	0.09569703	0.2568214	1	10	0.001	350
4618837	-14	-3	0	-0.05092993	0.1171991	30.67509	0	10.55	4004	0	0	0	0	0.09569703	0.2471063	1	10	0.001	350
4618947	-11	4	0	-0.0484876	0.1206577	30.67728	0	10.55	4003	0	0	0	0	0.09569703	0.2496157	1	10	0.001	350
4619089	-14	2	4	-0.04870012	0.1205705	30.67643	0	10.55	4004	0	0	0	0	0.09569703	0.2546839	1	10	0.001	350
4619261	-9	3	0	-0.04246988	0.1186408	30.67722	0	10.55	4002	0	0	0	0	0.09569703	0.2573467	1	10	0.001	350
4619394	-12	0	-4	-0.03676268	0.1190463	30.67734	0	10.55	4004	0	0	0	0	0.09569703	0.2529972	1	10	0.001	350
4619493	-12	4	-3	-0.03353684	0.1224078	30.67667	0	10.55	4003	0	0	0	0	0.09569703	0.2469829	1	10	0.001	350
4619537	-8	6	0	-0.03801687	0.1184466	30.67624	0	10.55	4002	0	0	0	0	0.09569703	0.2363197	1	10	0.001	350
4619718	-12	3	-2	-0.03016226	0.1180851	30.67551	0	10.55	4002	0	0	0	0	0.09569703	0.2275798	1	10	0.001	350
4619735	-9	0	3	-0.02882995	0.1153017	30.67472	0	10.55	4004	0	0	0	0	0.09569703	0.2275798	1	10	0.001	350
4619874	-10	1	-3	-0.02776039	0.112325	30.67295	0	10.6	4004	0	0	0	0	0.09569703	0.2282003	1	10	0.001	350
4619970	-17	2	-2	-0.02946203	0.1080218	30.67368	0	10.6	4004	0	0	0	0	0.09569703	0.2236679	1	10	0.001	350
4620100	-5	3	-1	-0.02309526	0.1085507	30.67356	0	10.6	4002	0	0	0	0	0.09569703	0.201488	1	10	0.001	350
4620211	-10	2	-1	-0.02116982	0.1101235	30.67631	0	10.6	4002	0	0	0	0	0.09569703	0.1918189	1	10	0.001	350
4620288	-6	-4	0	-0.01925559	0.1143488	30.67692	0	10.6	4003	0	0	0	0	0.09569703	0.1959258	1	10	0.001	350
4620333	-12	2	0	-0.01614993	0.1178104	30.67667	0	10.6	4002	0	0	0	0	0.09569703	0.2037254	1	10	0.001	350
4620447	-8	-1	-1	-0.01198739	0.1244613	30.67637	0	10.6	4003	0	0	0	0	0.09569703	0.2263593	1	10	0.001	350
4620543	-7	-2	-1	-0.01553916	0.1247505	30.67771	0	10.6	4003	0	0	0	0	0.09569703	0.2386156	1	10	0.001	350
4620633	-7	-6	-1	-0.0158313	0.1275442	30.67789	0	10.6	4002	0	0	0	0	0.09569703	0.2591522	1	10	0.001	350
4620683	-11	0	-1	-0.01362577	0.1280301	30.67753	0	10.6	4003	0	0	0	0	0.09569703	0.2611316	1	10	0.001	350
4620830	-5	-1	2	-0.01540883	0.1260315	30.68009	0	10.55	4003	0	0	0	0	0.09569703	0.2637943	1	10	0.001	350
4620926	-9	-1	0	-0.01204806	0.1240014	30.68021	0	10.55	4003	0	0	0	0	0.09569703	0.2667702	1	10	0.001	350
4620999	-8	5	-4	-0.01104678	0.1230055	30.68021	0	10.55	4004	0	0	0	0	0.09569703	0.2788394	1	10	0.001	350
4621150	-7	1	0	-0.006188411	0.1197097	30.68125	0	10.55	4004	0	0	0	0	0.09569703	0.2904477	1	10	0.001	350
4621231	-12	0	-3	-0.001392251	0.122019	30.68278	0	10.55	4003	0	0	0	0	0.09569703	0.2901806	1	10	0.001	350
4621306	-12	0	0	-0.003143173	0.1233974	30.68265	0	10.55	4002	0	0	0	0	0.09569703	0.3024445	1	10	0.001	350
4621511	-9	3	-3	0.003075372	0.1146908	30.68467	0	10.55	4004	0	0	0	0	0.09569703	0.3201591	1	10	0.001	350
