time(ms)	gyro_x(deg/s)	gyro_y(deg/s)	gyro_z(deg/s)	orientation_roll(deg)	orientation_pitch(deg)	orientation_yaw(deg)	throttle	battery(V)	loop_time(uS)	pid_output_roll	pid_output_pitch	pid_output_yaw	pid_output_throttle	ultrasonic_alt	baro_alt	flight_mode	p_gain_altitude	i_gain_altitude	d_gain_altitude	compass_heading	latitude	longitude
5863763	-1	2	0	-6.486606	-2.02113	304.348	0	11.63	23737	0	0	5	5	0.02	0.7812513	1	10	0.08	2800	300.7799	40.92396	-91.39371
5863840	-2	1	-3	-6.485604	-2.024345	304.3482	0	11.63	23737	0	0	5	5	0.02	0.7692139	1	10	0.08	2800	300.7412	40.92396	-91.39371
5863990	-3	-4	-1	-6.482383	-2.031288	304.3486	0	11.63	23737	0	0	5	5	0.02	0.7535589	1	10	0.08	2800	300.7505	40.92396	-91.39371
5864068	-2	-6	4	-6.480374	-2.029067	304.3481	0	11.63	23737	0	0	5	5	0.02	0.7507532	1	10	0.08	2800	300.9605	40.92396	-91.39371
5864167	1	1	-1	-6.477763	-2.026844	304.3465	0	11.63	23737	0	0	5	5	0.02	0.7510628	1	10	0.08	2800	300.6631	40.92396	-91.39371
5864254	-2	4	2	-6.474139	-2.027148	304.344	0	11.63	23737	0	0	5	5	0.02	0.7607135	1	10	0.08	2800	300.7448	40.92396	-91.39371
5864370	2	-2	1	-6.476647	-2.029237	304.3452	0	11.63	23737	0	0	5	5	0.02	0.7658197	1	10	0.08	2800	300.647	40.92396	-91.39371
5864524	1	0	-1	-6.47246	-2.030226	304.3471	0	11.57	23737	0	0	5	5	0.02	0.7694978	1	10	0.08	2800	300.9024	40.92396	-91.39371
5864622	0	0	3	-6.472265	-2.029073	304.3464	0	11.57	23737	0	0	5	5	0.02	0.7642339	1	10	0.08	2800	300.9329	40.92396	-91.39371
5864705	3	-1	-1	-6.472561	-2.027508	304.347	0	11.57	23737	0	0	5	5	0.02	0.7574891	1	10	0.08	2800	300.8463	40.92396	-91.39371
5864823	-1	-3	0	-6.471368	-2.025963	304.3488	0	11.57	23737	0	0	5	5	0.02	0.7500642	1	10	0.08	2800	300.886	40.92396	-91.39371
5864925	0	4	0	-6.472149	-2.025086	304.3474	0	11.57	23737	0	0	5	5	0.02	0.7502074	1	10	0.08	2800	300.6352	40.92396	-91.39371
5864985	3	3	-1	-6.472581	-2.027108	304.3475	0	11.57	23737	0	0	5	5	0.02	0.7499302	1	10	0.08	2800	300.851	40.92396	-91.39371
5865110	-1	-4	-1	-6.470888	-2.023536	304.3482	0	11.57	23737	0	0	5	5	0.02	0.7465607	1	10	0.08	2800	300.8913	40.92396	-91.39371
5865288	0	-1	0	-6.472218	-2.025079	304.3492	0	11.57	23737	0	0	5	5	0.02	0.7472927	1	10	0.08	2800	300.7085	40.92396	-91.39371
5865365	-2	-1	0	-6.471169	-2.025284	304.349	0	11.57	23737	0	0	5	5	0.02	0.7455522	1	10	0.08	2800	300.8098	40.92396	-91.39371
5865475	6	-1	0	-6.470776	-2.025382	304.3483	0	11.57	23737	0	0	5	5	0.02	0.7358124	1	10	0.08	2800	300.6511	40.92396	-91.39371
5865490	6	-1	0	-6.470776	-2.025382	304.3483	0	11.57	23737	0	0	5	5	0.02	0.7300448	1	10	0.08	2800	300.6511	40.92396	-91.39371
5865595	1	2	-2	-6.471004	-2.025516	304.3493	0	11.57	23737	0	0	5	5	0.02	0.7204361	1	10	0.08	2800	300.8502	40.92396	-91.39371
5865705	-1	5	-2	-6.469977	-2.027872	304.3497	0	11.57	23737	0	0	5	5	0.02	0.7077979	1	10	0.08	2800	300.8006	40.92396	-91.39371
5865799	4	-2	1	-6.470586	-2.026958	304.3496	0	11.57	23737	0	0	5	5	0.02	0.7033415	1	10	0.08	2800	300.9081	40.92396	-91.39371
5865957	0	-1	0	-6.468642	-2.0275	304.351	0	11.57	23737	0	0	5	5	0.02	0.7013673	1	10	0.08	2800	300.7337	40.92396	-91.39371
5866061	0	-7	0	-6.467622	-2.027059	304.3515	0	11.57	23737	0	0	5	5	0.02	0.6986085	1	10	0.08	2800	300.6487	40.92396	-91.39371
5866145	-1	0	-5	-6.465131	-2.026666	304.3519	0	11.57	23737	0	0	5	5	0.02	0.6973327	1	10	0.08	2800	300.8116	40.92396	-91.39371
5866239	3	0	2	-6.464577	-2.028018	304.3527	0	11.57	23737	0	0	5	5	0.02	0.6939377	1	10	0.08	2800	300.9394	40.92396	-91.39371
5866352	2	0	2	-6.46686	-2.027474	304.351	0	11.57	23737	0	0	5	5	0.02	0.6916019	1	10	0.08	2800	300.7867	40.92396	-91.39371
5866424	-2	-1	-1	-6.466082	-2.028872	304.3512	0	11.57	23737	0	0	5	5	0.02	0.6931843	1	10	0.08	2800	300.7199	40.92396	-91.39371
5866593	-2	2	2	-6.462228	-2.02465	304.3506	0	11.57	23737	0	0	5	5	0.02	0.7143826	1	10	0.08	2800	301.0185	40.92396	-91.39371
5866669	1	-1	0	-6.461226	-2.024676	304.3509	0	11.57	23737	0	0	5	5	0.02	0.7179409	1	10	0.08	2800	300.8716	40.92396	-91.39371
5866755	-1	0	0	-6.460026	-2.022051	304.3501	0	11.57	23737	0	0	5	5	0.02	0.7239683	1	10	0.08	2800	300.8853	40.92396	-91.39371
5866829	-2	0	3	-6.461583	-2.019076	304.3512	0	11.57	23737	0	0	5	5	0.02	0.7281355	1	10	0.08	2800	300.6664	40.92396	-91.39371
5866915	0	-5	4	-6.462265	-2.017644	304.351	0	11.57	23737	0	0	5	5	0.02	0.7302654	1	10	0.08	2800	300.7156	40.92396	-91.39371
5867035	0	0	2	-6.463675	-2.019512	304.3534	0	11.57	23737	0	0	5	5	0.02	0.7325441	1	10	0.08	2800	300.9566	40.92396	-91.39371
5867140	4	1	-5	-6.459941	-2.022558	304.3538	0	11.57	23737	0	0	5	5	0.02	0.7348831	1	10	0.08	2800	300.8622	40.92396	-91.39371
5867224	1	-4	-1	-6.46025	-2.023598	304.3551	0	11.57	23737	0	0	5	5	0.02	0.736034	1	10	0.08	2800	301.0374	40.92396	-91.39371
5867317	3	1	1	-6.4568	-2.022038	304.3551	0	11.57	23737	0	0	5	5	0.02	0.7354442	1	10	0.08	2800	300.8892	40.92396	-91.39371
5867447	0	-7	-5	-6.454956	-2.022884	304.3551	0	11.57	23737	0	0	5	5	0.02	0.7414133	1	10	0.08	2800	301.004	40.92396	-91.39371
5867540	0	-3	-3	-6.455697	-2.02282	304.3548	0	11.57	23737	0	0	5	5	0.02	0.7410204	1	10	0.08	2800	300.6876	40.92396	-91.39371
5867649	1	-6	-2	-6.455586	-2.022735	304.3548	0	11.57	23737	0	0	5	5	0.02	0.7302261	1	10	0.08	2800	300.8878	40.92396	-91.39371
5867838	3	1	-2	-6.453691	-2.021741	304.3553	0	11.57	23737	0	0	5	5	0.02	0.7217284	1	10	0.08	2800	300.8036	40.92396	-91.39371
5867955	1	0	0	-6.453666	-2.024617	304.3553	0	11.57	23737	0	0	5	5	0.02	0.7217476	1	10	0.08	2800	300.9042	40.92396	-91.39371
5868079	3	-3	0	-6.455116	-2.024846	304.3554	0	11.57	23737	0	0	5	5	0.02	0.7162929	1	10	0.08	2800	300.6129	40.92396	-91.39371
5868162	4	3	-5	-6.452546	-2.026435	304.3557	0	11.57	23737	0	0	5	5	0.02	0.7139562	1	10	0.08	2800	300.5724	40.92396	-91.39371
5868299	-3	-3	-3	-6.452641	-2.028098	304.3568	0	11.57	23737	0	0	5	5	0.02	0.7114478	1	10	0.08	2800	300.8201	40.92396	-91.39371
5868374	0	0	-1	-6.449618	-2.027479	304.3578	0	11.57	23737	0	0	5	5	0.02	0.7088203	1	10	0.08	2800	300.9379	40.92396	-91.39371
5868435	4	-4	4	-6.449901	-2.025643	304.357	0	11.57	23737	0	0	5	5	0.02	0.7020028	1	10	0.08	2800	300.7852	40.92396	-91.39371
5868546	8	-3	2	-6.445963	-2.027332	304.3565	0	11.57	23737	0	0	5	5	0.02	0.696753	1	10	0.08	2800	301.0546	40.92396	-91.39371
5868762	-2	-3	1	-6.445177	-2.024267	304.3567	0	11.57	23737	0	0	5	5	0.02	0.6818619	1	10	0.08	2800	300.9539	40.92396	-91.39371
5868869	0	0	0	-6.443657	-2.021477	304.3597	0	11.57	23737	0	0	5	5	0.02	0.6653911	1	10	0.08	2800	300.877	40.92396	-91.39371
5868973	-2	2	4	-6.442429	-2.02097	304.3595	0	11.57	23737	0	0	5	5	0.02	0.6520777	1	10	0.08	2800	300.9022	40.92396	-91.39371
5869132	0	-4	0	-6.439639	-2.021894	304.3588	0	11.57	23737	0	0	5	5	0.02	0.6517091	1	10	0.08	2800	300.829	40.92396	-91.39371
5869224	0	0	1	-6.440673	-2.026057	304.3586	0	11.57	23737	0	0	5	5	0.02	0.6527573	1	10	0.08	2800	300.8115	40.92396	-91.39371
5869332	-1	-8	2	-6.441099	-2.028371	304.3589	0	11.57	23737	0	0	5	5	0.02	0.6567289	1	10	0.08	2800	300.7512	40.92396	-91.39371
5869381	3	3	1	-6.440063	-2.02687	304.36	0	11.57	23737	0	0	5	5	0.02	0.6678888	1	10	0.08	2800	300.7512	40.92396	-91.39371
5869480	0	0	0	-6.438363	-2.028259	304.3597	0	11.57	23737	0	0	5	5	0.02	0.6739766	1	10	0.08	2800	300.8721	40.92396	-91.39371
5869586	7	1	1	-6.433474	-2.028862	304.3593	0	11.57	23737	0	0	5	5	0.02	0.6925856	1	10	0.08	2800	300.7589	40.92396	-91.39371
5869677	72	205	-400	-6.410195	-1.907099	304.4482	0	11.57	23737	0	0	5	5	0.02	0.7011326	1	10	0.08	2800	300.8175	40.92396	-91.39371
5869831	105	-1	-23	-6.433042	-1.997049	305.0996	0	11.57	23737	0	0	5	5	0.02	0.7254968	1	10	0.08	2800	300.7773	40.92396	-91.39371
5869943	10	75	-116	-6.431492	-1.951051	305.1597	0	11.57	23737	0	0	5	5	0.02	0.7468377	1	10	0.08	2800	301.079	40.92396	-91.39371
5870030	-49	-197	-306	-6.27298	-2.171458	304.5915	0	11.57	23737	0	0	5	5	0.02	0.7540299	1	10	0.08	2800	300.2174	40.92396	-91.39371
5870098	88	1506	-1822	-5.85503	-2.40502	305.7476	0	11.57	23737	0	0	5	5	0.02	0.7592789	1	10	0.08	2800	300.4358	40.92396	-91.39371
5870165	4718	-450	550	-3.519071	-4.416794	306.5969	0	11.57	23737	0	0	5	5	0.02	0.7646646	1	10	0.08	2800	301.9713	40.92396	-91.39371
5870318	5452	-2156	4522	9.101768	1.344462	299.4682	0	11.57	23737	0	0	5	5	0.02	0.7519745	1	10	0.08	2800	304.4317	40.92396	-91.39371
5870367	6765	-4723	1282	15.62821	5.390419	296.1187	0	11.57	23737	0	0	5	5	0.02	0.7495225	1	10	0.08	2800	303.8399	40.92396	-91.39371
5870556	-5393	-3140	6417	9.466726	22.29177	307.4405	0	11.57	23737	0	0	5	5	0.02	0.7536511	1	10	0.08	2800	300.291	40.92396	-91.39371
5870618	-7115	-3843	245	0.001268077	25.74229	303.8246	0	11.57	23737	0	0	5	5	0.02	0.7705865	1	10	0.08	2800	300.291	40.92396	-91.39371
5870698	-9805	-3283	-3096	-9.077865	29.40528	295.4866	0	11.57	23737	0	0	5	5	0.02	0.7815172	1	10	0.08	2800	293.4626	40.92396	-91.39371
5870794	-9409	4676	-8171	-23.78002	28.85913	296.5663	0	11.57	23737	0	0	5	5	0.02	0.81043	1	10	0.08	2800	290.8844	40.92396	-91.39371
5870879	-9611	5427	-8838	-28.34422	27.32376	306.0943	0	11.57	23737	0	0	5	5	0.02	0.8396728	1	10	0.08	2800	297.2522	40.92396	-91.39371
5870967	-6438	6003	-7924	-30.90468	26.22689	305.1638	0	11.57	23737	0	0	5	5	0.02	0.8674073	1	10	0.08	2800	302.3821	40.92396	-91.39371
5871061	-2212	1369	-6308	-30.49339	25.54801	319.4715	0	11.57	23737	0	0	5	5	0.02	0.9054996	1	10	0.08	2800	324.8944	40.92396	-91.39371
5871185	-1346	2418	-5542	-25.29121	28.54618	119.3191	0	11.57	23737	0	0	5	5	0.02	0.945708	1	10	0.08	2800	116.0652	40.92396	-91.39371
5871282	-1707	2368	-4753	-21.7648	26.53169	127.2103	0	11.57	23737	0	0	5	5	0.02	0.9768082	1	10	0.08	2800	131.9714	40.92396	-91.39371
5871360	-2475	2458	-5412	-20.46698	25.96706	146.5165	0	11.57	23737	0	0	5	5	0.02	0.9927365	1	10	0.08	2800	141.1962	40.92396	-91.39371
5871467	-2274	4975	-5851	-19.89878	21.25832	157.9391	0	11.57	23737	0	0	5	5	0.02	1.008287	1	10	0.08	2800	152.651	40.92395	-91.39371
5871576	-1493	3855	-1286	-19.43249	15.48165	164.6996	0	11.57	23737	0	0	5	5	0.02	1.019025	1	10	0.08	2800	160.6162	40.92395	-91.3937
5871682	-590	2103	-1424	-17.84346	8.614846	167.9966	0	11.57	23737	0	0	5	5	0.02	1.016827	1	10	0.08	2800	162.9454	40.92395	-91.3937
5871746	232	2372	-1654	-17.70362	7.849031	168.8481	0	11.57	23737	0	0	5	5	0.02	1.017677	1	10	0.08	2800	162.9454	40.92395	-91.3937
5871843	106	-979	1590	-16.39312	6.862526	169.6972	0	11.57	23737	0	0	5	5	0.02	1.006955	1	10	0.08	2800	164.1664	40.92395	-91.3937
5871990	-3627	-587	5300	-24.24907	6.183394	155.7784	0	11.57	23737	0	0	5	5	0.02	0.9920346	1	10	0.08	2800	156.5661	40.92395	-91.3937
5872065	-4821	-2830	8826	-30.00716	4.092209	148.1648	0	11.57	23737	0	0	5	5	0.02	0.9751049	1	10	0.08	2800	148.8384	40.92395	-91.3937
5872138	1932	-2927	6364	-32.82383	3.40014	139.0646	0	11.57	23737	0	0	5	5	0.02	0.9620271	1	10	0.08	2800	148.8384	40.92395	-91.3937
5872269	3796	-3101	2588	-25.58174	6.264288	118.1566	0	11.57	23737	0	0	5	5	0.02	0.9303426	1	10	0.08	2800	118.4776	40.92395	-91.3937
5872343	798	-3304	2158	-22.1572	8.57577	114.1811	0	11.57	23737	0	0	5	5	0.02	0.9235073	1	10	0.08	2800	111.28	40.92395	-91.3937
5872459	-121	-514	2895	-22.28864	9.606084	109.5573	0	11.57	23737	0	0	5	5	0.02	0.9095556	1	10	0.08	2800	104.6454	40.92395	-91.3937
5872591	653	2368	1006	-22.92022	5.828109	106.7811	0	11.57	23737	0	0	5	5	0.02	0.8985752	1	10	0.08	2800	102.1953	40.92395	-91.3937
5872663	2473	4652	2504	-19.58402	-3.779146	102.7863	0	11.57	23737	0	0	5	5	0.02	0.8840393	1	10	0.08	2800	102.7768	40.92395	-91.3937
5872815	473	1282	1197	-16.79142	-11.01281	99.59301	0	11.57	23737	0	0	5	5	0.02	0.8629375	1	10	0.08	2800	100.6433	40.92395	-91.3937
5872971	-707	-3822	4694	-15.82385	-8.660333	71.46426	0	11.57	23737	0	0	5	5	0.02	0.8350382	1	10	0.08	2800	71.75113	40.92395	-91.39369
5873057	-826	-4117	5575	-15.93812	-5.69631	48.86966	0	11.57	23737	0	0	5	5	0.02	0.8248262	1	10	0.08	2800	48.86966	40.92395	-91.39369
5873252	1295	-521	3447	-11.33449	-4.708034	16.46609	0	11.57	23737	0	0	5	5	0.02	0.7985631	1	10	0.08	2800	12.02316	40.92395	-91.39368
5873377	-1013	-804	1504	-7.397991	-4.559917	12.57216	0	11.57	23737	0	0	5	5	0.02	0.7761417	1	10	0.08	2800	3.665131	40.92395	-91.39368
5873458	-2330	1238	1548	-8.947061	-4.959409	0.3960218	0	11.57	23737	0	0	5	5	0.02	0.7628759	1	10	0.08	2800	0.6836853	40.92395	-91.39368
5873561	-1750	948	163	-11.09088	-6.45136	359.4471	0	11.57	23737	0	0	5	5	0.02	0.7432597	1	10	0.08	2800	3.55072	40.92395	-91.39368
5873680	3103	3602	-519	-8.354894	-8.640878	12.29044	0	11.57	23737	0	0	5	5	0.02	0.7061278	1	10	0.08	2800	12.29044	40.92395	-91.39368
5873810	1087	-1316	-188	-3.369848	-8.509024	12.68384	0	11.57	23737	0	0	5	5	0.02	0.6708119	1	10	0.08	2800	17.24631	40.92395	-91.39368
5873872	-2014	-1461	1879	-4.133555	-6.308724	10.63896	0	11.57	23737	0	0	5	5	0.02	0.6503787	1	10	0.08	2800	9.857452	40.92395	-91.39368
5873973	-2837	-1699	2710	-6.74227	-4.578043	8.211551	0	11.57	23737	0	0	5	5	0.02	0.6203886	1	10	0.08	2800	3.447021	40.92395	-91.39368
5874043	1421	17	3775	-8.077515	-4.103578	2.209614	0	11.57	23737	0	0	5	5	0.02	0.594915	1	10	0.08	2800	356.9671	40.92395	-91.39368
5874245	-1248	2671	1645	-4.606887	-8.410243	343.107	0	11.57	23737	0	0	5	5	0.02	0.5420409	1	10	0.08	2800	342.8773	40.92396	-91.39368
5874384	-2038	1355	1077	-6.770337	-12.23093	336.0889	0	11.57	23737	0	0	5	5	0.02	0.5143297	1	10	0.08	2800	336.4005	40.92396	-91.39368
5874430	3425	3265	1870	-4.239261	-15.81134	334.3673	0	11.57	23737	0	0	5	5	0.02	0.4997488	1	10	0.08	2800	336.6904	40.92396	-91.39368
5874511	1575	1361	-1432	-1.117831	-18.44394	334.0522	0	11.57	23737	0	0	5	5	0.02	0.4873892	1	10	0.08	2800	338.3671	40.92396	-91.39368
5874622	-1189	1606	-1788	-4.691129	-20.45353	337.9695	0	11.57	23737	0	0	5	5	0.02	0.4679396	1	10	0.08	2800	341.8242	40.92397	-91.39368
5874727	1198	-1083	-1080	-4.682519	-21.16194	349.5877	0	11.57	23737	0	0	5	5	0.02	0.4245845	1	10	0.08	2800	348.773	40.92397	-91.39368
5874878	-133	320	2568	-8.537059	-16.38343	338.9034	0	11.57	23737	0	0	5	5	0.02	0.3733279	1	10	0.08	2800	338.9034	40.92397	-91.39368
5874980	-815	-2962	-1627	-4.83827	-13.51894	338.807	0	11.57	23737	0	0	5	5	0.02	0.3333193	1	10	0.08	2800	335.4919	40.92397	-91.39368
5875011	-108	-2787	-1818	-5.047682	-10.08308	340.3977	0	11.57	23737	0	0	5	5	0.02	0.324297	1	10	0.08	2800	333.443	40.92397	-91.39368
5875150	805	-1510	60	-5.238145	-5.462289	342.2627	0	11.57	23737	0	0	5	5	0.02	0.2747683	1	10	0.08	2800	332.336	40.92397	-91.39368
5875274	-81	-62	-15	-5.018366	-5.153871	330.5653	0	11.57	23737	0	0	5	5	0.02	0.2255937	1	10	0.08	2800	332.3803	40.92397	-91.39368
5875412	-3	8	0	-5.07476	-4.897568	330.5621	0	11.57	23737	0	0	5	5	0.02	0.1969975	1	10	0.08	2800	331.8611	40.92397	-91.39368
5875575	-5	0	-1	-5.113958	-4.625093	330.5647	0	11.57	23737	0	0	5	5	0.02	0.1326542	1	10	0.08	2800	332.7307	40.92397	-91.39368
5875647	6	0	1	-5.13111	-4.520227	330.5654	0	11.57	23737	0	0	5	5	0.02	0.1281588	1	10	0.08	2800	332.4763	40.92397	-91.39368
5875800	7	2	4	-5.171488	-4.276577	330.5641	0	11.57	23737	0	0	5	5	0.02	0.09691449	1	10	0.08	2800	333.4724	40.92397	-91.39368
5875853	8	0	3	-5.179459	-4.231272	330.5625	0	11.57	23737	0	0	5	5	0.02	0.08526129	1	10	0.08	2800	333.4724	40.92397	-91.39368
5876045	10	1	0	-5.211668	-3.96661	330.5565	0	11.57	23737	0	0	5	5	0.02	0.05190037	1	10	0.08	2800	334.3149	40.92397	-91.39368
5876183	5	2	-1	-5.237421	-3.769816	330.5568	0	11.57	23737	0	0	5	5	0.02	0.03748861	1	10	0.08	2800	333.9629	40.92397	-91.39368
5876243	5	4	0	-5.242716	-3.734187	330.5564	0	11.57	23737	0	0	5	5	0.02	0.02949195	1	10	0.08	2800	334.6979	40.92397	-91.39368
5876387	8	4	2	-5.266231	-3.589781	330.5558	0	11.57	23737	0	0	5	5	0.02	0.02099593	1	10	0.08	2800	334.2962	40.92397	-91.39368
5876433	2	-4	0	-5.280406	-3.49039	330.5541	0	11.57	23737	0	0	5	5	0.02	0.01957116	1	10	0.08	2800	334.7861	40.92397	-91.39368
5876561	6	2	0	-5.295457	-3.393189	330.5538	0	11.57	23737	0	0	5	5	0.02	0.003124523	1	10	0.08	2800	335.0055	40.92397	-91.39368
5876705	6	3	0	-5.31566	-3.272667	330.5552	0	11.57	23737	0	0	5	5	0.02	-0.01025605	1	10	0.08	2800	335.3759	40.92397	-91.39368
5876746	8	6	-1	-5.319512	-3.245758	330.5554	0	11.57	23737	0	0	5	5	0.02	-0.01200819	1	10	0.08	2800	335.3759	40.92397	-91.39368
5876921	2	-4	0	-5.34321	-3.082795	330.5572	0	11.57	23737	0	0	5	5	0.02	-0.01876394	1	10	0.08	2800	335.9019	40.92397	-91.39368
5876979	6	-3	2	-5.345562	-3.056577	330.5567	0	11.57	23737	0	0	5	5	0.02	-0.02096708	1	10	0.08	2800	335.9019	40.92397	-91.39368
5877084	5	-4	0	-5.359666	-2.958611	330.5578	0	11.57	23737	0	0	5	5	0.02	-0.01923167	1	10	0.08	2800	335.4856	40.92397	-91.39368
5877217	3	2	-2	-5.370192	-2.889997	330.5587	0	11.57	23737	0	0	5	5	0.02	-0.009261148	1	10	0.08	2800	334.5949	40.92397	-91.39368
5877310	-3	-5	-4	-5.383213	-2.807097	330.5573	0	11.57	23737	0	0	5	5	0.02	0.001360104	1	10	0.08	2800	334.8795	40.92397	-91.39368
5877357	1	-1	-5	-5.387573	-2.788752	330.557	0	11.57	23737	0	0	5	5	0.02	0.0009480167	1	10	0.08	2800	334.8795	40.92397	-91.39368
5877540	2	-1	1	-5.398561	-2.677584	330.5573	0	11.57	23737	0	0	5	5	0.02	-0.008654385	1	10	0.08	2800	336.3582	40.92397	-91.39368
5877575	5	-5	2	-5.401071	-2.658677	330.5565	0	11.57	23737	0	0	5	5	0.02	-0.01668218	1	10	0.08	2800	336.3582	40.92397	-91.39368
5877674	4	-3	-2	-5.408282	-2.625219	330.5573	0	11.57	23737	0	0	5	5	0.02	-0.02517816	1	10	0.08	2800	334.9914	40.92397	-91.39368
5877759	3	-2	-2	-5.414769	-2.556638	330.5564	0	11.57	23737	0	0	5	5	0.02	-0.03291103	3	10	0.08	2800	335.8755	40.92397	-91.39368
5877867	3	2	-6	-5.420127	-2.526417	330.5561	0	11.57	23737	0	0	5	5	0.02	-0.03466707	3	10	0.08	2800	335.6661	40.92397	-91.39368
5878019	3	0	0	-5.433971	-2.456729	330.5558	0	11.57	23793	0	0	5	5	0.02	-0.04900781	8	10	0.08	2800	335.6772	40.92397	-91.39368
5878079	4	-5	3	-5.440365	-2.41449	330.5567	0	11.57	23912	0	0	5	5	0.02	-0.06271867	8	10	0.08	2800	335.5875	40.92397	-91.39368
5878179	3	-2	-2	-5.443408	-2.384501	330.5567	0	11.63	24516	0	0	5	5	0.02	-0.0727564	8	10	0.08	2800	335.5545	40.92397	-91.39368
5878239	6	-2	2	-5.448902	-2.358653	330.5572	0	11.63	23149	0	0	5	5	0.02	-0.0734618	1	10	0.08	2800	336.1444	40.92397	-91.39368
5878356	4	-1	1	-5.453609	-2.310233	330.5558	0	11.63	23149	0	0	5	5	0.02	-0.07515314	1	10	0.08	2800	335.9722	40.92397	-91.39368
5878475	2	2	3	-5.461022	-2.278739	330.5566	0	11.63	23149	0	0	5	5	0.02	-0.07659701	1	10	0.08	2800	337.3365	40.92397	-91.39368
5878557	6	-2	0	-5.465342	-2.248909	330.5559	0	11.63	23149	0	0	5	5	0.02	-0.0728594	1	10	0.08	2800	336.4341	40.92397	-91.39368
5878739	5	0	1	-5.466394	-2.201416	330.5574	0	11.63	23149	0	0	5	5	0.02	-0.06922042	3	10	0.08	2800	336.048	40.92397	-91.39368
5878779	5	0	0	-5.468263	-2.193082	330.5571	0	11.63	23149	0	0	5	5	0.02	-0.07074502	3	10	0.08	2800	336.048	40.92397	-91.39368
5878897	0	2	0	-5.472105	-2.159722	330.556	0	11.63	23149	0	0	5	5	0.02	-0.07522508	3	10	0.08	2800	336.3796	40.92397	-91.39368
5878977	4	0	0	-5.474317	-2.14342	330.5566	0	11.63	23149	0	0	5	5	0.02	-0.07321545	3	10	0.08	2800	336.604	40.92397	-91.39368
5879064	1	0	-2	-5.476368	-2.120844	330.5559	0	11.63	23149	0	0	5	5	0.02	-0.06981121	3	10	0.08	2800	336.2424	40.92397	-91.39368
5879184	3	0	3	-5.481548	-2.091983	330.5533	0	11.57	23149	0	0	5	5	0.02	-0.06478784	3	10	0.08	2800	335.829	40.92397	-91.39368
5879267	0	3	-1	-5.482768	-2.075093	330.5538	0	11.57	23149	0	0	5	5	0.02	-0.06403827	3	10	0.08	2800	335.8521	40.92397	-91.39368
5879361	7	-1	5	-5.482732	-2.053687	330.556	0	11.57	23149	0	0	5	5	0.02	-0.06286562	3	10	0.08	2800	336.2533	40.92397	-91.39368
5879464	20	31	-175	-5.486529	-2.036426	330.5588	0	11.57	23149	0	0	5	5	0.02	-0.05256246	3	10	0.08	2800	337.0279	40.92397	-91.39368
5879642	0	9	-73	-5.47019	-2.002499	330.5602	0	11.57	23149	0	0	5	5	0.02	-0.04075404	3	10	0.08	2800	335.5673	40.92397	-91.39368
5879734	17	93	-47	-5.463574	-1.985747	330.5594	0	11.57	23149	0	0	5	5	0.02	-0.03192657	3	10	0.08	2800	337.1313	40.92397	-91.39368
5879805	-35	45	-71	-5.466063	-1.986773	330.567	0	11.57	23149	0	0	5	5	0.02	-0.0193481	3	10	0.08	2800	334.2508	40.92397	-91.39368
5879908	-14	100	-93	-5.452932	-1.935915	330.5769	0	11.57	23149	0	0	5	5	0.02	-0.00768703	3	10	0.08	2800	332.6415	40.92397	-91.39368
5879996	-3	37	9	-5.486028	-1.94811	330.5601	0	11.57	23149	0	0	5	5	0.02	0.01614414	3	10	0.08	2800	335.1296	40.92397	-91.39368
5880043	98	-14	-4	-5.486622	-1.939088	330.5557	0	11.57	23149	0	0	5	5	0.02	0.02106163	3	10	0.08	2800	337.0032	40.92397	-91.39368
5880196	12	-11	93	-5.501113	-1.921725	330.5463	0	11.57	23149	0	0	5	5	0.02	0.03533508	3	10	0.08	2800	334.6182	40.92397	-91.39368
5880245	-17	40	-56	-5.495947	-1.919588	330.5529	0	11.57	23149	0	0	5	5	0.02	0.03574979	3	10	0.08	2800	335.7053	40.92397	-91.39368
5880393	-81	-17	-45	-5.502729	-1.898486	330.5555	0	11.57	23149	0	0	5	5	0.02	0.03296768	3	10	0.08	2800	336.2247	40.92397	-91.39368
5880478	-63	108	-94	-5.483445	-1.900989	330.5502	0	11.57	23149	0	0	5	5	0.02	0.0231341	3	10	0.08	2800	332.8854	40.92397	-91.39368
5880576	-119	-21	116	-5.441147	-1.829786	330.5714	0	11.57	23149	0	0	5	5	0.02	0.02160846	3	10	0.08	2800	334.7154	40.92397	-91.39368
5880657	81	42	90	-5.418758	-1.835302	330.5698	0	11.57	23149	0	0	5	5	0.02	0.02645278	3	10	0.08	2800	334.0648	40.92397	-91.39367
5880713	61	-19	28	-5.416392	-1.823466	330.5717	0	11.57	23149	0	0	5	5	0.02	0.02775571	3	10	0.08	2800	336.0234	40.92397	-91.39367
5880806	41	-19	39	-5.381736	-1.763367	330.5847	0	11.57	23149	0	0	5	5	0.02	0.03052711	3	10	0.08	2800	333.3252	40.92397	-91.39367
5880965	-68	6	15	-5.401296	-1.674042	330.593	0	11.57	23149	0	0	5	5	0.02	0.0383925	3	10	0.08	2800	333.6078	40.92397	-91.39367
5881050	64	44	-173	-5.399668	-1.604131	330.6114	0	11.57	23149	0	0	5	5	0.02	0.04260479	3	10	0.08	2800	335.5073	40.92397	-91.39367
5881146	23	73	-66	-5.410892	-1.516647	330.6475	0	11.57	23149	0	0	5	5	0.02	0.04522645	3	10	0.08	2800	333.6683	40.92397	-91.39367
5881248	3712	-197	427	-3.617242	-1.368749	330.724	0	11.57	23149	0	0	5	5	0.02	0.04834997	3	10	0.08	2800	332.0347	40.92397	-91.39368
5881350	7053	-6529	-1922	9.735054	4.413045	333.1283	0	11.57	23149	0	0	5	5	0.02	0.04982864	3	10	0.08	2800	331.9392	40.92397	-91.39368
5881422	-3716	1694	645	11.48112	8.230689	332.8237	0	11.57	23149	0	0	5	5	0.02	0.0521095	3	10	0.08	2800	333.6117	40.92397	-91.39367
5881516	-8631	8273	1094	3.338959	1.527404	331.5143	0	11.57	23149	0	0	5	5	0.02	0.05856543	3	10	0.08	2800	327.0035	40.92397	-91.39367
5881630	-1433	2277	-58	-10.3058	-9.41785	330.5024	0	11.57	23149	0	0	5	5	0.02	0.07141063	3	10	0.08	2800	331.5332	40.92397	-91.39367
5881716	-1024	-14	-55	-11.05783	-9.762413	330.1637	0	11.57	23149	0	0	5	5	0.02	0.08487776	3	10	0.08	2800	334.9938	40.92397	-91.39367
5881879	-322	1452	830	-12.79609	-12.70171	327.9346	0	11.4	23149	0	0	5	5	0.02	0.1116894	3	10	0.08	2800	334.6533	40.92397	-91.39367
5881983	4139	-4995	-197	-5.352232	-9.354499	339.2859	0	11.4	23149	0	0	5	5	0.02	0.1316147	3	10	0.08	2800	346.3503	40.92397	-91.39367
5882021	2568	-4931	-728	-3.803199	-6.122449	339.4153	0	11.4	23149	0	0	5	5	0.02	0.1493109	3	10	0.08	2800	340.6362	40.92397	-91.39367
5882114	-208	-2206	-712	-2.395745	-2.060114	339.4733	0	11.4	23149	0	0	5	5	0.02	0.1960411	3	10	0.08	2800	336.8247	40.92397	-91.39367
5882236	-1170	-5986	-719	-4.482647	4.656373	339.7389	0	11.4	23149	0	0	5	5	0.02	0.236776	3	10	0.08	2800	330.6945	40.92397	-91.39367
5882324	-2554	-2447	-59	-6.793621	13.42549	319.4152	0	11.4	23149	0	0	5	5	0.02	0.2569072	3	10	0.08	2800	319.3428	40.92397	-91.39366
5882460	3665	5647	-507	-11.11479	7.522553	319.4109	0	11.4	23149	0	0	5	5	0.02	0.2950331	3	10	0.08	2800	312.9297	40.92397	-91.39366
5882550	5505	4142	18	-4.57014	1.07127	319.9577	0	11.4	23149	0	0	5	5	0.02	0.3030002	3	10	0.08	2800	325.3849	40.92397	-91.39366
5882672	869	1174	152	-0.8060943	-1.008821	330.4115	0	11.4	23149	0	0	5	5	0.02	0.3132744	3	10	0.08	2800	329.2661	40.92397	-91.39366
5882733	-291	900	337	-0.2518472	-1.733955	330.348	0	11	23149	0	0	5	5	0.02	0.3330585	3	10	0.08	2800	334.0755	40.92397	-91.39366
5882862	-1974	-960	-119	-2.196203	0.3414098	331.8744	0	11	23149	0	0	5	5	0.02	0.3521276	3	10	0.08	2800	336.7436	40.92397	-91.39366
5883005	-1853	-1411	-796	-3.611086	1.246485	333.2772	0	11	23149	0	0	5	5	0.02	0.3922957	3	10	0.08	2800	336.6193	40.92397	-91.39366
5883079	-1966	1139	-1381	-6.148424	1.514917	334.8342	0	11	23149	0	0	5	5	0.02	0.4091796	3	10	0.08	2800	336.6193	40.92397	-91.39366
5883148	-1886	1863	-482	-8.201098	-1.35222	349.555	0	11	23149	0	0	5	5	0.02	0.4295795	3	10	0.08	2800	348.9707	40.92397	-91.39366
5883256	-722	-681	-2248	-11.13801	-1.913231	351.9713	0	11	23149	0	0	5	5	0.02	0.4431308	3	10	0.08	2800	352.8599	40.92397	-91.39366
5883317	1223	194	-1578	-9.589129	-0.9273013	353.8586	0	11	23149	0	0	5	5	0.02	0.4623221	3	10	0.08	2800	2.285767	40.92397	-91.39366
5883513	361	1196	-2430	-4.598152	-4.324663	21.8507	0	11	23149	0	0	5	5	0.02	0.5047302	3	10	0.08	2800	24.7666	40.92396	-91.39366
5883583	304	-2774	-1531	-4.7053	-1.546795	24.21146	0	11	23149	0	0	5	5	0.02	0.5400235	3	10	0.08	2800	27.42249	40.92396	-91.39366
5883631	2232	-2515	-1217	-4.074981	0.1152965	24.97185	0	11	23149	0	0	5	5	0.02	0.5483804	3	10	0.08	2800	28.21658	40.92396	-91.39366
5883712	-1164	-2047	-595	-1.969226	2.575183	26.4586	0	11.34	23149	0	0	5	5	0.02	0.5746472	3	10	0.08	2800	28.21658	40.92396	-91.39365
5883847	-1221	-368	336	-3.876337	5.616472	28.53506	0	11.34	23149	0	0	5	5	0.02	0.6176127	3	10	0.08	2800	31.70752	40.92396	-91.39365
5883951	353	-684	448	-2.788019	4.978537	28.61888	0	11.34	23149	0	0	5	5	0.02	0.6711228	3	10	0.08	2800	36.07181	40.92396	-91.39365
5884023	-35	-245	1356	-2.099467	4.967899	27.76075	0	11.34	23149	0	0	5	5	0.02	0.6985617	3	10	0.08	2800	34.69	40.92396	-91.39365
5884117	600	-387	1162	-2.36351	4.705134	26.67154	0	11.34	23149	0	0	5	5	0.02	0.735049	3	10	0.08	2800	34.28577	40.92396	-91.39365
5884232	1355	2742	1986	-0.7610664	1.442575	23.30991	0	11.34	23149	0	0	5	5	0.02	0.7909062	3	10	0.08	2800	25.25095	40.92396	-91.39365
5884370	-494	1500	2718	-0.3817894	-2.064277	16.59217	0	11.34	23149	0	0	5	5	0.02	0.8266571	3	10	0.08	2800	9.462372	40.92396	-91.39366
5884462	-2083	1650	2437	-2.914788	-3.790943	353.4196	0	11.34	23149	0	0	5	5	0.02	0.8735208	3	10	0.08	2800	354.5367	40.92395	-91.39366
5884591	-1127	-664	2537	-3.832465	-4.65909	347.347	0	11.29	23149	0	0	5	5	0.02	0.901371	3	10	0.08	2800	344.5948	40.92395	-91.39366
5884610	-1106	-720	2818	-4.924042	-4.052056	344.496	0	11.29	23149	0	0	5	5	0.02	0.9150898	3	10	0.08	2800	340.6047	40.92395	-91.39366
5884695	512	-1181	1796	-4.996933	-3.426744	342.2933	0	11.29	23149	0	0	5	5	0.02	0.9449422	3	10	0.08	2800	337.0093	40.92395	-91.39366
5884819	1165	152	-165	-2.543896	-1.013457	340.2818	0	11.29	23149	0	0	5	5	0.02	0.9723688	3	10	0.08	2800	330.9079	40.92395	-91.39366
5884900	-1092	2162	162	-2.633739	-2.019758	339.3841	0	11.29	23149	0	0	5	5	0.02	0.998033	3	10	0.08	2800	330.9079	40.92395	-91.39366
5885010	-364	373	461	-4.693349	-5.171564	338.1964	0	11.29	23149	0	0	5	5	0.02	1.002103	3	10	0.08	2800	332.7999	40.92395	-91.39366
5885181	-424	3720	1477	1.56528	-4.307772	337.0677	0	11.29	23149	0	0	5	5	0.02	1.018293	3	10	0.08	2800	332.5923	40.92395	-91.39366
5885215	-2332	5975	453	0.7428068	-6.977667	336.4109	0	11.29	23149	0	0	5	5	0.02	1.024836	3	10	0.08	2800	329.511	40.92395	-91.39366
5885352	190	2060	349	-2.107972	-14.57024	334.7139	0	11.29	23149	0	0	5	5	0.02	1.045577	3	10	0.08	2800	332.8357	40.92394	-91.39366
5885465	-559	-4710	-801	-0.7353067	-6.545499	335.1047	0	11.23	23149	0	0	5	5	0.02	1.051149	3	10	0.08	2800	334.3354	40.92394	-91.39366
5885559	-58	-1433	800	-0.4318476	-2.622699	335.4342	0	11.23	23149	0	0	5	5	0.02	1.049367	3	10	0.08	2800	332.3275	40.92394	-91.39366
5885634	-3234	-3972	235	-3.893772	2.080466	323.725	0	11.23	23149	0	0	5	5	0.02	1.041115	3	10	0.08	2800	323.8966	40.92394	-91.39366
5885721	-4486	-2901	479	-8.767694	6.082366	323.3717	0	11.23	23149	0	0	5	5	0.02	1.036218	3	10	0.08	2800	317.9101	40.92394	-91.39366
5885856	2950	3673	-1031	-10.61322	4.572336	324.27	0	11.23	23149	0	0	5	5	0.02	1.024796	3	10	0.08	2800	316.0554	40.92394	-91.39366
5885972	1852	716	-1274	-4.731237	-0.1608805	326.4419	0	11.23	23149	0	0	5	5	0.02	1.008598	3	10	0.08	2800	326.6918	40.92394	-91.39366
5886025	46	1043	-2327	-0.03336401	-1.133892	329.9245	0	11.23	23149	0	0	5	5	0.02	1.004094	3	10	0.08	2800	337.9042	40.92394	-91.39366
5886195	-964	2646	-290	-4.096133	-8.919975	346.8718	0	11.23	23149	0	0	5	5	0.02	0.9524078	3	10	0.08	2800	352.8974	40.92394	-91.39366
5886275	1906	-2495	-692	-2.820197	-7.903466	348.0764	0	11.23	23149	0	0	5	5	0.02	0.9391209	3	10	0.08	2800	351.1955	40.92393	-91.39366
5886328	2342	-3526	394	-1.632203	-6.013735	348.2913	0	11.23	23149	0	0	5	5	0.02	0.9148117	3	10	0.08	2800	355.6408	40.92393	-91.39366
5886466	417	183	698	-2.121163	1.183016	347.6939	0	11.23	23149	0	0	5	5	0.02	0.8976523	3	10	0.08	2800	346.3016	40.92393	-91.39366
5886527	375	528	594	-1.809614	0.8275396	347.4983	0	11.23	23149	0	0	5	5	0.02	0.8846488	3	10	0.08	2800	343.7385	40.92393	-91.39366
5886627	1551	871	283	0.3852612	-1.030594	347.3614	0	11.23	23149	0	0	5	5	0.02	0.8817876	3	10	0.08	2800	346.5289	40.92393	-91.39366
5886761	-116	-544	-498	-0.9804787	-0.1703972	347.3077	0	11.23	23149	0	0	5	5	0.02	0.8690944	3	10	0.08	2800	344.7798	40.92393	-91.39367
5886987	-832	-172	-264	-4.884419	-1.424967	347.395	0	11.23	23149	0	0	5	5	0.02	0.8651177	3	10	0.08	2800	342.0552	40.92393	-91.39367
5887076	-681	-516	-429	-5.296778	-1.311454	347.8714	0	11.23	23149	0	0	5	5	0.02	0.8533192	3	10	0.08	2800	343.2614	40.92393	-91.39367
5887168	39	84	-1132	-6.426025	-0.7191762	348.6659	0	11.23	23149	0	0	5	5	0.02	0.8430232	3	10	0.08	2800	346.2056	40.92393	-91.39367
5887297	-1075	-1255	384	-7.515041	-1.18623	349.1507	0	11.34	23149	0	0	5	5	0.02	0.8258988	3	10	0.08	2800	348.0719	40.92393	-91.39366
5887366	1643	-331	-385	-6.328258	-0.1825451	349.3709	0	11.34	23149	0	0	5	5	0.02	0.8211967	3	10	0.08	2800	348.0196	40.92393	-91.39366
5887471	1238	641	-416	-3.684627	-0.2738117	349.591	0	11.34	23149	0	0	5	5	0.02	0.8156149	3	10	0.08	2800	348.4375	40.92393	-91.39366
5887581	664	-348	-550	-2.436375	-0.591451	350.3312	0	11.34	23149	0	0	5	5	0.02	0.8143036	3	10	0.08	2800	351.7154	40.92393	-91.39366
5887658	-754	-608	1094	-2.570013	-0.3327073	350.2022	0	11.34	23149	0	0	5	5	0.02	0.8167654	3	10	0.08	2800	352.4807	40.92393	-91.39366
5887831	-10	104	651	-6.354277	-0.3266129	346.9854	0	11.34	23149	0	0	5	5	0.02	0.8209438	3	10	0.08	2800	347.6696	40.92393	-91.39367
5887940	248	-454	-218	-6.211585	0.3359247	346.0357	0	11.34	23149	0	0	5	5	0.02	0.8126257	3	10	0.08	2800	348.3669	40.92393	-91.39367
5888076	927	884	-169	-5.370258	1.102263	344.3211	0	11.34	23149	0	0	5	5	0.02	0.7911401	3	10	0.08	2800	339.6486	40.92393	-91.39367
5888205	67	487	-171	-0.08157904	-0.172574	344.7639	0	11.17	23149	0	0	5	5	0.02	0.7840196	3	10	0.08	2800	342.8983	40.92393	-91.39367
5888255	-840	758	-898	-0.2575572	-0.4346742	345.0111	0	11.17	23149	0	0	5	5	0.02	0.781481	3	10	0.08	2800	342.8983	40.92393	-91.39367
5888381	1476	1118	-2397	-0.9704015	-1.921101	347.1784	0	11.17	20015	0	0	5	5	0.02	0.7807029	8	10	0.08	2800	348.0114	40.92393	-91.39367
5888491	-5883	-996	-1541	1.499128	-6.573686	350.2294	0	11.17	23921	0	0	5	5	0.02	0.7828938	8	10	0.08	2800	357.6988	40.92393	-91.39367
5888561	-6402	-4764	-1180	-1.450202	-4.818639	350.9195	0	11.17	24374	-13	2	5	5	0.02	0.7889434	8	10	0.08	2800	355.6275	40.92393	-91.39367
5888652	23	164	-922	-2.031169	1.707313	354.2619	0	11.17	23758	-11	2	5	5	0.02	0.799171	8	10	0.08	2800	359.0094	40.92393	-91.39367
5888762	1607	334	-1358	-0.9473869	0.4452244	356.4276	0	11.17	24571	-11	-16	5	5	0.02	0.8190564	8	10	0.08	2800	1.888	40.92393	-91.39367
5888860	-318	-292	-1046	-0.05785317	-0.008980656	357.6953	0	11.17	23897	-10	-9	5	5	0.02	0.8474736	8	10	0.08	2800	4.434784	40.92393	-91.39367
5888994	-1073	-78	-809	0.3088728	1.350636	9.752506	0	11.17	23270	-8	-11	5	5	0.02	0.8827406	8	10	0.08	2800	7.912842	40.92393	-91.39367
5889102	-1012	-278	-1029	-1.346164	1.640865	10.81311	0	11.17	23725	0	2	5	5	0.02	0.9435411	8	10	0.08	2800	9.898956	40.92393	-91.39367
5889205	921	176	-432	-0.8593866	1.372729	11.61449	0	11.17	24385	-11	-3	5	5	0.02	0.9907547	8	10	0.08	2800	10.38269	40.92393	-91.39367
5889261	2474	1871	-806	1.560773	-0.0458106	11.9051	0	11.17	23730	-12	-3	5	5	0.02	0.9976676	8	10	0.08	2800	13.42276	40.92393	-91.39367
5889348	226	1448	75	2.658842	-1.486238	12.01841	0	11.17	23728	-19	-6	5	5	0.02	1.022446	8	10	0.08	2800	15.48749	40.92393	-91.39367
5889458	-744	-1228	133	-0.8327805	-2.145386	12.0043	0	11.17	23769	-11	-4	5	5	0.02	1.070706	8	10	0.08	2800	13.10767	40.92393	-91.39367
5889613	1047	-273	891	1.148553	-0.1636232	11.07054	0	11.17	23749	-10	-15	5	5	0.02	1.161507	8	10	0.08	2800	10.81357	40.92393	-91.39367
5889656	424	328	1715	1.481637	-0.061726	10.63026	0	11.17	23781	-9	-15	5	5	0.02	1.173921	8	10	0.08	2800	10.81357	40.92393	-91.39367
5889825	-236	1124	732	-1.557537	0.4725696	7.043681	0	11.17	23921	0	-14	5	5	0.02	1.260769	8	10	0.08	2800	358.8751	40.92393	-91.39367
5889910	652	768	153	-2.325696	-0.8638619	5.472994	0	11.17	23754	1	-14	5	5	0.02	1.297789	8	10	0.08	2800	356.5562	40.92393	-91.39367
5890026	1771	600	945	-0.05591626	-1.075005	352.7972	0	11.23	24527	-7	-28	5	5	0.02	1.363658	8	10	0.08	2800	351.3759	40.92393	-91.39367
5890061	1027	903	552	0.5552888	-1.467323	352.5129	0	11.23	23123	-8	-31	5	5	0.02	1.389964	8	10	0.08	2800	351.3759	40.92393	-91.39367
5890186	314	850	-480	2.597749	-2.71321	351.297	0	11.23	23781	-8	-27	5	5	0.02	1.461158	8	10	0.08	2800	351.9599	40.92393	-91.39367
5890278	-1564	-1047	54	0.7658239	-1.747369	350.5265	0	11.23	23924	-9	-29	5	5	0.02	1.506395	8	10	0.08	2800	349.9312	40.92393	-91.39367
5890385	798	-195	806	0.1544503	-0.8887008	338.0436	0	11.23	23899	-8	-24	5	5	0.02	1.545264	8	10	0.08	2800	338.0918	40.92393	-91.39367
5890450	-1013	1109	-348	1.298864	-3.331775	338.2287	0	11.23	24379	-13	-23	5	5	0.02	1.587689	8	10	0.08	2800	345.8948	40.92393	-91.39367
5890551	-652	-2302	-694	-0.2511249	-1.320921	338.5609	0	11.23	23273	-1	-27	5	5	0.02	1.617395	8	10	0.08	2800	346.7191	40.92393	-91.39367
5890676	-1722	698	249	-0.147974	-1.817388	339.1959	0	11.23	23927	7	-31	5	5	0.02	1.646789	8	10	0.08	2800	343.4254	40.92393	-91.39367
5890837	530	-646	320	-0.2861417	-3.016667	339.9815	0	11.23	23911	16	-28	5	5	0.02	1.721031	8	10	0.08	2800	346.1169	40.92393	-91.39367
5890904	-920	-411	-451	-1.058825	-1.827355	339.8582	0	11.23	23267	26	-39	5	5	0.02	1.749542	8	10	0.08	2800	344.3817	40.92392	-91.39366
5891019	-348	-133	135	-3.025639	-1.519334	339.669	0	11.23	23927	42	-51	5	5	0.02	1.796502	8	10	0.08	2800	342.7272	40.92392	-91.39366
5891066	-653	218	-447	-3.170941	-1.570315	339.6906	0	11.23	24340	38	-50	5	5	0.02	1.823234	8	10	0.08	2800	343.9787	40.92392	-91.39366
5891160	-752	1274	220	-3.750244	-1.992156	339.4358	0	11.23	23899	44	-53	5	5	0.02	1.84539	8	10	0.08	2800	343.9882	40.92392	-91.39366
5891304	814	-261	-541	-4.374257	-3.782228	338.7064	0	11.23	23119	32	-64	5	5	0.02	1.885913	8	10	0.08	2800	345.0617	40.92392	-91.39366
5891380	735	192	-594	-3.421346	-3.565642	338.5576	0	11.23	24409	44	-63	5	5	0.02	1.898753	8	10	0.08	2800	345.6871	40.92392	-91.39366
5891528	-840	769	-282	-3.502298	-3.654813	338.4944	0	11.23	23749	47	-51	5	5	0.02	1.920809	8	10	0.08	2800	344.6612	40.92392	-91.39366
5891567	-90	289	-187	-4.061058	-4.138696	338.7498	0	11.23	23762	47	-48	5	5	0.02	1.923491	8	10	0.08	2800	344.0685	40.92392	-91.39366
5891687	1133	-657	-145	-3.36808	-4.629128	350.155	0	11.23	24357	53	-47	5	5	0.02	1.942311	8	10	0.08	2800	350.7244	40.92392	-91.39365
5891767	1636	799	-464	-1.198278	-5.023244	350.5202	0	11.23	23769	54	-47	5	5	0.02	1.953982	8	10	0.08	2800	352.7795	40.92392	-91.39365
5891844	-2241	334	332	-1.550955	-5.732656	350.5779	0	11.23	23776	73	-38	5	5	0.02	1.955238	8	10	0.08	2800	350.9214	40.92392	-91.39365
5891996	54	-489	404	-5.382982	-3.706473	350.6756	0	11.17	23928	74	-42	5	5	0.02	1.950378	8	10	0.08	2800	353.1956	40.92392	-91.39365
5892069	1007	-95	396	-4.044859	-3.957863	350.5756	0	11.17	23927	77	-43	5	5	0.02	1.951717	8	10	0.08	2800	350.9134	40.92392	-91.39365
5892212	-249	-295	25	-5.608894	-3.32197	349.8529	0	11.17	24553	81	-33	5	5	0.02	1.951192	8	10	0.08	2800	348.6713	40.92392	-91.39365
5892314	1076	-266	-67	-5.339462	-1.821137	349.6756	0	11.17	23902	85	-37	5	5	0.02	1.945996	8	10	0.08	2800	344.6511	40.92392	-91.39365
5892520	-167	-367	-668	-4.773637	-3.344109	350.3362	0	11.17	24527	90	-24	5	5	0.02	1.949502	8	10	0.08	2800	351.4222	40.92392	-91.39365
5892642	-2147	-1922	-783	-7.367436	-1.43702	351.0487	0	11.17	24372	91	-17	5	5	0.02	1.949885	8	10	0.08	2800	351.7549	40.92392	-91.39365
5892753	685	486	-1168	-8.652962	-0.7049302	352.0015	0	11.17	23722	87	-6	5	5	0.02	1.940831	8	10	0.08	2800	350.9456	40.92392	-91.39365
5892862	1850	479	-1634	-6.462189	-0.6292022	353.5541	0	11.06	23903	85	0	5	5	0.02	1.937674	8	10	0.08	2800	0.3269653	40.92392	-91.39365
5893034	-1417	-707	-463	-6.10614	-1.311673	355.1711	0	11.06	23755	79	-6	5	5	0.02	1.933557	8	10	0.08	2800	359.4244	40.92392	-91.39365
5893161	-1341	640	173	-4.824543	-1.505679	7.351869	0	11.06	23140	68	-5	5	5	0.02	1.929501	8	10	0.08	2800	7.388641	40.92392	-91.39365
5893332	105	-392	1003	-5.873573	-1.045837	6.636043	0	11.06	23899	81	3	5	5	0.02	1.938081	8	10	0.08	2800	4.657867	40.92392	-91.39365
5893410	148	-749	286	-5.056326	-0.9983431	6.076347	0	11.06	23737	78	3	5	5	0.02	1.944549	8	10	0.08	2800	3.201813	40.92392	-91.39365
5893515	-1493	-1301	933	-5.796039	0.1111675	5.334445	0	11.06	23103	70	14	5	5	0.02	1.952169	8	10	0.08	2800	0.2541504	40.92392	-91.39365
5893544	-471	-1230	928	-6.202722	0.6785337	5.162666	0	11.06	23933	68	15	5	5	0.02	1.956526	8	10	0.08	2800	0.2541504	40.92392	-91.39365
5893644	1637	1406	-784	-4.208727	-0.3581299	4.53214	0	11.06	23897	62	11	5	5	0.02	1.972621	8	10	0.08	2800	359.6674	40.92393	-91.39365
5893782	-316	296	-64	-2.588132	-1.672847	4.656136	0	11.23	23929	64	19	5	5	0.02	1.98293	8	10	0.08	2800	359.5499	40.92393	-91.39365
5893874	-1838	124	1041	-5.352673	1.121728	4.268932	0	11.23	24386	51	-5	5	5	0.02	1.996084	8	10	0.08	2800	0.62854	40.92393	-91.39365
5893965	-1302	639	36	-6.993411	0.5536691	3.794014	0	11.23	23755	39	-9	5	5	0.02	2.016112	8	10	0.08	2800	359.6872	40.92393	-91.39365
5894108	1913	-25	275	-2.135915	-1.289144	3.70791	0	11.23	23919	23	-18	5	5	0.02	2.046627	8	10	0.08	2800	1.065186	40.92393	-91.39365
5894146	538	-758	853	-1.816052	-1.059611	3.624229	0	11.23	23751	36	-12	5	5	0.02	2.046627	8	10	0.08	2800	1.065186	40.92393	-91.39365
5894270	1688	1686	119	-3.116131	-0.1328105	3.371589	0	11.23	23744	29	-19	5	5	0.02	2.068941	8	10	0.08	2800	359.9609	40.92393	-91.39365
5894445	-1132	-96	520	-2.234354	-3.016927	2.555665	0	11.23	23094	36	-12	5	5	0.02	2.0931	8	10	0.08	2800	358.9417	40.92393	-91.39365
5894531	1464	-2148	89	-5.334761	-0.6784428	1.680964	0	11.23	23753	19	-12	5	5	0.02	2.106483	8	10	0.08	2800	356.1386	40.92393	-91.39365
5894599	3187	-362	62	-2.017511	0.8601867	350.8391	0	11.23	23776	18	-12	5	5	0.02	2.11725	8	10	0.08	2800	350.8313	40.92393	-91.39365
5894738	-1383	843	-43	-2.38015	-1.218224	350.1303	0	11.23	23093	16	-16	5	5	0.02	2.127273	8	10	0.08	2800	351.0638	40.92393	-91.39365
5894807	251	-536	325	-2.747299	-1.57241	350.2079	0	11.23	24392	15	-15	5	5	0.02	2.133803	8	10	0.08	2800	350.8744	40.92393	-91.39365
5894886	492	-334	-935	-1.927273	-1.667846	350.459	0	11.23	23753	7	-15	5	5	0.02	2.144077	8	10	0.08	2800	350.6763	40.92393	-91.39365
5894947	391	-631	468	-1.892673	-0.4505357	350.486	0	11.23	23905	2	-13	5	5	0.02	2.151715	8	10	0.08	2800	349.6395	40.92393	-91.39365
