time(ms)	gyro_x(deg/s)	gyro_y(deg/s)	gyro_z(deg/s)	orientation_roll(deg)	orientation_pitch(deg)	orientation_yaw(deg)	throttle	battery(V)	loop_time(uS)	pid_output_roll	pid_output_pitch	pid_output_yaw	pid_output_throttle	ultrasonic_alt	baro_alt	flight_mode	p_gain_altitude	i_gain_altitude	d_gain_altitude	compass_heading	latitude	longitude
31730	-911	-1100	97	-2.057475	5.969029	350.5066	0	11.85	20030	0	0	5	5	0.02	1.286459	3	10	0.08	2800	348.2848	40.92394	-91.39362
31862	2711	1389	-147	-2.002133	6.104179	350.856	0	11.85	20030	0	0	5	5	0.02	1.275236	3	10	0.08	2800	347.0494	40.92394	-91.39362
31976	-1604	-1248	-422	-3.739717	6.022802	351.3229	0	11.85	20030	0	0	5	5	0.02	1.268072	3	10	0.08	2800	347.3207	40.92394	-91.39362
32081	1244	-94	-346	-4.595524	7.142894	351.908	0	11.85	20030	0	0	5	5	0.02	1.262927	3	10	0.08	2800	346.9761	40.92394	-91.39362
32196	850	2925	-205	-3.143521	3.802606	352.1112	0	11.85	20030	0	0	5	5	0.02	1.250736	3	10	0.08	2800	347.2065	40.92394	-91.39362
32283	-5563	-1634	461	-7.286553	3.276742	351.7495	0	11.74	20030	0	0	5	5	0.02	1.241359	3	10	0.08	2800	349.3174	40.92394	-91.39362
32395	3316	-745	738	-8.998219	8.035817	351.1131	0	11.74	20030	0	0	5	5	0.02	1.240198	3	10	0.08	2800	347.6243	40.92394	-91.39362
32490	2003	1692	-64	-6.649641	7.645359	350.7652	0	11.74	20030	0	0	5	5	0.02	1.240956	3	10	0.08	2800	345.3618	40.92394	-91.39362
32621	-171	-477	-916	-2.302323	2.932017	351.0974	0	11.74	20030	0	0	5	5	0.02	1.236044	3	10	0.08	2800	348.6421	40.92394	-91.39362
32679	3	-1173	-1440	-1.960511	3.382209	351.5153	0	11.74	20030	0	0	5	5	0.02	1.225922	3	10	0.08	2800	349.6376	40.92394	-91.39362
32772	-1134	193	-453	-2.779761	4.354544	351.776	0	11.74	20030	0	0	5	5	0.02	1.213972	3	10	0.08	2800	349.5591	40.92394	-91.39362
32897	-480	-101	341	-3.422835	3.028695	352.0109	0	11.74	20030	0	0	5	5	0.02	1.195232	3	10	0.08	2800	348.7914	40.92394	-91.39362
32992	291	-1159	97	-4.653332	4.026379	351.5747	0	11.74	20030	0	0	5	5	0.02	1.170172	3	10	0.08	2800	347.4526	40.92394	-91.39362
33087	1306	615	554	-2.874822	4.181039	351.1495	0	11.74	20030	0	0	5	5	0.02	1.142501	3	10	0.08	2800	347.1782	40.92394	-91.39362
33205	-3147	-1348	-73	-5.036618	4.675218	350.5634	0	12.02	20030	0	0	5	5	0.02	1.117932	3	10	0.08	2800	345.0433	40.92394	-91.39362
33396	-23	819	-269	-3.828655	4.877409	351.1668	0	12.02	20030	0	0	5	5	0.02	1.08725	3	10	0.08	2800	345.137	40.92394	-91.39362
33446	-529	1504	178	-3.713336	3.920008	351.2566	0	12.02	20030	0	0	5	5	0.02	1.071018	3	10	0.08	2800	345.137	40.92394	-91.39362
33542	2257	1391	-528	-2.813292	1.866687	351.8035	0	12.02	20030	0	0	5	5	0.02	1.052834	3	10	0.08	2800	346.2839	40.92394	-91.39363
33602	9	992	-664	-1.371189	0.9076215	352.4085	0	12.02	20030	0	0	5	5	0.02	1.033906	3	10	0.08	2800	348.2737	40.92394	-91.39363
33703	-2986	-122	-364	-3.61557	1.660113	353.2734	0	12.02	20030	0	0	5	5	0.02	0.9946316	3	10	0.08	2800	350.084	40.92394	-91.39363
33799	-2123	-875	-385	-6.87082	2.759222	353.8639	0	12.02	20030	0	0	5	5	0.02	0.9612127	3	10	0.08	2800	348.1222	40.92394	-91.39363
33888	2570	726	680	-8.523132	3.089339	354.0208	0	12.02	20030	0	0	5	5	0.02	0.9256145	3	10	0.08	2800	350.1406	40.92394	-91.39363
33997	2217	61	1404	-3.61465	0.9476091	352.5214	0	12.02	20030	0	0	5	5	0.02	0.898689	3	10	0.08	2800	349.653	40.92394	-91.39363
34207	-134	1578	935	-3.658401	1.44906	349.4715	0	11.85	20030	0	0	5	5	0.02	0.8313309	3	10	0.08	2800	346.4559	40.92394	-91.39363
34431	-966	1650	-141	-5.400877	1.151027	348.0466	0	11.85	20030	0	0	5	5	0.02	0.7449443	3	10	0.08	2800	345.8486	40.92394	-91.39363
34595	508	-744	-618	-6.510824	0.599804	348.3977	0	11.85	20030	0	0	5	5	0.02	0.7028958	3	10	0.08	2800	346.8289	40.92393	-91.39363
34635	1617	-1617	167	-5.385358	2.382229	348.7339	0	11.85	20030	0	0	5	5	0.02	0.6977311	3	10	0.08	2800	346.1242	40.92393	-91.39363
34754	-92	480	-550	-5.882782	2.561307	349.3592	0	11.85	20030	0	0	5	5	0.02	0.6738898	3	10	0.08	2800	347.4273	40.92393	-91.39363
34920	-2050	851	1	-5.471972	0.8798167	348.1581	0	11.85	20030	0	0	5	5	0.02	0.6555704	3	10	0.08	2800	346.1922	40.92394	-91.39363
34994	70	-759	-254	-6.097149	0.7420474	347.6469	0	11.8	20030	0	0	5	5	0.02	0.6337641	3	10	0.08	2800	347.187	40.92394	-91.39363
35143	435	-536	558	-4.888031	2.325742	345.9603	0	11.8	20030	0	0	5	5	0.02	0.6200265	3	10	0.08	2800	345.5527	40.92394	-91.39363
35307	668	1244	-688	-2.902076	4.096359	345.188	0	11.8	20030	0	0	5	5	0.02	0.6142426	3	10	0.08	2800	342.6812	40.92394	-91.39363
35366	3339	2515	-783	-1.837351	3.002634	345.5446	0	11.8	20030	0	0	5	5	0.02	0.6070763	3	10	0.08	2800	342.6812	40.92394	-91.39363
35475	-1055	67	-468	-0.008009267	1.393943	346.6156	0	11.8	20030	0	0	5	5	0.02	0.6024391	3	10	0.08	2800	344.6506	40.92394	-91.39363
35545	-221	-800	-928	-0.04264946	1.906333	348.3426	0	11.8	20030	0	0	5	5	0.02	0.5987939	3	10	0.08	2800	345.6109	40.92394	-91.39363
35643	-747	-1360	-1081	-0.8487198	4.46505	349.9363	0	11.8	20030	0	0	5	5	0.02	0.6055533	3	10	0.08	2800	345.11	40.92394	-91.39363
35778	-1414	599	-468	-2.605119	2.592598	351.881	0	11.8	20030	0	0	5	5	0.02	0.6057053	3	10	0.08	2800	348.2437	40.92394	-91.39364
35843	-665	1314	-704	-3.41028	2.272398	352.1815	0	11.8	20030	0	0	5	5	0.02	0.6048227	3	10	0.08	2800	348.2437	40.92394	-91.39364
35999	1298	-1678	7	-2.653795	3.360724	352.7904	0	11.85	20030	0	0	5	5	0.02	0.5946998	3	10	0.08	2800	349.3411	40.92394	-91.39364
36155	-3093	-528	-563	-2.0339	5.243529	353.6035	0	11.85	20030	0	0	5	5	0.02	0.5852145	3	10	0.08	2800	349.0799	40.92394	-91.39364
36243	-61	-204	538	-6.334278	7.575972	353.6719	0	11.85	20030	0	0	5	5	0.02	0.5840489	3	10	0.08	2800	350.0582	40.92394	-91.39364
36367	2521	1073	396	-4.472644	6.724704	352.7346	0	11.85	20030	0	0	5	5	0.02	0.5753196	3	10	0.08	2800	348.7381	40.92395	-91.39364
36478	-2215	-866	-351	-4.463814	6.660577	352.8309	0	11.85	20030	0	0	5	5	0.02	0.5715035	3	10	0.08	2800	347.0369	40.92395	-91.39364
36585	310	-520	-303	-5.364196	7.157491	353.2506	0	11.85	20030	0	0	5	5	0.02	0.5667616	3	10	0.08	2800	347.7929	40.92395	-91.39364
36682	-2519	-700	480	-6.950514	7.573224	353.2277	0	11.85	20030	0	0	5	5	0.02	0.5625466	3	10	0.08	2800	347.5519	40.92395	-91.39363
36793	465	-1049	-41	-7.378086	9.184076	352.5886	0	11.85	20030	0	0	5	5	0.02	0.5515461	3	10	0.08	2800	345.5928	40.92395	-91.39363
36968	892	248	-745	-4.17964	6.676778	353.2282	0	11.74	20030	0	0	5	5	0.02	0.5246753	3	10	0.08	2800	347.2907	40.92395	-91.39363
37035	-1518	-1846	-848	-5.085908	7.501238	353.9746	0	11.74	20030	0	0	5	5	0.02	0.5214357	3	10	0.08	2800	348.4709	40.92395	-91.39364
37080	1177	-2046	-621	-5.333947	8.68556	354.3329	0	11.74	20030	0	0	5	5	0.02	0.5114588	3	10	0.08	2800	347.3812	40.92395	-91.39364
37207	-688	-206	-187	-2.879928	10.08323	355.0886	0	11.74	20030	0	0	5	5	0.02	0.5097502	3	10	0.08	2800	347.4824	40.92395	-91.39364
37310	-661	1154	-71	-2.327616	6.955198	356.3024	0	11.74	20030	0	0	5	5	0.02	0.5056267	3	10	0.08	2800	350.2639	40.92395	-91.39364
37357	-576	-8	-446	-2.729454	6.80615	356.5797	0	11.74	20030	0	0	5	5	0.02	0.5027198	3	10	0.08	2800	350.2639	40.92395	-91.39364
37534	-1783	-244	-787	-1.307771	5.939747	358.5005	0	11.74	20030	0	0	5	5	0.02	0.4865461	3	10	0.08	2800	351.2945	40.92395	-91.39364
37561	-1783	-244	-787	-1.307771	5.939747	358.5005	0	11.74	20030	0	0	5	5	0.02	0.4865461	3	10	0.08	2800	351.2945	40.92395	-91.39364
37751	-523	247	48	-8.797064	5.314497	358.4551	0	11.74	20030	0	0	5	5	0.02	0.4687266	3	10	0.08	2800	348.9217	40.92395	-91.39364
37801	2130	1434	1482	-8.482766	5.187665	358.0971	0	12.19	20030	0	0	5	5	0.02	0.4673854	3	10	0.08	2800	352.2317	40.92395	-91.39364
37910	1765	-611	2205	-6.526998	3.011452	354.547	0	12.19	20030	0	0	5	5	0.02	0.4572302	3	10	0.08	2800	351.3137	40.92395	-91.39364
37953	1457	-539	2834	-6.180316	3.14842	353.4486	0	12.19	20030	0	0	5	5	0.02	0.4550943	3	10	0.08	2800	347.7566	40.92395	-91.39364
38070	305	-1055	1615	-3.358245	3.095639	348.5425	0	12.19	20030	0	0	5	5	0.02	0.4464761	3	10	0.08	2800	342.3427	40.92395	-91.39364
38190	-1646	456	365	-3.658059	1.232008	345.2469	0	12.19	20030	0	0	5	5	0.02	0.4359614	3	10	0.08	2800	337.6814	40.92395	-91.39364
38279	-380	63	-951	-6.491445	3.764292	345.0743	0	12.19	20030	0	0	5	5	0.02	0.4335938	3	10	0.08	2800	338.2651	40.92395	-91.39364
38301	266	795	-377	-6.271773	3.588052	345.3586	0	12.19	20030	0	0	5	5	0.02	0.4316345	3	10	0.08	2800	338.2651	40.92395	-91.39364
38431	-1297	-598	-935	-4.663262	1.891131	346.6721	0	12.19	20030	0	0	5	5	0.02	0.4244136	3	10	0.08	2800	339.1504	40.92395	-91.39364
38523	-737	-821	-2	-6.007882	2.483426	347.4366	0	12.19	20030	0	0	5	5	0.02	0.4168426	3	10	0.08	2800	340.9958	40.92395	-91.39364
38655	1270	592	100	-4.960381	4.282317	347.9774	0	12.19	20030	0	0	5	5	0.02	0.4079714	3	10	0.08	2800	341.6331	40.92395	-91.39364
38771	-271	-514	424	-4.938034	4.224489	348.1427	0	11.68	20030	0	0	5	5	0.02	0.4015168	3	10	0.08	2800	341.6743	40.92395	-91.39364
38821	-2490	-238	47	-6.325609	4.593095	347.3622	0	11.68	20030	0	0	5	5	0.02	0.3987657	3	10	0.08	2800	339.2321	40.92395	-91.39364
38954	1265	-556	-422	-6.745173	4.546578	347.0906	0	11.68	20030	0	0	5	5	0.02	0.3935535	3	10	0.08	2800	339.7253	40.92395	-91.39364
38999	1401	1201	202	-2.871269	3.868669	347.4321	0	11.68	20030	0	0	5	5	0.02	0.391903	3	10	0.08	2800	339.5417	40.92395	-91.39364
39155	-324	-290	786	-4.028279	3.170249	346.2059	0	11.68	20030	0	0	5	5	0.02	0.3756545	3	10	0.08	2800	340.5014	40.92395	-91.39364
39201	-586	-126	638	-4.060396	3.349333	345.684	0	11.68	20030	0	0	5	5	0.02	0.372775	3	10	0.08	2800	338.9066	40.92394	-91.39364
39343	835	619	849	-5.761014	2.612963	342.6987	0	11.68	20030	0	0	5	5	0.02	0.3596237	3	10	0.08	2800	336.2296	40.92394	-91.39364
39495	4202	2986	-1360	-0.7421095	0.7701532	343.216	0	11.68	20030	0	0	5	5	0.02	0.3487902	3	10	0.08	2800	333.8475	40.92394	-91.39364
39574	-1768	-1913	-647	-0.5323359	0.3494864	344.7711	0	11.51	20030	0	0	5	5	0.02	0.347613	3	10	0.08	2800	338.1085	40.92394	-91.39364
39635	-1132	-1778	-1388	-1.609801	1.724482	345.1545	0	11.51	20030	0	0	5	5	0.02	0.3477219	3	10	0.08	2800	338.1085	40.92394	-91.39364
39694	-252	1190	-820	-1.732753	2.298552	346.5179	0	11.51	20030	0	0	5	5	0.02	0.3484927	3	10	0.08	2800	339.1949	40.92394	-91.39364
39850	-205	-1396	-891	-4.010656	3.287338	347.4495	0	11.51	20030	0	0	5	5	0.02	0.3767034	3	10	0.08	2800	342.2078	40.92394	-91.39364
39938	-68	-1138	-852	-3.030547	4.26138	348.3205	0	11.51	20030	0	0	5	5	0.02	0.3904172	3	10	0.08	2800	343.9971	40.92394	-91.39364
40055	-477	491	-771	-2.467579	3.121583	350.3948	0	11.51	20030	0	0	5	5	0.02	0.4194556	3	10	0.08	2800	345.2715	40.92394	-91.39364
40113	-921	-85	443	-3.054545	3.037034	350.62	0	11.51	20030	0	0	5	5	0.02	0.4516024	3	10	0.08	2800	345.2715	40.92394	-91.39364
40200	-766	1472	-607	-3.492714	3.362483	351.6102	0	11.51	20030	0	0	5	5	0.02	0.4817179	3	10	0.08	2800	347.6176	40.92394	-91.39364
40294	692	1584	410	-2.542514	1.362777	351.6373	0	11.51	20030	0	0	5	5	0.02	0.5314773	3	10	0.08	2800	348.3338	40.92394	-91.39364
40403	-1457	-2537	-238	-2.23188	4.09879	351.0997	0	11.51	20030	0	0	5	5	0.02	0.5933765	3	10	0.08	2800	348.4049	40.92394	-91.39364
40496	-1933	-9	226	-4.846883	5.528948	350.2788	0	11.68	20030	0	0	5	5	0.02	0.6378933	3	10	0.08	2800	344.8235	40.92394	-91.39364
40609	-905	1191	1443	-5.36692	4.751729	349.6427	0	11.68	20030	0	0	5	5	0.02	0.7303796	3	10	0.08	2800	345.4272	40.92394	-91.39364
40726	-1013	651	-108	-7.882658	2.961009	347.8589	0	11.68	20030	0	0	5	5	0.02	0.807498	3	10	0.08	2800	343.2421	40.92394	-91.39364
40813	4352	634	-216	-7.558013	2.678403	347.6477	0	11.68	20030	0	0	5	5	0.02	0.8523782	3	10	0.08	2800	342.9309	40.92394	-91.39364
40919	-53	222	-54	-1.727406	2.315982	347.2079	0	11.68	20030	0	0	5	5	0.02	0.9382601	3	10	0.08	2800	343.0505	40.92394	-91.39364
41073	-791	-283	-374	-8.339502	4.316171	347.5862	0	11.68	20030	0	0	5	5	0.02	1.001456	3	10	0.08	2800	342.112	40.92394	-91.39364
41122	1862	21	-289	-6.636754	5.202391	347.9783	0	11.68	20030	0	0	5	5	0.02	1.027913	3	10	0.08	2800	342.7038	40.92394	-91.39364
41236	-875	1871	48	-2.874049	3.50483	347.9616	0	11.68	20030	0	0	5	5	0.02	1.100679	3	10	0.08	2800	344.0623	40.92394	-91.39363
41352	-435	-2248	-237	-6.941603	2.92034	348.6031	0	11.68	20030	0	0	5	5	0.02	1.162432	3	10	0.08	2800	346.7585	40.92394	-91.39363
41417	-414	-2765	-734	-6.723933	6.223991	348.9546	0	11.63	20030	0	0	5	5	0.02	1.185469	3	10	0.08	2800	345.9315	40.92394	-91.39363
41567	882	1078	-686	-6.542727	5.503648	350.1698	0	11.63	20030	0	0	5	5	0.02	1.249011	3	10	0.08	2800	344.0739	40.92394	-91.39363
41694	-128	783	-1077	-5.368739	3.393137	352.0922	0	11.63	20030	0	0	5	5	0.02	1.297713	3	10	0.08	2800	348.0386	40.92394	-91.39363
41753	-866	-587	-919	-5.533363	3.41304	352.4297	0	11.63	20030	0	0	5	5	0.02	1.333429	3	10	0.08	2800	348.0386	40.92394	-91.39363
41823	747	-170	-831	-5.670263	3.721736	352.7486	0	11.63	20030	0	0	5	5	0.02	1.350152	3	10	0.08	2800	350.0211	40.92394	-91.39363
41949	-1236	1571	-740	-5.028091	2.328392	354.0116	0	11.63	20030	0	0	5	5	0.02	1.380811	3	10	0.08	2800	353.0447	40.92394	-91.39363
42035	967	-1728	303	-5.633962	4.355347	354.9301	0	11.63	20030	0	0	5	5	0.02	1.403938	3	10	0.08	2800	354.0645	40.92394	-91.39363
42209	-478	-600	56	-7.452564	4.47441	354.9899	0	11.63	20030	0	0	5	5	0.02	1.431463	3	10	0.08	2800	354.5719	40.92394	-91.39363
42279	-515	-229	381	-7.30782	5.066645	354.8375	0	11.63	20030	0	0	5	5	0.02	1.445183	3	10	0.08	2800	353.4345	40.92394	-91.39363
42339	-1889	394	151	-7.64985	5.338089	354.648	0	11.97	20030	0	0	5	5	0.02	1.452736	3	10	0.08	2800	353.4345	40.92394	-91.39363
42517	2644	644	50	-6.845681	4.450467	354.31	0	11.97	20076	0	8	5	5	0.02	1.480387	8	10	0.08	2800	353.666	40.92395	-91.39363
42656	44	693	939	-6.295718	2.734874	353.5859	0	11.97	20031	-5	15	5	5	0.02	1.491986	8	10	0.08	2800	354.09	40.92395	-91.39363
42769	2465	-829	-164	-2.552587	2.362915	353.7181	0	11.97	20036	-9	22	5	5	0.02	1.490307	8	10	0.08	2800	352.8057	40.92395	-91.39363
42828	722	-1163	-426	-1.664898	3.021461	353.7264	0	11.97	20032	-13	25	5	5	0.02	1.480482	8	10	0.08	2800	352.8057	40.92395	-91.39363
42922	2705	1488	-809	-1.213042	4.179252	353.7422	0	11.97	20009	-16	27	5	5	0.02	1.478175	8	10	0.08	2800	352.929	40.92395	-91.39363
43085	-2747	-1504	-646	-2.615478	2.20879	354.5059	0	11.97	20066	-26	29	5	5	0.02	1.476201	8	10	0.08	2800	353.4207	40.92395	-91.39364
43166	353	-768	-264	-2.981868	5.162604	354.3295	0	11.97	20008	-21	30	5	5	0.02	1.479614	8	10	0.08	2800	352.3249	40.92395	-91.39364
43257	1742	2891	996	-0.4738479	2.848652	353.8805	0	12.02	20035	-11	32	5	5	0.02	1.479571	8	10	0.08	2800	353.2027	40.92395	-91.39364
43375	1973	-701	1061	-1.436082	2.337879	352.218	0	12.02	20030	-17	37	5	5	0.02	1.475279	8	10	0.08	2800	351.32	40.92395	-91.39364
43494	-1109	-717	769	-0.2083191	3.410842	350.8141	0	12.02	20031	-17	42	5	5	0.02	1.463701	8	10	0.08	2800	351.2586	40.92395	-91.39364
43619	1600	-474	249	-0.3530185	4.897614	350.2469	0	12.02	20037	-7	51	5	5	0.02	1.457498	8	10	0.08	2800	347.0018	40.92395	-91.39364
43736	-1029	2112	582	-0.6340459	2.598273	349.5673	0	12.02	20022	-10	68	5	5	0.02	1.441953	8	10	0.08	2800	346.4532	40.92395	-91.39364
43815	612	-2768	480	-1.215284	3.777503	348.8764	0	12.02	20038	-3	74	5	5	0.02	1.426621	8	10	0.08	2800	345.6956	40.92395	-91.39364
43881	1933	-1506	624	0.1864212	6.137037	348.1939	0	12.02	20032	1	80	5	5	0.02	1.411064	8	10	0.08	2800	343.2056	40.92395	-91.39364
43930	-141	87	542	1.083852	6.738649	347.2856	0	12.02	20034	1	71	5	5	0.02	1.40621	8	10	0.08	2800	342.0232	40.92395	-91.39364
44054	192	-609	521	-0.464676	4.939775	345.9052	0	12.02	20033	0	72	5	5	0.02	1.378852	8	10	0.08	2800	338.9216	40.92395	-91.39364
44166	1047	143	-633	0.695116	5.670468	346.5628	0	11.68	20030	11	79	5	5	0.02	1.364413	8	10	0.08	2800	338.6376	40.92396	-91.39364
44221	675	828	270	1.219838	5.275207	346.615	0	11.68	20029	14	81	5	5	0.02	1.351697	8	10	0.08	2800	338.9174	40.92396	-91.39364
44366	-2350	-1035	-1954	-0.08091731	5.031682	348.7096	0	11.68	20031	21	100	5	5	0.02	1.319247	8	10	0.08	2800	341.6513	40.92396	-91.39363
44464	-815	-623	-654	-2.046777	6.253663	350.0913	0	11.68	20022	22	106	5	5	0.02	1.29894	8	10	0.08	2800	341.3282	40.92396	-91.39363
44589	-1064	431	-569	-1.697881	8.078242	351.8538	0	11.68	23984	30	112	5	5	0.02	1.271427	8	10	0.08	2800	342.8387	40.92396	-91.39363
44706	644	127	-1707	-1.999947	7.559661	343.0434	0	11.68	20055	56	106	5	5	0.02	1.253976	8	10	0.08	2800	342.2466	40.92396	-91.39363
44725	644	127	-1707	-1.999947	7.559661	343.0434	0	11.68	20055	56	106	5	5	0.02	1.243888	8	10	0.08	2800	342.2466	40.92396	-91.39363
44859	-1903	-2213	-705	-3.16294	9.370509	346.4928	0	11.68	20031	71	117	5	5	0.02	1.228823	8	10	0.08	2800	347.2103	40.92397	-91.39362
44981	-1342	951	-39	-4.567924	9.715816	347.9747	0	11.68	20032	81	123	5	5	0.02	1.223246	8	10	0.08	2800	347.9318	40.92397	-91.39362
45092	3	312	668	-6.7832	8.303391	348.1278	0	11.63	20008	90	125	5	5	0.02	1.229055	8	10	0.08	2800	349.2083	40.92397	-91.39362
45144	446	508	761	-6.62649	7.940566	347.8189	0	11.63	20008	95	132	5	5	0.02	1.234241	8	10	0.08	2800	349.2083	40.92397	-91.39362
45239	-244	-872	1227	-6.114931	8.734061	345.6396	0	11.63	20035	105	135	5	5	0.02	1.241893	8	10	0.08	2800	347.2207	40.92397	-91.39362
45327	-1204	-674	785	-7.919748	9.001941	344.1973	0	11.63	20010	113	131	5	5	0.02	1.244426	8	10	0.08	2800	346.0124	40.92397	-91.39362
45435	1146	1402	1715	-10.47852	7.630301	341.4741	0	11.63	20033	128	129	5	5	0.02	1.240261	8	10	0.08	2800	342.9624	40.92397	-91.39362
45596	807	-1258	1564	-8.583948	9.209648	339.1827	0	11.63	20031	136	132	5	5	0.02	1.215184	8	10	0.08	2800	341.2533	40.92397	-91.39362
45624	-1052	-7	1564	-8.583948	9.209648	339.1827	0	11.63	20031	137	131	5	5	0.02	1.211359	8	10	0.08	2800	341.2533	40.92397	-91.39362
45721	666	1496	762	-10.39501	8.062059	337.8415	0	11.63	20032	149	130	5	5	0.02	1.197783	8	10	0.08	2800	338.2984	40.92397	-91.39362
45870	-2644	-208	-28	-9.29693	8.202338	336.7824	0	11.63	20032	171	125	5	5	0.02	1.18116	8	10	0.08	2800	337.6324	40.92397	-91.39362
45909	-1246	-279	-1022	-10.17466	8.467439	336.9741	0	11.63	20049	154	115	5	5	0.02	1.173914	8	10	0.08	2800	339.3301	40.92397	-91.39362
46044	0	1066	415	-10.05251	8.013835	337.1076	0	11.63	20057	165	111	5	5	0.02	1.164569	8	10	0.08	2800	339.3105	40.92397	-91.39362
46133	-440	956	-97	-10.91781	7.292318	337.4312	0	11.63	20025	162	109	5	5	0.02	1.159878	8	10	0.08	2800	339.1525	40.92397	-91.39362
46336	-3823	-1475	-849	-10.1148	8.65242	340.1998	0	11.63	20008	161	105	5	5	0.02	1.119986	8	10	0.08	2800	344.7617	40.92397	-91.39362
46364	-207	-581	-173	-10.79565	9.110458	340.6159	0	11.63	20035	161	104	5	5	0.02	1.116382	8	10	0.08	2800	347.1029	40.92397	-91.39362
46463	-613	410	215	-11.07779	7.796282	340.714	0	11.63	20027	168	107	5	5	0.02	1.100998	8	10	0.08	2800	350.6032	40.92397	-91.39362
46543	-620	-1689	-135	-11.24712	8.766522	351.9789	0	11.63	20002	171	106	5	5	0.02	1.095695	8	10	0.08	2800	351.9789	40.92397	-91.39362
46650	-931	-1037	178	-12.31606	11.34463	352.2825	0	11.63	20035	160	134	5	5	0.02	1.08662	8	10	0.08	2800	347.7157	40.92396	-91.39362
46816	1559	1873	187	-11.17466	9.676686	352.1497	0	11.63	20030	140	84	5	5	0.02	1.068298	8	10	0.08	2800	352.4423	40.92396	-91.39362
46847	1228	3665	565	-10.27565	7.899303	352.0348	0	11.63	20030	139	77	5	5	0.02	1.062887	8	10	0.08	2800	352.9391	40.92396	-91.39362
46946	-162	2061	1	-9.691735	4.044226	351.729	0	11.74	20004	136	68	5	5	0.02	1.054627	8	10	0.08	2800	356.519	40.92396	-91.39362
47146	1063	102	-711	-8.670116	7.459465	5.015193	0	11.74	20010	126	78	5	5	0.02	1.06084	8	10	0.08	2800	2.75827	40.92396	-91.39362
47221	431	1559	-395	-6.637434	5.683406	5.832548	0	11.74	20029	79	121	5	5	0.02	1.06887	8	10	0.08	2800	5.688934	40.92396	-91.39362
47261	-813	-1499	296	-6.796829	5.435108	6.023194	0	11.74	20009	69	112	5	5	0.02	1.071976	8	10	0.08	2800	8.123627	40.92395	-91.39362
47342	1685	-1984	694	-5.148277	8.650231	5.859213	0	11.74	20039	44	86	5	5	0.02	1.085881	8	10	0.08	2800	8.677979	40.92395	-91.39362
47450	985	-359	348	-3.586188	9.165746	5.322053	0	11.74	20015	47	114	5	5	0.02	1.102067	8	10	0.08	2800	5.41272	40.92395	-91.39362
47597	-160	-396	409	-8.406192	9.261087	3.385147	0	11.74	20034	23	114	5	5	0.02	1.139791	8	10	0.08	2800	0.9480896	40.92394	-91.39362
47690	3081	5007	593	-3.917724	6.036265	2.66433	0	11.74	20009	54	78	5	5	0.02	1.167327	8	10	0.08	2800	2.436707	40.92394	-91.39362
47751	-1093	6504	1617	-2.922045	-0.4805855	1.467905	0	11.74	20027	47	86	5	5	0.02	1.206086	8	10	0.08	2800	3.175293	40.92394	-91.39363
47855	-1135	3376	-419	-5.732013	-8.19312	0.1680236	0	11.63	20031	31	64	5	5	0.02	1.236853	8	10	0.08	2800	4.210907	40.92394	-91.39363
47951	1782	2113	-255	-4.559062	-10.09141	10.04775	0	11.63	20029	3	49	5	5	0.02	1.288707	8	10	0.08	2800	10.01797	40.92393	-91.39363
48111	1276	82	-811	0.7573277	-14.18797	10.29946	0	11.63	24012	-6	33	5	5	0.02	1.335514	8	10	0.08	2800	10.04956	40.92393	-91.39363
48235	-1785	-4763	-1624	0.4507239	-6.029839	12.53061	0	11.63	20032	-6	27	5	5	0.02	1.427827	8	10	0.08	2800	8.255402	40.92393	-91.39364
48261	-981	-4285	-1035	-0.7810428	-3.183156	13.20646	0	11.63	20040	-6	24	5	5	0.02	1.451972	8	10	0.08	2800	8.255402	40.92393	-91.39364
48425	529	192	296	-0.5136879	0.5004541	14.04061	0	11.63	20038	-20	21	5	5	0.02	1.529251	8	10	0.08	2800	7.72049	40.92393	-91.39365
48541	921	-653	490	1.452178	0.4200741	13.81475	0	11.63	20034	-37	27	5	5	0.02	1.570001	8	10	0.08	2800	4.419373	40.92392	-91.39365
48595	636	-103	187	1.642658	0.989844	13.64124	0	11.63	20031	-47	19	5	5	0.02	1.601971	8	10	0.08	2800	4.221588	40.92392	-91.39365
48645	79	-364	109	0.6590741	1.591756	1.18213	0	11.63	20067	-48	27	5	5	0.02	1.611373	8	10	0.08	2800	1.211273	40.92392	-91.39365
48787	3300	655	727	2.380715	2.721328	1.181643	0	11.8	20030	-61	17	5	5	0.02	1.690198	8	10	0.08	2800	2.662689	40.92392	-91.39365
48860	-2178	298	701	1.959915	2.26206	0.7134022	0	11.8	20051	-66	23	5	5	0.02	1.707299	8	10	0.08	2800	359.2985	40.92392	-91.39365
48940	1520	-1069	628	1.125972	3.143924	0.07981759	0	11.8	20010	-76	13	5	5	0.02	1.748895	8	10	0.08	2800	358.5102	40.92392	-91.39366
49088	1926	2239	1011	8.455596	1.685822	359.8828	0	11.8	20028	-95	6	5	5	0.02	1.794397	8	10	0.08	2800	356.3024	40.92392	-91.39366
49176	-1907	1004	-153	7.166149	0.09040318	359.7413	0	11.8	20075	-113	2	5	5	0.02	1.813176	8	10	0.08	2800	355.391	40.92392	-91.39366
49254	2643	537	-1300	5.749942	1.429771	0.4850045	0	11.8	20031	-112	0	5	5	0.02	1.822416	8	10	0.08	2800	353.7487	40.92392	-91.39367
49395	-3145	-2403	-1240	7.763397	0.3359099	1.696267	0	11.8	20034	-128	-23	5	5	0.02	1.839879	8	10	0.08	2800	355.6872	40.92392	-91.39367
49472	-1266	-1511	-609	5.624003	2.567273	2.251913	0	11.8	20032	-132	-30	5	5	0.02	1.847301	8	10	0.08	2800	354.7644	40.92392	-91.39367
49612	3537	2062	-3	9.195683	-0.7782272	353.0994	0	11.8	20022	-136	-13	5	5	0.02	1.849205	8	10	0.08	2800	353.0992	40.92392	-91.39368
49658	2056	1404	262	10.00253	-1.594532	353.1722	0	11.68	20035	-138	-14	5	5	0.02	1.849444	8	10	0.08	2800	353.0992	40.92392	-91.39368
49774	-1652	-568	-494	9.866103	-1.249956	353.0394	0	11.68	20054	-155	-17	5	5	0.02	1.839878	8	10	0.08	2800	352.8127	40.92392	-91.39368
49926	1146	-834	173	9.117726	1.251796	352.8769	0	11.68	20030	-176	-15	5	5	0.02	1.819938	8	10	0.08	2800	349.9518	40.92392	-91.39368
50032	24	1310	567	9.499457	1.012972	352.5683	0	11.68	20032	-149	-2	5	5	0.02	1.803954	8	10	0.08	2800	346.6467	40.92392	-91.39368
50149	-524	1247	-127	6.801982	-1.564702	351.8434	0	11.68	20007	-152	-3	5	5	0.02	1.792379	8	10	0.08	2800	346.5161	40.92392	-91.39368
50201	435	-31	1090	6.465944	-1.66401	351.7052	0	11.68	20013	-144	-1	5	5	0.02	1.78431	8	10	0.08	2800	345.6807	40.92392	-91.39368
50303	-4077	-789	609	2.546772	0.1193944	351.4434	0	11.68	20032	-112	0	5	5	0.02	1.77912	8	10	0.08	2800	345.1148	40.92392	-91.39368
50360	-4774	261	148	0.5265849	0.3310047	351.4668	0	11.68	20041	-105	0	5	5	0.02	1.777923	8	10	0.08	2800	345.1148	40.92392	-91.39367
50518	731	2880	672	-5.25643	-2.623201	350.2147	0	11.68	20002	-94	7	5	5	0.02	1.778719	8	10	0.08	2800	345.9398	40.92392	-91.39367
50620	-1326	-1392	69	-4.831214	-4.23992	349.6257	0	11.46	20015	-80	10	5	5	0.02	1.778066	8	10	0.08	2800	346.858	40.92392	-91.39367
50673	-1893	-1550	526	-7.006008	-2.135367	349.3564	0	11.46	20033	-57	11	5	5	0.02	1.777841	8	10	0.08	2800	346.0606	40.92392	-91.39367
50819	-424	565	762	-9.35186	-1.296003	348.3036	0	11.46	20032	-49	16	5	5	0.02	1.772185	8	10	0.08	2800	345.6169	40.92393	-91.39366
50944	-1120	-909	-59	-11.67783	-0.5143207	347.6217	0	11.46	20022	-37	30	5	5	0.02	1.769056	8	10	0.08	2800	345.3467	40.92393	-91.39365
51005	-2760	-299	874	-12.86406	0.6552621	346.9545	0	11.46	20031	-36	29	5	5	0.02	1.76378	8	10	0.08	2800	346.3127	40.92393	-91.39365
51129	2596	-1941	-208	-8.657126	1.041963	346.5837	0	11.46	20034	-23	35	5	5	0.02	1.751232	8	10	0.08	2800	345.8601	40.92393	-91.39365
51162	611	-1521	-374	-7.443192	1.799668	346.4196	0	11.46	20013	-28	39	5	5	0.02	1.746258	8	10	0.08	2800	345.8601	40.92393	-91.39365
51250	-1863	-1697	-389	-8.013088	3.603639	346.1256	0	11.46	20031	-34	53	5	5	0.02	1.711797	8	10	0.08	2800	345.3738	40.92393	-91.39365
51417	30	19	346	-11.00397	7.599954	346.1612	0	11.46	20031	-40	60	5	5	0.02	1.664092	8	10	0.08	2800	342.58	40.92393	-91.39365
51512	2863	1688	-627	-5.30945	6.091807	346.3509	0	11.57	20031	-47	64	5	5	0.02	1.646401	8	10	0.08	2800	344.515	40.92394	-91.39365
51582	1277	615	-72	-2.845247	4.654615	346.1978	0	11.57	20030	-45	74	5	5	0.02	1.633423	8	10	0.08	2800	343.2437	40.92394	-91.39365
51696	64	-1251	964	-0.7181265	5.489198	345.8658	0	11.57	20030	-39	74	5	5	0.02	1.628835	8	10	0.08	2800	343.9613	40.92394	-91.39365
51760	584	-590	-145	-0.6053796	6.39621	345.6823	0	11.57	20038	-37	68	5	5	0.02	1.629034	8	10	0.08	2800	342.4526	40.92394	-91.39365
51873	833	880	-648	1.04374	6.060371	346.2461	0	11.57	20035	-24	66	5	5	0.02	1.636509	8	10	0.08	2800	341.25	40.92395	-91.39364
51976	-4802	-2563	-512	-4.827757	6.355534	346.8155	0	11.57	23998	-20	80	5	5	0.02	1.631595	8	10	0.08	2800	342.2858	40.92395	-91.39364
52095	-785	-679	-1102	-8.146295	9.918216	349.4538	0	11.57	20061	-20	84	5	5	0.02	1.614164	8	10	0.08	2800	345.6799	40.92395	-91.39364
52165	-2758	-35	-878	-9.470932	8.755236	351.2702	0	11.57	20057	-23	83	5	5	0.02	1.603648	8	10	0.08	2800	345.6799	40.92395	-91.39363
52271	-765	-138	-206	-12.005	9.419085	352.4078	0	11.57	20030	-25	101	5	5	0.02	1.57953	8	10	0.08	2800	350.0831	40.92395	-91.39363
52398	4245	237	348	-7.859622	9.785451	351.5912	0	11.68	20026	-10	94	5	5	0.02	1.544061	8	10	0.08	2800	352.3331	40.92396	-91.39363
52470	1192	-385	1185	-4.720078	9.4321	350.8319	0	11.68	20038	-2	96	5	5	0.02	1.524922	8	10	0.08	2800	351.0339	40.92396	-91.39363
52550	-147	17	817	-4.504012	9.281269	350.5103	0	11.68	20031	-15	99	5	5	0.02	1.501316	8	10	0.08	2800	350.2763	40.92396	-91.39362
52645	1835	-243	1800	-4.017391	7.777919	349.0122	0	11.68	20034	-8	102	5	5	0.02	1.470481	8	10	0.08	2800	349.9988	40.92396	-91.39362
52757	445	224	994	-2.808872	8.011096	346.4791	0	11.68	20044	-9	110	5	5	0.02	1.424865	8	10	0.08	2800	345.1906	40.92396	-91.39362
52830	1814	1106	1422	-1.910735	6.925161	344.8081	0	11.68	20020	-6	114	5	5	0.02	1.400632	8	10	0.08	2800	345.1906	40.92397	-91.39362
52982	-204	-675	760	-1.692913	6.513912	342.2746	0	11.68	20029	9	114	5	5	0.02	1.385059	8	10	0.08	2800	341.2037	40.92397	-91.39362
53071	-3130	-994	185	-6.686144	8.251079	340.9127	0	11.68	20025	11	114	5	5	0.02	1.384394	8	10	0.08	2800	337.4907	40.92397	-91.39362
53158	-2479	-3805	149	-10.6199	13.32858	340.3948	0	11.68	20012	14	120	5	5	0.02	1.387109	8	10	0.08	2800	334.1819	40.92397	-91.39362
53229	662	-1591	89	-11.71105	16.00483	340.2867	0	11.29	20038	26	120	5	5	0.02	1.390158	8	10	0.08	2800	334.2684	40.92397	-91.39362
53410	-217	1068	376	-12.77237	16.10033	340.267	0	11.29	20006	27	119	5	5	0.02	1.434313	8	10	0.08	2800	332.8309	40.92397	-91.39362
53543	1950	2159	-511	-9.354076	12.45188	340.191	0	11.29	20031	40	123	5	5	0.02	1.459264	8	10	0.08	2800	333.1865	40.92397	-91.39362
53687	-1438	-624	-835	-8.229041	10.49676	341.4557	0	11.29	20050	35	107	5	5	0.02	1.502489	8	10	0.08	2800	338.2201	40.92397	-91.39362
53740	1953	1	-1114	-8.215209	10.82575	341.9048	0	11.29	20004	27	105	5	5	0.02	1.538505	8	10	0.08	2800	338.2201	40.92397	-91.39362
53895	1629	179	567	-4.150792	8.897171	342.4803	0	11.29	20033	28	101	5	5	0.02	1.591643	8	10	0.08	2800	338.2347	40.92397	-91.39362
54018	-200	565	-160	-4.397803	8.570796	342.4748	0	11.29	20029	25	91	5	5	0.02	1.615515	8	10	0.08	2800	337.7054	40.92396	-91.39362
54102	2448	1959	-484	-3.593225	6.801564	342.575	0	11.29	20009	7	73	5	5	0.02	1.631425	8	10	0.08	2800	337.4925	40.92396	-91.39362
54157	2621	3513	-636	-2.17712	5.365925	342.7369	0	11.29	20029	4	71	5	5	0.02	1.648209	8	10	0.08	2800	337.4925	40.92396	-91.39362
54258	-2057	5994	-518	-0.8101868	-6.632483	342.853	0	11.74	20005	3	61	5	5	0.02	1.663689	8	10	0.08	2800	342.966	40.92396	-91.39362
54456	1428	1246	-203	-3.473896	-11.52935	344.0056	0	11.74	20034	-9	55	5	5	0.02	1.703925	8	10	0.08	2800	352.4646	40.92395	-91.39362
54623	-300	-3239	417	-4.2781	-9.786012	344.0873	0	11.74	20049	4	58	5	5	0.02	1.737358	8	10	0.08	2800	353.713	40.92395	-91.39362
54700	1476	-2850	362	1.278086	1.219632	344.5572	0	11.74	20031	-1	55	5	5	0.02	1.771981	8	10	0.08	2800	352.0388	40.92395	-91.39362
54805	-2588	-266	671	-0.03666992	2.737588	343.9035	0	11.74	20055	-4	45	5	5	0.02	1.794266	8	10	0.08	2800	347.1202	40.92395	-91.39362
54834	-867	448	50	-2.916312	2.953822	343.4367	0	11.74	20017	-2	54	5	5	0.02	1.816589	8	10	0.08	2800	343.6041	40.92395	-91.39362
54975	1944	766	-162	-0.2144185	2.670019	343.1955	0	11.74	20032	-10	57	5	5	0.02	1.848505	8	10	0.08	2800	345.9533	40.92395	-91.39362
55087	-777	-770	-91	0.08022241	3.465842	342.6539	0	11.17	20007	-15	60	5	5	0.02	1.867613	8	10	0.08	2800	341.806	40.92394	-91.39362
55141	338	504	-473	0.3506644	3.408944	342.7908	0	11.17	20031	-10	63	5	5	0.02	1.878522	8	10	0.08	2800	341.485	40.92394	-91.39362
55308	-636	-1417	-681	1.788735	3.002635	344.3484	0	11.17	20053	-13	60	5	5	0.02	1.902106	8	10	0.08	2800	343.1813	40.92394	-91.39362
55368	85	-473	-423	2.056828	3.817755	344.8481	0	11.17	20030	-15	58	5	5	0.02	1.903983	8	10	0.08	2800	344.2704	40.92394	-91.39362
55453	-1183	-260	330	0.1161734	4.759777	345.4027	0	11.17	20038	-16	56	5	5	0.02	1.906152	8	10	0.08	2800	342.9891	40.92394	-91.39362
55546	715	102	281	-1.585235	4.208529	345.7412	0	11.17	20037	-18	55	5	5	0.02	1.913167	8	10	0.08	2800	342.8777	40.92394	-91.39362
55683	386	1897	-863	2.380903	2.359189	347.0764	0	11.17	20027	-26	14	5	5	0.02	1.921778	8	10	0.08	2800	344.5189	40.92393	-91.39362
55739	-68	1827	17	2.042993	1.580964	347.1817	0	11.17	20059	-35	-12	5	5	0.02	1.925504	8	10	0.08	2800	344.5189	40.92393	-91.39362
55885	-307	-975	-409	-1.008022	1.463422	347.7879	0	11.17	20029	-4	27	5	5	0.02	1.939223	8	10	0.08	2800	347.2283	40.92393	-91.39362
55953	-809	2749	-201	-0.6942694	0.9515673	348.0041	0	11.17	20031	0	26	5	5	0.02	1.951171	8	10	0.08	2800	346.747	40.92393	-91.39362
56088	1967	1853	-386	-0.07963021	-4.180597	348.3567	0	11.63	20078	-1	23	5	5	0.02	1.968676	8	10	0.08	2800	347.7924	40.92393	-91.39362
56318	-1081	-1160	11	-1.019545	2.152012	350.0123	0	11.63	20022	18	9	5	5	0.02	2.011469	8	10	0.08	2800	348.4597	40.92393	-91.39362
56384	1077	1328	508	-0.07887955	1.732312	350.1821	0	11.63	20037	26	7	5	5	0.02	2.035346	8	10	0.08	2800	350.2692	40.92393	-91.39362
56442	405	734	-319	0.5816696	1.048159	350.1339	0	11.63	20067	28	6	5	5	0.02	2.054993	8	10	0.08	2800	350.5554	40.92393	-91.39362
56520	-3250	-234	1229	0.166917	0.8690463	349.7481	0	11.63	20031	42	2	5	5	0.02	2.072428	8	10	0.08	2800	348.8254	40.92393	-91.39362
56621	-3166	337	678	-11.97718	3.073847	348.6217	0	11.63	20053	43	3	5	5	0.02	2.112347	8	10	0.08	2800	347.6477	40.92393	-91.39362
56776	1848	-2	-415	-13.42875	1.31566	346.89	0	11.63	20027	49	-2	5	5	0.02	2.15037	8	10	0.08	2800	347.3277	40.92393	-91.39362
56869	2931	76	769	-10.0835	1.091763	346.3929	0	11.63	20030	51	-13	5	5	0.02	2.19978	8	10	0.08	2800	349.5829	40.92393	-91.39362
56978	1285	520	694	-3.927058	1.106308	345.7901	0	11.57	20032	47	-19	5	5	0.02	2.233335	8	10	0.08	2800	348.0028	40.92393	-91.39362
57150	1760	2277	-789	-5.159965	0.4537278	346.6737	0	11.57	20031	74	-31	5	5	0.02	2.273504	8	10	0.08	2800	349.0245	40.92393	-91.39362
57284	-351	388	76	-2.271757	-2.298593	347.2865	0	11.57	20034	62	-33	5	5	0.02	2.299678	8	10	0.08	2800	350.9256	40.92393	-91.39362
57349	-2300	-248	759	-6.032804	-2.273174	347.6995	0	11.57	20031	75	-19	5	5	0.02	2.308821	8	10	0.08	2800	352.4694	40.92393	-91.39362
57401	-1087	-666	227	-6.843987	-2.168123	347.781	0	11.57	20023	79	-17	5	5	0.02	2.311281	8	10	0.08	2800	352.4694	40.92393	-91.39362
57609	-2243	-441	-249	-2.857719	-1.271394	349.2798	0	11.57	20036	65	-18	5	5	0.02	2.333227	8	10	0.08	2800	353.3851	40.92393	-91.39362
57659	-765	-1679	185	-5.926961	0.09200964	349.4456	0	11.57	20014	78	-20	5	5	0.02	2.335434	8	10	0.08	2800	353.6437	40.92393	-91.39362
57712	-529	-1590	285	-6.200929	0.7970549	349.4012	0	11.57	20032	81	-14	5	5	0.02	2.346552	8	10	0.08	2800	353.6437	40.92393	-91.39362
57830	305	2376	-134	-6.165683	-0.02362433	348.9387	0	11.51	20033	79	-15	5	5	0.02	2.3504	8	10	0.08	2800	353.9936	40.92393	-91.39362
57944	476	-1828	-272	-5.294096	-1.34601	348.6913	0	11.51	20005	77	-6	5	5	0.02	2.352406	8	10	0.08	2800	353.9938	40.92393	-91.39362
58043	-1962	-3121	454	-6.031416	3.271584	348.8962	0	11.51	20032	83	6	5	5	0.02	2.353189	8	10	0.08	2800	351.9489	40.92393	-91.39362
58122	-1564	-1682	302	-7.944217	5.58359	348.5504	0	11.51	20032	82	1	5	5	0.02	2.349807	8	10	0.08	2800	351.3512	40.92393	-91.39362
58240	-401	-299	1012	-6.713476	5.986816	347.4245	0	11.51	20032	82	-2	5	5	0.02	2.348619	8	10	0.08	2800	348.5523	40.92393	-91.39362
58317	1586	-531	682	-6.784519	6.469478	346.78	0	11.51	20045	84	6	5	5	0.02	2.352482	8	10	0.08	2800	349.0428	40.92393	-91.39362
58527	-3365	-1747	-389	-5.277154	-0.5146569	345.0281	0	11.51	20033	78	13	5	5	0.02	2.338497	8	10	0.08	2800	347.6531	40.92394	-91.39362
58654	3706	723	-135	-9.687563	1.454812	344.0373	0	11.51	20031	77	31	5	5	0.02	2.318894	8	10	0.08	2800	348.2971	40.92394	-91.39362
58711	2729	-254	427	-5.471351	1.206886	343.7361	0	11.57	20033	78	8	5	5	0.02	2.310934	8	10	0.08	2800	347.0528	40.92394	-91.39362
58825	100	-360	41	-4.608254	1.639031	343.7868	0	11.57	20035	74	23	5	5	0.02	2.295227	8	10	0.08	2800	345.1316	40.92394	-91.39362
58967	-310	-1076	-353	-5.877347	2.975024	343.7836	0	11.57	20029	77	23	5	5	0.02	2.283206	8	10	0.08	2800	344.7894	40.92394	-91.39362
59112	521	2028	505	-3.952985	0.4379407	344.6454	0	11.57	20030	70	17	5	5	0.02	2.274163	8	10	0.08	2800	345.9742	40.92394	-91.39362
59209	-1878	-161	-769	-4.701342	-1.049386	345.0742	0	11.57	20036	60	43	5	5	0.02	2.273926	8	10	0.08	2800	347.4631	40.92395	-91.39362
59317	461	-1429	-851	-5.172197	3.934042	346.3265	0	11.57	20086	53	44	5	5	0.02	2.277776	8	10	0.08	2800	349.4388	40.92395	-91.39362
59393	1697	1313	271	-3.223553	3.479242	346.708	0	11.57	20035	51	48	5	5	0.02	2.27913	8	10	0.08	2800	346.7233	40.92395	-91.39362
59510	-319	-125	-526	-3.626028	3.295788	347.0158	0	11.57	20027	48	61	5	5	0.02	2.289836	8	10	0.08	2800	348.6312	40.92395	-91.39362
59541	1322	-107	-320	-3.188435	3.351191	347.184	0	11.57	20026	47	64	5	5	0.02	2.296896	8	10	0.08	2800	348.6312	40.92395	-91.39362
59669	-2652	-2132	-138	-4.174553	4.160357	346.7377	0	11.63	20031	61	56	5	5	0.02	2.310694	8	10	0.08	2800	346.2836	40.92395	-91.39362
59782	-80	535	-908	-5.700399	5.074008	347.4612	0	11.63	20032	58	70	5	5	0.02	2.306205	8	10	0.08	2800	345.5544	40.92395	-91.39362
59821	2732	1118	29	-4.72876	4.449056	347.6138	0	11.63	20028	57	68	5	5	0.02	2.305076	8	10	0.08	2800	345.5544	40.92395	-91.39362
59956	-3075	-361	88	-6.578085	4.282652	348.079	0	11.63	20032	65	77	5	5	0.02	2.290568	8	10	0.08	2800	345.3462	40.92396	-91.39362
60034	70	-1163	-716	-7.944812	4.749702	348.1931	0	11.63	20031	61	90	5	5	0.02	2.283668	8	10	0.08	2800	346.3085	40.92396	-91.39362
60190	-1335	501	1253	-3.523713	3.614827	348.124	0	11.63	20032	52	98	5	5	0.02	2.261536	8	10	0.08	2800	346.3981	40.92396	-91.39363
60312	1065	-326	9	-4.811782	5.80309	346.8674	0	11.63	20009	63	97	5	5	0.02	2.233816	8	10	0.08	2800	342.6473	40.92396	-91.39363
60371	565	-266	0	-4.624023	5.893081	346.6519	0	11.63	20040	60	111	5	5	0.02	2.221185	8	10	0.08	2800	342.6473	40.92396	-91.39363
60460	886	-791	14	-4.923556	6.641015	346.3842	0	11.63	20052	61	102	5	5	0.02	2.209967	8	10	0.08	2800	344.0367	40.92396	-91.39363
60533	-1641	-1360	-28	-5.667861	7.627917	345.994	0	11.63	24022	53	106	5	5	0.02	2.200119	8	10	0.08	2800	341.9193	40.92396	-91.39363
60660	2224	-384	1780	-5.597439	7.643105	343.049	0	11.17	24023	62	121	5	5	0.02	2.178698	8	10	0.08	2800	335.9354	40.92397	-91.39363
60735	302	-855	1596	-4.770192	7.787483	341.56	0	11.17	20033	67	126	5	5	0.02	2.174315	8	10	0.08	2800	333.9415	40.92397	-91.39363
60853	-1482	143	-218	-5.406599	8.163253	340.3655	0	11.17	20025	63	134	5	5	0.02	2.177906	8	10	0.08	2800	331.5432	40.92397	-91.39363
60985	-1943	-84	-161	-7.36918	8.200968	340.1834	0	11.17	20030	81	141	5	5	0.02	2.199524	8	10	0.08	2800	330.5992	40.92397	-91.39363
61049	-991	-1265	421	-8.183326	8.062851	329.9257	0	11.17	20033	105	124	5	5	0.02	2.2246	8	10	0.08	2800	330.0479	40.92397	-91.39364
61144	-343	-1701	-1591	-7.985227	10.18374	330.6391	0	11.17	20028	107	126	5	5	0.02	2.238451	8	10	0.08	2800	330.826	40.92397	-91.39364
61295	1579	423	-740	-5.958178	11.75502	332.1321	0	11.17	20079	92	142	5	5	0.02	2.260331	8	10	0.08	2800	330.5506	40.92397	-91.39364
61362	-3083	1082	-858	-4.990783	9.380282	332.8315	0	11.17	20032	87	138	5	5	0.02	2.262241	8	10	0.08	2800	331.4473	40.92397	-91.39364
61505	70	-1476	-1780	-5.591388	9.745829	335.5089	0	11.51	20028	79	138	5	5	0.02	2.27379	8	10	0.08	2800	336.0823	40.92397	-91.39364
61608	-679	-1151	-1873	-4.913845	11.54801	337.5332	0	11.51	20013	71	142	5	5	0.02	2.272693	8	10	0.08	2800	335.0075	40.92397	-91.39364
61635	-864	-622	-1610	-5.026679	11.75194	338.2392	0	11.51	20033	66	142	5	5	0.02	2.274332	8	10	0.08	2800	335.0075	40.92397	-91.39364
61804	416	748	254	-4.393302	10.63262	340.5284	0	11.51	20012	64	140	5	5	0.02	2.292623	8	10	0.08	2800	338.4001	40.92397	-91.39364
61898	-626	-547	-750	-1.361845	10.30241	341.9269	0	11.51	20049	51	138	5	5	0.02	2.303976	8	10	0.08	2800	338.8951	40.92397	-91.39364
61967	-2116	1651	-486	-2.332806	8.529448	342.2851	0	11.51	20032	45	130	5	5	0.02	2.303406	8	10	0.08	2800	339.3685	40.92397	-91.39365
62047	-1134	966	428	-3.100952	7.578539	342.67	0	11.51	20053	38	124	5	5	0.02	2.301764	8	10	0.08	2800	339.3612	40.92397	-91.39365
62150	787	-1232	-313	-3.387501	8.715073	342.8646	0	11.51	20039	30	114	5	5	0.02	2.300994	8	10	0.08	2800	342.0574	40.92397	-91.39365
62309	272	-616	444	-2.995637	10.80408	342.366	0	11.51	20035	24	113	5	5	0.02	2.299284	8	10	0.08	2800	340.0738	40.92397	-91.39365
62391	-1122	902	-67	-4.082726	9.280869	341.4738	0	11.4	20023	23	116	5	5	0.02	2.293745	8	10	0.08	2800	339.2403	40.92397	-91.39365
62481	31	1555	1371	-4.479653	7.624187	340.5723	0	11.4	20026	22	115	5	5	0.02	2.290512	8	10	0.08	2800	337.9311	40.92397	-91.39365
62635	-574	1148	1092	-3.406683	1.040805	337.886	0	11.4	20010	6	70	5	5	0.02	2.280367	8	10	0.08	2800	335.8559	40.92396	-91.39365
62673	-2458	1825	1157	-4.541746	0.1800695	337.2879	0	11.4	20056	17	91	5	5	0.02	2.278448	8	10	0.08	2800	335.8559	40.92396	-91.39365
62765	1115	2013	897	-5.436411	-2.016783	336.1015	0	11.4	20032	15	88	5	5	0.02	2.283236	8	10	0.08	2800	338.2035	40.92395	-91.39365
