time(ms)	gyro_x(deg/s)	gyro_y(deg/s)	gyro_z(deg/s)	orientation_roll(deg)	orientation_pitch(deg)	orientation_yaw(deg)	throttle	battery(V)	loop_time(uS)	pid_output_roll	pid_output_pitch	pid_output_yaw	pid_output_throttle	ultrasonic_alt	baro_alt	flight_mode	p_gain_altitude	i_gain_altitude	d_gain_altitude	compass_heading	latitude	longitude
5557715	-5	-1	-6	-4.833587	-1.946865	342.5204	0	12.76	0	0	0	5	5	0.02	0.1571934	1	10	0.08	2800	340.9489	40.92395	-91.39367
5557819	-4	0	-2	-4.835896	-1.946968	342.5213	0	12.76	0	0	0	5	5	0.02	0.1537512	1	10	0.08	2800	340.0795	40.92396	-91.39367
5557920	-4	-1	0	-4.837822	-1.947462	342.5232	0	12.76	0	0	0	5	5	0.02	0.1556594	1	10	0.08	2800	340.2378	40.92396	-91.39367
5558048	-6	0	1	-4.839142	-1.946008	342.5235	0	12.76	0	0	0	5	5	0.02	0.1629013	1	10	0.08	2800	340.0309	40.92396	-91.39367
5558142	-6	5	-4	-4.840092	-1.945856	342.5253	0	12.76	0	0	0	5	5	0.02	0.16437	1	10	0.08	2800	340.0277	40.92396	-91.39367
5558247	-9	6	-3	-4.843407	-1.942735	342.5265	0	12.76	0	0	0	5	5	0.02	0.1593549	1	10	0.08	2800	340.5546	40.92396	-91.39367
5558381	-2	5	0	-4.846625	-1.942038	342.5259	0	12.76	0	0	0	5	5	0.02	0.1615486	1	10	0.08	2800	340.3888	40.92396	-91.39367
5558474	-7	0	0	-4.845862	-1.942153	342.5273	0	12.76	0	0	0	5	5	0.02	0.1691471	1	10	0.08	2800	340.2942	40.92396	-91.39367
5558514	-6	1	1	-4.845315	-1.943574	342.5277	0	12.76	0	0	0	5	5	0.02	0.1711243	1	10	0.08	2800	340.844	40.92396	-91.39367
5558632	-5	-1	2	-4.846164	-1.944702	342.5273	0	12.76	0	0	0	5	5	0.02	0.1861847	1	10	0.08	2800	340.6776	40.92396	-91.39367
5558733	-5	2	1	-4.848666	-1.943714	342.5266	0	12.76	0	0	0	5	5	0.02	0.1941364	1	10	0.08	2800	340.4941	40.92396	-91.39367
5558862	-4	0	-3	-4.846622	-1.944429	342.527	0	12.76	0	0	0	5	5	0.02	0.2024622	1	10	0.08	2800	340.6769	40.92396	-91.39367
5558923	-2	5	-1	-4.844631	-1.946705	342.5271	0	12.76	0	0	0	5	5	0.02	0.206955	1	10	0.08	2800	340.381	40.92396	-91.39367
5559030	-7	-4	2	-4.845589	-1.948552	342.5274	0	12.76	0	0	0	5	5	0.02	0.2065339	1	10	0.08	2800	340.0801	40.92396	-91.39367
5559125	-8	2	0	-4.843967	-1.949977	342.5308	0	12.76	0	0	0	5	5	0.02	0.2067842	1	10	0.08	2800	340.3819	40.92396	-91.39367
5559293	-7	3	-5	-4.84677	-1.951985	342.5326	0	12.76	0	0	0	5	5	0.02	0.2136418	1	10	0.08	2800	340.3737	40.92396	-91.39367
5559356	-3	5	-1	-4.84821	-1.95398	342.5336	0	12.76	0	0	0	5	5	0.02	0.2186868	1	10	0.08	2800	340.0683	40.92396	-91.39367
5559462	-1	-2	-1	-4.848168	-1.952142	342.5344	0	12.76	0	0	0	5	5	0.02	0.2205245	1	10	0.08	2800	340.205	40.92396	-91.39367
5559558	-6	0	-1	-4.848412	-1.952074	342.5365	0	12.76	0	0	0	5	5	0.02	0.2187863	1	10	0.08	2800	340.1213	40.92396	-91.39367
5559667	-5	0	0	-4.848387	-1.953376	342.5381	0	12.76	0	0	0	5	5	0.02	0.2101358	1	10	0.08	2800	339.9132	40.92396	-91.39367
5559751	0	-2	-2	-4.849957	-1.952424	342.5397	0	12.76	0	0	0	5	5	0.02	0.206427	1	10	0.08	2800	339.9116	40.92396	-91.39367
5559844	-5	3	-4	-4.851575	-1.951762	342.5446	0	12.76	0	0	0	5	5	0.02	0.1913149	1	10	0.08	2800	340.1553	40.92396	-91.39367
5559958	-5	1	0	-4.850086	-1.952287	342.5458	0	12.76	0	0	0	5	5	0.02	0.1878391	1	10	0.08	2800	340.1557	40.92396	-91.39367
5560056	-6	-2	-1	-4.849622	-1.950123	342.5492	0	12.76	0	0	0	5	5	0.02	0.1851829	1	10	0.08	2800	340.4114	40.92396	-91.39367
5560221	-8	-5	0	-4.850771	-1.949395	342.552	0	12.76	0	0	0	5	5	0.02	0.1736227	1	10	0.08	2800	340.1567	40.92396	-91.39367
5560332	-3	5	3	-4.850158	-1.951123	342.5545	0	12.76	0	0	0	5	5	0.02	0.1610042	1	10	0.08	2800	339.9128	40.92396	-91.39367
5560430	-8	0	-1	-4.846103	-1.949477	342.5567	0	12.76	0	0	0	5	5	0.02	0.1576865	1	10	0.08	2800	339.8748	40.92396	-91.39367
5560509	-6	4	0	-4.848467	-1.951068	342.5558	0	12.76	0	0	0	5	5	0.02	0.1571638	1	10	0.08	2800	339.7802	40.92396	-91.39367
5560639	-8	0	-1	-4.848624	-1.952436	342.5569	0	12.76	0	0	0	5	5	0.02	0.1603798	1	10	0.08	2800	340.2099	40.92396	-91.39367
5560682	-1	0	-3	-4.84643	-1.952371	342.558	0	12.76	0	0	0	5	5	0.02	0.1614049	1	10	0.08	2800	340.1161	40.92396	-91.39367
5560772	-7	-1	-6	-4.848874	-1.951439	342.5602	0	12.76	0	0	0	5	5	0.02	0.1681677	1	10	0.08	2800	340.3274	40.92396	-91.39367
5560909	-8	6	2	-4.849218	-1.948515	342.5598	0	12.76	0	0	0	5	5	0.02	0.1745342	1	10	0.08	2800	339.8698	40.92396	-91.39367
5561021	-3	-4	-3	-4.846645	-1.946555	342.5614	0	12.76	0	0	0	5	5	0.02	0.1833135	1	10	0.08	2800	340.2607	40.92396	-91.39367
5561114	-3	2	0	-4.849241	-1.944558	342.5646	0	12.76	0	0	0	5	5	0.02	0.1893071	1	10	0.08	2800	340.0043	40.92396	-91.39367
5561204	-4	-3	-2	-4.849864	-1.9415	342.5665	0	12.76	0	0	0	5	5	0.02	0.1961017	1	10	0.08	2800	340.2853	40.92396	-91.39367
5561309	0	-4	-1	-4.846572	-1.940972	342.5681	0	12.76	0	0	0	5	5	0.02	0.2036726	1	10	0.08	2800	340.403	40.92396	-91.39367
5561367	-4	0	3	-4.846637	-1.942022	342.5686	0	12.76	0	0	0	5	5	0.02	0.2040828	1	10	0.08	2800	340.2934	40.92396	-91.39367
5561486	-8	-5	0	-4.847563	-1.941629	342.5702	0	12.76	0	0	0	5	5	0.02	0.2002934	1	10	0.08	2800	340.3812	40.92396	-91.39367
5561584	-3	0	1	-4.84573	-1.943256	342.5722	0	12.76	0	0	0	5	5	0.02	0.1965304	1	10	0.08	2800	340.292	40.92396	-91.39367
5561700	-7	2	-1	-4.846307	-1.943083	342.5733	0	12.76	0	0	0	5	5	0.02	0.1948147	1	10	0.08	2800	340.2465	40.92396	-91.39367
5561762	-8	0	-1	-4.844549	-1.944598	342.573	0	12.76	0	0	0	5	5	0.02	0.1953508	1	10	0.08	2800	340.7573	40.92396	-91.39367
5561905	-7	3	-2	-4.844927	-1.944834	342.5756	0	12.76	0	0	0	5	5	0.02	0.2038016	1	10	0.08	2800	339.7909	40.92396	-91.39367
5561953	-6	0	-2	-4.844927	-1.944834	342.5756	0	12.76	0	0	0	5	5	0.02	0.2049741	1	10	0.08	2800	339.7909	40.92396	-91.39367
5562143	-2	-3	0	-4.84587	-1.944278	342.5784	0	12.76	0	0	0	5	5	0.02	0.2041396	1	10	0.08	2800	340.4554	40.92396	-91.39367
5562198	-8	-2	0	-4.84541	-1.943201	342.5777	0	12.76	0	0	0	5	5	0.02	0.2040001	1	10	0.08	2800	340.4581	40.92396	-91.39367
5562307	-1	4	0	-4.844666	-1.941043	342.5771	0	12.76	0	0	0	5	5	0.02	0.1984469	1	10	0.08	2800	340.5455	40.92396	-91.39367
5562472	-8	-1	-2	-4.848327	-1.938411	342.5779	0	12.76	0	0	0	5	5	0.02	0.1860929	1	10	0.08	2800	340.2924	40.92396	-91.39367
5562562	-2	0	0	-4.847002	-1.938792	342.5788	0	12.76	0	0	0	5	5	0.02	0.1852687	1	10	0.08	2800	340.4542	40.92396	-91.39367
5562668	-6	-1	1	-4.849267	-1.941902	342.5782	0	12.76	0	0	0	5	5	0.02	0.1832047	1	10	0.08	2800	340.0359	40.92396	-91.39367
5562866	-3	-2	0	-4.851979	-1.940339	342.5799	0	12.7	0	0	0	5	5	0.02	0.1751529	1	10	0.08	2800	340.3704	40.92396	-91.39367
5563020	-9	0	0	-4.856682	-1.941342	342.5802	0	12.7	0	0	0	5	5	0.02	0.1683399	1	10	0.08	2800	340.1096	40.92396	-91.39367
5563056	-2	-2	3	-4.858114	-1.941898	342.5794	0	12.7	0	0	0	5	5	0.02	0.1683399	1	10	0.08	2800	340.2672	40.92396	-91.39367
5563314	-9	-1	0	-4.862139	-1.938256	342.5821	0	12.7	0	0	0	5	5	0.02	0.1378317	1	10	0.08	2800	340.5179	40.92396	-91.39367
5563490	-8	-2	0	-4.865541	-1.940124	342.5838	0	12.7	0	0	0	5	5	0.02	0.1313168	1	10	0.08	2800	340.1305	40.92396	-91.39367
5563690	-6	1	0	-4.868337	-1.939901	342.5858	0	12.76	0	0	0	5	5	0.02	0.1212295	1	10	0.08	2800	340.3764	40.92396	-91.39367
5563830	-4	-1	-3	-4.871138	-1.941734	342.5867	0	12.76	0	0	0	5	5	0.02	0.1129791	1	10	0.08	2800	340.1252	40.92396	-91.39367
5563882	-4	4	-3	-4.869956	-1.943016	342.5885	0	12.76	0	0	0	5	5	0.02	0.1154769	1	10	0.08	2800	340.1202	40.92396	-91.39367
5563978	-4	-2	-1	-4.867707	-1.944337	342.5887	0	12.76	0	0	0	5	5	0.02	0.1163718	1	10	0.08	2800	340.1252	40.92396	-91.39367
5564147	-5	7	-1	-4.872252	-1.943256	342.593	0	12.76	0	0	0	5	5	0.02	0.1170973	1	10	0.08	2800	340.5281	40.92396	-91.39367
5564216	-5	-1	-2	-4.874077	-1.942322	342.5945	0	12.76	0	0	0	5	5	0.02	0.1146123	1	10	0.08	2800	339.9791	40.92396	-91.39367
5564319	-2	2	2	-4.871877	-1.941808	342.5939	0	12.76	0	0	0	5	5	0.02	0.1232743	1	10	0.08	2800	340.1174	40.92396	-91.39367
5564405	-1	0	3	-4.867229	-1.942431	342.5935	0	12.76	0	0	0	5	5	0.02	0.1279713	1	10	0.08	2800	340.0313	40.92396	-91.39367
5564463	-8	-4	-3	-4.867289	-1.943663	342.5945	0	12.76	0	0	0	5	5	0.02	0.1292446	1	10	0.08	2800	340.1287	40.92396	-91.39367
5564607	-3	2	2	-4.867143	-1.941509	342.5948	0	12.76	0	0	0	5	5	0.02	0.1300656	1	10	0.08	2800	340.1287	40.92396	-91.39367
5564663	-7	1	-2	-4.867533	-1.942265	342.5951	0	12.76	0	0	0	5	5	0.02	0.1307462	1	10	0.08	2800	340.1288	40.92396	-91.39367
5564837	-7	0	1	-4.867793	-1.943174	342.5965	0	12.76	0	0	0	5	5	0.02	0.1458099	1	10	0.08	2800	340.0818	40.92396	-91.39367
5564914	-3	-4	1	-4.868721	-1.941052	342.5963	0	12.76	0	0	0	5	5	0.02	0.1523287	1	10	0.08	2800	340.1718	40.92396	-91.39367
5564997	-3	0	0	-4.864599	-1.939971	342.5976	0	12.76	0	0	0	5	5	0.02	0.1583593	1	10	0.08	2800	339.5809	40.92396	-91.39367
5565069	-3	-1	-1	-4.866376	-1.940064	342.5975	0	12.76	0	0	0	5	5	0.02	0.1605453	1	10	0.08	2800	340.2712	40.92396	-91.39367
5565180	-6	-1	0	-4.862872	-1.939143	342.5976	0	12.76	0	0	0	5	5	0.02	0.1630709	1	10	0.08	2800	340.3458	40.92396	-91.39367
5565280	-9	0	0	-4.865532	-1.938904	342.5984	0	12.76	0	0	0	5	5	0.02	0.163371	1	10	0.08	2800	340.6004	40.92396	-91.39367
5565395	-7	4	-1	-4.870723	-1.937921	342.6013	0	12.76	0	0	0	5	5	0.02	0.1530492	1	10	0.08	2800	340.4521	40.92396	-91.39367
5565492	-5	5	0	-4.869323	-1.938173	342.6021	0	12.76	0	0	0	5	5	0.02	0.148665	1	10	0.08	2800	340.4066	40.92396	-91.39367
5565592	-4	-2	7	-4.867787	-1.938265	342.6017	0	12.76	0	0	0	5	5	0.02	0.1525071	1	10	0.08	2800	340.133	40.92396	-91.39367
5565701	-5	1	-5	-4.865997	-1.938652	342.6043	0	12.76	0	0	0	5	5	0.02	0.155805	1	10	0.08	2800	339.8838	40.92396	-91.39367
5565776	-3	0	-2	-4.866544	-1.938501	342.6067	0	12.76	0	0	0	5	5	0.02	0.1586306	1	10	0.08	2800	339.8842	40.92396	-91.39367
5565959	-5	3	-4	-4.863651	-1.941731	342.6064	0	12.76	0	0	0	5	5	0.02	0.153201	1	10	0.08	2800	339.888	40.92396	-91.39367
5566008	-10	2	-1	-4.863521	-1.939391	342.6077	0	12.76	0	0	0	5	5	0.02	0.1522118	1	10	0.08	2800	340.7612	40.92396	-91.39367
5566095	-5	-2	0	-4.864397	-1.939313	342.6082	0	12.76	0	0	0	5	5	0.02	0.1506857	1	10	0.08	2800	340.5961	40.92396	-91.39367
5566186	-5	0	3	-4.866	-1.937552	342.6098	0	12.76	0	0	0	5	5	0.02	0.1435113	1	10	0.08	2800	340.8466	40.92396	-91.39367
5566361	-2	-4	1	-4.864497	-1.936858	342.6115	0	12.76	0	0	0	5	5	0.02	0.1541383	1	10	0.08	2800	340.4585	40.92396	-91.39367
5566444	-3	0	-2	-4.86351	-1.937274	342.6123	0	12.76	0	0	0	5	5	0.02	0.1584001	1	10	0.08	2800	340.8083	40.92396	-91.39367
5566487	-4	0	0	-4.864729	-1.937154	342.614	0	12.76	0	0	0	5	5	0.02	0.1595466	1	10	0.08	2800	340.1655	40.92396	-91.39367
5566690	-7	2	-1	-4.870067	-1.939501	342.6175	0	12.76	0	0	0	5	5	0.02	0.1545094	1	10	0.08	2800	340.3332	40.92396	-91.39367
5566803	-6	1	-3	-4.870594	-1.938744	342.6173	0	12.76	0	0	0	5	5	0.02	0.1480433	1	10	0.08	2800	340.3293	40.92396	-91.39367
5566888	-8	-3	4	-4.870878	-1.943171	342.6195	0	12.76	0	0	0	5	5	0.02	0.144572	1	10	0.08	2800	340.1672	40.92396	-91.39367
5567068	-3	-2	2	-4.876697	-1.945882	342.6217	0	12.76	0	0	0	5	5	0.02	0.1481688	1	10	0.08	2800	340.2687	40.92396	-91.39367
5567131	-7	-3	0	-4.87614	-1.946462	342.6216	0	12.76	0	0	0	5	5	0.02	0.154809	1	10	0.08	2800	340.2687	40.92396	-91.39367
5567228	-4	0	0	-4.877181	-1.944739	342.6238	0	12.76	0	0	0	5	5	0.02	0.1566493	1	10	0.08	2800	339.7615	40.92396	-91.39367
5567312	-9	-2	-2	-4.878479	-1.943094	342.6252	0	12.76	0	0	0	5	5	0.02	0.157931	1	10	0.08	2800	339.966	40.92396	-91.39367
5567388	-7	0	1	-4.878218	-1.942502	342.6256	0	12.76	0	0	0	5	5	0.02	0.1593782	1	10	0.08	2800	339.8091	40.92396	-91.39367
5567625	-5	3	-1	-4.8713	-1.937378	342.629	0	12.76	0	0	0	5	5	0.02	0.1653506	1	10	0.08	2800	339.8709	40.92396	-91.39367
5567745	-2	2	-1	-4.870085	-1.938242	342.6297	0	12.76	0	0	0	5	5	0.02	0.1719966	1	10	0.08	2800	340.1245	40.92396	-91.39367
5567796	-4	-2	-8	-4.868824	-1.938689	342.6309	0	12.76	0	0	0	5	5	0.02	0.1726297	1	10	0.08	2800	340.1245	40.92396	-91.39367
5567897	-5	-1	-1	-4.866775	-1.938381	342.6349	0	12.76	0	0	0	5	5	0.02	0.1714974	1	10	0.08	2800	340.084	40.92396	-91.39367
5568009	-5	4	-3	-4.864904	-1.937183	342.6373	0	12.76	0	0	0	5	5	0.02	0.1688193	1	10	0.08	2800	340.1626	40.92396	-91.39367
5568097	-9	-4	-1	-4.866575	-1.939008	342.6383	0	12.76	0	0	0	5	5	0.02	0.1624988	1	10	0.08	2800	340.1358	40.92396	-91.39367
5568193	-3	0	3	-4.865567	-1.936157	342.638	0	12.76	0	0	0	5	5	0.02	0.1575109	1	10	0.08	2800	340.1375	40.92396	-91.39367
5568303	-8	-2	-4	-4.866405	-1.936323	342.6378	0	12.76	0	0	0	5	5	0.02	0.1521583	1	10	0.08	2800	340.1827	40.92396	-91.39367
5568423	-8	-2	-2	-4.862797	-1.934835	342.6382	0	12.76	0	0	0	5	5	0.02	0.1433355	1	10	0.08	2800	340.0472	40.92396	-91.39367
5568577	-14	-3	0	-4.866654	-1.934473	342.6399	0	12.76	0	0	0	5	5	0.02	0.1387146	1	10	0.08	2800	340.2995	40.92396	-91.39367
5568652	-8	0	-6	-4.864531	-1.935174	342.6407	0	12.76	0	0	0	5	5	0.02	0.1371774	1	10	0.08	2800	340.0962	40.92396	-91.39367
5568742	-3	3	-4	-4.86897	-1.939033	342.6431	0	12.76	0	0	0	5	5	0.02	0.1386416	1	10	0.08	2800	340.475	40.92396	-91.39367
5568819	-7	3	3	-4.86955	-1.940635	342.6457	0	12.76	0	0	0	5	5	0.02	0.1410439	1	10	0.08	2800	340.3785	40.92396	-91.39367
5568948	-9	0	1	-4.869022	-1.943607	342.6465	0	12.76	0	0	0	5	5	0.02	0.1431707	1	10	0.08	2800	340.4025	40.92396	-91.39367
5569015	-5	1	-1	-4.871026	-1.943418	342.6474	0	12.76	0	0	0	5	5	0.02	0.1448323	1	10	0.08	2800	340.3272	40.92396	-91.39367
5569080	-1	0	0	-4.869464	-1.945055	342.6482	0	12.76	0	0	0	5	5	0.02	0.1454816	1	10	0.08	2800	340.3056	40.92396	-91.39367
5569189	-6	-3	-2	-4.869311	-1.946867	342.6485	0	12.76	0	0	0	5	5	0.02	0.1408637	1	10	0.08	2800	340.2344	40.92396	-91.39367
5569282	-4	1	-2	-4.86863	-1.942185	342.6502	0	12.76	0	0	0	5	5	0.02	0.1360278	1	10	0.08	2800	340.6721	40.92396	-91.39367
5569438	-5	0	-3	-4.870293	-1.943705	342.651	0	12.76	0	0	0	5	5	0.02	0.1313998	1	10	0.08	2800	340.1234	40.92396	-91.39367
5569523	-10	2	1	-4.870952	-1.944505	342.6515	0	12.76	0	0	0	5	5	0.02	0.1381971	1	10	0.08	2800	340.0767	40.92396	-91.39367
5569618	-4	-1	2	-4.872805	-1.941897	342.6541	0	12.76	0	0	0	5	5	0.02	0.1388409	1	10	0.08	2800	339.9568	40.92396	-91.39367
5569725	-1	1	0	-4.870838	-1.940064	342.6554	0	12.76	0	0	0	5	5	0.02	0.1345941	1	10	0.08	2800	340.3219	40.92396	-91.39367
5569874	-3	-3	-5	-4.871111	-1.942705	342.6549	0	12.76	0	0	0	5	5	0.02	0.1278629	1	10	0.08	2800	340.2824	40.92397	-91.39367
5569923	-10	-4	-2	-4.870429	-1.941686	342.6557	0	12.76	0	0	0	5	5	0.02	0.1252666	1	10	0.08	2800	340.2816	40.92397	-91.39367
5570006	-7	1	-5	-4.872056	-1.939775	342.6582	0	12.76	0	0	0	5	5	0.02	0.1252915	1	10	0.08	2800	340.5795	40.92397	-91.39367
5570114	-6	0	0	-4.872808	-1.937794	342.6595	0	12.76	0	0	0	5	5	0.02	0.1291213	1	10	0.08	2800	340.5355	40.92397	-91.39367
5570244	-8	-4	-3	-4.870884	-1.937512	342.6621	0	12.76	0	0	0	5	5	0.02	0.1295744	1	10	0.08	2800	340.4453	40.92397	-91.39367
5570372	-4	1	1	-4.868126	-1.938966	342.663	0	12.76	0	0	0	5	5	0.02	0.1230681	1	10	0.08	2800	340.404	40.92397	-91.39367
5570418	-6	2	5	-4.87062	-1.939163	342.6627	0	12.76	0	0	0	5	5	0.02	0.1210451	1	10	0.08	2800	339.9688	40.92397	-91.39367
5570523	-3	-3	-7	-4.870481	-1.938507	342.6638	0	12.76	0	0	0	5	5	0.02	0.1222582	1	10	0.08	2800	340.1705	40.92397	-91.39367
5570584	-7	-3	-3	-4.870907	-1.940146	342.6655	0	12.76	0	0	0	5	5	0.02	0.1228473	1	10	0.08	2800	340.2412	40.92397	-91.39367
5570688	-7	-2	-4	-4.87066	-1.940391	342.6663	0	12.76	0	0	0	5	5	0.02	0.112953	1	10	0.08	2800	339.9643	40.92397	-91.39367
5570806	-10	2	6	-4.87159	-1.942108	342.6685	0	12.76	0	0	0	5	5	0.02	0.1016499	1	10	0.08	2800	340.4444	40.92397	-91.39367
5570968	-3	7	1	-4.871493	-1.94419	342.6697	0	12.76	0	0	0	5	5	0.02	0.09329969	1	10	0.08	2800	340.0681	40.92397	-91.39367
5571006	-6	-4	-1	-4.869881	-1.944307	342.6706	0	12.76	0	0	0	5	5	0.02	0.09350036	1	10	0.08	2800	340.0681	40.92397	-91.39367
5571098	-5	0	0	-4.873435	-1.944525	342.6715	0	12.76	0	0	0	5	5	0.02	0.093619	1	10	0.08	2800	339.862	40.92397	-91.39367
5571256	-3	-1	0	-4.870831	-1.942982	342.6749	0	12.76	0	0	0	5	5	0.02	0.08662628	1	10	0.08	2800	339.9547	40.92397	-91.39366
5571337	-5	-2	2	-4.869587	-1.94271	342.6756	0	12.76	0	0	0	5	5	0.02	0.08032718	1	10	0.08	2800	340.1185	40.92397	-91.39366
5571399	0	1	-1	-4.869987	-1.941928	342.6764	0	12.76	0	0	0	5	5	0.02	0.07473066	1	10	0.08	2800	339.9878	40.92397	-91.39366
5571557	-10	4	-1	-4.875755	-1.936074	342.6794	0	12.76	0	0	0	5	5	0.02	0.07261706	1	10	0.08	2800	340.1201	40.92397	-91.39366
5571655	-8	1	0	-4.876267	-1.937122	342.6798	0	12.76	0	0	0	5	5	0.02	0.08821674	1	10	0.08	2800	339.6131	40.92397	-91.39366
5571689	-5	0	1	-4.875915	-1.936243	342.6802	0	12.76	0	0	0	5	5	0.02	0.09493998	1	10	0.08	2800	339.6131	40.92397	-91.39366
5571832	-4	4	-1	-4.8778	-1.941552	342.683	0	12.76	0	0	0	5	5	0.02	0.1101988	1	10	0.08	2800	340.1057	40.92397	-91.39366
5571925	-5	0	0	-4.87645	-1.942966	342.6826	0	12.76	0	0	0	5	5	0.02	0.1183998	1	10	0.08	2800	340.0124	40.92397	-91.39366
5572056	-5	-2	0	-4.877872	-1.942044	342.6847	0	12.76	0	0	0	5	5	0.02	0.1306243	1	10	0.08	2800	339.9677	40.92397	-91.39366
5572129	-5	-5	0	-4.877986	-1.942217	342.6869	0	12.76	0	0	0	5	5	0.02	0.1433318	1	10	0.08	2800	339.8571	40.92397	-91.39366
5572198	-4	-1	-2	-4.876014	-1.943813	342.6878	0	12.76	0	0	0	5	5	0.02	0.1459851	1	10	0.08	2800	340.1537	40.92397	-91.39366
5572308	-9	0	-3	-4.878016	-1.943204	342.6892	0	12.76	0	0	0	5	5	0.02	0.1561963	1	10	0.08	2800	340.2222	40.92397	-91.39366
5572402	-8	-1	1	-4.879322	-1.943665	342.6889	0	12.76	0	0	0	5	5	0.02	0.1777548	1	10	0.08	2800	339.6009	40.92397	-91.39366
5572525	-11	2	2	-4.880517	-1.944493	342.6885	0	12.76	0	0	0	5	5	0.02	0.1858849	1	10	0.08	2800	339.7566	40.92397	-91.39366
5572626	-5	-5	-3	-4.880932	-1.945277	342.6891	0	12.76	0	0	0	5	5	0.02	0.1841746	1	10	0.08	2800	340.257	40.92397	-91.39366
5572735	-6	1	0	-4.881511	-1.944209	342.6891	0	12.76	0	0	0	5	5	0.02	0.1593528	1	10	0.08	2800	340.1017	40.92397	-91.39366
5572807	-10	-3	-2	-4.882506	-1.942147	342.6889	0	12.76	0	0	0	5	5	0.02	0.1490651	1	10	0.08	2800	340.3294	40.92397	-91.39366
5572921	-5	0	-4	-4.881566	-1.940016	342.6902	0	12.76	0	0	0	5	5	0.02	0.1280189	1	10	0.08	2800	340.2109	40.92397	-91.39366
5573104	-11	-1	0	-4.880092	-1.942648	342.6913	0	12.76	0	0	0	5	5	0.02	0.1125451	1	10	0.08	2800	340.7218	40.92397	-91.39366
5573158	-7	1	2	-4.881402	-1.943124	342.6915	0	12.76	0	0	0	5	5	0.02	0.104984	1	10	0.08	2800	340.7218	40.92397	-91.39366
5573234	-3	0	0	-4.881819	-1.939354	342.6923	0	12.76	0	0	0	5	5	0.02	0.1065191	1	10	0.08	2800	340.4642	40.92397	-91.39366
5573389	-6	2	-1	-4.882515	-1.939737	342.6941	0	12.76	0	0	0	5	5	0.02	0.1159806	1	10	0.08	2800	339.999	40.92397	-91.39366
5573485	-2	1	0	-4.886273	-1.940732	342.6931	0	12.76	0	0	0	5	5	0.02	0.1131144	1	10	0.08	2800	339.9276	40.92397	-91.39366
5573515	-6	-1	2	-4.886109	-1.941715	342.6929	0	12.76	0	0	0	5	5	0.02	0.1112138	1	10	0.08	2800	340.2918	40.92397	-91.39366
5573629	-5	4	0	-4.886738	-1.94252	342.6944	0	12.76	0	0	0	5	5	0.02	0.1116941	1	10	0.08	2800	339.8809	40.92397	-91.39366
5573745	-7	0	0	-4.886288	-1.941058	342.6955	0	12.76	0	0	0	5	5	0.02	0.1148147	1	10	0.08	2800	340.6199	40.92397	-91.39366
5573813	-5	-1	3	-4.888844	-1.944127	342.6942	0	12.76	0	0	0	5	5	0.02	0.1188119	1	10	0.08	2800	340.4514	40.92397	-91.39366
5573920	-9	0	-3	-4.888063	-1.940726	342.6927	0	12.76	0	0	0	5	5	0.02	0.1256598	1	10	0.08	2800	340.3312	40.92397	-91.39366
5574003	-7	-2	1	-4.890983	-1.944148	342.6911	0	12.76	0	0	0	5	5	0.02	0.1362674	1	10	0.08	2800	340.4442	40.92397	-91.39366
5574088	-5	-1	-1	-4.889165	-1.945712	342.6912	0	12.76	0	0	0	5	5	0.02	0.1428183	1	10	0.08	2800	340.6529	40.92397	-91.39366
5574241	-9	-2	-1	-4.889941	-1.943463	342.6905	0	12.76	0	0	0	5	5	0.02	0.1468809	1	10	0.08	2800	339.9838	40.92397	-91.39366
5574307	-7	0	0	-4.889515	-1.943276	342.6894	0	12.76	0	0	0	5	5	0.02	0.146975	1	10	0.08	2800	339.738	40.92397	-91.39366
5574426	-7	-3	0	-4.890356	-1.945088	342.6903	0	12.76	0	0	0	5	5	0.02	0.1493172	1	10	0.08	2800	340.0272	40.92397	-91.39366
5574494	-9	3	3	-4.890852	-1.944607	342.6907	0	12.76	0	0	0	5	5	0.02	0.1511794	1	10	0.08	2800	339.8239	40.92397	-91.39366
5574588	-14	0	1	-4.890774	-1.944087	342.6903	0	12.76	0	0	0	5	5	0.02	0.1550857	1	10	0.08	2800	340.3282	40.92397	-91.39366
5574749	-5	3	0	-4.890966	-1.94628	342.6906	0	12.7	0	0	0	5	5	0.02	0.1609249	1	10	0.08	2800	340.5258	40.92397	-91.39366
5574804	-6	0	1	-4.890825	-1.945862	342.6909	0	12.7	0	0	0	5	5	0.02	0.1610517	1	10	0.08	2800	340.1162	40.92397	-91.39366
5574932	-10	3	0	-4.892264	-1.946566	342.6913	0	12.7	0	0	0	5	5	0.02	0.1465764	1	10	0.08	2800	340.3199	40.92397	-91.39366
5575003	-11	1	-2	-4.894393	-1.947062	342.6914	0	12.7	0	0	0	5	5	0.02	0.1433423	1	10	0.08	2800	340.3148	40.92397	-91.39366
5575126	-9	3	0	-4.89666	-1.945415	342.6922	0	12.7	0	0	0	5	5	0.02	0.1250366	1	10	0.08	2800	340.1519	40.92397	-91.39366
5575186	-8	4	-3	-4.898574	-1.946767	342.6931	0	12.7	0	0	0	5	5	0.02	0.1150078	1	10	0.08	2800	340.1519	40.92397	-91.39366
5575302	-5	1	0	-4.896167	-1.948831	342.6936	0	12.7	0	0	0	5	5	0.02	0.1033574	1	10	0.08	2800	339.6472	40.92397	-91.39366
5575474	-4	-1	0	-4.893727	-1.949727	342.6928	0	12.7	0	0	0	5	5	0.02	0.1030295	1	10	0.08	2800	339.9249	40.92397	-91.39366
5575546	-4	1	0	-4.896255	-1.950135	342.6928	0	12.7	0	0	0	5	5	0.02	0.1058748	1	10	0.08	2800	340.2699	40.92397	-91.39366
5575602	-13	1	-1	-4.895781	-1.951129	342.6925	0	12.76	0	0	0	5	5	0.02	0.1129578	1	10	0.08	2800	340.2899	40.92397	-91.39366
5575725	-3	3	-2	-4.894692	-1.956256	342.6941	0	12.76	0	0	0	5	5	0.02	0.118271	1	10	0.08	2800	340.2597	40.92397	-91.39366
5575814	-10	4	0	-4.897212	-1.955787	342.6944	0	12.76	0	0	0	5	5	0.02	0.1178976	1	10	0.08	2800	340.0536	40.92397	-91.39366
5575895	-10	0	-1	-4.896544	-1.957483	342.6925	0	12.76	0	0	0	5	5	0.02	0.1145854	1	10	0.08	2800	339.8661	40.92397	-91.39366
5576009	-11	3	1	-4.898228	-1.957744	342.6925	0	12.76	0	0	0	5	5	0.02	0.1168766	1	10	0.08	2800	340.0002	40.92397	-91.39366
5576115	-7	1	1	-4.898281	-1.958821	342.6916	0	12.76	0	0	0	5	5	0.02	0.1203448	1	10	0.08	2800	340.2518	40.92397	-91.39366
5576263	-12	3	2	-4.902572	-1.967291	342.6892	0	12.76	0	0	0	5	5	0.02	0.1243715	1	10	0.08	2800	339.9889	40.92397	-91.39366
5576391	-9	0	0	-4.90113	-1.964608	342.6911	0	12.76	0	0	0	5	5	0.02	0.1417261	1	10	0.08	2800	340.0268	40.92397	-91.39366
5576499	-4	0	-4	-4.902872	-1.962345	342.6901	0	12.76	0	0	0	5	5	0.02	0.1556381	1	10	0.08	2800	339.8925	40.92397	-91.39366
5576552	-7	0	0	-4.902096	-1.960642	342.6911	0	12.76	0	0	0	5	5	0.02	0.1593447	1	10	0.08	2800	340.2807	40.92397	-91.39366
5576645	-5	-1	0	-4.90133	-1.962067	342.6905	0	12.76	0	0	0	5	5	0.02	0.1686676	1	10	0.08	2800	340.2408	40.92397	-91.39366
5576711	-8	3	2	-4.905151	-1.962952	342.6914	0	12.76	0	0	0	5	5	0.02	0.1748163	1	10	0.08	2800	340.1413	40.92397	-91.39366
5576832	-5	0	5	-4.907269	-1.961706	342.6906	0	12.76	0	0	0	5	5	0.02	0.1779796	1	10	0.08	2800	340.087	40.92397	-91.39366
5576953	-3	5	0	-4.90738	-1.966059	342.6894	0	12.76	0	0	0	5	5	0.02	0.1874912	1	10	0.08	2800	340.4788	40.92397	-91.39366
5577049	-8	3	-1	-4.910567	-1.968312	342.6873	0	12.76	0	0	0	5	5	0.02	0.1895436	1	10	0.08	2800	340.4997	40.92397	-91.39366
5577182	-5	1	0	-4.911418	-1.967832	342.6871	0	12.76	0	0	0	5	5	0.02	0.1901671	1	10	0.08	2800	340.1442	40.92397	-91.39366
5577277	-5	0	-2	-4.913754	-1.966778	342.6879	0	12.76	0	0	0	5	5	0.02	0.1838985	1	10	0.08	2800	340.005	40.92397	-91.39366
5577400	-6	-2	2	-4.913002	-1.963222	342.6889	0	12.76	0	0	0	5	5	0.02	0.1700177	1	10	0.08	2800	340.0049	40.92397	-91.39366
5577448	-10	2	2	-4.914337	-1.962221	342.6894	0	12.76	0	0	0	5	5	0.02	0.1615944	1	10	0.08	2800	340.0049	40.92397	-91.39366
5577607	-9	-2	-6	-4.912008	-1.960999	342.692	0	12.76	0	0	0	5	5	0.02	0.1594988	1	10	0.08	2800	340.4918	40.92397	-91.39366
5577688	-6	0	3	-4.91224	-1.959522	342.6922	0	12.76	0	0	0	5	5	0.02	0.1564945	1	10	0.08	2800	340.1253	40.92397	-91.39366
5577826	-9	-2	-1	-4.914451	-1.956053	342.6922	0	12.76	0	0	0	5	5	0.02	0.15428	1	10	0.08	2800	340.3785	40.92397	-91.39366
5577883	-12	-1	-1	-4.914049	-1.955474	342.692	0	12.76	0	0	0	5	5	0.02	0.152369	1	10	0.08	2800	340.3786	40.92397	-91.39366
5577944	-5	-5	-3	-4.915954	-1.955768	342.6916	0	12.76	0	0	0	5	5	0.02	0.1514841	1	10	0.08	2800	340.7489	40.92397	-91.39366
5578080	-3	-3	1	-4.918923	-1.95761	342.6886	0	12.76	0	0	0	5	5	0.02	0.1444968	1	10	0.08	2800	340.367	40.92397	-91.39366
5578190	-7	2	0	-4.920432	-1.958591	342.6884	0	12.76	0	0	0	5	5	0.02	0.1402064	1	10	0.08	2800	340.2006	40.92397	-91.39366
5578250	-11	-1	0	-4.921588	-1.959354	342.6867	0	12.76	0	0	0	5	5	0.02	0.1390798	1	10	0.08	2800	340.1085	40.92397	-91.39366
5578373	-13	1	2	-4.923406	-1.958389	342.6882	0	12.76	0	0	0	5	5	0.02	0.1326506	1	10	0.08	2800	340.0334	40.92397	-91.39366
5578476	-8	2	1	-4.922626	-1.95726	342.6875	0	12.76	0	0	0	5	5	0.02	0.1280628	1	10	0.08	2800	340.4008	40.92397	-91.39366
5578546	-6	1	-6	-4.921911	-1.959131	342.6881	0	12.76	0	0	0	5	5	0.02	0.1262918	1	10	0.08	2800	340.1944	40.92397	-91.39366
5578680	-13	0	-1	-4.924871	-1.960634	342.6874	0	12.76	0	0	0	5	5	0.02	0.129524	1	10	0.08	2800	339.8466	40.92397	-91.39366
5578723	-9	1	1	-4.925599	-1.959991	342.6862	0	12.76	0	0	0	5	5	0.02	0.1307743	1	10	0.08	2800	339.8466	40.92397	-91.39366
5578864	-9	0	2	-4.930559	-1.961661	342.6856	0	12.76	0	0	0	5	5	0.02	0.1362563	1	10	0.08	2800	339.7769	40.92397	-91.39366
5578914	-10	-1	0	-4.930579	-1.962698	342.6851	0	12.76	0	0	0	5	5	0.02	0.138341	1	10	0.08	2800	340.0142	40.92397	-91.39366
5579033	-12	-2	-1	-4.933107	-1.962463	342.6853	0	12.76	0	0	0	5	5	0.02	0.1349965	1	10	0.08	2800	339.8718	40.92397	-91.39366
5579146	-13	-5	3	-4.934474	-1.963012	342.6856	0	12.76	0	0	0	5	5	0.02	0.1242595	1	10	0.08	2800	340.2124	40.92397	-91.39366
5579216	-8	-2	-4	-4.937473	-1.963143	342.6871	0	12.76	0	0	0	5	5	0.02	0.1184229	1	10	0.08	2800	339.8588	40.92397	-91.39366
5579356	-9	-4	-1	-4.938319	-1.963555	342.6864	0	12.7	0	0	0	5	5	0.02	0.1105307	1	10	0.08	2800	339.8566	40.92397	-91.39366
5579528	-3	-2	-1	-4.939126	-1.95908	342.6856	0	12.7	0	0	0	5	5	0.02	0.1141278	1	10	0.08	2800	340.5163	40.92397	-91.39366
5579604	-8	4	-2	-4.939015	-1.960035	342.6852	0	12.7	0	0	0	5	5	0.02	0.1213996	1	10	0.08	2800	340.0658	40.92397	-91.39366
5579714	-1	-2	0	-4.940211	-1.95988	342.6848	0	12.7	0	0	0	5	5	0.02	0.1253846	1	10	0.08	2800	339.9452	40.92397	-91.39366
5579808	-6	-1	0	-4.941485	-1.959182	342.6842	0	12.7	0	0	0	5	5	0.02	0.1304076	1	10	0.08	2800	339.9931	40.92397	-91.39366
5579933	-7	1	0	-4.940003	-1.961701	342.6836	0	12.7	0	0	0	5	5	0.02	0.1352499	1	10	0.08	2800	340.2408	40.92397	-91.39366
5580054	-7	1	-2	-4.939557	-1.961303	342.6857	0	12.7	0	0	0	5	5	0.02	0.1400005	1	10	0.08	2800	340.4068	40.92397	-91.39366
5580134	-9	2	0	-4.940805	-1.959712	342.6849	0	12.7	0	0	0	5	5	0.02	0.1428057	1	10	0.08	2800	339.8549	40.92397	-91.39366
5580208	-12	6	-4	-4.943153	-1.959691	342.6866	0	12.76	0	0	0	5	5	0.02	0.144701	1	10	0.08	2800	339.8986	40.92397	-91.39366
5580355	-12	0	-1	-4.942978	-1.958545	342.6861	0	12.76	0	0	0	5	5	0.02	0.1465163	1	10	0.08	2800	339.9442	40.92397	-91.39366
5580458	-6	-3	2	-4.940826	-1.960294	342.6865	0	12.76	0	0	0	5	5	0.02	0.1487577	1	10	0.08	2800	340.0601	40.92397	-91.39366
5580568	-2	-1	0	-4.94279	-1.962438	342.6876	0	12.76	0	0	0	5	5	0.02	0.1514444	1	10	0.08	2800	340.3069	40.92397	-91.39366
5580677	-14	0	1	-4.943291	-1.96325	342.6873	0	12.76	0	0	0	5	5	0.02	0.1527081	1	10	0.08	2800	340.3518	40.92397	-91.39366
5580806	-8	4	-5	-4.946263	-1.961962	342.6873	0	12.76	0	0	0	5	5	0.02	0.1548007	1	10	0.08	2800	340.2985	40.92397	-91.39366
5580893	-5	3	0	-4.943977	-1.961286	342.6876	0	12.76	0	0	0	5	5	0.02	0.1593013	1	10	0.08	2800	339.9613	40.92397	-91.39366
5580987	-11	0	-2	-4.943982	-1.959595	342.6873	0	12.76	0	0	0	5	5	0.02	0.1637934	1	10	0.08	2800	340.3527	40.92397	-91.39366
5581086	-4	0	0	-4.941084	-1.956102	342.6872	0	12.76	0	0	0	5	5	0.02	0.1707717	1	10	0.08	2800	339.653	40.92397	-91.39366
5581174	-9	-3	1	-4.940217	-1.959889	342.689	0	12.76	0	0	0	5	5	0.02	0.1890139	1	10	0.08	2800	339.9935	40.92397	-91.39366
5581311	-11	-1	-3	-4.939131	-1.961192	342.6891	0	12.76	0	0	0	5	5	0.02	0.1950602	1	10	0.08	2800	340.0856	40.92397	-91.39366
5581386	-5	-1	1	-4.935642	-1.965706	342.6882	0	12.76	0	0	0	5	5	0.02	0.1903105	1	10	0.08	2800	340.1777	40.92397	-91.39366
5581483	-6	0	3	-4.935498	-1.964881	342.6869	0	12.76	0	0	0	5	5	0.02	0.1861541	1	10	0.08	2800	340.2762	40.92397	-91.39366
5581610	-12	4	0	-4.934171	-1.963848	342.6878	0	12.76	0	0	0	5	5	0.02	0.1822963	1	10	0.08	2800	340.2331	40.92397	-91.39366
5581680	-12	-2	0	-4.934855	-1.959677	342.6884	0	12.76	0	0	0	5	5	0.02	0.186515	1	10	0.08	2800	340.0292	40.92397	-91.39366
5581775	-10	-1	-1	-4.93231	-1.959794	342.6887	0	12.76	0	0	0	5	5	0.02	0.1960165	1	10	0.08	2800	340.2849	40.92397	-91.39366
5581915	-6	3	3	-4.930686	-1.960901	342.6888	0	12.76	0	0	0	5	5	0.02	0.2050788	1	10	0.08	2800	339.8753	40.92397	-91.39366
5581972	-9	4	1	-4.92915	-1.961859	342.6891	0	12.76	0	0	0	5	5	0.02	0.208812	1	10	0.08	2800	339.8753	40.92397	-91.39366
5582139	-7	0	0	-4.931849	-1.962449	342.6884	0	12.76	0	0	0	5	5	0.02	0.2136809	1	10	0.08	2800	340.4254	40.92397	-91.39366
5582177	-12	2	1	-4.93269	-1.960977	342.6883	0	12.76	0	0	0	5	5	0.02	0.2114485	1	10	0.08	2800	340.4254	40.92397	-91.39366
5582287	-10	-5	-1	-4.934826	-1.960575	342.6885	0	12.76	0	0	0	5	5	0.02	0.196896	1	10	0.08	2800	340.1242	40.92397	-91.39366
5582381	-12	-3	2	-4.934622	-1.961484	342.6878	0	12.76	0	0	0	5	5	0.02	0.1910277	1	10	0.08	2800	340.0732	40.92397	-91.39366
5582496	-8	0	-3	-4.932461	-1.960664	342.6882	0	12.76	0	0	0	5	5	0.02	0.1829525	1	10	0.08	2800	340.3733	40.92397	-91.39366
5582653	-12	-1	0	-4.932354	-1.957453	342.6878	0	12.76	0	0	0	5	5	0.02	0.1818342	1	10	0.08	2800	339.6718	40.92397	-91.39366
5582707	-9	1	-2	-4.93326	-1.953788	342.6891	0	12.76	0	0	0	5	5	0.02	0.1812895	1	10	0.08	2800	339.9229	40.92397	-91.39366
5582808	-5	-2	-4	-4.931251	-1.95189	342.6909	0	12.76	0	0	0	5	5	0.02	0.1836695	1	10	0.08	2800	339.8116	40.92397	-91.39366
5582906	-10	4	0	-4.933187	-1.954651	342.6906	0	12.76	0	0	0	5	5	0.02	0.1871284	1	10	0.08	2800	339.7245	40.92397	-91.39366
5583011	-6	2	0	-4.934353	-1.958315	342.6909	0	12.76	0	0	0	5	5	0.02	0.203473	1	10	0.08	2800	340.1685	40.92397	-91.39366
5583101	-9	0	0	-4.936571	-1.959011	342.6903	0	12.76	0	0	0	5	5	0.02	0.2091306	1	10	0.08	2800	339.8201	40.92397	-91.39366
5583217	-7	3	0	-4.940088	-1.959085	342.6892	0	12.76	0	0	0	5	5	0.02	0.2153631	1	10	0.08	2800	339.9573	40.92397	-91.39366
5583334	-9	6	-1	-4.93945	-1.958194	342.6907	0	12.76	0	0	0	5	5	0.02	0.2174149	1	10	0.08	2800	340.11	40.92397	-91.39366
5583437	-10	0	0	-4.941166	-1.956419	342.6911	0	12.76	0	0	0	5	5	0.02	0.220374	1	10	0.08	2800	340.2277	40.92397	-91.39366
5583546	-10	-1	-4	-4.939831	-1.955442	342.6919	0	12.76	0	0	0	5	5	0.02	0.220931	1	10	0.08	2800	339.6125	40.92397	-91.39366
5583624	-8	4	0	-4.942138	-1.958518	342.6918	0	12.76	0	0	0	5	5	0.02	0.2184196	1	10	0.08	2800	339.7433	40.92397	-91.39366
5583744	-9	0	-3	-4.948554	-1.957922	342.6906	0	12.76	0	0	0	5	5	0.02	0.2012312	1	10	0.08	2800	340.0454	40.92397	-91.39366
5583867	-6	1	0	-4.948972	-1.956363	342.69	0	12.76	0	0	0	5	5	0.02	0.2005306	1	10	0.08	2800	340.2727	40.92397	-91.39366
5583953	-9	7	-2	-4.950527	-1.957019	342.6911	0	12.76	0	0	0	5	5	0.02	0.1996143	1	10	0.08	2800	339.587	40.92397	-91.39366
5584036	-11	-4	1	-4.948913	-1.957171	342.6908	0	12.76	0	0	0	5	5	0.02	0.1940414	1	10	0.08	2800	340.1777	40.92397	-91.39366
5584162	-1	1	-4	-4.951128	-1.958505	342.6936	0	12.76	0	0	0	5	5	0.02	0.187252	1	10	0.08	2800	339.9272	40.92397	-91.39366
5584272	-8	4	-2	-4.95075	-1.957235	342.6953	0	12.76	0	0	0	5	5	0.02	0.1844926	1	10	0.08	2800	339.9213	40.92397	-91.39366
5584318	-12	0	-2	-4.951418	-1.955272	342.6963	0	12.76	0	0	0	5	5	0.02	0.1864229	1	10	0.08	2800	340.3812	40.92397	-91.39366
5584418	-6	3	0	-4.951012	-1.955556	342.6964	0	12.76	0	0	0	5	5	0.02	0.1901033	1	10	0.08	2800	340.6345	40.92397	-91.39366
5584555	-8	0	0	-4.950264	-1.959168	342.6961	0	12.76	0	0	0	5	5	0.02	0.1908599	1	10	0.08	2800	340.7096	40.92397	-91.39366
5584611	-5	0	2	-4.949582	-1.959376	342.6961	0	12.76	0	0	0	5	5	0.02	0.1889122	1	10	0.08	2800	340.3825	40.92397	-91.39366
5584749	-4	0	-3	-4.946851	-1.958166	342.6971	0	12.76	0	0	0	5	5	0.02	0.1843783	1	10	0.08	2800	340.0027	40.92397	-91.39366
5584823	-13	-2	1	-4.950629	-1.958068	342.698	0	12.76	0	0	0	5	5	0.02	0.1839626	1	10	0.08	2800	340.2973	40.92397	-91.39366
5584944	-12	4	2	-4.946161	-1.957707	342.701	0	12.76	0	0	0	5	5	0.02	0.1828018	1	10	0.08	2800	340.1836	40.92397	-91.39366
5585050	-10	0	-1	-4.944635	-1.958818	342.7014	0	12.76	0	0	0	5	5	0.02	0.1841377	1	10	0.08	2800	340.0304	40.92397	-91.39366
5585151	-10	4	-2	-4.944698	-1.957534	342.7024	0	12.76	0	0	0	5	5	0.02	0.1853739	1	10	0.08	2800	339.8979	40.92397	-91.39366
5585216	-11	8	-2	-4.9458	-1.956327	342.7036	0	12.76	0	0	0	5	5	0.02	0.1869953	1	10	0.08	2800	339.5998	40.92397	-91.39366
5585345	-10	-3	2	-4.944326	-1.957906	342.7041	0	12.76	0	0	0	5	5	0.02	0.188124	1	10	0.08	2800	340.0548	40.92397	-91.39366
5585417	-10	5	-2	-4.944264	-1.957315	342.7036	0	12.76	0	0	0	5	5	0.02	0.1858997	1	10	0.08	2800	340.4724	40.92397	-91.39366
5585511	-6	2	-4	-4.940754	-1.956432	342.7027	0	12.76	0	0	0	5	5	0.02	0.167159	1	10	0.08	2800	339.7178	40.92397	-91.39366
5585624	-7	8	-3	-4.93695	-1.955921	342.7048	0	12.76	0	0	0	5	5	0.02	0.1554406	1	10	0.08	2800	340.0279	40.92397	-91.39366
5585753	-5	-1	0	-4.937095	-1.956353	342.7034	0	12.76	0	0	0	5	5	0.02	0.1378207	1	10	0.08	2800	340.0252	40.92397	-91.39366
5585892	-6	0	5	-4.935843	-1.959899	342.7041	0	12.76	0	0	0	5	5	0.02	0.1216329	3	10	0.08	2800	339.7984	40.92397	-91.39366
5585999	-9	-3	-2	-4.935592	-1.958936	342.7022	0	12.76	0	0	0	5	5	0.02	0.109712	3	10	0.08	2800	340.0286	40.92397	-91.39366
5586071	-10	0	3	-4.934547	-1.958802	342.7024	0	12.76	0	0	0	5	5	0.02	0.1062704	3	10	0.08	2800	339.9621	40.92397	-91.39366
5586146	-6	-2	-2	-4.935462	-1.955351	342.7044	0	12.76	0	0	0	5	5	0.02	0.1019106	3	10	0.08	2800	339.6196	40.92397	-91.39366
5586211	-9	2	4	-4.933477	-1.955274	342.7044	0	12.76	0	0	0	5	5	0.02	0.09322488	3	10	0.08	2800	339.6196	40.92397	-91.39366
5586321	-13	2	-5	-4.933515	-1.955591	342.7061	0	12.76	0	0	0	5	5	0.02	0.08964232	3	10	0.08	2800	340.5869	40.92397	-91.39366
5586439	-11	2	-2	-4.932881	-1.955798	342.7067	0	12.76	0	0	0	5	5	0.02	0.07701913	3	10	0.08	2800	339.9269	40.92397	-91.39366
5586515	-9	5	-1	-4.932061	-1.955683	342.7068	0	12.76	0	0	0	5	5	0.02	0.06870121	3	10	0.08	2800	339.9673	40.92397	-91.39366
5586643	-16	0	7	-4.932095	-1.955958	342.705	0	12.76	0	0	0	5	5	0.02	0.06036984	3	10	0.08	2800	339.7235	40.92397	-91.39366
5586756	-8	8	6	-4.931659	-1.958996	342.7069	0	12.76	0	0	0	5	5	0.02	0.05987008	3	10	0.08	2800	339.9268	40.92397	-91.39366
5586812	-10	2	3	-4.930289	-1.958665	342.7059	0	12.76	0	0	0	5	5	0.02	0.05995355	3	10	0.08	2800	339.8297	40.92397	-91.39366
5586957	-11	-4	0	-4.931798	-1.957029	342.7073	0	12.76	0	0	0	5	5	0.02	0.06140082	3	10	0.08	2800	340.3055	40.92397	-91.39366
5587108	-6	-2	-3	-4.933745	-1.95584	342.708	0	12.76	0	0	0	5	5	0.02	0.07185584	3	10	0.08	2800	340.0582	40.92397	-91.39366
5587160	-5	-2	-3	-4.933648	-1.95256	342.7079	0	12.76	0	0	0	5	5	0.02	0.08212778	3	10	0.08	2800	340.0586	40.92397	-91.39366
5587252	-5	1	-1	-4.933178	-1.952729	342.7077	0	12.76	0	0	0	5	5	0.02	0.103701	3	10	0.08	2800	340.4941	40.92397	-91.39366
5587355	-8	3	1	-4.93224	-1.951158	342.7042	0	12.76	0	0	0	5	5	0.02	0.1218534	3	10	0.08	2800	340.0621	40.92397	-91.39366
5587428	-8	0	3	-4.932686	-1.949988	342.7033	0	12.76	0	0	0	5	5	0.02	0.1353019	3	10	0.08	2800	339.9746	40.92397	-91.39366
5587534	-4	0	1	-4.933481	-1.950474	342.7035	0	12.82	0	0	0	5	5	0.02	0.1516366	3	10	0.08	2800	340.2645	40.92397	-91.39366
5587683	-7	-1	0	-4.932259	-1.951544	342.7039	0	12.82	0	0	0	5	5	0.02	0.1675174	3	10	0.08	2800	339.8361	40.92397	-91.39366
5587796	-6	4	5	-4.935541	-1.952187	342.7056	0	12.82	0	0	0	5	5	0.02	0.1713193	3	10	0.08	2800	340.1774	40.92397	-91.39366
5587905	-12	5	-1	-4.934075	-1.952196	342.7069	0	12.82	0	0	0	5	5	0.02	0.1704255	3	10	0.08	2800	339.8781	40.92397	-91.39366
5587916	-8	-2	0	-4.934845	-1.953367	342.707	0	12.82	0	0	0	5	5	0.02	0.1704255	3	10	0.08	2800	339.9666	40.92397	-91.39366
5588085	-5	0	-4	-4.935605	-1.952337	342.7068	0	12.82	0	0	0	5	5	0.02	0.1730798	3	10	0.08	2800	339.9146	40.92397	-91.39366
5588185	-2	0	1	-4.933935	-1.953865	342.7083	0	12.82	0	0	0	5	5	0.02	0.1695366	3	10	0.08	2800	340.0768	40.92397	-91.39366
5588226	-10	-5	-2	-4.933404	-1.952765	342.7089	0	12.82	0	0	0	5	5	0.02	0.1683803	3	10	0.08	2800	339.8305	40.92397	-91.39366
5588380	-11	-1	-2	-4.938586	-1.95662	342.7111	0	12.82	0	0	0	5	5	0.02	0.1715615	3	10	0.08	2800	340.1901	40.92397	-91.39366
5588461	-8	-2	-3	-4.939612	-1.956817	342.7111	0	12.7	0	0	0	5	5	0.02	0.1758872	3	10	0.08	2800	339.8172	40.92397	-91.39366
5588598	-7	2	2	-4.936817	-1.959317	342.7112	0	12.7	0	0	0	5	5	0.02	0.1666727	3	10	0.08	2800	340.2327	40.92397	-91.39366
5588647	-12	-4	0	-4.939357	-1.96037	342.7097	0	12.7	0	0	0	5	5	0.02	0.1639741	3	10	0.08	2800	340.07	40.92397	-91.39366
