time(ms)	gyro_x(deg/s)	gyro_y(deg/s)	gyro_z(deg/s)	orientation_roll(deg)	orientation_pitch(deg)	orientation_yaw(deg)	throttle	battery(V)	loop_time(uS)	pid_output_roll	pid_output_pitch	pid_output_yaw	pid_output_throttle	ultrasonic_alt	baro_alt	flight_mode	p_gain_altitude	i_gain_altitude	d_gain_altitude	compass_heading	latitude	longitude
5895134	143	22	-674	-1.164235	-1.792237	350.0762	0	11.23	23906	12	-32	5	5	0.02	2.164819	8	10	0.08	2800	347.0566	40.92392	-91.39365
5895268	-994	-1099	481	-1.597195	-0.8057426	349.7083	0	11.23	23736	8	-26	5	5	0.02	2.184669	8	10	0.08	2800	345.1276	40.92392	-91.39365
5895361	2055	2014	-512	-0.05222149	-2.162177	349.8031	0	11.23	23711	7	-26	5	5	0.02	2.201254	8	10	0.08	2800	344.0293	40.92392	-91.39365
5895439	-1350	928	1246	0.1416167	-3.742407	349.195	0	11.23	24379	7	-26	5	5	0.02	2.217138	8	10	0.08	2800	346.3535	40.92392	-91.39365
5895580	2342	-257	-656	-1.492954	-3.120019	348.6924	0	11.17	23734	4	-27	5	5	0.02	2.245722	8	10	0.08	2800	343.7145	40.92392	-91.39365
5895671	386	-759	-702	0.3507732	-1.820495	348.4485	0	11.17	23117	4	-28	5	5	0.02	2.261107	8	10	0.08	2800	341.4358	40.92392	-91.39365
5895766	-326	0	-429	-0.738887	-0.8965486	347.6978	0	11.17	23756	12	-30	5	5	0.02	2.26763	8	10	0.08	2800	339.5644	40.92392	-91.39365
5895931	1316	717	122	-1.158673	-1.735808	346.9756	0	11.17	23750	18	-31	5	5	0.02	2.269208	8	10	0.08	2800	337.3993	40.92392	-91.39365
5896003	1470	680	215	0.1175936	-2.515851	347.0045	0	11.17	23921	4	-43	5	5	0.02	2.264282	8	10	0.08	2800	338.0203	40.92392	-91.39365
5896105	398	287	214	0.6993275	-2.911245	347.1706	0	11.17	23713	1	-51	5	5	0.02	2.26308	8	10	0.08	2800	341.7185	40.92392	-91.39365
5896126	398	287	214	0.6993275	-2.911245	347.1706	0	11.17	23713	1	-51	5	5	0.02	2.26308	8	10	0.08	2800	341.7185	40.92392	-91.39365
5896232	-9	-56	-194	-0.4508123	-2.947818	347.0225	0	11.17	23910	20	-32	5	5	0.02	2.267542	8	10	0.08	2800	339.9935	40.92392	-91.39365
5896343	15	1011	-262	-1.103029	-2.974711	347.0034	0	11.17	23923	25	-49	5	5	0.02	2.282993	8	10	0.08	2800	337.8522	40.92392	-91.39365
5896435	-1636	-490	-25	-1.970334	-3.199062	346.9533	0	11.23	23753	28	-53	5	5	0.02	2.29095	8	10	0.08	2800	339.058	40.92392	-91.39365
5896580	-14	-113	-688	-2.933789	-3.034412	347.2758	0	11.23	23914	37	-39	5	5	0.02	2.301028	8	10	0.08	2800	337.7041	40.92392	-91.39365
5896770	1247	-247	-706	-3.463121	-2.281423	348.6031	0	11.23	23896	51	-63	5	5	0.02	2.31067	8	10	0.08	2800	343.2313	40.92392	-91.39365
5896949	-1775	1020	-780	-4.208279	-4.362903	349.5518	0	11.23	23149	50	-43	5	5	0.02	2.324367	8	10	0.08	2800	345.4198	40.92392	-91.39365
5896982	-425	592	-667	-4.778719	-4.559372	349.7115	0	11.23	23945	50	-41	5	5	0.02	2.325506	8	10	0.08	2800	345.4198	40.92392	-91.39365
5897133	-1447	146	-793	-2.249878	-3.893366	350.7403	0	11.23	23760	68	-48	5	5	0.02	2.329953	8	10	0.08	2800	349.7196	40.92392	-91.39365
5897242	-260	-614	-131	-6.085646	-2.920595	350.9931	0	11.23	24543	70	-47	5	5	0.02	2.328133	8	10	0.08	2800	346.5151	40.92392	-91.39365
5897327	1687	163	-75	-3.552048	-2.607421	351.854	0	11.23	24381	64	-46	5	5	0.02	2.324707	8	10	0.08	2800	348.1034	40.92392	-91.39365
5897449	-3496	-481	-537	-4.322589	-3.030323	352.2358	0	11.4	23880	68	-39	5	5	0.02	2.324582	8	10	0.08	2800	349.598	40.92392	-91.39365
5897506	-1678	1117	-678	-5.784479	-3.113163	352.3531	0	11.4	23752	69	-48	5	5	0.02	2.324664	8	10	0.08	2800	349.598	40.92392	-91.39365
5897605	1587	-592	14	-5.952229	-2.958494	353.0019	0	11.4	24540	72	-48	5	5	0.02	2.324785	8	10	0.08	2800	352.5074	40.92392	-91.39365
5897748	-78	-197	396	-2.944965	-3.766152	353.0266	0	11.4	23765	76	-31	5	5	0.02	2.326903	8	10	0.08	2800	354.5151	40.92392	-91.39365
5897873	487	1522	65	-4.867342	-3.464108	352.7026	0	11.4	23756	78	-28	5	5	0.02	2.328481	8	10	0.08	2800	350.1228	40.92392	-91.39365
5898055	-431	-1139	1616	-7.356001	-2.686271	350.4671	0	11.4	23919	63	-30	5	5	0.02	2.331776	8	10	0.08	2800	349.7335	40.92392	-91.39365
5898142	3087	1231	197	-5.302275	-3.074	349.3541	0	11.4	23733	60	-31	5	5	0.02	2.331812	8	10	0.08	2800	348.0924	40.92392	-91.39365
5898224	1716	22	992	-2.505395	-4.175932	348.9904	0	11.4	23108	66	-43	5	5	0.02	2.330284	8	10	0.08	2800	349.5988	40.92392	-91.39365
5898387	2354	-1354	220	-1.868993	0.5818354	348.06	0	11.11	23888	0	0	5	5	0.02	2.330148	3	10	0.08	2800	344.5552	40.92392	-91.39365
5898410	2354	-1354	220	-1.868993	0.5818354	348.06	0	11.11	23888	0	0	5	5	0.02	2.331792	3	10	0.08	2800	344.5552	40.92392	-91.39365
5898543	-547	1197	256	-0.02561827	-1.326224	347.1702	0	11.11	23888	0	0	5	5	0.02	2.33907	3	10	0.08	2800	342.5861	40.92392	-91.39365
5898665	-3193	-1405	-358	-4.299259	-0.5448421	346.6244	0	11.11	23888	0	0	5	5	0.02	2.353959	3	10	0.08	2800	337.3042	40.92392	-91.39365
5898772	2902	-157	-114	-4.384998	1.801854	334.1889	0	11.11	23888	0	0	5	5	0.02	2.362412	3	10	0.08	2800	334.0352	40.92392	-91.39365
5898943	-90	572	441	-1.737569	0.2260862	334.2054	0	11.11	23888	0	0	5	5	0.02	2.385786	3	10	0.08	2800	332.2872	40.92392	-91.39365
5899036	34	-1807	-257	-4.0071	1.178146	334.2686	0	11.11	23888	0	0	5	5	0.02	2.39828	3	10	0.08	2800	335.9801	40.92392	-91.39365
5899147	760	-105	405	-1.932941	2.969609	334.4348	0	11.11	23888	0	0	5	5	0.02	2.403466	3	10	0.08	2800	334.3513	40.92392	-91.39365
5899268	-231	2263	67	-4.998982	-1.583311	334.8035	0	11.11	23888	0	0	5	5	0.02	2.400574	3	10	0.08	2800	334.989	40.92392	-91.39365
5899361	1007	-96	-1113	-4.276214	-2.864318	335.8479	0	11.11	23888	0	0	5	5	0.02	2.379831	3	10	0.08	2800	339.4514	40.92392	-91.39365
5899476	-2110	-1444	-176	-6.869004	0.3995696	336.9425	0	11.11	23888	0	0	5	5	0.02	2.362674	3	10	0.08	2800	339.9382	40.92392	-91.39365
5899540	1281	326	-385	-7.984194	1.363585	338.3067	0	11.11	23888	0	0	5	5	0.02	2.346847	3	10	0.08	2800	341.7955	40.92392	-91.39365
5899671	703	451	-183	-5.714626	0.04704485	339.4449	0	11.11	23888	0	0	5	5	0.02	2.287336	3	10	0.08	2800	345.7055	40.92392	-91.39365
5899864	53	1338	-319	-5.105933	-1.303741	340.149	0	11.11	23888	0	0	5	5	0.02	2.207083	3	10	0.08	2800	348.824	40.92392	-91.39365
5899883	53	1338	-319	-5.105933	-1.303741	340.149	0	11.11	23888	0	0	5	5	0.02	2.207083	3	10	0.08	2800	348.824	40.92392	-91.39365
5899972	311	-121	-84	-6.083068	-1.658108	353.2126	0	11.11	23888	0	0	5	5	0.02	2.174438	3	10	0.08	2800	353.2126	40.92392	-91.39365
5900067	-445	383	-482	-6.466046	-1.167713	353.5197	0	11.11	23888	0	0	5	5	0.02	2.113474	3	10	0.08	2800	353.2789	40.92392	-91.39365
5900230	-2062	-1479	-199	-7.790505	0.748017	353.7948	0	10.94	23888	0	0	5	5	0.02	2.031995	3	10	0.08	2800	355.6251	40.92392	-91.39365
5900367	2887	769	562	-7.141555	-0.05535736	352.472	0	10.94	23888	0	0	5	5	0.02	1.919577	3	10	0.08	2800	352.5836	40.92392	-91.39365
5900412	1786	-113	838	-5.575996	-0.4601049	352.0095	0	10.94	23888	0	0	5	5	0.02	1.903986	3	10	0.08	2800	356.0923	40.92392	-91.39365
5900518	2835	2641	-230	-0.2116732	-2.026989	351.7304	0	10.94	23888	0	0	5	5	0.02	1.816151	3	10	0.08	2800	356.5392	40.92392	-91.39365
5900566	696	3699	-1440	0.2906025	-3.460502	352.0201	0	10.94	23888	0	0	5	5	0.02	1.788869	3	10	0.08	2800	1.163727	40.92392	-91.39365
5900623	-1975	2099	-766	-3.48791	-9.128857	2.799088	0	10.94	23888	0	0	5	5	0.02	1.737475	3	10	0.08	2800	2.535248	40.92392	-91.39365
5900655	73	705	-881	-4.593848	-9.598342	3.275105	0	10.94	23888	0	0	5	5	0.02	1.69159	3	10	0.08	2800	7.492981	40.92392	-91.39365
5900756	-459	1306	354	-7.406153	-10.50516	14.44495	0	10.94	23888	0	0	5	5	0.02	1.623858	3	10	0.08	2800	14.54956	40.92392	-91.39365
5900790	78	470	481	-7.701326	-11.49598	14.08415	0	10.94	23888	0	0	5	5	0.02	1.581763	3	10	0.08	2800	12.76016	40.92392	-91.39365
5900875	1300	-1111	-1287	-6.504842	-10.52118	14.26519	0	10.94	23888	0	0	5	5	0.02	1.545521	3	10	0.08	2800	13.10083	40.92392	-91.39365
5900969	-325	-1637	218	-7.467655	-3.393222	12.86866	0	11.11	23888	0	0	5	5	0.02	1.506127	3	10	0.08	2800	3.974274	40.92392	-91.39365
5901006	550	-2492	548	-7.53303	-2.342848	12.76891	0	11.11	23888	0	0	5	5	0.02	1.496324	3	10	0.08	2800	3.974274	40.92392	-91.39365
5901147	1294	992	177	-4.036639	-1.50913	358.8598	0	11.11	23888	0	0	5	5	0.02	1.472188	3	10	0.08	2800	359.2267	40.92392	-91.39365
5901237	1084	-443	887	-3.578073	-1.66677	358.7152	0	11.11	23888	0	0	5	5	0.02	1.461881	3	10	0.08	2800	359.0135	40.92392	-91.39365
5901441	-410	503	1030	-4.080928	0.04838953	358.4004	0	11.11	23888	0	0	5	5	0.02	1.421326	3	10	0.08	2800	356.8683	40.92392	-91.39365
5901626	1372	111	-134	-0.9248075	-0.5013136	359.082	0	11.11	23888	0	0	5	5	0.02	1.386354	3	10	0.08	2800	357.6252	40.92393	-91.39365
5901681	659	770	-878	0.1970573	-0.8604463	359.4498	0	11.11	23888	0	0	5	5	0.02	1.372048	3	10	0.08	2800	356.6615	40.92393	-91.39365
5901757	-104	-563	573	0.3105075	-0.9479862	359.4316	0	10.72	23888	0	0	5	5	0.02	1.36243	3	10	0.08	2800	359.0877	40.92393	-91.39365
5901857	558	-22	135	-4.035244	-0.02427139	359.2595	0	10.72	23888	0	0	5	5	0.02	1.351069	3	10	0.08	2800	355.2134	40.92393	-91.39365
5901935	2787	1729	-105	-1.647469	-1.173351	359.6635	0	10.72	23888	0	0	5	5	0.02	1.341667	3	10	0.08	2800	355.1081	40.92393	-91.39365
5902133	202	-386	-4	-0.2461085	-1.392891	0.5713047	0	10.72	23888	0	0	5	5	0.02	1.303483	3	10	0.08	2800	355.8474	40.92393	-91.39366
5902188	1308	99	359	0.1737569	-1.595819	0.5701672	0	10.72	23888	0	0	5	5	0.02	1.292412	3	10	0.08	2800	355.8474	40.92393	-91.39366
5902244	-645	203	753	0.07863609	-2.717379	359.7026	0	10.72	23888	0	0	5	5	0.02	1.288716	3	10	0.08	2800	354.0682	40.92393	-91.39366
5902338	-1155	1030	749	-1.870803	-3.032741	357.9039	0	10.72	23888	0	0	5	5	0.02	1.270126	3	10	0.08	2800	352.3722	40.92393	-91.39366
5902478	1783	-10	617	0.471314	-6.28882	355.6823	0	10.72	23888	0	0	5	5	0.02	1.256421	3	10	0.08	2800	348.9862	40.92393	-91.39366
5902562	-180	-1243	-136	1.088401	-5.117362	354.7686	0	10.72	23888	0	0	5	5	0.02	1.247616	3	10	0.08	2800	349.075	40.92394	-91.39366
5902723	-751	262	-6	0.3326933	-2.496891	343.3915	0	11.06	23888	0	0	5	5	0.02	1.239457	3	10	0.08	2800	339.1963	40.92394	-91.39366
5902794	-910	-122	91	-0.2269053	-2.320812	343.3979	0	11.06	23888	0	0	5	5	0.02	1.23957	3	10	0.08	2800	339.0351	40.92394	-91.39366
5902877	-1363	-1400	-676	-2.225974	-0.5785125	343.4778	0	11.06	23888	0	0	5	5	0.02	1.240721	3	10	0.08	2800	338.7451	40.92394	-91.39366
5903012	-3382	-2323	421	-9.349771	5.902394	332.3108	0	11.06	23888	0	0	5	5	0.02	1.231525	3	10	0.08	2800	332.3734	40.92394	-91.39366
5903079	-261	-693	-698	-12.62659	7.353753	332.4329	0	11.06	23888	0	0	5	5	0.02	1.229966	3	10	0.08	2800	326.0876	40.92394	-91.39366
5903154	3022	2128	-915	-10.12615	6.365098	332.9452	0	11.06	23888	0	0	5	5	0.02	1.2263	3	10	0.08	2800	328.0116	40.92395	-91.39366
5903250	2102	1904	-27	-6.922122	4.013475	333.6618	0	11.06	23888	0	0	5	5	0.02	1.228588	3	10	0.08	2800	330.5929	40.92395	-91.39366
5903361	1044	247	-774	-3.731508	1.294584	334.9279	0	11.06	23888	0	0	5	5	0.02	1.233202	3	10	0.08	2800	336.1457	40.92395	-91.39367
5903462	101	979	-1211	-2.941503	0.3303023	335.688	0	11.06	23888	0	0	5	5	0.02	1.232494	3	10	0.08	2800	338.6234	40.92395	-91.39367
5903591	-598	-361	-161	-1.767853	0.9669048	336.9493	0	11.06	23888	0	0	5	5	0.02	1.22764	3	10	0.08	2800	339.1577	40.92395	-91.39367
5903660	-1451	-399	-192	-3.145516	1.002388	336.9696	0	11.06	23888	0	0	5	5	0.02	1.218506	3	10	0.08	2800	340.1576	40.92395	-91.39367
5903777	1797	569	498	-3.094251	0.7298833	337.3108	0	11.06	23888	0	0	5	5	0.02	1.207049	3	10	0.08	2800	338.0414	40.92395	-91.39367
5903868	1240	387	-1005	-2.024369	-0.5513366	337.7058	0	11.06	23888	0	0	5	5	0.02	1.191382	3	10	0.08	2800	338.8057	40.92395	-91.39367
5903956	-1315	-641	1020	-1.789086	-0.4172453	337.6867	0	11.06	23888	0	0	5	5	0.02	1.178681	3	10	0.08	2800	337.1188	40.92395	-91.39367
5904104	-198	338	979	-1.990064	-1.69007	337.463	0	11.06	23888	0	0	5	5	0.02	1.154237	3	10	0.08	2800	339.5044	40.92395	-91.39367
5904204	-1260	-552	103	-2.653271	-1.793017	337.1287	0	11.06	23888	0	0	5	5	0.02	1.130664	3	10	0.08	2800	339.5044	40.92395	-91.39367
5904288	1586	2088	1180	-3.017311	-2.83917	336.1911	0	11.06	23888	0	0	5	5	0.02	1.099622	3	10	0.08	2800	334.8749	40.92395	-91.39367
5904355	241	3491	253	-1.742706	-6.111135	335.6227	0	11.06	23888	0	0	5	5	0.02	1.077	3	10	0.08	2800	339.5403	40.92395	-91.39367
5904546	1180	-2055	-82	-2.520555	-4.895862	343.5405	0	11.29	23888	0	0	5	5	0.02	1.023799	3	10	0.08	2800	339.3116	40.92395	-91.39367
5904566	1180	-2055	-82	-2.520555	-4.895862	343.5405	0	11.29	23888	0	0	5	5	0.02	1.01605	3	10	0.08	2800	339.3116	40.92395	-91.39367
5904673	-1689	-419	1017	-1.400638	-2.477717	343.0122	0	11.29	23888	0	0	5	5	0.02	0.9806289	3	10	0.08	2800	333.7798	40.92395	-91.39367
5904798	1734	-838	-360	-2.690935	-0.2734932	328.4109	0	11.29	23888	0	0	5	5	0.02	0.9568585	3	10	0.08	2800	329.2561	40.92395	-91.39367
5904876	329	-315	893	-0.5714794	0.5200745	327.3118	0	11.29	23888	0	0	5	5	0.02	0.9311854	3	10	0.08	2800	327.2716	40.92395	-91.39367
5905022	-1942	857	401	0.7632199	-0.5950216	326.4701	0	11.29	23888	0	0	5	5	0.02	0.8917968	3	10	0.08	2800	323.7272	40.92395	-91.39367
5905104	-302	-1035	654	-2.866701	-1.193738	325.4845	0	11.29	23888	0	0	5	5	0.02	0.8665681	3	10	0.08	2800	322.8465	40.92395	-91.39367
5905205	923	109	-195	-2.779198	-0.5212992	325.0749	0	11.29	23888	0	0	5	5	0.02	0.8481698	3	10	0.08	2800	320.014	40.92395	-91.39367
5905304	-225	816	-659	-1.7417	-2.39219	325.1548	0	11.29	23888	0	0	5	5	0.02	0.8256688	3	10	0.08	2800	319.4597	40.92395	-91.39367
5905417	-973	471	-539	-2.288733	-3.054667	325.6487	0	11.29	23888	0	0	5	5	0.02	0.8080691	3	10	0.08	2800	317.9823	40.92395	-91.39367
5905506	-719	2623	-9	-2.140455	-6.78797	325.8927	0	11.17	23888	0	0	5	5	0.02	0.7935715	3	10	0.08	2800	321.7574	40.92395	-91.39367
5905588	-1000	1627	659	-2.846454	-10.15178	325.4055	0	11.17	23888	0	0	5	5	0.02	0.7805029	3	10	0.08	2800	327.3979	40.92395	-91.39367
5905750	-2283	-322	-945	-1.41817	-10.1233	326.0669	0	11.17	23888	0	0	5	5	0.02	0.7432089	3	10	0.08	2800	333.4249	40.92395	-91.39367
5905797	3167	-292	-1718	-1.541611	-9.135713	327.6519	0	11.17	23888	0	0	5	5	0.02	0.7297875	3	10	0.08	2800	334.2209	40.92395	-91.39367
5905885	1879	-1559	-2415	0.8974778	-7.659528	329.8939	0	11.17	23888	0	0	5	5	0.02	0.7163326	3	10	0.08	2800	334.0141	40.92395	-91.39367
5906028	-1343	-2768	-2347	-3.66849	-1.702332	334.2816	0	11.17	23888	0	0	5	5	0.02	0.693241	3	10	0.08	2800	339.5884	40.92395	-91.39367
5906100	2744	-2208	-1655	-3.049413	1.201439	336.5774	0	11.17	23888	0	0	5	5	0.02	0.6712975	3	10	0.08	2800	339.5884	40.92395	-91.39367
5906211	-3172	-700	-530	-1.488966	5.27156	339.5755	0	11.17	23888	0	0	5	5	0.02	0.6453282	3	10	0.08	2800	343.3799	40.92395	-91.39367
5906303	1403	3059	-313	-2.744618	3.156715	341.6264	0	11.17	23888	0	0	5	5	0.02	0.6262087	3	10	0.08	2800	345.772	40.92395	-91.39366
5906426	-1746	160	-1090	-5.653824	-1.825076	343.3533	0	11.17	23888	0	0	5	5	0.02	0.5905473	3	10	0.08	2800	352.6083	40.92395	-91.39366
5906497	-3360	-2360	734	-7.917208	0.06383047	353.5952	0	11.17	23888	0	0	5	5	0.02	0.564992	3	10	0.08	2800	353.6194	40.92396	-91.39366
5906618	-1484	-38	-5	-12.91184	2.73519	353.4406	0	11.17	23888	0	0	5	5	0.02	0.5425503	3	10	0.08	2800	352.3775	40.92396	-91.39366
5906729	954	2376	-384	-14.23611	-0.01190939	352.9032	0	11.17	23888	0	0	5	5	0.02	0.5096948	3	10	0.08	2800	355.5837	40.92396	-91.39366
5906748	-652	227	113	-13.8054	-1.149613	3.814928	0	11.17	23888	0	0	5	5	0.02	0.4801823	3	10	0.08	2800	4.103027	40.92396	-91.39366
5906769	3461	-934	-152	-8.413001	-1.067391	2.055249	0	11.17	23888	0	0	5	5	0.02	0.4394177	3	10	0.08	2800	359.6196	40.92396	-91.39366
5906788	-150	190	775	-5.29902	-1.406675	0.1574237	0	11.17	23888	0	0	5	5	0.02	0.4278946	3	10	0.08	2800	358.4076	40.92396	-91.39366
5906972	743	75	549	-5.787115	1.1194	357.9409	0	10.94	23888	0	0	5	5	0.02	0.4086024	3	10	0.08	2800	352.9054	40.92396	-91.39366
5907054	121	3295	-323	-6.373886	-1.507111	357.5884	0	10.94	23888	0	0	5	5	0.02	0.3919064	3	10	0.08	2800	350.9202	40.92396	-91.39366
5907089	1318	4720	511	-5.58927	-3.922645	357.522	0	10.94	23888	0	0	5	5	0.02	0.386111	3	10	0.08	2800	354.8888	40.92396	-91.39366
5907145	475	3710	1059	-4.89177	-9.132199	357.064	0	10.94	23888	0	0	5	5	0.02	0.3836403	3	10	0.08	2800	3.116852	40.92396	-91.39366
5907331	-232	-437	611	-6.670282	-10.65846	355.9268	0	10.94	23888	0	0	5	5	0.02	0.363695	3	10	0.08	2800	5.107147	40.92395	-91.39366
5907399	1971	-4420	706	-5.031509	-6.316035	6.893957	0	10.94	23888	0	0	5	5	0.02	0.3627236	3	10	0.08	2800	359.5323	40.92395	-91.39366
5907473	2133	-3547	35	-3.063348	-1.240487	353.1386	0	10.94	23888	0	0	5	5	0.02	0.3629775	3	10	0.08	2800	353.1407	40.92395	-91.39366
5907595	1243	1755	9	-2.056587	-1.453485	352.3892	0	10.94	23888	0	0	5	5	0.02	0.3641208	3	10	0.08	2800	347.434	40.92395	-91.39367
5907733	179	3555	-301	-0.9428384	-4.108319	352.641	0	10.94	23888	0	0	5	5	0.02	0.3595904	3	10	0.08	2800	348.0218	40.92395	-91.39367
5907789	554	3032	351	-0.8235351	-7.735271	352.566	0	10.94	23888	0	0	5	5	0.02	0.360082	3	10	0.08	2800	351.1994	40.92396	-91.39367
5907860	-674	-1113	-686	-1.531148	-8.761072	352.1388	0	11.11	23888	0	0	5	5	0.02	0.3653809	3	10	0.08	2800	354.1831	40.92396	-91.39367
5907968	542	659	-285	-0.7318475	-6.668352	351.6043	0	11.11	23888	0	0	5	5	0.02	0.3747257	3	10	0.08	2800	350.9494	40.92396	-91.39367
5908057	2598	-393	-310	0.0857089	-6.910822	351.5593	0	11.11	23888	0	0	5	5	0.02	0.3857579	3	10	0.08	2800	350.1586	40.92396	-91.39367
5908134	-128	-3208	-1792	0.6315652	-2.887919	352.6075	0	11.11	23888	0	0	5	5	0.02	0.3997837	3	10	0.08	2800	350.7254	40.92396	-91.39367
5908275	-303	1	-842	-0.3703199	0.4641329	343.9011	0	11.11	23888	0	0	5	5	0.02	0.4023194	3	10	0.08	2800	342.7353	40.92396	-91.39368
5908357	-765	-577	-1233	-0.9286658	0.5999209	345.164	0	11.11	23888	0	0	5	5	0.02	0.4002632	3	10	0.08	2800	348.4717	40.92396	-91.39368
5908476	-234	105	-1151	-2.744837	1.63008	346.9362	0	11.11	23888	0	0	5	5	0.02	0.3978612	3	10	0.08	2800	347.2361	40.92396	-91.39368
5908576	-313	-1486	-423	-0.5580377	0.7039825	349.5653	0	11.11	23888	0	0	5	5	0.02	0.3971641	3	10	0.08	2800	355.5714	40.92396	-91.39368
5908694	546	94	-782	-5.356206	2.752831	351.0553	0	11.11	23888	0	0	5	5	0.02	0.3948193	3	10	0.08	2800	352.0244	40.92396	-91.39368
5908751	2918	1396	-1432	-4.206183	2.302651	351.5812	0	11.11	23888	0	0	5	5	0.02	0.3933447	3	10	0.08	2800	352.0244	40.92396	-91.39368
5908839	-817	1190	-164	-1.844814	-0.59348	352.3701	0	11	23888	0	0	5	5	0.02	0.3829198	3	10	0.08	2800	355.3758	40.92396	-91.39368
5908949	646	-952	325	-0.4326382	-1.245029	353.6274	0	11	23888	0	0	5	5	0.02	0.3741091	3	10	0.08	2800	2.241608	40.92396	-91.39368
5909040	-2725	-418	444	-1.945193	-0.8747953	353.7688	0	11	23888	0	0	5	5	0.02	0.3686635	3	10	0.08	2800	2.436554	40.92396	-91.39368
5909195	3240	735	920	-2.607001	-2.375598	353.6362	0	11	23888	0	0	5	5	0.02	0.3615986	3	10	0.08	2800	0.3502502	40.92396	-91.39368
5909242	3314	826	559	-0.8644516	-2.998406	353.613	0	11	23888	0	0	5	5	0.02	0.357396	3	10	0.08	2800	0.3502502	40.92396	-91.39368
5909358	-3061	-1736	1109	-1.793777	-0.1403107	351.6659	0	11	23888	0	0	5	5	0.02	0.3395491	3	10	0.08	2800	351.5305	40.92396	-91.39368
5909450	776	-318	1366	-2.464731	0.1272784	350.5397	0	11	23888	0	0	5	5	0.02	0.328313	3	10	0.08	2800	345.5764	40.92396	-91.39368
5909621	396	-15	1201	-0.4347578	1.078538	347.342	0	11	23888	0	0	5	5	0.02	0.2998783	3	10	0.08	2800	340.8798	40.92396	-91.39368
5909667	-292	-173	1345	-0.5482116	0.7141925	335.3745	0	11	23888	0	0	5	5	0.02	0.2947994	3	10	0.08	2800	335.6301	40.92396	-91.39368
5909790	-3634	13	-71	-8.612584	1.417619	333.3328	0	11.23	23888	0	0	5	5	0.02	0.2873534	3	10	0.08	2800	328.4437	40.92396	-91.39368
5909865	-3371	-814	108	-12.14456	1.420979	332.5618	0	11.23	23888	0	0	5	5	0.02	0.2760051	3	10	0.08	2800	328.7703	40.92396	-91.39368
5909952	-2042	-1849	1359	-14.51247	2.465849	331.7709	0	11.23	23888	0	0	5	5	0.02	0.273583	3	10	0.08	2800	328.4456	40.92396	-91.39368
5910133	3615	-141	1589	-9.21198	-0.6312965	329.1757	0	11.23	23888	0	0	5	5	0.02	0.2684411	3	10	0.08	2800	327.1383	40.92396	-91.39368
5910215	3462	-973	332	-4.486537	-0.05590525	328.1125	0	11.23	23888	0	0	5	5	0.02	0.262184	3	10	0.08	2800	327.499	40.92396	-91.39368
5910348	1303	-241	1967	3.990264	1.027728	324.5429	0	11.23	23888	0	0	5	5	0.02	0.2492115	3	10	0.08	2800	326.6609	40.92396	-91.39368
5910494	-2787	3102	-783	-3.184197	-5.579319	318.4379	0	11.23	23888	0	0	5	5	0.02	0.2238804	3	10	0.08	2800	321.5919	40.92396	-91.39368
5910556	19	-1688	-203	-3.165601	-5.48809	318.3602	0	11.23	23888	0	0	5	5	0.02	0.2071438	3	10	0.08	2800	325.1389	40.92396	-91.39368
5910687	85	-3	61	-3.200456	-5.434385	318.3171	0	11.29	23888	0	0	5	5	0.02	0.1716297	3	10	0.08	2800	325.3616	40.92396	-91.39368
5910758	-78	-7	-5	-3.173947	-5.329343	318.3183	0	11.29	23888	0	0	5	5	0.02	0.1436999	3	10	0.08	2800	325.3616	40.92396	-91.39368
5910888	0	16	45	-3.112709	-5.162301	318.3091	0	11.29	23888	0	0	5	5	0.02	0.1134908	3	10	0.08	2800	327.7293	40.92396	-91.39368
5911010	18	13	-63	-3.070929	-5.011039	318.3073	0	11.29	23888	0	0	5	5	0.02	0.06674706	3	10	0.08	2800	326.5826	40.92396	-91.39368
5911082	39	12	-73	-3.050415	-4.935846	318.3118	0	11.29	23888	0	0	5	5	0.02	0.04260547	3	10	0.08	2800	325.0201	40.92396	-91.39368
5911264	20	-2	4	-2.99942	-4.734808	318.3027	0	11.29	23888	0	0	5	5	0.02	-0.01152975	3	10	0.08	2800	325.6672	40.92396	-91.39368
5911410	-34	1	-10	-2.956328	-4.576802	318.3023	0	11.29	23888	0	0	5	5	0.02	-0.02679388	3	10	0.08	2800	327.9796	40.92396	-91.39368
5911463	-24	-14	-12	-2.948451	-4.547597	328.8377	0	11.29	23888	0	0	5	5	0.02	-0.03883577	3	10	0.08	2800	328.8385	40.92396	-91.39368
5911636	-12	2	-4	-2.910075	-4.438263	328.8363	0	11.29	23888	0	0	5	5	0.02	-0.04960034	3	10	0.08	2800	330.1649	40.92396	-91.39368
5911711	-6	-7	-7	-2.881316	-4.330966	328.8358	0	11.29	23888	0	0	5	5	0.02	-0.05703736	3	10	0.08	2800	328.4747	40.92396	-91.39368
5911828	-19	-5	20	-2.851095	-4.238294	328.8316	0	11.29	23888	0	0	5	5	0.02	-0.06695396	3	10	0.08	2800	330.0962	40.92396	-91.39368
5911864	-7	-10	-7	-2.846574	-4.213228	328.833	0	11.29	23888	0	0	5	5	0.02	-0.07400416	3	10	0.08	2800	330.0962	40.92396	-91.39368
5911950	-4	4	2	-2.832905	-4.169502	328.8321	0	11.29	23888	0	0	5	5	0.02	-0.07967028	3	10	0.08	2800	329.7853	40.92396	-91.39368
5912189	-7	2	0	-2.787975	-4.02281	328.8277	0	11.29	23888	0	0	5	5	0.02	-0.08637662	3	10	0.08	2800	330.0172	40.92396	-91.39368
5912289	-5	0	1	-2.767427	-3.948856	328.8263	0	11.29	23888	0	0	5	5	0.02	-0.08931587	3	10	0.08	2800	330.3879	40.92396	-91.39368
5912343	-2	-1	0	-2.759117	-3.932238	328.8257	0	11.29	23888	0	0	5	5	0.02	-0.09218053	3	10	0.08	2800	329.9561	40.92396	-91.39368
5912461	-7	-8	2	-2.739806	-3.863883	328.8253	0	11.34	23888	0	0	5	5	0.02	-0.09933455	3	10	0.08	2800	330.5746	40.92396	-91.39368
5912595	-11	1	-1	-2.725016	-3.815999	328.8247	0	11.34	23888	0	0	5	5	0.02	-0.1045626	3	10	0.08	2800	330.9684	40.92396	-91.39368
5912703	-7	-3	2	-2.705407	-3.75405	328.8232	0	11.34	23888	0	0	5	5	0.02	-0.1042012	3	10	0.08	2800	331.1342	40.92396	-91.39368
5912748	-7	-1	0	-2.694866	-3.724957	328.822	0	11.34	23888	0	0	5	5	0.02	-0.103108	3	10	0.08	2800	331.6129	40.92396	-91.39368
5912866	-9	2	-1	-2.688525	-3.701312	328.8221	0	11.34	23888	0	0	5	5	0.02	-0.09540954	3	10	0.08	2800	330.8133	40.92396	-91.39368
5912947	-4	3	0	-2.675893	-3.661945	328.8203	0	11.34	23888	0	0	5	5	0.02	-0.09191738	3	10	0.08	2800	331.2103	40.92396	-91.39368
5913106	-11	1	1	-2.662045	-3.604926	328.8188	0	11.34	23888	0	0	5	5	0.02	-0.08604575	3	10	0.08	2800	331.3378	40.92396	-91.39368
5913145	-9	-1	3	-2.657121	-3.592382	328.8188	0	11.34	23888	0	0	5	5	0.02	-0.08533531	3	10	0.08	2800	331.3378	40.92396	-91.39368
5913340	-9	-2	1	-2.640848	-3.536505	328.8186	0	11.34	23888	0	0	5	5	0.02	-0.08169374	3	10	0.08	2800	330.7509	40.92396	-91.39368
5913410	-11	0	-2	-2.62438	-3.497139	328.8175	0	11.34	23888	0	0	5	5	0.02	-0.08534471	3	10	0.08	2800	331.3263	40.92396	-91.39368
5913477	-6	2	0	-2.619796	-3.482109	328.8186	0	11.34	23888	0	0	5	5	0.02	-0.08383148	3	10	0.08	2800	331.3549	40.92396	-91.39368
5913575	-6	-2	0	-2.614701	-3.461109	328.8176	0	11.34	23888	0	0	5	5	0.02	-0.07930269	3	10	0.08	2800	332.0979	40.92396	-91.39368
5913620	-11	-4	3	-2.605638	-3.432627	328.8157	0	11.34	23888	0	0	5	5	0.02	-0.07778341	3	10	0.08	2800	331.6927	40.92396	-91.39368
5913736	-12	-2	0	-2.595016	-3.406556	328.8146	0	11.34	23888	0	0	5	5	0.02	-0.06126647	3	10	0.08	2800	332.0135	40.92396	-91.39368
5913935	-8	1	-2	-2.575042	-3.36163	328.8138	0	11.34	23888	0	0	5	5	0.02	-0.04729136	3	10	0.08	2800	332.0059	40.92396	-91.39368
5914007	-9	3	3	-2.570806	-3.347666	328.8136	0	11.34	23888	0	0	5	5	0.02	-0.04528446	1	10	0.08	2800	332.1912	40.92396	-91.39368
5914075	-7	0	3	-2.561839	-3.326804	328.812	0	11.34	23888	0	0	5	5	0.02	-0.04393939	1	10	0.08	2800	331.7112	40.92396	-91.39368
5914145	-5	-3	-1	-2.558146	-3.316513	328.8119	0	11.34	23888	0	0	5	5	0.02	-0.04854307	1	10	0.08	2800	332.1233	40.92396	-91.39368
5914238	-4	-3	-1	-2.548688	-3.300995	328.8113	0	11.34	23888	0	0	5	5	0.02	-0.05653333	1	10	0.08	2800	331.7256	40.92396	-91.39368
5914322	-7	-1	1	-2.543239	-3.289267	328.8109	0	11.34	23888	0	0	5	5	0.02	-0.06107232	1	10	0.08	2800	332.775	40.92396	-91.39368
5914408	-7	-1	3	-2.537437	-3.274484	328.8083	0	11.34	23888	0	0	5	5	0.02	-0.05814442	1	10	0.08	2800	332.1978	40.92396	-91.39368
5914501	-3	1	2	-2.529597	-3.260476	328.806	0	11.34	23888	0	0	5	5	0.02	-0.05742871	1	10	0.08	2800	332.1388	40.92396	-91.39368
5914664	-3	-5	-1	-2.523474	-3.234048	328.8021	0	11.34	23888	0	0	5	5	0.02	-0.06347349	1	10	0.08	2800	332.2038	40.92396	-91.39368
5914703	-9	-3	-2	-2.521996	-3.229001	328.8026	0	11.34	23888	0	0	5	5	0.02	-0.05955589	1	10	0.08	2800	332.2038	40.92396	-91.39368
5914820	-5	7	3	-2.512893	-3.212465	328.801	0	11.34	23888	0	0	5	5	0.02	-0.05413306	1	10	0.08	2800	332.4255	40.92396	-91.39368
5914926	-3	-3	2	-2.5074	-3.196883	328.7995	0	11.34	23888	0	0	5	5	0.02	-0.0535515	1	10	0.08	2800	332.0072	40.92396	-91.39368
5915084	-6	2	-2	-2.504467	-3.185119	328.8	0	11.34	23888	0	0	5	5	0.02	-0.05469455	1	10	0.08	2800	332.4825	40.92396	-91.39368
5915110	-5	-1	1	-2.501113	-3.179986	328.8	0	11.34	23888	0	0	5	5	0.02	-0.05393073	1	10	0.08	2800	332.345	40.92396	-91.39368
5915204	-8	-2	0	-2.496695	-3.17071	328.7987	0	11.4	23888	0	0	5	5	0.02	-0.05236842	1	10	0.08	2800	332.0614	40.92396	-91.39368
5915333	-9	5	0	-2.493584	-3.157461	328.7983	0	11.4	23888	0	0	5	5	0.02	-0.05002042	1	10	0.08	2800	332.7987	40.92396	-91.39368
5915403	0	-5	-1	-2.490715	-3.148729	328.797	0	11.4	23888	0	0	5	5	0.02	-0.04846293	1	10	0.08	2800	331.9727	40.92396	-91.39368
5915511	-7	-7	2	-2.485338	-3.133178	328.7965	0	11.4	23888	0	0	5	5	0.02	-0.04712644	1	10	0.08	2800	332.6653	40.92396	-91.39368
5915627	-7	1	-1	-2.479201	-3.120532	328.7967	0	11.4	23888	0	0	5	5	0.02	-0.04726723	1	10	0.08	2800	332.3464	40.92397	-91.39368
5915702	-8	0	1	-2.477267	-3.117306	328.7963	0	11.4	23888	0	0	5	5	0.02	-0.05120819	1	10	0.08	2800	332.3464	40.92397	-91.39368
5915832	-7	-1	-5	-2.470907	-3.105827	328.7978	0	11.4	23888	0	0	5	5	0.02	-0.05622941	1	10	0.08	2800	332.5421	40.92397	-91.39368
5915899	-6	-2	-1	-2.469428	-3.099593	328.7976	0	11.4	23888	0	0	5	5	0.02	-0.06041663	1	10	0.08	2800	332.4708	40.92396	-91.39368
5915994	-11	0	-3	-2.470355	-3.092871	328.7988	0	11.4	23888	0	0	5	5	0.02	-0.06370316	1	10	0.08	2800	332.7301	40.92396	-91.39368
5916120	-7	-1	0	-2.469474	-3.087651	328.7975	0	11.34	23888	0	0	5	5	0.02	-0.07030248	1	10	0.08	2800	332.4378	40.92397	-91.39368
5916207	-6	-4	1	-2.465146	-3.080986	328.7964	0	11.34	23888	0	0	5	5	0.02	-0.06748378	1	10	0.08	2800	332.8994	40.92397	-91.39368
5916313	-6	0	-3	-2.460355	-3.074931	328.7963	0	11.34	23888	0	0	5	5	0.02	-0.05467869	1	10	0.08	2800	332.4653	40.92397	-91.39368
5916373	-7	0	2	-2.458791	-3.073237	328.7959	0	11.34	23888	0	0	5	5	0.02	-0.05051021	1	10	0.08	2800	332.4653	40.92397	-91.39368
5916482	-8	2	1	-2.454762	-3.067723	328.7934	0	11.34	23888	0	0	5	5	0.02	-0.04270473	1	10	0.08	2800	333.2017	40.92397	-91.39368
5916588	-4	0	4	-2.447768	-3.060219	328.792	0	11.34	23888	0	0	5	5	0.02	-0.03347723	1	10	0.08	2800	332.4875	40.92397	-91.39368
5916684	-5	3	-1	-2.444906	-3.056606	328.7915	0	11.34	23888	0	0	5	5	0.02	-0.02793342	1	10	0.08	2800	332.8532	40.92397	-91.39368
5916780	-5	-2	3	-2.442905	-3.055325	328.7898	0	11.34	23888	0	0	5	5	0.02	-0.02888767	1	10	0.08	2800	333.0625	40.92397	-91.39368
5916913	-4	0	2	-2.436378	-3.049074	328.7895	0	11.34	23888	0	0	5	5	0.02	-0.02712938	1	10	0.08	2800	332.6252	40.92397	-91.39368
5916985	-5	0	-1	-2.43417	-3.045313	328.7883	0	11.4	23888	0	0	5	5	0.02	-0.02784738	1	10	0.08	2800	331.8896	40.92397	-91.39368
5917086	-10	1	4	-2.4337	-3.044339	328.787	0	11.4	23888	0	0	5	5	0.02	-0.03044045	1	10	0.08	2800	332.4471	40.92397	-91.39368
5917211	-9	1	0	-2.429552	-3.036003	328.7867	0	11.4	23888	0	0	5	5	0.02	-0.03553709	1	10	0.08	2800	332.9201	40.92397	-91.39368
5917318	-7	2	2	-2.427223	-3.036096	328.7857	0	11.4	23888	0	0	5	5	0.02	-0.03416009	1	10	0.08	2800	333.536	40.92397	-91.39368
5917383	-5	0	2	-2.424569	-3.034996	328.7853	0	11.4	23888	0	0	5	5	0.02	-0.03353953	1	10	0.08	2800	332.5803	40.92397	-91.39368
5917477	-3	-4	0	-2.422103	-3.0348	328.7838	0	11.4	23888	0	0	5	5	0.02	-0.03080291	1	10	0.08	2800	332.6986	40.92397	-91.39368
5917585	-3	4	3	-2.417711	-3.031296	328.7836	0	11.4	23888	0	0	5	5	0.02	-0.03298837	1	10	0.08	2800	332.2036	40.92397	-91.39368
5917712	-4	0	0	-2.418228	-3.027686	328.7839	0	11.4	23888	0	0	5	5	0.02	-0.03474566	1	10	0.08	2800	332.7638	40.92397	-91.39368
5917822	-6	3	-2	-2.413385	-3.02538	328.7813	0	11.4	23888	0	0	5	5	0.02	-0.05023483	1	10	0.08	2800	332.7816	40.92397	-91.39368
5917885	-7	0	-5	-2.411305	-3.025379	328.7814	0	11.34	23888	0	0	5	5	0.02	-0.06237763	1	10	0.08	2800	332.7816	40.92397	-91.39368
5917982	-2	-1	-3	-2.405316	-3.022162	328.7815	0	11.34	23888	0	0	5	5	0.02	-0.06867173	1	10	0.08	2800	332.7029	40.92397	-91.39368
5918096	-3	0	1	-2.399326	-3.016896	328.7817	0	11.34	23888	0	0	5	5	0.02	-0.07034022	1	10	0.08	2800	332.7868	40.92397	-91.39368
5918225	-1	-4	1	-2.396638	-3.011707	328.7804	0	11.34	23888	0	0	5	5	0.02	-0.0717081	1	10	0.08	2800	333.0947	40.92397	-91.39368
5918326	-5	-3	1	-2.397278	-3.008721	328.7809	0	11.34	23888	0	0	5	5	0.02	-0.06958571	1	10	0.08	2800	333.6553	40.92397	-91.39368
5918418	-2	2	0	-2.391189	-3.008375	328.7799	0	11.34	23888	0	0	5	5	0.02	-0.07219376	1	10	0.08	2800	332.7681	40.92397	-91.39368
5918498	-7	0	-2	-2.388964	-3.006951	328.7796	0	11.34	23888	0	0	5	5	0.02	-0.07354067	1	10	0.08	2800	332.9315	40.92397	-91.39368
5918585	-7	1	2	-2.388521	-3.005614	328.7778	0	11.34	23888	0	0	5	5	0.02	-0.07320564	1	10	0.08	2800	333.2775	40.92397	-91.39368
5918719	-5	3	1	-2.38931	-3.003698	328.7773	0	11.34	23888	0	0	5	5	0.02	-0.07215302	1	10	0.08	2800	332.631	40.92397	-91.39368
5918805	-8	4	0	-2.387024	-3.003532	328.7761	0	11.4	23888	0	0	5	5	0.02	-0.06754082	1	10	0.08	2800	332.9328	40.92397	-91.39368
5918935	-7	-2	2	-2.386097	-2.998723	328.7744	0	11.4	23888	0	0	5	5	0.02	-0.06567761	1	10	0.08	2800	332.7476	40.92397	-91.39368
5919021	-3	3	1	-2.382902	-2.99888	328.7731	0	11.4	23888	0	0	5	5	0.02	-0.06562456	1	10	0.08	2800	333.1065	40.92397	-91.39368
5919094	0	1	-1	-2.381215	-2.999116	328.7719	0	11.4	23888	0	0	5	5	0.02	-0.06804521	1	10	0.08	2800	333.1619	40.92397	-91.39368
5919209	-3	1	0	-2.378304	-2.998102	328.7716	0	11.4	23888	0	0	5	5	0.02	-0.07426843	1	10	0.08	2800	332.3708	40.92397	-91.39368
5919393	1	-2	0	-2.377031	-2.997698	328.769	0	11.4	23888	0	0	5	5	0.02	-0.06974825	1	10	0.08	2800	332.6719	40.92397	-91.39368
5919462	-3	-3	-5	-2.375957	-2.996612	328.7686	0	11.4	23888	0	0	5	5	0.02	-0.05740909	1	10	0.08	2800	332.6719	40.92397	-91.39368
5919518	-3	-2	0	-2.37176	-2.996998	328.7691	0	11.4	23888	0	0	5	5	0.02	-0.05351362	1	10	0.08	2800	332.9797	40.92397	-91.39368
5919724	-6	1	1	-2.365727	-2.993577	328.7676	0	11.4	23888	0	0	5	5	0.02	-0.04801105	1	10	0.08	2800	332.7049	40.92397	-91.39368
5919890	-1	0	0	-2.362207	-2.992672	328.7677	0	11.4	23888	0	0	5	5	0.02	-0.05078535	1	10	0.08	2800	332.5292	40.92397	-91.39368
5919938	-5	1	0	-2.360086	-2.990887	328.7664	0	11.4	23888	0	0	5	5	0.02	-0.05054684	1	10	0.08	2800	333.3831	40.92397	-91.39368
5920033	-4	-2	-3	-2.362365	-2.991414	328.7669	0	11.4	23888	0	0	5	5	0.02	-0.05318164	1	10	0.08	2800	332.9751	40.92397	-91.39368
5920135	-2	-2	2	-2.361405	-2.989141	328.7659	0	11.4	23888	0	0	5	5	0.02	-0.0578314	1	10	0.08	2800	333.4309	40.92397	-91.39368
5920255	-2	1	-1	-2.360048	-2.989733	328.7661	0	11.4	23888	0	0	5	5	0.02	-0.06064139	1	10	0.08	2800	332.8784	40.92397	-91.39368
5920341	-5	-1	1	-2.362036	-2.98996	328.7643	0	11.4	23888	0	0	5	5	0.02	-0.07948174	1	10	0.08	2800	333.0261	40.92397	-91.39368
5920438	-4	0	0	-2.359639	-2.987808	328.7639	0	11.4	23888	0	0	5	5	0.02	-0.1012063	1	10	0.08	2800	332.5886	40.92397	-91.39368
5920602	-5	2	0	-2.35908	-2.990088	328.7624	0	11.4	23888	0	0	5	5	0.02	-0.1143615	1	10	0.08	2800	333.2896	40.92397	-91.39368
5920642	-2	2	2	-2.359076	-2.988977	328.7622	0	11.4	23888	0	0	5	5	0.02	-0.115049	1	10	0.08	2800	333.2896	40.92397	-91.39368
5920777	-3	-2	-1	-2.354825	-2.986456	328.7607	0	11.4	23888	0	0	5	5	0.02	-0.1145168	1	10	0.08	2800	332.8977	40.92397	-91.39368
5920913	-7	0	0	-2.35465	-2.985165	328.761	0	11.4	23888	0	0	5	5	0.02	-0.1057635	1	10	0.08	2800	333.0054	40.92397	-91.39368
5920972	-8	0	0	-2.355094	-2.988867	328.7607	0	11.4	23888	0	0	5	5	0.02	-0.1037977	1	10	0.08	2800	333.2024	40.92397	-91.39368
5921076	-5	1	5	-2.352665	-2.99008	328.7602	0	11.4	23888	0	0	5	5	0.02	-0.08730809	1	10	0.08	2800	332.8983	40.92397	-91.39368
5921209	-9	0	3	-2.349481	-2.986519	328.7553	0	11.4	23888	0	0	5	5	0.02	-0.07074271	1	10	0.08	2800	333.2197	40.92397	-91.39368
5921263	0	1	3	-2.349258	-2.985752	328.7539	0	11.4	23888	0	0	5	5	0.02	-0.06052207	1	10	0.08	2800	333.2197	40.92397	-91.39368
5921385	-3	2	1	-2.346687	-2.988608	328.7538	0	11.4	23888	0	0	5	5	0.02	-0.05304636	1	10	0.08	2800	333.0697	40.92397	-91.39368
5921455	-6	0	0	-2.345559	-2.989993	328.7536	0	11.4	23888	0	0	5	5	0.02	-0.04458056	1	10	0.08	2800	333.068	40.92397	-91.39368
5921566	-2	-4	-5	-2.345128	-2.990146	328.7527	0	11.46	23888	0	0	5	5	0.02	-0.03601818	1	10	0.08	2800	333.0208	40.92397	-91.39368
5921710	-3	0	-3	-2.342224	-2.989799	328.7513	0	11.46	23888	0	0	5	5	0.02	-0.03888779	1	10	0.08	2800	333.1305	40.92397	-91.39368
5921775	-4	-4	2	-2.341749	-2.986942	328.7506	0	11.46	23888	0	0	5	5	0.02	-0.04586163	1	10	0.08	2800	333.1305	40.92397	-91.39368
5921885	-3	0	1	-2.339055	-2.989729	328.7509	0	11.46	23888	0	0	5	5	0.02	-0.05800467	1	10	0.08	2800	333.4965	40.92397	-91.39368
5922018	-23	-1	17	-2.335062	-2.991557	328.7505	0	11.46	23888	0	0	5	5	0.02	-0.06309929	1	10	0.08	2800	333.0541	40.92397	-91.39368
5922157	-2	-1	-3	-2.334691	-2.989735	328.7506	0	11.46	23888	0	0	5	5	0.02	-0.06615339	1	10	0.08	2800	333.1531	40.92397	-91.39368
5922225	0	0	2	-2.32985	-2.988841	328.7517	0	11.46	23888	0	0	5	5	0.02	-0.07073037	1	10	0.08	2800	332.6699	40.92397	-91.39368
5922332	-1	1	-1	-2.326144	-2.988398	328.7509	0	11.46	23888	0	0	5	5	0.02	-0.07629087	1	10	0.08	2800	333.2783	40.92397	-91.39368
5922362	-14	13	2	-2.328949	-2.991267	328.7513	0	11.46	23888	0	0	5	5	0.02	-0.07629087	1	10	0.08	2800	333.2783	40.92397	-91.39368
5922508	4	2	-4	-2.324465	-2.988152	328.7502	0	11.4	23888	0	0	5	5	0.02	-0.07272616	1	10	0.08	2800	333.1267	40.92397	-91.39368
5922624	-5	0	-3	-2.319257	-2.987466	328.751	0	11.4	23888	0	0	5	5	0.02	-0.07155317	1	10	0.08	2800	332.8846	40.92397	-91.39368
5922719	-5	6	0	-2.315643	-2.985843	328.7514	0	11.4	23888	0	0	5	5	0.02	-0.07135078	1	10	0.08	2800	333.3609	40.92397	-91.39368
5922784	-4	4	0	-2.315807	-2.98703	328.7516	0	11.4	23888	0	0	5	5	0.02	-0.07139343	1	10	0.08	2800	332.7112	40.92397	-91.39368
5922923	14	-7	-9	-2.31443	-2.992718	328.7529	0	11.4	23888	0	0	5	5	0.02	-0.05814467	1	10	0.08	2800	333.0266	40.92397	-91.39368
5923007	-5	-3	-1	-2.312923	-2.990632	328.7549	0	11.4	23888	0	0	5	5	0.02	-0.05353525	1	10	0.08	2800	332.86	40.92397	-91.39368
5923054	-3	0	-2	-2.311384	-2.991117	328.7555	0	11.4	23888	0	0	5	5	0.02	-0.04555021	1	10	0.08	2800	332.86	40.92397	-91.39368
5923183	-8	0	6	-2.307334	-2.991503	328.7562	0	11.4	23888	0	0	5	5	0.02	-0.03213263	1	10	0.08	2800	332.9801	40.92397	-91.39368
5923305	0	-4	2	-2.305007	-2.98763	328.7545	0	11.4	23888	0	0	5	5	0.02	-0.02798072	1	10	0.08	2800	332.5783	40.92397	-91.39368
5923373	-3	-4	2	-2.306207	-2.989496	328.7555	0	11.4	23888	0	0	5	5	0.02	-0.02799161	1	10	0.08	2800	333.2398	40.92397	-91.39368
5923466	-1	1	-4	-2.303259	-2.985305	328.7561	0	11.46	23888	0	0	5	5	0.02	-0.02801336	1	10	0.08	2800	333.0459	40.92397	-91.39368
5923606	-70	-70	49	-2.347937	-2.937891	328.7251	0	11.46	23888	0	0	5	5	0.02	-0.02195258	1	10	0.08	2800	332.7494	40.92397	-91.39368
5923706	49	31	58	-2.402975	-2.995123	328.6411	0	11.46	23888	0	0	5	5	0.02	0.002535552	1	10	0.08	2800	333.3536	40.92397	-91.39368
5923775	-442	1557	-14	-2.491704	-3.487025	328.7738	0	11.46	23888	0	0	5	5	0.02	0.00706975	1	10	0.08	2800	333.5247	40.92397	-91.39368
5923886	1441	-3826	-1675	-2.098435	-5.608591	330.5985	0	11.46	23888	0	0	5	5	0.02	0.005280958	1	10	0.08	2800	338.3867	40.92397	-91.39368
5924072	3081	-1814	-1959	1.267004	-0.8347892	332.3137	0	11.46	23888	0	0	5	5	0.02	-0.005230873	1	10	0.08	2800	336.6248	40.92397	-91.39368
5924168	4695	174	-5371	9.038994	0.7366711	339.3462	0	11.46	23888	0	0	5	5	0.02	-0.007778871	1	10	0.08	2800	341.8515	40.92397	-91.39368
5924254	3717	-2340	-568	17.85018	1.585964	345.2441	0	11.46	23888	0	0	5	5	0.02	0.001133605	1	10	0.08	2800	350.2596	40.92397	-91.39368
5924347	-2429	-2557	8520	16.79859	7.640987	348.547	0	11.46	23888	0	0	5	5	0.02	0.0350011	1	10	0.08	2800	344.9943	40.92397	-91.39368
5924374	-2429	-2557	8520	16.79859	7.640987	348.547	0	11.46	23888	0	0	5	5	0.02	0.04273909	1	10	0.08	2800	344.9943	40.92397	-91.39368
5924490	-9659	-2420	15145	-3.591142	16.41342	321.1127	0	11.46	23888	0	0	5	5	0.02	0.0896229	1	10	0.08	2800	327.4779	40.92397	-91.39368
5924625	-6907	1849	11841	-33.84402	2.336442	280.6078	0	11.46	23888	0	0	5	5	0.02	0.1490227	1	10	0.08	2800	282.8181	40.92397	-91.39368
5924703	-3810	724	7727	-39.69017	-5.362967	269.9899	0	11.46	23888	0	0	5	5	0.02	0.1908354	1	10	0.08	2800	270.9066	40.92397	-91.39368
5924850	1888	63	3012	-43.78274	-20.44118	259.7697	0	11.46	23888	0	0	5	5	0.02	0.3040887	1	10	0.08	2800	255.8976	40.92397	-91.39368
5924891	435	-2345	2784	-42.76091	-20.81468	258.188	0	11.46	23888	0	0	5	5	0.02	0.321663	1	10	0.08	2800	254.9748	40.92397	-91.39368
5925016	-308	2707	3146	-44.07167	-26.139	251.0723	0	11.46	23888	0	0	5	5	0.02	0.4274066	1	10	0.08	2800	251.2669	40.92397	-91.39368
5925088	1218	927	2790	-43.24646	-28.21664	249.4355	0	11.46	23888	0	0	5	5	0.02	0.4744762	1	10	0.08	2800	247.6677	40.92397	-91.39368
5925197	-2553	-1287	2428	-41.82123	-26.5132	245.2488	0	11.46	23888	0	0	5	5	0.02	0.5306094	1	10	0.08	2800	249.6094	40.92397	-91.39368
5925292	2759	-546	3386	-39.87957	-28.02347	239.7	0	11.4	23888	0	0	5	5	0.02	0.5766173	1	10	0.08	2800	247.0039	40.92397	-91.39368
5925409	-173	492	4199	-36.91135	-31.29871	244.2299	0	11.4	23888	0	0	5	5	0.02	0.6242816	1	10	0.08	2800	245.5455	40.92397	-91.39368
5925530	-592	-558	675	-37.26648	-33.07486	242.2882	0	11.4	23888	0	0	5	5	0.02	0.6571854	1	10	0.08	2800	241.6743	40.92397	-91.39368
5925644	-1505	-943	-41	-38.83512	-32.11369	241.8387	0	11.4	23888	0	0	5	5	0.02	0.6829098	1	10	0.08	2800	241.8777	40.92397	-91.39368
