time(ms)	gyro_x(deg/s)	gyro_y(deg/s)	gyro_z(deg/s)	orientation_roll(deg)	orientation_pitch(deg)	orientation_yaw(deg)	throttle	battery(V)	loop_time(uS)	pid_output_roll	pid_output_pitch	pid_output_yaw	pid_output_throttle	ultrasonic_alt	baro_alt	flight_mode	p_gain_altitude	i_gain_altitude	d_gain_altitude	compass_heading	latitude	longitude
5588889	-6	-1	-3	-4.938978	-1.958967	342.7116	0	12.7	0	0	0	5	5	0.02	0.1448926	3	10	0.08	2800	339.7423	40.92397	-91.39366
5588955	-7	-4	-1	-4.938888	-1.958033	342.7113	0	12.7	0	0	0	5	5	0.02	0.139889	3	10	0.08	2800	340.1566	40.92397	-91.39366
5589116	-3	-11	-38	-4.94106	-1.954394	342.7199	0	12.7	0	0	0	5	5	0.02	0.1330807	3	10	0.08	2800	340.3827	40.92397	-91.39366
5589216	-23	3	-37	-4.940483	-1.952653	342.7143	0	12.7	0	0	0	5	5	0.02	0.1266269	3	10	0.08	2800	339.9883	40.92397	-91.39366
5589258	13	-7	-49	-4.939136	-1.950672	342.716	0	12.7	0	0	0	5	5	0.02	0.1230162	3	10	0.08	2800	339.9883	40.92397	-91.39366
5589373	31	41	-132	-4.951515	-1.96153	342.7342	0	13.21	0	0	0	5	5	0.02	0.1241616	3	10	0.08	2800	339.6954	40.92397	-91.39366
5589493	-41	-14	-135	-4.926575	-1.933383	342.7135	0	13.21	0	0	0	5	5	0.02	0.1359196	3	10	0.08	2800	339.1479	40.92397	-91.39366
5589656	-176	182	-63	-4.843638	-1.779871	342.8102	0	13.21	0	0	0	5	5	0.02	0.1544094	3	10	0.08	2800	339.0651	40.92397	-91.39366
5589690	-26	27	32	-4.867639	-1.815388	342.7857	0	13.21	0	0	0	5	5	0.02	0.1570295	3	10	0.08	2800	339.0651	40.92397	-91.39366
5589753	-45	44	-38	-4.913109	-1.852282	342.7555	0	13.21	0	0	0	5	5	0.02	0.1644588	3	10	0.08	2800	340.3098	40.92397	-91.39366
5589864	52	12	50	-4.938391	-1.873494	342.7347	0	13.21	0	0	0	5	5	0.02	0.1761729	3	10	0.08	2800	338.9655	40.92397	-91.39366
5590012	-14	-21	-29	-4.96198	-1.909013	342.7259	0	13.21	0	0	0	5	5	0.02	0.1870124	3	10	0.08	2800	339.6283	40.92397	-91.39366
5590095	17	-22	2	-4.967015	-1.906797	342.7224	0	13.21	0	0	0	5	5	0.02	0.1861802	3	10	0.08	2800	338.6688	40.92397	-91.39366
5590209	-18	-12	-41	-4.940069	-1.882986	342.7402	0	13.21	0	0	0	5	5	0.02	0.183666	3	10	0.08	2800	338.4661	40.92397	-91.39366
5590292	0	-86	0	-4.90378	-1.850052	342.7627	0	12.7	0	0	0	5	5	0.02	0.1798011	3	10	0.08	2800	338.4041	40.92397	-91.39366
5590451	8	-22	10	-4.875059	-1.809131	342.8004	0	12.7	0	0	0	5	5	0.02	0.1830463	3	10	0.08	2800	339.959	40.92397	-91.39366
5590518	14	-43	35	-4.853153	-1.767528	342.8439	0	12.7	0	0	0	5	5	0.02	0.1871225	3	10	0.08	2800	338.5439	40.92397	-91.39366
5590656	91	0	134	-4.832848	-1.775389	342.847	0	12.7	0	0	0	5	5	0.02	0.1996817	3	10	0.08	2800	337.5495	40.92397	-91.39366
5590745	-108	124	-3	-4.883734	-1.837699	342.8104	0	12.7	0	0	0	5	5	0.02	0.2066744	3	10	0.08	2800	336.993	40.92397	-91.39366
5590835	-32	6	79	-4.91605	-1.862392	342.7783	0	12.7	0	0	0	5	5	0.02	0.2058486	3	10	0.08	2800	337.6497	40.92397	-91.39366
5590987	-32	5	-16	-4.963052	-1.912233	342.7614	0	12.7	0	0	0	5	5	0.02	0.1982984	3	10	0.08	2800	337.9379	40.92397	-91.39366
5591028	-58	6	46	-4.950716	-1.903124	342.7657	0	12.7	0	0	0	5	5	0.02	0.1948638	3	10	0.08	2800	337.8927	40.92397	-91.39366
5591081	-2	-6	-24	-4.940135	-1.892226	342.7728	0	12.7	0	0	0	5	5	0.02	0.184733	3	10	0.08	2800	337.8927	40.92397	-91.39366
5591197	34	-17	-6	-4.911322	-1.849988	342.7925	0	12.7	0	0	0	5	5	0.02	0.1758889	3	10	0.08	2800	337.3448	40.92397	-91.39366
5591291	38	-106	35	-4.89788	-1.811209	342.8099	0	12.87	0	0	0	5	5	0.02	0.173656	3	10	0.08	2800	337.6567	40.92397	-91.39366
5591415	84	-45	36	-4.843301	-1.79176	342.841	0	12.87	0	0	0	5	5	0.02	0.1661229	3	10	0.08	2800	338.4945	40.92397	-91.39366
5591600	-130	71	157	-4.82835	-1.775984	342.8637	0	12.87	0	0	0	5	5	0.02	0.1690298	3	10	0.08	2800	338.9063	40.92397	-91.39366
5591667	-71	-113	41	-4.813047	-1.763691	342.8581	0	12.87	0	0	0	5	5	0.02	0.1710967	3	10	0.08	2800	337.308	40.92397	-91.39366
5591768	74	35	-95	-4.794405	-1.733994	342.8799	0	12.87	0	0	0	5	5	0.02	0.1756518	3	10	0.08	2800	339.0526	40.92397	-91.39366
5591840	20	108	-117	-4.77837	-1.719056	342.8961	0	12.87	0	0	0	5	5	0.02	0.1850905	3	10	0.08	2800	338.4889	40.92397	-91.39366
5591935	-58	104	87	-4.787416	-1.697149	342.887	0	12.87	0	0	0	5	5	0.02	0.1887279	3	10	0.08	2800	338.5464	40.92397	-91.39366
5592013	-171	60	-54	-4.845034	-1.794889	342.8318	0	12.87	0	0	0	5	5	0.02	0.1915204	3	10	0.08	2800	338.6081	40.92397	-91.39366
5592148	-6	-50	-25	-4.888338	-1.822927	342.7945	0	12.76	0	0	0	5	5	0.02	0.1978014	3	10	0.08	2800	339.3204	40.92397	-91.39366
5592187	69	-89	-31	-4.917471	-1.851516	342.7819	0	12.76	0	0	0	5	5	0.02	0.1997783	3	10	0.08	2800	340.0224	40.92397	-91.39366
5592304	-75	93	-147	-4.902608	-1.829056	342.7849	0	12.76	0	0	0	5	5	0.02	0.1887555	3	10	0.08	2800	340.132	40.92397	-91.39366
5592438	-152	-1	130	-4.834698	-1.704975	342.8376	0	12.76	0	0	0	5	5	0.02	0.1770002	3	10	0.08	2800	339.7085	40.92397	-91.39366
5592530	20	-136	-52	-4.815205	-1.678955	342.8584	0	12.76	0	0	0	5	5	0.02	0.1810695	3	10	0.08	2800	339.7962	40.92397	-91.39366
5592664	27	-185	76	-4.752083	-1.623265	342.8759	0	12.76	0	0	0	5	5	0.02	0.1843236	3	10	0.08	2800	339.5657	40.92397	-91.39366
5592738	66	6	-119	-4.717804	-1.620647	342.9245	0	12.76	0	0	0	5	5	0.02	0.1843105	3	10	0.08	2800	339.8668	40.92397	-91.39366
5592868	-41	75	-11	-4.691797	-1.613464	342.9264	0	12.76	0	0	0	5	5	0.02	0.1860497	3	10	0.08	2800	338.7154	40.92397	-91.39366
5592950	-7	58	150	-4.707301	-1.617055	342.9107	0	12.76	0	0	0	5	5	0.02	0.1945557	3	10	0.08	2800	339.8997	40.92397	-91.39366
5593032	-63	-59	73	-4.728822	-1.614856	342.9186	0	12.76	0	0	0	5	5	0.02	0.2025012	3	10	0.08	2800	340.2931	40.92397	-91.39366
5593189	-82	123	-54	-4.717461	-1.579118	342.9416	0	12.82	0	0	0	5	5	0.02	0.2325784	3	10	0.08	2800	338.4183	40.92397	-91.39366
5593292	128	59	270	-4.682593	-1.546578	342.9576	0	12.82	0	0	0	5	5	0.02	0.2429753	3	10	0.08	2800	340.1055	40.92397	-91.39366
5593380	51	66	125	-4.667516	-1.484522	342.9858	0	12.82	0	0	0	5	5	0.02	0.2589225	3	10	0.08	2800	338.5919	40.92397	-91.39366
5593469	66	-201	236	-4.587234	-1.349765	343.0326	0	12.82	0	0	0	5	5	0.02	0.2659147	3	10	0.08	2800	336.2994	40.92397	-91.39366
5593563	8550	-294	1858	3.741545	-1.307064	341.9354	0	12.82	0	0	0	5	5	0.02	0.2799821	3	10	0.08	2800	336.1389	40.92397	-91.39366
5593653	2277	-1669	1559	11.46143	0.2892877	340.1752	0	12.82	0	0	0	5	5	0.02	0.3025235	3	10	0.08	2800	331.226	40.92397	-91.39366
5593769	-2612	1751	1292	5.478805	1.03713	338.2335	0	12.82	0	0	0	5	5	0.02	0.3338528	3	10	0.08	2800	328.8858	40.92397	-91.39366
5593883	-978	-973	-662	2.081798	-3.769952	326.8685	0	12.82	0	0	0	5	5	0.02	0.3826073	3	10	0.08	2800	327.8215	40.92397	-91.39366
5594006	-635	2095	-1401	-1.425627	-4.217358	329.0487	0	12.48	0	0	0	5	5	0.02	0.4114971	3	10	0.08	2800	325.7123	40.92397	-91.39366
5594099	-503	1013	-2223	-0.2470985	-6.624659	331.8664	0	12.48	0	0	0	5	5	0.02	0.4551141	3	10	0.08	2800	335.7866	40.92397	-91.39366
5594174	-7859	-1968	-2272	-5.110503	-5.366113	334.0926	0	12.48	0	0	0	5	5	0.02	0.4661079	3	10	0.08	2800	337.0958	40.92397	-91.39366
5594283	-1095	-1136	-1703	-14.65703	1.480154	339.0816	0	12.48	0	0	0	5	5	0.02	0.5282998	3	10	0.08	2800	343.8654	40.92397	-91.39366
5594424	-286	744	-1386	-14.54386	1.712497	341.7744	0	12.48	0	0	0	5	5	0.02	0.6307895	3	10	0.08	2800	346.5226	40.92397	-91.39365
5594480	-621	-88	-983	-14.62972	1.48759	343.0853	0	12.48	0	0	0	5	5	0.02	0.6751649	3	10	0.08	2800	350.7317	40.92397	-91.39365
5594590	65	911	-69	-14.08263	2.023421	344.554	0	12.48	0	0	0	5	5	0.02	0.7405241	3	10	0.08	2800	354.3764	40.92397	-91.39365
5594712	30	1132	233	-13.16083	0.08732615	356.3908	0	12.48	0	0	0	5	5	0.02	0.7765386	3	10	0.08	2800	356.3763	40.92397	-91.39365
5594796	-370	-198	-154	-12.87985	-1.228599	356.4516	0	12.48	0	0	0	5	5	0.02	0.8457823	3	10	0.08	2800	0.1662292	40.92397	-91.39365
5594877	4744	72	367	-7.66841	-1.067092	356.7955	0	12.48	0	0	0	5	5	0.02	0.8806534	3	10	0.08	2800	4.053619	40.92397	-91.39365
5594982	483	77	480	-3.274546	-0.6544737	356.2224	0	12.36	0	0	0	5	5	0.02	0.9196416	3	10	0.08	2800	357.1062	40.92397	-91.39365
5595081	1328	-2132	1621	-2.061657	-0.1728496	354.2431	0	12.36	0	0	0	5	5	0.02	0.9502611	3	10	0.08	2800	357.2665	40.92397	-91.39365
5595182	-609	-1205	540	1.494085	2.969281	353.8273	0	12.36	0	0	0	5	5	0.02	0.978305	3	10	0.08	2800	353.6413	40.92398	-91.39365
5595289	-3352	-641	-1347	-1.209544	4.376717	354.0602	0	12.36	0	0	0	5	5	0.02	0.9980265	3	10	0.08	2800	349.8195	40.92398	-91.39365
5595408	-2278	-2233	-570	-5.820926	7.148345	355.3693	0	12.36	0	0	0	5	5	0.02	1.043153	3	10	0.08	2800	350.1936	40.92398	-91.39365
5595497	-1263	1409	707	-7.442552	7.889134	356.082	0	12.36	0	0	0	5	5	0.02	1.065399	3	10	0.08	2800	351.5283	40.92398	-91.39365
5595647	-3161	136	51	-11.99885	5.121131	355.9101	0	12.36	0	0	0	5	5	0.02	1.114463	3	10	0.08	2800	353.6802	40.92398	-91.39365
5595695	-630	-1755	-208	-13.57	6.303069	356.0199	0	12.36	0	0	0	5	5	0.02	1.127714	3	10	0.08	2800	354.485	40.92398	-91.39365
5595841	-838	1277	320	-13.21061	7.256143	355.7737	0	12.42	0	0	0	5	5	0.02	1.155517	3	10	0.08	2800	352.7243	40.92398	-91.39365
5595963	2732	207	-922	-12.3382	5.472768	356.3648	0	12.42	0	0	0	5	5	0.02	1.168579	3	10	0.08	2800	352.8066	40.92398	-91.39365
5596043	3085	1796	-873	-7.487051	4.537698	357.2177	0	12.42	0	0	0	5	5	0.02	1.180067	3	10	0.08	2800	358.9751	40.92397	-91.39365
5596152	2832	1428	79	-2.786883	0.1479407	358.2555	0	12.42	0	0	0	5	5	0.02	1.191446	3	10	0.08	2800	1.682983	40.92397	-91.39365
5596286	2299	27	-1125	-1.369699	-2.15578	359.1099	0	12.42	0	0	0	5	5	0.02	1.194558	3	10	0.08	2800	5.718628	40.92397	-91.39365
5596338	-77	-1074	-1492	-0.1866812	-1.494494	1.571176	0	12.42	0	0	0	5	5	0.02	1.194966	3	10	0.08	2800	6.197144	40.92397	-91.39365
5596427	69	-284	-2342	0.2790485	-0.3908657	3.625704	0	12.42	0	0	0	5	5	0.02	1.194496	3	10	0.08	2800	10.0556	40.92397	-91.39365
5596558	-641	1068	-5255	2.522846	-1.102449	9.357106	0	12.42	0	0	0	5	5	0.02	1.189895	3	10	0.08	2800	11.93527	40.92397	-91.39365
5596644	-768	-2703	-2709	1.415671	-2.036633	16.64955	0	12.42	0	0	0	5	5	0.02	1.181582	3	10	0.08	2800	19.22882	40.92397	-91.39365
5596732	658	-2388	-2789	0.5669345	1.800892	20.25895	0	12.42	0	0	0	5	5	0.02	1.176016	3	10	0.08	2800	25.17175	40.92397	-91.39365
5596853	-1467	-547	129	-2.498107	3.053382	22.98066	0	12.42	0	0	0	5	5	0.02	1.172022	3	10	0.08	2800	31.54462	40.92397	-91.39365
5596939	627	-1996	1271	-2.95418	4.463072	32.24789	0	12.42	0	0	0	5	5	0.02	1.181632	3	10	0.08	2800	32.97855	40.92397	-91.39365
5597034	789	1035	4087	-2.698399	4.589634	25.58454	0	12.42	0	0	0	5	5	0.02	1.189541	3	10	0.08	2800	23.33643	40.92397	-91.39365
5597175	900	697	4958	-2.307421	2.307044	18.04747	0	12.42	0	0	0	5	5	0.02	1.209947	3	10	0.08	2800	15.94244	40.92397	-91.39365
5597274	895	1399	4995	-2.596561	-0.6989654	355.2369	0	12.42	0	0	0	5	5	0.02	1.218512	3	10	0.08	2800	359.8363	40.92397	-91.39365
5597470	1173	-1325	3083	-1.54195	-4.280881	340.9585	0	12.42	0	0	0	5	5	0.02	1.225743	3	10	0.08	2800	342.9185	40.92397	-91.39365
5597573	3091	133	2990	-0.003345799	-3.058809	337.8622	0	12.42	0	0	0	5	5	0.02	1.216777	3	10	0.08	2800	333.7348	40.92397	-91.39365
5597652	-3287	1546	2012	-0.8953509	-3.914701	334.8813	0	12.42	0	0	0	5	5	0.02	1.207753	3	10	0.08	2800	328.2906	40.92397	-91.39365
5597742	2945	-1823	549	-1.753004	-3.4374	333.2362	0	12.48	0	0	0	5	5	0.02	1.189634	3	10	0.08	2800	329.687	40.92397	-91.39365
5597893	-2287	614	-1032	-3.396828	-0.8481802	334.8131	0	12.48	0	0	0	5	5	0.02	1.175259	3	10	0.08	2800	327.037	40.92397	-91.39365
5597961	-797	-2376	-1547	-4.213202	-1.005138	337.8518	0	12.48	0	0	0	5	5	0.02	1.16695	3	10	0.08	2800	332.6325	40.92397	-91.39365
5598062	-179	-3235	-2241	-3.912013	2.196593	340.3748	0	12.48	0	0	0	5	5	0.02	1.15444	3	10	0.08	2800	333.8466	40.92397	-91.39365
5598168	326	832	34	-2.957649	2.542673	341.8841	0	12.48	0	0	0	5	5	0.02	1.145499	3	10	0.08	2800	337.0322	40.92397	-91.39365
5598274	1378	326	236	-2.338593	0.9957343	341.6978	0	12.48	0	0	0	5	5	0.02	1.137521	3	10	0.08	2800	336.9524	40.92397	-91.39365
5598339	-596	-545	-445	-1.386495	1.895596	341.4142	0	12.48	0	0	0	5	5	0.02	1.137301	3	10	0.08	2800	336.9524	40.92397	-91.39365
5598504	-2204	145	514	-5.135611	2.987551	340.7366	0	12.48	0	0	0	5	5	0.02	1.140887	3	10	0.08	2800	333.9519	40.92397	-91.39365
5598552	-2570	974	743	-6.556221	2.612328	340.4624	0	12.48	0	0	0	5	5	0.02	1.140434	3	10	0.08	2800	333.9519	40.92397	-91.39365
5598692	1822	183	382	-6.992366	-0.8578962	339.4685	0	12.31	0	0	0	5	5	0.02	1.138767	3	10	0.08	2800	335.2293	40.92396	-91.39365
5598816	-1943	-228	-56	-10.38999	0.7564231	339.0768	0	12.31	0	0	0	5	5	0.02	1.1404	3	10	0.08	2800	335.0093	40.92396	-91.39365
5598888	-328	381	-305	-12.33004	0.2917047	338.885	0	12.31	0	0	0	5	5	0.02	1.137228	3	10	0.08	2800	334.4969	40.92396	-91.39365
5598971	1807	69	-537	-10.9269	0.3418775	338.8089	0	12.31	0	0	0	5	5	0.02	1.127166	3	10	0.08	2800	337.0145	40.92396	-91.39365
5599052	-156	-803	-416	-10.24336	1.496597	338.6499	0	12.31	0	0	0	5	5	0.02	1.125502	3	10	0.08	2800	335.4336	40.92396	-91.39365
5599210	694	-2058	-230	-10.15942	0.1889831	336.8828	0	12.31	0	0	0	5	5	0.02	1.12292	3	10	0.08	2800	335.6573	40.92396	-91.39365
5599288	1413	-599	-811	-8.083022	2.903502	337.1937	0	12.31	0	0	0	5	5	0.02	1.127884	3	10	0.08	2800	334.8596	40.92396	-91.39365
5599409	-1130	1331	-1105	-5.494948	0.820314	338.7503	0	12.31	0	0	0	5	5	0.02	1.135381	3	10	0.08	2800	336.9241	40.92396	-91.39365
5599488	-1251	-281	-1912	-6.9422	0.6323205	340.7038	0	12.31	0	0	0	5	5	0.02	1.149722	3	10	0.08	2800	340.9546	40.92396	-91.39365
5599615	-1028	-569	-696	-4.315554	1.200552	343.3943	0	12.19	0	0	0	5	5	0.02	1.178098	3	10	0.08	2800	343.7227	40.92396	-91.39365
5599710	1640	-2141	-761	-3.544941	3.756354	344.4924	0	12.19	0	0	0	5	5	0.02	1.193788	3	10	0.08	2800	344.0726	40.92396	-91.39365
5599773	1838	-3054	181	-2.46826	5.340029	344.6776	0	12.19	0	0	0	5	5	0.02	1.208919	3	10	0.08	2800	344.0726	40.92396	-91.39365
5599894	-418	-1615	-523	-1.316596	11.51527	345.2099	0	12.19	0	0	0	5	5	0.02	1.240306	3	10	0.08	2800	341.5578	40.92396	-91.39365
5599986	-2131	1936	-313	-3.704408	10.63956	345.1854	0	12.19	0	0	0	5	5	0.02	1.250865	3	10	0.08	2800	338.6372	40.92396	-91.39365
5600091	-987	1028	403	-5.58223	7.702501	344.6698	0	12.19	0	0	0	5	5	0.02	1.256839	3	10	0.08	2800	338.8297	40.92396	-91.39365
5600201	-1401	2061	351	-7.449078	4.099565	344.6113	0	12.19	0	0	0	5	5	0.02	1.258115	3	10	0.08	2800	341.6278	40.92396	-91.39365
5600356	-1369	1334	-160	-13.0678	0.712875	344.7013	0	12.19	0	0	0	5	5	0.02	1.255014	3	10	0.08	2800	340.4851	40.92396	-91.39365
5600458	-1480	1802	-199	-15.37291	-0.05216589	345.1562	0	12.19	0	0	0	5	5	0.02	1.223481	3	10	0.08	2800	345.7572	40.92396	-91.39365
5600582	3131	-1035	-449	-12.27378	0.6406919	345.0593	0	12.08	0	0	0	5	5	0.02	1.184896	3	10	0.08	2800	348.5809	40.92396	-91.39365
5600671	4204	-875	357	-6.613995	1.049069	345.1164	0	12.08	0	0	0	5	5	0.02	1.152402	3	10	0.08	2800	347.9431	40.92396	-91.39365
5600722	2949	-1246	-168	-3.413138	2.391057	345.071	0	12.08	0	0	0	5	5	0.02	1.127453	3	10	0.08	2800	346.7086	40.92396	-91.39365
5600782	2845	1803	-843	-1.02354	2.112925	345.7316	0	12.08	0	0	0	5	5	0.02	1.102951	3	10	0.08	2800	346.1393	40.92396	-91.39365
5600925	-2389	-853	-1153	1.639463	-1.112988	347.3899	0	12.08	0	0	0	5	5	0.02	1.071227	3	10	0.08	2800	349.1569	40.92396	-91.39365
5601025	389	-128	-2223	-2.253114	1.956089	350.7209	0	12.08	0	0	0	5	5	0.02	1.055495	3	10	0.08	2800	349.9243	40.92396	-91.39365
5601113	-2039	-703	-2056	-1.947608	2.526464	353.0764	0	12.08	0	0	0	5	5	0.02	1.048044	3	10	0.08	2800	354.1019	40.92396	-91.39365
5601193	-2981	1235	-1234	-7.387272	3.065907	356.0679	0	12.08	0	0	0	5	5	0.02	1.044809	3	10	0.08	2800	356.4812	40.92395	-91.39365
5601295	3358	1172	-59	-2.508346	1.529389	357.8179	0	12.08	0	0	0	5	5	0.02	1.045404	3	10	0.08	2800	3.710785	40.92395	-91.39365
5601421	-1364	1345	-290	-1.979746	-0.3262462	358.2485	0	12.36	0	0	0	5	5	0.02	1.050797	3	10	0.08	2800	0.8826294	40.92395	-91.39365
5601500	1527	-1027	204	-2.788471	-0.0009044647	357.8775	0	12.36	0	0	0	5	5	0.02	1.052184	3	10	0.08	2800	0.6933899	40.92395	-91.39365
5601704	256	511	86	-0.5669904	2.21093	356.0699	0	12.36	0	0	0	5	5	0.02	1.055194	3	10	0.08	2800	354.328	40.92395	-91.39365
5601800	-944	-116	530	-1.713259	1.161986	354.9137	0	12.36	0	0	0	5	5	0.02	1.046687	3	10	0.08	2800	354.3729	40.92395	-91.39365
5601950	-1341	733	675	-1.164834	1.01421	353.9508	0	12.36	0	0	0	5	5	0.02	1.024895	3	10	0.08	2800	352.5325	40.92395	-91.39365
5602023	-4940	129	540	-5.294766	0.2142178	352.7807	0	12.36	0	0	0	5	5	0.02	1.021206	3	10	0.08	2800	350.4669	40.92395	-91.39365
5602099	-1454	1999	1167	-9.227419	-0.3267073	351.6412	0	12.36	0	0	0	5	5	0.02	1.010498	3	10	0.08	2800	349.6377	40.92395	-91.39365
5602208	1417	56	-133	-9.672929	-1.50427	350.7613	0	12.36	0	0	0	5	5	0.02	0.9986202	3	10	0.08	2800	351.2849	40.92395	-91.39365
5602303	-283	-594	-137	-7.315223	-1.006263	351.0864	0	12.36	0	0	0	5	5	0.02	0.9964473	3	10	0.08	2800	351.7052	40.92395	-91.39365
5602407	2407	-1966	-328	-4.627814	2.135057	351.8819	0	12.36	0	0	0	5	5	0.02	0.9942279	3	10	0.08	2800	350.2437	40.92395	-91.39365
5602569	-541	779	-140	-3.233484	3.63736	352.5437	0	12.36	0	0	0	5	5	0.02	0.9899302	3	10	0.08	2800	350.2285	40.92395	-91.39365
5602663	816	2523	-51	-3.521241	0.3931299	352.766	0	12.36	0	0	0	5	5	0.02	0.9834877	3	10	0.08	2800	349.5096	40.92395	-91.39365
5602740	-20	109	667	-1.551402	-2.557228	352.444	0	12.36	0	0	0	5	5	0.02	0.9828265	3	10	0.08	2800	351.5107	40.92395	-91.39365
5602850	162	929	85	-3.977535	-0.5703706	351.3717	0	12.36	0	0	0	5	5	0.02	0.9819095	3	10	0.08	2800	349.4648	40.92395	-91.39365
5602969	1498	83	58	-2.079058	-2.610275	351.2763	0	12.36	0	0	0	5	5	0.02	0.9812898	3	10	0.08	2800	350.5867	40.92395	-91.39365
5602992	562	-919	-353	-1.738482	-2.384589	351.2329	0	12.36	0	0	0	5	5	0.02	0.9811563	3	10	0.08	2800	350.5867	40.92395	-91.39365
5603108	-8	-1416	-23	-2.916807	1.194309	351.0119	0	12.36	0	0	0	5	5	0.02	0.9863963	3	10	0.08	2800	349.0612	40.92395	-91.39365
5603200	2071	870	-586	0.9094533	0.5573875	351.3615	0	12.36	0	0	0	5	5	0.02	0.9956082	3	10	0.08	2800	348.9319	40.92395	-91.39365
5603325	-6043	-1301	-160	-3.669121	1.247287	351.8064	0	12.36	0	0	0	5	5	0.02	1.006424	3	10	0.08	2800	345.8608	40.92395	-91.39365
5603464	668	-3496	-102	-7.434766	5.554892	352.8361	0	12.36	0	0	0	5	5	0.02	1.0296	3	10	0.08	2800	349.213	40.92396	-91.39365
5603531	-393	-3146	-13	-7.254388	7.162323	352.9477	0	12.36	0	0	0	5	5	0.02	1.045637	3	10	0.08	2800	349.213	40.92396	-91.39365
5603661	-1523	-303	-221	-12.79284	8.113604	352.5473	0	12.36	0	0	0	5	5	0.02	1.089938	3	10	0.08	2800	346.7329	40.92396	-91.39365
5603738	-407	-1419	272	-13.27469	8.99097	352.2334	0	12.36	0	0	0	5	5	0.02	1.120484	3	10	0.08	2800	346.9715	40.92396	-91.39365
5603848	-527	-1535	636	-14.68272	11.08228	351.5034	0	12.36	0	0	0	5	5	0.02	1.150902	3	10	0.08	2800	344.7584	40.92396	-91.39365
5603947	-881	-146	843	-14.90877	11.48597	351.1318	0	12.36	0	0	0	5	5	0.02	1.167178	3	10	0.08	2800	344.3409	40.92396	-91.39365
5603995	1583	869	-340	-13.92374	10.87857	350.977	0	12.36	0	0	0	5	5	0.02	1.175085	3	10	0.08	2800	344.3409	40.92396	-91.39365
5604126	2039	1672	-1543	-7.890934	9.850894	351.6582	0	12.19	0	0	0	5	5	0.02	1.193443	3	10	0.08	2800	344.8819	40.92396	-91.39365
5604230	616	-476	-2262	-4.91589	7.742074	354.4718	0	12.19	0	0	0	5	5	0.02	1.199085	3	10	0.08	2800	348.6689	40.92396	-91.39365
5604286	3744	-341	-1118	-3.651343	8.059507	355.358	0	12.19	0	0	0	5	5	0.02	1.20341	3	10	0.08	2800	349.8219	40.92396	-91.39365
5604426	576	-258	168	-3.310825	3.573032	357.0395	0	12.19	0	0	0	5	5	0.02	1.205748	3	10	0.08	2800	352.8518	40.92396	-91.39365
5604471	-1468	-217	320	-3.837902	3.714433	357.1375	0	12.19	0	0	0	5	5	0.02	1.21077	3	10	0.08	2800	353.1375	40.92396	-91.39365
5604579	-849	167	-74	-5.46906	3.817421	357.3406	0	12.19	0	0	0	5	5	0.02	1.214676	3	10	0.08	2800	355.0965	40.92396	-91.39365
5604671	-1505	2070	383	-5.789107	-0.2338108	357.0059	0	12.19	0	0	0	5	5	0.02	1.213892	3	10	0.08	2800	355.0241	40.92396	-91.39365
5604862	44	204	635	-8.105197	-2.741152	355.7932	0	12.19	0	0	0	5	5	0.02	1.206922	3	10	0.08	2800	357.5482	40.92395	-91.39365
5604901	-456	-778	816	-8.190733	-2.38594	355.0386	0	12.19	0	0	0	5	5	0.02	1.206543	3	10	0.08	2800	359.3812	40.92395	-91.39365
5604999	422	556	736	-8.201862	-1.838527	353.7158	0	12.19	0	0	0	5	5	0.02	1.199305	3	10	0.08	2800	356.1692	40.92395	-91.39365
5605112	2113	1822	360	-7.935439	-3.871058	350.6218	0	12.25	0	0	0	5	5	0.02	1.185207	3	10	0.08	2800	354.7585	40.92395	-91.39365
5605179	4389	1183	361	-5.419361	-4.216009	350.3139	0	12.25	0	0	0	5	5	0.02	1.184699	3	10	0.08	2800	353.2788	40.92395	-91.39365
5605354	-1401	-2397	-302	-2.477005	-1.076022	349.9635	0	12.25	0	0	0	5	5	0.02	1.198469	3	10	0.08	2800	349.2651	40.92395	-91.39365
5605429	1820	670	-1185	-1.404941	0.4178248	350.6901	0	12.25	0	0	0	5	5	0.02	1.203825	3	10	0.08	2800	348.471	40.92395	-91.39365
5605572	-5003	-2374	-1071	-2.708141	-0.9978324	352.4341	0	12.25	0	0	0	5	5	0.02	1.234452	3	10	0.08	2800	346.2909	40.92395	-91.39365
5605683	3556	1392	-1684	-0.5872319	1.774971	357.0651	0	12.25	0	0	0	5	5	0.02	1.262053	3	10	0.08	2800	354.7362	40.92395	-91.39365
5605868	-2534	-1257	-1137	-0.2795752	1.073791	359.485	0	12.25	0	0	0	5	5	0.02	1.358558	3	10	0.08	2800	357.197	40.92395	-91.39365
5605932	353	-1854	51	-1.982775	4.858976	359.7195	0	12.36	0	0	0	5	5	0.02	1.408664	3	10	0.08	2800	355.6229	40.92395	-91.39365
5605991	1130	-109	1509	-1.064612	5.767484	358.9535	0	12.36	0	0	0	5	5	0.02	1.420753	3	10	0.08	2800	352.5285	40.92395	-91.39365
5606053	522	1454	1004	-0.8983843	5.099147	358.3709	0	12.36	0	0	0	5	5	0.02	1.456898	3	10	0.08	2800	352.5285	40.92395	-91.39365
5606193	-24	414	977	-2.990635	1.058341	355.0686	0	12.36	0	0	0	5	5	0.02	1.53385	3	10	0.08	2800	348.5297	40.92395	-91.39365
5606256	127	1791	1534	-3.408845	0.5134722	353.5526	0	12.36	0	0	0	5	5	0.02	1.566996	3	10	0.08	2800	346.9145	40.92395	-91.39365
5606398	-1111	1894	-377	-3.926713	-3.554128	352.5211	0	12.36	0	0	0	5	5	0.02	1.629427	3	10	0.08	2800	347.8206	40.92395	-91.39365
5606468	-2230	561	337	-5.284182	-4.419975	352.2253	0	12.36	0	0	0	5	5	0.02	1.660866	3	10	0.08	2800	347.8206	40.92395	-91.39365
5606630	-1164	-2122	577	-11.31901	-4.515138	351.2705	0	12.36	0	0	0	5	5	0.02	1.71313	3	10	0.08	2800	350.635	40.92395	-91.39365
5606683	-279	-2218	707	-11.69011	-3.277538	351.0338	0	12.36	0	0	0	5	5	0.02	1.724395	3	10	0.08	2800	350.635	40.92395	-91.39365
5606797	-741	156	477	-11.04923	-0.3018655	349.6887	0	12.36	0	0	0	5	5	0.02	1.744239	3	10	0.08	2800	348.1434	40.92395	-91.39365
5606908	-407	226	-207	-12.62937	-1.506455	348.6927	0	12.08	0	0	0	5	5	0.02	1.755898	3	10	0.08	2800	345.8343	40.92395	-91.39365
5607027	444	-70	854	-11.53846	-1.508046	347.2464	0	12.08	0	0	0	5	5	0.02	1.753576	3	10	0.08	2800	345.2701	40.92395	-91.39365
5607092	-234	-569	676	-11.30574	-1.645608	346.7084	0	12.08	0	0	0	5	5	0.02	1.752073	3	10	0.08	2800	345.2701	40.92395	-91.39365
5607171	-974	1370	-70	-10.69876	-2.349458	346.2246	0	12.08	0	0	0	5	5	0.02	1.747891	3	10	0.08	2800	344.7685	40.92395	-91.39365
5607323	656	-1231	-546	-9.158114	-0.7349833	346.8279	0	12.08	0	0	0	5	5	0.02	1.737436	3	10	0.08	2800	346.0676	40.92395	-91.39365
5607396	1427	-656	-373	-8.059162	0.2516018	347.4532	0	12.08	0	0	0	5	5	0.02	1.730173	3	10	0.08	2800	346.6999	40.92395	-91.39365
5607500	-151	1578	-429	-7.308795	-0.1701678	347.7295	0	12.08	0	0	0	5	5	0.02	1.709925	3	10	0.08	2800	346.4861	40.92395	-91.39365
5607646	364	-923	-351	-9.919225	-2.70702	347.0509	0	12.08	0	0	0	5	5	0.02	1.690522	3	10	0.08	2800	348.7385	40.92395	-91.39365
5607780	-1381	149	-93	-10.6652	1.264668	347.0193	0	12.08	0	0	0	5	5	0.02	1.652484	3	10	0.08	2800	347.7839	40.92395	-91.39365
5607840	994	1015	-179	-10.55844	0.7860972	347.2312	0	12.25	0	0	0	5	5	0.02	1.632788	3	10	0.08	2800	346.4827	40.92395	-91.39365
5608029	254	-845	-398	-2.92556	-0.6985182	349.3907	0	12.25	0	0	0	5	5	0.02	1.570724	3	10	0.08	2800	350.9025	40.92395	-91.39365
5608131	-1948	82	888	-4.542744	0.4038092	349.2745	0	12.25	0	0	0	5	5	0.02	1.542135	3	10	0.08	2800	348.9359	40.92395	-91.39365
5608228	653	-828	286	-6.646165	0.09316931	348.9728	0	12.25	0	0	0	5	5	0.02	1.491031	3	10	0.08	2800	349.0739	40.92395	-91.39365
5608282	1833	-1633	682	-6.102356	0.7767731	348.8744	0	12.25	0	0	0	5	5	0.02	1.472466	3	10	0.08	2800	349.0739	40.92395	-91.39365
5608455	1617	-310	983	-6.044174	3.288791	346.385	0	12.25	0	0	0	5	5	0.02	1.426992	3	10	0.08	2800	343.6335	40.92395	-91.39365
5608504	1050	-1539	466	-5.306748	3.874793	346.1726	0	12.25	0	0	0	5	5	0.02	1.407046	3	10	0.08	2800	343.6335	40.92395	-91.39365
5608658	2573	2118	-702	-4.022977	4.201073	345.5681	0	12.25	0	0	0	5	5	0.02	1.375605	3	10	0.08	2800	339.1419	40.92395	-91.39365
5608749	-2940	-3217	-1100	-4.770938	5.284281	347.7898	0	12.19	0	0	0	5	5	0.02	1.353063	3	10	0.08	2800	342.4517	40.92395	-91.39365
5608910	1408	1659	193	-9.841112	1.77433	347.1611	0	12.19	0	0	0	5	5	0.02	1.308836	3	10	0.08	2800	345.1096	40.92395	-91.39365
5609015	-894	-454	266	-7.580323	2.734742	346.6719	0	12.19	0	0	0	5	5	0.02	1.285491	3	10	0.08	2800	344.8947	40.92395	-91.39365
5609091	-186	1703	1038	-7.351601	1.709276	346.1074	0	12.19	0	0	0	5	5	0.02	1.268006	3	10	0.08	2800	343.2519	40.92395	-91.39365
5609191	-2127	-1379	1016	-9.666453	0.7970582	344.7434	0	12.19	0	0	0	5	5	0.02	1.250892	3	10	0.08	2800	344.0636	40.92395	-91.39365
5609348	1365	-704	775	-7.722987	0.675253	343.2345	0	12.19	0	0	0	5	5	0.02	1.236826	3	10	0.08	2800	341.1842	40.92395	-91.39365
5609428	175	-849	92	-7.194743	1.669638	343.0485	0	12.19	0	0	0	5	5	0.02	1.232819	3	10	0.08	2800	341.2628	40.92395	-91.39365
5609504	2722	91	-377	-5.562267	1.884042	343.5975	0	12.19	0	0	0	5	5	0.02	1.234203	3	10	0.08	2800	342.8116	40.92395	-91.39365
5609656	-2626	126	-240	-6.360422	2.730214	344.7534	0	12.02	0	0	0	5	5	0.02	1.247607	3	10	0.08	2800	343.7645	40.92395	-91.39365
5609752	80	-845	718	-10.33098	2.482311	344.1257	0	12.02	0	0	0	5	5	0.02	1.258945	3	10	0.08	2800	342.6137	40.92395	-91.39365
5609825	1265	-180	362	-9.640228	2.592434	343.7057	0	12.02	0	0	0	5	5	0.02	1.270048	3	10	0.08	2800	342.7664	40.92395	-91.39365
5609959	730	-867	-187	-7.051887	2.27132	343.8357	0	12.02	0	0	0	5	5	0.02	1.283771	3	10	0.08	2800	341.1196	40.92395	-91.39365
5610075	231	-275	-251	-7.119223	3.432547	344.5849	0	12.02	0	0	0	5	5	0.02	1.291307	3	10	0.08	2800	342.597	40.92395	-91.39365
5610177	-771	-1457	-157	-9.688302	3.659619	344.791	0	12.02	0	0	0	5	5	0.02	1.304361	3	10	0.08	2800	341.8762	40.92395	-91.39365
5610254	400	-1699	-1181	-9.561189	4.704834	345.1173	0	12.02	0	0	0	5	5	0.02	1.311062	3	10	0.08	2800	341.8762	40.92395	-91.39365
5610315	1209	1052	-806	-6.953694	5.605858	345.9764	0	12.02	0	0	0	5	5	0.02	1.31334	3	10	0.08	2800	342.4745	40.92395	-91.39365
5610411	1154	1316	-379	-5.516562	4.216982	346.2511	0	12.02	0	0	0	5	5	0.02	1.323277	3	10	0.08	2800	342.0545	40.92395	-91.39365
5610587	2262	-1504	-494	-4.661481	1.534967	345.157	0	12.14	0	0	0	5	5	0.02	1.326179	3	10	0.08	2800	342.6637	40.92395	-91.39365
5610687	2893	-781	102	-1.68894	2.566515	345.3315	0	12.14	0	0	0	5	5	0.02	1.326821	3	10	0.08	2800	341.9161	40.92396	-91.39365
5610735	462	-50	146	-0.3836922	2.507182	345.2924	0	12.14	0	0	0	5	5	0.02	1.326835	3	10	0.08	2800	340.6852	40.92396	-91.39365
5610844	-168	2159	-253	-0.6097413	1.364951	345.2487	0	12.14	0	0	0	5	5	0.02	1.327784	3	10	0.08	2800	339.631	40.92396	-91.39365
5610924	-539	339	613	-1.414592	0.05136547	345.1255	0	12.14	0	0	0	5	5	0.02	1.328403	3	10	0.08	2800	341.1678	40.92396	-91.39365
5611079	-747	-1569	56	-4.627035	1.872558	343.988	0	12.14	0	0	0	5	5	0.02	1.326493	3	10	0.08	2800	339.4897	40.92396	-91.39365
5611177	-3210	1521	-22	-7.415004	1.025584	343.347	0	12.14	0	0	0	5	5	0.02	1.318258	3	10	0.08	2800	337.9497	40.92396	-91.39365
5611217	-1839	1361	-239	-8.6012	0.4691344	343.1962	0	12.14	0	0	0	5	5	0.02	1.31133	3	10	0.08	2800	335.6352	40.92396	-91.39365
5611321	1070	128	668	-8.668506	-0.2443461	343.2449	0	12.14	0	0	0	5	5	0.02	1.286777	3	10	0.08	2800	338.0453	40.92396	-91.39365
5611423	-1431	-1373	247	-10.00065	0.5588032	343.1981	0	11.97	0	0	0	5	5	0.02	1.273098	3	10	0.08	2800	338.4208	40.92396	-91.39365
5611511	-486	826	-314	-9.059007	0.7745167	343.9146	0	11.97	0	0	0	5	5	0.02	1.253333	3	10	0.08	2800	338.7762	40.92396	-91.39365
5611625	2557	1944	-1082	-8.087314	-0.5198845	345.5196	0	11.97	0	0	0	5	5	0.02	1.229959	3	10	0.08	2800	339.925	40.92396	-91.39365
5611759	-1180	645	387	-6.185729	-0.4286861	348.3363	0	11.97	0	0	0	5	5	0.02	1.216981	3	10	0.08	2800	345.4608	40.92396	-91.39365
5611839	634	-1365	-236	-8.58448	0.2670031	348.9307	0	11.97	0	0	0	5	5	0.02	1.191841	3	10	0.08	2800	350.312	40.92396	-91.39365
5611926	1728	95	792	-7.703174	1.236367	348.9713	0	11.97	0	0	0	5	5	0.02	1.184323	3	10	0.08	2800	347.3951	40.92396	-91.39365
5612053	5865	1077	232	-5.499309	0.7729894	348.3569	0	11.97	0	0	0	5	5	0.02	1.178421	3	10	0.08	2800	350.2729	40.92396	-91.39365
5612185	-286	-1531	-211	-2.961728	1.225404	348.3922	0	11.97	0	0	0	5	5	0.02	1.192398	3	10	0.08	2800	348.6035	40.92396	-91.39365
5612292	687	-29	-831	-4.411243	3.957989	350.3173	0	11.97	0	0	0	5	5	0.02	1.219896	3	10	0.08	2800	348.2362	40.92396	-91.39365
5612344	2118	258	-192	-3.108159	3.236092	351.2107	0	12.25	0	0	0	5	5	0.02	1.223182	3	10	0.08	2800	350.0388	40.92396	-91.39365
5612424	-476	-599	241	-2.24528	3.21765	351.4004	0	12.25	0	0	0	5	5	0.02	1.239322	3	10	0.08	2800	350.0388	40.92396	-91.39365
5612604	913	-87	281	-3.133327	4.0753	350.0246	0	12.25	0	0	0	5	5	0.02	1.257931	3	10	0.08	2800	347.0042	40.92396	-91.39365
5612764	83	384	160	-1.413651	4.96302	349.4862	0	12.25	0	0	0	5	5	0.02	1.303317	3	10	0.08	2800	345.6479	40.92396	-91.39365
5612872	-1263	1008	29	-3.585397	1.386242	348.6679	0	12.25	0	0	0	5	5	0.02	1.321622	3	10	0.08	2800	342.1169	40.92396	-91.39365
5612963	1053	-981	-121	-3.235355	1.475957	348.7437	0	12.25	0	0	0	5	5	0.02	1.334716	3	10	0.08	2800	344.1164	40.92396	-91.39365
5613034	-556	152	528	-3.03862	1.797923	348.301	0	12.25	0	0	0	5	5	0.02	1.34793	3	10	0.08	2800	343.0569	40.92396	-91.39365
5613128	-31	-724	535	-3.435368	1.447169	347.9427	0	12.25	0	0	0	5	5	0.02	1.352309	3	10	0.08	2800	341.2486	40.92396	-91.39365
5613187	-336	337	-285	-4.280709	-0.09817018	346.9486	0	12.25	0	0	0	5	5	0.02	1.357192	3	10	0.08	2800	341.0457	40.92396	-91.39365
5613233	-1401	1343	-345	-5.56905	-0.3096294	346.6332	0	12.25	0	0	0	5	5	0.02	1.359781	3	10	0.08	2800	339.8383	40.92396	-91.39365
5613295	-1080	1167	76	-6.44405	-1.951695	346.1359	0	12.25	0	0	0	5	5	0.02	1.364853	3	10	0.08	2800	340.1666	40.92396	-91.39365
5613398	-1876	-919	-325	-7.022736	-1.810732	346.1592	0	12.25	0	0	0	5	5	0.02	1.369484	3	10	0.08	2800	341.0865	40.92396	-91.39365
5613499	-1222	-2046	-188	-8.641269	0.1645671	346.0795	0	12.25	0	0	0	5	5	0.02	1.372599	3	10	0.08	2800	341.3626	40.92396	-91.39365
5613590	1122	622	-1544	-6.68687	2.113192	349.1517	0	12.25	0	0	0	5	5	0.02	1.375131	3	10	0.08	2800	342.6377	40.92396	-91.39365
5613748	-788	-535	-1054	-4.85998	1.340377	352.1383	0	12.25	0	0	0	5	5	0.02	1.386308	3	10	0.08	2800	348.5219	40.92396	-91.39365
5613861	-1174	-882	-670	-8.02776	4.793468	354.228	0	12.25	0	0	0	5	5	0.02	1.39976	3	10	0.08	2800	352.0211	40.92396	-91.39365
5613907	-1253	-1004	829	-8.587126	5.213822	354.2126	0	12.25	0	0	0	5	5	0.02	1.40353	3	10	0.08	2800	352.0211	40.92396	-91.39365
5614025	-1778	-771	662	-13.40231	4.874313	353.3818	0	12.14	0	0	0	5	5	0.02	1.429576	3	10	0.08	2800	350.319	40.92396	-91.39365
5614077	454	-909	229	-13.8475	5.854146	352.7489	0	12.14	0	0	0	5	5	0.02	1.432577	3	10	0.08	2800	352.8079	40.92396	-91.39365
5614188	1336	-366	932	-11.25177	6.44703	351.7084	0	12.14	0	0	0	5	5	0.02	1.448956	3	10	0.08	2800	350.1133	40.92396	-91.39365
5614352	193	-1163	913	-12.11915	3.784397	348.5282	0	12.14	0	0	0	5	5	0.02	1.492561	3	10	0.08	2800	348.4266	40.92396	-91.39365
5614386	2694	-1852	412	-11.15554	4.45594	348.329	0	12.14	0	0	0	5	5	0.02	1.497079	3	10	0.08	2800	345.7727	40.92396	-91.39365
5614508	-1205	574	610	-7.658043	6.070297	346.6132	0	12.14	0	0	0	5	5	0.02	1.513731	3	10	0.08	2800	344.273	40.92396	-91.39365
5614579	-438	-222	877	-8.220517	5.756843	345.6706	0	12.14	0	0	0	5	5	0.02	1.522749	3	10	0.08	2800	341.2383	40.92396	-91.39365
5614663	784	-18	176	-6.847335	6.294147	345.2808	0	12.14	0	0	0	5	5	0.02	1.53291	3	10	0.08	2800	339.9323	40.92396	-91.39365
5614780	-1655	458	-361	-7.443691	6.090672	345.0956	0	12.14	0	0	0	5	5	0.02	1.546332	3	10	0.08	2800	339.7345	40.92396	-91.39365
5614929	81	1642	-640	-10.28177	1.617397	345.2458	0	12.31	0	0	0	5	5	0.02	1.551897	3	10	0.08	2800	342.2745	40.92396	-91.39365
5615037	409	1508	-313	-9.92846	-0.4376186	345.8908	0	12.31	0	0	0	5	5	0.02	1.562594	3	10	0.08	2800	344.0491	40.92396	-91.39365
5615070	-482	335	-681	-9.740322	-1.094849	346.4423	0	12.31	0	0	0	5	5	0.02	1.564415	3	10	0.08	2800	345.8937	40.92396	-91.39365
5615261	1292	-2102	-877	-9.14449	1.914736	348.5341	0	12.31	0	0	0	5	5	0.02	1.569694	3	10	0.08	2800	349.1424	40.92396	-91.39365
5615355	602	-1423	-306	-6.933329	5.335485	349.3128	0	12.31	0	0	0	5	5	0.02	1.561056	3	10	0.08	2800	348.5604	40.92396	-91.39365
5615462	-235	199	172	-6.510675	5.931054	349.4101	0	12.31	0	0	0	5	5	0.02	1.545747	3	10	0.08	2800	346.135	40.92395	-91.39365
5615654	2134	2354	86	-2.910871	2.522221	349.2162	0	12.31	0	0	0	5	5	0.02	1.499788	3	10	0.08	2800	347.9815	40.92395	-91.39365
5615721	480	1377	-300	-2.386722	0.783619	349.4327	0	12.31	0	0	0	5	5	0.02	1.47293	3	10	0.08	2800	348.8131	40.92395	-91.39365
5615796	-1577	-27	-182	-3.102074	0.3311664	350.0897	0	12.31	0	0	0	5	5	0.02	1.427371	3	10	0.08	2800	347.9293	40.92395	-91.39365
5615955	1091	-994	-1089	-3.862364	-0.3978051	350.3246	0	12.08	0	0	0	5	5	0.02	1.313608	3	10	0.08	2800	347.551	40.92395	-91.39365
5616088	-36	104	-592	-0.2467548	-1.044407	351.0023	0	12.08	0	0	0	5	5	0.02	1.258694	3	10	0.08	2800	349.8412	40.92395	-91.39365
5616188	306	-885	-159	-3.282325	-0.7774848	351.3015	0	12.08	0	0	0	5	5	0.02	1.200668	3	10	0.08	2800	349.2478	40.92395	-91.39365
5616227	-488	-1748	14	-3.323811	0.01664696	351.3884	0	12.08	0	0	0	5	5	0.02	1.158225	3	10	0.08	2800	351.3697	40.92395	-91.39365
5616404	-113	1198	271	-5.259451	3.974693	350.7152	0	12.08	0	0	0	5	5	0.02	1.067462	3	10	0.08	2800	347.4082	40.92395	-91.39365
5616472	1462	1558	652	-4.7909	1.876106	350.3307	0	12.08	0	0	0	5	5	0.02	1.032419	3	10	0.08	2800	347.1458	40.92395	-91.39365
5616523	-1184	272	-1068	-7.082431	0.9207326	350.2242	0	12.08	0	0	0	5	5	0.02	0.9965111	3	10	0.08	2800	347.0645	40.92395	-91.39365
5616630	309	-533	-660	-7.085133	1.375322	350.6227	0	12.08	0	0	0	5	5	0.02	0.9507388	3	10	0.08	2800	349.1223	40.92395	-91.39365
5616724	-2432	387	-154	-6.550683	1.513723	351.6381	0	12.25	0	0	0	5	5	0.02	0.9210472	3	10	0.08	2800	349.8884	40.92395	-91.39365
5616847	1383	-769	1221	-8.478566	0.7567989	350.9013	0	12.25	0	0	0	5	5	0.02	0.8630108	3	10	0.08	2800	350.3195	40.92395	-91.39365
5617098	1322	1484	479	-8.566695	0.2728177	346.6145	0	12.25	0	0	0	5	5	0.02	0.7803276	3	10	0.08	2800	345.9666	40.92395	-91.39365
5617180	2018	184	280	-6.689486	-1.086658	344.2907	0	12.25	0	0	0	5	5	0.02	0.7640287	3	10	0.08	2800	344.0043	40.92395	-91.39365
5617228	2116	-1900	-781	-5.311779	-0.7103833	344.5334	0	12.25	0	0	0	5	5	0.02	0.7541917	3	10	0.08	2800	344.0043	40.92395	-91.39365
5617336	-2424	-517	73	-3.575015	2.035035	345.4957	0	12.25	0	0	0	5	5	0.02	0.745846	3	10	0.08	2800	343.4739	40.92395	-91.39365
5617460	678	-457	-357	-6.292523	0.5433494	346.3697	0	12.25	0	0	0	5	5	0.02	0.7468504	3	10	0.08	2800	345.0303	40.92395	-91.39365
5617539	-25	-1443	-556	-4.977877	1.884132	346.6233	0	12.25	0	0	0	5	5	0.02	0.7499365	3	10	0.08	2800	345.0303	40.92395	-91.39365
5617748	-466	-1309	-535	-3.354969	0.8007156	347.7298	0	12.08	0	0	0	5	5	0.02	0.7612495	3	10	0.08	2800	346.4735	40.92395	-91.39365
5617831	-1452	-368	-600	-4.673822	2.89581	348.4728	0	12.08	0	0	0	5	5	0.02	0.7757999	3	10	0.08	2800	345.8916	40.92395	-91.39365
5617906	-694	-44	-359	-5.863955	3.43949	349.0629	0	12.08	0	0	0	5	5	0.02	0.7818711	3	10	0.08	2800	344.7454	40.92395	-91.39365
5617991	-200	-362	-272	-5.243019	3.92439	349.9964	0	12.08	0	0	0	5	5	0.02	0.7967951	3	10	0.08	2800	345.6178	40.92395	-91.39365
5618132	-898	-587	155	-8.192932	4.214424	349.7286	0	12.08	0	0	0	5	5	0.02	0.8099111	3	10	0.08	2800	345.2244	40.92395	-91.39365
5618248	-1777	1394	412	-6.97799	3.676788	350.0095	0	12.08	0	0	0	5	5	0.02	0.8269427	3	10	0.08	2800	347.625	40.92395	-91.39365
5618319	-1304	1187	493	-7.688678	3.136804	349.8294	0	12.08	0	0	0	5	5	0.02	0.8386236	3	10	0.08	2800	346.1884	40.92395	-91.39365
5618426	-287	-860	-163	-5.23436	4.868098	349.7706	0	12.08	0	0	0	5	5	0.02	0.8697037	3	10	0.08	2800	345.5532	40.92395	-91.39365
5618537	-976	713	-665	-6.83906	5.598888	349.9626	0	12.25	0	0	0	5	5	0.02	0.880303	3	10	0.08	2800	345.2661	40.92395	-91.39365
5618640	-1729	1	-58	-7.406522	4.016629	350.0357	0	12.25	0	0	0	5	5	0.02	0.914508	3	10	0.08	2800	346.0994	40.92395	-91.39365
5618792	28	-141	-553	-9.525125	4.958127	350.0563	0	12.25	0	0	0	5	5	0.02	0.931474	3	10	0.08	2800	345.1314	40.92395	-91.39365
5618901	-1783	2090	786	-8.80936	3.967883	349.4491	0	12.25	0	0	0	5	5	0.02	0.9422807	3	10	0.08	2800	345.5353	40.92395	-91.39365
5618951	-1893	2121	100	-9.942475	2.70374	349.0955	0	12.25	0	0	0	5	5	0.02	0.946418	3	10	0.08	2800	344.5997	40.92395	-91.39365
5619092	878	-1343	399	-8.821089	2.390608	348.9084	0	12.25	0	0	0	5	5	0.02	0.9832397	3	10	0.08	2800	346.6696	40.92395	-91.39365
5619143	-84	-172	566	-9.158816	2.874984	348.6307	0	12.25	0	0	0	5	5	0.02	0.987655	3	10	0.08	2800	346.3188	40.92395	-91.39365
5619291	962	1274	83	-8.06102	1.603231	348.0474	0	12.25	0	0	0	5	5	0.02	1.012656	3	10	0.08	2800	345.9308	40.92395	-91.39365
5619337	992	261	-615	-7.730895	1.533853	348.1592	0	12.25	0	0	0	5	5	0.02	1.019497	3	10	0.08	2800	346.2999	40.92395	-91.39365
5619522	430	-546	-959	-6.627539	3.795546	349.5503	0	12.19	0	0	0	5	5	0.02	1.04927	3	10	0.08	2800	348.9043	40.92395	-91.39365
5619539	430	-546	-959	-6.627539	3.795546	349.5503	0	12.19	0	0	0	5	5	0.02	1.052646	3	10	0.08	2800	348.9043	40.92395	-91.39365
5619739	-3361	651	-1083	-8.279452	1.749725	352.254	0	12.19	0	0	0	5	5	0.02	1.108246	3	10	0.08	2800	350.8393	40.92395	-91.39365
5619788	-137	682	304	-9.420271	1.605522	352.4339	0	12.19	0	0	0	5	5	0.02	1.11542	3	10	0.08	2800	353.0281	40.92395	-91.39365
5619870	704	-1708	542	-9.055272	3.25332	351.8282	0	12.19	0	0	0	5	5	0.02	1.146005	3	10	0.08	2800	352.4626	40.92395	-91.39365
