time(ms)	gyro_x(deg/s)	gyro_y(deg/s)	gyro_z(deg/s)	orientation_roll(deg)	orientation_pitch(deg)	orientation_yaw(deg)	throttle	battery(V)	loop_time(uS)	pid_output_roll	pid_output_pitch	pid_output_yaw	pid_output_throttle	ultrasonic_alt	baro_alt	flight_mode	p_gain_altitude	i_gain_altitude	d_gain_altitude	compass_heading	latitude	longitude
313967	93	-995	288	-4.951959	0.5836531	343.3074	0	10.94	20029	83	23	5	5	0.02	1.279076	8	10	0.08	2800	349.5041	40.92395	-91.39361
314018	-1416	-1103	28	-5.85243	1.723303	342.953	0	10.94	20032	82	23	5	5	0.02	1.27739	8	10	0.08	2800	345.9633	40.92395	-91.39361
314111	-1760	-1111	309	-6.871496	2.511535	342.4987	0	10.94	20028	81	24	5	5	0.02	1.272273	8	10	0.08	2800	344.9575	40.92395	-91.39361
314205	2384	2174	81	-6.00411	0.5883676	342.4586	0	10.94	20010	81	27	5	5	0.02	1.267543	8	10	0.08	2800	345.0529	40.92395	-91.39361
314315	-17	-881	-584	-4.282747	0.4772635	343.2632	0	10.94	20030	83	40	5	5	0.02	1.2661	8	10	0.08	2800	349.1628	40.92395	-91.39361
314436	-1556	-1352	-430	-5.192821	2.166587	344.5155	0	10.94	20026	80	42	5	5	0.02	1.258382	8	10	0.08	2800	350.1019	40.92395	-91.39361
314520	-843	-562	-739	-6.684668	3.564842	344.6472	0	10.94	20024	77	43	5	5	0.02	1.255471	8	10	0.08	2800	349.3494	40.92395	-91.39361
314637	-370	-142	-400	-5.562764	3.355138	345.1551	0	10.94	20029	83	44	5	5	0.02	1.265076	8	10	0.08	2800	349.8694	40.92395	-91.39361
314789	-693	13	-466	-6.780087	2.714978	346.2872	0	11.11	20030	72	32	5	5	0.02	1.275458	8	10	0.08	2800	349.9327	40.92395	-91.39361
314826	1625	-554	-533	-6.250599	2.887211	346.9135	0	11.11	20075	81	34	5	5	0.02	1.277076	8	10	0.08	2800	351.6307	40.92395	-91.39361
314979	-1873	591	523	-5.053198	1.069842	347.0974	0	11.11	20044	77	36	5	5	0.02	1.284707	8	10	0.08	2800	354.2086	40.92395	-91.39361
315032	-1780	145	134	-6.058858	0.8468348	346.8895	0	11.11	20031	77	36	5	5	0.02	1.290942	8	10	0.08	2800	350.2466	40.92395	-91.39361
315198	-765	-604	146	-6.438961	4.493433	346.2776	0	11.11	20026	57	34	5	5	0.02	1.312782	8	10	0.08	2800	352.2563	40.92395	-91.39361
315285	1576	2249	-502	-5.63101	2.949335	346.3785	0	11.11	20038	58	37	5	5	0.02	1.319026	8	10	0.08	2800	351.7931	40.92395	-91.39361
315357	-598	-692	-765	-4.006889	1.738962	346.7771	0	11.11	20008	54	39	5	5	0.02	1.322976	8	10	0.08	2800	353.4827	40.92395	-91.39361
315442	990	-430	-487	-5.765885	3.444831	347.5407	0	11.11	20010	50	47	5	5	0.02	1.341332	8	10	0.08	2800	354.833	40.92396	-91.39361
315534	2771	929	-676	-3.111724	3.101372	348.2797	0	11.11	20067	48	49	5	5	0.02	1.371607	8	10	0.08	2800	353.656	40.92396	-91.39361
315645	-3628	-886	-101	-5.110503	3.055334	348.5696	0	11.11	20032	49	44	5	5	0.02	1.399571	8	10	0.08	2800	355.1783	40.92396	-91.39361
315782	2076	74	325	-5.603323	3.243054	348.2175	0	11.11	20032	48	44	5	5	0.02	1.444116	8	10	0.08	2800	352.7645	40.92396	-91.39361
315849	2181	151	747	-2.873956	2.526439	347.8336	0	11.11	20027	45	37	5	5	0.02	1.465273	8	10	0.08	2800	353.7817	40.92396	-91.39361
316023	1275	1010	252	-2.403541	2.718036	346.9463	0	11.11	20031	32	34	5	5	0.02	1.50944	8	10	0.08	2800	350.4298	40.92396	-91.39362
316188	14	278	133	-2.98656	3.008306	346.2216	0	11.11	20037	21	31	5	5	0.02	1.549724	8	10	0.08	2800	348.0791	40.92395	-91.39362
316278	459	-495	403	-2.223756	2.87675	345.6514	0	11.11	20032	26	33	5	5	0.02	1.557115	8	10	0.08	2800	345.9258	40.92395	-91.39362
316415	86	-343	601	-2.269863	3.173471	344.6487	0	11.11	20030	30	32	5	5	0.02	1.576189	8	10	0.08	2800	344.9732	40.92395	-91.39362
316555	-796	662	805	-2.600392	1.564478	343.2198	0	11.11	20057	20	23	5	5	0.02	1.587204	8	10	0.08	2800	344.2936	40.92395	-91.39362
316586	284	383	261	-2.94007	1.390467	343.178	0	11.11	20008	22	27	5	5	0.02	1.588793	8	10	0.08	2800	342.201	40.92395	-91.39362
316701	-726	-131	807	-2.231267	1.76451	343.0864	0	10.94	20035	30	33	5	5	0.02	1.592638	8	10	0.08	2800	343.3244	40.92395	-91.39362
316767	-2078	-674	619	-2.964031	2.041648	342.7136	0	10.94	20031	33	34	5	5	0.02	1.592557	8	10	0.08	2800	341.672	40.92395	-91.39362
316861	1260	-752	604	-3.401512	2.384629	342.0724	0	10.94	20030	21	22	5	5	0.02	1.592484	8	10	0.08	2800	341.7873	40.92395	-91.39362
317038	164	627	1317	-4.243337	0.8426744	340.2613	0	10.94	20033	24	23	5	5	0.02	1.584627	8	10	0.08	2800	338.7271	40.92395	-91.39362
317108	1542	-960	435	-3.641873	1.313734	339.7803	0	10.94	20023	22	23	5	5	0.02	1.580478	8	10	0.08	2800	339.9893	40.92395	-91.39362
317232	227	1496	976	-2.19014	1.489337	338.7747	0	10.94	20028	12	17	5	5	0.02	1.576948	8	10	0.08	2800	335.619	40.92395	-91.39362
317291	-574	1026	476	-2.467791	0.7448627	338.5575	0	10.94	20030	24	7	5	5	0.02	1.566034	8	10	0.08	2800	335.619	40.92395	-91.39362
317432	-55	264	208	-0.8674037	0.6701885	338.8298	0	10.94	20034	23	13	5	5	0.02	1.554657	8	10	0.08	2800	336.2331	40.92395	-91.39362
317530	-1945	-388	38	-2.341653	0.988454	339.1143	0	10.94	20033	26	10	5	5	0.02	1.543476	8	10	0.08	2800	337.2499	40.92395	-91.39362
317605	1150	1719	-474	-3.363436	-0.4234184	339.2952	0	10.94	20008	27	8	5	5	0.02	1.532488	8	10	0.08	2800	339.0138	40.92395	-91.39362
317748	1738	-693	-332	-1.310534	0.8746234	340.2002	0	10.94	20039	16	12	5	5	0.02	1.529632	8	10	0.08	2800	341.1759	40.92395	-91.39362
317838	335	-503	-910	0.5291276	1.77484	340.9672	0	10.94	20013	21	10	5	5	0.02	1.536834	8	10	0.08	2800	340.5075	40.92395	-91.39362
317970	78	2349	-1020	-1.346259	2.075417	342.6271	0	10.94	20022	28	5	5	5	0.02	1.55425	8	10	0.08	2800	339.2753	40.92395	-91.39362
318010	827	2312	-577	-1.175878	1.14806	343.0914	0	10.94	20052	20	1	5	5	0.02	1.557688	8	10	0.08	2800	339.2753	40.92395	-91.39362
318125	-865	-981	-126	-1.173129	0.4242102	344.0251	0	10.94	20030	17	-3	5	5	0.02	1.568892	8	10	0.08	2800	345.6601	40.92395	-91.39362
318221	-779	-1169	-291	-2.030783	1.702092	344.3727	0	10.94	20009	36	-4	5	5	0.02	1.573127	8	10	0.08	2800	343.6545	40.92395	-91.39362
318309	401	151	-93	-2.571423	1.836457	345.159	0	10.94	20030	35	-5	5	5	0.02	1.575317	8	10	0.08	2800	345.8089	40.92395	-91.39362
318515	1260	706	-327	-2.584717	-0.5169705	346.6266	0	10.94	20040	37	-1	5	5	0.02	1.583867	8	10	0.08	2800	346.7965	40.92395	-91.39362
318536	1260	706	-327	-2.584717	-0.5169705	346.6266	0	10.94	20040	51	6	5	5	0.02	1.584715	8	10	0.08	2800	346.7965	40.92395	-91.39362
318671	-264	925	-500	-2.56531	0.6213189	346.972	0	11.06	20031	47	8	5	5	0.02	1.589328	8	10	0.08	2800	348.1381	40.92395	-91.39362
318721	273	877	-63	-2.474412	-0.03077736	347.0066	0	11.06	20030	48	11	5	5	0.02	1.593737	8	10	0.08	2800	348.1381	40.92395	-91.39362
318832	-2325	261	-43	-4.083912	1.001149	346.989	0	11.06	20031	57	13	5	5	0.02	1.599056	8	10	0.08	2800	349.8251	40.92395	-91.39362
318927	-815	-1409	952	-5.700669	1.307299	346.682	0	11.06	20032	48	0	5	5	0.02	1.60323	8	10	0.08	2800	349.4535	40.92394	-91.39362
319051	1069	799	433	-3.316725	1.401912	345.4246	0	11.06	20030	43	-10	5	5	0.02	1.607361	8	10	0.08	2800	347.5096	40.92394	-91.39362
319217	1915	1366	191	-2.153431	1.012579	345.4954	0	11.06	20031	32	-11	5	5	0.02	1.616338	8	10	0.08	2800	347.9192	40.92394	-91.39362
319291	-1929	1581	-30	-2.3295	-1.371497	345.2924	0	11.06	20008	38	-9	5	5	0.02	1.619169	8	10	0.08	2800	349.2176	40.92394	-91.39362
319352	-1338	-1472	832	-5.28651	-0.5608205	344.9724	0	11.06	20033	39	-9	5	5	0.02	1.621382	8	10	0.08	2800	347.7849	40.92394	-91.39362
319428	997	-1072	-184	-5.008694	1.127534	345.0152	0	11.06	20009	58	2	5	5	0.02	1.629942	8	10	0.08	2800	347.5097	40.92394	-91.39362
319578	-650	702	152	-3.4932	2.393754	345.2071	0	10.77	20034	59	5	5	5	0.02	1.653933	8	10	0.08	2800	346.1166	40.92394	-91.39362
319665	519	1155	-533	-3.670767	1.49943	345.9415	0	10.77	20032	66	9	5	5	0.02	1.697305	8	10	0.08	2800	347.2589	40.92394	-91.39362
319776	-113	73	-105	-2.633659	0.7807714	346.949	0	10.77	20045	62	7	5	5	0.02	1.721594	8	10	0.08	2800	348.9693	40.92394	-91.39362
319891	1798	1226	-1054	-2.861798	-0.7119583	348.4129	0	10.77	20034	62	8	5	5	0.02	1.755338	8	10	0.08	2800	350.397	40.92394	-91.39362
319967	-2430	-938	-949	-3.239983	-0.5797104	349.1328	0	10.77	20029	64	9	5	5	0.02	1.762353	8	10	0.08	2800	352.1035	40.92394	-91.39362
320057	-2233	-2063	-731	-7.759318	2.409307	349.8029	0	10.77	20016	65	9	5	5	0.02	1.781816	8	10	0.08	2800	352.8711	40.92394	-91.39362
320127	1354	484	-173	-6.859558	2.559488	350.2309	0	10.77	20018	65	10	5	5	0.02	1.806101	8	10	0.08	2800	353.4182	40.92394	-91.39362
320255	1036	51	-191	-5.99744	1.399088	350.1851	0	10.77	20035	70	19	5	5	0.02	1.846033	8	10	0.08	2800	352.3058	40.92394	-91.39362
320369	956	-97	65	-5.281232	1.298014	350.0114	0	10.77	20029	78	22	5	5	0.02	1.891631	8	10	0.08	2800	354.1995	40.92394	-91.39362
320421	1826	1402	958	-4.506696	0.1602822	349.8951	0	11.4	20031	70	25	5	5	0.02	1.90134	8	10	0.08	2800	352.6244	40.92394	-91.39362
320530	-244	-1739	-115	-4.900185	0.5807468	349.084	0	11.4	20060	73	29	5	5	0.02	1.960333	8	10	0.08	2800	352.4666	40.92394	-91.39362
320651	1165	-250	435	-3.087536	2.076001	348.8563	0	11.4	20032	75	27	5	5	0.02	2.011985	8	10	0.08	2800	352.6017	40.92394	-91.39362
320718	-1510	-940	382	-4.743747	2.280068	348.3661	0	11.4	20034	74	28	5	5	0.02	2.018947	8	10	0.08	2800	349.6788	40.92394	-91.39362
320903	477	657	629	-7.90015	1.987405	346.8192	0	11.4	20031	73	35	5	5	0.02	2.05868	8	10	0.08	2800	348.2943	40.92395	-91.39362
320948	2106	-639	651	-6.780618	1.702994	346.2113	0	11.4	20032	66	33	5	5	0.02	2.064444	8	10	0.08	2800	349.9406	40.92395	-91.39362
321020	3307	-505	448	-5.788263	2.175137	346.024	0	11.4	20010	65	34	5	5	0.02	2.073943	8	10	0.08	2800	349.9406	40.92395	-91.39362
321220	-594	-874	1166	-5.254875	4.349047	345.0617	0	11.4	20028	81	43	5	5	0.02	2.07545	8	10	0.08	2800	345.8744	40.92395	-91.39362
321268	-1315	-101	1271	-6.172754	4.520147	344.6528	0	11.4	20032	81	44	5	5	0.02	2.070037	8	10	0.08	2800	345.3842	40.92395	-91.39362
321373	1913	1862	241	-6.42853	2.685062	343.4635	0	10.83	20041	76	39	5	5	0.02	2.063537	8	10	0.08	2800	344.7576	40.92395	-91.39362
321494	-2533	-1225	687	-4.51652	1.61922	342.468	0	10.83	20037	81	48	5	5	0.02	2.073131	8	10	0.08	2800	342.8545	40.92395	-91.39362
321571	-1921	-1581	311	-7.425076	3.496096	342.179	0	10.83	20034	75	47	5	5	0.02	2.074246	8	10	0.08	2800	342.8545	40.92395	-91.39362
321642	2161	2184	194	-2.740501	1.901496	341.7653	0	10.83	20008	68	41	5	5	0.02	2.074604	8	10	0.08	2800	342.3665	40.92395	-91.39362
321733	-1097	-349	177	-2.157384	0.8853093	341.6028	0	10.83	20034	74	44	5	5	0.02	2.074618	8	10	0.08	2800	344.6171	40.92395	-91.39362
321788	-2141	-2105	225	-3.881521	2.398355	341.6983	0	10.83	20035	77	44	5	5	0.02	2.067734	8	10	0.08	2800	344.0495	40.92395	-91.39362
321878	-38	934	148	-4.923749	3.749791	342.0886	0	10.83	20011	76	51	5	5	0.02	2.040548	8	10	0.08	2800	343.2733	40.92395	-91.39362
322052	-474	-511	-546	-5.979684	3.446844	342.9042	0	10.83	20032	75	46	5	5	0.02	2.000757	8	10	0.08	2800	345.0124	40.92395	-91.39362
322171	321	140	-439	-7.138558	3.518212	343.2593	0	10.83	20028	85	50	5	5	0.02	1.971549	8	10	0.08	2800	344.6466	40.92396	-91.39361
322254	933	710	-731	-4.829204	2.462428	343.8504	0	10.89	20035	86	51	5	5	0.02	1.963179	8	10	0.08	2800	345.3776	40.92396	-91.39361
322311	-271	620	-869	-4.640307	2.046616	345.0267	0	10.89	20032	89	46	5	5	0.02	1.933582	8	10	0.08	2800	347.5203	40.92396	-91.39361
322372	-748	-1346	-1264	-5.443281	2.480241	345.6584	0	10.89	20031	75	56	5	5	0.02	1.927956	8	10	0.08	2800	348.9048	40.92396	-91.39362
322514	1595	-173	-561	-4.89879	4.463673	347.0884	0	10.89	20026	75	64	5	5	0.02	1.886823	8	10	0.08	2800	350.1955	40.92396	-91.39362
322695	-184	-728	289	-4.183729	4.025629	349.1492	0	10.89	20029	64	70	5	5	0.02	1.838374	8	10	0.08	2800	353.0885	40.92396	-91.39362
322786	-1168	-1731	633	-6.667117	4.969946	348.9332	0	10.89	20052	60	71	5	5	0.02	1.81981	8	10	0.08	2800	353.1034	40.92396	-91.39362
322891	-916	-908	414	-7.456956	6.965662	347.8748	0	10.89	20033	65	55	5	5	0.02	1.808943	8	10	0.08	2800	352.3351	40.92396	-91.39362
323049	677	2523	217	-5.015922	2.389264	346.3788	0	10.89	20030	56	53	5	5	0.02	1.782283	8	10	0.08	2800	349.5555	40.92396	-91.39362
323143	1668	116	843	-3.349182	1.044292	345.9244	0	10.89	20029	56	60	5	5	0.02	1.770404	8	10	0.08	2800	350.1958	40.92396	-91.39362
323262	-78	-1092	503	-4.553645	3.939357	345.0821	0	10.89	20033	48	54	5	5	0.02	1.764263	8	10	0.08	2800	347.3509	40.92396	-91.39362
323332	-746	-499	1334	-5.355643	4.237407	344.2767	0	10.89	20039	54	57	5	5	0.02	1.76038	8	10	0.08	2800	346.5709	40.92396	-91.39362
323394	144	-348	932	-6.013238	4.465049	343.3799	0	10.89	20037	54	56	5	5	0.02	1.76293	8	10	0.08	2800	346.5709	40.92396	-91.39362
323572	1977	533	400	-2.793344	4.586876	342.2299	0	10.89	20031	37	54	5	5	0.02	1.760035	8	10	0.08	2800	343.9933	40.92396	-91.39362
323632	-704	-269	-283	-2.838721	4.302557	342.0157	0	10.89	20038	41	50	5	5	0.02	1.759164	8	10	0.08	2800	342.9501	40.92396	-91.39362
323776	966	869	-459	-1.928863	3.349384	342.4513	0	10.89	20031	41	54	5	5	0.02	1.751221	8	10	0.08	2800	345.2253	40.92396	-91.39362
323862	-1780	-847	-349	-3.822347	3.429775	342.4846	0	10.89	20074	32	67	5	5	0.02	1.745389	8	10	0.08	2800	344.3219	40.92396	-91.39362
323947	-332	616	-210	-3.969848	3.101869	342.7734	0	10.89	20050	33	56	5	5	0.02	1.731866	8	10	0.08	2800	343.5024	40.92396	-91.39362
324054	-607	580	588	-3.998278	2.420096	342.58	0	10.83	23987	39	51	5	5	0.02	1.72928	8	10	0.08	2800	343.1227	40.92396	-91.39362
324131	1343	-842	-349	-4.825536	2.076541	342.2018	0	10.83	20040	23	41	5	5	0.02	1.728862	8	10	0.08	2800	342.6717	40.92396	-91.39362
324190	2017	-1688	-471	-4.080125	2.888506	342.3317	0	10.83	20020	22	41	5	5	0.02	1.727435	8	10	0.08	2800	342.6178	40.92396	-91.39362
324309	-157	-157	-543	-1.530734	4.181474	342.6884	0	10.83	20032	20	35	5	5	0.02	1.728582	8	10	0.08	2800	342.12	40.92396	-91.39362
324422	327	1639	-595	-2.603882	3.143895	343.4959	0	10.83	24014	29	28	5	5	0.02	1.730569	8	10	0.08	2800	340.6584	40.92396	-91.39362
324550	1666	-1733	-658	-0.7482397	2.318059	345.1546	0	10.83	20029	14	37	5	5	0.02	1.733677	8	10	0.08	2800	345.8932	40.92396	-91.39362
324656	-173	-757	-1257	-0.2238682	3.668991	345.8274	0	10.83	20032	15	37	5	5	0.02	1.72033	8	10	0.08	2800	345.8932	40.92396	-91.39362
324738	-516	678	-363	-0.2140502	3.264713	347.0957	0	10.83	20030	22	35	5	5	0.02	1.717083	8	10	0.08	2800	344.5642	40.92396	-91.39362
324816	1208	712	-246	-1.177763	3.181018	347.6133	0	10.83	20004	24	34	5	5	0.02	1.715306	8	10	0.08	2800	343.5702	40.92396	-91.39362
324976	-1950	43	-28	-2.251098	1.509491	347.3972	0	10.83	20032	12	22	5	5	0.02	1.702957	8	10	0.08	2800	344.6905	40.92395	-91.39362
325074	751	-482	183	-3.158266	2.758559	346.9778	0	10.83	20027	19	16	5	5	0.02	1.687078	8	10	0.08	2800	343.9843	40.92395	-91.39362
325117	58	-456	822	-2.680419	4.019452	346.2429	0	10.83	20030	24	23	5	5	0.02	1.676991	8	10	0.08	2800	340.7071	40.92395	-91.39362
325316	307	687	493	-1.887823	3.571238	344.4809	0	10.83	24015	22	9	5	5	0.02	1.661487	8	10	0.08	2800	341.0292	40.92395	-91.39362
325501	33	1218	1041	-1.37113	-0.1240252	343.9016	0	10.83	20080	34	19	5	5	0.02	1.6305	8	10	0.08	2800	340.3324	40.92395	-91.39362
325558	16	-1233	601	-2.47671	-0.6238598	342.963	0	10.83	20030	32	11	5	5	0.02	1.617681	8	10	0.08	2800	341.4002	40.92395	-91.39362
325678	771	339	622	-2.210639	1.315622	342.4655	0	10.83	20011	32	0	5	5	0.02	1.601338	8	10	0.08	2800	338.5406	40.92395	-91.39362
325782	48	230	-173	-2.279839	0.9953524	342.6491	0	10.83	20033	30	3	5	5	0.02	1.582376	8	10	0.08	2800	340.3642	40.92395	-91.39362
325892	-872	-567	-401	-2.63325	1.653717	343.0564	0	11.34	20032	29	2	5	5	0.02	1.567714	8	10	0.08	2800	339.687	40.92395	-91.39362
325912	-1018	248	-671	-3.184824	1.79792	343.1683	0	11.34	20028	27	-4	5	5	0.02	1.567714	8	10	0.08	2800	339.687	40.92395	-91.39362
326016	1852	1268	-181	-3.108137	0.8503271	343.9359	0	11.34	20056	30	0	5	5	0.02	1.5503	8	10	0.08	2800	338.1644	40.92395	-91.39362
326177	888	-744	-110	-2.985176	-0.8477439	344.4175	0	11.34	20031	32	7	5	5	0.02	1.521841	8	10	0.08	2800	342.1738	40.92394	-91.39362
326277	1598	1017	-259	-0.7467734	-0.207056	345.1309	0	11.34	20036	40	-6	5	5	0.02	1.498105	8	10	0.08	2800	341.4521	40.92394	-91.39362
326321	359	607	-196	-0.629019	-0.5081881	345.2369	0	11.34	20036	42	-7	5	5	0.02	1.493805	8	10	0.08	2800	341.4521	40.92394	-91.39362
326474	-1861	-617	-517	-4.553246	2.404581	346.7384	0	11.34	20055	47	-10	5	5	0.02	1.479581	8	10	0.08	2800	342.9966	40.92394	-91.39362
326549	-1353	1579	-1008	-7.630605	0.2986351	347.7553	0	11.34	20032	56	-9	5	5	0.02	1.476667	8	10	0.08	2800	344.0454	40.92394	-91.39362
326666	-2018	-650	-382	-9.034137	1.383418	348.2275	0	11.34	20055	57	-5	5	5	0.02	1.475629	8	10	0.08	2800	345.6161	40.92394	-91.39362
326725	-1233	-772	-389	-9.768165	1.865729	348.1998	0	11.34	20050	60	-8	5	5	0.02	1.478319	8	10	0.08	2800	348.5985	40.92394	-91.39362
326816	-462	-130	-124	-11.12814	2.408677	348.2904	0	10.94	20030	54	3	5	5	0.02	1.481823	8	10	0.08	2800	348.0281	40.92394	-91.39362
326931	-528	399	246	-11.22359	2.018758	348.1956	0	10.94	20004	48	7	5	5	0.02	1.485147	8	10	0.08	2800	350.9028	40.92394	-91.39362
327025	2676	122	-243	-8.67664	1.909531	348.2914	0	10.94	20002	42	0	5	5	0.02	1.479638	8	10	0.08	2800	349.4138	40.92394	-91.39362
327140	-392	603	224	-4.405451	2.49895	348.2911	0	10.94	20055	46	9	5	5	0.02	1.465094	8	10	0.08	2800	350.5992	40.92394	-91.39362
327225	-1019	25	-438	-5.549445	2.50967	348.8289	0	10.94	20055	52	7	5	5	0.02	1.452083	8	10	0.08	2800	348.9986	40.92394	-91.39362
327378	2659	432	-176	-4.970612	2.876314	349.0211	0	10.94	20033	46	3	5	5	0.02	1.426153	8	10	0.08	2800	349.6901	40.92394	-91.39362
327465	901	1631	113	-3.577348	1.281431	348.7002	0	10.94	20079	52	1	5	5	0.02	1.411303	8	10	0.08	2800	348.257	40.92394	-91.39362
327519	852	2900	203	-2.93891	-0.7108568	348.7016	0	10.94	20026	46	2	5	5	0.02	1.40834	8	10	0.08	2800	351.4694	40.92394	-91.39362
327713	-318	-2992	276	-3.244622	-1.716888	348.6602	0	10.77	20038	35	0	5	5	0.02	1.369692	8	10	0.08	2800	351.8702	40.92394	-91.39362
327734	-729	-3206	215	-3.406736	0.02714024	348.5602	0	10.77	20048	41	5	5	5	0.02	1.364138	8	10	0.08	2800	351.0692	40.92394	-91.39362
327832	1141	291	448	-3.448457	1.953808	347.8495	0	10.77	20031	41	8	5	5	0.02	1.350591	8	10	0.08	2800	348.2223	40.92394	-91.39362
327933	177	460	981	-4.848817	0.1135765	346.837	0	10.77	20039	43	11	5	5	0.02	1.331998	8	10	0.08	2800	347.9732	40.92394	-91.39362
328099	1268	-143	743	-5.161374	1.426936	345.3177	0	10.77	20032	44	14	5	5	0.02	1.327719	8	10	0.08	2800	345.8357	40.92394	-91.39362
328156	142	496	823	-4.619973	0.9408985	344.8965	0	10.77	20042	44	9	5	5	0.02	1.334662	8	10	0.08	2800	345.8357	40.92394	-91.39362
328251	1004	-1305	119	-4.439947	1.948698	343.8169	0	10.77	23991	48	8	5	5	0.02	1.340405	8	10	0.08	2800	343.3352	40.92394	-91.39362
328313	1042	-881	134	-3.957177	2.63897	343.6726	0	10.77	20038	44	8	5	5	0.02	1.343478	8	10	0.08	2800	343.2946	40.92394	-91.39362
328430	2164	2049	162	-1.187675	1.400762	343.2019	0	10.77	20024	56	14	5	5	0.02	1.342752	8	10	0.08	2800	343.6455	40.92394	-91.39362
328517	-2304	145	-469	-1.71319	0.3613349	342.9581	0	10.77	20030	62	17	5	5	0.02	1.340834	8	10	0.08	2800	343.001	40.92394	-91.39362
328638	571	-418	268	-4.200344	2.356723	342.9411	0	11.11	20031	68	19	5	5	0.02	1.337493	8	10	0.08	2800	349.8654	40.92394	-91.39362
328734	-1359	-110	-492	-3.727401	0.4938031	343.4569	0	11.11	20030	74	23	5	5	0.02	1.333808	8	10	0.08	2800	344.1777	40.92394	-91.39362
328840	-1090	-349	-848	-5.219692	0.6570827	343.8246	0	11.11	20030	79	27	5	5	0.02	1.331136	8	10	0.08	2800	344.3739	40.92394	-91.39362
328969	576	-747	-296	-5.256926	2.414244	344.4593	0	11.11	20074	57	24	5	5	0.02	1.329119	8	10	0.08	2800	345.2674	40.92394	-91.39362
329053	-400	1055	206	-4.839555	1.705231	344.3453	0	11.11	20033	60	28	5	5	0.02	1.331001	8	10	0.08	2800	345.2674	40.92394	-91.39362
329139	-1506	-1808	-416	-6.21715	2.256838	344.2442	0	11.11	20031	58	23	5	5	0.02	1.334362	8	10	0.08	2800	344.7395	40.92394	-91.39362
329267	3223	1047	-671	-4.691795	1.861108	344.9498	0	11.11	20031	60	25	5	5	0.02	1.347001	8	10	0.08	2800	345.0486	40.92394	-91.39362
329336	1645	959	-583	-1.808104	0.5089403	345.3254	0	11.11	20052	52	28	5	5	0.02	1.350472	8	10	0.08	2800	346.7307	40.92394	-91.39362
329464	380	-737	-1030	-3.843237	3.061529	346.8744	0	11.11	20037	59	32	5	5	0.02	1.348449	8	10	0.08	2800	346.2866	40.92394	-91.39362
329629	-2649	-1206	-321	-4.001325	2.271667	347.7183	0	10.89	20031	73	50	5	5	0.02	1.352549	8	10	0.08	2800	348.8502	40.92395	-91.39362
329678	605	-239	-44	-4.361714	3.777664	348.1522	0	10.89	20031	73	54	5	5	0.02	1.353855	8	10	0.08	2800	348.9118	40.92395	-91.39362
329734	113	935	328	-3.260181	2.947834	348.0122	0	10.89	20031	75	55	5	5	0.02	1.355989	8	10	0.08	2800	348.2826	40.92395	-91.39362
329897	-823	-2328	-171	-8.461353	4.028202	347.7419	0	10.89	20035	87	45	5	5	0.02	1.367651	8	10	0.08	2800	348.1154	40.92395	-91.39362
329930	2868	-437	-261	-7.321524	5.54429	347.8551	0	10.89	20038	90	46	5	5	0.02	1.370129	8	10	0.08	2800	347.7895	40.92395	-91.39362
330085	-1546	1753	225	-4.432747	-0.006189251	347.143	0	10.89	20075	72	36	5	5	0.02	1.390117	8	10	0.08	2800	348.5036	40.92395	-91.39362
330202	-671	-2395	-341	-8.500483	4.348673	347.6712	0	10.89	20078	67	35	5	5	0.02	1.407413	8	10	0.08	2800	349.9928	40.92395	-91.39362
330271	2089	-829	666	-7.689533	5.111482	347.6509	0	10.89	20031	75	41	5	5	0.02	1.411285	8	10	0.08	2800	349.1869	40.92395	-91.39362
330352	-1166	194	495	-6.728767	3.04723	346.7173	0	10.89	20041	80	54	5	5	0.02	1.412206	8	10	0.08	2800	347.1595	40.92395	-91.39362
330511	1354	-409	838	-7.610242	5.357368	346.2154	0	10.83	20026	64	50	5	5	0.02	1.397363	8	10	0.08	2800	348.5886	40.92395	-91.39362
330591	1301	1379	-229	-6.175121	4.173552	346.1491	0	10.83	20033	78	53	5	5	0.02	1.388297	8	10	0.08	2800	346.4695	40.92395	-91.39362
330701	-28	256	-837	-3.777458	1.580332	346.0019	0	10.83	20031	71	50	5	5	0.02	1.378719	8	10	0.08	2800	346.9666	40.92395	-91.39362
330759	-823	-642	-259	-3.824882	1.782846	346.4012	0	10.83	20031	68	50	5	5	0.02	1.374907	8	10	0.08	2800	347.0644	40.92395	-91.39362
330954	513	483	193	-7.630639	5.299287	346.1798	0	10.83	20029	71	53	5	5	0.02	1.355185	8	10	0.08	2800	345.3164	40.92395	-91.39362
330976	513	483	193	-7.630639	5.299287	346.1798	0	10.83	20029	64	56	5	5	0.02	1.353384	8	10	0.08	2800	345.3164	40.92395	-91.39362
331122	1010	-206	102	-4.118466	3.116827	345.7275	0	10.83	20028	57	58	5	5	0.02	1.33771	8	10	0.08	2800	346.494	40.92395	-91.39362
331177	-448	-789	48	-3.080468	3.151728	345.6351	0	10.83	20032	65	56	5	5	0.02	1.334279	8	10	0.08	2800	346.577	40.92395	-91.39362
331285	64	223	-703	-3.799948	3.480818	345.5739	0	10.83	20025	65	57	5	5	0.02	1.32056	8	10	0.08	2800	345.5989	40.92395	-91.39362
331384	967	512	-1257	-3.435713	2.032545	346.5555	0	10.77	20053	50	53	5	5	0.02	1.311696	8	10	0.08	2800	346.4534	40.92395	-91.39362
331485	-443	-579	-758	-3.594235	1.866953	347.2594	0	10.77	20031	54	50	5	5	0.02	1.293041	8	10	0.08	2800	347.7104	40.92395	-91.39362
331645	1647	492	-683	-4.278673	3.818151	348.9162	0	10.77	20040	59	58	5	5	0.02	1.275648	8	10	0.08	2800	348.0008	40.92395	-91.39362
331760	-1133	-1116	-198	-5.73692	3.730318	348.728	0	10.77	20053	59	58	5	5	0.02	1.265006	8	10	0.08	2800	347.473	40.92396	-91.39362
331794	1875	36	-94	-4.274912	4.344227	348.7185	0	10.77	20033	56	67	5	5	0.02	1.253528	8	10	0.08	2800	347.3794	40.92396	-91.39362
331915	-766	100	-307	-2.947054	4.080846	348.1883	0	10.77	20030	63	62	5	5	0.02	1.230091	8	10	0.08	2800	347.8741	40.92396	-91.39362
331994	-4	1351	258	-2.941834	3.507968	348.1748	0	10.77	24017	57	56	5	5	0.02	1.221432	8	10	0.08	2800	347.122	40.92396	-91.39362
332111	-99	-98	-445	-4.935939	3.56938	348.6575	0	10.77	20041	48	55	5	5	0.02	1.19343	8	10	0.08	2800	349.1657	40.92396	-91.39362
332261	-678	-1283	-566	-4.076535	3.934379	349.0725	0	10.77	20033	56	49	5	5	0.02	1.17202	8	10	0.08	2800	347.0793	40.92396	-91.39362
332353	-1917	-992	217	-5.685316	5.232656	349.191	0	10.66	20017	58	47	5	5	0.02	1.163497	8	10	0.08	2800	347.8619	40.92396	-91.39362
332438	2218	-439	146	-5.109206	4.728553	348.9726	0	10.66	20033	43	45	5	5	0.02	1.156043	8	10	0.08	2800	345.8926	40.92396	-91.39362
332506	589	584	628	-3.65108	4.539565	348.4626	0	10.66	20030	42	44	5	5	0.02	1.145627	8	10	0.08	2800	346.84	40.92395	-91.39362
332678	90	-415	-466	-2.95908	3.834201	348.3947	0	10.66	23981	45	45	5	5	0.02	1.129474	8	10	0.08	2800	344.3745	40.92395	-91.39362
332785	-1752	-627	1	-4.048563	3.940174	347.9915	0	10.66	20035	37	47	5	5	0.02	1.105763	8	10	0.08	2800	344.3857	40.92395	-91.39362
332863	209	-1311	512	-4.558332	4.367877	347.8676	0	10.66	20035	32	38	5	5	0.02	1.084767	8	10	0.08	2800	345.4817	40.92395	-91.39362
332915	-478	-523	647	-4.555393	4.753784	347.683	0	10.66	20036	36	41	5	5	0.02	1.079145	8	10	0.08	2800	345.4817	40.92395	-91.39362
333010	491	761	446	-4.167257	4.147389	347.0485	0	10.66	20039	35	38	5	5	0.02	1.055005	8	10	0.08	2800	343.9848	40.92395	-91.39362
333124	1109	1006	1829	-3.203295	2.730869	345.2679	0	10.66	20031	33	30	5	5	0.02	1.024883	8	10	0.08	2800	343.0162	40.92395	-91.39362
333278	-706	-1175	316	-3.363807	1.13517	342.4075	0	10.77	20039	45	25	5	5	0.02	1.008864	8	10	0.08	2800	338.6816	40.92395	-91.39362
333348	-123	-962	805	-2.744464	2.253825	341.8585	0	10.77	20034	48	22	5	5	0.02	1.001525	8	10	0.08	2800	338.3479	40.92395	-91.39362
333451	-447	-238	833	-3.093955	2.83821	341.1784	0	10.77	20035	50	21	5	5	0.02	0.9936132	8	10	0.08	2800	336.736	40.92395	-91.39362
333614	-184	-644	679	-4.114404	2.979808	340.6865	0	10.77	20043	56	18	5	5	0.02	0.9746606	8	10	0.08	2800	336.9066	40.92395	-91.39362
333685	213	411	260	-4.329227	2.86569	340.4413	0	10.77	20034	50	17	5	5	0.02	0.9700702	8	10	0.08	2800	336.3412	40.92395	-91.39362
333757	46	1104	350	-3.877437	1.91059	340.0337	0	10.77	20031	23	15	5	5	0.02	0.967787	8	10	0.08	2800	336.6799	40.92395	-91.39362
333912	880	-884	-56	-0.5916142	-1.61484	339.8957	0	10.77	20051	22	6	5	5	0.02	0.9636551	8	10	0.08	2800	337.3716	40.92395	-91.39362
333987	-963	-526	-211	-0.3511013	-0.7405037	339.997	0	10.77	20031	21	3	5	5	0.02	0.9596519	8	10	0.08	2800	337.3079	40.92395	-91.39362
334030	-2599	-396	-497	-2.998564	-0.6941317	340.0484	0	10.77	20044	20	1	5	5	0.02	0.9583144	8	10	0.08	2800	337.8277	40.92395	-91.39362
334264	-1557	-1487	330	-1.453022	1.655918	340.2378	0	10.77	20025	34	12	5	5	0.02	0.9715538	8	10	0.08	2800	338.1302	40.92395	-91.39362
334366	787	1417	-34	-4.046782	2.929289	340.3855	0	10.77	20032	36	12	5	5	0.02	0.9944283	8	10	0.08	2800	336.1547	40.92395	-91.39362
334495	-225	58	32	-1.177958	1.091386	341.093	0	10.77	20035	37	15	5	5	0.02	1.008256	8	10	0.08	2800	337.4832	40.92394	-91.39362
334619	1684	774	-1092	-3.88918	2.320172	342.4075	0	10.77	20024	41	8	5	5	0.02	1.026407	8	10	0.08	2800	338.24	40.92394	-91.39362
334643	1684	774	-1092	-3.88918	2.320172	342.4075	0	10.77	20024	48	-2	5	5	0.02	1.026407	8	10	0.08	2800	338.24	40.92394	-91.39362
334745	-1793	2280	-615	-3.096112	-1.39575	343.0246	0	10.77	20032	48	-6	5	5	0.02	1.033933	8	10	0.08	2800	342.4796	40.92394	-91.39362
334852	-852	-1445	-773	-4.621823	-1.291613	343.6089	0	10.77	20041	45	-1	5	5	0.02	1.041746	8	10	0.08	2800	342.0544	40.92394	-91.39362
334963	-544	-610	-535	-4.36431	1.558266	343.9434	0	10.77	20033	44	-3	5	5	0.02	1.050542	8	10	0.08	2800	342.2072	40.92394	-91.39362
335085	986	497	-327	-4.352838	2.416255	344.1611	0	10.66	20009	55	-8	5	5	0.02	1.063334	8	10	0.08	2800	343.2276	40.92394	-91.39362
335155	-205	688	-124	-3.411476	0.4900852	344.202	0	10.66	20020	54	1	5	5	0.02	1.081755	8	10	0.08	2800	343.3669	40.92394	-91.39362
335254	1075	770	-31	-2.280744	-1.164053	344.5066	0	10.66	20030	45	6	5	5	0.02	1.093	8	10	0.08	2800	344.008	40.92394	-91.39362
335393	-577	-1541	61	-4.264675	0.7170459	343.6106	0	10.66	20030	59	4	5	5	0.02	1.132571	8	10	0.08	2800	344.4646	40.92394	-91.39362
335543	1601	628	325	-2.013698	0.7521244	343.3129	0	10.66	20008	57	8	5	5	0.02	1.163526	8	10	0.08	2800	342.2195	40.92394	-91.39362
335622	-2502	-232	348	-3.234416	0.8812701	343.1186	0	10.66	20037	46	4	5	5	0.02	1.200328	8	10	0.08	2800	342.5984	40.92394	-91.39362
335695	-1741	-940	294	-6.212941	1.682523	342.872	0	10.66	20029	51	1	5	5	0.02	1.207453	8	10	0.08	2800	341.629	40.92394	-91.39362
335809	673	844	550	-4.429752	1.489815	342.4697	0	10.66	20029	56	4	5	5	0.02	1.212053	8	10	0.08	2800	341.3623	40.92394	-91.39362
335874	-1281	-109	-8	-5.112843	0.393797	341.9842	0	10.66	20034	0	0	5	5	0.02	1.211507	8	10	0.08	2800	340.9668	40.92394	-91.39362
335951	-552	-456	184	-6.496706	1.081456	341.947	0	10.77	20034	0	0	5	5	0.02	1.211571	3	10	0.08	2800	340.9668	40.92393	-91.39362
336023	1951	749	410	-5.790232	0.3996035	341.8294	0	10.77	20034	0	0	5	5	0.02	1.213813	3	10	0.08	2800	341.9439	40.92393	-91.39362
336179	-4543	152	-401	-5.275362	-0.3200263	341.8506	0	10.77	20034	0	0	5	5	0.02	1.223689	3	10	0.08	2800	342.3691	40.92393	-91.39362
336227	-5837	922	-740	-7.744903	-0.6077007	341.7413	0	10.77	20034	0	0	5	5	0.02	1.226396	3	10	0.08	2800	342.3691	40.92393	-91.39362
336335	-908	-629	67	-13.85581	-1.316701	341.092	0	10.77	20034	0	0	5	5	0.02	1.229918	3	10	0.08	2800	342.8348	40.92393	-91.39362
336440	-440	-933	379	-13.76814	-0.2846006	340.706	0	10.77	20034	0	0	5	5	0.02	1.229685	3	10	0.08	2800	344.5013	40.92393	-91.39362
336521	109	-573	-1056	-14.26984	1.736019	340.5479	0	10.77	20034	0	0	5	5	0.02	1.225024	3	10	0.08	2800	344.2978	40.92393	-91.39362
336639	577	939	-731	-10.51788	0.7057353	341.4716	0	10.77	20034	0	0	5	5	0.02	1.213956	3	10	0.08	2800	345.0412	40.92394	-91.39362
336699	-19	864	-802	-9.942213	0.1254707	341.764	0	10.77	20034	0	0	5	5	0.02	1.213472	3	10	0.08	2800	345.0412	40.92394	-91.39362
336811	-3780	-1280	-609	-15.12494	1.263874	343.1392	0	10.77	20034	0	0	5	5	0.02	1.213464	3	10	0.08	2800	349.6551	40.92394	-91.39362
336979	-1498	-514	-275	-18.54666	3.313153	344.3791	0	10.66	20034	0	0	5	5	0.02	1.214914	3	10	0.08	2800	350.244	40.92394	-91.39362
337095	6395	2654	-605	-13.55405	0.6594883	357.6996	0	10.66	20034	0	0	5	5	0.02	1.21535	3	10	0.08	2800	357.2579	40.92394	-91.39362
337200	2503	-1031	-277	-5.596221	-0.2118329	358.2868	0	10.66	20034	0	0	5	5	0.02	1.21502	3	10	0.08	2800	359.5496	40.92394	-91.39362
337261	709	242	-368	-5.510327	1.504647	358.7682	0	10.66	20034	0	0	5	5	0.02	1.214957	3	10	0.08	2800	358.6005	40.92394	-91.39362
337395	5485	1570	-197	0.07287531	-0.4069971	358.7526	0	10.66	20034	0	0	5	5	0.02	1.214661	3	10	0.08	2800	359.5234	40.92394	-91.39363
337466	4064	767	912	4.615335	-1.665135	358.6242	0	10.66	20034	0	0	5	5	0.02	1.214587	3	10	0.08	2800	358.9685	40.92394	-91.39363
337526	1279	-1644	-275	6.648965	-0.7528123	358.7288	0	10.66	20034	0	0	5	5	0.02	1.211431	3	10	0.08	2800	355.7343	40.92394	-91.39363
337660	-1791	297	302	6.279595	0.4659668	358.5123	0	10.66	20034	0	0	5	5	0.02	1.202178	3	10	0.08	2800	353.305	40.92394	-91.39363
337740	106	-235	77	2.442781	-0.1657743	358.6735	0	10.77	20034	0	0	5	5	0.02	1.192061	3	10	0.08	2800	350.3971	40.92394	-91.39364
337848	-1072	121	529	2.095905	0.09241781	359.1077	0	10.77	20034	0	0	5	5	0.02	1.176843	3	10	0.08	2800	353.2079	40.92394	-91.39364
337978	-1609	-1044	-1093	-2.45251	1.067571	0.08907478	0	10.77	20034	0	0	5	5	0.02	1.157745	3	10	0.08	2800	351.8098	40.92394	-91.39364
338069	-1158	-973	-292	-3.538653	1.93589	0.5992604	0	10.77	20034	0	0	5	5	0.02	1.130843	3	10	0.08	2800	351.5651	40.92394	-91.39365
338137	2236	119	-750	-2.896623	2.501568	350.2437	0	10.77	20034	0	0	5	5	0.02	1.115249	3	10	0.08	2800	349.7914	40.92394	-91.39365
338209	399	2329	-52	-0.5438653	0.5859176	350.3124	0	10.77	20034	0	0	5	5	0.02	1.100833	3	10	0.08	2800	351.5923	40.92394	-91.39365
338410	346	43	942	-0.457027	-5.168937	348.5675	0	10.77	20034	0	0	5	5	0.02	1.062045	3	10	0.08	2800	352.4143	40.92394	-91.39365
338431	2397	-2742	131	0.3657394	-3.504729	347.6845	0	10.77	20034	0	0	5	5	0.02	1.042115	3	10	0.08	2800	349.961	40.92394	-91.39365
338518	1031	-2585	913	2.628422	-0.434822	347.0524	0	10.77	20034	0	0	5	5	0.02	1.026591	3	10	0.08	2800	345.0789	40.92394	-91.39365
338634	-317	-474	34	-1.765104	3.22831	345.6647	0	10.77	20034	0	0	5	5	0.02	0.9789528	3	10	0.08	2800	342.3088	40.92394	-91.39365
338783	-800	-504	854	-2.456617	3.138951	345.0298	0	10.72	20034	0	0	5	5	0.02	0.9387247	3	10	0.08	2800	340.6038	40.92394	-91.39365
338862	176	-582	1292	-3.188726	4.334485	343.9922	0	10.72	20034	0	0	5	5	0.02	0.8901857	3	10	0.08	2800	338.4146	40.92395	-91.39365
338929	-686	1495	767	-4.164902	3.884337	343.0006	0	10.72	20034	0	0	5	5	0.02	0.8711609	3	10	0.08	2800	336.0899	40.92395	-91.39365
339052	732	101	1923	-2.734224	-0.8144916	340.2628	0	10.72	20034	0	0	5	5	0.02	0.8000375	3	10	0.08	2800	336.3842	40.92395	-91.39365
339139	0	-1541	788	-1.792417	-0.4021997	338.7208	0	10.72	20034	0	0	5	5	0.02	0.7769034	3	10	0.08	2800	335.0241	40.92395	-91.39365
339320	-428	3789	-4	1.633794	-3.167668	336.0605	0	10.72	20034	0	0	5	5	0.02	0.6817401	3	10	0.08	2800	334.4332	40.92395	-91.39365
339383	-9711	3632	-5950	-0.3157658	-8.841299	337.4183	0	10.72	20034	0	0	5	5	0.02	0.6648985	3	10	0.08	2800	333.8951	40.92395	-91.39365
339472	174	4327	-35	-1.842069	-15.85859	338.9795	0	10.72	20034	0	0	5	5	0.02	0.6318544	3	10	0.08	2800	340.8432	40.92395	-91.39365
339551	-193	-6335	-177	-2.573296	-14.2181	339.133	0	10.72	20034	0	0	5	5	0.02	0.5892069	3	10	0.08	2800	341.5237	40.92395	-91.39365
339637	-1194	-1166	-446	-3.08088	-1.189572	340.5417	0	10.89	20034	0	0	5	5	0.02	0.5472381	3	10	0.08	2800	338.75	40.92395	-91.39365
339782	128	61	-20	-2.954934	-2.033708	340.3035	0	10.89	20034	0	0	5	5	0.02	0.4295631	3	10	0.08	2800	334.7379	40.92395	-91.39365
339848	65	-37	-47	-2.891525	-2.101766	340.2902	0	10.89	20034	0	0	5	5	0.02	0.3809196	3	10	0.08	2800	335.6132	40.92395	-91.39365
339930	-46	-60	-15	-2.817157	-2.188406	340.2985	0	10.89	20034	0	0	5	5	0.02	0.3265547	3	10	0.08	2800	335.9716	40.92395	-91.39365
340029	22	4	-19	-2.75073	-2.275749	340.2949	0	10.89	20034	0	0	5	5	0.02	0.2932743	3	10	0.08	2800	334.3389	40.92395	-91.39365
340134	-5	-6	3	-2.689332	-2.358234	340.2924	0	10.89	20034	0	0	5	5	0.02	0.241493	3	10	0.08	2800	334.3168	40.92395	-91.39365
340310	-9	5	0	-2.575222	-2.494231	340.2902	0	10.89	20034	0	0	5	5	0.02	0.2055666	1	10	0.08	2800	334.6346	40.92395	-91.39365
340374	-7	-3	-2	-2.51222	-2.572501	340.2884	0	10.89	20034	0	0	5	5	0.02	0.1954792	1	10	0.08	2800	334.8793	40.92395	-91.39365
340484	-6	-3	-6	-2.453275	-2.642148	340.2914	0	10.89	20034	0	0	5	5	0.02	0.1806647	1	10	0.08	2800	334.3231	40.92395	-91.39365
340511	-13	0	0	-2.435473	-2.665063	340.2905	0	10.89	20034	0	0	5	5	0.02	0.1806753	1	10	0.08	2800	334.78	40.92395	-91.39365
340629	-5	0	0	-2.385108	-2.731772	340.2901	0	10.89	20034	0	0	5	5	0.02	0.179857	1	10	0.08	2800	334.8052	40.92395	-91.39365
340719	-5	-1	-1	-2.334443	-2.79424	340.2892	0	10.89	20034	0	0	5	5	0.02	0.1739702	1	10	0.08	2800	334.548	40.92395	-91.39365
340842	-13	-1	-1	-2.271869	-2.871123	340.2876	0	10.89	20034	0	0	5	5	0.02	0.1639149	1	10	0.08	2800	334.5088	40.92395	-91.39365
340953	-11	-2	-5	-2.244537	-2.909285	340.2878	0	10.89	20034	0	0	5	5	0.02	0.1653816	1	10	0.08	2800	334.5088	40.92395	-91.39365
341040	-6	-5	0	-2.183835	-2.982155	340.2868	0	10.89	20034	0	0	5	5	0.02	0.164698	1	10	0.08	2800	334.9453	40.92395	-91.39365
341163	-8	-1	-1	-2.128001	-3.051744	340.2856	0	10.89	20034	0	0	5	5	0.02	0.1588857	1	10	0.08	2800	334.8799	40.92395	-91.39365
341245	-7	-4	0	-2.105369	-3.082325	340.2849	0	10.89	20034	0	0	5	5	0.02	0.148786	1	10	0.08	2800	335.1075	40.92395	-91.39365
341376	-5	9	0	-2.071666	-3.128368	340.2836	0	10.89	20034	0	0	5	5	0.02	0.1443461	1	10	0.08	2800	335.1747	40.92395	-91.39365
341483	-6	0	2	-2.022927	-3.181692	340.2838	0	11	20034	0	0	5	5	0.02	0.137614	1	10	0.08	2800	334.5368	40.92395	-91.39365
341540	-4	-4	-2	-1.998498	-3.210426	340.2822	0	11	20034	0	0	5	5	0.02	0.1290703	1	10	0.08	2800	334.5368	40.92395	-91.39365
341690	-11	-3	-3	-1.967769	-3.250193	340.2803	0	11	20034	0	0	5	5	0.02	0.1233422	1	10	0.08	2800	335.2614	40.92395	-91.39365
341759	-9	-1	2	-1.940255	-3.288419	340.2803	0	11	20034	0	0	5	5	0.02	0.1213304	1	10	0.08	2800	334.8271	40.92395	-91.39365
341956	-9	2	-2	-1.894804	-3.343204	340.2797	0	11	20034	0	0	5	5	0.02	0.121678	1	10	0.08	2800	334.8282	40.92395	-91.39365
342030	-11	-1	0	-1.868534	-3.374501	340.2785	0	11	20034	0	0	5	5	0.02	0.1192833	1	10	0.08	2800	335.0868	40.92395	-91.39365
342128	-7	-1	0	-1.836868	-3.415515	340.2767	0	11	20034	0	0	5	5	0.02	0.1173478	1	10	0.08	2800	335.3378	40.92395	-91.39365
342176	-9	-1	-2	-1.83141	-3.424301	340.2767	0	11	20034	0	0	5	5	0.02	0.1159388	1	10	0.08	2800	335.3378	40.92395	-91.39365
342260	-7	1	-2	-1.814842	-3.443894	340.2755	0	11	20034	0	0	5	5	0.02	0.1154281	1	10	0.08	2800	335.3145	40.92395	-91.39365
342425	-12	0	0	-1.770755	-3.495017	340.2769	0	10.94	20034	0	0	5	5	0.02	0.1186387	1	10	0.08	2800	335.4263	40.92395	-91.39365
342473	-10	-3	0	-1.765236	-3.503236	340.2764	0	10.94	20034	0	0	5	5	0.02	0.1219138	1	10	0.08	2800	335.569	40.92395	-91.39365
342638	-8	-1	2	-1.740658	-3.533373	340.2755	0	10.94	20034	0	0	5	5	0.02	0.1385131	1	10	0.08	2800	334.8732	40.92395	-91.39365
342688	-9	0	1	-1.719213	-3.554699	340.2747	0	10.94	20034	0	0	5	5	0.02	0.1379402	1	10	0.08	2800	335.4363	40.92395	-91.39365
342792	-8	-1	0	-1.703144	-3.577687	340.274	0	10.94	20034	0	0	5	5	0.02	0.1317487	1	10	0.08	2800	335.2237	40.92395	-91.39365
342868	-4	0	1	-1.692196	-3.593269	340.2738	0	10.94	20034	0	0	5	5	0.02	0.1318196	1	10	0.08	2800	335.0195	40.92395	-91.39365
342975	0	4	3	-1.674919	-3.61116	340.2745	0	10.94	20034	0	0	5	5	0.02	0.1346318	1	10	0.08	2800	334.9071	40.92395	-91.39365
343089	-11	-2	0	-1.654616	-3.634298	340.273	0	10.94	20034	0	0	5	5	0.02	0.1319064	1	10	0.08	2800	335.2678	40.92395	-91.39365
343160	-9	4	-2	-1.647991	-3.645063	340.2711	0	10.94	20034	0	0	5	5	0.02	0.1326294	1	10	0.08	2800	335.3849	40.92395	-91.39365
343354	-8	-1	3	-1.619427	-3.674377	340.2698	0	11	20034	0	0	5	5	0.02	0.146977	1	10	0.08	2800	334.9598	40.92395	-91.39365
343400	-7	-2	-2	-1.614411	-3.680177	340.2691	0	11	20034	0	0	5	5	0.02	0.1475673	1	10	0.08	2800	334.9598	40.92395	-91.39365
343468	-5	2	1	-1.604842	-3.690056	340.2684	0	11	20034	0	0	5	5	0.02	0.1455584	1	10	0.08	2800	335.2002	40.92395	-91.39365
343578	-2	-2	-5	-1.591344	-3.705047	340.2688	0	11	20034	0	0	5	5	0.02	0.1433898	1	10	0.08	2800	335.1911	40.92395	-91.39365
343785	-10	5	3	-1.570013	-3.725894	340.2693	0	11	20034	0	0	5	5	0.02	0.1240518	1	10	0.08	2800	335.2779	40.92395	-91.39365
343881	-8	0	0	-1.565703	-3.73357	340.2696	0	11	20034	0	0	5	5	0.02	0.1087272	1	10	0.08	2800	335.1418	40.92395	-91.39365
344014	-5	-3	-1	-1.548147	-3.747843	340.2683	0	11	20034	0	0	5	5	0.02	0.09992988	1	10	0.08	2800	335.4848	40.92395	-91.39365
344032	-6	4	3	-1.538363	-3.762739	340.2673	0	11	20034	0	0	5	5	0.02	0.1025799	1	10	0.08	2800	335.1639	40.92395	-91.39365
344049	-11	-4	-2	-1.531982	-3.76803	340.2687	0	11	20034	0	0	5	5	0.02	0.1033188	1	10	0.08	2800	335.4251	40.92395	-91.39365
344072	0	5	1	-1.528486	-3.771037	340.2678	0	11	20034	0	0	5	5	0.02	0.1028904	1	10	0.08	2800	335.4251	40.92395	-91.39365
344118	-11	0	3	-1.518404	-3.778542	340.2659	0	11	20034	0	0	5	5	0.02	0.1055074	1	10	0.08	2800	335.4061	40.92395	-91.39365
344150	-10	0	-1	-1.508625	-3.792119	340.2634	0	11	20034	0	0	5	5	0.02	0.109208	1	10	0.08	2800	335.279	40.92395	-91.39365
344209	-7	3	-3	-1.504446	-3.799567	340.2616	0	11	20034	0	0	5	5	0.02	0.1142899	1	10	0.08	2800	335.4153	40.92395	-91.39365
