time(ms)	gyro_x(deg/s)	gyro_y(deg/s)	gyro_z(deg/s)	orientation_roll(deg)	orientation_pitch(deg)	orientation_yaw(deg)	throttle	battery(V)	loop_time(uS)	pid_output_roll	pid_output_pitch	pid_output_yaw	pid_output_throttle	ultrasonic_alt	baro_alt	flight_mode	p_gain_altitude	i_gain_altitude	d_gain_altitude	compass_heading	latitude	longitude
220312	1	-1	-3	-4.969034	-2.12272	344.0544	0	11.57	20036	0	0	5	5	0.02	-0.1326546	1	10	0.08	2800	345.5401	40.92395	-91.39366
220377	4	-2	-1	-4.968443	-2.123285	344.0536	0	11.57	20036	0	0	5	5	0.02	-0.1336197	1	10	0.08	2800	346.1071	40.92395	-91.39366
220543	-1	0	4	-4.964232	-2.12553	344.0551	0	11.57	20036	0	0	5	5	0.02	-0.1364517	1	10	0.08	2800	345.8225	40.92395	-91.39366
220612	2	0	0	-4.964065	-2.125485	344.0552	0	11.57	20036	0	0	5	5	0.02	-0.1375563	1	10	0.08	2800	345.8225	40.92395	-91.39366
220678	6	1	-1	-4.963499	-2.124825	344.0548	0	11.57	20036	0	0	5	5	0.02	-0.1356635	1	10	0.08	2800	345.8181	40.92395	-91.39366
220794	0	0	-1	-4.964335	-2.127526	344.0549	0	11.57	20036	0	0	5	5	0.02	-0.1262704	1	10	0.08	2800	345.4811	40.92395	-91.39366
220881	2	0	-1	-4.963306	-2.129864	344.0554	0	11.51	20036	0	0	5	5	0.02	-0.1161373	1	10	0.08	2800	345.5008	40.92395	-91.39366
220991	-1	0	1	-4.965409	-2.127803	344.0532	0	11.51	20036	0	0	5	5	0.02	-0.1164724	1	10	0.08	2800	345.3399	40.92395	-91.39366
221163	4	-2	-2	-4.962333	-2.125947	344.0511	0	11.51	20036	0	0	5	5	0.02	-0.1353378	1	10	0.08	2800	345.8181	40.92395	-91.39366
221271	2	1	-5	-4.96433	-2.130874	344.0534	0	11.51	20036	0	0	5	5	0.02	-0.1455332	1	10	0.08	2800	345.9796	40.92395	-91.39366
221434	4	0	-3	-4.961328	-2.129872	344.0548	0	11.51	20036	0	0	5	5	0.02	-0.1576354	1	10	0.08	2800	345.8942	40.92395	-91.39366
221603	2	-3	1	-4.960423	-2.130557	344.0534	0	11.51	20036	0	0	5	5	0.02	-0.1688167	1	10	0.08	2800	346.0073	40.92395	-91.39366
221714	2	0	4	-4.959638	-2.127018	344.0515	0	11.51	20036	0	0	5	5	0.02	-0.169965	1	10	0.08	2800	346.06	40.92395	-91.39366
221810	9	1	2	-4.95493	-2.128104	344.0503	0	11.51	20036	0	0	5	5	0.02	-0.1701575	1	10	0.08	2800	346.1763	40.92395	-91.39366
221936	0	-4	-1	-4.957295	-2.131967	344.0513	0	11.51	20036	0	0	5	5	0.02	-0.1841843	1	10	0.08	2800	345.6285	40.92395	-91.39366
222117	4	-2	0	-4.954014	-2.134352	344.0508	0	11.51	20036	0	0	5	5	0.02	-0.1876186	1	10	0.08	2800	345.5201	40.92395	-91.39366
222207	3	-5	-1	-4.952884	-2.137093	344.051	0	11.51	20036	0	0	5	5	0.02	-0.1826699	1	10	0.08	2800	345.8655	40.92395	-91.39366
222396	6	5	-5	-4.950015	-2.132453	344.0497	0	11.51	20036	0	0	5	5	0.02	-0.1777406	1	10	0.08	2800	345.8448	40.92395	-91.39366
222514	7	-2	1	-4.948449	-2.135079	344.0496	0	11.51	20036	0	0	5	5	0.02	-0.1757076	1	10	0.08	2800	345.6497	40.92395	-91.39366
222588	3	0	0	-4.946243	-2.131337	344.0506	0	11.51	20036	0	0	5	5	0.02	-0.1772834	1	10	0.08	2800	345.7411	40.92395	-91.39366
222720	5	3	3	-4.946281	-2.131147	344.0488	0	11.51	20036	0	0	5	5	0.02	-0.1884202	1	10	0.08	2800	345.586	40.92395	-91.39366
222832	2	-3	0	-4.942005	-2.133353	344.049	0	11.51	20036	0	0	5	5	0.02	-0.2005642	1	10	0.08	2800	346.2051	40.92395	-91.39366
222953	5	3	-3	-4.939806	-2.136069	344.0479	0	11.51	20036	0	0	5	5	0.02	-0.2048157	1	10	0.08	2800	346.079	40.92395	-91.39366
223032	5	2	0	-4.939902	-2.136188	344.0479	0	11.51	20036	0	0	5	5	0.02	-0.2037261	1	10	0.08	2800	346.079	40.92395	-91.39366
223163	1	0	3	-4.934537	-2.136861	344.046	0	11.51	20036	0	0	5	5	0.02	-0.2008904	1	10	0.08	2800	345.3398	40.92395	-91.39366
223324	4	-1	-1	-4.936442	-2.137596	344.0449	0	11.51	20036	0	0	5	5	0.02	-0.2027614	1	10	0.08	2800	346.0832	40.92395	-91.39366
223408	7	-6	0	-4.937911	-2.138031	344.0451	0	11.51	20036	0	0	5	5	0.02	-0.202436	1	10	0.08	2800	345.6292	40.92395	-91.39366
223472	4	4	0	-4.93837	-2.139471	344.0444	0	11.51	20036	0	0	5	5	0.02	-0.2002902	1	10	0.08	2800	346.0119	40.92395	-91.39366
223572	10	-4	0	-4.93603	-2.140244	344.0432	0	11.51	20036	0	0	5	5	0.02	-0.198415	1	10	0.08	2800	345.6231	40.92395	-91.39366
223707	7	-4	1	-4.934853	-2.13445	344.0424	0	11.51	20036	0	0	5	5	0.02	-0.198588	1	10	0.08	2800	345.8088	40.92395	-91.39366
223739	11	-1	-1	-4.933237	-2.133629	344.0417	0	11.51	20036	0	0	5	5	0.02	-0.1975968	1	10	0.08	2800	345.3654	40.92395	-91.39366
223821	5	0	-3	-4.934635	-2.133985	344.0421	0	11.51	20036	0	0	5	5	0.02	-0.1953762	1	10	0.08	2800	346.2725	40.92395	-91.39366
223982	3	0	1	-4.938722	-2.135651	344.0405	0	11.51	20036	0	0	5	5	0.02	-0.1907325	1	10	0.08	2800	346.4461	40.92395	-91.39366
224021	0	0	0	-4.938881	-2.135901	344.0403	0	11.51	20036	0	0	5	5	0.02	-0.1895132	1	10	0.08	2800	346.4461	40.92395	-91.39366
224120	2	-1	1	-4.933185	-2.133422	344.0414	0	11.51	20036	0	0	5	5	0.02	-0.1800402	1	10	0.08	2800	345.3882	40.92395	-91.39366
224285	0	-1	3	-4.932592	-2.136645	344.0414	0	11.51	20036	0	0	5	5	0.02	-0.1729301	1	10	0.08	2800	345.8921	40.92395	-91.39366
224332	8	4	0	-4.931855	-2.137542	344.042	0	11.51	20036	0	0	5	5	0.02	-0.1722531	1	10	0.08	2800	345.8921	40.92395	-91.39366
224485	4	-1	1	-4.932335	-2.143128	344.0402	0	11.51	20036	0	0	5	5	0.02	-0.1803684	1	10	0.08	2800	346.1623	40.92395	-91.39366
224555	5	0	2	-4.930713	-2.141388	344.0394	0	11.51	20036	0	0	5	5	0.02	-0.1790577	1	10	0.08	2800	345.9786	40.92395	-91.39366
224631	5	-2	4	-4.930627	-2.139593	344.038	0	11.51	20036	0	0	5	5	0.02	-0.17938	1	10	0.08	2800	346.1667	40.92395	-91.39366
224735	7	4	1	-4.928503	-2.140763	344.0364	0	11.51	20036	0	0	5	5	0.02	-0.184029	1	10	0.08	2800	346.1065	40.92395	-91.39366
224855	5	3	0	-4.92944	-2.138734	344.035	0	11.51	20036	0	0	5	5	0.02	-0.1927154	1	10	0.08	2800	345.9243	40.92395	-91.39366
224982	3	0	-1	-4.934359	-2.139546	344.035	0	11.51	20036	0	0	5	5	0.02	-0.2014968	1	10	0.08	2800	345.8423	40.92395	-91.39366
225095	7	0	-4	-4.93651	-2.140691	344.035	0	11.51	20036	0	0	5	5	0.02	-0.2082252	1	10	0.08	2800	345.7483	40.92395	-91.39366
225194	1	3	4	-4.937302	-2.140702	344.0329	0	11.51	20036	0	0	5	5	0.02	-0.2098966	1	10	0.08	2800	345.6989	40.92395	-91.39366
225280	4	3	-2	-4.935905	-2.138673	344.0328	0	11.51	20036	0	0	5	5	0.02	-0.2140076	1	10	0.08	2800	345.6991	40.92395	-91.39366
225362	8	-1	0	-4.935189	-2.143057	344.0314	0	11.51	20036	0	0	5	5	0.02	-0.2172175	1	10	0.08	2800	345.8819	40.92395	-91.39366
225465	2	5	0	-4.936643	-2.143477	344.0298	0	11.57	20036	0	0	5	5	0.02	-0.2158143	1	10	0.08	2800	345.8755	40.92395	-91.39366
225559	2	0	1	-4.936527	-2.144593	344.0289	0	11.57	20036	0	0	5	5	0.02	-0.2143225	1	10	0.08	2800	346.3809	40.92395	-91.39366
225752	3	1	2	-4.935552	-2.146724	344.0245	0	11.57	20036	0	0	5	5	0.02	-0.2076441	1	10	0.08	2800	345.5305	40.92395	-91.39366
225841	8	0	0	-4.93257	-2.146517	344.0237	0	11.57	20036	0	0	5	5	0.02	-0.2004739	1	10	0.08	2800	345.9495	40.92395	-91.39366
225893	2	2	-3	-4.933411	-2.148603	344.0229	0	11.57	20036	0	0	5	5	0.02	-0.1998403	1	10	0.08	2800	346.4291	40.92395	-91.39366
225959	0	-3	1	-4.932322	-2.147987	344.0219	0	11.57	20036	0	0	5	5	0.02	-0.1957284	1	10	0.08	2800	345.632	40.92395	-91.39366
226073	3	-2	-4	-4.930812	-2.148158	344.0227	0	11.57	20036	0	0	5	5	0.02	-0.1942944	1	10	0.08	2800	346.1164	40.92395	-91.39366
226157	1	7	1	-4.932908	-2.146901	344.0212	0	11.57	20036	0	0	5	5	0.02	-0.1899483	1	10	0.08	2800	345.6833	40.92395	-91.39366
226258	0	1	3	-4.933626	-2.148429	344.0202	0	11.57	20036	0	0	5	5	0.02	-0.1788478	1	10	0.08	2800	346.1766	40.92395	-91.39366
226353	3	0	0	-4.931896	-2.147798	344.0181	0	11.51	20036	0	0	5	5	0.02	-0.1736695	1	10	0.08	2800	345.9507	40.92395	-91.39366
226505	1	1	1	-4.931428	-2.148222	344.0159	0	11.51	20036	0	0	5	5	0.02	-0.169438	1	10	0.08	2800	346.1126	40.92395	-91.39366
226581	5	-6	1	-4.932864	-2.147647	344.0146	0	11.51	20036	0	0	5	5	0.02	-0.1744255	1	10	0.08	2800	346.1119	40.92395	-91.39366
226659	10	1	-1	-4.934934	-2.150411	344.0132	0	11.51	20036	0	0	5	5	0.02	-0.1776896	1	10	0.08	2800	346.1039	40.92395	-91.39366
226823	7	1	0	-4.932542	-2.153191	344.0121	0	11.51	20036	0	0	5	5	0.02	-0.1790785	1	10	0.08	2800	346.1019	40.92395	-91.39366
226903	6	0	-2	-4.93082	-2.152913	344.0111	0	11.51	20036	0	0	5	5	0.02	-0.1769227	1	10	0.08	2800	345.8793	40.92395	-91.39366
226969	5	-1	3	-4.929916	-2.153146	344.0108	0	11.51	20036	0	0	5	5	0.02	-0.1668793	1	10	0.08	2800	345.363	40.92395	-91.39366
227135	1	-4	2	-4.928607	-2.154401	344.0105	0	11.51	20036	0	0	5	5	0.02	-0.1594719	1	10	0.08	2800	345.6372	40.92395	-91.39366
227239	9	0	0	-4.926222	-2.15571	344.0115	0	11.51	20036	0	0	5	5	0.02	-0.157177	1	10	0.08	2800	345.6916	40.92395	-91.39366
227342	1	-5	0	-4.92395	-2.155884	344.0101	0	11.51	20036	0	0	5	5	0.02	-0.1502249	1	10	0.08	2800	346.3804	40.92395	-91.39366
227438	11	-2	5	-4.920621	-2.156291	344.0091	0	11.51	20036	0	0	5	5	0.02	-0.1462799	1	10	0.08	2800	346.2039	40.92395	-91.39366
227462	11	-2	5	-4.920621	-2.156291	344.0091	0	11.51	20036	0	0	5	5	0.02	-0.1472811	1	10	0.08	2800	346.2039	40.92395	-91.39366
227566	6	1	0	-4.919675	-2.156496	344.0076	0	11.51	20036	0	0	5	5	0.02	-0.1481776	1	10	0.08	2800	345.7458	40.92395	-91.39366
227674	9	0	0	-4.916588	-2.158597	344.0076	0	11.51	20036	0	0	5	5	0.02	-0.1515899	1	10	0.08	2800	345.9116	40.92395	-91.39366
227777	4	-1	3	-4.91258	-2.16535	344.0064	0	11.51	20036	0	0	5	5	0.02	-0.1542631	1	10	0.08	2800	345.6449	40.92395	-91.39366
227917	3	2	0	-4.907685	-2.167813	344.0051	0	11.51	20036	0	0	5	5	0.02	-0.1673465	1	10	0.08	2800	345.9503	40.92395	-91.39366
228029	8	-1	0	-4.90797	-2.169744	344.004	0	11.51	20036	0	0	5	5	0.02	-0.1742528	1	10	0.08	2800	345.8562	40.92395	-91.39366
228120	8	2	1	-4.906145	-2.16801	344.0031	0	11.51	20036	0	0	5	5	0.02	-0.1747571	1	10	0.08	2800	345.4539	40.92395	-91.39366
228172	6	-1	0	-4.90711	-2.168807	344.003	0	11.51	20036	0	0	5	5	0.02	-0.1691987	1	10	0.08	2800	345.9997	40.92395	-91.39366
228307	1	0	-1	-4.908455	-2.170317	344.0018	0	11.51	20036	0	0	5	5	0.02	-0.1562315	1	10	0.08	2800	346.0914	40.92395	-91.39366
228385	2	-2	0	-4.908736	-2.172501	344.0007	0	11.51	20036	0	0	5	5	0.02	-0.1430342	1	10	0.08	2800	346.1576	40.92395	-91.39366
228476	6	-1	1	-4.908029	-2.172136	343.9993	0	11.51	20036	0	0	5	5	0.02	-0.1280867	1	10	0.08	2800	346.2683	40.92395	-91.39366
228570	4	-1	5	-4.906166	-2.171712	343.9974	0	11.51	20036	0	0	5	5	0.02	-0.1217618	1	10	0.08	2800	346.2062	40.92395	-91.39366
228747	3	0	2	-4.903912	-2.171759	343.9963	0	11.51	20036	0	0	5	5	0.02	-0.117444	1	10	0.08	2800	345.7581	40.92395	-91.39366
228787	4	-1	-1	-4.903178	-2.1711	343.9955	0	11.51	20036	0	0	5	5	0.02	-0.1179653	1	10	0.08	2800	345.8659	40.92395	-91.39366
228878	6	6	0	-4.900755	-2.170201	343.996	0	11.51	20036	0	0	5	5	0.02	-0.1250177	1	10	0.08	2800	346.0081	40.92395	-91.39366
228963	8	-3	-1	-4.903874	-2.170015	343.9952	0	11.51	20036	0	0	5	5	0.02	-0.1257269	1	10	0.08	2800	345.6885	40.92395	-91.39366
229133	3	0	2	-4.902852	-2.168666	343.9956	0	11.51	20036	0	0	5	5	0.02	-0.1399866	1	10	0.08	2800	346.2172	40.92395	-91.39366
229188	6	2	0	-4.898333	-2.167255	343.9965	0	11.51	20036	0	0	5	5	0.02	-0.1455689	1	10	0.08	2800	345.9063	40.92395	-91.39366
229287	7	1	-1	-4.899017	-2.168863	343.996	0	11.51	20036	0	0	5	5	0.02	-0.1530493	1	10	0.08	2800	346.0153	40.92395	-91.39366
229375	3	1	4	-4.899911	-2.171664	343.9959	0	11.51	20036	0	0	5	5	0.02	-0.1544688	1	10	0.08	2800	346.4327	40.92395	-91.39366
229477	9	-4	0	-4.896076	-2.173231	343.995	0	11.51	20036	0	0	5	5	0.02	-0.1559678	1	10	0.08	2800	345.9055	40.92395	-91.39366
229568	11	3	0	-4.892397	-2.171879	343.9957	0	11.51	20036	0	0	5	5	0.02	-0.1582278	1	10	0.08	2800	345.6399	40.92395	-91.39366
229638	3	0	1	-4.890705	-2.171051	343.9955	0	11.51	20036	0	0	5	5	0.02	-0.1621513	1	10	0.08	2800	346.331	40.92395	-91.39366
229754	5	-2	-2	-4.891655	-2.168522	343.9958	0	11.51	20036	0	0	5	5	0.02	-0.1651458	1	10	0.08	2800	346.0131	40.92395	-91.39366
229884	9	-5	0	-4.88957	-2.166334	343.9958	0	11.51	20036	0	0	5	5	0.02	-0.1629536	1	10	0.08	2800	346.2498	40.92395	-91.39366
230007	3	-6	1	-4.884036	-2.165908	343.9955	0	11.51	20036	0	0	5	5	0.02	-0.1619378	1	10	0.08	2800	345.7845	40.92395	-91.39366
230083	10	-2	5	-4.883541	-2.167297	343.9952	0	11.51	20036	0	0	5	5	0.02	-0.1520751	1	10	0.08	2800	345.7422	40.92395	-91.39366
230194	3	0	3	-4.881362	-2.167184	343.9944	0	11.51	20036	0	0	5	5	0.02	-0.1323134	1	10	0.08	2800	346.1045	40.92395	-91.39366
230374	7	0	1	-4.876169	-2.168422	343.9922	0	11.51	20036	0	0	5	5	0.02	-0.0972024	1	10	0.08	2800	346.0316	40.92395	-91.39366
230522	7	0	5	-4.875477	-2.170078	343.9894	0	11.51	20036	0	0	5	5	0.02	-0.07827271	1	10	0.08	2800	345.7564	40.92395	-91.39366
230628	2	2	0	-4.874439	-2.167662	343.9885	0	11.51	20036	0	0	5	5	0.02	-0.08105541	1	10	0.08	2800	346.5152	40.92395	-91.39366
230726	9	3	3	-4.873852	-2.167169	343.9869	0	11.51	20036	0	0	5	5	0.02	-0.08446153	1	10	0.08	2800	346.0111	40.92395	-91.39366
230827	10	5	3	-4.871507	-2.167153	343.9854	0	11.51	20036	0	0	5	5	0.02	-0.09119306	3	10	0.08	2800	346.0891	40.92395	-91.39366
230943	5	0	-2	-4.866753	-2.170445	343.9863	0	11.51	20036	0	0	5	5	0.02	-0.09748841	3	10	0.08	2800	345.8237	40.92395	-91.39366
231030	6	4	0	-4.867804	-2.169528	343.9875	0	11.51	20036	0	0	5	5	0.02	-0.1102306	3	10	0.08	2800	346.0955	40.92395	-91.39366
231123	10	3	0	-4.865574	-2.16868	343.9872	0	11.51	20036	0	0	5	5	0.02	-0.1162008	3	10	0.08	2800	346.0976	40.92395	-91.39366
231245	8	0	0	-4.864125	-2.167514	343.9865	0	11.51	20036	0	0	5	5	0.02	-0.1251811	3	10	0.08	2800	346.2659	40.92395	-91.39366
231342	9	1	1	-4.862423	-2.168456	343.9882	0	11.51	20036	0	0	5	5	0.02	-0.1296343	3	10	0.08	2800	346.2711	40.92395	-91.39366
231365	9	3	2	-4.861796	-2.167091	343.987	0	11.51	20036	0	0	5	5	0.02	-0.1308614	3	10	0.08	2800	346.2711	40.92395	-91.39366
231474	6	2	-1	-4.857976	-2.164624	343.9879	0	11.51	20036	0	0	5	5	0.02	-0.1298167	3	10	0.08	2800	346.0067	40.92395	-91.39366
231590	11	3	1	-4.857944	-2.164326	343.987	0	11.51	20036	0	0	5	5	0.02	-0.135111	3	10	0.08	2800	345.8068	40.92395	-91.39366
231703	3	-3	0	-4.854856	-2.163236	343.9875	0	11.51	20036	0	0	5	5	0.02	-0.1399748	3	10	0.08	2800	346.2029	40.92395	-91.39366
231828	9	0	2	-4.851182	-2.166241	343.9891	0	11.57	20036	0	0	5	5	0.02	-0.1448134	3	10	0.08	2800	345.9346	40.92395	-91.39366
231965	9	0	3	-4.849943	-2.165141	343.9889	0	11.57	20036	0	0	5	5	0.02	-0.1443967	3	10	0.08	2800	346.0271	40.92395	-91.39366
232025	10	4	-4	-4.846744	-2.163619	343.9893	0	11.57	20036	0	0	5	5	0.02	-0.1296745	3	10	0.08	2800	346.3551	40.92395	-91.39366
232108	8	2	-2	-4.843125	-2.165298	343.9904	0	11.57	20036	0	0	5	5	0.02	-0.1249385	3	10	0.08	2800	346.2225	40.92395	-91.39366
232236	10	2	0	-4.842176	-2.166514	343.9912	0	11.57	20036	0	0	5	5	0.02	-0.1154779	3	10	0.08	2800	346.6425	40.92395	-91.39366
232315	10	-2	6	-4.843021	-2.167221	343.9908	0	11.57	20036	0	0	5	5	0.02	-0.11257	3	10	0.08	2800	346.0214	40.92395	-91.39366
232441	17	0	-4	-4.840123	-2.166842	343.9919	0	11.57	20036	0	0	5	5	0.02	-0.1093667	3	10	0.08	2800	346.3687	40.92395	-91.39366
232519	9	-7	-2	-4.838573	-2.162596	343.9914	0	11.57	20036	0	0	5	5	0.02	-0.108115	3	10	0.08	2800	345.8513	40.92395	-91.39366
232581	10	0	0	-4.835561	-2.161358	343.9933	0	11.57	20036	0	0	5	5	0.02	-0.1051224	3	10	0.08	2800	346.6155	40.92395	-91.39366
232749	10	4	-1	-4.833071	-2.15804	343.9921	0	11.51	20036	0	0	5	5	0.02	-0.1013478	3	10	0.08	2800	345.8435	40.92395	-91.39366
232884	8	-3	3	-4.834102	-2.162177	343.9938	0	11.51	20036	0	0	5	5	0.02	-0.1017171	3	10	0.08	2800	346.2482	40.92395	-91.39366
232982	10	5	0	-4.833995	-2.159023	343.9949	0	11.51	20036	0	0	5	5	0.02	-0.1046535	3	10	0.08	2800	346.1371	40.92395	-91.39366
233076	14	1	0	-4.832433	-2.157205	343.9951	0	11.51	20036	0	0	5	5	0.02	-0.108574	3	10	0.08	2800	346.4585	40.92395	-91.39366
233186	51	7	4	-4.823138	-2.152378	343.9933	0	11.51	20036	0	0	5	5	0.02	-0.1130827	3	10	0.08	2800	346.7647	40.92395	-91.39366
233338	-36	-54	-70	-4.820973	-2.161586	344.0162	0	11.51	20036	0	0	5	5	0.02	-0.1174294	3	10	0.08	2800	345.4558	40.92395	-91.39366
233473	4	11	-44	-4.802908	-2.145701	344.0037	0	11.51	20036	0	0	5	5	0.02	-0.120723	3	10	0.08	2800	344.2444	40.92395	-91.39366
233530	-76	-70	-15	-4.74632	-2.102829	344.0249	0	11.51	20036	0	0	5	5	0.02	-0.1242005	3	10	0.08	2800	343.0573	40.92395	-91.39366
233628	156	122	15	-4.726819	-2.061506	344.0247	0	11.51	20036	0	0	5	5	0.02	-0.1247818	3	10	0.08	2800	343.0573	40.92395	-91.39366
233717	17	158	-101	-4.697485	-1.999785	344.0353	0	11.51	20036	0	0	5	5	0.02	-0.1187826	3	10	0.08	2800	343.8765	40.92395	-91.39366
233802	102	-62	-108	-4.652385	-2.009282	344.0333	0	11.51	20036	0	0	5	5	0.02	-0.110927	3	10	0.08	2800	344.9438	40.92395	-91.39366
233929	86	23	-100	-4.587546	-1.935708	344.0499	0	11.51	20036	0	0	5	5	0.02	-0.1035354	3	10	0.08	2800	344.4617	40.92395	-91.39366
234053	110	-2	-82	-4.521323	-1.88965	344.063	0	11.51	20036	0	0	5	5	0.02	-0.1068355	3	10	0.08	2800	345.0775	40.92395	-91.39366
234111	-105	-130	213	-4.510511	-1.825626	344.0498	0	11.51	20036	0	0	5	5	0.02	-0.1095657	3	10	0.08	2800	344.9879	40.92395	-91.39366
234228	107	29	-120	-4.45751	-1.764528	344.076	0	11.51	20036	0	0	5	5	0.02	-0.1165751	3	10	0.08	2800	344.9829	40.92395	-91.39366
234353	-178	-42	131	-4.425286	-1.635943	344.0825	0	11.51	20036	0	0	5	5	0.02	-0.1172492	3	10	0.08	2800	344.5363	40.92395	-91.39366
234455	176	170	-346	-4.369909	-1.567828	344.0827	0	11.51	20036	0	0	5	5	0.02	-0.110559	3	10	0.08	2800	345.0236	40.92395	-91.39366
234540	253	-14	-81	-4.383039	-1.499827	344.071	0	11.51	20036	0	0	5	5	0.02	-0.1052536	3	10	0.08	2800	345.5304	40.92395	-91.39366
234618	-374	-43	127	-4.505576	-1.453431	344.0649	0	11.57	20036	0	0	5	5	0.02	-0.08825042	3	10	0.08	2800	345.7549	40.92395	-91.39366
234760	-25	70	-5	-4.744933	-1.57472	344.0165	0	11.57	20036	0	0	5	5	0.02	-0.08239114	3	10	0.08	2800	345.2762	40.92395	-91.39366
234850	-27	27	-43	-4.814983	-1.654886	343.9993	0	11.57	20036	0	0	5	5	0.02	-0.08359851	3	10	0.08	2800	345.7954	40.92395	-91.39366
234921	10	2	69	-4.81204	-1.665306	343.9968	0	11.57	20036	0	0	5	5	0.02	-0.081957	3	10	0.08	2800	345.6526	40.92395	-91.39366
235054	-12	-6	-44	-4.825712	-1.696246	343.9974	0	11.57	20036	0	0	5	5	0.02	-0.08541926	3	10	0.08	2800	345.3743	40.92395	-91.39366
235124	23	-1	-33	-4.827626	-1.714976	344.0009	0	11.57	20036	0	0	5	5	0.02	-0.08877923	3	10	0.08	2800	344.9713	40.92395	-91.39366
235227	-23	-26	-28	-4.828535	-1.730913	344.0076	0	11.57	20036	0	0	5	5	0.02	-0.08801574	3	10	0.08	2800	344.8192	40.92395	-91.39366
235320	36	15	-20	-4.813392	-1.741491	344.0115	0	11.57	20036	0	0	5	5	0.02	-0.08439907	3	10	0.08	2800	344.7448	40.92395	-91.39366
235457	-46	-86	110	-4.798	-1.73293	344.0056	0	11.51	20036	0	0	5	5	0.02	-0.08481859	3	10	0.08	2800	344.9899	40.92395	-91.39366
235557	67	158	-37	-4.767512	-1.707049	344.0217	0	11.51	20036	0	0	5	5	0.02	-0.08879533	3	10	0.08	2800	344.887	40.92395	-91.39366
235686	-136	-38	162	-4.684134	-1.672618	344.0226	0	11.51	20036	0	0	5	5	0.02	-0.1021244	3	10	0.08	2800	343.6351	40.92395	-91.39366
235878	173	205	-287	-4.592928	-1.633345	344.0381	0	11.51	20036	0	0	5	5	0.02	-0.1165948	3	10	0.08	2800	343.9188	40.92395	-91.39366
235989	87	19	23	-4.57536	-1.555492	344.0332	0	11.51	20036	0	0	5	5	0.02	-0.1153629	3	10	0.08	2800	344.0664	40.92395	-91.39366
236075	-33	-106	21	-4.511877	-1.488661	344.0187	0	11.51	20036	0	0	5	5	0.02	-0.112217	3	10	0.08	2800	343.5762	40.92395	-91.39366
236147	1634	-131	-274	-3.588659	-1.434805	343.9473	0	11.51	20036	0	0	5	5	0.02	-0.1126515	3	10	0.08	2800	342.6792	40.92395	-91.39366
236258	4746	-437	559	1.041785	-1.203208	344.0646	0	11.51	20036	0	0	5	5	0.02	-0.1081782	3	10	0.08	2800	343.7783	40.92395	-91.39366
236352	5466	203	-486	6.695981	-0.9468926	344.2755	0	11.51	20036	0	0	5	5	0.02	-0.09481005	3	10	0.08	2800	343.7793	40.92395	-91.39366
236431	5819	-515	-568	16.6745	-0.3812408	344.7325	0	11.46	20036	0	0	5	5	0.02	-0.08432986	3	10	0.08	2800	341.4671	40.92395	-91.39366
236563	-1337	257	-324	24.61675	-0.01584091	345.1219	0	11.46	20036	0	0	5	5	0.02	-0.06601781	3	10	0.08	2800	340.6385	40.92395	-91.39366
236789	533	-1476	172	-27.97472	1.430234	345.7256	0	11.46	20036	0	0	5	5	0.02	-0.02305776	3	10	0.08	2800	351.788	40.92395	-91.39366
236917	-6924	-145	3960	-36.63004	3.866237	349.3039	0	11.46	20036	0	0	5	5	0.02	-0.002977446	3	10	0.08	2800	342.313	40.92395	-91.39366
236967	-6980	3362	1014	-46.44188	-1.516038	346.5448	0	11.46	20036	0	0	5	5	0.02	-0.001708861	3	10	0.08	2800	338.9518	40.92395	-91.39366
237029	-6390	-187	1134	-50.79639	-4.072217	345.0677	0	11.46	20036	0	0	5	5	0.02	-0.0004820762	3	10	0.08	2800	338.9518	40.92395	-91.39366
237119	1516	-615	-138	-58.51443	-3.16169	336.6187	0	11.46	20036	0	0	5	5	0.02	-0.01589074	3	10	0.08	2800	333.028	40.92395	-91.39366
237263	6785	-267	43	-47.92513	-3.697424	335.5889	0	11.46	20036	0	0	5	5	0.02	-0.04197067	3	10	0.08	2800	332.2087	40.92395	-91.39367
237379	14342	-806	173	-32.25469	-3.008441	335.4574	0	11.46	20036	0	0	5	5	0.02	-0.07422396	3	10	0.08	2800	331.0708	40.92395	-91.39367
237415	18458	-937	198	-23.58566	-2.509589	335.3402	0	11.46	20036	0	0	5	5	0.02	-0.07846653	3	10	0.08	2800	331.0708	40.92395	-91.39366
237537	156	-3319	-372	-5.886116	-3.553784	324.4355	0	11.46	20036	0	0	5	5	0.02	-0.110146	3	10	0.08	2800	324.3401	40.92395	-91.39366
237679	23	123	-21	-5.968831	-2.691036	324.4594	0	11.46	20036	0	0	5	5	0.02	-0.1387099	3	10	0.08	2800	332.7557	40.92395	-91.39366
237871	83	-1	28	-5.819074	-2.654462	324.4612	0	11.46	20036	0	0	5	5	0.02	-0.1435513	3	10	0.08	2800	332.3349	40.92395	-91.39366
237957	0	42	-49	-5.709757	-2.653826	324.4355	0	11.46	20036	0	0	5	5	0.02	-0.1450967	3	10	0.08	2800	331.1542	40.92395	-91.39366
238029	60	-46	-42	-5.605539	-2.628062	324.4143	0	11.46	20036	0	0	5	5	0.02	-0.1462233	3	10	0.08	2800	331.824	40.92395	-91.39366
238136	330	-62	57	-5.393248	-2.540936	324.3965	0	11.8	20036	0	0	5	5	0.02	-0.1528177	3	10	0.08	2800	330.5001	40.92395	-91.39366
238162	123	-242	-67	-5.270251	-2.438993	324.3965	0	11.8	20036	0	0	5	5	0.02	-0.1528177	3	10	0.08	2800	331.2839	40.92395	-91.39366
238271	515	101	45	-4.846268	-2.264501	324.3073	0	11.8	20036	0	0	5	5	0.02	-0.1626155	3	10	0.08	2800	332.4619	40.92395	-91.39366
238374	-287	-302	218	-4.551037	-2.024518	324.2403	0	11.8	20036	0	0	5	5	0.02	-0.1609224	3	10	0.08	2800	331.4471	40.92395	-91.39366
238570	560	-3010	-633	-3.987461	1.16857	324.4758	0	11.8	20036	0	0	5	5	0.02	-0.1614638	3	10	0.08	2800	331.3669	40.92395	-91.39366
238728	2078	2055	309	1.647426	6.541234	325.1807	0	11.8	20036	0	0	5	5	0.02	-0.1545545	3	10	0.08	2800	326.0844	40.92395	-91.39366
238777	1694	2583	252	2.616829	5.189746	325.1984	0	11.8	20036	0	0	5	5	0.02	-0.1504055	3	10	0.08	2800	326.0844	40.92395	-91.39366
238921	971	1506	356	0.7811611	1.768746	325.6312	0	11.8	20036	0	0	5	5	0.02	-0.1154583	3	10	0.08	2800	326.5461	40.92395	-91.39366
238996	-1938	3327	506	0.2584613	-2.592574	325.0128	0	11.8	20036	0	0	5	5	0.02	-0.06909449	3	10	0.08	2800	329.3913	40.92395	-91.39366
239084	-4681	3284	-202	-3.67651	-6.577541	324.3989	0	11.29	20036	0	0	5	5	0.02	-0.0431859	3	10	0.08	2800	330.6674	40.92395	-91.39366
239189	714	-2738	-125	-5.475226	-5.50429	334.9419	0	11.29	20036	0	0	5	5	0.02	0.0005352345	3	10	0.08	2800	334.7096	40.92395	-91.39366
239309	213	-110	-665	-3.215255	-3.042328	335.6101	0	11.29	20036	0	0	5	5	0.02	0.04091356	3	10	0.08	2800	335.1818	40.92395	-91.39366
239465	-2004	104	-1138	-2.635004	-2.560025	337.4911	0	11.29	20036	0	0	5	5	0.02	0.07033347	3	10	0.08	2800	336.6154	40.92395	-91.39366
239554	-3481	-2600	-1116	-7.28819	0.1769467	338.9243	0	11.29	20036	0	0	5	5	0.02	0.1211059	3	10	0.08	2800	336.6501	40.92395	-91.39366
239687	404	-1947	-1188	-10.30867	6.866646	341.9721	0	11.29	20036	0	0	5	5	0.02	0.1760539	3	10	0.08	2800	338.8015	40.92395	-91.39365
239784	4720	1266	-628	-5.935322	7.766735	343.8908	0	11.29	20036	0	0	5	5	0.02	0.1933227	3	10	0.08	2800	339.267	40.92395	-91.39365
239926	114	-353	-21	-0.6269626	5.511612	344.2388	0	11.29	20036	0	0	5	5	0.02	0.2128606	3	10	0.08	2800	341.8	40.92395	-91.39365
240028	847	-187	304	-0.8644502	6.403635	344.3784	0	11.29	20036	0	0	5	5	0.02	0.2206487	3	10	0.08	2800	342.0465	40.92395	-91.39365
240077	980	813	599	-0.06451161	6.20014	344.3008	0	11.29	20036	0	0	5	5	0.02	0.2222413	3	10	0.08	2800	342.0465	40.92395	-91.39365
240284	700	198	-218	-0.2864506	-0.1573295	343.3517	0	11.29	20036	0	0	5	5	0.02	0.2482474	3	10	0.08	2800	341.1121	40.92395	-91.39365
240380	133	-787	33	0.2159279	1.455992	343.6278	0	11.29	20036	0	0	5	5	0.02	0.2701252	3	10	0.08	2800	343.2005	40.92395	-91.39365
240487	-301	-733	-703	0.1903599	2.879664	344.1604	0	11.29	20036	0	0	5	5	0.02	0.2825881	3	10	0.08	2800	344.4445	40.92395	-91.39365
240578	-1259	-289	-441	-0.6614186	3.351071	344.8601	0	11.29	20036	0	0	5	5	0.02	0.2943366	3	10	0.08	2800	343.6147	40.92395	-91.39365
240741	-1515	260	-257	-4.080977	2.879998	346.3684	0	11.29	20036	0	0	5	5	0.02	0.3133796	3	10	0.08	2800	345.6002	40.92395	-91.39365
240843	1	2006	-380	-5.69664	1.651029	347.6536	0	11.29	20036	0	0	5	5	0.02	0.3168302	3	10	0.08	2800	347.4077	40.92395	-91.39365
240979	525	1786	-285	-5.945597	-1.331979	348.4113	0	11.29	20036	0	0	5	5	0.02	0.322292	3	10	0.08	2800	352.4145	40.92395	-91.39365
241084	248	-1944	-681	-6.023492	-0.6722668	350.5839	0	11.29	20036	0	0	5	5	0.02	0.320301	3	10	0.08	2800	356.7847	40.92395	-91.39365
241180	924	-1552	-597	-4.84799	2.080386	351.5559	0	11.29	20036	0	0	5	5	0.02	0.319872	3	10	0.08	2800	358.6048	40.92395	-91.39365
241285	314	561	482	-3.476388	1.214741	351.6217	0	11.29	20036	0	0	5	5	0.02	0.3235458	3	10	0.08	2800	357.7809	40.92395	-91.39365
241435	226	-3285	-434	-1.252416	8.676773	352.132	0	11.29	20036	0	0	5	5	0.02	0.3387456	3	10	0.08	2800	356.0496	40.92395	-91.39365
241532	1462	-205	-368	-1.114661	11.10699	352.0866	0	11.29	20036	0	0	5	5	0.02	0.3534023	3	10	0.08	2800	352.5757	40.92395	-91.39365
241597	230	-1964	244	-0.2882184	12.22927	352.4607	0	11.29	20036	0	0	5	5	0.02	0.3805418	3	10	0.08	2800	352.8265	40.92395	-91.39365
241718	-518	17	522	-1.671951	14.31089	352.6792	0	11.29	20036	0	0	5	5	0.02	0.4125609	3	10	0.08	2800	351.8099	40.92395	-91.39365
241789	1867	4950	-104	-2.176981	8.340297	352.3892	0	11.29	20036	0	0	5	5	0.02	0.421793	3	10	0.08	2800	350.7993	40.92394	-91.39365
241925	-206	3270	304	-0.4986845	2.066097	352.0203	0	11.17	20036	0	0	5	5	0.02	0.4443004	3	10	0.08	2800	353.6628	40.92394	-91.39365
241994	-2832	1176	-266	-3.515689	-1.757541	352.025	0	11.17	20036	0	0	5	5	0.02	0.4586299	3	10	0.08	2800	358.7864	40.92394	-91.39365
242089	-3299	-413	-270	-6.225325	-2.297058	352.057	0	11.17	20036	0	0	5	5	0.02	0.4759712	3	10	0.08	2800	0.3471069	40.92394	-91.39365
242197	507	2102	-495	-4.869994	-4.82704	3.384995	0	11.17	20036	0	0	5	5	0.02	0.4957567	3	10	0.08	2800	3.354736	40.92394	-91.39365
242298	933	-1299	-815	-4.527987	-4.397274	3.942462	0	11.17	20036	0	0	5	5	0.02	0.5131055	3	10	0.08	2800	3.691864	40.92394	-91.39365
242411	1806	-274	-428	-2.488859	-0.9126807	4.648365	0	11.17	20036	0	0	5	5	0.02	0.5305679	3	10	0.08	2800	2.391846	40.92394	-91.39365
242531	-2114	13	-321	-0.2155338	-1.538209	5.83889	0	11.17	20036	0	0	5	5	0.02	0.5647361	3	10	0.08	2800	2.871704	40.92394	-91.39365
242648	-280	-1509	-461	-2.323414	1.279128	6.382187	0	11.17	20036	0	0	5	5	0.02	0.5989475	3	10	0.08	2800	4.631409	40.92394	-91.39365
242712	-519	411	513	-3.112105	2.375498	6.271338	0	11.17	20036	0	0	5	5	0.02	0.6314882	3	10	0.08	2800	1.486664	40.92393	-91.39365
242838	2251	2121	-552	-2.637882	1.295257	6.823907	0	11.23	20036	0	0	5	5	0.02	0.6676925	3	10	0.08	2800	2.410461	40.92393	-91.39365
242922	889	571	45	0.6247846	-1.429277	7.141441	0	11.23	20036	0	0	5	5	0.02	0.6907265	3	10	0.08	2800	3.116425	40.92393	-91.39365
243076	-538	-3480	245	-1.376006	3.582766	7.094182	0	11.23	20036	0	0	5	5	0.02	0.7205761	3	10	0.08	2800	1.994659	40.92393	-91.39365
243159	-770	309	317	-3.263021	5.394469	6.476255	0	11.23	20036	0	0	5	5	0.02	0.7396429	3	10	0.08	2800	357.7489	40.92393	-91.39365
243209	1217	850	339	-2.436538	4.385711	5.936481	0	11.23	20036	0	0	5	5	0.02	0.7548427	3	10	0.08	2800	357.8747	40.92393	-91.39365
243317	2378	203	938	0.002407837	3.79736	354.2079	0	11.23	20036	0	0	5	5	0.02	0.7704362	3	10	0.08	2800	355.0499	40.92393	-91.39365
243405	-1494	1294	1494	-1.681958	3.185456	351.7603	0	11.23	20036	0	0	5	5	0.02	0.7811183	3	10	0.08	2800	350.9185	40.92393	-91.39365
243515	148	-614	1603	-2.673917	2.581471	349.9308	0	11.23	20036	0	0	5	5	0.02	0.7876498	3	10	0.08	2800	349.8269	40.92393	-91.39365
243660	557	601	1206	-7.282484	3.478025	344.95	0	11.23	20036	0	0	5	5	0.02	0.781858	3	10	0.08	2800	344.1134	40.92393	-91.39365
243713	2302	804	1270	-4.670495	2.556275	343.3947	0	10.89	20036	0	0	5	5	0.02	0.7805845	3	10	0.08	2800	341.7206	40.92393	-91.39365
243832	-1856	586	1018	-4.870994	1.034021	341.1016	0	10.89	20036	0	0	5	5	0.02	0.7720689	3	10	0.08	2800	341.8355	40.92393	-91.39365
243939	1531	781	-161	-4.315634	0.2528993	340.6674	0	10.89	20036	0	0	5	5	0.02	0.7659215	3	10	0.08	2800	340.5181	40.92393	-91.39365
244014	360	-470	293	-3.224995	1.066564	340.2994	0	10.89	20036	0	0	5	5	0.02	0.7619925	3	10	0.08	2800	341.0981	40.92393	-91.39364
244139	2259	999	207	-2.637361	1.53513	340.3821	0	10.89	20036	0	0	5	5	0.02	0.7704761	3	10	0.08	2800	340.244	40.92393	-91.39364
244217	-1859	907	296	-1.275693	0.1639753	340.7264	0	10.89	20036	0	0	5	5	0.02	0.7821004	3	10	0.08	2800	343.2045	40.92393	-91.39364
244369	2905	-1535	-871	-5.822448	5.507924	341.8586	0	10.89	20036	0	0	5	5	0.02	0.7896916	3	10	0.08	2800	341.0027	40.92393	-91.39364
244464	-755	-529	-143	-2.583723	5.618701	342.329	0	10.89	20036	0	0	5	5	0.02	0.7981665	3	10	0.08	2800	342.5917	40.92393	-91.39364
244510	-1681	-893	-419	-3.441321	5.98183	342.3847	0	10.89	20036	0	0	5	5	0.02	0.8011657	3	10	0.08	2800	342.5917	40.92393	-91.39364
244694	1303	2113	-67	-7.86704	3.84571	342.9267	0	11.11	20036	0	0	5	5	0.02	0.8228215	3	10	0.08	2800	343.111	40.92393	-91.39364
244786	774	1073	-302	-7.210182	3.212811	343.0179	0	11.11	20036	0	0	5	5	0.02	0.8366645	3	10	0.08	2800	344.7194	40.92393	-91.39364
244825	-1304	-95	-239	-8.162519	3.681729	342.9831	0	11.11	20036	0	0	5	5	0.02	0.8392468	3	10	0.08	2800	344.2182	40.92393	-91.39364
244977	18	1423	423	-11.07955	2.337982	342.5622	0	11.11	20036	0	0	5	5	0.02	0.8609501	3	10	0.08	2800	347.5003	40.92393	-91.39364
245018	1247	538	-508	-10.97033	2.041417	342.6011	0	11.11	20036	0	0	5	5	0.02	0.8704155	3	10	0.08	2800	347.5003	40.92393	-91.39364
245185	599	-118	-154	-9.542718	0.6642395	342.5977	0	11.11	20036	0	0	5	5	0.02	0.8844262	3	10	0.08	2800	349.5079	40.92393	-91.39364
245253	1054	194	-19	-7.568624	1.482925	342.6726	0	11.11	20036	0	0	5	5	0.02	0.8947042	3	10	0.08	2800	349.1466	40.92393	-91.39364
245360	974	738	-23	-6.562333	0.9650017	342.528	0	11.11	20036	0	0	5	5	0.02	0.9099089	3	10	0.08	2800	349.3886	40.92393	-91.39364
245422	896	237	64	-6.232323	0.866726	342.5508	0	11.11	20036	0	0	5	5	0.02	0.930487	3	10	0.08	2800	348.5996	40.92393	-91.39364
245551	-353	1594	-1059	-1.716496	0.01635847	343.5406	0	11.11	20036	0	0	5	5	0.02	0.9503774	3	10	0.08	2800	350.4941	40.92393	-91.39364
245684	-546	-727	216	-2.036932	-0.4797062	344.17	0	11.11	20036	0	0	5	5	0.02	0.9739077	3	10	0.08	2800	353.4294	40.92393	-91.39364
245807	822	469	-1507	0.3055189	-0.5598692	345.7463	0	11.11	20036	0	0	5	5	0.02	0.9893016	3	10	0.08	2800	353.7833	40.92393	-91.39364
245847	278	54	-750	0.6097188	-0.7493285	346.0852	0	11.11	20036	0	0	5	5	0.02	0.9947342	3	10	0.08	2800	353.7833	40.92393	-91.39364
245998	-306	-2579	496	-1.810198	4.033654	346.6397	0	11.11	20036	0	0	5	5	0.02	1.011636	3	10	0.08	2800	350.6915	40.92393	-91.39364
246103	2243	1316	583	-1.94361	4.587348	346.0464	0	11.11	20036	0	0	5	5	0.02	1.02625	3	10	0.08	2800	350.3075	40.92393	-91.39364
246132	3609	1786	642	-0.5895204	3.656949	345.8824	0	11.11	20036	0	0	5	5	0.02	1.029149	3	10	0.08	2800	350.3075	40.92393	-91.39364
246222	-1798	-60	-371	1.888731	2.496815	345.8387	0	11.11	20036	0	0	5	5	0.02	1.035887	3	10	0.08	2800	349.8189	40.92393	-91.39364
246322	-2484	-639	-130	-1.642339	2.862872	345.7986	0	11.11	20036	0	0	5	5	0.02	1.062729	3	10	0.08	2800	347.9914	40.92393	-91.39364
246431	-388	-1141	683	-3.126568	2.284446	344.9037	0	11.17	20036	0	0	5	5	0.02	1.088183	3	10	0.08	2800	346.6637	40.92393	-91.39364
246520	2629	-544	594	0.1149534	4.396704	344.246	0	11.17	20036	0	0	5	5	0.02	1.110998	3	10	0.08	2800	347.6478	40.92393	-91.39364
246640	-1513	237	598	-1.290264	2.978956	343.4318	0	11.17	20036	0	0	5	5	0.02	1.137753	3	10	0.08	2800	343.0683	40.92393	-91.39364
246717	-498	-1321	374	-3.413472	3.936951	342.7868	0	11.17	20036	0	0	5	5	0.02	1.155517	3	10	0.08	2800	342.3661	40.92393	-91.39364
246835	705	-615	77	-2.998955	5.3743	342.2655	0	11.17	20036	0	0	5	5	0.02	1.181901	3	10	0.08	2800	340.476	40.92393	-91.39364
246918	-103	1870	-637	-1.511391	4.199333	341.8953	0	11.17	20036	0	0	5	5	0.02	1.213653	3	10	0.08	2800	341.1649	40.92393	-91.39364
246991	1441	2810	-62	-0.8713328	2.638547	342.0433	0	11.17	20036	0	0	5	5	0.02	1.219783	3	10	0.08	2800	339.2574	40.92393	-91.39364
247111	-2298	-132	-631	-3.407486	1.879851	343.4063	0	11.17	20036	0	0	5	5	0.02	1.233083	3	10	0.08	2800	342.0061	40.92394	-91.39363
247177	-2193	-805	-514	-5.338819	2.390828	344.2484	0	11.17	20036	0	0	5	5	0.02	1.241402	3	10	0.08	2800	343.929	40.92394	-91.39363
247309	1141	923	-492	-7.398346	2.688631	345.2713	0	11.06	20036	0	0	5	5	0.02	1.25285	3	10	0.08	2800	344.0128	40.92394	-91.39363
247391	89	939	-1192	-5.742158	0.8283173	346.2345	0	11.06	20036	0	0	5	5	0.02	1.258586	8	10	0.08	2800	348.0947	40.92394	-91.39363
247510	-1046	312	-1559	-5.712487	-0.3769583	347.9154	0	11.06	20047	7	-1	5	5	0.02	1.259869	8	10	0.08	2800	349.8725	40.92394	-91.39363
247639	1169	-700	-26	-3.986485	0.9882923	350.2043	0	11.06	20030	12	8	5	5	0.02	1.272346	8	10	0.08	2800	352.974	40.92394	-91.39363
247683	305	336	-546	-3.397574	1.607295	350.1822	0	11.06	20033	13	9	5	5	0.02	1.276116	8	10	0.08	2800	353.8908	40.92394	-91.39363
247737	441	-767	-864	-2.732962	1.701948	350.1566	0	11.06	20056	17	12	5	5	0.02	1.284496	8	10	0.08	2800	354.0747	40.92394	-91.39363
247837	36	1782	185	-2.001071	0.250001	349.2884	0	11.06	20020	18	4	5	5	0.02	1.294282	8	10	0.08	2800	352.8209	40.92394	-91.39363
247970	391	-821	898	-1.321012	0.4131437	348.3958	0	11.06	20010	20	13	5	5	0.02	1.329701	8	10	0.08	2800	350.4962	40.92394	-91.39363
248036	-1365	-231	966	-2.218408	0.5094858	347.4202	0	11.06	20075	24	8	5	5	0.02	1.349041	8	10	0.08	2800	350.7766	40.92394	-91.39363
248261	-1614	0	15	-2.187	0.3654366	345.3645	0	11.23	20005	28	15	5	5	0.02	1.438394	8	10	0.08	2800	347.6875	40.92394	-91.39362
248423	-1100	-768	692	-4.740178	1.643001	342.784	0	11.23	20071	38	18	5	5	0.02	1.502487	8	10	0.08	2800	346.9836	40.92394	-91.39362
248504	1157	580	488	-3.791193	1.117908	341.8954	0	11.23	20075	47	14	5	5	0.02	1.539146	8	10	0.08	2800	345.2411	40.92394	-91.39362
248552	984	78	-30	-3.175463	0.7040654	341.7521	0	11.23	20037	43	11	5	5	0.02	1.580979	8	10	0.08	2800	345.2411	40.92394	-91.39362
248642	286	-697	572	-2.903678	0.6629988	341.4575	0	11.23	20068	57	13	5	5	0.02	1.624478	8	10	0.08	2800	347.9679	40.92394	-91.39362
248813	2023	1016	175	-4.655728	3.120343	340.731	0	11.23	20030	61	21	5	5	0.02	1.751506	8	10	0.08	2800	345.7583	40.92395	-91.39362
248865	1539	1558	-372	-2.14326	1.50997	340.8003	0	11.23	20031	64	23	5	5	0.02	1.766351	8	10	0.08	2800	343.8826	40.92395	-91.39362
248959	-2165	-212	-391	-2.24325	1.181098	340.7866	0	11.23	20081	62	26	5	5	0.02	1.856481	8	10	0.08	2800	345.1194	40.92395	-91.39362
249111	-729	-13	-486	-5.272305	1.405167	341.3128	0	11.23	20029	64	32	5	5	0.02	1.918014	8	10	0.08	2800	344.9518	40.92395	-91.39362
249153	471	861	-241	-4.765755	0.9083611	341.5774	0	11.23	20031	64	28	5	5	0.02	1.948057	8	10	0.08	2800	344.8167	40.92395	-91.39362
249262	-1306	-494	70	-4.789683	1.134649	341.4888	0	11.23	20029	60	19	5	5	0.02	2.030467	8	10	0.08	2800	345.9301	40.92395	-91.39362
249365	592	-797	47	-4.689869	1.533017	341.4017	0	11.23	20012	70	22	5	5	0.02	2.101775	8	10	0.08	2800	345.0949	40.92395	-91.39362
249487	1412	543	10	-3.389679	4.065296	341.6252	0	11.23	20031	68	24	5	5	0.02	2.209182	8	10	0.08	2800	345.32	40.92395	-91.39362
249582	-2611	721	-744	-5.475352	2.739944	342.211	0	11.23	23989	57	20	5	5	0.02	2.269095	8	10	0.08	2800	344.7881	40.92395	-91.39362
249669	904	-852	-1263	-7.251548	3.27983	342.9971	0	11.23	20038	56	28	5	5	0.02	2.387492	8	10	0.08	2800	346.7448	40.92395	-91.39362
249763	1388	471	-769	-4.202989	3.255655	343.704	0	11.23	20032	59	39	5	5	0.02	2.445595	8	10	0.08	2800	346.4346	40.92395	-91.39362
249935	-1731	-3586	-632	-4.531757	8.652504	346.351	0	11.23	20020	72	33	5	5	0.02	2.54837	8	10	0.08	2800	349.1881	40.92395	-91.39362
250011	-2039	-1281	-454	-6.860009	11.17343	347.2188	0	11.23	20033	70	48	5	5	0.02	2.592988	8	10	0.08	2800	345.2914	40.92395	-91.39362
250066	-132	-467	-795	-7.489638	12.09104	348.0153	0	11.29	20032	71	47	5	5	0.02	2.632744	8	10	0.08	2800	345.7535	40.92395	-91.39362
250233	-3901	-980	-12	-10.26786	15.27001	348.4751	0	11.29	20066	83	46	5	5	0.02	2.709167	8	10	0.08	2800	345.0204	40.92395	-91.39362
250270	-3075	-522	167	-12.26351	15.32583	348.4432	0	11.29	20027	70	38	5	5	0.02	2.730151	8	10	0.08	2800	347.3567	40.92395	-91.39362
250436	2003	1704	-218	-9.117639	11.97492	349.4176	0	11.29	20034	65	40	5	5	0.02	2.803606	8	10	0.08	2800	347.589	40.92396	-91.39362
250564	-1718	-929	-404	-11.45683	11.81565	350.0203	0	11.29	20026	0	0	5	5	0.02	2.826268	3	10	0.08	2800	349.0208	40.92396	-91.39362
250620	-666	-472	39	-12.71735	12.44215	349.9134	0	11.29	20026	0	0	5	5	0.02	2.830398	3	10	0.08	2800	350.7068	40.92396	-91.39362
250702	2674	2103	803	-10.20413	10.86141	349.3311	0	11.29	20026	0	0	5	5	0.02	2.840089	3	10	0.08	2800	349.8089	40.92395	-91.39362
250758	1996	2057	881	-9.045496	9.414848	349.0301	0	11.29	20026	0	0	5	5	0.02	2.847692	3	10	0.08	2800	352.5374	40.92395	-91.39362
250850	-386	1388	-297	-8.376903	7.103797	348.4545	0	11.29	20026	0	0	5	5	0.02	2.847217	3	10	0.08	2800	351.9279	40.92395	-91.39362
251045	-374	1570	431	-8.149859	-5.202783	357.5781	0	11.23	20026	0	0	5	5	0.02	2.819847	3	10	0.08	2800	359.9148	40.92395	-91.39362
251078	-2	2120	-303	-7.924473	-6.130101	357.2327	0	11.23	20026	0	0	5	5	0.02	2.809129	3	10	0.08	2800	359.9148	40.92395	-91.39362
251156	-58	-1141	1272	-7.367137	-8.294014	356.1017	0	11.23	20026	0	0	5	5	0.02	2.79764	3	10	0.08	2800	2.395874	40.92395	-91.39362
251304	1224	-3271	234	-6.3333	0.5563823	354.9959	0	11.23	20026	0	0	5	5	0.02	2.745088	3	10	0.08	2800	356.112	40.92395	-91.39362
251398	3311	1804	602	-3.390492	1.300498	354.3394	0	11.23	20026	0	0	5	5	0.02	2.718754	3	10	0.08	2800	352.451	40.92395	-91.39362
251560	-5874	-2799	649	-7.75801	4.697804	353.0312	0	11.23	20026	0	0	5	5	0.02	2.635634	3	10	0.08	2800	348.5565	40.92395	-91.39362
251626	-1962	-1024	-202	-11.05623	6.47546	352.7797	0	11.23	20026	0	0	5	5	0.02	2.60183	3	10	0.08	2800	348.3788	40.92395	-91.39362
251730	-1751	1661	218	-12.94922	2.118311	351.7979	0	11.23	20026	0	0	5	5	0.02	2.555158	3	10	0.08	2800	350.1306	40.92395	-91.39362
