time(ms)	gyro_x(deg/s)	gyro_y(deg/s)	gyro_z(deg/s)	orientation_roll(deg)	orientation_pitch(deg)	orientation_yaw(deg)	throttle	battery(V)	loop_time(uS)	pid_output_roll	pid_output_pitch	pid_output_yaw	pid_output_throttle	ultrasonic_alt	baro_alt	flight_mode	p_gain_altitude	i_gain_altitude	d_gain_altitude	compass_heading	latitude	longitude
94953	-1035	700	687	-7.490764	-0.7786912	348.4614	0	11.46	20020	0	0	5	5	0.02	0.6794925	3	10	0.08	2800	349.6997	40.92395	-91.39363
95049	1615	-972	223	-6.21969	-0.2089323	348.8549	0	11.46	20020	0	0	5	5	0.02	0.704821	3	10	0.08	2800	350.8617	40.92395	-91.39363
95181	-79	90	439	-5.049825	0.4759174	348.558	0	11.46	20020	0	0	5	5	0.02	0.7348063	3	10	0.08	2800	352.1082	40.92395	-91.39363
95294	-3108	-2182	-274	-8.028008	3.44325	349.2218	0	11.46	20020	0	0	5	5	0.02	0.7606643	3	10	0.08	2800	351.1731	40.92395	-91.39363
95380	-940	-785	-118	-9.965929	5.267462	349.4904	0	11.63	20020	0	0	5	5	0.02	0.7679441	3	10	0.08	2800	349.0745	40.92395	-91.39363
95467	-106	-1601	-308	-10.34138	6.433589	349.6316	0	11.63	20020	0	0	5	5	0.02	0.7740229	3	10	0.08	2800	350.0532	40.92395	-91.39363
95585	138	1511	90	-7.7283	3.902143	349.2986	0	11.63	20020	0	0	5	5	0.02	0.783469	3	10	0.08	2800	351.0542	40.92395	-91.39363
95675	4909	1826	0	-3.049616	2.393975	349.1619	0	11.63	20020	0	0	5	5	0.02	0.7840799	3	10	0.08	2800	350.8492	40.92395	-91.39363
95784	-2682	439	-157	-1.485627	0.1374031	349.1196	0	11.63	20020	0	0	5	5	0.02	0.783273	3	10	0.08	2800	351.0313	40.92395	-91.39363
95861	-472	-220	-257	-2.837063	-0.06874742	349.4956	0	11.63	20020	0	0	5	5	0.02	0.7822986	3	10	0.08	2800	350.8747	40.92395	-91.39363
95956	151	-1404	-587	-3.12112	1.178347	349.4413	0	11.63	20020	0	0	5	5	0.02	0.7778058	3	10	0.08	2800	350.8747	40.92395	-91.39363
96067	-957	1443	-136	-1.711486	0.208644	349.7463	0	11.63	20020	0	0	5	5	0.02	0.7715916	3	10	0.08	2800	350.7326	40.92395	-91.39363
96165	-2263	-1154	-202	-5.364442	-0.09896841	349.9673	0	11.63	20056	1	0	5	5	0.02	0.7689967	8	10	0.08	2800	352.0449	40.92395	-91.39363
96276	915	-1905	-244	-5.462618	1.855034	350.2292	0	11.63	20038	-1	-9	5	5	0.02	0.7672511	8	10	0.08	2800	352.6807	40.92395	-91.39363
96385	1077	1234	48	-1.364716	0.08086548	350.1167	0	11.68	20018	-10	-5	5	5	0.02	0.7685007	8	10	0.08	2800	351.7677	40.92395	-91.39363
96494	835	400	-12	-0.327646	0.2942954	349.6754	0	11.68	20032	-14	-4	5	5	0.02	0.7689505	8	10	0.08	2800	353.0579	40.92395	-91.39363
96618	-184	-713	404	-0.4660456	-1.876703	347.84	0	11.68	20033	-11	-4	5	5	0.02	0.7797813	8	10	0.08	2800	349.963	40.92395	-91.39363
96688	341	-1852	569	-0.4427318	-0.5288872	347.6195	0	11.68	20030	-6	1	5	5	0.02	0.7843714	8	10	0.08	2800	347.9824	40.92395	-91.39363
96799	-543	556	36	0.4330701	0.9790713	347.2819	0	11.68	20030	-1	0	5	5	0.02	0.7927451	8	10	0.08	2800	345.0711	40.92395	-91.39363
96931	-47	293	468	0.1350217	-0.5683168	346.5059	0	11.68	20032	9	-3	5	5	0.02	0.8152545	8	10	0.08	2800	344.3113	40.92395	-91.39363
97042	465	-231	-285	-0.2779592	1.644285	346.752	0	11.68	20034	10	-3	5	5	0.02	0.8449581	8	10	0.08	2800	343.2865	40.92395	-91.39363
97069	-95	447	-456	-0.3108427	1.371025	346.8902	0	11.68	20036	12	-3	5	5	0.02	0.8504128	8	10	0.08	2800	343.9915	40.92395	-91.39363
97216	-2679	-692	-471	-2.604094	-0.1913656	346.5337	0	11.68	20026	20	6	5	5	0.02	0.8914735	8	10	0.08	2800	344.6396	40.92395	-91.39363
97275	-1755	-1411	103	-4.048565	1.393384	346.3287	0	11.34	20032	33	6	5	5	0.02	0.9081709	8	10	0.08	2800	344.4349	40.92395	-91.39363
97412	-757	-1216	-471	-4.383754	2.848439	347.5432	0	11.34	20037	35	10	5	5	0.02	0.9491118	8	10	0.08	2800	344.8581	40.92395	-91.39362
97499	-1159	-2244	-312	-5.36376	3.917091	347.8012	0	11.34	20031	38	13	5	5	0.02	0.9883175	8	10	0.08	2800	344.8581	40.92395	-91.39362
97615	348	-830	-892	-6.694701	7.808722	348.7495	0	11.34	20083	44	10	5	5	0.02	1.026541	8	10	0.08	2800	343.2248	40.92395	-91.39362
97736	-263	1019	383	-5.599706	5.817559	348.5983	0	11.34	20038	52	10	5	5	0.02	1.0856	8	10	0.08	2800	344.2797	40.92395	-91.39362
97830	274	134	-326	-8.232836	7.347325	348.3773	0	11.34	20031	54	10	5	5	0.02	1.113286	8	10	0.08	2800	343.218	40.92395	-91.39362
97953	831	892	-30	-6.591641	5.793264	348.2844	0	11.34	20022	61	9	5	5	0.02	1.178901	8	10	0.08	2800	344.2594	40.92395	-91.39362
98069	-4267	-877	372	-13.05987	5.129192	347.9494	0	11.34	20030	59	10	5	5	0.02	1.206792	8	10	0.08	2800	345.4932	40.92395	-91.39362
98094	-4267	-877	372	-13.05987	5.129192	347.9494	0	11.34	20030	59	10	5	5	0.02	1.234058	8	10	0.08	2800	345.4932	40.92395	-91.39362
98204	3633	1427	-164	-10.98452	5.786147	348.3518	0	12.19	20039	62	11	5	5	0.02	1.277391	8	10	0.08	2800	348.247	40.92395	-91.39362
98328	322	1376	-288	-7.577741	2.185134	348.4942	0	12.19	24036	59	14	5	5	0.02	1.31743	8	10	0.08	2800	347.5744	40.92395	-91.39362
98393	314	477	148	-8.103355	1.738454	348.6132	0	12.19	24037	71	18	5	5	0.02	1.340859	8	10	0.08	2800	348.5238	40.92395	-91.39362
98573	854	-1814	785	-5.494506	1.095501	348.2141	0	12.19	20033	48	17	5	5	0.02	1.377596	8	10	0.08	2800	350.7257	40.92396	-91.39362
98597	-771	-2885	-463	-5.456694	2.338524	348.105	0	12.19	20033	47	17	5	5	0.02	1.377596	8	10	0.08	2800	348.3874	40.92396	-91.39362
98699	879	1076	13	-5.914993	3.182337	347.5691	0	12.19	20052	43	18	5	5	0.02	1.403041	8	10	0.08	2800	345.3753	40.92396	-91.39362
98849	976	1280	-667	-2.445185	0.7458702	347.3126	0	12.19	20058	30	3	5	5	0.02	1.437232	8	10	0.08	2800	347.5551	40.92396	-91.39362
98900	-1679	697	245	-2.948162	-0.2668242	347.4718	0	12.19	20034	37	1	5	5	0.02	1.453356	8	10	0.08	2800	349.0048	40.92396	-91.39362
99024	-1012	237	560	-2.387863	-0.6085671	348.0587	0	12.19	20029	39	8	5	5	0.02	1.482378	8	10	0.08	2800	349.4872	40.92396	-91.39362
99099	-3970	-991	592	-5.398263	0.5211526	347.8289	0	11.57	20022	47	11	5	5	0.02	1.510117	8	10	0.08	2800	349.4872	40.92396	-91.39362
99284	2658	1006	236	-2.204276	2.277793	347.5622	0	11.57	20030	47	21	5	5	0.02	1.542491	8	10	0.08	2800	348.5324	40.92396	-91.39362
99353	-1548	-41	388	-1.520552	1.435515	346.9199	0	11.57	20030	41	25	5	5	0.02	1.550915	8	10	0.08	2800	346.678	40.92396	-91.39362
99454	-712	-1142	-551	-4.461278	2.944151	346.8727	0	11.57	20033	38	22	5	5	0.02	1.553828	8	10	0.08	2800	344.8481	40.92396	-91.39362
99498	1246	361	-654	-4.182244	3.155256	346.8729	0	11.57	20040	44	22	5	5	0.02	1.552465	8	10	0.08	2800	344.8481	40.92396	-91.39362
99675	-666	-643	249	-4.178021	0.542092	347.313	0	11.57	20022	45	24	5	5	0.02	1.539139	8	10	0.08	2800	345.7635	40.92396	-91.39362
99756	-1288	-110	-13	-4.777147	0.6960794	347.1845	0	11.57	20035	45	14	5	5	0.02	1.529827	8	10	0.08	2800	345.7635	40.92396	-91.39362
99801	-42	128	78	-5.041749	0.5107604	346.6379	0	11.57	20031	51	9	5	5	0.02	1.527525	8	10	0.08	2800	345.3719	40.92396	-91.39362
100012	-526	-512	135	-4.444109	0.6019336	344.9435	0	11.68	20032	53	14	5	5	0.02	1.49753	8	10	0.08	2800	343.6426	40.92396	-91.39361
100150	63	-673	764	-4.338637	1.292487	344.2191	0	11.68	20020	56	15	5	5	0.02	1.486386	8	10	0.08	2800	342.3536	40.92396	-91.39361
100214	2223	1386	-231	-2.96319	0.1163488	344.0803	0	11.68	20033	58	23	5	5	0.02	1.472747	8	10	0.08	2800	342.0811	40.92396	-91.39361
100338	-1400	-1676	535	-2.272702	-0.1068148	344.4583	0	11.68	20054	59	22	5	5	0.02	1.464955	8	10	0.08	2800	343.9626	40.92397	-91.39361
100483	170	417	59	-3.882231	1.986221	345.7682	0	11.68	20031	61	25	5	5	0.02	1.456002	8	10	0.08	2800	345.1982	40.92397	-91.39361
100529	-761	-578	-823	-3.95294	1.980829	346.0388	0	11.68	20040	60	25	5	5	0.02	1.455767	8	10	0.08	2800	345.1982	40.92397	-91.39361
100680	-762	1032	197	-4.573368	2.927702	347.1631	0	11.68	20004	70	24	5	5	0.02	1.465075	8	10	0.08	2800	346.7355	40.92397	-91.39361
100801	730	-571	-878	-4.905537	2.766597	347.837	0	11.68	20040	77	25	5	5	0.02	1.483122	8	10	0.08	2800	346.7967	40.92397	-91.39361
100849	-128	-372	-54	-4.55356	3.676801	348.2235	0	11.68	20038	69	27	5	5	0.02	1.486603	8	10	0.08	2800	348.6377	40.92397	-91.3936
100961	857	1198	4	-4.693033	3.474422	348.6104	0	11.34	20031	68	27	5	5	0.02	1.506519	8	10	0.08	2800	348.8011	40.92397	-91.3936
101065	-1775	-312	0	-4.201126	1.384278	348.2397	0	11.34	20028	65	30	5	5	0.02	1.518637	8	10	0.08	2800	349.943	40.92397	-91.3936
101154	-1863	-1160	-330	-6.857359	2.988791	348.3265	0	11.34	20012	63	31	5	5	0.02	1.541658	8	10	0.08	2800	347.9198	40.92397	-91.3936
101300	803	1923	-138	-4.788301	2.326189	348.0384	0	11.34	20015	65	19	5	5	0.02	1.57638	8	10	0.08	2800	347.5026	40.92397	-91.3936
101358	1227	2040	-471	-4.592774	1.407672	348.0526	0	11.34	20041	68	25	5	5	0.02	1.604333	8	10	0.08	2800	347.5026	40.92397	-91.3936
101467	1617	125	-189	-3.594873	0.3583532	348.2995	0	11.34	24014	68	25	5	5	0.02	1.618119	8	10	0.08	2800	350.0884	40.92397	-91.3936
101582	-64	-166	317	-2.1427	0.01888428	349.1754	0	11.34	20026	68	26	5	5	0.02	1.633704	8	10	0.08	2800	349.1645	40.92397	-91.3936
101672	-1719	-1615	-246	-3.828868	1.251106	349.6689	0	11.34	20017	69	28	5	5	0.02	1.648583	8	10	0.08	2800	349.1645	40.92397	-91.3936
101815	2293	1025	-363	-4.044446	4.046749	350.618	0	11.34	20031	69	35	5	5	0.02	1.667876	8	10	0.08	2800	351.2	40.92397	-91.3936
101939	-467	283	185	-4.280267	0.8453304	350.3615	0	11.34	20021	69	28	5	5	0.02	1.70271	8	10	0.08	2800	351.367	40.92397	-91.3936
101976	551	257	413	-4.697266	1.051427	350.2831	0	11.34	20032	69	28	5	5	0.02	1.708319	8	10	0.08	2800	351.367	40.92397	-91.3936
102104	-668	280	306	-5.509419	1.776005	350.4918	0	11.34	20079	78	38	5	5	0.02	1.736614	8	10	0.08	2800	352.755	40.92397	-91.3936
102194	-398	-549	-440	-6.078803	2.335588	350.755	0	11.34	20006	62	33	5	5	0.02	1.751027	8	10	0.08	2800	350.8278	40.92397	-91.3936
102348	-2209	-1374	298	-6.440878	2.595159	350.5871	0	11.34	20028	68	34	5	5	0.02	1.771029	8	10	0.08	2800	351.0117	40.92397	-91.39359
102402	71	-1145	493	-8.333253	4.592509	349.988	0	11.34	20032	68	33	5	5	0.02	1.775729	8	10	0.08	2800	350.4839	40.92397	-91.39359
102551	28	1055	349	-8.839608	4.275156	349.4261	0	11.34	20028	72	45	5	5	0.02	1.805353	8	10	0.08	2800	348.6542	40.92397	-91.39359
102639	4164	1704	202	-4.364915	1.993614	349.2487	0	11.34	20031	80	38	5	5	0.02	1.807554	8	10	0.08	2800	350.0451	40.92397	-91.39359
102686	-1862	1179	-38	-2.567157	0.7690765	348.6579	0	11.34	20023	81	39	5	5	0.02	1.808563	8	10	0.08	2800	349.5463	40.92397	-91.39359
102803	846	-639	-145	-5.440648	2.402328	348.119	0	11.46	20032	80	39	5	5	0.02	1.819705	8	10	0.08	2800	348.0608	40.92397	-91.39359
102885	68	-22	34	-4.873071	2.666477	348.0837	0	11.46	20031	71	31	5	5	0.02	1.838186	8	10	0.08	2800	348.5347	40.92397	-91.39359
103092	2000	724	368	-6.473301	4.819827	346.286	0	11.46	20024	63	33	5	5	0.02	1.882158	8	10	0.08	2800	347.332	40.92397	-91.39359
103199	2070	1917	-208	-3.296924	1.782216	345.7294	0	11.46	20036	60	35	5	5	0.02	1.898111	8	10	0.08	2800	344.7381	40.92397	-91.39359
103276	-785	-552	-585	-2.262839	0.9558579	346.607	0	11.46	20039	57	37	5	5	0.02	1.911102	8	10	0.08	2800	347.1506	40.92397	-91.39359
103439	-568	207	-721	-4.793217	3.094474	348.3882	0	11.46	20031	59	39	5	5	0.02	1.932389	8	10	0.08	2800	345.8904	40.92398	-91.39359
103479	-951	-87	-699	-5.019101	3.361976	348.7813	0	11.46	20075	58	41	5	5	0.02	1.937679	8	10	0.08	2800	345.8904	40.92398	-91.39359
103596	562	793	-254	-5.746354	3.197862	349.6353	0	11.46	20026	60	32	5	5	0.02	1.953208	8	10	0.08	2800	348.7773	40.92398	-91.39359
103706	571	-553	-202	-2.645314	1.059285	350.8944	0	11.46	20032	59	29	5	5	0.02	1.979046	8	10	0.08	2800	351.8473	40.92398	-91.39359
103837	180	-242	-807	-3.806416	2.965907	352.1145	0	11.34	20030	58	27	5	5	0.02	1.988469	8	10	0.08	2800	351.1406	40.92398	-91.39359
104052	199	186	354	-7.853491	4.01054	352.0968	0	11.34	20052	69	30	5	5	0.02	2.001729	8	10	0.08	2800	349.66	40.92398	-91.39359
104135	692	1819	-54	-7.416479	2.643951	351.6752	0	11.34	20032	60	39	5	5	0.02	2.006497	8	10	0.08	2800	351.4051	40.92398	-91.39359
104223	981	65	-354	-3.441168	1.699701	350.7153	0	11.34	20032	57	42	5	5	0.02	2.009894	8	10	0.08	2800	350.9448	40.92398	-91.39359
104301	228	-1514	1018	-2.324481	2.03991	350.2567	0	11.34	20030	55	46	5	5	0.02	2.012667	8	10	0.08	2800	349.2322	40.92398	-91.39359
104389	-1364	-1168	1060	-2.839619	2.667015	349.7878	0	11.34	20012	61	37	5	5	0.02	2.011398	8	10	0.08	2800	347.8858	40.92398	-91.39359
104513	-2379	-423	752	-4.430471	1.720151	347.9882	0	11.34	20030	53	38	5	5	0.02	2.015417	8	10	0.08	2800	346.4419	40.92398	-91.39359
104635	2561	430	784	-4.489658	3.432316	347.2544	0	11.34	20034	63	25	5	5	0.02	2.026398	8	10	0.08	2800	343.7778	40.92398	-91.39359
104746	-776	1614	371	-4.769786	1.501205	346.7078	0	11.4	20015	64	22	5	5	0.02	2.04546	8	10	0.08	2800	343.1641	40.92398	-91.39359
104820	-723	-2298	136	-7.015096	2.468356	346.8237	0	11.4	20055	62	28	5	5	0.02	2.057435	8	10	0.08	2800	344.3071	40.92398	-91.39359
104904	1471	-1820	-255	-7.54575	4.821895	346.8474	0	11.4	20032	60	20	5	5	0.02	2.067173	8	10	0.08	2800	340.877	40.92398	-91.39359
105020	2117	1988	-585	-5.870855	2.659116	346.5807	0	11.4	20031	59	14	5	5	0.02	2.072888	8	10	0.08	2800	339.4311	40.92398	-91.39359
105094	2519	1460	236	-2.570295	0.3850594	346.8399	0	11.4	20031	58	11	5	5	0.02	2.073337	8	10	0.08	2800	343.2646	40.92398	-91.39359
105227	-2693	-1085	-154	-6.006039	0.09598551	346.9143	0	11.4	20010	57	7	5	5	0.02	2.086103	8	10	0.08	2800	343.4261	40.92398	-91.39359
105334	1333	-238	27	-5.358019	2.470922	347.424	0	11.4	23987	59	28	5	5	0.02	2.097084	8	10	0.08	2800	342.8503	40.92398	-91.39359
105402	991	200	-803	-3.537977	2.067232	347.7075	0	11.4	20032	57	38	5	5	0.02	2.105757	8	10	0.08	2800	343.6534	40.92398	-91.39359
105510	-267	-655	-455	-2.956025	1.899462	348.8139	0	11.4	20028	42	38	5	5	0.02	2.124559	8	10	0.08	2800	343.9724	40.92398	-91.39359
105599	75	-1371	-1063	-3.245102	3.228553	349.3879	0	11.4	20050	40	41	5	5	0.02	2.135134	8	10	0.08	2800	345.8817	40.92398	-91.39359
105756	-758	19	-710	-2.983235	2.356159	351.0356	0	11.4	20034	56	18	5	5	0.02	2.165169	8	10	0.08	2800	345.2646	40.92397	-91.39359
105857	-362	1156	697	-3.248238	1.775209	351.2381	0	11.4	20031	60	11	5	5	0.02	2.181208	8	10	0.08	2800	347.0815	40.92397	-91.39359
105945	-973	276	586	-4.082871	1.121895	351.0689	0	11.4	20041	62	8	5	5	0.02	2.200101	8	10	0.08	2800	346.8442	40.92397	-91.39359
106046	-1885	-944	77	-7.898415	2.716752	350.8151	0	11.4	20034	76	20	5	5	0.02	2.208437	8	10	0.08	2800	346.1959	40.92397	-91.39359
106095	687	-879	-467	-8.376534	3.150367	350.8288	0	11.4	20034	0	0	5	5	0.02	2.220321	3	10	0.08	2800	347.0027	40.92397	-91.39359
106194	2629	2432	100	-4.706023	0.04511223	350.5352	0	11.4	20034	0	0	5	5	0.02	2.226058	3	10	0.08	2800	346.679	40.92397	-91.39359
106380	-4585	-366	-201	-12.07186	0.9077946	350.6348	0	11.4	20034	0	0	5	5	0.02	2.241056	3	10	0.08	2800	346.8093	40.92397	-91.39359
106424	-3173	-46	-988	-14.40083	1.240671	350.8996	0	11.4	20034	0	0	5	5	0.02	2.243	3	10	0.08	2800	345.5176	40.92397	-91.39359
106516	158	208	298	-14.65503	1.3357	351.2692	0	11.51	20034	0	0	5	5	0.02	2.243848	3	10	0.08	2800	350.0701	40.92397	-91.39359
106655	1355	1115	315	-17.22501	-1.08418	349.3445	0	11.51	20034	0	0	5	5	0.02	2.242119	3	10	0.08	2800	352.9748	40.92397	-91.39359
106765	-874	-2237	1035	-16.29023	-0.5643667	347.8071	0	11.51	20034	0	0	5	5	0.02	2.233078	3	10	0.08	2800	351.2101	40.92397	-91.39359
106834	-863	-1839	946	-16.47835	0.8611876	346.7177	0	11.51	20034	0	0	5	5	0.02	2.220353	3	10	0.08	2800	348.3467	40.92397	-91.39359
106912	-1631	-2426	2280	-18.15922	2.501184	344.6912	0	11.51	20034	0	0	5	5	0.02	2.213554	3	10	0.08	2800	347.128	40.92397	-91.39359
107094	2074	-3326	2731	-22.0175	15.17467	336.5348	0	11.51	20034	0	0	5	5	0.02	2.204887	3	10	0.08	2800	333.4151	40.92397	-91.39359
107125	2511	-2137	2958	-21.34874	16.04113	335.3394	0	11.51	20034	0	0	5	5	0.02	2.204887	3	10	0.08	2800	328.085	40.92397	-91.39359
107230	-1472	362	2485	-22.94452	13.84176	330.883	0	11.51	20034	0	0	5	5	0.02	2.205129	3	10	0.08	2800	323.967	40.92397	-91.39359
107369	553	2186	1159	-21.40495	9.739422	327.2348	0	11.51	20034	0	0	5	5	0.02	2.216684	3	10	0.08	2800	320.9193	40.92397	-91.3936
107443	2833	1085	1548	-18.60592	5.164523	324.7059	0	11.34	20034	0	0	5	5	0.02	2.226733	3	10	0.08	2800	321.9428	40.92397	-91.3936
107515	3344	490	862	-16.66094	4.665553	324.1729	0	11.34	20034	0	0	5	5	0.02	2.238278	3	10	0.08	2800	320.7809	40.92397	-91.3936
107638	-609	119	993	-7.705897	2.670043	322.5534	0	11.34	20034	0	0	5	5	0.02	2.269989	3	10	0.08	2800	321.3111	40.92397	-91.3936
107750	2204	-88	-110	-6.626696	3.898835	321.4509	0	11.34	20034	0	0	5	5	0.02	2.297539	3	10	0.08	2800	319.87	40.92397	-91.3936
107918	183	59	-458	-2.717727	4.760101	321.08	0	11.34	20034	0	0	5	5	0.02	2.314086	3	10	0.08	2800	317.4814	40.92397	-91.39362
107932	-728	124	-655	-3.291947	4.752674	321.2963	0	11.34	20034	0	0	5	5	0.02	2.314086	3	10	0.08	2800	317.4814	40.92397	-91.39362
108067	1169	2169	-1371	-3.691659	4.032856	322.5312	0	11.34	20034	0	0	5	5	0.02	2.300434	3	10	0.08	2800	315.5285	40.92397	-91.39362
108167	759	3292	-1705	-0.4701726	-0.51519	324.7583	0	11.34	20034	0	0	5	5	0.02	2.281438	3	10	0.08	2800	315.7162	40.92397	-91.39362
108306	-1388	-304	-3289	-2.03904	-1.979723	328.7978	0	11.34	20034	0	0	5	5	0.02	2.230822	3	10	0.08	2800	321.5231	40.92397	-91.39362
108366	-1719	1604	-1647	-1.549056	-1.99307	330.2521	0	11.46	20034	0	0	5	5	0.02	2.221715	3	10	0.08	2800	325.4161	40.92397	-91.39362
108447	-1644	953	-2254	-2.387909	-4.03075	333.06	0	11.46	20034	0	0	5	5	0.02	2.175015	3	10	0.08	2800	328.3755	40.92397	-91.39362
108531	1384	1518	-1694	-0.6755053	-4.642096	336.8154	0	11.46	20034	0	0	5	5	0.02	2.131597	3	10	0.08	2800	335.1316	40.92397	-91.39362
108662	-783	-1318	-641	-1.234404	-5.112007	338.7077	0	11.46	20034	0	0	5	5	0.02	2.066883	3	10	0.08	2800	338.1045	40.92396	-91.39363
108765	-1193	-798	329	-4.42713	-2.192821	340.3506	0	11.46	20034	0	0	5	5	0.02	1.97148	3	10	0.08	2800	341.9731	40.92396	-91.39363
108843	1034	1639	-309	-4.779459	-2.53811	340.7399	0	11.46	20034	0	0	5	5	0.02	1.918122	3	10	0.08	2800	340.9926	40.92396	-91.39363
109039	-3724	-2669	-240	-3.170599	-0.9123553	340.6015	0	11.46	20034	0	0	5	5	0.02	1.787968	3	10	0.08	2800	342.7915	40.92396	-91.39364
109072	-796	-2544	477	-4.113013	0.3206244	340.5023	0	11.46	20034	0	0	5	5	0.02	1.753571	3	10	0.08	2800	340.0104	40.92396	-91.39364
109187	3381	-1787	1188	-3.517314	2.549767	338.8942	0	11.46	20034	0	0	5	5	0.02	1.692008	3	10	0.08	2800	339.5625	40.92396	-91.39364
109246	331	-2395	615	-2.816024	3.528265	338.4879	0	11.46	20034	0	0	5	5	0.02	1.63777	3	10	0.08	2800	337.9856	40.92396	-91.39364
109455	-558	1495	109	-1.573755	6.200358	336.9964	0	11.23	20034	0	0	5	5	0.02	1.551188	3	10	0.08	2800	331.7625	40.92396	-91.39365
109532	-1007	1081	706	-2.436633	4.602643	336.6255	0	11.23	20034	0	0	5	5	0.02	1.498484	3	10	0.08	2800	332.5849	40.92396	-91.39365
109569	-1188	-221	-891	-3.071312	4.425378	336.7098	0	11.23	20034	0	0	5	5	0.02	1.491374	3	10	0.08	2800	331.6787	40.92396	-91.39365
109725	830	1447	-1352	-1.366022	0.9166719	338.5335	0	11.23	20034	0	0	5	5	0.02	1.449874	3	10	0.08	2800	332.7136	40.92396	-91.39365
109758	2831	530	-552	-0.3738974	0.4238063	338.985	0	11.23	20034	0	0	5	5	0.02	1.446512	3	10	0.08	2800	333.7602	40.92396	-91.39365
109825	-2283	-2651	-923	-0.7553763	2.439965	340.3553	0	11.23	20034	0	0	5	5	0.02	1.439686	3	10	0.08	2800	334.6386	40.92396	-91.39365
109935	-3742	-3190	354	-6.44898	7.449896	340.8727	0	11.23	20034	0	0	5	5	0.02	1.424935	3	10	0.08	2800	334.3719	40.92396	-91.39365
110059	1198	409	688	-9.664021	10.67724	340.3119	0	11.23	20034	0	0	5	5	0.02	1.409419	3	10	0.08	2800	331.0142	40.92397	-91.39365
110248	-13	285	-640	-9.293979	8.154263	329.0569	0	11.68	20034	0	0	5	5	0.02	1.393953	3	10	0.08	2800	328.9104	40.92397	-91.39365
110399	2485	4037	-258	-6.217297	4.465398	328.7477	0	11.68	20034	0	0	5	5	0.02	1.375502	3	10	0.08	2800	327.396	40.92397	-91.39365
110459	2359	392	-8	0.2990633	-0.7145566	328.7562	0	11.68	20034	0	0	5	5	0.02	1.361308	3	10	0.08	2800	329.104	40.92397	-91.39365
110539	-2181	459	788	-0.4773487	-0.5929188	328.2898	0	11.68	20034	0	0	5	5	0.02	1.336547	3	10	0.08	2800	329.7277	40.92397	-91.39365
110649	3890	89	89	-0.381662	-0.8277158	328.8155	0	11.68	20034	0	0	5	5	0.02	1.284917	3	10	0.08	2800	328.0081	40.92397	-91.39365
110757	-4750	-1788	818	-1.798996	1.59419	327.8503	0	11.68	20034	0	0	5	5	0.02	1.214029	3	10	0.08	2800	328.2176	40.92397	-91.39365
110840	-1268	-2111	-95	-5.056584	3.443356	327.3282	0	11.68	20034	0	0	5	5	0.02	1.190465	3	10	0.08	2800	324.0963	40.92397	-91.39365
110939	2430	3094	609	-0.04113228	0.7288171	325.6896	0	11.68	20034	0	0	5	5	0.02	1.124833	3	10	0.08	2800	323.1241	40.92397	-91.39365
111093	786	1348	240	2.071705	-1.518656	324.8981	0	11.4	20034	0	0	5	5	0.02	1.011944	3	10	0.08	2800	323.0848	40.92397	-91.39365
111139	-2752	-1533	-444	-0.653207	-1.151505	324.3502	0	11.4	20034	0	0	5	5	0.02	0.9945742	3	10	0.08	2800	321.3111	40.92397	-91.39365
111354	-4753	913	1495	-8.656035	-1.291469	321.8111	0	11.4	20034	0	0	5	5	0.02	0.8296719	3	10	0.08	2800	318.0364	40.92397	-91.39365
111519	294	-1216	859	-20.05242	-4.393731	317.4253	0	11.4	20034	0	0	5	5	0.02	0.7283083	3	10	0.08	2800	318.5691	40.92397	-91.39365
111653	8664	-5190	753	-4.246609	6.486914	315.8035	0	11.4	20034	0	0	5	5	0.02	0.6336097	3	10	0.08	2800	316.4266	40.92397	-91.39365
111760	8159	889	-633	5.299581	10.76136	315.4567	0	11.4	20034	0	0	5	5	0.02	0.567319	3	10	0.08	2800	312.2587	40.92397	-91.39365
111895	1684	-2924	-359	-9.110982	-9.618977	324.503	0	11.4	20034	0	0	5	5	0.02	0.4488958	3	10	0.08	2800	329.1707	40.92397	-91.39365
111981	1488	-3270	-277	-7.360171	-0.3157801	325.4454	0	11.51	20034	0	0	5	5	0.02	0.3861588	3	10	0.08	2800	324.2921	40.92397	-91.39365
112158	63	-81	-2	-7.02697	-0.2715491	325.4811	0	11.51	20034	0	0	5	5	0.02	0.2427982	3	10	0.08	2800	325.7356	40.92397	-91.39365
112204	-145	68	30	-6.983522	-0.2796768	325.4731	0	11.51	20034	0	0	5	5	0.02	0.1705115	3	10	0.08	2800	325.8003	40.92397	-91.39365
112265	-26	21	-39	-6.908991	-0.328103	325.4778	0	11.51	20034	0	0	5	5	0.02	0.1206384	3	10	0.08	2800	324.7091	40.92397	-91.39365
112389	-23	2	44	-6.800798	-0.3670639	325.4841	0	11.51	20034	0	0	5	5	0.02	0.06567751	3	10	0.08	2800	325.6887	40.92397	-91.39365
112469	-100	-4	-20	-6.693857	-0.4056977	325.481	0	11.51	20034	0	0	5	5	0.02	0.02447465	3	10	0.08	2800	324.3099	40.92397	-91.39365
112611	-2	-24	23	-6.497841	-0.4618482	325.4789	0	11.51	20034	0	0	5	5	0.02	-0.02382867	3	10	0.08	2800	324.778	40.92397	-91.39365
112691	-39	-12	-9	-6.42884	-0.4925164	325.4836	0	11.51	20034	0	0	5	5	0.02	-0.04439608	3	10	0.08	2800	324.5206	40.92397	-91.39365
112849	-46	-2	-10	-6.299265	-0.5324796	325.48	0	11.51	20034	0	0	5	5	0.02	-0.09907522	3	10	0.08	2800	324.9171	40.92397	-91.39365
112974	-44	1	3	-6.186446	-0.5780476	325.4811	0	11.51	20034	0	0	5	5	0.02	-0.1233699	3	10	0.08	2800	326.1507	40.92397	-91.39365
113000	-44	1	3	-6.186446	-0.5780476	325.4811	0	11.51	20034	0	0	5	5	0.02	-0.1250725	3	10	0.08	2800	326.1507	40.92397	-91.39365
113161	-52	0	14	-6.023855	-0.6370677	325.4798	0	11.51	20034	0	0	5	5	0.02	-0.1329265	3	10	0.08	2800	325.3848	40.92397	-91.39365
113200	-28	-4	6	-5.996218	-0.6475395	325.4786	0	11.51	20034	0	0	5	5	0.02	-0.1319916	3	10	0.08	2800	326.3139	40.92397	-91.39365
113319	-37	0	2	-5.895138	-0.6887959	325.4766	0	11.51	20034	0	0	5	5	0.02	-0.1374659	3	10	0.08	2800	327.0916	40.92397	-91.39365
113371	-43	0	-2	-5.8494	-0.7058223	325.4756	0	11.51	20034	0	0	5	5	0.02	-0.1421779	3	10	0.08	2800	327.1762	40.92397	-91.39365
113551	-46	0	-1	-5.743886	-0.749411	325.4734	0	11.51	20034	0	0	5	5	0.02	-0.1696424	3	10	0.08	2800	327.0899	40.92397	-91.39365
113629	-39	-6	4	-5.704219	-0.7672328	325.4708	0	11.51	20034	0	0	5	5	0.02	-0.17745	3	10	0.08	2800	326.9208	40.92397	-91.39365
113698	-43	-1	0	-5.64339	-0.7922548	325.4698	0	11.51	20034	0	0	5	5	0.02	-0.1807786	3	10	0.08	2800	326.9293	40.92397	-91.39365
113777	-32	-1	2	-5.605838	-0.806321	325.4686	0	11.51	20034	0	0	5	5	0.02	-0.1877984	3	10	0.08	2800	327.3084	40.92397	-91.39365
113935	-36	0	2	-5.521401	-0.8429054	325.4644	0	11.57	20034	0	0	5	5	0.02	-0.1733648	3	10	0.08	2800	327.5158	40.92397	-91.39365
114123	-35	-1	0	-5.432766	-0.8861517	325.463	0	11.57	20034	0	0	5	5	0.02	-0.1533901	3	10	0.08	2800	327.5844	40.92397	-91.39365
114192	-38	0	5	-5.403632	-0.8975719	325.4606	0	11.57	20034	0	0	5	5	0.02	-0.136719	3	10	0.08	2800	327.5844	40.92397	-91.39365
114277	-37	1	-2	-5.37208	-0.9088179	325.459	0	11.57	20034	0	0	5	5	0.02	-0.1320785	3	10	0.08	2800	327.7429	40.92397	-91.39365
114417	-40	-1	3	-5.31878	-0.9325184	325.455	0	11.57	20034	0	0	5	5	0.02	-0.1308126	3	10	0.08	2800	328.1586	40.92397	-91.39365
114494	-38	-1	3	-5.292875	-0.940817	325.4529	0	11.57	20034	0	0	5	5	0.02	-0.1309048	3	10	0.08	2800	327.8154	40.92397	-91.39365
114638	-38	-3	4	-5.229781	-0.9651636	325.4484	0	11.57	20034	0	0	5	5	0.02	-0.1352495	3	10	0.08	2800	327.6449	40.92397	-91.39365
114740	-39	-1	1	-5.205318	-0.9749662	325.447	0	11.57	20034	0	0	5	5	0.02	-0.1341393	3	10	0.08	2800	328.0561	40.92397	-91.39365
114861	-36	1	4	-5.151819	-0.9924372	325.4427	0	11.57	20034	0	0	5	5	0.02	-0.1317379	3	10	0.08	2800	327.9927	40.92397	-91.39365
114928	-39	0	1	-5.133286	-0.9999107	325.4418	0	11.57	20034	0	0	5	5	0.02	-0.1279567	3	10	0.08	2800	327.9453	40.92397	-91.39365
114982	-42	-7	1	-5.122406	-1.003259	325.4413	0	11.57	20034	0	0	5	5	0.02	-0.1208307	3	10	0.08	2800	327.9453	40.92397	-91.39365
115110	-35	-5	0	-5.080139	-1.015278	325.4404	0	11.57	20034	0	0	5	5	0.02	-0.1086641	3	10	0.08	2800	328.0356	40.92397	-91.39365
115207	-35	0	0	-5.053811	-1.025277	325.4396	0	11.57	20034	0	0	5	5	0.02	-0.0970463	3	10	0.08	2800	327.8312	40.92397	-91.39365
115298	-31	0	4	-5.026473	-1.034599	325.438	0	11.57	20034	0	0	5	5	0.02	-0.09351065	3	10	0.08	2800	328.0012	40.92397	-91.39365
115491	-38	2	-2	-4.978342	-1.05129	325.4335	0	11.57	20034	0	0	5	5	0.02	-0.09148279	3	10	0.08	2800	328.3685	40.92397	-91.39365
115510	-38	2	-2	-4.978342	-1.05129	325.4335	0	11.57	20034	0	0	5	5	0.02	-0.09184684	3	10	0.08	2800	328.3685	40.92397	-91.39365
115618	-36	4	2	-4.957566	-1.060722	325.4324	0	11.57	20034	0	0	5	5	0.02	-0.08924506	3	10	0.08	2800	327.9337	40.92397	-91.39365
115776	-37	2	-2	-4.927615	-1.076506	325.428	0	11.63	20034	0	0	5	5	0.02	-0.07982702	3	10	0.08	2800	328.4728	40.92397	-91.39365
115865	-33	2	1	-4.914443	-1.081616	325.4277	0	11.63	20034	0	0	5	5	0.02	-0.08564928	3	10	0.08	2800	327.9859	40.92397	-91.39365
115928	-38	-2	4	-4.908576	-1.082691	325.4258	0	11.63	20034	0	0	5	5	0.02	-0.0913367	3	10	0.08	2800	327.9859	40.92397	-91.39365
116039	-38	2	6	-4.886612	-1.093939	325.4212	0	11.63	20034	0	0	5	5	0.02	-0.1024391	3	10	0.08	2800	328.3541	40.92397	-91.39365
116199	-35	0	7	-4.853213	-1.105095	325.4178	0	11.63	20034	0	0	5	5	0.02	-0.1177139	3	10	0.08	2800	328.7643	40.92397	-91.39365
116237	-38	5	0	-4.847039	-1.110617	325.4162	0	11.63	20034	0	0	5	5	0.02	-0.1177226	3	10	0.08	2800	327.7825	40.92397	-91.39365
116475	-39	4	5	-4.817428	-1.126088	325.4131	0	11.63	20034	0	0	5	5	0.02	-0.1237891	3	10	0.08	2800	328.032	40.92397	-91.39365
116615	-34	-2	-2	-4.794553	-1.132335	325.4098	0	11.63	20034	0	0	5	5	0.02	-0.1200334	3	10	0.08	2800	328.613	40.92397	-91.39365
116690	-33	-1	0	-4.78875	-1.133122	325.4093	0	11.63	20034	0	0	5	5	0.02	-0.1158098	3	10	0.08	2800	328.4959	40.92397	-91.39365
116794	-36	1	0	-4.773877	-1.137869	325.4078	0	11.63	20034	0	0	5	5	0.02	-0.1133242	3	10	0.08	2800	328.2986	40.92397	-91.39365
116860	-38	0	-3	-4.766016	-1.139456	325.4075	0	11.63	20034	0	0	5	5	0.02	-0.1075608	3	10	0.08	2800	328.5604	40.92397	-91.39365
116947	-30	-3	-1	-4.755617	-1.143844	325.4041	0	11.63	20034	0	0	5	5	0.02	-0.09220622	3	10	0.08	2800	327.8272	40.92397	-91.39365
117007	-37	2	1	-4.751616	-1.146852	325.4036	0	11.63	20034	0	0	5	5	0.02	-0.08405555	3	10	0.08	2800	328.5465	40.92397	-91.39365
117101	-34	-1	0	-4.740743	-1.148608	325.4006	0	11.63	20034	0	0	5	5	0.02	-0.0795189	3	10	0.08	2800	328.593	40.92397	-91.39365
117181	-34	0	2	-4.732449	-1.150584	325.3995	0	11.63	20034	0	0	5	5	0.02	-0.06637802	3	10	0.08	2800	328.4424	40.92397	-91.39365
117293	-38	2	0	-4.728705	-1.154444	325.3983	0	11.63	20034	0	0	5	5	0.02	-0.06365836	3	10	0.08	2800	328.5784	40.92397	-91.39365
117534	-37	0	0	-4.707638	-1.162696	325.3964	0	11.63	20034	0	0	5	5	0.02	-0.0730617	3	10	0.08	2800	328.4854	40.92397	-91.39365
117672	-35	-2	5	-4.701704	-1.164943	325.395	0	11.63	20034	0	0	5	5	0.02	-0.07483418	3	10	0.08	2800	328.6165	40.92397	-91.39365
117716	-37	-8	6	-4.699332	-1.167178	325.3928	0	11.63	20034	0	0	5	5	0.02	-0.0747528	3	10	0.08	2800	328.5827	40.92397	-91.39365
117797	-36	3	1	-4.69515	-1.16706	325.3922	0	11.63	20034	0	0	5	5	0.02	-0.07492511	3	10	0.08	2800	328.4939	40.92397	-91.39365
117891	-35	4	0	-4.687345	-1.16784	325.3912	0	11.63	20034	0	0	5	5	0.02	-0.07533009	3	10	0.08	2800	328.301	40.92397	-91.39365
118052	-37	-3	3	-4.67983	-1.168686	325.3879	0	11.63	20034	0	0	5	5	0.02	-0.0795477	3	10	0.08	2800	328.5169	40.92397	-91.39365
118132	-33	3	2	-4.676869	-1.171321	325.3863	0	11.63	20034	0	0	5	5	0.02	-0.07787239	3	10	0.08	2800	328.7314	40.92397	-91.39365
118201	-35	-2	2	-4.672761	-1.173071	325.3853	0	11.63	20034	0	0	5	5	0.02	-0.07155876	3	10	0.08	2800	328.9574	40.92397	-91.39365
118285	-36	0	0	-4.663461	-1.172224	325.3859	0	11.63	20034	0	0	5	5	0.02	-0.06542676	3	10	0.08	2800	328.5417	40.92397	-91.39365
118394	-38	2	-2	-4.656104	-1.172571	325.3855	0	11.68	20034	0	0	5	5	0.02	-0.05628902	3	10	0.08	2800	328.893	40.92397	-91.39365
118517	-31	0	3	-4.656172	-1.177161	325.3829	0	11.68	20034	0	0	5	5	0.02	-0.04899015	3	10	0.08	2800	328.5527	40.92397	-91.39365
118629	-36	0	0	-4.652924	-1.178643	325.3817	0	11.68	20034	0	0	5	5	0.02	-0.04491267	3	10	0.08	2800	328.1398	40.92397	-91.39365
118782	-31	0	1	-4.646996	-1.177696	325.3794	0	11.68	20034	0	0	5	5	0.02	-0.04121319	3	10	0.08	2800	328.2391	40.92397	-91.39365
118894	-34	-5	0	-4.641538	-1.182017	325.3763	0	11.68	20034	0	0	5	5	0.02	-0.0417937	3	10	0.08	2800	328.6636	40.92397	-91.39365
118988	-30	5	1	-4.63552	-1.182629	325.3776	0	11.68	20034	0	0	5	5	0.02	-0.04079497	3	10	0.08	2800	328.8405	40.92397	-91.39365
119095	-33	0	0	-4.633974	-1.183301	325.3742	0	11.68	20034	0	0	5	5	0.02	-0.03592641	3	10	0.08	2800	328.8016	40.92397	-91.39365
119193	-36	0	1	-4.631205	-1.184333	325.3724	0	11.68	20034	0	0	5	5	0.02	-0.02920381	3	10	0.08	2800	328.7643	40.92397	-91.39365
119335	-38	0	3	-4.631071	-1.186573	325.3694	0	11.68	20034	0	0	5	5	0.02	-0.02477572	3	10	0.08	2800	328.474	40.92397	-91.39365
119426	-33	5	0	-4.631219	-1.189888	325.3676	0	11.68	20034	0	0	5	5	0.02	-0.02254779	3	10	0.08	2800	328.7602	40.92397	-91.39365
119512	-37	-2	0	-4.629693	-1.189537	325.3649	0	11.68	20034	0	0	5	5	0.02	-0.02003269	3	10	0.08	2800	328.8048	40.92397	-91.39365
119658	-34	0	6	-4.625219	-1.191187	325.3649	0	11.68	20034	0	0	5	5	0.02	-0.0136879	3	10	0.08	2800	328.5153	40.92397	-91.39365
119739	-39	-1	0	-4.622897	-1.189789	325.3622	0	11.68	20034	0	0	5	5	0.02	-0.007927433	3	10	0.08	2800	328.479	40.92397	-91.39365
119879	-30	0	-1	-4.618429	-1.18773	325.3629	0	11.68	20034	0	0	5	5	0.02	-0.001586187	3	10	0.08	2800	328.8281	40.92397	-91.39365
119993	-30	-5	0	-4.616314	-1.185993	325.3632	0	11.68	20034	0	0	5	5	0.02	0.0005883575	3	10	0.08	2800	329.088	40.92397	-91.39365
120025	-37	-1	-2	-4.616395	-1.186675	325.3635	0	11.68	20034	0	0	5	5	0.02	-0.0001205027	3	10	0.08	2800	329.088	40.92397	-91.39365
120128	-35	-2	2	-4.615355	-1.189149	325.3623	0	11.68	20034	0	0	5	5	0.02	-0.001849413	3	10	0.08	2800	328.7023	40.92397	-91.39365
120218	-33	0	0	-4.613581	-1.186151	325.3608	0	11.68	20034	0	0	5	5	0.02	-0.00991062	3	10	0.08	2800	328.6714	40.92397	-91.39365
120312	-35	1	0	-4.610169	-1.186796	325.3596	0	11.68	20034	0	0	5	5	0.02	-0.01619616	3	10	0.08	2800	328.802	40.92397	-91.39365
120418	-36	3	4	-4.608118	-1.185778	325.3578	0	11.68	20034	0	0	5	5	0.02	-0.02686509	3	10	0.08	2800	328.5992	40.92397	-91.39365
120557	-29	0	0	-4.60483	-1.183595	325.3542	0	11.68	20034	0	0	5	5	0.02	-0.04569139	3	10	0.08	2800	328.5208	40.92397	-91.39365
120731	-31	3	-2	-4.603057	-1.189287	325.3516	0	11.68	20034	0	0	5	5	0.02	-0.05102512	3	10	0.08	2800	328.8972	40.92397	-91.39365
120815	-34	-5	4	-4.603473	-1.191019	325.3497	0	11.68	20034	0	0	5	5	0.02	-0.04598038	3	10	0.08	2800	328.6012	40.92397	-91.39365
120867	-35	0	0	-4.605891	-1.191374	325.3464	0	11.68	20034	0	0	5	5	0.02	-0.03766837	3	10	0.08	2800	328.8005	40.92397	-91.39365
120974	-32	-1	0	-4.606364	-1.191521	325.3439	0	11.68	20034	0	0	5	5	0.02	-0.02413421	3	10	0.08	2800	328.6338	40.92397	-91.39365
121037	-31	-4	2	-4.604264	-1.193221	325.3438	0	11.68	20034	0	0	5	5	0.02	-0.0144675	3	10	0.08	2800	328.8465	40.92397	-91.39365
121181	-36	8	0	-4.603927	-1.192503	325.3401	0	11.68	20034	0	0	5	5	0.02	-0.01350887	3	10	0.08	2800	328.7251	40.92397	-91.39365
121277	-36	-3	8	-4.602701	-1.19062	325.3371	0	11.68	20034	0	0	5	5	0.02	-0.03029753	3	10	0.08	2800	328.7586	40.92397	-91.39365
121352	-34	2	3	-4.603128	-1.193568	325.3364	0	11.68	20034	0	0	5	5	0.02	-0.04741395	3	10	0.08	2800	328.8516	40.92397	-91.39365
121471	-37	3	0	-4.604212	-1.196888	325.3354	0	11.68	20034	0	0	5	5	0.02	-0.06327248	3	10	0.08	2800	329.1012	40.92397	-91.39365
121563	-35	0	0	-4.604497	-1.194966	325.3333	0	11.68	20034	0	0	5	5	0.02	-0.08187146	3	10	0.08	2800	328.845	40.92397	-91.39365
121628	-36	5	2	-4.607248	-1.196907	325.3314	0	11.68	20034	0	0	5	5	0.02	-0.09191041	3	10	0.08	2800	328.5027	40.92397	-91.39365
121796	-30	-6	0	-4.60492	-1.196617	325.3298	0	11.68	20034	0	0	5	5	0.02	-0.1095263	3	10	0.08	2800	329.1406	40.92397	-91.39365
121863	-30	4	4	-4.603539	-1.194781	325.3287	0	11.68	20034	0	0	5	5	0.02	-0.1117549	3	10	0.08	2800	328.6721	40.92397	-91.39365
121929	-32	1	-2	-4.603806	-1.196431	325.3286	0	11.68	20034	0	0	5	5	0.02	-0.1147357	3	10	0.08	2800	329.015	40.92397	-91.39365
122049	-32	1	0	-4.602601	-1.199771	325.3275	0	11.68	20034	0	0	5	5	0.02	-0.1247116	3	10	0.08	2800	328.7141	40.92397	-91.39365
122129	-36	3	0	-4.604048	-1.199818	325.3265	0	11.68	20034	0	0	5	5	0.02	-0.1300724	3	10	0.08	2800	328.8822	40.92397	-91.39365
122264	-33	-2	1	-4.600832	-1.1977	325.3239	0	11.68	20034	0	0	5	5	0.02	-0.1340156	3	10	0.08	2800	328.7617	40.92397	-91.39365
122368	-29	-1	2	-4.598474	-1.197502	325.3225	0	11.68	20034	0	0	5	5	0.02	-0.1305069	3	10	0.08	2800	328.9398	40.92397	-91.39365
122493	-34	1	3	-4.594291	-1.190876	325.3207	0	11.68	20034	0	0	5	5	0.02	-0.1246837	3	10	0.08	2800	328.8299	40.92397	-91.39365
122531	-35	1	0	-4.593538	-1.190711	325.3206	0	11.68	20034	0	0	5	5	0.02	-0.1207176	3	10	0.08	2800	328.8299	40.92397	-91.39365
122631	-34	0	-1	-4.591428	-1.194405	325.3191	0	11.68	20034	0	0	5	5	0.02	-0.1090339	3	10	0.08	2800	328.656	40.92397	-91.39365
122735	-31	5	2	-4.591435	-1.196591	325.3196	0	11.68	20034	0	0	5	5	0.02	-0.1034875	3	10	0.08	2800	328.8261	40.92397	-91.39365
122838	-29	2	-1	-4.587598	-1.19729	325.3203	0	11.68	20034	0	0	5	5	0.02	-0.1035391	3	10	0.08	2800	328.7914	40.92397	-91.39365
122936	-29	2	2	-4.583469	-1.199212	325.3189	0	11.68	20034	0	0	5	5	0.02	-0.1048221	3	10	0.08	2800	328.9192	40.92397	-91.39365
123048	-31	7	7	-4.583197	-1.199182	325.3182	0	11.68	20034	0	0	5	5	0.02	-0.1056238	3	10	0.08	2800	328.6584	40.92397	-91.39365
123134	-37	0	4	-4.581018	-1.197745	325.318	0	11.68	20034	0	0	5	5	0.02	-0.1092329	3	10	0.08	2800	328.7573	40.92397	-91.39365
123226	-25	4	0	-4.578265	-1.197198	325.3145	0	11.68	20034	0	0	5	5	0.02	-0.1087334	3	10	0.08	2800	328.8489	40.92397	-91.39365
123325	-33	1	0	-4.575399	-1.197259	325.3141	0	11.68	20034	0	0	5	5	0.02	-0.1084057	3	10	0.08	2800	328.646	40.92397	-91.39365
123465	-35	5	1	-4.578691	-1.200134	325.3121	0	11.68	20034	0	0	5	5	0.02	-0.1130061	3	10	0.08	2800	328.5469	40.92397	-91.39365
123538	-33	1	5	-4.579184	-1.200632	325.3119	0	11.68	20034	0	0	5	5	0.02	-0.1200633	3	10	0.08	2800	328.7597	40.92397	-91.39365
123630	-32	5	-1	-4.576541	-1.200386	325.312	0	11.68	20034	0	0	5	5	0.02	-0.1319414	3	10	0.08	2800	328.8434	40.92397	-91.39365
123751	-31	-1	0	-4.572053	-1.200641	325.31	0	11.68	20034	0	0	5	5	0.02	-0.1599523	3	10	0.08	2800	328.9412	40.92397	-91.39365
123839	-34	5	0	-4.571218	-1.201648	325.308	0	11.68	20034	0	0	5	5	0.02	-0.1647687	3	10	0.08	2800	328.77	40.92397	-91.39365
123997	-35	-3	2	-4.570585	-1.19987	325.3068	0	11.68	20034	0	0	5	5	0.02	-0.164354	3	10	0.08	2800	328.5227	40.92397	-91.39365
124177	-35	3	-6	-4.569035	-1.196862	325.3044	0	11.68	20034	0	0	5	5	0.02	-0.1513515	3	10	0.08	2800	328.7328	40.92397	-91.39365
124295	-27	1	-4	-4.566383	-1.194454	325.3041	0	11.68	20034	0	0	5	5	0.02	-0.1358377	3	10	0.08	2800	328.536	40.92397	-91.39365
124336	-34	0	5	-4.567754	-1.195139	325.3032	0	11.68	20034	0	0	5	5	0.02	-0.1286667	3	10	0.08	2800	328.536	40.92397	-91.39365
124463	-29	2	2	-4.563382	-1.197787	325.3013	0	11.68	20034	0	0	5	5	0.02	-0.1134912	3	10	0.08	2800	328.6216	40.92397	-91.39365
124601	-33	3	0	-4.561482	-1.19416	325.2995	0	11.68	20034	0	0	5	5	0.02	-0.11037	3	10	0.08	2800	328.6711	40.92397	-91.39365
124718	-34	3	-1	-4.56224	-1.192921	325.298	0	11.68	20034	0	0	5	5	0.02	-0.1149108	3	10	0.08	2800	328.9689	40.92397	-91.39365
124753	-34	4	-2	-4.560246	-1.192689	325.2977	0	11.68	20034	0	0	5	5	0.02	-0.1145853	3	10	0.08	2800	328.9689	40.92397	-91.39365
124902	-35	6	2	-4.561113	-1.189845	325.2935	0	11.68	20034	0	0	5	5	0.02	-0.1181952	3	10	0.08	2800	329.0596	40.92397	-91.39365
125041	-30	-1	-1	-4.558889	-1.185503	325.2925	0	11.68	20034	0	0	5	5	0.02	-0.1236323	3	10	0.08	2800	328.6015	40.92397	-91.39365
125093	-30	0	-2	-4.554467	-1.185135	325.2922	0	11.68	20034	0	0	5	5	0.02	-0.1212882	3	10	0.08	2800	328.9842	40.92397	-91.39365
125219	-32	-1	-2	-4.550406	-1.181571	325.29	0	11.68	20034	0	0	5	5	0.02	-0.1149336	3	10	0.08	2800	328.8306	40.92397	-91.39365
125237	-32	3	0	-4.550048	-1.181247	325.2899	0	11.68	20034	0	0	5	5	0.02	-0.1130659	3	10	0.08	2800	329.0498	40.92397	-91.39365
125324	-31	3	2	-4.549614	-1.179752	325.2891	0	11.68	20034	0	0	5	5	0.02	-0.1129085	3	10	0.08	2800	329.0498	40.92397	-91.39365
125464	-35	1	2	-4.560171	-1.182167	325.2882	0	11.68	20034	0	0	5	5	0.02	-0.1145272	3	10	0.08	2800	329.0723	40.92397	-91.39365
125585	-31	8	-1	-4.57136	-1.180764	325.2868	0	11.68	20034	0	0	5	5	0.02	-0.1130488	3	10	0.08	2800	329.0728	40.92397	-91.39365
125661	-33	-2	3	-4.569635	-1.179464	325.2858	0	11.68	20034	0	0	5	5	0.02	-0.1128931	3	10	0.08	2800	329.2266	40.92397	-91.39365
125762	-32	2	6	-4.562335	-1.177227	325.2832	0	11.68	20034	0	0	5	5	0.02	-0.1184803	3	10	0.08	2800	328.8977	40.92397	-91.39365
125832	-25	1	0	-4.559853	-1.17756	325.2833	0	11.68	20034	0	0	5	5	0.02	-0.122687	3	10	0.08	2800	329.418	40.92397	-91.39365
126039	-28	5	1	-4.553282	-1.177522	325.2833	0	11.68	20034	0	0	5	5	0.02	-0.1456853	3	10	0.08	2800	328.9656	40.92397	-91.39365
126207	-34	2	-2	-4.550007	-1.179879	325.2819	0	11.68	20034	0	0	5	5	0.02	-0.1569818	3	10	0.08	2800	328.8817	40.92397	-91.39365
126240	-31	1	-3	-4.546665	-1.179654	325.2823	0	11.68	20034	0	0	5	5	0.02	-0.1613259	3	10	0.08	2800	329.2238	40.92397	-91.39365
126346	-28	-4	3	-4.544322	-1.178073	325.2823	0	11.68	20034	0	0	5	5	0.02	-0.1624615	3	10	0.08	2800	329.1033	40.92397	-91.39365
