time(ms)	gyro_x(deg/s)	gyro_y(deg/s)	gyro_z(deg/s)	orientation_roll(deg)	orientation_pitch(deg)	orientation_yaw(deg)	throttle	battery(V)	loop_time(uS)	pid_output_roll	pid_output_pitch	pid_output_yaw	pid_output_throttle	ultrasonic_alt	baro_alt	flight_mode	p_gain_altitude	i_gain_altitude	d_gain_altitude	compass_heading	latitude	longitude
5805588	15	5	-3	-3.246484	-4.101771	346.6446	0	11.8	23755	0	0	5	5	0.02	0.07715905	3	10	0.08	2800	343.6324	40.92396	-91.39365
5805680	20	3	-35	-3.244329	-4.104735	346.6483	0	11.8	23755	0	0	5	5	0.02	0.08262694	3	10	0.08	2800	343.7116	40.92396	-91.39365
5805909	114	-54	79	-3.24345	-4.089563	346.6585	0	11.8	23755	0	0	5	5	0.02	0.1095526	3	10	0.08	2800	343.2772	40.92396	-91.39365
5806003	36	-53	-4	-3.204474	-4.032686	346.6752	0	11.8	23755	0	0	5	5	0.02	0.1184314	3	10	0.08	2800	344.1246	40.92396	-91.39365
5806105	7	-75	-122	-3.164191	-3.908275	346.6945	0	11.8	23755	0	0	5	5	0.02	0.1389834	3	10	0.08	2800	343.1248	40.92396	-91.39365
5806257	19	-89	42	-3.152405	-3.700634	346.7173	0	11.8	23755	0	0	5	5	0.02	0.1610787	3	10	0.08	2800	343.017	40.92396	-91.39365
5806303	37	-93	-21	-3.138718	-3.630688	346.7259	0	11.8	23755	0	0	5	5	0.02	0.16396	3	10	0.08	2800	343.017	40.92396	-91.39365
5806411	111	-6	81	-3.097081	-3.469178	346.7186	0	11.8	23755	0	0	5	5	0.02	0.1790951	3	10	0.08	2800	343.4711	40.92396	-91.39365
5806576	14	-108	-49	-3.084657	-3.353978	346.7448	0	11.8	23755	0	0	5	5	0.02	0.1941075	3	10	0.08	2800	343.8369	40.92396	-91.39365
5806688	-20	-45	97	-3.049999	-3.186763	346.7441	0	11.8	23755	0	0	5	5	0.02	0.194403	3	10	0.08	2800	342.639	40.92396	-91.39365
5806775	139	-1116	-255	-3.038704	-2.46983	346.7959	0	11.85	23755	0	0	5	5	0.02	0.196659	3	10	0.08	2800	342.629	40.92396	-91.39365
5806860	412	-2988	-76	-2.800209	-0.3200115	347.0513	0	11.85	23755	0	0	5	5	0.02	0.2038383	3	10	0.08	2800	342.7246	40.92396	-91.39365
5806954	3220	-5854	-750	-1.197987	4.837677	347.9859	0	11.85	23755	0	0	5	5	0.02	0.2185084	3	10	0.08	2800	338.8505	40.92396	-91.39365
5807011	11496	-6845	736	10.83042	14.41345	336.7501	0	11.85	23755	0	0	5	5	0.02	0.223819	3	10	0.08	2800	336.7425	40.92396	-91.39365
5807128	5433	128	9093	24.72277	25.56215	329.3305	0	11.85	23755	0	0	5	5	0.02	0.2596778	3	10	0.08	2800	327.1866	40.92396	-91.39365
5807218	-5668	8321	10325	20.68469	25.51222	323.7122	0	11.85	23755	0	0	5	5	0.02	0.2830896	3	10	0.08	2800	327.1866	40.92396	-91.39365
5807383	-5305	7289	5883	-25.94907	-32.86668	294.0314	0	11.85	23755	0	0	5	5	0.02	0.3401321	3	10	0.08	2800	296.6583	40.92396	-91.39365
5807432	6909	-4055	4791	-16.59923	-35.36423	310.0547	0	11.85	23755	0	0	5	5	0.02	0.346211	3	10	0.08	2800	316.6121	40.92396	-91.39365
5807574	4431	-10113	3224	-2.322827	-22.74439	313.6235	0	11.85	23755	0	0	5	5	0.02	0.3697028	3	10	0.08	2800	306.144	40.92395	-91.39365
5807682	-2454	-8295	1875	-2.849419	-6.598444	310.2654	0	11.68	23755	0	0	5	5	0.02	0.3759022	3	10	0.08	2800	303.878	40.92395	-91.39365
5807817	2622	1146	-1534	-4.102162	8.432551	298.3369	0	11.68	23755	0	0	5	5	0.02	0.3785163	3	10	0.08	2800	291.6412	40.92395	-91.39365
5807851	-177	4729	151	-3.158978	6.825822	298.9207	0	11.68	23755	0	0	5	5	0.02	0.3753189	3	10	0.08	2800	291.6412	40.92395	-91.39365
5807950	-368	-428	132	-1.724617	3.073347	298.3386	0	11.68	23755	0	0	5	5	0.02	0.3698377	3	10	0.08	2800	292.3104	40.92395	-91.39365
5808042	-74	-31	202	-2.517734	4.295992	298.5361	0	11.68	23755	0	0	5	5	0.02	0.3554351	3	10	0.08	2800	293.8304	40.92395	-91.39365
5808113	-101	-60	-23	-2.454156	4.139431	298.5165	0	11.68	23755	0	0	5	5	0.02	0.3473689	3	10	0.08	2800	293.7872	40.92395	-91.39365
5808286	84	30	-59	-2.493373	4.132716	298.4969	0	11.68	23755	0	0	5	5	0.02	0.322841	3	10	0.08	2800	293.3937	40.92395	-91.39365
5808417	188	18	8	-2.434246	4.045811	298.4757	0	11.68	23755	0	0	5	5	0.02	0.2995691	3	10	0.08	2800	292.8839	40.92395	-91.39365
5808473	130	102	-345	-2.426073	3.967628	298.4657	0	11.68	23755	0	0	5	5	0.02	0.2949636	3	10	0.08	2800	293.0783	40.92395	-91.39365
5808565	-59	25	298	-2.438503	3.899013	298.4543	0	11.74	23755	0	0	5	5	0.02	0.2837383	3	10	0.08	2800	292.9572	40.92395	-91.39365
5808645	730	858	395	-2.163959	3.401707	298.243	0	11.74	23755	0	0	5	5	0.02	0.2691605	3	10	0.08	2800	292.0984	40.92395	-91.39365
5808728	2342	4302	878	-0.9706907	0.6648036	297.5652	0	11.74	23755	0	0	5	5	0.02	0.2637931	3	10	0.08	2800	291.0143	40.92395	-91.39365
5808892	-511	1291	-35	-2.278415	-10.93492	294.493	0	11.74	23755	0	0	5	5	0.02	0.2726511	3	10	0.08	2800	292.2446	40.92395	-91.39365
5808958	488	-1253	-1254	-1.376567	-11.48265	294.8163	0	11.74	23755	0	0	5	5	0.02	0.2787496	3	10	0.08	2800	291.1377	40.92395	-91.39365
5809051	-1620	-5092	-2492	-2.755029	-0.6256469	298.096	0	11.74	23755	0	0	5	5	0.02	0.2899521	3	10	0.08	2800	294.9637	40.92395	-91.39365
5809143	-3336	-3560	-2649	-4.526796	4.70085	300.2877	0	11.74	23755	0	0	5	5	0.02	0.3318998	3	10	0.08	2800	294.8704	40.92395	-91.39365
5809242	-136	1817	-3931	-7.042695	5.838241	304.7988	0	11.74	23755	0	0	5	5	0.02	0.3619039	3	10	0.08	2800	295.1903	40.92395	-91.39365
5809317	4351	2255	-3952	-1.913771	2.169062	301.3079	0	11.74	23755	0	0	5	5	0.02	0.4036052	3	10	0.08	2800	304.383	40.92395	-91.39365
5809432	-4951	105	-5384	-1.945785	0.4901815	308.2981	0	11.57	23755	0	0	5	5	0.02	0.4537952	3	10	0.08	2800	308.3466	40.92395	-91.39365
5809505	-3626	-499	-4813	-3.98992	1.046187	311.0281	0	11.57	23755	0	0	5	5	0.02	0.4970532	3	10	0.08	2800	314.295	40.92395	-91.39365
5809593	-3031	939	-6153	-7.797568	1.552742	324.1973	0	11.57	23755	0	0	5	5	0.02	0.556555	3	10	0.08	2800	320.9105	40.92395	-91.39365
5809701	180	2306	-5384	-5.804789	-0.1817135	336.1281	0	11.57	23755	0	0	5	5	0.02	0.6439728	3	10	0.08	2800	337.091	40.92396	-91.39365
5809858	1738	1138	-4869	-5.63588	-1.229611	355.4108	0	11.57	23755	0	0	5	5	0.02	0.7389177	3	10	0.08	2800	359.1274	40.92396	-91.39365
5809915	628	-1789	-3557	-2.441853	0.2651831	2.751184	0	11.57	23755	0	0	5	5	0.02	0.7718216	3	10	0.08	2800	7.0065	40.92396	-91.39365
5810036	-1728	-790	-2309	-4.771442	3.124283	7.724716	0	11.57	23755	0	0	5	5	0.02	0.8593917	3	10	0.08	2800	15.35681	40.92396	-91.39365
5810161	2450	967	-663	-3.314019	2.766393	10.41566	0	11.57	23755	0	0	5	5	0.02	0.9569403	3	10	0.08	2800	17.75754	40.92396	-91.39365
5810262	-968	989	631	-1.405964	0.1342193	10.15085	0	11.57	23755	0	0	5	5	0.02	1.000129	3	10	0.08	2800	19.68997	40.92396	-91.39365
5810343	491	694	1000	-2.212147	-0.8014601	19.75172	0	11.57	23755	0	0	5	5	0.02	1.060173	3	10	0.08	2800	20.27979	40.92396	-91.39365
5810464	2764	2170	2213	-0.2443574	-2.818674	17.71925	0	11.8	23755	0	0	5	5	0.02	1.122185	3	10	0.08	2800	19.76428	40.92396	-91.39365
5810501	2260	2723	1972	1.012751	-4.115709	16.64278	0	11.8	23755	0	0	5	5	0.02	1.131905	3	10	0.08	2800	19.76428	40.92396	-91.39365
5810650	2648	-44	2939	1.824171	-2.826312	9.408676	0	11.8	23755	0	0	5	5	0.02	1.177742	3	10	0.08	2800	0.5693665	40.92396	-91.39365
5810805	-804	509	2448	3.169764	-1.042572	4.146216	0	11.8	23755	0	0	5	5	0.02	1.233125	3	10	0.08	2800	358.0171	40.92396	-91.39366
5810863	1955	-24	-749	2.983085	-0.939072	352.4836	0	11.8	23755	0	0	5	5	0.02	1.248768	3	10	0.08	2800	352.2461	40.92396	-91.39366
5810966	1387	-3397	-192	5.998694	1.705968	352.7033	0	11.8	23755	0	0	5	5	0.02	1.279202	3	10	0.08	2800	352.0122	40.92396	-91.39366
5811075	-4478	-303	-664	0.25074	5.874096	352.2693	0	11.8	23755	0	0	5	5	0.02	1.308809	3	10	0.08	2800	348.0638	40.92396	-91.39366
5811099	-1556	956	1036	-3.405078	5.091375	351.9592	0	11.8	23755	0	0	5	5	0.02	1.313144	3	10	0.08	2800	346.4593	40.92396	-91.39366
5811194	-32	787	244	-4.379498	3.55229	351.3652	0	11.8	23755	0	0	5	5	0.02	1.325797	3	10	0.08	2800	346.1578	40.92396	-91.39366
5811370	-725	-3281	547	-5.468142	5.249895	349.562	0	11.57	23755	0	0	5	5	0.02	1.35888	3	10	0.08	2800	341.3443	40.92396	-91.39366
5811470	1062	-1890	832	-5.865044	11.07715	337.2823	0	11.57	23755	0	0	5	5	0.02	1.38119	3	10	0.08	2800	338.0702	40.92396	-91.39366
5811513	1208	-1290	1423	-5.400533	11.74971	336.7952	0	11.57	23755	0	0	5	5	0.02	1.394361	3	10	0.08	2800	336.011	40.92396	-91.39366
5811601	1786	2648	1607	-3.915296	10.7776	335.3781	0	11.57	23755	0	0	5	5	0.02	1.404109	3	10	0.08	2800	332.0709	40.92396	-91.39366
5811814	-42	271	443	-2.886082	-1.726991	331.8164	0	11.57	23755	0	0	5	5	0.02	1.422333	3	10	0.08	2800	333.644	40.92396	-91.39366
5811937	-171	-1490	-147	-1.505748	0.5816175	331.4097	0	11.57	23755	0	0	5	5	0.02	1.422185	3	10	0.08	2800	332.2581	40.92396	-91.39366
5812050	-1159	403	-182	-2.584972	1.097627	331.0635	0	11.57	23755	0	0	5	5	0.02	1.411162	3	10	0.08	2800	331.4988	40.92396	-91.39366
5812116	-1311	1468	-636	-4.186102	-0.1124553	330.9129	0	11.57	23755	0	0	5	5	0.02	1.404142	3	10	0.08	2800	331.5181	40.92396	-91.39366
5812232	1194	-52	105	-3.770478	-1.416319	331.4933	0	11.4	23755	0	0	5	5	0.02	1.381204	3	10	0.08	2800	329.5363	40.92396	-91.39366
5812378	-922	-142	-1020	0.1690411	-0.7605737	335.7148	0	11.4	23755	0	0	5	5	0.02	1.353069	3	10	0.08	2800	334.29	40.92396	-91.39366
5812473	-1500	1173	-1617	-0.8491973	-1.383608	337.059	0	11.4	23755	0	0	5	5	0.02	1.337763	3	10	0.08	2800	335.7738	40.92396	-91.39366
5812600	-2039	-194	-2067	-3.656568	0.7238413	340.3613	0	11.4	23755	0	0	5	5	0.02	1.325272	3	10	0.08	2800	337.4295	40.92396	-91.39365
5812715	2019	-922	-874	-1.676726	2.783586	342.5177	0	11.4	23755	0	0	5	5	0.02	1.32359	3	10	0.08	2800	339.606	40.92396	-91.39365
5812749	-3606	-2293	-1355	-4.430857	5.018335	343.8867	0	11.4	23755	0	0	5	5	0.02	1.32353	3	10	0.08	2800	340.9687	40.92396	-91.39365
5812849	-2385	-1385	-195	-7.201908	7.350438	344.8299	0	11.4	23755	0	0	5	5	0.02	1.321519	3	10	0.08	2800	340.635	40.92396	-91.39365
5812993	1016	1711	-49	-9.50626	6.087498	345.1198	0	11.4	23755	0	0	5	5	0.02	1.318979	3	10	0.08	2800	341.2352	40.92395	-91.39365
5813093	24	1240	498	-8.794269	4.146518	344.5852	0	11.4	23755	0	0	5	5	0.02	1.315232	3	10	0.08	2800	343.594	40.92395	-91.39365
5813244	888	609	625	-8.880487	1.017772	342.5315	0	11.51	23755	0	0	5	5	0.02	1.314156	3	10	0.08	2800	343.7641	40.92395	-91.39365
5813405	2611	-288	560	-1.567855	0.2456966	342.2306	0	11.51	23755	0	0	5	5	0.02	1.315601	3	10	0.08	2800	345.4856	40.92395	-91.39365
5813470	-192	647	818	-1.411926	0.3418089	342.2021	0	11.51	23755	0	0	5	5	0.02	1.314987	3	10	0.08	2800	344.7185	40.92395	-91.39365
5813609	-1002	-1916	-892	-5.896356	1.953958	342.7696	0	11.51	23755	0	0	5	5	0.02	1.320133	3	10	0.08	2800	344.6835	40.92395	-91.39365
5813642	-1002	-1916	-892	-5.896356	1.953958	342.7696	0	11.51	23755	0	0	5	5	0.02	1.319281	3	10	0.08	2800	344.6835	40.92395	-91.39365
5813772	-1696	1473	-1726	-6.494697	1.363306	344.489	0	11.51	23755	0	0	5	5	0.02	1.310158	3	10	0.08	2800	346.5985	40.92395	-91.39365
5813825	-523	582	-936	-6.922363	0.8781182	344.9773	0	11.51	23755	0	0	5	5	0.02	1.308889	3	10	0.08	2800	350.2588	40.92395	-91.39365
5813932	1049	-198	210	-8.943222	0.9347736	345.7576	0	11.51	23755	0	0	5	5	0.02	1.299546	3	10	0.08	2800	350.8976	40.92395	-91.39365
5814104	-1382	38	-76	-9.521313	0.1349803	346.302	0	11.63	23755	0	0	5	5	0.02	1.285367	3	10	0.08	2800	354.4475	40.92395	-91.39365
5814214	2931	243	515	-6.519583	1.111129	356.2839	0	11.63	23755	0	0	5	5	0.02	1.267148	3	10	0.08	2800	356.4022	40.92395	-91.39365
5814256	1588	354	-25	-5.309833	1.164023	356.0794	0	11.63	23755	0	0	5	5	0.02	1.263512	3	10	0.08	2800	353.8314	40.92395	-91.39365
5814351	1416	1318	-352	-4.133614	0.4741097	355.6968	0	11.63	23755	0	0	5	5	0.02	1.263422	3	10	0.08	2800	352.6044	40.92395	-91.39365
5814452	2945	-134	-440	0.988071	-1.268402	356.4114	0	11.63	23755	0	0	5	5	0.02	1.256433	3	10	0.08	2800	354.8249	40.92395	-91.39365
5814587	-2322	402	-887	-0.9077565	-0.3737139	357.8062	0	11.63	23755	0	0	5	5	0.02	1.2501	3	10	0.08	2800	356.3088	40.92395	-91.39365
5814758	-1358	-964	791	-2.025454	1.25368	359.2802	0	11.63	23755	0	0	5	5	0.02	1.241359	3	10	0.08	2800	357.4483	40.92395	-91.39365
5814832	330	825	-500	-2.998591	0.3311416	0.1082822	0	11.63	23755	0	0	5	5	0.02	1.243027	3	10	0.08	2800	357.674	40.92395	-91.39365
5814938	-1415	-807	1704	-4.947498	1.038706	359.942	0	11.63	23755	0	0	5	5	0.02	1.244999	3	10	0.08	2800	358.0553	40.92395	-91.39365
5815120	2991	-2082	746	-6.101694	2.658981	357.9741	0	11.4	23755	0	0	5	5	0.02	1.261974	3	10	0.08	2800	357.23	40.92394	-91.39365
5815212	53	-3212	572	-4.241751	8.049366	357.2075	0	11.4	23755	0	0	5	5	0.02	1.267592	3	10	0.08	2800	354.6296	40.92394	-91.39365
5815273	109	-1838	377	-4.157705	9.162611	357.1451	0	11.4	23755	0	0	5	5	0.02	1.271576	3	10	0.08	2800	351.6602	40.92394	-91.39365
5815366	261	-879	1048	-2.855162	9.797655	356.228	0	11.4	23755	0	0	5	5	0.02	1.281388	3	10	0.08	2800	348.7932	40.92394	-91.39365
5815507	637	2643	-334	-2.993067	7.726861	355.6101	0	11.4	23755	0	0	5	5	0.02	1.293632	3	10	0.08	2800	346.3548	40.92394	-91.39365
5815615	873	761	-110	-0.168395	2.219862	355.9236	0	11.4	23755	0	0	5	5	0.02	1.297743	3	10	0.08	2800	348.3733	40.92394	-91.39365
5815633	-362	-137	443	-1.631744	2.726592	355.5361	0	11.4	23755	0	0	5	5	0.02	1.294852	3	10	0.08	2800	350.0276	40.92394	-91.39365
5815691	-840	726	796	-2.296053	2.468102	355.2974	0	11.4	23755	0	0	5	5	0.02	1.291018	3	10	0.08	2800	347.4736	40.92394	-91.39365
5815835	-64	185	511	1.513408	-0.09306564	354.718	0	11.51	23755	0	0	5	5	0.02	1.280331	3	10	0.08	2800	348.9095	40.92394	-91.39365
5815868	-2948	-307	-355	0.6062664	-0.07362165	354.6409	0	11.51	23755	0	0	5	5	0.02	1.280331	3	10	0.08	2800	348.9095	40.92394	-91.39365
5815973	-923	1653	-1159	-1.956118	-0.4597935	354.776	0	11.51	23755	0	0	5	5	0.02	1.266131	3	10	0.08	2800	347.4106	40.92394	-91.39365
5816093	-200	-1812	-600	-1.684005	-0.1080731	356.8882	0	11.51	23755	0	0	5	5	0.02	1.244633	3	10	0.08	2800	351.9576	40.92394	-91.39365
5816244	-952	-766	570	-3.665138	2.881046	357.712	0	11.51	23755	0	0	5	5	0.02	1.218791	3	10	0.08	2800	350.4455	40.92394	-91.39365
5816295	-2331	609	1980	-5.639491	2.941782	357.0664	0	11.51	23755	0	0	5	5	0.02	1.214463	3	10	0.08	2800	348.5272	40.92394	-91.39365
5816431	2600	138	1066	-7.956	0.03271732	354.6889	0	11.51	23755	0	0	5	5	0.02	1.190117	3	10	0.08	2800	349.0936	40.92393	-91.39365
5816543	-412	-745	433	-4.269642	0.5253288	353.3629	0	11.51	23755	0	0	5	5	0.02	1.178693	3	10	0.08	2800	349.7711	40.92393	-91.39365
5816633	1699	2209	125	-5.189201	-0.6504301	352.1922	0	11.51	23755	0	0	5	5	0.02	1.168818	3	10	0.08	2800	345.9876	40.92393	-91.39365
5816734	-538	-1420	568	-3.233735	-1.539874	352.2429	0	11.51	23755	0	0	5	5	0.02	1.145461	3	10	0.08	2800	348.916	40.92393	-91.39365
5816796	-418	446	1606	-6.028145	-0.9913503	350.7768	0	11.34	23755	0	0	5	5	0.02	1.132532	3	10	0.08	2800	347.5267	40.92393	-91.39365
5816895	2915	-694	904	-4.819901	-0.1194104	348.5541	0	11.34	23755	0	0	5	5	0.02	1.11494	3	10	0.08	2800	347.3296	40.92393	-91.39365
5817031	1911	49	775	-3.824882	2.252996	347.2035	0	11.34	23755	0	0	5	5	0.02	1.08614	3	10	0.08	2800	341.3622	40.92393	-91.39365
5817121	1611	1181	361	-2.550029	1.990607	346.7196	0	11.34	23755	0	0	5	5	0.02	1.078575	3	10	0.08	2800	340.9347	40.92393	-91.39365
5817247	-355	497	-1035	-3.70172	2.126047	348.3173	0	11.34	23755	0	0	5	5	0.02	1.071576	3	10	0.08	2800	344.5265	40.92393	-91.39365
5817339	-858	177	-1152	-4.895711	2.368565	349.3592	0	11.34	23755	0	0	5	5	0.02	1.066108	3	10	0.08	2800	344.095	40.92393	-91.39365
5817445	981	350	-1711	-3.745497	1.695069	352.7239	0	11.34	23755	0	0	5	5	0.02	1.06628	3	10	0.08	2800	347.5815	40.92393	-91.39365
5817504	-847	-82	-2090	-3.378335	1.42523	353.9773	0	11.34	23755	0	0	5	5	0.02	1.067576	3	10	0.08	2800	351.0762	40.92393	-91.39365
5817647	-1903	-1514	-1754	-5.204053	2.471839	359.6476	0	11.34	23755	0	0	5	5	0.02	1.077144	3	10	0.08	2800	357.7204	40.92393	-91.39365
5817740	797	-2402	-680	-5.606572	4.514555	2.700609	0	11.34	23755	0	0	5	5	0.02	1.087629	3	10	0.08	2800	0.5519714	40.92393	-91.39365
5817844	-1304	1132	-643	-6.345685	5.169737	3.639734	0	11.34	23755	0	0	5	5	0.02	1.096651	3	10	0.08	2800	1.544281	40.92394	-91.39365
5817963	876	-1992	-426	-5.360103	5.161652	4.24198	0	11.34	23755	0	0	5	5	0.02	1.111527	3	10	0.08	2800	5.360352	40.92394	-91.39365
5818023	1447	-957	495	-3.894212	6.644043	3.837322	0	11.34	23755	0	0	5	5	0.02	1.11391	3	10	0.08	2800	2.863373	40.92394	-91.39365
5818134	-403	1964	614	-2.73753	3.511268	2.699211	0	11.34	23755	0	0	5	5	0.02	1.122693	3	10	0.08	2800	0.9847107	40.92394	-91.39365
5818195	-555	730	499	-3.015776	2.970454	2.463153	0	11.34	23755	0	0	5	5	0.02	1.126009	3	10	0.08	2800	2.96817	40.92394	-91.39365
5818333	1961	-1144	978	-0.5147538	5.544587	1.497925	0	11.34	23755	0	0	5	5	0.02	1.125528	3	10	0.08	2800	0.6858215	40.92394	-91.39365
5818396	-2046	1082	1515	-1.298419	4.961644	0.09170184	0	11.34	23755	0	0	5	5	0.02	1.12202	3	10	0.08	2800	356.4066	40.92394	-91.39365
5818528	72	-43	923	-4.10079	3.507788	358.8741	0	11.34	23755	0	0	5	5	0.02	1.124102	3	10	0.08	2800	353.0466	40.92394	-91.39365
5818608	1331	-690	296	-3.984698	3.674551	357.3435	0	11.51	23755	0	0	5	5	0.02	1.136521	3	10	0.08	2800	352.2776	40.92394	-91.39365
5818765	2039	-1332	1579	1.59507	4.516309	356.5376	0	11.51	24401	0	0	5	5	0.02	1.148552	8	10	0.08	2800	350.7804	40.92394	-91.39365
5818852	1649	1760	130	-0.7083108	-1.392802	354.7702	0	11.51	23746	0	0	5	5	0.02	1.155928	8	10	0.08	2800	349.1	40.92394	-91.39365
5818966	-17	-1699	-525	1.142833	-0.08905544	354.8734	0	11.51	24553	0	0	5	5	0.02	1.157285	8	10	0.08	2800	349.2159	40.92394	-91.39365
5818996	-1254	-1036	-509	0.8405252	0.6544586	354.8716	0	11.51	23126	0	0	5	5	0.02	1.157346	8	10	0.08	2800	349.2159	40.92394	-91.39365
5819122	-122	1364	-1802	0.6679744	-0.823368	355.8336	0	11.51	23908	0	9	5	5	0.02	1.158196	8	10	0.08	2800	348.0405	40.92394	-91.39365
5819200	-1021	-386	-833	0.5426677	-1.536918	358.1014	0	11.51	23761	0	12	5	5	0.02	1.164524	8	10	0.08	2800	350.9926	40.92394	-91.39365
5819315	-38	-1923	-558	-2.27546	0.9648296	359.4883	0	11.51	23919	11	9	5	5	0.02	1.17552	8	10	0.08	2800	351.5576	40.92394	-91.39365
5819463	-474	-838	122	-0.8218867	2.206625	0.3130509	0	11.34	23774	21	22	5	5	0.02	1.185845	8	10	0.08	2800	350.8645	40.92394	-91.39365
5819546	1211	-234	-13	-0.2199037	1.975381	350.9321	0	11.34	23780	28	20	5	5	0.02	1.190299	8	10	0.08	2800	350.6474	40.92394	-91.39365
5819657	-2278	-1282	157	-2.242152	1.621045	350.9163	0	11.34	23928	44	14	5	5	0.02	1.194714	8	10	0.08	2800	352.6691	40.92394	-91.39365
5819760	-21	2016	-701	-3.064563	0.7798883	351.6401	0	11.34	23938	57	-1	5	5	0.02	1.202851	8	10	0.08	2800	351.0964	40.92394	-91.39365
5819841	-714	807	-275	-3.470036	-0.8705944	352.206	0	11.34	23298	55	14	5	5	0.02	1.220946	8	10	0.08	2800	353.785	40.92394	-91.39365
5819978	164	-2524	-85	-5.366017	2.462912	353.4598	0	11.34	23904	66	22	5	5	0.02	1.248815	8	10	0.08	2800	355.3874	40.92394	-91.39365
5820080	-122	115	174	-5.613417	3.689033	353.5597	0	11.34	23770	75	18	5	5	0.02	1.265957	8	10	0.08	2800	353.1227	40.92394	-91.39365
5820160	-1266	1796	1206	-5.277404	1.244428	352.9005	0	11.34	23941	80	17	5	5	0.02	1.275695	8	10	0.08	2800	354.1906	40.92394	-91.39365
5820241	-745	1127	-6	-7.359363	-0.6426347	352.1682	0	11.34	24526	65	18	5	5	0.02	1.287826	8	10	0.08	2800	353.4883	40.92395	-91.39365
5820378	-789	-1726	1757	-4.155906	0.3676415	350.8993	0	11.29	23744	76	22	5	5	0.02	1.309683	8	10	0.08	2800	354.9321	40.92395	-91.39365
5820504	-2440	-111	523	-5.690458	1.182594	349.9349	0	11.29	23914	68	1	5	5	0.02	1.322179	8	10	0.08	2800	352.8141	40.92395	-91.39364
5820604	1184	410	-595	-5.462819	0.08904038	349.8004	0	11.29	23759	76	6	5	5	0.02	1.322049	8	10	0.08	2800	351.7139	40.92395	-91.39364
5820650	2846	311	-565	-2.056073	-0.2458767	350.8071	0	11.29	24397	74	7	5	5	0.02	1.321441	8	10	0.08	2800	352.7317	40.92395	-91.39364
5820782	-2177	-513	149	-4.542106	1.129772	351.3196	0	11.29	23779	71	6	5	5	0.02	1.32382	8	10	0.08	2800	352.5972	40.92395	-91.39364
5820863	197	-276	-311	-6.089048	1.310727	351.2912	0	11.29	23127	67	3	5	5	0.02	1.326247	8	10	0.08	2800	355.2858	40.92395	-91.39364
5820959	2494	-392	1047	-4.31995	0.8393995	351.2523	0	11.29	23724	72	0	5	5	0.02	1.335622	8	10	0.08	2800	355.7991	40.92395	-91.39364
5821053	-2598	992	-547	-6.101758	1.198665	350.9143	0	11.29	23753	84	7	5	5	0.02	1.34001	8	10	0.08	2800	352.6696	40.92395	-91.39364
5821184	156	-164	-39	-7.363514	0.8371249	350.7455	0	11.29	24551	71	-2	5	5	0.02	1.345331	8	10	0.08	2800	355.0663	40.92395	-91.39363
5821356	-300	834	913	-5.331644	-2.19085	351.0028	0	11.46	23740	93	10	5	5	0.02	1.376595	8	10	0.08	2800	355.4757	40.92395	-91.39363
5821528	310	100	140	-8.70804	-0.4096598	349.7382	0	11.46	23115	82	7	5	5	0.02	1.420875	8	10	0.08	2800	354.797	40.92395	-91.39363
5821563	2136	62	-248	-7.116859	-0.5271591	349.7622	0	11.46	24398	78	8	5	5	0.02	1.428497	8	10	0.08	2800	356.0831	40.92395	-91.39363
5821624	1788	-1169	967	-4.914492	0.5439836	349.3744	0	11.46	23755	77	8	5	5	0.02	1.463324	8	10	0.08	2800	356.3004	40.92395	-91.39363
5821820	-2258	869	1221	-7.472586	1.018711	347.9087	0	11.46	23752	88	3	5	5	0.02	1.507231	8	10	0.08	2800	351.0874	40.92395	-91.39363
5821855	1269	915	-176	-7.912143	-0.3444881	347.5893	0	11.46	23744	69	8	5	5	0.02	1.525625	8	10	0.08	2800	349.9241	40.92395	-91.39363
5822000	-2452	-583	321	-3.952209	0.8652889	347.2629	0	11.46	23286	59	13	5	5	0.02	1.553665	8	10	0.08	2800	353.6131	40.92395	-91.39363
5822122	800	-99	-655	-5.010301	0.1179529	347.4612	0	11.46	23076	63	12	5	5	0.02	1.582282	8	10	0.08	2800	351.9883	40.92395	-91.39363
5822210	-1894	-645	735	-3.475888	-0.5544909	347.6495	0	11.51	23934	64	11	5	5	0.02	1.61353	8	10	0.08	2800	352.3946	40.92395	-91.39363
5822286	-1529	-74	84	-6.149529	-1.090965	347.4717	0	11.51	23918	65	10	5	5	0.02	1.631336	8	10	0.08	2800	350.1135	40.92395	-91.39363
5822376	1582	-1166	-728	-3.773447	1.386627	348.7444	0	11.51	24553	69	11	5	5	0.02	1.656399	8	10	0.08	2800	351.5071	40.92395	-91.39363
5822461	-2582	267	-217	-4.442444	2.106259	348.9196	0	11.51	23919	63	1	5	5	0.02	1.67178	8	10	0.08	2800	350.2986	40.92395	-91.39363
5822542	171	1250	110	-5.559985	1.483724	348.8739	0	11.51	23919	62	-1	5	5	0.02	1.692606	8	10	0.08	2800	350.9854	40.92395	-91.39363
5822674	-641	-192	580	-5.704158	2.268682	348.6489	0	11.51	23924	68	18	5	5	0.02	1.705971	8	10	0.08	2800	350.0428	40.92395	-91.39363
5822763	190	510	600	-5.893068	2.008601	348.7733	0	11.51	24560	70	23	5	5	0.02	1.712736	8	10	0.08	2800	351.8091	40.92395	-91.39363
5822855	1137	-1336	-514	-4.69828	1.524476	349.1495	0	11.51	23923	57	33	5	5	0.02	1.71981	8	10	0.08	2800	351.5656	40.92395	-91.39363
5822965	840	2674	-1372	-3.075587	1.737516	351.1592	0	11.51	23935	58	18	5	5	0.02	1.721642	8	10	0.08	2800	353.407	40.92395	-91.39363
5823037	-2640	-349	-937	-3.532051	0.9383036	352.0691	0	11.51	23929	59	20	5	5	0.02	1.722807	8	10	0.08	2800	356.4172	40.92395	-91.39363
5823115	-173	-911	-1148	-5.857691	1.07755	354.0131	0	11.46	24390	59	21	5	5	0.02	1.731044	8	10	0.08	2800	356.9352	40.92395	-91.39363
5823225	385	-313	-427	-2.889063	2.141603	355.2303	0	11.46	23298	35	-6	5	5	0.02	1.759473	8	10	0.08	2800	359.516	40.92395	-91.39363
5823317	-1738	1325	-568	-4.550035	1.540233	354.9516	0	11.46	23149	44	-4	5	5	0.02	1.768433	8	10	0.08	2800	357.7105	40.92395	-91.39363
5823415	427	299	281	-5.45716	0.8510915	354.4915	0	11.46	23755	44	-8	5	5	0.02	1.789874	8	10	0.08	2800	355.3693	40.92395	-91.39363
5823577	238	394	807	-6.293951	-0.2217688	352.87	0	11.46	23768	46	4	5	5	0.02	1.820395	8	10	0.08	2800	356.078	40.92395	-91.39363
5823643	1346	954	-106	-5.534958	-1.198338	352.7008	0	11.46	24553	34	-4	5	5	0.02	1.832782	8	10	0.08	2800	356.078	40.92395	-91.39363
5823817	-1617	-957	-127	-2.275553	-3.703529	352.14	0	11.46	23933	40	0	5	5	0.02	1.829584	8	10	0.08	2800	359.3286	40.92395	-91.39363
5823845	-1046	-3037	34	-3.649662	-0.6089362	351.7479	0	11.46	23922	42	0	5	5	0.02	1.824791	8	10	0.08	2800	355.432	40.92395	-91.39363
5823952	1535	1400	-73	-1.914016	0.8844754	351.4267	0	11.46	23753	43	0	5	5	0.02	1.821297	8	10	0.08	2800	352.5941	40.92395	-91.39363
5824038	-2022	-19	690	-1.902476	-0.9265636	350.7457	0	12.31	23931	42	0	5	5	0.02	1.821683	8	10	0.08	2800	351.5343	40.92395	-91.39363
5824138	49	-710	220	-5.169658	-0.2010702	350.4979	0	12.31	23745	44	0	5	5	0.02	1.830805	8	10	0.08	2800	350.5366	40.92395	-91.39363
5824228	-246	-205	772	-2.656648	0.7905351	349.8288	0	12.31	23907	53	-3	5	5	0.02	1.834833	8	10	0.08	2800	351.2169	40.92395	-91.39363
5824362	1089	-417	395	-5.176867	-0.2775005	348.7199	0	12.31	23920	58	-7	5	5	0.02	1.838074	8	10	0.08	2800	347.5668	40.92395	-91.39363
5824450	1279	114	-344	-3.501352	0.3180929	348.3298	0	12.31	23751	52	-5	5	5	0.02	1.842141	8	10	0.08	2800	348.4702	40.92395	-91.39363
5824622	251	101	145	-2.577456	0.4150573	348.3035	0	12.31	23100	48	-18	5	5	0.02	1.854725	8	10	0.08	2800	346.1516	40.92395	-91.39363
5824655	-1343	611	743	-3.321053	-0.3232693	347.9664	0	12.31	23759	47	-21	5	5	0.02	1.857446	8	10	0.08	2800	345.5919	40.92395	-91.39363
5824825	-183	46	402	-4.143024	-0.3235859	347.5714	0	12.31	23757	52	-6	5	5	0.02	1.870538	8	10	0.08	2800	346.5974	40.92395	-91.39363
5824920	-196	1356	70	-3.944278	0.1148582	347.2287	0	12.31	23148	52	0	5	5	0.02	1.887047	8	10	0.08	2800	346.5593	40.92395	-91.39363
5824971	-32	907	121	-3.762361	-0.5070695	347.0648	0	11.4	23900	50	-8	5	5	0.02	1.897607	8	10	0.08	2800	346.5593	40.92395	-91.39363
5825138	1068	-316	423	-3.307317	-2.854517	346.5736	0	11.4	23760	61	-12	5	5	0.02	1.916519	8	10	0.08	2800	345.834	40.92394	-91.39363
5825207	-127	-1899	14	-3.521412	-1.287008	346.3665	0	11.4	23761	65	-14	5	5	0.02	1.922553	8	10	0.08	2800	347.4555	40.92394	-91.39363
5825299	1264	1169	65	-4.699977	-0.3292436	346.0908	0	11.4	24375	60	-13	5	5	0.02	1.932606	8	10	0.08	2800	344.9663	40.92394	-91.39363
5825449	86	581	-280	-3.290936	-1.852961	346.9309	0	11.4	23758	62	-13	5	5	0.02	1.956857	8	10	0.08	2800	345.4016	40.92394	-91.39363
5825568	611	829	-832	-3.795939	-2.152073	348.3969	0	11.4	23747	77	-32	5	5	0.02	1.960874	8	10	0.08	2800	349.409	40.92394	-91.39363
5825701	-3110	617	-66	-5.618948	-1.402525	349.8656	0	11.4	23920	76	-14	5	5	0.02	1.972706	8	10	0.08	2800	354.9242	40.92394	-91.39363
5825747	280	-275	-55	-7.95542	-1.892975	349.6339	0	11.4	23781	80	-14	5	5	0.02	1.977882	8	10	0.08	2800	354.4237	40.92394	-91.39363
5825879	1813	-1434	812	-5.569222	-0.5452212	349.3072	0	11.4	23924	75	-15	5	5	0.02	1.987994	8	10	0.08	2800	355.1626	40.92394	-91.39363
5825955	-807	-465	404	-6.28679	-0.3510889	348.4341	0	11.4	23767	76	-16	5	5	0.02	2.002979	8	10	0.08	2800	352.8572	40.92394	-91.39363
5826076	274	-712	1575	-5.057396	-0.01251402	348.0672	0	11.4	23294	77	-6	5	5	0.02	2.03228	8	10	0.08	2800	352.2919	40.92394	-91.39362
5826185	-1016	-975	-35	-6.649818	-0.4086865	346.7231	0	11.4	23920	83	-4	5	5	0.02	2.049694	8	10	0.08	2800	349.6485	40.92394	-91.39362
5826303	1952	1772	443	-5.271728	-0.6838301	346.5657	0	11.4	23761	85	-13	5	5	0.02	2.080855	8	10	0.08	2800	350.5017	40.92394	-91.39362
5826396	-713	1387	432	-4.541302	-2.354076	345.9592	0	11.4	23752	86	-14	5	5	0.02	2.086262	8	10	0.08	2800	350.5017	40.92394	-91.39362
5826511	457	-1318	-46	-4.691389	-1.523464	346.8603	0	11.4	23120	85	-12	5	5	0.02	2.089341	8	10	0.08	2800	351.4337	40.92394	-91.39362
5826543	-347	-1142	-183	-4.723083	-0.9681498	347.1719	0	11.4	23919	83	-11	5	5	0.02	2.08852	8	10	0.08	2800	352.696	40.92394	-91.39362
5826636	-424	-505	-466	-6.013832	0.5298878	348.5559	0	11.4	23277	88	4	5	5	0.02	2.091285	8	10	0.08	2800	354.4574	40.92394	-91.39362
5826798	-1299	724	992	-6.995505	0.6515366	349.0746	0	11.29	23746	96	14	5	5	0.02	2.092803	8	10	0.08	2800	355.4393	40.92394	-91.39362
5826875	-433	-963	129	-8.276956	0.5489079	348.8338	0	11.29	24387	96	17	5	5	0.02	2.101256	8	10	0.08	2800	355.1687	40.92394	-91.39362
5826929	-509	-1772	-215	-8.207113	1.321062	348.7364	0	11.29	23895	78	23	5	5	0.02	2.103317	8	10	0.08	2800	355.3399	40.92395	-91.39362
5827022	910	-130	69	-6.594427	3.150835	348.5676	0	11.29	23759	89	34	5	5	0.02	2.109053	8	10	0.08	2800	353.1902	40.92395	-91.39362
5827134	-899	277	820	-8.952224	1.597722	347.7884	0	11.29	23757	89	10	5	5	0.02	2.113894	8	10	0.08	2800	351.4475	40.92395	-91.39362
5827308	577	409	101	-8.254912	2.111351	347.3451	0	11.29	23754	72	18	5	5	0.02	2.123735	8	10	0.08	2800	353.2962	40.92395	-91.39362
5827347	2816	1770	6	-6.669209	0.6044422	347.3771	0	11.29	23751	65	20	5	5	0.02	2.127604	8	10	0.08	2800	354.2907	40.92395	-91.39362
5827537	-2481	180	-887	-4.439891	1.78315	348.3366	0	11.29	23767	78	16	5	5	0.02	2.158999	8	10	0.08	2800	354.2914	40.92395	-91.39362
5827679	-3	265	-636	-5.813832	2.024928	348.5059	0	11.06	23735	66	16	5	5	0.02	2.194624	8	10	0.08	2800	354.7633	40.92395	-91.39362
5827751	15	-12	471	-5.765918	1.738249	348.4061	0	11.06	24558	53	43	5	5	0.02	2.205673	8	10	0.08	2800	355.4373	40.92395	-91.39362
5827855	1715	-2614	153	-5.356386	0.8902394	347.9187	0	11.06	23921	59	36	5	5	0.02	2.218723	8	10	0.08	2800	355.574	40.92395	-91.39362
5827965	393	910	-430	-3.789885	3.545207	347.6616	0	11.06	23874	60	37	5	5	0.02	2.245754	8	10	0.08	2800	348.9047	40.92395	-91.39362
5828131	-606	57	929	-5.076709	1.652678	347.6064	0	11.06	24389	44	43	5	5	0.02	2.274756	8	10	0.08	2800	349.72	40.92395	-91.39363
5828174	-344	-164	376	-5.354023	1.83415	347.5596	0	11.06	23951	43	44	5	5	0.02	2.278478	8	10	0.08	2800	350.6633	40.92395	-91.39363
5828332	2714	676	120	-5.878395	0.9678265	345.4981	0	11.06	23108	51	43	5	5	0.02	2.299318	8	10	0.08	2800	350.8811	40.92395	-91.39363
5828411	1060	299	-147	-2.817679	0.6059018	345.0339	0	11.06	23778	51	44	5	5	0.02	2.304386	8	10	0.08	2800	348.565	40.92395	-91.39363
5828490	703	-990	-21	-2.12882	0.9244057	344.7727	0	11.06	23753	50	44	5	5	0.02	2.306812	8	10	0.08	2800	348.9057	40.92395	-91.39363
5828605	435	95	-441	-1.563386	2.599249	345.0718	0	11.23	23750	47	49	5	5	0.02	2.308826	8	10	0.08	2800	347.2631	40.92395	-91.39363
5828639	-1019	2	-376	-1.598998	2.449357	345.1295	0	11.23	24556	47	51	5	5	0.02	2.315076	8	10	0.08	2800	347.2631	40.92395	-91.39363
5828762	-1532	334	88	-5.565342	3.886527	345.2408	0	11.23	23925	54	37	5	5	0.02	2.337676	8	10	0.08	2800	346.9071	40.92395	-91.39363
5828853	1494	147	87	-5.54165	3.847215	345.8533	0	11.23	23746	58	32	5	5	0.02	2.350494	8	10	0.08	2800	345.8638	40.92395	-91.39363
5828937	-687	852	-895	-4.966609	3.680854	346.08	0	11.23	24551	52	43	5	5	0.02	2.365388	8	10	0.08	2800	344.8744	40.92395	-91.39363
5829103	-1358	220	-489	-4.783659	2.801085	346.9951	0	11.23	23749	50	35	5	5	0.02	2.378083	8	10	0.08	2800	348.0807	40.92395	-91.39363
5829157	-19	185	-1565	-5.540463	3.162819	348.139	0	11.23	23764	47	32	5	5	0.02	2.385268	8	10	0.08	2800	346.8964	40.92395	-91.39363
5829270	-1004	278	-119	-4.438093	3.534115	349.1811	0	11.23	23760	49	50	5	5	0.02	2.391924	8	10	0.08	2800	349.1482	40.92395	-91.39363
5829294	-1004	278	-119	-4.438093	3.534115	349.1811	0	11.23	23760	49	50	5	5	0.02	2.392052	8	10	0.08	2800	349.1482	40.92395	-91.39363
5829402	1268	-888	110	-5.432386	4.427516	349.7752	0	11.23	23910	48	55	5	5	0.02	2.39573	8	10	0.08	2800	349.3163	40.92395	-91.39363
5829574	-115	-1199	-653	-3.431974	4.301524	349.9488	0	11.34	23151	42	37	5	5	0.02	2.405201	8	10	0.08	2800	351.3315	40.92395	-91.39363
5829677	-834	928	-61	-3.517224	5.29826	349.6078	0	11.34	23725	55	39	5	5	0.02	2.407943	8	10	0.08	2800	347.6494	40.92395	-91.39363
5829713	-575	1644	1259	-4.033271	4.590514	349.3532	0	11.34	23919	55	38	5	5	0.02	2.410189	8	10	0.08	2800	347.6494	40.92395	-91.39363
5829821	1306	-65	306	-5.924003	2.134449	348.8727	0	11.34	23764	58	36	5	5	0.02	2.408532	8	10	0.08	2800	347.3304	40.92395	-91.39363
5830049	-781	-572	-626	-2.199643	0.9358073	347.6943	0	11.34	23755	48	16	5	5	0.02	2.404348	8	10	0.08	2800	346.6123	40.92395	-91.39364
5830164	842	834	-85	-3.136338	2.570804	347.4606	0	11.34	23773	52	7	5	5	0.02	2.40398	8	10	0.08	2800	344.537	40.92395	-91.39364
5830265	-340	720	-1392	-1.289683	0.3480469	348.0619	0	11.34	23914	33	22	5	5	0.02	2.400053	8	10	0.08	2800	345.3303	40.92395	-91.39364
5830331	-1489	-748	-303	-2.292704	1.1732	348.4888	0	11.34	23962	30	23	5	5	0.02	2.396116	8	10	0.08	2800	346.3541	40.92395	-91.39364
5830450	-270	-289	1142	-4.095099	3.087132	348.3706	0	11.29	23923	62	16	5	5	0.02	2.384131	8	10	0.08	2800	346.3358	40.92395	-91.39364
5830570	795	1054	-316	-5.123013	1.392935	348.1393	0	11.29	23726	57	17	5	5	0.02	2.36674	8	10	0.08	2800	345.4831	40.92395	-91.39364
5830651	-1098	77	-747	-3.681631	1.187171	348.6821	0	11.29	23795	58	15	5	5	0.02	2.355067	8	10	0.08	2800	347.2815	40.92395	-91.39364
5830765	-624	131	-1461	-5.094749	0.3826633	349.6267	0	11.29	24567	0	0	5	5	0.02	2.34322	8	10	0.08	2800	346.0255	40.92395	-91.39364
5830800	754	1459	-1480	-4.744627	-0.02039328	350.1657	0	11.29	24567	0	0	5	5	0.02	2.340056	3	10	0.08	2800	348.6907	40.92395	-91.39364
5830943	-12	-1430	172	-5.810966	1.200087	351.0067	0	11.29	20126	0	0	5	5	0.02	2.322045	3	10	0.08	2800	349.9683	40.92395	-91.39363
5831099	-804	-162	686	-4.498365	3.870322	350.0305	0	11.29	20126	0	0	5	5	0.02	2.298819	3	10	0.08	2800	347.2534	40.92395	-91.39363
5831207	-4424	-1809	641	-9.120807	5.653636	348.8439	0	11.29	20126	0	0	5	5	0.02	2.260644	3	10	0.08	2800	345.6394	40.92395	-91.39363
5831298	-2279	-1686	142	-16.03474	8.182299	348.0157	0	11.34	20126	0	0	5	5	0.02	2.224041	3	10	0.08	2800	342.2582	40.92395	-91.39363
5831467	-2279	1594	971	-16.40347	5.39565	344.5186	0	11.34	20126	0	0	5	5	0.02	2.1729	3	10	0.08	2800	338.9706	40.92395	-91.39363
5831504	-713	1247	1183	-17.03002	4.548651	343.7115	0	11.34	20126	0	0	5	5	0.02	2.153193	3	10	0.08	2800	338.9706	40.92395	-91.39363
5831632	5836	1651	1084	-10.54573	0.07959232	341.4374	0	11.34	20126	0	0	5	5	0.02	2.085373	3	10	0.08	2800	342.7149	40.92395	-91.39363
5831826	803	-1110	-840	-3.029274	-0.7661809	341.0898	0	11.34	20126	0	0	5	5	0.02	2.030905	3	10	0.08	2800	342.9139	40.92395	-91.39363
5831904	-597	-2733	-340	-1.91133	2.398568	341.6506	0	11.34	20126	0	0	5	5	0.02	1.993156	3	10	0.08	2800	344.4427	40.92395	-91.39363
5832027	738	-2595	116	-0.5656523	6.30164	342.5026	0	11.34	20126	0	0	5	5	0.02	1.974287	3	10	0.08	2800	341.8064	40.92395	-91.39363
5832094	-4583	623	595	-3.770374	8.216208	342.9943	0	11.34	20126	0	0	5	5	0.02	1.946907	3	10	0.08	2800	337.8827	40.92395	-91.39363
5832190	-2314	3253	-1137	-8.917629	2.855408	343.2917	0	11.06	20126	0	0	5	5	0.02	1.925775	3	10	0.08	2800	338.7169	40.92395	-91.39364
5832292	-1823	368	-1148	-11.58583	3.106762	343.8316	0	11.06	20126	0	0	5	5	0.02	1.90174	3	10	0.08	2800	345.3365	40.92395	-91.39364
5832398	15	2232	518	-12.61904	0.2425343	344.3337	0	11.06	20126	0	0	5	5	0.02	1.871814	3	10	0.08	2800	351.7415	40.92395	-91.39364
5832482	1089	994	-349	-12.41465	-0.7271398	345.3057	0	11.06	20126	0	0	5	5	0.02	1.857282	3	10	0.08	2800	352.017	40.92395	-91.39364
5832602	1329	1363	-307	-10.69489	-1.622	359.4196	0	11.06	20126	0	0	5	5	0.02	1.837802	3	10	0.08	2800	359.1983	40.92395	-91.39364
5832702	2754	-1209	-227	-5.549214	-0.5483998	0.3474993	0	11.06	20126	0	0	5	5	0.02	1.820578	3	10	0.08	2800	1.062225	40.92394	-91.39364
5832828	-1078	852	-67	-3.541717	-0.6370867	359.82	0	11.06	20126	0	0	5	5	0.02	1.806562	3	10	0.08	2800	359.7867	40.92394	-91.39364
5832896	3422	2447	-248	-1.498067	-2.155271	0.2107497	0	11.06	20126	0	0	5	5	0.02	1.802199	3	10	0.08	2800	357.6955	40.92394	-91.39365
5832967	-531	-2823	-331	0.7755489	-0.8047704	0.5625458	0	11.06	20126	0	0	5	5	0.02	1.792853	3	10	0.08	2800	357.0249	40.92394	-91.39365
5833086	-1338	-1058	58	-0.1872448	1.161337	0.4636595	0	11.23	20126	0	0	5	5	0.02	1.764785	3	10	0.08	2800	356.2102	40.92394	-91.39365
5833219	349	-904	594	-1.274675	3.265282	0.66804	0	11.23	20126	0	0	5	5	0.02	1.736638	3	10	0.08	2800	353.94	40.92394	-91.39365
5833261	-480	-2044	312	-1.539808	4.231855	0.606843	0	11.23	20126	0	0	5	5	0.02	1.723843	3	10	0.08	2800	353.94	40.92394	-91.39365
5833397	790	1080	-195	-3.696773	5.73316	350.8907	0	11.23	20126	0	0	5	5	0.02	1.679182	3	10	0.08	2800	350.8907	40.92394	-91.39365
5833480	792	1124	96	-3.006879	4.114239	351.4433	0	11.23	20126	0	0	5	5	0.02	1.651575	3	10	0.08	2800	352.2361	40.92394	-91.39365
5833686	-696	-190	1278	-12.93967	3.548934	350.3411	0	11.23	20126	0	0	5	5	0.02	1.590366	3	10	0.08	2800	351.9889	40.92393	-91.39365
5833835	3327	-697	1035	-8.507177	2.675368	349.6243	0	11.23	20126	0	0	5	5	0.02	1.554412	3	10	0.08	2800	352.9596	40.92393	-91.39365
5833913	1026	8	429	-5.526878	3.237466	349.3364	0	11.23	20126	0	0	5	5	0.02	1.531873	3	10	0.08	2800	352.7988	40.92393	-91.39365
5834027	379	444	456	-4.070092	3.418746	348.7308	0	11.11	20126	0	0	5	5	0.02	1.495612	3	10	0.08	2800	350.9258	40.92393	-91.39365
5834072	1546	-1323	864	-3.884618	3.874743	348.2324	0	11.11	20126	0	0	5	5	0.02	1.484117	3	10	0.08	2800	349.6357	40.92393	-91.39365
5834175	-1092	-519	527	-3.463903	6.289551	347.1717	0	11.11	20126	0	0	5	5	0.02	1.457223	3	10	0.08	2800	346.2649	40.92393	-91.39365
5834227	-581	-300	714	-3.737895	6.349479	346.6476	0	11.11	20126	0	0	5	5	0.02	1.445615	3	10	0.08	2800	344.9837	40.92393	-91.39365
5834329	1805	713	637	-0.2832581	6.024062	345.5916	0	11.11	20126	0	0	5	5	0.02	1.41556	3	10	0.08	2800	344.7113	40.92393	-91.39365
5834427	-1071	1645	73	-0.9157564	5.002462	344.916	0	11.11	20126	0	0	5	5	0.02	1.400433	3	10	0.08	2800	344.6884	40.92393	-91.39365
5834578	1667	3928	-892	-2.525786	0.06787119	344.3407	0	11.11	20126	0	0	5	5	0.02	1.365313	3	10	0.08	2800	344.7489	40.92393	-91.39365
5834633	1598	4006	-958	-1.433946	-1.885455	344.6869	0	11.11	20126	0	0	5	5	0.02	1.353816	3	10	0.08	2800	344.7489	40.92393	-91.39365
5834798	-2146	-1413	-979	-6.025092	-4.734188	346.5217	0	11.11	20126	0	0	5	5	0.02	1.312065	3	10	0.08	2800	352.3675	40.92393	-91.39366
5834948	2031	-1551	-635	-3.963556	-1.45792	348.5298	0	11.4	20126	0	0	5	5	0.02	1.285476	3	10	0.08	2800	354.038	40.92393	-91.39366
5835103	-792	623	687	-2.495427	-0.4500364	350.2839	0	11.4	20126	0	0	5	5	0.02	1.260608	3	10	0.08	2800	353.557	40.92393	-91.39366
5835141	763	-2282	320	-2.455104	0.4110781	350.1341	0	11.4	20126	0	0	5	5	0.02	1.243045	3	10	0.08	2800	353.5102	40.92392	-91.39366
5835243	670	586	186	-2.541831	2.422132	349.1778	0	11.4	20126	0	0	5	5	0.02	1.191204	3	10	0.08	2800	350.2703	40.92392	-91.39366
5835313	-288	-808	425	-1.921759	2.638658	348.085	0	11.4	20126	0	0	5	5	0.02	1.134957	3	10	0.08	2800	348.9507	40.92392	-91.39366
5835404	-931	1484	555	-3.551394	3.980335	347.7957	0	11.4	20126	0	0	5	5	0.02	1.102422	3	10	0.08	2800	346.2125	40.92392	-91.39366
5835544	2199	1654	702	-4.824423	1.349362	346.5452	0	11.4	20126	0	0	5	5	0.02	1.080505	3	10	0.08	2800	347.4574	40.92392	-91.39366
5835648	-1298	459	195	-1.951322	-1.346373	346.2212	0	11.34	20126	0	0	5	5	0.02	1.041246	3	10	0.08	2800	347.7016	40.92392	-91.39366
5835764	-2980	-1476	-319	-3.954133	-0.3058557	346.1923	0	11.34	20126	0	0	5	5	0.02	1.010466	3	10	0.08	2800	349.37	40.92392	-91.39366
5835878	-1479	1366	-1502	-7.014686	2.605226	347.5631	0	11.34	20126	0	0	5	5	0.02	0.9633184	3	10	0.08	2800	348.1356	40.92392	-91.39366
5835960	-3504	274	-1072	-9.329515	1.82841	348.2325	0	11.34	20126	0	0	5	5	0.02	0.9461583	3	10	0.08	2800	351.2356	40.92392	-91.39366
5836020	-3052	-900	-1040	-10.89314	2.003016	348.4761	0	11.34	20126	0	0	5	5	0.02	0.9317073	3	10	0.08	2800	351.2356	40.92392	-91.39366
5836153	905	937	-207	-12.15283	4.027357	349.2739	0	11.34	20126	0	0	5	5	0.02	0.915761	3	10	0.08	2800	350.8674	40.92392	-91.39366
5836248	747	906	-975	-10.71358	3.441746	349.6694	0	11.34	20126	0	0	5	5	0.02	0.9022794	3	10	0.08	2800	352.6949	40.92392	-91.39366
5836362	2122	-828	-666	-5.400241	4.311603	351.3361	0	11.34	20126	0	0	5	5	0.02	0.9050704	3	10	0.08	2800	354.1164	40.92392	-91.39366
5836465	-2520	-1704	-237	-6.412197	9.337455	351.7009	0	11.34	20126	0	0	5	5	0.02	0.913818	3	10	0.08	2800	355.3635	40.92392	-91.39366
5836492	-1675	-1131	181	-7.286391	10.01691	351.4854	0	11.34	20126	0	0	5	5	0.02	0.9227706	3	10	0.08	2800	352.7365	40.92392	-91.39366
5836655	2931	-1025	420	-4.556674	10.44691	350.3873	0	11.23	20126	0	0	5	5	0.02	0.9509017	3	10	0.08	2800	350.4702	40.92392	-91.39366
