time(ms)	gyro_x(deg/s)	gyro_y(deg/s)	gyro_z(deg/s)	orientation_roll(deg)	orientation_pitch(deg)	orientation_yaw(deg)	throttle	battery(V)	loop_time(uS)	pid_output_roll	pid_output_pitch	pid_output_yaw	pid_output_throttle	ultrasonic_alt	baro_alt	flight_mode	p_gain_altitude	i_gain_altitude	d_gain_altitude	compass_heading	latitude	longitude
5744371	-7	2	-2	-3.851971	-3.96383	342.7339	0	11.74	23755	0	0	5	5	0.02	0.2576067	1	10	0.08	2800	342.3159	40.92396	-91.39365
5744617	-5	-1	-1	-3.850536	-3.968195	342.7336	0	11.74	23755	0	0	5	5	0.02	0.2500742	1	10	0.08	2800	342.5508	40.92396	-91.39365
5744686	-6	0	0	-3.850079	-3.970241	342.7335	0	11.74	23755	0	0	5	5	0.02	0.2483269	1	10	0.08	2800	342.7457	40.92396	-91.39365
5744781	-8	-3	1	-3.847262	-3.968978	342.7332	0	11.74	23755	0	0	5	5	0.02	0.2390935	1	10	0.08	2800	341.7663	40.92396	-91.39365
5744893	-5	3	-1	-3.843267	-3.971063	342.7303	0	11.74	23755	0	0	5	5	0.02	0.2353244	1	10	0.08	2800	342.1499	40.92396	-91.39365
5745033	-5	2	1	-3.842512	-3.975088	342.7305	0	11.74	23755	0	0	5	5	0.02	0.237343	1	10	0.08	2800	342.1814	40.92396	-91.39365
5745155	-3	3	1	-3.839025	-3.978283	342.7308	0	11.74	23755	0	0	5	5	0.02	0.240683	1	10	0.08	2800	342.0142	40.92396	-91.39365
5745230	-7	1	2	-3.837548	-3.981434	342.7294	0	11.74	23755	0	0	5	5	0.02	0.2427935	1	10	0.08	2800	342.532	40.92396	-91.39365
5745282	-1	-3	-2	-3.836526	-3.982229	342.7297	0	11.74	23755	0	0	5	5	0.02	0.2453796	1	10	0.08	2800	342.1474	40.92396	-91.39365
5745447	-1	-3	3	-3.831443	-3.980069	342.7264	0	11.74	23755	0	0	5	5	0.02	0.2320281	1	10	0.08	2800	342.2583	40.92396	-91.39365
5745586	-5	3	-1	-3.831027	-3.980273	342.7248	0	11.74	23755	0	0	5	5	0.02	0.2261259	1	10	0.08	2800	342.1686	40.92396	-91.39365
5745657	-4	-1	-4	-3.829036	-3.982503	342.7246	0	11.74	23755	0	0	5	5	0.02	0.2229595	1	10	0.08	2800	342.1754	40.92396	-91.39365
5745757	-9	-1	0	-3.829337	-3.986071	342.7252	0	11.74	23755	0	0	5	5	0.02	0.2175575	1	10	0.08	2800	342.1775	40.92396	-91.39365
5745811	-11	2	2	-3.831219	-3.987274	342.7249	0	11.74	23755	0	0	5	5	0.02	0.216773	1	10	0.08	2800	342.6924	40.92396	-91.39365
5745884	-4	0	1	-3.829059	-3.989085	342.726	0	11.74	23755	0	0	5	5	0.02	0.2121539	1	10	0.08	2800	342.9746	40.92396	-91.39365
5746004	-9	-1	-2	-3.828089	-3.990691	342.7271	0	11.74	23755	0	0	5	5	0.02	0.2108603	1	10	0.08	2800	342.0297	40.92396	-91.39365
5746122	-4	0	2	-3.825372	-3.994579	342.7251	0	11.74	23755	0	0	5	5	0.02	0.2125969	1	10	0.08	2800	342.2693	40.92396	-91.39365
5746208	-4	0	0	-3.82181	-3.995023	342.7235	0	11.74	23755	0	0	5	5	0.02	0.2109127	1	10	0.08	2800	341.9939	40.92396	-91.39365
5746385	-5	-1	-5	-3.823717	-4.000123	342.7222	0	11.74	23755	0	0	5	5	0.02	0.2085178	1	10	0.08	2800	342.4023	40.92396	-91.39365
5746421	-9	-1	1	-3.825358	-3.999011	342.7227	0	11.74	23755	0	0	5	5	0.02	0.2089956	1	10	0.08	2800	342.4435	40.92396	-91.39365
5746502	-9	-3	0	-3.822458	-3.998356	342.7226	0	11.74	23755	0	0	5	5	0.02	0.2101607	1	10	0.08	2800	342.4038	40.92396	-91.39365
5746626	-8	5	1	-3.822004	-3.99702	342.7221	0	11.74	23755	0	0	5	5	0.02	0.2116293	1	10	0.08	2800	342.509	40.92396	-91.39365
5746712	-1	2	3	-3.81972	-3.996702	342.7211	0	11.74	23755	0	0	5	5	0.02	0.2120807	1	10	0.08	2800	342.704	40.92396	-91.39365
5746850	0	3	4	-3.81686	-3.99645	342.7191	0	11.74	23755	0	0	5	5	0.02	0.2143563	1	10	0.08	2800	342.7636	40.92396	-91.39365
5746972	0	-2	3	-3.813637	-3.997122	342.7171	0	11.74	23755	0	0	5	5	0.02	0.2170106	1	10	0.08	2800	341.871	40.92396	-91.39365
5747025	-6	-2	4	-3.813268	-3.997508	342.7163	0	11.74	23755	0	0	5	5	0.02	0.2217721	1	10	0.08	2800	341.871	40.92396	-91.39365
5747117	-8	0	2	-3.811971	-3.997003	342.7147	0	11.74	23755	0	0	5	5	0.02	0.2287682	1	10	0.08	2800	342.2432	40.92396	-91.39365
5747220	-4	-1	-1	-3.810342	-3.998276	342.713	0	11.74	23755	0	0	5	5	0.02	0.2464005	1	10	0.08	2800	342.299	40.92396	-91.39365
5747318	-6	-2	3	-3.813391	-3.998426	342.7123	0	11.74	23755	0	0	5	5	0.02	0.25261	1	10	0.08	2800	342.2082	40.92396	-91.39365
5747471	-2	1	2	-3.811219	-3.995615	342.7116	0	11.74	23755	0	0	5	5	0.02	0.2600785	1	10	0.08	2800	342.2994	40.92396	-91.39365
5747528	0	1	3	-3.810263	-3.996538	342.7108	0	11.74	23755	0	0	5	5	0.02	0.2599593	1	10	0.08	2800	342.7735	40.92396	-91.39365
5747647	-4	-1	0	-3.808858	-3.997499	342.7087	0	11.74	23755	0	0	5	5	0.02	0.2571659	1	10	0.08	2800	342.6723	40.92396	-91.39365
5747736	-8	1	0	-3.806668	-4.000537	342.7071	0	11.74	23755	0	0	5	5	0.02	0.250305	1	10	0.08	2800	342.2091	40.92396	-91.39365
5747879	0	-7	1	-3.805304	-4.000589	342.7054	0	11.74	23755	0	0	5	5	0.02	0.2389477	1	10	0.08	2800	342.3983	40.92396	-91.39365
5747991	-7	0	1	-3.805136	-4.002151	342.7039	0	11.74	23755	0	0	5	5	0.02	0.2357309	1	10	0.08	2800	342.7209	40.92396	-91.39365
5748077	-4	0	0	-3.802256	-4.004281	342.7032	0	11.74	23755	0	0	5	5	0.02	0.235813	1	10	0.08	2800	342.3564	40.92396	-91.39365
5748139	-4	-8	3	-3.801088	-4.004501	342.7016	0	11.74	23755	0	0	5	5	0.02	0.2368743	1	10	0.08	2800	341.8904	40.92396	-91.39365
5748314	-1	1	-2	-3.79958	-4.001764	342.7003	0	11.74	23755	0	0	5	5	0.02	0.239713	1	10	0.08	2800	342.4986	40.92396	-91.39365
5748356	-6	-1	-1	-3.800765	-4.000999	342.7002	0	11.74	23755	0	0	5	5	0.02	0.2435553	1	10	0.08	2800	342.4986	40.92396	-91.39365
5748423	-4	0	0	-3.797756	-4.003677	342.6999	0	11.74	23755	0	0	5	5	0.02	0.2450565	1	10	0.08	2800	342.7517	40.92396	-91.39365
5748583	-7	5	2	-3.798483	-4.002537	342.6982	0	11.74	23755	0	0	5	5	0.02	0.2584488	1	10	0.08	2800	342.1838	40.92396	-91.39365
5748633	-7	4	1	-3.800541	-4.003898	342.6977	0	11.74	23755	0	0	5	5	0.02	0.2613892	1	10	0.08	2800	342.4605	40.92396	-91.39365
5748806	-4	0	1	-3.80058	-4.004627	342.6959	0	11.74	23755	0	0	5	5	0.02	0.2818194	1	10	0.08	2800	342.1302	40.92396	-91.39365
5748832	-4	0	1	-3.80058	-4.004627	342.6959	0	11.74	23755	0	0	5	5	0.02	0.2868965	1	10	0.08	2800	342.1302	40.92396	-91.39365
5748944	-1	1	4	-3.800391	-4.005643	342.6936	0	11.74	23755	0	0	5	5	0.02	0.2961555	1	10	0.08	2800	342.4066	40.92396	-91.39365
5749063	-9	0	-1	-3.80082	-4.00627	342.6921	0	11.74	23755	0	0	5	5	0.02	0.3033935	1	10	0.08	2800	342.5994	40.92396	-91.39365
5749154	-3	3	0	-3.79965	-4.008249	342.6914	0	11.74	23755	0	0	5	5	0.02	0.3069339	1	10	0.08	2800	342.0819	40.92396	-91.39365
5749310	-2	5	-4	-3.797174	-4.008676	342.6928	0	11.74	23755	0	0	5	5	0.02	0.3195404	1	10	0.08	2800	342.4113	40.92396	-91.39365
5749358	-2	-4	0	-3.798431	-4.008845	342.6923	0	11.74	23755	0	0	5	5	0.02	0.3281444	1	10	0.08	2800	342.4113	40.92396	-91.39365
5749470	-2	3	-1	-3.796024	-4.012033	342.6928	0	11.74	23755	0	0	5	5	0.02	0.3274374	1	10	0.08	2800	342.5159	40.92396	-91.39365
5749533	-4	2	2	-3.791848	-4.015836	342.6903	0	11.74	23755	0	0	5	5	0.02	0.32235	1	10	0.08	2800	342.7144	40.92396	-91.39365
5749741	-5	0	0	-3.794338	-4.022943	342.6846	0	11.74	23755	0	0	5	5	0.02	0.2953179	1	10	0.08	2800	342.7979	40.92396	-91.39365
5749923	0	0	0	-3.793095	-4.025792	342.6823	0	11.74	23755	0	0	5	5	0.02	0.2678722	1	10	0.08	2800	342.4069	40.92396	-91.39365
5749991	-4	0	1	-3.792429	-4.025735	342.6819	0	11.74	23755	0	0	5	5	0.02	0.2593186	1	10	0.08	2800	342.1763	40.92396	-91.39365
5750112	1	-1	3	-3.793247	-4.025822	342.6795	0	11.74	23755	0	0	5	5	0.02	0.2448717	1	10	0.08	2800	342.731	40.92396	-91.39365
5750199	-3	0	2	-3.793388	-4.026354	342.6779	0	11.74	23755	0	0	5	5	0.02	0.2406798	1	10	0.08	2800	342.5106	40.92396	-91.39365
5750317	0	-1	3	-3.789704	-4.03056	342.678	0	11.74	23755	0	0	5	5	0.02	0.2444327	1	10	0.08	2800	342.2802	40.92396	-91.39365
5750342	0	-1	3	-3.789704	-4.03056	342.678	0	11.74	23755	0	0	5	5	0.02	0.2454624	1	10	0.08	2800	342.2802	40.92396	-91.39365
5750443	-6	1	1	-3.789689	-4.030999	342.6779	0	11.74	23755	0	0	5	5	0.02	0.249014	1	10	0.08	2800	342.6677	40.92396	-91.39365
5750601	-6	0	0	-3.788479	-4.031726	342.6774	0	11.74	23755	0	0	5	5	0.02	0.2532401	1	10	0.08	2800	341.9994	40.92396	-91.39365
5750724	-8	0	0	-3.790247	-4.028313	342.6771	0	11.74	23755	0	0	5	5	0.02	0.2535835	1	10	0.08	2800	342.6087	40.92396	-91.39365
5750806	-2	1	0	-3.790986	-4.031886	342.6759	0	11.74	23755	0	0	5	5	0.02	0.2416215	1	10	0.08	2800	342.4583	40.92396	-91.39365
5750935	-11	1	0	-3.78739	-4.030659	342.6752	0	11.74	23755	0	0	5	5	0.02	0.2305616	1	10	0.08	2800	342.2802	40.92396	-91.39365
5750984	-3	0	0	-3.786052	-4.030492	342.6737	0	11.74	23755	0	0	5	5	0.02	0.230024	1	10	0.08	2800	342.6125	40.92396	-91.39365
5751086	-2	-5	2	-3.784309	-4.031363	342.6732	0	11.74	23755	0	0	5	5	0.02	0.2280426	1	10	0.08	2800	342.4682	40.92396	-91.39365
5751160	-11	-1	4	-3.780205	-4.032795	342.6734	0	11.74	23755	0	0	5	5	0.02	0.2255589	1	10	0.08	2800	342.1086	40.92396	-91.39365
5751267	-3	0	-2	-3.778548	-4.033703	342.6726	0	11.74	23755	0	0	5	5	0.02	0.2299999	1	10	0.08	2800	342.4345	40.92396	-91.39365
5751316	-1	0	2	-3.777292	-4.032968	342.6708	0	11.74	23755	0	0	5	5	0.02	0.2317054	1	10	0.08	2800	342.3041	40.92396	-91.39365
5751433	-6	5	-2	-3.779531	-4.034275	342.671	0	11.74	23755	0	0	5	5	0.02	0.2388976	1	10	0.08	2800	342.6305	40.92396	-91.39365
5751512	0	-2	0	-3.777155	-4.038399	342.6695	0	11.74	23755	0	0	5	5	0.02	0.2420867	1	10	0.08	2800	342.1122	40.92396	-91.39365
5751619	-5	1	1	-3.77682	-4.041002	342.6676	0	11.74	23755	0	0	5	5	0.02	0.2455474	1	10	0.08	2800	342.3929	40.92396	-91.39365
5751703	5	-1	1	-3.775723	-4.03874	342.6667	0	11.74	23755	0	0	5	5	0.02	0.2564564	1	10	0.08	2800	342.3929	40.92396	-91.39365
5751903	-7	-3	3	-3.771896	-4.038791	342.6648	0	11.74	23755	0	0	5	5	0.02	0.2681028	1	10	0.08	2800	342.3168	40.92396	-91.39365
5751956	-4	0	4	-3.771256	-4.037031	342.6637	0	11.74	23755	0	0	5	5	0.02	0.2744248	1	10	0.08	2800	342.4063	40.92396	-91.39365
5752112	-3	0	-1	-3.771359	-4.037583	342.6631	0	11.74	23755	0	0	5	5	0.02	0.2871436	1	10	0.08	2800	342.0827	40.92396	-91.39365
5752221	0	1	-1	-3.769669	-4.036836	342.6628	0	11.74	23755	0	0	5	5	0.02	0.2893078	1	10	0.08	2800	342.3671	40.92396	-91.39365
5752315	0	-2	-3	-3.773048	-4.039292	342.6597	0	11.74	23755	0	0	5	5	0.02	0.2878383	1	10	0.08	2800	342.6384	40.92396	-91.39365
5752520	-2	2	1	-3.771213	-4.03881	342.6597	0	11.74	23755	0	0	5	5	0.02	0.2736774	1	10	0.08	2800	342.0821	40.92396	-91.39365
5752611	-7	4	0	-3.766557	-4.038716	342.658	0	11.74	23755	0	0	5	5	0.02	0.2604323	1	10	0.08	2800	342.3671	40.92396	-91.39365
5752711	-1	0	1	-3.766206	-4.038736	342.6576	0	11.74	23755	0	0	5	5	0.02	0.2525898	1	10	0.08	2800	342.2307	40.92396	-91.39365
5752884	3	3	0	-3.765425	-4.036333	342.6556	0	11.74	23755	0	0	5	5	0.02	0.2521516	1	10	0.08	2800	341.8651	40.92396	-91.39365
5753034	-2	0	0	-3.760843	-4.035249	342.6555	0	11.74	23755	0	0	5	5	0.02	0.2615052	1	10	0.08	2800	342.5205	40.92396	-91.39365
5753174	-5	-1	-4	-3.75697	-4.040586	342.6528	0	11.74	23755	0	0	5	5	0.02	0.2726679	1	10	0.08	2800	342.4863	40.92396	-91.39365
5753258	-2	-3	3	-3.753777	-4.04159	342.6534	0	11.74	23755	0	0	5	5	0.02	0.2758738	1	10	0.08	2800	342.6418	40.92396	-91.39365
5753362	-5	-1	0	-3.750283	-4.042782	342.6525	0	11.74	23755	0	0	5	5	0.02	0.2808502	1	10	0.08	2800	342.8442	40.92396	-91.39365
5753403	2	2	0	-3.749204	-4.041531	342.6526	0	11.74	23755	0	0	5	5	0.02	0.281998	1	10	0.08	2800	342.8442	40.92396	-91.39365
5753553	-2	-3	3	-3.748433	-4.04259	342.6498	0	11.74	23755	0	0	5	5	0.02	0.2851529	1	10	0.08	2800	342.4136	40.92396	-91.39365
5753721	0	4	0	-3.744833	-4.048343	342.647	0	11.74	23755	0	0	5	5	0.02	0.2923899	1	10	0.08	2800	342.4195	40.92396	-91.39365
5753796	0	-1	1	-3.740473	-4.043982	342.6462	0	11.74	23755	0	0	5	5	0.02	0.2923781	1	10	0.08	2800	342.1956	40.92396	-91.39365
5753947	-1	1	1	-3.739221	-4.048219	342.6467	0	11.74	23755	0	0	5	5	0.02	0.2949826	1	10	0.08	2800	342.2874	40.92396	-91.39365
5754029	0	0	-4	-3.738361	-4.050653	342.6462	0	11.74	23755	0	0	5	5	0.02	0.2940696	1	10	0.08	2800	342.4812	40.92396	-91.39365
5754135	-2	4	1	-3.733552	-4.052559	342.644	0	11.74	23755	0	0	5	5	0.02	0.2963538	1	10	0.08	2800	342.5708	40.92396	-91.39365
5754204	-2	3	1	-3.732843	-4.051218	342.6429	0	11.74	23755	0	0	5	5	0.02	0.2971361	1	10	0.08	2800	342.3996	40.92396	-91.39365
5754350	-3	5	-2	-3.731228	-4.052379	342.6429	0	11.74	23755	0	0	5	5	0.02	0.2967417	1	10	0.08	2800	342.643	40.92396	-91.39365
5754414	-8	3	0	-3.730127	-4.05443	342.6432	0	11.74	23755	0	0	5	5	0.02	0.3004346	1	10	0.08	2800	343.2173	40.92396	-91.39365
5754509	-1	-2	-4	-3.732377	-4.054494	342.6437	0	11.74	23755	0	0	5	5	0.02	0.3002165	1	10	0.08	2800	342.6446	40.92396	-91.39365
5754646	-2	0	0	-3.73018	-4.054387	342.6435	0	11.74	23755	0	0	5	5	0.02	0.2967025	1	10	0.08	2800	342.4971	40.92396	-91.39365
5754741	0	3	-2	-3.729444	-4.053777	342.6424	0	11.74	23755	0	0	5	5	0.02	0.2983114	1	10	0.08	2800	342.219	40.92396	-91.39365
5754821	-4	0	-1	-3.729012	-4.049281	342.6419	0	11.74	23755	0	0	5	5	0.02	0.301289	1	10	0.08	2800	342.5023	40.92396	-91.39365
5754942	-2	0	0	-3.72687	-4.045019	342.6418	0	11.74	23755	0	0	5	5	0.02	0.2964853	1	10	0.08	2800	342.4254	40.92396	-91.39365
5755044	1	0	0	-3.7221	-4.04559	342.6404	0	11.74	23755	0	0	5	5	0.02	0.290264	1	10	0.08	2800	342.6714	40.92396	-91.39365
5755107	2	1	0	-3.720203	-4.0476	342.6408	0	11.74	23755	0	0	5	5	0.02	0.2828331	1	10	0.08	2800	342.6714	40.92396	-91.39365
5755248	3	2	1	-3.71583	-4.046464	342.6403	0	11.8	23755	0	0	5	5	0.02	0.2819824	1	10	0.08	2800	342.9314	40.92396	-91.39365
5755305	-1	0	0	-3.713501	-4.046861	342.6417	0	11.8	23755	0	0	5	5	0.02	0.2819085	1	10	0.08	2800	342.9314	40.92396	-91.39365
5755386	-3	1	5	-3.710129	-4.046757	342.6407	0	11.8	23755	0	0	5	5	0.02	0.2818486	1	10	0.08	2800	342.4858	40.92396	-91.39365
5755507	-3	0	-4	-3.711695	-4.045774	342.6417	0	11.8	23755	0	0	5	5	0.02	0.2730175	1	10	0.08	2800	342.4635	40.92396	-91.39365
5755628	-4	0	1	-3.711568	-4.043719	342.6418	0	11.8	23755	0	0	5	5	0.02	0.2543274	1	10	0.08	2800	342.3173	40.92396	-91.39365
5755700	5	1	8	-3.708979	-4.044241	342.6413	0	11.8	23755	0	0	5	5	0.02	0.2488644	1	10	0.08	2800	342.5544	40.92396	-91.39365
5755840	5	-4	2	-3.703849	-4.045681	342.6411	0	11.8	23755	0	0	5	5	0.02	0.2371369	1	10	0.08	2800	342.9382	40.92396	-91.39365
5755928	1	-5	2	-3.703138	-4.046031	342.6377	0	11.8	23755	0	0	5	5	0.02	0.2343869	1	10	0.08	2800	342.8061	40.92396	-91.39365
5755993	6	7	-2	-3.701515	-4.047579	342.6373	0	11.8	23755	0	0	5	5	0.02	0.2328814	1	10	0.08	2800	342.8092	40.92396	-91.39365
5756102	0	-1	0	-3.69914	-4.048032	342.6375	0	11.74	23755	0	0	5	5	0.02	0.2253736	1	10	0.08	2800	342.5328	40.92396	-91.39365
5756222	0	2	0	-3.695691	-4.047144	342.6379	0	11.74	23755	0	0	5	5	0.02	0.2249702	1	10	0.08	2800	342.4987	40.92396	-91.39365
5756384	0	3	2	-3.690886	-4.049632	342.6387	0	11.74	23755	0	0	5	5	0.02	0.2202228	1	10	0.08	2800	342.7267	40.92396	-91.39365
5756478	-3	8	2	-3.68883	-4.050047	342.6377	0	11.74	23755	0	0	5	5	0.02	0.2049115	1	10	0.08	2800	342.7302	40.92396	-91.39365
5756573	4	-1	-3	-3.687113	-4.049537	342.6385	0	11.74	23755	0	0	5	5	0.02	0.2027111	1	10	0.08	2800	342.3693	40.92396	-91.39365
5756663	2	1	0	-3.684388	-4.048138	342.639	0	11.74	23755	0	0	5	5	0.02	0.2034889	1	10	0.08	2800	342.4236	40.92396	-91.39365
5756728	0	-2	4	-3.683614	-4.047905	342.6385	0	11.74	23755	0	0	5	5	0.02	0.2055441	1	10	0.08	2800	342.4233	40.92396	-91.39365
5756864	-2	0	3	-3.681868	-4.042155	342.6365	0	11.74	23755	0	0	5	5	0.02	0.2124883	1	10	0.08	2800	342.2552	40.92396	-91.39365
5756899	-2	5	-1	-3.679488	-4.041796	342.6374	0	11.8	23755	0	0	5	5	0.02	0.213797	1	10	0.08	2800	342.4971	40.92396	-91.39365
5756983	0	-1	1	-3.677025	-4.042315	342.6368	0	11.8	23755	0	0	5	5	0.02	0.2208168	1	10	0.08	2800	342.7279	40.92396	-91.39365
5757110	-5	0	2	-3.673222	-4.042084	342.6373	0	11.8	23755	0	0	5	5	0.02	0.2201779	1	10	0.08	2800	342.6063	40.92396	-91.39365
5757182	0	-1	-2	-3.671044	-4.043198	342.6384	0	11.8	23755	0	0	5	5	0.02	0.218265	1	10	0.08	2800	342.6063	40.92396	-91.39365
5757268	6	-5	0	-3.673486	-4.044148	342.64	0	11.8	23755	0	0	5	5	0.02	0.2147818	1	10	0.08	2800	342.8922	40.92396	-91.39365
5757346	0	3	-1	-3.670469	-4.043156	342.6406	0	11.8	23755	0	0	5	5	0.02	0.2023395	1	10	0.08	2800	342.5204	40.92396	-91.39365
5757470	2	0	-1	-3.670224	-4.038126	342.6401	0	11.8	23755	0	0	5	5	0.02	0.1751447	1	10	0.08	2800	342.8525	40.92396	-91.39365
5757529	1	-2	3	-3.670582	-4.037909	342.6392	0	11.8	23755	0	0	5	5	0.02	0.16579	1	10	0.08	2800	342.7876	40.92396	-91.39365
5757587	-3	-1	1	-3.669567	-4.040581	342.6393	0	11.8	23755	0	0	5	5	0.02	0.1577495	1	10	0.08	2800	342.5705	40.92396	-91.39365
5757771	0	-1	-2	-3.667372	-4.041419	342.6383	0	11.8	23755	0	0	5	5	0.02	0.1362219	1	10	0.08	2800	342.7066	40.92396	-91.39365
5757842	0	-1	2	-3.667552	-4.039	342.6375	0	11.8	23755	0	0	5	5	0.02	0.1335043	1	10	0.08	2800	342.7076	40.92396	-91.39365
5757915	-1	0	0	-3.666469	-4.037895	342.6379	0	11.8	23755	0	0	5	5	0.02	0.1309903	1	10	0.08	2800	342.9485	40.92396	-91.39365
5758125	3	-4	2	-3.661039	-4.035717	342.636	0	11.8	23755	0	0	5	5	0.02	0.1278664	1	10	0.08	2800	342.9222	40.92396	-91.39365
5758200	3	1	1	-3.660829	-4.036242	342.6354	0	11.8	23755	0	0	5	5	0.02	0.1263755	1	10	0.08	2800	342.9689	40.92396	-91.39365
5758354	1	-2	1	-3.660084	-4.037605	342.6366	0	11.8	23755	0	0	5	5	0.02	0.1195677	1	10	0.08	2800	343.4462	40.92396	-91.39365
5758469	-3	0	1	-3.658069	-4.041974	342.6382	0	11.8	23755	0	0	5	5	0.02	0.1147608	1	10	0.08	2800	343.2548	40.92396	-91.39365
5758566	2	-1	1	-3.659455	-4.038958	342.6372	0	11.8	23755	0	0	5	5	0.02	0.1047006	1	10	0.08	2800	342.5391	40.92396	-91.39365
5758715	1	-1	-4	-3.66143	-4.037664	342.6396	0	11.74	23755	0	0	5	5	0.02	0.09913526	1	10	0.08	2800	342.7708	40.92396	-91.39365
5758795	-5	0	1	-3.660124	-4.039612	342.6396	0	11.74	23755	0	0	5	5	0.02	0.0955173	1	10	0.08	2800	342.925	40.92396	-91.39365
5758884	-4	-3	2	-3.657596	-4.037659	342.64	0	11.74	23755	0	0	5	5	0.02	0.08852654	1	10	0.08	2800	342.7751	40.92396	-91.39365
5759002	-4	4	-1	-3.653527	-4.03407	342.6398	0	11.74	23755	0	0	5	5	0.02	0.08572606	1	10	0.08	2800	343.1852	40.92396	-91.39365
5759106	-3	3	-3	-3.654236	-4.032555	342.6406	0	11.74	23755	0	0	5	5	0.02	0.07919998	1	10	0.08	2800	343.1816	40.92396	-91.39365
5759238	1	1	0	-3.655298	-4.032133	342.6398	0	11.74	23755	0	0	5	5	0.02	0.07793113	1	10	0.08	2800	342.9417	40.92396	-91.39365
5759383	1	1	0	-3.655298	-4.032133	342.6398	0	11.74	23755	0	0	5	5	0.02	0.07793113	1	10	0.08	2800	342.9417	40.92396	-91.39365
5759431	1	1	0	-3.655298	-4.032133	342.6398	0	11.74	23755	0	0	5	5	0.02	0.07793113	1	10	0.08	2800	342.9417	40.92396	-91.39365
5759510	1	1	0	-3.655298	-4.032133	342.6398	0	11.8	23755	0	0	5	5	0.02	0.07793113	1	10	0.08	2800	342.9417	40.92396	-91.39365
5759640	1	1	0	-3.655298	-4.032133	342.6398	0	11.8	23755	0	0	5	5	0.02	0.07793113	1	10	0.08	2800	342.9417	40.92396	-91.39365
5759725	1	1	0	-3.655298	-4.032133	342.6398	0	11.8	23755	0	0	5	5	0.02	0.07793113	1	10	0.08	2800	342.9417	40.92396	-91.39365
5759901	1	1	0	-3.655298	-4.032133	342.6398	0	11.8	23755	0	0	5	5	0.02	0.07793113	1	10	0.08	2800	342.9417	40.92396	-91.39365
5759982	1	1	0	-3.655298	-4.032133	342.6398	0	11.8	23755	0	0	5	5	0.02	0.07793113	1	10	0.08	2800	342.9417	40.92396	-91.39365
5760059	1	1	0	-3.655298	-4.032133	342.6398	0	11.8	23755	0	0	5	5	0.02	0.07793113	1	10	0.08	2800	342.9417	40.92396	-91.39365
5760116	1	1	0	-3.655298	-4.032133	342.6398	0	11.8	23755	0	0	5	5	0.02	0.07793113	1	10	0.08	2800	342.9417	40.92396	-91.39365
5760191	1	1	0	-3.655298	-4.032133	342.6398	0	11.8	23755	0	0	5	5	0.02	0.07793113	1	10	0.08	2800	342.9417	40.92396	-91.39365
5760284	1	1	0	-3.655298	-4.032133	342.6398	0	11.8	23755	0	0	5	5	0.02	0.07793113	1	10	0.08	2800	342.9417	40.92396	-91.39365
5760439	1	1	0	-3.655298	-4.032133	342.6398	0	11.74	23755	0	0	5	5	0.02	0.07793113	1	10	0.08	2800	342.9417	40.92396	-91.39365
5760493	1	1	0	-3.655298	-4.032133	342.6398	0	11.74	23755	0	0	5	5	0.02	0.07793113	1	10	0.08	2800	342.9417	40.92396	-91.39365
5760602	1	1	0	-3.655298	-4.032133	342.6398	0	11.74	23755	0	0	5	5	0.02	0.07793113	1	10	0.08	2800	342.9417	40.92396	-91.39365
5760696	1	1	0	-3.655298	-4.032133	342.6398	0	11.74	23755	0	0	5	5	0.02	0.07793113	1	10	0.08	2800	342.9417	40.92396	-91.39365
5760818	1	1	0	-3.655298	-4.032133	342.6398	0	11.74	23755	0	0	5	5	0.02	0.07793113	1	10	0.08	2800	342.9417	40.92396	-91.39365
5760870	1	1	0	-3.655298	-4.032133	342.6398	0	11.74	23755	0	0	5	5	0.02	0.07793113	1	10	0.08	2800	342.9417	40.92396	-91.39365
5760972	1	1	0	-3.655298	-4.032133	342.6398	0	11.74	23755	0	0	5	5	0.02	0.07793113	1	10	0.08	2800	342.9417	40.92396	-91.39365
5761065	1	1	0	-3.655298	-4.032133	342.6398	0	11.74	23755	0	0	5	5	0.02	0.07793113	1	10	0.08	2800	342.9417	40.92396	-91.39365
5761226	1	1	0	-3.655298	-4.032133	342.6398	0	11.74	23755	0	0	5	5	0.02	0.07793113	1	10	0.08	2800	342.9417	40.92396	-91.39365
5761271	1	1	0	-3.655298	-4.032133	342.6398	0	11.74	23755	0	0	5	5	0.02	0.07793113	1	10	0.08	2800	342.9417	40.92396	-91.39365
5761379	1	1	0	-3.655298	-4.032133	342.6398	0	11.74	23755	0	0	5	5	0.02	0.07793113	1	10	0.08	2800	342.9417	40.92396	-91.39365
5761491	1	1	0	-3.655298	-4.032133	342.6398	0	11.74	23755	0	0	5	5	0.02	0.07793113	1	10	0.08	2800	342.9417	40.92396	-91.39365
5761574	1	1	0	-3.655298	-4.032133	342.6398	0	11.74	23755	0	0	5	5	0.02	0.07793113	1	10	0.08	2800	342.9417	40.92396	-91.39365
5761723	1	1	0	-3.655298	-4.032133	342.6398	0	11.74	23755	0	0	5	5	0.02	0.07793113	1	10	0.08	2800	342.9417	40.92396	-91.39365
5761821	1	1	0	-3.655298	-4.032133	342.6398	0	11.74	23755	0	0	5	5	0.02	0.07793113	1	10	0.08	2800	342.9417	40.92396	-91.39365
5761874	1	1	0	-3.655298	-4.032133	342.6398	0	11.74	23755	0	0	5	5	0.02	0.07793113	1	10	0.08	2800	342.9417	40.92396	-91.39365
5761971	1	1	0	-3.655298	-4.032133	342.6398	0	11.74	23755	0	0	5	5	0.02	0.07793113	1	10	0.08	2800	342.9417	40.92396	-91.39365
5762100	1	1	0	-3.655298	-4.032133	342.6398	0	11.74	23755	0	0	5	5	0.02	0.07793113	1	10	0.08	2800	342.9417	40.92396	-91.39365
5762175	1	1	0	-3.655298	-4.032133	342.6398	0	11.74	23755	0	0	5	5	0.02	0.07793113	1	10	0.08	2800	342.9417	40.92396	-91.39365
5762292	1	1	0	-3.655298	-4.032133	342.6398	0	11.74	23755	0	0	5	5	0.02	0.07793113	1	10	0.08	2800	342.9417	40.92396	-91.39365
5762382	1	1	0	-3.655298	-4.032133	342.6398	0	11.74	23755	0	0	5	5	0.02	0.07793113	1	10	0.08	2800	342.9417	40.92396	-91.39365
5762489	1	1	0	-3.655298	-4.032133	342.6398	0	11.74	23755	0	0	5	5	0.02	0.07793113	1	10	0.08	2800	342.9417	40.92396	-91.39365
5762602	1	1	0	-3.655298	-4.032133	342.6398	0	11.74	23755	0	0	5	5	0.02	0.07793113	1	10	0.08	2800	342.9417	40.92396	-91.39365
5762772	1	1	0	-3.655298	-4.032133	342.6398	0	11.74	23755	0	0	5	5	0.02	0.07793113	1	10	0.08	2800	342.9417	40.92396	-91.39365
5762827	1	1	0	-3.655298	-4.032133	342.6398	0	11.74	23755	0	0	5	5	0.02	0.07793113	1	10	0.08	2800	342.9417	40.92396	-91.39365
5762924	1	1	0	-3.655298	-4.032133	342.6398	0	11.74	23755	0	0	5	5	0.02	0.07793113	1	10	0.08	2800	342.9417	40.92396	-91.39365
5762993	1	1	0	-3.655298	-4.032133	342.6398	0	11.74	23755	0	0	5	5	0.02	0.07793113	1	10	0.08	2800	342.9417	40.92396	-91.39365
5763107	1	1	0	-3.655298	-4.032133	342.6398	0	11.8	23755	0	0	5	5	0.02	0.07793113	1	10	0.08	2800	342.9417	40.92396	-91.39365
5763197	1	1	0	-3.655298	-4.032133	342.6398	0	11.8	23755	0	0	5	5	0.02	0.07793113	1	10	0.08	2800	342.9417	40.92396	-91.39365
5763345	1	1	0	-3.655298	-4.032133	342.6398	0	11.8	23755	0	0	5	5	0.02	0.07793113	1	10	0.08	2800	342.9417	40.92396	-91.39365
5763434	1	1	0	-3.655298	-4.032133	342.6398	0	11.8	23755	0	0	5	5	0.02	0.07793113	1	10	0.08	2800	342.9417	40.92396	-91.39365
5763547	1	1	0	-3.655298	-4.032133	342.6398	0	11.8	23755	0	0	5	5	0.02	0.07793113	1	10	0.08	2800	342.9417	40.92396	-91.39365
5763656	1	1	0	-3.655298	-4.032133	342.6398	0	11.8	23755	0	0	5	5	0.02	0.07793113	1	10	0.08	2800	342.9417	40.92396	-91.39365
5763720	1	1	0	-3.655298	-4.032133	342.6398	0	11.8	23755	0	0	5	5	0.02	0.07793113	1	10	0.08	2800	342.9417	40.92396	-91.39365
5763828	1	1	0	-3.655298	-4.032133	342.6398	0	11.8	23755	0	0	5	5	0.02	0.07793113	1	10	0.08	2800	342.9417	40.92396	-91.39365
5763918	1	1	0	-3.655298	-4.032133	342.6398	0	11.8	23755	0	0	5	5	0.02	0.07793113	1	10	0.08	2800	342.9417	40.92396	-91.39365
5764104	1	1	0	-3.655298	-4.032133	342.6398	0	11.8	23755	0	0	5	5	0.02	0.07793113	1	10	0.08	2800	342.9417	40.92396	-91.39365
5764148	1	1	0	-3.655298	-4.032133	342.6398	0	11.8	23755	0	0	5	5	0.02	0.07793113	1	10	0.08	2800	342.9417	40.92396	-91.39365
5764217	1	1	0	-3.655298	-4.032133	342.6398	0	11.8	23755	0	0	5	5	0.02	0.07793113	1	10	0.08	2800	342.9417	40.92396	-91.39365
5764312	1	1	0	-3.655298	-4.032133	342.6398	0	11.8	23755	0	0	5	5	0.02	0.07793113	1	10	0.08	2800	342.9417	40.92396	-91.39365
5764423	1	1	0	-3.655298	-4.032133	342.6398	0	11.8	23755	0	0	5	5	0.02	0.07793113	1	10	0.08	2800	342.9417	40.92396	-91.39365
5764515	1	1	0	-3.655298	-4.032133	342.6398	0	11.8	23755	0	0	5	5	0.02	0.07793113	1	10	0.08	2800	342.9417	40.92396	-91.39365
5764645	1	1	0	-3.655298	-4.032133	342.6398	0	11.8	23755	0	0	5	5	0.02	0.07793113	1	10	0.08	2800	342.9417	40.92396	-91.39365
5764740	1	1	0	-3.655298	-4.032133	342.6398	0	11.8	23755	0	0	5	5	0.02	0.07793113	1	10	0.08	2800	342.9417	40.92396	-91.39365
5764844	1	1	0	-3.655298	-4.032133	342.6398	0	11.8	23755	0	0	5	5	0.02	0.07793113	1	10	0.08	2800	342.9417	40.92396	-91.39365
5764916	1	1	0	-3.655298	-4.032133	342.6398	0	11.74	23755	0	0	5	5	0.02	0.07793113	1	10	0.08	2800	342.9417	40.92396	-91.39365
5765044	1	1	0	-3.655298	-4.032133	342.6398	0	11.74	23755	0	0	5	5	0.02	0.07793113	1	10	0.08	2800	342.9417	40.92396	-91.39365
5765128	1	1	0	-3.655298	-4.032133	342.6398	0	11.74	23755	0	0	5	5	0.02	0.07793113	1	10	0.08	2800	342.9417	40.92396	-91.39365
5765255	1	1	0	-3.655298	-4.032133	342.6398	0	11.74	23755	0	0	5	5	0.02	0.07793113	1	10	0.08	2800	342.9417	40.92396	-91.39365
5765352	1	1	0	-3.655298	-4.032133	342.6398	0	11.74	23755	0	0	5	5	0.02	0.07793113	1	10	0.08	2800	342.9417	40.92396	-91.39365
5765472	1	1	0	-3.655298	-4.032133	342.6398	0	11.74	23755	0	0	5	5	0.02	0.07793113	1	10	0.08	2800	342.9417	40.92396	-91.39365
5765538	1	1	0	-3.655298	-4.032133	342.6398	0	11.74	23755	0	0	5	5	0.02	0.07793113	1	10	0.08	2800	342.9417	40.92396	-91.39365
5765633	1	1	0	-3.655298	-4.032133	342.6398	0	11.74	23755	0	0	5	5	0.02	0.07793113	1	10	0.08	2800	342.9417	40.92396	-91.39365
5765717	1	1	0	-3.655298	-4.032133	342.6398	0	11.74	23755	0	0	5	5	0.02	0.07793113	1	10	0.08	2800	342.9417	40.92396	-91.39365
5765811	1	1	0	-3.655298	-4.032133	342.6398	0	11.74	23755	0	0	5	5	0.02	0.07793113	1	10	0.08	2800	342.9417	40.92396	-91.39365
5765950	1	1	0	-3.655298	-4.032133	342.6398	0	11.8	23755	0	0	5	5	0.02	0.07793113	1	10	0.08	2800	342.9417	40.92396	-91.39365
5766041	1	1	0	-3.655298	-4.032133	342.6398	0	11.8	23755	0	0	5	5	0.02	0.07793113	1	10	0.08	2800	342.9417	40.92396	-91.39365
5766129	1	1	0	-3.655298	-4.032133	342.6398	0	11.8	23755	0	0	5	5	0.02	0.07793113	1	10	0.08	2800	342.9417	40.92396	-91.39365
5766235	1	1	0	-3.655298	-4.032133	342.6398	0	11.8	23755	0	0	5	5	0.02	0.07793113	1	10	0.08	2800	342.9417	40.92396	-91.39365
5766386	1	1	0	-3.655298	-4.032133	342.6398	0	11.8	23755	0	0	5	5	0.02	0.07793113	1	10	0.08	2800	342.9417	40.92396	-91.39365
5766476	1	1	0	-3.655298	-4.032133	342.6398	0	11.8	23755	0	0	5	5	0.02	0.07793113	1	10	0.08	2800	342.9417	40.92396	-91.39365
5766513	1	1	0	-3.655298	-4.032133	342.6398	0	11.8	23755	0	0	5	5	0.02	0.07793113	1	10	0.08	2800	342.9417	40.92396	-91.39365
5766629	1	1	0	-3.655298	-4.032133	342.6398	0	11.8	23755	0	0	5	5	0.02	0.07793113	1	10	0.08	2800	342.9417	40.92396	-91.39365
5766722	1	1	0	-3.655298	-4.032133	342.6398	0	11.8	23755	0	0	5	5	0.02	0.07793113	1	10	0.08	2800	342.9417	40.92396	-91.39365
5766866	1	1	0	-3.655298	-4.032133	342.6398	0	11.8	23755	0	0	5	5	0.02	0.07793113	1	10	0.08	2800	342.9417	40.92396	-91.39365
5766909	1	1	0	-3.655298	-4.032133	342.6398	0	11.8	23755	0	0	5	5	0.02	0.07793113	1	10	0.08	2800	342.9417	40.92396	-91.39365
5767059	1	1	0	-3.655298	-4.032133	342.6398	0	11.8	23755	0	0	5	5	0.02	0.07793113	1	10	0.08	2800	342.9417	40.92396	-91.39365
5767198	1	1	0	-3.655298	-4.032133	342.6398	0	11.8	23755	0	0	5	5	0.02	0.07793113	1	10	0.08	2800	342.9417	40.92396	-91.39365
5767269	1	1	0	-3.655298	-4.032133	342.6398	0	11.8	23755	0	0	5	5	0.02	0.07793113	1	10	0.08	2800	342.9417	40.92396	-91.39365
5767339	0	-1	-1	1.582941	-5.417785	356.3286	0	11.8	23755	0	0	5	5	0.02	0.05999609	1	10	0.08	2800	356.3283	40.92396	-91.39367
5767466	0	-2	2	1.217877	-5.322711	356.3299	0	11.8	23755	0	0	5	5	0.02	0.02029404	1	10	0.08	2800	356.1477	40.92396	-91.39367
5767501	1	2	0	1.045601	-5.278881	356.329	0	11.8	23755	0	0	5	5	0.02	0.008187315	1	10	0.08	2800	354.983	40.92396	-91.39367
5767563	0	-4	1	0.8781225	-5.236962	356.3286	0	11.8	23755	0	0	5	5	0.02	0.004346962	1	10	0.08	2800	354.1308	40.92396	-91.39367
5767686	1	-2	0	0.6380963	-5.173458	356.3268	0	11.8	23755	0	0	5	5	0.02	-0.009152086	1	10	0.08	2800	353.9069	40.92396	-91.39367
5767762	0	0	0	0.4127809	-5.11261	356.3272	0	11.8	23755	0	0	5	5	0.02	-0.01090068	1	10	0.08	2800	353.7201	40.92396	-91.39367
5767902	0	-4	-1	0.1299398	-5.038149	356.3283	0	11.8	23755	0	0	5	5	0.02	-0.02369303	1	10	0.08	2800	352.378	40.92396	-91.39367
5768005	2	2	-3	-0.06972833	-4.983491	356.3274	0	11.8	23755	0	0	5	5	0.02	-0.02797929	1	10	0.08	2800	352.1729	40.92396	-91.39367
5768114	-1	2	2	-0.2561052	-4.935933	356.3293	0	11.8	23755	0	0	5	5	0.02	-0.03885635	1	10	0.08	2800	351.4644	40.92396	-91.39367
5768190	-2	4	2	-0.3733222	-4.903493	356.3292	0	11.8	23755	0	0	5	5	0.02	-0.0476976	1	10	0.08	2800	351.4047	40.92396	-91.39367
5768293	0	4	-1	-0.5976964	-4.843742	356.3282	0	11.8	23755	0	0	5	5	0.02	-0.04737623	1	10	0.08	2800	350.0553	40.92396	-91.39367
5768397	0	-1	0	-0.8072686	-4.78793	356.3296	0	11.8	23755	0	0	5	5	0.02	-0.04142743	1	10	0.08	2800	349.5693	40.92396	-91.39367
5768504	1	2	0	-0.9585196	-4.750247	356.332	0	11.8	23755	0	0	5	5	0.02	-0.0303312	1	10	0.08	2800	349.3088	40.92396	-91.39367
5768598	0	-1	3	-1.053565	-4.727166	356.3321	0	11.8	23755	0	0	5	5	0.02	-0.02027988	1	10	0.08	2800	349.2878	40.92396	-91.39367
5768635	0	1	1	-1.145735	-4.704937	356.3324	0	11.8	23755	0	0	5	5	0.02	-0.01439148	1	10	0.08	2800	349.8813	40.92396	-91.39367
5768750	-4	2	-1	-1.27494	-4.670328	356.3323	0	11.8	23755	0	0	5	5	0.02	-0.007542471	1	10	0.08	2800	348.8173	40.92396	-91.39367
5768843	6	-2	5	-1.39255	-4.63687	356.3329	0	11.8	23755	0	0	5	5	0.02	-0.007010433	1	10	0.08	2800	349.2766	40.92396	-91.39367
5768963	-1	3	0	-1.550139	-4.597015	356.3363	0	11.8	23755	0	0	5	5	0.02	-0.001816559	1	10	0.08	2800	347.9525	40.92396	-91.39367
5769038	-1	0	-3	-1.624552	-4.578695	356.338	0	11.8	23755	0	0	5	5	0.02	0.00482996	1	10	0.08	2800	347.4128	40.92396	-91.39367
5769206	-4	4	-2	-1.798809	-4.536814	356.3396	0	11.8	23755	0	0	5	5	0.02	0.01821687	1	10	0.08	2800	346.9935	40.92396	-91.39367
5769281	1	0	0	-1.863772	-4.521113	356.3396	0	11.8	23755	0	0	5	5	0.02	0.02240767	1	10	0.08	2800	347.1157	40.92396	-91.39367
5769348	-1	2	0	-1.927164	-4.504631	356.3394	0	11.8	23755	0	0	5	5	0.02	0.02254271	1	10	0.08	2800	346.6777	40.92397	-91.39367
5769523	-1	-2	3	-2.071436	-4.465374	345.9867	0	11.8	23755	0	0	5	5	0.02	0.00487345	1	10	0.08	2800	345.9865	40.92397	-91.39367
5769590	0	-3	-5	-2.126079	-4.449231	345.9881	0	11.8	23755	0	0	5	5	0.02	-0.005189958	1	10	0.08	2800	346.9372	40.92397	-91.39367
5769691	3	-3	-1	-2.231668	-4.422915	345.9886	0	11.8	23755	0	0	5	5	0.02	-0.01345742	1	10	0.08	2800	346.4565	40.92397	-91.39367
5769749	-2	-2	0	-2.257699	-4.416499	345.9883	0	11.8	23755	0	0	5	5	0.02	-0.01703008	1	10	0.08	2800	346.2846	40.92397	-91.39367
5769854	3	-3	-2	-2.353972	-4.393821	345.9904	0	11.8	23755	0	0	5	5	0.02	-0.02039681	1	10	0.08	2800	346.0263	40.92397	-91.39367
5769957	0	0	0	-2.421464	-4.376017	345.992	0	11.8	23755	0	0	5	5	0.02	-0.02525527	1	10	0.08	2800	345.9782	40.92397	-91.39367
5770065	5	0	-2	-2.503968	-4.350835	345.9924	0	11.8	23755	0	0	5	5	0.02	-0.02873979	1	10	0.08	2800	345.4606	40.92397	-91.39367
5770139	5	0	0	-2.541903	-4.341146	345.9933	0	11.8	23755	0	0	5	5	0.02	-0.03079165	1	10	0.08	2800	345.3243	40.92397	-91.39367
5770248	-1	0	0	-2.580809	-4.331697	345.993	0	11.8	23755	0	0	5	5	0.02	-0.03734339	1	10	0.08	2800	345.0871	40.92397	-91.39367
5770368	0	1	-1	-2.670564	-4.31033	345.9954	0	11.8	23755	0	0	5	5	0.02	-0.04997127	1	10	0.08	2800	345.035	40.92397	-91.39367
5770503	1	0	3	-2.718833	-4.295655	345.9943	0	11.8	23755	0	0	5	5	0.02	-0.06050531	1	10	0.08	2800	344.7287	40.92397	-91.39367
5770543	0	-1	-1	-2.766258	-4.282679	345.9949	0	11.8	23755	0	0	5	5	0.02	-0.06209371	1	10	0.08	2800	345.5955	40.92397	-91.39367
5770639	0	1	0	-2.806359	-4.275249	345.9958	0	11.8	23755	0	0	5	5	0.02	-0.06879205	1	10	0.08	2800	345.3025	40.92397	-91.39367
5770702	0	1	-1	-2.820745	-4.27367	345.9952	0	11.8	23755	0	0	5	5	0.02	-0.06988019	1	10	0.08	2800	345.3025	40.92397	-91.39367
5770804	0	-3	-5	-2.875788	-4.25779	345.9981	0	11.8	23755	0	0	5	5	0.02	-0.06959178	1	10	0.08	2800	344.5366	40.92397	-91.39367
5770954	4	-2	0	-2.930839	-4.242506	346.0003	0	11.8	23755	0	0	5	5	0.02	-0.07192945	1	10	0.08	2800	344.1873	40.92397	-91.39367
5771030	0	0	2	-2.967977	-4.231688	346.0006	0	11.8	23755	0	0	5	5	0.02	-0.07346319	1	10	0.08	2800	343.8422	40.92397	-91.39367
5771159	1	1	0	-3.014529	-4.219443	346.0006	0	11.8	23755	0	0	5	5	0.02	-0.07446948	1	10	0.08	2800	343.8835	40.92397	-91.39367
5771201	-2	-3	-3	-3.026278	-4.216541	346.0003	0	11.8	23755	0	0	5	5	0.02	-0.07051095	1	10	0.08	2800	344.1162	40.92397	-91.39367
5771342	0	4	-2	-3.066399	-4.205784	346.0008	0	11.74	23755	0	0	5	5	0.02	-0.06486724	1	10	0.08	2800	343.8095	40.92397	-91.39366
5771399	2	0	0	-3.076289	-4.202892	346.0005	0	11.74	23755	0	0	5	5	0.02	-0.05438685	1	10	0.08	2800	343.8095	40.92397	-91.39366
5771535	5	0	-2	-3.120559	-4.186889	346.0009	0	11.74	23755	0	0	5	5	0.02	-0.04655186	1	10	0.08	2800	344.3826	40.92397	-91.39367
5771617	1	-1	-1	-3.133788	-4.184266	346.0005	0	11.74	23755	0	0	5	5	0.02	-0.04480852	1	10	0.08	2800	344.1727	40.92397	-91.39367
5771736	2	-1	-2	-3.168676	-4.174793	346.0008	0	11.74	23755	0	0	5	5	0.02	-0.04665036	1	10	0.08	2800	343.9319	40.92397	-91.39366
5771854	5	0	1	-3.198793	-4.167517	346.0008	0	11.74	23755	0	0	5	5	0.02	-0.04576533	1	10	0.08	2800	343.4817	40.92397	-91.39366
5771964	1	1	0	-3.211689	-4.16386	346.0016	0	11.74	23755	0	0	5	5	0.02	-0.04128156	1	10	0.08	2800	343.3289	40.92397	-91.39366
5772023	1	-1	-2	-3.225213	-4.159658	346.0023	0	11.74	23755	0	0	5	5	0.02	-0.03533739	1	10	0.08	2800	343.7841	40.92397	-91.39366
5772152	0	1	1	-3.250039	-4.156317	346.0022	0	11.8	23755	0	0	5	5	0.02	-0.01701122	1	10	0.08	2800	344.0049	40.92397	-91.39366
5772211	2	-4	0	-3.272081	-4.152929	346.0031	0	11.8	23755	0	0	5	5	0.02	-0.01455528	1	10	0.08	2800	343.6598	40.92397	-91.39366
5772261	0	2	0	-3.282333	-4.149439	346.0033	0	11.8	23755	0	0	5	5	0.02	-0.01332448	1	10	0.08	2800	343.5099	40.92397	-91.39366
5772388	2	-4	1	-3.295661	-4.142968	346.0029	0	11.8	23755	0	0	5	5	0.02	-0.008299196	1	10	0.08	2800	343.8604	40.92397	-91.39366
5772492	2	0	1	-3.311934	-4.139617	346.0028	0	11.8	23755	0	0	5	5	0.02	0.001039938	1	10	0.08	2800	343.3112	40.92397	-91.39366
5772630	5	1	-1	-3.333845	-4.136507	346.0027	0	11.8	23755	0	0	5	5	0.02	0.01078763	1	10	0.08	2800	343.804	40.92397	-91.39366
5772684	2	0	0	-3.337951	-4.135	346.0031	0	11.8	23755	0	0	5	5	0.02	0.02224172	1	10	0.08	2800	343.6596	40.92397	-91.39366
5772804	7	0	-5	-3.355588	-4.131108	346.0052	0	11.8	23755	0	0	5	5	0.02	0.02725922	1	10	0.08	2800	343.5113	40.92397	-91.39366
5772893	5	1	-4	-3.367665	-4.125507	346.0052	0	11.8	23755	0	0	5	5	0.02	0.02870151	1	10	0.08	2800	343.4373	40.92397	-91.39366
5772961	3	1	-1	-3.37992	-4.125171	346.0047	0	11.8	23755	0	0	5	5	0.02	0.02774344	1	10	0.08	2800	343.539	40.92397	-91.39366
5773065	4	1	2	-3.387097	-4.12428	346.0054	0	11.8	23755	0	0	5	5	0.02	0.0315919	1	10	0.08	2800	343.3987	40.92397	-91.39366
5773221	5	0	0	-3.401119	-4.124427	346.0047	0	11.8	23755	0	0	5	5	0.02	0.02691271	1	10	0.08	2800	343.0648	40.92397	-91.39366
5773327	-1	-7	-2	-3.414867	-4.117363	346.0061	0	11.8	23755	0	0	5	5	0.02	0.02082357	1	10	0.08	2800	343.2877	40.92397	-91.39366
5773478	3	2	-5	-3.428538	-4.112564	346.0064	0	11.8	23755	0	0	5	5	0.02	0.008903156	1	10	0.08	2800	343.7932	40.92397	-91.39366
5773556	2	2	4	-3.430898	-4.112535	346.006	0	11.8	23755	0	0	5	5	0.02	0.002419524	1	10	0.08	2800	343.8928	40.92397	-91.39366
5773664	3	1	-2	-3.439196	-4.112066	346.0056	0	11.8	23755	0	0	5	5	0.02	-0.01588627	1	10	0.08	2800	343.8346	40.92397	-91.39366
5773771	1	0	3	-3.443702	-4.112624	346.008	0	11.8	23755	0	0	5	5	0.02	-0.02125663	1	10	0.08	2800	342.5991	40.92397	-91.39366
5773892	-2	-2	-1	-3.451123	-4.112026	346.0088	0	11.8	23755	0	0	5	5	0.02	-0.04322114	1	10	0.08	2800	343.2418	40.92397	-91.39366
5773989	4	1	-3	-3.457273	-4.108733	346.0101	0	11.74	23755	0	0	5	5	0.02	-0.05216165	1	10	0.08	2800	343.1833	40.92397	-91.39366
5774118	0	0	0	-3.463796	-4.105329	346.0119	0	11.74	23755	0	0	5	5	0.02	-0.05838618	1	10	0.08	2800	343.0911	40.92397	-91.39366
5774276	-1	3	-2	-3.47462	-4.099407	346.0139	0	11.74	23755	0	0	5	5	0.02	-0.05533385	1	10	0.08	2800	343.0593	40.92397	-91.39366
5774367	6	3	0	-3.477696	-4.09849	346.0159	0	11.74	23755	0	0	5	5	0.02	-0.04635857	1	10	0.08	2800	343.3385	40.92397	-91.39366
5774408	8	7	-4	-3.478472	-4.098213	346.0159	0	11.74	23755	0	0	5	5	0.02	-0.04354142	1	10	0.08	2800	343.3759	40.92397	-91.39366
5774492	2	0	-2	-3.481498	-4.096625	346.0166	0	11.74	23755	0	0	5	5	0.02	-0.04035825	1	10	0.08	2800	343.171	40.92397	-91.39366
5774566	3	-5	-1	-3.482935	-4.095555	346.0168	0	11.74	23755	0	0	5	5	0.02	-0.04073755	1	10	0.08	2800	342.9299	40.92397	-91.39366
5774665	1	2	-3	-3.484701	-4.093924	346.0168	0	11.74	23755	0	0	5	5	0.02	-0.04191154	1	10	0.08	2800	343.207	40.92397	-91.39366
5774792	3	1	-1	-3.486185	-4.092978	346.0175	0	11.8	23755	0	0	5	5	0.02	-0.03491914	1	10	0.08	2800	342.9256	40.92397	-91.39366
5774873	3	-1	-4	-3.490669	-4.092504	346.0181	0	11.8	23755	0	0	5	5	0.02	-0.03159982	1	10	0.08	2800	343.1071	40.92397	-91.39366
5775003	5	0	-1	-3.494676	-4.09078	346.0191	0	11.8	23755	0	0	5	5	0.02	-0.02794328	1	10	0.08	2800	343.3004	40.92397	-91.39366
