time(ms)	gyro_x(deg/s)	gyro_y(deg/s)	gyro_z(deg/s)	orientation_roll(deg)	orientation_pitch(deg)	orientation_yaw(deg)	throttle	battery(V)	loop_time(uS)	pid_output_roll	pid_output_pitch	pid_output_yaw	pid_output_throttle	ultrasonic_alt	baro_alt	flight_mode	p_gain_altitude	i_gain_altitude	d_gain_altitude	compass_heading	latitude	longitude
5775207	9	0	-4	-3.501723	-4.091258	346.0207	0	11.8	23755	0	0	5	5	0.02	-0.02199226	1	10	0.08	2800	343.3206	40.92397	-91.39366
5775266	4	-3	0	-3.505429	-4.093962	346.0219	0	11.8	23755	0	0	5	5	0.02	-0.02349252	1	10	0.08	2800	343.403	40.92397	-91.39366
5775390	2	-2	0	-3.508374	-4.092723	346.0213	0	11.8	23755	0	0	5	5	0.02	-0.03480661	1	10	0.08	2800	343.1066	40.92397	-91.39366
5775573	7	2	1	-3.510084	-4.091402	346.0213	0	11.8	23755	0	0	5	5	0.02	-0.04192436	1	10	0.08	2800	342.9737	40.92397	-91.39366
5775642	3	-1	-1	-3.513827	-4.091947	346.0229	0	11.8	23755	0	0	5	5	0.02	-0.04575603	1	10	0.08	2800	342.4498	40.92397	-91.39366
5775695	5	-4	1	-3.51466	-4.093183	346.0226	0	11.8	23755	0	0	5	5	0.02	-0.04746285	1	10	0.08	2800	343.0465	40.92397	-91.39366
5775775	6	-3	-6	-3.511992	-4.091335	346.0236	0	11.8	23755	0	0	5	5	0.02	-0.0548276	1	10	0.08	2800	343.0969	40.92397	-91.39366
5775888	2	2	-1	-3.515473	-4.092962	346.0242	0	11.8	23755	0	0	5	5	0.02	-0.06182384	1	10	0.08	2800	343.0055	40.92396	-91.39366
5776027	3	2	-1	-3.518304	-4.09181	346.0282	0	11.8	23755	0	0	5	5	0.02	-0.06721842	1	10	0.08	2800	343.0381	40.92397	-91.39366
5776151	4	2	-4	-3.519071	-4.090663	346.0288	0	11.8	23755	0	0	5	5	0.02	-0.0629129	1	10	0.08	2800	342.5588	40.92397	-91.39366
5776234	0	5	0	-3.520983	-4.092196	346.0311	0	11.8	23755	0	0	5	5	0.02	-0.06138993	1	10	0.08	2800	343.1878	40.92396	-91.39366
5776317	6	-7	0	-3.522064	-4.088349	346.032	0	11.8	23755	0	0	5	5	0.02	-0.0579211	1	10	0.08	2800	343.3844	40.92396	-91.39366
5776411	7	0	0	-3.522996	-4.087342	346.0324	0	11.8	23755	0	0	5	5	0.02	-0.06250928	1	10	0.08	2800	343.7168	40.92396	-91.39366
5776525	10	0	0	-3.523355	-4.086641	346.0316	0	11.8	23755	0	0	5	5	0.02	-0.06256953	1	10	0.08	2800	343.2666	40.92396	-91.39366
5776620	8	-2	-3	-3.523422	-4.084371	346.0336	0	11.8	23755	0	0	5	5	0.02	-0.05540442	1	10	0.08	2800	343.1809	40.92396	-91.39366
5776708	6	6	0	-3.521881	-4.086411	346.0339	0	11.8	23755	0	0	5	5	0.02	-0.04830154	1	10	0.08	2800	342.6644	40.92396	-91.39366
5776786	6	-1	-1	-3.524387	-4.086436	346.0341	0	11.8	23755	0	0	5	5	0.02	-0.04125015	1	10	0.08	2800	342.7039	40.92396	-91.39366
5776879	8	1	-2	-3.521179	-4.081587	346.0357	0	11.8	23755	0	0	5	5	0.02	-0.02946958	1	10	0.08	2800	343.0318	40.92396	-91.39366
5776997	2	1	-1	-3.521338	-4.084126	346.0369	0	11.8	23755	0	0	5	5	0.02	-0.01558307	1	10	0.08	2800	343.3208	40.92396	-91.39366
5777162	6	0	-6	-3.519462	-4.086017	346.0371	0	11.8	23755	0	0	5	5	0.02	-0.00491047	1	10	0.08	2800	342.9059	40.92396	-91.39366
5777207	2	-1	0	-3.519697	-4.084363	346.0383	0	11.8	23755	0	0	5	5	0.02	-0.00327158	1	10	0.08	2800	343.4408	40.92396	-91.39366
5777345	0	3	-3	-3.519552	-4.082069	346.0416	0	11.8	23755	0	0	5	5	0.02	0.003639667	1	10	0.08	2800	343.7275	40.92396	-91.39366
5777472	1	3	0	-3.519364	-4.081165	346.0439	0	11.8	23755	0	0	5	5	0.02	0.007696346	1	10	0.08	2800	343.8966	40.92396	-91.39366
5777500	6	0	0	-3.519081	-4.080621	346.0447	0	11.8	23755	0	0	5	5	0.02	0.008842072	1	10	0.08	2800	343.4856	40.92396	-91.39366
5777611	5	1	-2	-3.513808	-4.077117	346.0481	0	11.74	23755	0	0	5	5	0.02	0.01799403	1	10	0.08	2800	342.9757	40.92396	-91.39366
5777715	6	-4	-1	-3.510392	-4.073112	346.0509	0	11.74	23755	0	0	5	5	0.02	0.01749923	1	10	0.08	2800	343.3546	40.92396	-91.39366
5777814	2	4	-3	-3.507746	-4.072334	346.0525	0	11.74	23755	0	0	5	5	0.02	0.02024988	1	10	0.08	2800	343.2741	40.92396	-91.39366
5777993	3	-2	-2	-3.502829	-4.070925	346.057	0	11.74	23755	0	0	5	5	0.02	0.02331418	1	10	0.08	2800	342.8527	40.92396	-91.39366
5778102	0	5	-5	-3.502995	-4.071528	346.0576	0	11.74	23755	0	0	5	5	0.02	0.03046462	1	10	0.08	2800	343.706	40.92396	-91.39366
5778140	7	-2	-1	-3.500696	-4.070768	346.059	0	11.74	23755	0	0	5	5	0.02	0.03186533	1	10	0.08	2800	343.3371	40.92396	-91.39366
5778218	7	-1	0	-3.496807	-4.071448	346.0623	0	11.74	23755	0	0	5	5	0.02	0.03702778	1	10	0.08	2800	342.8243	40.92396	-91.39366
5778328	5	3	-6	-3.498245	-4.072152	346.0634	0	11.74	23755	0	0	5	5	0.02	0.03958776	1	10	0.08	2800	342.7365	40.92396	-91.39366
5778481	4	-4	0	-3.495928	-4.069154	346.0663	0	11.74	23755	0	0	5	5	0.02	0.04321103	1	10	0.08	2800	343.3991	40.92396	-91.39366
5778543	4	-1	2	-3.495998	-4.066969	346.068	0	11.8	23755	0	0	5	5	0.02	0.04444947	1	10	0.08	2800	342.7887	40.92396	-91.39366
5778665	5	1	1	-3.494127	-4.067582	346.0698	0	11.8	23755	0	0	5	5	0.02	0.04893947	1	10	0.08	2800	343.2762	40.92396	-91.39366
5778734	5	-1	-4	-3.494666	-4.0674	346.0703	0	11.8	23755	0	0	5	5	0.02	0.0537915	1	10	0.08	2800	343.2762	40.92396	-91.39366
5778849	0	-2	-3	-3.493173	-4.066596	346.0719	0	11.8	23755	0	0	5	5	0.02	0.07084735	1	10	0.08	2800	343.3619	40.92396	-91.39366
5778979	5	0	1	-3.493968	-4.06322	346.0761	0	11.8	23755	0	0	5	5	0.02	0.08795338	1	10	0.08	2800	342.929	40.92396	-91.39366
5779048	12	-3	0	-3.494222	-4.065741	346.0793	0	11.8	23755	0	0	5	5	0.02	0.1001898	1	10	0.08	2800	343.1595	40.92396	-91.39366
5779229	5	-2	-3	-3.494814	-4.061211	346.0838	0	11.8	23755	0	0	5	5	0.02	0.1206419	1	10	0.08	2800	342.9947	40.92396	-91.39366
5779304	6	-2	0	-3.493901	-4.06283	346.0847	0	11.8	23755	0	0	5	5	0.02	0.1324241	1	10	0.08	2800	342.9693	40.92396	-91.39366
5779383	10	2	-5	-3.494623	-4.063394	346.0866	0	11.8	23755	0	0	5	5	0.02	0.1408236	1	10	0.08	2800	343.3213	40.92396	-91.39366
5779460	5	2	1	-3.497601	-4.065603	346.0876	0	11.8	23755	0	0	5	5	0.02	0.1489199	1	10	0.08	2800	343.0695	40.92396	-91.39366
5779586	1	-2	-2	-3.500067	-4.061433	346.0918	0	11.8	23755	0	0	5	5	0.02	0.1654841	1	10	0.08	2800	343.0169	40.92396	-91.39366
5779719	6	-1	3	-3.499611	-4.062551	346.0929	0	11.8	23755	0	0	5	5	0.02	0.170012	1	10	0.08	2800	342.9118	40.92396	-91.39366
5779776	0	0	0	-3.499947	-4.06144	346.0931	0	11.8	23755	0	0	5	5	0.02	0.1680842	1	10	0.08	2800	342.7847	40.92396	-91.39366
5779952	7	-2	0	-3.498958	-4.06355	346.0961	0	11.8	23755	0	0	5	5	0.02	0.1615993	1	10	0.08	2800	343.4354	40.92396	-91.39366
5779995	6	-1	-1	-3.497629	-4.065331	346.0976	0	11.8	23755	0	0	5	5	0.02	0.1617552	1	10	0.08	2800	343.4354	40.92396	-91.39366
5780108	7	-5	-3	-3.492855	-4.066293	346.1018	0	11.8	23755	0	0	5	5	0.02	0.1585465	1	10	0.08	2800	343.8095	40.92396	-91.39366
5780135	7	-5	-3	-3.492855	-4.066293	346.1018	0	11.8	23755	0	0	5	5	0.02	0.1582661	1	10	0.08	2800	343.8095	40.92396	-91.39366
5780245	7	-1	-3	-3.490606	-4.064767	346.1035	0	11.8	23755	0	0	5	5	0.02	0.1572327	1	10	0.08	2800	343.5257	40.92396	-91.39366
5780419	8	0	-4	-3.486788	-4.060421	346.1077	0	11.8	23755	0	0	5	5	0.02	0.152908	1	10	0.08	2800	343.255	40.92396	-91.39366
5780523	6	-2	-2	-3.485554	-4.060678	346.1105	0	11.8	23755	0	0	5	5	0.02	0.1470146	1	10	0.08	2800	343.3447	40.92396	-91.39366
5780553	7	0	0	-3.486681	-4.060963	346.1111	0	11.8	23755	0	0	5	5	0.02	0.1445177	1	10	0.08	2800	343.3883	40.92396	-91.39366
5780661	5	0	-2	-3.483981	-4.060476	346.1129	0	11.8	23755	0	0	5	5	0.02	0.1424952	1	10	0.08	2800	343.1059	40.92396	-91.39366
5780803	5	3	0	-3.487397	-4.060069	346.1175	0	11.8	23755	0	0	5	5	0.02	0.1425478	1	10	0.08	2800	342.7759	40.92396	-91.39366
5780839	10	-4	-4	-3.485745	-4.061216	346.118	0	11.8	23755	0	0	5	5	0.02	0.1442511	1	10	0.08	2800	343.3435	40.92396	-91.39366
5780956	9	0	-1	-3.480167	-4.061874	346.1211	0	11.8	23755	0	0	5	5	0.02	0.1505578	1	10	0.08	2800	343.0028	40.92396	-91.39366
5781050	8	2	-1	-3.479409	-4.061543	346.1231	0	11.8	23755	0	0	5	5	0.02	0.1571796	1	10	0.08	2800	343.4413	40.92396	-91.39366
5781159	10	1	-2	-3.477645	-4.063364	346.1259	0	11.8	23755	0	0	5	5	0.02	0.1515131	1	10	0.08	2800	343.229	40.92396	-91.39366
5781274	5	-1	-3	-3.476202	-4.063578	346.1277	0	11.8	23755	0	0	5	5	0.02	0.146762	1	10	0.08	2800	343.5275	40.92396	-91.39366
5781383	6	2	-2	-3.472637	-4.068391	346.1348	0	11.8	23755	0	0	5	5	0.02	0.1371718	1	10	0.08	2800	343.8191	40.92396	-91.39366
5781457	5	0	-4	-3.469681	-4.067236	346.1356	0	11.8	23755	0	0	5	5	0.02	0.1321869	1	10	0.08	2800	342.8097	40.92396	-91.39366
5781605	10	-1	1	-3.467249	-4.066751	346.1405	0	11.8	23755	0	0	5	5	0.02	0.127425	1	10	0.08	2800	343.1018	40.92396	-91.39366
5781656	7	0	-3	-3.464118	-4.068052	346.1413	0	11.8	23755	0	0	5	5	0.02	0.1286501	1	10	0.08	2800	342.4502	40.92396	-91.39366
5781745	5	-1	0	-3.464049	-4.067962	346.1414	0	11.8	23755	0	0	5	5	0.02	0.1304463	1	10	0.08	2800	343.8075	40.92396	-91.39366
5781882	9	-5	-2	-3.462574	-4.067865	346.1422	0	11.8	23755	0	0	5	5	0.02	0.1321937	1	10	0.08	2800	343.2394	40.92396	-91.39366
5781992	0	0	-4	-3.462674	-4.067513	346.1444	0	11.8	23755	0	0	5	5	0.02	0.1260338	1	10	0.08	2800	343.6833	40.92396	-91.39366
5782070	8	-2	-4	-3.459608	-4.067614	346.1468	0	11.8	23755	0	0	5	5	0.02	0.1251437	1	10	0.08	2800	343.2767	40.92396	-91.39366
5782155	4	-5	-4	-3.458181	-4.064987	346.1494	0	11.74	23755	0	0	5	5	0.02	0.122238	1	10	0.08	2800	343.4539	40.92396	-91.39366
5782281	9	-3	-2	-3.458671	-4.064065	346.1514	0	11.74	23755	0	0	5	5	0.02	0.1153206	1	10	0.08	2800	343.4117	40.92396	-91.39366
5782337	10	-1	0	-3.457702	-4.064296	346.1524	0	11.74	23755	0	0	5	5	0.02	0.108598	1	10	0.08	2800	343.4117	40.92396	-91.39366
5782478	4	-2	-3	-3.455638	-4.064158	346.1549	0	11.74	23755	0	0	5	5	0.02	0.09831066	1	10	0.08	2800	343.541	40.92396	-91.39366
5782648	5	2	-6	-3.458513	-4.062772	346.1574	0	11.74	23755	0	0	5	5	0.02	0.08775785	1	10	0.08	2800	342.8441	40.92396	-91.39366
5782728	6	-4	0	-3.457783	-4.060072	346.1593	0	11.74	23755	0	0	5	5	0.02	0.08547694	1	10	0.08	2800	342.9766	40.92396	-91.39366
5782779	7	-2	0	-3.454916	-4.061655	346.1627	0	11.74	23755	0	0	5	5	0.02	0.08410037	1	10	0.08	2800	343.1981	40.92396	-91.39366
5782888	11	-4	-2	-3.452709	-4.063933	346.1641	0	11.74	23755	0	0	5	5	0.02	0.07906928	1	10	0.08	2800	343.467	40.92396	-91.39366
5783013	6	0	-1	-3.453741	-4.063035	346.1657	0	11.74	23755	0	0	5	5	0.02	0.08536534	1	10	0.08	2800	343.6286	40.92396	-91.39366
5783039	6	0	-1	-3.453741	-4.063035	346.1657	0	11.74	23755	0	0	5	5	0.02	0.08653302	1	10	0.08	2800	343.6286	40.92396	-91.39366
5783155	6	0	2	-3.454127	-4.065089	346.1662	0	11.8	23755	0	0	5	5	0.02	0.08817111	1	10	0.08	2800	342.6129	40.92396	-91.39366
5783232	3	2	-1	-3.452694	-4.063218	346.1696	0	11.8	23755	0	0	5	5	0.02	0.09513097	1	10	0.08	2800	342.8601	40.92396	-91.39366
5783368	13	0	-3	-3.45074	-4.064367	346.1729	0	11.8	23755	0	0	5	5	0.02	0.09858073	1	10	0.08	2800	343.3549	40.92396	-91.39366
5783511	3	-6	-2	-3.451402	-4.065619	346.1751	0	11.8	23755	0	0	5	5	0.02	0.09185331	1	10	0.08	2800	342.8549	40.92396	-91.39366
5783574	4	3	-2	-3.451122	-4.067153	346.1776	0	11.8	23755	0	0	5	5	0.02	0.08754005	1	10	0.08	2800	343.4733	40.92396	-91.39366
5783649	7	0	-1	-3.448766	-4.064878	346.1782	0	11.8	23755	0	0	5	5	0.02	0.08565222	1	10	0.08	2800	343.36	40.92396	-91.39366
5783708	2	-2	-4	-3.448465	-4.064142	346.1793	0	11.8	23755	0	0	5	5	0.02	0.08163393	1	10	0.08	2800	343.36	40.92396	-91.39366
5783929	5	2	-2	-3.446665	-4.060532	346.1841	0	11.8	23755	0	0	5	5	0.02	0.07297409	1	10	0.08	2800	343.6843	40.92396	-91.39366
5784051	8	-2	1	-3.44786	-4.060115	346.1851	0	11.8	23755	0	0	5	5	0.02	0.07073127	1	10	0.08	2800	343.6461	40.92396	-91.39366
5784107	11	1	0	-3.449075	-4.060353	346.1857	0	11.8	23755	0	0	5	5	0.02	0.07089253	1	10	0.08	2800	343.4842	40.92396	-91.39366
5784225	6	0	-3	-3.445782	-4.061602	346.1881	0	11.8	23755	0	0	5	5	0.02	0.08122259	1	10	0.08	2800	343.6012	40.92396	-91.39366
5784323	5	0	-1	-3.444483	-4.062608	346.1913	0	11.8	23755	0	0	5	5	0.02	0.08654966	1	10	0.08	2800	343.4482	40.92396	-91.39366
5784476	5	-3	1	-3.44303	-4.064107	346.1932	0	11.8	23755	0	0	5	5	0.02	0.09736043	1	10	0.08	2800	343.4086	40.92396	-91.39366
5784572	10	2	-2	-3.439849	-4.064866	346.1932	0	11.8	23755	0	0	5	5	0.02	0.09818694	1	10	0.08	2800	343.6264	40.92396	-91.39366
5784610	1	-1	0	-3.436483	-4.065324	346.1957	0	11.8	23755	0	0	5	5	0.02	0.09402529	1	10	0.08	2800	343.6264	40.92396	-91.39366
5784705	5	1	2	-3.435642	-4.067978	346.196	0	11.8	23755	0	0	5	5	0.02	0.09102453	1	10	0.08	2800	343.265	40.92396	-91.39366
5784898	10	-3	-4	-3.429298	-4.067735	346.1996	0	11.8	23755	0	0	5	5	0.02	0.07760674	1	10	0.08	2800	343.1956	40.92396	-91.39366
5784980	7	-2	-2	-3.43021	-4.068004	346.2014	0	11.8	23755	0	0	5	5	0.02	0.07413009	1	10	0.08	2800	343.1974	40.92396	-91.39366
5785082	11	0	-2	-3.429248	-4.070203	346.205	0	11.8	23755	0	0	5	5	0.02	0.06926099	1	10	0.08	2800	343.6819	40.92396	-91.39366
5785115	6	-1	0	-3.430314	-4.069321	346.2054	0	11.8	23755	0	0	5	5	0.02	0.06793334	1	10	0.08	2800	343.3947	40.92396	-91.39366
5785203	11	4	-2	-3.428022	-4.071314	346.206	0	11.8	23755	0	0	5	5	0.02	0.06432442	1	10	0.08	2800	343.9333	40.92396	-91.39366
5785342	4	0	0	-3.429341	-4.069952	346.2072	0	11.8	23755	0	0	5	5	0.02	0.05723083	1	10	0.08	2800	343.3221	40.92396	-91.39366
5785425	10	-3	-2	-3.430366	-4.071847	346.2079	0	11.8	23755	0	0	5	5	0.02	0.04774358	1	10	0.08	2800	343.561	40.92396	-91.39366
5785574	6	2	2	-3.431387	-4.072368	346.211	0	11.8	23755	0	0	5	5	0.02	0.04720522	1	10	0.08	2800	343.1818	40.92396	-91.39366
5785689	3	-1	0	-3.432655	-4.070797	346.2138	0	11.8	23755	0	0	5	5	0.02	0.04245276	1	10	0.08	2800	343.2266	40.92396	-91.39366
5785714	3	-1	0	-3.432655	-4.070797	346.2138	0	11.8	23755	0	0	5	5	0.02	0.04483691	1	10	0.08	2800	343.2266	40.92396	-91.39366
5785815	4	0	0	-3.432537	-4.070547	346.2138	0	11.8	23755	0	0	5	5	0.02	0.0505243	1	10	0.08	2800	343.7577	40.92396	-91.39366
5785920	7	-1	0	-3.432582	-4.072208	346.2169	0	11.8	23755	0	0	5	5	0.02	0.0563613	1	10	0.08	2800	343.3911	40.92396	-91.39366
5786017	8	0	-2	-3.434251	-4.075284	346.2192	0	11.8	23755	0	0	5	5	0.02	0.06219832	1	10	0.08	2800	343.184	40.92396	-91.39366
5786109	11	0	-2	-3.431583	-4.072687	346.2223	0	11.8	23755	0	0	5	5	0.02	0.06869628	1	10	0.08	2800	343.2696	40.92396	-91.39366
5786306	5	-2	0	-3.433614	-4.067416	346.2259	0	11.8	23755	0	0	5	5	0.02	0.08033471	1	10	0.08	2800	343.4283	40.92396	-91.39366
5786374	4	-2	-1	-3.433347	-4.066899	346.2255	0	11.8	23755	0	0	5	5	0.02	0.07735853	1	10	0.08	2800	343.1861	40.92396	-91.39366
5786451	9	-3	-6	-3.433017	-4.065732	346.2267	0	11.8	23755	0	0	5	5	0.02	0.07115303	1	10	0.08	2800	342.9021	40.92396	-91.39366
5786535	11	0	2	-3.432216	-4.064198	346.2276	0	11.8	23755	0	0	5	5	0.02	0.06794555	1	10	0.08	2800	343.5239	40.92396	-91.39366
5786617	11	4	3	-3.430782	-4.063867	346.2276	0	11.8	23755	0	0	5	5	0.02	0.06064876	1	10	0.08	2800	343.0371	40.92396	-91.39366
5786711	5	-2	-1	-3.430899	-4.062833	346.2279	0	11.8	23755	0	0	5	5	0.02	0.05184319	1	10	0.08	2800	343.1989	40.92396	-91.39366
5786849	9	-4	-4	-3.428447	-4.063201	346.2314	0	11.8	23755	0	0	5	5	0.02	0.03078678	1	10	0.08	2800	343.5692	40.92396	-91.39366
5786897	10	2	-3	-3.42869	-4.062616	346.2319	0	11.8	23755	0	0	5	5	0.02	0.02799302	1	10	0.08	2800	343.5274	40.92396	-91.39366
5787005	6	-7	0	-3.423843	-4.063822	346.2361	0	11.8	23755	0	0	5	5	0.02	0.0218726	1	10	0.08	2800	343.542	40.92396	-91.39366
5787160	2	-1	0	-3.423529	-4.062753	346.2397	0	11.8	23755	0	0	5	5	0.02	0.01935438	1	10	0.08	2800	343.5431	40.92396	-91.39366
5787252	5	-2	0	-3.424622	-4.063198	346.2403	0	11.8	23755	0	0	5	5	0.02	0.01298825	1	10	0.08	2800	342.7766	40.92396	-91.39366
5787300	8	4	1	-3.426207	-4.062372	346.2415	0	11.8	23755	0	0	5	5	0.02	0.01362996	1	10	0.08	2800	342.7766	40.92396	-91.39366
5787414	5	-1	2	-3.421993	-4.064118	346.2459	0	11.8	23755	0	0	5	5	0.02	0.02164138	1	10	0.08	2800	343.0081	40.92396	-91.39366
5787557	11	1	-1	-3.419012	-4.065272	346.2491	0	11.8	23755	0	0	5	5	0.02	0.02694998	1	10	0.08	2800	343.3516	40.92396	-91.39366
5787643	8	3	-3	-3.418052	-4.066755	346.2495	0	11.8	23755	0	0	5	5	0.02	0.03130549	1	10	0.08	2800	343.5512	40.92396	-91.39366
5787771	4	1	-1	-3.414783	-4.068831	346.2535	0	11.8	23755	0	0	5	5	0.02	0.03222167	1	10	0.08	2800	343.8004	40.92396	-91.39366
5787817	12	-7	-5	-3.413975	-4.066964	346.2541	0	11.8	23755	0	0	5	5	0.02	0.0280605	1	10	0.08	2800	343.3891	40.92396	-91.39366
5787916	14	0	1	-3.410919	-4.067456	346.2565	0	11.8	23755	0	0	5	5	0.02	0.02786434	1	10	0.08	2800	343.9392	40.92396	-91.39366
5788011	11	-4	3	-3.410804	-4.068615	346.2577	0	11.8	23755	0	0	5	5	0.02	0.02602222	1	10	0.08	2800	343.9831	40.92396	-91.39366
5788090	11	0	0	-3.407255	-4.073193	346.2601	0	11.8	23755	0	0	5	5	0.02	0.01783125	1	10	0.08	2800	343.528	40.92396	-91.39366
5788180	8	-3	2	-3.407139	-4.075755	346.2599	0	11.8	23755	0	0	5	5	0.02	0.004300115	1	10	0.08	2800	343.0472	40.92396	-91.39366
5788331	8	-5	-1	-3.405946	-4.078313	346.2624	0	11.8	23755	0	0	5	5	0.02	-0.006323512	1	10	0.08	2800	343.0991	40.92396	-91.39366
5788363	17	-1	-3	-3.405224	-4.076927	346.2635	0	11.8	23755	0	0	5	5	0.02	-0.007050338	1	10	0.08	2800	343.0909	40.92396	-91.39366
5788529	9	3	-4	-3.401653	-4.075377	346.2673	0	11.8	23755	0	0	5	5	0.02	-0.01281122	1	10	0.08	2800	343.0194	40.92396	-91.39366
5788603	14	-3	0	-3.400116	-4.076356	346.2685	0	11.8	23755	0	0	5	5	0.02	-0.01239594	1	10	0.08	2800	343.2138	40.92396	-91.39366
5788722	8	-2	4	-3.39812	-4.073011	346.2708	0	11.8	23755	0	0	5	5	0.02	-0.002515749	1	10	0.08	2800	343.5953	40.92396	-91.39366
5788812	10	0	0	-3.399707	-4.0734	346.2711	0	11.8	23755	0	0	5	5	0.02	0.01025842	1	10	0.08	2800	343.7164	40.92396	-91.39366
5788853	6	1	0	-3.399446	-4.073452	346.2717	0	11.8	23755	0	0	5	5	0.02	0.01155688	1	10	0.08	2800	343.4695	40.92396	-91.39366
5788963	9	-3	3	-3.397686	-4.074095	346.2741	0	11.8	23755	0	0	5	5	0.02	0.01354278	1	10	0.08	2800	343.0273	40.92396	-91.39366
5789056	8	0	-1	-3.397784	-4.074407	346.2761	0	11.8	23755	0	0	5	5	0.02	0.009137299	1	10	0.08	2800	343.3963	40.92396	-91.39366
5789158	10	1	0	-3.396756	-4.074713	346.2794	0	11.8	23755	0	0	5	5	0.02	0.007921217	1	10	0.08	2800	343.8105	40.92396	-91.39366
5789221	13	0	-2	-3.396868	-4.073353	346.2798	0	11.8	23755	0	0	5	5	0.02	0.01660575	1	10	0.08	2800	343.8105	40.92396	-91.39366
5789361	11	3	-1	-3.391597	-4.075167	346.2843	0	11.8	23755	0	0	5	5	0.02	0.02981037	1	10	0.08	2800	342.9992	40.92396	-91.39366
5789418	12	0	0	-3.391415	-4.076081	346.2854	0	11.8	23755	0	0	5	5	0.02	0.03173694	1	10	0.08	2800	342.9992	40.92396	-91.39366
5789598	6	-2	1	-3.384883	-4.074322	346.2848	0	11.8	23755	0	0	5	5	0.02	0.04296464	1	10	0.08	2800	343.7849	40.92396	-91.39366
5789646	3	-10	-1	-3.385843	-4.074293	346.2853	0	11.8	23755	0	0	5	5	0.02	0.04339667	1	10	0.08	2800	343.5884	40.92396	-91.39366
5789756	8	2	0	-3.385398	-4.076092	346.2867	0	11.8	23755	0	0	5	5	0.02	0.04819423	1	10	0.08	2800	343.1039	40.92396	-91.39366
5789840	12	0	-1	-3.383437	-4.077105	346.2888	0	11.8	23755	0	0	5	5	0.02	0.06311004	1	10	0.08	2800	343.2278	40.92396	-91.39366
5789944	9	1	-4	-3.377722	-4.081099	346.2895	0	11.8	23755	0	0	5	5	0.02	0.06752127	1	10	0.08	2800	343.5894	40.92396	-91.39366
5790116	10	3	0	-3.375293	-4.077487	346.2943	0	11.8	23755	0	0	5	5	0.02	0.07579213	1	10	0.08	2800	343.1678	40.92396	-91.39366
5790206	10	-3	0	-3.375553	-4.076623	346.2957	0	11.8	23755	0	0	5	5	0.02	0.07796138	1	10	0.08	2800	343.3257	40.92396	-91.39366
5790367	9	-7	0	-3.374106	-4.075009	346.2989	0	11.8	23755	0	0	5	5	0.02	0.07465507	1	10	0.08	2800	342.8833	40.92396	-91.39366
5790458	9	-1	0	-3.371665	-4.079594	346.3004	0	11.8	23755	0	0	5	5	0.02	0.07158657	1	10	0.08	2800	343.6615	40.92396	-91.39366
5790532	13	0	-3	-3.368932	-4.078452	346.3014	0	11.8	23755	0	0	5	5	0.02	0.06876786	1	10	0.08	2800	343.9092	40.92396	-91.39366
5790683	8	0	-4	-3.369176	-4.080431	346.3037	0	11.8	23755	0	0	5	5	0.02	0.05226872	1	10	0.08	2800	343.5072	40.92396	-91.39366
5790741	5	2	0	-3.370461	-4.079971	346.3064	0	11.8	23755	0	0	5	5	0.02	0.0508493	1	10	0.08	2800	343.2662	40.92396	-91.39366
5790869	5	1	1	-3.370623	-4.084625	346.3079	0	11.8	23755	0	0	5	5	0.02	0.03678856	1	10	0.08	2800	343.4167	40.92396	-91.39366
5790973	10	0	0	-3.371797	-4.082735	346.3094	0	11.8	23755	0	0	5	5	0.02	0.03351528	1	10	0.08	2800	343.3727	40.92396	-91.39366
5791036	6	0	0	-3.373581	-4.083629	346.3116	0	11.8	23755	0	0	5	5	0.02	0.02856102	1	10	0.08	2800	343.1246	40.92396	-91.39366
5791189	9	2	0	-3.371022	-4.083299	346.3147	0	11.8	23755	0	0	5	5	0.02	0.02601239	1	10	0.08	2800	343.6132	40.92396	-91.39366
5791277	9	3	0	-3.368936	-4.084282	346.3179	0	11.8	23755	0	0	5	5	0.02	0.0294327	1	10	0.08	2800	343.5392	40.92396	-91.39366
5791330	14	-1	-5	-3.369634	-4.08477	346.3188	0	11.8	23755	0	0	5	5	0.02	0.03958657	1	10	0.08	2800	343.6185	40.92396	-91.39366
5791446	11	7	2	-3.366299	-4.087419	346.3201	0	11.8	23755	0	0	5	5	0.02	0.04818804	1	10	0.08	2800	343.4192	40.92396	-91.39366
5791538	10	3	-2	-3.367092	-4.088712	346.3213	0	11.8	23755	0	0	5	5	0.02	0.06219477	1	10	0.08	2800	343.8719	40.92396	-91.39366
5791632	6	1	-1	-3.366308	-4.088689	346.3233	0	11.8	23755	0	0	5	5	0.02	0.06977874	1	10	0.08	2800	343.6229	40.92396	-91.39366
5791757	13	0	-1	-3.362051	-4.088476	346.3257	0	11.8	23755	0	0	5	5	0.02	0.06689395	1	10	0.08	2800	343.5517	40.92396	-91.39366
5791840	9	-1	0	-3.36103	-4.087846	346.326	0	11.8	23755	0	0	5	5	0.02	0.06632578	1	10	0.08	2800	344.011	40.92396	-91.39366
5791947	13	5	3	-3.360072	-4.088541	346.3275	0	11.8	23755	0	0	5	5	0.02	0.05205604	1	10	0.08	2800	343.2382	40.92396	-91.39366
5792027	10	-2	1	-3.358972	-4.086134	346.3285	0	11.8	23755	0	0	5	5	0.02	0.0483351	1	10	0.08	2800	343.2382	40.92396	-91.39366
5792136	6	-2	0	-3.359874	-4.083677	346.3307	0	11.85	23755	0	0	5	5	0.02	0.04727018	1	10	0.08	2800	343.5316	40.92396	-91.39366
5792234	11	-1	-5	-3.359542	-4.083288	346.3322	0	11.85	23755	0	0	5	5	0.02	0.04887248	1	10	0.08	2800	343.8105	40.92396	-91.39366
5792341	11	3	-3	-3.361369	-4.086403	346.3354	0	11.85	23755	0	0	5	5	0.02	0.06032325	1	10	0.08	2800	343.1957	40.92396	-91.39366
5792462	13	0	-3	-3.359078	-4.085712	346.341	0	11.85	23755	0	0	5	5	0.02	0.07415915	1	10	0.08	2800	343.8915	40.92396	-91.39366
5792529	13	2	-1	-3.358564	-4.086508	346.341	0	11.85	23755	0	0	5	5	0.02	0.07549266	1	10	0.08	2800	343.689	40.92396	-91.39366
5792668	12	0	0	-3.35407	-4.084996	346.3432	0	11.85	23755	0	0	5	5	0.02	0.0721499	1	10	0.08	2800	344.1039	40.92396	-91.39366
5792757	17	2	0	-3.352168	-4.085489	346.3449	0	11.85	23755	0	0	5	5	0.02	0.0737686	1	10	0.08	2800	344.0735	40.92396	-91.39366
5792866	15	4	0	-3.350701	-4.086114	346.3474	0	11.85	23755	0	0	5	5	0.02	0.06948573	1	10	0.08	2800	343.9539	40.92396	-91.39366
5792972	14	-3	-3	-3.344918	-4.086464	346.3496	0	11.85	23755	0	0	5	5	0.02	0.06640548	1	10	0.08	2800	343.6754	40.92396	-91.39366
5793061	13	-1	-1	-3.342867	-4.08609	346.3512	0	11.8	23755	0	0	5	5	0.02	0.06556523	1	10	0.08	2800	343.7698	40.92396	-91.39366
5793141	14	1	-1	-3.341856	-4.086618	346.3549	0	11.8	23755	0	0	5	5	0.02	0.06253411	1	10	0.08	2800	343.769	40.92396	-91.39366
5793229	11	0	0	-3.343865	-4.08597	346.3572	0	11.8	23755	0	0	5	5	0.02	0.05919782	1	10	0.08	2800	343.2021	40.92396	-91.39366
5793338	7	-1	-2	-3.343808	-4.084253	346.3602	0	11.8	23755	0	0	5	5	0.02	0.05807669	1	10	0.08	2800	343.2413	40.92396	-91.39366
5793440	13	2	-2	-3.34455	-4.083481	346.3645	0	11.8	23755	0	0	5	5	0.02	0.0524856	1	10	0.08	2800	343.8876	40.92396	-91.39366
5793592	12	0	-4	-3.348389	-4.084228	346.3672	0	11.8	23755	0	0	5	5	0.02	0.04082834	1	10	0.08	2800	343.5547	40.92396	-91.39366
5793683	11	-1	1	-3.349519	-4.084024	346.3683	0	11.8	23755	0	0	5	5	0.02	0.0193502	1	10	0.08	2800	343.1001	40.92396	-91.39366
5793741	11	-3	0	-3.35118	-4.083591	346.3705	0	11.8	23755	0	0	5	5	0.02	0.01418909	1	10	0.08	2800	344.0027	40.92396	-91.39366
5793900	12	0	-4	-3.352678	-4.086355	346.3763	0	11.8	23755	0	0	5	5	0.02	-0.01586105	1	10	0.08	2800	343.4232	40.92396	-91.39366
5794058	13	-4	-1	-3.351793	-4.08936	346.3791	0	11.8	23755	0	0	5	5	0.02	-0.01866223	1	10	0.08	2800	343.7473	40.92396	-91.39366
5794185	13	1	0	-3.349712	-4.086213	346.3803	0	11.8	23755	0	0	5	5	0.02	-0.01303822	1	10	0.08	2800	343.464	40.92396	-91.39366
5794289	11	0	-1	-3.348257	-4.086733	346.3824	0	11.8	23755	0	0	5	5	0.02	-0.007549436	1	10	0.08	2800	343.7523	40.92396	-91.39366
5794387	8	-1	0	-3.349813	-4.089952	346.3847	0	11.8	23755	0	0	5	5	0.02	-0.001303212	1	10	0.08	2800	343.8279	40.92396	-91.39366
5794458	12	3	-6	-3.34747	-4.090144	346.386	0	11.8	23755	0	0	5	5	0.02	0.006837254	1	10	0.08	2800	343.2272	40.92396	-91.39366
5794528	7	1	-3	-3.347506	-4.087401	346.3876	0	11.8	23755	0	0	5	5	0.02	0.01207041	1	10	0.08	2800	343.2272	40.92396	-91.39366
5794662	13	2	-3	-3.34361	-4.08868	346.3902	0	11.8	23755	0	0	5	5	0.02	0.01984293	1	10	0.08	2800	343.3897	40.92396	-91.39366
5794716	14	2	0	-3.343486	-4.091644	346.3921	0	11.8	23755	0	0	5	5	0.02	0.02230431	1	10	0.08	2800	343.4406	40.92396	-91.39366
5794842	16	2	0	-3.340314	-4.091946	346.3948	0	11.8	23755	0	0	5	5	0.02	0.02850533	1	10	0.08	2800	343.765	40.92396	-91.39366
5794988	12	0	-6	-3.338109	-4.092177	346.3999	0	11.8	23755	0	0	5	5	0.02	0.03834797	1	10	0.08	2800	343.7328	40.92396	-91.39366
5795103	8	0	-1	-3.337418	-4.094841	346.4034	0	11.8	23755	0	0	5	5	0.02	0.05684274	1	10	0.08	2800	343.5325	40.92396	-91.39366
5795134	8	4	0	-3.33818	-4.095554	346.4035	0	11.8	23755	0	0	5	5	0.02	0.06211443	1	10	0.08	2800	343.5325	40.92396	-91.39366
5795222	13	-6	-1	-3.338259	-4.093998	346.4051	0	11.8	23755	0	0	5	5	0.02	0.06099533	1	10	0.08	2800	343.4009	40.92396	-91.39366
5795332	10	4	-5	-3.33329	-4.094643	346.4083	0	11.8	23755	0	0	5	5	0.02	0.05465231	1	10	0.08	2800	343.4102	40.92396	-91.39366
5795455	11	1	0	-3.329954	-4.096868	346.4102	0	11.8	23755	0	0	5	5	0.02	0.04219876	1	10	0.08	2800	343.7059	40.92396	-91.39366
5795562	9	2	1	-3.329715	-4.097806	346.4132	0	11.8	23755	0	0	5	5	0.02	0.03427589	1	10	0.08	2800	344.0415	40.92396	-91.39366
5795620	8	0	-2	-3.328558	-4.097034	346.4158	0	11.8	23755	0	0	5	5	0.02	0.02934646	1	10	0.08	2800	344.0064	40.92396	-91.39366
5795739	15	7	0	-3.325555	-4.095128	346.419	0	11.8	23755	0	0	5	5	0.02	0.01593909	1	10	0.08	2800	343.5166	40.92396	-91.39366
5795828	15	4	-2	-3.321539	-4.096918	346.4202	0	11.8	23755	0	0	5	5	0.02	0.01304983	1	10	0.08	2800	343.2786	40.92396	-91.39366
5795918	18	-4	-1	-3.32032	-4.09843	346.422	0	11.8	23755	0	0	5	5	0.02	0.01154499	1	10	0.08	2800	343.5711	40.92396	-91.39366
5796016	9	-2	0	-3.318207	-4.098653	346.4237	0	11.8	23755	0	0	5	5	0.02	0.01485469	1	10	0.08	2800	343.5764	40.92396	-91.39366
5796143	13	2	-2	-3.315185	-4.096148	346.4259	0	11.8	23755	0	0	5	5	0.02	0.01328961	1	10	0.08	2800	343.5833	40.92396	-91.39366
5796222	10	2	-3	-3.315348	-4.094814	346.4278	0	11.8	23755	0	0	5	5	0.02	0.007636785	1	10	0.08	2800	343.5445	40.92396	-91.39366
5796301	12	2	0	-3.31308	-4.094974	346.4302	0	11.8	23755	0	0	5	5	0.02	0.01143375	1	10	0.08	2800	344.084	40.92396	-91.39366
5796453	10	4	-2	-3.313766	-4.096288	346.4325	0	11.8	23755	0	0	5	5	0.02	0.01648063	1	10	0.08	2800	344.2494	40.92396	-91.39366
5796503	13	-3	0	-3.314721	-4.094477	346.435	0	11.8	23755	0	0	5	5	0.02	0.01749214	1	10	0.08	2800	344.0384	40.92396	-91.39366
5796612	10	-3	-3	-3.313629	-4.094753	346.4369	0	11.8	23755	0	0	5	5	0.02	0.01503341	1	10	0.08	2800	344.2484	40.92396	-91.39366
5796743	11	-2	-1	-3.312699	-4.092843	346.4395	0	11.8	23755	0	0	5	5	0.02	0.004546541	1	10	0.08	2800	343.5487	40.92396	-91.39366
5796882	13	3	-1	-3.309343	-4.094493	346.4414	0	11.8	23755	0	0	5	5	0.02	-0.004162339	1	10	0.08	2800	343.6463	40.92396	-91.39366
5796969	9	-1	-1	-3.308737	-4.092602	346.4424	0	11.8	23755	0	0	5	5	0.02	-0.009605346	1	10	0.08	2800	343.8438	40.92396	-91.39366
5797058	12	0	0	-3.309207	-4.093076	346.4434	0	11.8	23755	0	0	5	5	0.02	-0.01343735	1	10	0.08	2800	343.6058	40.92396	-91.39366
5797113	14	-2	-1	-3.310397	-4.092964	346.444	0	11.8	23755	0	0	5	5	0.02	-0.01416843	1	10	0.08	2800	343.3165	40.92396	-91.39366
5797229	11	-2	-6	-3.309329	-4.093589	346.4476	0	11.8	23755	0	0	5	5	0.02	-0.003287478	1	10	0.08	2800	344.0132	40.92396	-91.39366
5797350	9	3	0	-3.310377	-4.093171	346.4495	0	11.8	23755	0	0	5	5	0.02	0.006936119	1	10	0.08	2800	343.8044	40.92396	-91.39366
5797500	10	-3	1	-3.310242	-4.094769	346.4524	0	11.8	23755	0	0	5	5	0.02	0.03605886	1	10	0.08	2800	343.9673	40.92396	-91.39366
5797561	14	-6	1	-3.311569	-4.095532	346.4525	0	11.74	23755	0	0	5	5	0.02	0.05051514	1	10	0.08	2800	343.9673	40.92396	-91.39366
5797644	14	3	-5	-3.31106	-4.096126	346.4554	0	11.74	23755	0	0	5	5	0.02	0.06618098	1	10	0.08	2800	343.8832	40.92396	-91.39366
5797751	12	1	0	-3.311413	-4.097296	346.4569	0	11.74	23755	0	0	5	5	0.02	0.07246806	1	10	0.08	2800	343.7162	40.92396	-91.39366
5797800	11	1	-5	-3.310921	-4.096889	346.4612	0	11.74	23755	0	0	5	5	0.02	0.07316002	1	10	0.08	2800	343.5942	40.92396	-91.39366
5797912	14	0	0	-3.306854	-4.098372	346.4644	0	11.74	23755	0	0	5	5	0.02	0.07453159	1	10	0.08	2800	343.3198	40.92396	-91.39366
5797993	14	1	-3	-3.30847	-4.098505	346.4675	0	11.74	23755	0	0	5	5	0.02	0.07584758	1	10	0.08	2800	342.9982	40.92396	-91.39366
5798118	14	-4	-1	-3.307043	-4.099614	346.4691	0	11.74	23755	0	0	5	5	0.02	0.07841117	1	10	0.08	2800	343.3637	40.92396	-91.39366
5798208	13	0	2	-3.305654	-4.096912	346.4698	0	11.74	23755	0	0	5	5	0.02	0.08648901	1	10	0.08	2800	344.0583	40.92396	-91.39366
5798309	15	-1	-1	-3.305425	-4.09766	346.4702	0	11.74	23755	0	0	5	5	0.02	0.09321591	1	10	0.08	2800	343.5691	40.92396	-91.39366
5798459	13	1	-2	-3.307514	-4.098108	346.4744	0	11.8	23755	0	0	5	5	0.02	0.09862971	1	10	0.08	2800	343.7676	40.92396	-91.39366
5798552	4	-9	-3	-3.305835	-4.097159	346.4776	0	11.8	23755	0	0	5	5	0.02	0.1089187	1	10	0.08	2800	343.1992	40.92396	-91.39366
5798591	17	-5	-3	-3.303249	-4.095651	346.4796	0	11.8	23755	0	0	5	5	0.02	0.1115286	1	10	0.08	2800	343.7756	40.92396	-91.39366
5798749	13	1	-2	-3.301699	-4.097033	346.4821	0	11.8	23755	0	0	5	5	0.02	0.124544	1	10	0.08	2800	343.5378	40.92396	-91.39366
5798805	12	-4	-2	-3.2988	-4.098209	346.4854	0	11.8	23755	0	0	5	5	0.02	0.1263077	1	10	0.08	2800	343.3842	40.92396	-91.39366
5798946	15	-4	-3	-3.298377	-4.098363	346.4889	0	11.8	23755	0	0	5	5	0.02	0.1314574	1	10	0.08	2800	343.344	40.92396	-91.39366
5799007	14	-1	2	-3.294834	-4.098658	346.491	0	11.8	23755	0	0	5	5	0.02	0.1248936	1	10	0.08	2800	343.8372	40.92396	-91.39366
5799123	15	-2	-1	-3.294068	-4.099727	346.4927	0	11.8	23755	0	0	5	5	0.02	0.1141755	1	10	0.08	2800	343.6394	40.92396	-91.39366
5799237	12	1	-2	-3.295052	-4.098728	346.4966	0	11.8	23755	0	0	5	5	0.02	0.1080469	1	10	0.08	2800	344.0043	40.92396	-91.39366
5799324	9	2	-1	-3.295514	-4.099059	346.4983	0	11.8	23755	0	0	5	5	0.02	0.1093623	1	10	0.08	2800	344.6258	40.92396	-91.39366
5799423	9	0	-5	-3.296964	-4.098614	346.5002	0	11.8	23755	0	0	5	5	0.02	0.1153226	1	10	0.08	2800	344.0803	40.92396	-91.39366
5799547	13	-2	-2	-3.292641	-4.099106	346.503	0	11.8	23755	0	0	5	5	0.02	0.116111	1	10	0.08	2800	343.7128	40.92396	-91.39366
5799615	17	0	4	-3.291406	-4.101714	346.5036	0	11.8	23755	0	0	5	5	0.02	0.1110263	1	10	0.08	2800	343.4465	40.92396	-91.39366
5799779	13	-2	-3	-3.289431	-4.104955	346.507	0	11.8	23755	0	0	5	5	0.02	0.1024477	1	10	0.08	2800	343.7256	40.92396	-91.39366
5799895	11	-2	-4	-3.288408	-4.104074	346.5131	0	11.8	23755	0	0	5	5	0.02	0.09837442	1	10	0.08	2800	343.8123	40.92396	-91.39366
5799989	15	-3	-3	-3.284951	-4.10175	346.5149	0	11.8	23755	0	0	5	5	0.02	0.09516823	1	10	0.08	2800	343.4148	40.92396	-91.39366
5800015	15	-3	-3	-3.284951	-4.10175	346.5149	0	11.8	23755	0	0	5	5	0.02	0.09216993	1	10	0.08	2800	343.4148	40.92396	-91.39366
5800145	15	7	-2	-3.284216	-4.098803	346.5174	0	11.8	23755	0	0	5	5	0.02	0.08490554	1	10	0.08	2800	344.1883	40.92396	-91.39366
5800290	13	-2	0	-3.282073	-4.097099	346.5212	0	11.8	23755	0	0	5	5	0.02	0.08148708	1	10	0.08	2800	343.8726	40.92396	-91.39366
5800367	12	3	1	-3.282178	-4.096884	346.5226	0	11.8	23755	0	0	5	5	0.02	0.08028409	1	10	0.08	2800	344.0787	40.92396	-91.39366
5800424	11	-4	-5	-3.284384	-4.095968	346.5224	0	11.8	23755	0	0	5	5	0.02	0.08011377	1	10	0.08	2800	343.7477	40.92396	-91.39366
5800534	15	0	4	-3.282666	-4.096989	346.5251	0	11.8	23755	0	0	5	5	0.02	0.07874113	1	10	0.08	2800	343.7469	40.92396	-91.39366
5800641	10	0	-1	-3.281156	-4.096579	346.5273	0	11.8	23755	0	0	5	5	0.02	0.07653077	1	10	0.08	2800	343.3841	40.92396	-91.39366
5800743	10	-4	0	-3.280357	-4.095223	346.529	0	11.8	23755	0	0	5	5	0.02	0.07730499	1	10	0.08	2800	343.9626	40.92396	-91.39366
5800830	11	2	-2	-3.278329	-4.098388	346.531	0	11.8	23755	0	0	5	5	0.02	0.07802122	1	10	0.08	2800	343.6359	40.92396	-91.39366
5800970	5	0	-6	-3.277521	-4.0993	346.5356	0	11.8	23755	0	0	5	5	0.02	0.07200928	1	10	0.08	2800	343.3943	40.92396	-91.39366
5801033	13	1	1	-3.278264	-4.099048	346.5365	0	11.8	23755	0	0	5	5	0.02	0.06787435	1	10	0.08	2800	343.5518	40.92396	-91.39366
5801156	10	2	0	-3.278251	-4.101063	346.5384	0	11.8	23755	0	0	5	5	0.02	0.0644199	1	10	0.08	2800	343.756	40.92396	-91.39366
5801254	18	1	-3	-3.277735	-4.105893	346.541	0	11.8	23755	0	0	5	5	0.02	0.06786145	1	10	0.08	2800	343.7962	40.92396	-91.39366
5801366	14	0	-3	-3.278577	-4.106857	346.5459	0	11.8	23755	0	0	5	5	0.02	0.07890303	1	10	0.08	2800	343.5872	40.92396	-91.39366
5801469	11	5	-2	-3.278807	-4.10505	346.5482	0	11.8	23755	0	0	5	5	0.02	0.09471124	1	10	0.08	2800	343.3478	40.92396	-91.39366
5801522	13	1	5	-3.279874	-4.106486	346.5482	0	11.8	23755	0	0	5	5	0.02	0.1027957	1	10	0.08	2800	343.7966	40.92396	-91.39366
5801700	12	3	0	-3.282054	-4.108767	346.5514	0	11.8	23755	0	0	5	5	0.02	0.1247746	1	10	0.08	2800	343.3754	40.92396	-91.39366
5801749	13	2	0	-3.281358	-4.110409	346.5523	0	11.8	23755	0	0	5	5	0.02	0.131175	1	10	0.08	2800	343.3767	40.92396	-91.39366
5801829	13	-3	1	-3.280664	-4.109667	346.5551	0	11.8	23755	0	0	5	5	0.02	0.1381521	1	10	0.08	2800	343.9875	40.92396	-91.39366
5801945	15	-3	-3	-3.280563	-4.108038	346.5579	0	11.8	23755	0	0	5	5	0.02	0.1704846	1	10	0.08	2800	343.8263	40.92396	-91.39366
5802032	11	0	-3	-3.278898	-4.106476	346.561	0	11.8	23755	0	0	5	5	0.02	0.1923625	1	10	0.08	2800	343.6246	40.92396	-91.39366
5802135	11	6	0	-3.276733	-4.107102	346.5627	0	11.8	23755	0	0	5	5	0.02	0.1997008	1	10	0.08	2800	344.4133	40.92396	-91.39366
5802258	13	0	-1	-3.273729	-4.108496	346.5681	0	11.8	23755	0	0	5	5	0.02	0.2137821	1	10	0.08	2800	343.9242	40.92396	-91.39366
5802361	11	3	-3	-3.278337	-4.108328	346.5702	0	11.8	23755	0	0	5	5	0.02	0.2181811	1	10	0.08	2800	343.7188	40.92396	-91.39366
5802476	14	0	0	-3.278076	-4.107834	346.5733	0	11.8	23755	0	0	5	5	0.02	0.2101292	1	10	0.08	2800	343.9148	40.92396	-91.39366
5802618	15	7	0	-3.276391	-4.106425	346.5733	0	11.8	23755	0	0	5	5	0.02	0.1964513	1	10	0.08	2800	343.7166	40.92396	-91.39366
5802670	13	-2	-2	-3.276286	-4.105996	346.5747	0	11.8	23755	0	0	5	5	0.02	0.1886353	1	10	0.08	2800	343.7166	40.92396	-91.39366
5802748	14	0	-5	-3.274748	-4.10887	346.5768	0	11.8	23755	0	0	5	5	0.02	0.1821732	1	10	0.08	2800	343.4344	40.92396	-91.39366
5802833	14	1	-4	-3.273119	-4.106993	346.5782	0	11.8	23755	0	0	5	5	0.02	0.1658381	1	10	0.08	2800	343.5982	40.92396	-91.39366
5802927	9	-2	0	-3.27375	-4.10753	346.5805	0	11.8	23755	0	0	5	5	0.02	0.1603978	1	10	0.08	2800	343.641	40.92396	-91.39366
5803032	19	1	-8	-3.275017	-4.105628	346.583	0	11.8	23755	0	0	5	5	0.02	0.1584707	1	10	0.08	2800	344.0912	40.92396	-91.39366
5803095	20	2	-2	-3.27462	-4.106987	346.5826	0	11.8	23755	0	0	5	5	0.02	0.159691	1	10	0.08	2800	344.0048	40.92396	-91.39366
5803204	13	0	0	-3.272685	-4.107742	346.5865	0	11.8	23755	0	0	5	5	0.02	0.1583881	1	10	0.08	2800	344.0138	40.92396	-91.39366
5803339	15	-1	3	-3.270147	-4.111239	346.5899	0	11.8	23755	0	0	5	5	0.02	0.1489894	1	10	0.08	2800	343.971	40.92396	-91.39366
5803422	7	1	-2	-3.272379	-4.108491	346.5913	0	11.8	23755	0	0	5	5	0.02	0.1426174	1	10	0.08	2800	343.725	40.92396	-91.39366
5803495	12	4	-2	-3.271909	-4.109139	346.5947	0	11.8	23755	0	0	5	5	0.02	0.1256163	1	10	0.08	2800	343.6445	40.92396	-91.39366
5803598	13	-9	-3	-3.271927	-4.111525	346.5962	0	11.8	23755	0	0	5	5	0.02	0.1126762	1	10	0.08	2800	344.2646	40.92396	-91.39366
5803690	8	3	-1	-3.271039	-4.109701	346.5992	0	11.8	23755	0	0	5	5	0.02	0.1029789	1	10	0.08	2800	344.1833	40.92396	-91.39366
5803822	10	2	0	-3.266515	-4.11193	346.6012	0	11.8	23755	0	0	5	5	0.02	0.08782609	1	10	0.08	2800	343.6555	40.92396	-91.39366
5803890	12	3	-7	-3.264288	-4.111394	346.6057	0	11.8	23755	0	0	5	5	0.02	0.07885285	1	10	0.08	2800	343.5754	40.92396	-91.39366
5804077	12	2	0	-3.263954	-4.113276	346.6085	0	11.85	23755	0	0	5	5	0.02	0.0709198	3	10	0.08	2800	344.4417	40.92396	-91.39365
5804144	16	-5	-1	-3.263049	-4.110211	346.6106	0	11.85	23755	0	0	5	5	0.02	0.07431347	3	10	0.08	2800	344.1138	40.92396	-91.39365
5804222	13	-4	-1	-3.263359	-4.112141	346.6122	0	11.85	23755	0	0	5	5	0.02	0.07628956	3	10	0.08	2800	344.0732	40.92396	-91.39365
5804370	12	2	-1	-3.261101	-4.115363	346.6148	0	11.85	23755	0	0	5	5	0.02	0.08136149	3	10	0.08	2800	343.4227	40.92396	-91.39365
5804426	13	0	-3	-3.263317	-4.114284	346.6171	0	11.85	23755	0	0	5	5	0.02	0.08116411	3	10	0.08	2800	343.7074	40.92396	-91.39365
5804531	10	3	3	-3.257225	-4.111342	346.6223	0	11.85	23755	0	0	5	5	0.02	0.07356221	3	10	0.08	2800	343.1046	40.92396	-91.39365
5804624	11	2	1	-3.255442	-4.111126	346.623	0	11.85	23755	0	0	5	5	0.02	0.06940106	1	10	0.08	2800	343.3959	40.92396	-91.39365
5804730	19	-4	-1	-3.252435	-4.109401	346.6235	0	11.85	23755	0	0	5	5	0.02	0.06805309	1	10	0.08	2800	343.4465	40.92396	-91.39365
5804785	16	1	-2	-3.252267	-4.108949	346.6247	0	11.85	23755	0	0	5	5	0.02	0.07015768	1	10	0.08	2800	343.4465	40.92396	-91.39365
5804893	16	1	-7	-3.249035	-4.107585	346.6286	0	11.8	23755	0	0	5	5	0.02	0.07344249	3	10	0.08	2800	344.1483	40.92396	-91.39365
5805011	12	0	-1	-3.250326	-4.105922	346.631	0	11.8	23755	0	0	5	5	0.02	0.07239816	3	10	0.08	2800	343.9511	40.92396	-91.39365
5805128	14	0	-3	-3.248971	-4.10566	346.6338	0	11.8	23755	0	0	5	5	0.02	0.0693744	3	10	0.08	2800	343.8253	40.92396	-91.39365
5805223	12	-4	0	-3.249104	-4.104299	346.6353	0	11.8	23755	0	0	5	5	0.02	0.06801421	3	10	0.08	2800	343.8319	40.92396	-91.39365
5805412	15	-4	-1	-3.247078	-4.104965	346.639	0	11.8	23755	0	0	5	5	0.02	0.07206807	3	10	0.08	2800	344.0366	40.92396	-91.39365
