time(ms)	gyro_x(deg/s)	gyro_y(deg/s)	gyro_z(deg/s)	orientation_roll(deg)	orientation_pitch(deg)	orientation_yaw(deg)	throttle	battery(V)	loop_time(uS)	pid_output_roll	pid_output_pitch	pid_output_yaw	pid_output_throttle	ultrasonic_alt	baro_alt	flight_mode	p_gain_altitude	i_gain_altitude	d_gain_altitude	compass_heading	latitude	longitude
63055	1204	-5331	485	-3.218307	-9.558338	334.786	0	11.4	20026	9	95	5	5	0.02	2.30201	8	10	0.08	2800	344.3202	40.92395	-91.39365
63113	43	-6701	-96	-3.216314	-5.923084	334.8908	0	11.4	20033	11	100	5	5	0.02	2.304258	8	10	0.08	2800	344.3202	40.92395	-91.39365
63254	1767	-722	-427	-1.379717	4.463006	335.2243	0	11.4	20019	-2	81	5	5	0.02	2.301471	8	10	0.08	2800	337.9992	40.92394	-91.39365
63322	-4215	966	663	-2.290284	3.226767	334.5834	0	11.57	20052	-1	82	5	5	0.02	2.298682	8	10	0.08	2800	335.802	40.92394	-91.39365
63418	-3829	-977	799	-6.38855	3.318844	333.839	0	11.57	20036	3	87	5	5	0.02	2.299745	8	10	0.08	2800	335.9536	40.92394	-91.39365
63568	2408	1386	265	-6.302681	4.82423	333.4724	0	11.57	20020	0	0	5	5	0.02	2.312586	3	10	0.08	2800	336.4267	40.92394	-91.39365
63588	865	1473	12	-5.601258	3.923144	333.4238	0	11.57	20020	0	0	5	5	0.02	2.312586	3	10	0.08	2800	336.4267	40.92394	-91.39365
63690	632	1752	-532	-5.240786	0.7225319	334.0466	0	11.57	20020	0	0	5	5	0.02	2.31808	3	10	0.08	2800	338.3187	40.92394	-91.39365
63835	-3101	3462	-940	-10.60463	-4.437128	334.5439	0	11.57	20020	0	0	5	5	0.02	2.317221	3	10	0.08	2800	341.8973	40.92394	-91.39365
63907	1348	4457	-1245	-10.65356	-8.533883	347.7549	0	11.57	20020	0	0	5	5	0.02	2.31354	3	10	0.08	2800	347.5819	40.92394	-91.39365
64064	497	767	-1083	-7.642014	-12.26929	351.7185	0	11.57	20020	0	0	5	5	0.02	2.278021	3	10	0.08	2800	355.9081	40.92393	-91.39365
64119	-752	-289	-1089	-7.588613	-11.73618	352.248	0	11.57	20020	0	0	5	5	0.02	2.272406	3	10	0.08	2800	355.9081	40.92393	-91.39365
64256	3607	-3940	83	-4.21849	-4.035262	353.5118	0	11.85	20020	0	0	5	5	0.02	2.24507	3	10	0.08	2800	358.0195	40.92393	-91.39365
64322	-465	-1176	889	-2.757862	-0.69704	352.9329	0	11.85	20020	0	0	5	5	0.02	2.209173	3	10	0.08	2800	354.1852	40.92393	-91.39365
64518	1438	-5086	713	-3.208088	10.40181	352.0013	0	11.85	20020	0	0	5	5	0.02	2.140516	3	10	0.08	2800	349.4518	40.92393	-91.39365
64568	1614	428	-101	-0.4629636	12.6423	351.564	0	11.85	20020	0	0	5	5	0.02	2.111139	3	10	0.08	2800	347.2076	40.92393	-91.39365
64629	918	4534	1294	1.15568	8.486751	350.6288	0	11.85	20020	0	0	5	5	0.02	2.081681	3	10	0.08	2800	343.5709	40.92393	-91.39365
64749	-983	2441	239	0.3856564	4.047829	349.8401	0	11.85	20020	0	0	5	5	0.02	2.023843	3	10	0.08	2800	343.8841	40.92393	-91.39365
64911	-1685	921	215	-3.847612	3.235716	348.558	0	11.85	20020	0	0	5	5	0.02	1.954007	3	10	0.08	2800	343.3719	40.92393	-91.39365
64974	3460	1515	133	-1.817365	1.419059	348.3022	0	11.85	20020	0	0	5	5	0.02	1.919891	3	10	0.08	2800	341.2488	40.92393	-91.39365
65061	-3308	-1194	398	0.9947219	0.6095401	348.462	0	11.85	20020	0	0	5	5	0.02	1.855575	3	10	0.08	2800	342.7076	40.92393	-91.39365
65152	-4287	-1721	-51	-9.178798	3.938479	349.0039	0	11.85	20020	0	0	5	5	0.02	1.832587	3	10	0.08	2800	341.4326	40.92393	-91.39365
65235	-1109	-560	972	-10.63746	5.237277	349.1805	0	11.68	20020	0	0	5	5	0.02	1.774796	3	10	0.08	2800	342.5758	40.92393	-91.39365
65344	-1953	759	1532	-11.65248	4.031908	349.2969	0	11.68	20020	0	0	5	5	0.02	1.722656	3	10	0.08	2800	342.4663	40.92393	-91.39365
65499	-202	-92	123	-12.81129	3.574291	348.7475	0	11.68	20020	0	0	5	5	0.02	1.64018	3	10	0.08	2800	345.5313	40.92394	-91.39365
65535	-89	-682	414	-12.18875	3.774162	347.8385	0	11.68	20020	0	0	5	5	0.02	1.629759	3	10	0.08	2800	345.3423	40.92394	-91.39365
65654	3134	88	559	-7.017458	3.153613	346.8175	0	11.68	20020	0	0	5	5	0.02	1.577529	3	10	0.08	2800	345.4255	40.92394	-91.39365
65743	-897	68	120	-5.679657	2.878012	345.6887	0	11.68	20020	0	0	5	5	0.02	1.521425	3	10	0.08	2800	341.0178	40.92394	-91.39365
65837	2827	1417	251	-4.255122	2.153174	345.1789	0	11.68	20020	0	0	5	5	0.02	1.49119	3	10	0.08	2800	342.3578	40.92394	-91.39365
65959	-168	-1008	832	-0.1353967	-1.06761	344.0013	0	11.68	20020	0	0	5	5	0.02	1.444285	3	10	0.08	2800	342.2022	40.92394	-91.39365
66038	-458	-1581	-1033	-0.6097323	1.058109	344.5016	0	11.68	20020	0	0	5	5	0.02	1.425981	3	10	0.08	2800	340.5455	40.92394	-91.39365
66155	-1537	136	44	-1.14466	1.703683	345.2386	0	11.46	20020	0	0	5	5	0.02	1.384419	3	10	0.08	2800	341.3263	40.92394	-91.39365
66400	-4510	-3079	-1765	-10.12879	5.510077	347.8996	0	11.46	20020	0	0	5	5	0.02	1.305832	3	10	0.08	2800	339.7757	40.92394	-91.39365
66556	-653	-833	-487	-12.76073	6.35296	349.8618	0	11.46	20020	0	0	5	5	0.02	1.263359	3	10	0.08	2800	343.612	40.92394	-91.39365
66602	726	579	-1775	-12.11348	6.307583	350.331	0	11.46	20020	0	0	5	5	0.02	1.243113	3	10	0.08	2800	347.3678	40.92394	-91.39365
66732	-3577	-1562	92	-11.87622	3.895543	351.1624	0	11.46	20020	0	0	5	5	0.02	1.218349	3	10	0.08	2800	348.0697	40.92394	-91.39365
66797	-2388	-4453	-326	-14.93445	7.315112	351.5157	0	11.46	20020	0	0	5	5	0.02	1.20562	3	10	0.08	2800	350.7183	40.92395	-91.39365
66846	810	-3668	763	-15.44841	12.42887	351.3504	0	11.46	20020	0	0	5	5	0.02	1.200865	3	10	0.08	2800	351.3385	40.92395	-91.39365
66952	-74	796	854	-15.24058	13.67074	350.8778	0	11.46	20020	0	0	5	5	0.02	1.210008	3	10	0.08	2800	346.0077	40.92395	-91.39365
67076	-671	-2436	338	-15.12287	13.07927	351.4583	0	11.51	20020	0	0	5	5	0.02	1.223184	3	10	0.08	2800	349.2138	40.92395	-91.39365
67136	-3149	-2459	17	-17.29811	15.8774	351.1773	0	11.51	20020	0	0	5	5	0.02	1.22685	3	10	0.08	2800	346.3276	40.92395	-91.39365
67353	5042	3212	1424	-7.171884	2.776254	347.7385	0	11.51	20020	0	0	5	5	0.02	1.239378	3	10	0.08	2800	348.6154	40.92395	-91.39365
67459	684	-527	-92	-4.929867	2.275859	345.9404	0	11.51	20020	0	0	5	5	0.02	1.248453	3	10	0.08	2800	350.2173	40.92395	-91.39365
67549	3111	607	39	-2.319105	2.047253	345.7509	0	11.51	20020	0	0	5	5	0.02	1.262914	3	10	0.08	2800	349.1292	40.92395	-91.39365
67695	1471	-1040	-125	4.196203	1.2608	345.4395	0	11.51	20020	0	0	5	5	0.02	1.273949	3	10	0.08	2800	348.8632	40.92395	-91.39365
67752	2822	-1157	-75	5.738628	2.471195	345.7274	0	11.51	20020	0	0	5	5	0.02	1.275354	3	10	0.08	2800	346.5454	40.92395	-91.39365
67870	1685	2016	466	12.06921	3.001224	345.8513	0	11.51	20020	0	0	5	5	0.02	1.264174	3	10	0.08	2800	342.1896	40.92395	-91.39365
67995	-84	1577	1046	13.40966	-1.620138	345.4359	0	11.29	20020	0	0	5	5	0.02	1.245028	3	10	0.08	2800	341.9639	40.92395	-91.39365
68064	-551	-341	-302	9.787477	-2.722153	345.4109	0	11.29	20020	0	0	5	5	0.02	1.229542	3	10	0.08	2800	337.467	40.92395	-91.39366
68182	5279	676	-2223	12.33465	-1.885222	335.578	0	11.29	20020	0	0	5	5	0.02	1.198266	3	10	0.08	2800	334.9105	40.92395	-91.39366
68272	347	-1359	-1884	16.81584	-1.936406	337.5326	0	11.29	20020	0	0	5	5	0.02	1.170062	3	10	0.08	2800	336.4652	40.92395	-91.39367
68375	-1070	-436	-1725	14.65281	0.3769384	339.7609	0	11.29	20020	0	0	5	5	0.02	1.150976	3	10	0.08	2800	339.0055	40.92395	-91.39367
68472	-847	511	-475	13.10662	-0.3069624	340.7129	0	11.29	20020	0	0	5	5	0.02	1.136599	3	10	0.08	2800	336.5235	40.92395	-91.39367
68564	224	-2440	163	12.73354	-0.9866039	341.9477	0	11.29	20020	0	0	5	5	0.02	1.13107	3	10	0.08	2800	336.4674	40.92395	-91.39367
68679	-4760	-2546	-634	10.37681	2.092021	343.0048	0	11.29	20020	0	0	5	5	0.02	1.12759	3	10	0.08	2800	336.7088	40.92395	-91.39366
68773	-2113	-2655	1345	3.732499	8.847832	343.1714	0	11.29	20020	0	0	5	5	0.02	1.142025	3	10	0.08	2800	336.575	40.92395	-91.39366
68883	-4362	1742	-243	-0.2394292	9.034785	342.6613	0	11.29	20020	0	0	5	5	0.02	1.179983	3	10	0.08	2800	333.8001	40.92395	-91.39366
68975	-2693	1640	98	-9.99471	2.925621	331.553	0	11.46	20020	0	0	5	5	0.02	1.21636	3	10	0.08	2800	334.3141	40.92395	-91.39366
69086	-1594	442	-11	-12.06187	1.598037	331.2328	0	11.46	20020	0	0	5	5	0.02	1.271991	3	10	0.08	2800	338.0823	40.92395	-91.39365
69197	-6108	-1455	411	-18.75975	2.385222	330.49	0	11.46	20020	0	0	5	5	0.02	1.296976	3	10	0.08	2800	337.155	40.92395	-91.39365
69283	-975	21	521	-23.47978	4.214906	330.0246	0	11.46	20020	0	0	5	5	0.02	1.317205	3	10	0.08	2800	337.0255	40.92395	-91.39365
69407	2488	658	336	-27.11827	-0.6734375	339.1063	0	11.46	20020	0	0	5	5	0.02	1.354371	3	10	0.08	2800	345.5124	40.92395	-91.39365
69486	-893	973	1287	-25.65465	-1.928178	338.535	0	11.46	20020	0	0	5	5	0.02	1.371986	3	10	0.08	2800	347.94	40.92395	-91.39365
69635	780	-2224	523	-25.31203	-0.3098482	352.4267	0	11.46	20020	0	0	5	5	0.02	1.402666	3	10	0.08	2800	354.8253	40.92395	-91.39365
69717	2241	-1047	557	-22.8679	1.383766	352.4426	0	11.46	20020	0	0	5	5	0.02	1.40768	3	10	0.08	2800	355.2723	40.92395	-91.39365
69858	6367	694	-1046	-13.04026	1.222894	353.6975	0	11.63	20020	0	0	5	5	0.02	1.413051	3	10	0.08	2800	356.0603	40.92395	-91.39365
69914	4054	-1368	-296	-4.103681	3.187683	354.8092	0	11.63	20020	0	0	5	5	0.02	1.412206	3	10	0.08	2800	357.9644	40.92395	-91.39365
70024	1304	-1766	-504	-0.8108615	6.454388	355.313	0	11.63	20020	0	0	5	5	0.02	1.408338	3	10	0.08	2800	356.2693	40.92394	-91.39365
70116	4236	-418	915	2.149523	10.6968	355.3182	0	11.63	20020	0	0	5	5	0.02	1.413361	3	10	0.08	2800	354.5091	40.92394	-91.39365
70304	-2450	322	-307	2.236155	3.471138	353.0592	0	11.63	20020	0	0	5	5	0.02	1.416297	3	10	0.08	2800	348.1754	40.92394	-91.39365
70383	168	-157	162	1.763832	3.514681	352.8986	0	11.63	20020	0	0	5	5	0.02	1.416721	3	10	0.08	2800	348.004	40.92394	-91.39365
70478	-1655	1221	1063	-1.705406	2.686298	351.2598	0	11.63	20020	0	0	5	5	0.02	1.416961	3	10	0.08	2800	348.5266	40.92394	-91.39365
70529	4640	2606	817	-0.3917082	0.9141937	350.3565	0	11.63	20020	0	0	5	5	0.02	1.414873	3	10	0.08	2800	347.144	40.92394	-91.39365
70621	5216	2906	-56	5.963034	-2.254327	349.9202	0	11.63	20020	0	0	5	5	0.02	1.406389	3	10	0.08	2800	347.838	40.92394	-91.39365
70733	-1094	3889	196	10.87388	-9.211465	349.7855	0	11.63	20020	0	0	5	5	0.02	1.392951	3	10	0.08	2800	343.7231	40.92394	-91.39365
70817	-786	4412	138	9.068714	-13.38423	349.6494	0	11.57	20020	0	0	5	5	0.02	1.355975	3	10	0.08	2800	343.9188	40.92394	-91.39365
70925	-3697	-3000	-680	4.871387	-16.47761	349.2526	0	11.57	20020	0	0	5	5	0.02	1.308241	3	10	0.08	2800	342.2169	40.92394	-91.39365
71019	-6181	-5817	-917	-0.1671943	-10.41899	349.5532	0	11.57	20020	0	0	5	5	0.02	1.287283	3	10	0.08	2800	342.9818	40.92394	-91.39365
71153	-1630	-119	-1875	0.06887691	-3.438153	341.4286	0	11.57	20020	0	0	5	5	0.02	1.250023	3	10	0.08	2800	341.2552	40.92394	-91.39365
71305	-9498	-7089	-773	-12.6929	6.591543	344.2351	0	11.57	20020	0	0	5	5	0.02	1.197703	3	10	0.08	2800	344.2885	40.92394	-91.39365
71347	-612	-5117	-855	-18.03786	13.71439	345.7258	0	11.57	20020	0	0	5	5	0.02	1.183725	3	10	0.08	2800	339.9998	40.92394	-91.39365
71486	713	1784	1153	-18.07047	14.49209	344.938	0	11.57	20020	0	0	5	5	0.02	1.15158	3	10	0.08	2800	339.3714	40.92394	-91.39365
71538	1404	3476	417	-17.87856	12.72571	344.572	0	11.57	20020	0	0	5	5	0.02	1.125491	3	10	0.08	2800	338.579	40.92394	-91.39365
71690	2788	182	405	-4.456495	1.92522	343.025	0	11.51	20020	0	0	5	5	0.02	1.06944	3	10	0.08	2800	344.5342	40.92394	-91.39365
71786	791	-544	3	-3.945248	2.772197	343.1407	0	11.51	20020	0	0	5	5	0.02	1.031902	3	10	0.08	2800	344.9683	40.92394	-91.39365
71835	1475	4233	28	-0.693402	-0.5098289	343.214	0	11.51	20020	0	0	5	5	0.02	1.022206	3	10	0.08	2800	346.1777	40.92394	-91.39365
71939	1692	1675	42	2.371509	-6.117849	343.696	0	11.51	20020	0	0	5	5	0.02	0.9584311	3	10	0.08	2800	349.8525	40.92394	-91.39365
72059	-145	-53	-405	3.926183	-5.431731	344.5822	0	11.51	20020	0	0	5	5	0.02	0.9002863	3	10	0.08	2800	350.2079	40.92394	-91.39365
72134	-2779	-488	-248	3.221604	-5.174043	344.6243	0	11.51	20020	0	0	5	5	0.02	0.8561666	3	10	0.08	2800	350.2079	40.92394	-91.39365
72239	-1499	-2165	164	0.4329309	-2.43371	345.04	0	11.51	20020	0	0	5	5	0.02	0.8123467	3	10	0.08	2800	349.8058	40.92394	-91.39365
72351	-2271	-1389	-329	-5.357831	1.311544	345.0905	0	11.51	20020	0	0	5	5	0.02	0.7469701	3	10	0.08	2800	349.3834	40.92394	-91.39365
72435	-4354	-129	-123	-9.72515	2.837443	345.6378	0	11.51	20020	0	0	5	5	0.02	0.7234373	3	10	0.08	2800	347.5631	40.92394	-91.39365
72553	2020	229	-511	-9.462073	0.6794139	346.4399	0	11.51	20020	0	0	5	5	0.02	0.6660011	3	10	0.08	2800	350.2368	40.92394	-91.39365
72679	2573	223	552	-5.453675	1.227912	346.3777	0	11.51	20020	0	0	5	5	0.02	0.6157725	3	10	0.08	2800	351.3306	40.92394	-91.39365
72748	-226	1571	-906	-2.855813	-0.138842	346.0283	0	11.51	20020	0	0	5	5	0.02	0.5850185	3	10	0.08	2800	350.6718	40.92394	-91.39365
72854	-1124	-125	307	-1.546512	-0.0262207	345.2243	0	11.51	20020	0	0	5	5	0.02	0.5658048	3	10	0.08	2800	349.1069	40.92394	-91.39365
72955	2540	-544	-142	-1.480519	0.7493426	343.9292	0	11.51	20020	0	0	5	5	0.02	0.5203432	3	10	0.08	2800	348.9329	40.92394	-91.39365
73040	1331	104	-65	1.094017	0.6152431	343.3082	0	11.51	20020	0	0	5	5	0.02	0.5033156	3	10	0.08	2800	348.6186	40.92394	-91.39365
73154	-1177	693	1270	0.7366083	-0.1814136	342.0175	0	11.51	20020	0	0	5	5	0.02	0.4685445	3	10	0.08	2800	344.777	40.92395	-91.39365
73229	60	959	271	0.4286876	-0.47652	340.7145	0	11.51	20020	0	0	5	5	0.02	0.4281561	3	10	0.08	2800	342.942	40.92395	-91.39365
73341	-952	-1059	7	0.3439148	-0.3483366	339.955	0	11.51	20020	0	0	5	5	0.02	0.3871105	3	10	0.08	2800	341.2633	40.92395	-91.39365
73430	-2910	-3646	126	-1.667503	3.9625	339.6775	0	11.51	20020	0	0	5	5	0.02	0.3470936	3	10	0.08	2800	339.4993	40.92395	-91.39365
73540	-1801	252	175	-7.346868	7.357225	339.698	0	11.74	20020	0	0	5	5	0.02	0.3067076	3	10	0.08	2800	337.0236	40.92395	-91.39365
73638	-385	958	-213	-7.620535	6.338492	339.6274	0	11.74	20020	0	0	5	5	0.02	0.284266	3	10	0.08	2800	337.0236	40.92395	-91.39365
73752	-1827	715	607	-9.920391	4.108863	339.2521	0	11.74	20020	0	0	5	5	0.02	0.2650553	3	10	0.08	2800	338.416	40.92395	-91.39365
73846	-1765	2097	151	-11.68571	2.881738	339.2206	0	11.74	20020	0	0	5	5	0.02	0.2483766	3	10	0.08	2800	338.8529	40.92395	-91.39365
73961	2076	-171	291	-10.61088	0.9239341	339.131	0	11.74	20020	0	0	5	5	0.02	0.2229673	3	10	0.08	2800	342.0148	40.92395	-91.39365
74082	2056	1915	464	-4.340918	0.2260123	338.6231	0	11.74	20020	0	0	5	5	0.02	0.2031567	3	10	0.08	2800	341.0658	40.92395	-91.39365
74179	2269	971	914	-2.256149	-1.328918	337.904	0	11.74	20020	0	0	5	5	0.02	0.1914588	3	10	0.08	2800	340.3887	40.92396	-91.39365
74331	-1515	-880	-343	-3.217878	1.294653	337.5571	0	11.74	20020	0	0	5	5	0.02	0.18062	3	10	0.08	2800	340.4555	40.92396	-91.39365
74401	1751	316	703	-2.896765	1.769493	337.4094	0	11.74	20020	0	0	5	5	0.02	0.1738589	3	10	0.08	2800	338.9037	40.92396	-91.39365
74523	1523	1978	267	0.5209287	0.6266986	337.1613	0	11.57	20020	0	0	5	5	0.02	0.1631701	3	10	0.08	2800	337.3257	40.92396	-91.39365
74629	-939	4121	-194	0.3954009	-6.130326	336.3716	0	11.57	20020	0	0	5	5	0.02	0.149115	3	10	0.08	2800	339.835	40.92396	-91.39365
74780	1702	9218	-2396	-8.004408	-41.54382	356.4066	0	11.57	20020	0	0	5	5	0.02	0.1099551	3	10	0.08	2800	3.914307	40.92396	-91.39365
74860	1063	-102	6233	-6.53147	-48.52701	14.06551	0	11.57	20020	0	0	5	5	0.02	0.06092102	3	10	0.08	2800	16.51282	40.92396	-91.39365
74936	-123	-6086	-408	-0.8540806	-45.05999	9.361403	0	11.57	20020	0	0	5	5	0.02	0.04399732	3	10	0.08	2800	3.273651	40.92397	-91.39365
75045	78	-10523	695	-1.186389	-37.35195	9.143112	0	11.57	20020	0	0	5	5	0.02	-0.007070073	3	10	0.08	2800	1.061066	40.92397	-91.39365
75123	-620	-14813	-1253	-1.057372	-19.15579	354.6849	0	11.57	20020	0	0	5	5	0.02	-0.03034628	3	10	0.08	2800	353.949	40.92397	-91.39365
75195	-443	-3802	140	-2.506325	4.502108	339.9373	0	11.57	20020	0	0	5	5	0.02	-0.05849232	3	10	0.08	2800	339.9445	40.92397	-91.39365
75256	146	3656	102	-2.571802	5.398131	339.9232	0	11.57	20020	0	0	5	5	0.02	-0.08075511	3	10	0.08	2800	339.9445	40.92397	-91.39365
75391	-99	-354	-54	-2.091163	2.275802	339.8549	0	11.63	20020	0	0	5	5	0.02	-0.1162338	3	10	0.08	2800	340.6563	40.92397	-91.39365
75596	-21	-27	-1	-2.091374	1.878528	339.8355	0	11.63	20020	0	0	5	5	0.02	-0.159137	3	10	0.08	2800	339.8884	40.92397	-91.39365
75751	-47	13	3	-2.097496	1.647213	339.8259	0	11.63	20020	0	0	5	5	0.02	-0.1812684	3	10	0.08	2800	340.454	40.92397	-91.39365
75844	-32	4	5	-2.101425	1.469326	339.8206	0	11.63	20020	0	0	5	5	0.02	-0.187451	3	10	0.08	2800	340.5614	40.92397	-91.39365
75998	-36	2	7	-2.102797	1.307377	339.8121	0	11.63	20020	0	0	5	5	0.02	-0.2034991	1	10	0.08	2800	339.58	40.92397	-91.39365
76053	-39	2	1	-2.103944	1.267941	339.8095	0	11.63	20020	0	0	5	5	0.02	-0.2093757	1	10	0.08	2800	339.6276	40.92397	-91.39365
76220	-37	0	0	-2.106277	1.082104	339.802	0	11.63	20020	0	0	5	5	0.02	-0.2090242	1	10	0.08	2800	339.2473	40.92397	-91.39365
76304	-45	1	3	-2.107121	1.01183	339.7982	0	11.68	20020	0	0	5	5	0.02	-0.2025577	1	10	0.08	2800	339.1574	40.92397	-91.39365
76341	-38	4	4	-2.107948	0.945038	339.7957	0	11.68	20020	0	0	5	5	0.02	-0.1958655	1	10	0.08	2800	339.4777	40.92397	-91.39365
76458	-39	1	-5	-2.105369	0.8497392	339.7931	0	11.68	20020	0	0	5	5	0.02	-0.1872111	1	10	0.08	2800	339.0633	40.92397	-91.39365
76572	-36	5	6	-2.104094	0.6999441	339.7878	0	11.68	20020	0	0	5	5	0.02	-0.1876323	1	10	0.08	2800	339.1393	40.92397	-91.39365
76658	-38	5	1	-2.103311	0.6466676	339.7862	0	11.68	20020	0	0	5	5	0.02	-0.1944015	1	10	0.08	2800	338.9695	40.92397	-91.39365
76766	-38	-1	1	-2.105236	0.5401961	339.7788	0	11.68	20020	0	0	5	5	0.02	-0.2049173	1	10	0.08	2800	338.9193	40.92397	-91.39365
76916	-36	0	4	-2.103402	0.4674312	339.7757	0	11.68	20020	0	0	5	5	0.02	-0.2326562	1	10	0.08	2800	338.9443	40.92397	-91.39365
77027	-39	-7	-1	-2.102638	0.3694035	339.7702	0	11.68	20020	0	0	5	5	0.02	-0.2487898	1	10	0.08	2800	338.9478	40.92397	-91.39365
77076	-33	4	1	-2.101354	0.3473612	339.7698	0	11.68	20020	0	0	5	5	0.02	-0.2521457	1	10	0.08	2800	338.9478	40.92397	-91.39365
77151	-36	5	-3	-2.09626	0.2835608	339.7652	0	11.68	20020	0	0	5	5	0.02	-0.2599343	1	10	0.08	2800	339.1798	40.92397	-91.39365
77279	-33	-2	5	-2.098004	0.2065912	339.7623	0	11.68	20020	0	0	5	5	0.02	-0.2647412	1	10	0.08	2800	338.3385	40.92397	-91.39365
77358	-41	4	2	-2.096255	0.1521879	339.7596	0	11.68	20020	0	0	5	5	0.02	-0.2629395	1	10	0.08	2800	339.2002	40.92397	-91.39365
77485	-38	-2	1	-2.096264	0.1012794	339.7566	0	11.68	20020	0	0	5	5	0.02	-0.2516106	1	10	0.08	2800	338.2982	40.92397	-91.39365
77547	-41	-2	-2	-2.094941	0.05355654	339.7538	0	11.68	20020	0	0	5	5	0.02	-0.2500334	1	10	0.08	2800	338.6787	40.92397	-91.39365
77733	-32	2	0	-2.095738	-0.01083555	339.7495	0	11.68	20020	0	0	5	5	0.02	-0.2383543	1	10	0.08	2800	338.4455	40.92397	-91.39365
77793	-33	1	1	-2.09483	-0.05639067	339.7458	0	11.68	20020	0	0	5	5	0.02	-0.2308039	1	10	0.08	2800	338.3632	40.92397	-91.39365
77855	-37	3	3	-2.09418	-0.07041015	339.7447	0	11.68	20020	0	0	5	5	0.02	-0.2124705	1	10	0.08	2800	338.5537	40.92397	-91.39365
78010	-38	2	2	-2.093356	-0.141816	339.7379	0	11.68	20020	0	0	5	5	0.02	-0.181302	1	10	0.08	2800	338.3777	40.92397	-91.39365
78054	-38	2	2	-2.093459	-0.1546663	339.7371	0	11.68	20020	0	0	5	5	0.02	-0.1762107	1	10	0.08	2800	338.3777	40.92397	-91.39365
78216	-39	-4	0	-2.0868	-0.2181729	339.7315	0	11.74	20020	0	0	5	5	0.02	-0.158893	1	10	0.08	2800	338.4633	40.92397	-91.39365
78257	-34	1	2	-2.085493	-0.2299317	339.7303	0	11.74	20020	0	0	5	5	0.02	-0.155662	1	10	0.08	2800	338.4633	40.92397	-91.39365
78422	-35	-3	6	-2.079137	-0.2867698	339.7234	0	11.74	20020	0	0	5	5	0.02	-0.1354775	1	10	0.08	2800	339.1064	40.92397	-91.39365
78527	-37	-1	-1	-2.077413	-0.3197278	339.7188	0	11.74	20020	0	0	5	5	0.02	-0.1335618	1	10	0.08	2800	338.9255	40.92397	-91.39365
78612	-35	3	2	-2.07853	-0.3458928	339.7149	0	11.74	20020	0	0	5	5	0.02	-0.1312231	1	10	0.08	2800	338.7797	40.92397	-91.39365
78716	-34	3	3	-2.076451	-0.3737458	339.7113	0	11.74	20020	0	0	5	5	0.02	-0.1313803	1	10	0.08	2800	338.7136	40.92397	-91.39365
78821	-37	0	1	-2.073932	-0.4089383	339.7054	0	11.74	20020	0	0	5	5	0.02	-0.1334582	1	10	0.08	2800	338.6847	40.92397	-91.39365
78901	-38	6	0	-2.07094	-0.4233493	339.7029	0	11.74	20020	0	0	5	5	0.02	-0.1323937	1	10	0.08	2800	337.701	40.92397	-91.39365
78996	-44	3	0	-2.071164	-0.4473805	339.6991	0	11.74	20020	0	0	5	5	0.02	-0.1337328	1	10	0.08	2800	338.0377	40.92397	-91.39365
79096	-37	0	1	-2.06982	-0.4742927	339.6942	0	11.74	20020	0	0	5	5	0.02	-0.1400518	1	10	0.08	2800	337.9337	40.92397	-91.39365
79176	-35	3	5	-2.06891	-0.4977759	339.6907	0	11.74	20020	0	0	5	5	0.02	-0.1495382	1	10	0.08	2800	337.8515	40.92397	-91.39365
79432	-38	4	2	-2.062788	-0.5450567	339.6808	0	11.74	20020	0	0	5	5	0.02	-0.1705976	1	10	0.08	2800	338.8075	40.92397	-91.39365
79513	-38	2	6	-2.059841	-0.559101	339.6786	0	11.74	20020	0	0	5	5	0.02	-0.1739531	1	10	0.08	2800	338.799	40.92397	-91.39365
79695	-40	2	3	-2.052912	-0.5852689	339.6743	0	11.74	20020	0	0	5	5	0.02	-0.1825216	1	10	0.08	2800	338.1541	40.92397	-91.39365
79748	-39	1	4	-2.051302	-0.5964764	339.6718	0	11.74	20020	0	0	5	5	0.02	-0.1825715	1	10	0.08	2800	338.7091	40.92397	-91.39365
79895	-31	0	0	-2.045773	-0.6189255	339.6668	0	11.74	20020	0	0	5	5	0.02	-0.1718065	1	10	0.08	2800	337.9153	40.92397	-91.39365
79999	-37	0	6	-2.041958	-0.6359876	339.6596	0	11.74	20020	0	0	5	5	0.02	-0.1678642	1	10	0.08	2800	338.0266	40.92397	-91.39365
80111	-39	2	0	-2.040549	-0.6457785	339.6571	0	11.74	20020	0	0	5	5	0.02	-0.1676037	1	10	0.08	2800	338.0201	40.92397	-91.39365
80267	-32	0	3	-2.034759	-0.668177	339.6524	0	11.74	20020	0	0	5	5	0.02	-0.1854475	1	10	0.08	2800	338.1108	40.92397	-91.39365
80350	-39	1	0	-2.032355	-0.6706427	339.6507	0	11.74	20020	0	0	5	5	0.02	-0.1880833	1	10	0.08	2800	338.6116	40.92397	-91.39365
80491	-38	-4	7	-2.029995	-0.6919593	339.6438	0	11.74	20020	0	0	5	5	0.02	-0.1912239	1	10	0.08	2800	338.5472	40.92397	-91.39365
80699	-36	7	2	-2.026139	-0.7174362	339.6386	0	11.74	20020	0	0	5	5	0.02	-0.1972409	1	10	0.08	2800	338.4584	40.92397	-91.39365
80868	-39	7	3	-2.024303	-0.7365402	339.6293	0	11.8	20020	0	0	5	5	0.02	-0.2019416	1	10	0.08	2800	338.0065	40.92397	-91.39365
80970	-35	0	1	-2.019629	-0.7428998	339.6256	0	11.8	20020	0	0	5	5	0.02	-0.1984804	1	10	0.08	2800	337.9704	40.92397	-91.39365
81087	-31	-3	-1	-2.019176	-0.7581686	339.6201	0	11.8	20020	0	0	5	5	0.02	-0.1947801	1	10	0.08	2800	337.4166	40.92397	-91.39365
81221	-36	5	7	-2.014608	-0.7674121	339.6148	0	11.8	20020	0	0	5	5	0.02	-0.192387	1	10	0.08	2800	338.7607	40.92397	-91.39365
81269	-36	2	3	-2.014004	-0.7780069	339.6103	0	11.8	20020	0	0	5	5	0.02	-0.1915819	1	10	0.08	2800	338.4701	40.92397	-91.39365
81411	-37	3	6	-2.010948	-0.7855386	339.6077	0	11.8	20020	0	0	5	5	0.02	-0.1866583	1	10	0.08	2800	337.6608	40.92397	-91.39365
81479	-35	2	2	-2.011558	-0.7886666	339.6041	0	11.8	20020	0	0	5	5	0.02	-0.1839197	1	10	0.08	2800	338.048	40.92397	-91.39365
81548	-35	-3	4	-2.010884	-0.7955216	339.6017	0	11.8	20020	0	0	5	5	0.02	-0.1878109	1	10	0.08	2800	338.4514	40.92397	-91.39365
81733	-33	-1	5	-2.010286	-0.8102282	339.5946	0	11.8	20020	0	0	5	5	0.02	-0.1892577	1	10	0.08	2800	337.9281	40.92397	-91.39365
81803	-33	7	1	-2.009095	-0.814114	339.5916	0	11.8	20020	0	0	5	5	0.02	-0.1914513	1	10	0.08	2800	337.5523	40.92397	-91.39365
81992	-41	0	7	-2.007223	-0.8211097	339.5841	0	11.8	20020	0	0	5	5	0.02	-0.1995487	1	10	0.08	2800	337.6989	40.92397	-91.39365
82046	-37	0	0	-2.007605	-0.8227175	339.5829	0	11.8	20020	0	0	5	5	0.02	-0.2022317	1	10	0.08	2800	337.6989	40.92397	-91.39365
82132	-32	0	5	-2.004286	-0.8314966	339.5787	0	11.8	20020	0	0	5	5	0.02	-0.206061	1	10	0.08	2800	338.085	40.92397	-91.39365
82332	-34	-2	8	-2.00348	-0.8399886	339.571	0	11.8	20020	0	0	5	5	0.02	-0.2082034	1	10	0.08	2800	338.9156	40.92397	-91.39365
82387	-37	4	2	-2.0036	-0.8422993	339.5673	0	11.8	20020	0	0	5	5	0.02	-0.2061163	1	10	0.08	2800	338.4257	40.92397	-91.39365
82497	-33	3	1	-2.003859	-0.8458713	339.562	0	11.8	20020	0	0	5	5	0.02	-0.1982934	1	10	0.08	2800	338.4488	40.92397	-91.39365
82609	-40	-2	1	-2.006058	-0.8518895	339.559	0	11.8	20020	0	0	5	5	0.02	-0.1917172	1	10	0.08	2800	337.633	40.92397	-91.39365
82637	-37	4	3	-2.001724	-0.8550633	339.5557	0	11.8	20020	0	0	5	5	0.02	-0.1922807	1	10	0.08	2800	337.8952	40.92397	-91.39365
82778	-32	0	-1	-1.996265	-0.8561219	339.5515	0	11.8	20020	0	0	5	5	0.02	-0.1927858	1	10	0.08	2800	337.891	40.92397	-91.39365
82843	-32	4	3	-1.997152	-0.8592829	339.5497	0	11.8	20020	0	0	5	5	0.02	-0.1922404	1	10	0.08	2800	338.0145	40.92397	-91.39365
82978	-33	0	1	-1.995287	-0.8610023	339.543	0	11.8	20020	0	0	5	5	0.02	-0.1898355	1	10	0.08	2800	338.4246	40.92397	-91.39365
83046	-34	2	4	-1.993398	-0.8656868	339.5382	0	11.8	20020	0	0	5	5	0.02	-0.1903779	1	10	0.08	2800	337.6406	40.92397	-91.39365
83129	-30	-3	6	-1.993137	-0.8649558	339.5341	0	11.8	20020	0	0	5	5	0.02	-0.1985327	1	10	0.08	2800	337.86	40.92397	-91.39365
83201	-33	5	2	-1.987972	-0.8678097	339.532	0	11.8	20020	0	0	5	5	0.02	-0.2014921	1	10	0.08	2800	337.9121	40.92397	-91.39365
83309	-34	5	8	-1.987522	-0.8725175	339.5255	0	11.8	20020	0	0	5	5	0.02	-0.2060286	1	10	0.08	2800	338.4322	40.92397	-91.39365
83417	-32	5	7	-1.987882	-0.8773421	339.5217	0	11.8	20020	0	0	5	5	0.02	-0.2096699	1	10	0.08	2800	338.7457	40.92397	-91.39365
83510	-33	-2	1	-1.989374	-0.8809942	339.5166	0	11.8	20020	0	0	5	5	0.02	-0.2148487	1	10	0.08	2800	338.9057	40.92397	-91.39365
83726	-34	1	0	-1.981393	-0.8834366	339.5103	0	11.8	20020	0	0	5	5	0.02	-0.2227949	1	10	0.08	2800	338.62	40.92397	-91.39365
83922	-35	4	7	-1.974354	-0.8866414	339.5035	0	11.8	20020	0	0	5	5	0.02	-0.2155628	1	10	0.08	2800	337.8817	40.92397	-91.39365
84079	-37	-1	1	-1.970743	-0.892784	339.4981	0	11.8	20020	0	0	5	5	0.02	-0.2001541	1	10	0.08	2800	338.0385	40.92397	-91.39365
84215	-31	0	3	-1.970001	-0.8958801	339.494	0	11.8	20020	0	0	5	5	0.02	-0.1889723	1	10	0.08	2800	337.9641	40.92397	-91.39365
84251	-35	2	3	-1.967013	-0.8951062	339.4892	0	11.8	20020	0	0	5	5	0.02	-0.1884501	1	10	0.08	2800	338.6156	40.92397	-91.39365
84332	-37	0	0	-1.966713	-0.8962091	339.487	0	11.8	20020	0	0	5	5	0.02	-0.1947514	1	10	0.08	2800	337.7047	40.92397	-91.39365
84433	-31	1	0	-1.960977	-0.8958935	339.4829	0	11.8	20020	0	0	5	5	0.02	-0.2043115	1	10	0.08	2800	338.4595	40.92397	-91.39365
84517	-36	5	1	-1.961539	-0.8981818	339.4825	0	11.8	20020	0	0	5	5	0.02	-0.2063859	1	10	0.08	2800	337.938	40.92397	-91.39365
84746	-28	3	2	-1.969922	-0.9069177	339.475	0	11.8	20020	0	0	5	5	0.02	-0.2288418	1	10	0.08	2800	338.1566	40.92397	-91.39365
84877	-35	3	3	-1.970362	-0.9086882	339.4706	0	11.8	20020	0	0	5	5	0.02	-0.2322769	1	10	0.08	2800	338.0901	40.92397	-91.39365
84959	-37	0	0	-1.98263	-0.9105788	339.4667	0	11.8	20020	0	0	5	5	0.02	-0.2315549	1	10	0.08	2800	337.9228	40.92397	-91.39365
85045	-43	4	2	-1.979416	-0.9156283	339.4619	0	11.8	20020	0	0	5	5	0.02	-0.2296051	1	10	0.08	2800	338.0976	40.92397	-91.39365
85122	-34	0	4	-1.977842	-0.9168719	339.4601	0	11.8	20020	0	0	5	5	0.02	-0.2300922	1	10	0.08	2800	337.846	40.92397	-91.39365
85207	-35	2	2	-1.975576	-0.9188713	339.4581	0	11.8	20020	0	0	5	5	0.02	-0.2334187	1	10	0.08	2800	337.7449	40.92397	-91.39365
85316	-34	0	5	-1.967594	-0.9225417	339.4494	0	11.8	20020	0	0	5	5	0.02	-0.2403217	1	10	0.08	2800	337.8176	40.92397	-91.39365
85362	-35	-1	3	-1.96507	-0.9230262	339.4484	0	11.8	20020	0	0	5	5	0.02	-0.2459431	1	10	0.08	2800	337.8176	40.92397	-91.39365
85539	-35	1	5	-1.961401	-0.9281362	339.4427	0	11.8	20020	0	0	5	5	0.02	-0.2597459	1	10	0.08	2800	338.0558	40.92397	-91.39365
85658	-37	2	0	-1.959547	-0.9295141	339.4391	0	11.8	20020	0	0	5	5	0.02	-0.2618161	1	10	0.08	2800	337.9373	40.92397	-91.39365
85717	-31	4	0	-1.955867	-0.9276072	339.4368	0	11.8	20020	0	0	5	5	0.02	-0.258331	1	10	0.08	2800	338.0663	40.92397	-91.39365
85808	-37	0	3	-1.951345	-0.9274153	339.4352	0	11.8	20020	0	0	5	5	0.02	-0.2478745	1	10	0.08	2800	337.7517	40.92397	-91.39365
85911	-38	-3	5	-1.949489	-0.9284161	339.4301	0	11.8	20020	0	0	5	5	0.02	-0.2423491	1	10	0.08	2800	337.6725	40.92397	-91.39365
86007	-38	2	0	-1.951855	-0.9294564	339.4243	0	11.8	20020	0	0	5	5	0.02	-0.2403306	1	10	0.08	2800	337.9434	40.92397	-91.39365
86144	-40	5	5	-1.951712	-0.9306363	339.4207	0	11.8	20020	0	0	5	5	0.02	-0.2449012	1	10	0.08	2800	337.7159	40.92397	-91.39365
86218	-34	4	8	-1.950694	-0.934075	339.4159	0	11.8	20020	0	0	5	5	0.02	-0.2504318	1	10	0.08	2800	337.8509	40.92397	-91.39365
86398	-36	-1	-1	-1.950933	-0.9344119	339.4116	0	11.8	20020	0	0	5	5	0.02	-0.2756208	1	10	0.08	2800	338.5884	40.92397	-91.39365
86427	-31	3	1	-1.951026	-0.934373	339.4105	0	11.8	20020	0	0	5	5	0.02	-0.2782372	1	10	0.08	2800	338.5884	40.92397	-91.39365
86545	-38	-1	3	-1.949434	-0.9388298	339.4071	0	11.8	20020	0	0	5	5	0.02	-0.2800356	1	10	0.08	2800	338.6142	40.92397	-91.39365
86616	-34	-4	0	-1.948988	-0.9402894	339.4052	0	11.8	20020	0	0	5	5	0.02	-0.2762645	1	10	0.08	2800	338.7473	40.92397	-91.39365
86750	-33	-3	7	-1.941567	-0.9404219	339.4022	0	11.8	20020	0	0	5	5	0.02	-0.280272	1	10	0.08	2800	338.4358	40.92397	-91.39365
86824	-33	2	3	-1.93984	-0.9399096	339.3992	0	11.8	20020	0	0	5	5	0.02	-0.2800708	1	10	0.08	2800	337.9879	40.92397	-91.39365
86910	-30	1	0	-1.938974	-0.9380873	339.3982	0	11.8	20020	0	0	5	5	0.02	-0.2778814	1	10	0.08	2800	338.6123	40.92397	-91.39365
87021	-31	-2	4	-1.938208	-0.9395307	339.3954	0	11.8	20020	0	0	5	5	0.02	-0.2754695	1	10	0.08	2800	337.8433	40.92397	-91.39365
87114	-33	2	4	-1.934925	-0.941018	339.3909	0	11.8	20020	0	0	5	5	0.02	-0.2773593	1	10	0.08	2800	338.0666	40.92397	-91.39365
87236	-33	0	0	-1.932492	-0.9424194	339.3828	0	11.8	20020	0	0	5	5	0.02	-0.2825971	1	10	0.08	2800	339.0114	40.92397	-91.39365
87316	-33	3	2	-1.926607	-0.945119	339.381	0	11.8	20020	0	0	5	5	0.02	-0.2832111	1	10	0.08	2800	338.9954	40.92397	-91.39365
87422	-30	2	0	-1.924974	-0.9489428	339.3774	0	11.8	20020	0	0	5	5	0.02	-0.2867377	1	10	0.08	2800	338.3986	40.92397	-91.39365
87518	-28	1	0	-1.921768	-0.9542335	339.3745	0	11.8	20020	0	0	5	5	0.02	-0.2943408	1	10	0.08	2800	338.5034	40.92397	-91.39365
87624	-31	-1	4	-1.918001	-0.9556493	339.3716	0	11.8	20020	0	0	5	5	0.02	-0.3018268	1	10	0.08	2800	338.4079	40.92397	-91.39365
87769	-29	0	1	-1.912019	-0.9601983	339.3681	0	11.8	20020	0	0	5	5	0.02	-0.3085187	1	10	0.08	2800	338.9124	40.92397	-91.39365
87829	-32	2	-2	-1.910177	-0.9617008	339.3658	0	11.8	20020	0	0	5	5	0.02	-0.3096026	1	10	0.08	2800	338.1685	40.92397	-91.39365
87982	-36	-6	7	-1.907036	-0.9604634	339.3627	0	11.8	20020	0	0	5	5	0.02	-0.2968639	1	10	0.08	2800	337.8619	40.92397	-91.39365
88027	-33	-2	-3	-1.907849	-0.9622332	339.3619	0	11.85	20020	0	0	5	5	0.02	-0.2943766	1	10	0.08	2800	337.8619	40.92397	-91.39365
88180	-36	-1	3	-1.901304	-0.9631952	339.3552	0	11.85	20020	0	0	5	5	0.02	-0.2802989	1	10	0.08	2800	338.5746	40.92397	-91.39365
88232	-37	2	3	-1.900757	-0.9618222	339.3538	0	11.85	20020	0	0	5	5	0.02	-0.2748033	1	10	0.08	2800	338.8404	40.92397	-91.39365
88415	-30	2	1	-1.898947	-0.9664246	339.3473	0	11.85	20020	0	0	5	5	0.02	-0.2678393	3	10	0.08	2800	338.132	40.92397	-91.39365
88486	-32	3	0	-1.898305	-0.9687105	339.3444	0	11.85	20020	0	0	5	5	0.02	-0.2741637	3	10	0.08	2800	337.9059	40.92397	-91.39365
88591	-37	4	6	-1.89799	-0.972205	339.3422	0	11.85	20020	0	0	5	5	0.02	-0.2837525	3	10	0.08	2800	337.9774	40.92397	-91.39365
88629	-35	-1	0	-1.898082	-0.9734465	339.3397	0	11.85	20020	0	0	5	5	0.02	-0.2848401	3	10	0.08	2800	337.9774	40.92397	-91.39365
88743	-32	0	1	-1.894257	-0.9787432	339.3349	0	11.85	20020	0	0	5	5	0.02	-0.2802762	3	10	0.08	2800	338.6082	40.92397	-91.39365
88864	-33	0	0	-1.895403	-0.9800628	339.3314	0	11.85	20020	0	0	5	5	0.02	-0.2749851	3	10	0.08	2800	338.0537	40.92397	-91.39365
88973	-35	1	2	-1.89756	-0.9801496	339.3261	0	11.8	20020	0	0	5	5	0.02	-0.2705212	3	10	0.08	2800	338.1527	40.92397	-91.39365
89074	-33	5	5	-1.896571	-0.9828538	339.3219	0	11.8	20020	0	0	5	5	0.02	-0.2719477	3	10	0.08	2800	337.9979	40.92397	-91.39365
89138	-26	0	2	-1.89669	-0.9838051	339.3179	0	11.8	20020	0	0	5	5	0.02	-0.2740012	3	10	0.08	2800	338.0984	40.92397	-91.39365
89212	-36	4	1	-1.895314	-0.9818386	339.3145	0	11.8	20020	0	0	5	5	0.02	-0.2718869	3	10	0.08	2800	338.1515	40.92397	-91.39365
89311	-30	-2	-1	-1.895132	-0.9833723	339.3112	0	11.8	20020	0	0	5	5	0.02	-0.2678277	3	10	0.08	2800	338.7417	40.92397	-91.39365
89408	-35	3	1	-1.895818	-0.9817568	339.3084	0	11.8	20020	0	0	5	5	0.02	-0.2654248	3	10	0.08	2800	337.9684	40.92397	-91.39365
89512	-35	-2	2	-1.89544	-0.98005	339.3062	0	11.8	20020	0	0	5	5	0.02	-0.263217	3	10	0.08	2800	338.9338	40.92397	-91.39365
89606	-34	0	0	-1.897133	-0.9834481	339.3052	0	11.8	20020	0	0	5	5	0.02	-0.2590845	3	10	0.08	2800	338.9338	40.92397	-91.39365
89791	50	0	150	-1.906231	-0.9847592	339.2868	0	11.85	20020	0	0	5	5	0.02	-0.2648344	3	10	0.08	2800	337.3683	40.92397	-91.39365
89841	-42	-43	-167	-1.888178	-1.002065	339.2953	0	11.85	20020	0	0	5	5	0.02	-0.2680308	3	10	0.08	2800	336.9566	40.92397	-91.39365
89921	78	-59	113	-1.859889	-0.9930888	339.2963	0	11.85	20020	0	0	5	5	0.02	-0.2702114	3	10	0.08	2800	334.1806	40.92397	-91.39365
90016	81	-37	-25	-1.834463	-0.9599451	339.2895	0	11.85	20020	0	0	5	5	0.02	-0.2738107	3	10	0.08	2800	334.7696	40.92397	-91.39365
90123	74	18	-54	-1.794489	-0.8467969	339.3297	0	11.85	20020	0	0	5	5	0.02	-0.2791056	3	10	0.08	2800	335.8076	40.92397	-91.39365
90266	-88	-36	-187	-1.757785	-0.7394332	339.3506	0	11.85	20020	0	0	5	5	0.02	-0.2786724	3	10	0.08	2800	334.7911	40.92397	-91.39365
90322	-203	18	-170	-1.732076	-0.6590661	339.36	0	11.85	20020	0	0	5	5	0.02	-0.2795512	3	10	0.08	2800	334.6687	40.92397	-91.39365
90473	85	-203	123	-1.638629	-0.5425099	339.3957	0	11.85	20020	0	0	5	5	0.02	-0.2845547	3	10	0.08	2800	336.3087	40.92397	-91.39365
90620	-110	-38	144	-1.574708	-0.4985384	339.4097	0	11.85	20020	0	0	5	5	0.02	-0.268386	3	10	0.08	2800	336.1455	40.92397	-91.39365
90726	-25	-144	336	-1.549788	-0.4422583	339.407	0	11.97	20020	0	0	5	5	0.02	-0.2678011	3	10	0.08	2800	336.1689	40.92397	-91.39365
90813	179	-209	-360	-1.437314	-0.2372831	339.4891	0	11.97	20020	0	0	5	5	0.02	-0.2690391	3	10	0.08	2800	333.9714	40.92397	-91.39365
90946	1636	-183	-563	0.8380024	0.380334	339.5746	0	11.97	20020	0	0	5	5	0.02	-0.2735949	3	10	0.08	2800	334.8446	40.92397	-91.39365
91068	-78	-1193	-673	4.52785	2.624724	340.3965	0	11.97	20020	0	0	5	5	0.02	-0.2807776	3	10	0.08	2800	332.6598	40.92397	-91.39365
91129	-1792	-1102	-620	3.869664	3.247803	340.8753	0	11.97	20020	0	0	5	5	0.02	-0.2800013	3	10	0.08	2800	332.6598	40.92397	-91.39365
91242	-7446	867	-2033	-9.156307	3.032068	343.9628	0	11.97	20020	0	0	5	5	0.02	-0.250919	3	10	0.08	2800	334.0446	40.92397	-91.39365
91386	-3355	408	-812	-19.44092	1.247754	336.4855	0	11.97	20020	0	0	5	5	0.02	-0.2229594	3	10	0.08	2800	340.4545	40.92397	-91.39365
91423	5015	-225	-1342	-17.89916	1.687389	348.2063	0	11.97	20020	0	0	5	5	0.02	-0.1965641	3	10	0.08	2800	347.6931	40.92397	-91.39365
91633	-744	-77	-1065	-1.486746	-0.3047008	348.3357	0	11.97	20020	0	0	5	5	0.02	-0.12577	3	10	0.08	2800	348.4246	40.92397	-91.39365
91770	4097	-422	-599	2.754239	0.5717951	348.9433	0	11.68	20020	0	0	5	5	0.02	-0.05469486	3	10	0.08	2800	347.9124	40.92397	-91.39365
91926	733	-672	509	5.808217	1.729585	348.6171	0	11.68	20020	0	0	5	5	0.02	0.01505461	3	10	0.08	2800	345.1346	40.92397	-91.39365
91983	2056	-103	-278	6.931628	2.615127	348.4928	0	11.68	20020	0	0	5	5	0.02	0.06225902	3	10	0.08	2800	342.9392	40.92397	-91.39365
92149	-4335	-624	431	1.143972	-0.1692728	348.0533	0	11.68	20020	0	0	5	5	0.02	0.1503939	3	10	0.08	2800	339.7633	40.92397	-91.39365
92264	3427	765	24	-0.7840745	1.660083	348.2162	0	11.68	20020	0	0	5	5	0.02	0.1944938	3	10	0.08	2800	341.035	40.92397	-91.39365
92370	-2972	-2	295	2.727684	-1.215705	347.3712	0	11.68	20020	0	0	5	5	0.02	0.2472578	3	10	0.08	2800	339.1283	40.92397	-91.39365
92479	-4808	-2124	-570	-4.089531	1.365496	336.9649	0	11.68	20020	0	0	5	5	0.02	0.2903056	3	10	0.08	2800	336.9496	40.92396	-91.39365
92552	-1127	1842	-390	-7.745207	1.213116	337.0941	0	11.68	20020	0	0	5	5	0.02	0.3273854	3	10	0.08	2800	338.0229	40.92396	-91.39365
92682	-2053	-1299	344	-10.62968	-0.03759708	337.4714	0	11.57	20020	0	0	5	5	0.02	0.3690654	3	10	0.08	2800	339.3996	40.92396	-91.39365
92764	-1115	-1283	214	-12.6487	2.401841	337.5583	0	11.57	20020	0	0	5	5	0.02	0.3809821	3	10	0.08	2800	340.3302	40.92396	-91.39365
92875	4821	2531	513	-7.710229	1.536144	337.4777	0	11.57	20020	0	0	5	5	0.02	0.408877	3	10	0.08	2800	340.8091	40.92396	-91.39365
93054	-641	-507	409	-6.922026	-1.588364	335.3092	0	11.57	20020	0	0	5	5	0.02	0.4305225	3	10	0.08	2800	342.1531	40.92396	-91.39365
93067	471	-2273	1208	-7.064386	-0.8732861	335.0852	0	11.57	20020	0	0	5	5	0.02	0.4305225	3	10	0.08	2800	342.1531	40.92396	-91.39365
93267	1603	-997	938	-7.102618	7.306468	333.9416	0	11.57	20020	0	0	5	5	0.02	0.4304854	3	10	0.08	2800	336.347	40.92396	-91.39365
93312	1126	-345	-198	-5.853943	7.810144	333.5775	0	11.57	20020	0	0	5	5	0.02	0.4295088	3	10	0.08	2800	335.5252	40.92396	-91.39365
93375	-1094	-2300	45	-5.565764	9.415225	333.1445	0	11.57	20020	0	0	5	5	0.02	0.4253156	3	10	0.08	2800	335.5252	40.92396	-91.39365
93561	1615	2566	-913	-1.981281	7.873037	333.5678	0	11.4	20020	0	0	5	5	0.02	0.3999772	3	10	0.08	2800	333.574	40.92396	-91.39365
93644	1196	1342	-673	-0.8677899	5.646438	333.6416	0	11.4	20020	0	0	5	5	0.02	0.401298	3	10	0.08	2800	334.2415	40.92396	-91.39365
93689	-944	33	-618	-0.536652	5.42755	333.9434	0	11.4	20020	0	0	5	5	0.02	0.4025176	3	10	0.08	2800	334.2415	40.92396	-91.39365
93815	-4448	825	712	-6.502532	3.53246	334.1876	0	11.4	20020	0	0	5	5	0.02	0.4186397	3	10	0.08	2800	336.1696	40.92396	-91.39365
93896	-816	1289	188	-9.337189	2.438085	334.0346	0	11.4	20020	0	0	5	5	0.02	0.4299348	3	10	0.08	2800	335.8806	40.92396	-91.39365
94013	-1068	2812	-555	-9.946654	-3.338438	334.0022	0	11.4	20020	0	0	5	5	0.02	0.4628907	3	10	0.08	2800	340.4227	40.92396	-91.39364
94129	1166	-3163	-569	-8.275186	-1.574251	344.9716	0	11.4	20020	0	0	5	5	0.02	0.4814505	3	10	0.08	2800	343.5765	40.92395	-91.39364
94223	2049	-72	-85	-4.308487	1.476633	345.7555	0	11.4	20020	0	0	5	5	0.02	0.5119973	3	10	0.08	2800	338.7048	40.92395	-91.39364
94345	1356	1446	-224	-1.130868	1.167892	347.0325	0	11.4	20020	0	0	5	5	0.02	0.5454936	3	10	0.08	2800	344.8187	40.92395	-91.39364
94420	-1236	-365	115	-1.844759	0.9503475	347.4499	0	11.46	20020	0	0	5	5	0.02	0.5573196	3	10	0.08	2800	345.382	40.92395	-91.39364
94525	-1165	318	-629	-5.617915	1.550574	348.1109	0	11.46	20020	0	0	5	5	0.02	0.5844448	3	10	0.08	2800	344.0916	40.92395	-91.39364
94659	-2202	1375	-471	-9.463237	1.475268	348.3951	0	11.46	20020	0	0	5	5	0.02	0.6146241	3	10	0.08	2800	346.4834	40.92395	-91.39364
94772	3199	658	-78	-8.412601	-0.4763931	349.0824	0	11.46	20020	0	0	5	5	0.02	0.639721	3	10	0.08	2800	351.3441	40.92395	-91.39363
