time(ms)	gyro_x(deg/s)	gyro_y(deg/s)	gyro_z(deg/s)	orientation_roll(deg)	orientation_pitch(deg)	orientation_yaw(deg)	throttle	battery(V)	loop_time(uS)	pid_output_roll	pid_output_pitch	pid_output_yaw	pid_output_throttle	ultrasonic_alt	baro_alt	flight_mode	p_gain_altitude	i_gain_altitude	d_gain_altitude	compass_heading	latitude	longitude
5404471	-135	268	48	-5.789646	-2.375129	310.6719	0	9.87	20033	0	0	5	5	0.02	0.8310383	1	10	0.08	2800	313.661	40.92396	-91.3937
5404572	-135	268	48	-5.789646	-2.375129	310.6719	0	9.87	20033	0	0	5	5	0.02	0.8310383	1	10	0.08	2800	313.661	40.92396	-91.3937
5404683	-135	268	48	-5.789646	-2.375129	310.6719	0	9.87	20033	0	0	5	5	0.02	0.8310383	1	10	0.08	2800	313.661	40.92396	-91.3937
5404778	-135	268	48	-5.789646	-2.375129	310.6719	0	9.87	20033	0	0	5	5	0.02	0.8310383	1	10	0.08	2800	313.661	40.92396	-91.3937
5404888	-135	268	48	-5.789646	-2.375129	310.6719	0	9.87	20033	0	0	5	5	0.02	0.8310383	1	10	0.08	2800	313.661	40.92396	-91.3937
5404984	-135	268	48	-5.789646	-2.375129	310.6719	0	9.87	20033	0	0	5	5	0.02	0.8310383	1	10	0.08	2800	313.661	40.92396	-91.3937
5405098	-135	268	48	-5.789646	-2.375129	310.6719	0	9.87	20033	0	0	5	5	0.02	0.8310383	1	10	0.08	2800	313.661	40.92396	-91.3937
5405193	-135	268	48	-5.789646	-2.375129	310.6719	0	9.87	20033	0	0	5	5	0.02	0.8310383	1	10	0.08	2800	313.661	40.92396	-91.3937
5405307	-135	268	48	-5.789646	-2.375129	310.6719	0	9.87	20033	0	0	5	5	0.02	0.8310383	1	10	0.08	2800	313.661	40.92396	-91.3937
5405402	-135	268	48	-5.789646	-2.375129	310.6719	0	9.87	20033	0	0	5	5	0.02	0.8310383	1	10	0.08	2800	313.661	40.92396	-91.3937
5405512	-135	268	48	-5.789646	-2.375129	310.6719	0	9.87	20033	0	0	5	5	0.02	0.8310383	1	10	0.08	2800	313.661	40.92396	-91.3937
5405610	-135	268	48	-5.789646	-2.375129	310.6719	0	9.87	20033	0	0	5	5	0.02	0.8310383	1	10	0.08	2800	313.661	40.92396	-91.3937
5405720	-135	268	48	-5.789646	-2.375129	310.6719	0	9.87	20033	0	0	5	5	0.02	0.8310383	1	10	0.08	2800	313.661	40.92396	-91.3937
5405815	-135	268	48	-5.789646	-2.375129	310.6719	0	9.87	20033	0	0	5	5	0.02	0.8310383	1	10	0.08	2800	313.661	40.92396	-91.3937
5405924	-135	268	48	-5.789646	-2.375129	310.6719	0	9.87	20033	0	0	5	5	0.02	0.8310383	1	10	0.08	2800	313.661	40.92396	-91.3937
5406024	-135	268	48	-5.789646	-2.375129	310.6719	0	9.87	20033	0	0	5	5	0.02	0.8310383	1	10	0.08	2800	313.661	40.92396	-91.3937
5406133	-135	268	48	-5.789646	-2.375129	310.6719	0	9.87	20033	0	0	5	5	0.02	0.8310383	1	10	0.08	2800	313.661	40.92396	-91.3937
5406230	-135	268	48	-5.789646	-2.375129	310.6719	0	9.87	20033	0	0	5	5	0.02	0.8310383	1	10	0.08	2800	313.661	40.92396	-91.3937
5406345	-135	268	48	-5.789646	-2.375129	310.6719	0	9.87	20033	0	0	5	5	0.02	0.8310383	1	10	0.08	2800	313.661	40.92396	-91.3937
5406459	-135	268	48	-5.789646	-2.375129	310.6719	0	9.87	20033	0	0	5	5	0.02	0.8310383	1	10	0.08	2800	313.661	40.92396	-91.3937
5406553	-135	268	48	-5.789646	-2.375129	310.6719	0	9.87	20033	0	0	5	5	0.02	0.8310383	1	10	0.08	2800	313.661	40.92396	-91.3937
5406662	-135	268	48	-5.789646	-2.375129	310.6719	0	9.87	20033	0	0	5	5	0.02	0.8310383	1	10	0.08	2800	313.661	40.92396	-91.3937
5406762	-135	268	48	-5.789646	-2.375129	310.6719	0	9.87	20033	0	0	5	5	0.02	0.8310383	1	10	0.08	2800	313.661	40.92396	-91.3937
5406864	-135	268	48	-5.789646	-2.375129	310.6719	0	9.87	20033	0	0	5	5	0.02	0.8310383	1	10	0.08	2800	313.661	40.92396	-91.3937
5406978	-135	268	48	-5.789646	-2.375129	310.6719	0	9.87	20033	0	0	5	5	0.02	0.8310383	1	10	0.08	2800	313.661	40.92396	-91.3937
5407079	-135	268	48	-5.789646	-2.375129	310.6719	0	9.87	20033	0	0	5	5	0.02	0.8310383	1	10	0.08	2800	313.661	40.92396	-91.3937
5407181	-135	268	48	-5.789646	-2.375129	310.6719	0	9.87	20033	0	0	5	5	0.02	0.8310383	1	10	0.08	2800	313.661	40.92396	-91.3937
5407279	-135	268	48	-5.789646	-2.375129	310.6719	0	9.87	20033	0	0	5	5	0.02	0.8310383	1	10	0.08	2800	313.661	40.92396	-91.3937
5407390	-135	268	48	-5.789646	-2.375129	310.6719	0	9.87	20033	0	0	5	5	0.02	0.8310383	1	10	0.08	2800	313.661	40.92396	-91.3937
5407488	-135	268	48	-5.789646	-2.375129	310.6719	0	9.87	20033	0	0	5	5	0.02	0.8310383	1	10	0.08	2800	313.661	40.92396	-91.3937
5407598	-135	268	48	-5.789646	-2.375129	310.6719	0	9.87	20033	0	0	5	5	0.02	0.8310383	1	10	0.08	2800	313.661	40.92396	-91.3937
5407692	-135	268	48	-5.789646	-2.375129	310.6719	0	9.87	20033	0	0	5	5	0.02	0.8310383	1	10	0.08	2800	313.661	40.92396	-91.3937
5407809	-135	268	48	-5.789646	-2.375129	310.6719	0	9.87	20033	0	0	5	5	0.02	0.8310383	1	10	0.08	2800	313.661	40.92396	-91.3937
5407919	-135	268	48	-5.789646	-2.375129	310.6719	0	9.87	20033	0	0	5	5	0.02	0.8310383	1	10	0.08	2800	313.661	40.92396	-91.3937
5408028	-135	268	48	-5.789646	-2.375129	310.6719	0	9.87	20033	0	0	5	5	0.02	0.8310383	1	10	0.08	2800	313.661	40.92396	-91.3937
5408122	-135	268	48	-5.789646	-2.375129	310.6719	0	9.87	20033	0	0	5	5	0.02	0.8310383	1	10	0.08	2800	313.661	40.92396	-91.3937
5408232	-135	268	48	-5.789646	-2.375129	310.6719	0	9.87	20033	0	0	5	5	0.02	0.8310383	1	10	0.08	2800	313.661	40.92396	-91.3937
5408326	-135	268	48	-5.789646	-2.375129	310.6719	0	9.87	20033	0	0	5	5	0.02	0.8310383	1	10	0.08	2800	313.661	40.92396	-91.3937
5408436	-135	268	48	-5.789646	-2.375129	310.6719	0	9.87	20033	0	0	5	5	0.02	0.8310383	1	10	0.08	2800	313.661	40.92396	-91.3937
5408534	-135	268	48	-5.789646	-2.375129	310.6719	0	9.87	20033	0	0	5	5	0.02	0.8310383	1	10	0.08	2800	313.661	40.92396	-91.3937
5408647	-135	268	48	-5.789646	-2.375129	310.6719	0	9.87	20033	0	0	5	5	0.02	0.8310383	1	10	0.08	2800	313.661	40.92396	-91.3937
5408741	-135	268	48	-5.789646	-2.375129	310.6719	0	9.87	20033	0	0	5	5	0.02	0.8310383	1	10	0.08	2800	313.661	40.92396	-91.3937
5408858	-135	268	48	-5.789646	-2.375129	310.6719	0	9.87	20033	0	0	5	5	0.02	0.8310383	1	10	0.08	2800	313.661	40.92396	-91.3937
5408968	-135	268	48	-5.789646	-2.375129	310.6719	0	9.87	20033	0	0	5	5	0.02	0.8310383	1	10	0.08	2800	313.661	40.92396	-91.3937
5409062	-135	268	48	-5.789646	-2.375129	310.6719	0	9.87	20033	0	0	5	5	0.02	0.8310383	1	10	0.08	2800	313.661	40.92396	-91.3937
5409278	-135	268	48	-5.789646	-2.375129	310.6719	0	9.87	20033	0	0	5	5	0.02	0.8310383	1	10	0.08	2800	313.661	40.92396	-91.3937
5409282	-135	268	48	-5.789646	-2.375129	310.6719	0	9.87	20033	0	0	5	5	0.02	0.8310383	1	10	0.08	2800	313.661	40.92396	-91.3937
5409378	-135	268	48	-5.789646	-2.375129	310.6719	0	9.87	20033	0	0	5	5	0.02	0.8310383	1	10	0.08	2800	313.661	40.92396	-91.3937
5409487	-135	268	48	-5.789646	-2.375129	310.6719	0	9.87	20033	0	0	5	5	0.02	0.8310383	1	10	0.08	2800	313.661	40.92396	-91.3937
5409581	-135	268	48	-5.789646	-2.375129	310.6719	0	9.87	20033	0	0	5	5	0.02	0.8310383	1	10	0.08	2800	313.661	40.92396	-91.3937
5409691	-135	268	48	-5.789646	-2.375129	310.6719	0	9.87	20033	0	0	5	5	0.02	0.8310383	1	10	0.08	2800	313.661	40.92396	-91.3937
5409785	-135	268	48	-5.789646	-2.375129	310.6719	0	9.87	20033	0	0	5	5	0.02	0.8310383	1	10	0.08	2800	313.661	40.92396	-91.3937
5409901	-135	268	48	-5.789646	-2.375129	310.6719	0	9.87	20033	0	0	5	5	0.02	0.8310383	1	10	0.08	2800	313.661	40.92396	-91.3937
5409999	-135	268	48	-5.789646	-2.375129	310.6719	0	9.87	20033	0	0	5	5	0.02	0.8310383	1	10	0.08	2800	313.661	40.92396	-91.3937
5410096	-135	268	48	-5.789646	-2.375129	310.6719	0	9.87	20033	0	0	5	5	0.02	0.8310383	1	10	0.08	2800	313.661	40.92396	-91.3937
5410209	-135	268	48	-5.789646	-2.375129	310.6719	0	9.87	20033	0	0	5	5	0.02	0.8310383	1	10	0.08	2800	313.661	40.92396	-91.3937
5410303	-135	268	48	-5.789646	-2.375129	310.6719	0	9.87	20033	0	0	5	5	0.02	0.8310383	1	10	0.08	2800	313.661	40.92396	-91.3937
5410417	-135	268	48	-5.789646	-2.375129	310.6719	0	9.87	20033	0	0	5	5	0.02	0.8310383	1	10	0.08	2800	313.661	40.92396	-91.3937
5410511	-135	268	48	-5.789646	-2.375129	310.6719	0	9.87	20033	0	0	5	5	0.02	0.8310383	1	10	0.08	2800	313.661	40.92396	-91.3937
5410624	-135	268	48	-5.789646	-2.375129	310.6719	0	9.87	20033	0	0	5	5	0.02	0.8310383	1	10	0.08	2800	313.661	40.92396	-91.3937
5410715	-135	268	48	-5.789646	-2.375129	310.6719	0	9.87	20033	0	0	5	5	0.02	0.8310383	1	10	0.08	2800	313.661	40.92396	-91.3937
5410824	-135	268	48	-5.789646	-2.375129	310.6719	0	9.87	20033	0	0	5	5	0.02	0.8310383	1	10	0.08	2800	313.661	40.92396	-91.3937
5410918	-135	268	48	-5.789646	-2.375129	310.6719	0	9.87	20033	0	0	5	5	0.02	0.8310383	1	10	0.08	2800	313.661	40.92396	-91.3937
5411031	-135	268	48	-5.789646	-2.375129	310.6719	0	9.87	20033	0	0	5	5	0.02	0.8310383	1	10	0.08	2800	313.661	40.92396	-91.3937
5411124	-135	268	48	-5.789646	-2.375129	310.6719	0	9.87	20033	0	0	5	5	0.02	0.8310383	1	10	0.08	2800	313.661	40.92396	-91.3937
5411240	-135	268	48	-5.789646	-2.375129	310.6719	0	9.87	20033	0	0	5	5	0.02	0.8310383	1	10	0.08	2800	313.661	40.92396	-91.3937
5411334	-135	268	48	-5.789646	-2.375129	310.6719	0	9.87	20033	0	0	5	5	0.02	0.8310383	1	10	0.08	2800	313.661	40.92396	-91.3937
5411443	-135	268	48	-5.789646	-2.375129	310.6719	0	9.87	20033	0	0	5	5	0.02	0.8310383	1	10	0.08	2800	313.661	40.92396	-91.3937
5411540	-135	268	48	-5.789646	-2.375129	310.6719	0	9.87	20033	0	0	5	5	0.02	0.8310383	1	10	0.08	2800	313.661	40.92396	-91.3937
5411640	39	-1	29	-3.724262	-2.060936	340.6447	0	12.76	0	0	0	5	5	0.02	-0.4348114	1	10	0.08	2800	343.0425	40.92397	-91.39365
5411744	46	-1	30	-3.724912	-2.059218	340.598	0	12.76	0	0	0	5	5	0.02	-0.4313585	1	10	0.08	2800	343.1235	40.92397	-91.39365
5411852	41	-3	28	-3.726527	-2.059951	340.5374	0	12.76	0	0	0	5	5	0.02	-0.4247481	1	10	0.08	2800	342.8522	40.92397	-91.39365
5411949	41	-5	27	-3.72595	-2.058572	340.5063	0	12.76	0	0	0	5	5	0.02	-0.419574	1	10	0.08	2800	342.7813	40.92397	-91.39365
5412057	46	-5	31	-3.726876	-2.056551	340.4459	0	12.76	0	0	0	5	5	0.02	-0.4189895	1	10	0.08	2800	342.5289	40.92397	-91.39365
5412152	40	0	22	-3.72564	-2.055038	340.4158	0	12.76	0	0	0	5	5	0.02	-0.4175521	1	10	0.08	2800	342.7644	40.92397	-91.39365
5412260	46	1	29	-3.724056	-2.053909	340.3541	0	12.76	0	0	0	5	5	0.02	-0.4195251	1	10	0.08	2800	343.0452	40.92397	-91.39365
5412355	46	-2	29	-3.725735	-2.053812	340.3231	0	12.76	0	0	0	5	5	0.02	-0.4229101	1	10	0.08	2800	342.8546	40.92397	-91.39365
5412468	43	0	25	-3.729323	-2.053765	340.2791	0	12.76	0	0	0	5	5	0.02	-0.424397	1	10	0.08	2800	342.7604	40.92397	-91.39365
5412562	44	0	32	-3.728764	-2.05401	340.2325	0	12.76	0	0	0	5	5	0.02	-0.420669	1	10	0.08	2800	342.8881	40.92397	-91.39365
5412675	42	-1	30	-3.728502	-2.051921	340.187	0	12.76	0	0	0	5	5	0.02	-0.4189432	1	10	0.08	2800	342.674	40.92397	-91.39365
5412765	37	1	31	-3.728689	-2.054847	340.1263	0	12.76	0	0	0	5	5	0.02	-0.4216113	1	10	0.08	2800	342.5685	40.92397	-91.39365
5412874	43	0	26	-3.729648	-2.057111	340.096	0	12.76	0	0	0	5	5	0.02	-0.423351	1	10	0.08	2800	342.7145	40.92397	-91.39365
5412968	44	0	30	-3.735902	-2.058519	340.0366	0	12.76	0	0	0	5	5	0.02	-0.4246338	1	10	0.08	2800	343.1448	40.92397	-91.39365
5413077	46	2	26	-3.737988	-2.059735	339.9911	0	12.76	0	0	0	5	5	0.02	-0.4307506	1	10	0.08	2800	343.1585	40.92397	-91.39365
5413186	47	-1	26	-3.738819	-2.060994	339.9611	0	12.76	0	0	0	5	5	0.02	-0.4354908	1	10	0.08	2800	343.1585	40.92397	-91.39365
5413283	41	-4	24	-3.739362	-2.060612	339.9008	0	12.76	0	0	0	5	5	0.02	-0.4389242	1	10	0.08	2800	343.0005	40.92397	-91.39365
5413392	45	2	24	-3.737653	-2.059391	339.8693	0	12.76	0	0	0	5	5	0.02	-0.4357758	1	10	0.08	2800	343.0461	40.92397	-91.39365
5413485	46	-2	30	-3.735359	-2.059602	339.8085	0	12.76	0	0	0	5	5	0.02	-0.432918	1	10	0.08	2800	342.8278	40.92397	-91.39365
5413600	45	0	30	-3.732459	-2.057861	339.7633	0	12.76	0	0	0	5	5	0.02	-0.4368643	1	10	0.08	2800	342.4748	40.92397	-91.39365
5413708	45	-3	27	-3.733711	-2.055627	339.7186	0	12.76	0	0	0	5	5	0.02	-0.4473647	1	10	0.08	2800	342.8743	40.92397	-91.39365
5413801	44	2	32	-3.736877	-2.054461	339.6716	0	12.76	0	0	0	5	5	0.02	-0.4505922	1	10	0.08	2800	343.0192	40.92397	-91.39365
5413910	39	-5	30	-3.740163	-2.052015	339.6109	0	12.76	0	0	0	5	5	0.02	-0.4529451	1	10	0.08	2800	342.8232	40.92397	-91.39365
5414021	44	6	29	-3.740353	-2.051918	339.5789	0	12.76	0	0	0	5	5	0.02	-0.4557691	1	10	0.08	2800	342.5438	40.92397	-91.39365
5414112	43	2	32	-3.741356	-2.049719	339.5487	0	12.76	0	0	0	5	5	0.02	-0.4592799	1	10	0.08	2800	342.7767	40.92397	-91.39365
5414227	44	-4	32	-3.739825	-2.048719	339.4855	0	12.76	0	0	0	5	5	0.02	-0.4630782	1	10	0.08	2800	342.1442	40.92397	-91.39365
5414316	42	5	27	-3.740031	-2.053441	339.4228	0	12.76	0	0	0	5	5	0.02	-0.4652696	1	10	0.08	2800	343.4801	40.92397	-91.39365
5414424	48	-1	29	-3.74178	-2.053591	339.3765	0	12.76	0	0	0	5	5	0.02	-0.4759022	1	10	0.08	2800	343.007	40.92397	-91.39365
5414516	41	2	25	-3.739143	-2.055241	339.3456	0	12.82	0	0	0	5	5	0.02	-0.4756952	1	10	0.08	2800	342.8567	40.92397	-91.39365
5414631	42	-2	28	-3.739579	-2.053387	339.2838	0	12.82	0	0	0	5	5	0.02	-0.4705915	1	10	0.08	2800	342.4986	40.92397	-91.39365
5414724	40	-6	28	-3.738631	-2.055372	339.252	0	12.82	0	0	0	5	5	0.02	-0.4760643	1	10	0.08	2800	342.8596	40.92397	-91.39365
5414833	47	1	25	-3.739658	-2.052738	339.1918	0	12.82	0	0	0	5	5	0.02	-0.4767991	1	10	0.08	2800	342.5879	40.92397	-91.39365
5414931	42	-1	33	-3.740044	-2.0523	339.1606	0	12.82	0	0	0	5	5	0.02	-0.4703391	1	10	0.08	2800	342.9678	40.92397	-91.39365
5415046	46	3	30	-3.738856	-2.053357	339.0999	0	12.82	0	0	0	5	5	0.02	-0.4643036	1	10	0.08	2800	343.0911	40.92397	-91.39365
5415145	44	-4	28	-3.737649	-2.055015	339.0548	0	12.82	0	0	0	5	5	0.02	-0.4636394	1	10	0.08	2800	342.5069	40.92397	-91.39365
5415238	46	-1	27	-3.73442	-2.053783	339.0079	0	12.82	0	0	0	5	5	0.02	-0.4607919	1	10	0.08	2800	343.1671	40.92397	-91.39365
5415347	41	-1	29	-3.735784	-2.054528	338.9771	0	12.82	0	0	0	5	5	0.02	-0.4555578	1	10	0.08	2800	342.6164	40.92397	-91.39365
5415441	38	0	33	-3.737874	-2.054846	338.9617	0	12.76	0	0	0	5	5	0.02	-0.4546126	1	10	0.08	2800	342.6164	40.92397	-91.39365
5415551	38	0	33	-3.737874	-2.054846	338.9617	0	12.76	0	0	0	5	5	0.02	-0.4546126	1	10	0.08	2800	342.6164	40.92397	-91.39365
5415645	38	0	33	-3.737874	-2.054846	338.9617	0	12.76	0	0	0	5	5	0.02	-0.4546126	1	10	0.08	2800	342.6164	40.92397	-91.39365
5415760	38	0	33	-3.737874	-2.054846	338.9617	0	12.76	0	0	0	5	5	0.02	-0.4546126	1	10	0.08	2800	342.6164	40.92397	-91.39365
5415854	38	0	33	-3.737874	-2.054846	338.9617	0	12.76	0	0	0	5	5	0.02	-0.4546126	1	10	0.08	2800	342.6164	40.92397	-91.39365
5415963	38	0	33	-3.737874	-2.054846	338.9617	0	12.76	0	0	0	5	5	0.02	-0.4546126	1	10	0.08	2800	342.6164	40.92397	-91.39365
5416062	38	0	33	-3.737874	-2.054846	338.9617	0	12.76	0	0	0	5	5	0.02	-0.4546126	1	10	0.08	2800	342.6164	40.92397	-91.39365
5416167	38	0	33	-3.737874	-2.054846	338.9617	0	12.76	0	0	0	5	5	0.02	-0.4546126	1	10	0.08	2800	342.6164	40.92397	-91.39365
5416277	38	0	33	-3.737874	-2.054846	338.9617	0	12.76	0	0	0	5	5	0.02	-0.4546126	1	10	0.08	2800	342.6164	40.92397	-91.39365
5416371	38	0	33	-3.737874	-2.054846	338.9617	0	12.76	0	0	0	5	5	0.02	-0.4546126	1	10	0.08	2800	342.6164	40.92397	-91.39365
5416480	38	0	33	-3.737874	-2.054846	338.9617	0	12.76	0	0	0	5	5	0.02	-0.4546126	1	10	0.08	2800	342.6164	40.92397	-91.39365
5416574	38	0	33	-3.737874	-2.054846	338.9617	0	12.76	0	0	0	5	5	0.02	-0.4546126	1	10	0.08	2800	342.6164	40.92397	-91.39365
5416683	38	0	33	-3.737874	-2.054846	338.9617	0	12.76	0	0	0	5	5	0.02	-0.4546126	1	10	0.08	2800	342.6164	40.92397	-91.39365
5416799	38	0	33	-3.737874	-2.054846	338.9617	0	12.76	0	0	0	5	5	0.02	-0.4546126	1	10	0.08	2800	342.6164	40.92397	-91.39365
5416908	38	0	33	-3.737874	-2.054846	338.9617	0	12.76	0	0	0	5	5	0.02	-0.4546126	1	10	0.08	2800	342.6164	40.92397	-91.39365
5417004	38	0	33	-3.737874	-2.054846	338.9617	0	12.76	0	0	0	5	5	0.02	-0.4546126	1	10	0.08	2800	342.6164	40.92397	-91.39365
5417111	38	0	33	-3.737874	-2.054846	338.9617	0	12.76	0	0	0	5	5	0.02	-0.4546126	1	10	0.08	2800	342.6164	40.92397	-91.39365
5417205	38	0	33	-3.737874	-2.054846	338.9617	0	12.76	0	0	0	5	5	0.02	-0.4546126	1	10	0.08	2800	342.6164	40.92397	-91.39365
5417312	38	0	33	-3.737874	-2.054846	338.9617	0	12.82	0	0	0	5	5	0.02	-0.4546126	1	10	0.08	2800	342.6164	40.92397	-91.39365
5417419	38	0	33	-3.737874	-2.054846	338.9617	0	12.82	0	0	0	5	5	0.02	-0.4546126	1	10	0.08	2800	342.6164	40.92397	-91.39365
5417512	38	0	33	-3.737874	-2.054846	338.9617	0	12.82	0	0	0	5	5	0.02	-0.4546126	1	10	0.08	2800	342.6164	40.92397	-91.39365
5417624	38	0	33	-3.737874	-2.054846	338.9617	0	12.82	0	0	0	5	5	0.02	-0.4546126	1	10	0.08	2800	342.6164	40.92397	-91.39365
5417718	38	0	33	-3.737874	-2.054846	338.9617	0	12.82	0	0	0	5	5	0.02	-0.4546126	1	10	0.08	2800	342.6164	40.92397	-91.39365
5417835	38	0	33	-3.737874	-2.054846	338.9617	0	12.82	0	0	0	5	5	0.02	-0.4546126	1	10	0.08	2800	342.6164	40.92397	-91.39365
5417945	38	0	33	-3.737874	-2.054846	338.9617	0	12.82	0	0	0	5	5	0.02	-0.4546126	1	10	0.08	2800	342.6164	40.92397	-91.39365
5418039	38	0	33	-3.737874	-2.054846	338.9617	0	12.82	0	0	0	5	5	0.02	-0.4546126	1	10	0.08	2800	342.6164	40.92397	-91.39365
5418148	38	0	33	-3.737874	-2.054846	338.9617	0	12.82	0	0	0	5	5	0.02	-0.4546126	1	10	0.08	2800	342.6164	40.92397	-91.39365
5418257	38	0	33	-3.737874	-2.054846	338.9617	0	12.82	0	0	0	5	5	0.02	-0.4546126	1	10	0.08	2800	342.6164	40.92397	-91.39365
5418350	38	0	33	-3.737874	-2.054846	338.9617	0	12.82	0	0	0	5	5	0.02	-0.4546126	1	10	0.08	2800	342.6164	40.92397	-91.39365
5418459	38	0	33	-3.737874	-2.054846	338.9617	0	12.82	0	0	0	5	5	0.02	-0.4546126	1	10	0.08	2800	342.6164	40.92397	-91.39365
5418552	38	0	33	-3.737874	-2.054846	338.9617	0	12.82	0	0	0	5	5	0.02	-0.4546126	1	10	0.08	2800	342.6164	40.92397	-91.39365
5418661	38	0	33	-3.737874	-2.054846	338.9617	0	12.82	0	0	0	5	5	0.02	-0.4546126	1	10	0.08	2800	342.6164	40.92397	-91.39365
5418776	38	0	33	-3.737874	-2.054846	338.9617	0	12.82	0	0	0	5	5	0.02	-0.4546126	1	10	0.08	2800	342.6164	40.92397	-91.39365
5418886	38	0	33	-3.737874	-2.054846	338.9617	0	12.82	0	0	0	5	5	0.02	-0.4546126	1	10	0.08	2800	342.6164	40.92397	-91.39365
5418978	38	0	33	-3.737874	-2.054846	338.9617	0	12.82	0	0	0	5	5	0.02	-0.4546126	1	10	0.08	2800	342.6164	40.92397	-91.39365
5419087	38	0	33	-3.737874	-2.054846	338.9617	0	12.82	0	0	0	5	5	0.02	-0.4546126	1	10	0.08	2800	342.6164	40.92397	-91.39365
5419196	38	0	33	-3.737874	-2.054846	338.9617	0	12.76	0	0	0	5	5	0.02	-0.4546126	1	10	0.08	2800	342.6164	40.92397	-91.39365
5419289	38	0	33	-3.737874	-2.054846	338.9617	0	12.76	0	0	0	5	5	0.02	-0.4546126	1	10	0.08	2800	342.6164	40.92397	-91.39365
5419397	38	0	33	-3.737874	-2.054846	338.9617	0	12.76	0	0	0	5	5	0.02	-0.4546126	1	10	0.08	2800	342.6164	40.92397	-91.39365
5419490	38	0	33	-3.737874	-2.054846	338.9617	0	12.76	0	0	0	5	5	0.02	-0.4546126	1	10	0.08	2800	342.6164	40.92397	-91.39365
5419599	38	0	33	-3.737874	-2.054846	338.9617	0	12.76	0	0	0	5	5	0.02	-0.4546126	1	10	0.08	2800	342.6164	40.92397	-91.39365
5419695	38	0	33	-3.737874	-2.054846	338.9617	0	12.76	0	0	0	5	5	0.02	-0.4546126	1	10	0.08	2800	342.6164	40.92397	-91.39365
5419808	38	0	33	-3.737874	-2.054846	338.9617	0	12.76	0	0	0	5	5	0.02	-0.4546126	1	10	0.08	2800	342.6164	40.92397	-91.39365
5419901	38	0	33	-3.737874	-2.054846	338.9617	0	12.76	0	0	0	5	5	0.02	-0.4546126	1	10	0.08	2800	342.6164	40.92397	-91.39365
5420010	38	0	33	-3.737874	-2.054846	338.9617	0	12.76	0	0	0	5	5	0.02	-0.4546126	1	10	0.08	2800	342.6164	40.92397	-91.39365
5420102	38	0	33	-3.737874	-2.054846	338.9617	0	12.76	0	0	0	5	5	0.02	-0.4546126	1	10	0.08	2800	342.6164	40.92397	-91.39365
5420210	38	0	33	-3.737874	-2.054846	338.9617	0	12.76	0	0	0	5	5	0.02	-0.4546126	1	10	0.08	2800	342.6164	40.92397	-91.39365
5420307	38	0	33	-3.737874	-2.054846	338.9617	0	12.76	0	0	0	5	5	0.02	-0.4546126	1	10	0.08	2800	342.6164	40.92397	-91.39365
5420416	38	0	33	-3.737874	-2.054846	338.9617	0	12.76	0	0	0	5	5	0.02	-0.4546126	1	10	0.08	2800	342.6164	40.92397	-91.39365
5420513	38	0	33	-3.737874	-2.054846	338.9617	0	12.76	0	0	0	5	5	0.02	-0.4546126	1	10	0.08	2800	342.6164	40.92397	-91.39365
5420622	38	0	33	-3.737874	-2.054846	338.9617	0	12.76	0	0	0	5	5	0.02	-0.4546126	1	10	0.08	2800	342.6164	40.92397	-91.39365
5420717	38	0	33	-3.737874	-2.054846	338.9617	0	12.76	0	0	0	5	5	0.02	-0.4546126	1	10	0.08	2800	342.6164	40.92397	-91.39365
5420824	38	0	33	-3.737874	-2.054846	338.9617	0	12.76	0	0	0	5	5	0.02	-0.4546126	1	10	0.08	2800	342.6164	40.92397	-91.39365
5420939	38	0	33	-3.737874	-2.054846	338.9617	0	12.76	0	0	0	5	5	0.02	-0.4546126	1	10	0.08	2800	342.6164	40.92397	-91.39365
5421048	38	0	33	-3.737874	-2.054846	338.9617	0	12.76	0	0	0	5	5	0.02	-0.4546126	1	10	0.08	2800	342.6164	40.92397	-91.39365
5421143	38	0	33	-3.737874	-2.054846	338.9617	0	12.76	0	0	0	5	5	0.02	-0.4546126	1	10	0.08	2800	342.6164	40.92397	-91.39365
5421249	38	0	33	-3.737874	-2.054846	338.9617	0	12.76	0	0	0	5	5	0.02	-0.4546126	1	10	0.08	2800	342.6164	40.92397	-91.39365
5421357	38	0	33	-3.737874	-2.054846	338.9617	0	12.76	0	0	0	5	5	0.02	-0.4546126	1	10	0.08	2800	342.6164	40.92397	-91.39365
5421451	38	0	33	-3.737874	-2.054846	338.9617	0	12.76	0	0	0	5	5	0.02	-0.4546126	1	10	0.08	2800	342.6164	40.92397	-91.39365
5421560	38	0	33	-3.737874	-2.054846	338.9617	0	12.76	0	0	0	5	5	0.02	-0.4546126	1	10	0.08	2800	342.6164	40.92397	-91.39365
5421654	38	0	33	-3.737874	-2.054846	338.9617	0	12.76	0	0	0	5	5	0.02	-0.4546126	1	10	0.08	2800	342.6164	40.92397	-91.39365
5421763	38	0	33	-3.737874	-2.054846	338.9617	0	12.76	0	0	0	5	5	0.02	-0.4546126	1	10	0.08	2800	342.6164	40.92397	-91.39365
5421877	38	0	33	-3.737874	-2.054846	338.9617	0	12.76	0	0	0	5	5	0.02	-0.4546126	1	10	0.08	2800	342.6164	40.92397	-91.39365
5421989	38	0	33	-3.737874	-2.054846	338.9617	0	12.76	0	0	0	5	5	0.02	-0.4546126	1	10	0.08	2800	342.6164	40.92397	-91.39365
5422081	38	0	33	-3.737874	-2.054846	338.9617	0	12.82	0	0	0	5	5	0.02	-0.4546126	1	10	0.08	2800	342.6164	40.92397	-91.39365
5422189	38	0	33	-3.737874	-2.054846	338.9617	0	12.82	0	0	0	5	5	0.02	-0.4546126	1	10	0.08	2800	342.6164	40.92397	-91.39365
5422282	38	0	33	-3.737874	-2.054846	338.9617	0	12.82	0	0	0	5	5	0.02	-0.4546126	1	10	0.08	2800	342.6164	40.92397	-91.39365
5422390	38	0	33	-3.737874	-2.054846	338.9617	0	12.82	0	0	0	5	5	0.02	-0.4546126	1	10	0.08	2800	342.6164	40.92397	-91.39365
5422499	38	0	33	-3.737874	-2.054846	338.9617	0	12.82	0	0	0	5	5	0.02	-0.4546126	1	10	0.08	2800	342.6164	40.92397	-91.39365
5422594	38	0	33	-3.737874	-2.054846	338.9617	0	12.82	0	0	0	5	5	0.02	-0.4546126	1	10	0.08	2800	342.6164	40.92397	-91.39365
5422700	38	0	33	-3.737874	-2.054846	338.9617	0	12.82	0	0	0	5	5	0.02	-0.4546126	1	10	0.08	2800	342.6164	40.92397	-91.39365
5422793	38	0	33	-3.737874	-2.054846	338.9617	0	12.82	0	0	0	5	5	0.02	-0.4546126	1	10	0.08	2800	342.6164	40.92397	-91.39365
5422908	38	0	33	-3.737874	-2.054846	338.9617	0	12.82	0	0	0	5	5	0.02	-0.4546126	1	10	0.08	2800	342.6164	40.92397	-91.39365
5423009	38	0	33	-3.737874	-2.054846	338.9617	0	12.82	0	0	0	5	5	0.02	-0.4546126	1	10	0.08	2800	342.6164	40.92397	-91.39365
5423110	38	0	33	-3.737874	-2.054846	338.9617	0	12.82	0	0	0	5	5	0.02	-0.4546126	1	10	0.08	2800	342.6164	40.92397	-91.39365
5423203	38	0	33	-3.737874	-2.054846	338.9617	0	12.82	0	0	0	5	5	0.02	-0.4546126	1	10	0.08	2800	342.6164	40.92397	-91.39365
5423312	38	0	33	-3.737874	-2.054846	338.9617	0	12.82	0	0	0	5	5	0.02	-0.4546126	1	10	0.08	2800	342.6164	40.92397	-91.39365
5423423	38	0	33	-3.737874	-2.054846	338.9617	0	12.82	0	0	0	5	5	0.02	-0.4546126	1	10	0.08	2800	342.6164	40.92397	-91.39365
5423514	38	0	33	-3.737874	-2.054846	338.9617	0	12.82	0	0	0	5	5	0.02	-0.4546126	1	10	0.08	2800	342.6164	40.92397	-91.39365
5423623	38	0	33	-3.737874	-2.054846	338.9617	0	12.82	0	0	0	5	5	0.02	-0.4546126	1	10	0.08	2800	342.6164	40.92397	-91.39365
5423714	38	0	33	-3.737874	-2.054846	338.9617	0	12.82	0	0	0	5	5	0.02	-0.4546126	1	10	0.08	2800	342.6164	40.92397	-91.39365
5423822	38	0	33	-3.737874	-2.054846	338.9617	0	12.82	0	0	0	5	5	0.02	-0.4546126	1	10	0.08	2800	342.6164	40.92397	-91.39365
5423915	-3	-1	0	0.9333448	-4.72993	355.0638	0	12.82	0	0	0	5	5	0.02	-0.09987494	1	10	0.08	2800	355.064	40.92397	-91.39365
5424030	-1	-1	3	0.6176605	-4.586219	355.064	0	12.82	0	0	0	5	5	0.02	-0.03749152	1	10	0.08	2800	352.7539	40.92397	-91.39365
5424123	0	-1	2	0.3190804	-4.450282	355.062	0	12.82	0	0	0	5	5	0.02	-0.0216923	1	10	0.08	2800	352.7587	40.92397	-91.39365
5424232	2	3	-1	0.03818255	-4.323473	355.0611	0	12.82	0	0	0	5	5	0.02	-0.01461968	1	10	0.08	2800	352.2394	40.92397	-91.39365
5424326	-1	2	1	-0.2285995	-4.201398	355.0599	0	12.82	0	0	0	5	5	0.02	-0.002325161	1	10	0.08	2800	351.3657	40.92397	-91.39365
5424447	-1	-2	0	-0.4820009	-4.089964	355.0594	0	12.82	0	0	0	5	5	0.02	0.001204891	1	10	0.08	2800	349.9392	40.92397	-91.39365
5424544	-4	-1	1	-0.6463351	-4.019909	355.0601	0	12.82	0	0	0	5	5	0.02	0.00446527	1	10	0.08	2800	350.6172	40.92397	-91.39365
5424637	-1	-9	2	-0.9496209	-3.876373	355.0591	0	12.82	0	0	0	5	5	0.02	0.006903753	1	10	0.08	2800	349.2268	40.92397	-91.39365
5424745	4	1	4	-1.164014	-3.779495	355.0585	0	12.82	0	0	0	5	5	0.02	0.007518291	1	10	0.08	2800	347.8223	40.92397	-91.39365
5424838	3	-5	0	-1.37013	-3.686896	355.0577	0	12.82	0	0	0	5	5	0.02	0.006436238	1	10	0.08	2800	348.0795	40.92397	-91.39365
5424948	0	-2	0	-1.56423	-3.598983	355.0573	0	12.82	0	0	0	5	5	0.02	0.004796198	1	10	0.08	2800	346.997	40.92397	-91.39365
5425042	6	0	-6	-1.744187	-3.51649	355.0573	0	12.82	0	0	0	5	5	0.02	0.003688368	1	10	0.08	2800	346.7525	40.92397	-91.39365
5425158	0	0	0	-1.915809	-3.438716	355.0575	0	12.82	0	0	0	5	5	0.02	0.007752794	1	10	0.08	2800	346.4839	40.92397	-91.39365
5425252	0	-3	2	-2.132663	-3.33838	355.0547	0	12.82	0	0	0	5	5	0.02	0.0125867	1	10	0.08	2800	345.8036	40.92397	-91.39365
5425371	1	-3	3	-2.235957	-3.290293	355.0538	0	12.82	0	0	0	5	5	0.02	0.01745056	1	10	0.08	2800	345.6525	40.92397	-91.39365
5425455	0	0	2	-2.335105	-3.244759	355.0522	0	12.82	0	0	0	5	5	0.02	0.01703096	1	10	0.08	2800	345.5444	40.92397	-91.39365
5425568	0	0	5	-2.521671	-3.158692	355.0493	0	12.82	0	0	0	5	5	0.02	0.02011113	1	10	0.08	2800	345.0711	40.92397	-91.39365
5425673	2	2	2	-2.695504	-3.077883	344.9687	0	12.82	0	0	0	5	5	0.02	0.02122344	1	10	0.08	2800	344.9689	40.92397	-91.39365
5425768	0	3	5	-2.778404	-3.042393	344.9684	0	12.82	0	0	0	5	5	0.02	0.02274836	1	10	0.08	2800	344.7678	40.92397	-91.39365
5425875	-1	0	1	-2.933407	-2.971285	344.968	0	12.82	0	0	0	5	5	0.02	0.02575837	1	10	0.08	2800	343.8392	40.92397	-91.39365
5425974	0	4	1	-3.006013	-2.937456	344.9679	0	12.82	0	0	0	5	5	0.02	0.02329287	1	10	0.08	2800	344.1639	40.92397	-91.39365
5426077	-1	1	-2	-3.144403	-2.87141	344.969	0	12.82	0	0	0	5	5	0.02	0.01951519	1	10	0.08	2800	344.1296	40.92397	-91.39365
5426170	5	0	-1	-3.210284	-2.840418	344.9691	0	12.82	0	0	0	5	5	0.02	0.003055033	1	10	0.08	2800	343.3479	40.92397	-91.39365
5426285	-1	-2	-2	-3.307352	-2.797729	344.9686	0	12.82	0	0	0	5	5	0.02	-0.0001281362	1	10	0.08	2800	343.5718	40.92397	-91.39365
5426378	0	5	0	-3.398983	-2.75596	344.9677	0	12.82	0	0	0	5	5	0.02	0.001320905	1	10	0.08	2800	343.1353	40.92397	-91.39365
5426488	2	3	0	-3.511511	-2.706031	344.9675	0	12.82	0	0	0	5	5	0.02	-0.002275246	1	10	0.08	2800	343.0345	40.92397	-91.39365
5426584	-2	-1	5	-3.568373	-2.679945	344.9663	0	12.82	0	0	0	5	5	0.02	-0.007960632	1	10	0.08	2800	342.8672	40.92397	-91.39365
5426689	4	5	2	-3.668628	-2.636036	344.9648	0	12.76	0	0	0	5	5	0.02	-0.01203976	1	10	0.08	2800	342.7348	40.92397	-91.39365
5426795	1	8	6	-3.738488	-2.602958	344.9633	0	12.76	0	0	0	5	5	0.02	-0.01558483	1	10	0.08	2800	342.4735	40.92397	-91.39365
5426888	2	-1	0	-3.805796	-2.572425	344.9641	0	12.76	0	0	0	5	5	0.02	-0.01634898	1	10	0.08	2800	342.2386	40.92397	-91.39365
5426997	3	1	1	-3.869989	-2.543933	344.9626	0	12.76	0	0	0	5	5	0.02	-0.009445935	1	10	0.08	2800	341.8049	40.92397	-91.39365
5427095	3	-1	0	-3.911324	-2.524683	344.9615	0	12.76	0	0	0	5	5	0.02	0.002327797	1	10	0.08	2800	341.9426	40.92397	-91.39365
5427197	-1	3	0	-3.983579	-2.487281	344.9623	0	12.76	0	0	0	5	5	0.02	0.01853552	1	10	0.08	2800	342.1841	40.92397	-91.39365
5427302	3	-2	-7	-4.036055	-2.46293	344.9619	0	12.76	0	0	0	5	5	0.02	0.02315989	1	10	0.08	2800	341.9388	40.92397	-91.39365
5427404	1	1	-1	-4.08869	-2.438989	344.9613	0	12.76	0	0	0	5	5	0.02	0.0126104	1	10	0.08	2800	341.6371	40.92397	-91.39365
5427478	-2	-1	-1	-4.138435	-2.417776	344.9607	0	12.76	0	0	0	5	5	0.02	0.009839265	1	10	0.08	2800	341.2098	40.92397	-91.39365
5427596	0	-2	0	-4.196149	-2.392628	344.9588	0	12.82	0	0	0	5	5	0.02	0.009885686	1	10	0.08	2800	341.8831	40.92397	-91.39365
5427693	1	0	2	-4.225526	-2.380802	344.9582	0	12.82	0	0	0	5	5	0.02	0.009780959	1	10	0.08	2800	340.9911	40.92397	-91.39365
5427786	-1	1	-4	-4.265596	-2.361802	344.9583	0	12.82	0	0	0	5	5	0.02	0.007843629	1	10	0.08	2800	341.5553	40.92397	-91.39365
5427894	0	0	2	-4.307158	-2.342574	344.9579	0	12.82	0	0	0	5	5	0.02	0.001029307	1	10	0.08	2800	341.218	40.92397	-91.39365
5427987	0	2	1	-4.340648	-2.324871	344.958	0	12.82	0	0	0	5	5	0.02	0.0009201721	1	10	0.08	2800	341.1693	40.92397	-91.39365
5428096	4	4	2	-4.377176	-2.310225	344.9564	0	12.82	0	0	0	5	5	0.02	0.01457804	1	10	0.08	2800	341.2516	40.92397	-91.39365
5428189	0	-2	0	-4.413751	-2.293991	344.9564	0	12.82	0	0	0	5	5	0.02	0.02760057	1	10	0.08	2800	341.0583	40.92397	-91.39365
5428298	0	0	3	-4.431915	-2.28325	344.9555	0	12.82	0	0	0	5	5	0.02	0.04362954	1	10	0.08	2800	340.8716	40.92397	-91.39365
5428413	-3	6	-3	-4.471554	-2.265671	344.9558	0	12.82	0	0	0	5	5	0.02	0.05907395	1	10	0.08	2800	340.7451	40.92397	-91.39365
5428526	2	0	3	-4.503329	-2.254287	344.9553	0	12.82	0	0	0	5	5	0.02	0.0593436	1	10	0.08	2800	340.5242	40.92397	-91.39365
5428630	0	3	0	-4.537018	-2.239536	344.9562	0	12.76	0	0	0	5	5	0.02	0.05707259	1	10	0.08	2800	340.3591	40.92397	-91.39365
5428723	-1	4	1	-4.554008	-2.234123	344.9557	0	12.76	0	0	0	5	5	0.02	0.05744274	1	10	0.08	2800	340.3687	40.92397	-91.39365
5428832	2	0	0	-4.586117	-2.218929	344.9566	0	12.76	0	0	0	5	5	0.02	0.06193551	1	10	0.08	2800	340.3849	40.92397	-91.39365
5428923	-5	2	1	-4.601032	-2.215223	344.9558	0	12.76	0	0	0	5	5	0.02	0.06170137	1	10	0.08	2800	340.3475	40.92397	-91.39365
5429038	1	8	0	-4.629804	-2.205929	344.9564	0	12.76	0	0	0	5	5	0.02	0.05973586	1	10	0.08	2800	340.288	40.92397	-91.39365
5429124	1	-2	1	-4.643775	-2.201413	344.9561	0	12.76	0	0	0	5	5	0.02	0.05704945	1	10	0.08	2800	340.3273	40.92397	-91.39365
5429233	0	3	-2	-4.671558	-2.190337	344.9563	0	12.76	0	0	0	5	5	0.02	0.05636484	1	10	0.08	2800	340.19	40.92397	-91.39365
5429326	-1	-2	-2	-4.691263	-2.183734	344.9561	0	12.76	0	0	0	5	5	0.02	0.05809817	1	10	0.08	2800	340.3335	40.92397	-91.39365
5429441	-1	0	0	-4.71209	-2.17125	344.954	0	12.76	0	0	0	5	5	0.02	0.05485985	1	10	0.08	2800	340.5025	40.92397	-91.39365
5429534	3	2	2	-4.721003	-2.167557	344.9544	0	12.76	0	0	0	5	5	0.02	0.05476115	1	10	0.08	2800	340.044	40.92397	-91.39365
5429641	-1	3	-2	-4.738813	-2.159831	344.953	0	12.76	0	0	0	5	5	0.02	0.0574329	1	10	0.08	2800	340.1706	40.92397	-91.39365
5429734	4	-1	1	-4.752973	-2.153424	344.9531	0	12.76	0	0	0	5	5	0.02	0.06561959	1	10	0.08	2800	340.0219	40.92397	-91.39365
5429846	0	2	-5	-4.769186	-2.142051	344.9532	0	12.76	0	0	0	5	5	0.02	0.07121164	1	10	0.08	2800	340.2575	40.92397	-91.39365
5429951	3	3	0	-4.775917	-2.139447	344.9534	0	12.76	0	0	0	5	5	0.02	0.07467259	1	10	0.08	2800	340.0292	40.92397	-91.39365
5430044	-2	0	-1	-4.788359	-2.133905	344.9542	0	12.76	0	0	0	5	5	0.02	0.07957364	1	10	0.08	2800	340.2125	40.92397	-91.39365
5430152	0	-2	1	-4.803689	-2.129201	344.9548	0	12.76	0	0	0	5	5	0.02	0.08723614	1	10	0.08	2800	340.3333	40.92397	-91.39365
5430245	0	0	5	-4.812903	-2.127142	344.9553	0	12.76	0	0	0	5	5	0.02	0.09840178	1	10	0.08	2800	339.9864	40.92397	-91.39365
5430354	-1	5	0	-4.824846	-2.123446	344.9551	0	12.76	0	0	0	5	5	0.02	0.1088233	1	10	0.08	2800	340.1141	40.92397	-91.39365
5430448	-3	0	2	-4.83789	-2.118473	344.9549	0	12.76	0	0	0	5	5	0.02	0.1126934	1	10	0.08	2800	340.2799	40.92397	-91.39365
5430563	0	7	5	-4.84694	-2.114844	344.9533	0	12.76	0	0	0	5	5	0.02	0.1169567	1	10	0.08	2800	339.64	40.92397	-91.39365
5430666	-6	-1	-2	-4.85676	-2.108722	344.954	0	12.76	0	0	0	5	5	0.02	0.1180155	1	10	0.08	2800	339.7137	40.92397	-91.39365
5430765	4	2	-1	-4.865092	-2.1063	344.9548	0	12.76	0	0	0	5	5	0.02	0.1173716	1	10	0.08	2800	340.3955	40.92397	-91.39365
5430861	8	1	0	-4.870096	-2.101619	344.9563	0	12.76	0	0	0	5	5	0.02	0.1175271	1	10	0.08	2800	340.4805	40.92397	-91.39365
5430968	2	0	1	-4.877563	-2.097747	344.9572	0	12.76	0	0	0	5	5	0.02	0.1169266	1	10	0.08	2800	340.3717	40.92397	-91.39365
5431061	1	-1	3	-4.882923	-2.095964	344.9565	0	12.76	0	0	0	5	5	0.02	0.1221791	1	10	0.08	2800	340.1471	40.92397	-91.39365
5431170	0	4	3	-4.89361	-2.093279	344.9579	0	12.76	0	0	0	5	5	0.02	0.1276593	1	10	0.08	2800	340	40.92397	-91.39365
5431279	1	2	-1	-4.900144	-2.091318	344.9569	0	12.76	0	0	0	5	5	0.02	0.144151	1	10	0.08	2800	339.7491	40.92397	-91.39365
5431371	1	-3	0	-4.905947	-2.090133	344.9563	0	12.76	0	0	0	5	5	0.02	0.154116	1	10	0.08	2800	340.2686	40.92397	-91.39365
5431481	-1	2	-2	-4.914213	-2.08976	344.9563	0	12.76	0	0	0	5	5	0.02	0.1568923	1	10	0.08	2800	339.7442	40.92397	-91.39365
5431579	2	3	-2	-4.919016	-2.088209	344.9561	0	12.76	0	0	0	5	5	0.02	0.1625162	1	10	0.08	2800	339.8011	40.92397	-91.39365
5431690	3	0	-3	-4.922476	-2.081739	344.956	0	12.76	0	0	0	5	5	0.02	0.1642099	1	10	0.08	2800	339.9138	40.92397	-91.39365
5431784	0	7	1	-4.923422	-2.077582	344.9554	0	12.76	0	0	0	5	5	0.02	0.1604599	1	10	0.08	2800	339.8907	40.92397	-91.39365
5431893	1	-1	-1	-4.927362	-2.073664	344.9549	0	12.76	0	0	0	5	5	0.02	0.157389	1	10	0.08	2800	340.2271	40.92397	-91.39365
5431987	1	5	2	-4.929718	-2.074884	344.9546	0	12.76	0	0	0	5	5	0.02	0.1590261	1	10	0.08	2800	340.098	40.92397	-91.39365
5432096	3	1	2	-4.934635	-2.071241	344.9536	0	12.76	0	0	0	5	5	0.02	0.1590735	1	10	0.08	2800	340.0406	40.92397	-91.39365
5432204	2	0	3	-4.937997	-2.069131	344.9535	0	12.76	0	0	0	5	5	0.02	0.1610291	1	10	0.08	2800	340.032	40.92397	-91.39365
5432301	0	3	4	-4.942949	-2.065814	344.9538	0	12.76	0	0	0	5	5	0.02	0.1575083	1	10	0.08	2800	340.0819	40.92397	-91.39365
5432394	2	2	0	-4.947284	-2.061624	344.9535	0	12.76	0	0	0	5	5	0.02	0.1544247	1	10	0.08	2800	340.0702	40.92397	-91.39365
5432502	-1	2	2	-4.949666	-2.062434	344.9514	0	12.76	0	0	0	5	5	0.02	0.1521372	1	10	0.08	2800	339.7996	40.92397	-91.39365
5432615	9	1	4	-4.951211	-2.05755	344.9502	0	12.76	0	0	0	5	5	0.02	0.1464093	1	10	0.08	2800	339.9655	40.92397	-91.39365
5432704	-1	0	-1	-4.952318	-2.054839	344.9499	0	12.76	0	0	0	5	5	0.02	0.1488572	1	10	0.08	2800	339.9655	40.92397	-91.39365
5432819	1	1	-4	-4.954978	-2.048711	344.9533	0	12.76	0	0	0	5	5	0.02	0.1539732	1	10	0.08	2800	339.7031	40.92397	-91.39365
5432940	-3	2	1	-4.958229	-2.047516	344.9524	0	12.76	0	0	0	5	5	0.02	0.1560107	1	10	0.08	2800	339.7954	40.92397	-91.39365
5433024	2	2	0	-4.959707	-2.048547	344.952	0	12.76	0	0	0	5	5	0.02	0.1503184	1	10	0.08	2800	339.6897	40.92397	-91.39365
5433132	0	2	-2	-4.96173	-2.048352	344.9525	0	12.76	0	0	0	5	5	0.02	0.1489374	1	10	0.08	2800	340.0923	40.92397	-91.39365
5433240	0	3	-2	-4.965089	-2.048261	344.9525	0	12.76	0	0	0	5	5	0.02	0.1483594	1	10	0.08	2800	339.4874	40.92397	-91.39365
5433332	0	0	0	-4.965062	-2.045956	344.9546	0	12.76	0	0	0	5	5	0.02	0.139378	1	10	0.08	2800	339.6288	40.92397	-91.39365
5433440	0	0	1	-4.965346	-2.045497	344.955	0	12.76	0	0	0	5	5	0.02	0.1271023	1	10	0.08	2800	339.9436	40.92397	-91.39365
5433533	1	0	-1	-4.968524	-2.04759	344.9547	0	12.76	0	0	0	5	5	0.02	0.1202886	1	10	0.08	2800	340.0322	40.92397	-91.39365
5433641	1	5	2	-4.971656	-2.04543	344.9546	0	12.76	0	0	0	5	5	0.02	0.1279943	1	10	0.08	2800	339.6946	40.92397	-91.39365
5433734	0	4	3	-4.97303	-2.045376	344.9549	0	12.76	0	0	0	5	5	0.02	0.1412474	1	10	0.08	2800	339.8082	40.92397	-91.39365
5433849	-4	-5	3	-4.977839	-2.042135	344.9528	0	12.76	0	0	0	5	5	0.02	0.1508558	1	10	0.08	2800	339.3777	40.92397	-91.39365
5433942	1	3	-1	-4.979076	-2.04278	344.9524	0	12.76	0	0	0	5	5	0.02	0.1593426	1	10	0.08	2800	339.6323	40.92397	-91.39365
5434051	2	-6	0	-4.980227	-2.040482	344.9527	0	12.76	0	0	0	5	5	0.02	0.1655454	1	10	0.08	2800	338.9616	40.92397	-91.39365
5434144	-1	-4	0	-4.981595	-2.041391	344.9532	0	12.76	0	0	0	5	5	0.02	0.1690171	1	10	0.08	2800	339.6251	40.92397	-91.39365
5434260	0	0	1	-4.98613	-2.038675	344.9533	0	12.76	0	0	0	5	5	0.02	0.173393	1	10	0.08	2800	339.6851	40.92397	-91.39365
5434363	3	4	0	-4.987504	-2.041117	344.9535	0	12.76	0	0	0	5	5	0.02	0.174336	1	10	0.08	2800	339.7301	40.92397	-91.39365
5434457	0	3	-1	-4.985781	-2.042637	344.9546	0	12.76	0	0	0	5	5	0.02	0.1789428	1	10	0.08	2800	339.2079	40.92397	-91.39365
5434566	2	0	-1	-4.984245	-2.041844	344.9554	0	12.76	0	0	0	5	5	0.02	0.1787838	1	10	0.08	2800	339.7147	40.92397	-91.39365
5434660	-1	-1	2	-4.985589	-2.043297	344.9544	0	12.76	0	0	0	5	5	0.02	0.1797121	1	10	0.08	2800	339.6216	40.92397	-91.39365
5434771	2	3	7	-4.987751	-2.041047	344.9526	0	12.76	0	0	0	5	5	0.02	0.1842888	1	10	0.08	2800	339.6605	40.92397	-91.39365
5434862	2	2	0	-4.986741	-2.040732	344.9524	0	12.76	0	0	0	5	5	0.02	0.1888873	1	10	0.08	2800	339.3507	40.92397	-91.39365
5434977	4	0	-5	-4.986686	-2.037903	344.954	0	12.76	0	0	0	5	5	0.02	0.1907738	1	10	0.08	2800	339.3083	40.92397	-91.39365
5435071	-1	-3	0	-4.989938	-2.038252	344.9561	0	12.82	0	0	0	5	5	0.02	0.1903288	1	10	0.08	2800	339.6104	40.92397	-91.39365
5435180	2	2	0	-4.992359	-2.036339	344.9572	0	12.82	0	0	0	5	5	0.02	0.1818306	1	10	0.08	2800	339.8665	40.92397	-91.39365
5435273	2	2	-3	-4.989982	-2.035062	344.9582	0	12.82	0	0	0	5	5	0.02	0.1750549	1	10	0.08	2800	340.0125	40.92397	-91.39365
