time(ms)	gyro_x(deg/s)	gyro_y(deg/s)	gyro_z(deg/s)	orientation_roll(deg)	orientation_pitch(deg)	orientation_yaw(deg)	throttle	battery(V)	loop_time(uS)	pid_output_roll	pid_output_pitch	pid_output_yaw	pid_output_throttle	ultrasonic_alt	baro_alt	flight_mode	p_gain_altitude	i_gain_altitude	d_gain_altitude	compass_heading	latitude	longitude
374994	1550	-1910	490	-7.327997	2.585591	347.9831	0	9.81	20020	73	40	5	5	0.02	0.6349533	8	10	0.08	2800	356.2914	40.92397	-91.39361
375107	1264	177	438	-6.008984	4.865942	347.7731	0	9.81	20031	56	38	5	5	0.02	0.6196912	8	10	0.08	2800	356.4541	40.92397	-91.39361
375187	977	1300	-259	-4.532243	3.75842	358.2676	0	9.81	20031	60	39	5	5	0.02	0.6101075	8	10	0.08	2800	358.2676	40.92397	-91.39361
375350	-867	-2367	356	-4.19121	3.421932	357.9264	0	9.81	20028	49	44	5	5	0.02	0.5780146	8	10	0.08	2800	356.6273	40.92397	-91.39361
375470	1461	1211	-40	-4.404773	4.273119	357.5575	0	9.81	20057	37	40	5	5	0.02	0.5625007	8	10	0.08	2800	352.4911	40.92397	-91.39361
375580	1040	1295	125	-2.413582	1.477465	357.6163	0	9.81	24037	48	46	5	5	0.02	0.5456994	8	10	0.08	2800	355.5605	40.92397	-91.39361
375612	-434	725	-95	-2.549265	1.188114	357.712	0	9.98	20034	48	47	5	5	0.02	0.5440038	8	10	0.08	2800	357.8694	40.92397	-91.39361
375703	-1438	-974	21	-2.932866	0.3973609	358.068	0	9.98	20035	48	38	5	5	0.02	0.5361257	8	10	0.08	2800	356.9677	40.92397	-91.39361
375816	1414	-337	-46	-2.43536	2.148858	358.6854	0	9.98	20028	40	43	5	5	0.02	0.5320172	8	10	0.08	2800	357.5992	40.92397	-91.39361
375926	-1839	-1951	-593	-4.28305	4.384388	359.0617	0	9.98	20030	41	44	5	5	0.02	0.533531	8	10	0.08	2800	356.4779	40.92397	-91.39361
376020	-1630	-635	-165	-5.569473	5.624336	359.2915	0	9.98	20055	34	37	5	5	0.02	0.5294257	8	10	0.08	2800	353.84	40.92397	-91.39361
376129	1621	1188	449	-4.599768	3.539564	358.3326	0	9.98	20033	30	40	5	5	0.02	0.5124221	8	10	0.08	2800	355.8984	40.92397	-91.39361
376208	794	351	679	-4.285575	3.109286	357.6942	0	9.98	20008	28	40	5	5	0.02	0.4997587	8	10	0.08	2800	355.4155	40.92397	-91.39361
376359	2677	1136	1608	-1.044333	1.830823	356.3991	0	9.98	20031	22	31	5	5	0.02	0.4737194	8	10	0.08	2800	352.7217	40.92397	-91.39361
376495	-156	365	1566	-2.059985	1.808077	353.1295	0	9.58	20028	26	33	5	5	0.02	0.4695185	8	10	0.08	2800	350.4097	40.92397	-91.39361
376531	590	28	2078	-1.943152	1.51152	352.364	0	9.58	20052	25	32	5	5	0.02	0.4687908	8	10	0.08	2800	346.747	40.92397	-91.39361
376653	974	208	2712	-3.968071	2.156684	347.9543	0	9.58	20010	28	30	5	5	0.02	0.4683166	8	10	0.08	2800	342.7808	40.92397	-91.39361
376708	2728	573	1586	-2.701021	1.4348	345.9218	0	9.58	23991	28	30	5	5	0.02	0.4684515	8	10	0.08	2800	339.6444	40.92397	-91.39361
376914	1431	1462	494	-0.9322938	0.8525854	343.8394	0	9.58	20036	26	21	5	5	0.02	0.4755127	8	10	0.08	2800	336.409	40.92397	-91.39362
377059	-2386	-1369	178	-3.118883	0.7230164	343.8362	0	9.58	20012	23	17	5	5	0.02	0.4850267	8	10	0.08	2800	339.7959	40.92397	-91.39362
377122	-3080	-1404	-590	-4.725484	1.507917	343.8911	0	9.58	20033	32	19	5	5	0.02	0.4956815	8	10	0.08	2800	339.7959	40.92397	-91.39362
377207	2522	-172	464	-3.20491	3.708958	344.0921	0	9.58	20035	36	18	5	5	0.02	0.5057543	8	10	0.08	2800	337.7239	40.92397	-91.39362
377405	-3874	-822	-1044	-3.680464	2.303772	345.5612	0	9.58	20034	34	28	5	5	0.02	0.5393682	8	10	0.08	2800	338.9926	40.92397	-91.39362
377450	-3132	-1058	-1481	-5.255591	3.020814	346.127	0	9.24	20050	34	29	5	5	0.02	0.5536446	8	10	0.08	2800	338.7841	40.92397	-91.39362
377553	1716	1575	-1666	-4.263096	2.562523	349.1156	0	9.24	20021	39	23	5	5	0.02	0.5700083	8	10	0.08	2800	343.7675	40.92397	-91.39362
377612	563	418	-1747	-3.354643	2.044002	349.9869	0	9.24	20030	31	16	5	5	0.02	0.5830886	8	10	0.08	2800	343.7675	40.92397	-91.39362
377729	-3316	2447	-3189	-6.341753	0.7606078	355.6255	0	9.24	20032	31	23	5	5	0.02	0.6014397	8	10	0.08	2800	346.9963	40.92397	-91.39362
377898	-2242	1653	-4433	-9.919465	-4.257332	3.504578	0	9.24	20052	38	29	5	5	0.02	0.6134204	8	10	0.08	2800	2.69104	40.92397	-91.39362
377970	-717	387	-4027	-10.7765	-3.827269	7.996481	0	9.24	20032	30	39	5	5	0.02	0.615003	8	10	0.08	2800	11.76645	40.92397	-91.39362
378016	-76	-601	-4760	-11.09828	-2.999748	10.44447	0	9.24	20036	19	42	5	5	0.02	0.6191676	8	10	0.08	2800	17.11938	40.92397	-91.39362
378124	2918	-1002	-4119	-7.804109	2.727529	20.63229	0	9.24	20039	10	40	5	5	0.02	0.6181651	8	10	0.08	2800	29.5452	40.92397	-91.39362
378242	1367	666	-3516	-2.870359	3.63115	37.88928	0	9.24	20034	-5	39	5	5	0.02	0.5902693	8	10	0.08	2800	35.65891	40.92397	-91.39362
378353	-2190	1859	-3397	-4.617396	2.127812	45.09199	0	9.3	20031	-13	34	5	5	0.02	0.5663508	8	10	0.08	2800	44.31461	40.92397	-91.39362
378429	-1115	1581	-3578	-5.514498	1.592731	47.13474	0	9.3	20032	-17	32	5	5	0.02	0.5294211	8	10	0.08	2800	44.31461	40.92397	-91.39362
378524	-5424	4564	-298	-5.864955	-0.2075805	49.66391	0	9.3	20038	-14	34	5	5	0.02	0.4843713	8	10	0.08	2800	43.13013	40.92397	-91.39362
378637	-1295	3045	-3126	-12.46822	-10.66274	65.65392	0	9.3	20073	-28	19	5	5	0.02	0.4255347	8	10	0.08	2800	64.9223	40.92397	-91.39362
378761	-1746	2146	-3533	-12.16133	-11.33302	71.22003	0	9.3	20032	-31	12	5	5	0.02	0.3921733	8	10	0.08	2800	68.16406	40.92397	-91.39362
378838	1666	-1954	-467	-11.93158	-11.77612	73.09029	0	9.3	20036	-46	1	5	5	0.02	0.3592481	8	10	0.08	2800	77.96552	40.92397	-91.39362
379010	519	-2289	722	1.544595	1.189748	73.69402	0	9.3	20029	-38	-18	5	5	0.02	0.2987087	8	10	0.08	2800	69.40039	40.92397	-91.39362
379064	2925	-1210	329	2.599136	2.095213	73.32883	0	9.3	20010	-35	-16	5	5	0.02	0.2857932	8	10	0.08	2800	68.0621	40.92397	-91.39362
379157	1320	-774	-34	4.825485	2.900492	72.73316	0	9.3	20030	-20	1	5	5	0.02	0.2712636	8	10	0.08	2800	63.35901	40.92397	-91.39362
379283	-5957	212	-354	1.293832	-0.3379578	61.07191	0	9.3	20030	8	12	5	5	0.02	0.2614019	8	10	0.08	2800	61.77362	40.92397	-91.39362
379393	-328	497	-9	-1.269002	-0.1933159	60.78889	0	9.3	20032	2	23	5	5	0.02	0.242614	8	10	0.08	2800	65.68118	40.92397	-91.39362
379538	42	-21	148	-1.626415	-0.4119877	60.77753	0	9.3	20044	-1	47	5	5	0.02	0.2110837	8	10	0.08	2800	66.77402	40.92397	-91.39362
379580	134	68	21	-1.69403	-0.4574555	60.78706	0	9.3	20034	-1	50	5	5	0.02	0.1924861	8	10	0.08	2800	66.77402	40.92397	-91.39362
379672	-143	-66	8	-1.907127	-0.6105908	60.77752	0	9.3	20033	0	0	5	5	0.02	0.1713745	1	10	0.08	2800	67.82535	40.92397	-91.39362
379746	97	103	112	-2.057204	-0.7748355	60.78315	0	9.3	20033	0	0	5	5	0.02	0.1649224	1	10	0.08	2800	67.61823	40.92397	-91.39362
379896	21	0	9	-2.279681	-0.953097	60.7689	0	9.3	20033	0	0	5	5	0.02	0.1198647	1	10	0.08	2800	66.37421	40.92397	-91.39362
379946	25	3	37	-2.368263	-1.0467	60.76915	0	9.3	20033	0	0	5	5	0.02	0.1092588	1	10	0.08	2800	68.49854	40.92397	-91.39362
380038	-4	11	27	-2.455124	-1.13806	60.76945	0	9.3	20033	0	0	5	5	0.02	0.08962005	1	10	0.08	2800	67.78677	40.92397	-91.39362
380166	34	9	21	-2.616374	-1.305656	60.77153	0	9.3	20033	0	0	5	5	0.02	0.07937586	1	10	0.08	2800	69.87372	40.92397	-91.39362
380241	-36	-30	19	-2.737724	-1.422257	60.76976	0	9.47	20033	0	0	5	5	0.02	0.07191714	1	10	0.08	2800	69.78598	40.92397	-91.39362
380375	14	16	3	-2.849236	-1.523088	60.76761	0	9.47	20033	0	0	5	5	0.02	0.06390959	1	10	0.08	2800	69.97766	40.92397	-91.39362
380446	-8	5	-5	-2.955812	-1.627228	60.76559	0	9.47	20033	0	0	5	5	0.02	0.05554274	1	10	0.08	2800	69.47134	40.92397	-91.39362
380559	-1	-2	11	-3.059649	-1.720326	60.76339	0	9.47	20033	0	0	5	5	0.02	0.05062939	1	10	0.08	2800	70.38641	40.92397	-91.39362
380697	-6	3	-3	-3.181092	-1.840878	60.76315	0	9.47	20033	0	0	5	5	0.02	0.04413881	1	10	0.08	2800	69.30765	40.92397	-91.39362
380752	-13	2	-7	-3.241391	-1.895184	60.76156	0	9.47	20033	0	0	5	5	0.02	0.04337674	1	10	0.08	2800	70.30048	40.92397	-91.39362
380856	-12	0	0	-3.297957	-1.94984	70.8479	0	9.47	20033	0	0	5	5	0.02	0.03676966	1	10	0.08	2800	70.84918	40.92397	-91.39362
380984	-9	2	1	-3.404842	-2.051808	70.84729	0	9.47	20033	0	0	5	5	0.02	0.04350156	1	10	0.08	2800	70.61346	40.92397	-91.39362
381095	-4	1	5	-3.506523	-2.147131	70.84576	0	9.47	20033	0	0	5	5	0.02	0.04804201	1	10	0.08	2800	70.72137	40.92397	-91.39362
381210	-3	1	1	-3.59757	-2.237161	70.84259	0	9.53	20033	0	0	5	5	0.02	0.04506091	1	10	0.08	2800	70.36044	40.92397	-91.39362
381262	-2	3	2	-3.618284	-2.25916	70.8418	0	9.53	20033	0	0	5	5	0.02	0.04669205	1	10	0.08	2800	70.36044	40.92397	-91.39362
381392	-7	1	0	-3.704125	-2.335746	70.84076	0	9.53	20033	0	0	5	5	0.02	0.05382027	1	10	0.08	2800	70.57172	40.92397	-91.39362
381486	-7	2	0	-3.763746	-2.389623	70.83838	0	9.53	20033	0	0	5	5	0.02	0.05775934	1	10	0.08	2800	71.33173	40.92397	-91.39362
381557	-10	1	0	-3.819134	-2.443303	70.84039	0	9.53	20033	0	0	5	5	0.02	0.06174382	1	10	0.08	2800	71.13864	40.92397	-91.39362
381728	-1	5	0	-3.886753	-2.505257	70.83905	0	9.53	20033	0	0	5	5	0.02	0.07023622	1	10	0.08	2800	71.42136	40.92397	-91.39362
381798	-3	0	3	-3.921108	-2.537835	70.83777	0	9.53	20033	0	0	5	5	0.02	0.07385135	1	10	0.08	2800	71.64932	40.92397	-91.39362
381866	-2	-2	-2	-3.968925	-2.585211	70.83563	0	9.53	20033	0	0	5	5	0.02	0.07756208	1	10	0.08	2800	71.39703	40.92397	-91.39362
381989	-7	5	0	-4.013092	-2.628841	70.83502	0	9.53	20033	0	0	5	5	0.02	0.08630557	1	10	0.08	2800	72.09094	40.92397	-91.39362
382138	-7	-6	1	-4.071562	-2.682954	70.83502	0	9.58	20033	0	0	5	5	0.02	0.08707554	1	10	0.08	2800	71.42456	40.92397	-91.39362
382214	-6	1	0	-4.109828	-2.723188	70.83423	0	9.58	20033	0	0	5	5	0.02	0.08522783	1	10	0.08	2800	72.27835	40.92397	-91.39362
382344	-7	0	-2	-4.159054	-2.769106	70.83337	0	9.58	20033	0	0	5	5	0.02	0.08020484	1	10	0.08	2800	72.2128	40.92397	-91.39362
382436	-7	-3	0	-4.184623	-2.793431	70.83386	0	9.58	20033	0	0	5	5	0.02	0.07285088	1	10	0.08	2800	72.14545	40.92397	-91.39362
382486	-5	1	1	-4.209009	-2.815268	70.83179	0	9.58	20033	0	0	5	5	0.02	0.07247802	1	10	0.08	2800	72.47198	40.92397	-91.39362
382593	-1	5	1	-4.239093	-2.847058	70.83289	0	9.58	20033	0	0	5	5	0.02	0.07389323	1	10	0.08	2800	72.2193	40.92397	-91.39362
382681	-5	4	1	-4.258284	-2.86999	70.83203	0	9.58	20033	0	0	5	5	0.02	0.07315227	1	10	0.08	2800	72.15488	40.92397	-91.39362
382814	-7	2	0	-4.306811	-2.914399	70.83099	0	9.58	20033	0	0	5	5	0.02	0.06402121	1	10	0.08	2800	72.47168	40.92397	-91.39362
382915	-10	0	-2	-4.331185	-2.939119	70.83264	0	9.58	20033	0	0	5	5	0.02	0.05726274	1	10	0.08	2800	73.36209	40.92397	-91.39362
383001	-4	-2	0	-4.356148	-2.962016	70.83228	0	9.64	20033	0	0	5	5	0.02	0.04845361	1	10	0.08	2800	72.82297	40.92397	-91.39362
383108	-9	-1	-1	-4.388854	-2.991827	70.82977	0	9.64	20033	0	0	5	5	0.02	0.04535285	1	10	0.08	2800	72.76349	40.92397	-91.39362
383198	-5	-2	0	-4.402637	-3.008681	70.82947	0	9.64	20033	0	0	5	5	0.02	0.04231199	1	10	0.08	2800	73.01361	40.92397	-91.39362
383318	-4	0	-4	-4.423717	-3.030937	70.82709	0	9.64	20033	0	0	5	5	0.02	0.05459512	1	10	0.08	2800	73.72018	40.92397	-91.39362
383477	-4	0	-2	-4.460812	-3.070063	70.82672	0	9.64	20033	0	0	5	5	0.02	0.06209765	1	10	0.08	2800	73.55618	40.92397	-91.39362
383495	-4	0	-2	-4.460812	-3.070063	70.82672	0	9.64	20033	0	0	5	5	0.02	0.06164998	1	10	0.08	2800	73.55618	40.92397	-91.39362
383597	-8	2	1	-4.486666	-3.092535	70.82654	0	9.64	20033	0	0	5	5	0.02	0.06055813	1	10	0.08	2800	73.45319	40.92397	-91.39362
383733	-2	-1	0	-4.502889	-3.110036	70.82581	0	9.64	20033	0	0	5	5	0.02	0.05691263	1	10	0.08	2800	73.35065	40.92397	-91.39362
383778	-7	-3	-3	-4.50771	-3.115952	70.82593	0	9.64	20033	0	0	5	5	0.02	0.05675306	1	10	0.08	2800	73.35065	40.92397	-91.39362
383886	-5	2	3	-4.527163	-3.139531	70.82495	0	9.7	20033	0	0	5	5	0.02	0.05928826	1	10	0.08	2800	72.76395	40.92397	-91.39362
383987	-7	5	-2	-4.542872	-3.160923	70.82294	0	9.7	20033	0	0	5	5	0.02	0.06397546	1	10	0.08	2800	73.63879	40.92397	-91.39362
384128	-3	3	-2	-4.555353	-3.175234	70.82312	0	9.7	20033	0	0	5	5	0.02	0.06827475	1	10	0.08	2800	73.2117	40.92397	-91.39362
384170	0	-2	6	-4.567786	-3.189415	70.82306	0	9.7	20033	0	0	5	5	0.02	0.06758011	1	10	0.08	2800	74.26962	40.92397	-91.39362
384369	-4	3	1	-4.585833	-3.204835	70.82245	0	9.7	20033	0	0	5	5	0.02	0.05845326	1	10	0.08	2800	74.26065	40.92397	-91.39362
384417	-5	1	0	-4.594822	-3.220323	70.82043	0	9.7	20033	0	0	5	5	0.02	0.05673278	1	10	0.08	2800	72.80969	40.92397	-91.39362
384523	-10	-1	5	-4.603489	-3.228792	70.81989	0	9.7	20033	0	0	5	5	0.02	0.05401475	1	10	0.08	2800	73.78552	40.92397	-91.39362
384617	-6	6	3	-4.617436	-3.244911	70.81982	0	9.7	20033	0	0	5	5	0.02	0.05121239	1	10	0.08	2800	73.17551	40.92397	-91.39362
384693	-4	-1	0	-4.620302	-3.253649	70.81964	0	9.7	20033	0	0	5	5	0.02	0.04407889	1	10	0.08	2800	73.33682	40.92397	-91.39362
384812	-3	2	2	-4.626722	-3.261111	70.81836	0	9.7	20033	0	0	5	5	0.02	0.03657803	1	10	0.08	2800	74.24963	40.92397	-91.39362
384883	-7	-3	1	-4.632861	-3.269777	70.8172	0	9.7	20033	0	0	5	5	0.02	0.02890657	1	10	0.08	2800	74.12726	40.92397	-91.39362
385009	-2	0	0	-4.641751	-3.279929	70.81708	0	9.7	20033	0	0	5	5	0.02	0.0184276	1	10	0.08	2800	74.10495	40.92397	-91.39362
385104	-4	0	3	-4.646378	-3.287427	70.81635	0	9.7	20033	0	0	5	5	0.02	0.005912515	1	10	0.08	2800	74.89365	40.92397	-91.39362
385274	-2	0	0	-4.655766	-3.301898	70.815	0	9.7	20033	0	0	5	5	0.02	0.003448137	1	10	0.08	2800	73.43088	40.92397	-91.39362
385347	-9	-2	0	-4.661366	-3.30623	70.8139	0	9.7	20033	0	0	5	5	0.02	0.007655013	1	10	0.08	2800	73.99698	40.92397	-91.39362
385392	-9	10	7	-4.668009	-3.308573	70.81207	0	9.7	20033	0	0	5	5	0.02	0.01054132	1	10	0.08	2800	73.58493	40.92397	-91.39362
385466	-6	-1	-3	-4.67747	-3.318559	70.81055	0	9.7	20033	0	0	5	5	0.02	0.01358228	1	10	0.08	2800	73.7374	40.92397	-91.39362
385621	-2	0	0	-4.683362	-3.329845	70.80994	0	9.7	20033	0	0	5	5	0.02	0.01889602	1	10	0.08	2800	73.37656	40.92397	-91.39362
385693	-8	2	0	-4.684415	-3.333331	70.8089	0	9.7	20033	0	0	5	5	0.02	0.02321095	1	10	0.08	2800	73.66983	40.92397	-91.39362
385782	-6	7	0	-4.687942	-3.336382	70.80902	0	9.7	20033	0	0	5	5	0.02	0.02681719	1	10	0.08	2800	74.64005	40.92397	-91.39362
385879	-13	1	2	-4.69276	-3.344773	70.80798	0	9.7	20033	0	0	5	5	0.02	0.04219563	1	10	0.08	2800	74.05374	40.92397	-91.39362
386009	-5	-1	2	-4.698803	-3.349474	70.80725	0	9.7	20033	0	0	5	5	0.02	0.06472975	1	10	0.08	2800	74.21405	40.92397	-91.39362
386150	-5	1	0	-4.699105	-3.356461	70.80865	0	9.7	20033	0	0	5	5	0.02	0.07879248	1	10	0.08	2800	74.28757	40.92397	-91.39362
386259	-4	0	7	-4.703012	-3.362748	70.80621	0	9.7	20033	0	0	5	5	0.02	0.08848595	1	10	0.08	2800	74.12634	40.92397	-91.39362
386296	-2	0	0	-4.70323	-3.365916	70.80585	0	9.7	20033	0	0	5	5	0.02	0.09312688	1	10	0.08	2800	74.12634	40.92397	-91.39362
386385	-7	0	2	-4.704308	-3.370232	70.80463	0	9.7	20033	0	0	5	5	0.02	0.09251543	1	10	0.08	2800	73.32913	40.92397	-91.39362
386527	-3	0	0	-4.7096	-3.375844	70.80426	0	9.7	20033	0	0	5	5	0.02	0.09230643	1	10	0.08	2800	74.0477	40.92397	-91.39362
386571	-5	-1	1	-4.7102	-3.376539	70.80353	0	9.7	20033	0	0	5	5	0.02	0.09229019	1	10	0.08	2800	74.24661	40.92397	-91.39362
386690	-3	7	-4	-4.711413	-3.384784	70.80182	0	9.7	20033	0	0	5	5	0.02	0.07911469	1	10	0.08	2800	74.13733	40.92397	-91.39362
386776	-6	-1	-2	-4.715065	-3.38516	70.80286	0	9.7	20033	0	0	5	5	0.02	0.07360004	1	10	0.08	2800	74.46725	40.92397	-91.39362
386884	-3	0	-5	-4.722856	-3.387926	70.80084	0	9.7	20033	0	0	5	5	0.02	0.06107595	1	10	0.08	2800	74.21503	40.92397	-91.39362
387022	-3	0	2	-4.724791	-3.394096	70.7981	0	9.7	20033	0	0	5	5	0.02	0.04731242	1	10	0.08	2800	73.87329	40.92397	-91.39362
387147	-5	3	3	-4.727281	-3.39714	70.79602	0	9.7	20033	0	0	5	5	0.02	0.04201363	1	10	0.08	2800	74.56619	40.92397	-91.39362
387179	-3	4	1	-4.727648	-3.398225	70.79602	0	9.7	20033	0	0	5	5	0.02	0.04212936	1	10	0.08	2800	73.96317	40.92397	-91.39362
387271	-4	1	0	-4.728465	-3.400531	70.79663	0	9.7	20033	0	0	5	5	0.02	0.04130964	1	10	0.08	2800	73.00845	40.92397	-91.39362
387424	5	0	-1	-4.723217	-3.404636	70.79517	0	9.7	20033	0	0	5	5	0.02	0.02563259	1	10	0.08	2800	74.15906	40.92397	-91.39362
387533	-4	-1	1	-4.726514	-3.408613	70.79523	0	9.75	20033	0	0	5	5	0.02	0.02150883	1	10	0.08	2800	74.36584	40.92397	-91.39362
387571	1	0	-2	-4.726794	-3.409189	70.79492	0	9.75	20033	0	0	5	5	0.02	0.02332388	1	10	0.08	2800	74.30417	40.92397	-91.39362
387684	-1	3	0	-4.724919	-3.410941	70.79565	0	9.75	20033	0	0	5	5	0.02	0.03350015	1	10	0.08	2800	73.89133	40.92397	-91.39362
387800	-3	4	3	-4.72586	-3.414536	70.79504	0	9.75	20033	0	0	5	5	0.02	0.03759871	1	10	0.08	2800	74.44592	40.92397	-91.39362
387977	1	-11	-14	-4.716956	-3.40797	70.79682	0	9.75	20033	0	0	5	5	0.02	0.03757889	1	10	0.08	2800	73.67361	40.92397	-91.39362
388049	0	-1	3	-4.720322	-3.409674	70.79578	0	9.75	20033	0	0	5	5	0.02	0.04070409	1	10	0.08	2800	73.89551	40.92397	-91.39362
388114	-6	-2	0	-4.720209	-3.415417	70.79408	0	9.75	20033	0	0	5	5	0.02	0.04098892	1	10	0.08	2800	74.20212	40.92397	-91.39362
388176	-7	0	0	-4.721951	-3.416412	70.79389	0	9.75	20033	0	0	5	5	0.02	0.0476867	1	10	0.08	2800	74.20212	40.92397	-91.39362
388349	-5	1	2	-4.724539	-3.41747	70.79285	0	9.75	20033	0	0	5	5	0.02	0.05441119	1	10	0.08	2800	74.46487	40.92397	-91.39362
388386	-2	-2	1	-4.7222	-3.418567	70.79255	0	9.75	20033	0	0	5	5	0.02	0.06074013	1	10	0.08	2800	74.59109	40.92397	-91.39362
388468	-15	-13	7	-4.738095	-3.443448	70.79151	0	9.75	20033	0	0	5	5	0.02	0.06683064	1	10	0.08	2800	74.20016	40.92397	-91.39362
388600	-14	42	-6	-4.77034	-3.471306	70.80286	0	9.75	20033	0	0	5	5	0.02	0.07228519	1	10	0.08	2800	74.05511	40.92397	-91.39362
388684	33	53	23	-4.772498	-3.489381	70.79392	0	9.75	20033	0	0	5	5	0.02	0.07886019	1	10	0.08	2800	74.69418	40.92397	-91.39362
388869	624	9294	-909	-5.570866	-19.59029	83.24866	0	9.75	20033	0	0	5	5	0.02	0.0907373	1	10	0.08	2800	83.19305	40.92397	-91.39362
388961	2634	9385	724	-3.643736	-30.19297	83.37679	0	9.75	20033	0	0	5	5	0.02	0.09561844	1	10	0.08	2800	83.74796	40.92397	-91.39362
389040	1280	8089	1723	5.042324	-51.07386	78.83452	0	9.75	20033	0	0	5	5	0.02	0.09769242	1	10	0.08	2800	79.76776	40.92397	-91.39362
389136	-372	4745	1629	6.62172	-58.2919	77.2133	0	9.75	20033	0	0	5	5	0.02	0.1054853	1	10	0.08	2800	78.76208	40.92397	-91.39362
389167	-620	4490	2010	7.283367	-60.94664	76.1899	0	9.75	20033	0	0	5	5	0.02	0.1121841	1	10	0.08	2800	75.67361	40.92397	-91.39362
389317	-4226	7036	-655	5.682636	-76.40001	74.36572	0	9.81	20033	0	0	5	5	0.02	0.1410354	1	10	0.08	2800	73.09644	40.92397	-91.39362
389429	-5457	-6267	4983	1.434727	-74.40038	69.52009	0	9.81	20033	0	0	5	5	0.02	0.1567563	1	10	0.08	2800	68.24451	40.92397	-91.39362
389469	-5140	-6975	5782	2.353933	-70.64962	66.54227	0	9.81	20033	0	0	5	5	0.02	0.1674844	1	10	0.08	2800	68.24451	40.92397	-91.39362
389600	-2001	-2588	5569	14.57711	-55.81409	22.82554	0	9.81	20033	0	0	5	5	0.02	0.2111765	1	10	0.08	2800	29.45731	40.92397	-91.39362
389771	-3689	1698	5247	24.00385	-51.08621	335.8138	0	9.81	20033	0	0	5	5	0.02	0.2543994	1	10	0.08	2800	329.0793	40.92397	-91.39362
389822	-2702	3087	5969	25.04632	-51.06736	332.7079	0	9.81	20033	0	0	5	5	0.02	0.2954377	1	10	0.08	2800	329.0793	40.92397	-91.39362
389915	-2637	3665	6379	29.04669	-52.06192	305.6771	0	9.81	20033	0	0	5	5	0.02	0.3287227	1	10	0.08	2800	299.9255	40.92397	-91.39363
390028	-3038	6333	5300	33.45418	-54.8979	282.3015	0	9.81	20033	0	0	5	5	0.02	0.3925392	1	10	0.08	2800	286.4445	40.92397	-91.39363
390096	-1313	6302	4672	36.5909	-58.09142	276.7235	0	9.81	20033	0	0	5	5	0.02	0.424185	1	10	0.08	2800	274.4528	40.92397	-91.39363
390184	-1760	3658	2211	38.495	-62.19043	261.2037	0	9.81	20033	0	0	5	5	0.02	0.4508593	1	10	0.08	2800	261.2037	40.92397	-91.39363
390292	-4184	5903	414	37.28919	-65.24422	259.0664	0	9.75	20033	0	0	5	5	0.02	0.4816556	1	10	0.08	2800	259.2334	40.92397	-91.39364
390448	-3001	-1043	6509	40.2189	-61.62895	247.7201	0	9.75	20033	0	0	5	5	0.02	0.5068249	1	10	0.08	2800	251.7977	40.92397	-91.39364
390528	-1659	-561	5745	43.68674	-55.76814	240.8625	0	9.75	20033	0	0	5	5	0.02	0.5187706	1	10	0.08	2800	243.6516	40.92397	-91.39364
390685	-294	-1314	-508	44.16407	-47.71644	234.5483	0	9.75	20033	0	0	5	5	0.02	0.541099	1	10	0.08	2800	234.6822	40.92397	-91.39365
390733	-510	-13	-1620	43.27237	-47.83737	235.1501	0	9.75	20033	0	0	5	5	0.02	0.5491874	1	10	0.08	2800	234.6822	40.92397	-91.39365
390790	-2517	975	-6040	34.46337	-52.85463	241.9906	0	9.75	20033	0	0	5	5	0.02	0.5599115	1	10	0.08	2800	242.0041	40.92397	-91.39365
390882	-1633	528	-5967	26.60169	-56.91486	248.6613	0	9.75	20033	0	0	5	5	0.02	0.5688193	1	10	0.08	2800	242.0041	40.92397	-91.39365
390994	-156	54	-3013	18.5824	-59.94727	257.6205	0	9.75	20033	0	0	5	5	0.02	0.5840626	1	10	0.08	2800	254.5779	40.92397	-91.39365
391116	-841	2922	-3498	12.55047	-61.75143	263.3674	0	9.75	20033	0	0	5	5	0.02	0.6111212	1	10	0.08	2800	262.8306	40.92397	-91.39365
391200	877	3437	-1897	9.636885	-68.0848	267.5552	0	9.81	20033	0	0	5	5	0.02	0.6306643	1	10	0.08	2800	267.3098	40.92397	-91.39365
391288	1945	618	-817	10.32497	-70.27379	268.9184	0	9.81	20033	0	0	5	5	0.02	0.6386029	1	10	0.08	2800	270.8352	40.92397	-91.39365
391412	-1751	1080	2263	12.04306	-72.57381	268.8197	0	9.81	20033	0	0	5	5	0.02	0.6538536	1	10	0.08	2800	275.7911	40.92397	-91.39365
391516	2062	-4544	7051	21.96733	-62.85398	270.7023	0	9.81	20033	0	0	5	5	0.02	0.6527627	1	10	0.08	2800	273.5914	40.92397	-91.39365
391616	-1148	-1456	3617	33.61182	-52.08279	257.7906	0	9.81	20033	0	0	5	5	0.02	0.648867	1	10	0.08	2800	261.0274	40.92397	-91.39365
391729	-149	-1002	-438	33.00222	-48.95485	255.416	0	9.81	20033	0	0	5	5	0.02	0.6504723	1	10	0.08	2800	255.8518	40.92397	-91.39365
391814	-771	-1625	-3481	30.90387	-47.1689	257.2995	0	9.81	20033	0	0	5	5	0.02	0.6439634	1	10	0.08	2800	254.4182	40.92397	-91.39365
391883	-877	3798	-4215	25.51503	-50.67219	262.1801	0	9.81	20033	0	0	5	5	0.02	0.6402227	1	10	0.08	2800	257.9949	40.92396	-91.39366
392009	-480	1080	-1265	22.60516	-58.51822	266.568	0	9.81	20033	0	0	5	5	0.02	0.6327503	1	10	0.08	2800	264.3562	40.92396	-91.39366
392147	-893	1790	-967	18.9869	-59.83726	269.0379	0	9.81	20033	0	0	5	5	0.02	0.6254715	1	10	0.08	2800	268.7382	40.92396	-91.39366
392220	-463	1560	-144	18.13591	-62.10846	269.6711	0	9.81	20033	0	0	5	5	0.02	0.6249222	1	10	0.08	2800	270.4676	40.92396	-91.39366
392272	-715	1155	-358	17.92348	-62.5577	269.807	0	9.81	20033	0	0	5	5	0.02	0.6255144	1	10	0.08	2800	271.1534	40.92396	-91.39366
392377	224	-877	-1521	16.5938	-61.99898	271.2404	0	9.81	20033	0	0	5	5	0.02	0.6396465	1	10	0.08	2800	271.6615	40.92396	-91.39366
392465	-1935	-751	587	15.56093	-63.95192	272.0695	0	9.81	20033	0	0	5	5	0.02	0.6446329	1	10	0.08	2800	274.0273	40.92396	-91.39366
392575	840	-4042	5912	21.11403	-55.18187	265.9814	0	9.81	20033	0	0	5	5	0.02	0.6542989	1	10	0.08	2800	272.3664	40.92396	-91.39367
392666	-1298	-1648	4025	28.21001	-47.62177	267.1022	0	9.81	20033	0	0	5	5	0.02	0.6612303	1	10	0.08	2800	261.4129	40.92396	-91.39367
392868	901	254	593	33.25091	-38.46618	258.8602	0	9.81	20033	0	0	5	5	0.02	0.6794811	1	10	0.08	2800	256.8943	40.92396	-91.39367
392930	-179	5283	-1610	32.67371	-42.26653	259.8935	0	9.87	20033	0	0	5	5	0.02	0.6808119	1	10	0.08	2800	254.6265	40.92396	-91.39367
392964	3376	5145	1825	34.72657	-51.05868	259.9443	0	9.87	20033	0	0	5	5	0.02	0.683247	1	10	0.08	2800	254.6034	40.92396	-91.39367
393041	-1545	4100	-444	37.07301	-59.00509	258.6819	0	9.87	20033	0	0	5	5	0.02	0.6945453	1	10	0.08	2800	251.0047	40.92396	-91.39367
393092	-8680	847	2616	30.47462	-60.4294	257.1864	0	9.87	20033	0	0	5	5	0.02	0.7081466	1	10	0.08	2800	251.6952	40.92395	-91.39367
393124	-10559	277	3733	26.89782	-59.61405	255.3793	0	9.87	20033	0	0	5	5	0.02	0.715601	1	10	0.08	2800	251.6952	40.92395	-91.39368
393234	1146	1380	-3353	14.40651	-56.56508	251.3793	0	9.87	20033	0	0	5	5	0.02	0.7339805	1	10	0.08	2800	245.9772	40.92395	-91.39368
393291	4205	3996	-5568	11.73975	-60.79225	247.0279	0	9.87	20033	0	0	5	5	0.02	0.7516969	1	10	0.08	2800	245.2605	40.92395	-91.39368
393337	2766	1087	-2928	12.77139	-65.64663	253.6477	0	9.87	20033	0	0	5	5	0.02	0.7761679	1	10	0.08	2800	257.6335	40.92395	-91.39368
393462	-2089	3185	-4939	2.842508	-71.86569	262.0275	0	9.87	20033	0	0	5	5	0.02	0.7901891	1	10	0.08	2800	265.5933	40.92395	-91.39368
393501	-99	-1157	-5811	-4.813582	-72.05614	267.9953	0	9.87	20033	0	0	5	5	0.02	0.8080365	1	10	0.08	2800	271.9372	40.92395	-91.39368
393631	4319	-4708	-418	-6.754532	-58.90625	289.944	0	9.87	20033	0	0	5	5	0.02	0.8435569	1	10	0.08	2800	289.2462	40.92395	-91.39368
393681	4512	-4838	4520	0.7062703	-53.77951	287.398	0	9.87	20033	0	0	5	5	0.02	0.8828951	1	10	0.08	2800	288.7084	40.92395	-91.39368
393832	1761	1191	4112	28.3806	-47.13844	269.9263	0	9.87	20033	0	0	5	5	0.02	0.9358914	1	10	0.08	2800	264.3781	40.92395	-91.39368
393921	-2058	2564	1625	30.12768	-47.22951	265.2644	0	9.87	20033	0	0	5	5	0.02	0.9785352	1	10	0.08	2800	258.5723	40.92395	-91.39368
393994	5	3815	33	28.32631	-53.45839	254.2039	0	9.87	20033	0	0	5	5	0.02	0.9953828	1	10	0.08	2800	252.0128	40.92395	-91.39368
394093	-489	2612	-707	27.32195	-59.04629	254.6969	0	9.87	20033	0	0	5	5	0.02	1.014707	1	10	0.08	2800	251.1028	40.92395	-91.39368
394159	1002	1457	552	28.26419	-61.74751	254.5807	0	9.87	20033	0	0	5	5	0.02	1.026408	1	10	0.08	2800	251.3146	40.92395	-91.39368
394281	-153	737	384	28.37782	-63.29687	254.026	0	9.87	20033	0	0	5	5	0.02	1.038675	1	10	0.08	2800	250.9017	40.92395	-91.39368
394357	-2572	-4531	1092	29.40305	-58.8941	252.2809	0	9.87	20033	0	0	5	5	0.02	1.045705	1	10	0.08	2800	250.4879	40.92395	-91.39368
394407	-2896	-5359	2807	27.14564	-52.65638	250.5027	0	9.87	20033	0	0	5	5	0.02	1.043096	1	10	0.08	2800	251.4491	40.92395	-91.39368
394457	3922	-7091	-1238	30.28431	-37.87873	247.4263	0	9.87	20033	0	0	5	5	0.02	1.024394	1	10	0.08	2800	249.3884	40.92395	-91.39368
394559	3000	-5569	-5127	32.32762	-33.08662	251.2049	0	9.87	20033	0	0	5	5	0.02	1.009243	1	10	0.08	2800	254.6772	40.92395	-91.39368
394727	-3187	-3095	-4631	26.25647	-33.3265	264.3075	0	9.87	20033	0	0	5	5	0.02	0.9845979	1	10	0.08	2800	265.0968	40.92395	-91.39368
394770	-1612	-865	-5963	17.13085	-33.54175	272.8653	0	9.87	20033	0	0	5	5	0.02	0.9735615	1	10	0.08	2800	270.2799	40.92395	-91.39368
394838	2203	-1887	-9565	4.637682	-32.13615	289.2318	0	9.87	20033	0	0	5	5	0.02	0.9599088	1	10	0.08	2800	295.5702	40.92395	-91.39368
394898	2300	-3093	-7464	3.610743	-28.94038	298.7249	0	9.87	20033	0	0	5	5	0.02	0.957773	1	10	0.08	2800	303.4786	40.92395	-91.39368
394980	318	-3320	-4242	1.951311	-23.23609	309.7247	0	9.87	20033	0	0	5	5	0.02	0.9624866	1	10	0.08	2800	307.875	40.92395	-91.39368
395082	-183	-3669	-3909	0.8079909	-18.966	315.7444	0	9.87	20033	0	0	5	5	0.02	0.9733328	1	10	0.08	2800	305.8562	40.92395	-91.39368
395160	-759	-855	-3782	-0.4653487	-15.21411	312.09	0	9.87	20033	0	0	5	5	0.02	0.974975	1	10	0.08	2800	302.6923	40.92395	-91.39368
395255	-1325	-2163	-1537	-3.672684	-11.35026	306.7237	0	9.87	20033	0	0	5	5	0.02	0.9766726	1	10	0.08	2800	300.4503	40.92395	-91.39368
395321	-1947	64	-605	-4.429698	-10.89877	307.2476	0	9.87	20033	0	0	5	5	0.02	0.981451	1	10	0.08	2800	300.4503	40.92395	-91.39368
395487	1538	-2200	-1340	-5.456525	-4.795852	302.4595	0	9.87	20033	0	0	5	5	0.02	0.9838618	1	10	0.08	2800	302.2731	40.92395	-91.39368
395561	154	-20	-1593	-5.453834	-4.448263	304.3221	0	9.87	20033	0	0	5	5	0.02	0.9789546	1	10	0.08	2800	304.3701	40.92395	-91.39368
395677	-4	-208	-38	-5.198698	-4.162192	305.0859	0	9.87	20033	0	0	5	5	0.02	0.9680189	1	10	0.08	2800	305.7144	40.92395	-91.39368
395723	-148	118	143	-5.167051	-4.007958	305.0916	0	9.87	20033	0	0	5	5	0.02	0.9645562	1	10	0.08	2800	305.7144	40.92395	-91.39368
395879	-105	300	108	-5.241349	-3.824007	305.108	0	9.81	20033	0	0	5	5	0.02	0.9633164	1	10	0.08	2800	305.7041	40.92395	-91.39368
395958	192	-244	59	-5.357791	-3.934847	305.0709	0	9.81	20033	0	0	5	5	0.02	0.9530984	1	10	0.08	2800	305.6315	40.92395	-91.39368
396092	112	-261	29	-5.393877	-3.830433	305.0675	0	9.81	20033	0	0	5	5	0.02	0.9363685	1	10	0.08	2800	305.8058	40.92395	-91.39368
396209	-45	48	-29	-5.45283	-3.781703	305.0883	0	9.81	20033	0	0	5	5	0.02	0.9316195	1	10	0.08	2800	305.6896	40.92395	-91.39368
396240	35	-91	24	-5.442794	-3.76173	305.0751	0	9.81	20033	0	0	5	5	0.02	0.9302243	1	10	0.08	2800	305.6967	40.92395	-91.39368
396395	39	7	-18	-5.470943	-3.584118	305.0848	0	9.81	20033	0	0	5	5	0.02	0.9146449	1	10	0.08	2800	306.088	40.92395	-91.39368
396428	7	-27	-14	-5.50558	-3.517562	305.0852	0	9.81	20033	0	0	5	5	0.02	0.896396	1	10	0.08	2800	305.9221	40.92395	-91.39368
396448	-3	-5	1	-5.53235	-3.49272	305.0761	0	9.81	20033	0	0	5	5	0.02	0.8947752	1	10	0.08	2800	305.9937	40.92395	-91.39368
396473	-6	-2	-26	-5.551543	-3.424848	305.0801	0	9.81	20033	0	0	5	5	0.02	0.8854904	1	10	0.08	2800	305.8655	40.92395	-91.39368
396502	7	-7	7	-5.578294	-3.388729	305.0844	0	9.87	20033	0	0	5	5	0.02	0.883084	1	10	0.08	2800	305.869	40.92395	-91.39368
396521	-1	5	0	-5.592497	-3.354999	305.0822	0	9.87	20033	0	0	5	5	0.02	0.8836843	1	10	0.08	2800	306.2041	40.92395	-91.39368
396580	-7	5	1	-5.625807	-3.319263	305.0827	0	9.87	20033	0	0	5	5	0.02	0.8861783	1	10	0.08	2800	306.0844	40.92395	-91.39368
396625	10	-10	-16	-5.641778	-3.27246	305.0847	0	9.87	20033	0	0	5	5	0.02	0.8826271	1	10	0.08	2800	306.0385	40.92395	-91.39368
396704	-2	16	5	-5.671935	-3.223778	305.084	0	9.87	20033	0	0	5	5	0.02	0.864536	1	10	0.08	2800	306.622	40.92395	-91.39368
396738	4	0	4	-5.697346	-3.179445	305.0865	0	9.87	20033	0	0	5	5	0.02	0.8629919	1	10	0.08	2800	306.2826	40.92395	-91.39368
396757	2	1	0	-5.70327	-3.176818	305.0829	0	9.87	20033	0	0	5	5	0.02	0.8668916	1	10	0.08	2800	306.6033	40.92395	-91.39368
396831	10	-4	-8	-5.715014	-3.137557	305.0877	0	9.87	20033	0	0	5	5	0.02	0.8787661	1	10	0.08	2800	306.4091	40.92395	-91.39368
396913	-6	8	4	-5.740566	-3.081885	305.0882	0	9.87	20033	0	0	5	5	0.02	0.9005699	1	10	0.08	2800	306.2872	40.92395	-91.39369
396945	-9	1	5	-5.754555	-3.066956	305.0903	0	9.87	20033	0	0	5	5	0.02	0.9047019	1	10	0.08	2800	306.1438	40.92395	-91.39369
396965	-3	-4	-3	-5.755682	-3.043846	305.0877	0	9.87	20033	0	0	5	5	0.02	0.9046676	1	10	0.08	2800	306.6136	40.92395	-91.39369
397081	7	-7	-4	-5.779454	-3.007613	305.0891	0	9.87	20033	0	0	5	5	0.02	0.8921258	1	10	0.08	2800	306.6788	40.92395	-91.39369
397139	-5	0	1	-5.792169	-2.98641	305.0904	0	9.87	20033	0	0	5	5	0.02	0.8883443	1	10	0.08	2800	306.3441	40.92395	-91.39369
397157	-6	5	-4	-5.80445	-2.961541	305.0891	0	9.87	20033	0	0	5	5	0.02	0.8827926	1	10	0.08	2800	306.3856	40.92395	-91.39369
397188	0	1	-5	-5.811817	-2.9478	305.0905	0	9.87	20033	0	0	5	5	0.02	0.8775601	1	10	0.08	2800	306.5432	40.92395	-91.39369
397215	-2	10	4	-5.820474	-2.933916	305.0914	0	9.87	20033	0	0	5	5	0.02	0.873439	1	10	0.08	2800	306.5432	40.92395	-91.39369
397247	1	1	0	-5.831259	-2.913975	305.0924	0	9.87	20033	0	0	5	5	0.02	0.8693828	1	10	0.08	2800	306.4301	40.92395	-91.39369
397298	4	-1	0	-5.841071	-2.896623	305.0933	0	9.87	20033	0	0	5	5	0.02	0.8694885	1	10	0.08	2800	306.333	40.92395	-91.39369
397389	0	9	0	-5.850965	-2.881519	305.0938	0	9.87	20033	0	0	5	5	0.02	0.8723351	1	10	0.08	2800	306.4586	40.92395	-91.39369
397490	1	0	0	-5.859272	-2.866816	305.0938	0	9.87	20033	0	0	5	5	0.02	0.8707101	1	10	0.08	2800	306.6514	40.92395	-91.39369
397604	-7	-1	1	-5.873605	-2.846778	305.0965	0	9.87	20033	0	0	5	5	0.02	0.8649038	1	10	0.08	2800	306.3859	40.92395	-91.39369
397698	-6	9	0	-5.876483	-2.833781	305.0972	0	9.87	20033	0	0	5	5	0.02	0.8618362	1	10	0.08	2800	306.786	40.92395	-91.39369
397827	1	0	0	-5.887003	-2.816179	305.0984	0	9.87	20033	0	0	5	5	0.02	0.8560836	1	10	0.08	2800	306.8061	40.92395	-91.39369
397885	-1	3	0	-5.889092	-2.805626	305.0968	0	9.87	20033	0	0	5	5	0.02	0.8551947	1	10	0.08	2800	306.5714	40.92395	-91.39369
397995	3	-6	-3	-5.897252	-2.7909	305.0979	0	9.87	20033	0	0	5	5	0.02	0.8528316	1	10	0.08	2800	306.5249	40.92395	-91.39369
398112	3	0	-4	-5.900891	-2.775424	305.0987	0	9.87	20033	0	0	5	5	0.02	0.8474933	1	10	0.08	2800	306.4479	40.92395	-91.39369
398223	4	3	4	-5.906468	-2.761626	305.0981	0	9.87	20033	0	0	5	5	0.02	0.8465182	1	10	0.08	2800	306.7278	40.92395	-91.39369
398307	-1	-4	-1	-5.909264	-2.758453	305.0997	0	9.87	20033	0	0	5	5	0.02	0.8447508	1	10	0.08	2800	306.8347	40.92395	-91.39369
398459	-5	5	3	-5.914892	-2.741383	305.0998	0	9.87	20033	0	0	5	5	0.02	0.8496202	1	10	0.08	2800	306.668	40.92395	-91.39369
398588	1	-4	0	-5.918657	-2.734164	305.1009	0	9.87	20033	0	0	5	5	0.02	0.8526115	1	10	0.08	2800	306.6321	40.92395	-91.39369
398619	4	0	-1	-5.921567	-2.724707	305.101	0	9.87	20033	0	0	5	5	0.02	0.8562382	1	10	0.08	2800	306.5099	40.92395	-91.39369
398701	0	-2	0	-5.92768	-2.718244	305.102	0	9.87	20033	0	0	5	5	0.02	0.8607872	1	10	0.08	2800	306.5461	40.92395	-91.39369
398867	-18	-14	12	-5.929204	-2.705478	305.0979	0	9.87	20033	0	0	5	5	0.02	0.8623179	1	10	0.08	2800	306.8108	40.92395	-91.39369
398953	17	-55	-10	-5.912396	-2.674362	305.1229	0	9.87	20033	0	0	5	5	0.02	0.8591539	1	10	0.08	2800	306.3102	40.92395	-91.39369
399039	10	14	-1	-5.90793	-2.656709	305.1211	0	9.87	20033	0	0	5	5	0.02	0.8561164	1	10	0.08	2800	306.2141	40.92395	-91.39369
399097	-25	70	25	-5.919883	-2.663369	305.1148	0	9.87	20033	0	0	5	5	0.02	0.8577884	1	10	0.08	2800	306.6924	40.92395	-91.39369
399198	-22	53	11	-5.942664	-2.690641	305.1093	0	9.87	20033	0	0	5	5	0.02	0.8599249	1	10	0.08	2800	306.1901	40.92395	-91.39369
399287	-24	26	5	-5.948066	-2.678882	305.1082	0	9.87	20033	0	0	5	5	0.02	0.8618199	1	10	0.08	2800	306.3726	40.92395	-91.39369
399399	0	4	8	-5.950577	-2.678268	305.1084	0	9.87	20033	0	0	5	5	0.02	0.8611912	1	10	0.08	2800	306.5924	40.92395	-91.39369
399528	-36	69	63	-5.941385	-2.637522	305.1232	0	9.87	20033	0	0	5	5	0.02	0.860594	1	10	0.08	2800	306.5795	40.92396	-91.3937
399614	-40	83	38	-5.992847	-2.728282	305.109	0	9.87	20033	0	0	5	5	0.02	0.855494	1	10	0.08	2800	306.5795	40.92396	-91.3937
399684	46	-55	15	-6.029562	-2.767605	305.118	0	9.87	20033	0	0	5	5	0.02	0.8535717	1	10	0.08	2800	306.6857	40.92396	-91.3937
399851	46	-70	22	-6.019338	-2.740399	305.1194	0	9.87	20033	0	0	5	5	0.02	0.8487322	1	10	0.08	2800	306.5912	40.92396	-91.3937
399902	34	-26	28	-6.019965	-2.727944	305.1118	0	9.87	20033	0	0	5	5	0.02	0.8509592	1	10	0.08	2800	306.6294	40.92396	-91.3937
399984	-64	86	-16	-5.970344	-2.65605	305.1093	0	9.87	20033	0	0	5	5	0.02	0.8501939	1	10	0.08	2800	306.7794	40.92396	-91.3937
400089	183	-400	-353	-5.896676	-2.564619	305.2206	0	9.87	20033	0	0	5	5	0.02	0.8388761	1	10	0.08	2800	306.245	40.92396	-91.3937
400178	-282	416	-1512	-5.767004	-2.317733	309.8576	0	9.87	20033	0	0	5	5	0.02	0.8320838	1	10	0.08	2800	309.6818	40.92396	-91.3937
400360	146	13	-35	-5.937903	-2.56059	310.1953	0	9.87	20033	0	0	5	5	0.02	0.8247876	1	10	0.08	2800	312.0469	40.92396	-91.3937
400411	-38	-84	21	-5.595534	-2.424699	310.1067	0	9.87	20033	0	0	5	5	0.02	0.8237775	1	10	0.08	2800	311.5002	40.92396	-91.3937
400489	-41	135	-26	-5.921476	-2.589146	310.3743	0	9.87	20033	0	0	5	5	0.02	0.8215622	1	10	0.08	2800	313.2369	40.92396	-91.3937
400638	212	-640	-445	-5.728161	-2.384613	310.7581	0	9.87	20033	0	0	5	5	0.02	0.822924	1	10	0.08	2800	314.053	40.92396	-91.3937
400736	-199	82	55	-5.888409	-2.467067	310.8496	0	9.87	20033	0	0	5	5	0.02	0.8217866	1	10	0.08	2800	313.8343	40.92396	-91.3937
400885	5	-77	-71	-5.829108	-2.415332	310.6908	0	9.87	20033	0	0	5	5	0.02	0.8192564	1	10	0.08	2800	313.8625	40.92396	-91.3937
400917	-4	8	64	-5.803257	-2.371948	310.6776	0	9.87	20033	0	0	5	5	0.02	0.8228937	1	10	0.08	2800	313.4679	40.92396	-91.3937
400978	166	-181	5	-5.72315	-2.233497	310.7377	0	9.87	20033	0	0	5	5	0.02	0.8275719	1	10	0.08	2800	313.661	40.92396	-91.3937
401082	-135	268	48	-5.789646	-2.375129	310.6719	0	9.87	20033	0	0	5	5	0.02	0.8310383	1	10	0.08	2800	313.661	40.92396	-91.3937
401161	-135	268	48	-5.789646	-2.375129	310.6719	0	9.87	20033	0	0	5	5	0.02	0.8310383	1	10	0.08	2800	313.661	40.92396	-91.3937
401260	-135	268	48	-5.789646	-2.375129	310.6719	0	9.87	20033	0	0	5	5	0.02	0.8310383	1	10	0.08	2800	313.661	40.92396	-91.3937
401339	-135	268	48	-5.789646	-2.375129	310.6719	0	9.87	20033	0	0	5	5	0.02	0.8310383	1	10	0.08	2800	313.661	40.92396	-91.3937
401435	-135	268	48	-5.789646	-2.375129	310.6719	0	9.87	20033	0	0	5	5	0.02	0.8310383	1	10	0.08	2800	313.661	40.92396	-91.3937
401537	-135	268	48	-5.789646	-2.375129	310.6719	0	9.87	20033	0	0	5	5	0.02	0.8310383	1	10	0.08	2800	313.661	40.92396	-91.3937
401632	-135	268	48	-5.789646	-2.375129	310.6719	0	9.87	20033	0	0	5	5	0.02	0.8310383	1	10	0.08	2800	313.661	40.92396	-91.3937
401713	-135	268	48	-5.789646	-2.375129	310.6719	0	9.87	20033	0	0	5	5	0.02	0.8310383	1	10	0.08	2800	313.661	40.92396	-91.3937
401811	-135	268	48	-5.789646	-2.375129	310.6719	0	9.87	20033	0	0	5	5	0.02	0.8310383	1	10	0.08	2800	313.661	40.92396	-91.3937
401811	-135	268	48	-5.789646	-2.375129	310.6719	0	9.87	20033	0	0	5	5	0.02	0.8310383	1	10	0.08	2800	313.661	40.92396	-91.3937
401885	-135	268	48	-5.789646	-2.375129	310.6719	0	9.87	20033	0	0	5	5	0.02	0.8310383	1	10	0.08	2800	313.661	40.92396	-91.3937
401885	-135	268	48	-5.789646	-2.375129	310.6719	0	9.87	20033	0	0	5	5	0.02	0.8310383	1	10	0.08	2800	313.661	40.92396	-91.3937
401960	-135	268	48	-5.789646	-2.375129	310.6719	0	9.87	20033	0	0	5	5	0.02	0.8310383	1	10	0.08	2800	313.661	40.92396	-91.3937
401960	-135	268	48	-5.789646	-2.375129	310.6719	0	9.87	20033	0	0	5	5	0.02	0.8310383	1	10	0.08	2800	313.661	40.92396	-91.3937
402042	-135	268	48	-5.789646	-2.375129	310.6719	0	9.87	20033	0	0	5	5	0.02	0.8310383	1	10	0.08	2800	313.661	40.92396	-91.3937
402143	-135	268	48	-5.789646	-2.375129	310.6719	0	9.87	20033	0	0	5	5	0.02	0.8310383	1	10	0.08	2800	313.661	40.92396	-91.3937
402237	-135	268	48	-5.789646	-2.375129	310.6719	0	9.87	20033	0	0	5	5	0.02	0.8310383	1	10	0.08	2800	313.661	40.92396	-91.3937
402316	-135	268	48	-5.789646	-2.375129	310.6719	0	9.87	20033	0	0	5	5	0.02	0.8310383	1	10	0.08	2800	313.661	40.92396	-91.3937
402413	-135	268	48	-5.789646	-2.375129	310.6719	0	9.87	20033	0	0	5	5	0.02	0.8310383	1	10	0.08	2800	313.661	40.92396	-91.3937
402495	-135	268	48	-5.789646	-2.375129	310.6719	0	9.87	20033	0	0	5	5	0.02	0.8310383	1	10	0.08	2800	313.661	40.92396	-91.3937
402592	-135	268	48	-5.789646	-2.375129	310.6719	0	9.87	20033	0	0	5	5	0.02	0.8310383	1	10	0.08	2800	313.661	40.92396	-91.3937
402677	-135	268	48	-5.789646	-2.375129	310.6719	0	9.87	20033	0	0	5	5	0.02	0.8310383	1	10	0.08	2800	313.661	40.92396	-91.3937
402778	-135	268	48	-5.789646	-2.375129	310.6719	0	9.87	20033	0	0	5	5	0.02	0.8310383	1	10	0.08	2800	313.661	40.92396	-91.3937
402860	-135	268	48	-5.789646	-2.375129	310.6719	0	9.87	20033	0	0	5	5	0.02	0.8310383	1	10	0.08	2800	313.661	40.92396	-91.3937
