time(ms)	gyro_x(deg/s)	gyro_y(deg/s)	gyro_z(deg/s)	orientation_roll(deg)	orientation_pitch(deg)	orientation_yaw(deg)	throttle	battery(V)	loop_time(uS)	pid_output_roll	pid_output_pitch	pid_output_yaw	pid_output_throttle	ultrasonic_alt	baro_alt	flight_mode	p_gain_altitude	i_gain_altitude	d_gain_altitude	compass_heading	latitude	longitude
157332	-2400	-1667	117	-6.257827	3.551238	351.2411	0	11.29	20057	86	71	5	5	0.02	0.865126	8	10	0.08	2800	351.5723	40.92397	-91.39362
157445	-630	511	-116	-6.674702	3.774993	351.1424	0	11.29	20022	91	70	5	5	0.02	0.8599423	8	10	0.08	2800	350.9201	40.92398	-91.39362
157510	-546	-187	451	-6.440034	3.192418	350.0352	0	11.29	20030	91	77	5	5	0.02	0.8577113	8	10	0.08	2800	351.2855	40.92398	-91.39362
157637	473	-1001	337	-4.998727	4.343906	349.3918	0	11.4	20029	97	82	5	5	0.02	0.8648543	8	10	0.08	2800	350.3901	40.92398	-91.39362
157705	-1188	-1167	131	-5.397739	5.555606	349.2217	0	11.4	20044	77	63	5	5	0.02	0.8670401	8	10	0.08	2800	350.755	40.92398	-91.39362
157888	304	-784	-60	-6.103547	4.786341	348.7037	0	11.4	20031	77	69	5	5	0.02	0.8996838	8	10	0.08	2800	352.8463	40.92398	-91.39362
157950	2545	-1184	-399	-2.873646	7.328377	349.2262	0	11.4	20033	79	69	5	5	0.02	0.9138463	8	10	0.08	2800	353.5305	40.92398	-91.39362
158037	2284	330	-357	-0.6594953	7.90275	349.8355	0	11.4	20032	72	59	5	5	0.02	0.9637362	8	10	0.08	2800	353.9974	40.92398	-91.39362
158119	86	1629	-663	-0.5106278	6.283156	350.4649	0	11.4	20069	82	72	5	5	0.02	1.014435	8	10	0.08	2800	353.1579	40.92398	-91.39362
158239	-1566	-2938	-690	-4.954948	9.389443	352.0446	0	11.4	20033	72	67	5	5	0.02	1.083944	8	10	0.08	2800	353.3107	40.92398	-91.39362
158295	1435	-2398	-811	-5.140472	10.59103	352.4695	0	11.4	20057	71	68	5	5	0.02	1.098135	8	10	0.08	2800	353.3107	40.92398	-91.39362
158454	1194	176	-338	-3.828105	12.24785	353.7028	0	11.4	20030	64	53	5	5	0.02	1.189614	8	10	0.08	2800	352.1774	40.92398	-91.39362
158500	67	160	-469	-3.779577	12.2216	353.8017	0	11.57	20053	63	57	5	5	0.02	1.225678	8	10	0.08	2800	352.1774	40.92398	-91.39362
158633	-741	2226	-1204	-5.057323	11.55359	356.0247	0	11.57	20057	56	56	5	5	0.02	1.295555	8	10	0.08	2800	351.7856	40.92398	-91.39362
158724	1289	4340	-1105	-4.418881	7.700653	357.175	0	11.57	20031	59	61	5	5	0.02	1.318208	8	10	0.08	2800	354.1954	40.92398	-91.39362
158811	-2258	489	-961	-0.4221593	1.899156	358.6266	0	11.57	20033	59	53	5	5	0.02	1.360639	8	10	0.08	2800	359.7751	40.92398	-91.39362
158930	-1563	-2377	-228	-6.526417	6.438945	359.2487	0	11.57	20075	59	48	5	5	0.02	1.38976	8	10	0.08	2800	1.408356	40.92398	-91.39362
159007	-338	-829	677	-6.825287	7.128842	359.2565	0	11.57	20023	49	37	5	5	0.02	1.417541	8	10	0.08	2800	358.94	40.92398	-91.39362
159118	4937	3556	731	-2.514825	2.784163	359.0692	0	11.57	20031	43	24	5	5	0.02	1.440558	8	10	0.08	2800	0.3856812	40.92397	-91.39362
159213	-631	-88	1170	0.4468014	0.1927424	358.3907	0	11.57	20025	38	21	5	5	0.02	1.453442	8	10	0.08	2800	0.8374023	40.92397	-91.39362
159328	-3487	-2691	399	-5.59179	3.455433	357.9085	0	11.57	20031	35	25	5	5	0.02	1.46588	8	10	0.08	2800	358.3364	40.92397	-91.39362
159419	-487	1394	163	-6.430379	4.721352	357.096	0	11.29	20036	38	30	5	5	0.02	1.485014	8	10	0.08	2800	357.4844	40.92397	-91.39362
159575	1399	3421	1114	-5.022877	0.2225223	355.575	0	11.29	20030	38	32	5	5	0.02	1.498788	8	10	0.08	2800	356.7977	40.92397	-91.39362
159644	-1323	-2040	675	-1.944308	-1.207928	354.2402	0	11.29	20032	39	35	5	5	0.02	1.498126	8	10	0.08	2800	356.7015	40.92397	-91.39362
159768	1620	-944	705	-3.632613	3.164396	352.2466	0	11.29	20031	40	36	5	5	0.02	1.485988	8	10	0.08	2800	351.7303	40.92397	-91.39362
159840	3062	309	299	-1.385101	3.636509	351.7579	0	11.29	20039	38	29	5	5	0.02	1.477647	8	10	0.08	2800	350.8214	40.92397	-91.39362
159975	-1472	749	644	-1.023978	2.005067	350.9953	0	11.29	20033	2	-15	5	5	0.02	1.453145	8	10	0.08	2800	348.6234	40.92397	-91.39362
160117	2104	731	584	-1.405774	-0.790871	350.2377	0	11.29	20043	5	-7	5	5	0.02	1.432552	8	10	0.08	2800	349.8119	40.92397	-91.39362
160221	-1128	-480	-243	0.02965348	0.6015898	350.2624	0	11.29	20058	-1	-12	5	5	0.02	1.423307	8	10	0.08	2800	351.3531	40.92397	-91.39362
160265	-56	106	652	-0.9515838	0.8333956	350.1858	0	11.29	20029	-2	-14	5	5	0.02	1.423542	8	10	0.08	2800	349.3949	40.92397	-91.39362
160381	1304	1275	653	-1.553566	0.2483521	350.1208	0	11.68	20022	10	-17	5	5	0.02	1.428084	8	10	0.08	2800	351.229	40.92397	-91.39362
160560	1070	-1945	270	-1.387258	0.160492	349.9524	0	11.68	20007	4	1	5	5	0.02	1.453573	8	10	0.08	2800	351.8286	40.92396	-91.39362
160683	223	-1125	-1016	0.1684431	-0.130217	350.8102	0	11.68	20053	5	10	5	5	0.02	1.470378	8	10	0.08	2800	352.9738	40.92396	-91.39362
160737	667	-1966	-33	0.3452694	0.619156	351.0562	0	11.68	20027	2	10	5	5	0.02	1.488498	8	10	0.08	2800	352.9738	40.92396	-91.39362
160942	1177	997	-479	-0.7840511	5.403501	351.9147	0	11.68	20053	13	15	5	5	0.02	1.544307	8	10	0.08	2800	350.6039	40.92396	-91.39363
160992	851	928	150	-0.2370665	4.421004	352.2183	0	11.68	20036	14	16	5	5	0.02	1.551078	8	10	0.08	2800	351.0727	40.92396	-91.39363
161086	-23	1893	-638	0.3543309	1.982784	352.8989	0	11.68	20038	5	8	5	5	0.02	1.581053	8	10	0.08	2800	351.699	40.92396	-91.39363
161212	1179	1110	-328	0.1324602	0.2892037	353.7775	0	11.68	20027	9	13	5	5	0.02	1.607761	8	10	0.08	2800	352.9139	40.92396	-91.39363
161330	-324	-1737	-226	-1.310448	1.483824	354.0303	0	11.51	20028	6	17	5	5	0.02	1.620215	8	10	0.08	2800	351.9206	40.92396	-91.39363
161412	-700	-208	365	-2.400467	2.810538	353.6552	0	11.51	20025	5	11	5	5	0.02	1.637988	8	10	0.08	2800	351.1328	40.92396	-91.39363
161473	360	-84	324	-3.086457	2.675061	353.2131	0	11.51	20031	14	17	5	5	0.02	1.657848	8	10	0.08	2800	350.6838	40.92396	-91.39363
161541	855	439	438	-2.907069	2.828149	353.0191	0	11.51	20035	15	25	5	5	0.02	1.664531	8	10	0.08	2800	352.1716	40.92396	-91.39363
161628	406	361	529	-1.227565	0.9443899	352.6132	0	11.51	20038	11	20	5	5	0.02	1.688947	8	10	0.08	2800	347.9727	40.92396	-91.39363
161797	1286	879	442	-0.05888612	1.37965	352.3034	0	11.51	20008	9	10	5	5	0.02	1.716274	8	10	0.08	2800	349.2327	40.92395	-91.39363
161849	-225	-88	-93	-0.2030388	1.20753	352.3316	0	11.51	20032	9	14	5	5	0.02	1.731977	8	10	0.08	2800	349.2327	40.92395	-91.39363
161980	150	-104	-879	-0.9644811	1.832934	353.3222	0	11.51	20028	18	22	5	5	0.02	1.743188	8	10	0.08	2800	349.2977	40.92395	-91.39363
162139	-927	635	-682	-1.575986	0.4937731	354.856	0	11.51	20032	14	18	5	5	0.02	1.732806	8	10	0.08	2800	349.5529	40.92395	-91.39364
162199	206	28	-476	-2.20611	1.035102	355.463	0	11.51	20029	14	25	5	5	0.02	1.73248	8	10	0.08	2800	352.4741	40.92395	-91.39364
162291	-1384	-1050	109	-2.222992	2.31286	355.954	0	11.51	20031	21	36	5	5	0.02	1.731075	8	10	0.08	2800	351.3255	40.92396	-91.39364
162454	914	1050	716	-2.847619	2.737311	355.9071	0	11.51	20063	18	36	5	5	0.02	1.730947	8	10	0.08	2800	350.8917	40.92396	-91.39364
162562	1086	235	354	-0.9885289	2.347978	355.4241	0	11.51	20038	25	32	5	5	0.02	1.728116	8	10	0.08	2800	350.498	40.92396	-91.39364
162704	-976	-607	120	-0.9807357	1.411671	355.5406	0	11.51	20029	40	41	5	5	0.02	1.71606	8	10	0.08	2800	350.8706	40.92396	-91.39363
162811	102	-392	350	-2.455832	1.856607	355.1266	0	11.51	20034	33	38	5	5	0.02	1.707081	8	10	0.08	2800	351.0818	40.92396	-91.39363
162880	-675	-447	374	-3.203985	3.261184	354.8297	0	11.51	20021	33	38	5	5	0.02	1.696486	8	10	0.08	2800	349.1139	40.92396	-91.39363
162934	-1264	212	666	-3.693572	2.989192	354.5821	0	11.51	20031	34	45	5	5	0.02	1.687137	8	10	0.08	2800	348.9106	40.92396	-91.39363
163074	-2363	10	495	-3.120239	3.176184	353.0251	0	11.34	20030	48	51	5	5	0.02	1.669233	8	10	0.08	2800	347.0295	40.92396	-91.39363
163190	1715	-151	952	-3.33114	3.378188	351.6138	0	11.34	20009	44	46	5	5	0.02	1.658906	8	10	0.08	2800	345.0402	40.92396	-91.39363
163244	404	444	745	-3.102299	3.387075	351.2257	0	11.34	20032	46	47	5	5	0.02	1.64809	8	10	0.08	2800	345.0402	40.92396	-91.39363
163354	-130	-385	272	-4.216742	3.523272	350.4772	0	11.34	20062	56	46	5	5	0.02	1.640255	8	10	0.08	2800	342.6408	40.92396	-91.39363
163472	1309	543	-338	-3.263298	4.495471	349.9765	0	11.34	20057	54	46	5	5	0.02	1.634631	8	10	0.08	2800	342.8616	40.92396	-91.39363
163555	-114	1334	570	-2.140174	3.429282	349.6082	0	11.34	20009	57	46	5	5	0.02	1.635573	8	10	0.08	2800	342.7989	40.92396	-91.39363
163640	-1309	-1260	256	-3.882863	3.561909	349.3016	0	11.34	20032	58	47	5	5	0.02	1.636936	8	10	0.08	2800	341.9707	40.92396	-91.39363
163782	941	-583	-471	-3.712072	3.429902	349.0213	0	11.34	20055	59	47	5	5	0.02	1.634131	8	10	0.08	2800	341.9663	40.92397	-91.39363
163840	-1086	6	-411	-4.020296	2.825579	349.2471	0	11.34	20032	59	47	5	5	0.02	1.633271	8	10	0.08	2800	341.7178	40.92397	-91.39363
163946	-1712	-703	-371	-5.593527	3.710286	349.2068	0	11.34	20033	62	57	5	5	0.02	1.631124	8	10	0.08	2800	343.0655	40.92397	-91.39363
164122	1329	447	-373	-3.923575	2.801172	349.7867	0	10.83	20032	71	57	5	5	0.02	1.621161	8	10	0.08	2800	343.464	40.92397	-91.39362
164193	-813	-893	365	-4.024748	2.817326	350.2379	0	10.83	20037	78	59	5	5	0.02	1.61695	8	10	0.08	2800	344.4977	40.92397	-91.39362
164295	-1129	-1569	-1012	-5.689435	4.260506	350.9132	0	10.83	20030	81	59	5	5	0.02	1.612794	8	10	0.08	2800	344.2574	40.92397	-91.39362
164392	1717	883	-1458	-3.064935	3.798032	352.5169	0	10.83	20033	72	59	5	5	0.02	1.613645	8	10	0.08	2800	345.4547	40.92397	-91.39362
164442	375	672	-549	-2.111339	3.324696	352.9628	0	10.83	20039	73	58	5	5	0.02	1.612805	8	10	0.08	2800	345.4547	40.92397	-91.39362
164640	-964	-842	-749	-3.658636	4.401425	355.4477	0	10.83	20074	72	74	5	5	0.02	1.621913	8	10	0.08	2800	349.7245	40.92397	-91.39362
164690	-1926	-1310	476	-5.41264	5.38917	355.2806	0	10.83	20028	63	67	5	5	0.02	1.624377	8	10	0.08	2800	348.7	40.92397	-91.39362
164737	1554	1607	-748	-5.836465	4.78741	355.469	0	10.83	20034	69	68	5	5	0.02	1.631471	8	10	0.08	2800	346.6891	40.92397	-91.39362
164919	-1717	-2459	-697	-8.158548	5.001233	355.7628	0	11.29	20033	83	70	5	5	0.02	1.661144	8	10	0.08	2800	350.6849	40.92397	-91.39362
164974	217	-2652	-734	-8.300109	6.256171	355.9766	0	11.29	20055	87	70	5	5	0.02	1.668259	8	10	0.08	2800	350.6849	40.92397	-91.39362
165060	-59	-986	578	-7.554899	7.494563	355.8355	0	11.29	20033	69	63	5	5	0.02	1.678488	8	10	0.08	2800	350.5327	40.92397	-91.39362
165229	2978	911	-488	-5.76783	4.99677	355.2303	0	11.29	20033	84	65	5	5	0.02	1.718495	8	10	0.08	2800	349.4092	40.92397	-91.39362
165281	3298	981	-278	-3.851111	4.355949	355.4799	0	11.29	20033	81	66	5	5	0.02	1.727775	8	10	0.08	2800	351.9749	40.92397	-91.39362
165375	-1473	533	728	-3.390366	3.78145	355.3523	0	11.29	20037	66	60	5	5	0.02	1.751115	8	10	0.08	2800	349.2699	40.92397	-91.39362
165539	2013	-304	-5	-6.695058	5.349154	355.7162	0	11.29	20010	74	73	5	5	0.02	1.781599	8	10	0.08	2800	351.2555	40.92397	-91.39362
165652	-3472	-1143	165	-3.810451	3.138579	355.6862	0	11.29	20028	63	71	5	5	0.02	1.798471	8	10	0.08	2800	350.7815	40.92397	-91.39362
165742	-1247	-2317	153	-6.859436	5.256594	355.3788	0	11.29	20045	57	73	5	5	0.02	1.810624	8	10	0.08	2800	348.7451	40.92397	-91.39362
165862	658	1058	125	-8.858869	6.720229	353.9405	0	11.97	20031	78	65	5	5	0.02	1.834755	8	10	0.08	2800	348.3862	40.92397	-91.39362
165987	257	60	884	-7.29437	5.256564	352.9619	0	11.97	20034	73	65	5	5	0.02	1.854155	8	10	0.08	2800	348.7908	40.92397	-91.39362
166180	-3262	92	153	-4.342614	3.166451	352.2959	0	11.97	20073	61	43	5	5	0.02	1.894665	8	10	0.08	2800	347.5902	40.92397	-91.39362
166227	-1683	496	-167	-5.309313	3.008039	352.3987	0	11.97	24027	51	47	5	5	0.02	1.896764	8	10	0.08	2800	349.1348	40.92397	-91.39362
166411	-1374	193	596	-2.377345	3.399828	352.4373	0	11.97	24004	59	52	5	5	0.02	1.887302	8	10	0.08	2800	349.1793	40.92397	-91.39362
166443	-2357	-201	-449	-3.6531	3.48821	352.5208	0	11.97	20030	50	45	5	5	0.02	1.884317	8	10	0.08	2800	347.9299	40.92397	-91.39362
166547	-898	-1841	145	-5.694214	4.716343	352.5705	0	11.97	20030	47	43	5	5	0.02	1.881866	8	10	0.08	2800	347.3607	40.92397	-91.39362
166641	888	2181	776	-4.624184	3.664824	351.6008	0	11.97	20008	53	47	5	5	0.02	1.871443	8	10	0.08	2800	349.0385	40.92397	-91.39362
166817	-1246	-704	-271	-3.607615	1.919358	350.4403	0	11.34	20013	43	38	5	5	0.02	1.860351	8	10	0.08	2800	346.537	40.92397	-91.39362
166841	-1246	-704	-271	-3.607615	1.919358	350.4403	0	11.34	20013	42	44	5	5	0.02	1.858236	8	10	0.08	2800	346.537	40.92397	-91.39362
167074	-2236	428	988	-1.427704	3.547041	349.6528	0	11.34	20062	44	44	5	5	0.02	1.833263	8	10	0.08	2800	347.6432	40.92397	-91.39362
167210	989	-823	387	-3.391611	3.880147	349.2401	0	11.34	20052	43	42	5	5	0.02	1.820875	8	10	0.08	2800	347.0482	40.92397	-91.39362
167314	71	380	855	-2.752625	4.624491	348.5901	0	11.34	20031	41	35	5	5	0.02	1.813587	8	10	0.08	2800	346.2781	40.92397	-91.39362
167408	-112	-371	134	-4.559435	3.068303	348.1428	0	11.34	20004	41	33	5	5	0.02	1.804556	8	10	0.08	2800	344.6264	40.92397	-91.39362
167518	487	1052	-175	-3.842624	3.0032	348.1516	0	11.34	20035	40	34	5	5	0.02	1.799692	8	10	0.08	2800	344.7252	40.92397	-91.39362
167546	487	1052	-175	-3.842624	3.0032	348.1516	0	11.34	20035	40	34	5	5	0.02	1.805048	8	10	0.08	2800	344.7252	40.92397	-91.39362
167678	443	-1574	-629	-3.99082	3.601861	348.5245	0	11.4	20008	38	33	5	5	0.02	1.825966	8	10	0.08	2800	346.2968	40.92397	-91.39362
167756	837	-479	10	-3.109867	4.828897	348.5124	0	11.4	20034	38	33	5	5	0.02	1.83727	8	10	0.08	2800	347.6069	40.92397	-91.39362
167851	1311	1515	561	-2.868355	3.761549	348.856	0	11.4	20032	25	35	5	5	0.02	1.852986	8	10	0.08	2800	347.1377	40.92397	-91.39363
168006	-1176	-1078	301	-3.027821	2.289478	349.1043	0	11.4	20033	26	33	5	5	0.02	1.861615	8	10	0.08	2800	344.7911	40.92397	-91.39363
168064	1202	-305	-593	-3.2953	4.29006	349.8347	0	11.4	20011	27	33	5	5	0.02	1.865487	8	10	0.08	2800	346.0761	40.92397	-91.39363
168187	1442	1216	-648	-0.9032597	2.613408	351.1641	0	11.4	20029	15	35	5	5	0.02	1.877834	8	10	0.08	2800	346.1479	40.92396	-91.39363
168325	1338	220	-467	-0.8753142	1.855883	352.3793	0	11.4	20038	25	31	5	5	0.02	1.891037	8	10	0.08	2800	348.5553	40.92396	-91.39363
168455	-1952	-666	-499	-1.874801	1.661005	352.8636	0	11.4	20037	20	32	5	5	0.02	1.908376	8	10	0.08	2800	346.9778	40.92396	-91.39363
168549	1791	-218	354	-1.719931	3.022264	353.7942	0	11.34	20030	23	30	5	5	0.02	1.914553	8	10	0.08	2800	349.2337	40.92396	-91.39363
168703	-651	21	-455	-3.986125	3.473483	353.8359	0	11.34	20009	26	30	5	5	0.02	1.912606	8	10	0.08	2800	349.2698	40.92396	-91.39363
168808	245	561	85	-3.05028	2.005974	353.9361	0	11.34	20001	22	29	5	5	0.02	1.910121	8	10	0.08	2800	348.3776	40.92396	-91.39363
168877	88	-490	-194	-2.837297	2.130238	354.0703	0	11.34	20079	21	27	5	5	0.02	1.908091	8	10	0.08	2800	348.3776	40.92396	-91.39364
168963	1457	1114	317	-0.4865845	1.547032	354.6624	0	11.34	20033	20	28	5	5	0.02	1.908418	8	10	0.08	2800	351.3255	40.92396	-91.39364
169131	173	-1581	735	-3.853273	2.82836	354.101	0	11.34	20028	30	26	5	5	0.02	1.917321	8	10	0.08	2800	348.0134	40.92396	-91.39364
169216	1109	1690	645	-3.049664	2.227193	353.301	0	11.34	20057	26	24	5	5	0.02	1.922713	8	10	0.08	2800	347.6499	40.92396	-91.39364
169300	2590	1085	280	-0.1097813	0.9274203	352.9961	0	11.34	20029	26	23	5	5	0.02	1.931549	8	10	0.08	2800	347.6499	40.92396	-91.39364
169361	-1827	-1227	544	0.3345849	0.8697516	352.4966	0	11.34	20052	25	23	5	5	0.02	1.933737	8	10	0.08	2800	349.3127	40.92396	-91.39364
169488	948	1129	108	-1.00189	0.9933487	352.655	0	11.23	20034	25	23	5	5	0.02	1.944981	8	10	0.08	2800	345.8566	40.92395	-91.39364
169590	-2364	-1203	186	-2.063541	1.794109	352.5065	0	11.23	20031	21	21	5	5	0.02	1.95132	8	10	0.08	2800	345.6661	40.92395	-91.39364
169657	893	-656	808	-2.970629	2.812098	352.0618	0	11.23	20016	28	20	5	5	0.02	1.958724	8	10	0.08	2800	347.4534	40.92395	-91.39364
169832	-2107	421	515	-3.967612	4.137125	350.5807	0	11.23	20011	37	29	5	5	0.02	1.965981	8	10	0.08	2800	342.3913	40.92395	-91.39364
169867	-442	688	-79	-4.592687	3.974769	350.4659	0	11.23	20063	39	29	5	5	0.02	1.97704	8	10	0.08	2800	342.3913	40.92395	-91.39364
169960	1492	1042	-118	-2.743213	2.900863	350.1484	0	11.23	20032	39	21	5	5	0.02	1.97782	8	10	0.08	2800	343.709	40.92395	-91.39364
170053	1042	1064	852	-3.101887	0.7081558	348.7047	0	11.23	20002	36	22	5	5	0.02	1.977136	8	10	0.08	2800	341.7236	40.92395	-91.39364
170257	-1607	-1355	219	-2.863346	3.45825	347.343	0	11.23	20007	38	25	5	5	0.02	1.966914	8	10	0.08	2800	341.1033	40.92395	-91.39364
170339	-958	953	960	-4.073159	3.013494	346.1717	0	11.23	20035	36	13	5	5	0.02	1.965927	8	10	0.08	2800	339.486	40.92395	-91.39364
170425	197	-34	359	-3.714393	1.734183	345.455	0	11.34	20071	37	17	5	5	0.02	1.970391	8	10	0.08	2800	339.6367	40.92395	-91.39364
170478	455	-647	-85	-3.396575	1.843833	345.4078	0	11.34	24014	39	25	5	5	0.02	1.974946	8	10	0.08	2800	339.7145	40.92395	-91.39364
170543	157	-846	158	-1.702455	2.903375	345.7308	0	11.34	20017	39	22	5	5	0.02	1.978313	8	10	0.08	2800	339.5068	40.92395	-91.39364
170634	542	1377	-291	-1.591688	2.980844	345.8543	0	11.34	20035	39	22	5	5	0.02	1.986352	8	10	0.08	2800	340.0949	40.92395	-91.39364
170755	-1236	865	-789	-0.7288455	0.07583437	346.8498	0	11.34	20034	54	28	5	5	0.02	1.990532	8	10	0.08	2800	341.4915	40.92395	-91.39364
170863	-644	-1860	-434	-3.564746	2.448929	348.9367	0	11.34	20030	57	32	5	5	0.02	2.001081	8	10	0.08	2800	344.3687	40.92395	-91.39364
170971	995	1308	-317	-3.565495	4.008706	351.0395	0	11.34	20033	60	29	5	5	0.02	2.018955	8	10	0.08	2800	344.5365	40.92395	-91.39364
171019	-599	604	-903	-3.079758	3.231699	351.4869	0	11.34	20054	60	29	5	5	0.02	2.023122	8	10	0.08	2800	346.3659	40.92395	-91.39363
171178	-1019	-201	-1622	-3.392184	2.657157	353.8758	0	11.34	20034	57	32	5	5	0.02	2.042547	8	10	0.08	2800	348.6247	40.92395	-91.39363
171252	331	943	-1119	-4.68192	3.127855	356.1503	0	11.23	20038	57	33	5	5	0.02	2.045734	8	10	0.08	2800	351.4533	40.92395	-91.39363
171339	-624	889	218	-3.246518	1.670049	356.8248	0	11.23	20035	59	34	5	5	0.02	2.047756	8	10	0.08	2800	354.8703	40.92395	-91.39363
171426	-2613	574	-160	-5.840961	1.645684	356.708	0	11.23	20022	59	34	5	5	0.02	2.052998	8	10	0.08	2800	354.8004	40.92395	-91.39363
171656	-1011	-1050	110	-1.741036	3.028499	355.5151	0	11.23	20032	64	48	5	5	0.02	2.067729	8	10	0.08	2800	353.6566	40.92395	-91.39363
171742	-2797	-937	1254	-4.950953	4.04145	354.9159	0	11.23	20045	55	42	5	5	0.02	2.065523	8	10	0.08	2800	350.3408	40.92395	-91.39363
171850	2501	1725	898	-4.131628	2.554849	353.421	0	11.23	20032	53	41	5	5	0.02	2.054229	8	10	0.08	2800	350.4366	40.92395	-91.39363
172015	-1629	-1250	386	-3.68307	3.307372	351.9115	0	11.23	20025	61	44	5	5	0.02	2.043498	8	10	0.08	2800	349.15	40.92395	-91.39363
172102	-215	722	267	-5.851613	4.891117	351.0496	0	11.23	20043	51	34	5	5	0.02	2.040744	8	10	0.08	2800	346.1716	40.92395	-91.39363
172208	-666	-697	420	-3.744339	2.970508	349.7426	0	11.17	20036	63	40	5	5	0.02	2.0427	8	10	0.08	2800	348.4992	40.92395	-91.39363
172237	-2061	-1173	577	-4.467138	3.360304	349.229	0	11.17	20031	71	45	5	5	0.02	2.0427	8	10	0.08	2800	346.5326	40.92395	-91.39363
172339	1581	1180	395	-4.651127	3.086092	348.1635	0	11.17	20030	65	39	5	5	0.02	2.044039	8	10	0.08	2800	346.7898	40.92395	-91.39363
172436	-1446	-542	1607	-5.866951	2.762516	346.479	0	11.17	20031	57	32	5	5	0.02	2.052463	8	10	0.08	2800	346.6934	40.92395	-91.39363
172540	1305	628	462	-7.386892	1.252084	344.433	0	11.17	20032	66	34	5	5	0.02	2.059629	8	10	0.08	2800	343.5229	40.92395	-91.39363
172648	1474	-1460	1189	-5.691151	1.883684	343.3102	0	11.17	20031	69	41	5	5	0.02	2.064391	8	10	0.08	2800	342.81	40.92396	-91.39363
172763	1228	1491	910	-4.620628	5.188227	341.0002	0	11.17	20032	61	41	5	5	0.02	2.064068	8	10	0.08	2800	338.4184	40.92396	-91.39363
172876	-125	897	25	-3.855232	1.500581	339.7838	0	11.17	20035	69	46	5	5	0.02	2.064158	8	10	0.08	2800	338.9596	40.92396	-91.39363
172932	-208	-1179	390	-3.912009	1.852778	339.6358	0	11.17	20007	69	47	5	5	0.02	2.064205	8	10	0.08	2800	340.5272	40.92396	-91.39363
173027	-860	-1705	-196	-4.258653	3.484459	339.6395	0	11.34	20040	70	45	5	5	0.02	2.060148	8	10	0.08	2800	339.9999	40.92396	-91.39363
173190	-1071	-944	-302	-5.320725	3.828764	340.0222	0	11.34	20043	58	50	5	5	0.02	2.051872	8	10	0.08	2800	338.533	40.92396	-91.39363
173364	1023	1822	-235	-3.068933	3.291658	340.648	0	11.34	20023	59	41	5	5	0.02	2.052565	8	10	0.08	2800	342.4286	40.92396	-91.39363
173459	-1715	749	379	-4.348198	0.5832702	341.1082	0	11.34	20041	52	50	5	5	0.02	2.049616	8	10	0.08	2800	343.022	40.92396	-91.39363
173522	-497	-1471	-701	-5.088972	1.287911	341.552	0	11.34	20074	51	51	5	5	0.02	2.042174	8	10	0.08	2800	345.502	40.92396	-91.39363
173681	394	-798	4	-2.639303	2.859879	342.2214	0	11.34	20044	51	44	5	5	0.02	2.032618	8	10	0.08	2800	345.3281	40.92396	-91.39363
173785	33	418	-140	-5.44322	4.948798	342.4439	0	11.34	20080	45	49	5	5	0.02	2.032724	8	10	0.08	2800	344.9711	40.92396	-91.39363
173871	1880	1152	-562	-2.463339	2.572482	342.863	0	11.34	20037	41	63	5	5	0.02	2.043655	8	10	0.08	2800	345.2151	40.92396	-91.39363
173988	-1076	-1159	-772	-1.624908	4.384399	344.025	0	11.11	20028	44	58	5	5	0.02	2.05633	8	10	0.08	2800	348.2894	40.92396	-91.39363
174042	-1333	-432	-502	-2.158085	4.866236	344.3478	0	11.11	20059	34	61	5	5	0.02	2.065538	8	10	0.08	2800	348.2102	40.92396	-91.39364
174189	-359	356	-620	-2.948213	4.950971	345.3423	0	11.11	20012	29	75	5	5	0.02	2.08402	8	10	0.08	2800	348.4421	40.92396	-91.39364
174306	-862	-804	-386	-3.030454	4.516573	345.8062	0	11.11	20032	32	57	5	5	0.02	2.096004	8	10	0.08	2800	349.6924	40.92396	-91.39364
174395	-986	-506	-219	-4.047732	5.273931	345.7078	0	11.11	20029	23	59	5	5	0.02	2.102441	8	10	0.08	2800	349.891	40.92396	-91.39364
174426	170	-793	18	-3.886994	5.270281	345.6714	0	11.11	20033	20	57	5	5	0.02	2.105388	8	10	0.08	2800	350.4523	40.92396	-91.39364
174588	1028	2777	-516	-1.69237	3.823201	345.4681	0	11.11	20032	22	51	5	5	0.02	2.106836	8	10	0.08	2800	349.1205	40.92396	-91.39364
174692	-1177	-2179	-790	-2.118225	2.814642	345.6832	0	11.11	20035	21	50	5	5	0.02	2.104654	8	10	0.08	2800	350.7246	40.92396	-91.39364
174749	-1404	-2476	-926	-2.920141	4.070611	345.805	0	11.11	20030	11	58	5	5	0.02	2.102948	8	10	0.08	2800	348.4154	40.92396	-91.39364
174867	2751	40	-154	-0.05391748	6.283688	346.5187	0	11.23	20029	12	58	5	5	0.02	2.101436	8	10	0.08	2800	348.1955	40.92396	-91.39364
174923	1342	603	96	0.8815358	6.135768	346.5317	0	11.23	20030	11	59	5	5	0.02	2.096476	8	10	0.08	2800	349.2645	40.92396	-91.39364
175116	-808	1325	-214	-0.4220265	2.292855	347.9399	0	11.23	20032	-2	52	5	5	0.02	2.069803	8	10	0.08	2800	349.2221	40.92396	-91.39365
175178	1017	-879	-557	-1.038228	3.098628	348.8682	0	11.23	24017	-13	52	5	5	0.02	2.06662	8	10	0.08	2800	349.3167	40.92396	-91.39365
175261	2937	336	-378	0.5553027	3.807637	349.7104	0	11.23	20031	-33	51	5	5	0.02	2.047562	8	10	0.08	2800	351.0062	40.92396	-91.39365
175378	-342	928	-377	2.139132	1.834862	350.7744	0	11.23	20028	-5	53	5	5	0.02	2.033388	8	10	0.08	2800	352.5559	40.92396	-91.39365
175502	-273	-1401	-1012	-2.39998	3.44138	352.0325	0	11.23	20034	-10	44	5	5	0.02	2.015254	8	10	0.08	2800	351.6028	40.92396	-91.39365
175544	332	-142	-847	-1.201235	4.694152	352.5019	0	11.23	20006	-12	43	5	5	0.02	2.007924	8	10	0.08	2800	352.8837	40.92396	-91.39365
175665	41	2091	728	-1.29579	1.288132	351.9456	0	11.23	20034	11	45	5	5	0.02	1.996153	8	10	0.08	2800	351.8414	40.92396	-91.39365
175735	-227	-1416	-507	-0.9533693	1.666249	351.8049	0	11.23	20034	23	43	5	5	0.02	1.991472	8	10	0.08	2800	352.6583	40.92396	-91.39365
175888	64	749	469	-1.414081	4.775218	351.1166	0	11.51	20031	-9	44	5	5	0.02	1.984847	8	10	0.08	2800	349.3918	40.92396	-91.39365
175986	1471	481	236	-0.1498533	4.655808	350.9025	0	11.51	20017	-9	54	5	5	0.02	1.973166	8	10	0.08	2800	350.0079	40.92396	-91.39365
176044	1639	151	2	0.1125337	4.746179	350.858	0	11.51	20048	-1	45	5	5	0.02	1.972345	8	10	0.08	2800	350.0079	40.92396	-91.39365
176151	-1063	1357	-87	-0.1168531	2.574728	350.6657	0	11.51	20033	-6	44	5	5	0.02	1.970746	8	10	0.08	2800	348.5818	40.92396	-91.39365
176312	741	-618	-334	0.1358638	4.48468	351.2168	0	11.51	20040	-15	28	5	5	0.02	1.972343	8	10	0.08	2800	347.8441	40.92396	-91.39365
176414	1683	1720	-818	1.922956	3.940357	351.6936	0	11.51	20033	-12	25	5	5	0.02	1.968717	8	10	0.08	2800	347.7732	40.92395	-91.39365
176448	761	2438	-247	2.780061	2.652333	351.8507	0	11.51	20056	-11	22	5	5	0.02	1.968717	8	10	0.08	2800	347.7732	40.92395	-91.39365
176515	-1068	1780	-807	2.20944	0.6054293	352.927	0	11.51	20033	-18	27	5	5	0.02	1.96665	8	10	0.08	2800	348.3896	40.92395	-91.39365
176535	-55	-1632	-696	0.7775059	-0.02407923	353.0827	0	11.23	20042	-12	33	5	5	0.02	1.961173	8	10	0.08	2800	348.6227	40.92395	-91.39365
176609	-675	-113	141	-1.157875	3.959265	353.0091	0	11.23	20036	-3	33	5	5	0.02	1.959941	8	10	0.08	2800	347.7235	40.92395	-91.39365
176703	2888	1463	-875	0.2092997	3.16667	353.2649	0	11.23	20038	-3	30	5	5	0.02	1.963055	8	10	0.08	2800	349.8285	40.92395	-91.39365
176848	-805	-669	-600	2.689122	2.448899	355.1208	0	11.23	20030	-10	31	5	5	0.02	1.955955	8	10	0.08	2800	350.6512	40.92395	-91.39365
176986	-1147	-538	-389	-0.2464929	3.197504	355.8888	0	11.23	20033	-5	19	5	5	0.02	1.961	8	10	0.08	2800	351.4894	40.92395	-91.39365
177100	1273	2453	307	-0.844561	1.332221	356.0235	0	11.23	20029	-10	13	5	5	0.02	1.964163	8	10	0.08	2800	349.7644	40.92395	-91.39365
177216	634	-564	404	1.257397	0.2239247	356.1945	0	11.23	20029	0	19	5	5	0.02	1.955928	8	10	0.08	2800	350.4897	40.92395	-91.39365
177288	-674	-2415	619	-1.758335	3.14129	355.7133	0	11.23	20017	10	16	5	5	0.02	1.955599	8	10	0.08	2800	348.6909	40.92395	-91.39365
177347	93	-944	495	-2.254399	4.117518	355.6751	0	11.23	20022	6	15	5	5	0.02	1.958602	8	10	0.08	2800	348.5941	40.92395	-91.39365
177476	11	1347	594	1.058276	0.6645666	354.7664	0	11.51	20012	3	22	5	5	0.02	1.976022	8	10	0.08	2800	347.7826	40.92395	-91.39365
177616	-1707	-1184	1124	-2.274921	1.352224	353.4348	0	11.51	20029	13	15	5	5	0.02	1.99471	8	10	0.08	2800	345.9664	40.92395	-91.39365
177699	2307	820	700	-2.347441	2.132097	352.7018	0	11.51	20032	18	9	5	5	0.02	2.013332	8	10	0.08	2800	344.3568	40.92395	-91.39365
177767	829	16	428	-0.5427986	1.466277	352.1214	0	11.51	20057	21	8	5	5	0.02	2.017943	8	10	0.08	2800	345.3005	40.92395	-91.39365
177834	173	939	-257	-0.1414905	0.8088022	351.8102	0	11.51	20033	31	6	5	5	0.02	2.018621	8	10	0.08	2800	343.703	40.92395	-91.39365
177908	-2640	-188	-337	-2.554587	0.7560569	351.7357	0	11.51	20038	30	6	5	5	0.02	2.019031	8	10	0.08	2800	343.4212	40.92395	-91.39365
178064	849	-162	900	-1.780098	0.6888596	351.7667	0	11.51	20033	28	15	5	5	0.02	2.006475	8	10	0.08	2800	342.9557	40.92395	-91.39365
178132	-1255	260	13	-2.982785	1.051625	351.1824	0	11.51	20055	28	15	5	5	0.02	2.003319	8	10	0.08	2800	341.8504	40.92394	-91.39365
178198	1833	514	90	-2.181727	0.8561465	351.1763	0	11.51	20027	19	11	5	5	0.02	1.995993	8	10	0.08	2800	341.3297	40.92394	-91.39365
178309	323	-621	181	-0.9461169	0.721099	350.9946	0	11.51	20034	30	19	5	5	0.02	2.000153	8	10	0.08	2800	342.4957	40.92394	-91.39365
178395	-1424	-964	-97	-1.580042	1.906903	350.7111	0	11.23	20009	38	19	5	5	0.02	2.007361	8	10	0.08	2800	341.1679	40.92394	-91.39365
178543	240	474	1	-3.907014	2.738181	338.9321	0	11.23	20071	46	2	5	5	0.02	2.001422	8	10	0.08	2800	338.7	40.92394	-91.39365
178625	658	2092	750	-2.066779	-1.118874	338.3505	0	11.23	20031	52	-2	5	5	0.02	2.007701	8	10	0.08	2800	340.2612	40.92394	-91.39365
178717	-2134	-506	154	-3.004233	-1.947766	337.7155	0	11.23	20025	46	-8	5	5	0.02	2.004668	8	10	0.08	2800	341.7935	40.92394	-91.39365
178811	-12	-632	48	-2.768492	-0.1590799	337.2298	0	11.23	20053	57	-9	5	5	0.02	1.999137	8	10	0.08	2800	340.1144	40.92394	-91.39365
178974	-1604	-795	607	-4.144717	0.1459394	337.8922	0	11.23	20032	65	-1	5	5	0.02	1.995884	8	10	0.08	2800	341.0125	40.92394	-91.39365
179019	-2175	-1513	317	-5.317882	0.7223817	337.8732	0	11.23	20030	65	0	5	5	0.02	1.996513	8	10	0.08	2800	341.0125	40.92394	-91.39365
179123	2188	682	-433	-6.084517	1.786291	338.3041	0	11.23	20036	67	2	5	5	0.02	2.00265	8	10	0.08	2800	340.2673	40.92394	-91.39365
179273	257	12	-22	-3.683734	-0.6478642	339.9228	0	11.34	20038	72	0	5	5	0.02	2.030676	8	10	0.08	2800	343.6524	40.92394	-91.39364
179406	-1867	-1617	-521	-5.022873	0.842146	340.8922	0	11.34	20029	68	3	5	5	0.02	2.054037	8	10	0.08	2800	344.8529	40.92394	-91.39364
179480	1880	2555	-389	-4.481311	0.2801462	341.7799	0	11.34	20021	72	2	5	5	0.02	2.057377	8	10	0.08	2800	348.1116	40.92394	-91.39364
179561	-2057	-339	-212	-4.106302	-0.557186	342.0324	0	11.34	20026	72	3	5	5	0.02	2.05368	8	10	0.08	2800	348.7538	40.92394	-91.39364
179607	-2231	-1068	-911	-5.192809	0.04735384	342.2487	0	11.34	20029	68	5	5	5	0.02	2.052582	8	10	0.08	2800	348.7538	40.92394	-91.39364
179682	-660	-140	489	-6.340555	1.117396	342.2106	0	11.34	20055	78	10	5	5	0.02	2.051623	8	10	0.08	2800	347.5563	40.92394	-91.39363
179815	1785	234	523	-6.249768	0.5934278	340.9672	0	11.34	20033	92	11	5	5	0.02	2.036499	8	10	0.08	2800	347.9927	40.92394	-91.39363
179903	-1731	-730	294	-5.271752	0.1906324	340.3486	0	11.34	20033	87	15	5	5	0.02	2.027924	8	10	0.08	2800	347.9888	40.92394	-91.39363
179977	-1769	-1081	-372	-6.050979	0.9541999	340.0745	0	11.34	20032	92	17	5	5	0.02	2.015531	8	10	0.08	2800	347.3065	40.92394	-91.39363
180109	-542	-1206	410	-6.257738	0.7779418	339.2281	0	11.23	20086	92	19	5	5	0.02	2.001546	8	10	0.08	2800	346.2615	40.92395	-91.39363
180235	985	1145	3	-5.921279	2.476676	338.7636	0	11.23	20033	77	22	5	5	0.02	1.981023	8	10	0.08	2800	345.0863	40.92395	-91.39362
180327	324	991	56	-4.802213	1.045469	338.9031	0	11.23	20035	80	21	5	5	0.02	1.972394	8	10	0.08	2800	344.4509	40.92395	-91.39362
180502	1372	891	717	-5.529832	1.562638	338.7406	0	11.23	20033	87	19	5	5	0.02	1.941633	8	10	0.08	2800	348.4557	40.92395	-91.39362
180630	-988	-1100	-248	-6.995781	2.036066	348.9498	0	11.23	20030	77	37	5	5	0.02	1.918848	8	10	0.08	2800	346.8885	40.92395	-91.39362
180671	-23	-42	28	-6.90284	2.454649	348.8654	0	11.23	20017	81	36	5	5	0.02	1.911978	8	10	0.08	2800	347.8681	40.92395	-91.39362
180781	-594	86	121	-5.041172	2.055618	348.5965	0	11.23	20015	92	37	5	5	0.02	1.900541	8	10	0.08	2800	347.5895	40.92395	-91.39362
180944	21	-871	-591	-5.093052	1.451194	349.687	0	11.23	20035	77	40	5	5	0.02	1.888899	8	10	0.08	2800	349.7723	40.92395	-91.39362
180984	-134	-2011	-600	-4.767563	3.290172	350.4495	0	11.23	20035	76	41	5	5	0.02	1.887881	8	10	0.08	2800	352.4232	40.92395	-91.39362
181114	-1912	-1218	-248	-5.965626	5.606463	350.7006	0	11.06	20013	81	56	5	5	0.02	1.886214	8	10	0.08	2800	351.4264	40.92395	-91.39362
181197	998	1017	-494	-6.54415	5.624132	351.1217	0	11.06	20007	73	53	5	5	0.02	1.882389	8	10	0.08	2800	351.662	40.92395	-91.39362
181366	-1140	-1211	195	-5.691368	2.136118	351.1616	0	11.06	20032	70	62	5	5	0.02	1.866213	8	10	0.08	2800	355.027	40.92395	-91.39362
181456	898	84	431	-5.911252	4.627326	351.1549	0	11.06	20029	66	62	5	5	0.02	1.854637	8	10	0.08	2800	354.7131	40.92395	-91.39362
181515	2402	483	185	-4.150941	4.307491	351.1226	0	11.06	20054	53	57	5	5	0.02	1.847921	8	10	0.08	2800	352.7965	40.92395	-91.39362
181592	3640	915	-36	-1.779956	3.445388	351.3336	0	11.06	20049	54	61	5	5	0.02	1.841707	8	10	0.08	2800	354.0524	40.92395	-91.39362
181675	457	115	-564	-0.5457922	2.858592	351.6449	0	11.06	20039	51	62	5	5	0.02	1.834476	8	10	0.08	2800	353.5123	40.92395	-91.39362
181800	-3071	-2031	164	-4.732813	4.381493	351.9753	0	11.06	20032	46	59	5	5	0.02	1.815416	8	10	0.08	2800	355.3612	40.92395	-91.39362
181953	1617	1828	-519	-4.535153	5.018288	352.4515	0	11.06	20048	44	61	5	5	0.02	1.784803	8	10	0.08	2800	354.0114	40.92396	-91.39362
182005	-620	2754	-60	-3.064599	2.100225	352.2004	0	11.06	20030	44	61	5	5	0.02	1.780827	8	10	0.08	2800	355.3348	40.92396	-91.39362
182088	-1345	-504	-1035	-4.39572	1.116747	352.4537	0	11.06	20056	43	62	5	5	0.02	1.771524	8	10	0.08	2800	353.6087	40.92396	-91.39362
182153	-301	-2412	-428	-3.143123	2.761041	352.7467	0	11.06	20035	42	64	5	5	0.02	1.762689	8	10	0.08	2800	357.7895	40.92396	-91.39362
182290	877	-376	-290	-1.988441	5.222948	352.983	0	11.06	20039	28	57	5	5	0.02	1.756621	8	10	0.08	2800	353.0888	40.92396	-91.39363
182418	-2411	-875	-831	-1.133552	4.877104	354.2247	0	11.06	20034	23	60	5	5	0.02	1.75979	8	10	0.08	2800	356.055	40.92396	-91.39363
182480	-2509	-474	-190	-2.429788	5.264261	354.3914	0	11.06	20030	19	62	5	5	0.02	1.763679	8	10	0.08	2800	355.6454	40.92396	-91.39363
182590	1268	931	-953	-3.410383	6.764332	355.142	0	11.06	20038	9	56	5	5	0.02	1.781258	8	10	0.08	2800	355.296	40.92396	-91.39363
182693	428	1292	-370	-0.9422912	3.433868	355.591	0	11.06	20029	13	60	5	5	0.02	1.792264	8	10	0.08	2800	357.4594	40.92396	-91.39363
182754	-522	-1351	-365	-1.138643	4.066309	355.8108	0	11.06	20028	13	60	5	5	0.02	1.808384	8	10	0.08	2800	358.0992	40.92396	-91.39363
182873	-394	56	-408	-1.550633	5.332494	356.6233	0	11.11	20038	9	53	5	5	0.02	1.824824	8	10	0.08	2800	356.3563	40.92396	-91.39363
183001	-203	-1134	168	-1.36292	2.89427	356.4784	0	11.11	20010	6	50	5	5	0.02	1.849703	8	10	0.08	2800	357.6705	40.92396	-91.39364
183085	796	-608	778	-2.632197	3.544486	356.4339	0	11.11	20032	6	54	5	5	0.02	1.867212	8	10	0.08	2800	357.6705	40.92396	-91.39364
183223	469	419	-13	-0.612297	5.158677	355.6927	0	11.11	20034	-8	55	5	5	0.02	1.891847	8	10	0.08	2800	352.043	40.92396	-91.39364
183304	1061	1049	170	0.4626114	3.993525	355.1979	0	11.11	20014	-7	46	5	5	0.02	1.904559	8	10	0.08	2800	351.4019	40.92396	-91.39365
183388	-871	-503	770	-0.07652397	3.718526	353.9825	0	11.11	20042	-7	44	5	5	0.02	1.915551	8	10	0.08	2800	351.4298	40.92396	-91.39365
183465	-458	767	1035	-0.7894596	4.03859	352.9498	0	11.11	20032	-8	40	5	5	0.02	1.918808	8	10	0.08	2800	349.1008	40.92396	-91.39365
183631	-49	566	1056	-0.02310557	2.334321	350.1048	0	11.11	20037	-2	32	5	5	0.02	1.913655	8	10	0.08	2800	346.0026	40.92396	-91.39365
183755	1948	-221	-733	-0.6325075	1.794654	349.395	0	11.06	20027	-4	35	5	5	0.02	1.91282	8	10	0.08	2800	344.278	40.92396	-91.39365
183811	1244	-443	-445	0.3835433	1.884093	349.5195	0	11.06	20032	-5	34	5	5	0.02	1.908785	8	10	0.08	2800	344.278	40.92396	-91.39365
183884	-518	-695	-1208	-0.07234628	3.643477	350.722	0	11.06	20037	-29	43	5	5	0.02	1.908692	8	10	0.08	2800	342.5102	40.92395	-91.39365
184001	1175	86	-867	0.6378095	4.213221	352.4293	0	11.06	20030	-52	40	5	5	0.02	1.901747	8	10	0.08	2800	344.2913	40.92395	-91.39365
184071	-642	725	-613	1.867526	4.103994	353.7442	0	11.06	20014	-28	43	5	5	0.02	1.89939	8	10	0.08	2800	344.6175	40.92395	-91.39365
184202	-935	195	-1129	-0.4110919	3.982684	344.858	0	11.06	20077	-16	43	5	5	0.02	1.897885	8	10	0.08	2800	344.7889	40.92395	-91.39365
184269	1510	581	685	0.8737139	3.386473	345.2401	0	11.06	20026	-5	40	5	5	0.02	1.896803	8	10	0.08	2800	346.6947	40.92395	-91.39365
184444	-15	-1203	840	-2.655684	2.233672	343.5318	0	11.06	20036	0	0	5	5	0.02	1.881441	3	10	0.08	2800	346.7569	40.92395	-91.39365
184501	159	221	1214	-2.552206	2.525581	343.1036	0	11.06	20036	0	0	5	5	0.02	1.879336	3	10	0.08	2800	345.4589	40.92395	-91.39365
184574	1641	1149	671	-1.962938	2.225878	341.7543	0	11.06	20036	0	0	5	5	0.02	1.875297	3	10	0.08	2800	344.0624	40.92395	-91.39365
184684	-1756	1848	419	-0.4913103	-2.557492	340.3605	0	11	20036	0	0	5	5	0.02	1.873008	3	10	0.08	2800	343.6534	40.92395	-91.39365
184793	246	781	604	-3.351581	-3.60646	339.2752	0	11	20036	0	0	5	5	0.02	1.855171	3	10	0.08	2800	342.8562	40.92395	-91.39365
184948	1720	395	362	-2.423211	-3.981543	338.5453	0	11	20036	0	0	5	5	0.02	1.826648	3	10	0.08	2800	344.1889	40.92395	-91.39365
185096	-1761	-1920	-438	1.126854	-4.442971	338.8265	0	11	20036	0	0	5	5	0.02	1.789388	3	10	0.08	2800	342.7808	40.92395	-91.39365
185165	665	593	505	0.00153439	-3.019942	338.7071	0	11	20036	0	0	5	5	0.02	1.772482	3	10	0.08	2800	342.434	40.92395	-91.39365
185220	82	-559	459	1.163852	-3.224043	338.6449	0	11	20036	0	0	5	5	0.02	1.756126	3	10	0.08	2800	341.4377	40.92395	-91.39365
185283	-88	-969	560	0.661384	-2.771414	338.5737	0	11	20036	0	0	5	5	0.02	1.742597	3	10	0.08	2800	341.4377	40.92395	-91.39365
185368	-4410	-445	702	-4.26873	-0.8199562	337.8671	0	11	20036	0	0	5	5	0.02	1.716798	3	10	0.08	2800	341.5165	40.92395	-91.39365
185474	-7394	-2498	-28	-11.0334	0.9197122	337.3941	0	11	20036	0	0	5	5	0.02	1.646257	3	10	0.08	2800	340.037	40.92395	-91.39365
185684	3726	846	885	-13.97098	-2.044091	336.2852	0	11.11	20036	0	0	5	5	0.02	1.505458	3	10	0.08	2800	343.0696	40.92395	-91.39365
185790	1882	233	230	-10.49968	-2.960381	335.6637	0	11.11	20036	0	0	5	5	0.02	1.441909	3	10	0.08	2800	343.4073	40.92395	-91.39365
185926	3786	-1742	308	-2.9097	-0.1367587	334.9122	0	11.11	20036	0	0	5	5	0.02	1.353759	3	10	0.08	2800	341.0638	40.92395	-91.39365
185994	-1807	-566	-408	-2.106625	1.519638	334.4264	0	11.11	20036	0	0	5	5	0.02	1.267959	3	10	0.08	2800	339.2881	40.92395	-91.39365
186080	332	-1161	894	-2.91063	2.282084	334.005	0	11.11	20036	0	0	5	5	0.02	1.223204	3	10	0.08	2800	337.4456	40.92395	-91.39365
186198	-1175	-3144	-1225	-4.918482	5.16076	333.5387	0	11.11	20036	0	0	5	5	0.02	1.174614	3	10	0.08	2800	337.928	40.92395	-91.39365
186283	-1680	-5400	-561	-6.106835	13.00492	334.89	0	11.11	20036	0	0	5	5	0.02	1.127451	3	10	0.08	2800	337.1176	40.92395	-91.39365
186421	-260	-1483	-1245	-8.640178	19.44906	336.6731	0	11.11	20036	0	0	5	5	0.02	1.067328	3	10	0.08	2800	334.3703	40.92395	-91.39365
186536	2357	2681	-909	-4.539739	14.43213	338.9814	0	11.17	20036	0	0	5	5	0.02	1.022346	3	10	0.08	2800	336.1435	40.92395	-91.39365
186579	544	3700	-480	-2.066945	10.76627	339.8636	0	11.17	20036	0	0	5	5	0.02	1.00577	3	10	0.08	2800	338.5725	40.92396	-91.39365
186721	639	2020	-1529	-3.271333	4.440407	342.2486	0	11.17	20036	0	0	5	5	0.02	0.9450939	3	10	0.08	2800	341.8584	40.92396	-91.39365
186802	2249	975	-434	0.7840441	1.92906	343.8658	0	11.17	20036	0	0	5	5	0.02	0.9145638	3	10	0.08	2800	348.6897	40.92396	-91.39365
186866	-2023	24	-1116	1.004163	1.218217	344.5345	0	11.17	20036	0	0	5	5	0.02	0.8806142	3	10	0.08	2800	349.3065	40.92396	-91.39365
187012	1679	1365	-981	-1.298189	1.629544	346.647	0	11.17	20036	0	0	5	5	0.02	0.8384758	3	10	0.08	2800	351.6259	40.92396	-91.39365
187074	-1237	-267	-664	0.9237788	0.6463534	348.0029	0	11.17	20036	0	0	5	5	0.02	0.8137543	3	10	0.08	2800	351.4546	40.92396	-91.39365
187236	146	-1023	-462	-1.472448	1.608201	349.1264	0	11.17	20036	0	0	5	5	0.02	0.7629381	3	10	0.08	2800	351.7412	40.92396	-91.39365
187289	160	2	358	-1.798241	1.864671	349.3092	0	11.17	20036	0	0	5	5	0.02	0.7445264	3	10	0.08	2800	351.7412	40.92396	-91.39365
187384	-218	1027	264	-2.793183	1.177224	349.3372	0	11.17	20036	0	0	5	5	0.02	0.6980093	3	10	0.08	2800	351.5819	40.92396	-91.39365
187549	-4581	-333	327	-2.356939	-1.162188	348.4173	0	11.06	20036	0	0	5	5	0.02	0.6511551	3	10	0.08	2800	352.5768	40.92396	-91.39365
187630	-6212	-1963	149	-11.86322	0.9600312	347.887	0	11.06	20036	0	0	5	5	0.02	0.6125638	3	10	0.08	2800	350.7629	40.92396	-91.39365
187704	160	-273	256	-3.179401	-0.2112974	343.9669	0	11.06	20036	0	0	5	5	0.02	0.583761	3	10	0.08	2800	341.6968	40.92396	-91.39365
187807	-339	-202	-95	-4.362	1.747904	344.5753	0	11.06	20036	0	0	5	5	0.02	0.5527086	3	10	0.08	2800	348.9901	40.92396	-91.39365
187945	24	61	9	-4.481852	1.481555	344.5782	0	11.06	20036	0	0	5	5	0.02	0.46352	3	10	0.08	2800	347.8961	40.92396	-91.39365
187994	112	-69	78	-4.489462	1.285979	344.5982	0	11.06	20036	0	0	5	5	0.02	0.4515552	3	10	0.08	2800	347.5472	40.92396	-91.39365
188102	-62	26	12	-4.498179	1.165141	344.5864	0	11.06	20036	0	0	5	5	0.02	0.3805212	3	10	0.08	2800	347.8236	40.92396	-91.39365
