time(ms)	gyro_x(deg/s)	gyro_y(deg/s)	gyro_z(deg/s)	orientation_roll(deg)	orientation_pitch(deg)	orientation_yaw(deg)	throttle	battery(V)	loop_time(uS)	pid_output_roll	pid_output_pitch	pid_output_yaw	pid_output_throttle	ultrasonic_alt	baro_alt	flight_mode	p_gain_altitude	i_gain_altitude	d_gain_altitude	compass_heading	latitude	longitude
188337	13	16	36	-4.603928	0.7789303	344.5779	0	11.34	20036	0	0	5	5	0.02	0.3018238	1	10	0.08	2800	345.8324	40.92396	-91.39365
188474	0	22	-41	-4.65982	0.5842773	344.5749	0	11.34	20036	0	0	5	5	0.02	0.2510121	1	10	0.08	2800	347.4557	40.92396	-91.39365
188562	-7	-22	12	-4.680846	0.48728	344.5752	0	11.34	20036	0	0	5	5	0.02	0.223721	1	10	0.08	2800	347.4539	40.92396	-91.39365
188626	-28	-2	21	-4.712228	0.3966537	344.5648	0	11.34	20036	0	0	5	5	0.02	0.1928219	1	10	0.08	2800	347.0895	40.92396	-91.39365
188773	-23	-9	-16	-4.774132	0.1895753	344.5632	0	11.34	20036	0	0	5	5	0.02	0.1410144	1	10	0.08	2800	347.4117	40.92396	-91.39365
188878	-9	2	5	-4.810857	0.07247505	344.5592	0	11.34	20036	0	0	5	5	0.02	0.1073723	1	10	0.08	2800	347.6868	40.92396	-91.39365
188918	-10	-3	3	-4.835019	-0.00185957	344.5559	0	11.34	20036	0	0	5	5	0.02	0.09341444	1	10	0.08	2800	347.5566	40.92396	-91.39365
189099	-13	-2	1	-4.872743	-0.1397428	344.552	0	11.34	20036	0	0	5	5	0.02	0.05343583	1	10	0.08	2800	347.4843	40.92396	-91.39365
189156	-15	-4	4	-4.901243	-0.2391748	344.5494	0	11.34	20036	0	0	5	5	0.02	0.03054827	1	10	0.08	2800	347.1479	40.92396	-91.39365
189255	-8	-2	4	-4.919253	-0.2999219	344.5479	0	11.4	20036	0	0	5	5	0.02	0.01125907	1	10	0.08	2800	346.8701	40.92396	-91.39365
189369	-13	6	2	-4.954074	-0.4197496	344.5436	0	11.4	20036	0	0	5	5	0.02	-0.00224104	1	10	0.08	2800	347.0494	40.92396	-91.39365
189467	-9	0	-2	-4.970017	-0.477971	344.5412	0	11.4	20036	0	0	5	5	0.02	-0.02363658	1	10	0.08	2800	347.2242	40.92396	-91.39365
189542	-7	0	-2	-4.984598	-0.5322522	344.5396	0	11.4	20036	0	0	5	5	0.02	-0.02792282	1	10	0.08	2800	347.153	40.92396	-91.39365
189696	-7	2	1	-5.01679	-0.6635913	344.5331	0	11.4	20036	0	0	5	5	0.02	-0.03483162	1	10	0.08	2800	346.8073	40.92396	-91.39365
189762	-9	-1	0	-5.029774	-0.7141403	344.5319	0	11.4	20036	0	0	5	5	0.02	-0.03754604	1	10	0.08	2800	346.6276	40.92396	-91.39365
189915	-10	-5	3	-5.059276	-0.8298672	344.5281	0	11.4	20036	0	0	5	5	0.02	-0.04907318	1	10	0.08	2800	346.385	40.92396	-91.39365
189972	-12	-3	-1	-5.064902	-0.8515338	344.5272	0	11.4	20036	0	0	5	5	0.02	-0.05511746	1	10	0.08	2800	346.385	40.92396	-91.39365
190131	-10	-2	-3	-5.097826	-0.9546152	344.5234	0	11.4	20036	0	0	5	5	0.02	-0.07500692	1	10	0.08	2800	345.993	40.92396	-91.39365
190178	-6	-2	0	-5.102053	-0.9749178	344.5231	0	11.4	20036	0	0	5	5	0.02	-0.08073161	1	10	0.08	2800	345.993	40.92396	-91.39365
190312	-6	3	7	-5.127235	-1.067778	344.5206	0	11.46	20036	0	0	5	5	0.02	-0.0910966	1	10	0.08	2800	345.8527	40.92396	-91.39365
190462	-10	0	2	-5.140778	-1.13805	344.5163	0	11.46	20036	0	0	5	5	0.02	-0.1081173	1	10	0.08	2800	346.3626	40.92396	-91.39365
190524	-6	0	2	-5.148204	-1.172706	344.5149	0	11.46	20036	0	0	5	5	0.02	-0.1138197	1	10	0.08	2800	346.426	40.92396	-91.39365
190589	-10	-2	1	-5.156795	-1.203915	344.5142	0	11.46	20036	0	0	5	5	0.02	-0.1214832	1	10	0.08	2800	346.2545	40.92396	-91.39365
190723	-16	-1	4	-5.174845	-1.264753	344.5103	0	11.46	20036	0	0	5	5	0.02	-0.1304172	1	10	0.08	2800	345.9036	40.92396	-91.39365
190786	-9	-6	0	-5.185866	-1.294721	344.508	0	11.46	20036	0	0	5	5	0.02	-0.1318949	1	10	0.08	2800	345.7464	40.92396	-91.39365
190943	-8	0	4	-5.203038	-1.358768	344.5045	0	11.46	20036	0	0	5	5	0.02	-0.1446614	1	10	0.08	2800	345.6771	40.92396	-91.39365
191011	-7	-4	1	-5.208357	-1.370047	344.5032	0	11.46	20036	0	0	5	5	0.02	-0.1490221	1	10	0.08	2800	345.3703	40.92396	-91.39365
191107	-13	0	2	-5.221045	-1.414468	344.4996	0	11.4	20036	0	0	5	5	0.02	-0.1483061	1	10	0.08	2800	345.8349	40.92396	-91.39365
191208	-14	0	0	-5.232143	-1.450545	344.4965	0	11.4	20036	0	0	5	5	0.02	-0.1335695	1	10	0.08	2800	345.7107	40.92396	-91.39365
191360	-7	5	1	-5.241797	-1.493845	344.4934	0	11.4	20036	0	0	5	5	0.02	-0.1281812	1	10	0.08	2800	346.1814	40.92396	-91.39365
191537	-8	-5	4	-5.253149	-1.537723	344.4872	0	11.4	20036	0	0	5	5	0.02	-0.123315	1	10	0.08	2800	345.3302	40.92396	-91.39365
191619	-9	0	0	-5.256459	-1.564633	344.4849	0	11.4	20036	0	0	5	5	0.02	-0.1185965	1	10	0.08	2800	345.1606	40.92396	-91.39365
191711	-7	4	-2	-5.259341	-1.5817	344.4835	0	11.4	20036	0	0	5	5	0.02	-0.1143694	1	10	0.08	2800	345.3606	40.92396	-91.39365
191874	-4	1	2	-5.269688	-1.621428	344.4803	0	11.4	20036	0	0	5	5	0.02	-0.1143299	1	10	0.08	2800	345.1236	40.92396	-91.39365
191928	-4	0	4	-5.275039	-1.642296	344.4785	0	11.4	20036	0	0	5	5	0.02	-0.1142036	1	10	0.08	2800	345.0562	40.92396	-91.39365
192049	-13	0	1	-5.278506	-1.654139	344.4776	0	11.4	20036	0	0	5	5	0.02	-0.1069753	1	10	0.08	2800	345.2632	40.92396	-91.39365
192214	-9	-1	0	-5.286018	-1.693782	344.4716	0	11.46	20036	0	0	5	5	0.02	-0.09767205	1	10	0.08	2800	345.2079	40.92396	-91.39365
192243	-12	-1	3	-5.286382	-1.699888	344.4706	0	11.46	20036	0	0	5	5	0.02	-0.0984952	1	10	0.08	2800	345.2079	40.92396	-91.39365
192322	-6	0	1	-5.288619	-1.712186	344.4691	0	11.46	20036	0	0	5	5	0.02	-0.1025678	1	10	0.08	2800	345.5858	40.92396	-91.39365
192466	-13	1	0	-5.29241	-1.741745	344.4641	0	11.46	20036	0	0	5	5	0.02	-0.1094179	1	10	0.08	2800	344.8015	40.92396	-91.39365
192531	-10	-2	2	-5.295874	-1.752692	344.4627	0	11.46	20036	0	0	5	5	0.02	-0.1141751	1	10	0.08	2800	345.1202	40.92396	-91.39365
192657	-10	0	0	-5.29996	-1.775604	344.461	0	11.46	20036	0	0	5	5	0.02	-0.1107256	1	10	0.08	2800	345.2679	40.92396	-91.39365
192720	-10	2	1	-5.302766	-1.78106	344.4595	0	11.46	20036	0	0	5	5	0.02	-0.1092111	1	10	0.08	2800	345.2679	40.92396	-91.39365
192871	-8	0	6	-5.306561	-1.805115	344.457	0	11.46	20036	0	0	5	5	0.02	-0.1078227	1	10	0.08	2800	345.4843	40.92396	-91.39365
193043	-7	0	-4	-5.311797	-1.826045	344.4527	0	11.46	20036	0	0	5	5	0.02	-0.09755058	1	10	0.08	2800	344.8528	40.92396	-91.39365
193125	-6	-1	-4	-5.311138	-1.833885	344.4514	0	11.46	20036	0	0	5	5	0.02	-0.09137188	1	10	0.08	2800	344.8628	40.92396	-91.39365
193235	-9	-1	-2	-5.312912	-1.852508	344.4456	0	11.46	20036	0	0	5	5	0.02	-0.08289871	1	10	0.08	2800	344.844	40.92396	-91.39365
193347	-10	4	1	-5.314219	-1.863036	344.4431	0	11.46	20036	0	0	5	5	0.02	-0.0714858	1	10	0.08	2800	345.37	40.92396	-91.39365
193498	-9	1	-1	-5.316979	-1.879529	344.4393	0	11.46	20036	0	0	5	5	0.02	-0.07714079	1	10	0.08	2800	344.8263	40.92396	-91.39365
193590	-8	0	3	-5.31444	-1.886255	344.4382	0	11.46	20036	0	0	5	5	0.02	-0.07446569	1	10	0.08	2800	345.6201	40.92396	-91.39365
193779	-6	0	0	-5.30974	-1.899991	344.433	0	11.46	20036	0	0	5	5	0.02	-0.07342942	1	10	0.08	2800	345.6016	40.92396	-91.39365
193953	-8	2	0	-5.309652	-1.916352	344.429	0	11.46	20036	0	0	5	5	0.02	-0.08039665	1	10	0.08	2800	345.1877	40.92396	-91.39365
194057	-7	2	2	-5.312563	-1.925114	344.4263	0	11.46	20036	0	0	5	5	0.02	-0.08980916	1	10	0.08	2800	345.4109	40.92396	-91.39365
194128	-11	0	2	-5.314833	-1.934699	344.4239	0	11.46	20036	0	0	5	5	0.02	-0.09272143	1	10	0.08	2800	345.711	40.92396	-91.39365
194343	-10	-1	1	-5.3162	-1.948271	344.4179	0	11.46	20036	0	0	5	5	0.02	-0.08713713	1	10	0.08	2800	344.5481	40.92396	-91.39365
194462	-6	0	1	-5.315487	-1.954436	344.4164	0	11.46	20036	0	0	5	5	0.02	-0.08135531	1	10	0.08	2800	344.7671	40.92396	-91.39365
194564	-6	-1	-2	-5.310193	-1.963383	344.4147	0	11.46	20036	0	0	5	5	0.02	-0.08375595	1	10	0.08	2800	345.3083	40.92396	-91.39365
194597	-6	0	-2	-5.310982	-1.963665	344.4144	0	11.46	20036	0	0	5	5	0.02	-0.08474276	1	10	0.08	2800	345.5099	40.92396	-91.39365
194757	-8	-1	0	-5.305864	-1.971263	344.4109	0	11.46	20036	0	0	5	5	0.02	-0.08937619	1	10	0.08	2800	345.3186	40.92396	-91.39365
194791	-3	1	3	-5.305416	-1.973627	344.4102	0	11.46	20036	0	0	5	5	0.02	-0.08980098	1	10	0.08	2800	345.3186	40.92396	-91.39365
194900	-5	4	4	-5.307154	-1.981792	344.4058	0	11.4	20036	0	0	5	5	0.02	-0.09200469	1	10	0.08	2800	344.9666	40.92396	-91.39365
195006	-6	2	0	-5.304691	-1.985189	344.4022	0	11.4	20036	0	0	5	5	0.02	-0.09916482	1	10	0.08	2800	345.1305	40.92396	-91.39365
195198	-10	-4	2	-5.304954	-1.991549	344.3959	0	11.4	20036	0	0	5	5	0.02	-0.1260898	1	10	0.08	2800	344.8395	40.92396	-91.39365
195229	-9	0	1	-5.305514	-1.992791	344.396	0	11.4	20036	0	0	5	5	0.02	-0.1292245	1	10	0.08	2800	344.8395	40.92396	-91.39365
195303	-9	-1	0	-5.301794	-2.001317	344.3936	0	11.4	20036	0	0	5	5	0.02	-0.1378747	1	10	0.08	2800	344.7635	40.92396	-91.39365
195401	-10	-2	3	-5.301067	-2.004895	344.3908	0	11.4	20036	0	0	5	5	0.02	-0.1444194	1	10	0.08	2800	345.3503	40.92396	-91.39365
195504	-8	0	3	-5.29548	-2.004955	344.3874	0	11.4	20036	0	0	5	5	0.02	-0.1455539	1	10	0.08	2800	345.0894	40.92396	-91.39365
195690	-7	1	4	-5.297165	-2.013629	344.383	0	11.4	20036	0	0	5	5	0.02	-0.1577826	1	10	0.08	2800	345.0431	40.92396	-91.39365
195739	-5	-2	-3	-5.294538	-2.014952	344.3812	0	11.46	20036	0	0	5	5	0.02	-0.1607795	1	10	0.08	2800	345.1143	40.92396	-91.39365
195846	-7	3	2	-5.291795	-2.017519	344.3795	0	11.46	20036	0	0	5	5	0.02	-0.161663	1	10	0.08	2800	345.0457	40.92396	-91.39365
195897	-3	0	1	-5.291831	-2.018888	344.3775	0	11.46	20036	0	0	5	5	0.02	-0.156098	1	10	0.08	2800	345.0457	40.92396	-91.39365
196079	-9	2	0	-5.288309	-2.024371	344.3742	0	11.46	20036	0	0	5	5	0.02	-0.1492503	1	10	0.08	2800	344.7068	40.92396	-91.39365
196170	-9	1	2	-5.288817	-2.026628	344.3717	0	11.46	20036	0	0	5	5	0.02	-0.1459535	1	10	0.08	2800	345.0525	40.92396	-91.39365
196219	-10	2	-1	-5.289043	-2.029286	344.3704	0	11.46	20036	0	0	5	5	0.02	-0.1457972	1	10	0.08	2800	344.8517	40.92396	-91.39365
196309	-8	0	0	-5.29044	-2.025746	344.3682	0	11.46	20036	0	0	5	5	0.02	-0.1495285	1	10	0.08	2800	345.0664	40.92396	-91.39365
196423	-5	-3	2	-5.292621	-2.029826	344.3668	0	11.46	20036	0	0	5	5	0.02	-0.1498893	1	10	0.08	2800	345.5792	40.92396	-91.39365
196552	-4	0	0	-5.288631	-2.033764	344.3627	0	11.46	20036	0	0	5	5	0.02	-0.1504603	1	10	0.08	2800	344.8404	40.92396	-91.39365
196657	-8	0	2	-5.287867	-2.034963	344.3605	0	11.46	20036	0	0	5	5	0.02	-0.1538736	1	10	0.08	2800	345.4937	40.92396	-91.39365
196754	-5	0	-1	-5.284075	-2.038829	344.3591	0	11.46	20036	0	0	5	5	0.02	-0.1578535	1	10	0.08	2800	345.0669	40.92396	-91.39365
196801	-13	-2	3	-5.28435	-2.039273	344.3583	0	11.46	20036	0	0	5	5	0.02	-0.1591183	1	10	0.08	2800	344.828	40.92396	-91.39365
196965	-4	0	0	-5.282413	-2.044344	344.3555	0	11.46	20036	0	0	5	5	0.02	-0.1706221	1	10	0.08	2800	345.3201	40.92396	-91.39365
197092	-8	-3	3	-5.280487	-2.046957	344.3547	0	11.46	20036	0	0	5	5	0.02	-0.1834934	1	10	0.08	2800	344.8326	40.92396	-91.39365
197117	-6	-2	3	-5.282066	-2.049165	344.3542	0	11.46	20036	0	0	5	5	0.02	-0.1834934	1	10	0.08	2800	344.8326	40.92396	-91.39365
197209	-2	1	1	-5.281568	-2.050514	344.3523	0	11.46	20036	0	0	5	5	0.02	-0.1948145	1	10	0.08	2800	345.3668	40.92396	-91.39365
197342	-5	0	0	-5.279926	-2.055237	344.3499	0	11.46	20036	0	0	5	5	0.02	-0.2071861	1	10	0.08	2800	345.1259	40.92396	-91.39365
197406	-7	3	0	-5.27819	-2.056902	344.3474	0	11.46	20036	0	0	5	5	0.02	-0.212802	1	10	0.08	2800	344.8325	40.92396	-91.39365
197506	-7	-1	0	-5.278365	-2.057236	344.3456	0	11.46	20036	0	0	5	5	0.02	-0.2148153	1	10	0.08	2800	345.5241	40.92396	-91.39365
197664	-6	1	2	-5.274538	-2.059246	344.3411	0	11.46	20036	0	0	5	5	0.02	-0.2013818	1	10	0.08	2800	345.3057	40.92396	-91.39365
197825	-5	-3	3	-5.274262	-2.061925	344.3375	0	11.46	20036	0	0	5	5	0.02	-0.1846127	1	10	0.08	2800	345.4471	40.92396	-91.39365
197939	-7	3	-2	-5.269449	-2.063179	344.3352	0	11.46	20036	0	0	5	5	0.02	-0.1863369	1	10	0.08	2800	344.9944	40.92396	-91.39365
198037	-8	-4	6	-5.268603	-2.065015	344.3328	0	11.46	20036	0	0	5	5	0.02	-0.192621	1	10	0.08	2800	345.3923	40.92396	-91.39365
198132	-3	4	3	-5.267613	-2.066	344.3312	0	11.46	20036	0	0	5	5	0.02	-0.1916615	1	10	0.08	2800	345.0438	40.92396	-91.39365
198214	-3	-2	-1	-5.267373	-2.068091	344.3273	0	11.46	20036	0	0	5	5	0.02	-0.1863302	1	10	0.08	2800	344.8778	40.92396	-91.39365
198300	-5	0	3	-5.265838	-2.068852	344.3253	0	11.46	20036	0	0	5	5	0.02	-0.1732838	1	10	0.08	2800	344.8053	40.92396	-91.39365
198392	-5	6	-1	-5.266355	-2.067428	344.3236	0	11.46	20036	0	0	5	5	0.02	-0.1541595	1	10	0.08	2800	344.8053	40.92396	-91.39365
198515	-5	4	2	-5.264139	-2.071874	344.3211	0	11.51	20036	0	0	5	5	0.02	-0.1343983	1	10	0.08	2800	345.0764	40.92396	-91.39365
198669	-3	0	2	-5.261081	-2.071347	344.3156	0	11.51	20036	0	0	5	5	0.02	-0.1155499	1	10	0.08	2800	344.9912	40.92396	-91.39365
198751	-3	0	5	-5.26018	-2.070846	344.3141	0	11.51	20036	0	0	5	5	0.02	-0.1122095	1	10	0.08	2800	345.0866	40.92396	-91.39365
198842	-2	8	0	-5.256635	-2.07383	344.3132	0	11.51	20036	0	0	5	5	0.02	-0.1039018	1	10	0.08	2800	344.823	40.92396	-91.39365
198938	-2	-2	-1	-5.25695	-2.075041	344.3097	0	11.51	20036	0	0	5	5	0.02	-0.08144446	1	10	0.08	2800	345.6112	40.92396	-91.39365
199013	-2	-2	0	-5.253906	-2.076347	344.3055	0	11.51	20036	0	0	5	5	0.02	-0.07580396	1	10	0.08	2800	345.6112	40.92396	-91.39365
199102	-4	-5	0	-5.25157	-2.075941	344.3047	0	11.51	20036	0	0	5	5	0.02	-0.07405936	1	10	0.08	2800	345.222	40.92396	-91.39365
199208	-7	-5	-2	-5.251085	-2.075618	344.3019	0	11.51	20036	0	0	5	5	0.02	-0.088681	1	10	0.08	2800	345.2147	40.92396	-91.39365
199313	-7	2	-2	-5.253146	-2.078457	344.2986	0	11.51	20036	0	0	5	5	0.02	-0.1043483	1	10	0.08	2800	345.347	40.92396	-91.39365
199499	-11	-2	2	-5.252262	-2.080158	344.2944	0	11.46	20036	0	0	5	5	0.02	-0.1407075	1	10	0.08	2800	345.4656	40.92396	-91.39365
199531	-11	-2	2	-5.252262	-2.080158	344.2944	0	11.46	20036	0	0	5	5	0.02	-0.1450026	1	10	0.08	2800	345.4656	40.92396	-91.39365
199611	-3	-1	1	-5.252785	-2.083421	344.2922	0	11.46	20036	0	0	5	5	0.02	-0.1643442	1	10	0.08	2800	345.0975	40.92396	-91.39365
199723	-3	2	3	-5.253242	-2.083537	344.2895	0	11.46	20036	0	0	5	5	0.02	-0.1749263	1	10	0.08	2800	344.8269	40.92396	-91.39365
199874	-5	-3	7	-5.24982	-2.083737	344.2849	0	11.46	20036	0	0	5	5	0.02	-0.1905822	1	10	0.08	2800	345.0778	40.92396	-91.39365
199944	-8	2	-3	-5.25028	-2.084809	344.2841	0	11.46	20036	0	0	5	5	0.02	-0.1946657	1	10	0.08	2800	344.8345	40.92396	-91.39365
200034	-3	0	0	-5.248584	-2.084839	344.2818	0	11.46	20036	0	0	5	5	0.02	-0.1967528	1	10	0.08	2800	345.3761	40.92396	-91.39365
200150	-4	0	2	-5.247594	-2.085593	344.2805	0	11.46	20036	0	0	5	5	0.02	-0.205765	1	10	0.08	2800	344.5666	40.92396	-91.39365
200236	-4	-2	0	-5.244205	-2.086174	344.2788	0	11.46	20036	0	0	5	5	0.02	-0.2047254	1	10	0.08	2800	345.3602	40.92396	-91.39365
200384	-4	7	1	-5.245309	-2.085386	344.2748	0	11.46	20036	0	0	5	5	0.02	-0.2007083	1	10	0.08	2800	344.8864	40.92396	-91.39365
200607	-5	-2	-2	-5.244481	-2.085156	344.2719	0	11.46	20036	0	0	5	5	0.02	-0.2059117	1	10	0.08	2800	344.824	40.92396	-91.39365
200726	-6	0	0	-5.244394	-2.086753	344.27	0	11.46	20036	0	0	5	5	0.02	-0.2143052	1	10	0.08	2800	344.8416	40.92396	-91.39365
200787	-9	-3	3	-5.24468	-2.085023	344.2687	0	11.46	20036	0	0	5	5	0.02	-0.2164002	1	10	0.08	2800	344.8909	40.92396	-91.39365
200919	-4	1	3	-5.239758	-2.082493	344.2645	0	11.46	20036	0	0	5	5	0.02	-0.2325948	1	10	0.08	2800	345.1241	40.92396	-91.39365
200952	-10	-4	1	-5.237573	-2.081316	344.2629	0	11.46	20036	0	0	5	5	0.02	-0.2317673	1	10	0.08	2800	345.1241	40.92396	-91.39365
201129	-4	0	-2	-5.231135	-2.08268	344.2589	0	11.46	20036	0	0	5	5	0.02	-0.234384	1	10	0.08	2800	345.2208	40.92396	-91.39365
201349	-7	5	5	-5.229394	-2.083013	344.2531	0	11.51	20036	0	0	5	5	0.02	-0.229798	1	10	0.08	2800	345.1531	40.92396	-91.39365
201482	-2	0	0	-5.230966	-2.081134	344.2488	0	11.51	20036	0	0	5	5	0.02	-0.2261488	1	10	0.08	2800	345.1973	40.92396	-91.39365
201578	0	0	3	-5.228586	-2.082333	344.2462	0	11.51	20036	0	0	5	5	0.02	-0.22363	1	10	0.08	2800	345.4724	40.92396	-91.39365
201710	-6	2	1	-5.229067	-2.083897	344.242	0	11.51	20036	0	0	5	5	0.02	-0.2188174	1	10	0.08	2800	345.3309	40.92396	-91.39365
201778	-5	-1	7	-5.226478	-2.086437	344.2409	0	11.51	20036	0	0	5	5	0.02	-0.2083241	1	10	0.08	2800	345.3556	40.92396	-91.39365
201941	-2	-1	2	-5.226672	-2.08895	344.2356	0	11.51	20036	0	0	5	5	0.02	-0.185647	1	10	0.08	2800	344.7922	40.92396	-91.39365
202071	-6	0	4	-5.225099	-2.094409	344.2344	0	11.51	20036	0	0	5	5	0.02	-0.1735328	1	10	0.08	2800	345.2037	40.92396	-91.39365
202205	-9	-1	2	-5.226991	-2.094218	344.23	0	11.46	20036	0	0	5	5	0.02	-0.1594301	1	10	0.08	2800	344.9999	40.92396	-91.39365
202257	-3	0	1	-5.228275	-2.095976	344.2291	0	11.46	20036	0	0	5	5	0.02	-0.1544183	1	10	0.08	2800	345.1519	40.92396	-91.39365
202348	-3	3	3	-5.226608	-2.093884	344.2271	0	11.46	20036	0	0	5	5	0.02	-0.1498459	1	10	0.08	2800	344.8853	40.92396	-91.39365
202408	-4	4	5	-5.224466	-2.092097	344.2263	0	11.46	20036	0	0	5	5	0.02	-0.1548602	1	10	0.08	2800	345.334	40.92396	-91.39365
202545	-5	-1	5	-5.220917	-2.09505	344.2242	0	11.46	20036	0	0	5	5	0.02	-0.1549792	1	10	0.08	2800	345.1655	40.92396	-91.39365
202655	-8	0	0	-5.219346	-2.094621	344.2217	0	11.46	20036	0	0	5	5	0.02	-0.1497699	1	10	0.08	2800	345.6244	40.92396	-91.39365
202777	-3	4	5	-5.216895	-2.093568	344.2154	0	11.46	20036	0	0	5	5	0.02	-0.1424942	1	10	0.08	2800	345.3063	40.92396	-91.39365
202803	-4	-2	1	-5.215631	-2.09558	344.2147	0	11.46	20036	0	0	5	5	0.02	-0.1410221	1	10	0.08	2800	345.3063	40.92396	-91.39365
202930	-5	1	0	-5.211576	-2.097526	344.2127	0	11.46	20036	0	0	5	5	0.02	-0.1289206	1	10	0.08	2800	344.8863	40.92396	-91.39365
203042	-8	6	-5	-5.209138	-2.098141	344.2117	0	11.51	20036	0	0	5	5	0.02	-0.1231709	1	10	0.08	2800	344.8396	40.92396	-91.39365
203133	0	-2	0	-5.209182	-2.100118	344.2087	0	11.51	20036	0	0	5	5	0.02	-0.1198895	1	10	0.08	2800	344.9225	40.92396	-91.39365
203277	-4	0	4	-5.210862	-2.100654	344.2079	0	11.51	20036	0	0	5	5	0.02	-0.1108064	1	10	0.08	2800	345.7311	40.92396	-91.39365
203329	0	0	2	-5.209498	-2.103536	344.2064	0	11.51	20036	0	0	5	5	0.02	-0.1101987	1	10	0.08	2800	345.7311	40.92396	-91.39365
203390	-5	0	1	-5.206088	-2.103223	344.2056	0	11.51	20036	0	0	5	5	0.02	-0.1093826	1	10	0.08	2800	345.3967	40.92396	-91.39365
203485	-6	1	2	-5.209079	-2.102937	344.2023	0	11.51	20036	0	0	5	5	0.02	-0.1081862	1	10	0.08	2800	345.4463	40.92396	-91.39365
203651	-2	0	-3	-5.207263	-2.103797	344.1985	0	11.51	20036	0	0	5	5	0.02	-0.1033183	1	10	0.08	2800	345.7135	40.92396	-91.39365
203783	-4	0	5	-5.204072	-2.104136	344.1971	0	11.51	20036	0	0	5	5	0.02	-0.1027732	1	10	0.08	2800	345.0236	40.92396	-91.39365
203814	-7	1	-1	-5.204103	-2.103827	344.196	0	11.51	20036	0	0	5	5	0.02	-0.1019739	1	10	0.08	2800	345.0236	40.92396	-91.39365
203877	-1	1	6	-5.200803	-2.10307	344.1937	0	11.51	20036	0	0	5	5	0.02	-0.09902789	1	10	0.08	2800	345.5925	40.92396	-91.39365
204020	-3	-4	2	-5.197135	-2.106263	344.1903	0	11.46	20036	0	0	5	5	0.02	-0.09629189	1	10	0.08	2800	344.9462	40.92396	-91.39365
204130	-3	0	0	-5.193865	-2.108435	344.1851	0	11.46	20036	0	0	5	5	0.02	-0.09136077	1	10	0.08	2800	344.995	40.92396	-91.39365
204293	0	0	-1	-5.189446	-2.111114	344.1821	0	11.46	20036	0	0	5	5	0.02	-0.08945383	1	10	0.08	2800	345.0351	40.92396	-91.39365
204375	-8	5	-2	-5.189107	-2.11568	344.1804	0	11.46	20036	0	0	5	5	0.02	-0.09297734	1	10	0.08	2800	345.2789	40.92396	-91.39365
204503	-5	1	4	-5.185628	-2.116238	344.1773	0	11.46	20036	0	0	5	5	0.02	-0.1010436	1	10	0.08	2800	344.9626	40.92396	-91.39365
204649	-1	0	3	-5.186168	-2.114115	344.1724	0	11.46	20036	0	0	5	5	0.02	-0.1008542	1	10	0.08	2800	345.5088	40.92396	-91.39365
204738	-5	0	-1	-5.181987	-2.113908	344.1686	0	11.46	20036	0	0	5	5	0.02	-0.1025907	1	10	0.08	2800	345.0196	40.92396	-91.39365
204781	-4	-5	-4	-5.181029	-2.114785	344.1685	0	11.46	20036	0	0	5	5	0.02	-0.1035783	1	10	0.08	2800	344.9052	40.92396	-91.39365
204888	-4	0	-5	-5.180339	-2.111649	344.1678	0	11.51	20036	0	0	5	5	0.02	-0.1098925	1	10	0.08	2800	345.7984	40.92396	-91.39365
204982	-1	2	5	-5.179428	-2.112154	344.1682	0	11.51	20036	0	0	5	5	0.02	-0.1189249	1	10	0.08	2800	345.2565	40.92396	-91.39365
205098	-4	2	3	-5.176456	-2.112477	344.163	0	11.51	20036	0	0	5	5	0.02	-0.128106	1	10	0.08	2800	345.3794	40.92396	-91.39365
205226	1	3	0	-5.179118	-2.114885	344.1611	0	11.51	20036	0	0	5	5	0.02	-0.1303608	1	10	0.08	2800	344.8324	40.92396	-91.39366
205328	-1	0	-2	-5.174291	-2.117161	344.1624	0	11.51	20036	0	0	5	5	0.02	-0.13034	1	10	0.08	2800	345.5347	40.92396	-91.39366
205380	-1	3	2	-5.172155	-2.116498	344.1615	0	11.51	20036	0	0	5	5	0.02	-0.1412326	1	10	0.08	2800	345.6084	40.92396	-91.39365
205455	-5	5	4	-5.172945	-2.12047	344.1604	0	11.51	20036	0	0	5	5	0.02	-0.1550423	1	10	0.08	2800	345.7905	40.92396	-91.39365
205514	-2	-5	0	-5.170645	-2.121715	344.1594	0	11.51	20036	0	0	5	5	0.02	-0.1593875	1	10	0.08	2800	345.2701	40.92396	-91.39366
205621	0	2	1	-5.170154	-2.117608	344.1569	0	11.51	20036	0	0	5	5	0.02	-0.1763221	1	10	0.08	2800	345.5456	40.92396	-91.39366
205770	-3	0	3	-5.165339	-2.116652	344.1509	0	11.51	20036	0	0	5	5	0.02	-0.2044241	1	10	0.08	2800	345.4133	40.92396	-91.39366
205828	-3	0	-6	-5.164502	-2.114084	344.1496	0	11.51	20036	0	0	5	5	0.02	-0.2212872	1	10	0.08	2800	345.4198	40.92396	-91.39366
205996	0	4	-2	-5.160596	-2.113708	344.1473	0	11.51	20036	0	0	5	5	0.02	-0.2321784	1	10	0.08	2800	345.1014	40.92396	-91.39366
206133	-3	1	2	-5.160744	-2.111395	344.1452	0	11.51	20036	0	0	5	5	0.02	-0.2320542	1	10	0.08	2800	345.4857	40.92396	-91.39366
206242	-3	-3	2	-5.159542	-2.110915	344.1447	0	11.51	20036	0	0	5	5	0.02	-0.2277694	1	10	0.08	2800	345.0801	40.92396	-91.39366
206270	-4	0	-1	-5.157903	-2.111765	344.1449	0	11.51	20036	0	0	5	5	0.02	-0.2296362	1	10	0.08	2800	345.0801	40.92396	-91.39366
206386	-2	-2	4	-5.153655	-2.109484	344.1423	0	11.51	20036	0	0	5	5	0.02	-0.2314881	1	10	0.08	2800	345.5015	40.92396	-91.39366
206512	2	-2	2	-5.153016	-2.111024	344.141	0	11.51	20036	0	0	5	5	0.02	-0.2333431	1	10	0.08	2800	345.7733	40.92396	-91.39366
206595	-2	2	2	-5.150854	-2.10678	344.1378	0	11.51	20036	0	0	5	5	0.02	-0.2348803	1	10	0.08	2800	345.5052	40.92396	-91.39366
206668	4	0	1	-5.149284	-2.106325	344.1381	0	11.51	20036	0	0	5	5	0.02	-0.233681	1	10	0.08	2800	345.8515	40.92396	-91.39366
206785	0	1	0	-5.148679	-2.106751	344.1367	0	11.51	20036	0	0	5	5	0.02	-0.2296138	1	10	0.08	2800	345.3331	40.92396	-91.39366
206862	-5	0	3	-5.143629	-2.106335	344.1368	0	11.51	20036	0	0	5	5	0.02	-0.2226892	1	10	0.08	2800	345.0704	40.92396	-91.39366
207061	-2	2	1	-5.143314	-2.111654	344.1347	0	11.51	20036	0	0	5	5	0.02	-0.2022727	1	10	0.08	2800	345.2377	40.92396	-91.39366
207194	3	-1	4	-5.140211	-2.111779	344.1336	0	11.51	20036	0	0	5	5	0.02	-0.1998181	1	10	0.08	2800	345.6652	40.92396	-91.39366
207348	2	0	6	-5.138008	-2.11143	344.1324	0	11.51	20036	0	0	5	5	0.02	-0.1930736	1	10	0.08	2800	345.3253	40.92396	-91.39366
207430	-4	-3	-2	-5.135291	-2.11231	344.1319	0	11.51	20036	0	0	5	5	0.02	-0.1877153	1	10	0.08	2800	345.4523	40.92396	-91.39366
207578	0	2	-1	-5.136213	-2.11129	344.1324	0	11.51	20036	0	0	5	5	0.02	-0.1816493	1	10	0.08	2800	345.402	40.92396	-91.39366
207693	-1	-2	0	-5.134853	-2.112511	344.1329	0	11.51	20036	0	0	5	5	0.02	-0.1705092	1	10	0.08	2800	345.4113	40.92396	-91.39366
207809	-3	-2	1	-5.132191	-2.111766	344.1312	0	11.51	20036	0	0	5	5	0.02	-0.1589988	1	10	0.08	2800	345.143	40.92396	-91.39366
207867	0	-2	0	-5.127271	-2.112979	344.1307	0	11.51	20036	0	0	5	5	0.02	-0.1508577	1	10	0.08	2800	345.1091	40.92396	-91.39366
207967	1	-6	1	-5.126289	-2.109952	344.1302	0	11.51	20036	0	0	5	5	0.02	-0.1408389	1	10	0.08	2800	345.1601	40.92396	-91.39366
208113	0	-1	4	-5.12448	-2.108952	344.1293	0	11.51	20036	0	0	5	5	0.02	-0.1251277	1	10	0.08	2800	345.4349	40.92396	-91.39366
208152	4	4	-1	-5.124115	-2.112088	344.129	0	11.51	20036	0	0	5	5	0.02	-0.122032	1	10	0.08	2800	345.5074	40.92396	-91.39366
208303	1	-3	0	-5.120303	-2.1133	344.126	0	11.51	20036	0	0	5	5	0.02	-0.1243831	1	10	0.08	2800	345.6741	40.92396	-91.39366
208372	-2	5	2	-5.121309	-2.110137	344.1265	0	11.51	20036	0	0	5	5	0.02	-0.1248319	1	10	0.08	2800	345.5176	40.92396	-91.39366
208529	-3	3	4	-5.118852	-2.109719	344.1247	0	11.51	20036	0	0	5	5	0.02	-0.1166082	1	10	0.08	2800	345.4053	40.92396	-91.39366
208675	2	2	0	-5.114737	-2.108578	344.1218	0	11.51	20036	0	0	5	5	0.02	-0.1012545	1	10	0.08	2800	345.4156	40.92396	-91.39366
208760	-3	-3	0	-5.112111	-2.110134	344.1199	0	11.51	20036	0	0	5	5	0.02	-0.09551369	1	10	0.08	2800	345.2672	40.92396	-91.39366
208884	-2	-5	2	-5.108881	-2.107194	344.121	0	11.51	20036	0	0	5	5	0.02	-0.09062985	1	10	0.08	2800	345.5428	40.92396	-91.39366
208999	0	1	-3	-5.105853	-2.104493	344.123	0	11.51	20036	0	0	5	5	0.02	-0.08281783	1	10	0.08	2800	345.6927	40.92396	-91.39366
209076	0	5	0	-5.105703	-2.104782	344.1234	0	11.51	20036	0	0	5	5	0.02	-0.07712618	1	10	0.08	2800	345.3109	40.92396	-91.39366
209237	1	-1	0	-5.10524	-2.101663	344.123	0	11.51	20036	0	0	5	5	0.02	-0.05431155	1	10	0.08	2800	345.7149	40.92396	-91.39366
209286	-4	0	1	-5.102953	-2.101359	344.1209	0	11.51	20036	0	0	5	5	0.02	-0.04365532	1	10	0.08	2800	345.2964	40.92396	-91.39366
209384	5	1	0	-5.103213	-2.103651	344.1189	0	11.51	20036	0	0	5	5	0.02	-0.03023481	1	10	0.08	2800	345.4944	40.92396	-91.39366
209489	-1	-2	3	-5.102994	-2.106222	344.116	0	11.51	20036	0	0	5	5	0.02	-0.01805118	1	10	0.08	2800	345.5211	40.92396	-91.39366
209582	5	5	-2	-5.099388	-2.107618	344.1161	0	11.51	20036	0	0	5	5	0.02	-0.01170788	1	10	0.08	2800	345.5177	40.92396	-91.39366
209698	0	-5	-1	-5.0958	-2.109578	344.1157	0	11.51	20036	0	0	5	5	0.02	-0.005521228	1	10	0.08	2800	345.7073	40.92396	-91.39366
209882	-4	0	0	-5.093637	-2.110024	344.1139	0	11.51	20036	0	0	5	5	0.02	-0.00775905	1	10	0.08	2800	345.4659	40.92396	-91.39366
209933	0	2	0	-5.094236	-2.111117	344.1139	0	11.51	20036	0	0	5	5	0.02	-0.01196196	1	10	0.08	2800	345.6679	40.92396	-91.39366
209988	-6	-4	-1	-5.094469	-2.112695	344.1154	0	11.51	20036	0	0	5	5	0.02	-0.01538503	1	10	0.08	2800	345.1722	40.92396	-91.39366
210194	0	1	1	-5.093617	-2.11305	344.1168	0	11.51	20036	0	0	5	5	0.02	-0.03345294	1	10	0.08	2800	345.4694	40.92396	-91.39366
210246	0	-3	1	-5.094892	-2.113687	344.1157	0	11.51	20036	0	0	5	5	0.02	-0.03725702	1	10	0.08	2800	345.3107	40.92396	-91.39366
210388	-2	2	1	-5.088126	-2.115997	344.116	0	11.51	20036	0	0	5	5	0.02	-0.04285482	1	10	0.08	2800	345.6844	40.92396	-91.39366
210577	-3	3	-1	-5.088549	-2.116606	344.1143	0	11.51	20036	0	0	5	5	0.02	-0.05539406	1	10	0.08	2800	345.7242	40.92396	-91.39366
210684	0	-4	3	-5.087791	-2.115692	344.1147	0	11.51	20036	0	0	5	5	0.02	-0.05814941	1	10	0.08	2800	345.7513	40.92396	-91.39366
210710	-2	1	5	-5.08841	-2.117343	344.1135	0	11.51	20036	0	0	5	5	0.02	-0.05793992	1	10	0.08	2800	345.7513	40.92396	-91.39366
210844	2	1	0	-5.085714	-2.11648	344.1121	0	11.51	20036	0	0	5	5	0.02	-0.05464595	1	10	0.08	2800	345.548	40.92396	-91.39366
210980	-2	2	1	-5.083335	-2.115006	344.1129	0	11.51	20036	0	0	5	5	0.02	-0.0527009	1	10	0.08	2800	345.6025	40.92396	-91.39366
211162	-1	0	-1	-5.080524	-2.116745	344.1121	0	11.51	20036	0	0	5	5	0.02	-0.05443244	1	10	0.08	2800	345.4932	40.92396	-91.39366
211229	0	0	0	-5.078354	-2.116306	344.1122	0	11.51	20036	0	0	5	5	0.02	-0.05552638	1	10	0.08	2800	345.517	40.92396	-91.39366
211435	0	0	0	-5.070721	-2.115663	344.1114	0	11.51	20036	0	0	5	5	0.02	-0.05128105	1	10	0.08	2800	345.6313	40.92396	-91.39366
211517	-4	0	5	-5.068843	-2.11633	344.1105	0	11.51	20036	0	0	5	5	0.02	-0.04699394	1	10	0.08	2800	345.3235	40.92396	-91.39366
211649	-1	-1	-1	-5.065387	-2.119391	344.1091	0	11.51	20036	0	0	5	5	0.02	-0.04272459	1	10	0.08	2800	345.5738	40.92396	-91.39366
211824	2	0	2	-5.063904	-2.118877	344.1069	0	11.51	20036	0	0	5	5	0.02	-0.03594688	1	10	0.08	2800	345.3066	40.92396	-91.39366
211850	1	0	1	-5.06234	-2.116739	344.1066	0	11.51	20036	0	0	5	5	0.02	-0.03698362	1	10	0.08	2800	345.8525	40.92396	-91.39366
212020	-1	0	-2	-5.060056	-2.112557	344.1032	0	11.51	20036	0	0	5	5	0.02	-0.04199516	1	10	0.08	2800	345.3384	40.92396	-91.39366
212059	0	-1	-2	-5.058352	-2.111768	344.1037	0	11.51	20036	0	0	5	5	0.02	-0.04101679	1	10	0.08	2800	345.5533	40.92396	-91.39366
212092	0	0	0	-5.059224	-2.111263	344.1036	0	11.51	20036	0	0	5	5	0.02	-0.04467121	1	10	0.08	2800	345.5533	40.92396	-91.39366
212246	0	1	0	-5.059699	-2.107595	344.1027	0	11.51	20036	0	0	5	5	0.02	-0.04959534	1	10	0.08	2800	345.6224	40.92396	-91.39366
212298	2	-2	-1	-5.059143	-2.106912	344.1039	0	11.51	20036	0	0	5	5	0.02	-0.04933013	1	10	0.08	2800	345.6224	40.92396	-91.39366
212380	2	0	-6	-5.054834	-2.104171	344.1047	0	11.51	20036	0	0	5	5	0.02	-0.05156248	1	10	0.08	2800	345.6055	40.92396	-91.39366
212482	4	4	0	-5.053271	-2.104248	344.1053	0	11.51	20036	0	0	5	5	0.02	-0.05088014	1	10	0.08	2800	345.3412	40.92396	-91.39366
212587	1	0	0	-5.052312	-2.107805	344.1057	0	11.51	20036	0	0	5	5	0.02	-0.05165118	1	10	0.08	2800	345.5702	40.92396	-91.39366
212692	-2	2	-1	-5.053303	-2.106713	344.1041	0	11.51	20036	0	0	5	5	0.02	-0.06117911	1	10	0.08	2800	345.365	40.92396	-91.39366
212775	-1	-2	-1	-5.05391	-2.108483	344.1027	0	11.51	20036	0	0	5	5	0.02	-0.06425282	1	10	0.08	2800	345.5665	40.92396	-91.39366
212956	2	1	0	-5.051408	-2.108724	344.101	0	11.51	20036	0	0	5	5	0.02	-0.07273088	1	10	0.08	2800	345.8429	40.92396	-91.39366
213004	3	-1	0	-5.051337	-2.10936	344.1013	0	11.51	20036	0	0	5	5	0.02	-0.07039338	1	10	0.08	2800	345.8429	40.92396	-91.39366
213092	0	0	2	-5.050142	-2.112931	344.0998	0	11.51	20036	0	0	5	5	0.02	-0.06360526	1	10	0.08	2800	345.5457	40.92396	-91.39366
213209	0	0	1	-5.047324	-2.110245	344.1003	0	11.51	20036	0	0	5	5	0.02	-0.06292021	1	10	0.08	2800	345.3766	40.92395	-91.39366
213308	2	1	1	-5.042487	-2.110721	344.0991	0	11.51	20036	0	0	5	5	0.02	-0.05779409	1	10	0.08	2800	345.5187	40.92395	-91.39366
213448	-2	0	-1	-5.041749	-2.112369	344.0976	0	11.51	20036	0	0	5	5	0.02	-0.04488006	1	10	0.08	2800	345.9352	40.92395	-91.39366
213499	0	-1	0	-5.042752	-2.11288	344.0966	0	11.51	20036	0	0	5	5	0.02	-0.0431558	1	10	0.08	2800	346.1393	40.92395	-91.39366
213571	0	0	0	-5.040559	-2.114535	344.0959	0	11.51	20036	0	0	5	5	0.02	-0.03895034	1	10	0.08	2800	346.2072	40.92395	-91.39366
213716	4	-1	-1	-5.041811	-2.111532	344.0968	0	11.51	20036	0	0	5	5	0.02	-0.03697965	1	10	0.08	2800	345.2991	40.92395	-91.39366
213876	1	-2	1	-5.040233	-2.112281	344.0944	0	11.51	20036	0	0	5	5	0.02	-0.0400062	1	10	0.08	2800	345.5928	40.92395	-91.39366
213983	6	-1	-5	-5.035405	-2.11302	344.093	0	11.51	20036	0	0	5	5	0.02	-0.04509395	1	10	0.08	2800	345.309	40.92395	-91.39366
214165	2	0	2	-5.027888	-2.112207	344.0908	0	11.51	20036	0	0	5	5	0.02	-0.05106261	1	10	0.08	2800	345.8315	40.92395	-91.39366
214275	2	-4	1	-5.02544	-2.113858	344.0897	0	11.51	20036	0	0	5	5	0.02	-0.04857547	1	10	0.08	2800	345.9512	40.92396	-91.39366
214422	2	-3	2	-5.023974	-2.109327	344.0912	0	11.51	20036	0	0	5	5	0.02	-0.03771301	1	10	0.08	2800	345.6374	40.92395	-91.39366
214505	2	-2	2	-5.023138	-2.108081	344.0901	0	11.51	20036	0	0	5	5	0.02	-0.03528288	1	10	0.08	2800	346.1227	40.92395	-91.39366
214572	0	0	0	-5.023535	-2.108902	344.0889	0	11.51	20036	0	0	5	5	0.02	-0.02994852	1	10	0.08	2800	346.0244	40.92395	-91.39366
214674	1	6	1	-5.024057	-2.111906	344.0876	0	11.51	20036	0	0	5	5	0.02	-0.02566147	1	10	0.08	2800	345.9558	40.92396	-91.39366
214773	0	2	-1	-5.020839	-2.11602	344.0889	0	11.51	20036	0	0	5	5	0.02	-0.02119294	1	10	0.08	2800	345.984	40.92395	-91.39366
214801	1	0	-1	-5.020839	-2.11602	344.0889	0	11.51	20036	0	0	5	5	0.02	-0.02106988	1	10	0.08	2800	345.984	40.92395	-91.39366
214949	0	5	0	-5.021391	-2.11737	344.0882	0	11.51	20036	0	0	5	5	0.02	-0.01516861	1	10	0.08	2800	345.4386	40.92395	-91.39366
215035	2	-1	0	-5.020126	-2.116413	344.0872	0	11.51	20036	0	0	5	5	0.02	-0.01954026	1	10	0.08	2800	345.7582	40.92395	-91.39366
215126	1	-1	-1	-5.021845	-2.118487	344.0861	0	11.51	20036	0	0	5	5	0.02	-0.02474912	1	10	0.08	2800	345.4125	40.92395	-91.39366
215199	-2	0	4	-5.021498	-2.120212	344.0852	0	11.51	20036	0	0	5	5	0.02	-0.0274114	1	10	0.08	2800	345.7523	40.92395	-91.39366
215372	6	-1	4	-5.018104	-2.119581	344.0861	0	11.51	20036	0	0	5	5	0.02	-0.03304924	1	10	0.08	2800	346.0318	40.92395	-91.39366
215480	3	-2	2	-5.009717	-2.1165	344.0863	0	11.57	20036	0	0	5	5	0.02	-0.03447533	1	10	0.08	2800	345.9064	40.92395	-91.39366
215513	5	5	-5	-5.009027	-2.116894	344.0864	0	11.57	20036	0	0	5	5	0.02	-0.03383045	1	10	0.08	2800	345.7832	40.92395	-91.39366
215633	3	2	1	-5.004529	-2.119498	344.0837	0	11.57	20036	0	0	5	5	0.02	-0.0352521	1	10	0.08	2800	345.4735	40.92395	-91.39366
215780	0	3	-2	-5.005011	-2.119441	344.0848	0	11.57	20036	0	0	5	5	0.02	-0.04216814	1	10	0.08	2800	345.6125	40.92395	-91.39366
215863	3	-4	5	-5.002587	-2.120748	344.0837	0	11.57	20036	0	0	5	5	0.02	-0.04117766	1	10	0.08	2800	345.1823	40.92395	-91.39366
215986	4	2	0	-5.000292	-2.123374	344.0825	0	11.57	20036	0	0	5	5	0.02	-0.03628384	1	10	0.08	2800	345.8448	40.92395	-91.39366
216056	8	1	1	-4.9999	-2.123076	344.0814	0	11.57	20036	0	0	5	5	0.02	-0.02988539	1	10	0.08	2800	345.6854	40.92395	-91.39366
216215	0	0	1	-5.002642	-2.11946	344.0793	0	11.57	20036	0	0	5	5	0.02	-0.02268518	1	10	0.08	2800	345.4842	40.92395	-91.39366
216320	7	-2	0	-5.002669	-2.119564	344.0787	0	11.57	20036	0	0	5	5	0.02	-0.01637923	1	10	0.08	2800	345.7288	40.92395	-91.39366
216438	3	0	1	-4.998406	-2.117041	344.0803	0	11.51	20036	0	0	5	5	0.02	0.003231843	1	10	0.08	2800	345.8051	40.92395	-91.39366
216487	3	0	-1	-5.000691	-2.118055	344.0792	0	11.51	20036	0	0	5	5	0.02	0.0089751	1	10	0.08	2800	345.7595	40.92395	-91.39366
216553	3	-3	-2	-4.999773	-2.118089	344.0787	0	11.51	20036	0	0	5	5	0.02	0.01919166	1	10	0.08	2800	345.7595	40.92395	-91.39366
216703	2	-5	0	-4.99977	-2.119439	344.0796	0	11.51	20036	0	0	5	5	0.02	0.041101	1	10	0.08	2800	345.9433	40.92395	-91.39366
216854	1	1	-3	-4.996962	-2.12263	344.0783	0	11.51	20036	0	0	5	5	0.02	0.05146994	1	10	0.08	2800	345.5345	40.92395	-91.39366
216924	7	-1	2	-4.994059	-2.124098	344.0767	0	11.51	20036	0	0	5	5	0.02	0.05065041	1	10	0.08	2800	345.7676	40.92395	-91.39366
216956	5	3	0	-4.99246	-2.12238	344.0767	0	11.51	20036	0	0	5	5	0.02	0.04554749	1	10	0.08	2800	346.0474	40.92395	-91.39366
217035	1	3	-3	-4.990555	-2.126559	344.076	0	11.51	20036	0	0	5	5	0.02	0.04058223	1	10	0.08	2800	345.5506	40.92395	-91.39366
217146	0	-2	2	-4.988319	-2.129165	344.0733	0	11.51	20036	0	0	5	5	0.02	0.03598885	1	10	0.08	2800	346.0557	40.92395	-91.39366
217234	0	-1	0	-4.989837	-2.128659	344.0721	0	11.51	20036	0	0	5	5	0.02	0.03537294	1	10	0.08	2800	346.0557	40.92395	-91.39366
217321	8	1	3	-4.985351	-2.128725	344.0707	0	11.51	20036	0	0	5	5	0.02	0.03786538	1	10	0.08	2800	345.7544	40.92395	-91.39366
217417	1	5	0	-4.987651	-2.128742	344.0698	0	11.51	20036	0	0	5	5	0.02	0.03936865	1	10	0.08	2800	345.9908	40.92395	-91.39366
217608	0	2	-2	-4.991161	-2.125449	344.0688	0	11.51	20036	0	0	5	5	0.02	0.03337526	1	10	0.08	2800	346.3045	40.92395	-91.39366
217677	4	2	0	-4.99008	-2.126174	344.0688	0	11.51	20036	0	0	5	5	0.02	0.03442285	1	10	0.08	2800	345.754	40.92395	-91.39366
217790	5	0	0	-4.988239	-2.126204	344.0687	0	11.51	20036	0	0	5	5	0.02	0.0370171	1	10	0.08	2800	345.7832	40.92395	-91.39366
217848	3	4	-1	-4.983685	-2.128484	344.0682	0	11.51	20036	0	0	5	5	0.02	0.04290137	1	10	0.08	2800	345.7832	40.92395	-91.39366
217916	2	-6	2	-4.982314	-2.127289	344.0672	0	11.51	20036	0	0	5	5	0.02	0.04521203	1	10	0.08	2800	345.8385	40.92395	-91.39366
218016	7	-1	-3	-4.97934	-2.125696	344.0677	0	11.51	20036	0	0	5	5	0.02	0.04555283	1	10	0.08	2800	346.0749	40.92396	-91.39366
218170	0	-1	1	-4.980855	-2.124756	344.0659	0	11.51	20036	0	0	5	5	0.02	0.04224218	1	10	0.08	2800	345.8076	40.92395	-91.39366
218240	0	-1	-2	-4.98133	-2.122283	344.0649	0	11.51	20036	0	0	5	5	0.02	0.04083448	1	10	0.08	2800	345.9409	40.92395	-91.39366
218324	2	0	-1	-4.981297	-2.120602	344.0652	0	11.51	20036	0	0	5	5	0.02	0.03349935	1	10	0.08	2800	346.0772	40.92395	-91.39366
218479	0	3	0	-4.982472	-2.123073	344.0646	0	11.51	20036	0	0	5	5	0.02	0.03595409	1	10	0.08	2800	345.5492	40.92395	-91.39366
218521	5	3	0	-4.981075	-2.124549	344.064	0	11.51	20036	0	0	5	5	0.02	0.03612488	1	10	0.08	2800	345.5492	40.92395	-91.39366
218651	2	0	1	-4.978345	-2.125515	344.0634	0	11.51	20036	0	0	5	5	0.02	0.03092884	1	10	0.08	2800	346.2636	40.92395	-91.39366
218779	1	1	0	-4.97869	-2.124806	344.0634	0	11.51	20036	0	0	5	5	0.02	0.02268435	1	10	0.08	2800	345.7237	40.92395	-91.39366
218880	3	2	0	-4.979023	-2.123261	344.0634	0	11.51	20036	0	0	5	5	0.02	0.02314565	1	10	0.08	2800	345.8983	40.92395	-91.39366
218952	4	0	-1	-4.979406	-2.124409	344.0632	0	11.51	20036	0	0	5	5	0.02	0.02209827	1	10	0.08	2800	345.8983	40.92395	-91.39366
219042	0	2	-1	-4.97896	-2.128544	344.0593	0	11.51	20036	0	0	5	5	0.02	0.01474505	1	10	0.08	2800	345.4623	40.92395	-91.39366
219113	0	0	3	-4.981228	-2.128154	344.0583	0	11.51	20036	0	0	5	5	0.02	0.007741162	1	10	0.08	2800	346.0547	40.92395	-91.39366
219187	3	1	0	-4.982887	-2.12358	344.0571	0	11.51	20036	0	0	5	5	0.02	0.0006558562	1	10	0.08	2800	345.3816	40.92395	-91.39366
219265	4	-3	-1	-4.981983	-2.124344	344.0577	0	11.51	20036	0	0	5	5	0.02	-0.004204918	1	10	0.08	2800	346.0929	40.92395	-91.39366
219339	-1	-2	-1	-4.981639	-2.125577	344.0563	0	11.51	20036	0	0	5	5	0.02	-0.008789322	1	10	0.08	2800	345.2334	40.92395	-91.39366
219443	2	3	-7	-4.981182	-2.124955	344.0557	0	11.51	20036	0	0	5	5	0.02	-0.03108877	1	10	0.08	2800	346.1197	40.92395	-91.39366
219593	2	-1	0	-4.982714	-2.125145	344.0552	0	11.51	20036	0	0	5	5	0.02	-0.05319477	1	10	0.08	2800	345.4565	40.92395	-91.39366
219644	4	1	3	-4.982008	-2.123416	344.0544	0	11.51	20036	0	0	5	5	0.02	-0.05516632	1	10	0.08	2800	345.4565	40.92395	-91.39366
219800	4	-2	2	-4.977914	-2.124327	344.0528	0	11.51	20036	0	0	5	5	0.02	-0.07965042	1	10	0.08	2800	345.5771	40.92395	-91.39366
219894	6	-3	0	-4.975987	-2.123078	344.0541	0	11.57	20036	0	0	5	5	0.02	-0.09397479	1	10	0.08	2800	345.5441	40.92395	-91.39366
219982	1	0	4	-4.976333	-2.125615	344.0538	0	11.57	20036	0	0	5	5	0.02	-0.1133627	1	10	0.08	2800	346.0612	40.92395	-91.39366
220061	9	2	1	-4.973839	-2.126057	344.0535	0	11.57	20036	0	0	5	5	0.02	-0.1247744	1	10	0.08	2800	345.5433	40.92395	-91.39366
