time(ms)	gyro_x(deg/s)	gyro_y(deg/s)	gyro_z(deg/s)	orientation_roll(deg)	orientation_pitch(deg)	orientation_yaw(deg)	throttle	battery(V)	loop_time(uS)	pid_output_roll	pid_output_pitch	pid_output_yaw	pid_output_throttle	ultrasonic_alt	baro_alt	flight_mode	p_gain_altitude	i_gain_altitude	d_gain_altitude	compass_heading	latitude	longitude
134	18	-4	-3	-6.843627	-1.94141	303.1456	0	12.31	20030	0	0	5	5	0.02	0.1458892	3	10	0.08	2800	308.5689	40.92394	-91.39368
246	-33	3	3	-6.82268	-1.937443	303.1431	0	12.31	20030	0	0	5	5	0.02	0.1465658	3	10	0.08	2800	308.5882	40.92394	-91.39368
312	-12	6	1	-6.83153	-1.937576	303.1422	0	12.31	20030	0	0	5	5	0.02	0.1481316	3	10	0.08	2800	308.5882	40.92394	-91.39368
523	-2	-3	-1	-6.796635	-1.934083	303.1359	0	12.31	20030	0	0	5	5	0.02	0.1495865	3	10	0.08	2800	307.9684	40.92394	-91.39368
659	-99	16	-17	-6.872066	-1.945983	303.1484	0	12.31	20030	0	0	5	5	0.02	0.1359379	3	10	0.08	2800	308.564	40.92394	-91.39368
763	60	-19	-9	-7.013117	-1.980258	303.1786	0	12.31	20030	0	0	5	5	0.02	0.1268449	3	10	0.08	2800	308.4074	40.92394	-91.39368
829	13	-5	0	-6.992242	-1.978186	303.177	0	12.31	20030	0	0	5	5	0.02	0.1222596	3	10	0.08	2800	308.5607	40.92394	-91.39368
920	14	-44	12	-6.902702	-1.939476	303.1394	0	12.31	20030	0	0	5	5	0.02	0.1246963	3	10	0.08	2800	308.4555	40.92394	-91.39368
1049	-46	23	12	-6.882689	-1.881272	303.1265	0	12.31	20030	0	0	5	5	0.02	0.1390526	3	10	0.08	2800	308.2233	40.92394	-91.39368
1142	-20	-14	5	-6.879324	-1.886776	303.126	0	12.31	20030	0	0	5	5	0.02	0.1507697	3	10	0.08	2800	307.8515	40.92394	-91.39368
1272	23	-9	-2	-6.875049	-1.87086	303.1156	0	12.31	20030	0	0	5	5	0.02	0.1540461	3	10	0.08	2800	308.4723	40.92394	-91.39368
1438	33	-41	-26	-6.851817	-1.856405	303.1199	0	12.31	20030	0	0	5	5	0.02	0.1644667	3	10	0.08	2800	308.3898	40.92394	-91.39368
1489	-534	568	966	-6.913117	-1.949999	302.8747	0	12.31	20030	0	0	5	5	0.02	0.1670191	3	10	0.08	2800	308.2412	40.92394	-91.39368
1572	532	-1129	-40	-7.100376	-2.211824	302.8575	0	12.31	20030	0	0	5	5	0.02	0.1649135	3	10	0.08	2800	308.2412	40.92394	-91.39368
1708	-59	-10	-15	-6.92732	-1.906352	303.0646	0	12.31	20030	0	0	5	5	0.02	0.1625981	3	10	0.08	2800	307.9244	40.92394	-91.39368
1780	44	-102	-1246	-6.944647	-1.869552	303.2565	0	12.31	20030	0	0	5	5	0.02	0.1627633	3	10	0.08	2800	307.9518	40.92394	-91.39368
1876	-353	768	-207	-7.06428	-2.07304	304.5243	0	12.31	20030	0	0	5	5	0.02	0.1638971	3	10	0.08	2800	308.9872	40.92394	-91.39368
2010	814	-1053	677	-9.313974	-4.023293	305.7638	0	12.31	20030	0	0	5	5	0.02	0.1622233	3	10	0.08	2800	312.1808	40.92394	-91.39368
2116	963	-3077	2124	-8.735646	-0.5943235	302.41	0	12.31	20030	0	0	5	5	0.02	0.1693772	3	10	0.08	2800	309.4378	40.92394	-91.39368
2287	2362	-931	4501	-3.303413	1.461454	295.843	0	12.31	20030	0	0	5	5	0.02	0.1848	3	10	0.08	2800	305.1071	40.92394	-91.39368
2373	1880	1275	7412	-0.4200601	0.4944712	293.1301	0	12.31	20030	0	0	5	5	0.02	0.2055364	3	10	0.08	2800	297.5817	40.92394	-91.39368
2491	1301	468	10164	1.659035	-1.883509	288.7004	0	12.31	20030	0	0	5	5	0.02	0.2327491	3	10	0.08	2800	285.4404	40.92394	-91.39368
2562	2388	-495	9716	4.341136	-0.9701003	271.6459	0	12.31	20030	0	0	5	5	0.02	0.2559783	3	10	0.08	2800	278.0798	40.92394	-91.39368
2715	1227	-2912	7151	5.221839	3.448479	267.9001	0	12.31	20030	0	0	5	5	0.02	0.3117121	3	10	0.08	2800	263.7882	40.92394	-91.39368
2788	2264	-1162	6139	5.668365	6.310492	260.6763	0	12.31	20030	0	0	5	5	0.02	0.3346204	3	10	0.08	2800	259.4947	40.92394	-91.39368
2902	780	75	5624	7.261091	6.520994	245.3553	0	12.31	20030	0	0	5	5	0.02	0.3723879	3	10	0.08	2800	250.3282	40.92394	-91.39368
3016	1227	1208	5244	7.694068	6.496976	239.4896	0	12.31	20030	0	0	5	5	0.02	0.402472	3	10	0.08	2800	245.0809	40.92393	-91.39369
3118	2421	-52	8129	8.159934	5.317132	235.8826	0	12.31	20030	0	0	5	5	0.02	0.42256	3	10	0.08	2800	233.547	40.92393	-91.39369
3249	3310	559	8686	11.26475	6.569396	221.7827	0	12.31	20030	0	0	5	5	0.02	0.4469638	3	10	0.08	2800	225.1337	40.92393	-91.39368
3328	4345	1798	8511	15.21209	7.193399	207.08	0	12.31	20030	0	0	5	5	0.02	0.465489	3	10	0.08	2800	208.0268	40.92393	-91.39368
3480	3756	2256	8812	18.82801	3.937307	190.8568	0	12.31	20030	0	0	5	5	0.02	0.4951106	3	10	0.08	2800	199.7029	40.92393	-91.39368
3547	3075	-117	6359	20.47196	5.750457	187.7216	0	12.31	20030	0	0	5	5	0.02	0.5087186	3	10	0.08	2800	183.2563	40.92393	-91.39368
3665	673	1533	5080	21.46403	6.624798	178.0216	0	12.31	20030	0	0	5	5	0.02	0.5136379	3	10	0.08	2800	178.014	40.92393	-91.39368
3708	-136	249	4346	20.84188	6.941924	175.4603	0	12.31	20030	0	0	5	5	0.02	0.5112383	3	10	0.08	2800	172.5996	40.92393	-91.39368
3862	-3125	1828	0	17.6805	10.67885	168.5832	0	12.31	20030	0	0	5	5	0.02	0.4974328	3	10	0.08	2800	168.9606	40.92393	-91.39368
3964	-1962	3371	283	13.4625	6.90589	168.6921	0	12.36	20030	0	0	5	5	0.02	0.4930823	3	10	0.08	2800	167.6845	40.92393	-91.39368
4020	-629	1614	4172	11.21984	2.977216	164.1972	0	12.36	20030	0	0	5	5	0.02	0.4894052	3	10	0.08	2800	163.6434	40.92393	-91.39368
4092	-999	668	4493	10.56192	2.769094	161.7854	0	12.36	20030	0	0	5	5	0.02	0.4795135	3	10	0.08	2800	163.6434	40.92393	-91.39368
4219	2328	1658	6609	10.17967	3.083099	150.5206	0	12.36	20030	0	0	5	5	0.02	0.4688035	3	10	0.08	2800	154.9916	40.92393	-91.39368
4360	2275	-385	6017	12.92735	5.128587	135.5721	0	12.36	20030	0	0	5	5	0.02	0.4394168	3	10	0.08	2800	136.7821	40.92393	-91.39368
4494	1437	2887	5533	15.61395	2.864487	123.3239	0	12.36	20030	0	0	5	5	0.02	0.3978321	3	10	0.08	2800	120.1355	40.92393	-91.39368
4564	2633	496	7234	17.42067	2.917877	115.8611	0	12.36	20030	0	0	5	5	0.02	0.3800187	3	10	0.08	2800	111.5456	40.92393	-91.39368
4637	3733	-182	6570	19.95477	6.031144	93.76245	0	12.36	20030	0	0	5	5	0.02	0.3593396	3	10	0.08	2800	93.76245	40.92393	-91.39368
4731	583	490	4324	20.72919	7.578564	84.22868	0	12.36	20030	0	0	5	5	0.02	0.3507798	3	10	0.08	2800	84.27945	40.92393	-91.39368
4830	21	-922	1467	18.66229	9.055607	79.78844	0	12.31	20030	0	0	5	5	0.02	0.3421536	3	10	0.08	2800	79.95544	40.92394	-91.39368
4915	-5464	195	-5112	14.19555	9.714192	81.58868	0	12.31	20030	0	0	5	5	0.02	0.3337438	3	10	0.08	2800	76.15195	40.92394	-91.39368
5054	-2	466	-1066	11.22914	8.392255	93.76514	0	12.31	20030	0	0	5	5	0.02	0.3293252	3	10	0.08	2800	96.77475	40.92394	-91.39368
5196	35	-1074	736	10.10826	9.263324	93.01611	0	12.31	20030	0	0	5	5	0.02	0.333612	3	10	0.08	2800	95.90833	40.92394	-91.39368
5348	868	176	4874	11.42991	11.87639	84.65784	0	12.31	20030	0	0	5	5	0.02	0.3391219	3	10	0.08	2800	82.91138	40.92394	-91.39367
5433	609	1517	3996	11.61623	12.62003	79.50265	0	12.31	20030	0	0	5	5	0.02	0.3384132	3	10	0.08	2800	74.54977	40.92394	-91.39367
5552	711	2372	4582	10.17465	7.823499	76.27457	0	12.31	20030	0	0	5	5	0.02	0.3394428	3	10	0.08	2800	70.45261	40.92394	-91.39367
5669	-755	-1364	4712	7.192375	6.025143	66.50377	0	12.31	20030	0	0	5	5	0.02	0.3325209	3	10	0.08	2800	60.43622	40.92395	-91.39367
5720	-612	-344	5986	5.05959	7.593428	48.39996	0	12.31	20030	0	0	5	5	0.02	0.3317933	3	10	0.08	2800	52.58026	40.92395	-91.39367
5801	-934	3057	1878	0.7649112	7.065328	42.16431	0	12.31	20030	0	0	5	5	0.02	0.3283691	3	10	0.08	2800	42.95432	40.92395	-91.39366
5960	-937	1497	-485	0.3082778	-0.8134912	43.36236	0	12.31	20030	0	0	5	5	0.02	0.3192494	3	10	0.08	2800	39.55994	40.92395	-91.39366
6107	-2495	300	5739	-4.182622	-3.832767	36.31747	0	12.31	20030	0	0	5	5	0.02	0.3127062	3	10	0.08	2800	41.62524	40.92395	-91.39366
6248	-629	-1146	6249	-7.447298	-5.187086	21.94543	0	12.31	20030	0	0	5	5	0.02	0.3009277	3	10	0.08	2800	24.50082	40.92395	-91.39366
6327	-1116	-963	1961	-9.675278	-4.757407	2.607817	0	12.31	20030	0	0	5	5	0.02	0.2852264	3	10	0.08	2800	2.984161	40.92395	-91.39366
6418	-2120	-684	6022	-11.89229	-5.932978	356.1133	0	12.31	20030	0	0	5	5	0.02	0.2633443	3	10	0.08	2800	358.7337	40.92395	-91.39366
6529	871	-162	2285	-13.17192	-6.416164	348.6624	0	12.31	20030	0	0	5	5	0.02	0.2148491	3	10	0.08	2800	344.2422	40.92396	-91.39366
6605	1750	-554	-1060	-11.55051	-5.977011	348.0121	0	12.31	20030	0	0	5	5	0.02	0.1844783	3	10	0.08	2800	344.2422	40.92396	-91.39366
6704	566	-1260	770	-8.761278	-4.945352	347.8866	0	12.36	20030	0	0	5	5	0.02	0.1379523	3	10	0.08	2800	344.1762	40.92396	-91.39366
6808	1744	1019	-2142	-7.541183	-4.727718	348.6679	0	12.36	20030	0	0	5	5	0.02	0.09243883	3	10	0.08	2800	341.8117	40.92396	-91.39366
6983	-326	452	-23	-4.328081	-6.153868	350.5087	0	12.36	20030	0	0	5	5	0.02	0.02133949	3	10	0.08	2800	346.0242	40.92396	-91.39366
7032	248	-149	-364	-4.396503	-6.164914	350.569	0	12.36	20030	0	0	5	5	0.02	-0.006475048	3	10	0.08	2800	344.7779	40.92396	-91.39366
7127	152	-273	874	-4.783226	-6.257048	347.2202	0	12.36	20030	0	0	5	5	0.02	-0.03714498	3	10	0.08	2800	340.3025	40.92396	-91.39366
7192	-161	4	-64	-4.64036	-6.046583	347.1429	0	12.36	20030	0	0	5	5	0.02	-0.08048753	3	10	0.08	2800	340.3025	40.92396	-91.39366
7311	337	-470	-137	-4.719137	-5.512294	347.216	0	12.36	20030	0	0	5	5	0.02	-0.109831	3	10	0.08	2800	341.1177	40.92397	-91.39367
7447	-5	-97	354	-4.063812	-4.351274	347.3434	0	12.36	20030	0	0	5	5	0.02	-0.1357246	3	10	0.08	2800	340.9629	40.92397	-91.39368
7538	-193	174	99	-4.168788	-4.17349	347.3529	0	12.31	20030	0	0	5	5	0.02	-0.1456216	3	10	0.08	2800	341.3842	40.92397	-91.39368
7593	49	-33	-146	-4.262453	-4.148116	347.3178	0	12.31	20030	0	0	5	5	0.02	-0.1510509	3	10	0.08	2800	340.4789	40.92397	-91.39368
7745	13	-12	-15	-4.307057	-3.907939	347.3266	0	12.31	20030	0	0	5	5	0.02	-0.1666546	3	10	0.08	2800	340.584	40.92397	-91.39368
7794	-33	18	10	-4.334992	-3.883456	347.315	0	12.31	20030	0	0	5	5	0.02	-0.1701523	3	10	0.08	2800	340.584	40.92397	-91.39368
7948	-39	31	16	-4.37949	-3.726068	347.3123	0	12.31	20030	0	0	5	5	0.02	-0.1787957	3	10	0.08	2800	340.8788	40.92397	-91.39368
8013	-30	29	8	-4.403277	-3.652241	347.3131	0	12.31	20030	0	0	5	5	0.02	-0.180035	3	10	0.08	2800	340.2704	40.92397	-91.39368
8114	-22	13	8	-4.452877	-3.515777	347.3105	0	12.31	20030	0	0	5	5	0.02	-0.190361	3	10	0.08	2800	341.1298	40.92397	-91.39368
8246	-23	6	6	-4.493707	-3.388849	347.3084	0	12.31	20030	0	0	5	5	0.02	-0.1995664	3	10	0.08	2800	341.2321	40.92397	-91.39368
8320	-10	-10	-2	-4.50555	-3.359163	347.3069	0	12.31	20030	0	0	5	5	0.02	-0.2067584	3	10	0.08	2800	341.2321	40.92397	-91.39367
8409	-13	0	0	-4.529691	-3.262881	347.306	0	12.31	20030	0	0	5	5	0.02	-0.209198	3	10	0.08	2800	340.9331	40.92397	-91.39367
8536	-16	1	-1	-4.569868	-3.143795	347.3051	0	12.36	20030	0	0	5	5	0.02	-0.204762	3	10	0.08	2800	340.8119	40.92396	-91.39367
8612	-10	1	-2	-4.588768	-3.087512	347.3046	0	12.36	20030	0	0	5	5	0.02	-0.2006972	3	10	0.08	2800	341.0434	40.92396	-91.39367
8765	-21	3	0	-4.633614	-2.960504	347.3019	0	12.36	20030	0	0	5	5	0.02	-0.18672	3	10	0.08	2800	340.7833	40.92396	-91.39367
8830	-16	-2	0	-4.649515	-2.912976	347.3018	0	12.36	20030	0	0	5	5	0.02	-0.1868812	3	10	0.08	2800	340.7882	40.92396	-91.39367
8962	-12	3	2	-4.674732	-2.842736	347.3003	0	12.36	20030	0	0	5	5	0.02	-0.1854123	3	10	0.08	2800	341.1563	40.92396	-91.39367
9042	-19	2	0	-4.691508	-2.797681	347.2982	0	12.36	20030	0	0	5	5	0.02	-0.1849609	3	10	0.08	2800	340.9651	40.92396	-91.39366
9155	-17	3	-1	-4.716233	-2.713918	347.2974	0	12.36	20030	0	0	5	5	0.02	-0.1806651	3	10	0.08	2800	340.7077	40.92396	-91.39366
9272	-30	-1	3	-4.75134	-2.613732	347.2987	0	12.36	20030	0	0	5	5	0.02	-0.1778993	3	10	0.08	2800	340.6651	40.92396	-91.39366
9430	-21	-4	0	-4.769804	-2.560151	347.2979	0	12.31	20030	0	0	5	5	0.02	-0.1832171	3	10	0.08	2800	341.0835	40.92396	-91.39366
9495	-13	0	0	-4.783626	-2.508694	347.297	0	12.31	20030	0	0	5	5	0.02	-0.1863196	3	10	0.08	2800	341.1337	40.92396	-91.39366
9643	-20	7	2	-4.802494	-2.444545	347.2978	0	12.31	20030	0	0	5	5	0.02	-0.1934462	3	10	0.08	2800	340.5747	40.92396	-91.39366
9732	-12	4	0	-4.818899	-2.40076	347.2971	0	12.31	20030	0	0	5	5	0.02	-0.2039937	3	10	0.08	2800	341.5472	40.92396	-91.39366
9900	-131	159	75	-4.852321	-2.326709	347.2934	0	12.31	20030	0	0	5	5	0.02	-0.2115432	3	10	0.08	2800	341.4294	40.92396	-91.39366
9977	-147	75	35	-5.243249	-2.857396	347.1761	0	12.31	20030	0	0	5	5	0.02	-0.2167061	3	10	0.08	2800	341.539	40.92396	-91.39366
10077	-1117	1667	53	-5.123987	-2.634304	347.2572	0	12.31	20030	0	0	5	5	0.02	-0.2200429	3	10	0.08	2800	341.1487	40.92396	-91.39366
10175	320	-296	-28	-5.821057	-3.407152	347.3022	0	12.31	20030	0	0	5	5	0.02	-0.2262092	3	10	0.08	2800	341.4803	40.92396	-91.39366
10220	-152	-49	-213	-5.770804	-3.319968	347.3675	0	12.31	20030	0	0	5	5	0.02	-0.2271044	3	10	0.08	2800	341.2039	40.92396	-91.39366
10349	77	-209	62	-5.730394	-3.151123	347.305	0	12.31	20030	0	0	5	5	0.02	-0.2252281	3	10	0.08	2800	341.3366	40.92396	-91.39366
10467	184	-109	86	-5.511379	-2.874505	347.2655	0	12.31	20030	0	0	5	5	0.02	-0.2258522	3	10	0.08	2800	341.681	40.92396	-91.39366
10522	-50	61	14	-5.449046	-2.848593	347.2622	0	12.31	20030	0	0	5	5	0.02	-0.2264455	3	10	0.08	2800	340.9503	40.92396	-91.39366
10642	-59	85	-72	-5.57141	-3.042193	347.3118	0	12.31	20030	0	0	5	5	0.02	-0.2198063	3	10	0.08	2800	342.2223	40.92396	-91.39366
10717	367	-696	-74	-5.604559	-3.039341	347.3533	0	12.31	20030	0	0	5	5	0.02	-0.2158794	3	10	0.08	2800	341.6365	40.92396	-91.39366
10813	-21	5	8	-4.823678	-1.985801	347.4812	0	12.31	20030	0	0	5	5	0.02	-0.21755	3	10	0.08	2800	341.1492	40.92396	-91.39366
10957	157	-405	40	-5.440476	-2.712067	347.398	0	12.31	20030	0	0	5	5	0.02	-0.2166476	3	10	0.08	2800	341.2282	40.92396	-91.39366
11050	-238	535	-155	-5.128518	-2.077019	347.462	0	12.31	20030	0	0	5	5	0.02	-0.2126865	3	10	0.08	2800	340.4011	40.92396	-91.39366
11141	122	-121	4	-4.896233	-1.869491	347.5806	0	12.31	20030	0	0	5	5	0.02	-0.198373	3	10	0.08	2800	340.9259	40.92396	-91.39366
11233	-38	11	192	-4.919321	-1.808282	347.4432	0	12.31	20030	0	0	5	5	0.02	-0.1943762	3	10	0.08	2800	341.2074	40.92396	-91.39366
11384	-200	146	-41	-5.007115	-2.076171	347.3654	0	12.31	20030	0	0	5	5	0.02	-0.1934556	3	10	0.08	2800	340.9122	40.92396	-91.39366
11419	258	90	-132	-4.977654	-2.12393	347.4246	0	12.31	20030	0	0	5	5	0.02	-0.1924469	3	10	0.08	2800	340.9122	40.92396	-91.39366
11603	-74	66	91	-4.797575	-1.781108	347.5439	0	12.31	20030	0	0	5	5	0.02	-0.1737637	3	10	0.08	2800	341.4524	40.92396	-91.39366
11704	-23	163	104	-4.778501	-1.76861	347.4471	0	12.31	20030	0	0	5	5	0.02	-0.1673926	3	10	0.08	2800	340.5692	40.92396	-91.39366
11725	-23	163	104	-4.778501	-1.76861	347.4471	0	12.31	20030	0	0	5	5	0.02	-0.1622692	3	10	0.08	2800	340.5692	40.92396	-91.39366
11857	-638	963	118	-5.293766	-2.554527	347.4322	0	12.31	20030	0	0	5	5	0.02	-0.1561178	3	10	0.08	2800	340.9838	40.92396	-91.39366
11970	318	-305	22	-5.019059	-1.944542	347.3578	0	12.31	20030	0	0	5	5	0.02	-0.1534522	3	10	0.08	2800	341.3491	40.92396	-91.39366
12037	-164	128	262	-4.931429	-1.891305	347.2991	0	12.31	20030	0	0	5	5	0.02	-0.1520394	3	10	0.08	2800	341.1636	40.92396	-91.39366
12184	372	-647	148	-5.680336	-2.912213	347.3405	0	12.36	20030	0	0	5	5	0.02	-0.143062	3	10	0.08	2800	341.2108	40.92396	-91.39366
12297	-551	264	276	-5.002106	-1.879951	347.3643	0	12.36	20030	0	0	5	5	0.02	-0.1434402	3	10	0.08	2800	341.3874	40.92396	-91.39366
12360	231	-348	-67	-5.158132	-2.118387	347.4009	0	12.36	20030	0	0	5	5	0.02	-0.1451118	3	10	0.08	2800	340.8857	40.92396	-91.39366
12510	54	73	-73	-5.05116	-1.906353	347.4152	0	12.36	20030	0	0	5	5	0.02	-0.1577534	3	10	0.08	2800	341.6923	40.92396	-91.39366
12551	-102	122	96	-4.977746	-1.814255	347.4127	0	12.36	20030	0	0	5	5	0.02	-0.163658	3	10	0.08	2800	341.302	40.92396	-91.39366
12678	33	-36	-31	-4.995572	-1.810299	347.416	0	12.36	20030	0	0	5	5	0.02	-0.1757678	3	10	0.08	2800	341.373	40.92396	-91.39366
12766	25	-34	-21	-5.000886	-1.810891	347.4122	0	12.36	20030	0	0	5	5	0.02	-0.1770351	3	10	0.08	2800	341.255	40.92396	-91.39366
12916	-31	14	9	-4.99821	-1.787104	347.4119	0	12.36	20030	0	0	5	5	0.02	-0.1810425	3	10	0.08	2800	341.343	40.92396	-91.39366
13013	-3	-11	-8	-4.999729	-1.782704	347.4078	0	12.36	20030	0	0	5	5	0.02	-0.1835878	3	10	0.08	2800	341.6955	40.92396	-91.39366
13068	-14	6	1	-4.993635	-1.773081	347.4096	0	12.36	20030	0	0	5	5	0.02	-0.1814483	3	10	0.08	2800	341.6955	40.92396	-91.39366
13230	-13	-2	3	-4.993028	-1.767681	347.4047	0	12.31	20030	0	0	5	5	0.02	-0.1727156	3	10	0.08	2800	340.9953	40.92396	-91.39366
13330	-11	8	4	-4.98834	-1.760394	347.4043	0	12.31	20030	0	0	5	5	0.02	-0.1694682	3	10	0.08	2800	341.0461	40.92396	-91.39366
13388	-10	3	0	-4.991136	-1.752293	347.4037	0	12.31	20030	0	0	5	5	0.02	-0.1680436	3	10	0.08	2800	341.4347	40.92396	-91.39366
13446	-11	0	5	-4.989648	-1.749455	347.4047	0	12.31	20030	0	0	5	5	0.02	-0.1687984	3	10	0.08	2800	341.4347	40.92396	-91.39366
13560	-6	-1	-1	-4.987901	-1.73964	347.4045	0	12.31	20030	0	0	5	5	0.02	-0.1724014	3	10	0.08	2800	341.5747	40.92396	-91.39366
13653	-18	3	7	-4.989468	-1.733308	347.4035	0	12.31	20030	0	0	5	5	0.02	-0.172359	3	10	0.08	2800	341.365	40.92396	-91.39365
13747	-10	-3	0	-4.987556	-1.727927	347.4025	0	12.31	20030	0	0	5	5	0.02	-0.166556	3	10	0.08	2800	341.6719	40.92396	-91.39365
13837	-13	-3	-1	-4.988405	-1.725109	347.4024	0	12.31	20030	0	0	5	5	0.02	-0.1634817	3	10	0.08	2800	341.1629	40.92396	-91.39365
13932	-7	2	-1	-4.990124	-1.719967	347.4026	0	12.31	20030	0	0	5	5	0.02	-0.1595587	1	10	0.08	2800	341.2928	40.92396	-91.39365
14081	-11	-1	0	-4.987463	-1.714387	347.4036	0	12.36	20030	0	0	5	5	0.02	-0.1506299	1	10	0.08	2800	341.2555	40.92396	-91.39365
14258	-15	0	-2	-4.986632	-1.708549	347.4037	0	12.36	20030	0	0	5	5	0.02	-0.1614684	1	10	0.08	2800	341.5668	40.92396	-91.39365
14342	-10	0	0	-4.984195	-1.698298	347.4041	0	12.36	20030	0	0	5	5	0.02	-0.1653044	1	10	0.08	2800	341.1891	40.92396	-91.39365
14419	-11	-5	-3	-4.982716	-1.693162	347.4036	0	12.36	20030	0	0	5	5	0.02	-0.1648947	1	10	0.08	2800	341.9325	40.92396	-91.39365
14527	-11	2	0	-4.978962	-1.687832	347.4047	0	12.36	20030	0	0	5	5	0.02	-0.1609356	1	10	0.08	2800	341.768	40.92396	-91.39365
14644	-14	0	0	-4.976236	-1.683414	347.4052	0	12.36	20030	0	0	5	5	0.02	-0.165717	1	10	0.08	2800	341.7002	40.92396	-91.39365
14777	-12	1	4	-4.971231	-1.679717	347.4044	0	12.36	20030	0	0	5	5	0.02	-0.1751722	1	10	0.08	2800	341.5829	40.92396	-91.39365
14933	-9	3	0	-4.970138	-1.675374	347.4073	0	12.36	20030	0	0	5	5	0.02	-0.1944709	3	10	0.08	2800	341.0736	40.92396	-91.39365
14982	-10	0	2	-4.971121	-1.671959	347.4064	0	12.36	20030	0	0	5	5	0.02	-0.1968512	3	10	0.08	2800	341.3295	40.92396	-91.39365
15080	-11	1	1	-4.972754	-1.670061	347.4058	0	12.36	20030	0	0	5	5	0.02	-0.2026565	3	10	0.08	2800	341.4179	40.92396	-91.39365
15154	-11	1	-4	-4.971006	-1.668998	347.4063	0	12.36	20030	0	0	5	5	0.02	-0.2090699	3	10	0.08	2800	341.5014	40.92396	-91.39365
15249	-11	0	-3	-4.972117	-1.669355	347.4064	0	12.36	20030	0	0	5	5	0.02	-0.2146087	3	10	0.08	2800	341.4659	40.92396	-91.39365
15412	-18	1	5	-4.968952	-1.66695	347.4054	0	12.36	20030	0	0	5	5	0.02	-0.2223996	3	10	0.08	2800	342.0315	40.92396	-91.39365
15493	-12	0	-2	-4.973987	-1.663224	347.4069	0	12.36	20030	0	0	5	5	0.02	-0.2271057	3	10	0.08	2800	341.1281	40.92396	-91.39365
15603	5	8	77	-4.972448	-1.66238	347.4023	0	12.36	20030	0	0	5	5	0.02	-0.2293679	3	10	0.08	2800	341.3824	40.92396	-91.39365
15682	24	-75	178	-4.963811	-1.665883	347.4072	0	12.36	20030	0	0	5	5	0.02	-0.2292734	3	10	0.08	2800	341.4269	40.92396	-91.39365
15788	50	-68	-222	-4.95733	-1.643806	347.4083	0	12.36	20030	0	0	5	5	0.02	-0.2404547	3	10	0.08	2800	340.9089	40.92396	-91.39365
15907	-19	-29	-58	-4.898102	-1.580447	347.4463	0	12.31	20030	0	0	5	5	0.02	-0.2511166	3	10	0.08	2800	340.5243	40.92396	-91.39365
16070	80	196	-142	-4.79496	-1.456823	347.5077	0	12.31	20030	0	0	5	5	0.02	-0.2604278	3	10	0.08	2800	340.1495	40.92396	-91.39365
16178	-53	101	129	-4.759618	-1.40962	347.485	0	12.31	20030	0	0	5	5	0.02	-0.2606733	3	10	0.08	2800	340.9602	40.92396	-91.39365
16301	-53	46	-50	-4.854157	-1.506338	347.4371	0	12.31	20030	0	0	5	5	0.02	-0.2618051	3	10	0.08	2800	341.8306	40.92396	-91.39365
16398	-98	-72	72	-4.861039	-1.516852	347.427	0	12.31	20030	0	0	5	5	0.02	-0.2635757	3	10	0.08	2800	341.2215	40.92396	-91.39365
16506	50	-60	-127	-4.844475	-1.489361	347.439	0	12.31	20030	0	0	5	5	0.02	-0.2478287	3	10	0.08	2800	341.3726	40.92396	-91.39365
16561	-28	-146	9	-4.804768	-1.442893	347.4715	0	12.31	20030	0	0	5	5	0.02	-0.2430066	3	10	0.08	2800	340.7759	40.92396	-91.39365
16672	-9	-191	138	-4.780846	-1.416744	347.4759	0	12.31	20030	0	0	5	5	0.02	-0.222358	3	10	0.08	2800	339.2309	40.92396	-91.39365
16830	-19	99	-150	-4.749234	-1.393966	347.4841	0	12.25	20030	0	0	5	5	0.02	-0.1916704	3	10	0.08	2800	338.4729	40.92396	-91.39365
16951	51	-38	184	-4.700346	-1.302977	347.4839	0	12.25	20030	0	0	5	5	0.02	-0.1808925	3	10	0.08	2800	339.683	40.92396	-91.39365
17026	108	-117	16	-4.668665	-1.260419	347.5304	0	12.25	20030	0	0	5	5	0.02	-0.1725617	3	10	0.08	2800	340.5427	40.92396	-91.39365
17094	-151	-177	154	-4.64963	-1.227767	347.5455	0	12.25	20030	0	0	5	5	0.02	-0.1567497	3	10	0.08	2800	339.959	40.92396	-91.39365
17145	-31	-41	-83	-4.638281	-1.235961	347.5374	0	12.25	20030	0	0	5	5	0.02	-0.1494057	3	10	0.08	2800	339.959	40.92396	-91.39365
17226	-15	-250	-100	-4.620057	-1.176208	347.5612	0	12.25	20030	0	0	5	5	0.02	-0.1436941	3	10	0.08	2800	340.4945	40.92396	-91.39365
17382	-121	-172	73	-4.637355	-1.077286	347.5742	0	12.25	20030	0	0	5	5	0.02	-0.1340108	3	10	0.08	2800	339.4797	40.92396	-91.39365
17527	24	-62	32	-4.655879	-1.001016	347.6288	0	12.25	20030	0	0	5	5	0.02	-0.1288557	3	10	0.08	2800	337.8009	40.92396	-91.39365
17577	-7	345	-283	-4.674496	-0.9854311	347.6454	0	12.25	20030	0	0	5	5	0.02	-0.1274906	3	10	0.08	2800	338.7161	40.92396	-91.39365
17651	104	82	21	-4.721402	-0.9361666	347.6188	0	12.14	20030	0	0	5	5	0.02	-0.1209668	3	10	0.08	2800	338.3145	40.92395	-91.39365
17845	-147	116	109	-4.919366	-1.127573	347.4991	0	12.14	20030	0	0	5	5	0.02	-0.09746975	3	10	0.08	2800	339.6226	40.92395	-91.39365
17954	58	11	-86	-4.910112	-1.136082	347.4996	0	12.14	20030	0	0	5	5	0.02	-0.09056844	3	10	0.08	2800	339.3644	40.92395	-91.39365
18063	91	113	-222	-4.902132	-1.133365	347.525	0	12.14	20030	0	0	5	5	0.02	-0.08379184	3	10	0.08	2800	340.2836	40.92395	-91.39365
18125	-100	-255	218	-4.862046	-1.082814	347.5361	0	12.14	20030	0	0	5	5	0.02	-0.0856041	3	10	0.08	2800	338.6654	40.92395	-91.39365
18229	-167	-358	206	-4.841271	-1.056334	347.5423	0	12.14	20030	0	0	5	5	0.02	-0.09657592	3	10	0.08	2800	340.3084	40.92395	-91.39365
18369	-74	-371	272	-4.838148	-1.042706	347.5622	0	12.14	20030	0	0	5	5	0.02	-0.1173018	3	10	0.08	2800	338.3669	40.92395	-91.39365
18466	-51	-63	-128	-4.83313	-1.053845	347.5915	0	12.14	20030	0	0	5	5	0.02	-0.1292609	3	10	0.08	2800	339.6846	40.92395	-91.39365
18512	227	194	-322	-4.809107	-1.035387	347.5964	0	12.19	20030	0	0	5	5	0.02	-0.1304134	3	10	0.08	2800	339.6404	40.92395	-91.39365
18598	-19	81	-83	-4.806638	-0.9762133	347.6031	0	12.19	20030	0	0	5	5	0.02	-0.1368478	3	10	0.08	2800	338.0423	40.92395	-91.39365
18783	138	-19	120	-4.797906	-0.8278908	347.5908	0	12.19	20030	0	0	5	5	0.02	-0.1493324	3	10	0.08	2800	339.1606	40.92395	-91.39365
18860	-8	5	-427	-4.828759	-0.8299645	347.6319	0	12.19	20030	0	0	5	5	0.02	-0.1502384	3	10	0.08	2800	339.0034	40.92395	-91.39365
18994	-290	109	-1	-4.817434	-0.8459891	347.5717	0	12.19	20030	0	0	5	5	0.02	-0.1476952	3	10	0.08	2800	340.3567	40.92395	-91.39365
19035	-464	56	74	-4.835988	-0.7995561	347.5806	0	12.19	20030	0	0	5	5	0.02	-0.147042	3	10	0.08	2800	338.469	40.92395	-91.39365
19140	-536	10	153	-4.91179	-0.6838607	347.6024	0	12.19	20030	0	0	5	5	0.02	-0.1425543	3	10	0.08	2800	339.0289	40.92395	-91.39365
19251	331	350	-67	-4.865759	-0.6155576	347.6382	0	12.19	20030	0	0	5	5	0.02	-0.1362815	3	10	0.08	2800	339.3982	40.92395	-91.39365
19357	-101	-224	22	-5.108476	-0.6285766	347.5992	0	12.19	20030	0	0	5	5	0.02	-0.1263567	3	10	0.08	2800	339.1798	40.92395	-91.39365
19378	-336	-239	547	-5.062625	-0.5552143	347.6154	0	12.19	20030	0	0	5	5	0.02	-0.1263567	3	10	0.08	2800	339.1798	40.92395	-91.39365
19531	152	-318	-117	-5.143618	-0.5516194	347.5689	0	12.19	20030	0	0	5	5	0.02	-0.1212586	3	10	0.08	2800	339.2013	40.92395	-91.39365
19628	-65	419	-418	-5.175392	-0.4843158	347.5862	0	12.19	20030	0	0	5	5	0.02	-0.1171684	3	10	0.08	2800	339.6917	40.92395	-91.39365
19720	8	414	-412	-5.186132	-0.4373411	347.5822	0	12.19	20030	0	0	5	5	0.02	-0.1202549	3	10	0.08	2800	338.6505	40.92395	-91.39365
19836	-246	-110	29	-5.218009	-0.3827528	347.5292	0	12.19	20030	0	0	5	5	0.02	-0.1234757	3	10	0.08	2800	338.7746	40.92395	-91.39365
19896	116	61	-10	-5.219872	-0.3532213	347.542	0	12.19	20030	0	0	5	5	0.02	-0.1299939	3	10	0.08	2800	339.1372	40.92395	-91.39365
20037	-181	-168	114	-5.244702	-0.3435768	347.5291	0	12.19	20030	0	0	5	5	0.02	-0.1303516	3	10	0.08	2800	339.2954	40.92395	-91.39365
20128	-341	-123	203	-5.267485	-0.2864718	336.8941	0	12.19	20030	0	0	5	5	0.02	-0.133879	3	10	0.08	2800	336.921	40.92395	-91.39365
20252	-197	246	6	-5.244168	-0.3057074	336.8618	0	12.19	20030	0	0	5	5	0.02	-0.1389803	3	10	0.08	2800	336.2542	40.92395	-91.39365
20287	239	184	-321	-5.234289	-0.3186478	336.8811	0	12.14	20030	0	0	5	5	0.02	-0.1389803	3	10	0.08	2800	336.2335	40.92395	-91.39365
20393	-152	-219	156	-5.259284	-0.3086256	336.8706	0	12.14	20030	0	0	5	5	0.02	-0.1363149	3	10	0.08	2800	338.1112	40.92395	-91.39365
20614	22	174	-92	-5.186088	-0.3321857	336.8927	0	12.14	20030	0	0	5	5	0.02	-0.1291885	3	10	0.08	2800	337.1368	40.92395	-91.39365
20709	-5	168	-63	-5.203909	-0.474904	336.861	0	12.14	20030	0	0	5	5	0.02	-0.1273038	3	10	0.08	2800	338.4269	40.92395	-91.39365
20887	-80	227	-118	-5.164954	-0.4883784	336.8725	0	12.14	20030	0	0	5	5	0.02	-0.1055905	3	10	0.08	2800	339.2155	40.92395	-91.39365
20998	-219	-162	148	-5.065603	-0.3910736	336.885	0	12.14	20030	0	0	5	5	0.02	-0.08593947	3	10	0.08	2800	338.551	40.92395	-91.39365
21075	209	39	268	-5.015979	-0.3953656	336.9018	0	12.14	20030	0	0	5	5	0.02	-0.06670848	3	10	0.08	2800	338.3406	40.92395	-91.39365
21141	-203	186	-365	-5.134792	-0.3006438	336.9125	0	12.14	20030	0	0	5	5	0.02	-0.05627188	3	10	0.08	2800	338.994	40.92395	-91.39365
21292	4853	-3583	1269	-3.0197	1.890187	336.351	0	11.97	20030	0	0	5	5	0.02	-0.0273908	3	10	0.08	2800	337.2063	40.92395	-91.39365
21350	2536	-3145	1518	1.395103	4.760456	334.873	0	11.97	20030	0	0	5	5	0.02	-0.01534708	3	10	0.08	2800	331.3394	40.92396	-91.39365
21393	1336	2093	-398	2.372225	5.001095	334.1793	0	11.97	20030	0	0	5	5	0.02	0.01464639	3	10	0.08	2800	329.0002	40.92396	-91.39365
21507	526	503	-334	3.191317	2.610785	335.3585	0	11.97	20030	0	0	5	5	0.02	0.05893604	3	10	0.08	2800	328.7111	40.92396	-91.39365
21597	-3116	-1733	-605	-1.82961	4.27398	336.4157	0	11.97	20030	0	0	5	5	0.02	0.1055294	3	10	0.08	2800	330.5307	40.92396	-91.39365
21715	-4291	2126	-485	-6.541404	3.197389	337.4196	0	11.97	20030	0	0	5	5	0.02	0.1522272	3	10	0.08	2800	332.3992	40.92396	-91.39365
21851	-344	758	-1269	-13.56709	-1.229502	339.049	0	11.97	20030	0	0	5	5	0.02	0.2071705	3	10	0.08	2800	339.8604	40.92395	-91.39365
21976	-689	758	-951	-10.08477	-1.843978	341.3545	0	11.97	20030	0	0	5	5	0.02	0.2407363	3	10	0.08	2800	344.544	40.92395	-91.39365
22002	-689	758	-951	-10.08477	-1.843978	341.3545	0	11.97	20030	0	0	5	5	0.02	0.2452611	3	10	0.08	2800	344.544	40.92395	-91.39365
22115	3545	1075	-957	-7.241925	-4.447523	342.7378	0	12.02	20030	0	0	5	5	0.02	0.2746845	3	10	0.08	2800	345.7345	40.92395	-91.39365
22238	1584	266	-825	-2.261874	-4.496597	343.8003	0	12.02	20030	0	0	5	5	0.02	0.2938179	3	10	0.08	2800	350.8431	40.92395	-91.39365
22318	1406	-1592	-1639	-1.654633	-3.229479	345.6233	0	12.02	20030	0	0	5	5	0.02	0.3088067	3	10	0.08	2800	352.4391	40.92395	-91.39365
22420	42	299	-565	-0.89753	-1.131984	346.6977	0	12.02	20030	0	0	5	5	0.02	0.3353067	3	10	0.08	2800	347.9986	40.92395	-91.39365
22499	1181	51	-786	0.2671377	-0.7110032	348.3308	0	12.02	20030	0	0	5	5	0.02	0.3439589	3	10	0.08	2800	351.8378	40.92395	-91.39365
22649	-4933	-2647	269	-7.333142	0.264886	348.6036	0	12.02	20030	0	0	5	5	0.02	0.3821465	3	10	0.08	2800	350.958	40.92395	-91.39365
22694	-898	-1269	735	-9.929748	2.579745	348.5414	0	12.02	20030	0	0	5	5	0.02	0.3866366	3	10	0.08	2800	354.213	40.92395	-91.39365
22810	-1573	1503	758	-11.51805	-0.9932221	347.4389	0	12.02	20030	0	0	5	5	0.02	0.4019811	3	10	0.08	2800	355.9576	40.92395	-91.39365
22950	242	-159	636	-13.10202	-1.589816	346.6395	0	12.02	20030	0	0	5	5	0.02	0.428314	3	10	0.08	2800	355.8398	40.92395	-91.39365
23023	6268	-127	446	-8.123516	-0.7419308	358.3367	0	12.14	20030	0	0	5	5	0.02	0.4373115	3	10	0.08	2800	0.4374695	40.92395	-91.39365
23118	5370	1689	95	-1.878982	-1.604746	358.0768	0	12.14	20030	0	0	5	5	0.02	0.454661	3	10	0.08	2800	355.7507	40.92395	-91.39365
23279	-269	-1406	516	-0.665365	-1.90033	357.1578	0	12.14	20030	0	0	5	5	0.02	0.4606171	3	10	0.08	2800	354.0544	40.92395	-91.39365
23347	879	-54	-123	0.7130335	-1.160087	357.0517	0	12.14	20030	0	0	5	5	0.02	0.4604641	3	10	0.08	2800	351.6142	40.92395	-91.39365
23469	-1241	570	304	-3.273934	-0.4583053	356.8109	0	12.14	20030	0	0	5	5	0.02	0.4614612	3	10	0.08	2800	350.3454	40.92395	-91.39365
23577	-46	-230	254	-3.967819	-0.3107962	356.7819	0	12.14	20030	0	0	5	5	0.02	0.4660132	3	10	0.08	2800	350.6124	40.92395	-91.39365
23637	-872	6	-642	-4.771052	0.318277	356.9395	0	12.14	20030	0	0	5	5	0.02	0.4674124	3	10	0.08	2800	351.4616	40.92395	-91.39365
23739	-4686	-901	-151	-9.894938	1.106954	357.4092	0	12.14	20030	0	0	5	5	0.02	0.4687068	3	10	0.08	2800	352.3613	40.92395	-91.39365
23898	101	-2161	66	-9.291232	5.099045	359.2023	0	12.14	20030	0	0	5	5	0.02	0.4768064	3	10	0.08	2800	356.9476	40.92395	-91.39365
24015	-2470	-1302	24	-12.69728	8.841864	0.1990181	0	12.14	20030	0	0	5	5	0.02	0.4865988	3	10	0.08	2800	351.688	40.92395	-91.39364
24061	704	2419	-339	-12.94746	8.290001	0.7002701	0	12.14	20030	0	0	5	5	0.02	0.4900112	3	10	0.08	2800	354.3333	40.92395	-91.39364
24224	3726	2285	-22	-8.421893	3.825475	0.6389905	0	12.14	20030	0	0	5	5	0.02	0.5055786	3	10	0.08	2800	358.5436	40.92395	-91.39364
24300	-1412	1448	-897	-4.818106	-0.4028615	0.6310669	0	12.14	20030	0	0	5	5	0.02	0.5165095	3	10	0.08	2800	0.6124268	40.92395	-91.39364
24382	2316	-608	499	-4.939035	-0.5118111	0.08086583	0	12.14	20030	0	0	5	5	0.02	0.5282758	3	10	0.08	2800	0.2754517	40.92395	-91.39364
24419	2041	-515	115	-3.937613	0.09748325	359.725	0	12.14	20030	0	0	5	5	0.02	0.5325965	3	10	0.08	2800	1.473969	40.92395	-91.39364
24557	889	1723	1971	-1.537016	-0.1135339	357.6267	0	12.14	20030	0	0	5	5	0.02	0.5547656	3	10	0.08	2800	355.8405	40.92395	-91.39364
24630	984	627	929	-2.000837	-2.008855	355.8134	0	12.14	20030	0	0	5	5	0.02	0.5674926	3	10	0.08	2800	355.8405	40.92395	-91.39364
24736	-1195	2239	605	-1.596006	-0.3014516	353.4568	0	12.14	20030	0	0	5	5	0.02	0.5849298	3	10	0.08	2800	352.0681	40.92395	-91.39364
24836	1965	-284	-1234	-0.3835011	-1.585233	353.4299	0	12.14	20030	0	0	5	5	0.02	0.5983768	3	10	0.08	2800	350.0759	40.92395	-91.39364
24992	-2569	-1238	-1402	-0.1921689	6.557735	355.4213	0	12.14	20030	0	0	5	5	0.02	0.6392882	3	10	0.08	2800	352.179	40.92395	-91.39364
25189	-1412	-1145	-355	0.573225	6.587871	359.1024	0	12.14	20030	0	0	5	5	0.02	0.7027389	3	10	0.08	2800	353.9315	40.92395	-91.39364
25262	-3356	-2222	-723	-2.738485	7.84332	0.2048759	0	12.14	20030	0	0	5	5	0.02	0.7364105	3	10	0.08	2800	353.8962	40.92395	-91.39364
25355	-461	346	-91	-4.567862	8.358889	1.053029	0	12.14	20030	0	0	5	5	0.02	0.7533113	3	10	0.08	2800	354.6371	40.92395	-91.39364
25504	350	883	-584	-4.903015	4.214927	1.418714	0	12.14	20030	0	0	5	5	0.02	0.8252177	3	10	0.08	2800	359.0019	40.92395	-91.39364
25580	3391	1212	100	0.2710283	2.469684	2.341705	0	12.14	20030	0	0	5	5	0.02	0.8566527	3	10	0.08	2800	0.6891785	40.92395	-91.39364
25675	1475	1401	-441	1.892538	1.654286	2.341546	0	12.14	20030	0	0	5	5	0.02	0.9093936	3	10	0.08	2800	359.0745	40.92395	-91.39364
25713	386	1717	-816	2.301831	0.9522682	2.743421	0	12.14	20030	0	0	5	5	0.02	0.9303957	3	10	0.08	2800	359.0745	40.92395	-91.39364
25829	-2445	-2664	-441	-0.7272908	1.109361	3.391771	0	11.97	20030	0	0	5	5	0.02	0.970102	3	10	0.08	2800	359.8368	40.92395	-91.39364
26015	-694	-238	-18	-3.248391	0.4342729	3.253993	0	11.97	20030	0	0	5	5	0.02	1.037342	3	10	0.08	2800	0.5975647	40.92395	-91.39364
26048	2098	756	-526	-2.438133	0.3596703	3.256505	0	11.97	20030	0	0	5	5	0.02	1.051616	3	10	0.08	2800	2.128113	40.92395	-91.39364
26147	-1998	-707	-625	-2.538733	-1.043803	2.199954	0	11.97	20030	0	0	5	5	0.02	1.072094	3	10	0.08	2800	357.4638	40.92395	-91.39364
26264	-1641	-700	-147	-3.891038	0.1495739	1.28599	0	11.97	20030	0	0	5	5	0.02	1.106928	3	10	0.08	2800	357.1461	40.92395	-91.39364
26396	-49	560	1657	-2.286527	1.242672	359.7248	0	11.97	20030	0	0	5	5	0.02	1.183128	3	10	0.08	2800	354.6511	40.92395	-91.39364
26440	-1919	379	1236	-3.325124	1.103672	359.2779	0	11.97	20030	0	0	5	5	0.02	1.193457	3	10	0.08	2800	353.1077	40.92395	-91.39364
26525	-2332	1116	371	-6.423542	0.7108299	358.7427	0	11.97	20030	0	0	5	5	0.02	1.22207	3	10	0.08	2800	351.77	40.92395	-91.39363
26618	-389	-354	-814	-6.264715	-0.7472924	359.0287	0	11.97	20030	0	0	5	5	0.02	1.265414	3	10	0.08	2800	352.9282	40.92395	-91.39363
26788	-1293	-93	-568	-4.130444	0.3327275	359.9834	0	12.53	20030	0	0	5	5	0.02	1.312093	3	10	0.08	2800	356.7954	40.92395	-91.39363
26939	1571	-185	191	-6.489126	1.204826	0.9885938	0	12.53	20030	0	0	5	5	0.02	1.374676	3	10	0.08	2800	357.7092	40.92395	-91.39363
27048	-1367	-2061	-100	-4.906091	1.991172	1.40944	0	12.53	20030	0	0	5	5	0.02	1.413852	3	10	0.08	2800	357.1543	40.92395	-91.39363
27134	1231	-841	-615	-7.198425	6.006772	2.401145	0	12.53	20030	0	0	5	5	0.02	1.432468	3	10	0.08	2800	355.1057	40.92395	-91.39363
27228	-1236	14	930	-5.962884	5.106803	2.41931	0	12.53	20030	0	0	5	5	0.02	1.43996	3	10	0.08	2800	356.2701	40.92395	-91.39363
27345	-461	-1667	1119	-9.321532	6.540761	1.134285	0	12.53	20030	0	0	5	5	0.02	1.465195	3	10	0.08	2800	353.9117	40.92395	-91.39363
27473	-1305	943	1851	-11.15947	3.37995	357.2752	0	12.53	20030	0	0	5	5	0.02	1.487921	3	10	0.08	2800	351.0764	40.92395	-91.39362
27601	1751	990	1886	-10.26338	3.596203	354.882	0	11.91	20030	0	0	5	5	0.02	1.509494	3	10	0.08	2800	347.9156	40.92395	-91.39362
27671	2455	-375	593	-7.228858	1.992581	352.6897	0	11.91	20030	0	0	5	5	0.02	1.518326	3	10	0.08	2800	348.1605	40.92395	-91.39362
27776	4138	1108	419	-4.155048	1.71597	351.814	0	11.91	20030	0	0	5	5	0.02	1.532131	3	10	0.08	2800	348.1605	40.92395	-91.39362
27896	1034	450	449	1.072226	-1.207862	350.941	0	11.91	20030	0	0	5	5	0.02	1.536165	3	10	0.08	2800	345.3966	40.92395	-91.39362
27973	723	-118	-318	1.004762	-0.7795142	351.4535	0	11.91	20030	0	0	5	5	0.02	1.536738	3	10	0.08	2800	344.6204	40.92395	-91.39362
28045	-3124	-806	482	-0.6370429	0.3219982	351.4962	0	11.91	20030	0	0	5	5	0.02	1.537156	3	10	0.08	2800	344.2104	40.92395	-91.39362
28187	406	906	970	-6.963796	0.4378749	350.6671	0	11.91	20030	0	0	5	5	0.02	1.53695	3	10	0.08	2800	343.5497	40.92395	-91.39362
28294	-3317	-857	495	-9.508079	-0.3161067	349.4217	0	11.91	20030	0	0	5	5	0.02	1.537407	3	10	0.08	2800	343.0113	40.92395	-91.39362
28382	2344	-744	334	-10.41929	1.512702	349.2404	0	11.91	20030	0	0	5	5	0.02	1.533962	3	10	0.08	2800	343.9873	40.92394	-91.39362
28444	3138	-242	60	-8.849742	1.845386	349.261	0	11.91	20030	0	0	5	5	0.02	1.532309	3	10	0.08	2800	344.1363	40.92394	-91.39362
28600	-390	1728	-23	-5.120314	-0.7373389	350.5336	0	11.91	20030	0	0	5	5	0.02	1.522046	3	10	0.08	2800	345.0981	40.92394	-91.39362
28683	733	-367	-646	-5.770162	-1.654813	351.442	0	11.91	20030	0	0	5	5	0.02	1.515316	3	10	0.08	2800	347.7228	40.92394	-91.39362
28767	-531	-289	-1319	-6.050577	0.3546396	353.3799	0	11.91	20030	0	0	5	5	0.02	1.507533	3	10	0.08	2800	350.5179	40.92394	-91.39362
28886	-1553	-1047	-1302	-7.680284	1.605301	354.3056	0	11.91	20030	0	0	5	5	0.02	1.4993	3	10	0.08	2800	354.3213	40.92394	-91.39362
28969	821	73	-143	-8.659444	2.613554	354.8268	0	11.91	20030	0	0	5	5	0.02	1.493747	3	10	0.08	2800	351.1871	40.92394	-91.39362
29045	1714	-167	834	-6.795721	2.873307	355.0071	0	11.91	20030	0	0	5	5	0.02	1.485464	3	10	0.08	2800	355.1582	40.92394	-91.39362
29261	373	-463	-236	-5.623049	3.808419	354.0163	0	11.91	20030	0	0	5	5	0.02	1.458392	3	10	0.08	2800	350.9225	40.92394	-91.39362
29360	-51	-1550	-30	-2.624204	4.608315	353.767	0	11.91	20030	0	0	5	5	0.02	1.456182	3	10	0.08	2800	351.2273	40.92394	-91.39362
29454	-2442	-1495	162	-4.960144	6.340009	352.8567	0	12.08	20030	0	0	5	5	0.02	1.456572	3	10	0.08	2800	346.6258	40.92394	-91.39362
29564	3362	1185	-78	-4.468823	6.221514	352.9702	0	12.08	20030	0	0	5	5	0.02	1.457099	3	10	0.08	2800	347.6818	40.92394	-91.39362
29801	3387	530	178	-6.888766	4.017022	349.9497	0	12.08	20030	0	0	5	5	0.02	1.454968	3	10	0.08	2800	344.3564	40.92394	-91.39362
29958	-2579	1008	988	-3.159349	2.530349	347.8448	0	12.08	20030	0	0	5	5	0.02	1.462446	3	10	0.08	2800	343.2911	40.92394	-91.39362
29990	-3129	-411	484	-4.517051	2.365844	347.4561	0	12.08	20030	0	0	5	5	0.02	1.46313	3	10	0.08	2800	341.0988	40.92394	-91.39362
30080	2497	882	337	-6.132166	2.971921	336.1672	0	12.08	20030	0	0	5	5	0.02	1.464795	3	10	0.08	2800	338.9434	40.92394	-91.39362
30184	-604	888	691	-3.846442	1.068117	336.1523	0	12.08	20030	0	0	5	5	0.02	1.469569	3	10	0.08	2800	339.5871	40.92394	-91.39362
30292	-3713	-1628	-431	-7.560695	2.036276	336.3128	0	12.08	20030	0	0	5	5	0.02	1.463827	3	10	0.08	2800	340.8431	40.92394	-91.39362
30418	406	1701	-919	-5.926461	3.141531	338.4031	0	11.85	20030	0	0	5	5	0.02	1.460424	3	10	0.08	2800	341.9372	40.92394	-91.39362
30524	-2050	301	-844	-8.046326	1.520179	339.7362	0	11.85	20030	0	0	5	5	0.02	1.455009	3	10	0.08	2800	346.1169	40.92394	-91.39362
30602	-296	620	-1181	-9.119119	1.276154	340.6307	0	11.85	20030	0	0	5	5	0.02	1.453345	3	10	0.08	2800	346.299	40.92394	-91.39362
30691	266	469	-1247	-7.741953	-0.1197795	342.7401	0	11.85	20030	0	0	5	5	0.02	1.45479	3	10	0.08	2800	349.6882	40.92394	-91.39362
30800	-25	-4	-743	-6.165656	0.7273098	355.3458	0	11.85	20030	0	0	5	5	0.02	1.454119	3	10	0.08	2800	355.3004	40.92394	-91.39362
30908	423	-988	103	-6.818893	2.580034	356.6693	0	11.85	20030	0	0	5	5	0.02	1.449046	3	10	0.08	2800	357.0867	40.92394	-91.39362
31030	-1604	158	254	-7.50204	3.015837	355.9202	0	11.85	20030	0	0	5	5	0.02	1.429574	3	10	0.08	2800	355.3243	40.92394	-91.39362
31073	195	120	318	-8.46042	3.174336	355.7243	0	11.85	20030	0	0	5	5	0.02	1.413634	3	10	0.08	2800	355.3243	40.92394	-91.39362
31182	-1350	-26	1158	-5.409919	3.968525	354.5468	0	11.85	20030	0	0	5	5	0.02	1.384888	3	10	0.08	2800	356.1867	40.92394	-91.39362
31308	-3528	-453	511	-8.89917	4.201462	352.7779	0	11.85	20030	0	0	5	5	0.02	1.362343	3	10	0.08	2800	352.447	40.92394	-91.39362
31388	3127	-782	1268	-8.420824	4.329607	351.4676	0	11.85	20030	0	0	5	5	0.02	1.327108	3	10	0.08	2800	350.1667	40.92394	-91.39362
31482	4209	-1157	417	-4.824059	4.981775	350.5572	0	11.85	20030	0	0	5	5	0.02	1.311744	3	10	0.08	2800	351.559	40.92394	-91.39362
