time(ms)	gyro_x(deg/s)	gyro_y(deg/s)	gyro_z(deg/s)	orientation_roll(deg)	orientation_pitch(deg)	orientation_yaw(deg)	throttle	battery(V)	loop_time(uS)	pid_output_roll	pid_output_pitch	pid_output_yaw	pid_output_throttle	ultrasonic_alt	baro_alt	flight_mode	p_gain_altitude	i_gain_altitude	d_gain_altitude	compass_heading	latitude	longitude
5650923	-387	435	-320	-4.018671	3.04585	343.7503	0	11.8	23737	49	31	5	5	0.02	1.980619	8	10	0.08	2800	345.5301	40.92398	-91.39362
5650990	453	813	-477	-3.978902	2.196339	343.9724	0	11.8	23744	48	28	5	5	0.02	1.976028	8	10	0.08	2800	344.4383	40.92398	-91.39362
5651130	83	497	486	-2.200983	1.81613	344.6521	0	11.8	24390	44	22	5	5	0.02	1.969803	8	10	0.08	2800	346.4265	40.92397	-91.39362
5651207	-570	107	-345	-4.701611	1.136872	344.9601	0	11.8	23291	42	18	5	5	0.02	1.965679	8	10	0.08	2800	346.0712	40.92397	-91.39362
5651324	-1631	351	703	-3.006807	1.218888	344.243	0	11.8	23916	47	25	5	5	0.02	1.960458	8	10	0.08	2800	346.6963	40.92397	-91.39362
5651385	-1093	882	535	-4.034636	0.9436604	343.8483	0	11.8	23751	46	24	5	5	0.02	1.955792	8	10	0.08	2800	344.7816	40.92397	-91.39362
5651508	245	-791	399	-3.593391	0.563646	343.471	0	11.68	23922	55	20	5	5	0.02	1.934966	8	10	0.08	2800	343.1122	40.92397	-91.39362
5651635	564	1133	-288	-1.472653	-0.06334009	343.7103	0	11.68	24558	50	12	5	5	0.02	1.911469	8	10	0.08	2800	343.493	40.92397	-91.39362
5651703	-1024	-1233	152	-2.324695	0.1557432	343.5119	0	11.68	23918	47	8	5	5	0.02	1.907263	8	10	0.08	2800	342.5369	40.92397	-91.39362
5651813	-21	701	1271	-2.500327	1.29036	342.4735	0	11.68	23927	45	2	5	5	0.02	1.882408	8	10	0.08	2800	342.186	40.92397	-91.39362
5651910	-1394	-1321	-68	-3.518292	1.932194	341.7267	0	11.68	23918	58	5	5	5	0.02	1.866864	8	10	0.08	2800	340.4448	40.92397	-91.39362
5652094	4700	1533	-293	-4.76499	-0.2737011	339.4027	0	11.68	23903	51	-6	5	5	0.02	1.863142	8	10	0.08	2800	337.8896	40.92397	-91.39362
5652147	4448	1731	-1008	-2.275583	-0.9097348	339.9447	0	11.68	23753	53	-8	5	5	0.02	1.868296	8	10	0.08	2800	337.8896	40.92397	-91.39362
5652267	-3368	-3259	179	-2.892131	-1.133351	340.8144	0	11.68	23755	68	3	5	5	0.02	1.879062	8	10	0.08	2800	341.2148	40.92397	-91.39362
5652347	-1658	-3118	-731	-6.847596	2.480914	340.9214	0	11.74	23731	71	4	5	5	0.02	1.889996	8	10	0.08	2800	340.4785	40.92397	-91.39362
5652422	452	1836	-537	-6.419725	3.445489	340.5742	0	11.74	23919	80	1	5	5	0.02	1.906731	8	10	0.08	2800	336.3884	40.92397	-91.39362
5652530	-473	246	114	-5.904017	0.8940064	340.6595	0	11.74	23269	73	-11	5	5	0.02	1.948161	8	10	0.08	2800	336.3884	40.92397	-91.39362
5652751	-118	281	1032	-5.67415	1.713777	339.8088	0	11.74	23742	86	-20	5	5	0.02	2.017145	8	10	0.08	2800	338.4853	40.92397	-91.39362
5652855	-1189	1320	686	-7.110561	0.04886255	338.6685	0	11.74	23297	89	-28	5	5	0.02	2.063128	8	10	0.08	2800	336.2214	40.92397	-91.39362
5652956	404	644	80	-7.134125	-1.662976	337.9291	0	11.74	23149	86	-23	5	5	0.02	2.104889	8	10	0.08	2800	336.5289	40.92397	-91.39362
5653043	1686	89	591	-5.855471	-1.42733	337.552	0	11.74	24395	87	-21	5	5	0.02	2.128133	8	10	0.08	2800	338.2021	40.92397	-91.39361
5653160	579	296	-47	-7.509433	-2.056612	337.1505	0	11.74	23916	99	-34	5	5	0.02	2.16836	8	10	0.08	2800	336.6439	40.92397	-91.39361
5653239	874	-120	-613	-7.318176	-1.851299	337.2878	0	11.74	23760	103	-35	5	5	0.02	2.180475	8	10	0.08	2800	336.6439	40.92397	-91.39361
5653398	-2647	8	-512	-8.98724	-3.083251	338.9339	0	11.63	23921	102	-21	5	5	0.02	2.231145	8	10	0.08	2800	341.182	40.92396	-91.39361
5653453	-1367	-688	-713	-10.97784	-1.888696	339.6953	0	11.63	23249	101	-17	5	5	0.02	2.246334	8	10	0.08	2800	341.9301	40.92396	-91.39361
5653643	-1513	1122	-513	-13.88664	-0.7431587	341.4698	0	11.63	23749	105	-21	5	5	0.02	2.267651	8	10	0.08	2800	341.862	40.92396	-91.39361
5653680	-62	176	-782	-14.1481	-1.074254	341.7547	0	11.63	23917	103	-20	5	5	0.02	2.269605	8	10	0.08	2800	346.5587	40.92396	-91.39361
5653740	748	-861	-681	-12.84772	-0.07012787	342.5592	0	11.63	23759	98	-17	5	5	0.02	2.276807	8	10	0.08	2800	346.749	40.92396	-91.39361
5653889	829	1000	413	-10.12759	-0.9860839	342.3773	0	11.63	23942	93	-15	5	5	0.02	2.279622	8	10	0.08	2800	348.4898	40.92396	-91.3936
5654007	1313	678	581	-10.43227	-2.174233	341.1686	0	11.63	23755	103	-8	5	5	0.02	2.296193	8	10	0.08	2800	348.8549	40.92396	-91.3936
5654108	1438	-288	889	-8.905049	-2.441194	340.3062	0	11.63	23736	97	-15	5	5	0.02	2.302995	8	10	0.08	2800	349.9928	40.92396	-91.3936
5654197	2684	-709	-66	-5.406522	-0.6288303	349.5404	0	11.63	24554	93	1	5	5	0.02	2.301915	8	10	0.08	2800	347.047	40.92396	-91.3936
5654293	-2161	1968	493	-4.269783	-1.635	348.9987	0	11.97	24440	90	10	5	5	0.02	2.301151	8	10	0.08	2800	344.6816	40.92396	-91.3936
5654388	131	-1061	55	-6.970263	-0.750285	348.7903	0	11.97	23914	87	15	5	5	0.02	2.294365	8	10	0.08	2800	345.9774	40.92396	-91.3936
5654464	980	-2069	952	-6.399669	1.740081	348.6638	0	11.97	23924	84	10	5	5	0.02	2.291035	8	10	0.08	2800	344.8453	40.92396	-91.3936
5654577	557	2412	-409	-7.639874	1.007119	347.5375	0	11.97	23101	81	9	5	5	0.02	2.286062	8	10	0.08	2800	341.6801	40.92396	-91.3936
5654677	-547	73	-406	-4.409912	-1.671204	347.4979	0	11.97	23758	86	17	5	5	0.02	2.265765	8	10	0.08	2800	342.1639	40.92396	-91.3936
5654799	180	-1863	439	-4.572662	0.1405049	348.2396	0	11.97	23885	88	32	5	5	0.02	2.257958	8	10	0.08	2800	343.3303	40.92396	-91.3936
5654871	-1942	-534	1885	-7.829181	1.373939	346.5255	0	11.97	23750	89	27	5	5	0.02	2.257187	8	10	0.08	2800	342.0134	40.92396	-91.3936
5655032	597	-1337	346	-7.097654	1.264706	344.7065	0	11.97	23757	91	21	5	5	0.02	2.288698	8	10	0.08	2800	340.0716	40.92396	-91.3936
5655119	442	-544	156	-7.03283	2.025154	344.0594	0	11.97	23734	90	19	5	5	0.02	2.298055	8	10	0.08	2800	337.6345	40.92396	-91.3936
5655176	923	-476	98	-6.448548	1.968802	343.5141	0	11.74	23914	83	30	5	5	0.02	2.302572	8	10	0.08	2800	337.0961	40.92396	-91.39361
5655296	1701	349	-353	-4.614937	3.320725	344.2328	0	11.74	23739	80	39	5	5	0.02	2.324278	8	10	0.08	2800	335.4218	40.92396	-91.39361
5655388	-607	405	-895	-5.175117	2.484918	335.4334	0	11.74	23265	82	9	5	5	0.02	2.337672	8	10	0.08	2800	334.9308	40.92396	-91.39361
5655520	-1384	30	-736	-4.470154	2.152619	337.758	0	11.74	23910	81	8	5	5	0.02	2.36725	8	10	0.08	2800	338.9546	40.92396	-91.39361
5655589	-1381	-262	-615	-5.98271	2.116575	338.6436	0	11.74	23920	83	16	5	5	0.02	2.384567	8	10	0.08	2800	339.4691	40.92396	-91.39361
5655725	-317	525	424	-6.687365	1.948758	339.6997	0	11.74	23934	91	16	5	5	0.02	2.414231	8	10	0.08	2800	340.0531	40.92396	-91.39361
5655790	-1577	992	259	-8.354162	0.8496286	339.4549	0	11.74	24528	96	16	5	5	0.02	2.41863	8	10	0.08	2800	339.6337	40.92396	-91.39361
5655903	-73	-104	720	-9.611192	-0.5640172	338.7142	0	11.74	23900	98	14	5	5	0.02	2.443787	8	10	0.08	2800	341.0338	40.92396	-91.39361
5656093	1420	-568	704	-8.012561	0.3897539	336.4476	0	11.85	23735	95	13	5	5	0.02	2.478133	8	10	0.08	2800	339.0368	40.92396	-91.39361
5656113	1420	-568	704	-8.012561	0.3897539	336.4476	0	11.85	23735	95	13	5	5	0.02	2.495572	8	10	0.08	2800	339.0368	40.92396	-91.39361
5656212	873	-393	676	-5.088808	1.435055	334.7357	0	11.85	24389	93	10	5	5	0.02	2.510764	8	10	0.08	2800	336.5804	40.92396	-91.39361
5656405	54	489	579	-8.198355	-1.801256	332.2107	0	11.85	23117	89	-4	5	5	0.02	2.541555	8	10	0.08	2800	334.3458	40.92396	-91.39361
5656494	2458	-1480	-329	-6.397766	-1.096901	331.8263	0	11.85	23715	92	-1	5	5	0.02	2.550825	8	10	0.08	2800	334.7148	40.92396	-91.39361
5656572	-1573	859	528	-6.540452	-0.5180129	331.0601	0	11.85	23917	89	-2	5	5	0.02	2.569236	8	10	0.08	2800	331.8462	40.92396	-91.39361
5656650	-70	-1139	-546	-7.369165	-0.590834	331.0929	0	11.85	23275	88	-2	5	5	0.02	2.58027	8	10	0.08	2800	331.7107	40.92396	-91.39361
5656730	1011	-1097	69	-5.669819	1.843097	331.7836	0	11.85	23133	92	-2	5	5	0.02	2.588313	8	10	0.08	2800	332.3175	40.92396	-91.39361
5656810	356	519	-81	-6.062984	1.599228	331.9378	0	11.85	23923	90	-2	5	5	0.02	2.595755	8	10	0.08	2800	330.2952	40.92396	-91.39361
5656917	-1790	1721	103	-8.518961	-1.501659	331.3163	0	11.85	23753	89	-1	5	5	0.02	2.600492	8	10	0.08	2800	331.2201	40.92396	-91.39361
5657092	1654	242	385	-6.888149	-0.1492013	330.9373	0	11.74	23918	79	2	5	5	0.02	2.600783	8	10	0.08	2800	332.9381	40.92396	-91.39361
5657166	-5	1257	336	-5.441797	-0.2730335	330.8989	0	11.74	23941	82	0	5	5	0.02	2.600735	8	10	0.08	2800	333.2619	40.92396	-91.39361
5657265	1564	488	-885	-5.112288	-3.156813	331.7616	0	11.74	23922	82	1	5	5	0.02	2.599036	8	10	0.08	2800	334.5569	40.92396	-91.39361
5657345	-1137	-2465	-1708	-5.046435	-0.6625141	332.9027	0	11.74	23919	82	3	5	5	0.02	2.589547	8	10	0.08	2800	335.503	40.92396	-91.39361
5657463	-1197	424	-1088	-5.683077	1.526313	335.3231	0	11.74	23911	82	6	5	5	0.02	2.563668	8	10	0.08	2800	335.2227	40.92396	-91.39361
5657499	348	492	-997	-5.584812	1.412829	335.8883	0	11.74	23754	85	9	5	5	0.02	2.555902	8	10	0.08	2800	335.2227	40.92396	-91.39361
5657583	-135	-85	-1405	-5.012255	1.470469	337.4067	0	11.74	23758	92	6	5	5	0.02	2.549254	8	10	0.08	2800	337.8076	40.92396	-91.39361
5657739	-722	-970	-1075	-5.510169	1.714436	341.8318	0	11.74	23914	88	13	5	5	0.02	2.529724	8	10	0.08	2800	342.1398	40.92396	-91.39361
5657885	458	42	478	-6.36396	3.176019	343.3521	0	11.51	23763	98	14	5	5	0.02	2.50586	8	10	0.08	2800	343.7051	40.92396	-91.39361
5657918	-918	724	-103	-6.511682	2.932377	343.3912	0	11.51	24544	98	14	5	5	0.02	2.50586	8	10	0.08	2800	343.7051	40.92396	-91.39361
5657985	-1133	1539	-574	-6.998063	2.433307	343.4703	0	11.51	23170	102	13	5	5	0.02	2.482554	8	10	0.08	2800	343.5276	40.92396	-91.39361
5658101	-1470	-960	579	-7.907317	1.058574	342.8977	0	11.51	23923	99	13	5	5	0.02	2.447227	8	10	0.08	2800	345.4918	40.92396	-91.39361
5658220	2169	-116	617	-6.850595	2.090578	342.4153	0	11.51	23756	100	12	5	5	0.02	2.42469	8	10	0.08	2800	344.2855	40.92396	-91.39361
5658389	-774	-7	366	-8.185505	-0.6696504	340.6444	0	11.51	23917	105	22	5	5	0.02	2.386353	8	10	0.08	2800	344.1501	40.92397	-91.39361
5658439	-429	-974	264	-8.195654	-0.3059415	340.329	0	11.51	23779	115	13	5	5	0.02	2.381644	8	10	0.08	2800	344.1501	40.92397	-91.3936
5658509	109	-1360	694	-8.266785	1.57711	339.4148	0	11.51	23753	109	14	5	5	0.02	2.372553	8	10	0.08	2800	342.0955	40.92397	-91.3936
5658609	467	312	1180	-8.771709	0.2257586	337.2875	0	11.51	23744	108	10	5	5	0.02	2.35111	8	10	0.08	2800	338.1488	40.92397	-91.3936
5658717	1945	1289	-467	-6.550532	-1.093014	336.8568	0	11.51	23917	102	-2	5	5	0.02	2.33629	8	10	0.08	2800	341.0833	40.92396	-91.3936
5658823	-1023	-636	-943	-6.259557	-0.6944555	337.2747	0	11.74	23756	0	0	5	5	0.02	2.328939	3	10	0.08	2800	340.5639	40.92396	-91.3936
5658900	1816	-1338	505	-4.733731	1.757938	337.581	0	11.74	23756	0	0	5	5	0.02	2.323764	3	10	0.08	2800	341.1799	40.92396	-91.3936
5659136	-3334	298	155	-9.247179	0.1435615	336.5033	0	11.74	23756	0	0	5	5	0.02	2.327086	3	10	0.08	2800	337.2711	40.92396	-91.3936
5659238	-1257	-1210	39	-12.63381	1.73612	336.3533	0	11.74	23756	0	0	5	5	0.02	2.330561	3	10	0.08	2800	338.2929	40.92396	-91.3936
5659361	-2651	1607	866	-15.17613	0.9623824	335.5765	0	11.74	23756	0	0	5	5	0.02	2.327118	3	10	0.08	2800	339.1792	40.92396	-91.3936
5659513	146	-515	-42	-17.84035	-0.6232919	335.6167	0	11.74	23756	0	0	5	5	0.02	2.32855	3	10	0.08	2800	341.7378	40.92396	-91.3936
5659537	1952	-686	300	-16.79923	-0.3410615	335.8442	0	11.74	23756	0	0	5	5	0.02	2.333525	3	10	0.08	2800	341.7378	40.92396	-91.39361
5659641	-1214	-83	-507	-15.37372	0.0953022	335.9192	0	11.74	23756	0	0	5	5	0.02	2.340375	3	10	0.08	2800	342.1726	40.92396	-91.39361
5659771	242	753	664	-14.28102	-1.41634	336.3822	0	11.68	23756	0	0	5	5	0.02	2.344584	3	10	0.08	2800	344.8929	40.92396	-91.39361
5659855	1659	-132	-485	-13.30192	-1.256856	348.5663	0	11.68	23756	0	0	5	5	0.02	2.349277	3	10	0.08	2800	347.8181	40.92396	-91.39361
5659920	-216	-194	-600	-12.74717	-1.020913	349.0528	0	11.68	23756	0	0	5	5	0.02	2.345672	3	10	0.08	2800	350.8799	40.92396	-91.39361
5660054	-1000	-599	-61	-14.35712	0.1934458	349.8159	0	11.68	23756	0	0	5	5	0.02	2.339737	3	10	0.08	2800	350.2571	40.92396	-91.39361
5660146	-379	-3239	342	-14.25822	4.373788	349.5271	0	11.68	23756	0	0	5	5	0.02	2.335582	3	10	0.08	2800	349.3224	40.92396	-91.39361
5660244	1339	-231	658	-13.90872	5.648739	348.8242	0	11.68	23756	0	0	5	5	0.02	2.321371	3	10	0.08	2800	347.1947	40.92396	-91.39361
5660414	2224	1141	122	-8.534534	2.983088	347.8747	0	11.68	23756	0	0	5	5	0.02	2.30426	3	10	0.08	2800	346.3889	40.92396	-91.39362
5660488	276	1783	-46	-7.239876	1.374706	347.5569	0	11.68	23756	0	0	5	5	0.02	2.292124	3	10	0.08	2800	345.5556	40.92396	-91.39362
5660549	1594	1125	601	-6.475644	0.5232879	347.5596	0	11.68	23756	0	0	5	5	0.02	2.28767	3	10	0.08	2800	347.3004	40.92396	-91.39362
5660618	1714	371	-688	-3.470833	-0.623269	347.6424	0	11.4	23756	0	0	5	5	0.02	2.277293	3	10	0.08	2800	348.0533	40.92396	-91.39362
5660697	1317	-1773	127	-1.542084	0.5424243	347.8089	0	11.4	23756	0	0	5	5	0.02	2.270812	3	10	0.08	2800	349.3994	40.92396	-91.39362
5660814	634	1608	-475	-0.9912004	0.8927265	347.9773	0	11.4	23756	0	0	5	5	0.02	2.25526	3	10	0.08	2800	344.5453	40.92396	-91.39362
5660910	-1996	-130	-188	-2.11518	0.4376803	347.8872	0	11.4	23756	0	0	5	5	0.02	2.219172	3	10	0.08	2800	345.8535	40.92396	-91.39362
5661014	-172	60	259	-1.976845	0.3523303	348.5965	0	11.4	23756	0	0	5	5	0.02	2.187569	3	10	0.08	2800	346.4794	40.92396	-91.39362
5661106	-543	-983	-61	-2.732437	1.635369	348.4323	0	11.4	23756	0	0	5	5	0.02	2.164326	3	10	0.08	2800	344.4137	40.92396	-91.39362
5661224	-1467	1115	562	-4.748816	1.84297	348.0236	0	11.4	23756	0	0	5	5	0.02	2.122011	3	10	0.08	2800	343.0101	40.92396	-91.39363
5661321	-280	-35	526	-5.296344	-0.7646493	346.7418	0	11.4	23756	0	0	5	5	0.02	2.098009	3	10	0.08	2800	343.3131	40.92396	-91.39363
5661414	-22	-393	500	-5.132568	-0.115848	346.5853	0	11.4	23756	0	0	5	5	0.02	2.068225	3	10	0.08	2800	340.6744	40.92397	-91.39363
5661525	126	-60	749	-6.092739	0.6205703	346.8362	0	11.8	23756	0	0	5	5	0.02	2.034976	3	10	0.08	2800	343.6894	40.92397	-91.39363
5661625	-1153	-952	-176	-7.970687	1.443905	346.6381	0	11.8	23756	0	0	5	5	0.02	1.999224	3	10	0.08	2800	343.122	40.92397	-91.39364
5661740	-777	924	9	-9.139675	4.936168	346.623	0	11.8	23756	0	0	5	5	0.02	1.98149	3	10	0.08	2800	338.451	40.92397	-91.39364
5661833	-1094	710	-161	-9.833906	3.713924	346.3587	0	11.8	23756	0	0	5	5	0.02	1.956108	3	10	0.08	2800	340.85	40.92397	-91.39364
5661939	2241	-1629	-224	-7.593604	4.756443	345.8493	0	11.8	23756	0	0	5	5	0.02	1.944911	3	10	0.08	2800	338.9051	40.92397	-91.39365
5662049	252	-1068	578	-6.20236	5.87675	345.5548	0	11.8	23756	0	0	5	5	0.02	1.926747	3	10	0.08	2800	339.2938	40.92397	-91.39365
5662143	801	570	295	-8.549805	4.222256	344.5467	0	11.8	23756	0	0	5	5	0.02	1.921199	3	10	0.08	2800	337.4859	40.92397	-91.39365
5662253	484	309	706	-7.468543	3.696416	344.0218	0	11.8	23756	0	0	5	5	0.02	1.908877	3	10	0.08	2800	336.8268	40.92397	-91.39365
5662360	2503	-228	-98	-5.056939	2.181637	343.8523	0	11.8	23756	0	0	5	5	0.02	1.901214	3	10	0.08	2800	336.3601	40.92397	-91.39365
5662484	250	-1157	169	-3.05197	4.857351	344.2177	0	11.74	23756	0	0	5	5	0.02	1.884155	3	10	0.08	2800	335.5031	40.92397	-91.39365
5662567	1452	864	-162	-2.409585	4.457627	333.3731	0	11.74	23756	0	0	5	5	0.02	1.873088	3	10	0.08	2800	333.2968	40.92397	-91.39365
5662695	-339	661	150	-3.698986	2.708793	332.881	0	11.74	23756	0	0	5	5	0.02	1.856943	3	10	0.08	2800	332.6817	40.92397	-91.39365
5662761	1338	-932	-217	-2.153624	4.009591	332.9353	0	11.74	23756	0	0	5	5	0.02	1.83713	3	10	0.08	2800	333.2088	40.92397	-91.39365
5662896	-2042	919	876	-2.978697	2.310933	331.7094	0	11.74	23756	0	0	5	5	0.02	1.79701	3	10	0.08	2800	329.5365	40.92397	-91.39365
5663003	-1324	-109	398	-4.42709	2.059919	330.6824	0	11.74	23756	0	0	5	5	0.02	1.746595	3	10	0.08	2800	328.2705	40.92397	-91.39365
5663132	-1108	-292	1120	-6.253962	2.884653	329.7541	0	11.74	23756	0	0	5	5	0.02	1.7149	3	10	0.08	2800	328.125	40.92397	-91.39365
5663211	553	-783	-128	-8.097338	2.752005	329.0332	0	11.74	23756	0	0	5	5	0.02	1.652392	3	10	0.08	2800	326.9545	40.92397	-91.39365
5663326	1359	1139	-462	-6.455645	4.295283	329.3738	0	11.74	23756	0	0	5	5	0.02	1.626135	3	10	0.08	2800	324.6284	40.92397	-91.39365
5663383	552	1630	271	-5.453857	3.419078	329.4935	0	11.74	23756	0	0	5	5	0.02	1.558242	3	10	0.08	2800	325.5154	40.92397	-91.39365
5663496	-1332	417	-531	-5.812223	0.2670713	329.692	0	11.68	23756	0	0	5	5	0.02	1.49414	3	10	0.08	2800	324.1796	40.92397	-91.39365
5663573	-366	-101	-220	-6.1815	0.4488407	330.3101	0	11.68	23756	0	0	5	5	0.02	1.438137	3	10	0.08	2800	330.4447	40.92397	-91.39365
5663665	-3390	-116	-957	-11.1448	2.408237	330.2928	0	11.68	23756	0	0	5	5	0.02	1.396068	3	10	0.08	2800	328.5844	40.92397	-91.39365
5663810	-727	2143	57	-14.80031	-0.417302	330.8025	0	11.68	23756	0	0	5	5	0.02	1.315729	3	10	0.08	2800	331.814	40.92397	-91.39365
5663867	-2209	-818	-575	-15.73217	-0.6635059	330.89	0	11.68	23756	0	0	5	5	0.02	1.275764	3	10	0.08	2800	332.847	40.92397	-91.39365
5664017	-1032	-110	514	-15.42087	1.324478	331.6467	0	11.68	23756	0	0	5	5	0.02	1.192929	3	10	0.08	2800	334.3466	40.92397	-91.39365
5664110	1111	24	-704	-14.98638	1.08478	331.5796	0	11.68	23756	0	0	5	5	0.02	1.166269	3	10	0.08	2800	335.0287	40.92397	-91.39365
5664228	-162	521	1442	-10.92621	1.28385	329.6569	0	11.68	23756	0	0	5	5	0.02	1.12036	3	10	0.08	2800	333.7387	40.92397	-91.39365
5664320	1607	-304	60	-9.252212	-0.3734883	327.756	0	11.51	23756	0	0	5	5	0.02	1.077653	3	10	0.08	2800	332.9019	40.92397	-91.39365
5664351	3079	637	720	-7.584923	-0.3724579	327.4156	0	11.51	23756	0	0	5	5	0.02	1.069468	3	10	0.08	2800	332.9019	40.92397	-91.39365
5664483	2433	1664	56	-5.749758	-1.950603	325.922	0	11.51	23756	0	0	5	5	0.02	1.012102	3	10	0.08	2800	329.9223	40.92397	-91.39365
5664654	-733	-3233	-1846	-1.851869	0.03864584	328.484	0	11.51	23756	0	0	5	5	0.02	0.9481465	3	10	0.08	2800	333.1416	40.92397	-91.39365
5664715	-3945	-4417	-1658	-5.141897	4.61676	330.309	0	11.51	23756	0	0	5	5	0.02	0.9097428	3	10	0.08	2800	332.6952	40.92397	-91.39365
5664820	11599	13712	-80	-10.51178	9.686296	332.4688	0	11.51	23756	0	0	5	5	0.02	0.8732607	3	10	0.08	2800	332.0606	40.92397	-91.39365
5664870	-3211	5909	1581	-7.128583	-5.203467	329.811	0	11.51	23756	0	0	5	5	0.02	0.8242134	3	10	0.08	2800	337.5952	40.92397	-91.39365
5664964	-209	-1841	-301	-6.166505	-8.800329	330.0077	0	11.51	23756	0	0	5	5	0.02	0.7848775	3	10	0.08	2800	337.5911	40.92397	-91.39365
5665069	-2809	-2106	1386	-7.928096	-0.04990187	330.6033	0	11.51	23756	0	0	5	5	0.02	0.7113281	3	10	0.08	2800	332.6802	40.92397	-91.39365
5665231	275	338	78	-7.296939	-1.130211	330.5707	0	11.8	23756	0	0	5	5	0.02	0.6245091	3	10	0.08	2800	331.4338	40.92397	-91.39365
5665329	-86	-44	0	-7.104378	-1.36327	330.5456	0	11.8	23756	0	0	5	5	0.02	0.581492	3	10	0.08	2800	330.6749	40.92397	-91.39365
5665385	-95	49	4	-7.088617	-1.384786	330.5424	0	11.8	23756	0	0	5	5	0.02	0.5135008	3	10	0.08	2800	329.9421	40.92397	-91.39365
5665469	-24	-26	-5	-7.016071	-1.454609	330.5457	0	11.8	23756	0	0	5	5	0.02	0.4891661	3	10	0.08	2800	330.1956	40.92397	-91.39365
5665555	-42	30	-21	-6.949481	-1.534846	330.5347	0	11.8	23756	0	0	5	5	0.02	0.43646	3	10	0.08	2800	330.1922	40.92397	-91.39365
5665647	-72	16	-4	-6.900267	-1.576213	330.5262	0	11.8	23756	0	0	5	5	0.02	0.4094065	3	10	0.08	2800	329.8258	40.92397	-91.39365
5665763	-68	4	8	-6.813025	-1.661215	330.5193	0	11.8	23756	0	0	5	5	0.02	0.3801189	1	10	0.08	2800	330.3923	40.92397	-91.39365
5665884	-54	10	5	-6.765392	-1.718577	330.5132	0	11.8	23756	0	0	5	5	0.02	0.3482962	1	10	0.08	2800	329.916	40.92397	-91.39365
5665970	-56	-12	10	-6.723702	-1.758489	330.5088	0	11.8	23756	0	0	5	5	0.02	0.3202208	1	10	0.08	2800	330.4633	40.92397	-91.39365
5666067	-69	13	20	-6.659443	-1.828824	330.5005	0	11.8	23756	0	0	5	5	0.02	0.3002263	1	10	0.08	2800	329.9374	40.92397	-91.39365
5666196	-59	-7	13	-6.591247	-1.895534	330.4909	0	11.8	23756	0	0	5	5	0.02	0.2820969	1	10	0.08	2800	330.5847	40.92397	-91.39365
5666292	-64	0	1	-6.541436	-1.945492	330.485	0	11.8	23756	0	0	5	5	0.02	0.2678336	1	10	0.08	2800	330.7099	40.92397	-91.39365
5666347	-62	1	7	-6.512041	-1.976778	330.4789	0	11.8	23756	0	0	5	5	0.02	0.2647829	1	10	0.08	2800	329.7617	40.92397	-91.39365
5666458	-56	-1	5	-6.467293	-2.020701	330.4736	0	11.8	23756	0	0	5	5	0.02	0.2616026	1	10	0.08	2800	329.823	40.92397	-91.39365
5666552	-58	4	8	-6.438114	-2.046741	330.4678	0	11.8	23756	0	0	5	5	0.02	0.2572347	1	10	0.08	2800	329.7556	40.92397	-91.39365
5666662	-59	0	7	-6.384052	-2.094512	330.4608	0	11.8	23756	0	0	5	5	0.02	0.2527967	1	10	0.08	2800	329.2363	40.92397	-91.39365
5666756	-62	1	1	-6.36189	-2.12019	330.4563	0	11.8	23756	0	0	5	5	0.02	0.2531888	1	10	0.08	2800	329.8839	40.92397	-91.39365
5666872	-63	0	2	-6.313038	-2.16881	330.4499	0	11.8	23756	0	0	5	5	0.02	0.2424827	1	10	0.08	2800	329.9337	40.92397	-91.39365
5667005	-60	0	3	-6.278148	-2.203972	330.4445	0	11.8	23756	0	0	5	5	0.02	0.2437678	1	10	0.08	2800	329.769	40.92397	-91.39365
5667119	-62	0	5	-6.229605	-2.25639	330.4314	0	11.85	23756	0	0	5	5	0.02	0.2451297	1	10	0.08	2800	329.9028	40.92397	-91.39365
5667163	-62	2	3	-6.219182	-2.265941	330.4297	0	11.85	23756	0	0	5	5	0.02	0.2470543	1	10	0.08	2800	329.9028	40.92397	-91.39365
5667273	-53	5	3	-6.175839	-2.303046	330.4202	0	11.85	23756	0	0	5	5	0.02	0.25217	1	10	0.08	2800	330.1104	40.92397	-91.39365
5667379	-60	1	5	-6.156272	-2.321979	330.4176	0	11.85	23756	0	0	5	5	0.02	0.2546308	1	10	0.08	2800	329.5836	40.92397	-91.39365
5667500	-59	-2	2	-6.129533	-2.345308	330.4113	0	11.85	23756	0	0	5	5	0.02	0.2584174	1	10	0.08	2800	329.9144	40.92397	-91.39365
5667590	-60	-4	5	-6.091348	-2.375127	330.4041	0	11.85	23756	0	0	5	5	0.02	0.2627359	1	10	0.08	2800	329.922	40.92397	-91.39365
5667655	-56	1	4	-6.072965	-2.389026	330.401	0	11.85	23756	0	0	5	5	0.02	0.2654706	1	10	0.08	2800	329.7305	40.92397	-91.39365
5667768	-61	4	6	-6.053614	-2.410379	330.3938	0	11.85	23756	0	0	5	5	0.02	0.2724856	1	10	0.08	2800	330.1713	40.92397	-91.39365
5667877	-54	4	7	-6.019958	-2.437066	330.386	0	11.85	23756	0	0	5	5	0.02	0.2711559	1	10	0.08	2800	330.2379	40.92397	-91.39365
5667971	-62	0	6	-6.004314	-2.449462	330.3818	0	11.91	23756	0	0	5	5	0.02	0.2716923	1	10	0.08	2800	329.7884	40.92397	-91.39365
5668062	-62	2	10	-5.984001	-2.464215	330.3763	0	11.91	23756	0	0	5	5	0.02	0.2787775	1	10	0.08	2800	329.8829	40.92397	-91.39365
5668184	-55	2	0	-5.957647	-2.490225	330.3689	0	11.91	23756	0	0	5	5	0.02	0.2855381	1	10	0.08	2800	329.8049	40.92397	-91.39365
5668264	-63	0	4	-5.94954	-2.503567	330.3645	0	11.91	23756	0	0	5	5	0.02	0.2856342	1	10	0.08	2800	329.7133	40.92397	-91.39365
5668444	-62	0	3	-5.922178	-2.527605	330.3547	0	11.91	23756	0	0	5	5	0.02	0.2801945	1	10	0.08	2800	329.7566	40.92397	-91.39365
5668482	-60	0	0	-5.91706	-2.53186	330.3532	0	11.91	23756	0	0	5	5	0.02	0.2785743	1	10	0.08	2800	329.9377	40.92397	-91.39365
5668576	-57	-1	6	-5.899245	-2.548772	330.3462	0	11.91	23756	0	0	5	5	0.02	0.2760227	1	10	0.08	2800	330.2152	40.92397	-91.39365
5668690	-59	1	6	-5.880468	-2.565869	330.3383	0	11.91	23756	0	0	5	5	0.02	0.2729215	1	10	0.08	2800	330.2185	40.92397	-91.39365
5668765	-58	1	1	-5.868888	-2.574262	330.3338	0	11.91	23756	0	0	5	5	0.02	0.2745211	1	10	0.08	2800	330.0383	40.92397	-91.39365
5668929	-59	3	5	-5.842017	-2.59348	330.325	0	11.91	23756	0	0	5	5	0.02	0.2731344	1	10	0.08	2800	330.0636	40.92397	-91.39365
5668991	-61	4	8	-5.828014	-2.604763	330.3205	0	11.91	23756	0	0	5	5	0.02	0.2747339	1	10	0.08	2800	330.3353	40.92397	-91.39365
5669084	-57	4	1	-5.816353	-2.613122	330.3144	0	11.91	23756	0	0	5	5	0.02	0.2771804	1	10	0.08	2800	330.3014	40.92397	-91.39365
5669138	-63	2	4	-5.812793	-2.616247	330.3125	0	11.91	23756	0	0	5	5	0.02	0.2776258	1	10	0.08	2800	330.3014	40.92397	-91.39365
5669226	-62	3	4	-5.795209	-2.631933	330.304	0	11.91	23756	0	0	5	5	0.02	0.2801907	1	10	0.08	2800	330.3418	40.92397	-91.39365
5669301	-63	-5	4	-5.788322	-2.637726	330.3008	0	11.91	23756	0	0	5	5	0.02	0.2829403	1	10	0.08	2800	330.3581	40.92397	-91.39365
5669393	-54	1	-1	-5.780466	-2.643995	330.2983	0	11.91	23756	0	0	5	5	0.02	0.2881573	1	10	0.08	2800	329.8683	40.92397	-91.39365
5669590	-60	2	7	-5.765267	-2.658596	330.2863	0	11.91	23756	0	0	5	5	0.02	0.2964056	1	10	0.08	2800	330.4718	40.92397	-91.39365
5669619	-62	-2	-2	-5.761857	-2.661061	330.2849	0	11.91	23756	0	0	5	5	0.02	0.2964056	1	10	0.08	2800	330.4718	40.92397	-91.39365
5669708	-59	1	6	-5.750521	-2.669473	330.2796	0	11.91	23756	0	0	5	5	0.02	0.2994109	1	10	0.08	2800	330.8985	40.92397	-91.39365
5669800	-58	2	6	-5.744302	-2.673693	330.2766	0	11.91	23756	0	0	5	5	0.02	0.2977607	1	10	0.08	2800	330.7022	40.92397	-91.39365
5669940	-65	1	6	-5.733984	-2.682383	330.2677	0	11.91	23756	0	0	5	5	0.02	0.2911074	1	10	0.08	2800	330.3733	40.92397	-91.39365
5670004	-62	4	2	-5.732646	-2.684757	330.2659	0	11.91	23756	0	0	5	5	0.02	0.2917849	1	10	0.08	2800	330.7463	40.92397	-91.39365
5670128	-56	-3	3	-5.7203	-2.689784	330.2558	0	11.91	23756	0	0	5	5	0.02	0.2965016	1	10	0.08	2800	330.1866	40.92397	-91.39365
5670252	-57	-1	3	-5.713111	-2.692071	330.252	0	11.91	23756	0	0	5	5	0.02	0.301632	1	10	0.08	2800	330.2401	40.92397	-91.39365
5670371	-57	7	3	-5.704498	-2.698003	330.2472	0	11.91	23756	0	0	5	5	0.02	0.2965975	1	10	0.08	2800	329.9785	40.92397	-91.39365
5670410	-57	0	3	-5.703108	-2.699891	330.2455	0	11.91	23756	0	0	5	5	0.02	0.2960103	1	10	0.08	2800	330.1777	40.92397	-91.39365
5670647	-61	-1	4	-5.692295	-2.708046	330.2339	0	11.91	23756	0	0	5	5	0.02	0.2808027	1	10	0.08	2800	330.661	40.92397	-91.39365
5670790	-58	3	0	-5.685113	-2.715301	330.2275	0	11.91	23756	0	0	5	5	0.02	0.2760651	1	10	0.08	2800	330.5595	40.92397	-91.39365
5670884	-62	0	1	-5.675633	-2.717388	330.2239	0	11.91	23756	0	0	5	5	0.02	0.2677652	1	10	0.08	2800	330.444	40.92397	-91.39365
5670945	-56	1	0	-5.672385	-2.72122	330.2207	0	11.91	23756	0	0	5	5	0.02	0.2656484	1	10	0.08	2800	330.4949	40.92397	-91.39365
5671043	-63	0	4	-5.668599	-2.724537	330.2146	0	11.91	23756	0	0	5	5	0.02	0.2567219	1	10	0.08	2800	330.5931	40.92397	-91.39365
5671156	-54	6	0	-5.663569	-2.729804	330.2093	0	11.91	23756	0	0	5	5	0.02	0.2511599	1	10	0.08	2800	330.5972	40.92397	-91.39365
5671337	-57	0	6	-5.655659	-2.742271	330.1987	0	11.91	23756	0	0	5	5	0.02	0.2376951	1	10	0.08	2800	330.138	40.92397	-91.39365
5671432	-63	3	1	-5.648455	-2.74823	330.1921	0	11.91	23756	0	0	5	5	0.02	0.239421	1	10	0.08	2800	330.6587	40.92397	-91.39365
5671556	-61	3	5	-5.643069	-2.754374	330.1859	0	11.91	23756	0	0	5	5	0.02	0.2363741	1	10	0.08	2800	330.8427	40.92397	-91.39365
5671607	-58	3	6	-5.642173	-2.755076	330.183	0	11.91	23756	0	0	5	5	0.02	0.2351717	1	10	0.08	2800	330.8427	40.92397	-91.39365
5671700	-57	-1	0	-5.638229	-2.755895	330.1781	0	11.91	23756	0	0	5	5	0.02	0.2312683	1	10	0.08	2800	330.1411	40.92397	-91.39365
5671866	-57	1	0	-5.630993	-2.758193	330.1671	0	11.91	23756	0	0	5	5	0.02	0.2328492	1	10	0.08	2800	330.0186	40.92397	-91.39365
5671916	-57	6	3	-5.630749	-2.758611	330.1652	0	11.91	23756	0	0	5	5	0.02	0.2339312	1	10	0.08	2800	330.0186	40.92397	-91.39365
5672042	-57	4	0	-5.625134	-2.759733	330.1587	0	11.91	23756	0	0	5	5	0.02	0.2408843	1	10	0.08	2800	330.3992	40.92397	-91.39365
5672126	-60	4	4	-5.622535	-2.761451	330.1557	0	11.91	23756	0	0	5	5	0.02	0.2453447	1	10	0.08	2800	330.5074	40.92397	-91.39365
5672218	-59	2	1	-5.619459	-2.762672	330.1458	0	11.91	23756	0	0	5	5	0.02	0.2497457	1	10	0.08	2800	330.5361	40.92397	-91.39365
5672320	-56	2	3	-5.617431	-2.764631	330.1419	0	11.91	23756	0	0	5	5	0.02	0.258877	1	10	0.08	2800	330.6471	40.92397	-91.39365
5672434	-53	-2	1	-5.613229	-2.768302	330.1367	0	11.91	23756	0	0	5	5	0.02	0.2634094	1	10	0.08	2800	330.5403	40.92397	-91.39365
5672517	-60	5	6	-5.61151	-2.77081	330.1313	0	11.97	23756	0	0	5	5	0.02	0.2625054	1	10	0.08	2800	330.707	40.92397	-91.39366
5672625	-63	-2	1	-5.609272	-2.772744	330.1269	0	11.97	23756	0	0	5	5	0.02	0.2580738	1	10	0.08	2800	330.5473	40.92397	-91.39366
5672706	-61	0	5	-5.608353	-2.772389	330.124	0	11.97	23756	0	0	5	5	0.02	0.2547907	1	10	0.08	2800	330.4212	40.92397	-91.39366
5672854	-51	-1	6	-5.602526	-2.77489	330.117	0	11.97	23756	0	0	5	5	0.02	0.254535	1	10	0.08	2800	330.4281	40.92397	-91.39366
5672946	-59	-4	5	-5.603315	-2.77618	330.1133	0	11.97	23756	0	0	5	5	0.02	0.2516956	1	10	0.08	2800	330.6547	40.92397	-91.39366
5673067	-56	2	3	-5.60093	-2.777815	330.1059	0	11.97	23756	0	0	5	5	0.02	0.2443637	1	10	0.08	2800	330.5639	40.92397	-91.39366
5673173	-55	0	0	-5.599083	-2.779639	330.1002	0	11.97	23756	0	0	5	5	0.02	0.2467297	1	10	0.08	2800	330.0914	40.92397	-91.39366
5673292	-58	-1	4	-5.595946	-2.78515	330.0903	0	11.97	23756	0	0	5	5	0.02	0.2501163	1	10	0.08	2800	330.5586	40.92397	-91.39366
5673404	-55	-7	5	-5.591773	-2.783759	330.0812	0	11.97	23756	0	0	5	5	0.02	0.2477138	1	10	0.08	2800	330.4302	40.92397	-91.39366
5673484	-54	4	5	-5.590635	-2.784451	330.0764	0	11.97	23756	0	0	5	5	0.02	0.246189	1	10	0.08	2800	330.7749	40.92397	-91.39366
5673619	-59	0	9	-5.589282	-2.786278	330.0688	0	11.97	23756	0	0	5	5	0.02	0.2441228	1	10	0.08	2800	330.7857	40.92397	-91.39366
5673693	-57	-4	2	-5.589368	-2.784653	330.0634	0	11.97	23756	0	0	5	5	0.02	0.238347	1	10	0.08	2800	330.5462	40.92397	-91.39366
5673755	-56	-3	2	-5.586631	-2.783637	330.0621	0	11.97	23756	0	0	5	5	0.02	0.2357964	1	10	0.08	2800	330.3499	40.92397	-91.39366
5673897	-55	-2	1	-5.585783	-2.78362	330.0559	0	11.97	23756	0	0	5	5	0.02	0.2365074	1	10	0.08	2800	330.7864	40.92397	-91.39366
5674035	-60	-2	5	-5.578868	-2.783053	330.0495	0	11.97	23756	0	0	5	5	0.02	0.2343495	1	10	0.08	2800	329.9941	40.92397	-91.39366
5674215	-57	1	6	-5.576801	-2.782968	330.0412	0	11.97	23756	0	0	5	5	0.02	0.228115	1	10	0.08	2800	330.4757	40.92397	-91.39366
5674299	-55	-4	-2	-5.577647	-2.78115	330.0313	0	11.97	23756	0	0	5	5	0.02	0.2171358	1	10	0.08	2800	330.6289	40.92397	-91.39366
5674376	-59	2	3	-5.576324	-2.783448	330.0234	0	11.97	23756	0	0	5	5	0.02	0.2143513	1	10	0.08	2800	330.5131	40.92397	-91.39366
5674446	-57	3	3	-5.575217	-2.785364	330.0183	0	11.97	23756	0	0	5	5	0.02	0.2068285	1	10	0.08	2800	330.6795	40.92397	-91.39366
5674573	-56	2	5	-5.574241	-2.784037	330.0105	0	11.97	23756	0	0	5	5	0.02	0.1986917	1	10	0.08	2800	330.1022	40.92397	-91.39366
5674636	-53	-1	0	-5.573298	-2.786052	330.0074	0	11.97	23756	0	0	5	5	0.02	0.2008315	1	10	0.08	2800	330.6734	40.92397	-91.39366
5674721	-60	2	1	-5.570931	-2.787337	330.0047	0	11.97	23756	0	0	5	5	0.02	0.2068162	1	10	0.08	2800	331.2921	40.92397	-91.39366
5674774	-56	-5	2	-5.56924	-2.788611	330.0017	0	11.97	23756	0	0	5	5	0.02	0.2071241	1	10	0.08	2800	330.7106	40.92397	-91.39366
5674867	-54	-2	4	-5.56778	-2.788499	329.9995	0	11.97	23756	0	0	5	5	0.02	0.2043904	1	10	0.08	2800	330.5839	40.92397	-91.39366
5674983	-58	-7	7	-5.564966	-2.787441	329.9909	0	11.97	23756	0	0	5	5	0.02	0.1997819	1	10	0.08	2800	330.3603	40.92397	-91.39366
5675082	-56	1	0	-5.561976	-2.787904	329.9873	0	11.97	23756	0	0	5	5	0.02	0.1907341	1	10	0.08	2800	330.4994	40.92397	-91.39366
5675179	-56	0	7	-5.560318	-2.791821	329.98	0	11.97	23756	0	0	5	5	0.02	0.1860138	1	10	0.08	2800	330.2566	40.92397	-91.39366
5675345	-53	0	1	-5.555222	-2.792827	329.9707	0	11.97	23756	0	0	5	5	0.02	0.1859795	1	10	0.08	2800	330.8433	40.92397	-91.39366
5675409	-53	-1	9	-5.553698	-2.794091	329.966	0	11.97	23756	0	0	5	5	0.02	0.1849456	1	10	0.08	2800	330.3748	40.92397	-91.39366
5675528	-58	2	1	-5.55248	-2.79455	329.9587	0	11.97	23756	0	0	5	5	0.02	0.1851799	1	10	0.08	2800	330.0367	40.92397	-91.39366
5675585	-54	7	5	-5.552047	-2.794662	329.9561	0	11.97	23756	0	0	5	5	0.02	0.1889339	1	10	0.08	2800	330.0367	40.92397	-91.39366
5675739	-60	5	3	-5.550446	-2.79639	329.95	0	11.97	23756	0	0	5	5	0.02	0.1974341	1	10	0.08	2800	330.4507	40.92397	-91.39366
5675851	-57	-1	5	-5.550014	-2.796343	329.9455	0	11.97	23756	0	0	5	5	0.02	0.211804	1	10	0.08	2800	330.5108	40.92396	-91.39366
5675913	-57	0	1	-5.548755	-2.79706	329.9412	0	11.97	23756	0	0	5	5	0.02	0.2142477	1	10	0.08	2800	330.5059	40.92396	-91.39366
5675979	-61	5	5	-5.546064	-2.796162	329.9335	0	11.97	23756	0	0	5	5	0.02	0.2202077	1	10	0.08	2800	330.6534	40.92396	-91.39366
5676148	-59	0	6	-5.547804	-2.798432	329.9254	0	11.97	23756	0	0	5	5	0.02	0.2217506	1	10	0.08	2800	330.5103	40.92396	-91.39366
5676201	-60	1	4	-5.548223	-2.797009	329.9239	0	11.97	23756	0	0	5	5	0.02	0.2173847	1	10	0.08	2800	330.5148	40.92396	-91.39366
5676295	-58	2	0	-5.54773	-2.795909	329.9206	0	11.97	23756	0	0	5	5	0.02	0.2140282	1	10	0.08	2800	330.2807	40.92396	-91.39366
5676394	-56	4	4	-5.548465	-2.796636	329.9142	0	11.97	23756	0	0	5	5	0.02	0.2039977	1	10	0.08	2800	330.6889	40.92396	-91.39366
5676481	-55	-1	7	-5.545071	-2.79868	329.9054	0	11.97	23756	0	0	5	5	0.02	0.2015616	1	10	0.08	2800	330.5199	40.92396	-91.39366
5676588	-57	0	7	-5.540436	-2.795909	329.9002	0	11.97	23756	0	0	5	5	0.02	0.198796	1	10	0.08	2800	330.1576	40.92396	-91.39366
5676718	-57	-1	2	-5.538132	-2.796527	329.8947	0	11.97	23756	0	0	5	5	0.02	0.1933949	1	10	0.08	2800	330.5364	40.92396	-91.39366
5676780	-56	0	7	-5.539654	-2.796371	329.8916	0	11.97	23756	0	0	5	5	0.02	0.1934987	1	10	0.08	2800	330.7909	40.92396	-91.39366
5676881	-59	4	-1	-5.537907	-2.796072	329.8886	0	11.97	23756	0	0	5	5	0.02	0.1969955	1	10	0.08	2800	330.3366	40.92396	-91.39366
5676989	-54	-5	1	-5.53494	-2.795613	329.8849	0	11.97	23756	0	0	5	5	0.02	0.1950179	1	10	0.08	2800	330.3013	40.92396	-91.39366
5677121	-59	0	6	-5.532859	-2.791541	329.8789	0	11.97	23756	0	0	5	5	0.02	0.198959	1	10	0.08	2800	330.4428	40.92396	-91.39366
5677225	-58	-3	-1	-5.531399	-2.790695	329.8736	0	11.97	23756	0	0	5	5	0.02	0.2140143	1	10	0.08	2800	330.3621	40.92396	-91.39366
5677281	-54	-2	2	-5.530832	-2.790485	329.872	0	11.97	23756	0	0	5	5	0.02	0.2182373	1	10	0.08	2800	330.3621	40.92396	-91.39366
5677433	-54	3	3	-5.530307	-2.79034	329.8615	0	11.97	23756	0	0	5	5	0.02	0.224425	1	10	0.08	2800	330.7887	40.92396	-91.39366
5677518	-57	2	2	-5.528991	-2.790807	329.857	0	11.97	23756	0	0	5	5	0.02	0.2260085	1	10	0.08	2800	330.6619	40.92396	-91.39366
5677553	-49	0	0	-5.527843	-2.789856	329.855	0	11.97	23756	0	0	5	5	0.02	0.2277765	1	10	0.08	2800	330.8993	40.92396	-91.39366
5677701	-58	2	0	-5.519721	-2.785988	329.8479	0	11.97	23756	0	0	5	5	0.02	0.2382828	1	10	0.08	2800	330.6764	40.92396	-91.39366
5677942	-59	-1	3	-5.515604	-2.787242	329.8368	0	11.97	23756	0	0	5	5	0.02	0.2558487	1	10	0.08	2800	330.6971	40.92396	-91.39366
5678092	-58	0	5	-5.516386	-2.789721	329.8285	0	11.97	23756	0	0	5	5	0.02	0.2788138	1	10	0.08	2800	330.7176	40.92396	-91.39366
5678173	-55	-2	1	-5.515116	-2.790247	329.8251	0	11.97	23756	0	0	5	5	0.02	0.291501	1	10	0.08	2800	330.1215	40.92396	-91.39366
5678307	-57	3	2	-5.514397	-2.791184	329.8188	0	11.97	23756	0	0	5	5	0.02	0.3084633	1	10	0.08	2800	331.0605	40.92396	-91.39366
5678445	-56	2	2	-5.509085	-2.792682	329.8112	0	11.97	23756	0	0	5	5	0.02	0.3099707	1	10	0.08	2800	330.8293	40.92396	-91.39366
5678555	-52	-3	1	-5.506214	-2.791559	329.8071	0	11.97	23756	0	0	5	5	0.02	0.3082766	1	10	0.08	2800	330.936	40.92396	-91.39366
5678592	-56	0	3	-5.505186	-2.792278	329.8062	0	11.97	23756	0	0	5	5	0.02	0.3076069	1	10	0.08	2800	330.936	40.92396	-91.39366
5678692	-54	3	1	-5.501472	-2.790046	329.801	0	11.97	23756	0	0	5	5	0.02	0.3056277	1	10	0.08	2800	330.7187	40.92396	-91.39366
5678854	-58	4	3	-5.501468	-2.790273	329.7899	0	11.97	23756	0	0	5	5	0.02	0.2934608	1	10	0.08	2800	330.4834	40.92396	-91.39366
5678881	-54	1	1	-5.502408	-2.790833	329.7865	0	11.97	23756	0	0	5	5	0.02	0.2933017	1	10	0.08	2800	330.6198	40.92396	-91.39366
5678945	-53	1	4	-5.501493	-2.79066	329.7849	0	11.97	23756	0	0	5	5	0.02	0.2932846	1	10	0.08	2800	330.6127	40.92396	-91.39366
5679119	-56	-9	0	-5.499177	-2.790011	329.7763	0	11.97	23756	0	0	5	5	0.02	0.2882385	1	10	0.08	2800	331.3292	40.92396	-91.39366
5679234	-54	-1	3	-5.50003	-2.791575	329.7696	0	11.97	23756	0	0	5	5	0.02	0.2749999	1	10	0.08	2800	330.4807	40.92396	-91.39366
5679320	-52	-1	1	-5.496912	-2.792289	329.7675	0	11.97	23756	0	0	5	5	0.02	0.2668324	1	10	0.08	2800	330.5164	40.92396	-91.39366
5679396	-56	4	5	-5.492872	-2.796436	329.76	0	11.97	23756	0	0	5	5	0.02	0.2635333	1	10	0.08	2800	330.4225	40.92396	-91.39366
5679567	-53	-2	0	-5.493923	-2.79698	329.7544	0	11.97	23756	0	0	5	5	0.02	0.2543996	1	10	0.08	2800	330.5492	40.92396	-91.39366
5679637	-58	0	4	-5.491535	-2.798712	329.7486	0	11.97	23756	0	0	5	5	0.02	0.2530258	1	10	0.08	2800	330.5964	40.92396	-91.39366
5679795	-53	4	5	-5.484097	-2.801059	329.7437	0	11.97	23756	0	0	5	5	0.02	0.2559385	1	10	0.08	2800	330.7674	40.92396	-91.39366
5679895	-51	3	4	-5.48076	-2.802496	329.7412	0	11.97	23756	0	0	5	5	0.02	0.2624024	1	10	0.08	2800	330.8768	40.92396	-91.39366
5679940	-54	0	1	-5.480853	-2.800902	329.7389	0	11.97	23756	0	0	5	5	0.02	0.2659595	1	10	0.08	2800	330.8814	40.92396	-91.39366
5680122	-52	9	2	-5.47674	-2.805305	329.7258	0	11.97	23756	0	0	5	5	0.02	0.2628129	1	10	0.08	2800	330.7254	40.92396	-91.39366
5680200	-53	0	6	-5.475604	-2.806612	329.7202	0	11.97	23756	0	0	5	5	0.02	0.2609345	1	10	0.08	2800	330.3558	40.92396	-91.39366
5680267	-55	-1	0	-5.473335	-2.805801	329.7169	0	11.97	23756	0	0	5	5	0.02	0.263052	1	10	0.08	2800	330.7845	40.92396	-91.39366
5680350	-52	3	9	-5.472896	-2.804008	329.7132	0	11.97	23756	0	0	5	5	0.02	0.2669835	1	10	0.08	2800	330.2946	40.92396	-91.39366
5680401	-51	5	0	-5.473635	-2.807163	329.7083	0	12.02	23756	0	0	5	5	0.02	0.2708156	1	10	0.08	2800	330.4179	40.92396	-91.39366
5680500	-53	-1	5	-5.470228	-2.807623	329.7018	0	12.02	23756	0	0	5	5	0.02	0.2768856	1	10	0.08	2800	330.4256	40.92396	-91.39366
5680617	-54	-1	0	-5.472627	-2.806388	329.697	0	12.02	23756	0	0	5	5	0.02	0.2856197	1	10	0.08	2800	330.9179	40.92396	-91.39366
5680697	-54	-1	1	-5.470268	-2.806963	329.6956	0	12.02	23756	0	0	5	5	0.02	0.2939576	1	10	0.08	2800	330.3211	40.92396	-91.39366
5680831	-53	1	7	-5.4737	-2.806947	329.6895	0	12.02	23756	0	0	5	5	0.02	0.3051856	1	10	0.08	2800	330.7827	40.92396	-91.39366
5680977	-55	1	1	-5.469683	-2.805434	329.6841	0	12.02	23756	0	0	5	5	0.02	0.3227783	1	10	0.08	2800	330.5561	40.92396	-91.39366
5681029	-49	0	2	-5.463418	-2.803929	329.6808	0	12.02	23756	0	0	5	5	0.02	0.3241381	1	10	0.08	2800	330.799	40.92396	-91.39366
5681139	-53	3	4	-5.458773	-2.805867	329.6748	0	12.02	23756	0	0	5	5	0.02	0.3287916	1	10	0.08	2800	330.7858	40.92396	-91.39366
5681258	-56	2	6	-5.453392	-2.804338	329.6692	0	12.02	23756	0	0	5	5	0.02	0.3277319	1	10	0.08	2800	331.0337	40.92396	-91.39366
5681337	-53	1	3	-5.454382	-2.80553	329.666	0	11.97	23756	0	0	5	5	0.02	0.3297544	1	10	0.08	2800	330.905	40.92396	-91.39366
5681397	-50	-1	6	-5.454644	-2.806365	329.6642	0	11.97	23756	0	0	5	5	0.02	0.3310125	1	10	0.08	2800	330.905	40.92396	-91.39366
5681491	-49	0	4	-5.451732	-2.806405	329.6586	0	11.97	23756	0	0	5	5	0.02	0.3306426	1	10	0.08	2800	331.1712	40.92396	-91.39366
5681596	-47	-2	0	-5.451804	-2.80791	329.6541	0	11.97	23756	0	0	5	5	0.02	0.3309355	1	10	0.08	2800	331.0683	40.92396	-91.39366
