time(ms)	gyro_x(deg/s)	gyro_y(deg/s)	gyro_z(deg/s)	orientation_roll(deg)	orientation_pitch(deg)	orientation_yaw(deg)	throttle	battery(V)	loop_time(uS)	pid_output_roll	pid_output_pitch	pid_output_yaw	pid_output_throttle	ultrasonic_alt	baro_alt	flight_mode	p_gain_altitude	i_gain_altitude	d_gain_altitude	compass_heading	latitude	longitude
251890	-40	8	4	-0.8825279	0.007883023	-1.270096	0	11.8	4004	0	0	5	5	0.2647958	0.1878789	8	10	0.03	1800	-5.826904	40.92395	-91.39365
251996	-39	3	4	-0.8835248	0.007385927	-1.273887	0	11.8	4003	0	0	5	5	0.2647958	0.1820437	8	10	0.03	1800	-5.828217	40.92395	-91.39365
252142	-30	-3	4	-0.8740043	0.005522174	-1.283975	0	11.74	4004	0	0	5	5	0.2647958	0.1752527	8	10	0.03	1800	-6.066254	40.92395	-91.39365
252204	-37	-5	8	-0.8745075	0.008255708	-1.287093	0	11.74	4003	0	0	5	5	0.2647958	0.1698107	8	10	0.03	1800	-5.837616	40.92395	-91.39365
252306	-29	4	5	-0.8783326	0.01088751	-1.293207	0	11.74	4004	0	0	5	5	0.2647958	0.1607445	8	10	0.03	1800	-5.856689	40.92395	-91.39365
252427	-40	5	4	-0.8711112	0.008540496	-1.30409	0	11.74	4004	0	0	5	5	0.2647958	0.1490392	8	10	0.03	1800	-5.818634	40.92395	-91.39365
252519	-33	3	7	-0.8688619	0.006948803	-1.30788	0	11.74	4004	0	0	5	5	0.2647958	0.1446818	8	10	0.03	1800	-6.048126	40.92395	-91.39365
252617	-34	3	3	-0.8592829	0.00374543	-1.31595	0	11.74	4004	0	0	5	5	0.2647958	0.1465364	8	10	0.03	1800	-6.084534	40.92395	-91.39365
252775	-37	3	2	-0.8614718	-0.002490366	-1.326283	0	11.74	4002	0	0	5	5	0.2647958	0.1472647	3	10	0.03	1800	-5.840515	40.92395	-91.39365
252890	-33	-1	4	-0.8618513	0.0008487238	-1.335821	0	11.74	4004	0	0	5	5	0.2647958	0.1521902	3	10	0.03	1800	-6.065369	40.92395	-91.39365
252918	-33	-1	4	-0.8618513	0.0008487238	-1.335821	0	11.74	4004	0	0	5	5	0.2647958	0.1535495	3	10	0.03	1800	-6.065369	40.92395	-91.39365
253032	-38	1	2	-0.8582882	-0.0006588799	-1.344319	0	11.74	4003	0	0	5	5	0.2647958	0.1554648	3	10	0.03	1800	-6.1008	40.92395	-91.39365
253152	-37	3	3	-0.8591625	0.0008262598	-1.350738	0	11.8	4003	0	0	5	5	0.2647958	0.1616839	3	10	0.03	1800	-5.861816	40.92395	-91.39365
253264	-37	3	-2	-0.8586846	0.004120905	-1.361315	0	11.8	4002	0	0	5	5	0.2647958	0.1703835	3	10	0.03	1800	-5.843475	40.92395	-91.39365
253325	-32	1	1	-0.8606663	0.005862462	-1.362294	0	11.8	4004	0	0	5	5	0.2647958	0.1701468	3	10	0.03	1800	-5.843475	40.92395	-91.39365
253480	-27	1	2	-0.8675388	0.003430277	-1.373054	0	11.8	4004	0	0	5	5	0.1924878	0.1711841	8	10	0.03	1800	-5.822632	40.92395	-91.39365
253576	-34	0	5	-0.8663607	0.001726639	-1.380451	0	11.8	4002	0	0	5	5	0.1662772	0.1756658	8	10	0.03	1800	-6.076385	40.92395	-91.39365
253690	-37	7	4	-0.8651817	0.001279061	-1.389194	0	11.8	4004	0	0	5	5	0.1359956	0.1828017	8	10	0.03	1800	-6.058014	40.92395	-91.39365
253731	-30	3	0	-0.8625976	0.001681341	-1.392006	0	11.8	4004	0	0	5	5	0.1205185	0.1907271	8	10	0.03	1800	-6.058014	40.92395	-91.39365
253834	-31	0	0	-0.8575596	0.009704516	-1.399343	0	11.8	4003	0	0	5	5	0.1026375	0.1952469	8	10	0.03	1800	-5.865173	40.92395	-91.39365
254060	-33	2	4	-0.8549508	0.01401986	-1.41426	0	11.74	4002	0	0	5	5	0.07754331	0.1991079	8	10	0.03	1800	-5.845825	40.92395	-91.39365
254182	-29	-3	3	-0.8509262	0.01354438	-1.420864	0	11.74	4003	0	0	5	5	0.07130861	0.1994028	8	10	0.03	1800	-6.076385	40.92395	-91.39365
254263	-30	3	6	-0.8424743	0.01616188	-1.431196	0	11.74	4003	0	0	5	5	0.068122	0.2022206	8	10	0.03	1800	-5.863647	40.92395	-91.39365
254401	-33	8	0	-0.8383545	0.0146899	-1.439327	0	11.74	4003	0	0	5	5	0.06255881	0.2088603	8	10	0.03	1800	-5.890808	40.92395	-91.39365
254487	-33	-7	5	-0.8415546	0.01383823	-1.443913	0	11.74	4003	0	0	5	5	0.06103466	0.2052684	8	10	0.03	1800	-5.873718	40.92395	-91.39365
254586	-36	4	0	-0.833213	0.02137559	-1.452961	0	11.74	4004	0	0	5	5	0.05880012	0.1991735	8	10	0.03	1800	-5.900421	40.92395	-91.39365
254642	-32	2	6	-0.8321756	0.02054144	-1.456813	0	11.74	4003	0	0	5	5	0.05837381	0.1984822	8	10	0.03	1800	-5.85498	40.92395	-91.39365
254755	-38	1	12	-0.8422316	0.01784894	-1.469406	0	11.74	4004	0	0	5	5	0.05733403	0.1843478	8	10	0.03	1800	-6.090698	40.92395	-91.39365
254918	-32	-1	8	-0.8464437	0.02054788	-1.482366	0	11.74	4004	0	0	5	5	0.05618862	0.1677645	8	10	0.03	1800	-5.857422	40.92395	-91.39365
255010	-32	7	-3	-0.8444384	0.01622617	-1.490499	0	11.74	4004	0	0	5	5	0.05574103	0.151261	8	10	0.03	1800	-5.859192	40.92395	-91.39365
255068	-36	0	6	-0.8460776	0.01598291	-1.495389	0	11.74	4003	0	0	5	5	0.05562063	0.148768	8	10	0.03	1800	-6.085388	40.92395	-91.39365
255212	-34	-4	1	-0.8523302	0.01243075	-1.503949	0	11.74	4003	0	0	5	5	0.05517687	0.1374814	3	10	0.03	1800	-6.078796	40.92395	-91.39365
255339	-32	1	0	-0.8447378	0.01220953	-1.512814	0	11.74	4002	0	0	5	5	0.05500346	0.1325556	3	10	0.03	1800	-5.858154	40.92395	-91.39365
255414	-33	3	5	-0.8451043	0.00624197	-1.518195	0	11.74	4003	0	0	5	5	0.05487705	0.1243389	3	10	0.03	1800	-5.890686	40.92395	-91.39365
255522	-32	0	7	-0.8426066	0.006558089	-1.522536	0	11.74	4003	0	0	5	5	0.0547849	0.12414	3	10	0.03	1800	-5.876617	40.92395	-91.39365
255653	-35	2	11	-0.841188	0.01167218	-1.536658	0	11.74	4002	0	0	5	5	0.05468338	0.1295619	3	10	0.03	1800	-6.075623	40.92395	-91.39365
255757	-33	-6	4	-0.8341668	0.008697247	-1.54589	0	11.74	4002	0	0	5	5	0.05465557	0.1321147	3	10	0.03	1800	-5.90921	40.92395	-91.39365
255928	-22	-2	3	-0.82966	0.01031675	-1.556956	0	11.74	4002	0	0	5	5	0.05460001	0.1304834	3	10	0.03	1800	-5.864838	40.92395	-91.39365
255987	-28	1	1	-0.8282116	0.007373608	-1.56203	0	11.74	4002	0	0	5	5	0.05459371	0.1293228	3	10	0.03	1800	-6.157959	40.92395	-91.39365
256061	-39	-2	2	-0.8292149	0.005425666	-1.566126	0	11.74	4002	0	0	5	5	0.05458294	0.1257467	3	10	0.03	1800	-6.102997	40.92395	-91.39365
256205	-33	3	1	-0.8248312	0.008304084	-1.573952	0	11.74	4004	0	0	5	5	0.05456413	0.1140666	3	10	0.03	1800	-5.911896	40.92395	-91.39365
256269	-36	7	0	-0.8214515	0.004754829	-1.578659	0	11.74	4003	0	0	5	5	0.05455897	0.1093811	3	10	0.03	1800	-6.150543	40.92395	-91.39365
256365	-33	-1	6	-0.8112358	0.008002895	-1.584895	0	11.74	4002	0	0	5	5	0.05455302	0.1012476	3	10	0.03	1800	-6.131592	40.92395	-91.39365
256490	-27	-4	4	-0.8022543	0.01052905	-1.592355	0	11.74	4003	0	0	5	5	0.05454868	0.08903529	3	10	0.03	1800	-6.174255	40.92395	-91.39365
256569	-28	-3	2	-0.8004208	0.01393303	-1.598407	0	11.74	4002	0	0	5	5	0.05454551	0.08537645	3	10	0.03	1800	-5.953308	40.92395	-91.39365
256685	-37	7	3	-0.7972538	0.01305895	-1.605621	0	11.74	4003	0	0	5	5	0.0545432	0.08350684	3	10	0.03	1800	-6.183289	40.92395	-91.39365
256792	-23	-4	4	-0.794186	0.009653346	-1.611307	0	11.8	4004	0	0	5	5	0.05454107	0.08101105	3	10	0.03	1800	-6.183899	40.92395	-91.39365
256998	-33	0	4	-0.7894025	0.01033497	-1.619132	0	11.8	4002	0	0	5	5	0.05453916	0.0885239	3	10	0.03	1800	-5.979309	40.92395	-91.39365
257106	-23	3	0	-0.7925063	0.00962244	-1.623718	0	11.8	4004	0	0	5	5	0.05453857	0.0947763	3	10	0.03	1800	-6.196198	40.92395	-91.39365
257190	-25	-3	7	-0.7881795	0.007935886	-1.625797	0	11.8	4004	0	0	5	5	0.05453815	0.1016775	3	10	0.03	1800	-5.9729	40.92395	-91.39365
257264	-25	-3	1	-0.7875529	0.004635576	-1.630933	0	11.8	4004	0	0	5	5	0.05453793	0.1061951	3	10	0.03	1800	-5.949005	40.92395	-91.39365
257404	-33	3	3	-0.7869378	0.01077764	-1.638148	0	11.8	4004	0	0	5	5	0.05453755	0.1025707	3	10	0.03	1800	-5.98172	40.92395	-91.39365
257481	-30	-2	0	-0.7857952	0.01188431	-1.641083	0	11.8	4003	0	0	5	5	0.05453745	0.0971022	3	10	0.03	1800	-6.19928	40.92395	-91.39365
257666	-22	-4	1	-0.7823082	0.006328898	-1.651414	0	11.8	4003	0	0	5	5	0.05453726	0.09403319	3	10	0.03	1800	-6.202209	40.92395	-91.39365
257715	-32	-3	5	-0.7861478	0.01055927	-1.653188	0	11.74	4009	0	0	5	5	0.05453723	0.09464116	3	10	0.03	1800	-6.179504	40.92395	-91.39365
257854	-22	0	1	-0.7858964	0.01235329	-1.663153	0	11.74	4002	0	0	5	5	0.05453714	0.09479511	3	10	0.03	1800	-5.972961	40.92395	-91.39365
257907	-35	-3	5	-0.7854735	0.01584074	-1.665415	0	11.74	4003	0	0	5	5	0.05453711	0.09630951	3	10	0.03	1800	-6.180847	40.92395	-91.39365
257989	-31	5	5	-0.7823513	0.01192602	-1.670796	0	11.74	4002	0	0	5	5	0.05453709	0.1004035	3	10	0.03	1800	-6.180847	40.92395	-91.39365
258071	-28	-7	5	-0.7800208	0.0129052	-1.676176	0	11.74	4003	0	0	5	5	0.05453707	0.1053411	3	10	0.03	1800	-6.432983	40.92395	-91.39365
258189	-23	-7	3	-0.7702255	0.02027502	-1.681556	0	11.74	4002	0	0	5	5	0.05453705	0.1096992	3	10	0.03	1800	-6.190643	40.92395	-91.39365
258323	-30	5	1	-0.7639152	0.01680675	-1.691337	0	11.74	4002	0	0	5	5	0.05453703	0.1174923	3	10	0.03	1800	-6.460754	40.92395	-91.39365
258392	-29	4	2	-0.7648669	0.01492567	-1.694027	0	11.74	4003	0	0	5	5	0.05453702	0.1174278	3	10	0.03	1800	-5.984344	40.92395	-91.39365
258461	-28	3	2	-0.76201	0.01218805	-1.696228	0	11.74	4003	0	0	5	5	0.05453702	0.1158404	3	10	0.03	1800	-5.991333	40.92395	-91.39365
258566	-37	2	2	-0.7651007	0.008847193	-1.704788	0	11.74	4002	0	0	5	5	0.05453701	0.111913	3	10	0.03	1800	-5.778198	40.92395	-91.39365
258671	-34	-6	9	-0.769484	0.0125942	-1.709006	0	11.8	4002	0	0	5	5	0.05453701	0.1134177	3	10	0.03	1800	-6.212463	40.92395	-91.39365
258794	-21	0	7	-0.7724096	0.01561996	-1.716709	0	11.8	4003	0	0	5	5	0.05453701	0.1120677	3	10	0.03	1800	-6.222015	40.92395	-91.39365
258882	-25	0	3	-0.7766604	0.01646515	-1.725635	0	11.8	4002	0	0	5	5	0.05453701	0.1121488	3	10	0.03	1800	-6.217865	40.92395	-91.39365
258972	-34	-1	3	-0.7735642	0.01171632	-1.729365	0	11.8	4004	0	0	5	5	0.05453701	0.1141657	3	10	0.03	1800	-5.945068	40.92395	-91.39365
259068	-27	-1	9	-0.7745901	0.01646193	-1.733339	0	11.8	4003	0	0	5	5	0.05453701	0.1185434	3	10	0.03	1800	-5.99588	40.92395	-91.39365
259184	-19	6	8	-0.7850596	0.01429316	-1.73982	0	11.8	4002	0	0	5	5	0.05453701	0.1274314	3	10	0.03	1800	-5.981934	40.92395	-91.39365
259320	-35	2	4	-0.7844775	0.00845432	-1.743855	0	11.8	4002	0	0	5	5	0.05453701	0.1228158	3	10	0.03	1800	-5.958038	40.92395	-91.39365
259446	-32	-1	5	-0.7877491	0.009502787	-1.754799	0	11.8	4003	0	0	5	5	0.05453701	0.1154375	3	10	0.03	1800	-5.997009	40.92395	-91.39365
259569	-26	-4	4	-0.7820905	0.01301565	-1.761585	0	11.74	4002	0	0	5	5	0.05453701	0.1064155	3	10	0.03	1800	-6.208923	40.92395	-91.39365
259581	-29	2	2	-0.7784091	0.0108028	-1.76348	0	11.74	4003	0	0	5	5	0.05453701	0.1064155	3	10	0.03	1800	-5.765656	40.92395	-91.39365
259677	-29	-1	2	-0.7805239	0.01296762	-1.769899	0	11.74	4003	0	0	5	5	0.05453701	0.08781835	3	10	0.03	1800	-6.405334	40.92395	-91.39365
259769	-24	2	5	-0.7730252	0.01683855	-1.773262	0	11.74	4003	0	0	5	5	0.05453701	0.08056484	3	10	0.03	1800	-6.240173	40.92395	-91.39365
259916	-31	5	4	-0.7718529	0.01613544	-1.780171	0	11.74	4003	0	0	5	5	0.05453701	0.07942364	3	10	0.03	1800	-5.986328	40.92395	-91.39365
260023	-24	4	4	-0.775964	0.01586056	-1.784512	0	11.74	4003	0	0	5	5	0.05453701	0.07493625	3	10	0.03	1800	-5.989899	40.92395	-91.39365
260123	-28	-1	3	-0.7835274	0.01275335	-1.78867	0	11.74	4004	0	0	5	5	0.05453701	0.06914363	3	10	0.03	1800	-6.216095	40.92395	-91.39365
260180	-28	3	7	-0.7848082	0.01249141	-1.792828	0	11.74	4003	0	0	5	5	0.05453701	0.06828923	3	10	0.03	1800	-5.954956	40.92395	-91.39365
260250	-27	-1	-5	-0.7819829	0.01839199	-1.798512	0	11.74	4003	0	0	5	5	0.05453701	0.06906216	3	10	0.03	1800	-6.204407	40.92395	-91.39365
260412	-27	0	8	-0.7757363	0.01764208	-1.802425	0	11.8	4004	0	0	5	5	0.05453701	0.06387282	3	10	0.03	1800	-6.183441	40.92395	-91.39365
260450	-29	3	5	-0.7731197	0.01665671	-1.811168	0	11.8	4002	0	0	5	5	0.05453701	0.06475383	3	10	0.03	1800	-5.998657	40.92395	-91.39365
260555	-28	3	3	-0.7750362	0.02142423	-1.816059	0	11.8	4003	0	0	5	5	0.05453701	0.06710231	3	10	0.03	1800	-6.437592	40.92395	-91.39365
260684	-37	5	2	-0.7686689	0.01811932	-1.824741	0	11.8	4004	0	0	5	5	0.05453701	0.06662509	3	10	0.03	1800	-6.204468	40.92395	-91.39365
260737	-24	3	1	-0.7671373	0.02178586	-1.825536	0	11.8	4004	0	0	5	5	0.05453701	0.06475825	3	10	0.03	1800	-6.200439	40.92395	-91.39365
260842	-26	0	6	-0.7602341	0.01535644	-1.832384	0	11.8	4004	0	0	5	5	0.05453701	0.05756935	3	10	0.03	1800	-6.020691	40.92395	-91.39365
260962	-28	-5	7	-0.7534538	0.01735095	-1.839415	0	11.8	4004	0	0	5	5	0.05453701	0.04683659	3	10	0.03	1800	-6.23233	40.92395	-91.39365
261045	-30	0	3	-0.7542265	0.02540328	-1.842105	0	11.8	4002	0	0	5	5	0.05453701	0.04890097	3	10	0.03	1800	-6.248413	40.92395	-91.39365
261172	-20	-1	7	-0.7593471	0.02099903	-1.849625	0	11.8	4003	0	0	5	5	0.05453701	0.06038471	3	10	0.03	1800	-6.219269	40.92395	-91.39365
261247	-20	-1	10	-0.761333	0.01720756	-1.854149	0	11.8	4003	0	0	5	5	0.05453701	0.07060212	3	10	0.03	1800	-6.014313	40.92395	-91.39365
261402	-27	2	6	-0.7641427	0.0114676	-1.860631	0	11.74	4002	0	0	5	5	0.05453701	0.08418585	3	10	0.03	1800	-6.232056	40.92395	-91.39365
261467	-33	-2	0	-0.7635283	0.007492724	-1.866133	0	11.74	4002	0	0	5	5	0.05453701	0.08516172	3	10	0.03	1800	-6.23526	40.92395	-91.39365
261612	-34	4	7	-0.7704001	0.01819549	-1.875915	0	11.74	4002	0	0	5	5	0.05453701	0.09683426	3	10	0.03	1800	-6.22403	40.92395	-91.39365
261726	-26	1	-1	-0.7667049	0.02022737	-1.883863	0	11.74	4003	0	0	5	5	0.05453701	0.1059987	3	10	0.03	1800	-5.9841	40.92395	-91.39365
261750	-33	6	0	-0.764754	0.0181826	-1.885942	0	11.74	4003	0	0	5	5	0.05453701	0.1070294	3	10	0.03	1800	-5.9841	40.92395	-91.39365
261853	-26	2	3	-0.7627441	0.01634596	-1.888938	0	11.74	4003	0	0	5	5	0.05453701	0.1177603	3	10	0.03	1800	-6.211731	40.92395	-91.39365
261948	-20	-1	8	-0.7642006	0.01159977	-1.896335	0	11.74	4003	0	0	5	5	0.05453701	0.1285799	3	10	0.03	1800	-6.233063	40.92395	-91.39365
262111	-25	0	4	-0.7557038	0.01443836	-1.905323	0	11.74	4002	0	0	5	5	0.05453701	0.1302297	3	10	0.03	1800	-6.226318	40.92395	-91.39365
262206	-30	8	4	-0.7572749	0.005233808	-1.912232	0	11.74	4004	0	0	5	5	0.05453701	0.1273273	3	10	0.03	1800	-6.245972	40.92395	-91.39365
262261	-26	-2	0	-0.7557518	0.004844127	-1.913822	0	11.74	4002	0	0	5	5	0.05453701	0.1243406	3	10	0.03	1800	-6.245972	40.92395	-91.39365
262443	-29	5	2	-0.7521344	0.005479873	-1.929289	0	11.74	4004	0	0	5	5	0.05453701	0.1194927	3	10	0.03	1800	-6.229034	40.92395	-91.39365
262477	-29	1	4	-0.7522764	0.004438702	-1.931489	0	11.74	4003	0	0	5	5	0.05453701	0.1181792	3	10	0.03	1800	-6.229034	40.92395	-91.39365
262594	-31	0	1	-0.7510954	0.002595741	-1.940537	0	11.74	4003	0	0	5	5	0.05453701	0.1204702	3	10	0.03	1800	-6.034149	40.92395	-91.39365
262673	-22	4	5	-0.7577353	0.004926478	-1.945367	0	11.74	4004	0	0	5	5	0.05453701	0.1267724	3	10	0.03	1800	-6.230042	40.92395	-91.39365
262783	-28	1	3	-0.7550784	0.006955845	-1.952703	0	11.74	4002	0	0	5	5	0.05453701	0.1323667	3	10	0.03	1800	-6.250732	40.92395	-91.39365
262890	-33	1	0	-0.7526887	0.004871273	-1.955638	0	11.74	4003	0	0	5	5	0.05453701	0.1449632	3	10	0.03	1800	-6.256042	40.92395	-91.39365
262949	-23	0	0	-0.7493764	0.007425875	-1.958145	0	11.74	4007	0	0	5	5	0.05453701	0.1493182	3	10	0.03	1800	-6.256042	40.92395	-91.39365
263041	-13	-7	-31	-0.7471135	0.00620693	-1.95509	0	11.74	4002	0	0	5	5	0.05453701	0.1545462	3	10	0.03	1800	-6.730896	40.92395	-91.39365
263190	1	30	-41	-0.7551036	0.01001847	-1.975578	0	11.8	4003	0	0	5	5	0.05453701	0.1500701	3	10	0.03	1800	-6.693085	40.92395	-91.39365
263384	-2	-24	-75	-0.7664806	0.02360759	-1.962139	0	11.8	4003	0	0	5	5	0.05453701	0.1364847	3	10	0.03	1800	-6.466797	40.92395	-91.39365
263501	-112	182	91	-0.4459273	0.4124672	-1.957187	0	11.8	4003	0	0	5	5	0.05453701	0.135472	3	10	0.03	1800	-6.187897	40.92395	-91.39365
263541	100	-40	36	-0.5334103	0.3408953	-1.957306	0	11.8	4002	0	0	5	5	0.05453701	0.136524	3	10	0.03	1800	-6.187897	40.92395	-91.39365
263679	70	44	-95	-0.4620762	0.4636306	-1.948255	0	11.8	4003	0	0	5	5	0.05453701	0.1423405	3	10	0.03	1800	-6.856934	40.92395	-91.39365
263751	75	-42	-105	-0.4364325	0.4283012	-1.952056	0	11.8	4002	0	0	5	5	0.05453701	0.1457806	3	10	0.03	1800	-5.814514	40.92395	-91.39365
263892	134	-26	17	-0.4194101	0.4564897	-1.96544	0	11.8	4004	0	0	5	5	0.05453701	0.1496731	3	10	0.03	1800	-6.323914	40.92395	-91.39365
263959	19	78	-56	-0.4166657	0.4608468	-1.972168	0	11.8	4004	0	0	5	5	0.05453701	0.1499172	3	10	0.03	1800	-6.34494	40.92395	-91.39365
264171	2	-1	-234	-0.4782985	0.4586024	-1.972967	0	11.8	4004	0	0	5	5	0.05453701	0.1374936	3	10	0.03	1800	-6.620483	40.92395	-91.39365
264350	-250	-26	-139	-0.504998	0.4762448	-1.987762	0	11.8	4004	0	0	5	5	0.05453701	0.1289847	3	10	0.03	1800	-6.210114	40.92395	-91.39365
264429	145	18	63	-0.4800913	0.4829746	-2.008852	0	11.8	4002	0	0	5	5	0.05453701	0.1280219	3	10	0.03	1800	-6.463379	40.92395	-91.39365
264571	95	5	204	-0.4910802	0.5190508	-2.022181	0	11.8	4003	0	0	5	5	0.05453701	0.1290492	3	10	0.03	1800	-6.09494	40.92395	-91.39365
264656	-37	-187	-112	-0.5170423	0.5487512	-2.018852	0	11.8	4003	0	0	5	5	0.05453701	0.1310004	3	10	0.03	1800	-6.259033	40.92395	-91.39365
264801	56	92	-51	-0.4764216	0.5154283	-2.037549	0	11.8	4003	0	0	5	5	0.05453701	0.1309531	3	10	0.03	1800	-6.525543	40.92395	-91.39365
264912	64	-109	-144	-0.4455334	0.5496602	-2.045058	0	11.8	4002	0	0	5	5	0.05453701	0.1313372	3	10	0.03	1800	-6.468384	40.92395	-91.39365
264997	-119	150	-510	-0.4291153	0.5303713	-2.04756	0	11.8	4004	0	0	5	5	0.05453701	0.1336371	3	10	0.03	1800	-6.573212	40.92395	-91.39365
265061	-57	-12	-327	-0.4467327	0.5615024	-2.081094	0	11.63	4002	0	0	5	5	0.05453701	0.1337318	3	10	0.03	1800	-6.029327	40.92395	-91.39365
265285	2	-38	-11	-0.4676076	0.5562271	-2.109553	0	11.63	4003	0	0	5	5	0.05453701	0.1440423	3	10	0.03	1800	-6.114502	40.92395	-91.39365
265390	0	-84	396	-0.4955649	0.5516891	-2.120698	0	11.63	4003	0	0	5	5	0.05453701	0.1664283	3	10	0.03	1800	-6.372986	40.92395	-91.39365
265481	-123	-12	-32	-0.4087561	0.4591103	-2.129141	0	11.63	4003	0	0	5	5	0.05453701	0.1764594	3	10	0.03	1800	-6.131683	40.92395	-91.39365
265597	-171	31	-48	-0.6244572	0.5566192	-2.097544	0	11.63	4003	0	0	5	5	0.05453701	0.1868021	3	10	0.03	1800	-6.659393	40.92395	-91.39365
265679	159	-18	-390	-0.5234284	0.5922846	-2.120775	0	11.63	4003	0	0	5	5	0.05453701	0.2078056	3	10	0.03	1800	-5.831787	40.92395	-91.39365
265835	13	22	-205	-0.4769213	0.5838252	-2.169439	0	11.63	4003	0	0	5	5	0.05453701	0.2352683	3	10	0.03	1800	-5.691101	40.92395	-91.39365
265940	-90	67	395	-0.5109564	0.4981998	-2.284408	0	11.34	4002	0	0	5	5	0.05453701	0.2545387	3	10	0.03	1800	-6.26474	40.92395	-91.39365
265964	-90	67	395	-0.5109564	0.4981998	-2.284408	0	11.34	4002	0	0	5	5	0.05453701	0.2597009	3	10	0.03	1800	-6.26474	40.92395	-91.39365
266104	98	47	-639	-0.4334021	0.4529382	-2.376632	0	11.34	4004	0	0	5	5	0.05453701	0.2867639	3	10	0.03	1800	-6.360046	40.92395	-91.39365
266178	52	-13	-425	-0.3270171	0.4176385	-2.375294	0	11.34	4004	0	0	5	5	0.05453701	0.2994967	3	10	0.03	1800	-5.756348	40.92395	-91.39365
266320	31	154	-125	-0.3254536	0.2825205	-2.37863	0	11.34	4004	0	0	5	5	0.05453701	0.317844	3	10	0.03	1800	-6.072784	40.92395	-91.39365
266377	-23	113	-204	-0.3574478	0.3338027	-2.369017	0	11.34	4004	0	0	5	5	0.05453701	0.3220849	3	10	0.03	1800	-6.468781	40.92395	-91.39365
266475	-63	150	-696	-0.3431645	0.2386589	-2.351883	0	11.34	4004	0	0	5	5	0.05453701	0.3282211	3	10	0.03	1800	-6.630371	40.92395	-91.39365
266578	-138	-119	826	-0.2948718	0.2585948	-2.394732	0	11.34	4003	0	0	5	5	0.05453701	0.3387178	3	10	0.03	1800	-5.837189	40.92395	-91.39365
266688	-309	37	782	-0.3426388	0.1045326	-2.436689	0	11.34	4004	0	0	5	5	0.05453701	0.3413717	3	10	0.03	1800	-5.858368	40.92395	-91.39365
266779	196	38	-216	-0.3224368	0.1598858	-2.412316	0	11.34	4004	0	0	5	5	0.05453701	0.3363812	3	10	0.03	1800	-5.858368	40.92395	-91.39365
266883	225	117	486	-0.2815762	-0.02640914	-2.429479	0	11.74	4002	0	0	5	5	0.05453701	0.3299346	3	10	0.03	1800	-6.234833	40.92395	-91.39365
267051	94	85	-33	-0.3519858	-0.1281495	-2.443263	0	11.74	4003	0	0	5	5	0.05453701	0.336146	3	10	0.03	1800	-6.412201	40.92395	-91.39365
267157	-9	-307	-79	-0.5032181	-0.3338522	-2.487503	0	11.74	4009	0	0	5	5	0.05453701	0.3415833	3	10	0.03	1800	-5.758514	40.92395	-91.39365
267181	-9	-307	-79	-0.5032181	-0.3338522	-2.487503	0	11.74	4009	0	0	5	5	0.05453701	0.3416537	3	10	0.03	1800	-5.758514	40.92395	-91.39365
267351	-8	-333	-399	-0.5931523	-0.6610436	-2.67725	0	11.74	4003	0	0	5	5	0.05453701	0.3376235	3	10	0.03	1800	-5.813141	40.92395	-91.39365
267401	56	248	-1232	-0.7997732	-0.8462124	-2.565252	0	11.74	4003	0	0	5	5	0.05453701	0.3352388	3	10	0.03	1800	-5.879974	40.92395	-91.39365
267517	-204	59	401	-0.7755552	-1.14126	-2.347821	0	11.74	4003	0	0	5	5	0.05481587	0.3408976	6	10	0.03	1800	-5.961029	40.92395	-91.39365
267653	-112	118	-187	-1.010221	-1.525863	-2.082937	0	11.74	4004	0	0	5	5	0.05196079	0.3906397	6	10	0.03	1800	-5.721222	40.92395	-91.39365
267688	-109	-56	99	-1.003999	-1.553139	-2.076462	0	11.74	4003	0	0	5	5	0.05118941	0.3957465	6	10	0.03	1800	-5.721222	40.92395	-91.39365
267778	263	94	-208	-0.9770843	-1.686414	-2.007421	0	11.68	4003	0	0	5	5	0.04987035	0.408202	6	10	0.03	1800	-5.800293	40.92395	-91.39365
267862	2291	510	173	1.007087	-1.558285	-1.87373	0	11.68	4003	0	0	5	5	0.05148693	0.410992	6	10	0.03	1800	-3.994446	40.92395	-91.39365
267997	1010	-151	-867	3.630855	-2.162277	-1.479884	0	11.68	4003	0	0	5	5	0.0532053	0.4305746	6	10	0.03	1800	-6.299042	40.92395	-91.39365
268102	-491	-1506	-1614	2.326181	-0.5571097	0.09667271	0	11.68	4004	0	0	5	5	0.05570857	0.4390885	6	10	0.03	1800	-3.098114	40.92395	-91.39365
268168	-705	770	1358	1.350671	-0.1882928	-0.271722	0	11.68	4003	0	0	5	5	0.05628219	0.436249	6	10	0.03	1800	-4.741486	40.92395	-91.39365
268279	-33	1010	743	0.8934233	-3.203371	-1.098574	0	11.68	4004	0	0	5	5	0.06122332	0.4281181	6	10	0.03	1800	-2.805267	40.92395	-91.39365
268381	-336	-792	825	0.3627089	-2.952755	-1.30328	0	11.68	4003	0	0	5	5	0.06471033	0.422538	6	10	0.03	1800	-2.00058	40.92395	-91.39365
268450	117	746	-577	-0.2240407	-1.930976	-1.428544	0	11.68	4003	0	0	5	5	0.07199743	0.4131543	6	10	0.03	1800	-1.162689	40.92395	-91.39365
268562	149	551	175	0.01294809	-2.759121	-1.315206	0	11.68	4004	0	0	5	5	0.08006743	0.4140656	6	10	0.03	1800	-1.61792	40.92395	-91.39365
268668	-227	2165	-733	-0.03176706	-9.421312	-1.953454	0	11.51	4002	0	-9	5	5	0.2981201	0.4116086	8	10	0.03	1800	-1.106567	40.92395	-91.39365
268759	-1108	-3058	-1610	-0.4719113	-7.896362	-2.534608	0	11.51	4004	0	-9	5	5	0.3771613	0.4071954	8	10	0.03	1800	-0.2956238	40.92395	-91.39365
268889	-931	349	-158	-1.10707	-5.524014	-1.715136	0	11.51	4003	0	-9	5	5	0.4684787	0.4100258	8	10	0.03	1800	-1.277771	40.92395	-91.39365
269003	2854	1733	-862	0.6353092	-4.574212	-0.8242603	0	11.51	4003	0	-9	5	5	0.5529568	0.4119228	8	10	0.03	1800	-2.267334	40.92395	-91.39365
269056	3681	2070	-1092	2.330415	-5.573569	-0.2891826	0	11.51	4004	0	-9	5	5	0.5835789	0.4086798	8	10	0.03	1800	-3.902039	40.92395	-91.39365
269161	-3838	-3335	-632	-1.213046	-1.034366	-0.01937644	0	11.51	4004	0	-9	5	5	0.6189572	0.412076	8	10	0.03	1800	-3.977539	40.92395	-91.39365
269298	-487	1185	354	-6.10076	-0.8174531	0.1504556	0	11.51	4003	18	-9	5	5	0.6516857	0.4316033	8	10	0.03	1800	-4.075073	40.92395	-91.39364
269360	211	3732	2017	-5.821084	-2.46352	-0.4452716	0	11.51	4004	18	-9	5	5	0.6635494	0.4495306	8	10	0.03	1800	-5.608185	40.92395	-91.39364
269543	2052	3289	737	-3.339805	-3.205093	0.683377	0	11.51	4003	18	0	5	5	0.684261	0.5094248	8	10	0.03	1800	-8.780304	40.92395	-91.39364
269622	50	564	2180	-1.047882	-4.92992	-0.1863969	0	11.46	4003	18	9	5	5	0.6923544	0.5527191	8	10	0.03	1800	-9.06131	40.92396	-91.39364
269777	453	541	-553	-1.55007	-4.751678	-2.552428	0	11.46	4003	18	-9	5	5	0.7012701	0.6679583	8	10	0.03	1800	-9.244415	40.92395	-91.39364
269933	-310	-99	-270	-0.4713843	-5.19922	-1.360638	0	11.46	4002	18	-9	5	5	0.7056913	0.7508945	8	10	0.03	1800	-9.603912	40.92395	-91.39364
270051	239	1481	189	-1.166267	-3.935611	-0.8231542	0	11.46	4002	18	-9	5	5	0.7085919	0.8603483	8	10	0.03	1800	-9.526703	40.92395	-91.39364
270125	-272	2246	-83	-1.043027	-8.34828	-1.170852	0	11.46	4003	22	-11	5	5	0.7096434	0.9158037	8	10	0.03	1800	-10.89291	40.92395	-91.39363
270234	-76	-2064	323	-2.200571	-6.085722	-1.66365	0	11.46	4003	36	0	5	5	0.711185	1.003595	8	10	0.03	1800	-9.580627	40.92395	-91.39363
270317	-303	-336	-470	-2.176333	-4.895156	-1.404643	0	11.46	4003	36	0	5	5	0.711982	1.089502	8	10	0.03	1800	-10.00287	40.92395	-91.39363
270398	-331	-1796	-207	-1.913558	-3.705498	-0.942506	0	11.46	4003	36	0	5	5	0.7123893	1.143507	8	10	0.03	1800	-10.17487	40.92395	-91.39363
270488	-6	-409	2001	-2.446872	-2.25424	-1.050547	0	10.6	4004	36	0	5	5	0.7129866	1.240138	8	10	0.03	1800	-11.30823	40.92395	-91.39363
270576	-729	1607	-686	-3.323075	-5.560546	-1.844667	0	10.6	4003	36	0	5	5	0.7132031	1.299596	8	10	0.03	1800	-10.54559	40.92395	-91.39363
270612	-573	-883	-792	-3.496391	-6.549097	-1.839298	0	10.6	4003	36	0	5	5	0.7132953	1.320265	8	10	0.03	1800	-10.71301	40.92395	-91.39363
270770	-1200	-1692	-1089	-3.087314	-3.313979	-0.8515204	0	10.6	4002	36	0	5	5	0.7136846	1.499332	8	10	0.03	1800	-12.21115	40.92395	-91.39363
270831	440	-505	588	-3.772085	-2.501626	-0.8516196	0	10.6	4004	36	0	5	5	0.7137287	1.518319	8	10	0.03	1800	-14.05078	40.92395	-91.39363
270947	-868	221	356	-2.588604	-3.76955	-1.192631	0	10.6	4004	36	0	5	5	0.7138364	1.612036	8	10	0.03	1800	-17.707	40.92395	-91.39363
271047	496	-437	148	-2.190105	-3.909877	-1.05861	0	10.6	4003	36	0	5	5	0.713936	1.717036	8	10	0.03	1800	-18.19397	40.92395	-91.39363
271144	324	405	-645	-1.918433	-2.982917	-1.065346	0	10.6	4003	36	0	5	5	0.7139721	1.745396	8	10	0.03	1800	-16.84055	40.92395	-91.39363
271229	-575	1773	2093	-1.506414	-6.013974	-1.049848	0	10.6	4003	22	0	5	5	0.714025	1.821689	8	10	0.03	1800	-20.16257	40.92395	-91.39364
271349	-647	-1982	1035	-2.760037	-3.67494	-0.6011113	0	10.6	4002	18	0	5	5	0.7140523	1.867872	8	10	0.03	1800	-21.27301	40.92395	-91.39364
271435	-529	370	-499	-3.216617	-2.932518	-0.5330044	0	11.51	4003	18	0	5	5	0.7140663	1.899364	8	10	0.03	1800	-21.89539	40.92395	-91.39364
271553	772	-1062	-399	-2.736274	-3.197339	-1.387853	0	11.51	4002	18	0	5	5	0.7140868	1.949824	8	10	0.03	1800	-25.39532	40.92395	-91.39364
271687	562	1409	-200	-0.6669852	-5.328499	-1.225218	0	11.51	4003	18	0	5	5	0.7141003	1.984195	8	10	0.03	1800	-28.4404	40.92395	-91.39364
271770	-647	-846	90	-0.6413916	-5.205826	-0.9070027	0	11.51	4004	18	0	5	5	0.7141073	2.000826	8	10	0.03	1800	-22.35205	40.92395	-91.39364
271876	-731	1398	879	-2.359368	-2.476752	-0.8882571	0	11.51	4002	18	0	5	5	0.7141123	2.012445	8	10	0.03	1800	-26.12949	40.92395	-91.39364
272006	1859	4117	-290	-1.714922	-7.491784	-0.905986	0	11.51	4002	18	-9	5	5	0.7141171	2.008012	8	10	0.03	1800	-25.97345	40.92395	-91.39364
272083	1250	3142	-1001	0.2481404	-11.54453	-0.5245185	0	11.51	4003	18	-9	5	5	0.7141187	2.004102	8	10	0.03	1800	-27.68533	40.92395	-91.39365
272191	1850	490	1164	1.269024	-11.59479	-0.1350085	0	11.51	4003	0	-9	5	5	0.7141212	1.98905	8	10	0.03	1800	-21.15103	40.92395	-91.39365
272211	3051	2164	-596	3.45842	-13.58662	-0.2396311	0	11.51	4004	0	-9	5	5	0.7141212	1.98905	8	10	0.03	1800	-21.34982	40.92395	-91.39365
272345	2255	3673	1609	9.111876	-18.96828	-1.022258	0	11.46	4004	0	-9	5	5	0.7141229	1.969475	8	10	0.03	1800	-16.90204	40.92395	-91.39365
272410	345	-1187	-1464	9.564711	-18.96657	-1.529076	0	11.46	4002	0	-9	5	5	0.7141235	1.964702	8	10	0.03	1800	-6.08078	40.92395	-91.39365
272537	801	1818	-1911	9.40955	-18.52501	-0.6675014	0	11.46	4004	0	-9	5	5	0.7141243	1.940916	8	10	0.03	1800	1.171654	40.92395	-91.39365
272600	480	3742	-1218	8.986315	-19.79013	-0.1274242	0	11.46	4002	0	-9	5	5	0.7141247	1.928605	8	10	0.03	1800	1.171654	40.92395	-91.39365
272703	640	-652	1026	6.24965	-15.92439	2.027637	0	11.46	4004	0	-18	5	5	0.714125	1.915429	8	10	0.03	1800	1.946707	40.92395	-91.39365
272828	-2377	-4451	2086	2.111162	-7.344944	0.3364907	0	11.46	4003	0	-18	5	5	0.7141253	1.891239	8	10	0.03	1800	3.193251	40.92395	-91.39365
272916	-965	-2043	-368	0.2549715	-5.618883	-0.8477472	0	11.46	4004	0	-18	5	5	0.7141255	1.858728	8	10	0.03	1800	4.180156	40.92395	-91.39365
273112	-807	1552	503	-0.120285	-6.081617	-1.412123	0	11.46	4003	0	-18	5	5	0.7141258	1.810493	8	10	0.03	1800	7.732291	40.92395	-91.39365
273245	-374	2437	-393	-0.04640718	-7.862216	-0.1826002	0	11.4	4003	0	-27	5	5	0.7141258	1.776146	8	10	0.03	1800	6.247058	40.92394	-91.39365
273314	-942	3271	955	-0.4760464	-10.78461	-0.7136212	0	11.4	4002	0	-27	5	5	0.7141258	1.740922	8	10	0.03	1800	7.114318	40.92394	-91.39365
273463	-1664	3439	-513	-2.116387	-15.30823	-1.159914	0	11.4	4003	0	-27	5	5	0.7141258	1.687536	8	10	0.03	1800	6.258959	40.92394	-91.39365
273582	-1678	-34	327	-7.122117	-14.50544	-0.5983978	0	11.4	4003	0	-27	5	5	0.7141258	1.650343	8	10	0.03	1800	3.446832	40.92394	-91.39365
273642	1540	-2819	-1245	-7.264456	-13.43503	-0.5778125	0	11.4	4004	0	-33	5	5	0.7141258	1.629664	8	10	0.03	1800	1.628982	40.92394	-91.39365
273715	2517	-2457	-775	-4.526234	-11.22578	-0.5990396	0	11.4	4004	0	-27	5	5	0.7141258	1.608875	8	10	0.03	1800	1.909889	40.92394	-91.39364
273857	-274	-1440	-79	-3.581049	-9.533484	-1.387261	0	11.4	4003	18	-27	5	5	0.7141258	1.581703	8	10	0.03	1800	1.443779	40.92394	-91.39364
273907	713	-950	231	-2.608566	-7.56231	-1.545719	0	11.4	4004	18	-27	5	5	0.7141258	1.571554	8	10	0.03	1800	1.745703	40.92394	-91.39364
274020	-96	-1734	452	-1.170403	-4.399036	-1.147628	0	11.4	4003	18	-27	5	5	0.7141258	1.568835	8	10	0.03	1800	1.757992	40.92394	-91.39364
274180	474	-683	1695	-2.000869	-4.432385	-1.584446	0	11.29	4002	36	-18	5	5	0.7141258	1.593164	8	10	0.03	1800	0.7667843	40.92395	-91.39363
274273	-563	-1064	609	-0.9588013	-3.491387	-2.02124	0	11.29	4004	44	-22	5	5	0.7141258	1.602886	8	10	0.03	1800	1.51657	40.92395	-91.39363
274373	-788	9	905	-1.171417	-3.41737	-1.563266	0	11.29	4003	36	-18	5	5	0.7141258	1.626837	8	10	0.03	1800	1.381928	40.92395	-91.39363
274456	-6	614	-220	-1.773628	-3.606947	-1.104281	0	11.29	4004	44	-22	5	5	0.7141258	1.642727	8	10	0.03	1800	0.9234481	40.92395	-91.39363
274558	-1809	-1224	-623	-1.588704	-5.372291	-0.9334989	0	11.29	4002	36	-18	5	5	0.7141258	1.666449	8	10	0.03	1800	-1.108521	40.92395	-91.39363
274579	-1326	-1941	-650	-2.275587	-5.456995	-1.098613	0	11.29	4002	36	-18	5	5	0.7141258	1.678439	8	10	0.03	1800	-1.005798	40.92395	-91.39363
274783	-498	-1466	-1747	-4.126144	-2.809957	-1.449293	0	11.29	4002	55	-9	5	5	0.7141258	1.726661	8	10	0.03	1800	-0.9758911	40.92395	-91.39362
274866	-340	-450	492	-3.237146	-2.902704	-1.370456	0	11.29	4004	55	-9	5	5	0.7141258	1.736444	8	10	0.03	1800	-0.4351501	40.92395	-91.39362
274929	-1702	1400	1082	-3.245923	-4.180919	-1.53686	0	11.29	4003	55	-9	5	5	0.7141258	1.745621	8	10	0.03	1800	-1.738739	40.92395	-91.39362
275021	652	-1227	56	-3.716748	-3.325256	-1.407857	0	11	4003	73	0	5	5	0.7141258	1.754962	8	10	0.03	1800	-5.416565	40.92395	-91.39362
275137	-600	-664	-1216	-3.902365	-1.667829	-1.162996	0	11	4004	73	0	5	5	0.7141258	1.75873	8	10	0.03	1800	-6.664795	40.92395	-91.39362
275193	-1099	1141	773	-4.24623	-3.089898	-1.302316	0	11	4003	73	0	5	5	0.7141258	1.759194	8	10	0.03	1800	-7.0737	40.92395	-91.39362
275286	-1376	-3041	-818	-4.454367	-3.181186	-1.204811	0	11	4003	73	0	5	5	0.7141258	1.763499	8	10	0.03	1800	-13.23395	40.92395	-91.39362
275461	-774	593	2111	-3.894232	-4.153463	-1.112866	0	11	4002	110	11	5	5	0.7141258	1.745879	8	10	0.03	1800	-13.78851	40.92396	-91.39361
275624	-566	-540	-193	-5.436533	-6.719474	-1.495115	0	11	4003	92	9	5	5	0.7141258	1.695249	8	10	0.03	1800	-15.28363	40.92396	-91.39361
275762	-1262	89	1955	-6.802433	-10.10582	-1.177542	0	11	4004	92	9	5	5	0.7141258	1.651281	8	10	0.03	1800	-19.25452	40.92396	-91.39361
275836	-2211	-4138	-1445	-7.449324	-8.479232	-1.459515	0	11	4004	110	11	5	5	0.7141258	1.62738	8	10	0.03	1800	-20.61005	40.92396	-91.39361
275897	467	-2702	-2158	-7.865239	-4.656808	-1.090415	0	11	4002	92	9	5	5	0.7141258	1.622688	8	10	0.03	1800	-22.99448	40.92396	-91.39361
276024	-1950	-1237	437	-6.191906	-4.148707	-1.330169	0	11.4	4002	92	9	5	5	0.7141258	1.610817	8	10	0.03	1800	-26.58438	40.92396	-91.39361
276103	-414	-2332	-1345	-7.00584	-3.414275	-1.465556	0	11.4	4003	110	9	5	5	0.7141258	1.601812	8	10	0.03	1800	-26.47916	40.92396	-91.3936
276286	-1767	-1157	-786	-8.093384	-3.47403	-1.002486	0	11.4	4003	110	9	5	5	0.7141258	1.586555	8	10	0.03	1800	-30.49808	40.92396	-91.39361
276381	279	-614	477	-8.542122	-2.748952	-0.2507625	0	11.4	4002	92	9	5	5	0.7141258	1.585829	8	10	0.03	1800	-33.49707	40.92396	-91.39361
276413	665	-2244	-1114	-8.214467	-2.060208	-0.1794922	0	11.4	4003	92	9	5	5	0.7141258	1.586731	8	10	0.03	1800	-33.49707	40.92396	-91.39361
276530	-315	1613	-354	-7.623746	-3.65726	-1.148852	0	11.4	4004	92	9	5	5	0.7141258	1.585846	8	10	0.03	1800	-33.55353	40.92396	-91.39361
276634	-1325	-2610	-1521	-8.635718	-4.543347	-1.415617	0	11.4	4002	92	9	5	5	0.7141258	1.58585	8	10	0.03	1800	-34.10474	40.92396	-91.39361
276793	-936	692	90	-6.295564	-4.548723	0.2382384	0	11.4	4004	92	9	5	5	0.7141258	1.585114	8	10	0.03	1800	-44.69327	40.92396	-91.39361
276895	-1843	1502	361	-6.751419	-6.078276	-0.6380164	0	10.66	4003	73	9	5	5	0.7141258	1.58645	8	10	0.03	1800	-40.7446	40.92396	-91.39362
276928	-1872	3875	2160	-7.318889	-7.415765	-1.470891	0	10.66	4003	73	9	5	5	0.7141258	1.587291	8	10	0.03	1800	-40.7446	40.92396	-91.39362
277065	2324	-301	-833	-3.287584	-13.20896	-2.079717	0	10.66	4004	73	9	5	5	0.7141258	1.588173	8	10	0.03	1800	-37.91013	40.92396	-91.39362
277166	2036	-668	-2424	-0.4829967	-14.42455	-0.9966289	0	10.66	4002	73	9	5	5	0.7141258	1.59123	8	10	0.03	1800	-39.33554	40.92396	-91.39362
277217	3200	2019	-433	0.579164	-13.72795	-0.2449628	0	10.66	4002	55	0	5	5	0.7141258	1.598452	8	10	0.03	1800	-36.53638	40.92395	-91.39362
277361	2064	-1843	1152	6.31565	-11.46551	0.1623652	0	10.66	4004	55	0	5	5	0.7141258	1.613373	8	10	0.03	1800	-26.15689	40.92395	-91.39362
277443	2471	-868	1264	8.262798	-8.963341	-1.016256	0	10.66	4003	36	0	5	5	0.7141258	1.613345	8	10	0.03	1800	-23.42471	40.92395	-91.39363
277559	2369	-4177	-32	11.58367	-5.919272	-2.790662	0	10.66	4004	36	0	5	5	0.7141258	1.591223	8	10	0.03	1800	-13.51486	40.92395	-91.39363
277630	852	-3294	-974	12.27028	-2.087214	-1.902564	0	10.66	4004	36	-9	5	5	0.7141258	1.585274	8	10	0.03	1800	-10.14188	40.92395	-91.39363
277742	-2312	1539	-2578	6.627005	-2.018086	0.5059705	0	10.66	4002	44	-11	5	5	0.7141258	1.53258	8	10	0.03	1800	-6.328796	40.92395	-91.39364
277900	66	432	-1766	3.677813	-6.60325	1.487805	0	10.6	4002	18	-9	5	5	0.7141258	1.46161	8	10	0.03	1800	-2.705078	40.92395	-91.39364
277957	-2298	-1574	1362	2.474479	-6.801592	0.8382056	0	10.6	4002	0	-9	5	5	0.7141258	1.408414	8	10	0.03	1800	-1.165283	40.92395	-91.39365
278043	-1983	583	718	-0.03845139	-5.408927	0.3945798	0	10.6	4004	0	-9	5	5	0.7141258	1.382531	8	10	0.03	1800	1.113335	40.92395	-91.39365
278171	-2422	2501	-501	-1.028012	-10.39856	-0.9950268	0	10.6	4003	0	-18	5	5	0.7141258	1.294641	8	10	0.03	1800	0.8873125	40.92395	-91.39365
278257	-3522	83	-1034	-7.077708	-11.22501	-0.1816846	0	10.6	4004	0	-18	5	5	0.7141258	1.227739	8	10	0.03	1800	-0.1748352	40.92395	-91.39365
278328	-1801	1658	-47	-9.438766	-10.80426	0.5225516	0	10.6	4003	0	-27	5	5	0.7141258	1.203534	8	10	0.03	1800	-1.396576	40.92394	-91.39365
278511	2843	-2756	-928	-4.4238	-11.574	-0.2361217	0	10.6	4004	-18	-27	5	5	0.7141258	1.10538	8	10	0.03	1800	-4.747681	40.92394	-91.39365
278544	900	-3040	-1539	-3.434971	-10.33694	-0.2339219	0	10.6	4003	-18	-27	5	5	0.7141258	1.096937	8	10	0.03	1800	-4.747681	40.92394	-91.39365
278630	-149	-1294	138	-3.761849	-7.110237	-0.127861	0	10.6	4002	-18	-27	5	5	0.7141258	1.075039	8	10	0.03	1800	-4.360321	40.92394	-91.39365
278831	2204	-1170	-1805	-1.490876	-6.917893	-0.1067663	0	10.83	4003	-18	-27	5	5	0.7141258	1.057408	8	10	0.03	1800	-3.378571	40.92394	-91.39365
278944	-41	1191	110	-0.3791949	-6.580732	0.4586503	0	10.83	4003	-18	-27	5	5	0.7141258	1.060667	8	10	0.03	1800	-2.132813	40.92394	-91.39365
279067	-5233	-1046	1109	-9.445936	-9.157456	-0.8429391	0	10.83	4004	-18	-27	5	5	0.7141258	1.068703	8	10	0.03	1800	-1.795898	40.92394	-91.39365
279143	-4056	-3066	-265	-11.40637	-8.221057	-1.239796	0	10.83	4005	-18	-27	5	5	0.7141258	1.078671	8	10	0.03	1800	-1.795898	40.92394	-91.39365
279293	-2880	-1063	-793	-15.64664	-6.948464	-1.57694	0	10.83	4004	-18	-27	5	5	0.7141258	1.096919	8	10	0.03	1800	-5.496582	40.92394	-91.39365
279388	1031	-1907	1357	-15.55583	-6.384841	-0.8491547	0	10.83	4003	-18	-27	5	5	0.7141258	1.107356	8	10	0.03	1800	-9.759674	40.92394	-91.39365
279479	3658	-1904	-1488	-10.99131	-4.934896	-0.6115435	0	10.83	4002	-18	-27	5	5	0.7141258	1.126491	8	10	0.03	1800	-12.05624	40.92394	-91.39365
279534	619	-469	370	-5.918693	-3.889587	-0.6758195	0	10.83	4003	-18	-27	5	5	0.7141258	1.139311	8	10	0.03	1800	-12.05316	40.92394	-91.39365
279628	409	2045	1803	-5.114435	-4.50856	-1.159954	0	11.06	4003	-18	-27	5	5	0.7141258	1.155148	8	10	0.03	1800	-11.6431	40.92394	-91.39365
279816	1030	-3203	-290	-1.697749	-1.989495	-0.9652416	0	11.06	4003	-36	-18	5	5	0.7141258	1.191272	8	10	0.03	1800	-11.47519	40.92395	-91.39366
279880	752	-930	638	-0.9363843	-1.216578	-0.9385335	0	11.06	4003	-36	-18	5	5	0.7141258	1.204642	8	10	0.03	1800	-11.24777	40.92395	-91.39366
279994	276	-3525	-1647	0.05134436	3.556963	-1.036026	0	11.06	4002	-36	-18	5	5	0.7141258	1.218428	8	10	0.03	1800	-10.47815	40.92395	-91.39366
280097	832	1687	382	1.06017	2.907151	-0.9545857	0	11.06	4002	-44	-11	5	5	0.7141258	1.244916	8	10	0.03	1800	-10.38776	40.92395	-91.39366
280200	-1964	1280	-137	-1.786906	-0.9442437	-1.193837	0	11.06	4004	-36	-9	5	5	0.7141258	1.264944	8	10	0.03	1800	-8.240417	40.92395	-91.39366
280255	714	-124	637	-2.590255	-2.354189	-1.026111	0	11.06	4003	-36	-9	5	5	0.7141258	1.269567	8	10	0.03	1800	-9.418427	40.92395	-91.39366
280344	850	-1315	500	-0.9300842	-0.9904861	-0.7535953	0	11.06	4003	-36	-9	5	5	0.7141258	1.292448	8	10	0.03	1800	-9.88739	40.92395	-91.39366
280433	95	-1322	-708	-0.6001161	-0.6065133	-0.8221933	0	11.06	4002	-44	-11	5	5	0.7141258	1.299227	8	10	0.03	1800	-8.932678	40.92395	-91.39366
280554	887	1657	1601	0.3595563	-4.815873	-0.8669465	0	10.38	4003	-55	-9	5	5	0.7141258	1.302793	8	10	0.03	1800	-7.600403	40.92395	-91.39367
280708	397	-1362	-169	2.119613	-4.671731	-1.435023	0	10.38	4003	-55	-9	5	5	0.7141258	1.293701	8	10	0.03	1800	-6.754395	40.92395	-91.39367
280743	345	-747	536	2.374853	-3.594198	-1.351855	0	10.38	4002	-55	-9	5	5	0.7141258	1.289704	8	10	0.03	1800	-3.549408	40.92395	-91.39367
280808	421	-438	878	2.448081	-2.868914	-1.300543	0	10.38	4003	-55	-9	5	5	0.7141258	1.280928	8	10	0.03	1800	-3.549408	40.92395	-91.39367
280914	252	511	118	2.112994	-1.832666	-0.8419434	0	10.38	4002	-55	-9	5	5	0.7141258	1.268181	8	10	0.03	1800	-1.120636	40.92395	-91.39367
281028	-242	2067	12	2.116176	-3.257757	-0.8965357	0	10.38	4003	-55	-9	5	5	0.7141258	1.262172	8	10	0.03	1800	-0.5856323	40.92395	-91.39367
281146	-414	-221	-365	2.109118	-2.09926	-1.000782	0	10.38	4003	-55	-9	5	5	0.7141258	1.243963	8	10	0.03	1800	1.443514	40.92395	-91.39367
281255	1746	-568	-994	2.0786	-3.181465	-1.157564	0	10.38	4003	-55	-9	5	5	0.7141258	1.232349	8	10	0.03	1800	1.11155	40.92395	-91.39367
281323	1069	1202	467	3.808572	-2.974537	-1.219637	0	10.38	4003	-55	-9	5	5	0.7141258	1.214396	8	10	0.03	1800	3.992634	40.92395	-91.39367
281466	960	2900	-845	2.498091	-9.637329	-1.257777	0	10.26	4003	-55	-9	5	5	0.7141258	1.193242	8	10	0.03	1800	11.75417	40.92395	-91.39367
281521	2298	2613	-1472	3.591852	-11.26	-0.9996374	0	10.26	4003	-55	-9	5	5	0.7141258	1.177165	8	10	0.03	1800	11.75417	40.92395	-91.39367
281667	130	2502	1956	4.033524	-15.36238	-0.5697811	0	10.26	4002	-55	-9	5	5	0.7141258	1.140726	8	10	0.03	1800	14.48669	40.92395	-91.39367
281718	282	-3507	-1729	5.193233	-14.04147	-0.6744511	0	10.26	4004	-55	-9	5	5	0.7141258	1.133854	8	10	0.03	1800	14.48669	40.92395	-91.39367
281823	-1033	-2727	-628	5.449694	-8.917605	-0.3472046	0	10.26	4003	-55	-18	5	5	0.7141258	1.132022	8	10	0.03	1800	14.42304	40.92395	-91.39367
281934	809	-587	-123	4.082304	-5.992255	-0.8144912	0	10.26	4004	-55	-18	5	5	0.7141258	1.136424	8	10	0.03	1800	16.49162	40.92395	-91.39367
282047	750	375	-443	3.957263	-5.548939	0.4690907	0	10.26	4003	-55	-18	5	5	0.7141258	1.144444	8	10	0.03	1800	22.37434	40.92395	-91.39367
282129	-539	2868	3118	3.781582	-7.310852	-0.6552397	0	10.26	4003	-55	-18	5	5	0.7141258	1.149578	8	10	0.03	1800	23.46671	40.92394	-91.39366
282237	-3883	2275	-33	0.3997049	-12.5506	-1.474354	0	10.26	4002	-36	-27	5	5	0.7141258	1.171472	8	10	0.03	1800	23.05283	40.92394	-91.39366
282310	-2849	2383	-279	-3.163998	-14.56107	-1.559703	0	10.26	4002	-44	-33	5	5	0.7141258	1.181537	8	10	0.03	1800	23.26202	40.92394	-91.39366
282470	-2689	2883	1385	-11.11649	-15.47035	-0.5389989	0	10.94	4004	-36	-27	5	5	0.7141258	1.205057	8	10	0.03	1800	18.51397	40.92394	-91.39366
282621	-3129	-2647	-734	-18.19675	-10.63951	-0.5386946	0	10.94	4003	-18	-36	5	5	0.7141258	1.241213	8	10	0.03	1800	7.362813	40.92394	-91.39365
282730	-685	2853	1187	-19.10991	-12.24199	-1.220799	0	10.94	4002	0	-46	5	5	0.7141258	1.251381	8	10	0.03	1800	-2.581146	40.92393	-91.39365
282849	-1901	742	1719	-18.24494	-13.46157	-0.9608724	0	10.94	4002	0	-46	5	5	0.7141258	1.288988	8	10	0.03	1800	-6.873657	40.92393	-91.39365
282910	-1591	-312	1204	-18.58318	-13.21579	-0.9285118	0	10.94	4004	0	-46	5	5	0.7141258	1.303569	8	10	0.03	1800	-8.378662	40.92393	-91.39365
283008	2039	3537	1234	-14.68615	-13.52589	-1.403352	0	10.94	4004	0	-46	5	5	0.7141258	1.31277	8	10	0.03	1800	-10.65704	40.92393	-91.39365
