time(ms)	gyro_x(deg/s)	gyro_y(deg/s)	gyro_z(deg/s)	orientation_roll(deg)	orientation_pitch(deg)	orientation_yaw(deg)	throttle	battery(V)	loop_time(uS)	pid_output_roll	pid_output_pitch	pid_output_yaw	pid_output_throttle	ultrasonic_alt	baro_alt	flight_mode	p_gain_altitude	i_gain_altitude	d_gain_altitude	compass_heading	latitude	longitude
93493	-118	-112	-17	0.3668867	0.3087117	0.3408609	0	12.36	4003	0	0	5	5	0.05453698	0.2955312	3	10	0.03	1800	-6.761017	40.92393	-91.39363
93555	-58	119	-351	0.391901	0.3156518	0.357549	0	12.36	4004	0	0	5	5	0.05453698	0.2911143	3	10	0.03	1800	-6.116058	40.92393	-91.39363
93686	52	-74	-180	0.4328729	0.3356725	0.3541697	0	12.31	4004	0	0	5	5	0.05453698	0.2860286	3	10	0.03	1800	-6.769653	40.92393	-91.39363
93755	64	77	246	0.3880734	0.3448803	0.3328881	0	12.31	4004	0	0	5	5	0.05453698	0.2924045	3	10	0.03	1800	-6.11972	40.92393	-91.39363
93842	-117	-4	-352	0.2943546	0.3280795	0.3360421	0	12.31	4003	0	0	5	5	0.05453698	0.2945208	3	10	0.03	1800	-6.11972	40.92393	-91.39363
94032	127	-104	-195	0.2862461	0.3367186	0.3284526	0	12.31	4003	0	0	5	5	0.05453698	0.3044996	3	10	0.03	1800	-5.701691	40.92393	-91.39363
94084	113	-123	550	0.29318	0.368885	0.2941574	0	12.31	4003	0	0	5	5	0.05453698	0.3098826	3	10	0.03	1800	-6.319275	40.92393	-91.39363
94196	204	-7	267	0.3050882	0.3798609	0.3055061	0	12.31	4003	0	0	5	5	0.05453698	0.31666	3	10	0.03	1800	-6.329498	40.92393	-91.39363
94251	85	10	122	0.310006	0.3710079	0.3100782	0	12.31	4004	0	0	5	5	0.05453698	0.3192727	3	10	0.03	1800	-6.329498	40.92393	-91.39363
94354	20	174	-242	0.2800554	0.3509063	0.3152051	0	12.31	4003	0	0	5	5	0.05453698	0.3208982	3	10	0.03	1800	-6.813324	40.92393	-91.39363
94472	-32	97	-160	0.2648343	0.3659582	0.3175721	0	12.31	4003	0	0	5	5	0.05453698	0.3296122	3	10	0.03	1800	-6.129913	40.92393	-91.39363
94596	-162	13	-218	0.2208789	0.3791064	0.3052748	0	12.25	4004	0	0	5	5	0.05453698	0.3450049	3	10	0.03	1800	-6.312714	40.92393	-91.39363
94673	87	37	-193	0.2532599	0.3906843	0.3201769	0	12.25	4002	0	0	5	5	0.05453698	0.3557945	3	10	0.03	1800	-6.02417	40.92393	-91.39363
94778	289	-86	441	0.2752499	0.4165261	0.2824847	0	12.25	4004	0	0	5	5	0.05453698	0.362952	3	10	0.03	1800	-6.306427	40.92393	-91.39363
94885	-17	13	-263	0.3307046	0.4086128	0.2809168	0	12.25	4003	0	0	5	5	0.05453698	0.3782459	3	10	0.03	1800	-6.175262	40.92393	-91.39363
94991	-102	92	-180	0.3169371	0.3840885	0.255744	0	12.25	4003	0	0	5	5	0.05453698	0.3860163	3	10	0.03	1800	-5.812744	40.92393	-91.39363
95142	-132	23	-65	0.3398461	0.396732	0.2376956	0	12.25	4004	0	0	5	5	0.05453698	0.3805177	3	10	0.03	1800	-6.165527	40.92393	-91.39363
95194	-122	6	-266	0.3349619	0.3633619	0.2542555	0	12.25	4003	0	0	5	5	0.05453698	0.3772979	3	10	0.03	1800	-6.165527	40.92393	-91.39363
95384	-8	17	-37	0.3055052	0.4212791	0.2223654	0	12.25	4002	0	0	5	5	0.05453698	0.351159	3	10	0.03	1800	-5.909088	40.92393	-91.39363
95439	16	-65	118	0.2803948	0.4138242	0.2175013	0	12.25	4003	0	0	5	5	0.05453698	0.3485601	3	10	0.03	1800	-6.187805	40.92393	-91.39363
95512	-62	-9	-374	0.1844695	0.3840038	0.2213317	0	12.14	4002	0	0	5	5	0.05453698	0.3481833	3	10	0.03	1800	-6.605103	40.92393	-91.39363
95648	-234	-141	476	0.04891204	0.4274856	0.208276	0	12.14	4002	0	0	5	5	0.05453698	0.3570717	3	10	0.03	1800	-6.002594	40.92393	-91.39363
95721	168	-12	186	0.2070695	0.3615489	0.2065031	0	12.14	4004	0	0	5	5	0.05453698	0.3602158	3	10	0.03	1800	-5.859314	40.92393	-91.39363
95841	75	258	-237	0.334831	0.3093789	0.2300654	0	12.14	4002	0	0	5	5	0.05453698	0.3641179	3	10	0.03	1800	-6.628204	40.92393	-91.39363
95924	230	-114	-232	0.2789882	0.3664801	0.2462457	0	12.14	4002	0	0	5	5	0.05453698	0.3671666	3	10	0.03	1800	-6.112823	40.92393	-91.39363
96012	280	44	205	0.3491803	0.3693938	0.245881	0	12.14	4003	0	0	5	5	0.05453698	0.3744144	3	10	0.03	1800	-6.27533	40.92393	-91.39363
96123	135	81	482	0.3767785	0.3389544	0.2102699	0	12.14	4003	0	0	5	5	0.05453698	0.3799726	3	10	0.03	1800	-6.706848	40.92393	-91.39363
96224	-157	-144	611	0.4114127	0.3332669	0.1813421	0	12.14	4002	0	0	5	5	0.05453698	0.3774197	3	10	0.03	1800	-6.666046	40.92393	-91.39363
96347	-55	-129	106	0.3574252	0.3077354	0.1323091	0	12.14	4002	0	0	5	5	0.05453698	0.3756942	3	10	0.03	1800	-6.700806	40.92393	-91.39363
96484	-255	-130	397	0.3139026	0.3160094	-0.03656617	0	11.68	4004	0	0	5	5	0.05453698	0.3814989	3	10	0.03	1800	-5.864807	40.92393	-91.39363
96531	-222	-61	478	0.3561541	0.3108158	-0.08821866	0	11.68	4002	0	0	5	5	0.05453698	0.3864198	3	10	0.03	1800	-5.864807	40.92393	-91.39363
96665	-95	125	-157	0.2802416	0.2274408	-0.1540353	0	11.68	4003	0	0	5	5	0.05453698	0.3853705	3	10	0.03	1800	-6.080292	40.92393	-91.39363
96731	-51	28	-91	0.2625415	0.3118452	-0.1673805	0	11.68	4003	0	0	5	5	0.05453698	0.3845159	3	10	0.03	1800	-6.080292	40.92393	-91.39363
96864	-83	317	10	0.2544084	0.3726764	-0.2800015	0	11.68	4002	0	0	5	5	0.05453698	0.3896633	3	10	0.03	1800	-6.173767	40.92393	-91.39363
97014	70	34	421	0.1826965	0.3488413	-0.3196049	0	11.68	4003	0	0	5	5	0.05453698	0.3877814	3	10	0.03	1800	-6.468658	40.92393	-91.39363
97063	97	72	-581	0.2812732	0.3099438	-0.3105599	0	11.68	4004	0	0	5	5	0.05453698	0.3868122	3	10	0.03	1800	-5.767303	40.92393	-91.39363
97173	-200	71	487	0.309724	0.3078681	-0.3791802	0	11.68	4003	0	0	5	5	0.05453698	0.3797621	3	10	0.03	1800	-5.99765	40.92393	-91.39363
97245	-58	-115	347	0.2580973	0.3123189	-0.399781	0	11.68	4003	0	0	5	5	0.05453698	0.379309	3	10	0.03	1800	-5.99765	40.92393	-91.39363
97420	96	-49	587	0.3020253	0.2108987	-0.5852379	0	11.51	4003	0	0	5	5	0.05453698	0.3840714	3	10	0.03	1800	-5.293549	40.92393	-91.39363
97576	9	-10	-72	0.3108459	0.2952686	-0.7291253	0	11.51	4002	0	0	5	5	0.05453698	0.3940273	3	10	0.03	1800	-5.79306	40.92393	-91.39363
97731	57	-27	444	0.5310656	0.3138353	-0.8090337	0	11.51	4004	0	0	5	5	0.05453698	0.4092435	3	10	0.03	1800	-4.743378	40.92393	-91.39363
97768	-75	-80	-507	0.5026365	0.3693563	-0.7343023	0	11.51	4004	0	0	5	5	0.05453698	0.412528	3	10	0.03	1800	-6.328033	40.92393	-91.39363
97923	-13	-463	-668	0.427346	0.5059504	-0.5370109	0	11.51	4004	0	0	5	5	0.05453698	0.4367507	3	10	0.03	1800	-6.231903	40.92393	-91.39363
98013	84	164	-297	0.3855584	0.5584217	-0.6676683	0	11.51	4004	0	0	5	5	0.05453698	0.4433847	3	10	0.03	1800	-6.104279	40.92393	-91.39363
98087	-174	64	197	0.2698882	0.4722064	-0.6066451	0	11.51	4004	0	0	5	5	0.05453698	0.4525449	3	10	0.03	1800	-5.206329	40.92393	-91.39363
98228	-93	-15	121	0.2143695	0.3658115	-0.5727897	0	11.51	4003	0	0	5	5	0.05453698	0.4669965	3	10	0.03	1800	-4.965424	40.92393	-91.39363
98284	3	82	309	0.2333838	0.3711348	-0.588502	0	11.51	4003	0	0	5	5	0.05453698	0.4722058	3	10	0.03	1800	-4.965424	40.92393	-91.39363
98402	-323	-9	250	0.1691856	0.3619331	-0.6299469	0	12.08	4004	0	0	5	5	0.05453698	0.463258	3	10	0.03	1800	-5.314026	40.92393	-91.39363
98572	95	18	702	0.1011463	0.35757	-0.6519024	0	12.08	4004	0	0	5	5	0.05453698	0.4545712	3	10	0.03	1800	-5.129608	40.92393	-91.39363
98619	146	89	367	0.1770247	0.2501172	-0.6485872	0	12.08	4002	0	0	5	5	0.05453698	0.452668	3	10	0.03	1800	-5.847717	40.92393	-91.39363
98694	-258	18	217	0.07334854	0.2890126	-0.6738941	0	12.08	4003	0	0	5	5	0.05453698	0.4464676	3	10	0.03	1800	-5.655914	40.92393	-91.39363
98833	-76	106	-37	0.1337134	0.3100911	-0.6604584	0	12.08	4004	0	0	5	5	0.05453698	0.4390503	3	10	0.03	1800	-4.771667	40.92393	-91.39363
98947	-60	-92	141	0.181592	0.3598368	-0.6958938	0	12.08	4004	0	0	5	5	0.05453698	0.4225134	3	10	0.03	1800	-5.492188	40.92393	-91.39363
99013	209	219	-236	0.1195718	0.3097443	-0.6816614	0	12.08	4004	0	0	5	5	0.05453698	0.4193814	3	10	0.03	1800	-5.082642	40.92393	-91.39363
99119	149	-48	-427	0.2437341	0.3188096	-0.694393	0	12.08	4002	0	0	5	5	0.05453698	0.4079114	3	10	0.03	1800	-6.056732	40.92393	-91.39363
99253	121	-23	-112	0.2646417	0.3049603	-0.6868932	0	11.46	4002	0	0	5	5	0.05371378	0.3951424	6	10	0.03	1800	-5.130005	40.92393	-91.39363
99346	35	-39	-5	0.2849403	0.5063769	-0.7501869	0	11.46	4002	0	0	5	5	0.0512258	0.3901947	6	10	0.03	1800	-5.289642	40.92393	-91.39363
99418	-245	-246	102	0.4218986	0.5643508	-0.7805623	0	11.46	4003	0	0	5	5	0.05068187	0.3890359	6	10	0.03	1800	-6.039734	40.92393	-91.39363
99540	153	83	301	0.2132514	0.5038567	-0.7392264	0	11.46	4004	0	0	5	5	0.05200765	0.384631	6	10	0.03	1800	-5.730316	40.92393	-91.39363
99643	-315	-376	91	0.1961508	0.4852449	-0.7350349	0	11.46	4004	0	0	5	5	0.0526931	0.3766403	6	10	0.03	1800	-5.042023	40.92393	-91.39363
99755	-85	-120	263	0.3228703	0.09149994	-0.7297686	0	11.46	4004	0	0	5	5	0.05029239	0.3687288	6	10	0.03	1800	-6.031647	40.92393	-91.39363
99876	-135	-857	-220	0.3145888	0.191533	-0.7105733	0	11.46	4003	0	0	5	5	0.04903908	0.3760661	6	10	0.03	1800	-5.506927	40.92393	-91.39363
99955	285	55	94	0.3199956	0.2711107	-0.7916012	0	11.46	4003	0	0	5	5	0.05008552	0.3816411	6	10	0.03	1800	-5.555511	40.92393	-91.39363
100028	-184	-647	356	0.3114713	0.7102641	-0.608303	0	11.46	4003	0	0	5	5	0.04930205	0.388676	6	10	0.03	1800	-6.219391	40.92393	-91.39363
100133	-897	-65	-1041	-0.6779052	0.2150005	0.8563481	0	11.46	4003	0	0	5	5	0.04880464	0.3937709	6	10	0.03	1800	-7.396118	40.92393	-91.39363
100243	-2249	-861	-1981	-2.886173	0.3449672	1.923521	0	11.29	4004	0	0	5	5	0.04316143	0.4135455	6	10	0.03	1800	-8.702087	40.92393	-91.39363
100369	1476	2236	-452	-2.016984	-0.964008	2.295329	0	11.29	4004	0	0	5	5	0.05739857	0.4280879	6	10	0.03	1800	-9.602295	40.92393	-91.39363
100462	1299	1061	1093	0.432312	-5.885031	2.127071	0	11.29	4004	0	0	5	5	0.1031179	0.4494169	6	10	0.03	1800	-10.77716	40.92393	-91.39363
100552	-40	1122	780	0.7230929	-8.040133	1.974453	0	11.29	4003	0	0	5	5	0.1347423	0.4609004	6	10	0.03	1800	-9.444366	40.92393	-91.39363
100704	253	2227	-1305	2.019491	-11.87035	1.315578	0	11.29	4003	0	0	5	5	0.2035918	0.494162	8	10	0.03	1800	-9.58316	40.92393	-91.39363
100835	1577	2817	730	3.899347	-12.58564	2.71278	0	11.29	4007	0	0	5	5	0.230496	0.5230253	8	10	0.03	1800	-7.016815	40.92393	-91.39363
100938	1154	774	1210	1.712472	-11.42504	1.767425	0	11.29	4004	0	0	5	5	0.250109	0.570701	8	10	0.03	1800	-5.699097	40.92393	-91.39363
101010	1422	-1508	-2192	2.020372	-10.30834	1.976472	0	11.29	4003	0	0	5	5	0.264407	0.6040821	8	10	0.03	1800	-5.63678	40.92393	-91.39363
101082	-3419	-2199	319	0.5181803	-6.939004	4.386571	0	11.29	4004	0	0	5	5	0.2717148	0.6406121	8	10	0.03	1800	-6.307281	40.92393	-91.39363
101169	-1430	-2745	770	-0.8021075	-4.83439	4.604413	0	11.85	4004	0	0	5	5	0.2801576	0.7072393	8	10	0.03	1800	-6.307281	40.92393	-91.39363
101417	-153	-1905	-248	-2.086371	1.361553	0.5728452	0	11.85	4003	0	2	5	5	0.2907992	0.8350475	8	10	0.03	1800	-5.537262	40.92394	-91.39363
101572	-382	-858	-2345	0.3143968	0.02818846	1.164144	0	11.85	4004	0	2	5	5	0.2957419	0.9594151	8	10	0.03	1800	-6.095551	40.92394	-91.39363
101707	81	-394	-291	2.356284	-3.368575	3.048702	0	11.85	4003	0	2	5	5	0.2986605	1.103293	8	10	0.03	1800	-7.744354	40.92394	-91.39363
101783	-1799	-2843	1458	1.034012	-2.219158	2.468837	0	11.85	4004	0	2	5	5	0.2994601	1.262461	8	10	0.03	1800	-6.669128	40.92394	-91.39363
101871	-1518	-3299	623	-1.164683	1.022909	1.372374	0	11.85	4003	0	2	5	5	0.3001078	1.312395	8	10	0.03	1800	-6.369659	40.92394	-91.39363
102092	893	838	-1256	1.387131	-5.556748	1.740698	0	10.83	4004	0	2	5	5	0.3014016	1.575368	8	10	0.03	1800	-8.264465	40.92394	-91.39363
102312	-478	-2014	56	-1.903164	-3.354539	0.3881215	0	10.83	4004	0	2	5	5	0.3021671	1.716561	8	10	0.03	1800	-6.043427	40.92394	-91.39363
102413	1268	-1253	236	-0.993687	-2.403405	0.5312085	0	10.83	4002	0	2	5	5	0.3023574	1.80986	8	10	0.03	1800	-6.703217	40.92394	-91.39363
102548	-286	470	687	-1.21798	-2.049294	1.121318	0	10.83	4004	0	2	5	5	0.3025333	1.900596	8	10	0.03	1800	-6.942627	40.92394	-91.39363
102598	-151	-267	-707	-1.262965	-2.453351	1.201117	0	10.83	4002	0	2	5	5	0.3025971	1.955178	8	10	0.03	1800	-8.859955	40.92394	-91.39363
102720	717	-631	246	0.1381071	-3.77305	0.959437	0	10.83	4003	0	0	5	5	0.3026708	2.04409	8	10	0.03	1800	-10.04001	40.92393	-91.39363
102789	-149	450	-2039	-1.606476	-2.97155	0.6071369	0	10.83	4004	0	0	5	5	0.3027245	2.104556	8	10	0.03	1800	-9.310822	40.92393	-91.39363
102903	1014	1411	797	0.1888086	-5.124625	0.8394423	0	10.83	4003	0	0	5	5	0.3027637	2.156517	8	10	0.03	1800	-8.880615	40.92393	-91.39363
103032	-45	-682	-470	-1.2207	-3.556865	0.5123311	0	10.72	4002	0	0	5	5	0.3027922	2.203978	8	10	0.03	1800	-6.406738	40.92393	-91.39363
103191	713	-679	381	-0.7399159	-2.369197	0.1759255	0	10.72	4003	0	0	5	5	0.3028282	2.283882	8	10	0.03	1800	-8.522034	40.92393	-91.39363
103265	711	-193	-713	0.1787862	-1.335299	0.5914856	0	10.72	4002	0	0	5	5	0.3028392	2.309442	8	10	0.03	1800	-12.45303	40.92393	-91.39363
103369	-1169	2416	1478	0.4316302	-3.153264	0.7209989	0	10.72	4002	0	-2	5	5	0.3028449	2.320223	8	10	0.03	1800	-8.263702	40.92393	-91.39363
103462	-40	3477	422	-0.4911487	-6.944973	0.7955621	0	10.72	4004	0	-2	5	5	0.3028514	2.328733	8	10	0.03	1800	-9.806671	40.92393	-91.39363
103509	1452	3377	-796	-0.4342551	-8.684547	1.047361	0	10.72	4004	0	-2	5	5	0.3028548	2.330954	8	10	0.03	1800	-9.806671	40.92393	-91.39363
103646	-1966	2697	3149	1.507955	-16.26183	1.446339	0	10.72	4002	0	-2	5	5	0.3028587	2.327512	8	10	0.03	1800	-8.022888	40.92393	-91.39363
103733	-128	1228	1739	0.3332416	-16.08046	0.6938368	0	10.72	4003	0	-2	5	5	0.3028615	2.311964	8	10	0.03	1800	-6.828491	40.92393	-91.39363
103903	-253	-161	695	1.401386	-22.38203	1.169038	0	10.89	4003	0	-5	5	5	0.3028645	2.278962	8	10	0.03	1800	-6.9664	40.92393	-91.39363
104029	-2804	-5100	-702	-0.8559994	-13.09029	0.9822738	0	10.89	4003	0	-8	5	5	0.3028657	2.260985	8	10	0.03	1800	-4.566833	40.92392	-91.39363
104127	-1447	-4734	-2041	-2.086638	-8.618399	0.8855503	0	10.89	4003	0	-8	5	5	0.3028669	2.236974	8	10	0.03	1800	-5.726624	40.92392	-91.39363
104271	1675	746	-455	-4.36634	-2.324815	3.886134	0	10.89	4002	0	-8	5	5	0.3028676	2.201067	8	10	0.03	1800	-6.812775	40.92392	-91.39363
104328	214	-764	1681	-2.602921	-3.518549	2.203294	0	10.89	4004	0	-11	5	5	0.3028677	2.1918	8	10	0.03	1800	-9.61676	40.92392	-91.39363
104438	-41	-1879	1523	-1.669355	-2.521975	0.9390318	0	10.89	4004	0	-11	5	5	0.3028682	2.164855	8	10	0.03	1800	-9.862854	40.92392	-91.39363
104531	1026	3466	1048	-1.732805	-2.224279	-0.3490685	0	10.89	4002	0	-11	5	5	0.3028683	2.145607	8	10	0.03	1800	-9.347595	40.92392	-91.39363
104642	190	1263	-139	1.368537	-9.730953	1.595289	0	10.89	4003	0	-11	5	5	0.3028685	2.116323	8	10	0.03	1800	-9.587189	40.92392	-91.39363
104764	136	-993	-168	-0.06039142	-6.82991	3.424067	0	10.89	4003	0	-11	5	5	0.3028687	2.100341	8	10	0.03	1800	-9.828674	40.92392	-91.39363
104862	-1530	-976	-83	-2.460005	-2.211004	5.114034	0	10.6	4004	0	-11	5	5	0.3028688	2.080586	8	10	0.03	1800	-10.9212	40.92392	-91.39363
104960	1994	180	-290	-1.332538	-1.835055	3.892729	0	10.6	4004	0	-11	5	5	0.3028688	2.071607	8	10	0.03	1800	-12.58997	40.92392	-91.39363
105116	-841	-726	1157	2.0816	-4.698643	0.6913871	0	10.6	4004	0	-14	5	5	0.3028688	2.057519	8	10	0.03	1800	-9.543793	40.92392	-91.39363
105182	80	-1980	-1081	1.187794	-2.722946	0.217891	0	10.6	4003	0	-14	5	5	0.3028688	2.051304	8	10	0.03	1800	-10.73792	40.92392	-91.39363
105306	529	444	-2143	2.82398	-4.448998	1.58077	0	10.6	4003	0	-14	5	5	0.3028688	2.04923	8	10	0.03	1800	-10.61154	40.92392	-91.39363
105418	-520	1175	1330	0.6614473	-4.563923	3.366797	0	10.6	4003	0	-14	5	5	0.3028688	2.05092	8	10	0.03	1800	-11.13644	40.92392	-91.39363
105500	373	208	2200	-1.522328	-3.248152	3.943427	0	10.6	4002	0	-14	5	5	0.3028688	2.061871	8	10	0.03	1800	-9.160431	40.92392	-91.39363
105628	251	257	1969	-1.319112	-2.051218	2.342555	0	10.6	4003	0	-14	5	5	0.3028688	2.077008	8	10	0.03	1800	-11.58701	40.92392	-91.39363
105660	1110	316	1269	0.3463353	-3.059963	1.244923	0	10.6	4003	0	-14	5	5	0.3028688	2.088157	8	10	0.03	1800	-13.1806	40.92392	-91.39363
105775	-1022	318	125	0.1207385	-2.572148	2.857289	0	11.8	4004	0	-14	5	5	0.3028688	2.116724	8	10	0.03	1800	-12.74396	40.92392	-91.39363
105908	2564	4156	-411	-0.158563	-4.428291	3.439994	0	11.8	4002	0	-14	5	5	0.3028688	2.150342	8	10	0.03	1800	-13.38245	40.92392	-91.39363
106007	-699	1031	1150	2.178741	-12.85908	2.541311	0	11.8	4003	0	-16	5	5	0.3028688	2.190459	8	10	0.03	1800	-11.70905	40.92391	-91.39363
106071	-1352	670	559	1.532566	-12.71632	1.792003	0	11.8	4002	0	-20	5	5	0.3028688	2.213116	8	10	0.03	1800	-9.51297	40.92391	-91.39363
106177	31	-2318	-1393	1.146905	-13.79801	0.3178634	0	11.8	4002	0	-16	5	5	0.3028688	2.267612	8	10	0.03	1800	-8.465942	40.92391	-91.39363
106312	64	-846	324	1.42135	-9.703153	1.923468	0	11.8	4004	0	-16	5	5	0.3028688	2.30493	8	10	0.03	1800	-9.546265	40.92391	-91.39363
106417	1101	1235	-1433	1.707358	-9.558204	3.33666	0	11.8	4004	0	-16	5	5	0.3028688	2.346241	8	10	0.03	1800	-8.69754	40.92391	-91.39363
106488	12	-400	2163	2.586989	-9.41412	3.090685	0	11.8	4003	0	-16	5	5	0.3028688	2.402297	8	10	0.03	1800	-8.952209	40.92391	-91.39363
106620	-796	-3126	-42	0.8523113	-5.90973	0.7224139	0	11.8	4002	0	-16	5	5	0.3028688	2.452719	8	10	0.03	1800	-9.53479	40.92391	-91.39363
106683	-796	-3126	-42	0.8523113	-5.90973	0.7224139	0	11.8	4002	0	-16	5	5	0.3028688	2.475441	8	10	0.03	1800	-5.866455	40.92391	-91.39363
106774	63	1446	1125	0.7420998	-4.80255	-0.1574959	0	11.57	4003	-5	-16	5	5	0.3028688	2.526287	8	10	0.03	1800	-5.226624	40.92391	-91.39364
106919	-557	-2247	-477	1.351127	-6.792292	2.810611	0	11.57	4003	-5	-16	5	5	0.3028688	2.595338	8	10	0.03	1800	-6.43335	40.92391	-91.39364
107067	1394	-619	1386	-0.814617	-4.919897	0.9564812	0	11.57	4003	-5	-16	5	5	0.3028688	2.662123	8	10	0.03	1800	-6.054443	40.92391	-91.39364
107132	308	1049	-799	0.7096943	-5.872983	0.3198265	0	11.57	4004	-5	-16	5	5	0.3028688	2.694109	8	10	0.03	1800	-3.847046	40.92391	-91.39364
107190	-635	-48	131	0.4870738	-6.696715	0.1171872	0	11.57	4003	-5	-16	5	5	0.3028688	2.715556	8	10	0.03	1800	-3.847046	40.92391	-91.39364
107291	-281	-1065	159	1.598271	-6.069651	1.311872	0	11.57	4003	-5	-16	5	5	0.3028688	2.744727	8	10	0.03	1800	-5.781311	40.92391	-91.39364
107401	-518	481	1385	0.3134727	-6.829867	1.509323	0	11.57	4004	-5	-16	5	5	0.3028688	2.800356	8	10	0.03	1800	-4.890167	40.92392	-91.39364
107516	509	2306	1445	0.1351359	-10.18696	0.8330277	0	11.57	4005	-5	-14	5	5	0.3028688	2.841727	8	10	0.03	1800	-6.558411	40.92392	-91.39364
107575	-1054	-792	-188	0.7519885	-12.30221	0.3924224	0	11.11	4003	-5	-14	5	5	0.3028688	2.854262	8	10	0.03	1800	-5.495148	40.92392	-91.39364
107723	2042	-768	775	-0.6793647	-5.402527	0.6095898	0	11.11	4003	-5	-14	5	5	0.3028688	2.870137	8	10	0.03	1800	-6.581512	40.92392	-91.39364
107827	813	1428	228	2.642691	-8.889641	2.669187	0	11.11	4002	-5	-11	5	5	0.3028688	2.867312	8	10	0.03	1800	-5.240845	40.92392	-91.39364
107979	-1191	-1261	1878	1.139098	-6.165278	1.545237	0	11.11	4003	-5	-11	5	5	0.3028688	2.846189	8	10	0.03	1800	-4.660736	40.92392	-91.39364
108090	-556	-1322	3	-0.2280195	-4.021303	-0.08468897	0	11.11	4003	-5	-11	5	5	0.3028688	2.828339	8	10	0.03	1800	-4.375031	40.92392	-91.39364
108122	-828	-2023	-115	-0.5448263	-3.290429	-0.1609332	0	11.11	4003	-5	-11	5	5	0.3028688	2.814939	8	10	0.03	1800	-4.375031	40.92392	-91.39364
108240	914	367	425	-0.3823622	-0.9437281	0.8575215	0	11.11	4003	-5	-11	5	5	0.3028688	2.771787	8	10	0.03	1800	-8.007172	40.92392	-91.39364
108390	-703	3	334	1.763672	-4.155133	3.194204	0	11.11	4002	-5	-14	5	5	0.3028688	2.704876	8	10	0.03	1800	-7.501343	40.92392	-91.39364
108415	-2170	-2214	1598	0.181745	-3.342585	2.585796	0	11.11	4004	-5	-14	5	5	0.3028688	2.679539	8	10	0.03	1800	-6.472992	40.92392	-91.39364
108538	-416	-528	708	0.2121229	-2.852463	1.480586	0	11.74	4002	-5	-14	5	5	0.3028688	2.623758	8	10	0.03	1800	-7.5065	40.92392	-91.39364
108662	-286	320	1209	-0.2619922	-2.598611	0.6005839	0	11.74	4002	-5	-14	5	5	0.3028688	2.585659	8	10	0.03	1800	-12.64908	40.92392	-91.39364
108790	-202	516	-2232	2.423799	-5.310558	1.656735	0	11.74	4004	-5	-14	5	5	0.3028688	2.502143	8	10	0.03	1800	-13.67288	40.92392	-91.39364
108839	-2150	-566	-374	1.093025	-6.240757	1.575825	0	11.74	4004	-5	-14	5	5	0.3028688	2.472478	8	10	0.03	1800	-13.04218	40.92392	-91.39364
108927	-343	-700	941	-0.352868	-4.991882	1.345565	0	11.74	4002	-5	-14	5	5	0.3028688	2.424646	8	10	0.03	1800	-13.64191	40.92392	-91.39364
109096	-920	-33	1391	0.4343629	-2.835578	1.089641	0	11.74	4004	-5	-16	5	5	0.3028688	2.289077	8	10	0.03	1800	-15.85043	40.92391	-91.39364
109178	3044	3212	1381	1.027872	-3.77575	1.034431	0	11.74	4004	-5	-16	5	5	0.3028688	2.238717	8	10	0.03	1800	-15.8165	40.92391	-91.39364
109262	1159	1558	-1213	4.763048	-6.310725	2.656723	0	11.74	4004	-5	-16	5	5	0.3028688	2.173297	8	10	0.03	1800	-14.58524	40.92391	-91.39364
109359	1788	1095	1751	5.135475	-5.697966	3.492618	0	11.74	4002	-5	-16	5	5	0.3028688	2.127588	8	10	0.03	1800	-12.85483	40.92391	-91.39364
109478	-467	1483	1838	3.461059	-5.438696	3.927047	0	9.53	4004	0	-19	5	5	0.3028688	2.046014	8	10	0.03	1800	-11.16461	40.92391	-91.39363
109538	-3210	-2000	125	2.63925	-5.713699	3.671159	0	9.53	4002	0	-19	5	5	0.3028688	2.00537	8	10	0.03	1800	-11.16461	40.9239	-91.39363
109657	71	-884	1214	2.261322	-2.611176	2.636016	0	9.53	4004	0	-25	5	5	0.3028688	1.920186	8	10	0.03	1800	-9.800964	40.9239	-91.39363
109760	1684	921	496	1.561001	-1.314881	2.209707	0	9.53	4003	0	-25	5	5	0.3028688	1.879669	8	10	0.03	1800	-10.93185	40.9239	-91.39363
109857	-2590	1270	-855	2.603763	-2.717973	2.978239	0	9.53	4003	0	-28	5	5	0.3028688	1.828329	8	10	0.03	1800	-12.61871	40.9239	-91.39363
109969	-785	4064	26	-0.9011464	-5.89194	2.748218	0	9.53	4003	0	-28	5	5	0.3028688	1.803967	8	10	0.03	1800	-11.92038	40.92389	-91.39363
110073	177	4518	-176	0.06042877	-14.55763	2.388931	0	9.53	4003	0	-30	5	5	0.3028688	1.784814	8	10	0.03	1800	-10.16855	40.92389	-91.39363
110172	50	4763	-258	1.090514	-19.1989	1.970551	0	9.53	4003	0	-33	5	5	0.3028688	1.782924	8	10	0.03	1800	-9.042969	40.92389	-91.39363
110271	-141	2699	1068	0.4182933	-24.8447	0.2824221	0	9.53	4003	0	-33	5	5	0.3028688	1.78625	8	10	0.03	1800	-9.329865	40.92389	-91.39363
110353	1837	3782	-889	0.9072981	-25.66666	0.4664552	0	10.72	4002	0	-33	5	5	0.3028688	1.793232	8	10	0.03	1800	-8.297546	40.92389	-91.39363
110523	-1745	-4089	-1148	1.730362	-24.84537	3.07178	0	10.72	4003	0	-36	5	5	0.3028688	1.829123	8	10	0.03	1800	-8.673096	40.92389	-91.39363
110641	-91	-1022	2190	0.6081592	-17.29485	1.450139	0	10.72	4003	0	-36	5	5	0.3028688	1.885465	8	10	0.03	1800	-8.878967	40.92389	-91.39363
110703	-749	-2094	669	0.3791232	-15.48088	0.3746959	0	10.72	4003	0	-39	5	5	0.3028688	1.895183	8	10	0.03	1800	-8.244843	40.92388	-91.39363
110806	324	-1929	-1388	0.7992497	-8.889956	0.3497017	0	10.72	4002	0	-39	5	5	0.3028688	1.956879	8	10	0.03	1800	-6.658478	40.92388	-91.39363
110917	971	-459	-322	1.737283	-8.602531	1.981882	0	10.72	4003	0	-39	5	5	0.3028688	2.013341	8	10	0.03	1800	-6.804749	40.92388	-91.39363
111038	-1206	-1082	1013	1.604189	-7.643062	2.513582	0	10.72	4003	5	-39	5	5	0.3028688	2.072341	8	10	0.03	1800	-9.023071	40.92388	-91.39362
111124	-1588	-1091	2368	-0.5442959	-6.611076	1.204607	0	10.72	4002	5	-39	5	5	0.3028688	2.115537	8	10	0.03	1800	-8.431061	40.92388	-91.39362
111229	-1085	-2261	910	0.2093352	-5.98182	0.5945156	0	10.6	4003	5	-39	5	5	0.3028688	2.18255	8	10	0.03	1800	-8.663422	40.92388	-91.39362
111249	-1436	-2028	1150	-0.2864129	-5.508867	0.6613652	0	10.6	4004	5	-39	5	5	0.3028688	2.18255	8	10	0.03	1800	-8.12323	40.92388	-91.39362
111485	-995	-2057	-471	-2.500527	-4.760874	2.241656	0	10.6	4002	5	-33	5	5	0.3028688	2.277475	8	10	0.03	1800	-9.431366	40.92389	-91.39362
111579	-441	-1800	205	-3.49538	-2.252836	2.770494	0	10.6	4003	5	-30	5	5	0.3028688	2.306236	8	10	0.03	1800	-10.94904	40.92389	-91.39362
111648	223	277	1684	-1.338988	-3.805188	1.88623	0	10.6	4002	5	-30	5	5	0.3028688	2.348671	8	10	0.03	1800	-11.7851	40.92389	-91.39362
111725	758	1376	1362	0.1246679	-6.689363	1.296539	0	10.6	4003	5	-30	5	5	0.3028688	2.364437	8	10	0.03	1800	-12.12631	40.9239	-91.39362
111840	751	-2027	-1245	1.023697	-7.439221	1.405938	0	10.6	4003	5	-28	5	5	0.3028688	2.371952	8	10	0.03	1800	-12.45731	40.9239	-91.39362
111938	-994	-750	227	1.11849	-7.174261	1.904375	0	10.6	4003	5	-25	5	5	0.3028688	2.37206	8	10	0.03	1800	-13.16025	40.9239	-91.39362
112081	-2224	-2914	-329	1.102805	-9.420763	1.440049	0	11.11	4004	5	-25	5	5	0.3028688	2.367337	8	10	0.03	1800	-13.09113	40.9239	-91.39362
112184	4	665	-537	0.2531994	-7.32267	1.783562	0	11.11	4002	5	-22	5	5	0.3028688	2.346026	8	10	0.03	1800	-12.55643	40.9239	-91.39362
112225	-1122	1144	-384	-0.1514527	-7.787294	1.606789	0	11.11	4002	5	-22	5	5	0.3028688	2.339688	8	10	0.03	1800	-13.16962	40.9239	-91.39362
112330	808	181	424	-0.9040327	-7.923775	1.693335	0	11.11	4002	5	-16	5	5	0.3028688	2.331342	8	10	0.03	1800	-14.54309	40.92391	-91.39362
112419	1138	-895	647	0.01691869	-7.004487	2.03959	0	11.11	4004	5	-16	5	5	0.3028688	2.301202	8	10	0.03	1800	-13.93149	40.92392	-91.39362
112507	41	-565	35	-1.484886	-5.515226	2.276896	0	11.11	4003	5	-14	5	5	0.3028688	2.292969	8	10	0.03	1800	-13.92432	40.92392	-91.39362
112627	376	888	920	-1.583966	-6.071159	1.053852	0	11.11	4004	5	-14	5	5	0.3028688	2.268435	8	10	0.03	1800	-13.71924	40.92392	-91.39362
112754	1860	416	905	0.01911434	-6.22301	1.037139	0	11.11	4004	5	-14	5	5	0.3028688	2.229621	8	10	0.03	1800	-14.41812	40.92392	-91.39362
112811	-16	-930	-778	0.3807813	-5.723281	1.525603	0	11.11	4004	5	-8	5	5	0.3028688	2.223615	8	10	0.03	1800	-14.23502	40.92392	-91.39362
112914	32	1227	-110	-0.2788856	-5.668662	1.989796	0	11.11	4005	5	-8	5	5	0.3028688	2.207043	8	10	0.03	1800	-12.92944	40.92392	-91.39362
113008	591	906	-241	0.233503	-6.909069	1.753634	0	10.94	4003	0	-5	5	5	0.3028688	2.186859	8	10	0.03	1800	-15.53903	40.92393	-91.39363
113257	-1412	-1362	-2212	0.08997505	-7.38167	2.071656	0	10.94	4003	0	-2	5	5	0.3028688	2.122775	8	10	0.03	1800	-11.96289	40.92393	-91.39363
113415	919	-476	45	-2.378846	-4.357239	2.657712	0	10.94	4003	0	0	5	5	0.3028688	2.096485	8	10	0.03	1800	-11.5105	40.92393	-91.39363
113479	1758	701	698	-1.696679	-4.377063	2.203664	0	10.94	4002	0	0	5	5	0.3028688	2.083023	8	10	0.03	1800	-15.26724	40.92393	-91.39363
113588	-802	-766	-882	-2.429946	-2.077225	2.883338	0	10.94	4004	0	0	5	5	0.3028688	2.074563	8	10	0.03	1800	-16.96481	40.92393	-91.39363
113622	171	763	297	-2.365829	-2.662525	2.781804	0	10.94	4002	0	0	5	5	0.3028688	2.074643	8	10	0.03	1800	-16.96481	40.92393	-91.39363
113710	-810	-1052	458	-2.606031	-2.606742	1.944439	0	10.94	4002	0	0	5	5	0.3028688	2.076284	8	10	0.03	1800	-14.1048	40.92393	-91.39363
113826	988	3071	-48	-1.32141	-6.89052	0.9528522	0	10.94	4003	0	0	5	5	0.3028688	2.079822	8	10	0.03	1800	-15.79181	40.92393	-91.39363
114004	1542	499	-103	-0.6260312	-13.42211	2.45421	0	11.68	4003	0	0	5	5	0.3028688	2.076639	8	10	0.03	1800	-10.03961	40.92393	-91.39363
114208	954	-185	-110	-0.6722771	-8.458548	1.138814	0	11.68	4004	-5	0	5	5	0.3028688	2.066448	8	10	0.03	1800	-10.4194	40.92393	-91.39364
114300	297	50	1177	-0.4164402	-4.873871	0.6592246	0	11.68	4003	-5	0	5	5	0.3028688	2.061889	8	10	0.03	1800	-11.51193	40.92393	-91.39364
114354	866	430	-677	-0.2113281	-5.246108	1.078225	0	11.68	4003	-5	-2	5	5	0.3028688	2.058012	8	10	0.03	1800	-8.913544	40.92393	-91.39364
114513	-697	330	1580	0.6729435	-7.911729	2.379923	0	11.68	4003	-5	-5	5	5	0.3028688	2.048531	8	10	0.03	1800	-9.740814	40.92393	-91.39364
114626	-882	-1799	1196	0.1130493	-5.983151	1.522667	0	11.68	4003	-5	-5	5	5	0.3028688	2.027861	8	10	0.03	1800	-12.84436	40.92393	-91.39364
114660	-350	-2912	217	-0.09490898	-4.566307	1.191772	0	11.68	4003	-5	-5	5	5	0.3028688	2.024086	8	10	0.03	1800	-9.239655	40.92393	-91.39364
114728	-735	-1184	577	-0.2637015	-2.283671	0.4032131	0	11.68	4003	-5	-5	5	5	0.3028688	2.010729	8	10	0.03	1800	-12.89252	40.92393	-91.39364
114888	703	2323	-1588	1.959425	-5.916046	2.161028	0	10.38	4003	-11	-8	5	5	0.3028688	1.970118	8	10	0.03	1800	-14.51846	40.92392	-91.39365
115036	-1661	787	762	0.9770884	-8.25422	1.473612	0	10.38	4004	-11	-11	5	5	0.3028688	1.939179	8	10	0.03	1800	-8.799652	40.92392	-91.39365
115102	390	4493	-295	1.106786	-11.79007	0.7827227	0	10.38	4003	-11	-11	5	5	0.3028688	1.926567	8	10	0.03	1800	-10.72897	40.92392	-91.39365
115164	-92	4656	-1977	2.190794	-17.12705	0.7278933	0	10.38	4004	-11	-11	5	5	0.3028688	1.914318	8	10	0.03	1800	-7.11969	40.92392	-91.39365
115299	-310	2298	-761	1.446238	-22.82382	1.608418	0	10.38	4002	-11	-11	5	5	0.3028688	1.886041	8	10	0.03	1800	-6.565277	40.92392	-91.39365
115415	766	3853	803	1.163016	-24.31988	1.191077	0	10.38	4002	-11	-14	5	5	0.3028688	1.864911	8	10	0.03	1800	-4.963959	40.92392	-91.39365
115436	-335	1512	828	2.529243	-27.36253	1.276945	0	10.38	4003	-11	-14	5	5	0.3028688	1.861749	8	10	0.03	1800	-4.886261	40.92392	-91.39365
115531	-1504	-21	-352	1.486144	-25.95819	1.606387	0	10.38	4003	-11	-16	5	5	0.3028688	1.833142	8	10	0.03	1800	-2.906158	40.92391	-91.39365
115648	-111	2446	-132	0.7881458	-25.51913	1.431506	0	10.38	4004	-11	-16	5	5	0.3028688	1.803497	8	10	0.03	1800	-3.439362	40.92391	-91.39365
115713	824	930	975	1.762727	-26.07695	1.287364	0	10.72	4003	-11	-16	5	5	0.3028688	1.768062	8	10	0.03	1800	-3.056702	40.92391	-91.39365
115788	-747	-595	-5	1.461498	-24.06883	1.84367	0	10.72	4004	-11	-16	5	5	0.3028688	1.751358	8	10	0.03	1800	-2.886353	40.92391	-91.39365
115964	1103	-2820	-55	2.057191	-14.50855	1.438304	0	10.72	4003	-11	-19	5	5	0.3028688	1.730531	8	10	0.03	1800	-2.054077	40.92391	-91.39365
116036	-1417	-2181	-237	1.443988	-12.60905	1.751456	0	10.72	4004	-11	-19	5	5	0.3028688	1.717864	8	10	0.03	1800	-0.931366	40.92391	-91.39365
116171	36	-2840	22	0.05456332	-8.453704	2.704606	0	10.72	4004	-11	-19	5	5	0.3028688	1.699814	8	10	0.03	1800	-1.007751	40.92391	-91.39365
116332	1949	640	2703	-1.901837	-3.873108	1.761194	0	10.72	4004	-11	-19	5	5	0.3028688	1.669562	8	10	0.03	1800	-2.044067	40.92391	-91.39365
116449	-176	-1090	1553	-0.5698171	-4.595104	-0.2144695	0	10.72	4004	-11	-19	5	5	0.3028688	1.65453	8	10	0.03	1800	-1.720337	40.92391	-91.39365
116504	1523	-658	23	0.6299796	-3.199047	0.1109851	0	10.72	4003	-11	-19	5	5	0.3028688	1.646347	8	10	0.03	1800	-0.8119507	40.92391	-91.39365
116620	183	453	-915	0.6480409	-2.757151	1.868911	0	11.23	4002	-5	-16	5	5	0.3028688	1.621974	8	10	0.03	1800	-0.08978271	40.92391	-91.39364
116813	-65	-509	273	1.421824	-5.64809	2.040197	0	11.23	4003	-5	-14	5	5	0.3028688	1.586922	8	10	0.03	1800	-1.840271	40.92392	-91.39364
116937	417	1256	419	0.5718906	-6.603594	1.020984	0	11.23	4004	-5	-14	5	5	0.3028688	1.565856	8	10	0.03	1800	-0.5394592	40.92392	-91.39364
116975	1697	342	515	1.38373	-7.149906	1.01774	0	11.23	4004	-5	-11	5	5	0.3028688	1.564917	8	10	0.03	1800	0.7978826	40.92392	-91.39364
117068	1005	-47	740	2.388988	-6.974741	2.004514	0	11.23	4003	-5	-11	5	5	0.3028688	1.561328	8	10	0.03	1800	1.83875	40.92392	-91.39364
117235	-1254	-676	1910	1.593644	-6.462108	1.939013	0	11.23	4003	-5	-8	5	5	0.3028688	1.563344	8	10	0.03	1800	0.02236152	40.92392	-91.39364
117265	-653	-622	1888	1.275303	-6.016026	1.294644	0	11.23	4003	-5	-8	5	5	0.3028688	1.566901	8	10	0.03	1800	0.02941147	40.92392	-91.39364
117381	-668	-929	-416	-0.4116618	-6.040017	0.003449688	0	11.23	4002	0	-5	5	5	0.3028688	1.56862	8	10	0.03	1800	1.573431	40.92393	-91.39363
117501	1298	444	-867	1.769423	-5.362568	1.173191	0	11.57	4002	0	-5	5	5	0.3028688	1.558878	8	10	0.03	1800	0.1626364	40.92393	-91.39363
117575	-907	-1211	-838	1.860599	-5.369367	1.613842	0	11.57	4003	0	-2	5	5	0.3028688	1.544232	8	10	0.03	1800	2.138264	40.92393	-91.39363
117680	273	229	122	0.7540287	-2.709887	1.950941	0	11.57	4003	0	-2	5	5	0.3028688	1.529032	8	10	0.03	1800	3.195686	40.92393	-91.39363
117795	584	2219	1140	0.217096	-4.810164	1.635097	0	11.57	4003	0	-2	5	5	0.3028688	1.523313	8	10	0.03	1800	0.7579501	40.92393	-91.39363
117906	-398	-1241	402	0.1660342	-4.745037	0.9514771	0	11.57	4002	5	-2	5	5	0.3028688	1.518386	8	10	0.03	1800	2.523372	40.92393	-91.39362
117974	-1123	-2087	-715	-1.027301	-2.99986	0.6683379	0	11.57	4004	5	-2	5	5	0.3028688	1.50935	8	10	0.03	1800	2.26145	40.92393	-91.39362
118086	698	136	-1336	-1.277476	-2.22073	1.207671	0	11.57	4002	5	-2	5	5	0.3028688	1.498668	8	10	0.03	1800	2.131183	40.92393	-91.39362
118202	-799	-917	302	0.2702543	-3.88204	1.747624	0	11.57	4003	5	-2	5	5	0.3028688	1.485395	8	10	0.03	1800	0.1953561	40.92393	-91.39362
118285	1191	388	-237	1.053814	-4.438784	2.027756	0	11.57	4003	11	-2	5	5	0.3028688	1.472505	8	10	0.03	1800	2.095935	40.92393	-91.39362
118454	1446	1055	943	1.50629	-4.464486	1.336954	0	11	4002	11	-2	5	5	0.3028688	1.430548	8	10	0.03	1800	1.382629	40.92393	-91.39362
118576	51	875	-347	0.8210805	-3.783768	3.109411	0	11	4002	11	-2	5	5	0.3028688	1.399702	8	10	0.03	1800	-1.108154	40.92393	-91.39362
118624	-1276	417	-869	0.8573425	-4.427864	3.100166	0	11	4002	11	-2	5	5	0.3028688	1.382521	8	10	0.03	1800	-7.392822	40.92393	-91.39362
118737	1347	680	66	2.112964	-5.300851	2.459065	0	11	4004	11	-2	5	5	0.3028688	1.315377	8	10	0.03	1800	-6.23526	40.92393	-91.39362
118798	-2072	-1794	-1173	2.315317	-5.51994	2.027114	0	11	4003	16	-2	5	5	0.3028688	1.301518	8	10	0.03	1800	-6.23526	40.92393	-91.39361
118896	-962	-1185	540	-0.3225324	-3.401643	1.577086	0	11	4004	16	-2	5	5	0.3028688	1.278121	8	10	0.03	1800	-6.017151	40.92393	-91.39361
118972	-878	-458	-570	0.02922614	-2.721843	0.7837794	0	11	4004	22	-5	5	5	0.3028688	1.25454	8	10	0.03	1800	-11.59653	40.92393	-91.3936
119082	1670	600	-1102	0.7243312	-5.098	1.376864	0	11	4004	22	-5	5	5	0.3028688	1.231515	8	10	0.03	1800	-17.20825	40.92393	-91.3936
119170	-616	-1468	-1384	1.622142	-6.136719	2.450097	0	11	4004	22	-5	5	5	0.3028688	1.213883	8	10	0.03	1800	-22.43286	40.92393	-91.3936
119276	1038	-885	335	-1.155011	-2.112898	3.52812	0	11	4003	22	-5	5	5	0.3028688	1.180173	8	10	0.03	1800	-25.69495	40.92393	-91.3936
119370	1886	2143	-1614	0.474454	-3.784658	4.15925	0	9.64	4002	22	-11	5	5	0.3028688	1.159531	8	10	0.03	1800	-23.53293	40.92392	-91.3936
119457	-1267	682	173	1.54508	-6.38252	4.167597	0	9.64	4003	22	-11	5	5	0.3028688	1.148556	8	10	0.03	1800	-31.16806	40.92392	-91.3936
119558	-796	1593	1495	-1.183333	-4.802914	2.403972	0	9.64	4004	22	-14	5	5	0.3028688	1.137999	8	10	0.03	1800	-28.24277	40.92392	-91.3936
119717	481	3535	889	-0.4523706	-10.59806	0.08174421	0	9.64	4002	28	-16	5	5	0.3028688	1.135507	8	10	0.03	1800	-25.71399	40.92391	-91.39359
119765	808	4598	1745	0.2016621	-12.21592	-0.01037282	0	9.64	4002	28	-16	5	5	0.3028688	1.134304	8	10	0.03	1800	-26.90308	40.92391	-91.39359
119883	549	4662	236	0.8854522	-18.94667	1.013272	0	9.64	4004	28	-22	5	5	0.3028688	1.135882	8	10	0.03	1800	-23.46301	40.9239	-91.39359
119952	684	3980	253	0.5551789	-21.55252	1.75429	0	9.64	4004	28	-22	5	5	0.3028688	1.136651	8	10	0.03	1800	-21.07019	40.9239	-91.39359
120065	-1292	1878	393	-0.5559105	-23.67135	1.300805	0	9.64	4002	33	-25	5	5	0.3028688	1.15725	8	10	0.03	1800	-20.81393	40.9239	-91.39359
120169	331	5629	834	0.1474639	-27.82397	0.3938951	0	9.64	4004	33	-25	5	5	0.3028688	1.18711	8	10	0.03	1800	-17.25925	40.9239	-91.39359
120264	-1060	-24	-106	-0.4022669	-27.98968	0.8190575	0	10.94	4003	33	-28	5	5	0.3028688	1.208545	8	10	0.03	1800	-16.30435	40.9239	-91.39359
120362	-1825	-810	-1805	-2.299838	-25.79086	1.278387	0	10.94	4003	33	-28	5	5	0.3028688	1.246748	8	10	0.03	1800	-15.46243	40.9239	-91.39359
120458	764	1714	-1134	-1.714694	-27.83772	1.615926	0	10.94	4002	33	-30	5	5	0.3028688	1.280392	8	10	0.03	1800	-16.03369	40.92389	-91.39359
120552	-1108	-5794	1108	-1.592126	-22.66071	1.406508	0	10.94	4002	33	-30	5	5	0.3028688	1.316823	8	10	0.03	1800	-15.47308	40.92389	-91.39359
120706	878	-859	1060	-0.9420466	-12.0195	0.9430769	0	10.94	4003	33	-30	5	5	0.3028688	1.354564	8	10	0.03	1800	-14.3526	40.92389	-91.39359
120831	112	-1640	-922	-1.395252	-7.864684	1.346269	0	10.94	4004	40	-37	5	5	0.3028688	1.376377	8	10	0.03	1800	-15.02872	40.92389	-91.39359
120900	19	-1156	637	-2.459108	-5.652894	0.9986063	0	10.94	4003	33	-30	5	5	0.3028688	1.378455	8	10	0.03	1800	-15.0831	40.92389	-91.39359
120982	296	-619	1801	-2.499187	-3.799036	0.5924675	0	10.94	4002	13	-13	5	5	0.3028688	1.380292	8	10	0.03	1800	-15.58524	40.92389	-91.39359
121124	-772	372	-1134	-1.508441	-4.592954	1.426435	0	10.94	4002	33	-33	5	5	0.3028688	1.374407	8	10	0.03	1800	-16.49051	40.92389	-91.39359
121202	469	137	-1246	-2.000509	-5.743581	2.019864	0	10.77	4003	33	-33	5	5	0.3028688	1.381224	8	10	0.03	1800	-15.92786	40.92389	-91.39359
121290	-435	-1422	-159	-1.551495	-5.936778	1.960605	0	10.77	4004	40	-40	5	5	0.3028688	1.388934	8	10	0.03	1800	-16.16531	40.92389	-91.39359
121432	61	1632	1412	-2.296231	-7.040919	1.187513	0	10.77	4003	33	-33	5	5	0.3028688	1.405165	8	10	0.03	1800	-16.00589	40.92389	-91.39359
121502	792	440	-570	-1.835284	-7.777334	1.702969	0	10.77	4002	33	-33	5	5	0.3028688	1.416103	8	10	0.03	1800	-17.86813	40.92389	-91.39359
121660	-1126	-1921	126	-1.942561	-7.992684	1.994962	0	10.77	4004	40	-30	5	5	0.3028688	1.43768	8	10	0.03	1800	-17.7916	40.92389	-91.39359
121676	-1126	-1921	126	-1.942561	-7.992684	1.994962	0	10.77	4004	40	-36	5	5	0.3028688	1.441495	8	10	0.03	1800	-17.7916	40.92389	-91.39359
121850	-617	-2105	218	-4.45092	-6.814203	0.8742135	0	10.77	4003	28	-28	5	5	0.3028688	1.464625	8	10	0.03	1800	-17.1322	40.9239	-91.39359
121957	28	25	-1133	-3.564301	-5.406267	1.579373	0	10.77	4003	28	-25	5	5	0.3028688	1.475883	8	10	0.03	1800	-18.40796	40.9239	-91.39359
121981	28	25	-1133	-2.256554	-6.050393	2.022833	0	10.77	4003	28	-25	5	5	0.3028688	1.483947	8	10	0.03	1800	-18.75113	40.9239	-91.39359
122096	178	769	234	-2.771886	-7.252157	2.165465	0	10.94	4004	22	-22	5	5	0.3028688	1.495187	8	10	0.03	1800	-19.89117	40.9239	-91.3936
122274	1265	1395	1840	-2.449863	-5.90594	1.19189	0	10.94	4004	22	-22	5	5	0.3028688	1.498691	8	10	0.03	1800	-17.46234	40.9239	-91.3936
122312	231	1570	455	-2.256034	-6.684967	1.210657	0	10.94	4002	22	-22	5	5	0.3028688	1.498269	8	10	0.03	1800	-17.46234	40.9239	-91.3936
122418	-1077	-2445	-1558	-1.706949	-9.212016	2.200969	0	10.94	4004	22	-22	5	5	0.3028688	1.498233	8	10	0.03	1800	-19.23792	40.9239	-91.3936
122513	-413	-2964	-276	-1.925505	-6.193884	3.720893	0	10.94	4002	16	-19	5	5	0.3028688	1.50024	8	10	0.03	1800	-21.79483	40.92391	-91.39361
122601	443	36	1210	-2.633856	-4.633119	2.662723	0	10.94	4003	16	-19	5	5	0.3028688	1.508484	8	10	0.03	1800	-21.25967	40.92391	-91.39361
122700	-131	-2131	1291	-2.387909	-3.232018	1.280818	0	10.94	4002	16	-16	5	5	0.3028688	1.510879	8	10	0.03	1800	-21.08688	40.92391	-91.39361
122854	-1549	48	-877	-3.337044	-4.54108	0.3907633	0	10.94	4003	13	-16	5	5	0.3028688	1.494364	8	10	0.03	1800	-21.26074	40.92392	-91.39362
122951	-675	-976	-2416	-3.41174	-4.802465	1.49167	0	10.94	4004	11	-14	5	5	0.3028688	1.488261	8	10	0.03	1800	-24.26117	40.92392	-91.39362
123014	7	1582	-1417	-3.607291	-5.523376	1.614833	0	10.94	4002	11	-14	5	5	0.3028688	1.477573	8	10	0.03	1800	-24.26117	40.92392	-91.39362
123157	1738	3628	723	2.095651	-16.44075	2.635091	0	11.63	4004	11	-11	5	5	0.3028688	1.436375	8	10	0.03	1800	-18.39005	40.92392	-91.39362
123238	1800	2039	1987	3.951169	-17.79484	2.473736	0	11.63	4004	5	-8	5	5	0.3028688	1.404506	8	10	0.03	1800	-15.20535	40.92392	-91.39362
123370	-35	-3203	607	1.481025	-11.02083	1.134426	0	11.63	4004	5	-8	5	5	0.3028688	1.359079	8	10	0.03	1800	-13.03363	40.92393	-91.39363
123443	743	-918	-1919	2.533502	-9.641667	1.321934	0	11.63	4002	0	-5	5	5	0.3028688	1.33652	8	10	0.03	1800	-12.26184	40.92393	-91.39363
123505	-642	-1377	-1139	2.225065	-9.251513	1.174343	0	11.63	4004	0	-5	5	5	0.3028688	1.298194	8	10	0.03	1800	-12.26184	40.92393	-91.39363
123613	2972	-835	1556	2.632222	-7.890985	1.238327	0	11.63	4004	-5	-5	5	5	0.3028688	1.210802	8	10	0.03	1800	-9.016602	40.92393	-91.39364
123708	1198	-3606	-502	5.726226	-3.773773	0.5236619	0	11.63	4002	-5	-5	5	5	0.3028688	1.164086	8	10	0.03	1800	-6.220093	40.92393	-91.39364
123829	1981	-1245	276	10.45831	0.9209691	0.2325723	0	11.63	4003	-5	-2	5	5	0.3028688	1.099595	8	10	0.03	1800	3.43225	40.92393	-91.39364
123909	-288	-268	909	10.88094	2.101372	0.639412	0	11.63	4002	-5	-2	5	5	0.3028688	1.023239	8	10	0.03	1800	7.251903	40.92393	-91.39364
124073	377	2520	853	6.36465	-0.1262548	0.7908709	0	10.6	4003	-11	0	5	5	0.3028688	0.9646241	8	10	0.03	1800	11.15369	40.92393	-91.39365
124119	-3132	287	-1423	5.131675	-0.8075069	1.216351	0	10.6	4003	-11	0	5	5	0.3028688	0.9308207	8	10	0.03	1800	13.19984	40.92393	-91.39365
124271	630	1226	-272	1.003507	-1.595477	3.598202	0	10.6	4004	-11	0	5	5	0.3028688	0.8674893	8	10	0.03	1800	15.1603	40.92393	-91.39365
124378	-1641	-2196	-616	0.6899796	-4.939023	2.483128	0	10.6	4004	-11	2	5	5	0.3028688	0.8144726	8	10	0.03	1800	12.45487	40.92394	-91.39365
124420	557	-2088	1957	1.034953	-4.364077	2.073301	0	10.6	4003	-11	2	5	5	0.3028688	0.7924159	8	10	0.03	1800	12.77697	40.92394	-91.39365
124552	-125	2715	1313	-1.424816	-3.831479	0.1407713	0	10.6	4004	-11	2	5	5	0.3028688	0.7499135	8	10	0.03	1800	14.72816	40.92394	-91.39365
124626	-504	-2535	-2775	0.8109713	-3.578717	0.2820728	0	10.6	4002	-11	2	5	5	0.3028688	0.7403662	8	10	0.03	1800	13.27534	40.92394	-91.39365
124743	-1666	3437	-730	-1.737439	-2.077895	2.738186	0	10.6	4003	-11	0	5	5	0.3028688	0.7363732	8	10	0.03	1800	11.03485	40.92393	-91.39365
124879	-144	2437	1073	-2.321513	-10.76496	1.54947	0	10.6	4004	-11	0	5	5	0.3028688	0.7719936	8	10	0.03	1800	7.169758	40.92393	-91.39365
