time(ms)	gyro_x(deg/s)	gyro_y(deg/s)	gyro_z(deg/s)	orientation_roll(deg)	orientation_pitch(deg)	orientation_yaw(deg)	throttle	battery(V)	loop_time(uS)	pid_output_roll	pid_output_pitch	pid_output_yaw	pid_output_throttle	ultrasonic_alt	baro_alt	flight_mode	p_gain_altitude	i_gain_altitude	d_gain_altitude	compass_heading	latitude	longitude
283241	1846	476	741	-6.272747	-10.24596	-0.8123497	0	10.94	4002	18	-46	5	5	0.7141258	1.298564	8	10	0.03	1800	-16.11682	40.92393	-91.39364
283353	1543	805	1234	-3.799061	-11.14302	-0.7534492	0	11.17	4004	18	-46	5	5	0.7141258	1.277175	8	10	0.03	1800	-16.54065	40.92393	-91.39364
283449	-579	-5121	-963	-3.640895	-7.609298	-0.3534495	0	11.17	4003	18	-55	5	5	0.7141258	1.225461	8	10	0.03	1800	-18.04764	40.92393	-91.39364
283524	-64	-3783	-205	-3.87194	-1.476532	-0.5394804	0	11.17	4002	18	-55	5	5	0.7141258	1.21555	8	10	0.03	1800	-16.21454	40.92393	-91.39364
283698	2127	-252	-593	-1.540439	1.650823	-1.302031	0	11.17	4004	36	-55	5	5	0.7141258	1.142658	8	10	0.03	1800	-19.85693	40.92393	-91.39363
283764	2511	2034	1116	-0.1476693	0.94849	-1.509117	0	11.17	4002	36	-55	5	5	0.7141258	1.116958	8	10	0.03	1800	-19.85693	40.92393	-91.39363
283894	1209	1396	973	3.676486	-2.990174	-1.716743	0	11.17	4007	36	-46	5	5	0.7141258	1.072193	8	10	0.03	1800	-17.42834	40.92393	-91.39363
284010	-569	-1183	-679	3.501927	-1.564211	-1.269044	0	11.17	4004	36	-46	5	5	0.7141258	1.037456	8	10	0.03	1800	-14.57867	40.92393	-91.39363
284059	-944	1962	1160	2.125776	-3.161239	-1.152251	0	11.17	4002	36	-46	5	5	0.7141258	1.020353	8	10	0.03	1800	-15.6185	40.92393	-91.39363
284132	-219	693	-285	1.165537	-4.10709	-0.5351989	0	11.17	4003	36	-46	5	5	0.7141258	0.9843077	8	10	0.03	1800	-17.11673	40.92393	-91.39363
284234	-649	556	444	0.2002919	-4.211384	-0.5412116	0	10.04	4003	36	-46	5	5	0.7141258	0.9422205	8	10	0.03	1800	-16.26105	40.92393	-91.39363
284342	2737	1798	958	2.287147	-5.81607	0.1775792	0	10.04	4004	36	-46	5	5	0.7141258	0.9094955	8	10	0.03	1800	-16.02872	40.92393	-91.39363
284469	246	-2242	-604	3.3543	-3.705391	-0.8354378	0	10.04	4002	18	-36	5	5	0.7141258	0.8862631	8	10	0.03	1800	-11.72897	40.92394	-91.39364
284590	1338	1611	684	3.744334	-4.062998	-1.392443	0	10.04	4003	18	-36	5	5	0.7141258	0.8614443	8	10	0.03	1800	-11.95416	40.92394	-91.39364
284669	1276	-53	-956	5.001281	-4.75654	-1.191921	0	10.04	4003	18	-36	5	5	0.7141258	0.8544818	8	10	0.03	1800	-9.658417	40.92394	-91.39364
284832	2708	2296	-697	5.06779	-6.278591	-0.8108754	0	10.04	4004	18	-36	5	5	0.7141258	0.8723949	8	10	0.03	1800	-7.012512	40.92394	-91.39364
284904	-1315	3021	-86	5.49019	-8.90442	-0.7101719	0	10.04	4002	18	-36	5	5	0.7141258	0.8856272	8	10	0.03	1800	-7.012512	40.92394	-91.39364
284952	-2633	-1419	102	2.277399	-9.591427	-0.9249107	0	10.04	4004	18	-27	5	5	0.7141258	0.8899451	8	10	0.03	1800	-3.732849	40.92394	-91.39364
285070	-1381	-1644	930	0.5850308	-4.261963	-1.061326	0	10.04	4004	18	-27	5	5	0.7141258	0.9100967	8	10	0.03	1800	-2.609436	40.92394	-91.39364
285187	-512	-53	-940	-1.410969	-5.194443	-1.39051	0	10.26	4004	18	-27	5	5	0.7141258	0.9365372	8	10	0.03	1800	-1.696167	40.92394	-91.39364
285271	-1075	-1270	-488	-1.431837	-7.139587	-1.222944	0	10.26	4004	18	-27	5	5	0.7141258	0.9547397	8	10	0.03	1800	-2.158081	40.92394	-91.39364
285404	-83	-143	1517	-5.952005	-3.799651	-0.8185751	0	10.26	4002	18	-27	5	5	0.7141258	0.9745918	8	10	0.03	1800	-3.064087	40.92394	-91.39364
285506	359	1753	794	-5.871351	-5.368442	-1.01518	0	10.26	4002	18	-27	5	5	0.7141258	0.9873967	8	10	0.03	1800	-5.363647	40.92394	-91.39364
285614	-487	1200	288	-3.788777	-7.883454	-0.7718519	0	10.26	4002	18	-27	5	5	0.7141258	0.9957237	8	10	0.03	1800	-6.578766	40.92394	-91.39364
285733	-377	66	681	-4.865142	-3.976286	-1.138286	0	10.26	4004	18	-27	5	5	0.7141258	1.009219	8	10	0.03	1800	-5.050812	40.92394	-91.39364
285782	267	34	269	-5.169241	-4.877075	-1.355427	0	10.26	4004	18	-27	5	5	0.7141258	1.014154	8	10	0.03	1800	-5.641693	40.92394	-91.39364
285907	1113	433	1648	-1.566274	-4.626155	-1.268922	0	10.26	4004	18	-27	5	5	0.7141258	1.025363	8	10	0.03	1800	-5.018494	40.92394	-91.39364
286009	339	-262	1153	-1.804317	-4.388927	-1.56039	0	10.26	4003	18	-27	5	5	0.7141258	1.040215	8	10	0.03	1800	-7.056732	40.92394	-91.39364
286061	990	-285	1294	-1.7997	-3.943999	-1.473884	0	10.26	4003	18	-27	5	5	0.7141258	1.051579	8	10	0.03	1800	-7.056732	40.92394	-91.39364
286220	728	2444	-88	0.08976584	-7.368566	-0.04226326	0	10.94	4002	18	-36	5	5	0.7141258	1.079123	8	10	0.03	1800	-7.092773	40.92394	-91.39364
286273	380	3012	1302	0.2430457	-9.797253	0.2493936	0	10.94	4003	18	-36	5	5	0.7141258	1.087773	8	10	0.03	1800	-4.935577	40.92394	-91.39364
286400	241	1040	588	-0.349542	-10.57483	0.2186765	0	10.94	4004	11	-22	5	5	0.7141258	1.104873	8	10	0.03	1800	-4.747986	40.92394	-91.39364
286462	264	613	618	-0.1864657	-10.62687	-0.08790115	0	10.94	4003	18	-36	5	5	0.7141258	1.131169	8	10	0.03	1800	-3.133057	40.92394	-91.39364
286570	-2097	-2064	-116	-1.358524	-10.12831	-0.6764156	0	10.94	4004	18	-36	5	5	0.7141258	1.155201	8	10	0.03	1800	-3.577515	40.92394	-91.39364
286703	-84	1536	994	-1.16611	-11.52214	-0.4791255	0	10.94	4004	0	0	5	5	0.7141258	1.177997	3	10	0.03	1800	-2.959045	40.92394	-91.39364
286783	-1929	-852	767	-2.249269	-11.62243	-0.2180319	0	10.94	4002	0	0	5	5	0.7141258	1.209512	3	10	0.03	1800	-2.959045	40.92394	-91.39364
286897	-1206	-3058	379	-4.751744	-7.068285	-0.5987614	0	10.94	4003	0	0	5	5	0.7141258	1.240625	3	10	0.03	1800	-3.46405	40.92394	-91.39364
286975	-215	-132	1188	-4.757195	-4.998275	-1.562346	0	10.94	4002	0	0	5	5	0.7141258	1.259361	3	10	0.03	1800	-3.882385	40.92394	-91.39364
287119	-1137	1431	-915	-5.048049	-6.050148	-2.308134	0	11.06	4003	0	0	5	5	0.7141258	1.282914	3	10	0.03	1800	-5.101288	40.92394	-91.39364
287238	-2710	1410	809	-7.809958	-8.532165	-2.068541	0	11.06	4003	0	0	5	5	0.7141258	1.287776	3	10	0.03	1800	-5.185822	40.92394	-91.39364
287367	879	2852	324	-6.440561	-9.891477	-1.710691	0	11.06	4003	0	0	5	5	0.7141258	1.277653	3	10	0.03	1800	-8.792358	40.92393	-91.39365
287389	865	168	-1783	-5.818456	-10.36893	-1.370962	0	11.06	4003	0	0	5	5	0.7141258	1.277653	3	10	0.03	1800	-8.792358	40.92393	-91.39365
287530	2025	-1166	-1653	-2.192641	-12.35255	-1.635309	0	11.06	4003	0	0	5	5	0.7141258	1.236565	3	10	0.03	1800	-10.78635	40.92393	-91.39365
287625	4923	1322	-648	3.784352	-9.429532	-0.3690935	0	11.06	4010	0	0	5	5	0.7141258	1.212299	3	10	0.03	1800	-11.10275	40.92393	-91.39365
287728	81	-3458	262	6.460356	-8.038355	-1.1636	0	11.06	4002	0	0	5	5	0.7141258	1.15974	3	10	0.03	1800	-5.141998	40.92393	-91.39365
287778	-937	-3576	1779	6.166513	-6.487977	-1.661218	0	11.06	4003	0	0	5	5	0.7141258	1.15045	3	10	0.03	1800	-3.215027	40.92393	-91.39365
287918	-1102	-1915	-446	3.454465	-1.467724	-2.690509	0	11.06	4003	0	0	5	5	0.7141258	1.097944	3	10	0.03	1800	-1.758972	40.92393	-91.39365
287975	226	636	-1727	2.42187	-3.016692	-2.477048	0	10.26	4004	0	0	5	5	0.7141258	1.069967	3	10	0.03	1800	-1.036255	40.92393	-91.39365
288084	-3526	728	848	-1.364245	-3.636759	-2.053159	0	10.26	4004	0	0	5	5	0.7141258	1.028861	3	10	0.03	1800	-2.325012	40.92393	-91.39365
288209	-520	1267	438	-7.243577	-2.110636	-2.756885	0	10.26	4002	0	0	5	5	0.7141258	0.9486625	3	10	0.03	1800	-1.365814	40.92393	-91.39365
288281	309	4617	847	-6.587847	-5.24123	-3.026999	0	10.26	4003	0	0	5	5	0.7141258	0.9358286	3	10	0.03	1800	-3.03775	40.92393	-91.39365
288418	1861	1650	-268	-3.462847	-7.517823	-1.203846	0	10.26	4002	0	0	5	5	0.7141258	0.8345343	3	10	0.03	1800	-5.512573	40.92393	-91.39365
288470	-705	1697	-294	-3.534114	-8.398909	-1.549656	0	10.26	4004	0	0	5	5	0.7141258	0.7925315	3	10	0.03	1800	-4.465668	40.92393	-91.39365
288572	1624	1280	-543	-4.191533	-10.55212	-2.059169	0	10.26	4004	0	0	5	5	0.7141258	0.768417	3	10	0.03	1800	-3.81131	40.92393	-91.39365
288748	1525	-46	1532	-1.403514	-10.30712	-1.909235	0	10.26	4003	0	0	5	5	0.7141258	0.6758029	3	10	0.03	1800	-3.744568	40.92393	-91.39365
288805	459	-1589	1420	-0.6582285	-7.293941	-0.9545112	0	10.26	4004	0	0	5	5	0.7141258	0.653425	3	10	0.03	1800	-3.862885	40.92392	-91.39365
288973	-1294	-851	911	-0.9961991	-4.99888	-1.413024	0	10.66	4004	0	0	5	5	0.7141258	0.6241004	3	10	0.03	1800	-2.836426	40.92392	-91.39365
289026	554	-1272	953	-1.628274	-3.570305	-2.564433	0	10.66	4003	0	0	5	5	0.7141258	0.6069827	3	10	0.03	1800	-0.1607971	40.92392	-91.39365
289100	82	-232	-42	-1.295509	-3.399397	-2.837246	0	10.66	4002	0	0	5	5	0.7141258	0.5915748	3	10	0.03	1800	-0.2207642	40.92392	-91.39365
289233	677	229	-866	-1.73395	-4.173752	-2.764039	0	10.66	4004	0	0	5	5	0.7141258	0.562956	3	10	0.03	1800	0.3220291	40.92392	-91.39365
289315	-162	-520	-624	-0.5904015	-6.625547	-2.114643	0	10.66	4003	0	0	5	5	0.7141258	0.5341387	3	10	0.03	1800	0.05794209	40.92393	-91.39365
289396	-961	-4223	-176	-1.198452	-4.762926	-1.793965	0	10.66	4004	0	0	5	5	0.7141258	0.5179252	3	10	0.03	1800	0.5641978	40.92393	-91.39365
289495	-759	1781	363	-1.395024	-3.747792	-2.402586	0	10.66	4003	0	0	5	5	0.7141258	0.4677716	3	10	0.03	1800	0.1728946	40.92393	-91.39365
289606	112	-285	-677	-0.1584074	-6.196573	-3.304874	0	10.66	4003	0	0	5	5	0.7141258	0.3872187	3	10	0.03	1800	0.1946436	40.92393	-91.39365
289721	-2444	6381	-2809	3.270049	-12.14063	-0.2500039	0	10.66	4004	0	0	5	5	0.7141258	0.3269973	3	10	0.03	1800	-0.3662109	40.92393	-91.39365
289923	4690	-2287	-391	-5.675573	-12.11949	-1.219371	0	11.29	4002	0	0	5	5	0.7141258	0.2021962	3	10	0.03	1800	-4.434143	40.92393	-91.39365
290025	-542	191	-155	-1.836244	-8.120242	-0.8022549	0	11.29	4003	0	0	5	5	0.7141258	0.169589	3	10	0.03	1800	-4.195435	40.92393	-91.39365
290111	-126	-81	162	-1.931417	-7.810992	-0.8064222	0	11.29	4002	0	0	5	5	0.7141258	0.1181246	3	10	0.03	1800	-4.566742	40.92393	-91.39365
290218	-57	71	60	-1.71552	-7.27566	-0.8148556	0	11.29	4004	0	0	5	5	0.7141258	0.07618329	1	10	0.03	1800	-5.040924	40.92393	-91.39365
290286	-52	-46	-5	-1.559752	-7.001068	-0.8285489	0	11.29	4002	0	0	5	5	0.7141258	0.05210079	1	10	0.03	1800	-5.358521	40.92393	-91.39365
290422	-72	-47	-33	-1.286988	-6.535243	-0.8529951	0	11.29	4002	0	0	5	5	0.7141258	0.0099233	1	10	0.03	1800	-5.187744	40.92393	-91.39365
290485	-97	-33	-106	-1.162287	-6.342527	-0.8605817	0	11.29	4002	0	0	5	5	0.7141258	-0.01075926	1	10	0.03	1800	-5.324463	40.92393	-91.39365
290640	-125	-64	-132	-0.9563088	-5.865128	-0.9019145	0	11.29	4002	0	0	5	5	0.7141258	-0.04350952	1	10	0.03	1800	-4.971436	40.92393	-91.39365
290832	-116	-18	78	-0.8036018	-5.568118	-0.9419565	0	11.46	4003	0	0	5	5	0.7141258	-0.08101518	1	10	0.03	1800	-5.536285	40.92393	-91.39365
290934	-110	5	-7	-0.688879	-5.311653	-0.9744189	0	11.46	4003	0	0	5	5	0.7141258	-0.09759389	1	10	0.03	1800	-6.073273	40.92393	-91.39365
291050	-97	-1	16	-0.600062	-5.097472	-1.003642	0	11.46	4003	0	0	5	5	0.7141258	-0.1214547	1	10	0.03	1800	-6.288361	40.92393	-91.39365
291090	-101	-5	18	-0.5833082	-5.053513	-1.013119	0	11.46	4004	0	0	5	5	0.7141258	-0.1253466	1	10	0.03	1800	-6.288361	40.92393	-91.39365
291196	-98	-18	9	-0.5342504	-4.9226	-1.039407	0	11.46	4003	0	0	5	5	0.7141258	-0.1429406	1	10	0.03	1800	-6.056061	40.92393	-91.39365
291380	-104	1	20	-0.4595841	-4.748303	-1.078473	0	11.46	4003	0	0	5	5	0.7141258	-0.1511384	1	10	0.03	1800	-6.160583	40.92393	-91.39365
291465	-101	-7	11	-0.4253781	-4.657275	-1.101889	0	11.46	4003	0	0	5	5	0.7141258	-0.1577462	1	10	0.03	1800	-6.168121	40.92393	-91.39365
291550	-97	-1	9	-0.3937471	-4.58216	-1.125242	0	11.46	4003	0	0	5	5	0.7141258	-0.1616299	1	10	0.03	1800	-6.233459	40.92393	-91.39365
291623	-95	0	19	-0.3680629	-4.538612	-1.141565	0	11.46	4002	0	0	5	5	0.7141258	-0.160067	1	10	0.03	1800	-6.289673	40.92393	-91.39365
291748	111	394	-375	-0.08338148	-4.616443	-1.046125	0	11.46	4004	0	0	5	5	0.7141258	-0.1550457	1	10	0.03	1800	-6.020386	40.92393	-91.39365
291831	-1559	-341	176	-0.4093875	-5.262224	-1.20238	0	11.46	4004	0	0	5	5	0.7141258	-0.1547386	1	10	0.03	1800	-6.020386	40.92393	-91.39365
291931	-2291	-6533	-93	-5.071976	2.051224	-0.9636919	0	11.46	4004	0	0	5	5	0.7141258	-0.1572255	1	10	0.03	1800	-5.622406	40.92393	-91.39365
292035	974	53	157	-5.023543	10.97702	-0.8647074	0	11.46	4003	0	0	5	5	0.7141258	-0.1454105	1	10	0.03	1800	-6.617126	40.92393	-91.39365
292099	1873	973	956	-4.111286	10.94635	-1.18304	0	11.46	4002	0	0	5	5	0.7141258	-0.1320816	1	10	0.03	1800	-6.617126	40.92393	-91.39365
292203	380	1565	1165	-2.088727	10.13143	-3.459507	0	11.46	4003	0	0	5	5	0.7141258	-0.1143639	1	10	0.03	1800	-6.119751	40.92393	-91.39365
292307	1038	1228	-1598	1.955104	9.815801	-2.905609	0	11.46	4002	0	0	5	5	0.7141258	-0.07439444	1	10	0.03	1800	-7.808807	40.92393	-91.39365
292514	630	-1426	-211	5.472992	11.98302	0.4550826	0	11.46	4004	0	0	5	5	0.7141258	-0.02202248	1	10	0.03	1800	-10.29236	40.92393	-91.39365
292549	796	-1153	328	5.563848	12.7037	0.4330772	0	11.46	4002	0	0	5	5	0.7141258	-0.01500074	1	10	0.03	1800	-10.29236	40.92393	-91.39365
292615	-97	-1712	1171	5.387654	14.0174	-1.001225	0	11.46	4003	0	0	5	5	0.7141258	0.01144329	1	10	0.03	1800	-8.088379	40.92393	-91.39365
292792	-350	1613	1677	2.261133	11.82504	-4.30851	0	11.46	4004	0	0	5	5	0.7141258	0.07949229	1	10	0.03	1800	-3.63974	40.92393	-91.39365
292871	-389	2598	417	0.7346892	6.449253	-6.367177	0	11.46	4003	0	0	5	5	0.7141258	0.1080111	1	10	0.03	1800	-0.9642944	40.92394	-91.39365
292920	-957	1595	-104	-0.1785607	3.348279	-6.476307	0	11.46	4004	0	0	5	5	0.7141258	0.1162427	1	10	0.03	1800	0.9002717	40.92394	-91.39365
293019	-1560	2616	128	-1.802392	0.7709751	-6.356764	0	11.46	4003	0	0	5	5	0.7141258	0.1502698	1	10	0.03	1800	1.192482	40.92394	-91.39365
293199	178	821	-7	-2.113222	-3.160261	-7.037629	0	11.46	4003	0	0	5	5	0.7141258	0.1794117	1	10	0.03	1800	-0.846283	40.92394	-91.39365
293283	185	-915	-49	-1.630058	-3.108336	-7.015803	0	11.46	4004	0	0	5	5	0.7141258	0.1957394	1	10	0.03	1800	-1.131714	40.92394	-91.39365
293330	-211	22	-72	-1.955376	-2.353039	-7.062027	0	11.46	4004	0	0	5	5	0.7141258	0.1996835	1	10	0.03	1800	-1.482239	40.92394	-91.39365
293464	-206	-86	15	-1.615628	-2.217899	-7.080859	0	11.51	4004	0	0	5	5	0.7141258	0.217363	1	10	0.03	1800	-1.57019	40.92394	-91.39365
293586	-38	64	8	-1.742929	-1.776031	-7.099936	0	11.51	4003	0	0	5	5	0.7141258	0.2254468	1	10	0.03	1800	-1.388153	40.92394	-91.39365
293683	-79	18	6	-1.642896	-1.508749	-7.124573	0	11.51	4003	0	0	5	5	0.7141258	0.2286614	1	10	0.03	1800	-1.582916	40.92394	-91.39365
293721	-83	16	10	-1.614195	-1.452726	-7.12977	0	11.51	4002	0	0	5	5	0.7141258	0.2277596	1	10	0.03	1800	-1.582916	40.92394	-91.39365
293917	-101	7	10	-1.522913	-1.194628	-7.159604	0	11.51	4003	0	0	5	5	0.7141258	0.2218532	1	10	0.03	1800	-1.901947	40.92394	-91.39365
293935	-99	-4	19	-1.515807	-1.147861	-7.166941	0	11.51	4003	0	0	5	5	0.7141258	0.2218532	1	10	0.03	1800	-1.901947	40.92394	-91.39365
294037	-100	-3	15	-1.479179	-1.001825	-7.185895	0	11.51	4003	0	0	5	5	0.7141258	0.2098751	1	10	0.03	1800	-2.200714	40.92394	-91.39365
294172	-98	-3	9	-1.438301	-0.8429332	-7.210898	0	11.51	4004	0	0	5	5	0.7141258	0.2031524	1	10	0.03	1800	-2.044708	40.92393	-91.39365
294236	-86	7	11	-1.426147	-0.766562	-7.223552	0	11.51	4002	0	0	5	5	0.7141258	0.1979837	1	10	0.03	1800	-2.059387	40.92393	-91.39365
294351	-95	-2	13	-1.406322	-0.6754028	-7.242689	0	11.51	4003	0	0	5	5	0.7141258	0.1881948	1	10	0.03	1800	-2.086853	40.92393	-91.39365
294617	-85	2	15	-1.34226	-0.474135	-7.287747	0	11.51	4004	0	0	5	5	0.7141258	0.178946	1	10	0.03	1800	-1.950348	40.92393	-91.39365
294682	-89	0	14	-1.325698	-0.4206798	-7.307923	0	11.51	4003	0	0	5	5	0.7141258	0.1678695	1	10	0.03	1800	-2.198303	40.92393	-91.39365
294741	-89	12	8	-1.321643	-0.3998635	-7.314159	0	11.51	4002	0	0	5	5	0.7141258	0.1639399	1	10	0.03	1800	-1.976013	40.92393	-91.39365
294897	-90	-6	10	-1.30491	-0.3399377	-7.337698	0	11.51	4002	0	0	5	5	0.7141258	0.1553277	1	10	0.03	1800	-2.232758	40.92393	-91.39365
294963	-88	1	12	-1.290792	-0.2997447	-7.355979	0	11.51	4004	0	0	5	5	0.7141258	0.144411	1	10	0.03	1800	-2.455231	40.92393	-91.39365
295037	-85	4	15	-1.285036	-0.2811452	-7.368877	0	11.51	4002	0	0	5	5	0.7141258	0.1438949	1	10	0.03	1800	-2.255035	40.92393	-91.39365
295133	-85	-3	12	-1.274251	-0.2424302	-7.396206	0	11.51	4002	0	0	5	5	0.7141258	0.1380536	1	10	0.03	1800	-2.050049	40.92393	-91.39365
295272	-90	5	12	-1.267859	-0.213103	-7.416014	0	11.51	4003	0	0	5	5	0.7141258	0.1227638	1	10	0.03	1800	-2.276825	40.92393	-91.39365
295337	-95	5	12	-1.264898	-0.1976236	-7.429709	0	11.51	4002	0	0	5	5	0.7141258	0.1207302	1	10	0.03	1800	-2.266724	40.92393	-91.39365
295498	-86	3	12	-1.262922	-0.1663914	-7.459727	0	11.51	4002	0	0	5	5	0.7141258	0.1114698	1	10	0.03	1800	-2.286224	40.92393	-91.39365
295552	-90	8	10	-1.260584	-0.1566833	-7.470975	0	11.51	4002	0	0	5	5	0.7141258	0.1112353	1	10	0.03	1800	-2.498169	40.92393	-91.39365
295646	-93	6	11	-1.257369	-0.1484292	-7.482408	0	11.51	4002	0	0	5	5	0.7141258	0.1115191	1	10	0.03	1800	-2.498169	40.92393	-91.39365
295780	-84	1	13	-1.251102	-0.1361572	-7.503745	0	11.51	4003	0	0	5	5	0.7141258	0.1095794	1	10	0.03	1800	-2.297028	40.92393	-91.39365
295865	-86	8	10	-1.239793	-0.1215972	-7.521719	0	11.51	4002	0	0	5	5	0.7141258	0.1060386	1	10	0.03	1800	-2.312805	40.92393	-91.39365
295948	-97	5	14	-1.239069	-0.1076666	-7.540122	0	11.51	4004	0	0	5	5	0.7141258	0.1015082	1	10	0.03	1800	-2.098724	40.92393	-91.39365
296057	-94	-3	8	-1.242264	-0.1055663	-7.558768	0	11.51	4002	0	0	5	5	0.7141258	0.09687864	1	10	0.03	1800	-2.520874	40.92393	-91.39365
296205	-96	0	3	-1.242453	-0.09543877	-7.581265	0	11.51	4003	0	0	5	5	0.7141258	0.1053047	1	10	0.03	1800	-2.092377	40.92393	-91.39365
296360	-91	3	11	-1.23634	-0.08781109	-7.60413	0	11.51	4002	0	0	5	5	0.7141258	0.1229392	1	10	0.03	1800	-2.087128	40.92393	-91.39365
296472	-89	2	12	-1.234213	-0.07894812	-7.632805	0	11.51	4003	0	0	5	5	0.7141258	0.1344625	1	10	0.03	1800	-2.304871	40.92393	-91.39365
296627	-89	2	12	-1.230815	-0.0739905	-7.658912	0	11.51	4002	0	0	5	5	0.7141258	0.1459107	1	10	0.03	1800	-2.099274	40.92393	-91.39365
296671	-88	1	14	-1.231752	-0.07053183	-7.669977	0	11.51	4004	0	0	5	5	0.7141258	0.1479049	1	10	0.03	1800	-2.113525	40.92393	-91.39365
296749	-93	2	6	-1.226156	-0.06946276	-7.681105	0	11.51	4003	0	0	5	5	0.7141258	0.1502088	1	10	0.03	1800	-2.325317	40.92393	-91.39365
296846	-86	4	10	-1.227218	-0.06408018	-7.703724	0	11.51	4003	0	0	5	5	0.7141258	0.1523401	1	10	0.03	1800	-2.332916	40.92393	-91.39365
296933	-89	4	12	-1.221849	-0.05990102	-7.716074	0	11.51	4002	0	0	5	5	0.7141258	0.1536416	1	10	0.03	1800	-2.104065	40.92393	-91.39365
297034	-91	0	16	-1.226212	-0.05489711	-7.734904	0	11.51	4003	0	0	5	5	0.7141258	0.1513609	1	10	0.03	1800	-2.334015	40.92393	-91.39365
297162	-89	0	7	-1.222991	-0.04605893	-7.759235	0	11.51	4003	0	0	5	5	0.7141258	0.1519588	1	10	0.03	1800	-2.339294	40.92393	-91.39365
297224	-88	3	14	-1.220311	-0.04909946	-7.771462	0	11.51	4003	0	0	5	5	0.7141258	0.1512855	1	10	0.03	1800	-2.552765	40.92393	-91.39365
297365	-93	5	7	-1.22674	-0.04940797	-7.80307	0	11.51	4002	0	0	5	5	0.7141258	0.1393439	1	10	0.03	1800	-2.323273	40.92393	-91.39365
297470	-84	3	13	-1.226886	-0.04522029	-7.816153	0	11.51	4003	0	0	5	5	0.7141258	0.1346529	1	10	0.03	1800	-2.325317	40.92393	-91.39364
297568	-90	-5	13	-1.215925	-0.04361082	-7.839876	0	11.51	4004	0	0	5	5	0.7141258	0.1396425	1	10	0.03	1800	-2.118713	40.92393	-91.39364
297630	-93	5	5	-1.213828	-0.03485288	-7.851552	0	11.51	4003	0	0	5	5	0.7141258	0.1434527	1	10	0.03	1800	-2.349579	40.92393	-91.39364
297714	-87	1	8	-1.218327	-0.03797737	-7.862558	0	11.51	4003	0	0	5	5	0.7141258	0.1412137	1	10	0.03	1800	-2.346039	40.92393	-91.39364
297836	-90	2	13	-1.210516	-0.03811434	-7.884811	0	11.51	4004	0	0	5	5	0.7141258	0.1412347	1	10	0.03	1800	-2.57785	40.92393	-91.39364
297995	-86	2	8	-1.205079	-0.03764417	-7.906332	0	11.51	4003	0	0	5	5	0.7141258	0.1337357	1	10	0.03	1800	-2.579468	40.92393	-91.39364
298027	-79	1	13	-1.201015	-0.03383765	-7.917764	0	11.51	4002	0	0	5	5	0.7141258	0.1299415	1	10	0.03	1800	-2.357361	40.92393	-91.39364
298106	-86	2	6	-1.197869	-0.03243398	-7.930418	0	11.51	4003	0	0	5	5	0.7141258	0.119983	1	10	0.03	1800	-2.357361	40.92393	-91.39364
298233	-90	5	8	-1.19405	-0.03035956	-7.949859	0	11.51	4004	0	0	5	5	0.7141258	0.1108878	1	10	0.03	1800	-2.371216	40.92393	-91.39364
298332	-86	0	12	-1.194566	-0.03888435	-7.967038	0	11.51	4002	0	0	5	5	0.7141258	0.09717095	1	10	0.03	1800	-2.164215	40.92393	-91.39364
298454	-87	3	11	-1.193018	-0.03943131	-7.985259	0	11.51	4003	0	0	5	5	0.7141258	0.08724879	1	10	0.03	1800	-2.385345	40.92393	-91.39364
298516	-90	8	14	-1.195241	-0.04223164	-8.002501	0	11.51	4004	0	0	5	5	0.7141258	0.08370312	1	10	0.03	1800	-2.145294	40.92393	-91.39364
298617	-91	-1	10	-1.195904	-0.03794448	-8.021022	0	11.51	4003	0	0	5	5	0.7141258	0.06756533	1	10	0.03	1800	-2.583374	40.92393	-91.39364
298740	-87	7	9	-1.204299	-0.03716651	-8.038688	0	11.51	4003	0	0	5	5	0.7141258	0.04632614	1	10	0.03	1800	-2.368134	40.92393	-91.39364
298839	-85	-1	13	-1.204608	-0.03870322	-8.060939	0	11.51	4002	0	0	5	5	0.7141258	0.04142428	1	10	0.03	1800	-2.153107	40.92393	-91.39364
298911	-83	0	11	-1.199977	-0.03526051	-8.072063	0	11.51	4002	0	0	5	5	0.7141258	0.02540489	1	10	0.03	1800	-2.355835	40.92393	-91.39364
299063	-90	7	11	-1.187661	-0.02754386	-8.098777	0	11.57	4002	0	0	5	5	0.7141258	0.006887165	1	10	0.03	1800	-2.169556	40.92393	-91.39364
299102	-94	0	9	-1.186862	-0.02950028	-8.103668	0	11.57	4003	0	0	5	5	0.7141258	0.005067773	1	10	0.03	1800	-2.169556	40.92393	-91.39364
299236	-87	6	11	-1.189	-0.03705281	-8.122495	0	11.57	4003	0	0	5	5	0.7141258	-0.0006387727	1	10	0.03	1800	-2.395355	40.92393	-91.39364
299332	-89	-1	13	-1.187955	-0.03761877	-8.144012	0	11.57	4002	0	0	5	5	0.7141258	-0.00117436	1	10	0.03	1800	-2.384613	40.92393	-91.39364
299452	-83	5	11	-1.183968	-0.03461787	-8.161557	0	11.57	4003	0	0	5	5	0.7141258	-0.009262229	1	10	0.03	1800	-2.402679	40.92393	-91.39364
299496	-85	7	5	-1.182859	-0.0333046	-8.1703	0	11.57	4004	0	0	5	5	0.7141258	-0.01058477	1	10	0.03	1800	-2.395233	40.92393	-91.39364
299615	-93	0	9	-1.185094	-0.03334046	-8.187173	0	11.57	4004	0	0	5	5	0.7141258	-0.02214135	1	10	0.03	1800	-2.400299	40.92393	-91.39364
299744	-84	7	6	-1.185316	-0.03405528	-8.207959	0	11.57	4002	0	0	5	5	0.7141258	-0.03504919	1	10	0.03	1800	-2.402069	40.92393	-91.39364
299818	-82	12	13	-1.184306	-0.04108565	-8.223611	0	11.51	4002	0	0	5	5	0.7141258	-0.03975658	1	10	0.03	1800	-2.389557	40.92393	-91.39364
299883	-89	3	13	-1.183398	-0.04447015	-8.229541	0	11.51	4003	0	0	5	5	0.7141258	-0.03799682	1	10	0.03	1800	-2.389557	40.92393	-91.39364
300008	-83	4	14	-1.185475	-0.04854802	-8.257783	0	11.51	4004	0	0	5	5	0.7141258	-0.02782772	1	10	0.03	1800	-2.38269	40.92393	-91.39364
300125	-89	0	11	-1.178519	-0.0444638	-8.279668	0	11.51	4004	0	0	5	5	0.7141258	-0.01478921	1	10	0.03	1800	-2.185333	40.92393	-91.39364
300216	-79	5	9	-1.171513	-0.0451823	-8.290977	0	11.51	4002	0	0	5	5	0.7141258	-0.01354358	1	10	0.03	1800	-2.410095	40.92393	-91.39364
300320	-88	2	6	-1.169984	-0.05338807	-8.312555	0	11.51	4004	0	0	5	5	0.7141258	-0.01277434	1	10	0.03	1800	-2.188538	40.92393	-91.39365
300433	-87	4	5	-1.176712	-0.04931252	-8.330102	0	11.51	4003	0	0	5	5	0.7141258	-0.005865458	1	10	0.03	1800	-2.40506	40.92393	-91.39365
300541	-84	5	5	-1.175784	-0.05162801	-8.339456	0	11.51	4002	0	0	5	5	0.7141258	-0.004800624	1	10	0.03	1800	-2.181946	40.92393	-91.39365
300628	-87	0	11	-1.179874	-0.05068089	-8.358165	0	11.51	4009	0	0	5	5	0.7141258	-0.003906466	1	10	0.03	1800	-2.408417	40.92393	-91.39365
300691	-89	-1	12	-1.175732	-0.04603402	-8.363421	0	11.51	4003	0	0	5	5	0.7141258	-0.006179732	1	10	0.03	1800	-2.395813	40.92393	-91.39365
300872	-82	1	15	-1.177712	-0.04464817	-8.39411	0	11.51	4002	0	0	5	5	0.7141258	-0.005582219	1	10	0.03	1800	-2.402771	40.92393	-91.39365
300916	-84	4	9	-1.175914	-0.04603146	-8.399185	0	11.51	4002	0	0	5	5	0.7141258	-0.003060347	1	10	0.03	1800	-2.402771	40.92393	-91.39365
301042	-83	6	7	-1.176194	-0.04814951	-8.420827	0	11.51	4003	0	0	5	5	0.7141258	0.00977838	1	10	0.03	1800	-2.416565	40.92393	-91.39365
301091	-82	4	13	-1.174331	-0.04897353	-8.427002	0	11.51	4002	0	0	5	5	0.7141258	0.01535083	1	10	0.03	1800	-2.180267	40.92393	-91.39365
301280	-79	3	9	-1.165881	-0.0446437	-8.457996	0	11.51	4002	0	0	5	5	0.7141258	0.01513927	1	10	0.03	1800	-2.413788	40.92393	-91.39365
301324	-84	0	11	-1.16418	-0.04326783	-8.46295	0	11.51	4004	0	0	5	5	0.7141258	0.01656839	1	10	0.03	1800	-2.195679	40.92393	-91.39365
301436	-84	1	7	-1.161032	-0.04244582	-8.481353	0	11.51	4004	0	0	5	5	0.7141258	0.03303342	1	10	0.03	1800	-2.435394	40.92393	-91.39365
301522	-84	5	7	-1.156806	-0.04282489	-8.497981	0	11.51	4002	0	0	5	5	0.7141258	0.03324275	1	10	0.03	1800	-2.422058	40.92393	-91.39365
301648	-80	-2	10	-1.146884	-0.04022009	-8.512165	0	11.51	4004	0	0	5	5	0.7141258	0.03636878	1	10	0.03	1800	-2.447601	40.92393	-91.39365
301690	-77	2	11	-1.135878	-0.04265144	-8.527632	0	11.51	4002	0	0	5	5	0.7141258	0.03639954	1	10	0.03	1800	-2.458954	40.92393	-91.39365
301812	-77	5	7	-1.13558	-0.04144434	-8.542244	0	11.51	4003	0	0	5	5	0.7141258	0.03073676	1	10	0.03	1800	-2.255859	40.92393	-91.39365
301968	-82	5	10	-1.134302	-0.04202397	-8.567246	0	11.51	4004	0	0	5	5	0.7141258	0.03944386	1	10	0.03	1800	-2.678223	40.92393	-91.39365
302118	-79	4	8	-1.131588	-0.04332258	-8.584122	0	11.51	4004	0	0	5	5	0.7141258	0.0479961	1	10	0.03	1800	-2.261139	40.92393	-91.39365
302198	-86	-2	4	-1.134938	-0.03888771	-8.602524	0	11.51	4004	0	0	5	5	0.7141258	0.05795211	1	10	0.03	1800	-2.683685	40.92393	-91.39365
302281	-77	6	12	-1.134845	-0.04179687	-8.611938	0	11.51	4002	0	0	5	5	0.7141258	0.06825256	1	10	0.03	1800	-2.463867	40.92393	-91.39365
302384	-85	2	9	-1.13832	-0.04329556	-8.626979	0	11.51	4004	0	0	5	5	0.7141258	0.07606308	1	10	0.03	1800	-2.458099	40.92393	-91.39365
302418	-84	4	10	-1.139848	-0.04513725	-8.635233	0	11.51	4002	0	0	5	5	0.7141258	0.07349054	1	10	0.03	1800	-2.452423	40.92393	-91.39365
302600	-87	-3	10	-1.131928	-0.04652523	-8.659318	0	11.57	4004	0	0	5	5	0.7141258	0.06532599	1	10	0.03	1800	-2.698029	40.92393	-91.39365
302670	-80	2	12	-1.129155	-0.04596684	-8.667878	0	11.57	4003	0	0	5	5	0.7141258	0.05659667	1	10	0.03	1800	-2.47879	40.92393	-91.39365
302768	-76	7	11	-1.128832	-0.04290335	-8.684384	0	11.57	4003	0	0	5	5	0.7141258	0.04609283	1	10	0.03	1800	-2.473846	40.92393	-91.39365
302811	-79	1	9	-1.12719	-0.03371202	-8.699363	0	11.57	4004	0	0	5	5	0.7141258	0.04152144	1	10	0.03	1800	-2.692719	40.92393	-91.39365
302942	-79	-2	10	-1.121989	-0.03815167	-8.718681	0	11.57	4002	0	0	5	5	0.7141258	0.01952874	1	10	0.03	1800	-2.25592	40.92393	-91.39365
303049	-83	2	10	-1.113104	-0.03945405	-8.732986	0	11.57	4002	0	0	5	5	0.7141258	0.009297109	1	10	0.03	1800	-2.272827	40.92393	-91.39365
303147	-81	4	6	-1.107038	-0.03749375	-8.746192	0	11.57	4002	0	0	5	5	0.7141258	0.001924691	1	10	0.03	1800	-2.495972	40.92393	-91.39365
303242	-79	2	10	-1.111269	-0.03579342	-8.760683	0	11.57	4003	0	0	5	5	0.7141258	0.001368985	1	10	0.03	1800	-2.505035	40.92393	-91.39365
303295	-84	-1	4	-1.110401	-0.03695434	-8.765328	0	11.57	4003	0	0	5	5	0.7141258	0.002379776	1	10	0.03	1800	-2.272369	40.92393	-91.39365
303439	-81	9	12	-1.103044	-0.03620634	-8.790516	0	11.51	4003	0	0	5	5	0.7141258	0.00549512	1	10	0.03	1800	-2.288361	40.92393	-91.39365
303553	-78	-1	9	-1.094783	-0.04162221	-8.80794	0	11.51	4004	0	0	5	5	0.7141258	0.006762885	1	10	0.03	1800	-2.533386	40.92393	-91.39365
303618	-77	0	14	-1.091432	-0.04078489	-8.821024	0	11.51	4003	0	0	5	5	0.7141258	0.006984205	1	10	0.03	1800	-2.307007	40.92393	-91.39365
303740	-75	0	11	-1.090918	-0.03898339	-8.838936	0	11.51	4002	0	0	5	5	0.7141258	0.004797244	1	10	0.03	1800	-2.305359	40.92393	-91.39364
303806	-77	2	8	-1.091679	-0.04087655	-8.848352	0	11.51	4004	0	0	5	5	0.7141258	0.000566542	1	10	0.03	1800	-2.307098	40.92393	-91.39364
303889	-80	1	6	-1.08642	-0.04411837	-8.859418	0	11.51	4002	0	0	5	5	0.7141258	-0.006411111	1	10	0.03	1800	-2.312256	40.92393	-91.39364
303957	-81	8	9	-1.084872	-0.04564039	-8.873237	0	11.51	4003	0	0	5	5	0.7141258	-0.008031018	1	10	0.03	1800	-2.761688	40.92393	-91.39364
304072	-72	4	5	-1.087539	-0.041795	-8.885832	0	11.51	4003	0	0	5	5	0.7141258	-0.0001656193	1	10	0.03	1800	-2.546661	40.92393	-91.39364
304145	-80	10	7	-1.087745	-0.04099033	-8.893963	0	11.51	4002	0	0	5	5	0.7141258	0.001385668	1	10	0.03	1800	-2.324188	40.92393	-91.39364
304270	-82	6	6	-1.084934	-0.03742344	-8.914932	0	11.57	4004	0	0	5	5	0.7141258	0.0001931743	1	10	0.03	1800	-2.540131	40.92393	-91.39364
304344	-77	9	8	-1.07849	-0.04375251	-8.924349	0	11.57	4004	0	0	5	5	0.7141258	0.003966362	1	10	0.03	1800	-2.54892	40.92393	-91.39364
304442	-77	5	4	-1.076975	-0.0480635	-8.939815	0	11.57	4002	0	0	5	5	0.7141258	0.02119134	1	10	0.03	1800	-2.543213	40.92393	-91.39364
304563	-86	-7	8	-1.080599	-0.05007559	-8.959623	0	11.57	4003	0	0	5	5	0.7141258	0.03085289	1	10	0.03	1800	-2.553192	40.92393	-91.39364
304647	-75	8	0	-1.07838	-0.05111977	-8.972279	0	11.57	4003	0	0	5	5	0.7141258	0.03385206	1	10	0.03	1800	-2.119476	40.92393	-91.39364
304772	-79	10	8	-1.075782	-0.0535382	-8.984996	0	11.57	4003	0	0	5	5	0.7141258	0.02674002	1	10	0.03	1800	-2.334259	40.92393	-91.39364
304894	-74	7	5	-1.072376	-0.05124849	-9.004986	0	11.57	4004	0	0	5	5	0.7141258	0.01676787	1	10	0.03	1800	-2.557617	40.92393	-91.39364
305031	-73	6	3	-1.061992	-0.05185399	-9.021676	0	11.57	4004	0	0	5	5	0.7141258	0.007232583	1	10	0.03	1800	-2.342743	40.92393	-91.39364
305107	-73	5	7	-1.061191	-0.05398983	-9.030357	0	11.57	4002	0	0	5	5	0.7141258	0.00771526	1	10	0.03	1800	-2.581146	40.92393	-91.39364
305203	-79	4	12	-1.051818	-0.05206965	-9.050532	0	11.57	4002	0	0	5	5	0.7141258	0.003791	1	10	0.03	1800	-2.36499	40.92393	-91.39364
305292	-75	7	9	-1.046571	-0.05609091	-9.063065	0	11.57	4003	0	0	5	5	0.7141258	0.00304276	1	10	0.03	1800	-2.386261	40.92393	-91.39364
305364	-75	0	12	-1.04208	-0.05557205	-9.078407	0	11.57	4003	0	0	5	5	0.7141258	0.001751901	1	10	0.03	1800	-2.389832	40.92393	-91.39364
305420	-72	6	7	-1.043193	-0.05330736	-9.08336	0	11.57	4003	0	0	5	5	0.7141258	-0.005643188	1	10	0.03	1800	-2.389832	40.92393	-91.39364
305627	-73	0	15	-1.03992	-0.06410143	-9.11307	0	11.57	4002	0	0	5	5	0.7141258	-0.01579135	1	10	0.03	1800	-2.60022	40.92393	-91.39364
305763	-77	6	7	-1.043045	-0.06448626	-9.133853	0	11.57	4003	0	0	5	5	0.7141258	-0.02038824	1	10	0.03	1800	-2.609711	40.92393	-91.39364
305814	-85	2	8	-1.043589	-0.065344	-9.139294	0	11.57	4002	0	0	5	5	0.7141258	-0.02072609	1	10	0.03	1800	-2.609711	40.92393	-91.39364
305896	-78	5	12	-1.041009	-0.06675892	-9.156107	0	11.57	4003	0	0	5	5	0.7141258	-0.02783249	1	10	0.03	1800	-2.612091	40.92393	-91.39364
306128	-77	0	9	-1.043664	-0.05960855	-9.185758	0	11.57	4004	0	0	5	5	0.7141258	-0.04471727	1	10	0.03	1800	-2.826019	40.92393	-91.39364
306272	-76	0	9	-1.043229	-0.0603515	-9.209234	0	11.57	4003	0	0	5	5	0.7141258	-0.04830766	1	10	0.03	1800	-2.607788	40.92393	-91.39364
306417	-74	-2	6	-1.033504	-0.06415988	-9.227208	0	11.57	4004	0	0	5	5	0.7141258	-0.04252054	1	10	0.03	1800	-2.389862	40.92393	-91.39364
306532	-75	4	11	-1.03426	-0.06493519	-9.24347	0	11.57	4002	0	0	5	5	0.7141258	-0.04033196	1	10	0.03	1800	-2.618774	40.92393	-91.39364
306665	-70	9	5	-1.028271	-0.06468851	-9.261136	0	11.57	4003	0	0	5	5	0.7141258	-0.04727128	1	10	0.03	1800	-2.626495	40.92393	-91.39364
306754	-77	0	4	-1.027557	-0.06223001	-9.272938	0	11.57	4004	0	0	5	5	0.7141258	-0.04943408	1	10	0.03	1800	-2.632233	40.92393	-91.39364
306855	-73	9	9	-1.021358	-0.06712922	-9.285716	0	11.57	4002	0	0	5	5	0.7141258	-0.05026433	1	10	0.03	1800	-2.639252	40.92393	-91.39364
306966	-72	-2	4	-1.015061	-0.06507857	-9.296231	0	11.63	4002	0	0	5	5	0.7141258	-0.04717265	1	10	0.03	1800	-2.209717	40.92393	-91.39364
307064	-73	5	10	-1.011614	-0.06650061	-9.306626	0	11.63	4002	0	0	5	5	0.7141258	-0.04481858	1	10	0.03	1800	-2.429077	40.92393	-91.39364
307147	-71	0	6	-1.002067	-0.06553829	-9.317324	0	11.63	4002	0	0	5	5	0.7141258	-0.04618584	1	10	0.03	1800	-2.437317	40.92393	-91.39364
307229	-79	0	6	-1.001044	-0.0630339	-9.328387	0	11.63	4003	0	0	5	5	0.7141258	-0.04711176	1	10	0.03	1800	-2.669128	40.92393	-91.39364
307312	-71	5	11	-1.000519	-0.05907713	-9.337437	0	11.63	4003	0	0	5	5	0.7141258	-0.04925003	1	10	0.03	1800	-2.447388	40.92393	-91.39364
307442	-73	7	5	-0.9970935	-0.0532997	-9.347647	0	11.63	4004	0	0	5	5	0.7141258	-0.05016835	1	10	0.03	1800	-2.891113	40.92393	-91.39364
307560	-70	-2	9	-1.0025	-0.04969487	-9.363357	0	11.63	4003	0	0	5	5	0.7141258	-0.04705438	1	10	0.03	1800	-2.681274	40.92393	-91.39364
307658	-74	0	12	-1.000041	-0.04642327	-9.374972	0	11.63	4003	0	0	5	5	0.7141258	-0.04370685	1	10	0.03	1800	-2.666901	40.92393	-91.39364
307760	-69	1	10	-0.9944733	-0.04824273	-9.390749	0	11.63	4004	0	0	5	5	0.7141258	-0.03383646	1	10	0.03	1800	-2.671875	40.92393	-91.39364
307813	-78	0	10	-0.9966337	-0.04857028	-9.396435	0	11.63	4002	0	0	5	5	0.7141258	-0.03107961	1	10	0.03	1800	-2.671875	40.92393	-91.39364
307960	-74	1	6	-0.9920313	-0.05138637	-9.413798	0	11.57	4004	0	0	5	5	0.7141258	-0.02889502	1	10	0.03	1800	-2.68161	40.92393	-91.39364
308052	-73	-1	0	-0.9893148	-0.05107429	-9.421318	0	11.57	4004	0	0	5	5	0.7141258	-0.02317651	1	10	0.03	1800	-2.914886	40.92393	-91.39364
308146	-71	0	6	-0.985057	-0.04834965	-9.433666	0	11.57	4003	0	0	5	5	0.7141258	-0.01814759	1	10	0.03	1800	-2.463745	40.92393	-91.39364
308247	-73	1	7	-0.9807578	-0.04884519	-9.442287	0	11.57	4003	0	0	5	5	0.7141258	-0.009098715	1	10	0.03	1800	-2.694946	40.92393	-91.39364
308290	-65	-1	8	-0.9782574	-0.04803973	-9.450726	0	11.57	4004	0	0	5	5	0.7141258	-0.008291078	1	10	0.03	1800	-2.476746	40.92393	-91.39364
308387	-70	3	9	-0.9745554	-0.04900446	-9.45806	0	11.57	4003	0	0	5	5	0.7141258	-0.0110245	1	10	0.03	1800	-2.718353	40.92393	-91.39364
308533	-70	3	11	-0.9691297	-0.0545295	-9.477562	0	11.57	4004	0	0	5	5	0.7141258	-0.01840494	1	10	0.03	1800	-2.714905	40.92393	-91.39364
308631	-72	4	9	-0.9677379	-0.05179938	-9.494008	0	11.57	4003	0	0	5	5	0.7141258	-0.02296518	1	10	0.03	1800	-2.508087	40.92393	-91.39364
308732	-72	3	7	-0.9609747	-0.05291717	-9.500489	0	11.57	4002	0	0	5	5	0.7141258	-0.03488174	1	10	0.03	1800	-2.719879	40.92393	-91.39364
308833	-68	5	4	-0.9619615	-0.05460207	-9.513448	0	11.57	4003	0	0	5	5	0.7141258	-0.034833	1	10	0.03	1800	-2.735291	40.92393	-91.39364
308912	-68	6	4	-0.9613494	-0.05229926	-9.523596	0	11.57	4003	0	0	5	5	0.7141258	-0.04265884	1	10	0.03	1800	-2.507355	40.92393	-91.39364
308986	-64	2	7	-0.9552179	-0.05462013	-9.53075	0	11.57	4004	0	0	5	5	0.7141258	-0.04282245	1	10	0.03	1800	-2.946838	40.92393	-91.39364
309213	-67	0	7	-0.9496704	-0.05761601	-9.55582	0	11.57	4003	0	0	5	5	0.7141258	-0.04933278	1	10	0.03	1800	-2.519104	40.92393	-91.39364
309387	-72	3	7	-0.9400832	-0.0563322	-9.579604	0	11.57	4002	0	0	5	5	0.7141258	-0.05272879	1	10	0.03	1800	-2.74527	40.92393	-91.39364
309442	-74	1	10	-0.9457814	-0.05958298	-9.5859	0	11.57	4003	0	0	5	5	0.7141258	-0.05316155	1	10	0.03	1800	-2.75	40.92393	-91.39364
309597	-71	6	7	-0.9474508	-0.05970272	-9.60204	0	11.57	4004	0	0	5	5	0.7141258	-0.05888419	1	10	0.03	1800	-2.767731	40.92393	-91.39364
309744	-69	9	11	-0.950152	-0.06458268	-9.619649	0	11.57	4003	0	0	5	5	0.7141258	-0.07162813	1	10	0.03	1800	-2.525665	40.92393	-91.39364
309858	-66	0	5	-0.9569181	-0.06187194	-9.630106	0	11.57	4009	0	0	5	5	0.7141258	-0.07274687	1	10	0.03	1800	-2.523499	40.92393	-91.39364
309873	-66	0	5	-0.9569181	-0.06187194	-9.630106	0	11.57	4009	0	0	5	5	0.7141258	-0.07246397	1	10	0.03	1800	-2.523499	40.92393	-91.39364
309996	-64	6	4	-0.9497461	-0.05652999	-9.641292	0	11.57	4003	0	0	5	5	0.7141258	-0.07030853	1	10	0.03	1800	-2.967377	40.92393	-91.39364
310111	-68	0	5	-0.976041	-0.05870806	-9.654862	0	11.57	4003	0	0	5	5	0.7141258	-0.0653147	1	10	0.03	1800	-2.706665	40.92393	-91.39364
310171	-68	0	5	-0.976041	-0.05870806	-9.654862	0	11.57	4003	0	0	5	5	0.7141258	-0.06195669	1	10	0.03	1800	-2.706665	40.92393	-91.39364
310402	-70	3	1	-0.9921825	-0.05714309	-9.680089	0	11.57	4003	0	0	5	5	0.7141258	-0.03918005	1	10	0.03	1800	-2.68811	40.92393	-91.39364
310543	-65	5	3	-0.9857615	-0.06285634	-9.695553	0	11.57	4002	0	0	5	5	0.7141258	-0.03114271	1	10	0.03	1800	-2.704132	40.92393	-91.39364
310686	-67	3	8	-0.972349	-0.06094356	-9.711816	0	11.57	4003	0	0	5	5	0.7141258	-0.02960583	1	10	0.03	1800	-2.72403	40.92393	-91.39364
310856	-72	1	6	-0.9659379	-0.06517897	-9.727835	0	11.57	4003	0	0	5	5	0.7141258	-0.03584821	1	10	0.03	1800	-2.945129	40.92393	-91.39364
310954	-69	2	4	-0.9614956	-0.06908212	-9.73798	0	11.57	4003	0	0	5	5	0.7141258	-0.03732093	1	10	0.03	1800	-2.945648	40.92393	-91.39364
310985	-71	4	7	-0.9614124	-0.07123206	-9.742627	0	11.57	4004	0	0	5	5	0.7141258	-0.03732093	1	10	0.03	1800	-2.945648	40.92393	-91.39364
311155	-67	1	8	-0.9442301	-0.07680679	-9.758458	0	11.57	4003	0	0	5	5	0.7141258	-0.04821586	1	10	0.03	1800	-2.749786	40.92393	-91.39364
311277	-65	3	3	-0.9423659	-0.07835633	-9.772521	0	11.57	4004	0	0	5	5	0.7141258	-0.0533881	1	10	0.03	1800	-2.764771	40.92393	-91.39364
311348	-65	2	9	-0.9340845	-0.08003625	-9.782422	0	11.57	4003	0	0	5	5	0.7141258	-0.06423321	1	10	0.03	1800	-2.766815	40.92393	-91.39364
311411	-70	2	4	-0.9324626	-0.07884218	-9.790062	0	11.57	4003	0	0	5	5	0.7141258	-0.06826546	1	10	0.03	1800	-2.564911	40.92393	-91.39364
311540	-60	6	6	-0.9250243	-0.08045543	-9.803878	0	11.57	4003	0	0	5	5	0.7141258	-0.07713281	1	10	0.03	1800	-2.565033	40.92393	-91.39364
311574	-62	0	8	-0.9247166	-0.08245042	-9.811459	0	11.57	4003	0	0	5	5	0.7141258	-0.07907033	1	10	0.03	1800	-2.5672	40.92393	-91.39364
311693	-73	0	6	-0.9221244	-0.08325414	-9.821486	0	11.57	4003	0	0	5	5	0.7141258	-0.08133216	1	10	0.03	1800	-2.790131	40.92393	-91.39364
311799	-65	4	7	-0.916702	-0.08453165	-9.833223	0	11.57	4004	0	0	5	5	0.7141258	-0.08095177	1	10	0.03	1800	-2.794006	40.92393	-91.39364
311899	-67	1	8	-0.9215524	-0.07636005	-9.84386	0	11.57	4003	0	0	5	5	0.7141258	-0.08671349	1	10	0.03	1800	-3.01712	40.92393	-91.39364
311941	-64	0	6	-0.9231576	-0.07730717	-9.847406	0	11.57	4004	0	0	5	5	0.7141258	-0.08697312	1	10	0.03	1800	-3.007782	40.92393	-91.39364
312047	-69	7	4	-0.9145347	-0.06987259	-9.861465	0	11.57	4002	0	0	5	5	0.7141258	-0.09392441	1	10	0.03	1800	-2.800629	40.92393	-91.39364
312186	-62	-2	7	-0.9092313	-0.07219963	-9.875038	0	11.57	4004	0	0	5	5	0.7141258	-0.09935604	1	10	0.03	1800	-2.819519	40.92393	-91.39364
312236	-66	1	5	-0.9075108	-0.06841559	-9.878401	0	11.57	4004	0	0	5	5	0.7141258	-0.1008108	1	10	0.03	1800	-2.583862	40.92393	-91.39364
312346	-65	6	3	-0.9007753	-0.0680484	-9.889466	0	11.57	4003	0	0	5	5	0.7141258	-0.1003728	1	10	0.03	1800	-2.611603	40.92393	-91.39364
312520	-64	2	11	-0.9030415	-0.07403456	-9.907134	0	11.51	4004	0	0	5	5	0.7141258	-0.09789614	1	10	0.03	1800	-2.615997	40.92393	-91.39364
312592	-57	-5	8	-0.9034986	-0.07163195	-9.912941	0	11.51	4003	0	0	5	5	0.7141258	-0.09236198	1	10	0.03	1800	-2.826263	40.92393	-91.39364
312641	-61	5	6	-0.9038261	-0.07690867	-9.920279	0	11.51	4002	0	0	5	5	0.7141258	-0.0827372	1	10	0.03	1800	-3.036438	40.92393	-91.39364
312789	-62	0	9	-0.8948762	-0.08134758	-9.934464	0	11.51	4002	0	0	5	5	0.7141258	-0.08285774	1	10	0.03	1800	-3.046478	40.92393	-91.39364
312884	-64	3	5	-0.8949608	-0.07765424	-9.946142	0	11.51	4003	0	0	5	5	0.7141258	-0.0886455	1	10	0.03	1800	-2.847382	40.92393	-91.39364
312939	-61	2	5	-0.8901545	-0.07876069	-9.949749	0	11.51	4002	0	0	5	5	0.7141258	-0.09877712	1	10	0.03	1800	-2.847382	40.92393	-91.39364
313057	-68	8	2	-0.893183	-0.0754005	-9.963874	0	11.51	4002	0	0	5	5	0.7141258	-0.1093159	1	10	0.03	1800	-2.832458	40.92393	-91.39364
313131	-67	4	8	-0.8901204	-0.07800388	-9.967786	0	11.51	4003	0	0	5	5	0.7141258	-0.112942	1	10	0.03	1800	-2.846619	40.92393	-91.39364
313259	-63	5	7	-0.8890916	-0.07310311	-9.985943	0	11.51	4004	0	0	5	5	0.7141258	-0.1103095	1	10	0.03	1800	-2.839874	40.92393	-91.39364
313454	-62	3	6	-0.8869473	-0.07107596	-10.00416	0	11.57	4004	0	0	5	5	0.7141258	-0.09816859	1	10	0.03	1800	-2.62912	40.92393	-91.39364
313597	-64	9	3	-0.8754947	-0.06954417	-10.01999	0	11.57	4003	0	0	5	5	0.7141258	-0.07313945	1	10	0.03	1800	-2.851501	40.92393	-91.39364
313678	-64	0	2	-0.8763884	-0.07052561	-10.02703	0	11.57	4003	0	0	5	5	0.7141258	-0.05011311	1	10	0.03	1800	-2.860901	40.92393	-91.39364
313841	-65	2	4	-0.8690181	-0.07605456	-10.04915	0	11.57	4004	0	0	5	5	0.7141258	-0.02615089	1	10	0.03	1800	-2.646851	40.92393	-91.39364
314010	-65	0	7	-0.8726457	-0.0671268	-10.0659	0	11.57	4002	0	0	5	5	0.7141258	-0.01177687	1	10	0.03	1800	-3.101288	40.92393	-91.39364
314110	-62	-2	6	-0.8721457	-0.07217734	-10.07587	0	11.57	4003	0	0	5	5	0.7141258	-0.001162992	1	10	0.03	1800	-2.863312	40.92393	-91.39364
314135	-62	5	8	-0.8702598	-0.0730836	-10.07838	0	11.57	4003	0	0	5	5	0.7141258	-0.0003138896	1	10	0.03	1800	-2.660156	40.92393	-91.39364
314275	-62	5	8	-0.8702598	-0.0730836	-10.07838	0	11.57	4003	0	0	5	5	0.7141258	0.002181281	1	10	0.03	1800	-2.660156	40.92393	-91.39364
314327	-62	5	8	-0.8702598	-0.0730836	-10.07838	0	11.57	4003	0	0	5	5	0.7141258	0.002181281	1	10	0.03	1800	-2.660156	40.92393	-91.39364
