time(ms)	gyro_x(deg/s)	gyro_y(deg/s)	gyro_z(deg/s)	orientation_roll(deg)	orientation_pitch(deg)	orientation_yaw(deg)	throttle	battery(V)	loop_time(uS)	pid_output_roll	pid_output_pitch	pid_output_yaw	pid_output_throttle	ultrasonic_alt	baro_alt	flight_mode	p_gain_altitude	i_gain_altitude	d_gain_altitude	compass_heading	latitude	longitude
626423	-687	-534	436	-1.710823	-5.316088	-88.92846	0	9.75	4002	48	-96	5	5	0.2802309	1.876864	8	10	0.03	1800	0.1070196	40.92387	-91.39359
626542	-1490	1320	-1180	-3.821696	-5.263289	-88.81129	0	9.75	4003	64	-96	5	5	0.2802309	1.837895	8	10	0.03	1800	0.1899097	40.92387	-91.39358
626643	-1402	-2838	-1156	-4.934071	-6.37314	-89.32639	0	9.75	4003	64	-96	5	5	0.2802309	1.809273	8	10	0.03	1800	-1.959808	40.92387	-91.39358
626755	-736	1241	1427	-5.33001	-2.213097	-89.01454	0	9.75	4004	80	-96	5	5	0.2802309	1.762151	8	10	0.03	1800	-2.79187	40.92387	-91.39357
626822	10	5085	1368	-5.253827	-5.340376	-89.50543	0	9.75	4003	80	-96	5	5	0.2802309	1.718902	8	10	0.03	1800	-2.79187	40.92387	-91.39357
626951	360	1790	519	-3.38788	-10.04336	-89.49535	0	9.75	4002	80	-96	5	5	0.2802309	1.683509	8	10	0.03	1800	-4.610657	40.92387	-91.39357
627081	-118	-728	-616	-4.052152	-9.699379	-88.75315	0	9.75	4003	80	-96	5	5	0.2802309	1.632997	8	10	0.03	1800	-5.429077	40.92387	-91.39357
627174	962	134	-1538	-3.723071	-8.514935	-88.73901	0	9.75	4003	80	-96	5	5	0.2802309	1.601994	8	10	0.03	1800	-6.172058	40.92387	-91.39357
627262	-2134	-1234	-1014	-4.360893	-9.997813	-89.32887	0	10.6	4003	64	-70	5	5	0.2802309	1.576351	8	10	0.03	1800	-8.064514	40.92387	-91.39357
627397	864	88	179	-3.282924	-9.673424	-89.91055	0	10.6	4003	80	-88	5	5	0.2802309	1.525839	8	10	0.03	1800	-9.301697	40.92387	-91.39357
627508	-1960	1155	1027	-4.25939	-10.26851	-89.90189	0	10.6	4003	96	-88	5	5	0.2802309	1.49307	8	10	0.03	1800	-9.692505	40.92387	-91.39356
627625	-621	-877	-1056	-5.357546	-6.511585	-89.1927	0	10.6	4002	80	-88	5	5	0.2802309	1.458023	8	10	0.03	1800	-10.95029	40.92387	-91.39357
627646	-621	-877	-1056	-5.357546	-6.511585	-89.1927	0	10.6	4002	80	-88	5	5	0.2802309	1.447819	8	10	0.03	1800	-10.95029	40.92387	-91.39357
627851	-1839	1833	995	-4.192777	-8.446064	-88.07732	0	10.6	4003	80	-80	5	5	0.2802309	1.420021	8	10	0.03	1800	-13.91626	40.92387	-91.39357
627892	-2147	468	1840	-5.163156	-8.933331	-88.06046	0	10.6	4002	80	-80	5	5	0.2802309	1.416257	8	10	0.03	1800	-15.04114	40.92387	-91.39357
627966	-1134	521	1306	-5.943539	-8.822418	-88.41792	0	10.6	4004	80	-80	5	5	0.2802309	1.411907	8	10	0.03	1800	-14.96225	40.92387	-91.39357
628112	-752	-806	-1337	-6.685769	-6.570143	-89.12421	0	10.6	4003	96	-96	5	5	0.2802309	1.403027	8	10	0.03	1800	-15.84128	40.92387	-91.39357
628170	-733	1570	-682	-6.72903	-8.047702	-89.56347	0	10.38	4003	80	-72	5	5	0.2802309	1.403157	8	10	0.03	1800	-15.93881	40.92387	-91.39357
628312	574	-1328	-1843	-5.666948	-7.550259	-88.69973	0	10.38	4003	80	-72	5	5	0.2802309	1.410941	8	10	0.03	1800	-18.44272	40.92387	-91.39357
628408	-327	-1114	378	-5.481448	-6.991936	-88.3148	0	10.38	4003	80	-64	5	5	0.2802309	1.441156	8	10	0.03	1800	-19.15408	40.92388	-91.39357
628518	-600	626	1346	-6.29189	-6.207373	-88.30009	0	10.38	4002	80	-64	5	5	0.2802309	1.454459	8	10	0.03	1800	-18.9581	40.92388	-91.39357
628571	-180	-512	-1137	-6.498724	-5.861818	-88.56323	0	10.38	4004	64	-64	5	5	0.2802309	1.479898	8	10	0.03	1800	-21.5838	40.92388	-91.39358
628666	-537	1464	-67	-6.704794	-9.895046	-89.48518	0	10.38	4004	64	-64	5	5	0.2802309	1.531234	8	10	0.03	1800	-20.78604	40.92388	-91.39358
628816	24	-4428	-905	-5.080221	-7.509936	-88.5858	0	10.38	4003	48	-56	5	5	0.2802309	1.571521	8	10	0.03	1800	-21.36621	40.92389	-91.39359
628913	2299	948	606	-3.256726	-4.486246	-87.79068	0	10.38	4003	32	-48	5	5	0.2802309	1.60337	8	10	0.03	1800	-22.6203	40.92389	-91.39359
629001	4599	2666	1049	2.75486	-8.332577	-88.26898	0	10.38	4003	32	-48	5	5	0.2802309	1.676199	8	10	0.03	1800	-22.94226	40.92389	-91.39359
629095	2105	-1357	-256	5.509594	-9.083457	-88.87004	0	10.32	4002	32	-48	5	5	0.2802309	1.719686	8	10	0.03	1800	-19.97525	40.92389	-91.3936
629181	2769	-70	1768	8.479899	-4.460479	-89.67728	0	10.32	4003	16	-40	5	5	0.2802309	1.745757	8	10	0.03	1800	-16.7034	40.92389	-91.3936
629288	4215	1033	208	10.64115	-5.227858	-89.9118	0	10.32	4004	0	-32	5	5	0.2802309	1.790138	8	10	0.03	1800	-15.00552	40.9239	-91.39361
629373	2929	-1018	155	13.24505	-6.40984	-89.97974	0	10.32	4004	0	-32	5	5	0.2802309	1.816558	8	10	0.03	1800	-13.87009	40.9239	-91.39361
629519	274	-3088	1423	16.70549	-1.272218	-89.4895	0	10.32	4002	-16	-24	5	5	0.2802309	1.850164	8	10	0.03	1800	-7.505646	40.9239	-91.39362
629680	351	-1596	528	9.478464	6.696433	-90.21738	0	10.32	4002	-32	-16	5	5	0.2802309	1.853961	8	10	0.03	1800	2.759822	40.9239	-91.39362
629767	-696	-2238	1140	8.417072	9.143099	-90.98688	0	10.32	4004	0	0	5	5	0.2802309	1.846501	3	10	0.03	1800	6.995973	40.9239	-91.39362
629826	-364	-1755	-2220	7.714349	9.580741	-90.81385	0	10.32	4002	0	0	5	5	0.2802309	1.828646	3	10	0.03	1800	10.45225	40.92391	-91.39363
629943	1166	3036	488	4.54693	4.27769	-90.16354	0	10.32	4004	0	0	5	5	0.2802309	1.776791	3	10	0.03	1800	21.05214	40.92391	-91.39363
630035	32531	-32758	10475	9.015546	1.726355	-91.70821	0	10.83	4003	0	0	5	5	0.2802309	1.690843	3	10	0.03	1800	22.6303	40.92391	-91.39363
630120	788	17762	1276	13.17875	-11.70803	-95.22964	0	10.83	4003	0	0	5	5	0.2802309	1.532725	3	10	0.03	1800	-20.40045	40.92391	-91.39363
630201	591	6721	616	12.51261	-24.59316	-97.26458	0	10.83	4003	0	0	5	5	0.2802309	1.36014	3	10	0.03	1800	-7.554077	40.92392	-91.39364
630319	139	-7442	-465	10.33105	-28.09125	-96.95809	0	10.83	4003	0	0	5	5	0.2802309	1.140114	3	10	0.03	1800	-5.487152	40.92392	-91.39364
630428	-88	-15331	-1463	9.50681	-16.76743	-95.97063	0	10.83	4003	0	0	5	5	0.2802309	0.9517058	3	10	0.03	1800	-6.568146	40.92392	-91.39365
630496	-4316	-5967	256	6.237972	-1.048212	-94.50268	0	10.83	4003	0	0	5	5	0.2802309	0.9090552	3	10	0.03	1800	-9.754395	40.92392	-91.39365
630635	-674	-1104	-36	6.237679	-2.462781	-95.06593	0	10.83	4004	0	0	5	5	0.2802309	0.7840891	3	10	0.03	1800	-6.445129	40.92392	-91.39365
630693	-659	-762	-46	5.56128	-1.519293	-95.04605	0	10.83	4003	0	0	5	5	0.2802309	0.6482413	3	10	0.03	1800	-7.011871	40.92392	-91.39365
630796	-76	-97	15	5.061757	-1.371571	-95.08426	0	10.83	4003	0	0	5	5	0.2802309	0.5822319	3	10	0.03	1800	-6.154175	40.92392	-91.39366
630931	-28	-12	10	4.27844	-0.8975294	-95.10815	0	10.89	4004	0	0	5	5	0.2802309	0.4737964	3	10	0.03	1800	-4.412109	40.92392	-91.39366
631052	-31	-1	8	3.905235	-0.6863728	-95.12652	0	10.89	4004	0	0	5	5	0.2802309	0.4090843	3	10	0.03	1800	-3.941986	40.92392	-91.39366
631107	-34	6	4	3.675421	-0.5553941	-95.13598	0	10.89	4002	0	0	5	5	0.2802309	0.3638567	3	10	0.03	1800	-3.72818	40.92391	-91.39367
631218	-36	-5	13	3.383254	-0.3871584	-95.15252	0	10.89	4002	0	0	5	5	0.2802309	0.296614	3	10	0.03	1800	-2.564117	40.92391	-91.39367
631332	-27	1	9	3.037727	-0.199239	-95.17382	0	10.89	4004	0	0	5	5	0.2802309	0.2650492	3	10	0.03	1800	-2.457733	40.92391	-91.39367
631507	-24	0	10	2.689787	-0.006237999	-95.1986	0	10.89	4004	0	0	5	5	0.2802309	0.2092168	3	10	0.03	1800	-1.696442	40.9239	-91.39368
631559	-27	-3	5	2.629172	0.02508526	-95.2033	0	10.89	4002	0	0	5	5	0.2802309	0.1992299	3	10	0.03	1800	-1.702972	40.9239	-91.39368
631709	-36	-3	9	2.373344	0.1679016	-95.23034	0	10.89	4004	0	0	5	5	0.2802309	0.1657589	3	10	0.03	1800	-0.9069824	40.9239	-91.39369
631814	-35	-4	10	2.239399	0.2475453	-95.24303	0	10.89	4004	0	0	5	5	0.2802309	0.1525977	3	10	0.03	1800	-0.7525635	40.9239	-91.39369
631926	-31	5	7	2.125457	0.3141581	-95.25793	0	10.89	4002	0	0	5	5	0.2802309	0.1346909	3	10	0.03	1800	-0.8267517	40.9239	-91.39369
632013	-29	0	7	2.057804	0.3575584	-95.26617	0	10.89	4002	0	0	5	5	0.2802309	0.1274142	3	10	0.03	1800	-0.2572327	40.9239	-91.39369
632173	-30	5	3	1.909335	0.4409809	-95.28783	0	10.89	4004	0	0	5	5	0.2802309	0.1077315	3	10	0.03	1800	-0.3854065	40.9239	-91.39368
632263	-31	-5	12	1.836334	0.4807806	-95.30254	0	10.89	4003	0	0	5	5	0.2802309	0.1033066	3	10	0.03	1800	-0.06671143	40.9239	-91.39368
632417	-32	-3	5	1.73264	0.5307283	-95.32629	0	10.89	4003	0	0	5	5	0.2802309	0.09154325	3	10	0.03	1800	0.1322348	40.9239	-91.39368
632500	-23	1	8	1.690915	0.5545233	-95.33788	0	10.89	4003	0	0	5	5	0.2802309	0.08314225	3	10	0.03	1800	0.194862	40.9239	-91.39368
632601	-28	-5	7	1.657597	0.5823286	-95.35143	0	10.89	4003	0	0	5	5	0.2802309	0.06990398	3	10	0.03	1800	0.2391278	40.9239	-91.39368
632689	-28	3	9	1.618272	0.6004575	-95.36413	0	10.89	4002	0	0	5	5	0.2802309	0.0460887	3	10	0.03	1800	0.32494	40.9239	-91.39368
632791	-27	5	10	1.56511	0.6196733	-95.38201	0	10.94	4002	0	0	5	5	0.2802309	0.02907847	3	10	0.03	1800	0.4077416	40.9239	-91.39368
632810	-34	-1	8	1.533314	0.6300053	-95.39495	0	10.94	4004	0	0	5	5	0.2802309	0.02627057	3	10	0.03	1800	0.2162019	40.9239	-91.39368
632911	-32	-2	6	1.508629	0.6462446	-95.4085	0	10.94	4003	0	0	5	5	0.2802309	0.008955671	3	10	0.03	1800	0.5120461	40.9239	-91.39368
633000	-25	2	12	1.496086	0.6516909	-95.41741	0	10.94	4002	0	0	5	5	0.2802309	0.001681276	3	10	0.03	1800	0.3003445	40.9239	-91.39368
633103	-24	3	7	1.475061	0.6563551	-95.43237	0	10.94	4003	0	0	5	5	0.2802309	-0.008048124	3	10	0.03	1800	0.3073357	40.9239	-91.39368
633237	-26	2	14	1.460305	0.6703476	-95.44469	0	10.94	4002	0	0	5	5	0.2802309	-0.01902324	3	10	0.03	1800	0.5795	40.9239	-91.39368
633304	-26	-1	6	1.442928	0.680559	-95.45733	0	10.94	4004	0	0	5	5	0.2802309	-0.01965502	3	10	0.03	1800	0.3823252	40.9239	-91.39368
633397	-32	-2	7	1.436923	0.6841623	-95.46685	0	10.94	4004	0	0	5	5	0.2802309	-0.04061303	3	10	0.03	1800	0.6181261	40.9239	-91.39368
633514	-28	-3	6	1.42938	0.6938074	-95.48095	0	10.94	4004	0	0	5	5	0.2802309	-0.06254617	3	10	0.03	1800	0.6334004	40.9239	-91.39368
633654	-31	4	10	1.418457	0.6959753	-95.49401	0	10.89	4002	0	0	5	5	0.2802309	-0.08096325	3	10	0.03	1800	0.647316	40.9239	-91.39368
633717	-30	1	15	1.416629	0.6993653	-95.50213	0	10.89	4003	0	0	5	5	0.2802309	-0.08867727	3	10	0.03	1800	0.647316	40.9239	-91.39368
633807	-27	1	3	1.414696	0.7041967	-95.51641	0	10.89	4002	0	0	5	5	0.2802309	-0.1013445	3	10	0.03	1800	0.6640216	40.9239	-91.39368
633909	-29	-2	5	1.411928	0.7036369	-95.52447	0	10.89	4003	0	0	5	5	0.2802309	-0.1056238	3	10	0.03	1800	0.6584315	40.9239	-91.39368
634011	-28	0	4	1.404868	0.7065953	-95.54125	0	10.89	4004	0	0	5	5	0.2802309	-0.1062951	3	10	0.03	1800	0.6626703	40.9239	-91.39368
634208	-40	-4	-5	1.393307	0.719428	-95.56414	0	10.89	4003	0	0	5	5	0.2802309	-0.09764109	3	10	0.03	1800	0.6842674	40.9239	-91.39368
634277	-37	-13	7	1.3908	0.7143751	-95.57494	0	10.89	4004	0	0	5	5	0.2802309	-0.08414583	3	10	0.03	1800	0.9199647	40.9239	-91.39368
634404	-26	-2	8	1.386908	0.7120911	-95.58617	0	10.89	4002	0	0	5	5	0.2802309	-0.0698916	3	10	0.03	1800	0.6959907	40.9239	-91.39368
634433	-29	-1	3	1.386385	0.7108375	-95.5949	0	10.89	4003	0	0	5	5	0.2802309	-0.06733894	3	10	0.03	1800	0.4789137	40.9239	-91.39368
634573	-24	1	8	1.381283	0.7107375	-95.61016	0	11	4002	0	0	5	5	0.2802309	-0.06068227	3	10	0.03	1800	0.7033438	40.9239	-91.39368
634643	-29	1	10	1.37792	0.7103668	-95.61419	0	11	4004	0	0	5	5	0.2802309	-0.05719946	3	10	0.03	1800	0.4886951	40.9239	-91.39368
634731	7	0	197	1.344086	0.7842082	-95.62762	0	11	4002	0	0	5	5	0.2802309	-0.04825956	3	10	0.03	1800	0.7559347	40.9239	-91.39368
634844	191	492	-328	1.531616	0.4485638	-95.57319	0	11	4004	0	0	5	5	0.2802309	-0.03242996	3	10	0.03	1800	0.9773329	40.9239	-91.39368
634967	-4138	-6459	-910	-2.960747	5.07906	-95.17101	0	11	4004	0	0	5	5	0.2802309	-0.001379901	3	10	0.03	1800	2.011977	40.9239	-91.39368
635105	-680	-1817	-1805	-4.908829	11.40307	-93.04221	0	11	4002	0	0	5	5	0.2802309	0.02540245	3	10	0.03	1800	1.650994	40.9239	-91.39368
635255	-584	-1144	-1415	-5.123439	16.12551	-87.51774	0	11	4003	0	0	5	5	0.2802309	0.06011023	3	10	0.03	1800	0.7151058	40.9239	-91.39368
635345	-1060	-185	-2738	-8.225563	18.83181	-84.68533	0	11	4003	0	0	5	5	0.2802309	0.09810199	3	10	0.03	1800	0.8658081	40.9239	-91.39368
635458	-905	605	-4035	-8.601158	18.88459	-79.50891	0	11	4002	0	0	5	5	0.2802309	0.1250262	3	10	0.03	1800	0.181778	40.9239	-91.39367
635584	-5055	-1541	-4637	-13.47349	19.64369	-66.3872	0	11	4004	0	0	5	5	0.2802309	0.1772985	3	10	0.03	1800	-8.33075	40.9239	-91.39367
635619	-4487	-2266	-4226	-14.87506	21.90514	-63.94964	0	11	4002	0	0	5	5	0.2802309	0.1880568	3	10	0.03	1800	-8.33075	40.9239	-91.39367
635699	-2086	-2194	-3570	-16.08882	26.61267	-59.7268	0	11	4004	0	0	5	5	0.2802309	0.2328258	3	10	0.03	1800	-13.09158	40.9239	-91.39367
635804	953	68	-3042	-14.10802	29.5453	-56.10809	0	11	4002	0	0	5	5	0.2802309	0.2674523	3	10	0.03	1800	-19.60855	40.9239	-91.39367
635953	-285	1364	2421	-7.175519	28.35965	-54.94432	0	11	4002	0	0	5	5	0.2802309	0.3489642	3	10	0.03	1800	-30.43253	40.9239	-91.39367
636022	1815	3929	2798	-7.306072	23.48021	-59.71215	0	11	4004	0	0	5	5	0.2802309	0.3873117	3	10	0.03	1800	-28.88168	40.9239	-91.39366
636166	771	1382	845	-4.911345	18.19524	-63.82806	0	11	4004	0	0	5	5	0.2802309	0.4163249	3	10	0.03	1800	-22.08768	40.9239	-91.39366
636211	-337	1368	509	-4.884147	17.3788	-64.19053	0	11	4004	0	0	5	5	0.2802309	0.4310893	3	10	0.03	1800	-22.08768	40.9239	-91.39366
636314	-634	2206	1105	-8.22868	14.91417	-65.06066	0	11	4004	0	0	5	5	0.2802309	0.4528031	3	10	0.03	1800	-20.92953	40.9239	-91.39366
636450	-827	451	2364	-9.177752	12.30566	-68.24252	0	10.94	4004	0	0	5	5	0.2802309	0.4687207	3	10	0.03	1800	-19.07205	40.9239	-91.39366
636519	1572	1505	3552	-8.505121	9.943798	-73.59238	0	10.94	4002	0	0	5	5	0.2802309	0.4708987	3	10	0.03	1800	-17.08566	40.9239	-91.39366
636627	1218	775	3177	-8.160811	8.237794	-77.28411	0	10.94	4003	0	0	5	5	0.2802309	0.4833563	3	10	0.03	1800	-12.70764	40.9239	-91.39366
636746	270	12	1205	-4.816308	5.812143	-82.08829	0	10.94	4002	0	0	5	5	0.2802309	0.4879903	3	10	0.03	1800	-7.738495	40.9239	-91.39366
636920	664	342	955	-3.199931	5.280468	-83.89307	0	10.94	4002	0	0	5	5	0.2802309	0.4941642	3	10	0.03	1800	-8.387512	40.9239	-91.39366
636998	2061	-823	1557	1.087041	4.989783	-86.24297	0	10.94	4002	0	0	5	5	0.2802309	0.4928363	3	10	0.03	1800	-10.48926	40.9239	-91.39366
637099	843	54	551	3.513519	4.871209	-87.56406	0	10.94	4003	0	0	5	5	0.2802309	0.4884858	3	10	0.03	1800	-10.17389	40.9239	-91.39365
637124	843	54	551	3.513519	4.871209	-87.56406	0	10.94	4003	0	0	5	5	0.2802309	0.487377	3	10	0.03	1800	-10.17389	40.9239	-91.39365
637255	-513	-25	199	1.638092	0.8224961	-89.15611	0	11	4002	0	0	5	5	0.2802309	0.4724199	3	10	0.03	1800	-8.180023	40.9239	-91.39365
637328	-5	-407	-311	1.645649	0.8475443	-89.04523	0	11	4003	0	0	5	5	0.2802309	0.4596289	3	10	0.03	1800	-7.499664	40.9239	-91.39365
637451	29	-24	-8	1.16127	0.4242312	-89.02229	0	11	4002	0	0	5	5	0.2802309	0.4443492	3	10	0.03	1800	-7.306824	40.9239	-91.39365
637542	-3	-4	-6	0.9963666	0.3956113	-89.03107	0	11	4003	0	0	5	5	0.2802309	0.4264798	3	10	0.03	1800	-7.173431	40.9239	-91.39365
637643	-22	-2	5	0.8842872	0.3270577	-89.03236	0	11	4004	0	0	5	5	0.2802309	0.4136691	3	10	0.03	1800	-6.959625	40.9239	-91.39365
637893	-24	3	11	0.4936244	0.1557016	-89.05347	0	11	4004	0	0	5	5	0.2802309	0.3368058	3	10	0.03	1800	-6.324158	40.9239	-91.39365
637955	-25	1	8	0.412944	0.127047	-89.06031	0	11	4002	0	0	5	5	0.2802309	0.2960952	3	10	0.03	1800	-6.233673	40.9239	-91.39365
638053	-22	-3	6	0.3080528	0.08154317	-89.06806	0	11	4002	0	0	5	5	0.2802309	0.2750737	3	10	0.03	1800	-5.988983	40.9239	-91.39365
638174	-28	-2	5	0.2184455	0.03764724	-89.07685	0	11	4003	0	0	5	5	0.2802309	0.2508122	3	10	0.03	1800	-5.686768	40.9239	-91.39365
638254	-21	0	0	0.139425	-0.00140431	-89.08259	0	11.06	4003	0	0	5	5	0.2802309	0.2364548	3	10	0.03	1800	-5.836945	40.9239	-91.39365
638395	-21	-5	5	0.04509757	-0.0615491	-89.09193	0	11.06	4002	0	0	5	5	0.2802309	0.2193911	3	10	0.03	1800	-5.684753	40.9239	-91.39365
638506	-30	0	3	-0.01461126	-0.09291461	-89.10389	0	11.06	4003	0	0	5	5	0.2802309	0.2074636	3	10	0.03	1800	-5.371094	40.9239	-91.39365
638584	-17	-2	5	-0.04768914	-0.1077821	-89.10944	0	11.06	4004	0	0	5	5	0.2802309	0.200037	3	10	0.03	1800	-5.729828	40.9239	-91.39365
638679	-30	-2	6	-0.09197599	-0.1244738	-89.1175	0	11.06	4003	0	0	5	5	0.2802309	0.188085	3	10	0.03	1800	-5.445831	40.9239	-91.39365
638765	-22	1	2	-0.1254538	-0.1428757	-89.12269	0	11.06	4004	0	0	5	5	0.2802309	0.1815927	3	10	0.03	1800	-5.409576	40.9239	-91.39365
638877	-21	1	0	-0.1556811	-0.1608328	-89.12922	0	11.06	4003	0	0	5	5	0.2802309	0.1730856	3	10	0.03	1800	-5.359344	40.9239	-91.39365
638992	-29	-1	2	-0.1917589	-0.1822311	-89.14442	0	11.06	4002	0	0	5	5	0.2802309	0.159739	3	10	0.03	1800	-5.110565	40.9239	-91.39365
639066	-27	-2	5	-0.2174207	-0.2022463	-89.15278	0	11	4004	0	0	5	5	0.2802309	0.156423	3	10	0.03	1800	-5.500977	40.9239	-91.39365
639154	-21	-2	5	-0.2225925	-0.2037288	-89.15736	0	11	4002	0	0	5	5	0.2802309	0.1544777	3	10	0.03	1800	-5.242004	40.9239	-91.39365
639195	-24	-6	4	-0.2326901	-0.2067422	-89.16022	0	11	4003	0	0	5	5	0.2802309	0.1549749	3	10	0.03	1800	-5.248077	40.9239	-91.39365
639299	-27	1	8	-0.2513112	-0.2154329	-89.16908	0	11	4003	0	0	5	5	0.2802309	0.158208	3	10	0.03	1800	-5.206726	40.9239	-91.39365
639413	-25	-1	7	-0.2785977	-0.2270919	-89.18214	0	11	4003	0	0	5	5	0.2802309	0.1652317	3	10	0.03	1800	-5.397064	40.9239	-91.39365
639501	-22	1	6	-0.2988847	-0.233703	-89.19038	0	11	4004	0	0	5	5	0.2802309	0.1749206	3	10	0.03	1800	-5.149689	40.9239	-91.39365
639622	-21	0	8	-0.3162285	-0.2400129	-89.19892	0	11	4003	0	0	5	5	0.2802309	0.2025255	3	10	0.03	1800	-5.12558	40.9239	-91.39365
639713	-27	-1	7	-0.3234962	-0.2316245	-89.20423	0	11	4002	0	0	5	5	0.2802309	0.2151978	3	10	0.03	1800	-5.116516	40.9239	-91.39365
639862	-22	-2	7	-0.3401976	-0.231611	-89.21796	0	11	4003	0	0	5	5	0.2802309	0.2240613	3	10	0.03	1800	-5.072784	40.9239	-91.39365
639912	-24	2	6	-0.3458773	-0.2353667	-89.2198	0	11	4003	0	0	5	5	0.2802309	0.2255656	3	10	0.03	1800	-5.274292	40.9239	-91.39365
640055	-19	2	3	-0.3477327	-0.2372659	-89.23206	0	10.94	4003	0	0	5	5	0.2802309	0.2210001	3	10	0.03	1800	-5.055786	40.9239	-91.39365
640121	-24	0	1	-0.3477181	-0.2396449	-89.23701	0	10.94	4004	0	0	5	5	0.2802309	0.2152883	3	10	0.03	1800	-5.057434	40.9239	-91.39365
640210	-22	6	9	-0.3418737	-0.2440968	-89.24763	0	10.94	4004	0	0	5	5	0.2802309	0.2093786	3	10	0.03	1800	-5.2789	40.9239	-91.39365
640353	-20	2	0	-0.3450344	-0.2433252	-89.25666	0	10.94	4002	0	0	5	5	0.2802309	0.2041693	3	10	0.03	1800	-5.301849	40.9239	-91.39365
640410	-21	7	2	-0.3421109	-0.2419603	-89.25971	0	10.94	4004	0	0	5	5	0.2802309	0.2013268	3	10	0.03	1800	-5.296875	40.9239	-91.39365
640611	-20	0	7	-0.3465948	-0.2436613	-89.27552	0	10.94	4003	0	0	5	5	0.2802309	0.1987237	3	10	0.03	1800	-5.059723	40.9239	-91.39365
640684	-17	-2	0	-0.3430041	-0.2472739	-89.28175	0	10.94	4003	0	0	5	5	0.2802309	0.1992895	3	10	0.03	1800	-4.873962	40.9239	-91.39365
640761	-26	-1	2	-0.3427427	-0.2526809	-89.28724	0	10.94	4004	0	0	5	5	0.2802309	0.2050555	3	10	0.03	1800	-4.869659	40.9239	-91.39365
640804	-18	1	7	-0.3437886	-0.2532623	-89.29188	0	10.94	4003	0	0	5	5	0.2802309	0.2060855	3	10	0.03	1800	-5.060303	40.9239	-91.39365
640950	-23	10	4	-0.3474037	-0.2526493	-89.29829	0	10.89	4004	0	0	5	5	0.2802309	0.2213989	3	10	0.03	1800	-5.060852	40.9239	-91.39365
641069	-25	0	4	-0.3474517	-0.251573	-89.30952	0	10.89	4004	0	0	5	5	0.2802309	0.2397509	3	10	0.03	1800	-5.06076	40.9239	-91.39365
641160	-16	2	4	-0.3464565	-0.2503125	-89.31593	0	10.89	4004	0	0	5	5	0.2802309	0.2485879	3	10	0.03	1800	-5.063477	40.9239	-91.39365
641249	-17	-5	9	-0.3459848	-0.2542591	-89.32056	0	10.89	4004	0	0	5	5	0.2802309	0.2596886	3	10	0.03	1800	-5.063477	40.9239	-91.39365
641346	-23	2	4	-0.3422727	-0.2558662	-89.33186	0	10.89	4003	0	0	5	5	0.2802309	0.2692401	3	10	0.03	1800	-5.279022	40.9239	-91.39365
641471	-23	3	6	-0.3411174	-0.254111	-89.33942	0	10.89	4003	0	0	5	5	0.2802309	0.2746198	1	10	0.03	1800	-5.06662	40.9239	-91.39365
641552	-18	4	2	-0.3398099	-0.2578163	-89.34534	0	10.89	4002	0	0	5	5	0.2802309	0.2695048	1	10	0.03	1800	-5.073151	40.9239	-91.39365
641647	-15	3	4	-0.3357938	-0.2609012	-89.35529	0	10.89	4003	0	0	5	5	0.2802309	0.2627366	1	10	0.03	1800	-5.0578	40.9239	-91.39365
641704	-20	0	6	-0.3343193	-0.2613623	-89.35743	0	10.89	4003	0	0	5	5	0.2802309	0.2528253	1	10	0.03	1800	-5.061035	40.9239	-91.39365
641842	-15	-3	5	-0.3234982	-0.2675579	-89.3653	0	10.94	4003	0	0	5	5	0.2802309	0.2419002	3	10	0.03	1800	-5.300232	40.9239	-91.39365
641988	-11	7	5	-0.3250677	-0.274432	-89.37244	0	10.94	4002	0	0	5	5	0.2802309	0.2314176	3	10	0.03	1800	-5.11441	40.9239	-91.39365
642014	-25	1	4	-0.3242618	-0.2758655	-89.37482	0	10.94	4003	0	0	5	5	0.2802309	0.22822	3	10	0.03	1800	-5.116821	40.9239	-91.39365
642111	-16	-2	4	-0.3186929	-0.2784398	-89.38178	0	10.94	4002	0	0	5	5	0.2802309	0.2245258	3	10	0.03	1800	-5.12146	40.9239	-91.39365
642238	-19	0	5	-0.3199204	-0.2799878	-89.39326	0	10.94	4004	0	0	5	5	0.2802309	0.2261719	3	10	0.03	1800	-4.888733	40.9239	-91.39365
642316	-19	-2	5	-0.3213363	-0.2797226	-89.39722	0	10.94	4004	0	0	5	5	0.2802309	0.2158857	3	10	0.03	1800	-5.086212	40.9239	-91.39365
642491	-22	3	4	-0.3237315	-0.2769214	-89.41084	0	10.94	4002	0	0	5	5	0.2802309	0.2035337	3	10	0.03	1800	-4.888184	40.9239	-91.39365
642546	-13	-1	0	-0.326887	-0.2785423	-89.41291	0	10.94	4004	0	0	5	5	0.2802309	0.2016443	3	10	0.03	1800	-4.903351	40.9239	-91.39365
642622	-22	-1	4	-0.3252156	-0.2833784	-89.41627	0	10.94	4002	0	0	5	5	0.2802309	0.200699	3	10	0.03	1800	-5.28656	40.9239	-91.39365
642720	-19	0	5	-0.3138694	-0.2828403	-89.425	0	10.94	4003	0	0	5	5	0.2802309	0.2051842	3	10	0.03	1800	-5.112549	40.9239	-91.39365
642875	-21	-3	4	-0.3149928	-0.2793771	-89.43501	0	11	4003	0	0	5	5	0.2802309	0.1928699	3	10	0.03	1800	-5.131226	40.9239	-91.39365
642920	-10	3	4	-0.3150645	-0.2833845	-89.43855	0	11	4003	0	0	5	5	0.2802309	0.18653	3	10	0.03	1800	-5.111145	40.9239	-91.39365
643023	-17	1	-1	-0.3140444	-0.2822009	-89.44233	0	11	4003	0	0	5	5	0.2802309	0.1791863	3	10	0.03	1800	-4.923737	40.9239	-91.39365
643157	-8	0	5	-0.3074029	-0.2853046	-89.45393	0	11	4003	0	0	5	5	0.2802309	0.1726875	3	10	0.03	1800	-4.903473	40.9239	-91.39365
643232	-13	4	2	-0.3111589	-0.280967	-89.45789	0	11	4004	0	0	5	5	0.2802309	0.1718171	3	10	0.03	1800	-5.123993	40.9239	-91.39365
643347	-13	4	5	-0.3090405	-0.27669	-89.46375	0	11	4002	0	0	5	5	0.2802309	0.1677593	3	10	0.03	1800	-5.355743	40.9239	-91.39365
643450	-22	4	2	-0.3046842	-0.2709185	-89.47346	0	11	4002	0	0	5	5	0.2802309	0.1580154	3	10	0.03	1800	-4.91098	40.9239	-91.39365
643546	-19	0	0	-0.3001151	-0.2755345	-89.48127	0	11	4002	0	0	5	5	0.2802309	0.144021	3	10	0.03	1800	-4.90155	40.9239	-91.39365
643670	-11	0	0	-0.2985319	-0.2817687	-89.48896	0	11	4003	0	0	5	5	0.2802309	0.1314233	3	10	0.03	1800	-5.157227	40.9239	-91.39365
643727	-13	4	2	-0.2941068	-0.2793612	-89.49268	0	11	4004	0	0	5	5	0.2802309	0.1246027	3	10	0.03	1800	-5.157227	40.9239	-91.39365
643826	-12	-6	3	-0.2967897	-0.2770307	-89.49751	0	11	4003	0	0	5	5	0.2802309	0.1261302	3	10	0.03	1800	-5.157715	40.9239	-91.39365
643932	-20	0	2	-0.2902538	-0.2796662	-89.503	0	11	4003	0	0	5	5	0.2802309	0.1257887	3	10	0.03	1800	-5.356567	40.9239	-91.39365
644042	-12	3	0	-0.2889943	-0.2838545	-89.51044	0	11	4003	0	0	5	5	0.2802309	0.1310926	3	10	0.03	1800	-5.35144	40.9239	-91.39365
644154	-12	-2	3	-0.2783763	-0.2848242	-89.51679	0	11	4002	0	0	5	5	0.2802309	0.1284337	3	10	0.03	1800	-5.39798	40.9239	-91.39365
644223	-11	-3	1	-0.2790562	-0.2826711	-89.51954	0	11	4003	0	0	5	5	0.2802309	0.1267986	3	10	0.03	1800	-5.39798	40.9239	-91.39365
644367	-17	-3	1	-0.2840709	-0.2754338	-89.52814	0	11	4003	0	0	5	5	0.2802309	0.1317124	3	10	0.03	1800	-5.143097	40.9239	-91.39365
644435	-14	1	3	-0.2827298	-0.2745767	-89.5315	0	11	4003	0	0	5	5	0.2802309	0.1332915	3	10	0.03	1800	-5.157684	40.9239	-91.39365
644536	-15	0	5	-0.2800346	-0.2719191	-89.53962	0	11	4004	0	0	5	5	0.2802309	0.1523506	3	10	0.03	1800	-5.393921	40.9239	-91.39365
644632	-12	-1	6	-0.2751527	-0.2720345	-89.5434	0	11	4004	0	0	5	5	0.2802309	0.162085	3	10	0.03	1800	-5.16507	40.9239	-91.39365
644732	-17	6	5	-0.2715206	-0.2753942	-89.54945	0	11	4003	0	0	5	5	0.2802309	0.1671178	3	10	0.03	1800	-4.963043	40.9239	-91.39365
644864	-6	-1	1	-0.2729045	-0.2797923	-89.55579	0	11	4003	0	0	5	5	0.2802309	0.180994	3	10	0.03	1800	-5.173218	40.9239	-91.39365
644923	-16	1	8	-0.2641992	-0.2754323	-89.56055	0	11	4003	0	0	5	5	0.2802309	0.1847561	3	10	0.03	1800	-4.992096	40.9239	-91.39365
645110	-19	3	3	-0.2636502	-0.2777528	-89.57288	0	11	4004	0	0	5	5	0.2802309	0.1899901	3	10	0.03	1800	-5.186096	40.9239	-91.39365
645162	-12	-3	5	-0.2614057	-0.2770557	-89.57478	0	11	4004	0	0	5	5	0.2802309	0.1913974	3	10	0.03	1800	-4.973999	40.9239	-91.39365
645241	-17	-1	2	-0.2540041	-0.2808731	-89.57917	0	11	4004	0	0	5	5	0.2802309	0.1903242	3	10	0.03	1800	-5.19458	40.9239	-91.39365
645345	-8	-2	3	-0.2504227	-0.2800156	-89.58344	0	11	4004	0	0	5	5	0.2802309	0.1975364	3	10	0.03	1800	-4.996033	40.9239	-91.39365
645461	-13	-3	6	-0.2503836	-0.2720214	-89.59064	0	11	4004	0	0	5	5	0.2802309	0.2056366	3	10	0.03	1800	-4.996246	40.9239	-91.39365
645519	-19	2	1	-0.2506662	-0.2716347	-89.59449	0	11	4003	0	0	5	5	0.2802309	0.2111948	3	10	0.03	1800	-4.994934	40.9239	-91.39365
645626	-14	-2	2	-0.2459124	-0.2765761	-89.59949	0	11	4004	0	0	5	5	0.2802309	0.2180549	3	10	0.03	1800	-5.230072	40.9239	-91.39365
645733	-10	3	5	-0.2518444	-0.2821483	-89.60438	0	11	4004	0	0	5	5	0.2802309	0.2153811	3	10	0.03	1800	-5.209381	40.9239	-91.39365
645828	-10	-4	4	-0.2530115	-0.2767521	-89.60889	0	11	4002	0	0	5	5	0.2802309	0.2037173	3	10	0.03	1800	-5.416016	40.9239	-91.39365
645909	-13	-2	1	-0.2499471	-0.2764809	-89.61121	0	11	4003	0	0	5	5	0.2802309	0.1958778	3	10	0.03	1800	-5.442871	40.9239	-91.39365
646013	-7	1	7	-0.254155	-0.2821959	-89.61897	0	11	4002	0	0	5	5	0.2802309	0.1867491	3	10	0.03	1800	-5.433594	40.9239	-91.39365
646102	-12	-3	2	-0.2494444	-0.2804402	-89.62208	0	11	4004	0	0	5	5	0.2802309	0.1821734	3	10	0.03	1800	-5.191376	40.9239	-91.39365
646222	-16	0	0	-0.2555664	-0.2772051	-89.63087	0	11	4003	0	0	5	5	0.2802309	0.178176	3	10	0.03	1800	-5.416107	40.9239	-91.39365
646351	-15	3	3	-0.2508771	-0.276499	-89.63538	0	11	4003	0	0	5	5	0.2802309	0.1737606	3	10	0.03	1800	-5.225555	40.9239	-91.39365
646429	-9	-3	7	-0.2540601	-0.2758864	-89.6396	0	11.06	4003	0	0	5	5	0.2802309	0.17173	3	10	0.03	1800	-5.20575	40.9239	-91.39365
646521	-15	-1	2	-0.252829	-0.2727587	-89.64411	0	11.06	4003	0	0	5	5	0.2802309	0.1740696	3	10	0.03	1800	-5.222748	40.9239	-91.39365
646615	-9	0	9	-0.2398461	-0.2748201	-89.6529	0	11.06	4003	0	0	5	5	0.2802309	0.1804436	3	10	0.03	1800	-5.408997	40.9239	-91.39365
646718	-11	2	0	-0.2373994	-0.2792243	-89.65583	0	11.06	4003	0	0	5	5	0.2802309	0.1833347	3	10	0.03	1800	-5.458923	40.9239	-91.39365
646815	-22	-5	5	-0.2343079	-0.2830222	-89.6609	0	11.06	4003	0	0	5	5	0.2802309	0.1860382	3	10	0.03	1800	-5.00589	40.9239	-91.39365
647009	-8	-4	6	-0.2293247	-0.2789074	-89.67078	0	11.06	4003	0	0	5	5	0.2802309	0.2039882	8	10	0.03	1800	-5.254761	40.9239	-91.39365
647059	-7	0	4	-0.223316	-0.2765028	-89.67579	0	11.06	4003	0	0	5	5	0.2802309	0.2092791	8	10	0.03	1800	-5.030609	40.9239	-91.39365
647115	-10	0	1	-0.2259313	-0.2780848	-89.67677	0	11.06	4002	0	0	5	5	0.2802309	0.2196331	8	10	0.03	1800	-5.030609	40.9239	-91.39365
647236	-8	-3	6	-0.2219238	-0.2783291	-89.68293	0	11.06	4003	0	0	5	5	0.2802309	0.22599	8	10	0.03	1800	-5.249359	40.9239	-91.39365
647362	-7	2	8	-0.2204682	-0.2768713	-89.69251	0	11	4004	0	0	5	5	0.2802309	0.2231298	8	10	0.03	1800	-5.040009	40.9239	-91.39365
647480	-10	0	4	-0.2202549	-0.2797189	-89.69831	0	11	4003	0	0	5	5	0.2802309	0.2183684	8	10	0.03	1800	-5.465302	40.9239	-91.39365
647541	-7	0	0	-0.2181557	-0.2800582	-89.70411	0	11	4002	0	0	5	5	0.2802309	0.2155975	3	10	0.03	1800	-5.040497	40.9239	-91.39365
647668	-14	0	4	-0.2189879	-0.2799936	-89.70832	0	11	4003	0	0	5	5	0.2802309	0.1996036	3	10	0.03	1800	-5.260071	40.9239	-91.39365
647777	-4	0	0	-0.2183699	-0.2786526	-89.71357	0	11	4003	0	0	5	5	0.2802309	0.19251	3	10	0.03	1800	-5.250214	40.9239	-91.39365
647840	-10	-4	2	-0.2160262	-0.2792443	-89.71845	0	11	4002	0	0	5	5	0.2565982	0.1916979	8	10	0.03	1800	-5.263977	40.9239	-91.39365
647908	-13	4	8	-0.2183599	-0.2825959	-89.72059	0	11	4003	0	0	5	5	0.2161863	0.1919435	8	10	0.03	1800	-5.471344	40.9239	-91.39365
648039	-12	-1	1	-0.2133159	-0.2791389	-89.72932	0	11	4004	0	0	5	5	0.1694978	0.1824993	8	10	0.03	1800	-5.279938	40.9239	-91.39365
648103	-8	-2	0	-0.2155952	-0.2783139	-89.72974	0	11	4003	0	0	5	5	0.1354619	0.1628768	8	10	0.03	1800	-5.279938	40.9239	-91.39365
648262	-7	1	3	-0.2128084	-0.281291	-89.74189	0	10.94	4002	0	0	5	5	0.097968	0.1440877	8	10	0.03	1800	-5.280518	40.9239	-91.39365
648408	-5	6	8	-0.2043101	-0.2774882	-89.74873	0	10.94	4002	0	0	5	5	0.07937539	0.1447391	8	10	0.03	1800	-5.292542	40.9239	-91.39365
648567	-5	3	2	-0.2071146	-0.2837096	-89.75861	0	10.94	4003	0	-8	5	5	0.0648495	0.1519888	8	10	0.03	1800	-5.083374	40.9239	-91.39365
648619	-9	3	0	-0.2070937	-0.2917374	-89.7624	0	10.94	4004	0	-8	5	5	0.06275495	0.152735	8	10	0.03	1800	-5.29425	40.9239	-91.39365
648778	-9	0	3	-0.199598	-0.2934334	-89.7721	0	10.94	4003	0	-8	5	5	0.05627211	0.1606991	8	10	0.03	1800	-5.277954	40.9239	-91.39365
648861	-3	2	4	-0.1940431	-0.2908259	-89.77552	0	10.94	4003	0	-8	5	5	0.05201872	0.170073	8	10	0.03	1800	-5.306366	40.9239	-91.39365
648945	-5	-1	3	-0.1965128	-0.2854589	-89.78095	0	10.94	4003	0	-8	5	5	0.05047692	0.1810707	8	10	0.03	1800	-5.29303	40.9239	-91.39365
649018	-7	-5	5	-0.1906155	-0.281906	-89.78498	0	10.94	4003	0	-8	5	5	0.04981963	0.1864662	8	10	0.03	1800	-5.287689	40.9239	-91.39365
649123	-12	0	4	-0.1902472	-0.2855579	-89.79053	0	10.94	4004	0	-8	5	5	0.04778524	0.1935584	8	10	0.03	1800	-5.103546	40.9239	-91.39365
649227	-9	0	0	-0.1890104	-0.2856557	-89.80091	0	10.94	4004	0	-8	5	5	0.04645048	0.1915355	8	10	0.03	1800	-5.339508	40.9239	-91.39365
649312	-9	-5	0	-0.1849011	-0.2893503	-89.80396	0	10.94	4003	0	-8	5	5	0.04596665	0.1887981	8	10	0.03	1800	-5.30658	40.9239	-91.39365
649451	-8	1	4	-0.1794208	-0.2970585	-89.81104	0	10.94	4003	0	-8	5	5	0.0452573	0.1840646	8	10	0.03	1800	-5.31134	40.9239	-91.39365
649548	-15	3	4	-0.1832357	-0.3001489	-89.81751	0	10.94	4004	0	-8	5	5	0.0447919	0.186935	8	10	0.03	1800	-5.526642	40.9239	-91.39365
649644	0	0	2	-0.1800369	-0.2957411	-89.8213	0	10.94	4003	0	-8	5	5	0.0446232	0.1857565	8	10	0.03	1800	-5.314148	40.9239	-91.39365
649727	1	-5	6	-0.176984	-0.2969702	-89.82703	0	10.94	4003	0	-8	5	5	0.04448655	0.1845852	8	10	0.03	1800	-5.315491	40.9239	-91.39365
649850	-1	6	9	-0.1727531	-0.2946218	-89.83241	0	10.94	4004	0	-8	5	5	0.04428621	0.1827686	8	10	0.03	1800	-5.131165	40.9239	-91.39365
649953	-9	1	1	-0.1654372	-0.2981776	-89.83595	0	10.94	4004	0	-8	5	5	0.04418263	0.1856918	8	10	0.03	1800	-5.545166	40.9239	-91.39365
649975	-5	0	0	-0.1562926	-0.2993129	-89.83875	0	10.94	4003	0	-8	5	5	0.04412969	0.1876705	8	10	0.03	1800	-5.343445	40.9239	-91.39365
650091	-9	4	2	-0.1550662	-0.2960842	-89.84449	0	10.94	4003	0	-8	5	5	0.04405208	0.1827733	8	10	0.03	1800	-5.374512	40.9239	-91.39365
650190	-7	0	1	-0.1557926	-0.2937569	-89.84925	0	10.94	4003	0	-8	5	5	0.04401195	0.1787638	8	10	0.03	1800	-5.354401	40.9239	-91.39365
650273	-4	7	3	-0.1567283	-0.293862	-89.85328	0	10.94	4002	0	-8	5	5	0.04398269	0.181903	8	10	0.03	1800	-5.37326	40.9239	-91.39365
650360	-3	-5	4	-0.1613742	-0.2939284	-89.85554	0	10.94	4003	0	-8	5	5	0.04396774	0.1838984	8	10	0.03	1800	-5.366241	40.9239	-91.39365
650467	-9	-1	2	-0.1599262	-0.2941185	-89.86066	0	10.94	4002	0	-8	5	5	0.04394582	0.1903234	8	10	0.03	1800	-5.365143	40.9239	-91.39365
650549	-7	1	6	-0.1572416	-0.2931257	-89.865	0	10.94	4002	0	0	5	5	0.04393449	0.1981159	3	10	0.03	1800	-5.365784	40.9239	-91.39365
650644	-5	0	0	-0.1595022	-0.2922653	-89.86689	0	10.94	4002	0	0	5	5	0.04392622	0.2069398	3	10	0.03	1800	-5.363556	40.9239	-91.39365
650713	-7	3	3	-0.1607222	-0.291905	-89.87	0	10.94	4002	0	0	5	5	0.0439202	0.2125019	3	10	0.03	1800	-5.342285	40.9239	-91.39365
650805	-10	-1	0	-0.1507588	-0.2980963	-89.87543	0	10.94	4002	0	0	5	5	0.04391712	0.2143183	3	10	0.03	1800	-5.355255	40.9239	-91.39365
650998	-7	-2	-1	-0.149482	-0.2967658	-89.88337	0	11	4004	0	0	5	5	0.04391098	0.2217866	3	10	0.03	1800	-5.599609	40.9239	-91.39365
651037	-5	-4	4	-0.1519675	-0.2934099	-89.88361	0	11	4004	0	0	5	5	0.04390965	0.2253078	3	10	0.03	1800	-5.599609	40.9239	-91.39365
651151	-1	-2	3	-0.1503529	-0.297443	-89.8888	0	11	4002	0	0	5	5	0.04390812	0.2327374	3	10	0.03	1800	-5.37262	40.9239	-91.39365
651242	-3	0	5	-0.1570374	-0.3026429	-89.89399	0	11	4004	0	0	5	5	0.043907	0.2328435	3	10	0.03	1800	-5.355743	40.9239	-91.39365
651295	-3	-2	2	-0.1582286	-0.300772	-89.89545	0	11	4002	0	0	5	5	0.04390643	0.2316583	3	10	0.03	1800	-5.367737	40.9239	-91.39365
651433	-7	-11	3	-0.1562225	-0.3017173	-89.90296	0	11	4002	0	0	5	5	0.04390577	0.2326526	3	10	0.03	1800	-5.138947	40.9239	-91.39365
651551	-8	-7	1	-0.1567789	-0.3024786	-89.90681	0	11	4003	0	0	5	5	0.04390516	0.2409217	3	10	0.03	1800	-5.371948	40.9239	-91.39365
651621	-6	-3	4	-0.1585552	-0.297306	-89.91187	0	11	4003	0	0	5	5	0.04390494	0.2477151	3	10	0.03	1800	-5.370422	40.9239	-91.39365
651777	-7	0	2	-0.1591554	-0.2957161	-89.91553	0	11	4002	0	0	5	5	0.04390455	0.256669	3	10	0.03	1800	-4.943451	40.9239	-91.39365
651854	-8	5	5	-0.1624802	-0.2990882	-89.91883	0	11	4003	0	0	5	5	0.04390445	0.2556317	3	10	0.03	1800	-5.131439	40.9239	-91.39365
651929	-5	0	0	-0.1596294	-0.3003521	-89.91889	0	11	4004	0	0	5	5	0.04390433	0.24693	3	10	0.03	1800	-5.131439	40.9239	-91.39365
652005	-4	-3	3	-0.1570509	-0.3019187	-89.92329	0	11	4003	0	0	5	5	0.04390426	0.2419273	3	10	0.03	1800	-5.352386	40.9239	-91.39365
652139	-2	0	2	-0.1489867	-0.310183	-89.93159	0	11	4004	0	0	5	5	0.04390419	0.2372993	3	10	0.03	1800	-5.355408	40.9239	-91.39365
652180	-9	0	5	-0.1464807	-0.3089889	-89.93494	0	11	4003	0	0	5	5	0.04390411	0.2358985	3	10	0.03	1800	-5.386993	40.9239	-91.39365
652288	-5	3	1	-0.1484312	-0.3053185	-89.94105	0	11	4004	0	0	5	5	0.04390407	0.2411515	3	10	0.03	1800	-5.367859	40.9239	-91.39365
652322	-2	6	2	-0.1459833	-0.3018125	-89.94483	0	11	4002	0	0	5	5	0.04390404	0.2473645	3	10	0.03	1800	-5.576569	40.9239	-91.39365
652440	3	-1	1	-0.1405987	-0.3001299	-89.94917	0	11	4004	0	0	5	5	0.04390403	0.2512224	3	10	0.03	1800	-5.160278	40.9239	-91.39365
652496	-9	-1	4	-0.1470588	-0.2999707	-89.95313	0	10.94	4003	0	0	5	5	0.04390403	0.2515436	3	10	0.03	1800	-5.388733	40.9239	-91.39365
652577	-8	0	0	-0.1474076	-0.2970002	-89.95533	0	10.94	4003	0	0	5	5	0.04390401	0.2405651	3	10	0.03	1800	-5.151703	40.9239	-91.39365
652680	-8	3	0	-0.1483462	-0.2985884	-89.95887	0	10.94	4004	0	0	5	5	0.04390401	0.2266093	3	10	0.03	1800	-5.380035	40.9239	-91.39365
652762	-7	4	2	-0.1426127	-0.3022605	-89.96424	0	10.94	4003	0	0	5	5	0.04390401	0.2196888	3	10	0.03	1800	-5.153717	40.9239	-91.39365
652886	-10	-3	3	-0.1386049	-0.3056301	-89.96986	0	10.94	4002	0	0	5	5	0.04390401	0.2151483	3	10	0.03	1800	-5.399933	40.9239	-91.39365
652966	-5	2	6	-0.132114	-0.299876	-89.9734	0	10.94	4003	0	0	5	5	0.04390401	0.2128007	3	10	0.03	1800	-5.388397	40.9239	-91.39365
653067	-3	0	0	-0.1255833	-0.2974461	-89.97883	0	10.94	4009	0	0	5	5	0.04390401	0.210629	3	10	0.03	1800	-5.181885	40.9239	-91.39365
653170	0	0	6	-0.1264767	-0.298739	-89.98371	0	10.94	4003	0	0	5	5	0.04390401	0.208496	3	10	0.03	1800	-5.417725	40.9239	-91.39365
653325	0	-3	4	-0.1232254	-0.2950551	-89.99036	0	10.94	4002	0	0	5	5	0.04390401	0.2203855	3	10	0.03	1800	-5.185608	40.9239	-91.39365
653487	-4	0	1	-0.1221521	-0.3032793	-89.99458	0	11	4003	0	0	5	5	0.04390401	0.2318785	3	10	0.03	1800	-5.415894	40.9239	-91.39365
653598	-7	5	2	-0.1236762	-0.3048033	-89.99763	0	11	4004	0	0	5	5	0.04390401	0.2389873	3	10	0.03	1800	-5.596436	40.9239	-91.39365
653674	0	-6	3	-0.1210952	-0.306441	-90.00031	0	11	4002	0	0	5	5	0.04390401	0.2434177	3	10	0.03	1800	-5.380249	40.9239	-91.39365
653752	-3	-2	0	-0.1153556	-0.3104038	-90.0055	0	11	4003	0	0	5	5	0.04390401	0.2426038	3	10	0.03	1800	-5.623962	40.9239	-91.39365
653874	-3	4	7	-0.1197583	-0.3130403	-90.00996	0	11	4003	0	0	5	5	0.04390401	0.2415794	3	10	0.03	1800	-5.408112	40.9239	-91.39365
653975	3	1	2	-0.1186872	-0.3097859	-90.01142	0	11	4004	0	0	5	5	0.04390401	0.2382844	3	10	0.03	1800	-5.407959	40.9239	-91.39365
654146	3	5	0	-0.1122479	-0.3109776	-90.01765	0	11	4003	0	0	5	5	0.04390401	0.2329004	3	10	0.03	1800	-5.627777	40.9239	-91.39365
654177	-1	3	-1	-0.1101098	-0.3116299	-90.01838	0	11	4002	0	0	5	5	0.04390401	0.2299122	3	10	0.03	1800	-5.440765	40.9239	-91.39365
654263	-4	1	0	-0.1107033	-0.3075427	-90.01954	0	11	4003	0	0	5	5	0.04390401	0.220846	3	10	0.03	1800	-5.419464	40.9239	-91.39365
654396	-2	6	0	-0.1113333	-0.3061581	-90.02253	0	11	4004	0	0	5	5	0.04390401	0.2079068	3	10	0.03	1800	-5.439758	40.9239	-91.39365
654461	0	2	-3	-0.1042854	-0.3082659	-90.02589	0	11	4004	0	0	5	5	0.04390401	0.2073636	3	10	0.03	1800	-5.401123	40.9239	-91.39365
654564	2	3	1	-0.105773	-0.3125038	-90.02796	0	11	4003	0	0	5	5	0.04390401	0.2066384	3	10	0.03	1800	-5.667572	40.9239	-91.39365
654695	-2	-3	0	-0.1038016	-0.3067523	-90.03199	0	11	4003	0	0	5	5	0.04390401	0.2078619	3	10	0.03	1800	-5.448578	40.9239	-91.39365
654786	-1	1	3	-0.1038386	-0.3039699	-90.03297	0	11	4004	0	0	5	5	0.04390401	0.2162853	3	10	0.03	1800	-5.430969	40.9239	-91.39365
654981	-4	11	-1	-0.09214032	-0.3119859	-90.03822	0	11	4003	0	0	5	5	0.04390401	0.2294805	3	10	0.03	1800	-5.234283	40.9239	-91.39365
655125	-4	6	0	-0.09552895	-0.3178264	-90.04328	0	11	4003	0	0	5	5	0.04390401	0.2464016	3	10	0.03	1800	-5.446594	40.9239	-91.39365
655202	5	3	-2	-0.09344972	-0.3167408	-90.04578	0	11	4004	0	0	5	5	0.04390401	0.25768	3	10	0.03	1800	-5.66037	40.9239	-91.39365
655274	0	4	-1	-0.09384102	-0.3125882	-90.04896	0	11	4004	0	0	5	5	0.04390401	0.2649255	3	10	0.03	1800	-5.66037	40.9239	-91.39365
655419	0	2	-3	-0.08764826	-0.3104267	-90.0528	0	11	4004	0	0	5	5	0.04390401	0.2716387	3	10	0.03	1800	-5.446594	40.9239	-91.39365
655521	5	4	4	-0.08562587	-0.3130907	-90.05878	0	11	4003	0	0	5	5	0.04390401	0.2682301	3	10	0.03	1800	-5.479187	40.9239	-91.39365
655601	4	2	0	-0.09304189	-0.3157979	-90.06269	0	11	4004	0	0	5	5	0.04390401	0.2638283	3	10	0.03	1800	-5.451385	40.9239	-91.39365
655664	-5	0	-4	-0.09437625	-0.3116935	-90.06416	0	11	4002	0	0	5	5	0.04390401	0.2615786	3	10	0.03	1800	-5.426727	40.9239	-91.39365
655857	1	-5	2	-0.08597727	-0.3128318	-90.0738	0	11	4003	0	0	5	5	0.04390401	0.2461665	3	10	0.03	1800	-5.477753	40.9239	-91.39365
655961	1	-1	1	-0.08240248	-0.3165914	-90.07789	0	11	4002	0	0	5	5	0.04390401	0.2352545	3	10	0.03	1800	-5.464752	40.9239	-91.39365
656068	0	2	2	-0.08237999	-0.3222985	-90.08039	0	11	4003	0	0	5	5	0.04390401	0.2309638	3	10	0.03	1800	-5.470123	40.9239	-91.39365
656210	2	0	1	-0.08182704	-0.3206519	-90.08949	0	10.94	4002	0	0	5	5	0.04390401	0.229076	3	10	0.03	1800	-5.256073	40.9239	-91.39365
656270	-1	1	-1	-0.0800496	-0.321682	-90.0915	0	10.94	4004	0	0	5	5	0.04390401	0.225297	3	10	0.03	1800	-5.485657	40.9239	-91.39365
656349	8	0	7	-0.07520077	-0.3167755	-90.09388	0	10.94	4004	0	0	5	5	0.04390401	0.2225894	3	10	0.03	1800	-5.46936	40.9239	-91.39365
656452	0	-1	1	-0.06616171	-0.3132222	-90.09681	0	10.94	4004	0	0	5	5	0.04390401	0.2209176	3	10	0.03	1800	-5.486694	40.9239	-91.39365
656675	2	-1	0	-0.06523456	-0.3162811	-90.10438	0	10.94	4004	0	0	5	5	0.04390401	0.2174851	3	10	0.03	1800	-5.699219	40.9239	-91.39365
656863	2	-1	2	-0.07607125	-0.3099712	-90.1092	0	10.94	4003	0	0	5	5	0.04390401	0.2168344	3	10	0.03	1800	-5.474823	40.9239	-91.39365
656977	-3	5	0	-0.07396629	-0.3051564	-90.11256	0	10.94	4004	0	0	5	5	0.04390401	0.2164616	3	10	0.03	1800	-5.475433	40.9239	-91.39365
657067	2	-1	5	-0.06619077	-0.306736	-90.11451	0	11	4003	0	0	5	5	0.04390401	0.2195653	3	10	0.03	1800	-5.28302	40.9239	-91.39365
