time(ms)	gyro_x(deg/s)	gyro_y(deg/s)	gyro_z(deg/s)	orientation_roll(deg)	orientation_pitch(deg)	orientation_yaw(deg)	throttle	battery(V)	loop_time(uS)	pid_output_roll	pid_output_pitch	pid_output_yaw	pid_output_throttle	ultrasonic_alt	baro_alt	flight_mode	p_gain_altitude	i_gain_altitude	d_gain_altitude	compass_heading	latitude	longitude
688213	12696	-7358	-7290	24.00854	-59.02029	14.19298	0	10.83	4003	0	0	5	5	0.3340819	-0.1440774	1	10	0.03	1800	108.0274	40.92385	-91.39368
688339	7396	-6861	-8495	22.97077	-52.39217	28.54929	0	10.83	4003	0	0	5	5	0.3340819	-0.1103448	1	10	0.03	1800	88.71568	40.92385	-91.39368
688459	1797	-1295	-7376	15.86357	-50.11986	41.16002	0	10.83	4003	0	0	5	5	0.3340819	-0.08761056	1	10	0.03	1800	76.49628	40.92385	-91.39368
688650	1742	339	-5658	-2.912306	-54.8023	60.32399	0	10.83	4004	0	0	5	5	0.3340819	-0.01596494	1	10	0.03	1800	45.54969	40.92385	-91.39368
688815	2160	-803	-2223	-4.31501	-49.04858	70.40826	0	10.83	4004	0	0	5	5	0.3340819	0.04743486	1	10	0.03	1800	16.40643	40.92385	-91.39368
688851	1660	-2906	-906	-3.940204	-46.68419	71.26451	0	10.83	4002	0	0	5	5	0.3340819	0.07824383	1	10	0.03	1800	16.40643	40.92385	-91.39368
688926	1714	-2655	1302	-2.335173	-40.84686	70.73182	0	10.83	4004	0	0	5	5	0.3340819	0.103389	1	10	0.03	1800	14.02767	40.92385	-91.39368
689085	124	-4121	2966	4.548826	-28.42247	64.88718	0	10.83	4003	0	0	5	5	0.3340819	0.1402612	1	10	0.03	1800	16.68147	40.92385	-91.39368
689185	-2665	-1994	3418	5.256289	-28.44633	58.13358	0	10.83	4003	0	0	5	5	0.3340819	0.155077	1	10	0.03	1800	24.60105	40.92385	-91.39369
689282	215	-2038	2512	4.291413	-25.24978	54.00631	0	10.83	4004	0	0	5	5	0.3340819	0.1918315	1	10	0.03	1800	28.01925	40.92385	-91.39369
689361	2567	-3568	4103	7.11802	-21.77145	50.81063	0	10.83	4004	0	0	5	5	0.3340819	0.2139034	1	10	0.03	1800	29.50771	40.92385	-91.3937
689465	-393	-1215	1880	12.84765	-19.78516	39.09176	0	10.83	4004	0	0	5	5	0.3340819	0.2484048	1	10	0.03	1800	49.5085	40.92385	-91.3937
689559	-1940	-17	1192	9.298704	-19.90485	37.75254	0	10.83	4003	0	0	5	5	0.3340819	0.2597652	1	10	0.03	1800	58.04337	40.92385	-91.3937
689703	1180	2156	-1530	9.313039	-27.22681	38.1111	0	10.83	4004	0	0	5	5	0.3340819	0.2783422	1	10	0.03	1800	68.64751	40.92385	-91.3937
689821	-336	-1190	-4248	6.484073	-26.54454	41.74956	0	10.83	4004	0	0	5	5	0.3340819	0.286539	1	10	0.03	1800	59.55474	40.92385	-91.3937
689879	-147	-2641	-3816	4.112626	-22.38718	46.4098	0	10.83	4003	0	0	5	5	0.3340819	0.2975971	1	10	0.03	1800	50.84435	40.92385	-91.3937
689971	-167	-1216	-473	3.24782	-16.79346	49.72402	0	10.83	4003	0	0	5	5	0.3340819	0.3202245	1	10	0.03	1800	43.63351	40.92385	-91.3937
690044	1352	-1937	2723	3.943683	-13.43926	48.64652	0	10.83	4004	0	0	5	5	0.3340819	0.3399616	1	10	0.03	1800	40.68468	40.92385	-91.3937
690239	-1075	-128	1615	4.899302	-17.96395	39.86035	0	10.83	4003	0	0	5	5	0.3340819	0.3765852	1	10	0.03	1800	46.15681	40.92385	-91.3937
690294	17	1569	1754	5.185638	-18.45749	38.89156	0	10.83	4003	0	0	5	5	0.3340819	0.3791346	1	10	0.03	1800	46.15681	40.92385	-91.3937
690365	1331	-2230	-1028	6.692935	-19.25471	38.67543	0	10.83	4003	0	0	5	5	0.3340819	0.3817202	1	10	0.03	1800	47.63277	40.92385	-91.3937
690538	-289	-1908	-601	9.465676	-15.06283	33.65767	0	10.83	4003	0	0	5	5	0.3340819	0.3809289	1	10	0.03	1800	56.87285	40.92385	-91.39371
690603	-143	-1316	-607	9.146736	-15.07101	34.04725	0	10.83	4004	0	0	5	5	0.3340819	0.3807149	1	10	0.03	1800	60.39564	40.92385	-91.39371
690707	-406	6111	354	8.494409	-19.86154	32.93046	0	10.83	4004	0	0	5	5	0.3340819	0.3731197	1	10	0.03	1800	65.30154	40.92386	-91.39371
690749	-1057	4836	-727	7.753726	-23.08316	33.08745	0	10.83	4003	0	0	5	5	0.3340819	0.3729705	1	10	0.03	1800	63.83816	40.92386	-91.39371
690878	1143	-1953	-2148	3.659902	-20.78692	35.18731	0	10.83	4003	0	0	5	5	0.3340819	0.3676958	1	10	0.03	1800	61.23156	40.92386	-91.39372
690944	2091	-170	-2391	5.553061	-16.88162	39.77309	0	10.89	4004	0	0	5	5	0.3340819	0.3658143	1	10	0.03	1800	56.77076	40.92386	-91.39372
691071	-381	-1299	982	7.011128	-14.35515	40.65126	0	10.89	4004	0	0	5	5	0.3340819	0.3584201	1	10	0.03	1800	48.33685	40.92387	-91.39372
691162	-2028	948	3701	6.501725	-13.0228	38.7221	0	10.89	4004	0	0	5	5	0.3340819	0.3578891	1	10	0.03	1800	47.96785	40.92387	-91.39372
691241	-1348	-594	2377	4.167623	-16.79625	32.94679	0	10.89	4004	0	0	5	5	0.3340819	0.3586985	1	10	0.03	1800	51.86378	40.92387	-91.39372
691444	82	-594	3207	7.201301	-14.94268	31.06413	0	10.89	4003	0	0	5	5	0.3340819	0.3683242	1	10	0.03	1800	55.18689	40.92387	-91.39372
691568	405	-2185	-616	7.80494	-14.15656	27.95993	0	10.89	4003	0	0	5	5	0.3340819	0.3796342	1	10	0.03	1800	71.10681	40.92387	-91.39372
691674	-342	-266	-1551	7.031596	-14.21616	30.50732	0	10.89	4002	0	0	5	5	0.3340819	0.3867714	1	10	0.03	1800	77.00034	40.92387	-91.39372
691795	-435	2055	-2844	3.435327	-24.20096	35.16682	0	10.89	4003	0	0	5	5	0.3340819	0.4005296	1	10	0.03	1800	82.61965	40.92387	-91.39373
691894	-177	-761	-1223	1.99351	-23.50638	36.7047	0	10.83	4003	0	0	5	5	0.3340819	0.4070092	1	10	0.03	1800	75.7225	40.92387	-91.39373
692021	1577	-2305	-3230	0.4390141	-18.12946	42.03452	0	10.83	4004	0	0	5	5	0.3340819	0.4192858	1	10	0.03	1800	71.79704	40.92387	-91.39373
692077	1596	-2023	-2655	1.039573	-12.71543	47.51836	0	10.83	4002	0	0	5	5	0.3340819	0.4328224	1	10	0.03	1800	68.0247	40.92387	-91.39373
692165	1025	-1291	-2193	2.409943	-9.578708	51.23229	0	10.83	4004	0	0	5	5	0.3340819	0.4407121	1	10	0.03	1800	63.22079	40.92387	-91.39373
692234	754	-1749	-1946	2.786148	-8.615604	52.38348	0	10.83	4002	0	0	5	5	0.3340819	0.4586689	1	10	0.03	1800	63.22079	40.92387	-91.39373
692360	1150	944	-2438	4.386798	-5.721046	55.92451	0	10.83	4002	0	0	5	5	0.3340819	0.4910441	1	10	0.03	1800	60.32829	40.92387	-91.39373
692441	1237	-1386	-2326	6.161842	-8.613407	61.31758	0	10.83	4003	0	0	5	5	0.3340819	0.5064675	1	10	0.03	1800	54.0868	40.92387	-91.39373
692577	-21	-1115	-2795	7.084637	-8.970191	67.90427	0	10.83	4003	0	0	5	5	0.3340819	0.5424426	1	10	0.03	1800	48.1447	40.92387	-91.39373
692669	-1624	1075	-3943	5.126367	-9.901956	72.86217	0	10.83	4003	0	0	5	5	0.3340819	0.5677907	1	10	0.03	1800	46.00637	40.92387	-91.39373
692750	-768	-703	-7044	2.858982	-10.80623	78.98258	0	10.83	4002	0	0	5	5	0.3340819	0.584804	1	10	0.03	1800	41.0191	40.92387	-91.39373
692866	59	-356	-8528	1.946298	-10.68546	96.19609	0	10.83	4003	0	0	5	5	0.3340819	0.6074691	1	10	0.03	1800	24.93054	40.92387	-91.39374
693025	2142	1927	-8487	-1.375585	-14.47095	116.3383	0	10.83	4004	0	0	5	5	0.3340819	0.650561	1	10	0.03	1800	7.028152	40.92387	-91.39374
693060	2525	2547	-5105	-0.8358676	-15.23017	119.9946	0	10.83	4002	0	0	5	5	0.3340819	0.6537312	1	10	0.03	1800	7.028152	40.92387	-91.39374
693164	-931	3740	-2529	-0.7667609	-18.67225	123.3981	0	10.83	4003	0	0	5	5	0.3340819	0.6614631	1	10	0.03	1800	0.9081736	40.92387	-91.39374
693275	1635	1254	-1040	-5.147525	-19.85398	132.269	0	10.83	4002	0	0	5	5	0.3340819	0.6664524	1	10	0.03	1800	-8.510437	40.92387	-91.39374
693433	994	783	-1437	-3.474754	-19.87666	134.2751	0	10.83	4003	0	0	5	5	0.3340819	0.6656646	1	10	0.03	1800	-8.970642	40.92387	-91.39374
693509	836	-724	1419	-1.33297	-18.32338	134.5386	0	10.83	4003	0	0	5	5	0.3340819	0.6639971	1	10	0.03	1800	-9.780457	40.92387	-91.39374
693593	363	-1683	-826	0.1965241	-16.31853	133.4186	0	10.83	4002	0	0	5	5	0.3340819	0.6624545	1	10	0.03	1800	-9.258331	40.92388	-91.39374
693768	1825	-729	-2326	2.570044	-14.27022	136.7408	0	10.83	4003	0	0	5	5	0.3340819	0.6579193	1	10	0.03	1800	-12.29886	40.92388	-91.39374
693847	-80	-975	-1984	4.406527	-13.37153	139.6772	0	10.83	4003	0	0	5	5	0.3340819	0.6550735	1	10	0.03	1800	-14.54315	40.92388	-91.39374
693893	-537	-918	-4551	3.453237	-12.74489	143.4476	0	10.83	4002	0	0	5	5	0.3340819	0.6555173	1	10	0.03	1800	-16.5246	40.92388	-91.39374
693979	2740	-243	-4200	3.88938	-12.90295	151.4145	0	10.83	4003	0	0	5	5	0.3340819	0.6592438	1	10	0.03	1800	-20.69077	40.92388	-91.39374
694121	-622	-1184	-2295	6.297835	-11.76862	157.3587	0	10.83	4003	0	0	5	5	0.3340819	0.6670364	1	10	0.03	1800	-27.40271	40.92388	-91.39374
694165	-1458	-1839	-2524	5.275852	-10.92738	158.7104	0	10.83	4003	0	0	5	5	0.3340819	0.668559	1	10	0.03	1800	-28.92883	40.92388	-91.39374
694304	1254	-756	-2046	4.23011	-7.687672	163.7544	0	10.83	4002	0	0	5	5	0.3340819	0.6780658	1	10	0.03	1800	-33.13962	40.92388	-91.39374
694402	1722	-2951	-1716	6.878419	-2.193365	168.4658	0	10.83	4003	0	0	5	5	0.3340819	0.681249	1	10	0.03	1800	-38.12006	40.92388	-91.39374
694471	1489	-2726	520	9.155905	1.236714	168.9575	0	10.83	4002	0	0	5	5	0.3340819	0.6921355	1	10	0.03	1800	-40.20773	40.92388	-91.39374
694573	1007	-685	1323	10.61283	3.605274	167.7465	0	10.83	4003	0	0	5	5	0.3340819	0.7014496	1	10	0.03	1800	-40.1788	40.92388	-91.39374
694711	1248	-475	-68	12.58912	4.630952	167.2784	0	10.83	4004	0	0	5	5	0.3340819	0.710388	1	10	0.03	1800	-39.98474	40.92388	-91.39374
694777	1595	563	558	15.73	4.253288	166.5247	0	10.83	4002	0	0	5	5	0.3340819	0.7179192	1	10	0.03	1800	-40.50403	40.92388	-91.39374
694880	-1346	651	-264	14.98468	3.491293	166.1932	0	10.83	4003	0	0	5	5	0.3340819	0.7249122	1	10	0.03	1800	-38.03796	40.92388	-91.39374
694978	25	-169	-1859	15.28905	3.256735	168.3006	0	10.83	4002	0	0	5	5	0.3340819	0.7314842	1	10	0.03	1800	-39.25256	40.92388	-91.39374
695169	-294	1771	839	15.5648	0.7352591	169.0311	0	10.83	4003	0	0	5	5	0.3340819	0.7477682	1	10	0.03	1800	-40.19135	40.92388	-91.39374
695228	1724	1979	-1338	16.63204	-2.812296	169.6138	0	10.83	4003	0	0	5	5	0.3340819	0.7684963	1	10	0.03	1800	-38.01633	40.92388	-91.39374
695298	1976	1558	-3427	19.15236	-5.416415	172.5653	0	10.83	4003	0	0	5	5	0.3340819	0.778759	1	10	0.03	1800	-39.56595	40.92388	-91.39374
695390	-72	2914	-4525	19.8218	-9.766899	177.0816	0	10.83	4002	0	0	5	5	0.3340819	0.7899049	1	10	0.03	1800	-41.02994	40.92388	-91.39374
695605	642	-2336	2067	21.96999	-11.45524	177.201	0	10.83	4003	0	0	5	5	0.3340819	0.8084094	1	10	0.03	1800	-43.93256	40.92389	-91.39374
695697	-4828	-5888	-553	18.52438	-6.64518	176.683	0	10.83	4002	0	0	5	5	0.3340819	0.8091389	1	10	0.03	1800	-42.90521	40.92389	-91.39374
695803	-4348	-5586	945	10.34102	5.999403	175.6686	0	10.83	4002	0	0	5	5	0.3340819	0.7993369	1	10	0.03	1800	-49.36801	40.92389	-91.39374
695918	-3226	-2822	-1213	3.027817	13.5693	176.1789	0	10.83	4004	0	0	5	5	0.3340819	0.786722	1	10	0.03	1800	-53.43774	40.92389	-91.39374
695999	153	-1431	-902	1.947664	16.11388	177.52	0	10.83	4004	0	0	5	5	0.3340819	0.7802798	1	10	0.03	1800	-58.771	40.92389	-91.39374
696146	-1310	-515	865	0.2349744	17.35616	176.6039	0	10.83	4004	0	0	5	5	0.3340819	0.7725564	1	10	0.03	1800	-60.59354	40.92389	-91.39374
696252	594	615	336	-2.057251	17.77235	175.2478	0	10.83	4004	0	0	5	5	0.3340819	0.7641034	1	10	0.03	1800	-60.06119	40.92389	-91.39374
696361	-80	251	1212	-2.627527	17.17948	173.847	0	10.83	4002	0	0	5	5	0.3340819	0.7573492	1	10	0.03	1800	-57.86084	40.92389	-91.39374
696480	-156	-58	17	-3.074643	16.97218	172.506	0	10.83	4002	0	0	5	5	0.3340819	0.7541737	1	10	0.03	1800	-54.24881	40.92389	-91.39374
696554	-1136	-872	229	-5.254316	18.53205	173.257	0	10.83	4004	0	0	5	5	0.3340819	0.7557445	1	10	0.03	1800	-55.18054	40.92389	-91.39374
696633	-645	-842	347	-7.210376	20.09012	172.7781	0	10.83	4003	0	0	5	5	0.3340819	0.7564052	1	10	0.03	1800	-55.45932	40.92389	-91.39374
696682	-488	-958	295	-7.581399	20.51978	172.6186	0	10.83	4002	0	0	5	5	0.3340819	0.7533064	1	10	0.03	1800	-55.59003	40.92389	-91.39374
696854	-470	-1514	266	-9.022861	22.58394	172.1463	0	10.83	4010	0	0	5	5	0.3340819	0.7456858	1	10	0.03	1800	-56.14447	40.92389	-91.39374
696966	1730	-813	1149	-8.859019	25.34782	169.911	0	10.83	4003	0	0	5	5	0.3340819	0.7415623	1	10	0.03	1800	-53.68875	40.92389	-91.39374
697004	1696	-503	1603	-7.654976	26.29419	168.486	0	10.83	4004	0	0	5	5	0.3340819	0.7441739	1	10	0.03	1800	-51.32724	40.92389	-91.39374
697147	2602	-2094	2055	-4.878345	28.40111	163.7887	0	10.83	4004	0	0	5	5	0.3340819	0.7539307	1	10	0.03	1800	-48.09409	40.92389	-91.39374
697189	2572	-2071	1350	-3.917789	29.40502	162.8441	0	10.83	4003	0	0	5	5	0.3340819	0.7558603	1	10	0.03	1800	-44.63611	40.92389	-91.39374
697289	2233	-2101	376	-2.73796	30.34468	162.4112	0	10.83	4004	0	0	5	5	0.3340819	0.7566013	1	10	0.03	1800	-44.63611	40.92389	-91.39374
697405	368	-875	-556	2.441074	36.39259	165.3729	0	10.89	4003	0	0	5	5	0.3340819	0.7597321	1	10	0.03	1800	-51.76157	40.92389	-91.39374
697486	2442	-433	-1166	5.520238	36.83867	166.2806	0	10.89	4004	0	0	5	5	0.3340819	0.7656631	1	10	0.03	1800	-55.42377	40.92389	-91.39374
697597	2472	414	-731	11.38343	36.79129	167.5651	0	10.89	4003	0	0	5	5	0.3340819	0.782019	1	10	0.03	1800	-60.95801	40.92389	-91.39374
697703	-1344	737	-1392	14.4389	36.01905	168.7845	0	10.89	4004	0	0	5	5	0.3340819	0.8066859	1	10	0.03	1800	-61.34998	40.92389	-91.39374
697884	1652	2754	2078	15.68742	34.21519	170.9692	0	10.89	4004	0	0	5	5	0.3340819	0.8468392	1	10	0.03	1800	-61.58636	40.9239	-91.39374
697969	2098	105	2232	16.28548	32.10347	167.0414	0	10.89	4003	0	0	5	5	0.3340819	0.859477	1	10	0.03	1800	-55.84122	40.9239	-91.39374
698054	-535	-1407	2875	15.02688	34.0803	164.6322	0	10.89	4003	0	0	5	5	0.3340819	0.875801	1	10	0.03	1800	-51.39581	40.9239	-91.39374
698143	-199	-980	5487	4.815372	38.86069	154.3097	0	10.89	4003	0	0	5	5	0.3340819	0.8915538	1	10	0.03	1800	-38.09909	40.9239	-91.39374
698185	30	-1557	4714	2.600491	39.82701	151.5116	0	10.89	4002	0	0	5	5	0.3340819	0.8993881	1	10	0.03	1800	-30.35931	40.9239	-91.39374
698350	2633	-2980	975	-2.115486	47.12415	145.4955	0	10.89	4003	0	0	5	5	0.3340819	0.9211836	1	10	0.03	1800	-23.10892	40.9239	-91.39374
698424	2569	-543	-229	0.3933798	49.96474	145.0927	0	10.89	4003	0	0	5	5	0.3340819	0.9311698	1	10	0.03	1800	-21.3045	40.9239	-91.39374
698464	1689	2414	-913	1.427286	48.93383	145.4146	0	10.89	4002	0	0	5	5	0.3340819	0.9329987	1	10	0.03	1800	-21.3045	40.9239	-91.39374
698683	-2678	1099	-3175	3.059013	42.29292	154.7266	0	10.89	4003	0	0	5	5	0.3340819	0.9382381	1	10	0.03	1800	-27.14157	40.92391	-91.39373
698784	-2562	1186	-2125	1.750132	38.51757	158.5154	0	10.89	4002	0	0	5	5	0.3340819	0.9441206	1	10	0.03	1800	-31.18253	40.92391	-91.39373
698902	-7201	325	-5461	-1.504786	37.33493	165.2991	0	10.89	4003	0	0	5	5	0.3340819	0.9467724	1	10	0.03	1800	-42.10202	40.92391	-91.39373
699020	-4689	2864	-8603	-8.400642	32.49174	182.0427	0	10.89	4003	0	0	5	5	0.3340819	0.944927	1	10	0.03	1800	-66.80289	40.92391	-91.39373
699131	-1890	2394	-6732	-5.267405	29.67297	195.8186	0	10.89	4003	0	0	5	5	0.3340819	0.9414259	1	10	0.03	1800	-83.00931	40.92391	-91.39373
699243	-3944	641	-8216	-3.725914	26.74208	210.7506	0	10.83	4009	0	0	5	5	0.3340819	0.9405462	1	10	0.03	1800	248.5806	40.92391	-91.39373
699318	-4008	362	-6904	-3.684769	27.35155	219.329	0	10.83	4004	0	0	5	5	0.3340819	0.9339104	1	10	0.03	1800	238.6895	40.92391	-91.39373
699405	-3290	372	-5198	-3.518232	28.48679	225.83	0	10.83	4002	0	0	5	5	0.3340819	0.9268534	1	10	0.03	1800	229.4076	40.92391	-91.39373
699452	-2804	0	-4120	-3.443667	28.438	230.9606	0	10.83	4003	0	0	5	5	0.3340819	0.9231697	1	10	0.03	1800	223.9471	40.92391	-91.39373
699566	-3311	-3364	-3871	-4.687316	32.07054	239.1085	0	10.83	4003	0	0	5	5	0.3340819	0.9164259	1	10	0.03	1800	215.8018	40.92391	-91.39373
699640	-3517	-3144	-1076	-5.848414	36.2347	241.797	0	10.83	4004	0	0	5	5	0.3340819	0.9161824	1	10	0.03	1800	211.843	40.92391	-91.39373
699744	1652	-1876	1423	-8.607433	40.09159	240.4633	0	10.83	4003	0	0	5	5	0.3340819	0.9163299	1	10	0.03	1800	214.0516	40.92391	-91.39373
699920	565	479	-3534	-3.556243	42.43811	240.8032	0	10.83	4002	0	0	5	5	0.3340819	0.9206452	1	10	0.03	1800	216.0339	40.92391	-91.39373
699987	-2216	830	-5548	-0.1941749	41.80773	246.2885	0	10.83	4002	0	0	5	5	0.3340819	0.9223696	1	10	0.03	1800	209.5242	40.92391	-91.39373
700099	-1413	4070	-3442	0.5927829	36.62485	254.3117	0	10.89	4003	0	0	5	5	0.3340819	0.9301676	1	10	0.03	1800	199.8788	40.9239	-91.39374
700223	-4749	2063	-3766	-0.8700007	31.72259	263.0508	0	10.89	4003	0	0	5	5	0.3340819	0.9295903	1	10	0.03	1800	195.1194	40.9239	-91.39374
700321	-4409	2537	-3551	-2.240474	30.70541	265.0443	0	10.89	4003	0	0	5	5	0.3340819	0.9228597	1	10	0.03	1800	190.9993	40.9239	-91.39374
700353	-1903	6076	-6514	-2.978057	25.8469	270.351	0	10.89	4003	0	0	5	5	0.3340819	0.9224724	1	10	0.03	1800	187.303	40.9239	-91.39374
700511	1617	8890	-7250	-2.536526	6.424578	291.2773	0	10.89	4002	0	0	5	5	0.3340819	0.9182605	1	10	0.03	1800	171.3751	40.9239	-91.39374
700646	-7674	1963	-3613	-6.877538	-15.41191	299.9196	0	10.89	4004	0	0	5	5	0.3340819	0.9124458	1	10	0.03	1800	149.7739	40.9239	-91.39374
700802	2809	2989	-728	-17.67242	-15.29064	309.1725	0	10.89	4003	0	0	5	5	0.3340819	0.8775431	1	10	0.03	1800	139.452	40.9239	-91.39374
700905	861	-1191	-2608	-8.049806	-16.66812	313.9005	0	10.89	4004	0	0	5	5	0.3340819	0.84988	1	10	0.03	1800	137.5128	40.9239	-91.39374
700944	861	-1191	-2608	-8.049806	-16.66812	313.9005	0	10.89	4004	0	0	5	5	0.3340819	0.8380048	1	10	0.03	1800	137.5128	40.9239	-91.39374
701090	5042	1184	5928	6.801721	-19.13949	308.713	0	10.83	4004	0	0	5	5	0.3340819	0.7992383	1	10	0.03	1800	149.821	40.9239	-91.39374
701220	5993	457	6518	22.5298	-16.91954	293.9557	0	10.83	4002	0	0	5	5	0.3340819	0.750171	1	10	0.03	1800	169.0477	40.9239	-91.39374
701271	2992	649	6772	25.30501	-15.65111	290.0942	0	10.83	4003	0	0	5	5	0.3340819	0.7285187	1	10	0.03	1800	169.0477	40.9239	-91.39374
701471	-6642	-4216	5635	13.79697	-8.544949	281.8717	0	10.83	4004	0	0	5	5	0.3340819	0.6757056	1	10	0.03	1800	173.2851	40.9239	-91.39374
701584	2934	-1143	795	11.68804	-0.7237107	276.7639	0	10.83	4004	0	0	5	5	0.3340819	0.6279863	1	10	0.03	1800	185.6504	40.9239	-91.39374
701640	449	2377	4517	13.26713	-0.1027761	275.8195	0	10.83	4003	0	0	5	5	0.3340819	0.6229265	1	10	0.03	1800	185.6504	40.9239	-91.39374
701744	-1941	-199	5115	10.63595	-0.9897952	263.6413	0	10.83	4004	0	0	5	5	0.3340819	0.6013024	1	10	0.03	1800	190.2043	40.9239	-91.39374
701865	-3156	1948	2027	2.844515	-2.191049	257.6365	0	10.89	4004	0	0	5	5	0.3340819	0.5927184	1	10	0.03	1800	193.5692	40.9239	-91.39374
701951	-261	649	2785	0.9174913	-3.626945	254.7221	0	10.89	4003	0	0	5	5	0.3340819	0.5766423	1	10	0.03	1800	196.232	40.9239	-91.39374
702078	1412	346	754	4.932811	-4.914567	253.0425	0	10.89	4003	0	0	5	5	0.3340819	0.5685411	1	10	0.03	1800	200.5178	40.9239	-91.39374
702150	-1940	1023	1490	4.403975	-5.57654	251.6965	0	10.89	4003	0	0	5	5	0.3340819	0.5655301	1	10	0.03	1800	210.3546	40.9239	-91.39374
702274	-1225	-1328	1027	3.119714	-7.878318	249.3089	0	10.89	4003	0	0	5	5	0.3340819	0.5583922	1	10	0.03	1800	-48.51572	40.9239	-91.39374
702336	920	-806	-1335	3.206214	-6.875675	249.3047	0	10.89	4003	0	0	5	5	0.3340819	0.5576571	1	10	0.03	1800	-42.79102	40.9239	-91.39374
702439	-2859	-465	-1563	1.264305	-7.93726	250.6014	0	10.89	4003	0	0	5	5	0.3340819	0.5463992	1	10	0.03	1800	-41.82361	40.9239	-91.39374
702549	-574	-1009	392	-4.124638	-7.063225	252.2521	0	10.89	4003	0	0	5	5	0.3340819	0.5284534	1	10	0.03	1800	-26.72272	40.9239	-91.39374
702644	-347	51	507	-3.92741	-6.873437	250.9742	0	10.89	4002	0	0	5	5	0.3340819	0.5196539	1	10	0.03	1800	-15.75595	40.9239	-91.39374
702808	299	-914	672	-3.892791	-6.715774	248.6157	0	10.83	4002	0	0	5	5	0.3340819	0.4939898	1	10	0.03	1800	7.289741	40.9239	-91.39374
702949	247	351	315	-4.069947	-8.07713	247.3494	0	10.83	4003	0	0	5	5	0.3340819	0.4750512	1	10	0.03	1800	22.89008	40.9239	-91.39374
703056	1018	-1310	856	-2.26378	-6.823154	246.4096	0	10.83	4002	0	0	5	5	0.3340819	0.4632278	1	10	0.03	1800	21.93841	40.9239	-91.39374
703139	-95	-325	1311	-1.26538	-5.594031	245.0938	0	10.83	4002	0	0	5	5	0.3340819	0.4560717	1	10	0.03	1800	22.29276	40.9239	-91.39374
703240	-546	1739	2093	-1.313579	-7.511467	242.1355	0	10.83	4002	0	0	5	5	0.3340819	0.4344701	1	10	0.03	1800	42.09358	40.9239	-91.39374
703405	-295	666	721	-2.585802	-11.64134	237.7046	0	10.83	4002	0	0	5	5	0.3340819	0.4247949	1	10	0.03	1800	83.52982	40.9239	-91.39374
703479	947	-1409	-543	-2.171456	-11.79703	238.1834	0	10.83	4003	0	0	5	5	0.3340819	0.4261038	1	10	0.03	1800	89.8666	40.9239	-91.39374
703544	1104	-1709	-389	-1.620632	-10.85791	238.4295	0	10.83	4002	0	0	5	5	0.3340819	0.426526	1	10	0.03	1800	83.08395	40.9239	-91.39374
703687	176	38	852	0.9282765	-7.800846	238.4041	0	10.83	4002	0	0	5	5	0.3340819	0.4305235	1	10	0.03	1800	67.63507	40.9239	-91.39374
703783	2	362	1493	1.358296	-7.719899	236.467	0	10.89	4004	0	0	5	5	0.3340819	0.4375671	1	10	0.03	1800	86.33001	40.9239	-91.39374
703816	285	404	1797	1.685772	-7.865273	235.5528	0	10.89	4004	0	0	5	5	0.3340819	0.4406912	1	10	0.03	1800	86.33001	40.9239	-91.39374
703982	324	-350	2862	3.668532	-6.39448	229.5117	0	10.89	4003	0	0	5	5	0.3340819	0.4496577	1	10	0.03	1800	127.5513	40.9239	-91.39374
704066	-184	28	3596	4.851832	-5.703914	224.0233	0	10.89	4003	0	0	5	5	0.3340819	0.4525351	1	10	0.03	1800	166.5276	40.9239	-91.39374
704118	253	-155	3306	5.776975	-5.526224	220.2722	0	10.89	4003	0	0	5	5	0.3340819	0.4523314	1	10	0.03	1800	185.9039	40.9239	-91.39374
704271	911	120	2773	7.838497	-5.64397	213.319	0	10.89	4002	0	0	5	5	0.3340819	0.4431399	1	10	0.03	1800	227.8035	40.9239	-91.39374
704372	-906	-37	733	6.782953	-6.416677	207.952	0	10.89	4004	0	0	5	5	0.3340819	0.442975	1	10	0.03	1800	235.4932	40.9239	-91.39374
704465	1143	-2090	-1292	6.924006	-5.837148	209.1867	0	10.89	4003	0	0	5	5	0.3340819	0.4419363	1	10	0.03	1800	233.1227	40.9239	-91.39374
704491	907	-1526	-1264	6.924006	-5.837148	209.1867	0	10.89	4003	0	0	5	5	0.3340819	0.4398777	1	10	0.03	1800	233.1227	40.9239	-91.39374
704602	481	1902	-2504	8.269265	-6.460825	213.278	0	10.89	4002	0	0	5	5	0.3340819	0.441188	1	10	0.03	1800	220.2416	40.9239	-91.39374
704696	704	-1119	-2790	8.123482	-8.050653	217.7934	0	10.89	4003	0	0	5	5	0.3340819	0.4413081	1	10	0.03	1800	215.831	40.9239	-91.39374
704916	-493	1152	-857	11.28542	-6.419724	222.447	0	10.89	4003	0	0	5	5	0.3340819	0.4408238	1	10	0.03	1800	197.863	40.9239	-91.39373
705125	-319	-402	136	10.13415	-5.122641	223.2892	0	10.89	4002	0	0	5	5	0.3340819	0.4366734	1	10	0.03	1800	193.8909	40.9239	-91.39374
705317	1089	-914	310	11.62525	-5.269377	222.3315	0	10.89	4003	0	0	5	5	0.3340819	0.4423203	1	10	0.03	1800	196.938	40.9239	-91.39374
705460	-414	419	-90	12.44176	-4.779947	222.2525	0	10.89	4002	0	0	5	5	0.3340819	0.4420588	1	10	0.03	1800	197.9057	40.9239	-91.39374
705622	-17	-144	11	12.13378	-4.71642	222.2977	0	10.89	4002	0	0	5	5	0.3340819	0.4386607	1	10	0.03	1800	197.6187	40.92391	-91.39374
705782	192	-39	-19	12.43283	-4.963094	222.4329	0	10.89	4002	0	0	5	5	0.3340819	0.4215417	1	10	0.03	1800	197.6514	40.92391	-91.39374
705837	-113	68	71	12.54125	-4.787592	222.3305	0	10.89	4003	0	0	5	5	0.3340819	0.4081514	1	10	0.03	1800	198.0911	40.92391	-91.39374
706010	155	-92	143	12.69234	-4.880406	222.0044	0	10.89	4003	0	0	5	5	0.3340819	0.3767743	1	10	0.03	1800	198.0136	40.92391	-91.39374
706184	259	-158	89	13.19283	-4.813573	221.7805	0	10.89	4006	0	0	5	5	0.3340819	0.3460716	1	10	0.03	1800	199.3043	40.92391	-91.39374
706299	147	-33	38	13.45815	-4.651386	221.6842	0	10.89	4003	0	0	5	5	0.3340819	0.3382444	1	10	0.03	1800	199.6515	40.92391	-91.39374
706473	41	25	83	13.65287	-4.684234	221.505	0	10.83	4003	0	0	5	5	0.3340819	0.323046	1	10	0.03	1800	200.0093	40.92391	-91.39374
706568	193	35	107	13.97743	-4.866836	221.3605	0	10.83	4002	0	0	5	5	0.3340819	0.3182073	1	10	0.03	1800	200.8411	40.92391	-91.39374
706678	152	-67	69	14.4151	-4.777601	221.2463	0	10.83	4004	0	0	5	5	0.3340819	0.3181354	1	10	0.03	1800	201.2977	40.92391	-91.39374
706786	-70	87	65	14.5732	-4.704042	221.1125	0	10.83	4002	0	0	5	5	0.3340819	0.3261112	1	10	0.03	1800	201.8826	40.92391	-91.39374
706907	129	-134	-9	14.62393	-4.922349	221.0872	0	10.83	4010	0	0	5	5	0.3340819	0.3262752	1	10	0.03	1800	202.463	40.92391	-91.39374
706956	100	6	-43	14.74383	-4.841748	221.135	0	10.83	4003	0	0	5	5	0.3340819	0.3299389	1	10	0.03	1800	201.3086	40.92391	-91.39374
707057	-33	72	-46	14.79931	-4.878953	221.161	0	10.83	4003	0	0	5	5	0.3340819	0.3291975	1	10	0.03	1800	201.3086	40.92391	-91.39374
707207	119	41	106	14.81203	-5.010977	221.155	0	10.83	4003	0	0	5	5	0.3340819	0.3196046	1	10	0.03	1800	202.3993	40.92391	-91.39374
707312	4	82	30	15.02431	-5.126401	221.0666	0	10.89	4004	0	0	5	5	0.3340819	0.3152087	1	10	0.03	1800	203.1092	40.92391	-91.39374
707371	14	75	-70	15.01898	-5.185002	221.0838	0	10.89	4002	0	0	5	5	0.3340819	0.3148975	1	10	0.03	1800	203.1092	40.92391	-91.39374
707487	89	-42	0	15.10399	-5.164037	221.0811	0	10.89	4004	0	0	5	5	0.3340819	0.3141945	1	10	0.03	1800	203.5156	40.92391	-91.39374
707582	177	-25	76	15.44183	-5.150515	221.0237	0	10.89	4002	0	0	5	5	0.3340819	0.3115221	1	10	0.03	1800	202.8503	40.92391	-91.39374
707677	4	88	28	15.54847	-5.20882	220.9724	0	10.89	4003	0	0	5	5	0.3340819	0.3143572	1	10	0.03	1800	204.0425	40.92391	-91.39374
707879	40	41	27	15.84398	-5.332551	220.9064	0	10.89	4004	0	0	5	5	0.3340819	0.3244677	1	10	0.03	1800	204.406	40.92391	-91.39374
707905	27	70	-13	15.86945	-5.369963	220.9034	0	10.89	4002	0	0	5	5	0.3340819	0.3355185	1	10	0.03	1800	204.5551	40.92391	-91.39374
707975	-45	-24	57	15.87495	-5.370481	220.8831	0	10.89	4002	0	0	5	5	0.3340819	0.3390009	1	10	0.03	1800	204.5733	40.92391	-91.39374
708173	-26	83	-9	15.80474	-5.528734	220.6847	0	10.89	4003	0	0	5	5	0.3340819	0.3607233	1	10	0.03	1800	204.7908	40.92392	-91.39374
708259	41	-109	20	15.76201	-5.577036	220.6753	0	10.89	4003	0	0	5	5	0.3340819	0.3690987	1	10	0.03	1800	204.6713	40.92392	-91.39374
708317	53	63	57	15.91934	-5.543305	220.6649	0	10.89	4002	0	0	5	5	0.3340819	0.3775865	1	10	0.03	1800	204.6714	40.92392	-91.39374
708419	0	18	-48	15.93363	-5.59036	220.6483	0	10.89	4004	0	0	5	5	0.3340819	0.3887925	1	10	0.03	1800	205.0028	40.92392	-91.39374
708546	48	5	9	15.91614	-5.502609	220.6642	0	10.89	4002	0	0	5	5	0.3340819	0.3979616	1	10	0.03	1800	205.3307	40.92392	-91.39374
708744	-31	-12	-23	16.01083	-5.509153	220.553	0	10.89	4003	0	0	5	5	0.3340819	0.4146773	1	10	0.03	1800	205.3575	40.92392	-91.39374
708824	187	42	5	16.08454	-5.540977	220.5608	0	10.89	4003	0	0	5	5	0.3340819	0.4230389	1	10	0.03	1800	205.0066	40.92392	-91.39374
708994	29	-52	40	16.43478	-5.448556	220.5145	0	10.89	4003	0	0	5	5	0.3340819	0.4394251	1	10	0.03	1800	205.844	40.92392	-91.39374
709125	48	114	123	16.28481	-5.484479	220.2146	0	10.89	4004	0	0	5	5	0.3340819	0.445726	1	10	0.03	1800	205.8674	40.92392	-91.39374
709193	34	17	100	16.31491	-5.529004	220.157	0	10.83	4004	0	0	5	5	0.3340819	0.4491185	1	10	0.03	1800	206.5702	40.92392	-91.39374
709272	93	4	8	16.36291	-5.561364	220.0712	0	10.83	4002	0	0	5	5	0.3340819	0.4505108	1	10	0.03	1800	206.2887	40.92392	-91.39373
709467	-27	106	40	16.47533	-5.599624	220.0088	0	10.83	4004	0	0	5	5	0.3340819	0.4474066	1	10	0.03	1800	206.9216	40.92392	-91.39374
709624	80	94	76	16.4937	-5.641524	219.8545	0	10.83	4002	0	0	5	5	0.3340819	0.455507	1	10	0.03	1800	207.3009	40.92392	-91.39374
709843	90	-35	-5	16.70521	-5.837773	219.6979	0	10.83	4002	0	0	5	5	0.3340819	0.4542612	1	10	0.03	1800	208.0059	40.92392	-91.39373
709954	-38	71	-44	16.79572	-5.889284	219.6771	0	10.83	4003	0	0	5	5	0.3340819	0.4520414	1	10	0.03	1800	208.1962	40.92392	-91.39373
710054	24	-57	18	16.83128	-5.865715	219.6597	0	10.83	4004	0	0	5	5	0.3340819	0.4470124	1	10	0.03	1800	208.0786	40.92392	-91.39373
710207	-25	-97	-55	17.03089	-5.95304	219.7441	0	10.83	4004	0	0	5	5	0.3340819	0.4552606	1	10	0.03	1800	208.4035	40.92392	-91.39373
710298	-35	61	-49	16.95944	-5.898271	219.786	0	10.83	4002	0	0	5	5	0.3340819	0.4589211	1	10	0.03	1800	207.9811	40.92392	-91.39373
710501	51	-7	-44	17.1375	-6.040789	219.795	0	10.83	4002	0	0	5	5	0.3340819	0.4584972	1	10	0.03	1800	207.9669	40.92392	-91.39373
710610	77	36	48	17.19117	-5.97961	219.8158	0	10.83	4003	0	0	5	5	0.3340819	0.4694603	1	10	0.03	1800	207.7906	40.92392	-91.39373
710632	77	36	48	17.19117	-5.97961	219.8158	0	10.83	4003	0	0	5	5	0.3340819	0.4761266	1	10	0.03	1800	207.7906	40.92392	-91.39373
710823	132	65	-9	17.46178	-6.070274	219.6842	0	10.83	4002	0	0	5	5	0.3340819	0.4860028	1	10	0.03	1800	208.4867	40.92393	-91.39373
710874	118	4	37	17.53069	-6.086463	219.6726	0	10.83	4004	0	0	5	5	0.3340819	0.4904688	1	10	0.03	1800	208.2291	40.92393	-91.39373
711033	-19	59	-16	17.67796	-6.159184	219.644	0	10.83	4003	0	0	5	5	0.3340819	0.4966937	1	10	0.03	1800	208.9659	40.92393	-91.39373
711113	0	142	134	17.54319	-6.040559	219.54	0	10.83	4002	0	0	5	5	0.3340819	0.50384	1	10	0.03	1800	208.4792	40.92393	-91.39373
711188	-21	139	47	17.56705	-6.220721	219.4345	0	10.83	4003	0	0	5	5	0.3340819	0.51527	1	10	0.03	1800	209.2953	40.92393	-91.39373
711351	192	126	44	17.67817	-6.3154	219.2508	0	10.83	4003	0	0	5	5	0.3340819	0.5126878	1	10	0.03	1800	208.8101	40.92393	-91.39373
711491	29	-105	-131	17.85451	-6.378366	219.3724	0	10.83	4003	0	0	5	5	0.3340819	0.5105172	1	10	0.03	1800	209.7059	40.92393	-91.39373
711536	6	-55	-67	17.88464	-6.271217	219.5025	0	10.83	4003	0	0	5	5	0.3340819	0.5108036	1	10	0.03	1800	209.2262	40.92393	-91.39373
711607	206	168	166	17.97955	-6.23759	219.4077	0	10.83	4004	0	0	5	5	0.3340819	0.5111427	1	10	0.03	1800	209.0717	40.92393	-91.39373
711731	130	-132	-22	18.33751	-6.40633	219.261	0	10.83	4004	0	0	5	5	0.3340819	0.5007132	1	10	0.03	1800	210.211	40.92393	-91.39373
711810	26	-173	-24	18.41224	-6.206974	219.3024	0	10.83	4003	0	0	5	5	0.3340819	0.4993108	1	10	0.03	1800	209.6577	40.92393	-91.39373
711916	-80	83	124	18.52547	-5.97237	219.2035	0	10.83	4003	0	0	5	5	0.3340819	0.4910981	1	10	0.03	1800	209.875	40.92393	-91.39373
712028	-138	165	90	18.35817	-6.112223	219.0768	0	10.83	4003	0	0	5	5	0.3340819	0.4851817	1	10	0.03	1800	209.875	40.92393	-91.39373
712116	32	-35	85	18.32054	-6.214802	218.9149	0	10.83	4003	0	0	5	5	0.3340819	0.4844515	1	10	0.03	1800	210.2844	40.92393	-91.39373
712268	12	-133	-24	18.13559	-6.343593	219.0286	0	10.83	4003	0	0	5	5	0.3340819	0.4793314	1	10	0.03	1800	210.2581	40.92393	-91.39373
712359	158	56	46	18.23738	-6.225144	219.0068	0	10.83	4003	0	0	5	5	0.3340819	0.4780546	1	10	0.03	1800	210.3915	40.92393	-91.39374
712425	151	-13	87	18.53552	-6.328747	218.8801	0	10.83	4002	0	0	5	5	0.3340819	0.4830331	1	10	0.03	1800	210.9792	40.92393	-91.39374
712579	-13	11	38	18.62564	-6.316466	218.8158	0	10.83	4004	0	0	5	5	0.3340819	0.4889102	1	10	0.03	1800	211.112	40.92393	-91.39374
712651	14	-20	37	18.63957	-6.265391	218.7564	0	10.83	4002	0	0	5	5	0.3340819	0.485459	1	10	0.03	1800	211.112	40.92393	-91.39374
712740	-21	37	76	18.67261	-6.272194	218.6876	0	10.83	4003	0	0	5	5	0.3340819	0.4818813	1	10	0.03	1800	211.2636	40.92393	-91.39375
712847	-7	28	-4	18.63655	-6.389571	218.647	0	10.89	4002	0	0	5	5	0.3340819	0.4653707	1	10	0.03	1800	211.3953	40.92393	-91.39375
712920	18	25	6	18.62925	-6.418457	218.6751	0	10.89	4004	0	0	5	5	0.3340819	0.4570662	1	10	0.03	1800	211.6998	40.92393	-91.39375
713055	102	-35	-65	18.74742	-6.5062	218.8255	0	10.89	4003	0	0	5	5	0.3340819	0.4509992	1	10	0.03	1800	211.3753	40.92393	-91.39374
713120	63	-25	-30	18.84812	-6.488407	218.8984	0	10.89	4002	0	0	5	5	0.3340819	0.4471371	1	10	0.03	1800	211.0739	40.92393	-91.39374
713339	-20	62	47	19.08134	-6.468876	218.7866	0	10.89	4002	0	0	5	5	0.3340819	0.4181779	1	10	0.03	1800	211.3939	40.92393	-91.39374
713454	-10	39	50	19.06949	-6.508226	218.7197	0	10.89	4003	0	0	5	5	0.3340819	0.4107511	1	10	0.03	1800	211.6327	40.92393	-91.39374
713527	-148	86	0	18.96428	-6.587346	218.7084	0	10.89	4003	0	0	5	5	0.3340819	0.4100761	1	10	0.03	1800	211.5171	40.92393	-91.39374
713678	-40	75	-38	18.92806	-6.846955	218.6987	0	10.89	4002	0	0	5	5	0.3340819	0.4144583	1	10	0.03	1800	211.6714	40.92393	-91.39374
713745	-32	-27	63	18.86568	-6.84434	218.6715	0	10.83	4003	0	0	5	5	0.3340819	0.419639	1	10	0.03	1800	212.1284	40.92393	-91.39374
713858	-39	4	12	18.853	-6.90038	218.6083	0	10.83	4003	0	0	5	5	0.3340819	0.4248276	1	10	0.03	1800	212.2113	40.92393	-91.39373
713940	41	-40	13	18.82243	-6.881279	218.6086	0	10.83	4003	0	0	5	5	0.3340819	0.4271146	1	10	0.03	1800	211.6938	40.92393	-91.39372
714164	-25	-13	-19	18.94916	-6.873945	218.6172	0	10.83	4004	0	0	5	5	0.3340819	0.421655	1	10	0.03	1800	211.801	40.92393	-91.39372
714344	50	26	77	18.84068	-6.827611	218.6074	0	10.83	4003	0	0	5	5	0.3340819	0.4033435	1	10	0.03	1800	211.8912	40.92393	-91.39371
714441	13	-44	-7	18.8693	-6.875111	218.5699	0	10.83	4003	0	0	5	5	0.3340819	0.4056489	1	10	0.03	1800	212.07	40.92393	-91.39371
714530	13	6	57	18.91512	-6.770086	218.524	0	10.83	4002	0	0	5	5	0.3340819	0.4056959	1	10	0.03	1800	212.014	40.92393	-91.39371
714608	40	-17	19	18.90988	-6.819097	218.4746	0	10.83	4003	0	0	5	5	0.3340819	0.4040397	1	10	0.03	1800	212.1032	40.92393	-91.39371
714675	35	9	-5	18.95015	-6.831896	218.4694	0	10.83	4003	0	0	5	5	0.3340819	0.3988136	1	10	0.03	1800	212.4465	40.92394	-91.39371
714770	32	-68	-10	18.95709	-6.746799	218.4711	0	10.83	4004	0	0	5	5	0.3340819	0.3904063	1	10	0.03	1800	212.1825	40.92394	-91.39371
714938	38	64	62	18.9496	-6.811604	218.3199	0	10.83	4003	0	0	5	5	0.3340819	0.378942	1	10	0.03	1800	212.4912	40.92394	-91.39371
715011	83	-37	14	18.99799	-6.838014	218.2864	0	10.83	4004	0	0	5	5	0.3340819	0.3700199	1	10	0.03	1800	212.4988	40.92394	-91.39371
715147	-7	64	50	18.98326	-6.737402	218.3069	0	10.83	4004	0	0	5	5	0.3340819	0.3589418	1	10	0.03	1800	212.3316	40.92394	-91.3937
715350	-39	39	112	18.97743	-6.766253	218.0766	0	10.83	4002	0	0	5	5	0.3340819	0.3466387	1	10	0.03	1800	213.0346	40.92394	-91.3937
715429	-89	38	45	18.89451	-6.792637	217.9614	0	10.83	4003	0	0	5	5	0.3340819	0.3371587	1	10	0.03	1800	212.9335	40.92394	-91.3937
715531	-64	52	61	18.84322	-6.817482	217.931	0	10.83	4003	0	0	5	5	0.3340819	0.3287284	1	10	0.03	1800	212.9335	40.92394	-91.3937
715715	86	-53	-61	18.91335	-6.871373	217.9548	0	10.83	4004	0	0	5	5	0.3340819	0.3347322	1	10	0.03	1800	213.5033	40.92394	-91.3937
715739	86	-53	-61	18.91335	-6.871373	217.9548	0	10.83	4004	0	0	5	5	0.3340819	0.3355558	1	10	0.03	1800	213.5033	40.92394	-91.3937
715850	-16	-78	-97	18.96313	-6.857044	218.1343	0	10.83	4002	0	0	5	5	0.3340819	0.330446	1	10	0.03	1800	212.0635	40.92394	-91.3937
715941	89	36	60	19.00235	-6.791635	218.1441	0	10.83	4003	0	0	5	5	0.3340819	0.3182615	1	10	0.03	1800	212.8375	40.92394	-91.3937
716041	8	-15	7	19.0102	-6.954576	218.0918	0	10.83	4003	0	0	5	5	0.3340819	0.3066384	1	10	0.03	1800	213.1095	40.92394	-91.39369
716132	68	21	0	19.09278	-6.932436	218.1585	0	10.83	4002	0	0	5	5	0.3340819	0.300169	1	10	0.03	1800	213.0464	40.92394	-91.39369
716251	-33	41	-28	19.18484	-6.961292	218.2271	0	10.83	4002	0	0	5	5	0.3340819	0.3043047	1	10	0.03	1800	212.8562	40.92394	-91.39369
716366	-85	-9	44	19.083	-6.95617	218.127	0	10.83	4003	0	0	5	5	0.3340819	0.3112109	1	10	0.03	1800	213.0203	40.92395	-91.39369
716430	6	22	10	19.05186	-6.962234	218.1294	0	10.83	4004	0	0	5	5	0.3340819	0.3132846	1	10	0.03	1800	213.0203	40.92395	-91.39369
716624	19	-68	-55	19.07838	-7.0736	218.0621	0	10.83	4004	0	0	5	5	0.3340819	0.3380113	1	10	0.03	1800	213.3309	40.92395	-91.39368
716645	39	-46	-62	19.08297	-7.035193	218.0978	0	10.83	4004	0	0	5	5	0.3340819	0.3473049	1	10	0.03	1800	213.1189	40.92395	-91.39368
716802	-73	68	15	19.12782	-7.080324	218.0803	0	10.83	4004	0	0	5	5	0.3340819	0.3722291	1	10	0.03	1800	213.2872	40.92395	-91.39368
716877	3	-82	31	19.02962	-7.090256	218.1082	0	10.83	4002	0	0	5	5	0.3340819	0.3831095	1	10	0.03	1800	213.0952	40.92395	-91.39368
717004	-32	21	-10	19.12686	-7.084102	218.0732	0	10.83	4004	0	0	5	5	0.3340819	0.4083157	1	10	0.03	1800	213.4254	40.92395	-91.39368
717032	-39	-2	-52	19.09395	-7.10396	218.0935	0	10.83	4003	0	0	5	5	0.3340819	0.4117282	1	10	0.03	1800	213.2728	40.92395	-91.39367
717159	114	-14	0	19.08903	-7.067596	218.118	0	10.83	4003	0	0	5	5	0.3340819	0.4214095	1	10	0.03	1800	212.2188	40.92395	-91.39367
717235	41	10	-5	19.1768	-7.081973	218.1292	0	10.83	4002	0	0	5	5	0.3340819	0.4241842	1	10	0.03	1800	213.1502	40.92395	-91.39366
717301	-47	33	10	19.15186	-7.085453	218.1388	0	10.83	4002	0	0	5	5	0.3340819	0.426207	1	10	0.03	1800	212.7515	40.92395	-91.39366
717417	44	4	4	19.07094	-7.069963	218.1258	0	10.83	4003	0	0	5	5	0.3340819	0.4225699	1	10	0.03	1800	213.0889	40.92395	-91.39366
717548	-26	-19	27	19.08049	-7.066649	218.0541	0	10.83	4003	0	0	5	5	0.3340819	0.4188882	1	10	0.03	1800	212.4977	40.92395	-91.39366
717621	0	10	45	19.04535	-7.039192	217.9948	0	10.83	4004	0	0	5	5	0.3340819	0.4149926	1	10	0.03	1800	213.4966	40.92395	-91.39366
717771	40	-16	20	19.20563	-7.00725	217.901	0	10.83	4003	0	0	5	5	0.3340819	0.4104923	1	10	0.03	1800	212.2876	40.92395	-91.39365
717852	-25	-18	7	19.10765	-7.015758	217.9092	0	10.83	4002	0	0	5	5	0.3340819	0.4077884	1	10	0.03	1800	213.8017	40.92395	-91.39365
717954	-12	-2	62	19.07554	-6.948157	217.8594	0	10.83	4003	0	0	5	5	0.3340819	0.4121635	1	10	0.03	1800	213.6749	40.92396	-91.39365
718038	-69	95	-3	19.07649	-7.10498	217.8053	0	10.83	4002	0	0	5	5	0.3340819	0.4119876	1	10	0.03	1800	213.8443	40.92396	-91.39365
718093	-94	137	-106	19.02184	-7.209875	217.8444	0	10.83	4004	0	0	5	5	0.3340819	0.4128476	1	10	0.03	1800	214.0022	40.92396	-91.39365
718182	41	74	-46	18.82891	-7.424356	217.9896	0	10.83	4003	0	0	5	5	0.3340819	0.4155499	1	10	0.03	1800	214.3654	40.92396	-91.39365
718293	373	160	-8	18.96299	-7.77597	217.944	0	10.83	4003	0	0	5	5	0.3340819	0.4202083	1	10	0.03	1800	214.6942	40.92396	-91.39364
718349	370	-115	4	19.48898	-7.807832	217.9262	0	10.83	4002	0	0	5	5	0.3340819	0.4202342	1	10	0.03	1800	215.0849	40.92396	-91.39364
718450	-107	46	86	19.6482	-7.642163	217.872	0	10.83	4003	0	0	5	5	0.3340819	0.4202589	1	10	0.03	1800	215.7001	40.92396	-91.39364
718625	688	-260	98	20.3101	-7.913014	217.8137	0	10.83	4002	0	0	5	5	0.3340819	0.4118399	1	10	0.03	1800	216.9144	40.92397	-91.39364
718733	65	329	88	21.08793	-7.863381	217.6459	0	10.83	4003	0	0	5	5	0.3340819	0.4103345	1	10	0.03	1800	217.805	40.92397	-91.39364
718762	-85	257	84	21.08873	-8.004315	217.5972	0	10.83	4002	0	0	5	5	0.3340819	0.4082608	1	10	0.03	1800	217.805	40.92397	-91.39364
718913	147	149	54	20.80178	-7.881307	217.3283	0	10.83	4004	0	0	5	5	0.3340819	0.4004247	1	10	0.03	1800	217.5208	40.92397	-91.39363
718968	324	9	135	21.09247	-7.976352	217.192	0	10.83	4002	0	0	5	5	0.3340819	0.3978597	1	10	0.03	1800	217.4576	40.92397	-91.39363
719141	-471	77	-208	20.96943	-8.144791	217.2025	0	10.83	4004	0	0	5	5	0.3340819	0.3916552	1	10	0.03	1800	218.4851	40.92397	-91.39363
719249	-111	-140	-156	20.5754	-8.22077	217.4174	0	10.83	4002	0	0	5	5	0.3340819	0.3863883	1	10	0.03	1800	217.401	40.92397	-91.39363
719275	-55	-104	-47	20.5712	-8.017947	217.4964	0	10.83	4002	0	0	5	5	0.3340819	0.3885407	1	10	0.03	1800	216.9671	40.92397	-91.39363
719409	-69	60	228	20.19063	-7.910583	217.3039	0	10.83	4004	0	0	5	5	0.3340819	0.3909801	1	10	0.03	1800	217.4583	40.92397	-91.39363
719495	-113	-13	123	20.16426	-7.938841	217.1076	0	10.83	4002	0	0	5	5	0.3340819	0.3898477	1	10	0.03	1800	217.4583	40.92397	-91.39363
719576	-288	0	92	19.59412	-7.754736	216.9748	0	10.83	4004	0	0	5	5	0.3340819	0.3892923	1	10	0.03	1800	217.757	40.92397	-91.39362
719673	82	271	197	19.60326	-7.952195	216.6024	0	10.83	4003	0	0	5	5	0.3340819	0.3927316	1	10	0.03	1800	217.3053	40.92397	-91.39362
719774	-101	86	-79	19.5707	-8.313184	216.5435	0	10.83	4004	0	0	5	5	0.3340819	0.4017306	1	10	0.03	1800	218.0633	40.92397	-91.39362
719941	211	98	136	19.59855	-7.90469	217.0468	0	10.83	4003	0	0	5	5	0.3340819	0.4125436	1	10	0.03	1800	216.996	40.92397	-91.39362
719981	112	247	246	19.69561	-7.943265	216.9292	0	10.83	4002	0	0	5	5	0.3340819	0.4140058	1	10	0.03	1800	217.6206	40.92397	-91.39362
720132	79	-45	8	19.57765	-7.998746	216.5936	0	10.83	4004	0	0	5	5	0.3340819	0.4075376	1	10	0.03	1800	218.269	40.92397	-91.39363
720226	92	126	44	19.70557	-8.060945	216.55	0	10.83	4003	0	0	5	5	0.3340819	0.4035778	1	10	0.03	1800	216.6714	40.92397	-91.39363
720333	-21	-48	0	19.48672	-8.152511	216.6599	0	10.83	4004	0	0	5	5	0.3340819	0.3958445	1	10	0.03	1800	218.2387	40.92397	-91.39362
720448	-288	107	61	19.35396	-8.123981	216.6076	0	10.83	4004	0	0	5	5	0.3340819	0.3992322	1	10	0.03	1800	217.4651	40.92397	-91.39362
720604	33	-119	-21	19.09587	-8.338135	216.4358	0	10.83	4002	0	0	5	5	0.3340819	0.4005959	1	10	0.03	1800	217.813	40.92398	-91.3936
