time(ms)	gyro_x(deg/s)	gyro_y(deg/s)	gyro_z(deg/s)	orientation_roll(deg)	orientation_pitch(deg)	orientation_yaw(deg)	throttle	battery(V)	loop_time(uS)	pid_output_roll	pid_output_pitch	pid_output_yaw	pid_output_throttle	ultrasonic_alt	baro_alt	flight_mode	p_gain_altitude	i_gain_altitude	d_gain_altitude	compass_heading	latitude	longitude
125138	-1177	372	-1288	-4.818717	-13.16404	1.673811	0	11.29	4003	-11	0	5	5	0.3028688	0.8941354	8	10	0.03	1800	2.963387	40.92393	-91.39365
125201	-757	1268	-1964	-4.93576	-13.55619	2.094424	0	11.29	4002	-11	0	5	5	0.3028688	0.9395862	8	10	0.03	1800	2.963387	40.92393	-91.39365
125249	836	-559	-2251	-3.648352	-15.02777	3.171232	0	11.29	4003	-11	0	5	5	0.3028688	0.9562958	8	10	0.03	1800	1.557237	40.92393	-91.39365
125380	-298	-2460	1408	0.01557546	-10.76308	3.37663	0	11.29	4004	-13	0	5	5	0.3028688	1.193245	8	10	0.03	1800	-1.548401	40.92393	-91.39365
125492	-1300	-2854	1069	-1.128907	-5.449821	1.30048	0	11.29	4004	-5	0	5	5	0.3028688	1.236847	8	10	0.03	1800	-0.1227722	40.92393	-91.39364
125576	1623	24	188	1.29495	-4.99441	0.2019184	0	11.29	4002	-5	0	5	5	0.3028688	1.308861	8	10	0.03	1800	-0.5682678	40.92393	-91.39364
125676	-4713	-1619	-118	-1.709677	-4.921718	-0.1267668	0	11.29	4004	0	0	5	5	0.3028688	1.390668	8	10	0.03	1800	1.206116	40.92393	-91.39363
125790	-781	425	1767	-4.690777	-3.81577	0.6945143	0	11.29	4004	0	0	5	5	0.3028688	1.498737	8	10	0.03	1800	-2.443481	40.92393	-91.39363
125865	-1982	474	655	-6.964361	-5.539267	1.636513	0	11.68	4004	0	0	5	5	0.3028688	1.648621	8	10	0.03	1800	-3.580536	40.92393	-91.39363
125965	-820	-437	1043	-8.191542	-5.291248	1.358813	0	11.68	4004	0	0	5	5	0.3028688	1.74251	8	10	0.03	1800	-5.654053	40.92393	-91.39363
126097	-344	-2405	797	-7.79065	-3.056139	-0.03878916	0	11.68	4003	0	0	5	5	0.3028688	1.91739	8	10	0.03	1800	-7.959686	40.92393	-91.39363
126208	-889	-1540	-1110	-6.207142	-1.291003	0.5193615	0	11.68	4004	0	0	5	5	0.3028688	2.018263	3	10	0.03	1800	-11.51392	40.92393	-91.39362
126271	-225	-727	-564	-6.444418	-0.5467802	0.6277819	0	11.68	4002	0	0	5	5	0.3028688	2.071601	3	10	0.03	1800	-11.51392	40.92393	-91.39362
126410	273	33	297	-5.255808	-0.09737217	0.7154445	0	11.68	4002	0	0	5	5	0.3028688	2.177604	3	10	0.03	1800	-16.21817	40.92393	-91.39362
126469	-1186	-611	-15	-4.966219	0.4526155	0.4781317	0	11.68	4003	0	0	5	5	0.3028688	2.200457	3	10	0.03	1800	-20.13565	40.92393	-91.39362
126604	-1806	2492	-1229	-6.345285	-1.627009	0.6045687	0	11.68	4003	0	0	5	5	0.3028688	2.242158	3	10	0.03	1800	-20.08154	40.92394	-91.39362
126667	648	-56	687	-6.367405	-4.430023	0.6039242	0	11.68	4002	0	0	5	5	0.3028688	2.249025	3	10	0.03	1800	-23.62863	40.92394	-91.39362
126777	4398	2014	1256	-3.224079	-4.629946	1.225922	0	10.83	4003	0	0	5	5	0.3028688	2.277913	3	10	0.03	1800	-26.52869	40.92394	-91.39362
126890	575	1218	2502	0.3878276	-4.607899	0.9623312	0	10.83	4002	0	0	5	5	0.3028688	2.284967	3	10	0.03	1800	-26.85165	40.92394	-91.39362
127002	-939	-3711	-1546	-1.694423	-0.4004316	3.677239	0	10.83	4004	0	0	5	5	0.3028688	2.279923	3	10	0.03	1800	-24.6055	40.92394	-91.39362
127117	774	1712	1573	-0.6542627	1.228942	3.952643	0	10.83	4004	0	0	5	5	0.3028688	2.264958	3	10	0.03	1800	-28.20203	40.92394	-91.39362
127203	2410	-797	1930	1.547899	-0.3952081	1.23774	0	10.83	4002	0	0	5	5	0.3028688	2.255093	3	10	0.03	1800	-26.70062	40.92394	-91.39362
127320	2389	-25	399	6.246905	1.095469	-0.6289209	0	10.83	4004	0	0	5	5	0.3028688	2.242805	3	10	0.03	1800	-24.25638	40.92394	-91.39362
127430	1788	2562	814	8.389651	-2.157011	0.05023646	0	10.83	4003	0	0	5	5	0.3028688	2.234693	3	10	0.03	1800	-20.84796	40.92394	-91.39362
127477	-1141	1243	-151	7.774537	-3.997637	0.4197565	0	10.83	4002	0	0	5	5	0.3028688	2.226929	3	10	0.03	1800	-16.24048	40.92394	-91.39362
127633	-446	3251	-81	3.431386	-8.361672	0.8474406	0	10.83	4004	0	0	5	5	0.3028688	2.200106	3	10	0.03	1800	-11.78372	40.92394	-91.39362
127697	1298	1641	-1882	3.907876	-11.06373	1.334991	0	11.63	4002	0	0	5	5	0.3028688	2.176526	3	10	0.03	1800	-12.93213	40.92393	-91.39362
127792	-1474	-3909	-342	2.060008	-7.827896	1.058422	0	11.63	4002	0	0	5	5	0.3028688	2.108016	3	10	0.03	1800	-8.812988	40.92393	-91.39362
127982	-1128	963	-453	1.602022	-7.881757	0.5530003	0	11.63	4004	0	0	5	5	0.3028688	2.018852	3	10	0.03	1800	-10.15582	40.92393	-91.39363
128052	-473	-1613	1375	0.6749623	-6.666172	0.2048198	0	11.63	4003	0	0	5	5	0.3028688	1.968245	3	10	0.03	1800	-8.764252	40.92393	-91.39363
128119	256	-1511	330	0.2806922	-3.883387	0.2061692	0	11.63	4002	0	0	5	5	0.3028688	1.916199	3	10	0.03	1800	-8.067169	40.92393	-91.39363
128281	2282	3619	-1594	0.7095067	-5.759117	0.7264912	0	11.63	4003	0	0	5	5	0.3028688	1.827298	3	10	0.03	1800	-5.555939	40.92393	-91.39363
128376	3506	2497	-423	6.403284	-11.59774	3.040098	0	11.63	4004	0	0	5	5	0.3028688	1.729143	3	10	0.03	1800	-5.703674	40.92393	-91.39363
128489	6106	1647	977	5.209354	-6.766925	3.598449	0	11.63	4003	0	0	5	5	0.3028688	1.65982	3	10	0.03	1800	-1.853149	40.92393	-91.39363
128524	4676	1627	1011	7.070715	-7.185153	3.804624	0	11.63	4004	0	0	5	5	0.3028688	1.642166	3	10	0.03	1800	-1.853149	40.92393	-91.39363
128644	-4755	-2921	3	0.09767602	-7.235906	1.746695	0	10.66	4003	0	0	5	5	0.3028688	1.566664	3	10	0.03	1800	3.161669	40.92393	-91.39363
128708	-3031	-3833	-1657	-1.332537	-5.805539	1.456103	0	10.66	4003	0	0	5	5	0.3028688	1.474889	3	10	0.03	1800	1.032632	40.92393	-91.39363
128812	-3111	-1930	-947	-4.133233	-3.650979	1.878475	0	10.66	4004	0	0	5	5	0.3028688	1.406853	3	10	0.03	1800	-0.5752563	40.92393	-91.39363
128979	1148	1543	223	-6.528111	-4.701678	4.024599	0	10.66	4003	0	0	5	5	0.3028688	1.307071	3	10	0.03	1800	-3.457428	40.92392	-91.39362
129014	-2735	831	627	-6.971572	-5.234644	3.693655	0	10.66	4003	0	0	5	5	0.3028688	1.282093	3	10	0.03	1800	-3.457428	40.92392	-91.39362
129153	1727	-3015	-1119	-8.488472	-0.4484581	0.3599112	0	10.66	4004	0	0	5	5	0.3028688	1.230528	3	10	0.03	1800	-6.88089	40.92392	-91.39362
129262	743	-284	1045	-6.303043	0.2445892	-0.2032934	0	10.66	4004	0	0	5	5	0.3028688	1.205826	3	10	0.03	1800	-8.644653	40.92392	-91.39362
129348	1	2053	-602	-4.34258	-3.786428	0.5937527	0	10.66	4002	0	0	5	5	0.3028688	1.182787	3	10	0.03	1800	-8.958893	40.92392	-91.39362
129444	-27	521	-459	-3.528476	-7.36655	2.161673	0	10.66	4003	0	0	5	5	0.3028688	1.157798	3	10	0.03	1800	-10.5567	40.92392	-91.39362
129632	-972	1112	1074	-3.771947	-8.366566	0.6294482	0	10.89	4002	0	0	5	5	0.3028688	1.153266	3	10	0.03	1800	-12.14749	40.92392	-91.39362
129759	-597	289	1303	-4.684774	-8.786167	-0.07509816	0	10.89	4004	0	0	5	5	0.3028688	1.145307	3	10	0.03	1800	-12.63623	40.92392	-91.39362
129806	97	1944	-822	-4.828063	-9.176426	0.04737447	0	10.89	4003	0	0	5	5	0.3028688	1.143933	3	10	0.03	1800	-12.95944	40.92392	-91.39362
129899	-489	2775	141	-3.954432	-13.5452	0.6553969	0	10.89	4002	0	0	5	5	0.3028688	1.135914	3	10	0.03	1800	-13.349	40.92392	-91.39362
129997	3279	1237	-2032	-3.707851	-16.44761	1.767524	0	10.89	4002	0	0	5	5	0.3028688	1.125865	3	10	0.03	1800	-15.32266	40.92391	-91.39362
130107	904	-914	-763	-0.07496037	-15.46192	3.962208	0	10.89	4003	0	0	5	5	0.3028688	1.103743	3	10	0.03	1800	-15.77002	40.92391	-91.39362
130204	-3187	-5305	-1644	-6.65997	-5.059393	4.734103	0	10.89	4002	0	0	5	5	0.3028688	1.092452	3	10	0.03	1800	-17.3909	40.92391	-91.39362
130260	836	-1846	1448	-6.8826	-0.7219855	4.517872	0	10.89	4003	0	0	5	5	0.3028688	1.077322	3	10	0.03	1800	-18.63412	40.92391	-91.39362
130386	1562	1394	2186	-4.234247	-1.567763	1.609858	0	10.89	4004	0	0	5	5	0.3028688	1.051599	3	10	0.03	1800	-17.04962	40.92391	-91.39363
130525	4208	4362	-1327	0.9223509	-4.685028	-0.2880114	0	10.66	4003	0	0	5	5	0.3028688	1.030514	3	10	0.03	1800	-17.58774	40.92391	-91.39363
130602	3388	2275	-2048	4.288791	-9.003448	1.163134	0	10.66	4002	0	0	5	5	0.3028688	1.016672	3	10	0.03	1800	-14.24631	40.92391	-91.39363
130680	2269	2942	-515	6.938347	-12.01802	2.517867	0	10.66	4004	0	0	5	5	0.3028688	1.001461	3	10	0.03	1800	-12.88138	40.92391	-91.39363
130756	9	223	1007	7.309661	-13.38803	2.18716	0	10.66	4002	0	0	5	5	0.3028688	0.9781997	3	10	0.03	1800	-10.39905	40.92391	-91.39363
130936	-46	-1021	704	6.21288	-8.482008	0.65094	0	10.66	4002	0	0	5	5	0.3028688	0.9201025	3	10	0.03	1800	-5.341492	40.92391	-91.39363
131002	-712	-1381	1344	4.881506	-7.702314	0.7395905	0	10.66	4003	0	0	5	5	0.3028688	0.9012965	3	10	0.03	1800	-5.341492	40.92391	-91.39363
131079	113	-742	-432	4.110346	-7.209022	1.129956	0	10.66	4003	0	0	5	5	0.3028688	0.8914803	3	10	0.03	1800	-4.883759	40.92391	-91.39363
131147	-720	-1498	1932	3.70893	-5.506835	1.048719	0	10.66	4002	0	0	5	5	0.3028688	0.8820381	3	10	0.03	1800	-2.969757	40.92391	-91.39363
131304	208	-906	217	1.043881	-5.36574	0.06539228	0	10.66	4003	0	0	5	5	0.3028688	0.8427235	3	10	0.03	1800	-1.207092	40.92391	-91.39364
131393	-1192	-422	-1636	0.9421179	-2.899499	0.3184182	0	11.51	4003	0	0	5	5	0.3028688	0.8260596	3	10	0.03	1800	-0.3171082	40.92391	-91.39364
131493	347	2878	370	-1.394128	-11.33841	1.647691	0	11.51	4003	0	0	5	5	0.3028688	0.7723264	3	10	0.03	1800	-2.239594	40.92391	-91.39364
131560	1067	1655	532	-0.8227963	-12.29332	1.236694	0	11.51	4002	0	0	5	5	0.3028688	0.7357442	3	10	0.03	1800	-2.239594	40.92391	-91.39364
131652	-1523	-2046	398	-1.44558	-5.160602	1.561464	0	11.51	4004	0	0	5	5	0.3028688	0.6876822	3	10	0.03	1800	-3.706696	40.92391	-91.39364
131758	85	281	28	-1.054731	-4.847911	1.460892	0	11.51	4003	0	0	5	5	0.3028688	0.6328871	3	10	0.03	1800	-2.441223	40.92391	-91.39364
131887	35	48	77	-0.967755	-3.982826	1.447256	0	11.51	4002	0	0	5	5	0.3028688	0.5484859	3	10	0.03	1800	-3.13797	40.92391	-91.39364
131949	-67	-6	13	-0.7195518	-3.524998	1.411493	0	11.51	4003	0	0	5	5	0.3028688	0.509409	3	10	0.03	1800	-3.899811	40.92391	-91.39364
132123	-76	23	78	-0.4517196	-2.978999	1.383988	0	11.51	4004	0	0	5	5	0.3028688	0.4203025	3	10	0.03	1800	-3.946381	40.92391	-91.39364
132154	-76	23	78	-0.3997313	-2.842362	1.3728	0	11.51	4004	0	0	5	5	0.3028688	0.408807	3	10	0.03	1800	-4.185516	40.92391	-91.39364
132257	-106	18	48	-0.1481594	-2.404594	1.338384	0	11.51	4003	0	0	5	5	0.3028688	0.3418736	3	10	0.03	1800	-4.467194	40.92391	-91.39364
132406	-103	1	-23	0.01988403	-2.029741	1.306412	0	11.74	4004	0	0	5	5	0.3028688	0.2883613	3	10	0.03	1800	-5.155273	40.92391	-91.39364
132485	-84	0	1	0.1167378	-1.777851	1.276883	0	11.74	4005	0	0	5	5	0.3028688	0.2460634	3	10	0.03	1800	-4.841034	40.92391	-91.39364
132556	-93	8	24	0.1824609	-1.62472	1.257257	0	11.74	4004	0	0	5	5	0.3028688	0.2266401	3	10	0.03	1800	-4.72699	40.92391	-91.39364
132657	-97	5	30	0.2855698	-1.431147	1.231093	0	11.74	4002	0	0	5	5	0.3028688	0.2143029	3	10	0.03	1800	-4.824738	40.92391	-91.39364
132826	-94	7	7	0.4109623	-1.161457	1.188114	0	11.74	4003	0	0	5	5	0.3028688	0.1739441	3	10	0.03	1800	-5.018768	40.92391	-91.39364
132966	-109	5	22	0.5186021	-0.9458908	1.145443	0	11.74	4004	0	0	5	5	0.3028688	0.1571327	3	10	0.03	1800	-5.368103	40.92391	-91.39364
133014	-98	7	16	0.5346749	-0.9066394	1.135661	0	11.74	4003	0	0	5	5	0.3028688	0.1413687	3	10	0.03	1800	-5.368103	40.92391	-91.39364
133142	-102	1	8	0.5821126	-0.7967092	1.113405	0	11.74	4002	0	0	5	5	0.3028688	0.1279719	3	10	0.03	1800	-5.460297	40.92391	-91.39364
133217	-98	8	23	0.6253276	-0.7088613	1.089744	0	11.74	4004	0	0	5	5	0.3028688	0.1204221	3	10	0.03	1800	-5.562195	40.92391	-91.39364
133275	-99	6	17	0.6518696	-0.6464677	1.073421	0	11.74	4003	0	0	5	5	0.3028688	0.1165634	3	10	0.03	1800	-5.381653	40.92391	-91.39364
133484	-102	3	15	0.7166426	-0.5282322	1.022739	0	11.74	4002	0	0	5	5	0.3028688	0.1034863	3	10	0.03	1800	-5.683105	40.92391	-91.39364
133591	-94	0	17	0.7411838	-0.4781176	1.000179	0	11.74	4004	0	0	5	5	0.3028688	0.1017787	3	10	0.03	1800	-5.72995	40.92391	-91.39364
133689	-98	-2	22	0.7657415	-0.435872	0.9759692	0	11.74	4002	0	0	5	5	0.3028688	0.1073873	3	10	0.03	1800	-5.720184	40.92391	-91.39364
133758	-99	7	14	0.7834095	-0.3934689	0.9527376	0	11.74	4003	0	0	5	5	0.3028688	0.1103951	3	10	0.03	1800	-5.769836	40.92391	-91.39364
133904	-92	2	15	0.8044525	-0.3530897	0.9296897	0	11.74	4004	0	0	5	5	0.3028688	0.1096448	3	10	0.03	1800	-5.807922	40.92391	-91.39364
134020	-93	1	12	0.8321731	-0.3163589	0.9007711	0	11.74	4003	0	0	5	5	0.3028688	0.09610496	3	10	0.03	1800	-5.615723	40.92391	-91.39364
134109	-98	7	15	0.8521308	-0.2942954	0.8792521	0	11.74	4003	0	0	5	5	0.3028688	0.0840275	3	10	0.03	1800	-5.862854	40.92391	-91.39364
134206	-94	1	13	0.8498449	-0.2791107	0.8654356	0	11.8	4004	0	0	5	5	0.3028688	0.0722263	3	10	0.03	1800	-5.875732	40.92391	-91.39364
134290	-105	-2	12	0.868179	-0.253823	0.8425097	0	11.8	4003	0	0	5	5	0.3028688	0.06663697	3	10	0.03	1800	-5.888458	40.92391	-91.39364
134405	-97	0	12	0.8777372	-0.2325626	0.8217822	0	11.8	4003	0	0	5	5	0.3028688	0.06095017	3	10	0.03	1800	-5.903595	40.92391	-91.39364
134592	-97	7	9	0.9121131	-0.2040687	0.7794758	0	11.8	4002	0	0	5	5	0.3028688	0.04589387	3	10	0.03	1800	-5.953156	40.92391	-91.39364
134702	-98	1	12	0.919755	-0.1852189	0.759361	0	11.8	4002	0	0	5	5	0.3028688	0.03590636	3	10	0.03	1800	-5.960022	40.92391	-91.39364
134781	-93	2	10	0.9324136	-0.1804369	0.7386977	0	11.8	4003	-5	-5	5	5	0.3028688	0.01381039	8	10	0.03	1800	-5.9729	40.92391	-91.39364
134889	-96	12	11	0.9436986	-0.1685326	0.7191945	0	11.8	4003	-5	-5	5	5	0.3028688	-0.0002395554	8	10	0.03	1800	-5.989471	40.92391	-91.39364
135001	-101	10	12	0.9535361	-0.1601434	0.7064166	0	11.8	4004	-5	-5	5	5	0.3028688	-0.02352463	8	10	0.03	1800	-6.004791	40.92391	-91.39364
135142	-88	0	8	0.9699997	-0.1470305	0.666251	0	11.8	4003	-5	-5	5	5	0.3028688	-0.05339561	8	10	0.03	1800	-5.994873	40.92391	-91.39364
135220	-93	3	13	0.9727805	-0.1419525	0.6535956	0	11.8	4004	0	0	5	5	0.3028688	-0.06340744	8	10	0.03	1800	-6.040131	40.92391	-91.39364
135283	-95	4	12	0.9779425	-0.1344039	0.6392278	0	11.8	4002	0	0	5	5	0.3028688	-0.06962526	8	10	0.03	1800	-6.041656	40.92391	-91.39364
135417	-87	6	11	0.9764804	-0.1198133	0.6152034	0	11.8	4002	0	0	5	5	0.3028688	-0.06632723	8	10	0.03	1800	-6.039368	40.92391	-91.39364
135520	-87	-3	13	0.982374	-0.1183338	0.5949062	0	11.8	4002	0	0	5	5	0.3028688	-0.06117558	8	10	0.03	1800	-6.049164	40.92391	-91.39364
135581	-92	7	13	0.9790078	-0.1135524	0.5830469	0	11.8	4004	0	0	5	5	0.3028688	-0.05412539	8	10	0.03	1800	-6.022278	40.92391	-91.39364
135675	-92	4	15	0.985654	-0.1171625	0.5626287	0	11.8	4002	0	0	5	5	0.3028688	-0.04208482	8	10	0.03	1800	-6.076233	40.92391	-91.39364
135791	-97	4	6	0.9976249	-0.1093822	0.5362806	0	11.8	4004	0	0	5	5	0.3028688	-0.03508994	8	10	0.03	1800	-6.041077	40.92391	-91.39364
135884	-94	3	17	0.9986756	-0.1075883	0.5219131	0	11.8	4003	0	0	5	5	0.3028688	-0.02888168	8	10	0.03	1800	-6.051239	40.92391	-91.39364
136015	-85	3	13	1.005009	-0.1068609	0.5030829	0	11.91	4002	0	0	5	5	0.3028688	-0.02371149	8	10	0.03	1800	-6.10675	40.92391	-91.39364
136114	-91	4	14	1.009948	-0.09509339	0.4762451	0	11.91	4003	0	0	5	5	0.3028688	-0.02160695	8	10	0.03	1800	-6.053925	40.92391	-91.39364
136317	-92	3	13	1.002342	-0.0952298	0.4415812	0	11.91	4004	0	0	5	5	0.3028688	-0.01636814	1	10	0.03	1800	-6.077148	40.92392	-91.39364
136478	-82	4	8	1.010956	-0.09228442	0.4116867	0	11.91	4002	0	0	5	5	0.3028688	-0.009850403	1	10	0.03	1800	-6.069702	40.92392	-91.39364
136559	-93	4	10	1.006208	-0.09355279	0.3987864	0	11.91	4003	0	0	5	5	0.3028688	-0.007215059	1	10	0.03	1800	-6.086548	40.92392	-91.39364
136599	-91	-2	11	1.015162	-0.0974732	0.3800181	0	11.91	4004	0	0	5	5	0.3028688	-0.006506141	1	10	0.03	1800	-6.074554	40.92392	-91.39364
136754	-84	0	11	1.00816	-0.09292047	0.3572746	0	11.91	4002	0	0	5	5	0.3028688	-0.01167866	1	10	0.03	1800	-6.089996	40.92392	-91.39364
136809	-90	5	14	1.011904	-0.09257085	0.3510384	0	11.91	4003	0	0	5	5	0.3028688	-0.01279733	1	10	0.03	1800	-5.868713	40.92392	-91.39364
136942	-87	10	12	1.015215	-0.09862466	0.3270127	0	11.85	4002	0	0	5	5	0.3028688	-0.003023358	1	10	0.03	1800	-6.322449	40.92392	-91.39364
137055	-85	1	12	1.02145	-0.09670642	0.3111788	0	11.85	4003	0	0	5	5	0.3028688	-0.0003336872	1	10	0.03	1800	-6.107971	40.92392	-91.39364
137142	-84	1	12	1.017877	-0.09577236	0.2884368	0	11.85	4002	0	0	5	5	0.3028688	0.00263321	1	10	0.03	1800	-6.104889	40.92392	-91.39364
137202	-86	12	7	1.015572	-0.09437738	0.2814058	0	11.85	4002	0	0	5	5	0.3028688	0.005854379	1	10	0.03	1800	-6.074097	40.92392	-91.39364
137373	-243	159	105	1.11239	-0.4389341	0.03380499	0	11.85	4003	0	0	5	5	0.3028688	0.01836278	1	10	0.03	1800	-6.142792	40.92392	-91.39364
137454	-350	2715	424	0.9190149	-1.039032	-0.2424026	0	11.85	4003	0	0	5	5	0.3028688	0.02649315	1	10	0.03	1800	-5.766479	40.92392	-91.39364
137590	1629	-1860	-2584	-3.702205	6.723654	2.479855	0	11.85	4003	0	0	5	5	0.3028688	0.04338904	1	10	0.03	1800	-4.512115	40.92392	-91.39364
137645	2768	-716	-2933	-2.325061	7.604964	4.061265	0	11.85	4003	0	0	5	5	0.3028688	0.05998366	1	10	0.03	1800	-4.512115	40.92392	-91.39364
137724	2425	-365	-1191	0.8445806	8.224238	6.416405	0	11.85	4002	0	0	5	5	0.3028688	0.08012551	1	10	0.03	1800	-7.083405	40.92392	-91.39364
137865	547	-1366	3334	1.951586	12.94182	3.078084	0	11.85	4004	0	0	5	5	0.3028688	0.1231342	1	10	0.03	1800	-2.214844	40.92392	-91.39364
137892	149	-1845	3520	1.660367	14.10355	1.163043	0	11.85	4004	0	0	5	5	0.3028688	0.1313065	1	10	0.03	1800	-2.214844	40.92392	-91.39364
137994	-1635	-1034	2412	-1.183582	16.81489	-4.207373	0	11.85	4003	0	0	5	5	0.3028688	0.1673169	1	10	0.03	1800	0.956096	40.92392	-91.39364
138162	-2389	1261	-4096	-5.16093	20.23514	-0.04514062	0	11.85	4004	0	0	5	5	0.3028688	0.2714528	1	10	0.03	1800	-1.443787	40.92393	-91.39364
138289	-575	-1010	-1408	-1.899091	18.64053	6.29404	0	11.85	4002	0	0	5	5	0.3028688	0.3217299	1	10	0.03	1800	-10.0863	40.92393	-91.39364
138444	523	1644	1151	0.384537	14.41302	5.972756	0	11.85	4004	0	0	5	5	0.3028688	0.3958876	1	10	0.03	1800	-12.96396	40.92393	-91.39364
138508	647	2615	1453	0.6974452	13.2055	5.243724	0	11.85	4003	0	0	5	5	0.3028688	0.4253518	1	10	0.03	1800	-12.83762	40.92393	-91.39364
138591	909	2931	672	2.23561	6.625457	3.183184	0	11.85	4003	0	0	5	5	0.3028688	0.4542452	1	10	0.03	1800	-11.78192	40.92393	-91.39363
138703	-221	770	1259	3.200344	1.473585	2.921114	0	11.85	4002	0	0	5	5	0.3028688	0.4992496	1	10	0.03	1800	-10.1344	40.92393	-91.39363
138793	-811	-1367	1792	2.036523	0.5402117	0.6985929	0	11.85	4003	0	0	5	5	0.3028688	0.5234978	1	10	0.03	1800	-8.137299	40.92393	-91.39363
138929	-769	1880	2609	2.113471	-0.03105479	-3.314423	0	11.85	4004	0	0	5	5	0.3028688	0.5486526	1	10	0.03	1800	-7.370178	40.92393	-91.39363
138993	-885	-523	854	0.04887789	-0.9647446	-6.186813	0	11.85	4003	0	0	5	5	0.3028688	0.5506762	1	10	0.03	1800	-2.744446	40.92393	-91.39363
139115	-176	-307	-190	0.3044303	-1.826559	-6.092278	0	11.85	4004	0	0	5	5	0.3028688	0.5406848	1	10	0.03	1800	-3.910522	40.92393	-91.39364
139225	-566	820	-2640	-1.045668	-1.964162	-4.331913	0	11.85	4003	0	0	5	5	0.3028688	0.5271547	1	10	0.03	1800	-4.082245	40.92393	-91.39364
139354	-226	440	1061	-0.6458116	-1.048211	-0.8264261	0	11.85	4003	0	0	5	5	0.3028688	0.5096352	1	10	0.03	1800	-7.106049	40.92393	-91.39363
139406	-85	-36	786	-0.2309045	-1.100546	-1.681372	0	11.85	4002	0	0	5	5	0.3028688	0.5017807	1	10	0.03	1800	-7.106049	40.92393	-91.39363
139588	-161	465	81	-0.2185323	-0.03297577	-1.569803	0	11.85	4004	0	0	5	5	0.3028688	0.4879179	1	10	0.03	1800	-6.488129	40.92393	-91.39363
139626	-117	77	-82	-0.3901459	-0.4426288	-1.585518	0	11.85	4004	0	0	5	5	0.3028688	0.4847367	1	10	0.03	1800	-6.488129	40.92393	-91.39363
139713	84	-451	24	-0.5906789	-0.5722942	-1.594814	0	11.91	4002	0	0	5	5	0.3028688	0.4771037	1	10	0.03	1800	-6.310272	40.92393	-91.39363
139851	-287	216	-32	-0.4850301	-0.1501141	-1.60117	0	11.91	4003	0	0	5	5	0.3028688	0.4424436	1	10	0.03	1800	-6.060394	40.92392	-91.39363
139922	-274	287	15	-0.7716721	-0.3086707	-1.63675	0	11.91	4003	0	0	5	5	0.3028688	0.4327061	1	10	0.03	1800	-5.992981	40.92392	-91.39363
140042	5	-137	-18	-0.9214289	-0.4470109	-1.665307	0	11.91	4002	0	0	5	5	0.3028688	0.4157062	1	10	0.03	1800	-5.676178	40.92392	-91.39363
140132	-122	74	-3	-0.9496219	-0.3078825	-1.675704	0	11.91	4004	0	0	5	5	0.3028688	0.4034297	1	10	0.03	1800	-5.729248	40.92392	-91.39363
140275	-123	43	-3	-1.1107	-0.3194708	-1.706886	0	11.91	4002	0	0	5	5	0.3028688	0.3678125	1	10	0.03	1800	-5.437775	40.92392	-91.39363
140396	-92	19	18	-1.15087	-0.2799327	-1.724372	0	11.91	4003	0	0	5	5	0.3028688	0.3499151	1	10	0.03	1800	-5.570435	40.92392	-91.39363
140507	-78	2	13	-1.220937	-0.2503532	-1.744425	0	11.91	4004	0	0	5	5	0.3028688	0.3409789	1	10	0.03	1800	-5.737366	40.92392	-91.39363
140540	-85	0	0	-1.225899	-0.2319988	-1.750662	0	11.91	4004	0	0	5	5	0.3028688	0.3381611	1	10	0.03	1800	-5.737366	40.92392	-91.39363
140625	-88	14	0	-1.255177	-0.206387	-1.764846	0	11.91	4002	0	0	5	5	0.3028688	0.3310581	1	10	0.03	1800	-5.434021	40.92392	-91.39363
140762	-77	-1	14	-1.286458	-0.1746746	-1.779824	0	11.91	4006	0	0	5	5	0.3028688	0.3423665	1	10	0.03	1800	-5.380554	40.92392	-91.39363
140843	-78	1	10	-1.304469	-0.1456319	-1.800305	0	11.91	4002	0	0	5	5	0.3028688	0.3515587	1	10	0.03	1800	-4.912292	40.92392	-91.39363
140971	-78	3	9	-1.319499	-0.1258142	-1.815834	0	11.91	4003	0	0	5	5	0.3028688	0.370189	1	10	0.03	1800	-5.088898	40.92392	-91.39363
141080	-79	10	5	-1.337919	-0.1125471	-1.835522	0	11.91	4003	0	0	5	5	0.3028688	0.3823039	1	10	0.03	1800	-5.065979	40.92392	-91.39363
141123	-88	2	11	-1.344571	-0.1098487	-1.840536	0	11.91	4004	0	0	5	5	0.3028688	0.3827564	1	10	0.03	1800	-5.065979	40.92392	-91.39363
141260	-92	12	8	-1.368102	-0.08723308	-1.866028	0	11.91	4004	0	0	5	5	0.3028688	0.3796939	1	10	0.03	1800	-5.023315	40.92392	-91.39363
141364	-88	5	7	-1.382916	-0.07647241	-1.88223	0	11.91	4004	0	0	5	5	0.3028688	0.3716841	1	10	0.03	1800	-5.004211	40.92392	-91.39363
141430	-83	1	5	-1.382956	-0.07126529	-1.886814	0	11.91	4004	0	0	5	5	0.3028688	0.36732	1	10	0.03	1800	-5.194916	40.92392	-91.39363
141607	-85	1	9	-1.404967	-0.05186817	-1.920745	0	11.85	4003	0	0	5	5	0.3028688	0.3448946	1	10	0.03	1800	-5.204285	40.92392	-91.39363
141726	-85	3	10	-1.416262	-0.04708282	-1.942449	0	11.85	4003	0	0	5	5	0.3028688	0.3317509	1	10	0.03	1800	-5.158691	40.92392	-91.39363
141745	-78	-2	11	-1.419588	-0.04770202	-1.947829	0	11.85	4003	0	0	5	5	0.3028688	0.3232344	1	10	0.03	1800	-4.933167	40.92392	-91.39363
141921	-84	4	8	-1.42156	-0.03741779	-1.968678	0	11.85	4004	0	0	5	5	0.3028688	0.3008865	1	10	0.03	1800	-5.138245	40.92392	-91.39363
141951	-85	15	6	-1.421559	-0.03615561	-1.97363	0	11.85	4004	0	0	5	5	0.3028688	0.2911627	1	10	0.03	1800	-5.138245	40.92392	-91.39363
142073	-74	5	6	-1.418867	-0.03334193	-1.993743	0	11.85	4002	0	0	5	5	0.3028688	0.2776716	1	10	0.03	1800	-4.937134	40.92392	-91.39363
142171	-80	5	9	-1.416223	-0.02828105	-2.00542	0	11.85	4002	0	0	5	5	0.3028688	0.2667293	1	10	0.03	1800	-5.15979	40.92392	-91.39363
142319	-74	11	15	-1.416121	-0.0234687	-2.032137	0	11.85	4004	0	0	5	5	0.3028688	0.2506074	1	10	0.03	1800	-5.141388	40.92392	-91.39363
142430	-82	6	13	-1.414864	-0.021347	-2.046503	0	11.85	4002	0	0	5	5	0.3028688	0.2454622	1	10	0.03	1800	-4.952759	40.92392	-91.39363
142463	-77	8	8	-1.413632	-0.02366272	-2.051271	0	11.85	4004	0	0	5	5	0.3028688	0.2455013	1	10	0.03	1800	-4.952759	40.92392	-91.39363
142573	-84	9	6	-1.418506	-0.02082087	-2.07163	0	11.91	4004	0	0	5	5	0.3028688	0.2466775	1	10	0.03	1800	-4.953156	40.92392	-91.39363
142724	-79	1	3	-1.417277	-0.01597479	-2.091804	0	11.91	4002	0	0	5	5	0.3028688	0.260461	1	10	0.03	1800	-5.162262	40.92392	-91.39363
142791	-85	4	9	-1.410858	-0.01893332	-2.106905	0	11.91	4002	0	0	5	5	0.3028688	0.263048	1	10	0.03	1800	-5.148132	40.92392	-91.39363
142868	-83	-1	6	-1.408683	-0.0162146	-2.117115	0	11.91	4004	0	0	5	5	0.3028688	0.2757646	1	10	0.03	1800	-4.939545	40.92392	-91.39363
142951	-80	4	8	-1.412852	-0.01681827	-2.125552	0	11.91	4002	0	0	5	5	0.3028688	0.2807907	1	10	0.03	1800	-4.933807	40.92392	-91.39363
143072	-75	2	6	-1.40898	-0.01527993	-2.14695	0	11.91	4003	0	0	5	5	0.3028688	0.288987	1	10	0.03	1800	-4.939301	40.92392	-91.39363
143152	-78	-6	8	-1.417356	-0.009677171	-2.162603	0	11.91	4003	0	0	5	5	0.3028688	0.2914006	1	10	0.03	1800	-4.719543	40.92392	-91.39363
143285	-76	-1	15	-1.415475	-0.003753868	-2.184245	0	11.91	4003	0	0	5	5	0.3028688	0.2834517	1	10	0.03	1800	-5.149994	40.92392	-91.39363
143432	-75	2	6	-1.414233	0.005701522	-2.204543	0	11.91	4004	0	0	5	5	0.3028688	0.2768756	1	10	0.03	1800	-5.16452	40.92392	-91.39363
143519	-69	1	11	-1.411136	0.007752237	-2.216403	0	11.91	4002	0	0	5	5	0.3028688	0.2805246	1	10	0.03	1800	-4.933777	40.92392	-91.39363
143690	-76	3	5	-1.407814	0.004436208	-2.243242	0	11.91	4004	0	0	5	5	0.3028688	0.2818984	1	10	0.03	1800	-4.919281	40.92392	-91.39363
143815	-76	6	10	-1.401197	0.004580745	-2.266169	0	11.91	4002	0	0	5	5	0.3028688	0.2867925	1	10	0.03	1800	-4.967621	40.92392	-91.39363
143900	-77	7	15	-1.395881	0.003024254	-2.276868	0	11.91	4004	0	0	5	5	0.3028688	0.29096	1	10	0.03	1800	-4.973328	40.92392	-91.39363
143984	-80	1	12	-1.396042	0.002349691	-2.287263	0	11.91	4005	0	0	5	5	0.3028688	0.2913043	1	10	0.03	1800	-5.16806	40.92392	-91.39363
144079	-72	3	4	-1.396905	-0.002732741	-2.306703	0	11.91	4002	0	0	5	5	0.3028688	0.2865203	1	10	0.03	1800	-4.949188	40.92392	-91.39363
144186	-78	0	9	-1.393592	-0.001769164	-2.31618	0	11.91	4004	0	0	5	5	0.3028688	0.276551	1	10	0.03	1800	-4.976227	40.92392	-91.39363
144303	-78	4	10	-1.39578	-0.003116914	-2.341552	0	11.91	4003	0	0	5	5	0.3028688	0.2732883	1	10	0.03	1800	-4.982758	40.92392	-91.39363
144414	-81	0	12	-1.391678	-0.000162214	-2.357141	0	11.91	4003	0	0	5	5	0.3028688	0.2706918	1	10	0.03	1800	-5.200195	40.92392	-91.39363
144509	-82	5	8	-1.389965	-0.0005287923	-2.367596	0	11.91	4003	0	0	5	5	0.3028688	0.2645636	1	10	0.03	1800	-5.182037	40.92392	-91.39363
144646	-79	3	14	-1.392293	-0.003776781	-2.391439	0	11.91	4002	0	0	5	5	0.3028688	0.2619739	1	10	0.03	1800	-5.205383	40.92392	-91.39363
144699	-82	3	6	-1.393792	-0.004423407	-2.396758	0	11.91	4004	0	0	5	5	0.3028688	0.2648125	1	10	0.03	1800	-4.756256	40.92392	-91.39363
144775	-81	11	7	-1.393247	-0.003336549	-2.409047	0	11.91	4004	0	0	5	5	0.3028688	0.2692004	1	10	0.03	1800	-4.961884	40.92392	-91.39363
144882	-78	2	4	-1.383769	0.004024521	-2.423658	0	11.91	4002	0	0	5	5	0.3028688	0.2747223	1	10	0.03	1800	-4.969391	40.92392	-91.39363
144990	-71	3	8	-1.381087	0.002014762	-2.440532	0	11.91	4002	0	0	5	5	0.3028688	0.2810556	1	10	0.03	1800	-5.19516	40.92392	-91.39363
145073	-74	4	16	-1.369393	0.004013489	-2.449152	0	11.91	4004	0	0	5	5	0.3028688	0.2835304	1	10	0.03	1800	-4.986328	40.92392	-91.39363
145246	-69	7	9	-1.36692	-0.001879121	-2.470794	0	11.91	4003	0	0	5	5	0.3028688	0.2895635	1	10	0.03	1800	-5.230591	40.92391	-91.39363
145325	-67	4	16	-1.360361	-0.00355554	-2.481614	0	11.91	4003	0	0	5	5	0.3028688	0.2872115	1	10	0.03	1800	-5.238556	40.92391	-91.39363
145433	-74	6	4	-1.352789	-0.008153912	-2.499956	0	11.91	4004	0	0	5	5	0.3028688	0.2813615	1	10	0.03	1800	-5.022064	40.92391	-91.39363
145528	-67	8	8	-1.355586	-0.008923549	-2.512979	0	11.91	4004	0	0	5	5	0.3028688	0.2743037	1	10	0.03	1800	-5.236633	40.92391	-91.39363
145570	-83	0	7	-1.355382	-0.01052263	-2.517503	0	11.91	4002	0	0	5	5	0.3028688	0.2718184	1	10	0.03	1800	-5.236633	40.92391	-91.39363
145696	-74	5	6	-1.346551	-0.008170336	-2.534316	0	11.91	4004	0	0	5	5	0.3028688	0.2560361	1	10	0.03	1800	-5.026398	40.92391	-91.39363
145817	-79	0	7	-1.345633	-0.005951107	-2.546971	0	11.91	4002	0	0	5	5	0.3028688	0.2444591	1	10	0.03	1800	-5.246521	40.92391	-91.39363
145883	-71	4	12	-1.341572	-0.006789334	-2.55706	0	11.91	4004	0	0	5	5	0.3028688	0.2360531	1	10	0.03	1800	-5.254883	40.92391	-91.39363
145979	-71	0	12	-1.3458	-0.009203985	-2.569532	0	11.91	4004	0	0	5	5	0.3028688	0.2112146	1	10	0.03	1800	-5.081146	40.92391	-91.39363
146096	-63	0	8	-1.342915	-0.01147996	-2.590563	0	11.91	4004	0	0	5	5	0.3028688	0.1874251	1	10	0.03	1800	-5.055695	40.92391	-91.39363
146199	-72	5	7	-1.341279	-0.008708715	-2.603035	0	11.85	4003	0	0	5	5	0.3028688	0.1634982	1	10	0.03	1800	-5.25473	40.92391	-91.39363
146367	-72	1	9	-1.339203	-0.005997023	-2.62107	0	11.85	4003	0	0	5	5	0.3028688	0.1408172	1	10	0.03	1800	-5.247406	40.92391	-91.39363
146429	-70	-4	9	-1.341829	-0.008107559	-2.629629	0	11.85	4003	0	0	5	5	0.3028688	0.1305687	1	10	0.03	1800	-5.045105	40.92391	-91.39363
146505	-71	9	8	-1.33304	-0.01052412	-2.644241	0	11.85	4002	0	0	5	5	0.3028688	0.1293905	1	10	0.03	1800	-5.289307	40.92391	-91.39363
146606	-79	8	5	-1.330772	-0.006195977	-2.65488	0	11.85	4003	0	0	5	5	0.3028688	0.1301495	1	10	0.03	1800	-5.271851	40.92391	-91.39363
146702	-65	6	5	-1.32912	-0.009005433	-2.670776	0	11.85	4004	0	0	5	5	0.3028688	0.1339688	1	10	0.03	1800	-5.29364	40.92391	-91.39363
146768	-71	4	6	-1.328786	-0.01144632	-2.674016	0	11.85	4003	0	0	5	5	0.3028688	0.1336193	1	10	0.03	1800	-5.29364	40.92391	-91.39363
146876	-82	5	8	-1.328219	-0.00613503	-2.690525	0	11.85	4004	0	0	5	5	0.3028688	0.1385201	1	10	0.03	1800	-5.078705	40.92391	-91.39363
147051	-68	-7	4	-1.325902	-0.005383407	-2.712475	0	11.97	4003	0	0	5	5	0.3028688	0.1524582	1	10	0.03	1800	-5.270264	40.92391	-91.39363
147147	-65	2	9	-1.318961	-0.006234241	-2.724947	0	11.97	4003	0	0	5	5	0.3028688	0.1538295	1	10	0.03	1800	-5.081604	40.92391	-91.39363
147201	-77	0	5	-1.31762	-0.003862094	-2.729593	0	11.97	4003	0	0	5	5	0.3028688	0.154317	1	10	0.03	1800	-5.094696	40.92391	-91.39363
147279	-65	0	4	-1.31147	-0.0106746	-2.741209	0	11.97	4004	0	0	5	5	0.3028688	0.1572313	1	10	0.03	1800	-5.293488	40.92391	-91.39363
147443	-67	3	4	-1.3195	-0.01438529	-2.761934	0	11.97	4004	0	0	5	5	0.3028688	0.1719844	1	10	0.03	1800	-5.308838	40.92391	-91.39363
147503	-70	-1	14	-1.316993	-0.01453923	-2.765908	0	11.97	4002	0	0	5	5	0.3028688	0.1778948	1	10	0.03	1800	-5.284729	40.92391	-91.39363
147578	-62	1	6	-1.314379	-0.01411599	-2.773672	0	11.97	4004	0	0	5	5	0.3028688	0.1809506	1	10	0.03	1800	-5.076935	40.92391	-91.39363
147687	-76	-2	8	-1.319967	-0.008623092	-2.789139	0	11.97	4004	0	0	5	5	0.3028688	0.1848023	1	10	0.03	1800	-5.07254	40.92391	-91.39363
147780	-64	2	14	-1.32051	-0.01147727	-2.8021	0	11.97	4003	0	0	5	5	0.3028688	0.1848999	1	10	0.03	1800	-5.282623	40.92391	-91.39363
147943	-74	6	8	-1.315985	-0.01764386	-2.822277	0	11.97	4003	0	0	5	5	0.3028688	0.1848121	1	10	0.03	1800	-5.096497	40.92391	-91.39363
148050	-64	3	8	-1.306962	-0.02030198	-2.835604	0	11.97	4002	0	0	5	5	0.3028688	0.1899995	1	10	0.03	1800	-5.112457	40.92391	-91.39363
148167	-73	1	10	-1.306185	-0.01875887	-2.848138	0	11.97	4004	0	0	5	5	0.3028688	0.19683	1	10	0.03	1800	-5.305145	40.92391	-91.39363
148255	-66	3	6	-1.30123	-0.01281659	-2.860304	0	11.97	4002	0	0	5	5	0.3028688	0.2074213	1	10	0.03	1800	-5.116333	40.92391	-91.39363
148280	-70	2	7	-1.302317	-0.00947392	-2.86385	0	11.97	4002	0	0	5	5	0.3028688	0.2078713	1	10	0.03	1800	-5.116333	40.92391	-91.39363
148391	-67	8	9	-1.298127	-0.01056933	-2.877789	0	11.97	4004	0	0	5	5	0.3028688	0.209979	1	10	0.03	1800	-5.296417	40.92391	-91.39363
148514	-64	-1	6	-1.298713	-0.01036274	-2.895823	0	11.97	4002	0	0	5	5	0.3028688	0.2109925	1	10	0.03	1800	-5.122223	40.9239	-91.39363
148590	-65	4	10	-1.291266	-0.01286903	-2.903709	0	11.97	4002	0	0	5	5	0.3028688	0.2133351	1	10	0.03	1800	-5.563202	40.9239	-91.39363
148685	-59	6	5	-1.284723	-0.01512635	-2.916548	0	11.97	4004	0	0	5	5	0.3028688	0.2138913	1	10	0.03	1800	-5.124207	40.9239	-91.39363
148802	-67	3	2	-1.282042	-0.01688256	-2.927797	0	11.97	4004	0	0	5	5	0.3028688	0.2139221	1	10	0.03	1800	-5.149353	40.9239	-91.39363
148897	-68	1	6	-1.28174	-0.01278342	-2.934645	0	11.97	4002	0	0	5	5	0.3028688	0.2135058	1	10	0.03	1800	-5.341827	40.9239	-91.39363
149050	-67	0	11	-1.277867	-0.008085843	-2.957939	0	11.97	4003	0	0	5	5	0.3028688	0.2173178	1	10	0.03	1800	-5.129944	40.9239	-91.39363
149167	-65	-1	9	-1.278041	-0.005679839	-2.968822	0	11.97	4003	0	0	5	5	0.3028688	0.2210715	1	10	0.03	1800	-5.344299	40.9239	-91.39363
149258	-64	4	3	-1.27278	-0.009085646	-2.976219	0	11.97	4004	0	0	5	5	0.3028688	0.2212275	1	10	0.03	1800	-5.372314	40.9239	-91.39363
149317	-68	3	15	-1.265326	-0.007008142	-2.987957	0	11.97	4004	0	0	5	5	0.3028688	0.220851	1	10	0.03	1800	-5.177094	40.9239	-91.39363
149409	-66	3	11	-1.262859	-0.006742087	-2.994499	0	11.97	4004	0	0	5	5	0.3028688	0.2120703	1	10	0.03	1800	-5.150665	40.9239	-91.39363
149561	-64	4	4	-1.260871	-0.007329456	-3.012717	0	11.97	4003	0	0	5	5	0.3028688	0.1972828	1	10	0.03	1800	-5.176941	40.9239	-91.39363
149621	-73	-1	9	-1.253675	-0.006116401	-3.027024	0	11.97	4003	0	0	5	5	0.3028688	0.194647	1	10	0.03	1800	-5.373962	40.9239	-91.39363
149790	-60	-4	2	-1.248096	-0.009374849	-3.042614	0	11.97	4004	0	0	5	5	0.3028688	0.1813266	1	10	0.03	1800	-5.408234	40.9239	-91.39363
149898	-61	1	5	-1.247333	-0.003435717	-3.058142	0	11.97	4003	0	0	5	5	0.3028688	0.1874769	1	10	0.03	1800	-5.17807	40.9239	-91.39363
149928	-62	2	9	-1.245998	-0.004788282	-3.061505	0	11.97	4004	0	0	5	5	0.3028688	0.1874769	1	10	0.03	1800	-5.17807	40.9239	-91.39363
150024	-67	-1	9	-1.24272	-0.004064127	-3.069147	0	11.97	4004	0	0	5	5	0.3028688	0.1922345	1	10	0.03	1800	-5.432587	40.9239	-91.39363
150169	-70	1	6	-1.243466	-0.007302241	-3.085654	0	11.97	4003	0	0	5	5	0.3028688	0.1896187	1	10	0.03	1800	-5.181305	40.9239	-91.39363
150246	-67	6	4	-1.242316	-0.01013628	-3.093969	0	11.97	4003	0	0	5	5	0.3028688	0.1876159	1	10	0.03	1800	-5.416077	40.9239	-91.39363
150365	-67	5	7	-1.234318	-0.01182087	-3.104914	0	11.97	4003	0	0	5	5	0.3028688	0.1914474	1	10	0.03	1800	-5.429047	40.9239	-91.39363
150477	-72	2	3	-1.229408	-0.008953452	-3.120932	0	11.97	4004	0	0	5	5	0.3028688	0.2049146	1	10	0.03	1800	-5.398743	40.9239	-91.39363
150523	-67	3	5	-1.229007	-0.01007737	-3.128268	0	11.97	4003	0	0	5	5	0.3028688	0.2078125	1	10	0.03	1800	-5.205048	40.9239	-91.39363
150712	-62	0	7	-1.223571	-0.01378174	-3.14826	0	11.97	4003	0	0	5	5	0.3028688	0.2101551	1	10	0.03	1800	-5.428436	40.9239	-91.39363
150796	-61	-2	11	-1.229731	-0.01426693	-3.160792	0	11.91	4002	0	0	5	5	0.3028688	0.213362	1	10	0.03	1800	-5.206055	40.9239	-91.39363
150939	-67	3	8	-1.236828	-0.01363203	-3.177666	0	11.91	4004	0	0	5	5	0.3028688	0.2224358	1	10	0.03	1800	-5.192352	40.9239	-91.39363
151064	-65	4	8	-1.219269	-0.01414059	-3.196925	0	11.91	4002	0	0	5	5	0.3028688	0.2291721	1	10	0.03	1800	-5.198792	40.9239	-91.39363
151125	-62	0	2	-1.216684	-0.01480871	-3.200898	0	11.91	4002	0	0	5	5	0.3028688	0.2328445	1	10	0.03	1800	-5.461731	40.9239	-91.39363
151298	-64	2	7	-1.212012	-0.02173305	-3.221317	0	11.91	4002	0	0	5	5	0.3028688	0.2432933	1	10	0.03	1800	-5.463654	40.9239	-91.39363
151376	-64	6	5	-1.213096	-0.02395635	-3.231465	0	11.91	4004	0	0	5	5	0.3028688	0.2471081	1	10	0.03	1800	-5.445984	40.9239	-91.39363
151431	-72	1	7	-1.21318	-0.02149224	-3.235866	0	11.91	4002	0	0	5	5	0.3028688	0.2567631	1	10	0.03	1800	-5.237244	40.9239	-91.39363
151590	-67	0	9	-1.210843	-0.02057646	-3.251945	0	11.91	4004	0	0	5	5	0.3028688	0.2553398	1	10	0.03	1800	-5.467407	40.9239	-91.39363
151688	-65	8	0	-1.203009	-0.02843064	-3.263133	0	11.91	4002	0	0	5	5	0.3028688	0.2578059	1	10	0.03	1800	-5.241425	40.9239	-91.39363
151788	-60	-4	6	-1.201054	-0.03072318	-3.273954	0	11.91	4003	0	0	5	5	0.3028688	0.2621988	1	10	0.03	1800	-5.462494	40.9239	-91.39363
151903	-60	3	7	-1.204152	-0.02936624	-3.286488	0	11.91	4004	0	0	5	5	0.3028688	0.2759722	1	10	0.03	1800	-5.238647	40.9239	-91.39363
152029	-57	1	6	-1.204162	-0.02855946	-3.300611	0	11.91	4002	0	0	5	5	0.3028688	0.2907917	1	10	0.03	1800	-5.668518	40.9239	-91.39363
152095	-68	7	6	-1.202628	-0.03226095	-3.304218	0	11.91	4004	0	0	5	5	0.3028688	0.2965827	1	10	0.03	1800	-5.252289	40.9239	-91.39363
152229	-60	1	5	-1.192209	-0.02530915	-3.323782	0	11.91	4002	0	0	5	5	0.3028688	0.3005114	1	10	0.03	1800	-5.487488	40.9239	-91.39363
152294	-62	-2	4	-1.189102	-0.02019126	-3.335276	0	11.91	4004	0	0	5	5	0.3028688	0.2980051	1	10	0.03	1800	-5.267029	40.9239	-91.39363
152377	-60	0	6	-1.184567	-0.02060422	-3.342858	0	11.91	4004	0	0	5	5	0.3028688	0.2936854	1	10	0.03	1800	-5.485168	40.9239	-91.39363
152438	-58	2	1	-1.181807	-0.021949	-3.345547	0	11.91	4003	0	0	5	5	0.3028688	0.2907205	1	10	0.03	1800	-5.485168	40.9239	-91.39363
152611	-61	3	4	-1.17082	-0.01857932	-3.371225	0	11.91	4003	0	0	5	5	0.3028688	0.2862126	1	10	0.03	1800	-5.503845	40.9239	-91.39363
152659	-58	-1	10	-1.171528	-0.01820778	-3.375566	0	11.91	4004	0	0	5	5	0.3028688	0.2780131	1	10	0.03	1800	-5.503845	40.9239	-91.39363
152750	-68	3	10	-1.17039	-0.01443521	-3.383269	0	11.91	4002	0	0	5	5	0.3028688	0.2658767	1	10	0.03	1800	-5.506378	40.9239	-91.39363
152868	-56	0	8	-1.165076	-0.01628116	-3.39947	0	11.91	4002	0	0	5	5	0.3028688	0.2554453	1	10	0.03	1800	-5.304779	40.9239	-91.39363
152953	-54	3	8	-1.160698	-0.01512981	-3.409862	0	11.91	4004	0	0	5	5	0.3028688	0.2547258	1	10	0.03	1800	-5.306763	40.9239	-91.39363
153070	-57	4	8	-1.156818	-0.01807533	-3.423435	0	11.91	4004	0	0	5	5	0.3028688	0.2522712	1	10	0.03	1800	-5.528778	40.9239	-91.39363
153184	-67	3	7	-1.155274	-0.0281735	-3.435358	0	11.91	4003	0	0	5	5	0.3028688	0.2433983	1	10	0.03	1800	-5.534027	40.9239	-91.39363
153435	-56	4	7	-1.146147	-0.02658656	-3.462933	0	11.91	4004	0	0	5	5	0.3028688	0.2425596	1	10	0.03	1800	-5.344574	40.9239	-91.39363
153619	-56	-2	10	-1.147059	-0.0242297	-3.486225	0	11.97	4004	0	0	5	5	0.3028688	0.2419166	1	10	0.03	1800	-5.343719	40.9239	-91.39363
153731	-47	-1	6	-1.141723	-0.03231015	-3.497352	0	11.97	4004	0	0	5	5	0.3028688	0.245446	1	10	0.03	1800	-5.563171	40.9239	-91.39363
153789	-59	1	8	-1.140681	-0.03340651	-3.50047	0	11.97	4002	0	0	5	5	0.3028688	0.2458148	1	10	0.03	1800	-5.342957	40.9239	-91.39363
153883	-63	0	7	-1.147093	-0.02712477	-3.513187	0	11.97	4003	0	0	5	5	0.3028688	0.2487354	1	10	0.03	1800	-5.545776	40.9239	-91.39363
154009	-58	1	3	-1.152483	-0.03032179	-3.522053	0	11.97	4002	0	0	5	5	0.3028688	0.2567905	1	10	0.03	1800	-5.329498	40.9239	-91.39363
154146	-61	0	3	-1.139614	-0.02250771	-3.538499	0	11.97	4003	0	0	5	5	0.3028688	0.2675465	1	10	0.03	1800	-5.341064	40.9239	-91.39363
154202	-65	0	9	-1.140248	-0.02007798	-3.548036	0	11.97	4002	0	0	5	5	0.3028688	0.2691549	1	10	0.03	1800	-5.344879	40.9239	-91.39363
154365	-53	3	6	-1.136317	-0.01952711	-3.562587	0	11.97	4003	0	0	5	5	0.3028688	0.2790345	1	10	0.03	1800	-5.762787	40.9239	-91.39363
154388	-53	3	6	-1.136317	-0.01952711	-3.562587	0	11.97	4003	0	0	5	5	0.3028688	0.2791603	1	10	0.03	1800	-5.762787	40.9239	-91.39363
154483	-49	2	1	-1.127119	-0.01508968	-3.575731	0	11.97	4004	0	0	5	5	0.3028688	0.2822698	1	10	0.03	1800	-5.543182	40.9239	-91.39363
154695	-52	-4	1	-1.124107	-0.008459737	-3.591993	0	11.97	4003	0	0	5	5	0.3028688	0.3057842	1	10	0.03	1800	-5.383362	40.9239	-91.39363
154734	-55	-1	3	-1.125007	-0.009556835	-3.593887	0	11.97	4004	0	0	5	5	0.3028688	0.3080931	1	10	0.03	1800	-5.383362	40.9239	-91.39363
154867	-63	2	6	-1.117517	-0.01252501	-3.61278	0	11.97	4003	0	0	5	5	0.3028688	0.3113342	1	10	0.03	1800	-5.371979	40.9239	-91.39363
154929	-56	9	6	-1.11552	-0.01031477	-3.619995	0	11.97	4004	0	0	5	5	0.3028688	0.3043569	1	10	0.03	1800	-5.37793	40.9239	-91.39363
155050	-45	2	2	-1.106222	-0.01403473	-3.635706	0	11.97	4002	0	0	5	5	0.3028688	0.2970212	1	10	0.03	1800	-5.614899	40.9239	-91.39363
155138	-59	0	3	-1.104341	-0.01314246	-3.641331	0	11.97	4004	0	0	5	5	0.3028688	0.2939503	1	10	0.03	1800	-5.606018	40.9239	-91.39363
155229	-50	0	4	-1.104319	-0.00901225	-3.64818	0	11.97	4002	0	0	5	5	0.3028688	0.2916242	1	10	0.03	1800	-5.603546	40.9239	-91.39363
155316	-49	0	10	-1.107277	-0.01231579	-3.659735	0	11.97	4004	0	0	5	5	0.3028688	0.2998854	1	10	0.03	1800	-5.410217	40.9239	-91.39363
155490	-55	6	9	-1.097941	-0.01277379	-3.67557	0	11.97	4002	0	0	5	5	0.3028688	0.3074984	1	10	0.03	1800	-5.847656	40.9239	-91.39363
155563	-52	0	3	-1.100173	-0.01014485	-3.68529	0	11.97	4003	0	0	5	5	0.3028688	0.3091805	1	10	0.03	1800	-5.613068	40.9239	-91.39363
155735	-54	6	6	-1.097955	-0.01466763	-3.698801	0	11.97	4004	0	0	5	5	0.3028688	0.3155755	1	10	0.03	1800	-5.626984	40.9239	-91.39363
155862	-53	3	5	-1.084952	-0.0244026	-3.715185	0	11.97	4004	0	0	5	5	0.3028688	0.3109882	1	10	0.03	1800	-5.632935	40.9239	-91.39363
155948	-57	0	7	-1.076619	-0.02409268	-3.720687	0	11.97	4003	0	0	5	5	0.3028688	0.307644	1	10	0.03	1800	-5.436005	40.92389	-91.39363
156047	-50	0	9	-1.088703	-0.02904497	-3.731936	0	11.97	4004	0	0	5	5	0.3028688	0.3015318	1	10	0.03	1800	-5.8461	40.92389	-91.39363
156110	-49	0	4	-1.092268	-0.02915493	-3.734687	0	11.97	4004	0	0	5	5	0.3028688	0.2891811	1	10	0.03	1800	-5.8461	40.92389	-91.39363
156205	-50	1	2	-1.086064	-0.03072149	-3.745386	0	11.97	4003	0	0	5	5	0.3028688	0.2827322	1	10	0.03	1800	-5.652802	40.92389	-91.39363
