time(ms)	gyro_x(deg/s)	gyro_y(deg/s)	gyro_z(deg/s)	orientation_roll(deg)	orientation_pitch(deg)	orientation_yaw(deg)	throttle	battery(V)	loop_time(uS)	pid_output_roll	pid_output_pitch	pid_output_yaw	pid_output_throttle	ultrasonic_alt	baro_alt	flight_mode	p_gain_altitude	i_gain_altitude	d_gain_altitude	compass_heading	latitude	longitude
189278	-10	8	0	-0.5507995	-0.1161609	-5.841372	0	11.91	4003	14	0	5	5	0.07629197	0.3607441	8	10	0.03	1800	-6.56842	40.92392	-91.39362
189401	-21	-2	9	-0.5680412	-0.1170809	-5.847974	0	11.91	4003	12	0	5	5	0.06779369	0.3557581	8	10	0.03	1800	-6.558319	40.92392	-91.39362
189522	-16	3	0	-0.573757	-0.1140958	-5.852987	0	11.91	4003	0	0	5	5	0.0599319	0.3404289	8	10	0.03	1800	-6.348602	40.92392	-91.39362
189593	-20	2	4	-0.5718898	-0.1168765	-5.855066	0	11.91	4003	0	0	5	5	0.05708211	0.3336262	8	10	0.03	1800	-6.511627	40.92392	-91.39362
189677	-13	3	5	-0.5671729	-0.1182138	-5.860446	0	11.91	4004	0	0	5	5	0.0537897	0.3279599	8	10	0.03	1800	-6.560455	40.92392	-91.39362
189800	-10	-3	4	-0.5664322	-0.1132059	-5.863319	0	11.91	4004	0	0	5	5	0.05074388	0.3232649	8	10	0.03	1800	-6.545135	40.92392	-91.39362
189891	-9	2	0	-0.5706024	-0.1088546	-5.865276	0	11.91	4003	0	0	5	5	0.04963981	0.3206911	8	10	0.03	1800	-6.546967	40.92392	-91.39362
189998	-7	-3	8	-0.5686094	-0.1127213	-5.869923	0	11.91	4002	0	0	5	5	0.04802114	0.3095167	8	10	0.03	1800	-6.514191	40.92392	-91.39362
190085	-10	-4	-2	-0.5661356	-0.109968	-5.873346	0	11.91	4004	0	0	5	5	0.04743439	0.3057393	8	10	0.03	1800	-6.541504	40.92392	-91.39362
190197	-9	-3	2	-0.5625259	-0.1090377	-5.879031	0	11.91	4002	0	0	5	5	0.04675651	0.308204	8	10	0.03	1800	-6.528198	40.92392	-91.39362
190292	-5	0	0	-0.5645179	-0.105303	-5.882576	0	11.91	4003	0	0	5	5	0.04626234	0.3115521	8	10	0.03	1800	-6.545624	40.92392	-91.39362
190430	-7	0	5	-0.5573387	-0.1103841	-5.886976	0	11.91	4004	0	0	5	5	0.04580518	0.3165653	3	10	0.03	1800	-6.533875	40.92392	-91.39362
190572	-16	2	4	-0.5561392	-0.1132009	-5.893151	0	11.91	4002	0	0	5	5	0.04550524	0.314871	3	10	0.03	1800	-6.563354	40.92392	-91.39362
190635	-9	3	-4	-0.5443918	-0.1142712	-5.898468	0	11.91	4003	0	0	5	5	0.04539651	0.3133297	3	10	0.03	1800	-6.572418	40.92392	-91.39362
190747	-7	-1	1	-0.541395	-0.1098063	-5.903175	0	11.91	4003	0	0	5	5	0.04523711	0.3105954	3	10	0.03	1800	-6.605957	40.92392	-91.39362
190797	-9	-1	7	-0.536767	-0.1100919	-5.904642	0	11.91	4003	0	0	5	5	0.04517933	0.314606	3	10	0.03	1800	-6.585907	40.92392	-91.39362
190928	-14	2	0	-0.5359963	-0.1066478	-5.909898	0	11.91	4003	0	0	5	5	0.04509462	0.3184355	3	10	0.03	1800	-6.588501	40.92392	-91.39362
191043	-12	1	6	-0.5351628	-0.10706	-5.913872	0	11.91	4003	0	0	5	5	0.04505082	0.3166274	3	10	0.03	1800	-6.61319	40.92392	-91.39362
191144	-4	2	-1	-0.5241857	-0.1101955	-5.918396	0	11.91	4003	0	0	5	5	0.04501889	0.3211034	3	10	0.03	1800	-6.59668	40.92392	-91.39362
191195	-15	4	4	-0.5239365	-0.110991	-5.919435	0	11.91	4002	0	0	5	5	0.04500257	0.3267935	3	10	0.03	1800	-6.59668	40.92392	-91.39362
191333	-11	5	5	-0.5198569	-0.1104993	-5.925609	0	11.91	4002	0	0	5	5	0.04498371	0.3354227	3	10	0.03	1800	-6.583832	40.92392	-91.39362
191443	-5	-1	1	-0.5169062	-0.1082452	-5.932762	0	11.91	4003	0	0	5	5	0.04496627	0.3365804	1	10	0.03	1800	-6.617828	40.92392	-91.39362
191558	-12	-2	0	-0.509721	-0.113212	-5.935269	0	11.91	4002	0	0	5	5	0.04495726	0.3383914	1	10	0.03	1800	-6.624939	40.92392	-91.39362
191610	-10	4	-3	-0.5046774	-0.1194683	-5.936492	0	11.91	4002	0	0	5	5	0.04495265	0.3393277	1	10	0.03	1800	-6.614716	40.92392	-91.39362
191728	-4	7	0	-0.5038371	-0.1176436	-5.940587	0	11.91	4003	0	0	5	5	0.04494589	0.3325179	1	10	0.03	1800	-6.642426	40.92392	-91.39362
191893	-7	5	0	-0.5009807	-0.1168756	-5.947129	0	11.91	4003	0	0	5	5	0.04494146	0.331533	1	10	0.03	1800	-6.668762	40.92392	-91.39362
191947	-16	-1	0	-0.4953411	-0.1182321	-5.94994	0	11.97	4003	0	0	5	5	0.04494062	0.3307138	1	10	0.03	1800	-6.64566	40.92392	-91.39362
192019	-13	0	0	-0.4923076	-0.1201225	-5.95165	0	11.97	4003	0	0	5	5	0.04493799	0.3268841	1	10	0.03	1800	-6.65274	40.92392	-91.39362
192198	-6	0	1	-0.4912687	-0.1126654	-5.957763	0	11.97	4004	0	0	5	5	0.04493627	0.3157625	1	10	0.03	1800	-6.656311	40.92392	-91.39362
192280	-10	4	0	-0.4878843	-0.113099	-5.961003	0	11.97	4003	0	0	5	5	0.04493539	0.3089521	1	10	0.03	1800	-6.659119	40.92392	-91.39362
192372	-12	0	1	-0.4855829	-0.1171338	-5.962776	0	11.97	4003	0	0	5	5	0.04493474	0.2973678	1	10	0.03	1800	-6.663879	40.92392	-91.39362
192403	-1	4	3	-0.4821998	-0.1199022	-5.963264	0	11.97	4004	0	0	5	5	0.04493456	0.2950694	1	10	0.03	1800	-6.697144	40.92392	-91.39362
192506	-5	3	3	-0.4862987	-0.1237943	-5.969989	0	11.97	4003	0	0	5	5	0.04493427	0.2894635	1	10	0.03	1800	-6.697876	40.92392	-91.39362
192663	-13	6	2	-0.4928418	-0.1221058	-5.974698	0	11.97	4002	0	0	5	5	0.04493375	0.2782779	3	10	0.03	1800	-6.666107	40.92392	-91.39362
192770	-11	8	0	-0.481249	-0.124662	-5.981482	0	11.97	4003	0	0	5	5	0.04493349	0.2672168	3	10	0.03	1800	-6.673218	40.92392	-91.39362
192881	-5	2	0	-0.4808039	-0.1219812	-5.985149	0	11.91	4004	0	0	5	5	0.04493336	0.2641527	3	10	0.03	1800	-6.671021	40.92392	-91.39362
192955	-11	2	2	-0.481286	-0.1280539	-5.990591	0	11.91	4003	0	0	5	5	0.04493326	0.26124	3	10	0.03	1800	-6.676239	40.92392	-91.39362
193104	-4	-2	-2	-0.4874369	-0.135803	-5.996276	0	11.91	4003	0	0	5	5	0.04493317	0.2633475	3	10	0.03	1800	-6.662201	40.92392	-91.39362
193228	-11	1	0	-0.4853163	-0.1357886	-6.000738	0	11.91	4002	0	0	5	5	0.04493311	0.2641764	3	10	0.03	1800	-6.676575	40.92392	-91.39362
193300	-2	0	2	-0.4845248	-0.1382026	-6.003305	0	11.91	4003	0	0	5	5	0.04493308	0.2669425	3	10	0.03	1800	-6.696136	40.92392	-91.39362
193485	1	-4	5	-0.4871518	-0.1347697	-6.008807	0	11.91	4002	0	0	5	5	0.04493305	0.2661861	3	10	0.03	1800	-6.637787	40.92392	-91.39362
193531	-16	0	-1	-0.4829758	-0.1331303	-6.010825	0	11.91	4004	0	0	5	5	0.04493304	0.2655151	3	10	0.03	1800	-6.669983	40.92392	-91.39362
193609	-10	5	4	-0.4885159	-0.133788	-6.012292	0	11.91	4002	0	0	5	5	0.04493304	0.2658851	3	10	0.03	1800	-6.693604	40.92392	-91.39362
193780	-7	5	-1	-0.4790549	-0.1278308	-6.016694	0	11.97	4003	0	0	5	5	0.04493301	0.2647331	3	10	0.03	1800	-6.664886	40.92392	-91.39362
193857	-4	-5	1	-0.4776706	-0.1269767	-6.019261	0	11.97	4003	0	0	5	5	0.04493301	0.2673483	3	10	0.03	1800	-6.703186	40.92392	-91.39362
193969	-12	-1	7	-0.4741205	-0.1295088	-6.022624	0	11.97	4003	0	0	5	5	0.04493301	0.2741762	3	10	0.03	1800	-6.683258	40.92392	-91.39362
194095	-7	0	0	-0.4644119	-0.1333966	-6.028615	0	11.97	4003	0	0	5	5	0.04493301	0.2868282	3	10	0.03	1800	-6.678192	40.92392	-91.39362
194188	-6	2	3	-0.4650962	-0.1339199	-6.032466	0	11.97	4003	0	0	5	5	0.04493301	0.2930329	3	10	0.03	1800	-6.672363	40.92392	-91.39362
194250	-13	4	2	-0.4650017	-0.1305913	-6.035217	0	11.97	4002	0	0	5	5	0.04493301	0.3050282	3	10	0.03	1800	-6.698395	40.92392	-91.39362
194316	4	-1	-1	-0.4646462	-0.1290137	-6.036623	0	11.97	4003	0	0	5	5	0.04493301	0.3197483	3	10	0.03	1800	-6.698395	40.92392	-91.39362
194420	-5	1	5	-0.4685068	-0.1339446	-6.041147	0	11.97	4003	0	0	5	5	0.04493301	0.3213409	3	10	0.03	1800	-6.700592	40.92392	-91.39362
194563	-10	1	4	-0.4818709	-0.1349056	-6.04732	0	11.97	4003	0	0	5	5	0.04493301	0.3222663	3	10	0.03	1800	-6.682098	40.92393	-91.39362
194648	-8	3	3	-0.477706	-0.1291315	-6.05001	0	11.97	4004	0	0	5	5	0.04493301	0.3244402	3	10	0.03	1800	-6.472504	40.92393	-91.39362
194831	-9	0	0	-0.4694075	-0.1302212	-6.054471	0	11.97	4004	0	0	5	5	0.04493301	0.3374854	3	10	0.03	1800	-6.653961	40.92393	-91.39362
194929	-8	-1	3	-0.4651238	-0.1327228	-6.057774	0	11.97	4004	0	0	5	5	0.04493301	0.3374133	3	10	0.03	1800	-6.700836	40.92393	-91.39362
194979	-10	-9	4	-0.4654622	-0.1334751	-6.059241	0	11.97	4003	0	0	5	5	0.04493301	0.3370605	3	10	0.03	1800	-6.700836	40.92393	-91.39362
195073	-2	0	4	-0.4538666	-0.1407221	-6.061564	0	11.97	4004	0	0	5	5	0.04493301	0.340634	3	10	0.03	1800	-6.67392	40.92393	-91.39362
195139	-6	0	4	-0.4561727	-0.1390513	-6.062054	0	11.97	4003	0	0	5	5	0.04493301	0.3427222	3	10	0.03	1800	-6.71402	40.92393	-91.39362
195224	-3	-1	0	-0.4544042	-0.1378771	-6.063643	0	11.97	4004	0	0	5	5	0.04493301	0.3454126	3	10	0.03	1800	-6.71167	40.92393	-91.39362
195399	-10	0	4	-0.4566234	-0.1462778	-6.073547	0	11.97	4004	0	0	5	5	0.04493301	0.3476179	3	10	0.03	1800	-6.716614	40.92393	-91.39362
195511	-8	0	-1	-0.4691337	-0.1412321	-6.074647	0	11.97	4003	0	0	5	5	0.04493301	0.3352472	3	10	0.03	1800	-6.706787	40.92393	-91.39362
195543	-4	2	4	-0.4658259	-0.14167	-6.075319	0	11.97	4003	0	0	5	5	0.04493301	0.3352472	3	10	0.03	1800	-6.698517	40.92393	-91.39362
195623	0	5	2	-0.4562254	-0.1425755	-6.077336	0	11.91	4004	0	0	5	5	0.04493301	0.3317797	3	10	0.03	1800	-6.709839	40.92393	-91.39362
195771	-1	1	1	-0.4527074	-0.1383398	-6.078682	0	11.91	4003	0	0	5	5	0.04493301	0.3319448	3	10	0.03	1800	-6.716492	40.92393	-91.39362
195817	-5	-2	0	-0.45112	-0.1394903	-6.079232	0	11.91	4003	0	0	5	5	0.04493301	0.3324856	3	10	0.03	1800	-6.716492	40.92393	-91.39362
195918	-2	8	3	-0.4508946	-0.1424623	-6.082777	0	11.91	4003	0	0	5	5	0.04493301	0.325142	3	10	0.03	1800	-6.694397	40.92393	-91.39362
196125	-12	1	6	-0.4425561	-0.1315527	-6.088645	0	11.91	4003	0	0	5	5	0.04493301	0.2955651	3	10	0.03	1800	-6.703827	40.92393	-91.39362
196193	-17	-8	-2	-0.4433292	-0.1296309	-6.090662	0	11.91	4003	0	0	5	5	0.04493301	0.2870621	3	10	0.03	1800	-6.732208	40.92393	-91.39362
196254	-3	6	-2	-0.4436153	-0.1364513	-6.092252	0	11.91	4002	0	0	5	5	0.04493301	0.2822717	3	10	0.03	1800	-6.937836	40.92393	-91.39362
196328	-1	2	2	-0.4414448	-0.1284914	-6.095002	0	11.91	4003	0	0	5	5	0.04493301	0.2807476	3	10	0.03	1800	-6.757111	40.92393	-91.39362
196492	-9	-6	6	-0.4387454	-0.1251148	-6.099464	0	12.02	4004	0	0	5	5	0.04493301	0.2763469	3	10	0.03	1800	-6.737488	40.92393	-91.39362
196602	-9	0	1	-0.428582	-0.1341853	-6.099707	0	12.02	4004	0	0	5	5	0.04493301	0.2732927	3	10	0.03	1800	-6.538605	40.92393	-91.39362
196704	-11	-1	2	-0.4268569	-0.1328557	-6.100869	0	12.02	4004	0	0	5	5	0.04493301	0.2653163	3	10	0.03	1800	-6.75705	40.92393	-91.39362
196772	-1	-7	0	-0.4310064	-0.1273494	-6.103252	0	12.02	4004	0	0	5	5	0.04493301	0.2659308	3	10	0.03	1800	-6.747406	40.92393	-91.39362
196831	-2	-2	1	-0.4305454	-0.1293906	-6.104475	0	12.02	4002	0	0	5	5	0.04493301	0.2765245	3	10	0.03	1800	-6.750031	40.92393	-91.39362
196910	-4	-1	-4	-0.4307988	-0.1331592	-6.106676	0	12.02	4003	0	0	5	5	0.04493301	0.2827145	3	10	0.03	1800	-6.561371	40.92393	-91.39362
196960	-8	-4	10	-0.4283678	-0.1290135	-6.107655	0	12.02	4002	0	0	5	5	0.04493301	0.2852357	3	10	0.03	1800	-6.777435	40.92393	-91.39362
197084	-1	7	3	-0.4287753	-0.1313385	-6.111751	0	12.02	4004	0	0	5	5	0.04493301	0.2984946	3	10	0.03	1800	-6.750336	40.92393	-91.39362
197158	-6	-2	-1	-0.4336171	-0.1280787	-6.113951	0	12.02	4003	0	0	5	5	0.04493301	0.3020099	3	10	0.03	1800	-6.512329	40.92393	-91.39362
197280	3	-1	0	-0.4245384	-0.1271401	-6.116702	0	12.02	4003	0	0	5	5	0.04493301	0.3044327	3	10	0.03	1800	-6.749237	40.92393	-91.39362
197365	3	-1	3	-0.4245279	-0.1268963	-6.118169	0	12.02	4004	0	0	5	5	0.04493301	0.3053794	3	10	0.03	1800	-6.52478	40.92393	-91.39362
197474	-4	3	-3	-0.4195381	-0.1277414	-6.119207	0	11.91	4004	0	0	5	5	0.04493301	0.3104629	3	10	0.03	1800	-6.761902	40.92393	-91.39362
197568	-6	1	2	-0.4217155	-0.1200455	-6.120857	0	11.91	4002	0	0	5	5	0.04493301	0.3148235	3	10	0.03	1800	-6.764984	40.92393	-91.39362
197690	-11	-1	0	-0.4276373	-0.1167445	-6.125259	0	11.91	4002	0	0	5	5	0.04493301	0.3274827	3	10	0.03	1800	-6.731049	40.92393	-91.39362
197793	0	-7	3	-0.4245299	-0.1109755	-6.125871	0	11.91	4002	0	0	5	5	0.04493301	0.335364	3	10	0.03	1800	-6.750366	40.92393	-91.39362
197860	0	1	-2	-0.4204336	-0.1177384	-6.129233	0	11.91	4004	0	0	5	5	0.04493301	0.3412717	3	10	0.03	1800	-6.758911	40.92393	-91.39362
197964	8	-4	2	-0.4127377	-0.119025	-6.131495	0	11.91	4002	0	0	5	5	0.04493301	0.3494506	3	10	0.03	1800	-6.7948	40.92393	-91.39362
198066	0	1	3	-0.4122021	-0.1252936	-6.135284	0	11.91	4004	0	0	5	5	0.04493301	0.3550831	3	10	0.03	1800	-6.77179	40.92393	-91.39362
198180	-7	5	-3	-0.4046737	-0.1213697	-6.136933	0	11.91	4003	0	0	5	5	0.04493301	0.3538632	3	10	0.03	1800	-6.811829	40.92393	-91.39362
198329	-7	0	1	-0.4128988	-0.1323259	-6.139072	0	11.91	4003	0	0	5	5	0.04493301	0.3581334	3	10	0.03	1800	-6.800934	40.92393	-91.39362
198372	-6	1	1	-0.4030156	-0.1315138	-6.140479	0	11.91	4003	0	0	5	5	0.04493301	0.3612848	3	10	0.03	1800	-6.781281	40.92393	-91.39362
198473	-5	-3	5	-0.4060927	-0.1294058	-6.143169	0	11.91	4004	0	0	5	5	0.04493301	0.3581774	3	10	0.03	1800	-6.789063	40.92393	-91.39362
198614	0	1	1	-0.3932865	-0.1344077	-6.147387	0	11.91	4004	0	0	5	5	0.04493301	0.3518192	3	10	0.03	1800	-6.782532	40.92393	-91.39362
198724	-13	3	6	-0.3971682	-0.1303386	-6.148364	0	11.91	4004	0	0	5	5	0.04493301	0.3454093	3	10	0.03	1800	-6.803467	40.92393	-91.39362
198765	5	-7	8	-0.3980701	-0.1288922	-6.150686	0	11.91	4002	0	0	5	5	0.04493301	0.3447707	3	10	0.03	1800	-6.803467	40.92393	-91.39362
198868	-5	1	5	-0.4012303	-0.1327491	-6.15197	0	11.91	4002	0	0	5	5	0.04493301	0.3422428	3	10	0.03	1800	-6.794678	40.92393	-91.39362
198971	0	3	2	-0.4036519	-0.1238457	-6.155454	0	11.91	4003	0	0	5	5	0.04493301	0.3325796	3	10	0.03	1800	-6.787872	40.92393	-91.39362
199075	1	0	-1	-0.3982957	-0.1230344	-6.156737	0	11.91	4003	0	0	5	5	0.04493301	0.3262009	3	10	0.03	1800	-6.771606	40.92393	-91.39362
199236	-1	6	5	-0.3989294	-0.1269961	-6.163461	0	11.97	4002	0	0	5	5	0.04493301	0.3115197	3	10	0.03	1800	-6.795441	40.92393	-91.39362
199275	-1	6	5	-0.3989294	-0.1269961	-6.163461	0	11.97	4002	0	0	5	5	0.04493301	0.3105176	3	10	0.03	1800	-6.795441	40.92393	-91.39362
199495	112	-102	14	-0.4102201	-0.1320421	-6.184691	0	11.97	4002	0	0	5	5	0.04493301	0.3087967	3	10	0.03	1800	-6.159149	40.92393	-91.39362
199583	-52	67	31	-0.4011361	-0.1065762	-6.181026	0	11.97	4003	0	0	5	5	0.04493301	0.3120266	3	10	0.03	1800	-7.515472	40.92393	-91.39362
199678	151	-234	-9	-0.3065629	0.01011627	-6.155223	0	11.97	4003	0	0	5	5	0.04493301	0.3172886	3	10	0.03	1800	-6.735657	40.92393	-91.39362
199783	-148	0	5	0.1028887	0.4528072	-6.1257	0	11.97	4003	0	0	5	5	0.04493301	0.3234383	3	10	0.03	1800	-6.980621	40.92393	-91.39362
199942	-92	29	-82	0.06511172	0.4331437	-6.130455	0	11.97	4003	0	0	5	5	0.04493301	0.3494098	3	10	0.03	1800	-6.411743	40.92393	-91.39362
200002	100	-88	-125	0.03708179	0.417616	-6.126297	0	11.97	4004	0	0	5	5	0.04493301	0.356618	3	10	0.03	1800	-6.411743	40.92393	-91.39362
200135	83	19	60	0.1131557	0.4315737	-6.151542	0	11.91	4003	0	0	5	5	0.04493301	0.3661053	3	10	0.03	1800	-6.734467	40.92393	-91.39362
200230	-36	61	36	0.072637	0.4425156	-6.148182	0	11.91	4002	0	0	5	5	0.04493301	0.374505	3	10	0.03	1800	-6.730988	40.92393	-91.39362
200306	8	84	53	0.08386539	0.446624	-6.153315	0	11.91	4003	0	0	5	5	0.04493301	0.3801143	3	10	0.03	1800	-6.797638	40.92393	-91.39362
200400	52	-41	-28	0.08377008	0.4881682	-6.150193	0	11.91	4002	0	0	5	5	0.04493301	0.386577	3	10	0.03	1800	-6.97641	40.92393	-91.39362
200555	-10	14	-84	0.03903262	0.5041711	-6.143772	0	11.91	4004	0	0	5	5	0.04493301	0.3959963	3	10	0.03	1800	-6.619843	40.92393	-91.39362
200610	19	36	33	0.04491149	0.5127755	-6.153364	0	11.91	4002	0	0	5	5	0.04493301	0.3934412	3	10	0.03	1800	-6.362793	40.92393	-91.39362
200745	98	-8	24	0.09016011	0.529932	-6.152936	0	11.91	4002	0	0	5	5	0.04493301	0.3916103	3	10	0.03	1800	-6.732788	40.92393	-91.39362
200824	-7	-4	0	0.07702819	0.5365959	-6.149452	0	11.91	4002	0	0	5	5	0.04493301	0.3963571	3	10	0.03	1800	-6.341248	40.92393	-91.39362
200973	122	0	47	0.11555	0.5100396	-6.150241	0	11.91	4002	0	0	5	5	0.04493301	0.4026149	3	10	0.03	1800	-6.98642	40.92393	-91.39362
201007	-89	-28	51	0.06217573	0.5166391	-6.158434	0	11.91	4003	0	0	5	5	0.04493301	0.4043227	3	10	0.03	1800	-6.108856	40.92393	-91.39362
201081	116	16	27	0.1067901	0.4986253	-6.159897	0	11.97	4002	0	0	5	5	0.04493301	0.406729	3	10	0.03	1800	-7.030518	40.92393	-91.39362
201191	120	-45	-14	0.110277	0.5070162	-6.158367	0	11.97	4003	0	0	5	5	0.04493301	0.4099678	3	10	0.03	1800	-7.022552	40.92393	-91.39362
201284	1	35	-49	0.1085139	0.4678569	-6.168393	0	11.97	4003	0	0	5	5	0.04493301	0.4108044	3	10	0.03	1800	-6.967957	40.92393	-91.39362
201431	-79	35	-28	0.08131385	0.4816518	-6.175056	0	11.97	4003	0	0	5	5	0.04493301	0.4072971	3	10	0.03	1800	-6.680084	40.92393	-91.39362
201490	-13	70	-28	0.05306089	0.494617	-6.183681	0	11.97	4002	0	0	5	5	0.04493301	0.4109244	3	10	0.03	1800	-6.193176	40.92393	-91.39362
201635	-6	22	-126	0.0369669	0.5066257	-6.190344	0	11.97	4004	0	0	5	5	0.04493301	0.4152523	3	10	0.03	1800	-6.306671	40.92393	-91.39362
201733	34	-55	-104	0.02981341	0.5103812	-6.196888	0	11.97	4003	0	0	5	5	0.04493301	0.4215888	3	10	0.03	1800	-6.677338	40.92393	-91.39362
201901	-105	-80	4	0.03990167	0.5197057	-6.212655	0	11.97	4004	0	0	5	5	0.04493301	0.4153163	3	10	0.03	1800	-6.722137	40.92393	-91.39362
202026	113	-43	-20	0.04855473	0.488906	-6.212163	0	11.85	4003	0	0	5	5	0.04493301	0.4049951	3	10	0.03	1800	-7.128387	40.92393	-91.39362
202102	-17	-3	-49	0.06294595	0.5143908	-6.212591	0	11.85	4004	0	0	5	5	0.04493301	0.4033452	3	10	0.03	1800	-6.476929	40.92393	-91.39362
202229	-41	-38	-40	0.02597011	0.5119411	-6.221264	0	11.85	4004	0	0	5	5	0.04493301	0.3936299	3	10	0.03	1800	-6.561615	40.92393	-91.39362
202351	34	64	-166	0.0511178	0.5193255	-6.217229	0	11.85	4003	0	0	5	5	0.04493301	0.3843014	3	10	0.03	1800	-7.427643	40.92393	-91.39362
202458	48	71	-92	0.07871362	0.5594385	-6.210262	0	11.85	4003	0	0	5	5	0.04493301	0.3765406	3	10	0.03	1800	-5.968414	40.92393	-91.39362
202522	6	34	-52	0.0322585	0.5836281	-6.212706	0	11.85	4003	0	0	5	5	0.04493301	0.3697066	3	10	0.03	1800	-6.70401	40.92393	-91.39362
202602	16	-15	231	0.04839804	0.5731099	-6.213684	0	11.85	4002	0	0	5	5	0.04493301	0.3694707	3	10	0.03	1800	-6.456116	40.92393	-91.39362
202704	102	-12	227	0.05923934	0.5858172	-6.224015	0	11.85	4002	0	0	5	5	0.04493301	0.3788941	3	10	0.03	1800	-6.707642	40.92393	-91.39362
202805	21	-2	183	0.02187708	0.5963041	-6.20847	0	11.85	4004	0	0	5	5	0.04493301	0.3951985	3	10	0.03	1800	-6.42691	40.92393	-91.39362
202920	48	-185	16	0.03635807	0.6396362	-6.20822	0	11.91	4004	0	0	5	5	0.04493301	0.4018822	3	10	0.03	1800	-6.447815	40.92393	-91.39362
203035	-68	-118	83	0.01759793	0.6193784	-6.220105	0	11.91	4004	0	0	5	5	0.04493301	0.4034596	3	10	0.03	1800	-6.698883	40.92393	-91.39362
203099	17	-75	291	3.445088E-06	0.6089316	-6.236672	0	11.91	4003	0	0	5	5	0.04493301	0.4061283	3	10	0.03	1800	-6.698883	40.92393	-91.39362
203285	-106	-59	-132	-0.06856591	0.6316681	-6.258111	0	11.91	4002	0	0	5	5	0.04493301	0.4137792	3	10	0.03	1800	-6.433838	40.92393	-91.39362
203367	30	-44	-290	0.009248074	0.6128832	-6.267905	0	11.91	4004	0	0	5	5	0.04493301	0.4149175	3	10	0.03	1800	-6.594604	40.92393	-91.39362
203469	-243	194	-108	-0.04285399	0.603741	-6.284853	0	11.91	4003	0	0	5	5	0.04493301	0.4093859	3	10	0.03	1800	-6.074493	40.92393	-91.39362
203494	76	98	-341	0.009197836	0.6492533	-6.282823	0	11.91	4004	0	0	5	5	0.04493301	0.4033242	3	10	0.03	1800	-6.074493	40.92393	-91.39362
203659	26	124	60	-0.007330109	0.629554	-6.296037	0	11.91	4003	0	0	5	5	0.04493301	0.3939887	3	10	0.03	1800	-6.914307	40.92393	-91.39362
203754	-98	120	-31	0.004842725	0.6383195	-6.313289	0	11.91	4003	0	0	5	5	0.04493301	0.3963054	3	10	0.03	1800	-6.371674	40.92393	-91.39362
203843	67	-56	151	-0.0009135815	0.6161663	-6.347222	0	11.46	4004	0	0	5	5	0.04493301	0.4010634	3	10	0.03	1800	-6.332581	40.92393	-91.39362
203901	22	173	-60	-0.06049121	0.5689818	-6.331633	0	11.46	4002	0	0	5	5	0.04493301	0.4020814	3	10	0.03	1800	-6.007996	40.92393	-91.39362
204115	-49	-117	140	-0.03394184	0.5901556	-6.377405	0	11.46	4002	0	0	5	5	0.04493301	0.4077409	3	10	0.03	1800	-6.126678	40.92393	-91.39362
204258	252	-100	380	0.06989691	0.5682045	-6.413449	0	11.46	4002	0	0	5	5	0.04493301	0.4177778	3	10	0.03	1800	-6.372345	40.92393	-91.39362
204316	-148	-37	186	0.03818635	0.5323403	-6.428005	0	11.46	4003	0	0	5	5	0.04493301	0.419037	3	10	0.03	1800	-6.206207	40.92393	-91.39362
204405	-46	76	-460	-0.1196909	0.5626238	-6.452841	0	11.46	4004	0	0	5	5	0.04493301	0.4202019	3	10	0.03	1800	-6.434845	40.92393	-91.39362
204518	31	-81	419	-0.1633061	0.5289227	-6.470577	0	11.46	4003	0	0	5	5	0.04493301	0.4274576	3	10	0.03	1800	-6.333344	40.92393	-91.39362
204647	-27	-67	-155	-0.1369578	0.5036606	-6.453799	0	11.46	4003	0	0	5	5	0.04493301	0.4340145	3	10	0.03	1800	-5.923248	40.92393	-91.39362
204748	-66	-41	-147	-0.09720077	0.5381624	-6.462793	0	11.91	4002	0	0	5	5	0.04493301	0.4450652	3	10	0.03	1800	-6.305176	40.92393	-91.39362
204853	38	-341	168	-0.04149199	0.5078954	-6.517441	0	11.91	4003	0	0	5	5	0.04493301	0.4556192	3	10	0.03	1800	-6.53363	40.92393	-91.39362
204920	-170	36	114	-0.04040853	0.4899575	-6.528076	0	11.91	4002	0	0	5	5	0.04493301	0.4641722	3	10	0.03	1800	-6.530884	40.92393	-91.39362
205054	-40	118	-382	0.008106248	0.561651	-6.533597	0	11.91	4003	0	0	5	5	0.04493301	0.4882225	3	10	0.03	1800	-6.403229	40.92393	-91.39362
205155	62	87	-121	0.03176798	0.5770486	-6.562696	0	11.91	4003	0	0	5	5	0.04493301	0.5075134	3	10	0.03	1800	-6.498901	40.92393	-91.39362
205205	77	242	-784	0.02709426	0.6173118	-6.484054	0	11.91	4004	0	0	5	5	0.04493301	0.5086694	3	10	0.03	1800	-6.370239	40.92393	-91.39362
205403	140	-54	-751	0.196847	0.7737293	-6.578744	0	11.91	4004	0	0	5	5	0.04493301	0.5083246	3	10	0.03	1800	-6.234711	40.92393	-91.39362
205450	35	-233	125	0.2075914	0.7450576	-6.708049	0	11.91	4003	0	0	5	5	0.04493301	0.508294	3	10	0.03	1800	-6.234711	40.92393	-91.39362
205517	-331	-155	872	0.3194169	0.6829135	-6.768044	0	11.91	4003	0	0	5	5	0.04493301	0.5096236	3	10	0.03	1800	-6.356049	40.92393	-91.39362
205608	-55	9	52	0.36615	0.5943106	-6.690149	0	11.91	4002	0	0	5	5	0.04493301	0.5226716	3	10	0.03	1800	-7.379333	40.92393	-91.39362
205712	-216	189	-305	0.279395	0.4275596	-6.621528	0	11.91	4002	0	0	5	5	0.04493301	0.5390317	3	10	0.03	1800	-6.446167	40.92393	-91.39362
205849	-81	-220	25	0.2316561	0.4973055	-6.621555	0	11.91	4002	0	0	5	5	0.04493301	0.5605915	3	10	0.03	1800	-6.485413	40.92393	-91.39362
205933	35	-435	124	0.2063761	0.179185	-6.591288	0	11.91	4002	0	0	5	5	0.04493301	0.5683613	3	10	0.03	1800	-7.266693	40.92393	-91.39362
206058	-46	115	-78	0.2527673	0.3542837	-6.64171	0	11.91	4003	0	0	5	5	0.04493301	0.5744595	3	10	0.03	1800	-6.951874	40.92393	-91.39362
206138	-118	80	122	0.2875054	0.2537518	-6.696141	0	11.91	4004	0	0	5	5	0.04493301	0.5848634	3	10	0.03	1800	-6.909882	40.92393	-91.39362
206247	-298	-190	41	0.3838775	0.06016982	-6.980815	0	11.91	4003	0	0	5	5	0.04493301	0.5860837	3	10	0.03	1800	-6.475403	40.92393	-91.39362
206365	-152	45	739	0.296796	-0.4798512	-6.988482	0	11.91	4003	0	0	5	5	0.04493301	0.590699	6	10	0.03	1800	-7.205078	40.92393	-91.39362
206413	425	-322	-96	0.3601015	-0.6535922	-6.973603	0	11.91	4002	0	0	5	5	0.04656226	0.5928372	6	10	0.03	1800	-7.236511	40.92393	-91.39362
206517	177	128	-1021	0.2999272	-1.557817	-6.534769	0	11.91	4004	0	0	5	5	0.04726455	0.5960059	6	10	0.03	1800	-7.36499	40.92393	-91.39362
206722	266	-287	-1126	0.4747244	-2.357785	-6.716622	0	11.8	4002	0	0	5	5	0.04886117	0.6041759	6	10	0.03	1800	-7.083282	40.92393	-91.39362
206787	340	-600	652	0.6075847	-2.938129	-6.820747	0	11.8	4003	0	0	5	5	0.05013508	0.604178	6	10	0.03	1800	-5.841309	40.92393	-91.39362
206888	-888	-1718	-135	0.4632112	-2.280564	-5.644793	0	11.8	4003	0	0	5	5	0.05141522	0.5806985	6	10	0.03	1800	-6.983185	40.92393	-91.39362
206928	-235	-1023	-672	0.1475996	-1.676277	-5.270254	0	11.8	4004	0	0	5	5	0.0514187	0.5763999	6	10	0.03	1800	-6.983185	40.92393	-91.39362
207016	353	-1248	1226	-0.03716787	-0.2185004	-4.883369	0	11.8	4002	0	0	5	5	0.05166474	0.5659888	6	10	0.03	1800	-8.997833	40.92393	-91.39362
207180	1544	1606	526	1.497643	-2.377747	-5.495173	0	11.8	4003	0	0	5	5	0.05806176	0.56212	6	10	0.03	1800	-9.340271	40.92393	-91.39362
207223	622	956	-852	1.866486	-3.269584	-5.48984	0	11.8	4009	0	0	5	5	0.06325735	0.5697138	6	10	0.03	1800	-9.340271	40.92393	-91.39362
207367	946	2424	-1445	1.011558	-7.405553	-4.978173	0	11.8	4004	0	0	5	5	0.07924327	0.5792348	6	10	0.03	1800	-9.103607	40.92393	-91.39362
207427	1048	2422	-38	1.951007	-9.277258	-4.966387	0	11.8	4003	0	0	5	5	0.09693997	0.5876073	6	10	0.03	1800	-9.103607	40.92393	-91.39362
207541	-1261	767	951	0.8782244	-9.486122	-5.406097	0	11.11	4003	0	0	5	5	0.1300562	0.5982289	6	10	0.03	1800	-9.300262	40.92393	-91.39362
207699	523	1554	140	1.702556	-11.32745	-5.25903	0	11.11	4004	0	0	5	5	0.1730676	0.6156524	8	10	0.03	1800	-9.505219	40.92393	-91.39362
207787	-426	-46	-2089	2.060698	-12.59013	-4.2484	0	11.11	4003	0	0	5	5	0.197926	0.6316467	8	10	0.03	1800	-9.195068	40.92393	-91.39362
207909	1161	12	807	3.545523	-10.35921	-0.5776042	0	11.11	4002	12	0	5	5	0.2160477	0.649727	8	10	0.03	1800	-10.49081	40.92393	-91.39362
207996	-1251	-2934	2183	1.911501	-7.389818	-1.405661	0	11.11	4003	12	0	5	5	0.2328123	0.6823087	8	10	0.03	1800	-10.55795	40.92393	-91.39362
208070	-574	-356	1988	-0.613604	-3.204455	-3.936287	0	11.11	4002	12	0	5	5	0.2388892	0.6957517	8	10	0.03	1800	-9.887299	40.92393	-91.39362
208193	-113	-1777	542	0.8301131	-3.448391	-5.282235	0	11.11	4002	12	0	5	5	0.2459099	0.7127813	8	10	0.03	1800	-8.919586	40.92393	-91.39362
208228	728	79	-1171	1.106903	-3.225964	-5.038345	0	11.11	4003	12	0	5	5	0.2494983	0.7266949	8	10	0.03	1800	-8.919586	40.92393	-91.39362
208292	-2721	-1964	-959	0.4891286	-2.547231	-4.465628	0	11.11	4003	12	-6	5	5	0.2524049	0.7421778	8	10	0.03	1800	-10.79828	40.92393	-91.39362
208404	1522	1979	234	-0.9100347	-3.553382	-3.370997	0	9.7	4004	12	-6	5	5	0.2566662	0.7810764	8	10	0.03	1800	-11.84955	40.92393	-91.39362
208481	180	2046	2075	-0.2730841	-5.32459	-3.958293	0	9.7	4004	12	-6	5	5	0.2582108	0.7943841	8	10	0.03	1800	-12.16254	40.92393	-91.39362
208673	-309	-169	1328	-1.939223	-4.174705	-3.052677	0	9.7	4003	12	-6	5	5	0.2612964	0.8930879	8	10	0.03	1800	-11.81754	40.92393	-91.39362
208718	-511	-1295	1158	-1.887431	-4.005708	-3.559181	0	9.7	4004	12	-6	5	5	0.2616463	0.9184214	8	10	0.03	1800	-11.81754	40.92393	-91.39362
208836	-539	-2258	1436	-1.992805	-1.172487	-5.433946	0	9.7	4003	12	0	5	5	0.2627295	0.9878972	8	10	0.03	1800	-13.31033	40.92393	-91.39362
208926	1260	1373	-224	-0.209239	-3.40489	-5.409088	0	9.7	4002	12	0	5	5	0.2632895	1.049047	8	10	0.03	1800	-14.86694	40.92393	-91.39362
209056	-1400	-850	-816	-0.4982205	-4.25934	-4.524276	0	9.7	4004	12	-6	5	5	0.2636977	1.136644	8	10	0.03	1800	-15.70163	40.92393	-91.39362
209102	-1914	-2193	-1295	-1.368241	-4.048117	-4.481735	0	9.7	4003	12	-6	5	5	0.2639064	1.172755	8	10	0.03	1800	-16.43933	40.92393	-91.39362
209235	15	210	131	1.155814	-8.315448	-3.817724	0	9.7	4002	12	-6	5	5	0.2642123	1.285311	8	10	0.03	1800	-17.42212	40.92393	-91.39362
209339	-1988	-1043	637	-0.09108873	-7.090112	-4.475709	0	11.68	4003	12	-6	5	5	0.2643705	1.377461	8	10	0.03	1800	-17.69003	40.92393	-91.39362
209489	1505	736	-103	0.6667088	-5.75067	-5.936278	0	11.68	4003	12	-6	5	5	0.2645448	1.47871	8	10	0.03	1800	-20.05273	40.92393	-91.39362
209566	234	-319	-2424	1.047308	-6.67338	-5.327706	0	11.68	4003	12	-6	5	5	0.2645925	1.531869	8	10	0.03	1800	-20.09991	40.92393	-91.39362
209645	-338	-523	-22	1.387081	-6.901047	-4.542463	0	11.68	4003	12	-6	5	5	0.2646476	1.625728	8	10	0.03	1800	-20.23935	40.92393	-91.39362
209743	-1289	-390	-1218	0.3615821	-7.105357	-4.624968	0	11.68	4002	12	-6	5	5	0.2646878	1.70177	8	10	0.03	1800	-19.78906	40.92393	-91.39362
209797	-281	-562	-1467	-0.7673355	-6.929839	-4.833583	0	11.68	4004	12	-6	5	5	0.2646987	1.720706	8	10	0.03	1800	-18.66971	40.92393	-91.39362
209881	-716	-65	-33	-0.9989015	-6.251656	-5.625268	0	11.68	4002	12	-12	5	5	0.2647172	1.774791	8	10	0.03	1800	-18.89941	40.92392	-91.39362
210038	1140	4215	515	1.011618	-8.953873	-6.035955	0	11.68	4004	12	-12	5	5	0.2647541	1.900888	8	10	0.03	1800	-17.9744	40.92392	-91.39362
210170	912	882	-25	2.063587	-17.38958	-5.301797	0	11.23	4003	0	-12	5	5	0.2647685	1.977817	8	10	0.03	1800	-16.09644	40.92392	-91.39362
210216	1593	1156	-484	2.400107	-17.49383	-5.064124	0	11.23	4003	0	-12	5	5	0.2647712	1.999619	8	10	0.03	1800	-16.09644	40.92392	-91.39362
210309	1747	2027	-1727	3.398098	-19.51293	-4.467447	0	11.23	4003	0	-12	5	5	0.2647779	2.040618	8	10	0.03	1800	-15.93454	40.92392	-91.39362
210482	-182	-1249	259	2.976508	-15.19573	-5.034863	0	11.23	4004	0	-18	5	5	0.2647853	2.101067	8	10	0.03	1800	-12.26852	40.92392	-91.39362
210578	-586	-959	-184	2.759416	-13.88098	-5.301226	0	11.23	4003	0	-18	5	5	0.2647882	2.139648	8	10	0.03	1800	-13.51257	40.92392	-91.39362
210670	-706	-2516	-1006	1.53061	-9.897113	-5.327977	0	11.23	4002	0	-18	5	5	0.2647903	2.152036	8	10	0.03	1800	-10.05368	40.92392	-91.39362
210859	391	-210	-1518	-0.3269925	-5.389459	-5.027836	0	11.23	4003	0	-12	5	5	0.2647926	2.152957	8	10	0.03	1800	-11.35724	40.92392	-91.39362
210906	-242	-672	173	0.6079022	-6.739681	-4.762896	0	11.23	4002	0	-12	5	5	0.2647932	2.143519	8	10	0.03	1800	-11.11713	40.92392	-91.39362
211070	1773	2491	-129	1.352676	-8.944798	-4.361744	0	11.23	4002	0	-12	5	5	0.2647944	2.10281	8	10	0.03	1800	-13.25677	40.92392	-91.39362
211139	-957	-2612	-345	1.304831	-7.959588	-4.234396	0	11	4004	0	-12	5	5	0.2647947	2.07868	8	10	0.03	1800	-12.54471	40.92392	-91.39362
211247	965	-1097	-866	-0.09394522	-5.028839	-5.095414	0	11	4004	0	-12	5	5	0.2647951	2.034857	8	10	0.03	1800	-14.74451	40.92392	-91.39362
211309	2101	1658	-1039	2.10484	-5.493243	-4.882643	0	11	4003	0	-12	5	5	0.2647953	2.008211	8	10	0.03	1800	-15.47064	40.92392	-91.39362
211367	-130	1846	-1780	2.691023	-6.674045	-4.104097	0	11	4004	0	-12	5	5	0.2647954	1.999472	8	10	0.03	1800	-12.33994	40.92392	-91.39362
211460	300	-442	78	1.934137	-7.036877	-3.892544	0	11	4002	0	-12	5	5	0.2647955	1.952611	8	10	0.03	1800	-9.193634	40.92392	-91.39362
211583	-993	-1386	2535	-0.9267019	-3.32321	-4.988185	0	11	4002	0	-12	5	5	0.2647957	1.912168	8	10	0.03	1800	-8.990875	40.92392	-91.39362
211732	474	471	-957	-0.937824	-4.049549	-5.456765	0	11	4002	0	-12	5	5	0.2647958	1.857943	8	10	0.03	1800	-12.14706	40.92392	-91.39362
211845	-481	-368	1080	-0.3363509	-4.658022	-5.22836	0	11	4004	0	-12	5	5	0.2647958	1.84226	8	10	0.03	1800	-16.31558	40.92392	-91.39362
211983	3670	4600	-1763	6.631636	-9.66524	-3.556763	0	11	4004	-12	-12	5	5	0.2647958	1.816447	8	10	0.03	1800	-14.30493	40.92392	-91.39363
212171	148	1612	2520	11.87896	-14.01886	-4.509156	0	11.34	4003	-12	-18	5	5	0.2647958	1.776131	8	10	0.03	1800	-5.127258	40.92392	-91.39363
212211	148	1612	2520	11.87896	-14.01886	-4.509156	0	11.34	4003	-12	-18	5	5	0.2647958	1.772322	8	10	0.03	1800	-5.127258	40.92392	-91.39363
212294	-556	437	-1368	13.35788	-15.227	-6.564729	0	11.34	4002	-12	-18	5	5	0.2647958	1.756358	8	10	0.03	1800	0.5965746	40.92392	-91.39363
212387	-2387	-3896	-251	8.384863	-10.15781	-6.670326	0	11.34	4003	-12	-18	5	5	0.2647958	1.743026	8	10	0.03	1800	1.292575	40.92392	-91.39363
212532	-749	-1164	-758	7.086918	-7.940798	-4.916525	0	11.34	4003	0	-18	5	5	0.2647958	1.733906	8	10	0.03	1800	3.413566	40.92392	-91.39362
212640	-1579	-1684	-678	4.136176	-5.758443	-4.335038	0	11.34	4003	0	-18	5	5	0.2647958	1.733549	8	10	0.03	1800	3.228856	40.92392	-91.39362
212733	-1013	-775	-759	3.882327	-5.26499	-5.084076	0	11.34	4004	0	-18	5	5	0.2647958	1.739387	8	10	0.03	1800	3.585339	40.92392	-91.39362
212850	208	73	1130	4.391156	-6.799985	-5.144311	0	11.34	4002	0	-18	5	5	0.2647958	1.748303	8	10	0.03	1800	2.210312	40.92392	-91.39362
212939	-1509	-1446	102	3.743986	-5.759287	-5.086366	0	11.34	4002	0	-18	5	5	0.2647958	1.760242	8	10	0.03	1800	3.898959	40.92392	-91.39362
212997	-1662	-2784	-595	2.743589	-4.690989	-5.013516	0	10.83	4005	0	-18	5	5	0.2647958	1.767686	8	10	0.03	1800	4.275248	40.92392	-91.39362
213108	-184	1034	1226	0.7066666	-3.592515	-5.958474	0	10.83	4002	12	-18	5	5	0.2647958	1.784908	8	10	0.03	1800	1.25514	40.92392	-91.39362
213203	-257	-95	472	2.699985	-5.670159	-5.002958	0	10.83	4004	12	-18	5	5	0.2647958	1.797844	8	10	0.03	1800	0.7300056	40.92392	-91.39362
213309	-2021	-1268	193	0.9880154	-5.100434	-5.341352	0	10.83	4003	12	-18	5	5	0.2647958	1.813308	8	10	0.03	1800	-0.2314758	40.92392	-91.39362
213410	727	2006	1604	1.373612	-6.33096	-5.021194	0	10.83	4003	24	-18	5	5	0.2647958	1.829437	8	10	0.03	1800	-1.351227	40.92392	-91.39361
213513	-1494	-1838	134	1.100503	-6.785193	-5.164176	0	10.83	4004	24	-18	5	5	0.2647958	1.845709	8	10	0.03	1800	-2.635101	40.92392	-91.39361
213646	1406	1542	1227	-0.04163851	-3.621123	-5.393164	0	10.83	4004	36	-18	5	5	0.2647958	1.866161	8	10	0.03	1800	-6.662659	40.92392	-91.3936
213778	-514	-1210	-966	0.7090443	-5.140106	-4.318397	0	10.83	4004	36	-18	5	5	0.2647958	1.878391	8	10	0.03	1800	-10.24722	40.92392	-91.3936
213881	-1644	419	1136	-0.5188828	-3.391065	-4.861805	0	11.17	4002	36	-24	5	5	0.2647958	1.875792	8	10	0.03	1800	-10.37387	40.92392	-91.3936
213946	-1084	754	81	-0.7106357	-4.528973	-5.599066	0	11.17	4002	36	-24	5	5	0.2647958	1.868703	8	10	0.03	1800	-15.05719	40.92392	-91.39359
214095	-530	2778	-1055	-0.1345148	-4.50682	-5.294004	0	11.17	4003	48	-24	5	5	0.2647958	1.84276	8	10	0.03	1800	-16.06223	40.92392	-91.39359
214171	136	3718	-149	-0.4146838	-7.815573	-4.490882	0	11.17	4004	48	-24	5	5	0.2647958	1.83022	8	10	0.03	1800	-16.0528	40.92392	-91.39359
214323	-1821	382	-167	-0.2284691	-11.87813	-2.702635	0	11.17	4003	48	-24	5	5	0.2647958	1.797509	8	10	0.03	1800	-18.86652	40.92391	-91.39359
214394	-1618	-2288	2253	-1.254242	-10.0189	-4.26475	0	11.17	4002	60	-30	5	5	0.2647958	1.772315	8	10	0.03	1800	-18.86652	40.92391	-91.39359
214513	1145	486	93	-1.829898	-6.249496	-6.008763	0	11.17	4004	60	-30	5	5	0.2647958	1.754801	8	10	0.03	1800	-19.54749	40.92391	-91.39359
214550	46	703	116	-1.262083	-6.156774	-5.906666	0	11.17	4003	60	-30	5	5	0.2647958	1.743417	8	10	0.03	1800	-22.26581	40.92391	-91.39359
214654	-2544	-2188	-1117	-2.600244	-5.585851	-5.450779	0	11.17	4002	60	-30	5	5	0.2647958	1.711647	8	10	0.03	1800	-21.07751	40.92391	-91.39359
214834	-1437	1351	513	-3.483974	-6.300923	-4.639025	0	11.68	4004	72	-30	5	5	0.2647958	1.665299	8	10	0.03	1800	-28.0441	40.92391	-91.39358
214892	-1408	-1922	-682	-4.425938	-6.207486	-5.518674	0	11.68	4003	72	-30	5	5	0.2647958	1.616838	8	10	0.03	1800	-28.17685	40.92391	-91.39358
214994	570	67	315	-3.257348	-6.216136	-5.393465	0	11.68	4003	72	-30	5	5	0.2647958	1.57996	8	10	0.03	1800	-30.45364	40.92391	-91.39358
215081	-1025	-831	437	-3.85834	-4.329808	-4.955056	0	11.68	4003	72	-36	5	5	0.2647958	1.543189	8	10	0.03	1800	-31.11157	40.92391	-91.39358
215133	-1023	-400	-1412	-4.475235	-3.400454	-4.876903	0	11.68	4004	72	-36	5	5	0.2647958	1.516639	8	10	0.03	1800	-31.29898	40.92391	-91.39358
215254	-1010	2348	-701	-4.405664	-5.660128	-5.047136	0	11.68	4003	72	-36	5	5	0.2647958	1.478732	8	10	0.03	1800	-30.21362	40.92391	-91.39358
215343	-4074	241	-1513	-5.784231	-10.45715	-4.522524	0	11.68	4003	72	-36	5	5	0.2647958	1.428213	8	10	0.03	1800	-30.22263	40.92391	-91.39358
215448	-288	1374	-645	-7.616382	-10.12096	-3.791684	0	11.68	4003	72	-42	5	5	0.2647958	1.397645	8	10	0.03	1800	-30.04303	40.9239	-91.39358
215531	1341	861	-513	-6.134378	-12.19388	-4.431466	0	11.68	4003	72	-42	5	5	0.2647958	1.381107	8	10	0.03	1800	-30.9624	40.9239	-91.39358
215633	1716	193	2346	-3.623805	-10.84626	-4.516974	0	11.68	4004	72	-42	5	5	0.2647958	1.361675	8	10	0.03	1800	-29.00665	40.9239	-91.39358
215761	-858	-2143	1306	-1.763117	-9.406871	-4.44708	0	10.89	4002	72	-42	5	5	0.2647958	1.359762	8	10	0.03	1800	-29.02652	40.9239	-91.39358
215926	599	814	258	-2.935724	-10.17917	-3.650235	0	10.89	4003	60	-42	5	5	0.2647958	1.386002	8	10	0.03	1800	-30.6481	40.9239	-91.39359
215983	-594	-746	178	-3.179772	-9.976182	-3.426888	0	10.89	4003	60	-42	5	5	0.2647958	1.406759	8	10	0.03	1800	-30.37262	40.92391	-91.39359
216090	-1571	-2929	1900	-6.093261	-3.23957	-4.548563	0	10.89	4004	60	-36	5	5	0.2647958	1.447593	8	10	0.03	1800	-30.78751	40.92391	-91.39359
216184	848	2149	924	-6.215594	-3.846064	-5.570953	0	10.89	4004	60	-36	5	5	0.2647958	1.477717	8	10	0.03	1800	-30.82556	40.92391	-91.39359
216258	1554	555	212	-3.013204	-7.857482	-4.68246	0	10.89	4004	48	-36	5	5	0.2647958	1.509465	8	10	0.03	1800	-31.88443	40.92391	-91.39359
216400	-2004	-2530	499	-5.411094	-5.100862	-3.799911	0	10.89	4002	36	-36	5	5	0.2647958	1.604134	8	10	0.03	1800	-32.1376	40.92391	-91.3936
216486	373	125	-1156	-6.190697	-5.172748	-4.149334	0	10.89	4004	36	-36	5	5	0.2647958	1.647774	8	10	0.03	1800	-33.66196	40.92391	-91.3936
216593	2997	-1711	-416	-3.131151	-5.678793	-4.927923	0	10.89	4004	24	-36	5	5	0.2647958	1.743609	8	10	0.03	1800	-32.45825	40.92391	-91.39361
216745	4022	-582	1857	3.71548	-2.714752	-5.086364	0	10.94	4002	12	-30	5	5	0.2647958	1.830089	8	10	0.03	1800	-32.14703	40.92391	-91.39362
216911	4791	551	1941	12.47035	-3.934974	-5.136089	0	10.94	4003	12	-30	5	5	0.2647958	1.934021	8	10	0.03	1800	-26.65521	40.92391	-91.39362
216949	4158	1190	1386	13.91595	-4.373157	-5.281296	0	10.94	4002	0	-24	5	5	0.2647958	1.942779	8	10	0.03	1800	-26.65521	40.92391	-91.39362
217133	-1600	295	-677	9.011859	-5.872757	-6.520042	0	10.94	4004	-12	-24	5	5	0.2647958	1.962985	8	10	0.03	1800	-17.55704	40.92392	-91.39363
217200	138	-696	-343	7.200994	-6.46791	-6.562434	0	10.94	4003	-12	-24	5	5	0.2647958	1.957398	8	10	0.03	1800	-14.51865	40.92392	-91.39363
217301	-497	1890	146	4.913002	-7.487541	-6.484693	0	10.94	4003	-12	-24	5	5	0.2647958	1.935532	8	10	0.03	1800	-8.72464	40.92392	-91.39364
217460	6416	-1718	-1546	8.473213	-6.592953	-6.514225	0	10.94	4003	-24	-18	5	5	0.2647958	1.820042	8	10	0.03	1800	-4.452301	40.92392	-91.39364
217619	-8280	-6238	6461	13.02099	-1.664002	-8.296097	0	10.77	4003	-36	-6	5	5	0.2647958	1.602688	8	10	0.03	1800	-42.42535	40.92393	-91.39365
217728	5890	2974	2979	10.87747	0.006494287	-13.18957	0	10.77	4002	-48	-6	5	5	0.2647958	1.436638	8	10	0.03	1800	-48.35638	40.92393	-91.39365
217744	5890	2974	2979	10.87747	0.006494287	-13.18957	0	10.77	4002	-48	-6	5	5	0.2647958	1.408694	8	10	0.03	1800	-48.35638	40.92393	-91.39365
217868	-3948	1552	-320	16.57471	-1.4387	-7.736627	0	10.77	4003	-48	6	5	5	0.2647958	1.327624	8	10	0.03	1800	-43.99881	40.92393	-91.39365
218043	5785	-64	-606	12.63425	-3.263394	-2.812124	0	10.77	4004	-60	6	5	5	0.2647958	1.277713	8	10	0.03	1800	-44.17761	40.92393	-91.39366
218097	7143	2908	2205	15.44018	-4.187501	-3.298659	0	10.77	4003	-60	6	5	5	0.2647958	1.239824	8	10	0.03	1800	-44.17761	40.92393	-91.39366
218223	4492	-272	-662	25.38613	-7.279934	-5.206168	0	10.77	4002	-60	6	5	5	0.2647958	1.226369	8	10	0.03	1800	-31.89923	40.92393	-91.39366
218282	2309	-2242	-270	26.07947	-6.870463	-5.203382	0	10.77	4004	0	0	5	5	0.2647958	1.232892	8	10	0.03	1800	-26.61136	40.92393	-91.39366
218388	-366	938	-220	23.31815	-6.06225	-6.041417	0	10.77	4002	0	0	5	5	0.2647958	1.263382	3	10	0.03	1800	-22.60223	40.92393	-91.39367
218468	1425	742	-191	21.56224	-7.729846	-6.75632	0	10.77	4004	0	0	5	5	0.2647958	1.296433	3	10	0.03	1800	-17.04211	40.92393	-91.39367
218546	1750	-3759	-2131	20.06242	-4.851498	-5.66783	0	10.89	4004	0	0	5	5	0.2647958	1.349325	3	10	0.03	1800	-10.70453	40.92393	-91.39367
218707	-2699	-1825	-418	14.70609	-3.368416	-4.924575	0	10.89	4003	0	0	5	5	0.2647958	1.444182	3	10	0.03	1800	-3.122162	40.92393	-91.39367
218766	-812	-2089	593	8.83518	1.0403	-5.568349	0	10.89	4003	0	0	5	5	0.2647958	1.495168	3	10	0.03	1800	0.8670356	40.92393	-91.39367
218872	2235	1824	-58	8.636297	0.4687393	-5.943761	0	10.89	4003	0	0	5	5	0.2647958	1.554549	3	10	0.03	1800	3.639639	40.92393	-91.39367
219025	765	2573	960	10.81985	-10.67302	-6.458117	0	10.89	4002	0	0	5	5	0.2647958	1.648538	3	10	0.03	1800	12.43114	40.92393	-91.39367
219126	3125	641	45	12.58564	-11.45634	-6.437815	0	10.89	4004	0	0	5	5	0.2647958	1.680074	3	10	0.03	1800	16.8178	40.92393	-91.39367
219166	2988	2226	434	14.7541	-11.95633	-6.610431	0	10.89	4002	0	0	5	5	0.2647958	1.701736	3	10	0.03	1800	20.96876	40.92393	-91.39367
219279	-4490	2699	224	11.852	-14.45063	-7.009233	0	10.89	4003	0	0	5	5	0.2647958	1.752525	3	10	0.03	1800	22.76845	40.92393	-91.39367
219419	-2967	1572	-1983	4.844714	-16.5444	-6.822578	0	10.89	4003	0	0	5	5	0.2647958	1.807203	3	10	0.03	1800	22.78296	40.92393	-91.39366
219466	-6949	193	-1834	-2.50743	-17.08478	-6.395573	0	9.58	4003	0	0	5	5	0.2647958	1.836462	3	10	0.03	1800	22.17605	40.92393	-91.39366
219579	-5334	24	1140	-9.805909	-13.37999	-5.570528	0	9.58	4004	0	0	5	5	0.2647958	1.877686	3	10	0.03	1800	19.46582	40.92393	-91.39366
219722	-1557	-2506	-618	-11.92868	-10.10493	-5.037037	0	9.58	4003	0	0	5	5	0.2647958	1.948103	3	10	0.03	1800	12.39643	40.92393	-91.39365
219797	-2962	-3511	-100	-12.34328	-7.562929	-5.28999	0	9.58	4003	0	0	5	5	0.2647958	1.980895	3	10	0.03	1800	12.18356	40.92393	-91.39365
219882	-1340	-2589	-952	-13.026	-5.932663	-5.261	0	9.58	4004	0	0	5	5	0.2647958	1.997849	3	10	0.03	1800	11.33721	40.92393	-91.39365
219978	-4827	1029	663	-17.37794	-7.217667	-6.579167	0	9.58	4003	0	0	5	5	0.2647958	2.009207	3	10	0.03	1800	7.917755	40.92393	-91.39365
220091	-84	-1657	-323	-19.29466	-4.802914	-7.18198	0	9.58	4003	0	0	5	5	0.2647958	2.006531	3	10	0.03	1800	6.487907	40.92393	-91.39365
