time(ms)	gyro_x(deg/s)	gyro_y(deg/s)	gyro_z(deg/s)	orientation_roll(deg)	orientation_pitch(deg)	orientation_yaw(deg)	throttle	battery(V)	loop_time(uS)	pid_output_roll	pid_output_pitch	pid_output_yaw	pid_output_throttle	ultrasonic_alt	baro_alt	flight_mode	p_gain_altitude	i_gain_altitude	d_gain_altitude	compass_heading	latitude	longitude
439645	-972	-1440	40	-0.1696662	-0.1107321	-0.4365852	0	10.09	4004	0	48	5	5	0.2918929	0.7136497	8	10	0.03	1800	-2.859741	40.92394	-91.39363
439795	1616	-955	1366	0.3728832	-0.67611	-0.2810318	0	10.09	4003	0	48	5	5	0.2918929	0.7142789	8	10	0.03	1800	0.583684	40.92394	-91.39363
439903	-618	1792	1146	0.4142671	0.5109411	0.0302447	0	10.09	4003	0	48	5	5	0.2918929	0.7282426	8	10	0.03	1800	0.1076151	40.92394	-91.39363
439961	97	484	-1225	0.6971479	-1.770064	0.2178727	0	10.09	4004	0	48	5	5	0.2918929	0.7378394	8	10	0.03	1800	2.639159	40.92394	-91.39363
440058	-860	2157	474	0.7237069	-5.023572	-0.1217867	0	10.09	4003	0	48	5	5	0.2918929	0.7591262	8	10	0.03	1800	-9.277588	40.92393	-91.39363
440218	-831	1437	1049	-1.471037	-13.27952	-0.9219278	0	10.89	4002	0	36	5	5	0.2918929	0.7970068	8	10	0.03	1800	-8.063293	40.92393	-91.39363
440362	-1907	-4023	140	-3.33095	-9.745432	-1.267784	0	10.89	4004	0	43	5	5	0.2918929	0.8098715	8	10	0.03	1800	-10.25711	40.92393	-91.39363
440482	619	74	-1839	-1.803769	-8.349233	-0.3237686	0	10.89	4004	0	36	5	5	0.2918929	0.8122821	8	10	0.03	1800	-12.69617	40.92393	-91.39363
440624	-1727	2539	183	-3.380653	-12.52181	-0.2381126	0	10.89	4003	0	36	5	5	0.2918929	0.8166093	8	10	0.03	1800	-10.85251	40.92393	-91.39363
440670	-932	2189	861	-3.659557	-13.33693	-0.2315061	0	10.89	4002	0	24	5	5	0.2918929	0.8161123	8	10	0.03	1800	-10.85251	40.92393	-91.39363
440866	959	4399	667	-2.937036	-18.75683	-1.490137	0	10.89	4003	24	12	5	5	0.2918929	0.8180235	8	10	0.03	1800	-10.13126	40.92393	-91.39362
440929	165	104	-674	-2.153136	-20.19135	-0.6096348	0	10.89	4003	24	12	5	5	0.2918929	0.8235717	8	10	0.03	1800	-9.533386	40.92393	-91.39362
441043	-1674	-620	394	-5.053029	-16.17537	-0.09182084	0	10.89	4002	24	0	5	5	0.2918929	0.8365389	8	10	0.03	1800	-10.46884	40.92392	-91.39362
441187	-532	-3445	1850	-4.077679	-8.770969	-1.548684	0	10.72	4003	24	-12	5	5	0.2918929	0.8815287	8	10	0.03	1800	-12.25293	40.92392	-91.39362
441270	204	-1344	-439	-3.506604	-4.671686	-1.669476	0	10.72	4003	24	-12	5	5	0.2918929	0.9019254	8	10	0.03	1800	-11.25446	40.92392	-91.39362
441423	-237	1591	430	-1.430512	-8.724551	-0.2786955	0	10.72	4002	24	-12	5	5	0.2918929	0.936505	8	10	0.03	1800	-13.03342	40.92392	-91.39362
441478	-1571	-2117	-41	-2.403827	-8.023077	-0.2292963	0	10.72	4003	24	-12	5	5	0.2918929	0.9598137	8	10	0.03	1800	-11.30099	40.92392	-91.39362
441593	205	-1520	850	-2.44904	-3.542112	-0.7177888	0	10.72	4003	0	-12	5	5	0.2918929	0.9978007	8	10	0.03	1800	-11.9404	40.92392	-91.39363
441684	-167	-1443	-201	-2.369005	-2.31461	-1.118249	0	10.72	4004	0	-12	5	5	0.2918929	1.012286	8	10	0.03	1800	-13.5282	40.92392	-91.39363
441789	-560	1343	864	-1.730819	-1.222281	-1.060115	0	10.72	4003	0	-24	5	5	0.2918929	1.055862	8	10	0.03	1800	-14.85281	40.92392	-91.39363
441976	1325	1401	-784	-0.8931558	-4.382943	-0.1107935	0	10.72	4003	0	-36	5	5	0.2918929	1.116091	8	10	0.03	1800	-14.29959	40.92391	-91.39363
442061	-176	-229	326	0.2380146	-6.660429	-0.06282438	0	9.98	4004	0	-36	5	5	0.2918929	1.141559	8	10	0.03	1800	-14.34479	40.92391	-91.39363
442133	34	-1718	-768	-0.1635468	-4.81857	-0.3376637	0	9.98	4002	0	-36	5	5	0.2918929	1.169778	8	10	0.03	1800	-13.52081	40.92391	-91.39363
442282	-613	-2407	-1486	-3.137063	-6.211361	-1.59131	0	9.98	4003	0	-36	5	5	0.2918929	1.202154	8	10	0.03	1800	-9.649902	40.92391	-91.39363
442314	381	-2210	-741	-2.965978	-4.584949	-1.330504	0	9.98	4004	0	-48	5	5	0.2918929	1.206304	8	10	0.03	1800	-9.925507	40.92391	-91.39363
442391	1890	994	-1151	-0.9040546	-4.606489	-0.6820193	0	9.98	4002	0	-48	5	5	0.2918929	1.221686	8	10	0.03	1800	-13.44531	40.92391	-91.39363
442491	637	2069	168	0.291281	-6.04373	-0.148795	0	9.98	4004	-24	-60	5	5	0.2918929	1.2271	8	10	0.03	1800	-13.02023	40.9239	-91.39364
442595	257	-1169	-348	0.8192199	-6.578548	0.1050013	0	9.98	4004	-24	-60	5	5	0.2918929	1.228038	8	10	0.03	1800	-10.43646	40.9239	-91.39364
442700	-455	-618	648	0.6481747	-5.532954	-0.5780183	0	9.98	4003	-24	-60	5	5	0.2918929	1.229563	8	10	0.03	1800	-7.09201	40.9239	-91.39364
442805	-922	3161	-102	0.9409402	-8.427663	-1.816218	0	9.98	4003	-24	-60	5	5	0.2918929	1.227511	8	10	0.03	1800	-6.029572	40.9239	-91.39364
442910	2325	-1396	-2764	0.5074489	-9.699224	-0.8016117	0	9.98	4003	-24	-72	5	5	0.2918929	1.217682	8	10	0.03	1800	-7.554504	40.9239	-91.39364
443015	555	-809	1452	2.146212	-8.636739	0.5660234	0	9.53	4003	-24	-72	5	5	0.2918929	1.214711	8	10	0.03	1800	-5.879791	40.9239	-91.39364
443120	1778	-774	-2210	-0.2935324	-9.029913	-0.03487866	0	9.53	4002	-24	-84	5	5	0.2918929	1.202515	8	10	0.03	1800	-4.36911	40.9239	-91.39364
443225	153	-683	752	1.820433	-7.381683	-0.1114382	0	9.53	4004	-28	-100	5	5	0.2918929	1.188213	8	10	0.03	1800	-5.587646	40.9239	-91.39364
443330	227	-1312	-189	1.468827	-5.096889	-0.3559476	0	9.53	4004	-48	-84	5	5	0.2918929	1.176168	8	10	0.03	1800	-3.8396	40.9239	-91.39365
443435	559	2374	647	2.335456	-6.946135	-1.199632	0	9.53	4003	-48	-84	5	5	0.2918929	1.172489	8	10	0.03	1800	-2.904907	40.92389	-91.39365
443541	-962	-76	-1857	3.28838	-7.693535	-0.393958	0	9.53	4003	-48	-96	5	5	0.2918929	1.166233	8	10	0.03	1800	-2.924927	40.92389	-91.39365
443644	-331	-112	918	2.006429	-7.125919	0.005552378	0	9.53	4003	-48	-108	5	5	0.2918929	1.167494	8	10	0.03	1800	-0.2399597	40.92389	-91.39365
443749	2651	1756	-1229	3.657318	-8.388027	-0.3868307	0	9.53	4004	-48	-108	5	5	0.2918929	1.176877	8	10	0.03	1800	0.7669986	40.92389	-91.39365
443884	774	1897	124	3.002582	-10.67753	-0.931479	0	9.53	4002	-48	-120	5	5	0.2918929	1.185851	8	10	0.03	1800	4.083365	40.92389	-91.39365
443958	1256	2415	-680	4.433175	-11.94722	-0.6222056	0	10.38	4002	-48	-120	5	5	0.2918929	1.191703	8	10	0.03	1800	3.619144	40.92389	-91.39365
444063	-757	2351	1993	4.04009	-14.82481	-0.8598722	0	10.38	4002	-48	-120	5	5	0.2918929	1.203286	8	10	0.03	1800	5.517123	40.92389	-91.39365
444165	-1225	-2955	1062	2.138724	-13.58168	-1.263164	0	10.38	4004	-48	-120	5	5	0.2918929	1.216046	8	10	0.03	1800	5.585093	40.92389	-91.39365
444270	1925	826	-239	2.596284	-10.19601	-0.916374	0	10.38	4003	-48	-132	5	5	0.2918929	1.238201	8	10	0.03	1800	6.157477	40.92388	-91.39365
444375	406	998	-1263	3.643817	-12.38433	-0.3634784	0	10.38	4003	-48	-132	5	5	0.2918929	1.254486	8	10	0.03	1800	5.839258	40.92387	-91.39365
444479	-715	328	1756	3.645185	-11.52163	-0.453452	0	10.38	4004	-48	-144	5	5	0.2918929	1.295888	8	10	0.03	1800	5.654712	40.92387	-91.39365
444585	852	316	-1610	3.144451	-9.7988	-0.8292913	0	10.38	4002	-48	-144	5	5	0.2918929	1.333732	8	10	0.03	1800	6.677516	40.92387	-91.39365
444688	-891	1362	-732	3.171225	-11.80724	-0.2969446	0	10.38	4003	-48	-144	5	5	0.2918929	1.357854	8	10	0.03	1800	9.015583	40.92387	-91.39365
444793	1623	-250	-1386	1.921648	-12.8492	-0.852492	0	10.38	4002	-24	-144	5	5	0.2918929	1.409721	8	10	0.03	1800	9.31618	40.92387	-91.39364
444904	-46	1183	1301	3.95334	-11.67122	-0.8968275	0	10.83	4004	-24	-144	5	5	0.2918929	1.444066	8	10	0.03	1800	8.709911	40.92387	-91.39364
445000	572	-1162	-953	1.094946	-11.91	-1.763834	0	10.83	4003	-24	-144	5	5	0.2918929	1.475263	8	10	0.03	1800	9.611186	40.92387	-91.39364
445104	1700	1760	965	3.164083	-11.44876	-1.461009	0	10.83	4003	-24	-144	5	5	0.2918929	1.535283	8	10	0.03	1800	9.432242	40.92387	-91.39364
445208	-1131	363	-1396	1.971049	-12.64055	-1.092961	0	10.83	4003	0	-132	5	5	0.2918929	1.573447	8	10	0.03	1800	11.64583	40.92388	-91.39363
445312	381	1193	1871	1.114633	-12.2965	-1.244501	0	10.83	4002	0	-132	5	5	0.2918929	1.604539	8	10	0.03	1800	10.34231	40.92388	-91.39363
445415	864	957	-111	1.821288	-12.43005	-1.191401	0	10.83	4003	0	-132	5	5	0.2918929	1.644747	8	10	0.03	1800	9.538591	40.92388	-91.39363
445522	-1122	-886	-1077	1.472224	-13.67653	-1.171792	0	10.83	4004	0	-132	5	5	0.2918929	1.673029	8	10	0.03	1800	9.506044	40.92388	-91.39362
445624	-26	202	1283	0.8324128	-12.93472	-1.140118	0	10.83	4004	24	-132	5	5	0.2918929	1.699985	8	10	0.03	1800	8.754335	40.92388	-91.39362
445728	306	535	1099	0.7468125	-12.5039	-1.130525	0	10.83	4004	24	-132	5	5	0.2918929	1.72478	8	10	0.03	1800	8.512164	40.92388	-91.39362
445850	-1433	-6363	-1681	0.2253162	-5.927594	-1.45529	0	9.87	4004	48	-132	5	5	0.2918929	1.762206	8	10	0.03	1800	8.821508	40.92388	-91.39362
445964	-2412	-5211	-711	-2.724336	1.332402	-1.79265	0	9.87	4003	72	-120	5	5	0.2918929	1.786221	8	10	0.03	1800	9.46251	40.92389	-91.39361
446047	-810	-1648	-419	-2.769202	3.207569	-1.437964	0	9.87	4003	72	-120	5	5	0.2918929	1.806679	8	10	0.03	1800	7.070113	40.92389	-91.39361
446146	-4158	1781	422	-3.285416	2.70163	-1.062285	0	9.87	4004	96	-108	5	5	0.2918929	1.817	8	10	0.03	1800	5.706408	40.92389	-91.3936
446252	-3982	3091	258	-12.43794	-3.400425	-0.1230314	0	9.87	4003	96	-108	5	5	0.2918929	1.822693	8	10	0.03	1800	3.971547	40.92389	-91.3936
446356	-1093	1534	804	-13.9267	-6.621298	0.2688919	0	9.87	4003	115	-100	5	5	0.2918929	1.820049	8	10	0.03	1800	-1.282623	40.9239	-91.3936
446468	-39	1035	1016	-13.50952	-7.73476	-0.04180138	0	9.87	4003	96	-84	5	5	0.2918929	1.813593	8	10	0.03	1800	-4.616333	40.9239	-91.39359
446570	-203	512	802	-9.983447	-9.323711	-0.7883055	0	9.87	4004	120	-72	5	5	0.2918929	1.802425	8	10	0.03	1800	-10.49615	40.9239	-91.39359
446668	-553	-1254	579	-9.09989	-8.811943	-0.7666799	0	9.87	4003	120	-72	5	5	0.2918929	1.7826	8	10	0.03	1800	-14.30228	40.9239	-91.39359
446834	-2151	-5238	-772	-10.16428	1.017072	-0.6522706	0	10.38	4004	144	-84	5	5	0.2918929	1.686656	8	10	0.03	1800	-17.47888	40.9239	-91.39359
446916	370	-2329	-467	-11.03098	4.310204	-1.042753	0	10.38	4002	168	-84	5	5	0.2918929	1.606186	8	10	0.03	1800	-19.93579	40.9239	-91.39358
446977	870	894	-1121	-9.47824	4.38775	-0.8841401	0	10.38	4003	168	-84	5	5	0.2918929	1.482789	8	10	0.03	1800	-26.31763	40.9239	-91.39358
447092	9281	17127	19461	1.758435	-14.23765	-8.620624	0	10.38	4004	192	-60	5	5	0.2918929	1.262659	8	10	0.03	1800	-24.08734	40.9239	-91.39357
447176	1201	26197	8408	18.2618	-32.44757	-32.66925	0	10.38	4003	192	-60	5	5	0.2918929	1.093723	8	10	0.03	1800	2.436919	40.9239	-91.39357
447295	-3625	843	-8567	9.450212	-60.4503	-29.47059	0	10.38	4003	192	-60	5	5	0.2918929	0.8874129	8	10	0.03	1800	18.43745	40.9239	-91.39357
447384	-11656	-9130	9566	-7.841778	-37.97992	-24.48918	0	10.38	4002	192	-60	5	5	0.2918929	0.8377636	8	10	0.03	1800	2.346143	40.9239	-91.39357
447490	169	-32758	22768	-19.31774	-27.11691	-27.16609	0	10.38	4003	192	-60	5	5	0.2918929	0.7369967	8	10	0.03	1800	14.52181	40.9239	-91.39357
447625	-12589	-32758	24761	-30.52379	14.90925	-61.77894	0	10.38	4003	168	-48	5	5	0.2918929	0.5638061	8	10	0.03	1800	86.84097	40.92391	-91.39358
447674	31561	21605	19246	19.68992	-1.481364	-51.19962	0	11.06	4003	0	0	5	5	0.2918929	0.5135931	1	10	0.03	1800	147.5586	40.92391	-91.39358
447809	6866	3866	8397	37.53034	0.8343969	-67.55182	0	11.06	4004	0	0	5	5	0.2918929	0.3724842	1	10	0.03	1800	187.844	40.92391	-91.39357
447909	1471	2498	4426	32.6726	5.971261	-77.16081	0	11.06	4003	0	0	5	5	0.2918929	0.2225703	1	10	0.03	1800	198.4395	40.92391	-91.39357
447990	-1992	-2357	4577	20.00578	12.64843	-84.38185	0	11.06	4002	0	0	5	5	0.2918929	0.1270038	1	10	0.03	1800	209.3631	40.92391	-91.39358
448109	-7281	-2991	6529	1.032558	20.8477	-93.54292	0	11.06	4002	0	0	5	5	0.2918929	0.08006036	1	10	0.03	1800	215.9005	40.92391	-91.39358
448183	-14083	-1123	5511	-18.35877	21.15463	-100.5708	0	11.06	4010	0	0	5	5	0.2918929	0.04977695	1	10	0.03	1800	224.6437	40.92391	-91.39358
448338	-5496	-813	2575	-56.89388	22.66835	-107.3805	0	11.06	4002	0	0	5	5	0.2918929	-0.06169838	1	10	0.03	1800	236.4087	40.92391	-91.39358
448413	-3042	4214	1827	-58.56817	15.07268	-110.2584	0	11.06	4002	0	0	5	5	0.2918929	-0.09840771	1	10	0.03	1800	240.2696	40.92391	-91.39358
448520	1258	3033	-1076	-49.73428	4.560459	-109.4104	0	11.06	4002	0	0	5	5	0.2918929	-0.1438453	1	10	0.03	1800	230.054	40.92392	-91.39358
448680	21	136	-35	-44.36854	5.852719	-109.1506	0	11.11	4002	0	0	5	5	0.2918929	-0.1871074	1	10	0.03	1800	225.7884	40.92392	-91.39358
448728	27	196	-55	-43.12682	6.00439	-109.0841	0	11.11	4004	0	0	5	5	0.2918929	-0.2023339	1	10	0.03	1800	225.7884	40.92392	-91.39358
448845	-51	-26	38	-38.97565	6.87901	-109.1392	0	11.11	4004	0	0	5	5	0.2918929	-0.2219843	1	10	0.03	1800	224.8208	40.92392	-91.39358
448946	-45	-5	7	-36.29952	7.398106	-109.1601	0	11.11	4003	0	0	5	5	0.2918929	-0.2338134	1	10	0.03	1800	223.7243	40.92392	-91.39358
449055	-45	-6	12	-33.2592	7.999724	-109.1834	0	11.11	4002	0	0	5	5	0.2918929	-0.2393631	1	10	0.03	1800	222.6449	40.92392	-91.39358
449106	-48	-3	10	-32.57748	8.133692	-109.1898	0	11.11	4002	0	0	5	5	0.2918929	-0.2403222	1	10	0.03	1800	222.6449	40.92392	-91.39358
449220	-45	-2	11	-30.15453	8.613248	-109.216	0	11.11	4003	0	0	5	5	0.2918929	-0.2385824	1	10	0.03	1800	221.7863	40.92392	-91.39358
449300	-46	-7	9	-29.09398	8.82236	-109.2257	0	11.11	4003	0	0	5	5	0.2918929	-0.2339648	1	10	0.03	1800	221.2619	40.92392	-91.39358
449392	-47	2	6	-28.12146	9.005915	-109.2381	0	11.11	4003	0	0	5	5	0.2918929	-0.2363781	1	10	0.03	1800	220.8381	40.92392	-91.39358
449524	-47	-4	5	-26.04999	9.403745	-109.2632	0	11.11	4003	0	0	5	5	0.2918929	-0.2528391	1	10	0.03	1800	220.0882	40.92392	-91.39358
449611	-36	0	6	-25.01369	9.600911	-109.2775	0	11.17	4004	0	0	5	5	0.2918929	-0.2595556	1	10	0.03	1800	219.4247	40.92392	-91.39357
449693	-48	-6	5	-24.3964	9.71968	-109.2868	0	11.17	4002	0	0	5	5	0.2918929	-0.260509	1	10	0.03	1800	219.127	40.92392	-91.39357
449816	-46	-5	3	-23.32088	9.928575	-109.305	0	11.17	4002	0	0	5	5	0.2918929	-0.266243	1	10	0.03	1800	218.5585	40.92392	-91.39357
449948	-46	3	10	-22.62903	10.05878	-109.3189	0	11.17	4004	0	0	5	5	0.2918929	-0.2749643	1	10	0.03	1800	218.3446	40.92392	-91.39357
450049	-41	2	9	-21.84503	10.21448	-109.3371	0	11.17	4003	0	0	5	5	0.2918929	-0.2812852	1	10	0.03	1800	217.9575	40.92392	-91.39357
450177	-49	4	11	-21.20124	10.33983	-109.3553	0	11.17	4004	0	0	5	5	0.2918929	-0.2952215	1	10	0.03	1800	217.6533	40.92392	-91.39357
450213	-46	-1	8	-21.05645	10.36696	-109.3601	0	11.17	4004	0	0	5	5	0.2918929	-0.3018253	1	10	0.03	1800	217.6533	40.92392	-91.39357
450337	-49	0	11	-20.5359	10.46985	-109.377	0	11.17	4003	0	0	5	5	0.2918929	-0.3054631	1	10	0.03	1800	217.3427	40.92392	-91.39357
450410	-41	-1	3	-20.20152	10.53736	-109.3891	0	11.17	4004	0	0	5	5	0.2918929	-0.2966743	1	10	0.03	1800	217.1442	40.92392	-91.39357
450519	-40	-1	5	-19.91241	10.59414	-109.4019	0	11.11	4002	0	0	5	5	0.2918929	-0.2889638	1	10	0.03	1800	216.9923	40.92392	-91.39357
450560	-50	0	9	-19.82099	10.61408	-109.4052	0	11.11	4003	0	0	5	5	0.2918929	-0.284385	1	10	0.03	1800	216.9923	40.92392	-91.39357
450686	-43	5	7	-19.50601	10.67764	-109.4207	0	11.11	4009	0	0	5	5	0.2918929	-0.2801475	1	10	0.03	1800	216.805	40.92392	-91.39357
450782	-47	0	8	-19.29374	10.7115	-109.4322	0	11.11	4003	0	0	5	5	0.2918929	-0.2836604	1	10	0.03	1800	216.6469	40.92392	-91.39357
450855	-43	0	10	-19.17538	10.73449	-109.4384	0	11.11	4003	0	0	5	5	0.2918929	-0.2894683	1	10	0.03	1800	216.6434	40.92392	-91.39357
450978	-40	-1	7	-18.95684	10.77194	-109.4531	0	11.11	4002	0	0	5	5	0.2918929	-0.2860266	1	10	0.03	1800	216.459	40.92392	-91.39357
451066	-42	0	2	-18.81526	10.79787	-109.4607	0	11.11	4002	0	0	5	5	0.2918929	-0.2867151	1	10	0.03	1800	216.3923	40.92392	-91.39357
451210	-49	0	5	-18.65635	10.82951	-109.4736	0	11.11	4003	0	0	5	5	0.2918929	-0.2799725	1	10	0.03	1800	216.3297	40.92392	-91.39357
451268	-41	0	6	-18.58717	10.8435	-109.4805	0	11.11	4002	0	0	5	5	0.2918929	-0.2722213	1	10	0.03	1800	216.2507	40.92392	-91.39357
451353	-42	1	8	-18.4948	10.84993	-109.4905	0	11.17	4004	0	0	5	5	0.2918929	-0.2557978	1	10	0.03	1800	216.2229	40.92392	-91.39357
451514	-45	0	5	-18.35136	10.85597	-109.5077	0	11.17	4002	0	0	5	5	0.2918929	-0.2312483	1	10	0.03	1800	216.1667	40.92392	-91.39357
451563	-40	2	10	-18.3313	10.85846	-109.5114	0	11.17	4004	0	0	5	5	0.2918929	-0.2183982	1	10	0.03	1800	216.1667	40.92392	-91.39357
451661	-44	2	6	-18.26836	10.86941	-109.5216	0	11.17	4003	0	0	5	5	0.2918929	-0.2046608	1	10	0.03	1800	216.0856	40.92392	-91.39357
451746	-42	-2	9	-18.21619	10.88781	-109.5304	0	11.17	4002	0	0	5	5	0.2918929	-0.1926924	1	10	0.03	1800	216.1267	40.92392	-91.39357
451906	-38	-5	9	-18.16141	10.90697	-109.542	0	11.17	4004	0	0	5	5	0.2918929	-0.1705676	1	10	0.03	1800	216.0623	40.92392	-91.39357
452010	-35	3	4	-18.09942	10.91266	-109.5561	0	11.17	4003	0	0	5	5	0.2918929	-0.1612107	1	10	0.03	1800	215.9941	40.92392	-91.39357
452093	-43	2	5	-18.07518	10.9185	-109.5621	0	11.17	4003	0	0	5	5	0.2918929	-0.1500271	1	10	0.03	1800	216.062	40.92392	-91.39357
452216	-37	6	8	-18.03689	10.92375	-109.5735	0	11.17	4004	0	0	5	5	0.2918929	-0.1446528	1	10	0.03	1800	216.0425	40.92392	-91.39357
452328	-47	-7	3	-18.00607	10.92276	-109.5864	0	11.17	4004	0	0	5	5	0.2918929	-0.1515376	1	10	0.03	1800	215.9936	40.92392	-91.39357
452347	-41	1	0	-17.9993	10.92784	-109.5885	0	11.17	4004	0	0	5	5	0.2918929	-0.1532341	1	10	0.03	1800	216.0607	40.92392	-91.39357
452475	-38	-2	7	-17.97239	10.93468	-109.5963	0	11.17	4002	0	0	5	5	0.2918929	-0.1582719	1	10	0.03	1800	215.8822	40.92392	-91.39357
452546	-49	-1	2	-17.95981	10.93715	-109.6033	0	11.17	4003	0	0	5	5	0.2918929	-0.1647811	1	10	0.03	1800	215.8876	40.92392	-91.39357
452664	-39	0	3	-17.95926	10.93293	-109.6098	0	11.17	4003	0	0	5	5	0.2918929	-0.172429	1	10	0.03	1800	215.9808	40.92392	-91.39357
452737	-52	-4	6	-17.93232	10.93881	-109.6167	0	11.17	4003	0	0	5	5	0.2918929	-0.1742026	1	10	0.03	1800	215.9394	40.92392	-91.39357
452846	-38	-1	4	-17.91093	10.94303	-109.6266	0	11.17	4003	0	0	5	5	0.2918929	-0.1791476	1	10	0.03	1800	215.9284	40.92392	-91.39357
452974	-38	-1	8	-17.90577	10.94708	-109.6353	0	11.17	4002	0	0	5	5	0.2918929	-0.181234	1	10	0.03	1800	215.9021	40.92392	-91.39357
453080	-52	3	9	-17.89862	10.95284	-109.6433	0	11.17	4004	0	0	5	5	0.2918929	-0.1912175	1	10	0.03	1800	215.9033	40.92392	-91.39357
453130	-39	0	1	-17.88826	10.95483	-109.6484	0	11.23	4002	0	0	5	5	0.2918929	-0.1949725	1	10	0.03	1800	215.9615	40.92392	-91.39357
453232	-40	3	8	-17.87154	10.96271	-109.6562	0	11.23	4003	0	0	5	5	0.2918929	-0.2058448	1	10	0.03	1800	215.9697	40.92392	-91.39357
453442	-39	-3	3	-17.85313	10.9731	-109.6775	0	11.23	4003	0	0	5	5	0.2918929	-0.2119282	1	10	0.03	1800	215.8584	40.92392	-91.39357
453545	-42	-32	19	-17.83928	10.98783	-109.6943	0	11.23	4004	0	0	5	5	0.2918929	-0.2197394	1	10	0.03	1800	215.8649	40.92392	-91.39357
453647	-37	16	2	-17.838	10.98097	-109.702	0	11.23	4002	0	0	5	5	0.2918929	-0.2233619	1	10	0.03	1800	215.971	40.92392	-91.39357
453734	-44	2	0	-17.83079	10.98096	-109.7094	0	11.23	4002	0	0	5	5	0.2918929	-0.2293084	1	10	0.03	1800	215.8165	40.92392	-91.39357
453915	-36	6	5	-17.81701	10.97578	-109.728	0	11.23	4002	0	0	5	5	0.2918929	-0.2427434	1	10	0.03	1800	215.8713	40.92392	-91.39357
454024	-36	-3	5	-17.81575	10.96348	-109.7375	0	11.23	4003	0	0	5	5	0.2918929	-0.2427337	1	10	0.03	1800	215.8567	40.92392	-91.39357
454054	-43	0	5	-17.8164	10.9639	-109.7402	0	11.23	4004	0	0	5	5	0.2918929	-0.243162	1	10	0.03	1800	215.8567	40.92392	-91.39357
454200	4536	1810	1336	-10.32891	7.25276	-113.6023	0	11.23	4002	0	0	5	5	0.2918929	-0.2456331	1	10	0.03	1800	218.2858	40.92392	-91.39357
454295	4407	3774	-782	-7.6514	4.543475	-113.5429	0	11.23	4003	0	0	5	5	0.2918929	-0.2466065	1	10	0.03	1800	218.2858	40.92392	-91.39357
454342	3473	7184	-2010	-6.211753	-0.01967991	-112.1783	0	11.23	4003	0	0	5	5	0.2918929	-0.2470198	1	10	0.03	1800	218.7305	40.92392	-91.39357
454473	6103	7015	-2026	-3.567317	-10.12428	-105.5957	0	11.23	4003	0	0	5	5	0.2918929	-0.2530769	1	10	0.03	1800	213.4143	40.92392	-91.39357
454584	2344	1360	4725	-2.201407	-9.725173	-108.536	0	11.23	4002	0	0	5	5	0.2918929	-0.2609125	1	10	0.03	1800	210.1517	40.92392	-91.39357
454698	1791	-4049	-2999	-4.121162	1.382565	-112.8722	0	11.23	4003	0	0	5	5	0.2918929	-0.2683276	1	10	0.03	1800	215.7198	40.92392	-91.39357
454755	5147	877	-4892	-2.421391	6.044232	-107.7438	0	11.23	4002	0	0	5	5	0.2918929	-0.2685145	1	10	0.03	1800	211.1419	40.92392	-91.39357
454871	4954	5352	731	0.322682	5.696825	-105.6191	0	11.23	4003	0	0	5	5	0.2918929	-0.2618073	1	10	0.03	1800	208.6304	40.92392	-91.39357
454955	-3806	12407	8439	-2.303957	-10.28724	-114.378	0	11.23	4006	0	0	5	5	0.2918929	-0.2512695	1	10	0.03	1800	212.0293	40.92392	-91.39357
455044	-10518	16684	13785	-10.40093	-23.75116	-127.3576	0	11.17	4003	0	0	5	5	0.2918929	-0.224897	1	10	0.03	1800	216.7424	40.92392	-91.39357
455136	-14778	25811	12052	-17.75603	-45.08916	-143.4439	0	11.17	4003	0	0	5	5	0.2918929	-0.1565322	1	10	0.03	1800	233.0916	40.92392	-91.39357
455261	-1021	19021	-9541	-50.56312	-79.06023	-138.4809	0	11.17	4004	0	0	5	5	0.2918929	-0.1019126	1	10	0.03	1800	250.6985	40.92392	-91.39357
455375	12224	-1291	-22794	-66.81025	-45.65384	-110.5623	0	11.17	4003	0	0	5	5	0.2918929	-0.04630496	1	10	0.03	1800	206.8275	40.92392	-91.39357
455467	5937	1445	-9712	-52.40822	16.00071	-70.496	0	11.17	4004	0	0	5	5	0.2918929	0.02608239	1	10	0.03	1800	188.038	40.92392	-91.39357
455625	9571	-14081	-7667	-9.977817	53.80843	-61.71909	0	11.17	4003	0	0	5	5	0.2918929	0.09117493	1	10	0.03	1800	196.0689	40.92392	-91.39357
455650	9571	-14081	-7667	-9.977817	53.80843	-61.71909	0	11.17	4003	0	0	5	5	0.2918929	0.1032973	1	10	0.03	1800	196.0689	40.92392	-91.39357
455762	-3282	11700	-675	-0.6556932	54.0813	-52.90809	0	11.17	4002	0	0	5	5	0.2918929	0.1514742	1	10	0.03	1800	189.25	40.92392	-91.39357
455855	-172	4361	-506	-4.89398	41.11955	-53.11359	0	11.17	4002	0	0	5	5	0.2918929	0.1765983	1	10	0.03	1800	183.3211	40.92397	-91.39357
455986	5830	967	2399	-0.2373465	38.43676	-52.87523	0	11.17	4002	0	0	5	5	0.2918929	0.2273252	1	10	0.03	1800	182.0631	40.92397	-91.39356
456073	2836	-1908	7830	0.3046302	40.09539	-58.53374	0	11.17	4002	0	0	5	5	0.2918929	0.2445586	1	10	0.03	1800	186.4687	40.92397	-91.39356
456198	-1094	75	5352	-10.65448	44.67397	-76.1986	0	11.17	4003	0	0	5	5	0.2918929	0.2629522	1	10	0.03	1800	204.7891	40.92397	-91.39354
456304	-4707	863	7782	-20.54724	41.8032	-83.15704	0	11.17	4003	0	0	5	5	0.2918929	0.2733636	1	10	0.03	1800	210.4035	40.92397	-91.39354
456430	46	-5509	8029	-43.00468	33.85665	-108.8247	0	11.17	4004	0	0	5	5	0.2918929	0.2810328	1	10	0.03	1800	231.8013	40.92397	-91.39353
456488	807	-5717	5776	-43.94517	34.82682	-112.5709	0	11.17	4003	0	0	5	5	0.2918929	0.2816923	1	10	0.03	1800	249.1094	40.92397	-91.39353
456600	-935	3170	779	-44.12436	36.497	-117.9951	0	11.17	4003	0	0	5	5	0.2918929	0.2843215	1	10	0.03	1800	-97.44952	40.92397	-91.39355
456634	-1405	4579	85	-43.93188	34.5816	-118.2439	0	11.17	4003	0	0	5	5	0.2918929	0.2859721	1	10	0.03	1800	-97.44952	40.92397	-91.39355
456847	-191	-684	-10243	-29.80341	43.23271	-102.8141	0	11.23	4002	0	0	5	5	0.2918929	0.2902701	1	10	0.03	1800	248.2949	40.92396	-91.39358
456999	4517	6880	-12527	-15.0995	43.9174	-83.82066	0	11.23	4003	0	0	5	5	0.2918929	0.2983742	1	10	0.03	1800	224.9144	40.92396	-91.39359
457081	5433	5529	-10762	5.310022	36.02195	-63.60117	0	11.23	4003	0	0	5	5	0.2918929	0.3132781	1	10	0.03	1800	207.0773	40.92397	-91.39359
457203	4037	6785	-7878	18.2762	24.8864	-42.89978	0	11.23	4004	0	0	5	5	0.2918929	0.3280891	1	10	0.03	1800	181.7749	40.92397	-91.39359
457224	4141	3984	-3036	27.83086	16.39189	-33.5621	0	11.23	4002	0	0	5	5	0.2918929	0.3747866	1	10	0.03	1800	171.8457	40.92396	-91.39359
457415	3463	4258	1292	40.37158	11.76578	-32.12227	0	11.23	4002	0	0	5	5	0.2918929	0.3863019	1	10	0.03	1800	174.3275	40.92395	-91.3936
457536	842	1542	1980	44.06577	13.44401	-35.84907	0	11.23	4002	0	0	5	5	0.2918929	0.4089248	1	10	0.03	1800	181.3391	40.92394	-91.3936
457578	-604	1889	2106	43.62368	14.60364	-36.97319	0	11.23	4003	0	0	5	5	0.2918929	0.4124187	1	10	0.03	1800	186.53	40.92394	-91.3936
457689	-2834	-7486	7981	36.04427	25.09485	-45.13436	0	11.23	4004	0	0	5	5	0.2918929	0.417736	1	10	0.03	1800	186.742	40.92393	-91.39361
457790	-13036	-11288	8116	-0.3041241	60.2419	-60.99507	0	11.23	4004	0	0	5	5	0.2918929	0.4178317	1	10	0.03	1800	114.9434	40.92393	-91.39361
457925	-4671	-8072	5929	-27.64757	70.19034	-71.80994	0	11.23	4003	0	0	5	5	0.2918929	0.4119501	1	10	0.03	1800	126.3702	40.92392	-91.39362
457985	-2953	-5276	5081	-38.34532	72.91165	-77.7542	0	11.23	4004	0	0	5	5	0.2918929	0.3981043	1	10	0.03	1800	148.096	40.92392	-91.39362
458126	4214	3432	2543	-45.19038	61.30748	-88.19	0	11.23	4004	0	0	5	5	0.2918929	0.3726218	1	10	0.03	1800	222.2488	40.92391	-91.39364
458244	3729	7363	529	-38.94269	50.95356	-91.06075	0	11.23	4002	0	0	5	5	0.2918929	0.3184693	1	10	0.03	1800	211.2675	40.9239	-91.39365
458371	6982	10014	-3196	-24.98846	36.87457	-87.82069	0	11.23	4003	0	0	5	5	0.2918929	0.2769828	1	10	0.03	1800	179.1207	40.9239	-91.39365
458466	103	7438	-3927	-9.100238	26.18359	-80.30923	0	11.23	4002	0	0	5	5	0.2918929	0.2663284	1	10	0.03	1800	146.1271	40.92389	-91.39365
458544	-2079	6248	-957	-9.90339	22.72845	-77.24496	0	11.29	4003	0	0	5	5	0.2918929	0.2534748	1	10	0.03	1800	95.95884	40.92388	-91.39365
458662	-706	3404	-2512	-12.50072	20.18101	-74.32064	0	11.29	4003	0	0	5	5	0.2918929	0.2418255	1	10	0.03	1800	55.16579	40.92388	-91.39365
458834	3350	4336	-4536	-14.55501	18.29088	-71.35818	0	11.29	4004	0	0	5	5	0.2918929	0.2105782	1	10	0.03	1800	25.05911	40.92387	-91.39365
458952	6325	581	-458	-9.441224	14.1816	-66.68874	0	11.29	4003	0	0	5	5	0.2918929	0.198862	1	10	0.03	1800	14.73395	40.92387	-91.39365
459079	-1184	9725	-1876	-3.884549	4.410769	-62.53758	0	11.29	4003	0	0	5	5	0.2918929	0.1735147	1	10	0.03	1800	7.396614	40.92387	-91.39365
459178	241	-88	-273	-2.771155	-4.442567	-61.31643	0	11.29	4003	0	0	5	5	0.2918929	0.161788	1	10	0.03	1800	4.961881	40.92387	-91.39365
459336	-184	185	45	-2.659237	-3.004654	-61.14001	0	11.29	4003	0	0	5	5	0.2918929	0.1340062	1	10	0.03	1800	3.303596	40.92387	-91.39365
459422	-42	35	-6	-2.324279	-2.91919	-61.13615	0	11.23	4003	0	0	5	5	0.2918929	0.1228392	1	10	0.03	1800	3.2856	40.92387	-91.39365
459531	118	54	-36	-2.230978	-2.263899	-61.15249	0	11.23	4002	0	0	5	5	0.2918929	0.1133147	1	10	0.03	1800	2.674753	40.92388	-91.39365
459605	-211	-266	195	-2.009022	-2.196439	-61.23251	0	11.23	4003	0	0	5	5	0.2918929	0.1000369	1	10	0.03	1800	2.669019	40.92388	-91.39365
459694	-281	-1712	851	-1.957128	-1.036571	-61.56416	0	11.23	4003	0	0	5	5	0.2918929	0.08871635	1	10	0.03	1800	2.172931	40.92388	-91.39365
459816	-377	-3918	-320	-2.012332	2.834402	-60.97419	0	11.23	4002	0	0	5	5	0.2918929	0.0654827	1	10	0.03	1800	2.900942	40.92388	-91.39365
459927	-2782	-2310	-19	-2.392932	12.20315	-62.96481	0	11.23	4004	0	0	5	5	0.2918929	0.05545418	1	10	0.03	1800	2.982699	40.92388	-91.39365
460023	-1646	2056	-1161	-8.656114	13.77076	-61.00058	0	11.23	4003	0	0	5	5	0.2918929	0.04384722	1	10	0.03	1800	3.582526	40.92388	-91.39365
460072	231	414	-177	-8.839372	12.79267	-58.72364	0	11.23	4003	0	0	5	5	0.2918929	0.04188355	1	10	0.03	1800	0.3219326	40.92388	-91.39365
460168	707	-999	469	-8.597841	13.48009	-59.32848	0	11.23	4002	0	0	5	5	0.2918929	0.03457316	1	10	0.03	1800	-0.2556458	40.92387	-91.39365
460335	-5446	715	34	-12.89654	16.41311	-57.94766	0	11.23	4004	0	0	5	5	0.2918929	0.02602316	1	10	0.03	1800	-1.767822	40.92387	-91.39365
460407	-5411	3143	1677	-19.63948	14.31797	-58.90965	0	11.23	4004	0	0	5	5	0.2918929	0.02575011	1	10	0.03	1800	-3.641541	40.92387	-91.39365
460519	-2273	3877	-2863	-24.99768	7.274603	-59.36861	0	11.23	4002	0	0	5	5	0.2918929	0.02284469	1	10	0.03	1800	-4.726135	40.92387	-91.39365
460617	-6157	6455	-2678	-27.81373	3.534207	-56.41816	0	11.23	4003	0	0	5	5	0.2918929	0.02830063	1	10	0.03	1800	-9.363403	40.92387	-91.39365
460669	-6491	7790	-3251	-34.7201	-2.639867	-52.84714	0	11.23	4004	0	0	5	5	0.2918929	0.03248389	1	10	0.03	1800	-16.17892	40.92387	-91.39365
460750	-2187	9257	-1482	-43.47481	-11.91238	-48.43576	0	11.23	4002	0	0	5	5	0.2918929	0.05323849	1	10	0.03	1800	-21.75867	40.92387	-91.39366
460876	-1247	3517	3461	-46.60548	-29.43406	-53.72487	0	11.23	4004	0	0	5	5	0.2918929	0.07499266	1	10	0.03	1800	-38.07031	40.92387	-91.39367
460985	298	1735	754	-46.92871	-34.79337	-56.87402	0	11.23	4003	0	0	5	5	0.2918929	0.1256859	1	10	0.03	1800	-41.51398	40.92387	-91.39367
461035	716	2240	1007	-46.35925	-35.93547	-57.30843	0	11.23	4004	0	0	5	5	0.2918929	0.1575507	1	10	0.03	1800	-42.80551	40.92387	-91.39367
461136	-486	682	745	-44.17987	-39.94204	-59.23137	0	11.23	4002	0	0	5	5	0.2918929	0.1928954	1	10	0.03	1800	-45.74225	40.92388	-91.39368
461332	290	682	-712	-46.64162	-38.89795	-57.99597	0	11.23	4003	0	0	5	5	0.2918929	0.3128046	1	10	0.03	1800	-47.66013	40.92388	-91.39368
461359	1582	1207	-956	-46.46729	-38.6642	-57.49492	0	11.23	4002	0	0	5	5	0.2918929	0.3128046	1	10	0.03	1800	-47.66013	40.92388	-91.39368
461434	1784	1457	-711	-44.85238	-39.30219	-56.60449	0	11.23	4004	0	0	5	5	0.2918929	0.3392663	1	10	0.03	1800	-48.91959	40.92388	-91.39368
461549	226	-539	-652	-45.35823	-38.64973	-55.11594	0	11.23	4002	0	0	5	5	0.2918929	0.3745571	1	10	0.03	1800	-51.81744	40.92388	-91.39368
461673	-541	-642	-1212	-48.00935	-35.18055	-53.59756	0	11.23	4004	0	0	5	5	0.2918929	0.3863389	1	10	0.03	1800	-50.56241	40.92388	-91.39369
461738	-1380	-689	-1411	-49.52011	-32.80767	-52.17013	0	11.23	4002	0	0	5	5	0.2918929	0.3849182	1	10	0.03	1800	-49.13745	40.92388	-91.39369
461919	-384	79	-725	-55.5752	-28.50606	-48.66126	0	11.23	4003	0	0	5	5	0.2918929	0.3892177	1	10	0.03	1800	-50.09024	40.92388	-91.39369
461970	5677	-4455	-260	-52.75105	-26.7913	-48.49056	0	11.23	4002	0	0	5	5	0.2918929	0.3920985	1	10	0.03	1800	-49.20758	40.92388	-91.39369
462044	13266	-6647	-309	-43.0415	-20.33828	-48.22219	0	11.23	4004	0	0	5	5	0.2918929	0.4022232	1	10	0.03	1800	-39.55167	40.92389	-91.39369
462168	16741	-2724	2946	-4.985452	-3.984128	-46.82439	0	11.23	4004	0	0	5	5	0.2918929	0.4060381	1	10	0.03	1800	-18.49786	40.92389	-91.39369
462296	994	-5855	7202	8.27238	2.755536	-56.90597	0	11.23	4004	0	0	5	5	0.2918929	0.4051413	1	10	0.03	1800	-14.04617	40.92389	-91.39369
462353	-4292	-859	6163	5.26052	7.131625	-64.27013	0	11.23	4004	0	0	5	5	0.2918929	0.3940897	1	10	0.03	1800	-7.470367	40.92388	-91.39369
462502	-976	-1033	850	1.659995	10.49751	-70.53282	0	11.23	4004	0	0	5	5	0.2918929	0.3613988	1	10	0.03	1800	-5.749603	40.92388	-91.39369
462562	737	-367	961	1.432274	11.67813	-71.31421	0	11.23	4004	0	0	5	5	0.2918929	0.3338676	1	10	0.03	1800	-6.70575	40.92388	-91.39369
462712	-611	-604	1168	2.404019	9.288215	-75.1224	0	11.23	4002	0	0	5	5	0.2918929	0.2805575	1	10	0.03	1800	-5.454956	40.92388	-91.39369
462825	169	3436	-50	-0.9062629	3.214297	-73.16474	0	11.23	4003	0	0	5	5	0.2918929	0.2489419	1	10	0.03	1800	-8.407623	40.92388	-91.39369
462861	-1758	1139	10	-0.9738454	1.774105	-73.32639	0	11.23	4003	0	0	5	5	0.2918929	0.2331168	1	10	0.03	1800	-8.407623	40.92388	-91.39369
463011	110	-250	38	-1.074367	1.306904	-73.30512	0	11.29	4002	0	0	5	5	0.2918929	0.1820561	1	10	0.03	1800	-8.415192	40.92387	-91.39369
463072	-132	82	13	-0.936749	1.327788	-73.316	0	11.29	4003	0	0	5	5	0.2918929	0.1633031	1	10	0.03	1800	-8.4841	40.92387	-91.39369
463194	5	-77	34	-0.9981925	1.079672	-73.33091	0	11.29	4002	0	0	5	5	0.2918929	0.1214583	1	10	0.03	1800	-8.605408	40.92387	-91.39369
463240	-2	-28	15	-1.033458	0.9523839	-73.33928	0	11.29	4004	0	0	5	5	0.2918929	0.1081995	1	10	0.03	1800	-8.614685	40.92387	-91.39369
463306	-232	192	46	-1.000393	0.9015903	-73.35033	0	11.29	4004	0	0	5	5	0.2918929	0.09845959	1	10	0.03	1800	-8.701447	40.92387	-91.39369
463412	327	-476	136	-0.9142905	0.9292594	-73.34004	0	11.29	4004	0	0	5	5	0.2918929	0.09289657	1	10	0.03	1800	-8.795624	40.92387	-91.39369
463549	262	-272	-125	-0.8171887	0.9751925	-73.36304	0	11.29	4002	0	0	5	5	0.2918929	0.0902475	1	10	0.03	1800	-8.675446	40.92387	-91.39369
463774	-201	45	-20	-0.8800856	0.7011905	-73.40452	0	11.29	4003	0	0	5	5	0.2918929	0.09007718	1	10	0.03	1800	-8.670563	40.92387	-91.39369
463852	-127	143	-29	-0.9177939	0.7351303	-73.40501	0	11.29	4004	0	0	5	5	0.2918929	0.08861287	1	10	0.03	1800	-8.743103	40.92387	-91.39369
463968	-3	-97	-4	-0.881511	0.592574	-73.40456	0	11.29	4004	0	0	5	5	0.2918929	0.08730389	1	10	0.03	1800	-8.907227	40.92387	-91.3937
464044	33	69	-23	-0.8507982	0.7366486	-73.40385	0	11.29	4003	0	0	5	5	0.2918929	0.08679332	1	10	0.03	1800	-8.907227	40.92387	-91.3937
464147	-18	-41	9	-0.8358691	0.6492451	-73.41331	0	11.29	4002	0	0	5	5	0.2918929	0.08227494	1	10	0.03	1800	-8.926819	40.92386	-91.3937
464313	-61	42	3	-0.8333431	0.6088644	-73.42791	0	11.29	4004	0	0	5	5	0.2918929	0.07225482	1	10	0.03	1800	-8.814545	40.92385	-91.3937
464376	-14	-17	-12	-0.8433802	0.5735608	-73.43035	0	11.29	4003	0	0	5	5	0.2918929	0.06767447	1	10	0.03	1800	-8.941254	40.92385	-91.3937
464455	-18	-10	4	-0.8423125	0.5714932	-73.43371	0	11.29	4003	0	0	5	5	0.2918929	0.06548703	1	10	0.03	1800	-8.716705	40.92385	-91.3937
464567	-26	-8	2	-0.8294079	0.5540377	-73.44042	0	11.29	4003	0	0	5	5	0.2918929	0.06465526	1	10	0.03	1800	-8.989838	40.92385	-91.3937
464739	-34	0	2	-0.8190474	0.5551564	-73.44805	0	11.29	4003	0	0	5	5	0.2918929	0.06128383	1	10	0.03	1800	-9.04007	40.92385	-91.3937
464812	-7	4	-109	-0.8233255	0.5253816	-73.43564	0	11.29	4002	0	0	5	5	0.2918929	0.05873743	1	10	0.03	1800	-8.836456	40.92385	-91.39371
464897	-82	58	84	-0.5639561	0.7642193	-73.40703	0	11.29	4004	0	0	5	5	0.2918929	0.05306444	1	10	0.03	1800	-9.003357	40.92385	-91.39371
464971	-182	315	192	-0.7220845	0.6520299	-73.52287	0	11.29	4002	0	0	5	5	0.2918929	0.04712415	1	10	0.03	1800	-9.062714	40.92384	-91.39371
465039	124	-265	-52	-0.7082753	0.4884511	-73.46621	0	11.29	4003	0	0	5	5	0.2918929	0.04367391	1	10	0.03	1800	-8.961517	40.92384	-91.39371
465093	-16	29	42	-0.696126	0.7123935	-73.46565	0	11.29	4003	0	0	5	5	0.2918929	0.04449527	1	10	0.03	1800	-9.032867	40.92384	-91.39371
465195	-263	270	31	-0.740707	0.5172992	-73.48466	0	11.29	4002	0	0	5	5	0.2918929	0.04579535	1	10	0.03	1800	-8.850677	40.92384	-91.39371
465311	-128	143	9	-0.7483957	0.5551806	-73.48984	0	11.29	4003	0	0	5	5	0.2918929	0.04953716	1	10	0.03	1800	-9.182465	40.92384	-91.39371
465400	-2	-14	-8	-0.8114259	0.4782385	-73.49527	0	11.29	4004	0	0	5	5	0.2918929	0.05507833	1	10	0.03	1800	-9.121307	40.92384	-91.39371
465495	-70	44	-15	-0.792188	0.486473	-73.49936	0	11.29	4003	0	0	5	5	0.2918929	0.05782611	1	10	0.03	1800	-9.095703	40.92384	-91.39372
465592	496	-790	-78	-0.7329647	0.5318398	-73.50735	0	11.29	4004	0	0	5	5	0.2918929	0.06028242	1	10	0.03	1800	-9.320374	40.92384	-91.39372
465682	-222	319	46	-0.6086883	0.7572603	-73.52215	0	11.29	4003	0	0	5	5	0.2918929	0.0589466	1	10	0.03	1800	-8.820953	40.92384	-91.39372
465836	122	-164	23	-0.6678828	0.7020957	-73.52361	0	11.29	4002	0	0	5	5	0.2918929	0.055639	1	10	0.03	1800	-9.249023	40.92384	-91.39372
465930	-31	87	-60	-0.7648793	0.4783404	-73.51591	0	11.29	4003	0	0	5	5	0.2918929	0.05600704	1	10	0.03	1800	-9.029846	40.92384	-91.39372
466013	-6	-102	34	-0.7090775	0.5410682	-73.52134	0	11.29	4003	0	0	5	5	0.2918929	0.05227283	1	10	0.03	1800	-9.151184	40.92384	-91.39372
466178	28	-57	7	-0.7454075	0.4924103	-73.53685	0	11.29	4003	0	0	5	5	0.2918929	0.04205557	1	10	0.03	1800	-9.161987	40.92384	-91.39373
466201	-32	18	20	-0.7335062	0.5186063	-73.53838	0	11.29	4004	0	0	5	5	0.2918929	0.0408415	1	10	0.03	1800	-9.178253	40.92384	-91.39373
466290	-32	-119	94	-0.7742742	0.4646191	-73.55988	0	11.29	4003	0	0	5	5	0.2918929	0.0382401	1	10	0.03	1800	-9.127502	40.92384	-91.39373
466396	-509	808	374	-0.7221113	0.6602815	-73.52942	0	11.29	4003	0	0	5	5	0.2918929	0.03801188	1	10	0.03	1800	-9.093597	40.92384	-91.39373
466497	-36	82	36	-0.6986757	0.5527216	-73.55375	0	11.29	4003	0	0	5	5	0.2918929	0.03387053	1	10	0.03	1800	-9.353516	40.92384	-91.39373
466652	-19	-44	-2	-0.7338267	0.4560536	-73.56673	0	11.23	4003	0	0	5	5	0.2918929	0.03384241	1	10	0.03	1800	-9.176788	40.92383	-91.39374
466704	-30	-4	16	-0.7334593	0.5205479	-73.5688	0	11.23	4004	0	0	5	5	0.2918929	0.03622674	1	10	0.03	1800	-9.176788	40.92383	-91.39374
466839	-53	24	-9	-0.7449167	0.5016947	-73.58138	0	11.23	4003	0	0	5	5	0.2918929	0.03806436	1	10	0.03	1800	-9.206726	40.92383	-91.39374
466903	-41	-2	1	-0.7383469	0.4858177	-73.58479	0	11.23	4003	0	0	5	5	0.2918929	0.03930455	1	10	0.03	1800	-9.206726	40.92383	-91.39374
467016	-22	-6	5	-0.7513678	0.4892406	-73.59254	0	11.23	4002	0	0	5	5	0.2918929	0.04189239	1	10	0.03	1800	-9.182648	40.92383	-91.39374
467172	-25	5	4	-0.7403924	0.4982334	-73.60078	0	11.23	4003	0	0	5	5	0.2918929	0.05521315	1	10	0.03	1800	-9.161713	40.92383	-91.39374
467211	-31	2	3	-0.7370854	0.4913733	-73.60231	0	11.23	4004	0	0	5	5	0.2918929	0.05615317	1	10	0.03	1800	-9.161713	40.92383	-91.39374
467307	-47	-150	76	-0.7558119	0.4267112	-73.6256	0	11.23	4004	0	0	5	5	0.2918929	0.05745243	1	10	0.03	1800	-8.947174	40.92383	-91.39374
467422	233	-400	183	-0.7549139	0.5319045	-73.66547	0	11.23	4003	0	0	5	5	0.2918929	0.0556757	1	10	0.03	1800	-9.326691	40.92383	-91.39374
467519	23	-184	1915	-0.1240059	1.511784	-75.1646	0	11.29	4004	0	0	5	5	0.2918929	0.05591544	1	10	0.03	1800	-8.979828	40.92384	-91.39374
467613	-91	203	507	-0.5202461	1.225726	-76.46918	0	11.29	4003	0	0	5	5	0.2918929	0.05519535	1	10	0.03	1800	-7.073822	40.92384	-91.39374
467697	-178	216	8	-0.6762525	0.7415723	-76.56631	0	11.29	4004	0	0	5	5	0.2918929	0.05482306	1	10	0.03	1800	-6.698792	40.92384	-91.39374
467806	19	0	-32	-0.861958	0.3143825	-76.58503	0	11.29	4002	0	0	5	5	0.2918929	0.05766809	1	10	0.03	1800	-7.074951	40.92384	-91.39374
467943	-91	59	5	-0.7209083	0.4889324	-76.59028	0	11.29	4004	0	0	5	5	0.2918929	0.06700253	1	10	0.03	1800	-7.206482	40.92385	-91.39374
468004	-130	47	24	-0.7603508	0.4443628	-76.59663	0	11.29	4002	0	0	5	5	0.2918929	0.0737495	1	10	0.03	1800	-7.206482	40.92385	-91.39374
468156	-45	-21	6	-0.8169513	0.3642924	-76.61024	0	11.29	4002	0	0	5	5	0.2918929	0.07040467	1	10	0.03	1800	-6.97757	40.92385	-91.39373
468216	-51	26	10	-0.8164543	0.3833866	-76.61469	0	11.29	4003	0	0	5	5	0.2918929	0.0709988	1	10	0.03	1800	-7.032227	40.92385	-91.39373
468328	-31	27	8	-0.8053564	0.3862406	-76.6186	0	11.29	4004	0	0	5	5	0.2918929	0.07381333	1	10	0.03	1800	-7.252472	40.92385	-91.39373
468404	-12	-19	13	-0.8230876	0.3529949	-76.62299	0	11.29	4002	0	0	5	5	0.2918929	0.07611299	1	10	0.03	1800	-7.02829	40.92385	-91.39373
468510	-13	-19	7	-0.8071437	0.3533443	-76.62965	0	11.29	4003	0	0	5	5	0.2918929	0.07720915	1	10	0.03	1800	-7.053192	40.92385	-91.39373
468637	-29	0	1	-0.8117319	0.3637573	-76.63416	0	11.29	4004	0	0	5	5	0.2918929	0.08614524	1	10	0.03	1800	-7.082031	40.92385	-91.39373
468702	-25	1	0	-0.8057572	0.3707659	-76.63654	0	11.29	4004	0	0	5	5	0.2918929	0.09570511	1	10	0.03	1800	-7.275116	40.92385	-91.39373
468908	-32	-1	14	-0.8146303	0.3618187	-76.64509	0	11.29	4003	0	0	5	5	0.2918929	0.1256815	1	10	0.03	1800	-7.041382	40.92385	-91.39373
469061	-28	-10	2	-0.8039465	0.3537493	-76.65717	0	11.29	4003	0	0	5	5	0.2918929	0.1360339	1	10	0.03	1800	-7.051147	40.92385	-91.39372
469102	-32	2	3	-0.8016489	0.3570445	-76.65961	0	11.29	4003	0	0	5	5	0.2918929	0.1431825	1	10	0.03	1800	-7.281189	40.92385	-91.39372
469247	-34	1	1	-0.7993222	0.3569475	-76.66584	0	11.29	4003	0	0	5	5	0.2918929	0.1614191	1	10	0.03	1800	-7.045868	40.92385	-91.39372
469331	-25	-3	1	-0.804274	0.3535701	-76.67237	0	11.29	4003	0	0	5	5	0.2918929	0.1569885	1	10	0.03	1800	-7.031128	40.92385	-91.39371
469427	-24	-6	3	-0.7968739	0.3571372	-76.6775	0	11.29	4003	0	0	5	5	0.2918929	0.152652	1	10	0.03	1800	-7.29306	40.92385	-91.39371
469502	-32	9	1	-0.7977307	0.3579925	-76.68067	0	11.29	4002	0	0	5	5	0.2918929	0.152929	1	10	0.03	1800	-7.06958	40.92385	-91.39371
469606	-21	4	0	-0.8041283	0.3527568	-76.68946	0	11.29	4002	0	0	5	5	0.2918929	0.1555342	1	10	0.03	1800	-7.060608	40.92386	-91.39371
469731	-27	3	3	-0.7985892	0.3541666	-76.69459	0	11.29	4002	0	0	5	5	0.2918929	0.1634529	1	10	0.03	1800	-7.068024	40.92386	-91.39371
469819	-32	-3	7	-0.793093	0.3557882	-76.70228	0	11.29	4004	0	0	5	5	0.2918929	0.1647659	1	10	0.03	1800	-7.286499	40.92386	-91.39371
469926	-23	3	5	-0.7835618	0.351036	-76.70551	0	11.29	4002	0	0	5	5	0.2918929	0.1679113	1	10	0.03	1800	-7.305389	40.92387	-91.3937
470083	-18	-6	0	-0.7744501	0.3408045	-76.71552	0	11.29	4002	0	0	5	5	0.2918929	0.168105	1	10	0.03	1800	-7.10675	40.92387	-91.3937
470117	-28	-1	1	-0.7750295	0.3420435	-76.71693	0	11.29	4002	0	0	5	5	0.2918929	0.164574	1	10	0.03	1800	-7.10675	40.92387	-91.3937
470193	-28	5	2	-0.7708185	0.3334955	-76.72034	0	11.29	4003	0	0	5	5	0.2918929	0.1569974	1	10	0.03	1800	-7.327667	40.92387	-91.3937
470331	-26	0	0	-0.7694044	0.3410844	-76.72596	0	11.29	4003	0	0	5	5	0.2918929	0.1455771	1	10	0.03	1800	-7.097748	40.92387	-91.3937
470430	-24	0	5	-0.7722389	0.3452088	-76.73103	0	11.29	4002	0	0	5	5	0.2918929	0.1388654	1	10	0.03	1800	-7.084686	40.92387	-91.3937
470490	-38	6	3	-0.7715343	0.3425558	-76.73273	0	11.29	4003	0	0	5	5	0.2918929	0.137652	1	10	0.03	1800	-7.084686	40.92387	-91.3937
