time(ms)	gyro_x(deg/s)	gyro_y(deg/s)	gyro_z(deg/s)	orientation_roll(deg)	orientation_pitch(deg)	orientation_yaw(deg)	throttle	battery(V)	loop_time(uS)	pid_output_roll	pid_output_pitch	pid_output_yaw	pid_output_throttle	ultrasonic_alt	baro_alt	flight_mode	p_gain_altitude	i_gain_altitude	d_gain_altitude	compass_heading	latitude	longitude
156434	-50	6	1	-1.074031	-0.02989804	-3.766786	0	11.91	4003	0	0	5	5	0.3028688	0.2795988	1	10	0.03	1800	-5.430054	40.92389	-91.39363
156605	-52	3	1	-1.072074	-0.03497258	-3.78641	0	11.91	4004	0	0	5	5	0.3028688	0.2857351	1	10	0.03	1800	-5.44574	40.9239	-91.39363
156732	-52	1	6	-1.066559	-0.03390031	-3.796926	0	11.91	4004	0	0	5	5	0.3028688	0.2803783	1	10	0.03	1800	-5.453522	40.9239	-91.39363
156764	-55	6	6	-1.066749	-0.03069942	-3.800899	0	11.91	4004	0	0	5	5	0.3028688	0.2820524	1	10	0.03	1800	-5.453522	40.9239	-91.39363
156903	-58	4	7	-1.065719	-0.02827191	-3.818384	0	11.91	4002	0	0	5	5	0.3028688	0.2776774	1	10	0.03	1800	-5.23941	40.9239	-91.39363
156944	-55	0	0	-1.060125	-0.03125869	-3.821502	0	11.91	4004	0	0	5	5	0.3028688	0.2757287	1	10	0.03	1800	-5.471161	40.9239	-91.39363
157062	-49	4	10	-1.060858	-0.03084348	-3.830856	0	11.91	4003	0	0	5	5	0.3028688	0.2685465	1	10	0.03	1800	-5.670471	40.9239	-91.39363
157183	-50	4	3	-1.058244	-0.03299494	-3.845896	0	11.91	4003	0	0	5	5	0.3028688	0.2680897	1	10	0.03	1800	-5.487915	40.9239	-91.39363
157298	-51	5	7	-1.052782	-0.03307688	-3.856106	0	11.91	4003	0	0	5	5	0.3028688	0.2655011	1	10	0.03	1800	-5.70697	40.9239	-91.39363
157387	-51	0	8	-1.048917	-0.03511552	-3.863992	0	11.91	4003	0	0	5	5	0.3028688	0.2638796	1	10	0.03	1800	-5.687317	40.9239	-91.39363
157454	-50	-3	5	-1.046407	-0.03909711	-3.874508	0	11.91	4003	0	0	5	5	0.3028688	0.2642874	1	10	0.03	1800	-5.694214	40.9239	-91.39363
157560	-59	4	7	-1.041002	-0.03774799	-3.885697	0	11.91	4004	0	0	5	5	0.3028688	0.2673179	1	10	0.03	1800	-5.694733	40.9239	-91.39363
157783	-54	0	11	-1.045698	-0.04654734	-3.911559	0	11.91	4004	0	0	5	5	0.3028688	0.2765027	1	10	0.03	1800	-5.480438	40.9239	-91.39363
157883	-52	0	12	-1.048301	-0.04099513	-3.918406	0	11.91	4003	0	0	5	5	0.3028688	0.2813401	1	10	0.03	1800	-5.478485	40.9239	-91.39363
158085	-47	6	5	-1.048736	-0.04479828	-3.93956	0	11.91	4004	0	0	5	5	0.3028688	0.288451	1	10	0.03	1800	-5.285278	40.9239	-91.39363
158198	-49	-1	6	-1.05224	-0.04024291	-3.951788	0	11.91	4003	0	0	5	5	0.3028688	0.2987929	1	10	0.03	1800	-5.689911	40.9239	-91.39363
158273	-44	2	4	-1.045154	-0.03524816	-3.962426	0	11.91	4003	0	0	5	5	0.3028688	0.3091067	1	10	0.03	1800	-5.711578	40.9239	-91.39363
158391	-48	3	10	-1.03471	-0.03492098	-3.9771	0	11.91	4003	0	0	5	5	0.3028688	0.3214781	1	10	0.03	1800	-5.698303	40.9239	-91.39363
158575	-58	0	0	-1.035892	-0.041954	-3.990977	0	11.91	4004	0	0	5	5	0.3028688	0.3237757	1	10	0.03	1800	-5.721802	40.9239	-91.39363
158643	-50	-3	3	-1.039186	-0.04050507	-4.002104	0	11.91	4003	0	0	5	5	0.3028688	0.3279156	1	10	0.03	1800	-5.70517	40.9239	-91.39363
158807	-45	0	2	-1.040819	-0.035538	-4.015001	0	11.91	4002	0	0	5	5	0.3028688	0.3308693	1	10	0.03	1800	-5.467896	40.9239	-91.39363
159019	-54	2	5	-1.030111	-0.04540849	-4.033828	0	11.91	4002	0	0	5	5	0.3028688	0.3176328	1	10	0.03	1800	-5.506927	40.9239	-91.39363
159144	-45	3	7	-1.019497	-0.0357989	-4.048868	0	11.91	4003	0	0	5	5	0.3028688	0.3037075	1	10	0.03	1800	-5.521606	40.9239	-91.39363
159253	-39	1	8	-1.011243	-0.03300064	-4.057185	0	11.91	4003	0	0	5	5	0.3028688	0.3026701	1	10	0.03	1800	-5.731567	40.9239	-91.39363
159332	-54	-2	10	-1.005734	-0.03664806	-4.066233	0	11.91	4003	0	0	5	5	0.3028688	0.3043743	1	10	0.03	1800	-5.557922	40.9239	-91.39363
159417	-45	0	4	-1.005101	-0.04166232	-4.071064	0	11.91	4003	0	0	5	5	0.3028688	0.3038731	1	10	0.03	1800	-5.563385	40.9239	-91.39363
159553	-50	1	2	-0.9941117	-0.03597536	-4.081884	0	11.91	4003	0	0	5	5	0.3028688	0.2961564	1	10	0.03	1800	-5.572754	40.9239	-91.39363
159679	-42	3	3	-0.99038	-0.037011	-4.088731	0	11.91	4002	0	0	5	5	0.3028688	0.2858012	1	10	0.03	1800	-5.577911	40.9239	-91.39363
159726	-45	9	9	-0.9914972	-0.0397088	-4.092216	0	11.91	4004	0	0	5	5	0.3028688	0.2822199	1	10	0.03	1800	-5.584473	40.9239	-91.39363
159781	-47	1	7	-0.9877384	-0.04118146	-4.099061	0	11.91	4004	0	0	5	5	0.3028688	0.2801248	1	10	0.03	1800	-5.774658	40.9239	-91.39363
159904	-45	3	1	-0.9860789	-0.04909917	-4.111595	0	11.91	4004	0	0	5	5	0.3028688	0.2761001	1	10	0.03	1800	-5.592651	40.9239	-91.39363
160046	-47	0	6	-0.9913251	-0.04777754	-4.124188	0	11.91	4003	0	0	5	5	0.3028688	0.2773634	1	10	0.03	1800	-5.986053	40.9239	-91.39363
160085	-45	2	4	-0.9850498	-0.04742318	-4.131526	0	11.91	4003	0	0	5	5	0.3028688	0.2776045	1	10	0.03	1800	-5.569916	40.9239	-91.39363
160286	-43	1	-3	-0.9779161	-0.0468346	-4.143324	0	11.91	4004	0	0	5	5	0.3028688	0.2745376	1	10	0.03	1800	-5.820251	40.9239	-91.39363
160393	-48	-2	13	-0.9773195	-0.04605179	-4.15549	0	11.91	4004	0	0	5	5	0.3028688	0.2759476	1	10	0.03	1800	-5.584778	40.9239	-91.39363
160549	-48	3	8	-0.9811937	-0.04601905	-4.169734	0	11.91	4003	0	0	5	5	0.3028688	0.2757223	1	10	0.03	1800	-5.60318	40.9239	-91.39363
160592	-45	1	8	-0.9790389	-0.0420768	-4.17542	0	11.91	4002	0	0	5	5	0.3028688	0.2744416	1	10	0.03	1800	-5.814392	40.9239	-91.39363
160696	-44	0	-1	-0.9805244	-0.04782549	-4.182024	0	11.91	4003	0	0	5	5	0.3028688	0.2700422	1	10	0.03	1800	-5.795593	40.9239	-91.39363
160884	-50	1	4	-0.980554	-0.04182146	-4.200487	0	11.91	4003	0	0	5	5	0.3028688	0.2799416	1	10	0.03	1800	-5.607819	40.9239	-91.39363
160930	-44	-2	10	-0.9811617	-0.04336932	-4.20599	0	11.91	4003	0	0	5	5	0.3028688	0.2842324	1	10	0.03	1800	-5.607819	40.9239	-91.39363
161072	-54	5	1	-0.980578	-0.04122117	-4.215527	0	11.91	4003	0	0	5	5	0.3028688	0.2895596	1	10	0.03	1800	-5.813141	40.9239	-91.39363
161180	-49	0	10	-0.9793934	-0.03745697	-4.228671	0	11.91	4004	0	0	5	5	0.3028688	0.2973005	1	10	0.03	1800	-5.604248	40.9239	-91.39363
161258	-50	2	3	-0.9766152	-0.0311316	-4.237169	0	11.91	4003	0	0	5	5	0.3028688	0.3058195	1	10	0.03	1800	-5.597321	40.9239	-91.39363
161384	-55	0	3	-0.9750191	-0.03362611	-4.246949	0	11.91	4004	0	0	5	5	0.3028688	0.3195134	1	10	0.03	1800	-5.818573	40.9239	-91.39363
161417	-51	5	3	-0.9782355	-0.0369758	-4.249578	0	11.91	4002	0	0	5	5	0.3028688	0.3265602	1	10	0.03	1800	-5.819031	40.9239	-91.39363
161588	-49	5	3	-0.9750814	-0.03763516	-4.263703	0	11.91	4002	0	0	5	5	0.3028688	0.3513258	1	10	0.03	1800	-5.802612	40.9239	-91.39363
161662	-41	3	1	-0.975178	-0.03507442	-4.268716	0	11.91	4004	0	0	5	5	0.3028688	0.3613504	1	10	0.03	1800	-5.608429	40.9239	-91.39363
161736	-44	3	2	-0.9769932	-0.03399842	-4.273424	0	11.91	4003	0	0	5	5	0.3028688	0.3645284	1	10	0.03	1800	-5.605011	40.9239	-91.39363
161883	-41	2	7	-0.9715518	-0.03433826	-4.28779	0	11.91	4004	0	0	5	5	0.3028688	0.3723749	1	10	0.03	1800	-5.822021	40.9239	-91.39363
162000	-51	-2	5	-0.9752514	-0.03944988	-4.300384	0	11.91	4003	0	0	5	5	0.3028688	0.3786287	1	10	0.03	1800	-5.801178	40.9239	-91.39363
162080	-46	0	-1	-0.9696798	-0.03825149	-4.307597	0	11.91	4003	0	0	5	5	0.3028688	0.3859586	1	10	0.03	1800	-5.821533	40.9239	-91.39363
162225	-42	3	6	-0.9724298	-0.03491981	-4.316218	0	11.91	4002	0	0	5	5	0.3028688	0.3977509	1	10	0.03	1800	-5.59198	40.9239	-91.39363
162277	-45	2	5	-0.969467	-0.03635374	-4.321782	0	11.91	4003	0	0	5	5	0.3028688	0.3982521	1	10	0.03	1800	-5.807617	40.9239	-91.39363
162433	-46	1	3	-0.9630556	-0.04250444	-4.336396	0	11.91	4002	0	0	5	5	0.3028688	0.3904442	1	10	0.03	1800	-5.622131	40.9239	-91.39363
162511	-48	6	6	-0.9625552	-0.04570646	-4.339269	0	11.91	4003	0	0	5	5	0.3028688	0.3826746	1	10	0.03	1800	-5.843384	40.9239	-91.39363
162631	-41	2	8	-0.9465519	-0.05128156	-4.355349	0	11.91	4002	0	0	5	5	0.3028688	0.3680496	1	10	0.03	1800	-5.617432	40.9239	-91.39363
162691	-45	4	5	-0.9465601	-0.05430983	-4.358773	0	11.91	4003	0	0	5	5	0.3028688	0.3568507	1	10	0.03	1800	-5.841614	40.9239	-91.39363
162863	-38	0	8	-0.9449119	-0.05019309	-4.376441	0	12.02	4002	0	0	5	5	0.3028688	0.3403445	1	10	0.03	1800	-5.653992	40.9239	-91.39363
162940	-45	3	4	-0.9446905	-0.04543899	-4.382493	0	12.02	4004	0	0	5	5	0.3028688	0.3384053	1	10	0.03	1800	-5.848328	40.9239	-91.39363
163076	-40	0	7	-0.9439803	-0.0387756	-4.391356	0	12.02	4003	0	0	5	5	0.3028688	0.3359266	1	10	0.03	1800	-5.847717	40.9239	-91.39363
163141	-41	-1	5	-0.9457217	-0.03750819	-4.396796	0	12.02	4004	0	0	5	5	0.3028688	0.3337503	1	10	0.03	1800	-5.634155	40.9239	-91.39363
163233	-43	3	7	-0.9443091	-0.03432648	-4.405661	0	12.02	4004	0	0	5	5	0.3028688	0.3312427	1	10	0.03	1800	-5.843903	40.9239	-91.39363
163304	-44	1	4	-0.9432707	-0.03299975	-4.411224	0	12.02	4004	0	0	5	5	0.3028688	0.3294147	1	10	0.03	1800	-5.823334	40.9239	-91.39363
163424	-37	-2	3	-0.9388283	-0.03056241	-4.420823	0	12.02	4003	0	0	5	5	0.3028688	0.3243727	1	10	0.03	1800	-5.851135	40.9239	-91.39363
163530	-48	-1	6	-0.9398879	-0.03484692	-4.428648	0	12.02	4002	0	0	5	5	0.3028688	0.3179911	1	10	0.03	1800	-5.851868	40.9239	-91.39363
163603	-42	0	5	-0.9417985	-0.03370336	-4.440691	0	12.02	4002	0	0	5	5	0.3028688	0.3163386	1	10	0.03	1800	-5.636353	40.9239	-91.39363
163705	-44	6	2	-0.9439433	-0.03649531	-4.448149	0	11.97	4004	0	0	5	5	0.3028688	0.3063434	1	10	0.03	1800	-5.845673	40.9239	-91.39363
163755	-36	0	3	-0.9385935	-0.03827614	-4.452123	0	11.97	4003	0	0	5	5	0.3028688	0.3073212	1	10	0.03	1800	-5.655731	40.9239	-91.39363
163862	-39	-1	6	-0.9330045	-0.04057208	-4.462884	0	11.97	4004	0	0	5	5	0.3028688	0.3067823	1	10	0.03	1800	-5.644775	40.9239	-91.39363
163970	-37	2	7	-0.9300795	-0.04176376	-4.469791	0	11.97	4004	0	0	5	5	0.3028688	0.3075856	1	10	0.03	1800	-5.842346	40.9239	-91.39363
164038	-44	0	1	-0.9190996	-0.0407678	-4.477556	0	11.97	4003	0	0	5	5	0.3028688	0.3064761	1	10	0.03	1800	-5.880768	40.9239	-91.39363
164142	-39	-1	6	-0.9095084	-0.0416178	-4.48422	0	11.97	4003	0	0	5	5	0.3028688	0.3045392	1	10	0.03	1800	-5.914917	40.9239	-91.39363
164297	-42	2	8	-0.9076798	-0.04281158	-4.497548	0	11.97	4003	0	0	5	5	0.3028688	0.3043917	1	10	0.03	1800	-5.684723	40.9239	-91.39363
164406	-41	-2	5	-0.9134666	-0.04380327	-4.506593	0	11.97	4004	0	0	5	5	0.3028688	0.309433	1	10	0.03	1800	-5.697968	40.9239	-91.39363
164501	-41	0	11	-0.9119122	-0.04683987	-4.511728	0	11.97	4002	0	0	5	5	0.3028688	0.3190797	1	10	0.03	1800	-5.888458	40.9239	-91.39363
164554	-36	1	1	-0.9133924	-0.04842899	-4.517962	0	11.97	4003	0	0	5	5	0.3028688	0.3235779	1	10	0.03	1800	-5.678741	40.9239	-91.39363
164642	-42	1	0	-0.9139469	-0.05364906	-4.52108	0	12.02	4004	0	0	5	5	0.3028688	0.3264844	1	10	0.03	1800	-5.678741	40.9239	-91.39363
164754	-48	2	8	-0.9159467	-0.05476684	-4.528843	0	12.02	4003	0	0	5	5	0.3028688	0.3258495	1	10	0.03	1800	-5.911804	40.9239	-91.39363
164898	-40	0	0	-0.909	-0.04844385	-4.537767	0	12.02	4004	0	0	5	5	0.3028688	0.3107243	1	10	0.03	1800	-5.70282	40.9239	-91.39363
164980	-33	3	2	-0.9085757	-0.04757742	-4.541436	0	12.02	4004	0	0	5	5	0.3028688	0.3034568	1	10	0.03	1800	-5.898438	40.9239	-91.39363
165173	-34	2	5	-0.8990364	-0.04763877	-4.556474	0	12.02	4003	0	0	5	5	0.3028688	0.2944197	1	10	0.03	1800	-5.695526	40.9239	-91.39363
165295	-43	2	9	-0.890016	-0.046127	-4.566441	0	12.02	4002	0	0	5	5	0.3028688	0.2934989	1	10	0.03	1800	-5.732697	40.9239	-91.39363
165329	-35	3	4	-0.8901424	-0.04767825	-4.56907	0	12.02	4004	0	0	5	5	0.3028688	0.2932445	1	10	0.03	1800	-5.732697	40.9239	-91.39363
165409	-44	-8	2	-0.8915581	-0.04461929	-4.57818	0	12.02	4002	0	0	5	5	0.3028688	0.2926239	1	10	0.03	1800	-5.714752	40.9239	-91.39363
165616	-38	0	8	-0.8899403	-0.05138841	-4.594382	0	11.97	4002	0	0	5	5	0.3028688	0.2964753	1	10	0.03	1800	-5.733704	40.9239	-91.39363
165636	-38	0	8	-0.8899403	-0.05138841	-4.594382	0	11.97	4002	0	0	5	5	0.3028688	0.2971058	1	10	0.03	1800	-5.733704	40.9239	-91.39363
165717	-42	-1	4	-0.8789663	-0.05345246	-4.601535	0	11.97	4003	0	0	5	5	0.3028688	0.2964409	1	10	0.03	1800	-5.731598	40.9239	-91.39363
165880	-45	9	3	-0.884466	-0.05923732	-4.610402	0	11.97	4002	0	0	5	5	0.3028688	0.2923938	1	10	0.03	1800	-5.938995	40.9239	-91.39363
165984	-32	-2	11	-0.880644	-0.0579784	-4.617249	0	11.97	4003	0	0	5	5	0.3028688	0.2752496	1	10	0.03	1800	-5.941315	40.9239	-91.39363
166047	-40	5	5	-0.8774659	-0.06094109	-4.623424	0	11.97	4002	0	0	5	5	0.3028688	0.2649647	1	10	0.03	1800	-5.733734	40.9239	-91.39363
166202	-39	-2	0	-0.8753565	-0.06345684	-4.632044	0	11.97	4003	0	0	5	5	0.3028688	0.2577565	1	10	0.03	1800	-5.760345	40.9239	-91.39363
166276	-37	2	5	-0.874784	-0.06656677	-4.638402	0	11.97	4003	0	0	5	5	0.3028688	0.2601874	1	10	0.03	1800	-5.995087	40.9239	-91.39363
166312	-31	0	8	-0.8736176	-0.06661872	-4.641581	0	11.97	4002	0	0	5	5	0.3028688	0.2611435	1	10	0.03	1800	-5.995087	40.9239	-91.39363
166474	-40	3	2	-0.8580598	-0.06661822	-4.653381	0	11.97	4002	0	0	5	5	0.3028688	0.2671629	1	10	0.03	1800	-5.971313	40.9239	-91.39363
166532	-36	-2	5	-0.8564292	-0.06107674	-4.65815	0	11.97	4004	0	0	5	5	0.3028688	0.2687344	1	10	0.03	1800	-5.998322	40.9239	-91.39363
166657	-43	-1	5	-0.863185	-0.06229553	-4.668481	0	11.97	4003	0	0	5	5	0.3028688	0.2604854	1	10	0.03	1800	-5.763885	40.9239	-91.39363
166833	-27	0	2	-0.8605171	-0.06264764	-4.676979	0	11.97	4002	0	0	5	5	0.3028688	0.2617872	1	10	0.03	1800	-5.737335	40.9239	-91.39363
166973	-32	-4	2	-0.8490531	-0.06019186	-4.690856	0	11.97	4004	0	0	5	5	0.3028688	0.2639227	1	10	0.03	1800	-5.585907	40.9239	-91.39363
167044	-42	0	-1	-0.8505639	-0.05960988	-4.696236	0	11.97	4004	0	0	5	5	0.3028688	0.262577	1	10	0.03	1800	-6.00824	40.9239	-91.39363
167202	-31	5	0	-0.8420629	-0.06608029	-4.710603	0	11.97	4002	0	0	5	5	0.3028688	0.2521326	1	10	0.03	1800	-5.810852	40.9239	-91.39363
167300	-29	3	0	-0.8427353	-0.06776492	-4.716226	0	11.91	4004	0	0	5	5	0.3028688	0.2529012	1	10	0.03	1800	-5.785919	40.9239	-91.39363
167403	-34	0	3	-0.8460907	-0.06861444	-4.721239	0	11.91	4002	0	0	5	5	0.3028688	0.2508595	1	10	0.03	1800	-5.807098	40.9239	-91.39363
167642	-34	5	7	-0.8436812	-0.07087877	-4.733892	0	11.91	4003	0	0	5	5	0.3028688	0.2520603	1	10	0.03	1800	-5.785095	40.9239	-91.39363
167716	-40	1	10	-0.8487165	-0.07478914	-4.743736	0	11.91	4004	0	0	5	5	0.3028688	0.2575331	1	10	0.03	1800	-5.788086	40.9239	-91.39363
167868	-32	-2	5	-0.8521867	-0.06793807	-4.74985	0	11.91	4003	0	0	5	5	0.3028688	0.2634762	1	10	0.03	1800	-6.009979	40.9239	-91.39363
167958	-46	-2	6	-0.860173	-0.06727058	-4.758592	0	11.91	4003	0	0	5	5	0.3028688	0.2652606	1	10	0.03	1800	-5.760895	40.9239	-91.39363
167999	-40	2	5	-0.8635474	-0.07099554	-4.761038	0	11.91	4003	0	0	5	5	0.3028688	0.263389	1	10	0.03	1800	-5.760895	40.9239	-91.39363
168115	-31	-5	3	-0.8637869	-0.06803759	-4.771675	0	11.91	4003	0	0	5	5	0.3028688	0.2594492	1	10	0.03	1800	-5.754456	40.9239	-91.39363
168238	-38	1	2	-0.8639737	-0.07175601	-4.779074	0	11.91	4002	0	0	5	5	0.3028688	0.260662	1	10	0.03	1800	-5.990173	40.9239	-91.39363
168515	-39	2	7	-0.859167	-0.07228195	-4.793196	0	11.91	4003	0	0	5	5	0.3028688	0.2669165	1	10	0.03	1800	-5.794037	40.9239	-91.39363
168570	-27	-4	1	-0.8525084	-0.06904966	-4.798208	0	11.91	4004	0	0	5	5	0.3028688	0.2708195	1	10	0.03	1800	-5.974548	40.9239	-91.39363
168694	-32	5	3	-0.8553157	-0.06434061	-4.806645	0	11.91	4003	0	0	5	5	0.3028688	0.2744302	1	10	0.03	1800	-5.770355	40.9239	-91.39363
168816	-32	1	4	-0.8508921	-0.06319269	-4.815938	0	11.91	4004	0	0	5	5	0.3028688	0.2830042	1	10	0.03	1800	-5.780609	40.9239	-91.39363
168848	-26	2	5	-0.8496435	-0.06424509	-4.820523	0	11.91	4002	0	0	5	5	0.3028688	0.2857532	1	10	0.03	1800	-5.966095	40.9239	-91.39363
168944	-26	2	5	-0.8496435	-0.06424509	-4.820523	0	11.91	4002	0	0	5	5	0.3028688	0.291138	1	10	0.03	1800	-5.966095	40.9239	-91.39363
169045	-32	0	6	-0.8502905	-0.06698967	-4.832701	0	11.91	4003	0	0	5	5	0.3028688	0.2962801	1	10	0.03	1800	-5.795441	40.9239	-91.39363
169188	-39	0	8	-0.8487333	-0.06169392	-4.843217	0	11.91	4004	0	0	5	5	0.3028688	0.2891526	1	10	0.03	1800	-5.800293	40.9239	-91.39363
169331	-36	-3	7	-0.8483251	-0.06043888	-4.855934	0	11.91	4003	0	0	5	5	0.3028688	0.2860027	1	10	0.03	1800	-5.755615	40.9239	-91.39363
169418	-34	4	4	-0.8452752	-0.06397254	-4.860091	0	11.91	4003	0	0	5	5	0.3028688	0.2854725	1	10	0.03	1800	-5.800903	40.9239	-91.39363
169598	-38	1	4	-0.8471736	-0.05968136	-4.871974	0	11.91	4002	0	0	5	5	0.3028688	0.2877012	1	10	0.03	1800	-5.795227	40.9239	-91.39363
169672	-37	0	3	-0.845332	-0.06386626	-4.877416	0	11.91	4003	0	0	5	5	0.3028688	0.2841936	1	10	0.03	1800	-5.781219	40.9239	-91.39362
169853	-43	3	7	-0.8303378	-0.06788158	-4.893192	0	11.91	4003	0	0	5	5	0.3028688	0.2879046	1	10	0.03	1800	-5.822815	40.9239	-91.39362
169985	-36	4	5	-0.8212581	-0.06906444	-4.902361	0	11.91	4003	0	0	5	5	0.3028688	0.3051898	1	10	0.03	1800	-5.840149	40.9239	-91.39362
170013	-23	7	3	-0.816449	-0.07185474	-4.904378	0	11.91	4002	0	0	5	5	0.3028688	0.3079945	1	10	0.03	1800	-5.823303	40.9239	-91.39362
170101	-35	3	7	-0.8153445	-0.07745419	-4.916116	0	11.97	4002	0	0	5	5	0.3028688	0.3168543	1	10	0.03	1800	-6.063293	40.9239	-91.39362
170376	-27	0	6	-0.8119326	-0.07601517	-4.935616	0	11.97	4004	0	0	5	5	0.3028688	0.3455699	1	10	0.03	1800	-5.853271	40.9239	-91.39362
170490	-37	1	3	-0.8089314	-0.07451597	-4.944726	0	11.97	4004	0	0	5	5	0.3028688	0.3598204	1	10	0.03	1800	-5.859039	40.9239	-91.39362
170595	-32	0	6	-0.8020276	-0.06908	-4.949555	0	11.97	4004	0	0	5	5	0.3028688	0.3653594	1	10	0.03	1800	-6.055115	40.9239	-91.39362
170658	-24	1	6	-0.803149	-0.07020069	-4.954568	0	11.97	4002	0	0	5	5	0.3028688	0.3666065	1	10	0.03	1800	-6.079956	40.9239	-91.39362
170718	-22	2	1	-0.8002675	-0.06756852	-4.95634	0	11.97	4004	0	0	5	5	0.3028688	0.3753562	1	10	0.03	1800	-6.079956	40.9239	-91.39362
170796	-35	5	0	-0.802794	-0.07009319	-4.962331	0	11.97	4004	0	0	5	5	0.3028688	0.3779507	1	10	0.03	1800	-5.87735	40.9239	-91.39362
170886	-30	-2	5	-0.7990667	-0.0685277	-4.967651	0	11.97	4002	0	0	5	5	0.3028688	0.3808773	1	10	0.03	1800	-5.853546	40.9239	-91.39362
171068	-26	0	5	-0.803121	-0.07555595	-4.974865	0	11.97	4004	0	0	5	5	0.3028688	0.3751737	1	10	0.03	1800	-5.845062	40.9239	-91.39362
171191	-30	-5	-1	-0.7930846	-0.07246865	-4.98318	0	11.97	4003	0	0	5	5	0.3028688	0.3702058	1	10	0.03	1800	-6.098206	40.9239	-91.39362
171291	-25	-1	4	-0.788644	-0.07222483	-4.992287	0	11.97	4008	0	0	5	5	0.3028688	0.3831384	1	10	0.03	1800	-6.081757	40.9239	-91.39362
171439	-19	-3	3	-0.7750745	-0.06901441	-5.002438	0	11.97	4003	0	0	5	5	0.3028688	0.3959842	1	10	0.03	1800	-6.100281	40.9239	-91.39362
171547	-28	0	9	-0.7785167	-0.0686949	-5.009163	0	11.97	4003	0	0	5	5	0.3028688	0.4059854	1	10	0.03	1800	-6.09964	40.9239	-91.39362
171687	-29	2	5	-0.7748898	-0.07173089	-5.015216	0	11.97	4003	0	0	5	5	0.3028688	0.4188797	1	10	0.03	1800	-6.126343	40.9239	-91.39362
171799	-33	-2	7	-0.7795771	-0.0714353	-5.021145	0	11.97	4002	0	0	5	5	0.3028688	0.4220088	1	10	0.03	1800	-6.13855	40.9239	-91.39362
171897	-29	11	4	-0.7742532	-0.07559682	-5.028298	0	11.91	4004	0	0	5	5	0.3028688	0.4188825	1	10	0.03	1800	-6.125031	40.9239	-91.39362
171996	-39	0	2	-0.7751462	-0.07911449	-5.031906	0	11.91	4003	0	0	5	5	0.3028688	0.4016963	1	10	0.03	1800	-6.103546	40.9239	-91.39362
172084	-30	0	2	-0.7731988	-0.08707262	-5.034412	0	11.91	4003	0	0	5	5	0.3028688	0.3938848	1	10	0.03	1800	-6.129181	40.9239	-91.39362
172187	-28	2	3	-0.773213	-0.08261891	-5.037224	0	11.91	4002	0	0	5	5	0.3028688	0.3745859	1	10	0.03	1800	-6.104584	40.9239	-91.39362
172328	-28	-2	1	-0.7720279	-0.08220264	-5.042725	0	11.91	4002	0	0	5	5	0.3028688	0.3585173	1	10	0.03	1800	-6.125214	40.9239	-91.39362
172471	-26	1	6	-0.7645878	-0.07726948	-5.053301	0	11.91	4003	0	0	5	5	0.3028688	0.3400318	1	10	0.03	1800	-5.714661	40.9239	-91.39362
172532	-32	2	4	-0.7709671	-0.07657152	-5.058498	0	11.91	4008	0	0	5	5	0.3028688	0.3317261	1	10	0.03	1800	-6.107086	40.9239	-91.39362
172662	-32	1	2	-0.7724133	-0.07900605	-5.065955	0	11.91	4003	0	0	5	5	0.3028688	0.324809	1	10	0.03	1800	-5.913269	40.9239	-91.39362
172729	-27	0	2	-0.7716952	-0.07822331	-5.069806	0	11.91	4004	0	0	5	5	0.3028688	0.3202884	1	10	0.03	1800	-5.893921	40.9239	-91.39362
172786	-18	5	2	-0.7718002	-0.0795692	-5.072312	0	11.91	4003	0	0	5	5	0.3028688	0.3128132	1	10	0.03	1800	-5.914032	40.9239	-91.39362
172980	-24	3	2	-0.7604688	-0.07886911	-5.084966	0	11.91	4002	0	0	5	5	0.3028688	0.2908628	1	10	0.03	1800	-5.930298	40.9239	-91.39362
173032	-22	-2	4	-0.7530342	-0.08062346	-5.087901	0	11.91	4002	0	0	5	5	0.3028688	0.2857358	1	10	0.03	1800	-5.922455	40.9239	-91.39362
173185	-28	2	0	-0.7395329	-0.08108342	-5.095175	0	11.91	4003	0	0	5	5	0.3028688	0.2841658	1	10	0.03	1800	-6.171417	40.9239	-91.39362
173260	-23	2	1	-0.745585	-0.08724324	-5.098965	0	11.91	4004	0	0	5	5	0.3028688	0.2889181	1	10	0.03	1800	-6.151428	40.9239	-91.39362
173348	-28	3	7	-0.7458382	-0.09758173	-5.10465	0	11.91	4004	0	0	5	5	0.3028688	0.2906678	1	10	0.03	1800	-6.172577	40.9239	-91.39362
173437	-25	3	5	-0.74697	-0.09168077	-5.111008	0	11.91	4002	0	0	5	5	0.3028688	0.2852184	1	10	0.03	1800	-6.15036	40.9239	-91.39362
173516	-24	2	3	-0.7485594	-0.09006332	-5.117488	0	11.91	4004	0	0	5	5	0.3028688	0.2776479	1	10	0.03	1800	-5.934509	40.9239	-91.39362
173645	-31	-1	8	-0.751101	-0.08822045	-5.125069	0	12.02	4002	0	0	5	5	0.3028688	0.2661592	1	10	0.03	1800	-6.377563	40.9239	-91.39362
173792	-23	3	7	-0.7501026	-0.08566153	-5.129897	0	12.02	4004	0	0	5	5	0.3028688	0.2563689	1	10	0.03	1800	-6.164642	40.9239	-91.39362
173961	-23	5	4	-0.7494655	-0.08640538	-5.142122	0	12.02	4004	0	0	5	5	0.3028688	0.2517032	1	10	0.03	1800	-6.136536	40.9239	-91.39362
174072	-29	-1	4	-0.745664	-0.08889727	-5.151843	0	12.02	4003	0	0	5	5	0.3028688	0.2531757	1	10	0.03	1800	-6.175629	40.9239	-91.39362
174206	-23	3	6	-0.7410524	-0.09015612	-5.157162	0	12.02	4004	0	0	5	5	0.3028688	0.2410003	1	10	0.03	1800	-6.177734	40.9239	-91.39362
174256	-25	-2	6	-0.74367	-0.08952905	-5.160401	0	12.02	4003	0	0	5	5	0.3028688	0.2396199	1	10	0.03	1800	-6.154877	40.9239	-91.39362
174364	-21	2	0	-0.7409627	-0.08530096	-5.166086	0	12.02	4003	0	0	5	5	0.3028688	0.2413878	1	10	0.03	1800	-6.1539	40.9239	-91.39362
174458	-31	-5	3	-0.7369624	-0.08725008	-5.169265	0	12.02	4002	0	0	5	5	0.3028688	0.2508875	1	10	0.03	1800	-6.1539	40.9239	-91.39362
174533	-17	5	3	-0.7338269	-0.08481792	-5.172688	0	12.02	4003	0	0	5	5	0.3028688	0.2543994	1	10	0.03	1800	-5.946716	40.9239	-91.39362
174649	-26	0	1	-0.7235018	-0.07680662	-5.180146	0	11.97	4004	0	0	5	5	0.3028688	0.2605055	1	10	0.03	1800	-5.988159	40.9239	-91.39362
174860	-21	3	7	-0.7225658	-0.07140842	-5.192125	0	11.97	4002	0	0	5	5	0.3028688	0.2763198	1	10	0.03	1800	-6.156281	40.9239	-91.39362
174975	-23	0	4	-0.7246817	-0.06825738	-5.198728	0	11.97	4003	0	0	5	5	0.3028688	0.2858252	1	10	0.03	1800	-6.178528	40.9239	-91.39362
175065	-24	3	0	-0.7259351	-0.07144002	-5.200623	0	11.97	4002	0	0	5	5	0.3028688	0.2970064	1	10	0.03	1800	-6.176483	40.9239	-91.39362
175171	-34	-2	2	-0.7247775	-0.0824324	-5.206918	0	11.97	4003	0	0	5	5	0.3028688	0.3009386	1	10	0.03	1800	-6.197693	40.9239	-91.39362
175234	-35	4	3	-0.725279	-0.084757	-5.209119	0	11.97	4003	0	0	5	5	0.3028688	0.3001073	1	10	0.03	1800	-5.965851	40.9239	-91.39362
175426	-19	5	6	-0.7231854	-0.0840887	-5.221895	0	11.97	4003	0	0	5	5	0.3028688	0.2986273	1	10	0.03	1800	-5.985931	40.9239	-91.39362
175456	-26	-2	5	-0.7219168	-0.08210681	-5.224219	0	11.97	4003	0	0	5	5	0.3028688	0.2996079	1	10	0.03	1800	-5.985931	40.9239	-91.39362
175552	-23	0	9	-0.7152384	-0.08225624	-5.227521	0	11.97	4002	0	0	5	5	0.3028688	0.3070131	1	10	0.03	1800	-6.186523	40.9239	-91.39362
175786	-30	2	3	-0.7196513	-0.08278219	-5.240237	0	11.97	4002	0	0	5	5	0.3028688	0.3185341	1	10	0.03	1800	-5.995667	40.9239	-91.39362
175884	-28	6	4	-0.7207872	-0.08466976	-5.244028	0	11.97	4002	0	0	5	5	0.3028688	0.3131621	1	10	0.03	1800	-5.999512	40.9239	-91.39362
175950	-26	3	5	-0.725742	-0.08335664	-5.247878	0	11.97	4003	0	0	5	5	0.3028688	0.3108004	1	10	0.03	1800	-5.96875	40.9239	-91.39362
176027	-17	3	5	-0.7222905	-0.07842555	-5.253013	0	11.97	4003	0	0	5	5	0.3028688	0.3086155	1	10	0.03	1800	-5.964844	40.9239	-91.39362
176155	-22	0	-1	-0.720711	-0.0740677	-5.259432	0	11.97	4003	0	0	5	5	0.3028688	0.3092728	1	10	0.03	1800	-6.206696	40.9239	-91.39362
176288	-27	-3	0	-0.7184836	-0.07620259	-5.26738	0	11.97	4004	0	0	5	5	0.3028688	0.3088911	1	10	0.03	1800	-6.423035	40.9239	-91.39362
176418	-23	0	2	-0.7046959	-0.07734976	-5.273066	0	11.91	4004	0	0	5	5	0.3028688	0.2984152	1	10	0.03	1800	-5.987701	40.9239	-91.39362
176474	-18	2	0	-0.6996145	-0.07533847	-5.275021	0	11.91	4002	0	0	5	5	0.3028688	0.2975535	1	10	0.03	1800	-6.233337	40.9239	-91.39362
176611	-25	0	7	-0.7005296	-0.0730482	-5.284129	0	11.91	4004	0	0	5	5	0.3028688	0.2961231	1	10	0.03	1800	-6.206604	40.9239	-91.39362
176655	-24	0	5	-0.7047365	-0.07444358	-5.286697	0	11.91	4003	0	0	5	5	0.3028688	0.2958763	1	10	0.03	1800	-6.206604	40.9239	-91.39362
176820	-20	-6	9	-0.6883298	-0.07839813	-5.299963	0	11.91	4004	0	0	5	5	0.3028688	0.2837914	1	10	0.03	1800	-6.247772	40.9239	-91.39362
176978	-30	-5	0	-0.6855047	-0.07696269	-5.305343	0	11.91	4003	0	0	5	5	0.3028688	0.2707019	1	10	0.03	1800	-6.256134	40.9239	-91.39362
177116	-13	1	4	-0.6786621	-0.07024288	-5.312313	0	11.91	4002	0	0	5	5	0.3028688	0.2657785	1	10	0.03	1800	-6.258759	40.9239	-91.39362
177307	-13	0	-1	-0.6697642	-0.0739867	-5.319036	0	11.97	4003	0	0	5	5	0.3028688	0.2707971	1	10	0.03	1800	-6.037842	40.9239	-91.39362
177411	-25	-2	2	-0.6684573	-0.08028641	-5.322031	0	11.97	4003	0	0	5	5	0.3028688	0.2785299	1	10	0.03	1800	-6.258575	40.9239	-91.39362
177453	-21	0	0	-0.6703703	-0.08221171	-5.322948	0	11.97	4003	0	0	5	5	0.3028688	0.280158	1	10	0.03	1800	-6.258575	40.9239	-91.39362
177506	-18	-7	0	-0.6748847	-0.0804885	-5.32417	0	11.97	4003	0	0	5	5	0.3028688	0.2855695	1	10	0.03	1800	-6.041077	40.9239	-91.39362
177630	-13	6	6	-0.6685241	-0.08343976	-5.33077	0	11.97	4004	0	0	5	5	0.3028688	0.2964578	1	10	0.03	1800	-6.283752	40.9239	-91.39362
177710	-16	6	6	-0.6604049	-0.08550344	-5.334071	0	11.97	4003	0	0	5	5	0.3028688	0.3039111	1	10	0.03	1800	-6.269714	40.9239	-91.39362
177912	-20	0	3	-0.6609731	-0.09257253	-5.342081	0	11.97	4003	0	0	5	5	0.3028688	0.328386	1	10	0.03	1800	-6.301514	40.9239	-91.39362
178091	-20	2	1	-0.6699204	-0.09262907	-5.347583	0	11.97	4002	0	0	5	5	0.3028688	0.3253491	1	10	0.03	1800	-6.280518	40.9239	-91.39362
178163	-11	3	2	-0.6674328	-0.0854701	-5.35125	0	11.97	4004	0	0	5	5	0.3028688	0.3229806	1	10	0.03	1800	-6.284973	40.9239	-91.39362
178277	-24	-1	2	-0.6597729	-0.08175938	-5.357853	0	11.91	4002	0	0	5	5	0.3028688	0.3182777	1	10	0.03	1800	-6.285767	40.9239	-91.39362
178312	-26	5	4	-0.6557321	-0.08036412	-5.358831	0	11.91	4004	0	0	5	5	0.3028688	0.3181283	1	10	0.03	1800	-6.084259	40.9239	-91.39362
178483	-20	0	4	-0.6585415	-0.08389986	-5.363476	0	11.91	4004	0	0	5	5	0.3028688	0.3199118	1	10	0.03	1800	-6.276917	40.9239	-91.39362
178506	-28	8	6	-0.6587549	-0.08872087	-5.365431	0	11.91	4004	0	0	5	5	0.3028688	0.3199118	1	10	0.03	1800	-6.065277	40.9239	-91.39362
178624	-15	1	12	-0.6535085	-0.08492951	-5.369407	0	11.91	4003	0	0	5	5	0.3028688	0.3149458	1	10	0.03	1800	-5.875763	40.9239	-91.39362
178713	-21	-5	7	-0.650476	-0.08478314	-5.371729	0	11.91	4003	0	0	5	5	0.3028688	0.3125194	1	10	0.03	1800	-6.07196	40.9239	-91.39362
178850	-21	2	2	-0.6512626	-0.08522898	-5.37882	0	11.91	4004	0	0	5	5	0.3028688	0.3116614	1	10	0.03	1800	-6.098145	40.9239	-91.39362
178937	-17	-10	5	-0.6484039	-0.08747665	-5.381266	0	11.91	4003	0	0	5	5	0.3028688	0.3178897	1	10	0.03	1800	-6.07724	40.9239	-91.39362
179007	-15	0	2	-0.6492769	-0.08967475	-5.387869	0	11.91	4002	0	0	5	5	0.3028688	0.3221543	1	10	0.03	1800	-6.116455	40.9239	-91.39362
179126	-17	1	5	-0.6504952	-0.09170154	-5.393615	0	11.97	4004	0	0	5	5	0.3028688	0.3368499	1	10	0.03	1800	-6.306946	40.9239	-91.39362
179218	-19	-3	0	-0.6445072	-0.0934878	-5.397894	0	11.97	4004	0	0	5	5	0.3028688	0.3394891	1	10	0.03	1800	-6.086731	40.92391	-91.39362
179317	-20	-1	3	-0.6453333	-0.09076351	-5.401256	0	11.97	4002	0	0	5	5	0.3028688	0.3369191	1	10	0.03	1800	-6.110992	40.92391	-91.39362
179412	-12	0	3	-0.6421635	-0.09496584	-5.406392	0	11.97	4002	0	0	5	5	0.3028688	0.3428201	1	10	0.03	1800	-5.87558	40.92391	-91.39362
179486	-18	-1	1	-0.6431925	-0.100074	-5.410427	0	11.97	4003	0	0	5	5	0.3028688	0.3488808	1	10	0.03	1800	-6.539276	40.92391	-91.39362
179602	-15	-7	5	-0.6411416	-0.1001121	-5.418436	0	11.97	4002	0	0	5	5	0.3028688	0.3586368	1	10	0.03	1800	-6.087402	40.92391	-91.39362
179688	-13	2	2	-0.6420599	-0.09671917	-5.421002	0	11.97	4004	0	0	5	5	0.3028688	0.3656327	1	10	0.03	1800	-6.112122	40.92391	-91.39362
179876	-25	-5	5	-0.63516	-0.09565791	-5.428643	0	11.97	4003	0	0	5	5	0.3028688	0.384284	1	10	0.03	1800	-6.309143	40.92391	-91.39362
179963	-20	-2	10	-0.6342832	-0.1003426	-5.435123	0	11.97	4003	0	0	5	5	0.3028688	0.3852162	1	10	0.03	1800	-6.10141	40.92391	-91.39362
180018	-20	1	3	-0.6390521	-0.1008362	-5.436285	0	11.97	4004	0	0	5	5	0.3028688	0.3859047	1	10	0.03	1800	-6.10141	40.92391	-91.39362
180098	-23	2	2	-0.6308773	-0.1029743	-5.440625	0	11.97	4004	0	0	5	5	0.3028688	0.388089	1	10	0.03	1800	-6.128082	40.92391	-91.39362
180193	-23	-1	0	-0.6314276	-0.1052153	-5.446372	0	11.97	4003	0	0	5	5	0.3028688	0.3941901	1	10	0.03	1800	-6.129059	40.92391	-91.39362
180343	-27	1	0	-0.6383106	-0.102106	-5.453768	0	11.97	4002	0	0	5	5	0.3028688	0.400325	1	10	0.03	1800	-6.30777	40.92391	-91.39362
180451	-11	3	4	-0.6349379	-0.09763837	-5.458536	0	11.97	4003	0	0	5	5	0.3028688	0.3954684	1	10	0.03	1800	-6.545715	40.92391	-91.39362
180497	-24	2	3	-0.6359703	-0.09660742	-5.459391	0	11.97	4002	0	0	5	5	0.3028688	0.3943473	1	10	0.03	1800	-6.545715	40.92391	-91.39362
180647	-7	0	3	-0.6329046	-0.09654161	-5.463976	0	11.97	4004	0	0	5	5	0.3028688	0.3861561	1	10	0.03	1800	-6.099915	40.92391	-91.39362
180715	-13	-2	10	-0.6305133	-0.0967724	-5.467829	0	11.97	4004	0	0	5	5	0.3028688	0.3780755	1	10	0.03	1800	-6.316376	40.92391	-91.39362
180827	-9	0	5	-0.6300593	-0.09518	-5.472353	0	11.97	4002	0	0	5	5	0.3028688	0.3712298	1	10	0.03	1800	-6.083099	40.92391	-91.39362
180940	-9	4	0	-0.6210546	-0.09781189	-5.475836	0	11.91	4002	0	0	5	5	0.3028688	0.3610794	1	10	0.03	1800	-6.112885	40.92391	-91.39362
181031	-14	5	5	-0.6149722	-0.09746785	-5.481398	0	11.91	4004	0	0	5	5	0.3028688	0.3527196	1	10	0.03	1800	-6.150238	40.92391	-91.39362
181114	-25	0	3	-0.6137467	-0.09819008	-5.485678	0	11.91	4003	0	0	5	5	0.3028688	0.3435605	1	10	0.03	1800	-6.15387	40.92391	-91.39362
181239	-21	4	2	-0.6062468	-0.1053481	-5.490017	0	11.91	4003	0	0	5	5	0.3028688	0.3163834	1	10	0.03	1800	-6.142853	40.92391	-91.39362
181351	-14	-2	4	-0.6052799	-0.109712	-5.495641	0	11.91	4002	0	0	5	5	0.3028688	0.3049858	1	10	0.03	1800	-6.358948	40.92391	-91.39362
181443	-19	1	2	-0.6019867	-0.1069175	-5.500347	0	11.91	4004	0	0	5	5	0.3028688	0.2980122	1	10	0.03	1800	-6.168274	40.92391	-91.39362
181587	-23	3	0	-0.6038452	-0.1061764	-5.504748	0	11.91	4003	0	0	5	5	0.3028688	0.2804682	1	10	0.03	1800	-6.383698	40.92391	-91.39362
181698	-22	2	1	-0.6025003	-0.1083314	-5.507316	0	11.91	4002	0	0	5	5	0.3028688	0.273178	1	10	0.03	1800	-6.363708	40.92391	-91.39362
181745	-20	-2	3	-0.5996496	-0.1011907	-5.511351	0	11.91	4004	0	0	5	5	0.3028688	0.2708413	1	10	0.03	1800	-6.151367	40.92391	-91.39362
181936	-20	2	3	-0.597393	-0.1019713	-5.517281	0	12.02	4003	0	0	5	5	0.3028688	0.2609723	1	10	0.03	1800	-6.358978	40.92391	-91.39362
182056	-17	-2	8	-0.5915663	-0.1003506	-5.521133	0	12.02	4003	0	0	5	5	0.3028688	0.2601835	1	10	0.03	1800	-6.579803	40.92391	-91.39362
182097	-22	-1	1	-0.5954073	-0.1014086	-5.522906	0	12.02	4004	0	0	5	5	0.3028688	0.2574706	1	10	0.03	1800	-6.351898	40.92391	-91.39362
182295	-13	1	5	-0.6125788	-0.09855685	-5.530768	0	12.02	4003	0	0	5	5	0.3028688	0.2509794	1	10	0.03	1800	-5.959717	40.92391	-91.39362
182393	-19	1	0	-0.6111923	-0.1002016	-5.533458	0	12.02	4002	0	0	5	5	0.3028688	0.2536623	1	10	0.03	1800	-6.137543	40.92391	-91.39362
182484	-9	-5	3	-0.6093809	-0.1001159	-5.540277	0	12.02	4005	0	0	5	5	0.3028688	0.2556182	1	10	0.03	1800	-6.342255	40.92391	-91.39362
182636	-13	-1	2	-0.6088086	-0.09562606	-5.547491	0	12.02	4003	0	0	5	5	0.3028688	0.2521894	1	10	0.03	1800	-6.15976	40.92391	-91.39362
182681	-16	-5	3	-0.6086376	-0.09393083	-5.548469	0	12.02	4003	0	0	5	5	0.3028688	0.2495295	1	10	0.03	1800	-6.15976	40.92391	-91.39362
182857	-18	4	-2	-0.6048312	-0.08291338	-5.555377	0	11.91	4002	0	0	5	5	0.3028688	0.2492301	1	10	0.03	1800	-6.162903	40.92391	-91.39362
182987	-10	8	4	-0.6123136	-0.08727213	-5.560633	0	11.91	4004	0	0	5	5	0.3028688	0.2417226	1	10	0.03	1800	-6.133514	40.92391	-91.39362
183151	-13	3	2	-0.6111739	-0.08873917	-5.56907	0	11.91	4003	0	0	5	5	0.3028688	0.2292769	1	10	0.03	1800	-6.367676	40.92391	-91.39362
183236	-15	5	1	-0.6074621	-0.09557693	-5.574695	0	11.91	4003	0	0	5	5	0.3028688	0.2240817	1	10	0.03	1800	-6.140656	40.92391	-91.39362
183279	-11	-1	6	-0.6011918	-0.0979664	-5.577384	0	11.91	4002	0	0	5	5	0.3028688	0.2227112	1	10	0.03	1800	-6.377136	40.92391	-91.39362
183398	-13	-1	3	-0.5999115	-0.09361255	-5.583069	0	11.91	4004	0	0	5	5	0.3028688	0.2294074	1	10	0.03	1800	-6.597015	40.92391	-91.39362
183542	-9	-5	1	-0.5976622	-0.09753322	-5.59016	0	11.91	4003	0	0	5	5	0.3028688	0.2370152	1	10	0.03	1800	-6.155396	40.92391	-91.39362
183645	-19	2	5	-0.5992163	-0.09919205	-5.597008	0	11.91	4003	0	0	5	5	0.3028688	0.2431457	1	10	0.03	1800	-6.340424	40.92391	-91.39362
183790	-4	-1	0	-0.5908226	-0.09420975	-5.604037	0	11.91	4002	0	0	5	5	0.3028688	0.250796	1	10	0.03	1800	-6.154541	40.92391	-91.39362
183955	-14	4	-2	-0.5838927	-0.08713479	-5.612352	0	11.91	4003	0	0	5	5	0.3028688	0.2541255	1	10	0.03	1800	-6.406281	40.92391	-91.39362
184014	-19	0	4	-0.5815019	-0.08946798	-5.616449	0	11.91	4003	0	0	5	5	0.3028688	0.257493	1	10	0.03	1800	-6.411591	40.92391	-91.39362
184084	-9	4	4	-0.5810605	-0.09226131	-5.619079	0	11.91	4003	0	0	5	5	0.3028688	0.2609197	1	10	0.03	1800	-6.411591	40.92391	-91.39362
184175	-12	0	0	-0.5781619	-0.09834068	-5.624581	0	11.91	4003	0	0	5	5	0.3028688	0.2611617	1	10	0.03	1800	-5.969025	40.92391	-91.39362
184278	-12	-4	8	-0.5794919	-0.09970114	-5.626598	0	11.91	4004	0	0	5	5	0.3028688	0.2652037	1	10	0.03	1800	-6.209564	40.92392	-91.39362
184396	-21	2	1	-0.5772288	-0.09649859	-5.635584	0	11.91	4002	0	0	5	5	0.3028688	0.2843517	1	10	0.03	1800	-6.396118	40.92392	-91.39362
184479	-5	0	6	-0.5782773	-0.1000625	-5.64017	0	11.91	4002	0	0	5	5	0.3028688	0.2990727	1	10	0.03	1800	-6.39621	40.92392	-91.39362
184611	-17	-1	4	-0.5775943	-0.0984276	-5.646894	0	11.97	4002	0	0	5	5	0.3028688	0.3346491	1	10	0.03	1800	-6.179016	40.92392	-91.39362
184715	-21	6	0	-0.5755092	-0.09585683	-5.650807	0	11.97	4004	0	0	5	5	0.3028688	0.3516133	1	10	0.03	1800	-6.206757	40.92392	-91.39362
184864	-10	0	0	-0.575336	-0.09384882	-5.660098	0	11.97	4004	0	0	5	5	0.3028688	0.3878509	1	10	0.03	1800	-6.204285	40.92392	-91.39362
184918	-23	3	2	-0.5701236	-0.09357524	-5.660892	0	11.97	4002	0	0	5	5	0.3028688	0.3958934	1	10	0.03	1800	-6.204285	40.92392	-91.39362
184990	-15	-5	2	-0.5660235	-0.09095956	-5.663521	0	11.97	4003	0	0	5	5	0.3028688	0.3991583	3	10	0.03	1800	-6.406464	40.92392	-91.39362
185116	-18	8	0	-0.5646524	-0.09340966	-5.668226	0	11.97	4004	0	0	5	5	0.3028688	0.4011781	3	10	0.03	1800	-6.229889	40.92392	-91.39362
185178	-21	-1	6	-0.568666	-0.1024089	-5.672505	0	11.97	4002	0	0	5	5	0.3028688	0.3989964	3	10	0.03	1800	-6.627289	40.92392	-91.39362
185322	-9	1	0	-0.5736871	-0.1039974	-5.680941	0	11.97	4004	0	0	5	5	0.3028688	0.3986641	3	10	0.03	1800	-6.191467	40.92392	-91.39362
185395	-17	-1	-1	-0.5702084	-0.1079674	-5.683814	0	11.97	4003	0	0	5	5	0.3028688	0.3999978	3	10	0.03	1800	-6.198425	40.92392	-91.39362
185506	-11	-2	1	-0.5678003	-0.1001708	-5.688521	0	11.91	4003	0	0	5	5	0.3028688	0.3949825	3	10	0.03	1800	-6.225098	40.92392	-91.39362
185623	-17	2	4	-0.5696188	-0.09998546	-5.692983	0	11.91	4003	0	0	5	5	0.3028688	0.3925423	3	10	0.03	1800	-6.435516	40.92392	-91.39362
185693	-14	1	0	-0.5684249	-0.1018695	-5.6939	0	11.91	4002	0	0	5	5	0.3028688	0.395336	3	10	0.03	1800	-6.435516	40.92392	-91.39362
185831	-17	2	3	-0.5640989	-0.1025673	-5.697811	0	11.91	4004	0	0	5	5	0.3028688	0.3997933	3	10	0.03	1800	-6.231903	40.92392	-91.39362
185908	-21	2	0	-0.5680077	-0.09668189	-5.698668	0	11.91	4003	0	0	5	5	0.3028688	0.4023163	3	10	0.03	1800	-6.438812	40.92392	-91.39362
185979	-13	6	0	-0.5673575	-0.09603866	-5.700625	0	11.91	4002	0	0	5	5	0.3028688	0.4064291	3	10	0.03	1800	-6.438446	40.92392	-91.39362
186110	-3	1	2	-0.5613831	-0.09728861	-5.705392	0	11.91	4004	0	0	5	5	0.3028688	0.4138802	3	10	0.03	1800	-6.207367	40.92392	-91.39362
186215	-7	0	-4	-0.5591882	-0.09693058	-5.708021	0	11.91	4003	0	0	5	5	0.3028688	0.4205163	3	10	0.03	1800	-6.448212	40.92392	-91.39362
186274	-2	0	0	-0.5561058	-0.1006325	-5.711017	0	11.91	4002	0	0	5	5	0.3028688	0.4242421	3	10	0.03	1800	-6.211761	40.92392	-91.39362
186376	-13	-4	0	-0.5563968	-0.1055592	-5.71279	0	11.91	4002	0	0	5	5	0.3028688	0.4244257	3	10	0.03	1800	-6.243958	40.92392	-91.39362
186544	-10	5	4	-0.5509274	-0.1008216	-5.719087	0	11.97	4002	0	0	5	5	0.3028688	0.4315112	3	10	0.03	1800	-6.225006	40.92392	-91.39362
186699	14	4	-83	-0.5562409	-0.09976681	-5.711141	0	11.97	4004	0	0	5	5	0.3028688	0.4478218	3	10	0.03	1800	-6.184662	40.92392	-91.39362
186815	-214	58	35	-0.5226939	-0.1780213	-5.702093	0	11.97	4004	0	0	5	5	0.3028688	0.4581042	3	10	0.03	1800	-6.430664	40.92392	-91.39362
187004	-117	-4	57	-0.5815913	-0.1362233	-5.697505	0	11.97	4002	0	0	5	5	0.3028688	0.4608162	3	10	0.03	1800	-6.60733	40.92392	-91.39362
187119	89	41	108	-0.5917473	-0.1216868	-5.717629	0	11.97	4004	0	0	5	5	0.3028688	0.4588426	3	10	0.03	1800	-6.895782	40.92392	-91.39362
187198	1	14	105	-0.5824394	-0.1076482	-5.731574	0	11.97	4003	0	0	5	5	0.3028688	0.4540102	3	10	0.03	1800	-6.698853	40.92392	-91.39362
187332	-15	-43	71	-0.5856117	-0.09588147	-5.731034	0	11.91	4003	0	0	5	5	0.3028688	0.4354191	3	10	0.03	1800	-6.297516	40.92392	-91.39362
187449	44	-83	-27	-0.5741063	-0.07363437	-5.750043	0	11.91	4003	0	0	5	5	0.3028688	0.4230487	3	10	0.03	1800	-6.759155	40.92392	-91.39362
187497	-23	-3	5	-0.5833336	-0.1116977	-5.745149	0	11.91	4003	0	0	5	5	0.3028688	0.4157743	3	10	0.03	1800	-6.759155	40.92392	-91.39362
187594	42	-55	-41	-0.5999618	-0.09720958	-5.748631	0	11.91	4002	0	0	5	5	0.3028688	0.4104713	3	10	0.03	1800	-6.207581	40.92392	-91.39362
187778	-35	22	-5	-0.5866733	-0.1230415	-5.760064	0	11.91	4002	0	0	5	5	0.3028688	0.4093685	3	10	0.03	1800	-6.694122	40.92392	-91.39362
187896	-23	-25	-16	-0.600672	-0.1158951	-5.765626	0	11.91	4004	0	0	5	5	0.3028688	0.4146957	3	10	0.03	1800	-5.929749	40.92392	-91.39362
187923	-25	17	9	-0.6012564	-0.1167422	-5.766421	0	11.91	4003	0	0	5	5	0.3028688	0.4146957	3	10	0.03	1800	-5.929749	40.92392	-91.39362
188023	-30	6	-3	-0.6123483	-0.1185295	-5.778832	0	11.91	4003	0	0	5	5	0.3028688	0.4130368	3	10	0.03	1800	-6.972809	40.92392	-91.39362
188106	-3	4	0	-0.6074387	-0.1143513	-5.781889	0	11.91	4002	0	0	5	5	0.3028688	0.4063848	3	10	0.03	1800	-6.664185	40.92392	-91.39362
188207	-22	10	1	-0.6067216	-0.1151972	-5.78684	0	11.91	4003	0	0	5	5	0.3028688	0.3987186	3	10	0.03	1800	-5.974579	40.92392	-91.39362
188335	2	-12	4	-0.6019752	-0.1091259	-5.791975	0	11.91	4002	0	0	5	5	0.3028688	0.3912445	3	10	0.03	1800	-6.194183	40.92392	-91.39362
188485	-11	-2	-5	-0.587378	-0.1095696	-5.800839	0	11.91	4003	0	0	5	5	0.3028688	0.3818707	3	10	0.03	1800	-6.149445	40.92392	-91.39362
188565	-15	-2	8	-0.5832776	-0.105795	-5.806096	0	11.91	4002	0	0	5	5	0.3028688	0.3758493	3	10	0.03	1800	-6.153412	40.92392	-91.39362
188665	-14	0	-6	-0.5825537	-0.1078358	-5.810436	0	11.91	4004	0	0	5	5	0.3028688	0.3734275	6	10	0.03	1800	-6.70755	40.92392	-91.39362
188719	-13	-8	6	-0.5740952	-0.1024614	-5.815572	0	11.91	4003	0	0	5	5	0.2329682	0.3683165	8	10	0.03	1800	-6.475952	40.92392	-91.39362
188792	-16	-3	2	-0.5690864	-0.1054796	-5.81918	0	11.91	4004	0	0	5	5	0.1972415	0.3681299	8	10	0.03	1800	-6.346863	40.92392	-91.39362
188916	-10	-1	1	-0.5643548	-0.104461	-5.826762	0	11.91	4004	0	0	5	5	0.1559659	0.3684115	8	10	0.03	1800	-6.335938	40.92392	-91.39362
189051	-14	0	-2	-0.5569801	-0.1070689	-5.832081	0	11.91	4003	0	0	5	5	0.1104968	0.3696449	8	10	0.03	1800	-6.528809	40.92392	-91.39362
189164	-18	1	3	-0.5541819	-0.1068501	-5.835015	0	11.91	4002	0	0	5	5	0.09272903	0.36891	8	10	0.03	1800	-6.557861	40.92392	-91.39362
