time(ms)	gyro_x(deg/s)	gyro_y(deg/s)	gyro_z(deg/s)	orientation_roll(deg)	orientation_pitch(deg)	orientation_yaw(deg)	throttle	battery(V)	loop_time(uS)	pid_output_roll	pid_output_pitch	pid_output_yaw	pid_output_throttle	ultrasonic_alt	baro_alt	flight_mode	p_gain_altitude	i_gain_altitude	d_gain_altitude	compass_heading	latitude	longitude
61978	-18	5	-1	-0.2989473	0.02923463	-0.2819143	0	12.36	4004	0	0	5	5	0.3454009	0.2669921	1	15	0.04	1900	-5.788116	40.92393	-91.39363
62117	-14	-6	1	-0.2991472	0.0328399	-0.2838708	0	12.36	4003	0	0	5	5	0.3454009	0.2645155	1	15	0.04	1900	-5.770111	40.92393	-91.39363
62196	-19	4	-2	-0.2984076	0.03547201	-0.2854599	0	12.36	4003	0	0	5	5	0.3454009	0.2625382	1	15	0.04	1900	-5.558685	40.92393	-91.39363
62280	-12	-4	2	-0.2991042	0.03468078	-0.2869882	0	12.36	4002	0	0	5	5	0.3454009	0.2606318	1	15	0.04	1900	-5.773956	40.92393	-91.39363
62467	-22	0	4	-0.2938301	0.03609869	-0.2892499	0	12.31	4003	0	0	5	5	0.3454009	0.2610548	1	15	0.04	1900	-5.781219	40.92393	-91.39363
62581	-6	0	5	-0.2972217	0.03211751	-0.2902892	0	12.31	4003	0	0	5	5	0.3454009	0.2559658	1	15	0.04	1900	-5.783722	40.92393	-91.39363
62619	-6	0	5	-0.2974632	0.03125331	-0.2902893	0	12.31	4004	0	0	5	5	0.3454009	0.2550442	1	15	0.04	1900	-5.783722	40.92393	-91.39363
62747	-17	-5	6	-0.2964084	0.02638159	-0.2934686	0	12.31	4003	0	0	5	5	0.3454009	0.2457056	1	15	0.04	1900	-6.001434	40.92393	-91.39363
62795	-16	-2	0	-0.2938049	0.02546092	-0.2949359	0	12.31	4004	0	0	5	5	0.3454009	0.2428674	1	15	0.04	1900	-6.025177	40.92393	-91.39363
62899	-12	7	4	-0.292496	0.03089464	-0.2960366	0	12.31	4003	0	0	5	5	0.3454009	0.2252991	1	15	0.04	1900	-5.802399	40.92393	-91.39363
63036	-17	0	0	-0.2869601	0.02512374	-0.2954251	0	12.31	4002	0	0	5	5	0.3454009	0.2152046	1	15	0.04	1900	-5.570343	40.92393	-91.39363
63131	-21	-2	-2	-0.2831032	0.0229071	-0.2945081	0	12.31	4002	0	0	5	5	0.3454009	0.2057185	1	15	0.04	1900	-5.822662	40.92393	-91.39363
63323	-14	0	0	-0.2826883	0.01325266	-0.2951195	0	12.31	4004	0	0	5	5	0.3454009	0.1857317	1	15	0.04	1900	-5.805786	40.92393	-91.39363
63457	-7	-2	0	-0.2768723	0.01066883	-0.2959752	0	12.36	4002	0	0	5	5	0.3454009	0.186533	1	15	0.04	1900	-5.834717	40.92393	-91.39363
63648	-14	1	1	-0.2675553	0.01609091	-0.2948751	0	12.36	4003	0	0	5	5	0.3454009	0.1948408	1	15	0.04	1900	-5.814911	40.92393	-91.39363
63732	-14	0	2	-0.2620537	0.01674781	-0.2969536	0	12.36	4002	0	0	5	5	0.3454009	0.1914776	1	15	0.04	1900	-5.849945	40.92393	-91.39363
63822	-21	3	7	-0.2606292	0.01703408	-0.2987879	0	12.36	4003	0	0	5	5	0.3454009	0.1891822	1	15	0.04	1900	-5.862732	40.92393	-91.39363
63925	-17	-2	-1	-0.2573588	0.01710851	-0.3011722	0	12.36	4003	0	0	5	5	0.3454009	0.1867065	1	15	0.04	1900	-6.059479	40.92393	-91.39363
64106	-9	0	0	-0.2461219	0.02540334	-0.3006833	0	12.36	4005	0	0	5	5	0.3454009	0.1882201	1	15	0.04	1900	-5.85141	40.92393	-91.39363
64187	-10	1	3	-0.2440807	0.0249536	-0.3031288	0	12.36	4004	0	0	5	5	0.3454009	0.1836691	1	15	0.04	1900	-5.881195	40.92393	-91.39363
64240	-9	7	-1	-0.2412079	0.02403399	-0.3038013	0	12.36	4003	0	0	5	5	0.3454009	0.1827963	1	15	0.04	1900	-5.881195	40.92393	-91.39363
64379	-13	7	-6	-0.2293346	0.02431278	-0.3032509	0	12.25	4002	0	0	5	5	0.3454009	0.1868461	1	15	0.04	1900	-5.883789	40.92393	-91.39363
64436	-13	2	0	-0.2317097	0.0187486	-0.3035566	0	12.25	4002	0	0	5	5	0.3454009	0.1917973	1	15	0.04	1900	-5.883789	40.92393	-91.39363
64598	-7	1	4	-0.2339532	0.01262336	-0.3045348	0	12.25	4003	0	0	5	5	0.3454009	0.1969638	1	15	0.04	1900	-6.144379	40.92393	-91.39363
64671	-13	4	5	-0.2455836	0.01083665	-0.305574	0	12.25	4003	0	0	5	5	0.3454009	0.1994512	1	15	0.04	1900	-6.122009	40.92393	-91.39363
64796	-12	-4	-2	-0.2311605	0.006511651	-0.306491	0	12.25	4004	0	0	5	5	0.3454009	0.2080273	1	15	0.04	1900	-5.877899	40.92393	-91.39363
64986	-12	0	-2	-0.2381472	0.007437735	-0.3095475	0	12.25	4003	0	0	5	5	0.3454009	0.2265251	1	15	0.04	1900	-5.873688	40.92393	-91.39363
65112	-11	-3	3	-0.2459346	0.003492132	-0.3087525	0	12.25	4002	0	0	5	5	0.3454009	0.2464349	1	15	0.04	1900	-5.887726	40.92393	-91.39363
65174	-12	-2	-1	-0.2400694	-0.001786009	-0.3075296	0	12.25	4003	0	0	5	5	0.3454009	0.2528679	1	15	0.04	1900	-6.084778	40.92393	-91.39363
65225	-10	-2	2	-0.2369458	-0.0009932892	-0.3085078	0	12.36	4003	0	0	5	5	0.3454009	0.2585818	1	15	0.04	1900	-6.084778	40.92393	-91.39363
65424	-8	2	-1	-0.2346421	-0.008744786	-0.3098528	0	12.36	4002	0	0	5	5	0.3454009	0.2756332	1	15	0.04	1900	-5.897217	40.92393	-91.39363
65480	-12	3	6	-0.2341963	-0.007124293	-0.3109533	0	12.36	4004	0	0	5	5	0.3454009	0.2779878	1	15	0.04	1900	-5.880463	40.92393	-91.39363
65610	-10	-3	2	-0.2278874	-0.0123439	-0.3089969	0	12.36	4003	0	0	5	5	0.3454009	0.2942583	1	15	0.04	1900	-5.884277	40.92393	-91.39363
65688	-16	5	2	-0.2264646	-0.01517221	-0.3078967	0	12.36	4003	0	0	5	5	0.3454009	0.2942307	1	15	0.04	1900	-5.692169	40.92393	-91.39363
65769	-12	0	0	-0.2215711	-0.01344647	-0.3061849	0	12.36	4002	0	0	5	5	0.3454009	0.2926373	1	15	0.04	1900	-5.891327	40.92393	-91.39363
65875	-13	6	-3	-0.2173136	-0.01230161	-0.304901	0	12.36	4003	0	0	5	5	0.3454009	0.2756978	1	15	0.04	1900	-5.884186	40.92393	-91.39363
66020	-3	-4	0	-0.2055315	-0.01583968	-0.3032505	0	12.36	4004	0	0	5	5	0.3454009	0.2646415	1	15	0.04	1900	-5.944458	40.92393	-91.39363
66105	-13	-8	2	-0.2021417	-0.006966136	-0.3041675	0	12.36	4002	0	0	5	5	0.3454009	0.2557886	1	15	0.04	1900	-5.928741	40.92393	-91.39363
66196	-3	-2	0	-0.1990883	-0.00376033	-0.304473	0	12.25	4004	0	0	5	5	0.3454009	0.2510638	1	15	0.04	1900	-5.714539	40.92393	-91.39363
66256	-13	-1	-4	-0.2010571	-0.003799291	-0.3033113	0	12.25	4004	0	0	5	5	0.3454009	0.2512766	1	15	0.04	1900	-5.932434	40.92393	-91.39363
66317	-13	-4	0	-0.2047399	-0.002109512	-0.3021498	0	12.25	4003	0	0	5	5	0.3454009	0.2538347	1	15	0.04	1900	-5.932434	40.92393	-91.39363
66420	-13	0	1	-0.2058101	-0.005217458	-0.3004992	0	12.25	4002	0	0	5	5	0.3454009	0.2589848	1	15	0.04	1900	-5.706512	40.92393	-91.39363
66633	-8	0	-3	-0.1963419	-0.007394851	-0.2994596	0	12.25	4003	0	0	5	5	0.3454009	0.2700393	1	15	0.04	1900	-5.935181	40.92393	-91.39363
66753	-7	-1	-1	-0.1893716	-0.01176465	-0.2968918	0	12.25	4003	0	0	5	5	0.3454009	0.2715087	1	15	0.04	1900	-5.973053	40.92393	-91.39363
66831	-11	2	1	-0.1883197	-0.01186698	-0.2962805	0	12.25	4004	0	0	5	5	0.3454009	0.268694	1	15	0.04	1900	-5.977173	40.92393	-91.39363
66983	-13	-1	-3	-0.1844666	-0.00743891	-0.2945686	0	12.25	4004	0	0	5	5	0.3454009	0.269551	1	15	0.04	1900	-5.955261	40.92393	-91.39363
67095	0	-1	3	-0.1775527	-0.006702087	-0.2927957	0	12.31	4004	0	0	5	5	0.3454009	0.2851782	1	15	0.04	1900	-5.963715	40.92393	-91.39363
67156	-1	-5	1	-0.1704107	0.0008551611	-0.2912061	0	12.31	4003	0	0	5	5	0.3454009	0.2968383	1	15	0.04	1900	-6.220551	40.92393	-91.39363
67243	-18	4	0	-0.1713684	0.0008110165	-0.2899223	0	12.31	4002	0	0	5	5	0.3454009	0.3085888	1	15	0.04	1900	-6.200592	40.92393	-91.39363
67347	-3	0	-3	-0.1684503	-0.0001725339	-0.2901669	0	12.31	4003	0	0	5	5	0.3454009	0.3210582	1	15	0.04	1900	-5.778259	40.92393	-91.39363
67430	-6	2	-3	-0.1603056	-0.003884318	-0.2888218	0	12.31	4004	0	0	5	5	0.3454009	0.3266931	1	15	0.04	1900	-6.006256	40.92393	-91.39363
67562	-18	-1	-3	-0.1643183	-0.003996751	-0.2879658	0	12.31	4003	0	0	5	5	0.3454009	0.3251617	1	15	0.04	1900	-5.79306	40.92393	-91.39363
67667	-12	0	2	-0.1678646	-0.009380355	-0.285765	0	12.31	4003	0	0	5	5	0.3454009	0.3222806	1	15	0.04	1900	-5.985168	40.92393	-91.39363
67807	-11	-6	0	-0.15762	-0.00988325	-0.2838086	0	12.31	4003	0	0	5	5	0.3454009	0.3150172	1	15	0.04	1900	-5.985504	40.92393	-91.39363
67950	-1	6	-2	-0.1589149	-0.01507888	-0.2850314	0	12.36	4004	0	0	5	5	0.3454009	0.3027815	1	15	0.04	1900	-6.216156	40.92393	-91.39363
68050	-6	3	-1	-0.1624413	-0.01420995	-0.2846034	0	12.36	4004	0	0	5	5	0.3454009	0.3003088	1	15	0.04	1900	-5.973907	40.92393	-91.39363
68210	-15	-1	5	-0.1594179	-0.0194048	-0.2844811	0	12.36	4004	0	0	5	5	0.3454009	0.2952516	1	15	0.04	1900	-6.024109	40.92393	-91.39363
68268	-13	2	-2	-0.1664053	-0.01608632	-0.2841755	0	12.36	4003	0	0	5	5	0.3454009	0.2889567	1	15	0.04	1900	-5.777222	40.92393	-91.39363
68375	2	1	0	-0.1679162	-0.01894594	-0.2806907	0	12.36	4003	0	0	5	5	0.3454009	0.2770706	1	15	0.04	1900	-5.764252	40.92393	-91.39363
68502	-8	5	4	-0.1617887	-0.015832	-0.2820968	0	12.36	4003	0	0	5	5	0.3454009	0.2586887	1	15	0.04	1900	-5.768585	40.92393	-91.39363
68544	-11	1	-6	-0.1629177	-0.01786216	-0.2798346	0	12.36	4004	0	0	5	5	0.3454009	0.2520548	1	15	0.04	1900	-5.994507	40.92393	-91.39363
68709	-9	6	-5	-0.1668392	-0.01155395	-0.2788564	0	12.36	4004	0	0	5	5	0.3454009	0.2359247	1	15	0.04	1900	-6.008911	40.92393	-91.39363
68823	-6	-1	2	-0.1702541	-0.009229036	-0.2790399	0	12.36	4004	0	0	5	5	0.3454009	0.2367908	1	15	0.04	1900	-5.975616	40.92393	-91.39363
68842	2	-3	-4	-0.1675427	-0.007176749	-0.2779394	0	12.31	4003	0	0	5	5	0.3454009	0.2375603	1	15	0.04	1900	-5.975616	40.92393	-91.39363
69031	-1	1	1	-0.1526931	-0.01552119	-0.2776337	0	12.31	4002	0	0	5	5	0.3454009	0.2506478	1	15	0.04	1900	-5.804077	40.92393	-91.39363
69088	-6	3	-4	-0.1556736	-0.01431349	-0.2763498	0	12.31	4002	0	0	5	5	0.3454009	0.2515046	1	15	0.04	1900	-6.226044	40.92393	-91.39363
69176	-5	-1	2	-0.1457533	-0.01448732	-0.2776951	0	12.31	4003	0	0	5	5	0.3454009	0.2534597	1	15	0.04	1900	-6.23468	40.92393	-91.39363
69233	-7	0	1	-0.1429381	-0.01378501	-0.2783676	0	12.31	4004	0	0	5	5	0.3454009	0.2533159	1	15	0.04	1900	-6.018127	40.92393	-91.39363
69457	-1	-1	3	-0.1472365	-0.01343545	-0.2786118	0	12.31	4002	0	0	5	5	0.3454009	0.2623377	1	15	0.04	1900	-6.041382	40.92393	-91.39363
69647	0	4	1	-0.1426273	-0.01233548	-0.2806905	0	12.31	4003	0	0	5	5	0.3454009	0.2796823	1	15	0.04	1900	-6.019714	40.92393	-91.39363
69743	2	1	0	-0.1426755	-0.01583138	-0.2810575	0	12.31	4003	0	0	5	5	0.3454009	0.2883024	1	15	0.04	1900	-6.067596	40.92393	-91.39363
69835	-15	-3	0	-0.1428044	-0.01618235	-0.2806907	0	12.31	4003	0	0	5	5	0.3454009	0.2971762	1	15	0.04	1900	-6.067596	40.92393	-91.39363
70023	-6	0	-1	-0.1371176	-0.01743667	-0.2794681	0	12.31	4002	0	0	5	5	0.3454009	0.3135148	1	15	0.04	1900	-6.058472	40.92393	-91.39363
70092	-7	4	-2	-0.1392239	-0.02263055	-0.2795292	0	12.31	4004	0	0	5	5	0.3454009	0.3179549	1	15	0.04	1900	-6.058472	40.92393	-91.39363
70162	-5	-4	-3	-0.1406168	-0.02188196	-0.2788655	0	12.31	4002	0	0	5	5	0.3454009	0.3202243	1	10	0.03	1800	-6.055603	40.92393	-91.39363
70226	-11	-2	4	-0.1362548	-0.02074756	-0.2791711	0	12.31	4003	0	0	5	5	0.3454009	0.3218029	1	10	0.03	1800	-5.830017	40.92393	-91.39363
70404	-3	-3	-6	-0.129777	-0.01107876	-0.2780096	0	12.31	4003	0	0	5	5	0.3454009	0.3115155	1	10	0.03	1800	-6.267365	40.92393	-91.39363
70542	-5	2	1	-0.1341766	-0.007524163	-0.2769093	0	12.31	4003	0	0	5	5	0.3454009	0.2992553	1	10	0.03	1800	-6.256439	40.92393	-91.39363
70690	0	1	-4	-0.1300228	-0.007405362	-0.2744637	0	12.31	4003	0	0	5	5	0.3454009	0.2946924	1	10	0.03	1800	-6.042267	40.92393	-91.39363
70852	0	3	-2	-0.1293684	-0.005404072	-0.2715903	0	12.31	4003	0	0	5	5	0.3454009	0.2811699	1	10	0.03	1800	-6.036896	40.92393	-91.39363
70970	-1	-4	0	-0.1267009	-0.009209189	-0.2701232	0	12.31	4004	0	0	5	5	0.3454009	0.2714912	1	10	0.03	1800	-6.26944	40.92393	-91.39363
71069	-5	-7	0	-0.1192624	-0.00504086	-0.2698173	0	12.31	4002	0	0	5	5	0.3454009	0.261961	1	10	0.03	1800	-6.076599	40.92393	-91.39363
71162	1	0	2	-0.1134837	-0.003574515	-0.2684724	0	12.31	4003	0	0	5	5	0.3454009	0.241647	1	10	0.03	1800	-5.822968	40.92393	-91.39363
71266	-1	-1	-2	-0.1101435	0.003708429	-0.2662717	0	12.31	4004	0	0	5	5	0.3454009	0.23236	1	10	0.03	1800	-6.098083	40.92393	-91.39363
71306	10	3	0	-0.1081278	0.002891885	-0.2649266	0	12.31	4004	0	0	5	5	0.3454009	0.2313754	1	10	0.03	1800	-6.071686	40.92393	-91.39363
71447	-3	2	0	-0.1093955	0.001335964	-0.2616249	0	12.31	4002	0	0	5	5	0.3454009	0.2294746	1	10	0.03	1800	-6.075073	40.92393	-91.39363
71567	-12	-5	-4	-0.1039456	0.008210027	-0.259424	0	12.31	4003	0	0	5	5	0.3454009	0.2255533	1	10	0.03	1800	-6.324585	40.92393	-91.39363
71666	4	-2	0	-0.09600154	0.005335649	-0.259485	0	12.31	4004	0	0	5	5	0.3454009	0.2204942	1	10	0.03	1800	-6.111328	40.92393	-91.39363
71804	5	4	4	-0.08418728	0.005526225	-0.2603407	0	12.31	4002	0	0	5	5	0.3454009	0.2237763	1	10	0.03	1800	-6.131165	40.92393	-91.39363
71991	-2	5	0	-0.08041508	0.004972564	-0.2577118	0	12.31	4002	0	0	5	5	0.3454009	0.2344704	1	10	0.03	1800	-5.918396	40.92393	-91.39363
72021	6	1	2	-0.07790507	0.009837903	-0.2585677	0	12.31	4002	0	0	5	5	0.3454009	0.2433412	1	10	0.03	1800	-6.137695	40.92393	-91.39363
72103	4	-2	-2	-0.07550886	0.01153641	-0.2580786	0	12.31	4003	0	0	5	5	0.3454009	0.2566963	1	10	0.03	1800	-6.144196	40.92393	-91.39363
72206	-5	1	-1	-0.07855946	0.005021158	-0.2567336	0	12.31	4002	0	0	5	5	0.3454009	0.2732014	1	10	0.03	1800	-6.123779	40.92393	-91.39363
72369	0	0	-2	-0.07143961	0.001980387	-0.2520875	0	12.31	4002	0	0	5	5	0.3454009	0.3021345	1	10	0.03	1800	-5.906158	40.92393	-91.39363
72403	-10	3	-3	-0.08149201	0.003033974	-0.2497643	0	12.31	4002	0	0	5	5	0.3454009	0.3059902	1	10	0.03	1800	-6.39447	40.92393	-91.39363
72484	-2	-2	-3	-0.08335371	0.001966846	-0.2479913	0	12.36	4003	0	0	5	5	0.3454009	0.3171719	1	10	0.03	1800	-6.137634	40.92393	-91.39363
72588	7	4	0	-0.08230181	0.001634857	-0.2474409	0	12.36	4003	0	0	5	5	0.3454009	0.3281745	1	10	0.03	1800	-6.309052	40.92393	-91.39363
72713	-2	3	0	-0.07243507	0.003219154	-0.2459735	0	12.36	4004	0	0	5	5	0.3454009	0.3415511	1	10	0.03	1800	-5.902985	40.92393	-91.39363
72789	-3	2	-1	-0.07488468	0.003866832	-0.2438339	0	12.36	4002	0	0	5	5	0.3454009	0.3442722	1	10	0.03	1800	-6.569824	40.92393	-91.39363
72906	0	-3	-1	-0.07426207	0.001356799	-0.2419386	0	12.36	4002	0	0	5	5	0.3454009	0.3408771	1	10	0.03	1800	-6.321716	40.92393	-91.39363
73008	4	1	-3	-0.06902878	-0.003464807	-0.2423056	0	12.36	4003	0	0	5	5	0.3454009	0.3336526	1	10	0.03	1800	-6.111053	40.92393	-91.39363
73153	-2	6	1	-0.05948187	-0.01111829	-0.2412051	0	12.36	4003	0	0	5	5	0.3454009	0.3269247	1	10	0.03	1800	-6.171814	40.92393	-91.39363
73254	7	0	-3	-0.05777759	-0.009276506	-0.239554	0	12.36	4002	0	0	5	5	0.3454009	0.3137101	1	10	0.03	1800	-6.175323	40.92393	-91.39363
73291	0	0	-4	-0.05763392	-0.01100698	-0.2383924	0	12.36	4003	0	0	5	5	0.3454009	0.3108566	1	10	0.03	1800	-6.175323	40.92393	-91.39363
73395	0	6	-6	-0.0556129	-0.01334774	-0.2356411	0	12.31	4004	0	0	5	5	0.3454009	0.3013147	1	10	0.03	1800	-6.183258	40.92393	-91.39363
73498	-2	2	-4	-0.0568147	-0.01278612	-0.2352743	0	12.31	4004	0	0	5	5	0.3454009	0.2950061	1	10	0.03	1800	-6.403503	40.92393	-91.39363
73615	-5	2	-3	-0.05721338	-0.0107927	-0.2319119	0	12.31	4003	0	0	5	5	0.3454009	0.2817959	1	10	0.03	1800	-5.932587	40.92393	-91.39363
73737	-2	0	-1	-0.06187104	-0.007126936	-0.2292832	0	12.31	4002	0	0	5	5	0.3454009	0.2762525	1	10	0.03	1800	-6.148987	40.92393	-91.39363
73859	-1	-1	-3	-0.0654109	-0.0105613	-0.2269601	0	12.31	4002	0	0	5	5	0.3454009	0.2786874	1	10	0.03	1800	-6.145996	40.92393	-91.39363
73979	7	0	1	-0.06662282	-0.01098582	-0.224209	0	12.31	4003	0	0	5	5	0.3454009	0.2855276	1	10	0.03	1800	-6.358368	40.92393	-91.39363
74036	-9	0	-4	-0.06365556	-0.01476983	-0.2222528	0	12.31	4002	0	0	5	5	0.3454009	0.2883567	1	10	0.03	1800	-6.367035	40.92393	-91.39363
74101	8	0	0	-0.06298191	-0.01779671	-0.2209691	0	12.31	4003	0	0	5	5	0.3454009	0.2900965	1	10	0.03	1800	-6.367035	40.92393	-91.39363
74214	2	-3	0	-0.05601288	-0.02327993	-0.2192574	0	12.31	4003	0	0	5	5	0.3454009	0.28922	1	10	0.03	1800	-6.378571	40.92393	-91.39363
74341	0	-4	-5	-0.0531754	-0.0132238	-0.2190126	0	12.36	4003	0	0	5	5	0.3454009	0.2906501	1	10	0.03	1800	-6.158081	40.92393	-91.39363
74400	3	-1	-2	-0.05459212	-0.01292612	-0.2179733	0	12.36	4002	0	0	5	5	0.3454009	0.289561	1	10	0.03	1800	-6.158081	40.92393	-91.39363
74501	11	0	5	-0.05193084	-0.01372779	-0.2184626	0	12.36	4004	0	0	5	5	0.3454009	0.2856443	1	10	0.03	1800	-6.384857	40.92393	-91.39363
74641	3	-6	-3	-0.05764954	-0.01256322	-0.219135	0	12.36	4003	0	0	5	5	0.3454009	0.2790094	1	10	0.03	1800	-6.134369	40.92393	-91.39363
74709	-8	0	-5	-0.05579557	-0.01463514	-0.216934	0	12.36	4004	0	0	5	5	0.3454009	0.2780565	1	10	0.03	1800	-5.936798	40.92393	-91.39363
74863	4	4	0	-0.05677479	-0.01570868	-0.2166896	0	12.36	4003	0	0	5	5	0.3454009	0.2835501	1	10	0.03	1800	-5.956238	40.92393	-91.39363
74963	8	-1	-2	-0.05720604	-0.02202195	-0.2157119	0	12.36	4003	0	0	5	5	0.3454009	0.2932657	1	10	0.03	1800	-6.176849	40.92393	-91.39363
75047	4	-8	4	-0.05113104	-0.01800866	-0.2155895	0	12.36	4003	0	0	5	5	0.3454009	0.2969854	1	10	0.03	1800	-6.184998	40.92393	-91.39363
75105	8	-2	-1	-0.04618137	-0.02106987	-0.2151004	0	12.36	4004	0	0	5	5	0.3454009	0.3039558	1	10	0.03	1800	-6.184998	40.92393	-91.39363
75282	10	2	5	-0.04342447	-0.01978679	-0.2146109	0	12.31	4004	0	0	5	5	0.3454009	0.2977637	1	10	0.03	1800	-5.958527	40.92393	-91.39363
75361	5	3	-3	-0.04107429	-0.02557205	-0.2135717	0	12.31	4003	0	0	5	5	0.3454009	0.2967389	1	10	0.03	1800	-6.181061	40.92393	-91.39363
75468	4	-1	-5	-0.03662645	-0.03029501	-0.2114319	0	12.31	4002	0	0	5	5	0.3454009	0.2918928	1	10	0.03	1800	-6.214539	40.92393	-91.39363
75497	7	-5	-4	-0.03690036	-0.03053948	-0.2108817	0	12.31	4002	0	0	5	5	0.3454009	0.2923432	1	10	0.03	1800	-5.967102	40.92393	-91.39363
75595	-1	4	3	-0.04040556	-0.03554193	-0.2094755	0	12.31	4003	0	0	5	5	0.3454009	0.2964849	1	10	0.03	1800	-5.967102	40.92393	-91.39363
75782	3	-1	-1	-0.03960181	-0.03197271	-0.2072747	0	12.31	4003	0	0	5	5	0.3454009	0.2989881	1	10	0.03	1800	-6.429291	40.92393	-91.39363
75839	0	7	-2	-0.03803534	-0.03076046	-0.2063577	0	12.31	4004	0	0	5	5	0.3454009	0.294827	1	10	0.03	1800	-6.212036	40.92393	-91.39363
75903	1	-1	0	-0.02885485	-0.03347295	-0.2047681	0	12.31	4003	0	0	5	5	0.3454009	0.2921059	1	10	0.03	1800	-6.437775	40.92393	-91.39363
76006	10	1	-3	-0.02222524	-0.03234493	-0.2032399	0	12.31	4003	0	0	5	5	0.3454009	0.2895887	1	10	0.03	1800	-6.014496	40.92393	-91.39363
76103	2	2	1	-0.02236532	-0.02367404	-0.2010999	0	12.31	4003	0	0	5	5	0.3454009	0.2901656	1	10	0.03	1800	-6.214905	40.92393	-91.39363
76204	2	1	-4	-0.02762318	-0.02066594	-0.1985932	0	12.31	4004	0	0	5	5	0.3454009	0.2917378	1	10	0.03	1800	-6.45755	40.92393	-91.39363
76308	9	-2	-4	-0.02752811	-0.02128871	-0.1961478	0	12.31	4002	0	0	5	5	0.3454009	0.2907931	1	10	0.03	1800	-6.251221	40.92393	-91.39363
76417	0	0	-1	-0.02525316	-0.01869948	-0.1921125	0	12.31	4003	0	0	5	5	0.3454009	0.2885672	1	10	0.03	1800	-6.426056	40.92393	-91.39363
76524	8	1	3	-0.02065962	-0.02019453	-0.1894224	0	12.31	4002	0	0	5	5	0.3454009	0.2813978	1	10	0.03	1800	-6.210449	40.92393	-91.39363
76610	-1	1	2	-0.01245264	-0.01987811	-0.1896058	0	12.31	4003	0	0	5	5	0.3454009	0.2759118	3	10	0.03	1800	-6.446594	40.92393	-91.39363
76726	1	1	0	-0.01380003	-0.02354201	-0.1868547	0	12.31	4003	0	0	5	5	0.3454009	0.2554879	3	10	0.03	1800	-6.250977	40.92393	-91.39363
76815	7	-3	0	-0.0111756	-0.02490115	-0.186182	0	12.31	4004	0	0	5	5	0.3454009	0.2483237	3	10	0.03	1800	-6.246643	40.92393	-91.39363
76918	-2	-4	-4	-0.01399072	-0.02188813	-0.1842257	0	12.31	4003	0	0	5	5	0.3454009	0.2422457	3	10	0.03	1800	-6.474243	40.92393	-91.39363
77024	5	-3	2	-0.009894774	-0.02124928	-0.1830638	0	12.31	4003	0	0	5	5	0.3454009	0.2353243	3	10	0.03	1800	-6.232452	40.92393	-91.39363
77135	11	-1	-2	-0.001858945	-0.02600742	-0.1809852	0	12.31	4004	0	0	5	5	0.3454009	0.2351943	3	10	0.03	1800	-6.236847	40.92393	-91.39363
77228	3	0	0	0.001693569	-0.02581935	-0.1785394	0	12.31	4003	0	0	5	5	0.3454009	0.2516567	3	10	0.03	1800	-6.274719	40.92393	-91.39363
77340	10	-1	-1	-0.000808006	-0.02552518	-0.1775615	0	12.31	4004	0	0	5	5	0.3454009	0.2633546	3	10	0.03	1800	-6.244232	40.92393	-91.39363
77431	8	-5	4	0.0007039064	-0.02889521	-0.1752381	0	12.31	4003	0	0	5	5	0.3454009	0.2696867	3	10	0.03	1800	-6.050476	40.92393	-91.39363
77541	10	0	4	0.01318212	-0.02615864	-0.1726702	0	12.31	4003	0	0	5	5	0.3454009	0.2737345	3	10	0.03	1800	-6.289886	40.92393	-91.39363
77655	2	-3	0	0.01863057	-0.02973354	-0.1694912	0	12.31	4002	0	0	5	5	0.3454009	0.272456	3	10	0.03	1800	-6.294952	40.92393	-91.39363
77778	10	-1	0	0.01733881	-0.02997335	-0.1687578	0	12.31	4004	0	0	5	5	0.3454009	0.2755601	3	10	0.03	1800	-6.050293	40.92393	-91.39363
77951	15	-4	-7	0.02542898	-0.02940124	-0.1644784	0	12.31	4003	0	0	5	5	0.3454009	0.2772209	3	10	0.03	1800	-6.308929	40.92393	-91.39363
78032	9	4	2	0.03058412	-0.0267818	-0.1631332	0	12.31	4004	0	0	5	5	0.3454009	0.2742809	3	10	0.03	1800	-6.288544	40.92393	-91.39363
78090	1	-1	-1	0.03268282	-0.0271304	-0.1622164	0	12.31	4003	0	0	5	5	0.3454009	0.2787954	3	10	0.03	1800	-6.290558	40.92393	-91.39363
78197	8	0	-7	0.0333794	-0.02731444	-0.1609937	0	12.31	4004	0	0	5	5	0.3454009	0.2865195	3	10	0.03	1800	-6.489777	40.92393	-91.39363
78306	-5	0	-5	0.02903233	-0.03343758	-0.1561643	0	12.31	4004	0	0	5	5	0.3454009	0.286249	3	10	0.03	1800	-6.543274	40.92393	-91.39363
78394	9	-1	0	0.02175312	-0.03692338	-0.1553697	0	12.31	4003	0	0	5	5	0.3454009	0.2893726	3	10	0.03	1800	-6.31015	40.92393	-91.39363
78540	5	-4	-1	0.01277409	-0.03827544	-0.1534136	0	12.31	4002	0	0	5	5	0.3454009	0.2858558	3	10	0.03	1800	-6.297668	40.92393	-91.39363
78590	10	2	1	0.01485241	-0.03475833	-0.1534748	0	12.31	4003	0	0	5	5	0.3454009	0.285119	3	10	0.03	1800	-6.293457	40.92393	-91.39363
78682	0	1	-3	0.01569543	-0.03686053	-0.1532302	0	12.31	4004	0	0	5	5	0.3454009	0.2850402	3	10	0.03	1800	-6.245667	40.92393	-91.39363
78788	9	1	0	0.02147442	-0.03784753	-0.1502956	0	12.31	4003	0	0	5	5	0.3454009	0.2934025	3	10	0.03	1800	-6.277222	40.92393	-91.39363
78897	9	5	0	0.02253949	-0.03555756	-0.1478502	0	12.31	4004	0	0	5	5	0.3454009	0.3033057	3	10	0.03	1800	-6.500153	40.92393	-91.39363
79019	3	6	1	0.02236037	-0.03187313	-0.1457717	0	12.36	4003	0	0	5	5	0.3454009	0.3128485	3	10	0.03	1800	-6.276459	40.92393	-91.39363
79119	2	-3	-1	0.01844188	-0.03033473	-0.1438151	0	12.36	4002	0	0	5	5	0.3454009	0.3213792	3	10	0.03	1800	-6.280579	40.92393	-91.39363
79191	6	1	1	0.02310521	-0.03181794	-0.1436927	0	12.36	4003	0	0	5	5	0.3454009	0.320792	3	10	0.03	1800	-6.303864	40.92393	-91.39363
79290	1	1	0	0.01748175	-0.03472013	-0.1428979	0	12.36	4002	0	0	5	5	0.3454009	0.3164973	3	10	0.03	1800	-6.523712	40.92393	-91.39363
79411	0	-1	0	0.01512907	-0.03525931	-0.1424087	0	12.36	4004	0	0	5	5	0.3454009	0.3039223	3	10	0.03	1800	-6.272736	40.92393	-91.39363
79496	4	0	-6	0.02231206	-0.03872918	-0.1419813	0	12.36	4003	0	0	5	5	0.3454009	0.2994625	3	10	0.03	1800	-6.060089	40.92393	-91.39363
79584	2	3	-4	0.02247615	-0.03714784	-0.1416756	0	12.36	4002	0	0	5	5	0.3454009	0.2978893	3	10	0.03	1800	-6.283539	40.92393	-91.39363
79677	15	-4	2	0.02664687	-0.04049714	-0.1397193	0	12.36	4004	0	0	5	5	0.3454009	0.2958031	3	10	0.03	1800	-6.288116	40.92393	-91.39363
79783	5	4	0	0.0314883	-0.03460723	-0.1383128	0	12.36	4002	0	0	5	5	0.3454009	0.2955116	3	10	0.03	1800	-6.295227	40.92393	-91.39363
79923	7	-2	1	0.03629225	-0.03125222	-0.1336661	0	12.36	4004	0	0	5	5	0.3454009	0.2829353	3	10	0.03	1800	-6.545532	40.92393	-91.39363
79981	7	-2	0	0.04152929	-0.02903451	-0.1321988	0	12.36	4004	0	0	5	5	0.3454009	0.2752786	3	10	0.03	1800	-6.108398	40.92393	-91.39363
80153	6	-1	0	0.05042559	-0.02716838	-0.1278583	0	12.36	4003	0	0	5	5	0.3454009	0.2662039	3	10	0.03	1800	-6.533112	40.92393	-91.39363
80184	11	2	-3	0.05011132	-0.02831894	-0.1275526	0	12.36	4004	0	0	5	5	0.3454009	0.2667489	3	10	0.03	1800	-6.569092	40.92393	-91.39363
80332	9	5	0	0.05517929	-0.0269974	-0.1268796	0	12.36	4003	0	0	5	5	0.3454009	0.2661733	3	10	0.03	1800	-6.35791	40.92393	-91.39363
80397	7	3	2	0.05965073	-0.0298441	-0.1256571	0	12.36	4002	0	0	5	5	0.3454009	0.265914	3	10	0.03	1800	-6.356354	40.92393	-91.39363
80479	5	4	-2	0.06143051	-0.02592678	-0.1257792	0	12.36	4003	0	0	5	5	0.3454009	0.2654841	3	10	0.03	1800	-6.589508	40.92393	-91.39363
80586	0	-3	-2	0.0583021	-0.02688792	-0.1231502	0	12.36	4003	0	0	5	5	0.3454009	0.2744894	3	10	0.03	1800	-6.559235	40.92393	-91.39363
80719	7	-3	1	0.06017952	-0.02544631	-0.1224778	0	12.36	4003	0	0	5	5	0.3454009	0.2952086	3	10	0.03	1800	-6.364288	40.92393	-91.39363
80775	5	0	0	0.05839721	-0.03282966	-0.1219275	0	12.36	4004	0	0	5	5	0.3454009	0.3020194	3	10	0.03	1800	-6.363739	40.92393	-91.39363
80899	5	-5	-1	0.0638599	-0.02981892	-0.1212553	0	12.36	4002	0	0	5	5	0.3454009	0.3156241	3	10	0.03	1800	-6.572968	40.92393	-91.39363
80973	9	-3	-5	0.06261498	-0.02666543	-0.1196043	0	12.36	4004	0	0	5	5	0.3454009	0.3154808	3	10	0.03	1800	-6.121521	40.92393	-91.39363
81123	12	0	2	0.06646648	-0.02887209	-0.1168532	0	12.36	4004	0	0	5	5	0.3454009	0.3128727	8	10	0.03	1800	-6.374634	40.92393	-91.39363
81214	10	-2	-3	0.06752629	-0.03048567	-0.114897	0	12.36	4003	0	0	5	5	0.3454009	0.3035721	8	10	0.03	1800	-6.347229	40.92393	-91.39363
81277	19	1	-4	0.07374382	-0.03494994	-0.1124511	0	12.36	4003	0	0	5	5	0.3454009	0.2926457	8	10	0.03	1800	-6.379578	40.92393	-91.39363
81387	4	1	-3	0.07643961	-0.0372326	-0.1086607	0	12.36	4004	0	0	5	5	0.3454009	0.2856278	8	10	0.03	1800	-6.359619	40.92393	-91.39363
81482	22	1	-2	0.07879719	-0.03722304	-0.1082939	0	12.36	4003	0	0	5	5	0.3454009	0.2630865	8	10	0.03	1800	-6.341766	40.92393	-91.39363
81592	16	0	-1	0.07914156	-0.03806488	-0.1060926	0	12.36	4004	0	0	5	5	0.3454009	0.2482734	8	10	0.03	1800	-6.42218	40.92393	-91.39363
81699	6	0	-1	0.08885362	-0.02830207	-0.103219	0	12.36	4003	0	0	5	5	0.3454009	0.2363579	3	10	0.03	1800	-6.408234	40.92393	-91.39363
81814	7	1	-3	0.08972575	-0.03152147	-0.1015677	0	12.36	4003	0	0	5	5	0.3454009	0.2373299	3	10	0.03	1800	-6.167114	40.92393	-91.39363
81909	10	3	0	0.08455673	-0.03446452	-0.1024235	0	12.36	4004	0	0	5	5	0.3454009	0.2408009	3	10	0.03	1800	-6.382782	40.92393	-91.39363
82024	9	0	-2	0.08435715	-0.03144107	-0.1002837	0	12.36	4007	0	0	5	5	0.3454009	0.2391843	3	10	0.03	1800	-6.40036	40.92393	-91.39363
82121	6	-3	-2	0.08578978	-0.0329552	-0.09759346	0	12.36	4003	0	0	5	5	0.3454009	0.2391653	3	10	0.03	1800	-6.405914	40.92393	-91.39363
82261	20	-1	0	0.09250118	-0.0273117	-0.09667612	0	12.36	4004	0	0	5	5	0.3454009	0.2403664	3	10	0.03	1800	-6.352936	40.92393	-91.39363
82322	5	2	0	0.09031603	-0.02748928	-0.09502546	0	12.36	4004	0	0	5	5	0.3454009	0.2429463	3	10	0.03	1800	-6.390961	40.92393	-91.39363
82507	7	-2	0	0.09300411	-0.02693061	-0.09141803	0	12.36	4002	0	0	5	5	0.3454009	0.2363003	6	10	0.03	1800	-6.391174	40.92393	-91.39363
82615	6	1	0	0.1017462	-0.03304151	-0.0902563	0	12.36	4004	0	0	5	5	0.2440753	0.226735	8	10	0.03	1800	-6.391174	40.92393	-91.39363
82730	9	-1	-1	0.1081971	-0.02796013	-0.08579323	0	12.31	4003	0	0	5	5	0.1916879	0.2227299	8	10	0.03	1800	-6.409912	40.92393	-91.39363
82848	13	0	1	0.1103788	-0.02619116	-0.08261412	0	12.31	4002	0	0	5	5	0.1432242	0.2235475	8	10	0.03	1800	-6.419159	40.92393	-91.39363
82912	13	0	-2	0.1072575	-0.02906493	-0.07955718	0	12.31	4003	0	0	5	5	0.1256567	0.2256196	8	10	0.03	1800	-6.415649	40.92393	-91.39363
82985	16	-4	-5	0.1057809	-0.02810663	-0.07698926	0	12.31	4002	0	0	5	5	0.1114271	0.2250061	8	10	0.03	1800	-6.412262	40.92393	-91.39363
83043	18	3	-2	0.1087716	-0.03147303	-0.07607219	0	12.31	4004	0	0	5	5	0.09498741	0.223382	8	10	0.03	1800	-6.439148	40.92393	-91.39363
83188	8	-3	-4	0.1074426	-0.02970661	-0.07319838	0	12.31	4004	0	0	5	5	0.07977897	0.2218033	8	10	0.03	1800	-6.663208	40.92393	-91.39363
83246	17	-3	-2	0.1092482	-0.0317535	-0.07063081	0	12.31	4003	0	0	5	5	0.07687747	0.2204935	8	10	0.03	1800	-6.191162	40.92393	-91.39363
83329	6	-5	-3	0.102632	-0.02539019	-0.06977505	0	12.31	4004	0	0	5	5	0.06789705	0.2121218	8	10	0.03	1800	-6.412659	40.92393	-91.39363
83425	17	1	-1	0.104996	-0.03226563	-0.06787991	0	12.31	4004	0	0	5	5	0.06464177	0.210963	8	10	0.03	1800	-6.432129	40.92393	-91.39363
83565	14	-4	1	0.1101236	-0.03524113	-0.06415036	0	12.36	4003	0	0	5	5	0.05986921	0.2010498	8	10	0.03	1800	-6.420013	40.92393	-91.39363
83667	21	0	-3	0.1179286	-0.03598876	-0.06158299	0	12.36	4002	0	0	5	5	0.05673793	0.1985368	8	10	0.03	1800	-6.208923	40.92393	-91.39363
83798	12	0	-2	0.1203817	-0.0337704	-0.05498075	0	12.36	4003	0	0	5	5	0.05468349	0.1992401	8	10	0.03	1800	-6.486176	40.92393	-91.39363
83901	10	0	0	0.1153618	-0.03693642	-0.05161808	0	12.36	4004	0	0	5	5	0.05362131	0.2035499	3	10	0.03	1800	-6.432922	40.92393	-91.39363
83952	15	0	-4	0.119236	-0.03584395	-0.05045651	0	12.36	4002	0	0	5	5	0.05333558	0.2037313	3	10	0.03	1800	-6.623016	40.92393	-91.39363
84102	22	-1	0	0.1158941	-0.04185106	-0.04935618	0	12.36	4004	0	0	5	5	0.05228249	0.1970701	3	10	0.03	1800	-6.622772	40.92393	-91.39363
84207	11	-3	0	0.1100312	-0.0367641	-0.04636043	0	12.36	4002	0	0	5	5	0.05199397	0.1957163	3	10	0.03	1800	-6.418701	40.92393	-91.39363
84237	6	0	0	0.1097628	-0.0391857	-0.04422066	0	12.36	4003	0	0	5	5	0.05187098	0.1942345	3	10	0.03	1800	-6.417633	40.92393	-91.39363
84350	6	0	-5	0.1166479	-0.04199928	-0.04171393	0	12.36	4004	0	0	5	5	0.05149029	0.1878811	3	10	0.03	1800	-6.428711	40.92393	-91.39363
84470	15	0	-4	0.1174432	-0.03480723	-0.04171388	0	12.36	4003	0	0	5	5	0.05129346	0.1806542	3	10	0.03	1800	-6.676392	40.92393	-91.39363
84531	22	6	-4	0.1223477	-0.03721257	-0.03884061	0	12.36	4003	0	0	5	5	0.05114998	0.1784291	3	10	0.03	1800	-6.429443	40.92393	-91.39363
84625	14	0	4	0.1267711	-0.03816561	-0.03749561	0	12.36	4002	0	0	5	5	0.05104538	0.1822682	3	10	0.03	1800	-6.463043	40.92393	-91.39363
84734	10	4	-6	0.1242971	-0.0445604	-0.03156586	0	12.36	4003	0	0	5	5	0.05099192	0.1831526	3	10	0.03	1800	-6.660156	40.92393	-91.39363
84858	13	2	-8	0.113954	-0.04118989	-0.02783671	0	12.36	4004	0	0	5	5	0.05089859	0.1850163	6	10	0.03	1800	-6.42572	40.92393	-91.39363
84970	13	-1	-3	0.1178776	-0.03917002	-0.02465777	0	12.36	4004	0	0	5	5	0.05123941	0.1929138	6	10	0.03	1800	-6.206024	40.92393	-91.39363
85058	25	-1	-2	0.1262971	-0.03762952	-0.02141736	0	12.36	4004	0	0	5	5	0.0518072	0.2003858	6	10	0.03	1800	-6.428223	40.92393	-91.39363
85128	5	-5	-1	0.1275054	-0.04038486	-0.01903308	0	12.36	4004	0	0	5	5	0.05217151	0.2062596	6	10	0.03	1800	-6.468475	40.92393	-91.39363
85237	16	0	-2	0.1258614	-0.03756622	-0.01487595	0	12.36	4004	0	0	5	5	0.05265915	0.2254211	6	10	0.03	1800	-6.44101	40.92393	-91.39363
85335	20	-4	-6	0.1227908	-0.04094918	-0.01071884	0	12.36	4003	0	0	5	5	0.05301594	0.2334642	3	10	0.03	1800	-6.46225	40.92393	-91.39363
85471	10	-1	0	0.1332765	-0.03770398	-0.009251752	0	12.36	4002	0	0	5	5	0.05353903	0.2460186	3	10	0.03	1800	-6.447723	40.92393	-91.39363
85576	11	0	-2	0.1322736	-0.03068629	-0.006745156	0	12.36	4002	0	0	5	5	0.05380948	0.2517399	3	10	0.03	1800	-6.230896	40.92393	-91.39363
85665	15	4	-2	0.1318196	-0.02838701	-0.006011431	0	12.36	4003	0	0	5	5	0.05400664	0.2590555	3	10	0.03	1800	-6.474243	40.92393	-91.39363
85781	18	0	-8	0.1321533	-0.02816482	-0.002526667	0	12.36	4004	0	0	5	5	0.05418903	0.2695928	3	10	0.03	1800	-6.673553	40.92393	-91.39363
85844	10	0	-1	0.1338085	-0.02990707	-0.001181644	0	12.36	4004	0	0	5	5	0.05425515	0.277494	3	10	0.03	1800	-6.454651	40.92393	-91.39363
85996	16	6	-3	0.1395652	-0.02967995	0.004076189	0	12.36	4002	0	0	5	5	0.05437057	0.2847477	3	10	0.03	1800	-6.489929	40.92393	-91.39363
86049	16	2	0	0.1389653	-0.03393999	0.005849166	0	12.36	4002	0	0	5	5	0.05438721	0.2840451	3	10	0.03	1800	-6.487701	40.92393	-91.39363
86141	19	-1	-6	0.1459836	-0.04222063	0.008600282	0	12.36	4003	0	0	5	5	0.05441567	0.2771172	3	10	0.03	1800	-6.475098	40.92393	-91.39363
86276	16	0	0	0.1492414	-0.04403515	0.01074022	0	12.36	4003	0	0	5	5	0.05446536	0.2645778	3	10	0.03	1800	-6.505829	40.92393	-91.39363
86389	19	-4	1	0.1573554	-0.04476845	0.01563136	0	12.31	4003	0	0	5	5	0.05449	0.2617399	3	10	0.03	1800	-6.292236	40.92393	-91.39363
86507	8	1	-2	0.162443	-0.03930676	0.0188103	0	12.31	4003	0	0	5	5	0.05450273	0.2611498	3	10	0.03	1800	-6.277618	40.92393	-91.39363
86584	13	2	0	0.1673918	-0.04298996	0.02217248	0	12.31	4004	0	0	5	5	0.05450924	0.2584652	3	10	0.03	1800	-6.275635	40.92393	-91.39363
86674	13	-3	1	0.1610467	-0.04345962	0.0264517	0	12.31	4002	0	0	5	5	0.05451677	0.2602034	3	10	0.03	1800	-6.495514	40.92393	-91.39363
86807	10	-1	0	0.166235	-0.0402438	0.02706326	0	12.31	4002	0	0	5	5	0.05452225	0.2662012	3	10	0.03	1800	-6.310242	40.92393	-91.39363
86875	22	-6	-1	0.1668231	-0.04033209	0.02810271	0	12.31	4002	0	0	5	5	0.05452625	0.2781237	3	10	0.03	1800	-6.48111	40.92393	-91.39363
86960	8	-1	-5	0.16114	-0.04009679	0.03103722	0	12.31	4004	0	0	5	5	0.05452916	0.2921396	3	10	0.03	1800	-6.778351	40.92393	-91.39363
87081	16	0	-1	0.169663	-0.04605363	0.03458354	0	12.31	4003	0	0	5	5	0.05453128	0.2982908	3	10	0.03	1800	-6.309265	40.92393	-91.39363
87204	22	-3	0	0.1704639	-0.044779	0.03825225	0	12.31	4003	0	0	5	5	0.05453325	0.300676	3	10	0.03	1800	-6.538879	40.92393	-91.39363
87297	15	-2	2	0.1727152	-0.04095801	0.04082019	0	12.31	4003	0	0	5	5	0.05453396	0.3004451	3	10	0.03	1800	-6.736389	40.92393	-91.39363
87455	14	9	-4	0.1756114	-0.05207044	0.04399935	0	12.31	4002	0	0	5	5	0.05453538	0.2853443	3	10	0.03	1800	-6.765106	40.92393	-91.39363
87487	16	0	-4	0.1730067	-0.05311978	0.0441217	0	12.31	4004	0	0	5	5	0.05453554	0.2841193	3	10	0.03	1800	-6.713013	40.92393	-91.39363
87566	13	1	0	0.1757199	-0.05162361	0.04430499	0	12.31	4002	0	0	5	5	0.05453582	0.2832623	3	10	0.03	1800	-6.713013	40.92393	-91.39363
87657	26	0	3	0.1781907	-0.04799271	0.04846218	0	12.31	4002	0	0	5	5	0.05453614	0.2851127	3	10	0.03	1800	-6.524017	40.92393	-91.39363
87811	23	5	-7	0.1777929	-0.04977392	0.05170236	0	12.31	4004	0	0	5	5	0.05453644	0.2914619	3	10	0.03	1800	-6.523987	40.92393	-91.39363
87859	19	0	0	0.1831733	-0.04887277	0.05353641	0	12.31	4002	0	0	5	5	0.05453654	0.2936225	3	10	0.03	1800	-6.525879	40.92393	-91.39363
88022	29	-3	0	0.1888758	-0.04342572	0.05659332	0	12.31	4003	0	0	5	5	0.05453673	0.2833542	3	10	0.03	1800	-6.564117	40.92393	-91.39363
88114	22	7	2	0.1890515	-0.04425263	0.05934485	0	12.36	4003	0	0	5	5	0.05453682	0.2724937	3	10	0.03	1800	-6.570435	40.92393	-91.39363
88149	15	-4	-5	0.1871899	-0.04391576	0.05995615	0	12.36	4002	0	0	5	5	0.05453684	0.2725538	3	10	0.03	1800	-6.570435	40.92393	-91.39363
88279	19	-1	3	0.1878308	-0.05110573	0.0625848	0	12.36	4002	0	0	5	5	0.05453688	0.2719578	3	10	0.03	1800	-6.570923	40.92393	-91.39363
88392	20	6	-6	0.188031	-0.05669536	0.06417432	0	12.36	4003	0	0	5	5	0.05453692	0.2682135	3	10	0.03	1800	-6.543213	40.92393	-91.39363
88515	27	2	-2	0.1913868	-0.05527578	0.06912591	0	12.36	4003	0	0	5	5	0.05453695	0.2669133	3	10	0.03	1800	-6.544769	40.92393	-91.39363
88606	21	3	-3	0.1905674	-0.05869675	0.07297746	0	12.36	4003	0	0	5	5	0.05453696	0.2574613	3	10	0.03	1800	-6.791748	40.92393	-91.39363
88700	24	-9	-3	0.1980969	-0.05318906	0.07517844	0	12.36	4003	0	0	5	5	0.05453697	0.2450029	3	10	0.03	1800	-6.804779	40.92393	-91.39363
88785	21	0	-2	0.2045432	-0.04956845	0.07646207	0	12.36	4003	0	0	5	5	0.05453698	0.240564	3	10	0.03	1800	-6.804779	40.92393	-91.39363
88873	31	0	1	0.2070486	-0.04663596	0.08006852	0	12.36	4004	0	0	5	5	0.05453698	0.2380886	3	10	0.03	1800	-6.56546	40.92393	-91.39363
88952	26	2	-2	0.2107202	-0.04787846	0.08196376	0	12.36	4002	0	0	5	5	0.05453698	0.2393555	3	10	0.03	1800	-6.550842	40.92393	-91.39363
89059	18	0	-4	0.2162735	-0.04769337	0.08599889	0	12.42	4003	0	0	5	5	0.05453698	0.2412985	3	10	0.03	1800	-6.580231	40.92393	-91.39363
89272	30	5	0	0.2218635	-0.05263942	0.09229608	0	12.42	4003	0	0	5	5	0.05453698	0.2563506	3	10	0.03	1800	-6.620117	40.92393	-91.39363
89403	27	-4	-1	0.2263484	-0.04933461	0.09767631	0	12.42	4002	0	0	5	5	0.05453698	0.2553069	3	10	0.03	1800	-6.594543	40.92393	-91.39363
89459	14	0	0	0.226265	-0.04807577	0.09853223	0	12.42	4002	0	0	5	5	0.05453698	0.2583446	3	10	0.03	1800	-6.820953	40.92393	-91.39363
89598	24	-3	0	0.2264831	-0.04912388	0.1014668	0	12.42	4002	0	0	5	5	0.05453698	0.2626887	3	10	0.03	1800	-6.593994	40.92393	-91.39363
89723	22	-2	-1	0.2230922	-0.05000911	0.1089256	0	12.42	4003	0	0	5	5	0.05453698	0.2655626	3	10	0.03	1800	-6.844788	40.92393	-91.39363
89834	22	2	1	0.2167991	-0.05240287	0.1130831	0	12.42	4004	0	0	5	5	0.05453698	0.2706652	3	10	0.03	1800	-6.615234	40.92393	-91.39363
89891	20	-4	-5	0.2202245	-0.05507201	0.114856	0	12.42	4004	0	0	5	5	0.05453698	0.2805212	3	10	0.03	1800	-6.615234	40.92393	-91.39363
89982	17	-10	-1	0.2230941	-0.05387983	0.1169958	0	12.36	4004	0	0	5	5	0.05453698	0.2898334	3	10	0.03	1800	-6.621521	40.92393	-91.39363
90105	31	0	0	0.2239077	-0.05729161	0.1233542	0	12.36	4003	0	0	5	5	0.05453698	0.3068177	3	10	0.03	1800	-6.596191	40.92393	-91.39363
90181	29	0	-7	0.2263521	-0.0535888	0.1235987	0	12.36	4004	0	0	5	5	0.05453698	0.3125724	3	10	0.03	1800	-6.572388	40.92393	-91.39363
90295	17	1	-7	0.2345079	-0.05247047	0.1272671	0	12.36	4004	0	0	5	5	0.05453698	0.3178964	3	10	0.03	1800	-6.604004	40.92393	-91.39363
90428	24	-3	0	0.231185	-0.0500319	0.1317906	0	12.36	4003	0	0	5	5	0.05453698	0.322585	3	10	0.03	1800	-6.387604	40.92393	-91.39363
90522	15	-1	-6	0.223911	-0.0451344	0.1342361	0	12.36	4003	0	0	5	5	0.05453698	0.3233514	3	10	0.03	1800	-6.818237	40.92393	-91.39363
90620	23	5	-6	0.2228851	-0.0457369	0.1377821	0	12.36	4002	0	0	5	5	0.05453698	0.3152153	3	10	0.03	1800	-6.61792	40.92393	-91.39363
90687	20	-3	-1	0.2234547	-0.04707935	0.1386384	0	12.36	4003	0	0	5	5	0.05453698	0.3103197	3	10	0.03	1800	-6.61792	40.92393	-91.39363
90803	30	-3	-2	0.2249116	-0.04646837	0.1446911	0	12.36	4003	0	0	5	5	0.05453698	0.3081508	3	10	0.03	1800	-6.62738	40.92393	-91.39363
90931	24	-8	0	0.2285762	-0.04177212	0.1508041	0	12.42	4003	0	0	5	5	0.05453698	0.3083528	3	10	0.03	1800	-6.655609	40.92393	-91.39363
91077	26	-5	0	0.2357397	-0.0427694	0.1558782	0	12.42	4002	0	0	5	5	0.05453698	0.2949717	3	10	0.03	1800	-6.640381	40.92393	-91.39363
91148	24	0	-2	0.2345818	-0.04992206	0.1580793	0	12.42	4004	0	0	5	5	0.05453698	0.295628	3	10	0.03	1800	-6.640015	40.92393	-91.39363
91200	33	1	-5	0.2466664	-0.05095145	0.160708	0	12.42	4002	0	0	5	5	0.05453698	0.2970045	3	10	0.03	1800	-6.86557	40.92393	-91.39363
91349	20	-4	-5	0.2505768	-0.05026026	0.1650493	0	12.42	4003	0	0	5	5	0.05453698	0.2965087	3	10	0.03	1800	-6.886597	40.92393	-91.39363
91410	25	4	-7	0.2526134	-0.0493166	0.1670669	0	12.42	4003	0	0	5	5	0.05453698	0.2937436	3	10	0.03	1800	-6.886597	40.92393	-91.39363
91568	28	-6	-1	0.2574614	-0.03919884	0.1712854	0	12.42	4003	0	0	5	5	0.05453698	0.2892691	3	10	0.03	1800	-6.61969	40.92393	-91.39363
91677	28	0	-1	0.2563672	-0.04792554	0.1750771	0	12.42	4004	0	0	5	5	0.05453698	0.282	3	10	0.03	1800	-6.671112	40.92393	-91.39363
91739	18	6	-55	0.2373053	-0.05812263	0.1861424	0	12.42	4003	0	0	5	5	0.05453698	0.2810488	3	10	0.03	1800	-6.463837	40.92393	-91.39363
91840	77	46	142	0.2284793	-0.07303171	0.1881573	0	11.74	4002	0	0	5	5	0.05453698	0.281131	3	10	0.03	1800	-6.343964	40.92393	-91.39363
91946	10	90	-8	0.2209243	-0.1116138	0.2336935	0	11.74	4002	0	0	5	5	0.05453698	0.2786433	3	10	0.03	1800	-6.663422	40.92393	-91.39363
92013	224	40	-81	0.2074596	-0.1094815	0.2214539	0	11.74	4004	0	0	5	5	0.05453698	0.2822204	3	10	0.03	1800	-6.581696	40.92393	-91.39363
92123	-6	-101	11	0.1741291	-0.0741704	0.2539732	0	11.74	4002	0	0	5	5	0.05453698	0.2863323	3	10	0.03	1800	-6.387115	40.92393	-91.39363
92218	-166	160	-126	0.3688536	0.2597083	0.2939516	0	11.74	4003	0	0	5	5	0.05453698	0.2881207	3	10	0.03	1800	-6.469879	40.92393	-91.39363
92313	89	67	332	0.40593	0.2577193	0.2759621	0	11.74	4003	0	0	5	5	0.05453698	0.295705	3	10	0.03	1800	-5.896423	40.92393	-91.39363
92425	-75	-30	103	0.4182843	0.2872601	0.3008424	0	11.74	4003	0	0	5	5	0.05453698	0.2992097	3	10	0.03	1800	-5.929321	40.92393	-91.39363
92536	227	-107	533	0.4360823	0.3199273	0.2833411	0	11.74	4003	0	0	5	5	0.05453698	0.2985103	3	10	0.03	1800	-6.566071	40.92393	-91.39363
92724	-55	-20	-232	0.3961527	0.296662	0.312143	0	11.74	4004	0	0	5	5	0.05453698	0.2895057	3	10	0.03	1800	-6.316376	40.92393	-91.39363
92760	-281	22	-306	0.3573256	0.2846822	0.317457	0	12.36	4003	0	0	5	5	0.05453698	0.286283	3	10	0.03	1800	-6.848358	40.92393	-91.39363
92847	257	64	324	0.3466799	0.3168215	0.3023502	0	12.36	4002	0	0	5	5	0.05453698	0.2848236	3	10	0.03	1800	-5.776764	40.92393	-91.39363
92958	173	-50	506	0.32372	0.3175861	0.3106688	0	12.36	4002	0	0	5	5	0.05453698	0.2842393	3	10	0.03	1800	-6.277924	40.92393	-91.39363
93053	-23	-54	-178	0.3489682	0.3259178	0.3144647	0	12.36	4003	0	0	5	5	0.05453698	0.2855036	3	10	0.03	1800	-6.058533	40.92393	-91.39363
93201	-228	165	-292	0.3618056	0.3712417	0.3246375	0	12.36	4004	0	0	5	5	0.05453698	0.2891833	3	10	0.03	1800	-6.2771	40.92393	-91.39363
93251	188	-124	490	0.4295403	0.3565356	0.3200015	0	12.36	4003	0	0	5	5	0.05453698	0.2891423	3	10	0.03	1800	-6.796387	40.92393	-91.39363
