time(ms)	gyro_x(deg/s)	gyro_y(deg/s)	gyro_z(deg/s)	orientation_roll(deg)	orientation_pitch(deg)	orientation_yaw(deg)	throttle	battery(V)	loop_time(uS)	pid_output_roll	pid_output_pitch	pid_output_yaw	pid_output_throttle	ultrasonic_alt	baro_alt	flight_mode	p_gain_altitude	i_gain_altitude	d_gain_altitude	compass_heading	latitude	longitude
564306	-12	4	7	-0.9052523	-0.5819154	-89.01836	0	11.06	4003	0	0	5	5	0.07299452	0.2784757	6	10	0.03	1800	-4.410919	40.9239	-91.39363
564411	-10	-1	3	-0.9041078	-0.6006756	-89.02806	0	11.06	4004	0	0	5	5	0.06557576	0.287907	6	10	0.03	1800	-4.6633	40.9239	-91.39363
564581	-11	-2	-3	-0.9060372	-0.6154021	-89.0363	0	11.06	4004	0	0	5	5	0.05735048	0.2918721	6	10	0.03	1800	-4.424591	40.9239	-91.39363
564699	-7	2	9	-0.8992311	-0.6244589	-89.04552	0	11.06	4002	0	0	5	5	0.05266536	0.2796708	6	10	0.03	1800	-4.653198	40.9239	-91.39363
564742	-11	-1	6	-0.8982512	-0.629656	-89.04906	0	11.06	4003	0	0	5	5	0.05196072	0.2742146	6	10	0.03	1800	-4.653198	40.9239	-91.39363
564831	-7	-3	2	-0.9008113	-0.6300526	-89.05205	0	11.06	4003	0	0	5	5	0.04991626	0.2645915	6	10	0.03	1800	-4.636047	40.9239	-91.39363
564927	-14	-4	4	-0.9047006	-0.6416689	-89.06187	0	11.06	4004	0	0	5	5	0.04861279	0.2586671	6	10	0.03	1800	-4.42392	40.9239	-91.39363
565029	-10	6	4	-0.9046528	-0.6432761	-89.067	0	11.06	4002	0	0	5	5	0.04733671	0.2538363	6	10	0.03	1800	-4.671234	40.9239	-91.39363
565158	-13	3	8	-0.8955129	-0.6460097	-89.07713	0	11.06	4004	0	0	5	5	0.04631349	0.2516066	6	10	0.03	1800	-4.430237	40.9239	-91.39363
565297	-13	0	5	-0.888366	-0.6490979	-89.08519	0	11.06	4002	0	0	5	5	0.04569859	0.2454404	6	10	0.03	1800	-4.452148	40.9239	-91.39363
565429	-21	1	1	-0.8886721	-0.6484295	-89.09203	0	11.06	4004	0	0	5	5	0.04560605	0.2401877	6	10	0.03	1800	-4.469849	40.9239	-91.39363
565495	-11	2	5	-0.8826995	-0.6476601	-89.09953	0	11.06	4003	0	0	5	5	0.04557764	0.2386847	6	10	0.03	1800	-4.683136	40.9239	-91.39363
565572	-14	4	5	-0.8820466	-0.6503345	-89.10466	0	11.06	4003	0	0	5	5	0.0455855	0.2364231	6	10	0.03	1800	-4.670776	40.9239	-91.39363
565683	-10	-4	4	-0.8836433	-0.6487823	-89.1132	0	11.06	4002	0	0	5	5	0.04559702	0.2238079	3	10	0.03	1800	-4.482971	40.9239	-91.39363
565790	-6	0	6	-0.885429	-0.6508347	-89.12059	0	11.06	4004	0	0	5	5	0.04560119	0.2179289	3	10	0.03	1800	-4.464172	40.9239	-91.39363
565865	-15	0	0	-0.8813615	-0.6611392	-89.12462	0	11.06	4003	0	0	5	5	0.04560458	0.2105665	3	10	0.03	1800	-4.460999	40.9239	-91.39363
566000	-12	5	3	-0.8848455	-0.67212	-89.13152	0	11.06	4004	0	0	5	5	0.04561048	0.1956392	3	10	0.03	1800	-4.66153	40.9239	-91.39363
566057	-11	-1	5	-0.8791614	-0.6725656	-89.13725	0	11.06	4002	0	0	5	5	0.04561133	0.19328	3	10	0.03	1800	-4.227264	40.9239	-91.39363
566153	-15	-9	4	-0.8808908	-0.6692163	-89.14275	0	11.06	4003	0	0	5	5	0.04561397	0.1794938	3	10	0.03	1800	-4.465546	40.9239	-91.39363
566285	-8	0	3	-0.8817614	-0.6705195	-89.15038	0	11.06	4004	0	0	5	5	0.04561533	0.1686004	3	10	0.03	1800	-4.474426	40.9239	-91.39363
566411	-14	1	7	-0.8841291	-0.6674924	-89.16344	0	11.06	4002	0	0	5	5	0.04561633	0.1553251	3	10	0.03	1800	-4.460907	40.9239	-91.39363
566470	-11	-1	9	-0.8852018	-0.6678713	-89.16667	0	11.06	4003	0	0	5	5	0.04561705	0.1493632	3	10	0.03	1800	-4.456451	40.9239	-91.39363
566630	-11	-1	3	-0.8799304	-0.6746537	-89.17424	0	11.06	4002	0	0	5	5	0.04561772	0.1484977	3	10	0.03	1800	-4.469849	40.9239	-91.39363
566685	-15	-1	9	-0.8810996	-0.6736365	-89.18102	0	11.06	4004	0	0	5	5	0.04561784	0.1482677	3	10	0.03	1800	-4.467468	40.9239	-91.39363
566770	-4	-2	5	-0.8799645	-0.6756332	-89.18504	0	11.06	4004	0	0	5	5	0.04561816	0.153119	3	10	0.03	1800	-4.467224	40.9239	-91.39363
566952	-9	-5	3	-0.8723633	-0.6881841	-89.19316	0	11.06	4003	0	0	5	5	0.04561855	0.1699921	3	10	0.03	1800	-4.297394	40.9239	-91.39363
566979	-17	0	8	-0.8689452	-0.686801	-89.19768	0	11.06	4003	0	0	5	5	0.04561859	0.1728194	3	10	0.03	1800	-4.484161	40.9239	-91.39363
567114	-15	-2	5	-0.8662032	-0.688853	-89.20476	0	11.06	4002	0	0	5	5	0.04561871	0.1832397	1	10	0.03	1800	-4.289154	40.9239	-91.39363
567201	-5	2	10	-0.8659069	-0.6916218	-89.21208	0	11.11	4004	0	0	5	5	0.04561878	0.1981327	1	10	0.03	1800	-4.492004	40.9239	-91.39363
567318	-7	-4	4	-0.8598653	-0.6943696	-89.2205	0	11.11	4003	0	0	5	5	0.04561884	0.2104585	1	10	0.03	1800	-4.494263	40.9239	-91.39363
567430	-5	-3	9	-0.8558967	-0.6959631	-89.22728	0	11.11	4004	0	0	5	5	0.04561888	0.2053057	1	10	0.03	1800	-4.706451	40.9239	-91.39363
567551	-9	-2	7	-0.8577495	-0.7033983	-89.23857	0	11.11	4002	0	0	5	5	0.04561892	0.2045445	1	10	0.03	1800	-4.514252	40.9239	-91.39363
567621	-9	-1	7	-0.8551778	-0.7038364	-89.24004	0	11.11	4004	0	0	5	5	0.04561894	0.2084784	1	10	0.03	1800	-4.514252	40.9239	-91.39363
567755	-15	-2	3	-0.8613786	-0.7029331	-89.2506	0	11.11	4002	0	0	5	5	0.04561896	0.2056791	1	10	0.03	1800	-4.500732	40.9239	-91.39363
567871	-5	0	4	-0.8598759	-0.6977116	-89.25883	0	11.11	4002	0	0	5	5	0.04561897	0.1965067	1	10	0.03	1800	-4.505402	40.9239	-91.39363
567932	-11	2	3	-0.8576947	-0.700008	-89.2639	0	11.11	4003	0	0	5	5	0.04561898	0.1877892	1	10	0.03	1800	-4.518494	40.9239	-91.39363
568044	-2	2	5	-0.8567276	-0.6971437	-89.26811	0	11.11	4004	0	0	5	5	0.04561898	0.1773823	1	10	0.03	1800	-4.48941	40.9239	-91.39363
568115	-10	0	-4	-0.8553574	-0.7014597	-89.27147	0	11.11	4002	0	0	5	5	0.04561898	0.1670882	1	10	0.03	1800	-4.711945	40.9239	-91.39363
568236	-5	1	5	-0.8554599	-0.6990328	-89.28087	0	11.11	4003	0	0	5	5	0.04561898	0.1620629	1	10	0.03	1800	-4.506348	40.9239	-91.39363
568368	-10	3	4	-0.8633961	-0.6972326	-89.28764	0	11.11	4004	0	0	5	5	0.04561898	0.1351927	1	10	0.03	1800	-4.497894	40.9239	-91.39363
568402	-8	0	3	-0.860697	-0.6949071	-89.28996	0	11.11	4003	0	0	5	5	0.04561898	0.1247556	1	10	0.03	1800	-4.497894	40.9239	-91.39363
568517	-4	2	2	-0.8648452	-0.6917099	-89.29619	0	11.11	4003	0	0	5	5	0.04561898	0.1101988	1	10	0.03	1800	-4.499268	40.92391	-91.39363
568585	-8	-1	2	-0.8588777	-0.6882905	-89.2979	0	11.11	4003	0	0	5	5	0.04561898	0.09648072	1	10	0.03	1800	-4.721497	40.92391	-91.39363
568677	-9	5	0	-0.8534326	-0.6986463	-89.30553	0	11.11	4002	0	0	5	5	0.04561898	0.09160659	1	10	0.03	1800	-4.503754	40.92391	-91.39363
568795	-10	4	2	-0.8421149	-0.6934165	-89.31285	0	11.11	4002	0	0	5	5	0.04561898	0.09211542	1	10	0.03	1800	-4.546661	40.92391	-91.39363
568923	-6	-5	5	-0.8381638	-0.6901956	-89.32133	0	11.11	4003	0	0	5	5	0.04561898	0.1008955	1	10	0.03	1800	-4.537811	40.92391	-91.39363
569035	-4	0	0	-0.8333407	-0.695492	-89.32591	0	11.06	4002	0	0	5	5	0.04561898	0.1089002	1	10	0.03	1800	-4.766724	40.92391	-91.39363
569082	-8	0	6	-0.8288189	-0.6953947	-89.32957	0	11.06	4003	0	0	5	5	0.04561898	0.1172985	1	10	0.03	1800	-4.546509	40.92391	-91.39363
569184	-12	-1	0	-0.8195338	-0.6966493	-89.33434	0	11.06	4003	0	0	5	5	0.04561898	0.1286371	1	10	0.03	1800	-4.322998	40.92391	-91.39363
569288	-10	-3	2	-0.8223448	-0.6949803	-89.33806	0	11.06	4002	0	0	5	5	0.04561898	0.1345937	1	10	0.03	1800	-4.549133	40.92391	-91.39363
569416	-8	1	3	-0.8172221	-0.6957976	-89.3463	0	11.06	4002	0	0	5	5	0.04561898	0.1410873	1	10	0.03	1800	-4.558563	40.92391	-91.39363
569515	-7	-2	0	-0.8171024	-0.6913839	-89.34953	0	11.06	4004	0	0	5	5	0.04561898	0.1357964	1	10	0.03	1800	-4.569397	40.92391	-91.39363
569589	-6	2	8	-0.8120725	-0.6937986	-89.35454	0	11.06	4003	0	0	5	5	0.04561898	0.1308428	1	10	0.03	1800	-4.799438	40.92391	-91.39363
569715	-8	-4	2	-0.808246	-0.6888486	-89.36607	0	11.06	4004	0	0	5	5	0.04561898	0.1204239	1	10	0.03	1800	-4.588013	40.92391	-91.39363
569800	-7	0	4	-0.7998646	-0.6857626	-89.36766	0	11.06	4004	0	0	5	5	0.04561898	0.1125177	1	10	0.03	1800	-4.841553	40.92391	-91.39363
569939	0	-1	0	-0.7864142	-0.6879472	-89.37407	0	11.11	4003	0	0	5	5	0.04561898	0.1003469	1	10	0.03	1800	-4.608459	40.92391	-91.39363
570019	-2	-4	4	-0.7859251	-0.6840184	-89.37767	0	11.11	4004	0	0	5	5	0.04561898	0.09236591	1	10	0.03	1800	-4.845062	40.92391	-91.39363
570097	-3	1	-1	-0.7836076	-0.6865948	-89.38133	0	11.11	4003	0	0	5	5	0.04561898	0.08621375	1	10	0.03	1800	-4.380676	40.92391	-91.39363
570199	-7	3	6	-0.7803199	-0.6831577	-89.38695	0	11.11	4003	0	0	5	5	0.04561898	0.07205746	1	10	0.03	1800	-4.850494	40.92391	-91.39363
570335	-8	3	3	-0.7772481	-0.6898486	-89.39232	0	11.11	4002	0	0	5	5	0.04561898	0.05935714	1	10	0.03	1800	-4.652008	40.92391	-91.39363
570451	-7	-5	0	-0.7785857	-0.6909234	-89.39781	0	11.11	4003	0	0	5	5	0.04561898	0.04805344	1	10	0.03	1800	-4.612244	40.92391	-91.39363
570495	-9	-2	3	-0.7803606	-0.6895431	-89.40001	0	11.11	4004	0	0	5	5	0.04561898	0.04533987	1	10	0.03	1800	-4.834198	40.92391	-91.39363
570614	-8	5	5	-0.7671047	-0.6907703	-89.40611	0	11.11	4003	0	0	5	5	0.04561898	0.04473404	1	10	0.03	1800	-4.620361	40.92391	-91.39363
570701	1	-5	2	-0.7662466	-0.6848184	-89.41142	0	11.11	4003	0	0	5	5	0.04561898	0.04752135	1	10	0.03	1800	-4.650848	40.92391	-91.39363
570824	-6	0	6	-0.7665449	-0.6810898	-89.41399	0	11.11	4004	0	0	5	5	0.04561898	0.05430616	1	10	0.03	1800	-4.854004	40.92391	-91.39363
570932	0	-1	1	-0.7595462	-0.6792573	-89.41685	0	11.11	4003	0	0	5	5	0.04561898	0.05621736	1	10	0.03	1800	-4.884827	40.92391	-91.39363
571039	-4	2	0	-0.7592924	-0.6802087	-89.4193	0	11.11	4004	0	0	5	5	0.04561898	0.04941838	1	10	0.03	1800	-4.91037	40.92391	-91.39363
571114	-1	-2	2	-0.7621627	-0.6798517	-89.42149	0	11.11	4003	0	0	5	5	0.04561898	0.04831044	1	10	0.03	1800	-4.66449	40.92391	-91.39363
571248	-9	7	1	-0.7636132	-0.6843396	-89.42424	0	11.11	4003	0	0	5	5	0.04561898	0.05657003	1	10	0.03	1800	-4.876862	40.92391	-91.39363
571331	-6	1	0	-0.7652566	-0.6880307	-89.42607	0	11.11	4002	0	0	5	5	0.04561898	0.06153581	1	10	0.03	1800	-4.872437	40.92391	-91.39363
571500	-4	-1	4	-0.7658467	-0.6884281	-89.42986	0	11.11	4002	0	0	5	5	0.04561898	0.0730055	1	10	0.03	1800	-4.444092	40.92391	-91.39363
571567	-8	0	0	-0.7655157	-0.6840953	-89.43016	0	11.11	4004	0	0	5	5	0.04561898	0.07961381	1	10	0.03	1800	-4.876129	40.92391	-91.39363
571636	0	0	-2	-0.7660912	-0.686886	-89.4337	0	11.11	4004	0	0	5	5	0.04561898	0.08561462	1	10	0.03	1800	-4.6521	40.92391	-91.39363
571696	-12	4	0	-0.7627646	-0.6869331	-89.43523	0	11.11	4002	0	0	5	5	0.04561898	0.09178757	1	10	0.03	1800	-4.87381	40.92391	-91.39363
571844	-4	-6	2	-0.7575294	-0.6807981	-89.44066	0	11.11	4003	0	0	5	5	0.04561898	0.1159011	1	10	0.03	1800	-4.45874	40.92391	-91.39363
571963	-1	-1	-3	-0.7556405	-0.6810273	-89.44456	0	11.11	4004	0	0	5	5	0.04561898	0.1367713	1	10	0.03	1800	-4.434479	40.92391	-91.39363
572054	-1	-5	0	-0.7595008	-0.6800665	-89.44597	0	11.11	4003	0	0	5	5	0.04561898	0.1427702	1	10	0.03	1800	-4.439606	40.92391	-91.39363
572106	2	1	3	-0.7553316	-0.6804371	-89.44981	0	11.11	4004	0	0	5	5	0.04561898	0.1498635	1	10	0.03	1800	-4.893219	40.92391	-91.39363
572282	-2	0	0	-0.7589141	-0.6843892	-89.45549	0	11.11	4003	0	0	5	5	0.04561898	0.1581298	1	10	0.03	1800	-4.862885	40.92391	-91.39363
572445	-8	0	4	-0.7529999	-0.6784141	-89.46043	0	11.11	4004	0	0	5	5	0.04561898	0.1556892	1	10	0.03	1800	-4.669434	40.92391	-91.39363
572497	-3	-1	2	-0.7555127	-0.6734225	-89.46288	0	11.11	4004	0	0	5	5	0.04561898	0.1539142	1	10	0.03	1800	-4.686707	40.92391	-91.39363
572584	2	0	0	-0.7568188	-0.6752329	-89.46446	0	11.11	4003	0	0	5	5	0.04561898	0.1470575	1	10	0.03	1800	-4.872833	40.92391	-91.39363
572711	-3	2	6	-0.7514905	-0.678104	-89.46947	0	11.06	4004	0	0	5	5	0.04561898	0.1302285	1	10	0.03	1800	-4.666992	40.92391	-91.39363
572787	0	1	2	-0.7564002	-0.6861237	-89.47148	0	11.06	4003	0	0	5	5	0.04561898	0.1244946	1	10	0.03	1800	-4.894165	40.92391	-91.39363
572862	-10	-3	5	-0.7563539	-0.686374	-89.47258	0	11.06	4002	0	0	5	5	0.04561898	0.1225722	1	10	0.03	1800	-4.892639	40.92391	-91.39363
573005	-5	-1	0	-0.7541556	-0.6868539	-89.47942	0	11.06	4010	0	0	5	5	0.04561898	0.1218646	1	10	0.03	1800	-4.892273	40.92391	-91.39363
573101	-2	0	-1	-0.7578857	-0.6934856	-89.48351	0	11.06	4003	0	0	5	5	0.04561898	0.1156958	1	10	0.03	1800	-4.646576	40.92391	-91.39363
573159	-3	3	-2	-0.7554594	-0.6927318	-89.48534	0	11.06	4004	0	0	5	5	0.04561898	0.1105477	1	10	0.03	1800	-4.895081	40.92391	-91.39363
573345	-3	-4	0	-0.7436343	-0.6973369	-89.4926	0	11.06	4002	0	0	5	5	0.04561898	0.083115	1	10	0.03	1800	-4.689423	40.92391	-91.39363
573420	-1	0	4	-0.7435536	-0.6984969	-89.49486	0	11.06	4002	0	0	5	5	0.04561898	0.0514603	1	10	0.03	1800	-4.689423	40.92391	-91.39363
573550	-6	-4	1	-0.7420653	-0.7020136	-89.49675	0	11.06	4003	0	0	5	5	0.04561898	0.02256752	1	10	0.03	1800	-4.669525	40.92391	-91.39363
573608	-1	-2	3	-0.7434285	-0.70462	-89.4998	0	11.11	4004	0	0	5	5	0.04561898	0.006380487	1	10	0.03	1800	-4.691498	40.92391	-91.39363
573704	-7	0	3	-0.7367859	-0.7005176	-89.50365	0	11.11	4002	0	0	5	5	0.04561898	-0.007301223	1	10	0.03	1800	-4.698669	40.92391	-91.39363
573754	1	-3	0	-0.7358921	-0.7040342	-89.50462	0	11.11	4003	0	0	5	5	0.04561898	-0.01561685	1	10	0.03	1800	-4.698669	40.92391	-91.39363
573922	0	2	3	-0.7310425	-0.6992708	-89.50902	0	11.11	4002	0	0	5	5	0.04561898	-0.02739288	1	10	0.03	1800	-4.670715	40.92391	-91.39363
574029	1	3	0	-0.7380147	-0.6987356	-89.51085	0	11.11	4003	0	0	5	5	0.04561898	-0.02681771	1	10	0.03	1800	-4.704895	40.92391	-91.39363
574055	-2	3	0	-0.7362424	-0.6999347	-89.51195	0	11.11	4004	0	0	5	5	0.04561898	-0.02595097	1	10	0.03	1800	-4.704895	40.92391	-91.39363
574145	-2	-2	4	-0.7388359	-0.6991813	-89.51555	0	11.11	4003	0	0	5	5	0.04561898	-0.01977515	1	10	0.03	1800	-4.945831	40.92391	-91.39363
574310	0	8	0	-0.7391437	-0.6946297	-89.52226	0	11.11	4002	0	0	5	5	0.04561898	-0.001537385	1	10	0.03	1800	-4.682343	40.92391	-91.39363
574387	0	-3	-1	-0.7382898	-0.6975038	-89.52556	0	11.11	4003	0	0	5	5	0.04561898	0.007229302	1	10	0.03	1800	-4.677185	40.92391	-91.39362
574503	-4	0	2	-0.7359052	-0.692371	-89.53032	0	11.11	4003	0	0	5	5	0.04561898	0.02257753	1	10	0.03	1800	-4.690491	40.92391	-91.39362
574565	0	1	1	-0.7361606	-0.6951095	-89.53282	0	11.11	4003	0	0	5	5	0.04561898	0.03157704	1	10	0.03	1800	-4.47644	40.92391	-91.39362
574704	4	-2	-1	-0.7335629	-0.69803	-89.53471	0	11.11	4002	0	0	5	5	0.04561898	0.04097019	1	10	0.03	1800	-4.947784	40.92391	-91.39362
574752	-1	7	-2	-0.727237	-0.6983458	-89.53563	0	11.11	4002	0	0	5	5	0.04561898	0.04181778	1	10	0.03	1800	-4.947784	40.92391	-91.39362
574851	1	0	1	-0.7237309	-0.7032971	-89.5399	0	11.11	4003	0	0	5	5	0.04561898	0.04976765	1	10	0.03	1800	-4.715515	40.92391	-91.39362
574955	0	-1	4	-0.7202041	-0.6971299	-89.54497	0	11.11	4004	0	0	5	5	0.04561898	0.05816811	1	10	0.03	1800	-4.721405	40.92391	-91.39362
575102	-2	2	1	-0.7208689	-0.6975973	-89.54515	0	11.11	4002	0	0	5	5	0.04561898	0.05968625	1	10	0.03	1800	-4.722412	40.92391	-91.39362
575214	5	-1	-2	-0.7189166	-0.696117	-89.54704	0	11.11	4003	0	0	5	5	0.04561898	0.05624521	1	10	0.03	1800	-4.727539	40.92391	-91.39362
575325	1	1	-1	-0.7161331	-0.6919562	-89.54973	0	11.11	4010	0	0	5	5	0.04561898	0.05749525	1	10	0.03	1800	-4.729248	40.92391	-91.39362
575425	2	-3	4	-0.7092678	-0.6931348	-89.55486	0	11.11	4004	0	0	5	5	0.04561898	0.06438828	1	10	0.03	1800	-4.971191	40.92391	-91.39362
575474	3	-1	1	-0.709362	-0.6940476	-89.55864	0	11.11	4003	0	0	5	5	0.04561898	0.06866036	1	10	0.03	1800	-4.985535	40.92391	-91.39362
575571	5	0	2	-0.7087592	-0.694925	-89.56163	0	11.11	4003	0	0	5	5	0.04561898	0.07172396	1	10	0.03	1800	-4.741699	40.92391	-91.39362
575694	0	-1	2	-0.7073117	-0.6929902	-89.56554	0	11.11	4004	0	0	5	5	0.04561898	0.07113623	1	10	0.03	1800	-4.539978	40.92391	-91.39362
575772	1	2	7	-0.7065901	-0.6881576	-89.56853	0	11.11	4004	0	0	5	5	0.04561898	0.07367382	1	10	0.03	1800	-4.746399	40.92391	-91.39362
575911	5	-1	0	-0.69893	-0.6846659	-89.57304	0	11.11	4003	0	0	5	5	0.04561898	0.08093082	1	10	0.03	1800	-4.745911	40.92391	-91.39362
575962	1	5	1	-0.6961741	-0.6842209	-89.57402	0	11.11	4002	0	0	5	5	0.04561898	0.08211318	1	10	0.03	1800	-4.758789	40.92391	-91.39362
576108	-7	1	3	-0.6972079	-0.6763059	-89.57835	0	11.11	4003	0	0	5	5	0.04561898	0.08647085	1	10	0.03	1800	-4.743439	40.92391	-91.39362
576167	5	3	0	-0.694632	-0.685571	-89.58086	0	11.11	4003	0	0	5	5	0.04561898	0.08817368	1	10	0.03	1800	-4.536407	40.92391	-91.39362
576275	5	0	0	-0.692167	-0.6859316	-89.58214	0	11.11	4002	0	0	5	5	0.04561898	0.08389863	1	10	0.03	1800	-4.763031	40.92391	-91.39362
576408	1	-5	1	-0.6810406	-0.6924151	-89.58324	0	11.06	4003	0	0	5	5	0.04561898	0.08268931	1	10	0.03	1800	-4.78772	40.92391	-91.39362
576474	4	0	-2	-0.6788447	-0.6955192	-89.58702	0	11.06	4003	0	0	5	5	0.04561898	0.09517574	1	10	0.03	1800	-4.551758	40.92391	-91.39362
576580	-3	2	-2	-0.6739253	-0.6922983	-89.58928	0	11.06	4004	0	0	5	5	0.04561898	0.1089076	1	10	0.03	1800	-5.022766	40.92391	-91.39362
576681	6	-2	-2	-0.6762105	-0.6944594	-89.59386	0	11.06	4003	0	0	5	5	0.04561898	0.1153791	1	10	0.03	1800	-4.80191	40.92391	-91.39362
576804	3	0	1	-0.6744103	-0.6929406	-89.59612	0	11.06	4004	0	0	5	5	0.04561898	0.1288945	1	10	0.03	1800	-4.793152	40.92391	-91.39362
576949	5	3	1	-0.6751428	-0.693722	-89.5988	0	11.06	4002	0	0	5	5	0.04561898	0.1576052	1	10	0.03	1800	-4.797699	40.92391	-91.39362
577030	1	4	0	-0.6763057	-0.6984658	-89.60216	0	11.06	4003	0	0	5	5	0.04561898	0.1730711	1	10	0.03	1800	-4.780273	40.92391	-91.39362
577124	3	2	3	-0.6739636	-0.6976284	-89.60454	0	11.06	4003	0	0	5	5	0.04561898	0.1861268	1	10	0.03	1800	-5.023987	40.92391	-91.39362
577237	4	-1	-2	-0.6712785	-0.6947736	-89.60527	0	11.06	4004	0	0	5	5	0.04561898	0.1909771	1	10	0.03	1800	-4.79599	40.92391	-91.39362
577312	0	1	2	-0.6638482	-0.6895231	-89.60686	0	11.11	4002	0	0	5	5	0.04561898	0.1886364	1	10	0.03	1800	-4.814819	40.92391	-91.39362
577401	0	1	1	-0.6670073	-0.6876467	-89.60808	0	11.11	4003	0	0	5	5	0.04561898	0.1873832	1	10	0.03	1800	-5.030487	40.92391	-91.39362
577529	8	5	3	-0.6693227	-0.6832022	-89.61192	0	11.11	4003	0	0	5	5	0.04561898	0.1958712	1	10	0.03	1800	-5.030457	40.92391	-91.39362
577654	0	4	2	-0.6699385	-0.674834	-89.61516	0	11.11	4003	0	0	5	5	0.04561898	0.2031673	1	10	0.03	1800	-4.821259	40.92391	-91.39362
577783	3	-3	0	-0.669082	-0.6740118	-89.62218	0	11.11	4004	0	0	5	5	0.04561898	0.2184192	1	10	0.03	1800	-5.009888	40.92391	-91.39362
577860	0	5	0	-0.6707509	-0.679284	-89.6245	0	11.11	4003	0	0	5	5	0.04561898	0.2257525	1	10	0.03	1800	-5.009888	40.92391	-91.39362
578039	6	1	1	-0.6766649	-0.6878826	-89.63042	0	11.11	4004	0	0	5	5	0.04561898	0.2422124	1	10	0.03	1800	-4.60318	40.92391	-91.39362
578140	7	7	-1	-0.6754668	-0.6883588	-89.63432	0	11.11	4003	0	0	5	5	0.04561898	0.2577297	1	10	0.03	1800	-4.794586	40.92391	-91.39362
578337	4	2	0	-0.6657968	-0.6985409	-89.64024	0	11.06	4002	0	0	5	5	0.04561898	0.2748115	1	10	0.03	1800	-4.810883	40.92391	-91.39362
578469	2	0	2	-0.6627693	-0.7022712	-89.64311	0	11.06	4004	0	0	5	5	0.04561898	0.281128	1	10	0.03	1800	-5.06424	40.92391	-91.39362
578589	7	-5	-1	-0.6550601	-0.699743	-89.64684	0	11.06	4004	0	0	5	5	0.04561898	0.2852266	1	10	0.03	1800	-4.832123	40.92391	-91.39362
578623	7	-5	-1	-0.6550601	-0.6989918	-89.64769	0	11.06	4004	0	0	5	5	0.04561898	0.2832001	1	10	0.03	1800	-4.832123	40.92391	-91.39362
578781	5	-2	7	-0.6495456	-0.6979734	-89.65318	0	11.06	4003	0	0	5	5	0.04561898	0.2749634	1	10	0.03	1800	-4.818085	40.92391	-91.39362
578894	7	-2	-1	-0.6544522	-0.6998394	-89.65825	0	11.06	4003	0	0	5	5	0.04561898	0.2629307	1	10	0.03	1800	-4.606262	40.92391	-91.39362
578914	7	-2	-1	-0.6544522	-0.6998394	-89.65825	0	11.06	4003	0	0	5	5	0.04561898	0.2599855	1	10	0.03	1800	-4.606262	40.92391	-91.39362
579043	2	3	8	-0.657471	-0.7011173	-89.66289	0	11.06	4003	0	0	5	5	0.04561898	0.245775	1	10	0.03	1800	-4.823425	40.92391	-91.39362
579106	3	-3	5	-0.6643755	-0.6983861	-89.66661	0	11.06	4002	0	0	5	5	0.04561898	0.2407005	1	10	0.03	1800	-4.80249	40.92391	-91.39362
579216	11	0	6	-0.6629822	-0.6957271	-89.67094	0	11.06	4002	0	0	5	5	0.04561898	0.2232621	1	10	0.03	1800	-4.810944	40.92391	-91.39362
579313	6	-1	1	-0.659645	-0.7012434	-89.6743	0	11.06	4004	0	0	5	5	0.04561898	0.2149548	1	10	0.03	1800	-5.048248	40.92391	-91.39362
579499	6	-6	-1	-0.6619478	-0.7025738	-89.68163	0	11.06	4003	0	0	5	5	0.04561898	0.191149	1	10	0.03	1800	-5.047058	40.92391	-91.39362
579586	3	0	0	-0.6625387	-0.7081955	-89.68358	0	11.06	4002	0	0	5	5	0.04561898	0.1803951	1	10	0.03	1800	-4.794434	40.92391	-91.39362
579784	6	-2	-1	-0.6637541	-0.710425	-89.69182	0	11.06	4003	0	0	5	5	0.04561898	0.1745703	1	10	0.03	1800	-4.81955	40.92391	-91.39362
579879	0	0	-4	-0.6644493	-0.7025935	-89.69621	0	11.06	4002	0	0	5	5	0.04561898	0.1795634	1	10	0.03	1800	-4.813019	40.92391	-91.39362
579933	-5	-1	4	-0.6654546	-0.7039362	-89.69768	0	11.06	4003	0	0	5	5	0.04561898	0.1888106	1	10	0.03	1800	-4.813019	40.92391	-91.39362
580092	9	-4	-1	-0.6539267	-0.6953207	-89.70189	0	11.06	4002	0	0	5	5	0.04561898	0.2000167	1	10	0.03	1800	-4.604095	40.92391	-91.39362
580162	9	0	2	-0.653344	-0.6924685	-89.70415	0	11.06	4004	0	0	5	5	0.04561898	0.2045485	1	10	0.03	1800	-4.613464	40.92391	-91.39362
580239	-1	2	0	-0.6518761	-0.6943244	-89.70683	0	11.06	4002	0	0	5	5	0.04561898	0.2144188	1	10	0.03	1800	-4.832703	40.92391	-91.39362
580279	10	-4	6	-0.6495533	-0.6928064	-89.70866	0	11.06	4002	0	0	5	5	0.04561898	0.2160162	1	10	0.03	1800	-4.83728	40.92391	-91.39362
580436	9	0	2	-0.652402	-0.6975574	-89.71501	0	11.06	4003	0	0	5	5	0.04561898	0.2086143	1	10	0.03	1800	-4.824341	40.92391	-91.39362
580613	3	-3	-1	-0.6553574	-0.7013699	-89.7177	0	11.06	4003	0	0	5	5	0.04561898	0.1964407	1	10	0.03	1800	-5.057373	40.92391	-91.39362
580706	0	-2	2	-0.6497926	-0.7065151	-89.72209	0	11.06	4003	0	0	5	5	0.04561898	0.1907502	1	10	0.03	1800	-4.84024	40.92391	-91.39362
580802	0	-2	-2	-0.6483824	-0.7131699	-89.72484	0	11.06	4003	0	0	5	5	0.04561898	0.1971093	1	10	0.03	1800	-5.059113	40.92391	-91.39362
580925	8	-1	-1	-0.6425446	-0.7105853	-89.72655	0	11.11	4003	0	0	5	5	0.04561898	0.2164885	1	10	0.03	1800	-5.075928	40.92391	-91.39362
580972	1	-4	9	-0.6453909	-0.7132715	-89.73064	0	11.11	4004	0	0	5	5	0.04561898	0.2178789	1	10	0.03	1800	-4.628174	40.92391	-91.39362
581076	5	-7	-1	-0.641897	-0.7110653	-89.7318	0	11.11	4004	0	0	5	5	0.04561898	0.2205365	1	10	0.03	1800	-5.076874	40.92391	-91.39362
581253	3	1	-1	-0.6437178	-0.7071034	-89.73698	0	11.11	4002	0	0	5	5	0.04561898	0.2169175	1	10	0.03	1800	-4.850311	40.92391	-91.39362
581349	6	-2	0	-0.6437857	-0.7042711	-89.73991	0	11.11	4003	0	0	5	5	0.04561898	0.2076559	1	10	0.03	1800	-4.62146	40.92391	-91.39362
581375	4	-2	4	-0.6466783	-0.7025785	-89.74339	0	11.11	4003	0	0	5	5	0.04561898	0.1998703	1	10	0.03	1800	-4.621368	40.92391	-91.39362
581519	5	-5	0	-0.6499617	-0.7029698	-89.7473	0	11.11	4004	0	0	5	5	0.04561898	0.1758263	1	10	0.03	1800	-4.838623	40.92391	-91.39362
581656	0	-1	2	-0.6392821	-0.7020751	-89.75047	0	11.11	4003	0	0	5	5	0.04561898	0.1661152	1	10	0.03	1800	-5.07074	40.92391	-91.39362
581703	8	-3	0	-0.6387742	-0.7003381	-89.75261	0	11.11	4003	0	0	5	5	0.04561898	0.1658752	1	10	0.03	1800	-4.853333	40.92391	-91.39362
581846	2	-1	3	-0.632468	-0.6987684	-89.75529	0	11.11	4004	0	0	5	5	0.04561898	0.1579793	1	10	0.03	1800	-5.091675	40.92391	-91.39362
581909	0	-5	0	-0.6328284	-0.702166	-89.75774	0	11.11	4002	0	0	5	5	0.04561898	0.151806	1	10	0.03	1800	-5.113678	40.92391	-91.39362
582096	6	2	3	-0.6353192	-0.711017	-89.76262	0	11.11	4003	0	0	5	5	0.04561898	0.1395177	1	10	0.03	1800	-4.636841	40.92391	-91.39362
582190	8	-5	4	-0.640747	-0.7042591	-89.76488	0	11.11	4002	0	0	5	5	0.04561898	0.1255993	1	10	0.03	1800	-4.636841	40.92391	-91.39362
582291	1	3	2	-0.6355155	-0.7099659	-89.76677	0	11.11	4004	0	0	5	5	0.04561898	0.1233993	1	10	0.03	1800	-4.878632	40.92391	-91.39362
582406	3	0	4	-0.6403617	-0.7098384	-89.76866	0	11.11	4003	0	0	5	5	0.04561898	0.1169233	1	10	0.03	1800	-4.877075	40.92391	-91.39362
582583	7	0	0	-0.6343736	-0.7043536	-89.77122	0	11.11	4003	0	0	5	5	0.04561898	0.1146479	1	10	0.03	1800	-4.636627	40.92391	-91.39362
582708	3	-2	0	-0.6324449	-0.6998467	-89.77409	0	11.11	4004	0	0	5	5	0.04561898	0.1059481	1	10	0.03	1800	-5.107544	40.92391	-91.39362
582735	3	-6	4	-0.6329916	-0.6972881	-89.77489	0	11.11	4004	0	0	5	5	0.04561898	0.1057087	1	10	0.03	1800	-4.641602	40.92391	-91.39362
582889	2	0	2	-0.6331515	-0.6988187	-89.78001	0	11.11	4004	0	0	5	5	0.04561898	0.112723	1	10	0.03	1800	-4.619934	40.92391	-91.39362
583029	7	2	0	-0.6264354	-0.7021593	-89.78416	0	11.11	4004	0	0	5	5	0.04561898	0.1275131	1	10	0.03	1800	-4.627045	40.92391	-91.39362
583103	8	1	2	-0.6211957	-0.7039117	-89.78477	0	11.11	4004	0	0	5	5	0.04561898	0.134496	1	10	0.03	1800	-4.864685	40.92391	-91.39362
583128	3	-1	1	-0.6199706	-0.7087837	-89.78593	0	11.11	4003	0	0	5	5	0.04561898	0.1351798	1	10	0.03	1800	-4.661957	40.92391	-91.39362
583211	8	-3	2	-0.6206451	-0.7119043	-89.78893	0	11.11	4002	0	0	5	5	0.04561898	0.1351374	1	10	0.03	1800	-4.637146	40.92391	-91.39362
583432	4	1	0	-0.622101	-0.711221	-89.79424	0	11.11	4003	0	0	5	5	0.04561898	0.152605	1	10	0.03	1800	-4.902405	40.92391	-91.39362
583551	5	0	1	-0.6185154	-0.7095923	-89.79356	0	11.11	4002	0	0	5	5	0.04561898	0.1650273	1	10	0.03	1800	-4.892517	40.92391	-91.39362
583646	4	-4	3	-0.6139174	-0.709278	-89.79912	0	11.11	4002	0	0	5	5	0.04561898	0.1732108	1	10	0.03	1800	-4.873474	40.92391	-91.39362
583683	4	0	3	-0.6094753	-0.7086442	-89.80052	0	11.11	4002	0	0	5	5	0.04561898	0.178208	1	10	0.03	1800	-4.879944	40.92391	-91.39362
583879	10	0	-1	-0.6033297	-0.7076185	-89.80284	0	11.11	4004	0	0	5	5	0.04561898	0.1933498	1	10	0.03	1800	-4.910828	40.92391	-91.39362
583959	12	-3	-1	-0.6084131	-0.7054029	-89.80528	0	11.11	4004	0	0	5	5	0.04561898	0.1955512	1	10	0.03	1800	-4.882904	40.92391	-91.39362
584047	5	4	-2	-0.6142893	-0.7096455	-89.80864	0	11.11	4002	0	0	5	5	0.04561898	0.1988752	1	10	0.03	1800	-4.651642	40.92391	-91.39362
584106	5	-3	1	-0.6101804	-0.7117896	-89.80949	0	11.11	4004	0	0	5	5	0.04561898	0.1964578	1	10	0.03	1800	-4.651642	40.92391	-91.39362
584261	6	0	1	-0.6043655	-0.7061375	-89.81364	0	11.11	4004	0	0	5	5	0.04561898	0.1903393	1	10	0.03	1800	-4.889526	40.92391	-91.39362
584344	8	1	2	-0.6033976	-0.7080536	-89.81432	0	11.11	4002	0	0	5	5	0.04561898	0.1858071	1	10	0.03	1800	-4.928406	40.92391	-91.39362
584519	14	-4	-1	-0.5967808	-0.7027771	-89.81316	0	11.11	4004	0	0	5	5	0.04561898	0.1829506	1	10	0.03	1800	-4.92218	40.92391	-91.39362
584614	9	0	3	-0.5858526	-0.7092125	-89.81535	0	11.11	4003	0	0	5	5	0.04561898	0.1819562	1	10	0.03	1800	-4.932129	40.92391	-91.39362
584675	2	6	2	-0.5849941	-0.7065841	-89.81639	0	11.11	4003	0	0	5	5	0.04561898	0.1799203	1	10	0.03	1800	-5.170135	40.92391	-91.39362
584807	9	-7	0	-0.590077	-0.714389	-89.82091	0	11.11	4004	0	0	5	5	0.04561898	0.1785259	1	10	0.03	1800	-4.71582	40.92391	-91.39362
584910	10	0	8	-0.5893224	-0.7147766	-89.82323	0	11.11	4003	0	0	5	5	0.04561898	0.1823818	1	10	0.03	1800	-4.956238	40.92392	-91.39362
584981	17	-3	2	-0.5855356	-0.7177168	-89.82451	0	11.11	4004	0	0	5	5	0.04561898	0.1845756	1	10	0.03	1800	-4.918335	40.92392	-91.39362
585097	9	2	-4	-0.5818741	-0.7188389	-89.82494	0	11.11	4003	0	0	5	5	0.04561898	0.1895842	1	10	0.03	1800	-4.970703	40.92392	-91.39362
585204	11	-2	1	-0.5809398	-0.718759	-89.82713	0	11.11	4004	0	0	5	5	0.04561898	0.1887198	1	10	0.03	1800	-4.92627	40.92392	-91.39362
585255	13	1	-2	-0.5808215	-0.7244217	-89.82726	0	11.11	4002	0	0	5	5	0.04561898	0.1879913	1	10	0.03	1800	-4.949585	40.92392	-91.39362
585397	9	4	3	-0.5846274	-0.7287124	-89.83055	0	11.11	4002	0	0	5	5	0.04561898	0.1712416	1	10	0.03	1800	-4.945129	40.92392	-91.39362
585518	12	2	2	-0.584325	-0.7243009	-89.83488	0	11.11	4003	0	0	5	5	0.04561898	0.1422499	1	10	0.03	1800	-4.924591	40.92392	-91.39362
585563	19	1	1	-0.5826194	-0.723456	-89.83537	0	11.11	4004	0	0	5	5	0.04561898	0.1375444	1	10	0.03	1800	-4.922668	40.92392	-91.39362
585672	7	0	3	-0.583113	-0.7204052	-89.83733	0	11.11	4003	0	0	5	5	0.04561898	0.124833	1	10	0.03	1800	-4.932129	40.92392	-91.39362
585743	14	-3	-3	-0.5743813	-0.7171943	-89.83922	0	11.11	4002	0	0	5	5	0.04561898	0.1118189	1	10	0.03	1800	-5.18338	40.92392	-91.39362
585969	15	0	-1	-0.5608743	-0.7158669	-89.84074	0	11.11	4002	0	0	5	5	0.04561898	0.1046167	1	10	0.03	1800	-4.975372	40.92392	-91.39362
586108	11	-1	5	-0.5635099	-0.7122175	-89.84178	0	11.11	4003	0	0	5	5	0.04561898	0.09941536	1	10	0.03	1800	-5.201263	40.92392	-91.39362
586261	9	1	0	-0.5612961	-0.7136061	-89.84093	0	11.17	4002	0	0	5	5	0.04561898	0.08633814	1	10	0.03	1800	-4.981537	40.92392	-91.39362
586377	10	-3	1	-0.5591828	-0.7191095	-89.8419	0	11.17	4004	0	0	5	5	0.04561898	0.0717039	1	10	0.03	1800	-4.964355	40.92392	-91.39362
586491	11	0	-1	-0.5588529	-0.7211067	-89.84343	0	11.17	4003	0	0	5	5	0.04561898	0.0705932	1	10	0.03	1800	-4.988129	40.92392	-91.39362
586558	20	-3	-1	-0.5571648	-0.7176244	-89.84349	0	11.17	4003	0	0	5	5	0.04561898	0.07159729	1	10	0.03	1800	-4.984436	40.92392	-91.39362
586654	5	-5	-4	-0.558375	-0.7180198	-89.84276	0	11.17	4003	0	0	5	5	0.04561898	0.07063301	1	10	0.03	1800	-4.744995	40.92392	-91.39362
586696	15	1	4	-0.5606614	-0.7197388	-89.8419	0	11.17	4002	0	0	5	5	0.04561898	0.07005598	1	10	0.03	1800	-4.984406	40.92392	-91.39362
586867	13	-2	-2	-0.553945	-0.7223076	-89.84209	0	11.17	4003	0	0	5	5	0.04561898	0.06605253	1	10	0.03	1800	-4.971863	40.92392	-91.39362
586929	17	-1	0	-0.5462371	-0.7198633	-89.8419	0	11.17	4002	0	0	5	5	0.04561898	0.06409633	1	10	0.03	1800	-5.018616	40.92392	-91.39362
587027	7	-1	0	-0.5483927	-0.7163491	-89.84331	0	11.17	4003	0	0	5	5	0.04561898	0.06371347	1	10	0.03	1800	-5.000275	40.92392	-91.39362
587119	13	0	0	-0.5503515	-0.7137684	-89.84343	0	11.17	4003	0	0	5	5	0.04561898	0.06165911	1	10	0.03	1800	-5.000275	40.92392	-91.39362
587236	20	-2	-2	-0.539432	-0.7176433	-89.84203	0	11.17	4003	0	0	5	5	0.04561898	0.05971169	1	10	0.03	1800	-5.011078	40.92392	-91.39362
587268	9	-2	-3	-0.5372085	-0.7204038	-89.84221	0	11.17	4003	0	0	5	5	0.04561898	0.05854128	1	10	0.03	1800	-5.011078	40.92392	-91.39362
587360	14	5	-1	-0.5379344	-0.7237644	-89.84264	0	11.17	4003	0	0	5	5	0.04561898	0.05665708	1	10	0.03	1800	-5.039276	40.92392	-91.39362
587443	14	-1	2	-0.5414493	-0.7194198	-89.84392	0	11.17	4004	0	0	5	5	0.04561898	0.0524995	1	10	0.03	1800	-5.037201	40.92392	-91.39362
587601	11	-1	-2	-0.5388746	-0.7208926	-89.84196	0	11.17	4003	0	0	5	5	0.04561898	0.05071975	1	10	0.03	1800	-5.029114	40.92392	-91.39362
587652	9	0	3	-0.5396578	-0.7214327	-89.84209	0	11.17	4002	0	0	5	5	0.04561898	0.05057821	1	10	0.03	1800	-4.996948	40.92392	-91.39362
587768	9	0	-2	-0.5370904	-0.7195985	-89.84227	0	11.17	4003	0	0	5	5	0.04561898	0.052679	1	10	0.03	1800	-5.263733	40.92392	-91.39362
587849	15	-2	0	-0.5369409	-0.7229434	-89.84361	0	11.17	4004	0	0	5	5	0.04561898	0.05173259	1	10	0.03	1800	-4.797119	40.92392	-91.39362
587945	14	0	0	-0.5356194	-0.7236621	-89.84319	0	11.17	4002	0	0	5	5	0.04561898	0.05518406	1	10	0.03	1800	-5.223541	40.92392	-91.39362
588049	12	2	1	-0.536292	-0.7258028	-89.84361	0	11.11	4002	0	0	5	5	0.04561898	0.05578773	1	10	0.03	1800	-5.264313	40.92392	-91.39362
588150	12	0	0	-0.5433299	-0.7256299	-89.84135	0	11.11	4004	0	0	5	5	0.04561898	0.05978299	1	10	0.03	1800	-5.033691	40.92392	-91.39362
588261	9	0	0	-0.537916	-0.7275189	-89.84178	0	11.11	4002	0	0	5	5	0.04561898	0.0661175	1	10	0.03	1800	-4.986938	40.92392	-91.39362
588429	13	-8	3	-0.5276855	-0.729234	-89.84148	0	11.11	4003	0	0	5	5	0.04561898	0.07904842	1	10	0.03	1800	-5.031799	40.92392	-91.39362
588524	18	-2	-3	-0.5276473	-0.7250121	-89.84178	0	11.11	4002	0	0	5	5	0.04561898	0.0877482	1	10	0.03	1800	-5.237885	40.92392	-91.39362
588579	17	1	-4	-0.5228069	-0.7204628	-89.84068	0	11.11	4004	0	0	5	5	0.04561898	0.08794841	1	10	0.03	1800	-5.018677	40.92392	-91.39362
588658	17	6	3	-0.5182831	-0.7140291	-89.83904	0	11.11	4004	0	0	5	5	0.04561898	0.08665802	1	10	0.03	1800	-5.050201	40.92392	-91.39362
588806	14	-3	-3	-0.5133048	-0.719658	-89.83958	0	11.11	4004	0	0	5	5	0.04561898	0.08835342	1	10	0.03	1800	-5.036621	40.92392	-91.39362
588904	20	-4	3	-0.5154716	-0.7226846	-89.83842	0	11.11	4004	0	0	5	5	0.04561898	0.09342746	1	10	0.03	1800	-5.036621	40.92392	-91.39362
588983	17	1	4	-0.5085229	-0.7227048	-89.83867	0	11.11	4004	0	0	5	5	0.04561898	0.09633529	1	10	0.03	1800	-5.080933	40.92392	-91.39362
589056	18	3	0	-0.5093434	-0.7201644	-89.83842	0	11.11	4002	0	0	5	5	0.04561898	0.09405524	1	10	0.03	1800	-5.313599	40.92392	-91.39362
589171	20	-2	-2	-0.5124761	-0.7294713	-89.83818	0	11.11	4003	0	0	5	5	0.04561898	0.08555772	1	10	0.03	1800	-5.285553	40.92392	-91.39362
589252	16	6	1	-0.5122399	-0.7285066	-89.83836	0	11.11	4002	0	0	5	5	0.04561898	0.08023419	1	10	0.03	1800	-5.041595	40.92392	-91.39362
589351	14	-4	3	-0.5109565	-0.7182698	-89.83965	0	11.11	4004	0	0	5	5	0.04561898	0.0848467	1	10	0.03	1800	-5.04184	40.92392	-91.39362
589478	14	-5	0	-0.5037402	-0.7188969	-89.84251	0	11.11	4004	0	0	5	5	0.04561898	0.09512751	1	10	0.03	1800	-5.072205	40.92392	-91.39362
589587	14	-5	4	-0.4983108	-0.718845	-89.84172	0	11.11	4003	0	0	5	5	0.04561898	0.1063262	1	10	0.03	1800	-5.073761	40.92392	-91.39362
589642	23	2	3	-0.4931404	-0.7205006	-89.84099	0	11.11	4004	0	0	5	5	0.04561898	0.1123245	1	10	0.03	1800	-4.85788	40.92392	-91.39362
589738	22	5	3	-0.4900323	-0.7222973	-89.84038	0	11.11	4004	0	0	5	5	0.04561898	0.124891	1	10	0.03	1800	-5.317993	40.92392	-91.39362
589846	22	6	0	-0.4908525	-0.7233582	-89.84062	0	11.11	4004	0	0	5	5	0.04561898	0.13387	1	10	0.03	1800	-5.095795	40.92392	-91.39362
589952	16	1	0	-0.4836607	-0.7265653	-89.84355	0	11.11	4003	0	0	5	5	0.04561898	0.154611	1	10	0.03	1800	-4.864166	40.92392	-91.39362
590091	18	0	0	-0.4827172	-0.7264816	-89.84453	0	11.11	4003	0	0	5	5	0.04561898	0.1650282	1	10	0.03	1800	-5.324249	40.92392	-91.39362
590174	20	-1	-1	-0.4797079	-0.7232753	-89.84496	0	11.11	4004	0	0	5	5	0.04561898	0.1740243	1	10	0.03	1800	-5.10437	40.92392	-91.39362
590385	15	3	3	-0.4744957	-0.725354	-89.84605	0	11.11	4004	0	0	5	5	0.04561898	0.1845727	1	10	0.03	1800	-5.138336	40.92392	-91.39362
590494	15	0	2	-0.4828801	-0.7231815	-89.84636	0	11.11	4002	0	0	5	5	0.04561898	0.1815442	1	10	0.03	1800	-5.108734	40.92392	-91.39362
590562	12	-1	3	-0.4786869	-0.7237255	-89.84605	0	11.11	4004	0	0	5	5	0.04561898	0.1809582	1	10	0.03	1800	-4.868591	40.92392	-91.39362
590649	21	0	-3	-0.480559	-0.7266461	-89.84489	0	11.11	4003	0	0	5	5	0.04561898	0.1818645	1	10	0.03	1800	-5.110931	40.92392	-91.39362
590754	18	4	-2	-0.4702653	-0.7349265	-89.84563	0	11.11	4004	0	0	5	5	0.04561898	0.1882868	1	10	0.03	1800	-5.345367	40.92392	-91.39362
590847	18	2	1	-0.4633829	-0.7290347	-89.84599	0	11.11	4004	0	0	5	5	0.04561898	0.1922937	1	10	0.03	1800	-5.14212	40.92392	-91.39362
590950	10	0	2	-0.4613018	-0.7278597	-89.84557	0	11.11	4004	0	0	5	5	0.04561898	0.2021578	1	10	0.03	1800	-5.369659	40.92392	-91.39362
591073	20	-10	4	-0.4588467	-0.7259308	-89.84666	0	11.11	4003	0	0	5	5	0.04561898	0.2050361	1	10	0.03	1800	-5.366608	40.92392	-91.39362
591168	14	-5	-4	-0.4542066	-0.7218299	-89.8463	0	11.11	4003	0	0	5	5	0.04561898	0.2046869	1	10	0.03	1800	-5.172028	40.92392	-91.39362
591253	19	-4	-1	-0.4581096	-0.720157	-89.84581	0	11.11	4002	0	0	5	5	0.04561898	0.2029817	1	10	0.03	1800	-4.939392	40.92392	-91.39362
591352	11	5	0	-0.4586267	-0.7214478	-89.84715	0	11.11	4003	0	0	5	5	0.04561898	0.1977438	1	10	0.03	1800	-5.143341	40.92392	-91.39362
591481	19	0	-1	-0.449933	-0.723986	-89.84471	0	11.11	4004	0	0	5	5	0.04561898	0.1918584	1	10	0.03	1800	-5.369446	40.92392	-91.39362
591575	17	2	0	-0.4492935	-0.7244325	-89.84447	0	11.11	4004	0	0	5	5	0.04561898	0.1866643	1	10	0.03	1800	-5.382416	40.92392	-91.39362
591638	14	0	-3	-0.4541032	-0.7253472	-89.84435	0	11.11	4002	0	0	5	5	0.04561898	0.1841801	1	10	0.03	1800	-5.139374	40.92392	-91.39362
591824	18	-2	-1	-0.4489721	-0.7313005	-89.83904	0	11.11	4004	0	0	5	5	0.04561898	0.1837041	1	10	0.03	1800	-5.386322	40.92392	-91.39362
591884	27	0	0	-0.4442259	-0.7310052	-89.83842	0	11.11	4004	0	0	5	5	0.04561898	0.1789076	1	10	0.03	1800	-5.165619	40.92392	-91.39362
591971	28	-4	0	-0.435214	-0.7303705	-89.8383	0	11.11	4004	0	0	5	5	0.04561898	0.174271	1	10	0.03	1800	-5.197327	40.92392	-91.39362
592075	13	-2	-5	-0.4315449	-0.7321506	-89.83775	0	11.11	4003	0	0	5	5	0.04561898	0.1729706	1	10	0.03	1800	-5.201355	40.92392	-91.39362
592135	22	0	-2	-0.4303856	-0.7319598	-89.83568	0	11.11	4003	0	0	5	5	0.04561898	0.1780855	1	10	0.03	1800	-4.964172	40.92392	-91.39362
592227	15	-1	0	-0.4307626	-0.7356023	-89.83354	0	11.11	4002	0	0	5	5	0.04561898	0.1876754	1	10	0.03	1800	-5.186127	40.92392	-91.39362
592329	21	1	-2	-0.4286205	-0.7380745	-89.83324	0	11.11	4002	0	0	5	5	0.04561898	0.1934525	1	10	0.03	1800	-5.193878	40.92392	-91.39362
592448	19	-3	-1	-0.4225824	-0.7337638	-89.83311	0	11.11	4003	0	0	5	5	0.04561898	0.1955497	1	10	0.03	1800	-5.417664	40.92392	-91.39362
592535	26	-1	-2	-0.4170087	-0.7375991	-89.83269	0	11.11	4002	0	0	5	5	0.04561898	0.1982313	1	10	0.03	1800	-5.437714	40.92392	-91.39362
592635	23	-4	0	-0.4157555	-0.732305	-89.83183	0	11.11	4003	0	0	5	5	0.04561898	0.2049357	1	10	0.03	1800	-5.437714	40.92392	-91.39362
592755	21	-1	-5	-0.4171857	-0.7380744	-89.83098	0	11.11	4002	0	0	5	5	0.04561898	0.214216	1	10	0.03	1800	-5.214386	40.92392	-91.39362
592908	17	-3	0	-0.4153588	-0.7341889	-89.82939	0	11.11	4004	0	0	5	5	0.04561898	0.2234967	1	10	0.03	1800	-5.191223	40.92392	-91.39362
592993	20	-5	2	-0.4107631	-0.7349846	-89.82762	0	11.11	4003	0	0	5	5	0.04561898	0.2258259	1	10	0.03	1800	-5.238312	40.92392	-91.39362
593032	20	-5	-2	-0.4111049	-0.7342067	-89.82634	0	11.11	4002	0	0	5	5	0.04561898	0.2292775	1	10	0.03	1800	-5.220459	40.92392	-91.39362
593196	13	0	-3	-0.4100109	-0.7300743	-89.82585	0	11.11	4003	0	0	5	5	0.04561898	0.235069	1	10	0.03	1800	-4.976654	40.92392	-91.39362
593240	16	2	1	-0.40948	-0.7288265	-89.82353	0	11.11	4002	0	0	5	5	0.04561898	0.2361397	1	10	0.03	1800	-5.225067	40.92392	-91.39362
593326	22	4	-2	-0.4084842	-0.7315985	-89.82402	0	11.11	4003	0	0	5	5	0.04561898	0.2384925	1	10	0.03	1800	-5.226044	40.92392	-91.39362
593416	18	-2	0	-0.4086421	-0.7334617	-89.82219	0	11.17	4002	0	0	5	5	0.04561898	0.2374669	1	10	0.03	1800	-5.2258	40.92392	-91.39362
593539	19	0	-2	-0.4048663	-0.7361708	-89.82274	0	11.17	4003	0	0	5	5	0.04561898	0.2322474	1	10	0.03	1800	-5.449921	40.92392	-91.39362
593639	24	3	2	-0.4055216	-0.7310876	-89.82268	0	11.17	4003	0	0	5	5	0.04561898	0.2272802	1	10	0.03	1800	-5.227509	40.92392	-91.39362
593730	25	1	0	-0.4024351	-0.7226994	-89.8217	0	11.17	4002	0	0	5	5	0.04561898	0.2232142	1	10	0.03	1800	-5.229797	40.92392	-91.39362
593815	24	-1	-4	-0.4054212	-0.7255312	-89.81908	0	11.17	4002	0	0	5	5	0.04561898	0.2150461	1	10	0.03	1800	-5.229919	40.92392	-91.39362
593928	21	0	4	-0.4010099	-0.725363	-89.82011	0	11.17	4003	0	0	5	5	0.04561898	0.2091697	1	10	0.03	1800	-5.25351	40.92392	-91.39362
594004	21	3	-1	-0.4017563	-0.7325377	-89.81956	0	11.17	4003	0	0	5	5	0.04561898	0.2058519	1	10	0.03	1800	-5.214752	40.92392	-91.39362
594177	20	-4	0	-0.3996425	-0.7300382	-89.81786	0	11.17	4003	0	0	5	5	0.04561898	0.2099373	1	10	0.03	1800	-5.006775	40.92392	-91.39362
594222	21	-1	0	-0.3967308	-0.7262653	-89.81786	0	11.17	4002	0	0	5	5	0.04561898	0.2087182	1	10	0.03	1800	-5.465363	40.92392	-91.39362
594293	16	-3	-8	-0.3983444	-0.7247891	-89.81688	0	11.17	4003	0	0	5	5	0.04561898	0.2057448	1	10	0.03	1800	-5.264374	40.92392	-91.39362
594408	20	2	-1	-0.4041806	-0.7289493	-89.81706	0	11.06	4002	0	0	5	5	0.04561898	0.1828409	1	10	0.03	1800	-5.212097	40.92392	-91.39362
594484	17	-3	0	-0.4012938	-0.7299541	-89.81755	0	11.06	4003	0	0	5	5	0.04561898	0.1732139	1	10	0.03	1800	-5.235443	40.92392	-91.39362
594585	23	5	-2	-0.3963023	-0.7285337	-89.8159	0	11.06	4003	0	0	5	5	0.04561898	0.1572386	1	10	0.03	1800	-5.21701	40.92392	-91.39362
594716	25	0	-2	-0.3922875	-0.7281789	-89.81328	0	11.06	4004	0	0	5	5	0.04561898	0.1346278	1	10	0.03	1800	-5.243073	40.92392	-91.39362
594839	22	-6	-4	-0.3910585	-0.729272	-89.81358	0	11.06	4003	0	0	5	5	0.04561898	0.1082315	1	10	0.03	1800	-5.477875	40.92392	-91.39362
594893	19	-4	0	-0.3928401	-0.7269149	-89.81346	0	11.06	4003	0	0	5	5	0.04561898	0.1042809	1	10	0.03	1800	-5.476593	40.92392	-91.39362
595037	20	-5	0	-0.398759	-0.7340328	-89.81224	0	11.06	4003	0	0	5	5	0.04561898	0.0896451	1	10	0.03	1800	-5.226593	40.92392	-91.39362
595146	16	2	-4	-0.403608	-0.7350194	-89.81206	0	11.06	4003	0	0	5	5	0.04561898	0.08236779	1	10	0.03	1800	-5.035675	40.92392	-91.39362
595237	18	3	0	-0.3968582	-0.7375816	-89.80992	0	11.06	4002	0	0	5	5	0.04561898	0.07595587	1	10	0.03	1800	-5.479126	40.92392	-91.39362
