time(ms)	gyro_x(deg/s)	gyro_y(deg/s)	gyro_z(deg/s)	orientation_roll(deg)	orientation_pitch(deg)	orientation_yaw(deg)	throttle	battery(V)	loop_time(uS)	pid_output_roll	pid_output_pitch	pid_output_yaw	pid_output_throttle	ultrasonic_alt	baro_alt	flight_mode	p_gain_altitude	i_gain_altitude	d_gain_altitude	compass_heading	latitude	longitude
720852	131	162	64	18.94164	-8.472762	216.0094	0	10.83	4002	0	0	5	5	0.3340819	0.410687	1	10	0.03	1800	218.5736	40.92398	-91.3936
720926	154	-153	-154	19.0673	-8.613365	216.0681	0	10.83	4003	0	0	5	5	0.3340819	0.4054667	1	10	0.03	1800	218.7209	40.92398	-91.3936
721047	60	101	126	19.36521	-8.233334	216.1577	0	10.83	4004	0	0	5	5	0.3340819	0.3964062	1	10	0.03	1800	218.0829	40.92398	-91.3936
721147	-65	74	173	19.33782	-8.323915	215.7995	0	10.83	4004	0	0	5	5	0.3340819	0.3943686	1	10	0.03	1800	219.5739	40.92398	-91.3936
721219	70	15	100	19.36394	-8.410056	215.6443	0	10.83	4002	0	0	5	5	0.3340819	0.3946494	1	10	0.03	1800	219.4834	40.92398	-91.39359
721402	83	90	29	19.35208	-8.409285	215.5465	0	10.83	4002	0	0	5	5	0.3340819	0.4040783	1	10	0.03	1800	219.5953	40.92398	-91.39359
721559	-76	-64	-111	19.26876	-8.575686	215.6136	0	10.83	4003	0	0	5	5	0.3340819	0.4017289	1	10	0.03	1800	220.2399	40.92398	-91.39359
721657	201	-121	38	19.33379	-8.445659	215.6767	0	10.83	4003	0	0	5	5	0.3340819	0.397998	1	10	0.03	1800	219.9014	40.92398	-91.39359
721820	63	-104	-57	19.1447	-8.543218	215.6088	0	10.83	4004	0	0	5	5	0.3340819	0.3963973	1	10	0.03	1800	219.5352	40.92398	-91.39359
721949	25	-19	-106	19.14079	-8.536826	215.6561	0	10.83	4003	0	0	5	5	0.3340819	0.3974869	1	10	0.03	1800	219.5352	40.92398	-91.39359
721976	66	-100	-2	19.32291	-8.445798	215.7403	0	10.83	4003	0	0	5	5	0.3340819	0.399462	1	10	0.03	1800	219.2994	40.92398	-91.39359
722100	340	-108	-537	19.46098	-8.920472	216.0928	0	10.83	4004	0	0	5	5	0.3340819	0.39376	1	10	0.03	1800	218.7319	40.92397	-91.39355
722157	573	-1094	-660	20.12536	-8.671366	216.9005	0	10.83	4003	0	0	5	5	0.3340819	0.3916494	1	10	0.03	1800	215.8516	40.92397	-91.39355
722329	-953	550	-1193	21.45706	-12.7675	220.0355	0	10.83	4003	0	0	5	5	0.3340819	0.3742221	1	10	0.03	1800	216.1945	40.92397	-91.39356
722400	-204	-3721	-1721	19.78413	-9.980029	222.2451	0	10.83	4004	0	0	5	5	0.3340819	0.3633243	1	10	0.03	1800	216.2194	40.92398	-91.39356
722520	-1475	-1356	721	17.44634	-4.636216	223.9211	0	10.83	4004	0	0	5	5	0.3340819	0.3594619	1	10	0.03	1800	223.8826	40.92398	-91.39356
722565	-3209	-1814	2413	9.911891	2.372792	221.0394	0	10.83	4004	0	0	5	5	0.3340819	0.3629346	1	10	0.03	1800	234.4075	40.92398	-91.39357
722596	-823	-133	3623	6.888206	4.886388	217.3547	0	10.83	4002	0	0	5	5	0.3340819	0.368672	1	10	0.03	1800	237.3245	40.92398	-91.39357
722743	-1635	-756	4068	1.099169	9.246785	210.0427	0	10.83	4004	0	0	5	5	0.3340819	0.3926747	1	10	0.03	1800	249.7894	40.92399	-91.39356
722783	-1971	388	4761	-3.517309	9.291574	202.6681	0	10.83	4003	0	0	5	5	0.3340819	0.4207687	1	10	0.03	1800	-94.77472	40.924	-91.39356
722827	-1406	-3327	5523	-7.529212	10.51604	193.8879	0	10.83	4003	0	0	5	5	0.3340819	0.4449615	1	10	0.03	1800	-86.31345	40.924	-91.39356
722851	-2662	-3354	5475	-12.70453	16.10593	183.2954	0	10.83	4002	0	0	5	5	0.3340819	0.4636433	1	10	0.03	1800	-75.13583	40.92291	-91.39356
722872	-1690	-1709	5363	-14.45936	16.11879	180.2472	0	10.83	4003	0	0	5	5	0.3340819	0.480779	1	10	0.03	1800	-75.13583	40.92291	-91.39356
722892	1740	2157	1615	-14.05786	13.28956	176.2348	0	10.83	4002	0	0	5	5	0.3340819	0.4890068	1	10	0.03	1800	-72.57275	40.92291	-91.39356
722999	4223	-2562	-3589	-7.890677	12.20473	177.2683	0	10.83	4005	0	0	5	5	0.3340819	0.5345035	1	10	0.03	1800	-74.43134	40.92293	-91.39356
723096	-1567	-541	-197	-4.819777	15.33315	179.8905	0	10.83	4003	0	0	5	5	0.3340819	0.5529649	1	10	0.03	1800	-81.11313	40.92293	-91.39356
723128	-1826	-115	-505	-5.963892	15.28124	180.0865	0	10.89	4003	0	0	5	5	0.3340819	0.5662729	1	10	0.03	1800	-84.42404	40.92293	-91.39356
723246	2090	999	836	-6.610647	13.36748	180.2253	0	10.89	4002	0	0	5	5	0.3340819	0.6039101	1	10	0.03	1800	-87.6373	40.92293	-91.39356
723416	-222	4250	1710	-5.197865	7.505895	177.4711	0	10.89	4004	0	0	5	5	0.3340819	0.6578472	1	10	0.03	1800	-86.01932	40.92294	-91.39357
723467	1019	3349	3258	-4.565866	4.793479	176.0479	0	10.89	4002	0	0	5	5	0.3340819	0.703665	1	10	0.03	1800	-86.01932	40.92294	-91.39357
723541	391	-2400	2180	-3.73125	3.816928	172.4945	0	10.89	4003	0	0	5	5	0.3340819	0.7253971	1	10	0.03	1800	-83.56409	40.92294	-91.39357
723690	492	1225	883	-5.331134	3.959185	170.2963	0	10.89	4002	0	0	5	5	0.3340819	0.7694323	1	10	0.03	1800	-74.522	40.92294	-91.39357
723744	1515	-52	14	-5.299096	3.861421	170.0628	0	10.89	4004	0	0	5	5	0.3340819	0.7891911	1	10	0.03	1800	-74.522	40.92294	-91.39357
723846	398	-504	654	-4.149127	6.361462	170.4641	0	10.89	4002	0	0	5	5	0.3340819	0.8113976	1	10	0.03	1800	-71.58231	40.92293	-91.39357
724013	359	-97	-188	-5.018772	6.406342	170.94	0	10.89	4003	0	0	5	5	0.3340819	0.8305058	1	10	0.03	1800	-65.56439	40.92291	-91.39357
724117	-7	1675	87	-4.92896	5.281246	170.4166	0	10.83	4002	0	0	5	5	0.3340819	0.8446614	1	10	0.03	1800	-63.85349	40.92291	-91.39357
724153	-1	1300	64	-4.726307	4.685434	170.4019	0	10.83	4003	0	0	5	5	0.3340819	0.8484361	1	10	0.03	1800	-61.17349	40.92292	-91.39358
724268	-569	-1213	174	-2.472869	2.739619	169.136	0	10.83	4004	0	0	5	5	0.3340819	0.8498521	1	10	0.03	1800	-58.18155	40.92292	-91.39358
724404	-245	-1073	-1552	-4.753328	7.833464	166.9231	0	10.83	4004	0	0	5	5	0.3340819	0.8428104	1	10	0.03	1800	-60.64096	40.92294	-91.3936
724561	924	771	694	-3.827736	7.259615	168.836	0	10.83	4002	0	0	5	5	0.3340819	0.8382915	1	10	0.03	1800	-60.93335	40.92294	-91.39362
724702	227	146	2555	-4.883462	8.861797	162.7188	0	10.83	4003	0	0	5	5	0.3340819	0.8324674	1	10	0.03	1800	-53.88492	40.92293	-91.39362
724760	1371	389	2301	-4.400561	8.631582	161.4157	0	10.83	4002	0	0	5	5	0.3340819	0.8265652	1	10	0.03	1800	-53.88492	40.92293	-91.39362
724893	1533	-1033	2249	2.667452	11.12874	153.1501	0	10.83	4002	0	0	5	5	0.3340819	0.8133273	1	10	0.03	1800	-44.41998	40.92292	-91.39362
724941	-878	515	4609	1.889324	13.78386	145.7268	0	10.83	4002	0	0	5	5	0.3340819	0.8151441	1	10	0.03	1800	-35.79352	40.92292	-91.39362
725001	-1073	-2675	1599	-3.992916	17.19662	142.9788	0	10.83	4002	0	0	5	5	0.3340819	0.811605	1	10	0.03	1800	-30.39804	40.92292	-91.39362
725023	-397	-2201	239	-4.645429	19.94945	142.2915	0	10.83	4003	0	0	5	5	0.3340819	0.8068877	1	10	0.03	1800	-30.05856	40.92292	-91.39362
725072	3333	-2718	-2704	-0.7892727	22.16699	145.3744	0	10.83	4003	0	0	5	5	0.3340819	0.7993084	1	10	0.03	1800	-32.66623	40.92292	-91.39362
725093	-1156	-2602	-519	1.37888	27.54659	147.1253	0	10.83	4003	0	0	5	5	0.3340819	0.7907095	1	10	0.03	1800	-42.46667	40.92292	-91.39362
725157	-555	-1282	-1747	1.066425	28.30362	148.468	0	10.83	4003	0	0	5	5	0.3340819	0.7869194	1	10	0.03	1800	-44.65784	40.92292	-91.39362
725289	-1780	-702	-122	-1.535559	34.23807	151.7066	0	10.83	4004	0	0	5	5	0.3340819	0.787325	1	10	0.03	1800	-49.09717	40.92291	-91.39362
725319	-1149	-153	550	-3.828603	34.87742	151.2849	0	10.83	4003	0	0	5	5	0.3340819	0.7880756	1	10	0.03	1800	-49.44122	40.92291	-91.39362
725339	1213	-11	911	-4.20734	35.67313	149.9876	0	10.83	4003	0	0	5	5	0.3340819	0.784041	1	10	0.03	1800	-49.16556	40.92291	-91.39362
725390	1914	840	988	-0.9627819	34.91296	149.8084	0	10.89	4003	0	0	5	5	0.3340819	0.7838873	1	10	0.03	1800	-49.72592	40.92291	-91.39362
725478	-1046	-53	-428	0.3103764	32.24307	150.5088	0	10.89	4004	0	0	5	5	0.3340819	0.7914611	1	10	0.03	1800	-51.49133	40.924	-91.39362
725554	-1990	-377	-1315	1.672094	34.37834	151.5344	0	10.89	4008	0	0	5	5	0.3340819	0.8030897	1	10	0.03	1800	-56.55875	40.92399	-91.39362
725577	-2369	6	427	-1.137399	33.46957	152.6273	0	10.89	4004	0	0	5	5	0.3340819	0.8090475	1	10	0.03	1800	-60.85654	40.92399	-91.39362
725605	1784	2897	-5132	-0.1688317	31.74915	155.3559	0	10.89	4004	0	0	5	5	0.3340819	0.8160801	1	10	0.03	1800	-61.10562	40.92399	-91.39362
725647	1815	2871	-1811	1.437693	30.09796	157.394	0	10.89	4002	0	0	5	5	0.3340819	0.8171179	1	10	0.03	1800	-61.10562	40.92398	-91.39362
725720	-113	-1269	1506	2.3635	24.87181	158.914	0	10.89	4004	0	0	5	5	0.3340819	0.8112709	1	10	0.03	1800	-61.11032	40.92398	-91.39362
725773	1543	-1286	1440	0.2245976	29.6037	152.0995	0	10.83	4002	0	0	5	5	0.3340819	0.8058261	1	10	0.03	1800	-54.8168	40.92398	-91.39362
725806	2234	-493	2129	2.810848	30.1598	151.2638	0	10.83	4003	0	0	5	5	0.3340819	0.7792218	1	10	0.03	1800	-54.90805	40.92398	-91.39362
725827	-1090	-262	218	1.346466	29.53482	149.0748	0	10.83	4003	0	0	5	5	0.3340819	0.7635689	1	10	0.03	1800	-51.98462	40.92398	-91.39362
725848	-570	110	2640	0.2610957	29.32882	148.1814	0	10.83	4004	0	0	5	5	0.3340819	0.7468195	1	10	0.03	1800	-53.93436	40.92397	-91.39362
725888	-11	-184	3833	-1.72965	28.95578	144.2525	0	10.83	4004	0	0	5	5	0.3340819	0.7427922	1	10	0.03	1800	-51.01868	40.92397	-91.39362
725920	-493	-843	-633	-2.864472	28.65195	141.3333	0	10.83	4002	0	0	5	5	0.3340819	0.7254526	1	10	0.03	1800	-47.59064	40.92397	-91.39362
726001	2513	2409	-1591	-0.5107298	27.28264	142.2929	0	10.83	4003	0	0	5	5	0.3340819	0.7120765	1	10	0.03	1800	-51.11597	40.92397	-91.39362
726050	1318	3577	-362	5.316689	21.56244	145.6851	0	10.83	4002	0	0	5	5	0.3340819	0.7048364	1	10	0.03	1800	-52.86942	40.92397	-91.39361
726120	-2382	2307	-308	5.073415	16.03158	146.2678	0	10.83	4002	0	0	5	5	0.3340819	0.7019606	1	10	0.03	1800	-48.75775	40.92397	-91.39361
726154	-126	629	1887	1.539325	15.74729	145.8343	0	10.83	4003	0	0	5	5	0.3340819	0.6994529	1	10	0.03	1800	-47.63086	40.92397	-91.39361
726286	-1616	-1659	3453	-3.321649	16.42625	140.7074	0	10.83	4002	0	0	5	5	0.3340819	0.6910942	1	10	0.03	1800	-40.46301	40.92397	-91.39361
726323	1070	-2920	3500	-2.265332	17.16352	135.7619	0	10.83	4003	0	0	5	5	0.3340819	0.6733211	1	10	0.03	1800	-36.57953	40.92397	-91.3936
726341	2035	668	387	-0.2695792	18.86747	133.466	0	10.83	4003	0	0	5	5	0.3340819	0.6706667	1	10	0.03	1800	-33.31171	40.92397	-91.3936
726372	730	1243	-415	0.9289708	18.10402	133.6266	0	10.83	4003	0	0	5	5	0.3340819	0.6688203	1	10	0.03	1800	-33.32736	40.92397	-91.3936
726395	-1574	-567	2765	-1.273846	16.88185	130.7822	0	10.83	4003	0	0	5	5	0.3340819	0.6712475	1	10	0.03	1800	-32.62579	40.92397	-91.3936
726491	-1147	1211	1879	-6.715331	13.70343	125.2691	0	10.83	4004	0	0	5	5	0.3340819	0.6641757	1	10	0.03	1800	-30.27307	40.92397	-91.3936
726523	580	2710	86	-5.919001	10.47486	124.87	0	10.83	4003	0	0	5	5	0.3340819	0.658167	1	10	0.03	1800	-30.36575	40.92397	-91.3936
726585	985	1965	2380	-5.313299	5.127442	121.3657	0	10.83	4003	0	0	5	5	0.3340819	0.6474916	1	10	0.03	1800	-29.48962	40.92397	-91.3936
726623	350	251	3967	-4.84038	2.055748	115.8109	0	10.83	4003	0	0	5	5	0.3340819	0.6407101	1	10	0.03	1800	-26.90375	40.92397	-91.39359
726741	-1111	-1531	3523	-7.753038	2.189093	105.9374	0	10.89	4003	0	0	5	5	0.3340819	0.6168335	1	10	0.03	1800	-15.34537	40.92397	-91.39359
726803	1910	3870	2398	-8.700854	-0.8774723	97.80819	0	10.89	4003	0	0	5	5	0.3340819	0.5882078	1	10	0.03	1800	-11.69687	40.92397	-91.39359
726823	5589	-1717	636	1.07099	-4.100856	95.97559	0	10.89	4004	0	0	5	5	0.3340819	0.5700637	1	10	0.03	1800	-10.58752	40.92397	-91.39359
726882	-1289	662	-1606	6.755633	-2.505306	97.03812	0	10.89	4003	0	0	5	5	0.3340819	0.5508432	1	10	0.03	1800	-10.31976	40.92397	-91.39359
726922	660	2614	-133	5.199319	-8.133305	97.97273	0	10.89	4002	0	0	5	5	0.3340819	0.5036144	1	10	0.03	1800	-15.18066	40.92397	-91.39359
726968	3666	-1865	1526	6.035582	-10.0007	97.55329	0	10.89	4002	0	0	5	5	0.3340819	0.470149	1	10	0.03	1800	-15.30191	40.92397	-91.39359
726998	1206	-856	3008	3.391359	-2.678525	94.29977	0	10.89	4002	0	0	5	5	0.3340819	0.4420904	1	10	0.03	1800	-14.01907	40.92397	-91.39359
727056	-135	-2372	-818	4.952202	-1.326273	94.07444	0	10.89	4002	0	0	5	5	0.3340819	0.3992195	1	10	0.03	1800	-11.58398	40.92397	-91.39359
727082	-67	-2014	360	5.03126	-0.8247216	94.33406	0	10.89	4004	0	0	5	5	0.3340819	0.3848254	1	10	0.03	1800	-11.62375	40.92397	-91.39359
727182	-534	-22	1314	4.153566	-0.1846889	93.63851	0	10.83	4004	0	0	5	5	0.3340819	0.3264411	1	10	0.03	1800	-11.03128	40.92397	-91.39359
727246	-197	56	85	3.645707	0.6583753	92.09975	0	10.83	4003	0	0	5	5	0.3340819	0.2971162	1	10	0.03	1800	-8.88208	40.92397	-91.39359
727338	-68	58	8	3.101163	0.5402321	92.12492	0	10.83	4003	0	0	5	5	0.3340819	0.2799997	1	10	0.03	1800	-8.293488	40.92397	-91.39359
727440	9	15	8	2.484558	0.5631726	92.11394	0	10.83	4003	0	0	5	5	0.3340819	0.2513042	1	10	0.03	1800	-7.322083	40.92397	-91.3936
727473	28	15	8	2.484558	0.5631726	92.11394	0	10.83	4003	0	0	5	5	0.3340819	0.246373	1	10	0.03	1800	-7.322083	40.92397	-91.3936
727508	14	-9	0	1.968367	0.5572867	92.11327	0	10.83	4003	0	0	5	5	0.3340819	0.2192518	1	10	0.03	1800	-6.778351	40.92397	-91.3936
727527	28	6	-5	1.624997	0.5668541	92.11559	0	10.83	4002	0	0	5	5	0.3340819	0.1903664	1	10	0.03	1800	-6.524078	40.92397	-91.3936
727546	27	0	0	1.460677	0.5455338	92.1151	0	10.83	4003	0	0	5	5	0.3340819	0.1781172	1	10	0.03	1800	-6.128021	40.92397	-91.3936
727565	35	3	0	1.239615	0.5380862	92.11516	0	10.83	4003	0	0	5	5	0.3340819	0.1728479	1	10	0.03	1800	-5.417236	40.92397	-91.3936
727579	35	3	0	1.239615	0.5380862	92.11516	0	10.83	4003	0	0	5	5	0.3340819	0.1728479	1	10	0.03	1800	-5.417236	40.92397	-91.3936
727693	29	-3	0	1.131879	0.5382713	92.1162	0	10.83	4003	0	0	5	5	0.3340819	0.1670001	1	10	0.03	1800	-5.343018	40.92397	-91.3936
727842	37	1	0	0.9702998	0.5412968	92.11546	0	10.83	4004	0	0	5	5	0.3340819	0.1688702	1	10	0.03	1800	-5.100525	40.92397	-91.3936
727942	30	1	2	0.9162669	0.5385929	92.11504	0	10.83	4003	0	0	5	5	0.3340819	0.1744471	1	10	0.03	1800	-5.02832	40.92397	-91.3936
727992	32	-2	-1	0.8665693	0.540036	92.11571	0	10.83	4003	0	0	5	5	0.3340819	0.1793529	1	10	0.03	1800	-4.920135	40.92397	-91.3936
728061	33	-4	2	0.8268222	0.5443012	92.11449	0	10.83	4003	0	0	5	5	0.3340819	0.184357	1	10	0.03	1800	-4.844757	40.92396	-91.39361
728135	24	3	1	0.74857	0.5368988	92.11394	0	10.83	4003	0	0	5	5	0.3340819	0.1801118	1	10	0.03	1800	-4.74234	40.92396	-91.39361
728206	37	-5	2	0.7140761	0.5406736	92.11449	0	10.83	4004	0	0	5	5	0.3340819	0.1687163	1	10	0.03	1800	-4.893951	40.92396	-91.39361
728224	23	-4	17	0.6290987	0.5373816	92.11382	0	10.83	4002	0	0	5	5	0.3340819	0.1709915	1	10	0.03	1800	-4.533356	40.92396	-91.39361
728242	35	0	-5	0.5981621	0.5308894	92.11552	0	10.83	4002	0	0	5	5	0.3340819	0.1713494	1	10	0.03	1800	-4.254883	40.92396	-91.39361
728291	35	-4	0	0.5367844	0.5298963	92.11571	0	10.83	4003	0	0	5	5	0.3340819	0.1686371	1	10	0.03	1800	-4.598541	40.92396	-91.39361
728311	24	1	4	0.5183209	0.5291226	92.11797	0	10.83	4002	0	0	5	5	0.3340819	0.1742681	1	10	0.03	1800	-4.332397	40.92396	-91.39361
728368	36	0	-2	0.4988899	0.5369199	92.11595	0	10.83	4002	0	0	5	5	0.3340819	0.1748699	1	10	0.03	1800	-4.322723	40.92395	-91.39361
728386	32	2	-3	0.4866066	0.5350778	92.11443	0	10.83	4003	0	0	5	5	0.3340819	0.1750023	1	10	0.03	1800	-4.335785	40.92395	-91.39361
728451	42	2	4	0.4705874	0.5352765	92.11424	0	10.83	4003	0	0	5	5	0.3340819	0.1721239	1	10	0.03	1800	-4.281097	40.92395	-91.39361
728517	27	-10	7	0.4525483	0.5282482	92.11418	0	10.83	4002	0	0	5	5	0.3340819	0.1695468	1	10	0.03	1800	-4.456787	40.92395	-91.39361
728549	32	0	-6	0.4424208	0.5287516	92.11382	0	10.83	4003	0	0	5	5	0.3340819	0.163163	1	10	0.03	1800	-4.220825	40.92395	-91.39361
728613	35	-4	-2	0.4265596	0.5282626	92.11449	0	10.83	4003	0	0	5	5	0.3340819	0.1584074	1	10	0.03	1800	-4.191956	40.92395	-91.39361
728648	33	1	0	0.4193881	0.5274473	92.11479	0	10.83	4002	0	0	5	5	0.3340819	0.1551046	1	10	0.03	1800	-4.164124	40.92395	-91.39362
728668	42	0	0	0.4071737	0.5213171	92.11552	0	10.83	4002	0	0	5	5	0.3340819	0.1474099	1	10	0.03	1800	-4.179443	40.92395	-91.39362
728706	34	-1	3	0.4026398	0.5252183	92.11522	0	10.83	4003	0	0	5	5	0.3340819	0.1375071	1	10	0.03	1800	-4.173004	40.92395	-91.39362
728744	31	2	0	0.3971606	0.5247695	92.11595	0	10.83	4002	0	0	5	5	0.3340819	0.1189697	1	10	0.03	1800	-4.171356	40.92395	-91.39362
728841	37	-3	2	0.3939642	0.5233439	92.11461	0	10.83	4003	0	0	5	5	0.3340819	0.113817	1	10	0.03	1800	-4.163116	40.92395	-91.39362
728860	37	-3	2	0.3953426	0.5214514	92.11406	0	10.83	4003	0	0	5	5	0.3340819	0.1078999	1	10	0.03	1800	-4.143829	40.92395	-91.39362
728972	34	0	3	0.3953179	0.5203375	92.11394	0	10.89	4003	0	0	5	5	0.3340819	0.1100059	1	10	0.03	1800	-4.367676	40.92395	-91.39362
729081	38	-3	2	0.3941017	0.5193945	92.1151	0	10.89	4004	0	0	5	5	0.3340819	0.1103287	1	10	0.03	1800	-4.162354	40.92395	-91.39362
729248	32	-7	3	0.3829324	0.5227091	92.11613	0	10.89	4003	0	0	5	5	0.3340819	0.1106193	1	10	0.03	1800	-4.145599	40.92395	-91.39362
729372	41	-3	1	0.3814095	0.5223382	92.11705	0	10.89	4002	0	0	5	5	0.3340819	0.1111161	1	10	0.03	1800	-4.121033	40.92395	-91.39362
729425	28	-2	-1	0.3820029	0.5184906	92.11754	0	10.89	4003	0	0	5	5	0.3340819	0.1147908	1	10	0.03	1800	-4.124512	40.92395	-91.39362
729534	40	4	-3	0.3837909	0.5183515	92.11705	0	10.89	4003	0	0	5	5	0.3340819	0.1168136	1	10	0.03	1800	-4.364532	40.92395	-91.39362
729644	36	-4	-3	0.3832467	0.5244187	92.11705	0	10.89	4004	0	0	5	5	0.3340819	0.1207361	1	10	0.03	1800	-4.361816	40.92395	-91.39362
729742	32	-3	0	0.3849885	0.5296512	92.11681	0	10.89	4002	0	0	5	5	0.3340819	0.1297437	1	10	0.03	1800	-4.363007	40.92395	-91.39362
729768	32	-1	1	0.3824407	0.5309904	92.11674	0	10.89	4003	0	0	5	5	0.3340819	0.1357555	1	10	0.03	1800	-4.128265	40.92395	-91.39362
729870	33	0	4	0.3753616	0.5298773	92.11613	0	10.89	4003	0	0	5	5	0.3340819	0.1445693	1	10	0.03	1800	-4.133698	40.92395	-91.39362
730001	43	2	0	0.3765267	0.5272731	92.11699	0	10.89	4003	0	0	5	5	0.3340819	0.1475495	1	10	0.03	1800	-4.132141	40.92394	-91.39362
730122	32	3	-1	0.3724576	0.5260707	92.11833	0	10.89	4003	0	0	5	5	0.3340819	0.1391539	1	10	0.03	1800	-4.330811	40.92394	-91.39362
730160	32	3	-1	0.3724576	0.5260707	92.11833	0	10.89	4003	0	0	5	5	0.3340819	0.1380604	1	10	0.03	1800	-4.330811	40.92394	-91.39362
730272	30	0	-1	0.3722644	0.5256467	92.11644	0	10.89	4004	0	0	5	5	0.3340819	0.1368013	1	10	0.03	1800	-4.331421	40.92394	-91.39362
730365	35	0	2	0.3717604	0.5224772	92.11784	0	10.89	4004	0	0	5	5	0.3340819	0.1369816	1	10	0.03	1800	-4.106384	40.92394	-91.39362
730468	27	0	5	0.3790459	0.5154755	92.11876	0	10.89	4002	0	0	5	5	0.3340819	0.1316711	1	10	0.03	1800	-4.112335	40.92394	-91.39362
730648	39	-3	1	0.377597	0.511237	92.1198	0	10.89	4003	0	0	5	5	0.3340819	0.1164142	1	10	0.03	1800	-4.337891	40.92394	-91.39362
730713	46	0	5	0.374442	0.5057953	92.11845	0	10.89	4003	0	0	5	5	0.3340819	0.1104211	1	10	0.03	1800	-4.33197	40.92394	-91.39362
730765	25	-4	1	0.3728717	0.5054393	92.11919	0	10.83	4002	0	0	5	5	0.3340819	0.1067845	1	10	0.03	1800	-4.336517	40.92394	-91.39362
730851	29	-3	0	0.3758556	0.5018983	92.11992	0	10.83	4004	0	0	5	5	0.3340819	0.1066715	1	10	0.03	1800	-4.33493	40.92394	-91.39362
730990	32	5	-2	0.3772876	0.4985422	92.12193	0	10.83	4003	0	0	5	5	0.3340819	0.105847	1	10	0.03	1800	-4.119324	40.92394	-91.39362
731069	34	6	-1	0.3823586	0.4943352	92.12254	0	10.83	4004	0	0	5	5	0.3340819	0.1052824	1	10	0.03	1800	-4.141327	40.92394	-91.39362
731272	35	1	-1	0.3859462	0.4923149	92.12474	0	10.83	4003	0	0	5	5	0.3340819	0.1011252	1	10	0.03	1800	-4.148682	40.92394	-91.39362
731442	32	1	-1	0.3745137	0.4967224	92.12505	0	10.83	4004	0	0	5	5	0.3340819	0.09616466	1	10	0.03	1800	-4.122345	40.92394	-91.39362
731488	27	3	2	0.3711365	0.4999238	92.12633	0	10.83	4003	0	0	5	5	0.3340819	0.09667202	1	10	0.03	1800	-4.115448	40.92394	-91.39362
731551	35	-2	0	0.3685161	0.5019069	92.1273	0	10.83	4004	0	0	5	5	0.3340819	0.0975396	1	10	0.03	1800	-4.348328	40.92394	-91.39362
731675	37	-4	0	0.3664542	0.5073351	92.1295	0	10.83	4004	0	0	5	5	0.3340819	0.09615146	1	10	0.03	1800	-4.558899	40.92394	-91.39362
731749	35	-1	-4	0.3723184	0.5086582	92.12981	0	10.83	4004	0	0	5	5	0.3340819	0.09525082	1	10	0.03	1800	-4.137451	40.92394	-91.39362
731879	34	0	-5	0.3743602	0.5029287	92.13139	0	10.83	4003	0	0	5	5	0.3340819	0.1031768	1	10	0.03	1800	-4.116852	40.92394	-91.39362
731953	33	2	1	0.3722205	0.5058722	92.13188	0	10.83	4004	0	0	5	5	0.3340819	0.103892	1	10	0.03	1800	-4.113068	40.92394	-91.39362
732116	35	0	0	0.3756281	0.5062758	92.1317	0	10.83	4004	0	0	5	5	0.3340819	0.1032736	1	10	0.03	1800	-4.330841	40.92394	-91.39362
732212	39	-6	0	0.3759073	0.5034891	92.13316	0	10.83	4002	0	0	5	5	0.3340819	0.1027225	1	10	0.03	1800	-4.10614	40.92394	-91.39362
732279	34	-2	-1	0.3796129	0.505272	92.1342	0	10.83	4003	0	0	5	5	0.3340819	0.1051214	1	10	0.03	1800	-4.342377	40.92393	-91.39362
732389	35	3	2	0.3786422	0.5044616	92.13438	0	10.83	4003	0	0	5	5	0.3340819	0.1072358	1	10	0.03	1800	-4.135956	40.92393	-91.39362
732484	39	-1	0	0.3777731	0.4988467	92.13457	0	10.83	4003	0	0	5	5	0.3340819	0.1095791	1	10	0.03	1800	-4.358276	40.92393	-91.39362
732531	33	3	0	0.3756035	0.4934498	92.13371	0	10.83	4003	0	0	5	5	0.3340819	0.1116731	1	10	0.03	1800	-4.353485	40.92393	-91.39362
732630	30	-6	-1	0.3734409	0.4992046	92.13414	0	10.83	4002	0	0	5	5	0.3340819	0.1174339	1	10	0.03	1800	-4.135559	40.92393	-91.39362
732725	36	-2	-1	0.374027	0.5058177	92.13481	0	10.83	4002	0	0	5	5	0.3340819	0.1225648	1	10	0.03	1800	-4.353058	40.92393	-91.39362
732824	34	-2	2	0.3782272	0.5051588	92.1356	0	10.83	4004	0	0	5	5	0.3340819	0.130094	1	10	0.03	1800	-4.130402	40.92393	-91.39362
732973	38	-2	3	0.3803543	0.5089305	92.13634	0	10.83	4003	0	0	5	5	0.3340819	0.1349728	3	10	0.03	1800	-4.138824	40.92393	-91.39362
733077	38	-3	-5	0.3823119	0.5131943	92.13573	0	10.83	4003	300	300	5	5	0.3340819	0.137661	8	10	0.03	1800	-4.139832	40.92393	-91.39362
733200	31	-3	0	0.3788717	0.5196499	92.13737	0	10.83	4003	300	300	5	5	0.3340819	0.1376631	8	10	0.03	1800	-4.341156	40.92393	-91.39362
733261	31	-6	3	0.3867576	0.5187928	92.13731	0	10.83	4002	300	300	5	5	0.3340819	0.1408507	8	10	0.03	1800	-4.15036	40.92393	-91.39362
733358	33	-2	1	0.3862702	0.5214586	92.13737	0	10.83	4002	300	300	5	5	0.3340819	0.1470064	8	10	0.03	1800	-4.370728	40.92393	-91.39362
733452	33	-1	2	0.3863196	0.5240587	92.13725	0	10.83	4002	300	300	5	5	0.3340819	0.1505855	8	10	0.03	1800	-4.350189	40.92393	-91.39362
733554	33	-2	0	0.389337	0.5269112	92.13634	0	10.83	4004	0	0	5	5	0.3340819	0.1499803	8	10	0.03	1800	-4.149994	40.92393	-91.39362
733657	31	-5	5	0.3793331	0.5283353	92.13719	0	10.83	4003	0	0	5	5	0.3340819	0.1478119	3	10	0.03	1800	-4.137878	40.92393	-91.39362
733793	30	-2	-1	0.3828278	0.5240448	92.13744	0	10.83	4003	0	0	5	5	0.3340819	0.1421701	3	10	0.03	1800	-4.362213	40.92393	-91.39362
733861	31	0	4	0.384932	0.5220109	92.1378	0	10.83	4003	0	0	5	5	0.3340819	0.1405853	3	10	0.03	1800	-4.362213	40.92393	-91.39362
733980	33	-6	-1	0.38589	0.5257295	92.13792	0	10.83	4002	0	0	5	5	0.3052013	0.1399202	8	10	0.03	1800	-4.124207	40.92393	-91.39362
734084	33	1	-2	0.3928821	0.5239258	92.13933	0	10.83	4003	0	0	5	5	0.215813	0.1434732	8	10	0.03	1800	-4.156982	40.92393	-91.39362
734169	43	0	0	0.398243	0.520112	92.14037	0	10.83	4003	0	0	5	5	0.1834109	0.1434844	8	10	0.03	1800	-4.162903	40.92393	-91.39362
734303	38	-5	0	0.4051191	0.5218986	92.14055	0	10.83	4004	-64	0	5	5	0.1359063	0.1401787	8	10	0.03	1800	-4.188721	40.92393	-91.39363
734394	40	-5	-1	0.4070905	0.521336	92.14287	0	10.83	4003	-38	0	5	5	0.1113455	0.136356	8	10	0.03	1800	-4.398621	40.92393	-91.39363
734514	37	0	-1	0.410871	0.5200658	92.14476	0	10.83	4004	-64	0	5	5	0.09344067	0.1363443	8	10	0.03	1800	-4.168976	40.92393	-91.39363
734612	33	-2	-4	0.407739	0.5215536	92.14659	0	10.83	4004	-64	0	5	5	0.07687684	0.1373452	8	10	0.03	1800	-4.387482	40.92393	-91.39363
734635	36	-1	-1	0.4056665	0.5194963	92.14836	0	10.83	4002	-64	0	5	5	0.07687684	0.1373452	8	10	0.03	1800	-4.176941	40.92393	-91.39363
734739	34	1	2	0.4032584	0.5257315	92.14958	0	10.83	4002	-64	0	5	5	0.06831302	0.1392179	8	10	0.03	1800	-4.191406	40.92393	-91.39363
734903	36	-6	0	0.3958937	0.5216365	92.14891	0	10.83	4004	-64	0	5	5	0.05887913	0.1395242	8	10	0.03	1800	-4.38504	40.92393	-91.39363
734975	36	-8	-2	0.3997761	0.5247585	92.14983	0	10.83	4003	-64	0	5	5	0.05629453	0.1354472	8	10	0.03	1800	-4.161621	40.92393	-91.39363
735092	38	-5	-4	0.4062101	0.5239756	92.15227	0	10.83	4003	-64	0	5	5	0.05250526	0.1359943	8	10	0.03	1800	-4.166504	40.92393	-91.39363
735163	31	4	0	0.4103826	0.5229961	92.15294	0	10.83	4003	-64	0	5	5	0.0511317	0.1377417	8	10	0.03	1800	-4.398102	40.92393	-91.39363
735248	38	0	0	0.419834	0.5223941	92.15471	0	10.83	4002	-64	0	5	5	0.05001912	0.1409154	8	10	0.03	1800	-4.192841	40.92393	-91.39363
735345	35	-6	-4	0.4219961	0.5173772	92.15672	0	10.83	4002	-64	0	5	5	0.04838796	0.1515169	8	10	0.03	1800	-4.181458	40.92393	-91.39363
735447	37	-12	2	0.423667	0.5283979	92.15868	0	10.83	4003	-76	0	5	5	0.04754462	0.1572954	8	10	0.03	1800	-4.203705	40.92393	-91.39363
735551	38	0	-2	0.4155096	0.5327234	92.16118	0	10.83	4002	-64	0	5	5	0.04711358	0.1581921	8	10	0.03	1800	-4.18222	40.92393	-91.39363
735706	38	0	-5	0.4183283	0.5309757	92.1624	0	10.83	4002	0	0	5	5	0.04636107	0.166021	3	10	0.03	1800	-4.186584	40.92393	-91.39363
735762	33	0	-3	0.4191291	0.5296625	92.16502	0	10.83	4003	0	0	5	5	0.04615491	0.1677157	3	10	0.03	1800	-4.186584	40.92393	-91.39363
735882	37	0	-1	0.421897	0.5252079	92.1685	0	10.83	4003	0	0	5	5	0.04585265	0.1694536	3	10	0.03	1800	-4.213928	40.92393	-91.39363
735965	36	-1	-7	0.4251746	0.523	92.17131	0	10.83	4002	0	0	5	5	0.04574309	0.1680655	3	10	0.03	1800	-4.428162	40.92393	-91.39363
736056	40	-7	-4	0.4232765	0.5161669	92.17253	0	10.83	4002	0	0	5	5	0.04561651	0.1631926	3	10	0.03	1800	-4.41153	40.92393	-91.39363
736176	37	1	-1	0.4288079	0.5117182	92.17473	0	10.89	4002	0	0	5	5	0.04549941	0.1557221	3	10	0.03	1800	-4.194946	40.92393	-91.39363
736295	37	-4	1	0.4313579	0.5134723	92.17589	0	10.89	4004	0	0	5	5	0.04545696	0.1502322	3	10	0.03	1800	-4.415894	40.92393	-91.39363
736405	41	-1	6	0.4273348	0.5116652	92.17693	0	10.89	4004	0	0	5	5	0.04538286	0.1456552	3	10	0.03	1800	-4.183472	40.92393	-91.39363
736470	42	-1	-1	0.4250416	0.5149322	92.17827	0	10.89	4003	0	0	5	5	0.04537217	0.1456088	3	10	0.03	1800	-4.430054	40.92393	-91.39363
736626	39	0	2	0.4255534	0.513868	92.17809	0	10.89	4004	0	0	5	5	0.0453391	0.140681	3	10	0.03	1800	-4.214996	40.92393	-91.39363
736720	40	-2	-2	0.4231361	0.5103152	92.17802	0	10.89	4002	0	0	5	5	0.0453174	0.1355712	3	10	0.03	1800	-4.430206	40.92393	-91.39363
736807	38	-3	-1	0.4242945	0.5150825	92.18016	0	10.89	4002	0	0	5	5	0.04530954	0.1362948	3	10	0.03	1800	-4.20401	40.92393	-91.39363
736896	41	0	0	0.42981	0.511812	92.18309	0	10.89	4003	0	0	5	5	0.04530045	0.1393543	3	10	0.03	1800	-4.2146	40.92393	-91.39363
736995	37	0	-2	0.4350937	0.5106754	92.18517	0	10.89	4004	0	0	5	5	0.04529382	0.1408663	3	10	0.03	1800	-4.421814	40.92393	-91.39363
737072	48	-6	1	0.4373988	0.5140941	92.18681	0	10.89	4003	0	0	5	5	0.04529044	0.141688	3	10	0.03	1800	-4.20932	40.92393	-91.39363
737214	39	-3	7	0.445381	0.5140767	92.18571	0	10.89	4002	0	0	5	5	0.04528452	0.1432269	3	10	0.03	1800	-4.45636	40.92393	-91.39363
737320	39	0	-4	0.4436617	0.520747	92.18864	0	10.89	4002	0	0	5	5	0.04528221	0.1531671	3	10	0.03	1800	-4.22934	40.92393	-91.39363
737364	43	-4	-1	0.4449227	0.5178649	92.18932	0	10.89	4003	0	0	5	5	0.04528159	0.1554277	3	10	0.03	1800	-4.237366	40.92393	-91.39363
737496	43	1	-3	0.445585	0.5105894	92.19133	0	10.89	4003	0	0	5	5	0.04527967	0.1539287	3	10	0.03	1800	-4.239807	40.92393	-91.39363
737592	35	-3	-4	0.4429534	0.5147122	92.19273	0	10.89	4003	0	0	5	5	0.04527867	0.1552788	3	10	0.03	1800	-4.457611	40.92393	-91.39363
737686	30	-2	0	0.4460794	0.5188954	92.19511	0	10.89	4004	0	0	5	5	0.04527795	0.1555038	3	10	0.03	1800	-4.236053	40.92393	-91.39363
737774	40	0	0	0.4468652	0.5131937	92.19499	0	10.89	4003	0	0	5	5	0.04527758	0.158005	3	10	0.03	1800	-4.237305	40.92393	-91.39363
737878	38	0	-3	0.4476243	0.5123935	92.19603	0	10.89	4004	0	0	5	5	0.04527715	0.1615522	3	10	0.03	1800	-4.242401	40.92393	-91.39363
737977	36	0	-6	0.4470197	0.5116668	92.19853	0	10.89	4002	0	0	5	5	0.04527675	0.1620961	3	10	0.03	1800	-4.225861	40.92393	-91.39363
738079	46	-1	-1	0.4405029	0.5130889	92.20226	0	10.89	4003	0	0	5	5	0.04527661	0.1613899	3	10	0.03	1800	-4.210815	40.92393	-91.39363
738206	37	-3	2	0.4413486	0.5123758	92.20293	0	10.89	4004	0	0	5	5	0.0452764	0.164325	3	10	0.03	1800	-4.436554	40.92393	-91.39363
738284	41	2	-3	0.4370818	0.507002	92.20439	0	10.89	4002	0	0	5	5	0.04527633	0.1681357	3	10	0.03	1800	-4.2258	40.92393	-91.39363
738395	37	-1	-2	0.4415745	0.5047551	92.20561	0	10.89	4002	0	0	5	5	0.04527621	0.1758091	3	10	0.03	1800	-4.21402	40.92393	-91.39363
738496	41	5	0	0.443255	0.4999532	92.20805	0	10.89	4004	0	0	5	5	0.04527615	0.1743712	3	10	0.03	1800	-4.233795	40.92393	-91.39363
738592	38	2	2	0.4405562	0.5012095	92.21037	0	10.89	4002	0	0	5	5	0.04527612	0.1705272	3	10	0.03	1800	-4.232727	40.92393	-91.39363
738710	37	-6	-3	0.4322731	0.504674	92.21123	0	10.89	4002	0	0	5	5	0.04527608	0.1693417	3	10	0.03	1800	-4.461487	40.92393	-91.39363
738821	40	0	0	0.4353366	0.504907	92.21385	0	10.89	4003	0	0	5	5	0.04527606	0.166082	3	10	0.03	1800	-4.208557	40.92393	-91.39363
738900	37	2	0	0.4374185	0.5025761	92.21367	0	10.89	4003	0	0	5	5	0.04527605	0.1648634	3	10	0.03	1800	-4.227844	40.92393	-91.39363
739039	36	-1	-4	0.4363241	0.5062074	92.21654	0	10.83	4004	0	0	5	5	0.04527603	0.1648979	3	10	0.03	1800	-4.667084	40.92393	-91.39363
739111	37	-2	-3	0.4349162	0.5025689	92.21642	0	10.83	4003	0	0	5	5	0.04527602	0.1667398	3	10	0.03	1800	-4.446777	40.92393	-91.39363
739223	38	-5	-4	0.4338172	0.5056717	92.22112	0	10.83	4004	0	0	5	5	0.04527602	0.1680648	3	10	0.03	1800	-4.443542	40.92393	-91.39364
739406	44	-4	1	0.4372281	0.502669	92.22777	0	10.83	4002	0	0	5	5	0.04527602	0.1785553	3	10	0.03	1800	-4.226593	40.92393	-91.39364
739473	45	-2	0	0.4442439	0.4983487	92.22954	0	10.83	4004	0	0	5	5	0.04527602	0.1793356	3	10	0.03	1800	-4.458008	40.92393	-91.39364
739598	40	-2	-3	0.4439942	0.4937271	92.22984	0	10.83	4003	0	0	5	5	0.04527602	0.1752964	3	10	0.03	1800	-4.239502	40.92393	-91.39364
739669	37	0	1	0.4463447	0.4909852	92.23082	0	10.83	4002	0	0	5	5	0.04527602	0.1690733	3	10	0.03	1800	-4.222473	40.92393	-91.39364
739725	35	-2	2	0.4526139	0.4913985	92.23314	0	10.83	4003	0	0	5	5	0.04527602	0.1561211	3	10	0.03	1800	-4.249908	40.92393	-91.39364
739830	41	1	0	0.4615802	0.4964367	92.23509	0	10.83	4004	0	0	5	5	0.04527602	0.1457763	3	10	0.03	1800	-4.257263	40.92393	-91.39364
739921	40	0	1	0.4661224	0.500231	92.23534	0	10.83	4003	0	0	5	5	0.04527602	0.1365891	3	10	0.03	1800	-4.287292	40.92393	-91.39364
740018	38	-4	-1	0.4596137	0.4966722	92.23692	0	10.83	4004	0	0	5	5	0.04527602	0.1284032	3	10	0.03	1800	-4.262573	40.92393	-91.39364
740130	38	-1	-4	0.4604715	0.5013239	92.2393	0	10.83	4003	0	0	5	5	0.04527602	0.1306927	3	10	0.03	1800	-4.264587	40.92393	-91.39364
740179	41	-4	0	0.4646118	0.5069661	92.23961	0	10.83	4002	0	0	5	5	0.04527602	0.1312556	3	10	0.03	1800	-4.245239	40.92393	-91.39364
740283	41	-3	-6	0.4600913	0.5063966	92.24236	0	10.83	4004	0	0	5	5	0.04527602	0.1319171	3	10	0.03	1800	-4.266632	40.92393	-91.39364
740473	51	-4	1	0.4576075	0.5108163	92.24492	0	10.83	4002	0	0	5	5	0.04536897	0.1251392	6	10	0.03	1800	-4.242096	40.92393	-91.39364
740548	34	-3	0	0.4603623	0.5104006	92.24388	0	10.83	4002	0	0	5	5	0.04541647	0.1248041	6	10	0.03	1800	-4.247009	40.92393	-91.39364
740644	34	-1	7	0.4569185	0.5055879	92.24529	0	10.83	4002	0	0	5	5	0.04548612	0.1207805	6	10	0.03	1800	-4.240021	40.92393	-91.39364
740690	40	2	2	0.4535328	0.5077259	92.24467	0	10.83	4004	0	0	5	5	0.04549941	0.1212736	6	10	0.03	1800	-4.240021	40.92393	-91.39364
740858	34	0	0	0.4597383	0.5067001	92.24718	0	10.89	4002	0	0	5	5	0.04495493	0.128967	6	10	0.03	1800	-4.26358	40.92393	-91.39364
740931	40	-3	0	0.4579188	0.5041642	92.24883	0	10.89	4003	0	0	5	5	0.04513489	0.1290863	6	10	0.03	1800	-4.24762	40.92393	-91.39364
741027	39	-3	-1	0.4570751	0.5045733	92.24889	0	10.89	4004	0	0	5	5	0.04523179	0.1267302	6	10	0.03	1800	-4.477112	40.92393	-91.39364
741068	42	0	-5	0.4575343	0.5036926	92.25023	0	10.89	4004	0	0	5	5	0.04527449	0.1269261	6	10	0.03	1800	-4.44574	40.92393	-91.39364
741167	45	-4	-7	0.4614636	0.5103896	92.25102	0	10.89	4003	0	0	5	5	0.04519635	0.128188	6	10	0.03	1800	-4.261566	40.92393	-91.39364
741246	38	0	-1	0.461006	0.5052716	92.25377	0	10.89	4004	0	0	5	5	0.0448822	0.1310188	6	10	0.03	1800	-4.466858	40.92392	-91.39364
741347	44	0	3	0.4573723	0.5110825	92.25523	0	10.89	4004	0	0	5	5	0.04444022	0.132496	6	10	0.03	1800	-4.261169	40.92393	-91.39364
741400	37	-1	-3	0.4558825	0.5074642	92.25816	0	10.89	4005	0	0	5	5	0.04475967	0.1311293	6	10	0.03	1800	-4.258484	40.92393	-91.39364
741569	42	2	-1	0.4610212	0.5069742	92.26244	0	10.89	4002	0	0	5	5	0.04511157	0.1362776	3	10	0.03	1800	-4.25943	40.92393	-91.39364
741639	40	-9	-3	0.4650892	0.509457	92.26292	0	10.89	4002	0	0	5	5	0.04516232	0.1383637	3	10	0.03	1800	-4.489441	40.92393	-91.39364
741736	45	0	-1	0.4694406	0.5065981	92.26555	0	10.89	4002	0	0	5	5	0.04531937	0.1523206	3	10	0.03	1800	-4.255768	40.92393	-91.39364
741866	51	5	-6	0.4764709	0.4987969	92.26994	0	10.89	4004	0	0	5	5	0.04542241	0.1495391	3	10	0.03	1800	-4.284241	40.92393	-91.39364
741993	42	-2	-2	0.4819973	0.5004293	92.27049	0	10.89	4003	0	0	5	5	0.04547568	0.1490698	3	10	0.03	1800	-4.532074	40.92393	-91.39364
742045	45	-4	-4	0.4826478	0.4986648	92.27287	0	10.89	4002	0	0	5	5	0.04550291	0.1509886	3	10	0.03	1800	-4.297485	40.92393	-91.39364
742129	42	-3	1	0.4777469	0.4947443	92.27397	0	10.89	4003	0	0	5	5	0.04553437	0.1571046	3	10	0.03	1800	-4.512146	40.92393	-91.39364
742189	39	0	-1	0.4786693	0.4990722	92.27501	0	10.89	4003	0	0	5	5	0.04555045	0.1572876	3	10	0.03	1800	-4.290161	40.92393	-91.39364
742306	38	1	0	0.4776039	0.4944341	92.27562	0	10.89	4004	0	0	5	5	0.04556902	0.155563	3	10	0.03	1800	-4.496552	40.92393	-91.39364
742391	38	7	1	0.4776292	0.4923608	92.27666	0	10.89	4002	0	0	5	5	0.04558257	0.1564174	3	10	0.03	1800	-4.524597	40.92393	-91.39364
742558	47	1	0	0.4752881	0.4958869	92.28008	0	10.89	4002	0	0	5	5	0.04559749	0.1532133	3	10	0.03	1800	-4.286041	40.92393	-91.39364
742645	48	1	-41	0.4686867	0.5024555	92.28178	0	10.89	4003	0	0	5	5	0.04560332	0.154154	3	10	0.03	1800	-4.228119	40.92393	-91.39364
742695	59	49	11	0.4820124	0.499641	92.29731	0	10.89	4002	0	0	5	5	0.04560489	0.1555278	3	10	0.03	1800	-4.944672	40.92393	-91.39364
742846	53	44	30	0.4588158	0.5084841	92.27645	0	10.89	4003	0	0	5	5	0.04560974	0.1628263	3	10	0.03	1800	-4.348022	40.92393	-91.39364
742902	64	-44	-49	0.4711365	0.5023704	92.28323	0	10.89	4003	0	0	5	5	0.0456115	0.1654656	3	10	0.03	1800	-4.401642	40.92393	-91.39364
743042	35	-10	-101	0.4731692	0.5125226	92.29013	0	10.89	4003	0	0	5	5	0.04561408	0.1716412	3	10	0.03	1800	-4.367737	40.92393	-91.39364
743104	-44	-35	-13	0.4675121	0.4865133	92.29252	0	10.89	4002	0	0	5	5	0.04561501	0.1786993	3	10	0.03	1800	-4.819519	40.92393	-91.39364
743202	0	-74	-176	0.4753212	0.4991257	92.30859	0	10.89	4003	0	0	5	5	0.04561638	0.1917384	3	10	0.03	1800	-5.068146	40.92393	-91.39364
743313	57	48	73	0.4688089	0.5124713	92.30449	0	10.89	4003	0	0	5	5	0.04561688	0.1908399	3	10	0.03	1800	-5.146484	40.92393	-91.39364
743424	67	-46	22	0.5050012	0.5191486	92.31396	0	10.89	4003	0	0	5	5	0.04561745	0.1993623	3	10	0.03	1800	-4.397797	40.92393	-91.39364
743580	-21	81	-188	0.4852832	0.5187798	92.32267	0	10.6	4003	0	0	5	5	0.04561809	0.2079693	3	10	0.03	1800	-4.984589	40.92393	-91.39364
743683	66	-62	39	0.4930076	0.54041	92.31036	0	10.6	4003	0	0	5	5	0.0456184	0.2026837	3	10	0.03	1800	-4.599182	40.92393	-91.39364
743743	0	-8	42	0.4831328	0.5291294	92.3046	0	10.6	4003	0	0	5	5	0.04561851	0.2016259	3	10	0.03	1800	-4.969757	40.92393	-91.39364
743821	78	-40	80	0.5052178	0.5579849	92.3159	0	10.6	4003	0	0	5	5	0.0456186	0.2026308	3	10	0.03	1800	-4.718933	40.92393	-91.39364
743906	132	0	63	0.4874859	0.5632475	92.32061	0	10.6	4002	0	0	5	5	0.04561868	0.2022459	3	10	0.03	1800	-4.865509	40.92393	-91.39364
744034	67	12	62	0.4823488	0.5778592	92.32801	0	10.6	4003	0	0	5	5	0.04561881	0.1984277	3	10	0.03	1800	-4.856171	40.92393	-91.39364
744147	-20	-1	-158	0.4734352	0.5869029	92.33595	0	10.6	4004	0	0	5	5	0.04561886	0.1930434	3	10	0.03	1800	-4.726166	40.92393	-91.39364
744257	68	14	-17	0.4967773	0.5612581	92.33217	0	10.6	4002	0	0	5	5	0.04561891	0.1899234	3	10	0.03	1800	-4.677673	40.92393	-91.39364
744382	115	60	6	0.5037383	0.5493482	92.33352	0	10.72	4002	0	0	5	5	0.04561893	0.1810348	3	10	0.03	1800	-4.127899	40.92393	-91.39364
744418	3	6	14	0.4935523	0.5556263	92.33334	0	10.72	4003	0	0	5	5	0.04561895	0.1761158	3	10	0.03	1800	-5.062622	40.92393	-91.39364
744516	28	29	-46	0.4606276	0.537851	92.33244	0	10.72	4002	0	0	5	5	0.04561896	0.1698115	3	10	0.03	1800	-4.826263	40.92393	-91.39364
744554	84	36	-27	0.4733421	0.534053	92.33927	0	10.72	4003	0	0	5	5	0.04561897	0.1689688	3	10	0.03	1800	-4.826263	40.92393	-91.39364
744697	43	23	-37	0.4780855	0.5445684	92.32777	0	10.72	4002	0	0	5	5	0.04561898	0.1684673	3	10	0.03	1800	-5.267578	40.92393	-91.39364
744753	212	-91	-4	0.4932845	0.5544168	92.33112	0	10.72	4004	0	0	5	5	0.04561898	0.1692459	3	10	0.03	1800	-4.535217	40.92393	-91.39364
744870	51	76	-70	0.4926818	0.5424243	92.33364	0	10.72	4003	0	0	5	5	0.04561898	0.1680547	3	10	0.03	1800	-4.408936	40.92393	-91.39364
744970	181	0	-67	0.5289541	0.5409097	92.33028	0	10.72	4002	0	0	5	5	0.04561898	0.1666475	3	10	0.03	1800	-4.671173	40.92393	-91.39364
745068	-138	13	1	0.5066323	0.5530092	92.31859	0	10.72	4004	0	0	5	5	0.04561898	0.1651093	3	10	0.03	1800	-4.869843	40.92393	-91.39364
745144	192	-72	242	0.5531344	0.5264218	92.31655	0	10.72	4003	0	0	5	5	0.04561898	0.1638284	3	10	0.03	1800	-5.247498	40.92393	-91.39364
745248	197	-84	189	0.5725411	0.5026888	92.31967	0	10.77	4002	0	0	5	5	0.04561898	0.1631661	3	10	0.03	1800	-4.260223	40.92393	-91.39364
745354	-278	16	76	0.5169001	0.4986936	92.32707	0	10.77	4004	0	0	5	5	0.04561898	0.1679664	3	10	0.03	1800	-4.769562	40.92393	-91.39364
745426	-45	-85	-52	0.5371855	0.5130931	92.30711	0	10.77	4004	0	0	5	5	0.04561898	0.1733236	3	10	0.03	1800	-4.547546	40.92393	-91.39364
745583	77	159	-34	0.5716544	0.5061786	92.31866	0	10.77	4003	0	0	5	5	0.04561898	0.1784856	3	10	0.03	1800	-4.590454	40.92393	-91.39364
745660	29	-112	270	0.5089207	0.5343431	92.29576	0	10.77	4002	0	0	5	5	0.04561898	0.1824454	3	10	0.03	1800	-4.590454	40.92393	-91.39364
745782	-186	-77	59	0.4463662	0.6009321	92.30775	0	10.77	4004	0	0	5	5	0.04561898	0.194457	3	10	0.03	1800	-5.308868	40.92393	-91.39363
745885	67	117	-156	0.4443263	0.5541192	92.30813	0	10.77	4003	0	0	5	5	0.04561898	0.2109311	3	10	0.03	1800	-4.380768	40.92393	-91.39363
745948	-172	-23	55	0.4462039	0.6450076	92.31228	0	10.77	4003	0	0	5	5	0.04561898	0.2144515	3	10	0.03	1800	-4.380768	40.92393	-91.39363
746059	229	-1	141	0.4808702	0.6554039	92.31176	0	10.77	4002	0	0	5	5	0.04561898	0.2199741	3	10	0.03	1800	-3.892059	40.92393	-91.39363
746125	-18	20	-338	0.4206755	0.6812564	92.35201	0	10.66	4004	0	0	5	5	0.04561898	0.2217415	3	10	0.03	1800	-4.339661	40.92393	-91.39363
746217	51	-159	-49	0.2568513	0.7784941	92.33607	0	10.66	4004	0	0	5	5	0.04561898	0.2265632	3	10	0.03	1800	-4.012024	40.92393	-91.39363
746405	244	35	-147	0.3020557	0.6789784	92.29536	0	10.66	4003	0	0	5	5	0.04561898	0.2575822	3	10	0.03	1800	-4.073486	40.92393	-91.39363
746479	131	121	-160	0.3217489	0.629615	92.16907	0	10.66	4003	0	0	5	5	0.04561898	0.2690936	3	10	0.03	1800	-4.7164	40.92393	-91.39363
746550	197	265	93	0.3473992	0.713697	92.12647	0	10.66	4004	0	0	5	5	0.04561898	0.2806199	3	10	0.03	1800	-5.116333	40.92393	-91.39363
746619	-60	50	118	0.4668697	0.7044812	92.11239	0	10.66	4003	0	0	5	5	0.04561898	0.2920818	3	10	0.03	1800	-4.741486	40.92393	-91.39363
746717	190	-44	500	0.5166733	0.6411558	92.19349	0	10.66	4002	0	0	5	5	0.04561898	0.3050753	3	10	0.03	1800	-5.14917	40.92393	-91.39363
746861	103	41	199	0.5474121	0.8417678	92.37008	0	10.66	4002	0	0	5	5	0.04561898	0.3242705	3	10	0.03	1800	-4.398224	40.92393	-91.39363
