time(ms)	gyro_x(deg/s)	gyro_y(deg/s)	gyro_z(deg/s)	orientation_roll(deg)	orientation_pitch(deg)	orientation_yaw(deg)	throttle	battery(V)	loop_time(uS)	pid_output_roll	pid_output_pitch	pid_output_yaw	pid_output_throttle	ultrasonic_alt	baro_alt	flight_mode	p_gain_altitude	i_gain_altitude	d_gain_altitude	compass_heading	latitude	longitude
747128	-338	190	213	0.8021465	0.527711	92.68948	0	10.72	4003	0	0	5	5	0.04561898	0.3432335	3	10	0.03	1800	-5.2565	40.92393	-91.39363
747195	194	258	-943	0.8454331	0.6335229	92.59133	0	10.72	4003	0	0	5	5	0.04561898	0.3533111	3	10	0.03	1800	-5.114502	40.92393	-91.39363
747258	183	-160	-476	0.6754411	0.4842899	92.60376	0	10.72	4004	0	0	5	5	0.04561898	0.3660289	3	10	0.03	1800	-5.123779	40.92393	-91.39363
747374	46	70	-582	0.6770849	0.5177298	92.41837	0	10.72	4004	0	0	5	5	0.04561898	0.3898018	3	10	0.03	1800	-4.956909	40.92393	-91.39363
747432	85	-260	31	0.6268675	0.6524132	92.35619	0	10.72	4004	0	0	5	5	0.04561898	0.3971328	3	10	0.03	1800	-4.956909	40.92393	-91.39363
747639	-196	-68	-644	0.7583277	0.4968697	92.15903	0	10.72	4004	0	0	5	5	0.04529313	0.3958512	6	10	0.03	1800	-5.634125	40.92393	-91.39363
747658	-224	-236	-641	0.663747	0.6103746	92.08425	0	10.72	4003	0	0	5	5	0.04529313	0.3958512	6	10	0.03	1800	-5.634125	40.92393	-91.39363
747786	-376	-7	-212	0.1235361	0.6316543	91.82827	0	10.72	4002	0	0	5	5	0.04478008	0.3916547	6	10	0.03	1800	-4.935944	40.92393	-91.39363
747843	-6	-223	-443	-0.4399695	0.3406891	91.53587	0	10.72	4002	0	0	5	5	0.04424657	0.3918367	6	10	0.03	1800	-4.651764	40.92393	-91.39363
748013	-294	-437	-827	-0.5806174	0.1991202	91.66643	0	10.38	4002	0	0	5	5	0.04094536	0.3681266	6	10	0.03	1800	-4.093475	40.92393	-91.39363
748066	-1213	-476	360	-1.023405	0.2528353	91.8143	0	10.38	4003	0	0	5	5	0.04110402	0.3639403	6	10	0.03	1800	-4.082703	40.92393	-91.39363
748204	72	-2034	-712	-3.306288	2.132068	91.92186	0	10.38	4004	0	0	5	5	0.04113108	0.3305359	6	10	0.03	1800	-4.671967	40.92393	-91.39363
748359	743	2632	-1229	-1.607648	1.111393	91.22464	0	10.38	4003	0	0	5	5	0.04486213	0.3093277	6	10	0.03	1800	-5.813416	40.92393	-91.39363
748427	1212	3542	1069	-0.3554072	-2.369334	91.31614	0	10.38	4002	0	0	5	5	0.05037389	0.3018666	6	10	0.03	1800	-6.149567	40.92393	-91.39363
748539	-44	-1005	248	2.100671	-3.703695	92.60871	0	10.38	4004	0	0	5	5	0.07251465	0.2994164	6	10	0.03	1800	-5.557098	40.92393	-91.39363
748560	-1104	-1752	-302	1.355943	-2.928101	92.77898	0	10.38	4004	0	0	5	5	0.07251465	0.2994164	6	10	0.03	1800	-5.557098	40.92393	-91.39363
748665	-590	-3076	-938	-0.4433269	-1.322394	93.17339	0	10.38	4002	0	0	5	5	0.09980445	0.3072084	6	10	0.03	1800	-4.118958	40.92393	-91.39363
748757	1384	2984	829	1.017236	-2.04551	92.27796	0	10.38	4003	0	0	5	5	0.1273208	0.3112846	6	10	0.03	1800	-3.082642	40.92393	-91.39363
748937	-1105	-2714	765	0.16553	-3.338588	92.30878	0	10.6	4004	0	0	5	5	0.1748478	0.3246773	8	10	0.03	1800	-3.095245	40.92393	-91.39363
748965	-3130	-3241	319	-1.040291	-0.9051727	92.62479	0	10.6	4003	0	0	5	5	0.1748478	0.3246773	8	10	0.03	1800	-4.348694	40.92393	-91.39363
749102	1456	-1232	-1208	-0.7124177	-0.05096853	92.40131	0	10.6	4003	0	0	5	5	0.2168795	0.357481	8	10	0.03	1800	-7.12149	40.92393	-91.39363
749207	485	2818	-671	-0.2957448	-1.98372	92.45152	0	10.6	4002	0	0	5	5	0.2333042	0.3842659	8	10	0.03	1800	-5.059387	40.92393	-91.39363
749258	1236	837	712	0.7126988	-2.770643	92.26699	0	10.6	4004	0	0	5	5	0.2416989	0.4094396	8	10	0.03	1800	-4.287903	40.92393	-91.39363
749406	50	-1539	-875	1.016426	-2.110479	91.27143	0	10.6	4003	0	0	5	5	0.2563545	0.4869289	8	10	0.03	1800	-5.292969	40.92393	-91.39363
749465	492	95	-747	0.7288322	-2.332674	91.00976	0	10.6	4003	0	0	5	5	0.2584677	0.4955892	8	10	0.03	1800	-5.040039	40.92393	-91.39363
749590	-1067	1638	769	2.060828	-5.138799	93.05649	0	10.6	4003	0	0	5	5	0.2662563	0.561855	8	10	0.03	1800	-5.717957	40.92393	-91.39363
749749	-69	191	1522	0.3917293	-6.54434	93.90624	0	10.6	4002	0	0	5	5	0.2692998	0.6051135	8	10	0.03	1800	-5.074799	40.92393	-91.39363
749805	-222	-1035	377	-0.08298966	-4.841538	93.147	0	10.6	4003	0	0	5	5	0.2708554	0.6411666	8	10	0.03	1800	-4.523193	40.92393	-91.39363
749969	-650	-1107	-153	-0.4458899	-2.604262	91.39693	0	10.32	4003	0	0	5	5	0.2735711	0.7326487	8	10	0.03	1800	-3.966431	40.92393	-91.39363
750054	109	1191	-578	-0.5016221	-2.51169	91.98602	0	10.32	4003	0	0	5	5	0.2746323	0.7969302	8	10	0.03	1800	-4.529755	40.92393	-91.39363
750167	-322	-684	877	-1.10346	-3.786647	93.10719	0	10.32	4003	0	0	5	5	0.2756141	0.8642571	8	10	0.03	1800	-2.875854	40.92393	-91.39363
750223	1573	582	1005	-0.06948704	-3.628828	93.08312	0	10.32	4003	0	25	5	5	0.2758014	0.8790105	8	10	0.03	1800	-2.663116	40.92394	-91.39363
750305	-398	-1577	-119	0.1739204	-3.09824	92.98933	0	10.32	4002	0	32	5	5	0.2761216	0.927936	8	10	0.03	1800	-1.874847	40.92394	-91.39363
750414	-508	-1082	705	-0.5503583	0.7631564	93.07946	0	10.32	4003	0	32	5	5	0.2764916	1.01771	8	10	0.03	1800	-1.598419	40.92394	-91.39363
750480	-662	189	1760	-0.5687037	1.028784	92.91961	0	10.32	4002	0	32	5	5	0.2767614	1.09299	8	10	0.03	1800	-1.598419	40.92394	-91.39363
750593	-152	2882	2478	-0.7141418	-1.508214	92.28307	0	10.32	4003	0	32	5	5	0.276958	1.169852	8	10	0.03	1800	-2.865326	40.92394	-91.39363
750676	1246	-3512	-820	-2.211158	-0.1951668	91.94567	0	10.32	4004	0	32	5	5	0.2770585	1.231544	8	10	0.03	1800	-2.726044	40.92394	-91.39363
750800	-311	-2156	-1435	-1.143282	1.425402	92.30252	0	9.13	4003	0	32	5	5	0.277234	1.381105	8	10	0.03	1800	0.3926201	40.92394	-91.39363
750891	-150	520	1137	-1.731481	0.897853	91.93375	0	9.13	4002	0	32	5	5	0.277282	1.443658	8	10	0.03	1800	0.08812061	40.92394	-91.39363
750985	1352	695	-103	-0.4689401	0.8633674	91.9476	0	9.13	4003	0	32	5	5	0.2773376	1.526659	8	10	0.03	1800	-0.8150635	40.92394	-91.39363
751194	434	-2383	-1365	-0.5754007	-0.4230583	92.64342	0	9.13	4003	0	32	5	5	0.2773987	1.678728	8	10	0.03	1800	0.7893568	40.92394	-91.39363
751236	504	-2026	-703	-0.2184032	1.069073	93.20213	0	9.13	4003	0	32	5	5	0.2774155	1.839334	8	10	0.03	1800	1.053333	40.92394	-91.39363
751335	253	183	11	0.1419551	1.242719	93.37717	0	9.13	4003	0	0	5	5	0.2774349	1.906976	8	10	0.03	1800	3.854871	40.92393	-91.39363
751407	-994	760	1089	-0.9683824	1.247738	92.75292	0	9.13	4003	0	0	5	5	0.2774448	1.934718	8	10	0.03	1800	4.421758	40.92393	-91.39363
751534	642	1357	78	-0.7118684	-2.840953	92.48396	0	9.13	4002	0	0	5	5	0.2774593	2.017564	8	10	0.03	1800	6.472216	40.92393	-91.39363
751682	1573	-5	-1556	-0.7966308	-6.199439	92.87466	0	9.3	4002	0	0	5	5	0.2774688	2.078924	8	10	0.03	1800	5.805466	40.92393	-91.39363
751739	2276	-890	-1976	-0.1207663	-6.69791	93.2724	0	9.3	4003	0	0	5	5	0.2774737	2.114429	8	10	0.03	1800	5.805466	40.92393	-91.39363
751851	-797	-2859	-487	1.748433	-2.895458	94.27421	0	9.3	4003	0	0	5	5	0.2774773	2.140296	8	10	0.03	1800	9.380316	40.92393	-91.39363
751940	-635	-2076	100	-0.657281	0.2568808	93.32684	0	9.3	4003	0	-64	5	5	0.2774799	2.170606	8	10	0.03	1800	9.053362	40.92393	-91.39363
751998	117	750	1268	-0.5660525	-0.2557568	92.49178	0	9.3	4004	0	-64	5	5	0.2774813	2.185499	8	10	0.03	1800	8.5261	40.92393	-91.39363
752178	223	3634	-7	-1.557474	-9.98198	91.88544	0	9.3	4003	0	-64	5	5	0.2774832	2.234306	8	10	0.03	1800	14.74823	40.92393	-91.39363
752201	223	3634	-7	-1.557474	-9.98198	91.88544	0	9.3	4003	0	-64	5	5	0.2774836	2.241221	8	10	0.03	1800	14.74823	40.92393	-91.39363
752304	-2096	5418	356	-2.845133	-16.45783	92.03815	0	9.3	4003	0	-96	5	5	0.2774847	2.279333	8	10	0.03	1800	10.10208	40.92392	-91.39363
752402	-603	5170	-763	-4.34329	-20.81396	91.93559	0	9.3	4003	0	-96	5	5	0.2774852	2.292836	8	10	0.03	1800	8.447936	40.92392	-91.39363
752547	700	1745	-225	-6.379275	-26.5497	92.02835	0	9.3	4002	0	-128	5	5	0.2774859	2.325874	8	10	0.03	1800	-2.433014	40.92392	-91.39363
752655	50	2489	-1092	-5.190261	-27.59877	92.72193	0	10.15	4003	0	-160	5	5	0.2774861	2.342094	8	10	0.03	1800	-2.723206	40.92392	-91.39363
752747	1970	-4187	-108	-3.295111	-21.65484	92.91809	0	10.15	4008	0	-160	5	5	0.2774864	2.365311	8	10	0.03	1800	-4.460632	40.92392	-91.39363
752822	-151	-2101	-115	-1.919463	-16.71214	92.81107	0	10.15	4002	0	-160	5	5	0.2774865	2.378959	8	10	0.03	1800	-4.755402	40.92391	-91.39363
752965	494	1021	511	-0.9490197	-14.90555	92.12503	0	10.15	4003	0	-192	5	5	0.2774867	2.402129	8	10	0.03	1800	-3.381073	40.92391	-91.39363
753063	1969	935	-1206	0.598691	-15.79439	92.49687	0	10.15	4002	0	-192	5	5	0.2774867	2.419879	8	10	0.03	1800	-5.02179	40.92391	-91.39363
753116	-1066	1898	937	0.1108773	-17.24962	92.79154	0	10.15	4002	0	-192	5	5	0.2774868	2.427172	8	10	0.03	1800	-3.734558	40.92391	-91.39363
753210	614	917	699	-1.33507	-15.63253	92.58308	0	10.15	4003	64	-192	5	5	0.2774869	2.430601	8	10	0.03	1800	-3.708344	40.92391	-91.39362
753415	-1985	-4330	1091	-3.655229	-4.714109	92.55077	0	10.15	4004	64	-192	5	5	0.2774869	2.444634	8	10	0.03	1800	-2.820709	40.92391	-91.39362
753501	445	-3342	-654	-3.784264	-1.547445	92.64206	0	10.15	4004	64	-192	5	5	0.2774869	2.451234	8	10	0.03	1800	-2.424774	40.92391	-91.39362
753601	-1806	543	-311	-3.505718	0.05873518	92.31354	0	9.41	4004	64	-192	5	5	0.2774869	2.452693	8	10	0.03	1800	-3.105438	40.92391	-91.39362
753717	-267	846	-675	-5.921222	-8.117002	91.7671	0	9.41	4003	64	-192	5	5	0.2774869	2.460313	8	10	0.03	1800	-4.228577	40.92392	-91.39362
753897	-2363	1775	1725	-4.347513	-11.82116	91.58949	0	9.41	4003	64	-160	5	5	0.2774869	2.467838	8	10	0.03	1800	-4.985046	40.92392	-91.39362
753931	-2407	423	-1444	-5.644535	-12.4084	91.80335	0	9.41	4003	64	-128	5	5	0.2774869	2.469436	8	10	0.03	1800	-4.985046	40.92392	-91.39362
754040	967	-1886	-1742	-5.130448	-10.57376	93.02335	0	9.41	4004	64	-128	5	5	0.2774869	2.475317	8	10	0.03	1800	-6.807587	40.92392	-91.39362
754109	-308	-1831	-403	-4.545615	-11.53677	92.80374	0	9.41	4003	64	-128	5	5	0.2774869	2.487096	8	10	0.03	1800	-8.211182	40.92392	-91.39362
754146	-102	-8543	237	-5.294228	-1.620195	92.85737	0	9.41	4003	64	-96	5	5	0.2774869	2.511853	8	10	0.03	1800	-8.296722	40.92392	-91.39362
754167	234	-5732	1353	-4.349799	7.496051	93.08085	0	9.41	4003	76	-115	5	5	0.2774869	2.526199	8	10	0.03	1800	-9.339996	40.92392	-91.39362
754276	-320	1834	2218	-4.929184	9.145667	91.99198	0	9.41	4002	64	-96	5	5	0.2774869	2.552772	8	10	0.03	1800	-8.671234	40.92393	-91.39363
754427	2100	3132	622	-3.745238	2.368187	90.86071	0	9.7	4002	0	-64	5	5	0.2774869	2.609128	8	10	0.03	1800	-11.01096	40.92393	-91.39363
754488	368	2423	-69	-2.555726	-0.9700994	90.93481	0	9.7	4004	0	-64	5	5	0.2774869	2.616651	8	10	0.03	1800	-11.00287	40.92393	-91.39363
754611	1413	-570	-468	-2.235995	-1.48994	92.40351	0	9.7	4003	0	0	5	5	0.2774869	2.648371	8	10	0.03	1800	-12.69907	40.92393	-91.39363
754669	1208	-588	660	-1.390491	-1.025017	92.81598	0	9.7	4004	0	0	5	5	0.2774869	2.658867	8	10	0.03	1800	-12.69907	40.92393	-91.39363
754768	-148	498	1133	0.557121	-2.515049	93.27262	0	9.7	4003	0	0	5	5	0.2774869	2.670697	8	10	0.03	1800	-15.56036	40.92393	-91.39363
754860	-803	-3517	-168	-0.5375136	-1.613345	92.64565	0	9.7	4004	0	64	5	5	0.2774869	2.667345	8	10	0.03	1800	-13.69714	40.92394	-91.39363
754986	1978	-2279	357	-0.4448655	11.03389	92.35481	0	9.7	4004	0	64	5	5	0.2774869	2.647523	8	10	0.03	1800	-12.71014	40.92394	-91.39363
755050	977	-2305	-638	0.3330838	11.09819	92.45171	0	9.7	4003	-64	128	5	5	0.2774869	2.621668	8	10	0.03	1800	-15.50201	40.92395	-91.39364
755160	198	2208	1436	1.610619	6.472756	92.37971	0	9.7	4004	-64	128	5	5	0.2774869	2.589697	8	10	0.03	1800	-19.49454	40.92395	-91.39364
755243	1541	-2348	-1371	1.599707	7.081027	92.89378	0	9.75	4003	-64	128	5	5	0.2774869	2.556651	8	10	0.03	1800	-16.58945	40.92395	-91.39364
755356	240	4117	843	3.650628	3.40046	92.50965	0	9.75	4003	-64	128	5	5	0.2774869	2.471522	8	10	0.03	1800	-19.90945	40.92395	-91.39364
755452	-502	6412	2745	2.878663	-3.594325	91.5197	0	9.75	4004	-128	128	5	5	0.2774869	2.396435	8	10	0.03	1800	-11.84399	40.92395	-91.39365
755543	1325	4637	1296	3.059173	-5.706376	91.34867	0	9.75	4004	-128	128	5	5	0.2774869	2.187474	8	10	0.03	1800	-11.84399	40.92395	-91.39365
755658	3127	3604	-325	6.958834	-11.26593	92.47025	0	9.75	4003	-128	128	5	5	0.2774869	2.142426	8	10	0.03	1800	3.520131	40.92395	-91.39365
755760	-957	-3389	1622	6.923717	-7.161299	93.44682	0	9.75	4003	-192	128	5	5	0.2774869	1.914763	8	10	0.03	1800	9.505807	40.92395	-91.39365
755834	1467	-2697	-1527	6.392542	-2.508816	93.3399	0	9.75	4003	-192	128	5	5	0.2774869	1.861567	8	10	0.03	1800	13.36108	40.92395	-91.39365
755969	1623	-1979	-290	10.52948	0.1836808	93.69829	0	9.75	4002	-192	128	5	5	0.2774869	1.675297	8	10	0.03	1800	19.59678	40.92395	-91.39365
756085	961	630	795	8.787514	1.623352	92.99866	0	9.75	4002	-192	128	5	5	0.2774869	1.558414	8	10	0.03	1800	29.58169	40.92395	-91.39365
756179	-642	2783	1573	10.06735	1.240683	93.10422	0	9.36	4003	-192	128	5	5	0.2774869	1.387414	8	10	0.03	1800	38.16897	40.92395	-91.39365
756306	-2159	1542	232	3.592847	-4.872277	92.20791	0	9.36	4004	-192	96	5	5	0.2774869	1.304621	8	10	0.03	1800	43.00672	40.92395	-91.39365
756350	-1576	623	-1568	0.3058925	-5.812465	92.99806	0	9.36	4002	-192	96	5	5	0.2774869	1.243503	8	10	0.03	1800	36.83577	40.92395	-91.39365
756482	-240	-379	-2994	-3.825388	-7.036045	94.19204	0	9.36	4002	-128	64	5	5	0.2774869	1.090348	8	10	0.03	1800	33.32176	40.92394	-91.39365
756517	-27	2702	198	-3.678388	-7.637895	94.67832	0	9.36	4002	-128	64	5	5	0.2774869	1.072223	8	10	0.03	1800	33.32176	40.92394	-91.39365
756537	-3697	159	703	-7.552219	-8.39631	96.00484	0	9.36	4002	-128	64	5	5	0.2774869	1.017455	8	10	0.03	1800	28.31995	40.92394	-91.39365
756651	-546	2570	936	-8.247235	-10.141	95.27588	0	9.36	4003	-128	32	5	5	0.2774869	0.9141895	8	10	0.03	1800	19.69534	40.92394	-91.39365
756742	360	3513	1798	-7.674764	-13.15596	94.11904	0	9.36	4002	-128	32	5	5	0.2774869	0.8418196	8	10	0.03	1800	19.69534	40.92393	-91.39365
756871	-1341	3771	124	-6.066661	-16.33214	93.4485	0	9.36	4002	-153	0	5	5	0.2774869	0.7484052	8	10	0.03	1800	14.12123	40.92393	-91.39365
756968	-436	3739	-1067	-6.575183	-21.61835	93.6412	0	8.79	4002	-64	0	5	5	0.2774869	0.7075956	8	10	0.03	1800	7.740067	40.92393	-91.39364
757081	-128	1442	654	-6.375223	-24.70177	93.90959	0	8.79	4002	-64	0	5	5	0.2774869	0.6455439	8	10	0.03	1800	1.256571	40.92393	-91.39364
757215	1934	-5051	-2092	-5.132499	-16.89725	93.64294	0	8.79	4002	-64	-32	5	5	0.2774869	0.5912632	8	10	0.03	1800	1.871307	40.92393	-91.39364
757305	-628	838	1213	0.4585353	-10.87171	92.55405	0	8.79	4003	-64	-32	5	5	0.2774869	0.5725573	8	10	0.03	1800	0.4962471	40.92393	-91.39364
757441	78	-882	-692	-1.200778	-11.13083	90.4819	0	8.79	4002	-64	-64	5	5	0.2774869	0.5368798	8	10	0.03	1800	3.879669	40.92393	-91.39364
757494	881	-305	599	-0.5824089	-10.2419	90.39892	0	8.79	4003	0	-64	5	5	0.2774869	0.526403	8	10	0.03	1800	3.879669	40.92393	-91.39363
757583	-587	-2223	-1825	0.2439407	-6.025349	91.31833	0	8.79	4003	0	-64	5	5	0.2774869	0.5147204	8	10	0.03	1800	3.475419	40.92393	-91.39363
757640	-291	-1900	-2025	-0.4553763	-5.217247	91.47224	0	8.79	4003	0	-64	5	5	0.2774869	0.5056089	8	10	0.03	1800	2.961371	40.92393	-91.39363
757766	952	1401	-353	0.2551548	-5.811399	92.02105	0	8.79	4003	0	-64	5	5	0.2774869	0.4746087	8	10	0.03	1800	3.086031	40.92393	-91.39363
757837	-216	914	-450	1.031445	-7.430642	91.70477	0	9.53	4002	0	-64	5	5	0.2774869	0.4699972	8	10	0.03	1800	2.037582	40.92393	-91.39363
757985	-107	-1408	-1772	2.246897	-5.934797	92.04337	0	9.53	4003	0	-64	5	5	0.2774869	0.471467	8	10	0.03	1800	0.5943638	40.92393	-91.39363
758104	-2306	-417	154	-0.6866918	-6.747077	91.9368	0	9.53	4004	64	-64	5	5	0.2774869	0.4824065	8	10	0.03	1800	-0.460144	40.92393	-91.39362
758309	14	259	-97	-1.806432	-4.903048	92.06181	0	9.53	4002	64	-32	5	5	0.2774869	0.5090715	8	10	0.03	1800	-0.2167664	40.92393	-91.39362
758420	-612	1271	1363	-3.641126	-5.191691	92.7848	0	9.53	4003	51	-25	5	5	0.2774869	0.5308275	8	10	0.03	1800	-1.230103	40.92393	-91.39362
758481	-1711	1462	1386	-4.502449	-5.862051	91.98491	0	9.53	4003	64	-32	5	5	0.2774869	0.5368718	8	10	0.03	1800	-1.078644	40.92393	-91.39362
758614	60	-542	993	-5.834592	-4.60017	90.80901	0	9.53	4002	25	0	5	5	0.2774869	0.5706174	8	10	0.03	1800	-1.82486	40.92393	-91.39362
758669	-2745	-1596	770	-5.207522	-1.675347	90.6862	0	9.53	4003	153	0	5	5	0.2774869	0.5738008	8	10	0.03	1800	-2.44339	40.92393	-91.39362
758807	160	1065	-1969	-8.719562	-2.911877	91.06663	0	8.33	4004	128	0	5	5	0.2774869	0.5877125	8	10	0.03	1800	-2.675354	40.92393	-91.39362
758881	546	-1545	-2041	-7.304654	-4.457957	92.07076	0	8.33	4003	128	0	5	5	0.2774869	0.5953217	8	10	0.03	1800	-6.721313	40.92393	-91.39362
758927	763	-1855	-2211	-7.007089	-4.327199	92.57933	0	8.33	4002	128	0	5	5	0.2774869	0.6009969	8	10	0.03	1800	-6.721313	40.92394	-91.39362
759116	-82	-984	-300	-7.902949	0.08938384	93.09737	0	8.33	4002	128	64	5	5	0.2774869	0.6112757	8	10	0.03	1800	-11.15796	40.92394	-91.39362
759136	-82	-984	-300	-7.902949	0.08938384	93.09737	0	8.33	4002	128	64	5	5	0.2774869	0.6174628	8	10	0.03	1800	-11.15796	40.92394	-91.39362
759304	-2174	-2764	-1057	-7.622907	-0.3591107	92.7596	0	8.33	4002	128	64	5	5	0.2774869	0.6221411	8	10	0.03	1800	-12.4621	40.92394	-91.39362
759372	-1069	-3057	-536	-8.972928	2.545898	92.67072	0	8.33	4003	128	64	5	5	0.2774869	0.6319682	8	10	0.03	1800	-14.97647	40.92394	-91.39362
759460	-3	1858	1038	-8.581977	2.271201	92.84647	0	8.33	4004	128	64	5	5	0.2774869	0.6434277	8	10	0.03	1800	-17.46664	40.92394	-91.39362
759641	-573	927	814	-8.642292	-2.163865	91.71728	0	8.33	4004	64	64	5	5	0.2774869	0.6617776	8	10	0.03	1800	-20.02563	40.92394	-91.39362
759761	1950	-3379	-2271	-6.794922	-0.5476202	92.80164	0	9.47	4003	64	96	5	5	0.2774869	0.6889811	8	10	0.03	1800	-22.72522	40.92395	-91.39362
759847	1424	-409	1102	-4.857178	1.530542	93.23438	0	9.47	4003	64	128	5	5	0.2774869	0.7056865	8	10	0.03	1800	-22.72522	40.92395	-91.39362
759911	2125	-1270	-56	-2.949384	2.097143	93.3178	0	9.47	4002	64	128	5	5	0.2774869	0.7094272	8	10	0.03	1800	-26.16971	40.92395	-91.39362
760014	1392	511	516	1.61786	-0.1741048	92.42503	0	9.47	4002	0	128	5	5	0.2774869	0.7124902	8	10	0.03	1800	-24.3689	40.92395	-91.39363
760147	2587	-666	-428	5.303675	2.06952	91.7851	0	9.47	4003	0	128	5	5	0.2774869	0.6962755	8	10	0.03	1800	-16.72089	40.92395	-91.39363
760264	1043	3722	715	6.38921	-0.1495339	91.80657	0	9.47	4004	0	128	5	5	0.2774869	0.6700788	8	10	0.03	1800	-19.20569	40.92395	-91.39363
760325	1196	-672	-1795	5.183777	-3.375919	92.31205	0	9.47	4004	0	128	5	5	0.2774869	0.6477925	8	10	0.03	1800	-7.965454	40.92395	-91.39363
760463	2155	-1307	-318	3.479182	-11.88882	84.27884	0	9.47	4003	-64	128	5	5	0.2774869	0.5627616	8	10	0.03	1800	5.551219	40.92395	-91.39364
760521	3597	-9086	-2416	5.691616	-3.83646	86.80174	0	9.47	4002	-64	128	5	5	0.2774869	0.5481595	8	10	0.03	1800	8.898725	40.92395	-91.39364
760665	-2067	-335	-1660	5.270631	7.644085	94.14635	0	8.85	4002	-128	96	5	5	0.2774869	0.4750426	8	10	0.03	1800	16.75652	40.92395	-91.39365
760784	-169	3174	620	2.555413	2.135026	95.21574	0	8.85	4004	-128	64	5	5	0.2774869	0.4289472	8	10	0.03	1800	20.96239	40.92394	-91.39365
760810	1292	1090	936	3.620785	-0.9427571	95.02448	0	8.85	4004	-128	64	5	5	0.2774869	0.4177996	8	10	0.03	1800	20.69188	40.92394	-91.39365
760850	995	-2561	1181	4.879001	0.3591756	94.14071	0	8.85	4003	-128	64	5	5	0.2774869	0.4093271	8	10	0.03	1800	19.25848	40.92394	-91.39365
761025	52	5623	529	2.516387	-2.786298	91.29059	0	8.85	4004	-192	32	5	5	0.2774869	0.3942151	8	10	0.03	1800	31.81404	40.92394	-91.39365
761103	-1800	4053	181	0.9817882	-10.76162	91.36653	0	8.85	4003	-128	32	5	5	0.2774869	0.392134	8	10	0.03	1800	28.63919	40.92394	-91.39365
761147	-2752	2803	-1125	-0.4364128	-12.29677	91.4879	0	8.85	4003	-128	32	5	5	0.2774869	0.3899519	8	10	0.03	1800	28.63919	40.92394	-91.39365
761296	-2938	-979	-744	-9.303007	-8.068005	94.39055	0	8.85	4003	-128	0	5	5	0.2774869	0.3781506	8	10	0.03	1800	20.14137	40.92393	-91.39365
761389	-3806	1031	-489	-11.97661	-6.961985	95.59592	0	8.85	4002	-128	0	5	5	0.2774869	0.370384	8	10	0.03	1800	14.74045	40.92393	-91.39365
761518	-4135	3384	449	-19.13884	-11.45483	97.17139	0	9.02	4003	0	0	5	5	0.2774869	0.3471689	3	10	0.03	1800	2.527165	40.92393	-91.39365
761574	-4577	924	486	-23.44196	-13.53258	97.70119	0	9.02	4002	0	0	5	5	0.2774869	0.3199711	1	10	0.03	1800	-5.57608	40.92393	-91.39364
761700	14010	-872	-458	3.380914	-4.625483	100.1013	0	9.02	4004	0	0	5	5	0.2774869	0.2712614	1	10	0.03	1800	12.18203	40.92393	-91.39364
761768	-2468	-210	-1016	10.35374	-6.140392	102.6581	0	9.02	4004	0	0	5	5	0.2774869	0.2314915	1	10	0.03	1800	9.348701	40.92393	-91.39364
761839	-6676	-381	1251	8.616998	-6.2271	102.3819	0	9.02	4003	0	0	5	5	0.2774869	0.2012062	1	10	0.03	1800	5.971483	40.92393	-91.39364
761966	110	52	-270	1.367338	-4.499226	101.2239	0	9.02	4004	0	0	5	5	0.2774869	0.1460534	1	10	0.03	1800	1.53497	40.92392	-91.39364
762029	8	110	55	1.68885	-3.950552	101.2069	0	9.02	4002	0	0	5	5	0.2774869	0.09955722	1	10	0.03	1800	1.418443	40.92392	-91.39364
762123	-40	3	39	1.951971	-3.460749	101.2053	0	9.02	4003	0	0	5	5	0.2774869	0.06457263	1	10	0.03	1800	1.152616	40.92392	-91.39364
762237	-3	32	27	2.315364	-2.817833	101.184	0	9.02	4002	0	0	5	5	0.2774869	0.02053833	1	10	0.03	1800	0.3703226	40.92392	-91.39365
762329	-1	-11	18	2.624101	-2.234395	101.1688	0	9.36	4004	0	0	5	5	0.2774869	-0.003144603	1	10	0.03	1800	-0.290863	40.92392	-91.39365
762435	-20	6	0	2.892364	-1.723995	101.1513	0	9.36	4003	0	0	5	5	0.2774869	-0.03497529	1	10	0.03	1800	-0.7384033	40.92392	-91.39365
762554	-14	0	15	3.202272	-1.133421	101.1301	0	9.36	4003	0	0	5	5	0.2774869	-0.06340728	1	10	0.03	1800	-1.286987	40.92392	-91.39365
762665	-31	-1	9	3.462436	-0.6417336	101.1072	0	9.36	4003	0	0	5	5	0.2774869	-0.06798576	1	10	0.03	1800	-1.72403	40.92392	-91.39365
762738	-20	-3	11	3.572831	-0.4310071	101.0951	0	9.36	4003	0	0	5	5	0.2774869	-0.0713632	1	10	0.03	1800	-1.689026	40.92392	-91.39365
762919	-20	0	14	3.85464	0.106962	101.0615	0	9.36	4002	0	0	5	5	0.2774869	-0.0712116	1	10	0.03	1800	-2.01358	40.92392	-91.39365
762977	-16	0	12	3.896862	0.1845187	101.0564	0	9.36	4003	0	0	5	5	0.2774869	-0.07386884	1	10	0.03	1800	-2.149109	40.92392	-91.39365
763059	-23	4	8	3.970179	0.3267797	101.0451	0	9.36	4003	0	0	5	5	0.2774869	-0.07498682	1	10	0.03	1800	-2.49707	40.92392	-91.39365
763151	-16	0	15	4.108617	0.5779112	101.0247	0	9.36	4003	0	0	5	5	0.2774869	-0.0777624	1	10	0.03	1800	-2.510681	40.92392	-91.39365
763279	-12	-3	13	4.189344	0.732628	101.0104	0	9.41	4004	0	0	5	5	0.2774869	-0.08717727	1	10	0.03	1800	-2.377441	40.92392	-91.39365
763385	-22	0	9	4.276541	0.9117674	100.9905	0	9.41	4003	0	0	5	5	0.2774869	-0.09453092	1	10	0.03	1800	-2.510712	40.92392	-91.39365
763425	-15	0	13	4.297793	0.9534339	100.985	0	9.41	4009	0	0	5	5	0.2774869	-0.09681982	1	10	0.03	1800	-3.007965	40.92392	-91.39365
763635	-12	1	9	4.392969	1.128247	100.9612	0	9.41	4002	0	0	5	5	0.2774869	-0.1063393	1	10	0.03	1800	-2.706635	40.92392	-91.39365
763681	-18	0	15	4.440479	1.214982	100.9425	0	9.41	4003	0	0	5	5	0.2774869	-0.108874	1	10	0.03	1800	-3.194153	40.92392	-91.39365
763814	-18	2	14	4.47875	1.297579	100.9299	0	9.41	4002	0	0	5	5	0.2774869	-0.1005235	1	10	0.03	1800	-2.853638	40.92392	-91.39365
763834	-15	0	10	4.492866	1.316755	100.9247	0	9.41	4003	0	0	5	5	0.2774869	-0.1005235	1	10	0.03	1800	-2.853638	40.92392	-91.39365
763961	-12	2	9	4.542975	1.3957	100.9078	0	9.41	4002	0	0	5	5	0.2774869	-0.08112808	1	10	0.03	1800	-3.351624	40.92392	-91.39365
764022	-21	-6	5	4.570003	1.431133	100.8987	0	9.41	4002	0	0	5	5	0.2774869	-0.08033072	1	10	0.03	1800	-3.387665	40.92392	-91.39365
764153	-4	11	14	4.610862	1.517156	100.874	0	9.41	4003	0	0	5	5	0.2774869	-0.07102429	1	10	0.03	1800	-2.989471	40.92392	-91.39365
764233	-18	2	7	4.629278	1.548013	100.865	0	9.41	4002	0	0	5	5	0.2774869	-0.06456306	1	10	0.03	1800	-3.236847	40.92392	-91.39365
764299	-19	-4	3	4.641153	1.569523	100.8554	0	9.41	4002	0	0	5	5	0.2774869	-0.06100444	1	10	0.03	1800	-3.278107	40.92392	-91.39365
764403	-14	0	7	4.655455	1.597811	100.8405	0	9.41	4003	0	0	5	5	0.2774869	-0.06716496	1	10	0.03	1800	-3.322174	40.92392	-91.39365
764510	-10	-7	5	4.664448	1.627215	100.8279	0	9.41	4003	0	0	5	5	0.2774869	-0.08341718	1	10	0.03	1800	-3.590668	40.92392	-91.39365
764609	-22	-7	2	4.681514	1.658642	100.8103	0	9.41	4004	0	0	5	5	0.2774869	-0.09640469	1	10	0.03	1800	-3.33902	40.92392	-91.39365
764740	-21	0	11	4.690031	1.683432	100.7978	0	9.41	4002	0	0	5	5	0.2774869	-0.1277122	1	10	0.03	1800	-3.346039	40.92392	-91.39365
764851	-16	-2	7	4.700855	1.693949	100.7842	0	9.41	4003	0	0	5	5	0.2774869	-0.1355655	1	10	0.03	1800	-3.36615	40.92392	-91.39365
764971	-21	-2	6	4.712764	1.715075	100.7693	0	9.41	4002	0	0	5	5	0.2774869	-0.1600652	1	10	0.03	1800	-3.622375	40.92392	-91.39365
765017	-21	-2	6	4.712764	1.715075	100.7693	0	9.41	4002	0	0	5	5	0.2774869	-0.1684925	1	10	0.03	1800	-3.622375	40.92392	-91.39365
765141	-14	0	6	4.720893	1.74271	100.7503	0	9.53	4004	0	0	5	5	0.2774869	-0.1754449	1	10	0.03	1800	-3.613647	40.92392	-91.39365
765292	-4	1	10	4.712949	1.750729	100.7382	0	9.53	4003	0	0	5	5	0.2774869	-0.1756355	1	10	0.03	1800	-3.358795	40.92392	-91.39365
765362	-17	-9	11	4.713878	1.767768	100.7229	0	9.53	4009	0	0	5	5	0.2774869	-0.1737166	1	10	0.03	1800	-3.827423	40.92392	-91.39365
765415	-12	1	10	4.716273	1.773445	100.7073	0	9.53	4004	0	0	5	5	0.2774869	-0.1751968	1	10	0.03	1800	-3.627289	40.92392	-91.39365
765501	-10	-6	3	4.722444	1.776602	100.701	0	9.53	4004	0	0	5	5	0.2774869	-0.179232	1	10	0.03	1800	-3.865021	40.92392	-91.39365
765584	-17	0	7	4.722808	1.77901	100.6922	0	9.53	4002	0	0	5	5	0.2774869	-0.1857391	1	10	0.03	1800	-3.582886	40.92392	-91.39365
765687	-294	291	54	4.708408	1.769397	100.6794	0	9.53	4004	0	0	5	5	0.2774869	-0.1812708	1	10	0.03	1800	-3.658295	40.92392	-91.39365
765797	332	49	30	4.662909	1.693256	100.6751	0	9.53	4003	0	0	5	5	0.2774869	-0.1617579	1	10	0.03	1800	-3.418732	40.92392	-91.39365
765892	-1552	1693	330	4.605827	1.011505	100.7064	0	9.53	4003	0	0	5	5	0.2774869	-0.1345386	1	10	0.03	1800	-4.01358	40.92392	-91.39365
766080	2376	-6511	-23	0.08179059	9.469917	99.82814	0	9.58	4002	0	0	5	5	0.2774869	-0.09894007	1	10	0.03	1800	-4.442383	40.92392	-91.39365
766115	1913	-4367	366	1.205154	12.36693	99.73766	0	9.58	4003	0	0	5	5	0.2774869	-0.0818354	1	10	0.03	1800	-4.442383	40.92392	-91.39365
766261	716	-4004	-1142	2.694541	19.31831	99.4801	0	9.58	4003	0	0	5	5	0.2774869	-0.04589639	1	10	0.03	1800	-2.859467	40.92392	-91.39365
766346	-212	655	-387	6.240785	21.93701	102.6226	0	9.58	4002	0	0	5	5	0.2774869	-0.02796893	1	10	0.03	1800	-6.199554	40.92392	-91.39365
766441	-1761	572	2388	4.840213	21.50457	101.5111	0	9.58	4004	0	0	5	5	0.2774869	0.02178924	1	10	0.03	1800	-6.796692	40.92392	-91.39365
766514	-2487	1377	4368	1.716611	21.10708	97.62453	0	9.58	4003	0	0	5	5	0.2774869	0.04875728	1	10	0.03	1800	-5.647095	40.92392	-91.39365
766582	-3171	3096	5410	-2.273369	18.9808	92.10056	0	9.58	4004	0	0	5	5	0.2774869	0.07839929	1	10	0.03	1800	-3.089447	40.92392	-91.39365
766700	-2860	83	4664	-10.84924	15.11355	81.20686	0	9.58	4003	0	0	5	5	0.2774869	0.1355862	1	10	0.03	1800	0.8089898	40.92392	-91.39365
766797	1030	2955	1990	-13.96645	9.860042	72.19175	0	9.58	4002	0	0	5	5	0.2774869	0.1709183	1	10	0.03	1800	5.991141	40.92392	-91.39365
766923	2842	1417	2033	-11.31347	5.548483	69.88039	0	9.53	4004	0	0	5	5	0.2774869	0.2411831	1	10	0.03	1800	6.67805	40.92392	-91.39365
767057	-664	589	6432	-11.47763	3.985993	60.0635	0	9.53	4003	0	0	5	5	0.2774869	0.2942062	1	10	0.03	1800	11.91819	40.92392	-91.39365
767159	436	726	7272	-11.79009	2.606542	48.55999	0	9.53	4003	0	0	5	5	0.2774869	0.3371634	1	10	0.03	1800	21.23959	40.92392	-91.39365
767241	-72	1155	7007	-11.37904	1.551228	44.59431	0	9.53	4002	0	0	5	5	0.2774869	0.3709732	1	10	0.03	1800	21.23959	40.92392	-91.39365
767290	-741	-4880	5161	-11.26872	1.951401	34.80468	0	9.53	4004	0	0	5	5	0.2774869	0.3783125	1	10	0.03	1800	25.67723	40.92392	-91.39365
767435	569	-3038	5947	-7.069656	9.18592	22.60681	0	9.53	4003	0	0	5	5	0.2774869	0.4129413	1	10	0.03	1800	36.03157	40.92392	-91.39365
767572	2463	-7672	2970	-5.863791	19.51455	10.79502	0	9.53	4004	0	0	5	5	0.2774869	0.4405482	1	10	0.03	1800	57.21482	40.92393	-91.39366
767654	2021	-3335	2978	-3.483285	22.1356	7.472495	0	9.53	4003	0	0	5	5	0.2774869	0.4598258	1	10	0.03	1800	75.43426	40.92393	-91.39366
767730	253	1139	1830	-3.261479	17.21752	3.694943	0	9.58	4003	0	0	5	5	0.2774869	0.4785105	1	10	0.03	1800	90.80518	40.92393	-91.39366
767838	-182	6956	-253	-4.283864	9.754189	1.689046	0	9.58	4002	0	0	5	5	0.2774869	0.5159608	1	10	0.03	1800	100.868	40.92393	-91.39366
767863	-182	6956	-253	-4.664645	5.729399	1.634391	0	9.58	4002	0	0	5	5	0.2774869	0.5207791	1	10	0.03	1800	105.4376	40.92393	-91.39366
767956	144	4870	-1419	-4.217422	-6.429653	4.541701	0	9.58	4004	0	0	5	5	0.2774869	0.5363743	1	10	0.03	1800	94.54504	40.92393	-91.39367
768166	2459	3520	-487	-4.043427	-14.42959	8.728018	0	9.58	4002	0	0	5	5	0.2774869	0.569303	1	10	0.03	1800	69.77222	40.92393	-91.39367
768200	2073	3282	191	-2.896019	-15.25142	8.781383	0	9.58	4004	0	0	5	5	0.2774869	0.571692	1	10	0.03	1800	59.55907	40.92393	-91.39367
768304	1069	950	2284	-0.8566172	-16.02719	5.823017	0	9.58	4002	0	0	5	5	0.2774869	0.5728615	1	10	0.03	1800	54.55454	40.92393	-91.39367
768411	-4483	-5808	908	-0.5704728	-13.58165	2.223127	0	9.58	4004	0	0	5	5	0.2774869	0.5641831	1	10	0.03	1800	54.19251	40.92393	-91.39367
768524	240	-9072	-383	-4.793176	4.974549	3.009141	0	9.58	4002	0	0	5	5	0.2774869	0.5514945	1	10	0.03	1800	62.11741	40.92393	-91.39368
768685	1833	-2939	785	0.9668749	14.67878	2.276037	0	9.58	4003	0	0	5	5	0.2774869	0.5544698	1	10	0.03	1800	87.03165	40.92393	-91.39368
768766	912	2528	826	2.128788	10.14833	1.276147	0	9.58	4003	0	0	5	5	0.2774869	0.5613874	1	10	0.03	1800	101.1817	40.92393	-91.39368
768917	28	9289	2191	-0.9685049	-12.50153	-2.172818	0	9.58	4002	0	0	5	5	0.2774869	0.5669057	1	10	0.03	1800	98.57237	40.92393	-91.39369
769070	772	2333	1934	0.6251026	-19.32049	-6.719505	0	9.58	4003	0	0	5	5	0.2774869	0.5748114	1	10	0.03	1800	89.38151	40.92393	-91.39369
769184	1472	2932	-3357	-1.791575	-21.30034	-3.559571	0	9.58	4002	0	0	5	5	0.2774869	0.5823389	1	10	0.03	1800	77.95168	40.92393	-91.39369
769306	3390	-582	-1954	-1.545161	-22.40256	3.1379	0	9.58	4004	0	0	5	5	0.2774869	0.5829021	1	10	0.03	1800	58.38269	40.92393	-91.39369
769394	3045	1226	-880	4.403435	-20.95642	5.798868	0	9.58	4003	0	0	5	5	0.2774869	0.5761734	1	10	0.03	1800	56.98067	40.92393	-91.39369
769521	-669	-11100	-1856	4.540322	-12.8063	8.437862	0	9.58	4002	0	0	5	5	0.2774869	0.5700094	1	10	0.03	1800	59.40936	40.92393	-91.39369
769559	116	-10881	-1841	4.140174	-7.481885	9.468963	0	9.53	4002	0	0	5	5	0.2774869	0.5693722	1	10	0.03	1800	68.25761	40.92394	-91.3937
769715	1232	-1973	-2659	6.224114	-1.05357	14.29033	0	9.53	4004	0	0	5	5	0.2774869	0.5713952	1	10	0.03	1800	75.68597	40.92394	-91.3937
769758	-964	-1653	-3562	5.654397	-1.226645	19.72073	0	9.53	4003	0	0	5	5	0.2774869	0.573575	1	10	0.03	1800	86.19444	40.92394	-91.3937
769907	-4807	4161	-4312	0.2815544	-7.583241	27.90162	0	9.53	4004	0	0	5	5	0.2774869	0.5934255	1	10	0.03	1800	83.82074	40.92394	-91.3937
769970	-649	8899	-2980	-6.228868	-18.6971	34.49573	0	9.53	4002	0	0	5	5	0.2774869	0.6042762	1	10	0.03	1800	72.53161	40.92394	-91.3937
770051	3021	3516	-850	-4.521562	-23.50485	36.30193	0	9.53	4004	0	0	5	5	0.2774869	0.6193111	1	10	0.03	1800	56.23311	40.92394	-91.3937
770136	770	-360	-2465	-2.657322	-23.0417	37.93208	0	9.53	4002	0	0	5	5	0.2774869	0.6298128	1	10	0.03	1800	49.74998	40.92394	-91.3937
770241	3370	396	-3612	-1.944222	-19.01993	45.66488	0	9.53	4004	0	0	5	5	0.2774869	0.6407895	1	10	0.03	1800	40.35851	40.92394	-91.3937
770348	2056	-608	-3661	1.865552	-19.36141	51.50729	0	9.53	4002	0	0	5	5	0.2774869	0.6533436	1	10	0.03	1800	36.56989	40.92394	-91.3937
770448	2135	1131	-2413	2.506356	-19.64505	57.02308	0	9.58	4004	0	0	5	5	0.2774869	0.6633443	1	10	0.03	1800	29.63137	40.92394	-91.3937
770519	1741	-3534	-1357	4.538671	-17.8639	58.92484	0	9.58	4003	0	0	5	5	0.2774869	0.6642665	1	10	0.03	1800	26.98162	40.92394	-91.3937
770627	1374	-3586	-811	6.497738	-12.2351	60.53586	0	9.58	4003	0	0	5	5	0.2774869	0.6683634	1	10	0.03	1800	26.63427	40.92394	-91.3937
770716	-17	-2456	-2236	6.949365	-10.25628	62.11172	0	9.58	4004	0	0	5	5	0.2774869	0.6690754	1	10	0.03	1800	26.92489	40.92394	-91.3937
770825	-379	-1378	-5343	5.117174	-9.115915	70.63996	0	9.58	4002	0	0	5	5	0.2774869	0.660998	1	10	0.03	1800	23.3	40.92394	-91.3937
770920	-653	97	-6969	3.51231	-9.130943	81.26005	0	9.58	4002	0	0	5	5	0.2774869	0.6622359	1	10	0.03	1800	18.30735	40.92394	-91.3937
771078	816	3232	-4781	0.120522	-11.8737	99.21286	0	9.58	4003	0	0	5	5	0.2774869	0.6662567	1	10	0.03	1800	-2.804565	40.92394	-91.3937
771103	1706	3809	-2107	0.6979599	-15.26736	102.8157	0	9.58	4003	0	0	5	5	0.2774869	0.6722981	1	10	0.03	1800	-6.222198	40.92394	-91.3937
771166	-1538	478	-1838	-1.122608	-17.38804	105.6599	0	9.58	4002	0	0	5	5	0.2774869	0.6746308	1	10	0.03	1800	-7.010864	40.92393	-91.39371
771266	-51	428	-2094	-2.741581	-16.99927	107.8395	0	9.58	4003	0	0	5	5	0.2774869	0.6799151	1	10	0.03	1800	-8.009399	40.92393	-91.39371
771420	2065	1251	-1014	-1.530617	-17.54875	112.117	0	9.53	4003	0	0	5	5	0.2774869	0.6754492	1	10	0.03	1800	-11.67108	40.92393	-91.39371
771487	797	-1027	561	0.6939136	-17.20903	112.3335	0	9.53	4003	0	0	5	5	0.2774869	0.671715	1	10	0.03	1800	-11.99292	40.92394	-91.3937
771571	189	-2209	663	1.603453	-15.2005	111.5235	0	9.53	4004	0	0	5	5	0.2774869	0.6723142	1	10	0.03	1800	-11.3678	40.92394	-91.3937
771700	1309	-1078	-116	3.359985	-12.06301	111.1952	0	9.53	4003	0	0	5	5	0.2774869	0.672356	1	10	0.03	1800	-11.40353	40.92394	-91.39371
771792	965	-1157	235	5.35064	-10.33548	111.2315	0	9.53	4002	0	0	5	5	0.2774869	0.6747993	1	10	0.03	1800	-11.55475	40.92394	-91.39371
771934	-476	-322	131	5.564201	-9.290057	110.5342	0	9.53	4002	0	0	5	5	0.2774869	0.6716971	1	10	0.03	1800	-11.00928	40.92394	-91.39371
772024	-436	165	43	5.285811	-9.269513	110.4479	0	9.53	4003	0	0	5	5	0.2774869	0.6677462	1	10	0.03	1800	-11.21744	40.92394	-91.39371
772085	-160	-210	531	5.261134	-9.154124	110.1217	0	9.53	4003	0	0	5	5	0.2774869	0.6664143	1	10	0.03	1800	-11.85336	40.92394	-91.39371
772234	-553	-375	635	5.251953	-7.994041	108.4138	0	9.58	4003	0	0	5	5	0.2774869	0.6628671	1	10	0.03	1800	-11.46619	40.92393	-91.39371
772280	-202	-458	486	5.257347	-7.764969	108.1112	0	9.58	4002	0	0	5	5	0.2774869	0.6634951	1	10	0.03	1800	-11.46619	40.92393	-91.39371
772388	309	-5	61	6.219379	-7.353866	107.7066	0	9.58	4004	0	0	5	5	0.2774869	0.6616192	1	10	0.03	1800	-11.58563	40.92393	-91.39371
772588	275	-746	-195	6.798358	-5.687549	107.4142	0	9.58	4002	0	0	5	5	0.2774869	0.6601794	1	10	0.03	1800	-11.76517	40.92394	-91.39371
772729	274	-905	-284	7.663971	-3.84216	108.2303	0	9.58	4002	0	0	5	5	0.2774869	0.6590458	1	10	0.03	1800	-12.50452	40.92394	-91.39371
772788	288	-550	-192	7.892651	-3.597424	108.3613	0	9.58	4002	0	0	5	5	0.2774869	0.6603003	1	10	0.03	1800	-12.88623	40.92394	-91.39371
772887	120	889	538	8.524579	-4.187546	108.1361	0	9.58	4004	0	0	5	5	0.2774869	0.662342	1	10	0.03	1800	-13.87219	40.92394	-91.39371
773006	-314	-431	704	8.636519	-4.343451	106.8767	0	9.58	4002	0	0	5	5	0.2774869	0.6678319	1	10	0.03	1800	-12.64728	40.92394	-91.3937
773186	310	-112	-8	9.211557	-2.593172	106.6656	0	9.58	4002	0	0	5	5	0.2774869	0.6937594	1	10	0.03	1800	-13.13339	40.92394	-91.3937
773303	-374	91	274	8.935373	-2.540279	106.3329	0	9.58	4004	0	0	5	5	0.2774869	0.7127485	1	10	0.03	1800	-12.7406	40.92394	-91.3937
773390	-326	161	-81	8.336295	-2.637184	106.1487	0	9.58	4003	0	0	5	5	0.2774869	0.7233968	1	10	0.03	1800	-12.35468	40.92394	-91.3937
773575	-44	-816	-407	7.759679	-2.161127	106.7163	0	9.58	4002	0	0	5	5	0.2774869	0.741165	1	10	0.03	1800	-12.84778	40.92394	-91.3937
773641	671	-2517	-426	8.249825	1.65369	107.5405	0	9.58	4002	0	0	5	5	0.2774869	0.7422274	1	10	0.03	1800	-13.20059	40.92394	-91.3937
773721	456	-2740	-266	8.84721	5.380288	107.8848	0	9.58	4003	0	0	5	5	0.2774869	0.745997	1	10	0.03	1800	-13.43469	40.92394	-91.39371
773816	1554	-3458	-1286	10.841	11.77195	109.1241	0	9.58	4003	0	0	5	5	0.2774869	0.7432746	1	10	0.03	1800	-15.20798	40.92394	-91.39371
773892	2980	-1990	-1519	14.36953	14.65222	110.7531	0	9.58	4004	0	0	5	5	0.2774869	0.7383362	1	10	0.03	1800	-17.64655	40.92393	-91.39371
773995	3709	-2410	-956	21.2766	17.47345	112.5532	0	9.58	4002	0	0	5	5	0.2774869	0.7490318	1	10	0.03	1800	-20.14352	40.92393	-91.39371
774144	1383	2899	-769	27.62372	16.80211	113.962	0	9.58	4002	0	0	5	5	0.2774869	0.7639903	1	10	0.03	1800	-20.784	40.92393	-91.39371
774198	1093	2881	-1626	28.91846	12.09664	115.4105	0	9.58	4003	0	0	5	5	0.2774869	0.7668411	1	10	0.03	1800	-18.70959	40.92393	-91.39371
774342	-1227	584	-46	29.68159	7.865806	117.5974	0	9.58	4003	0	0	5	5	0.2774869	0.7667691	1	10	0.03	1800	-17.02246	40.92394	-91.39371
774466	-5720	-855	9453	15.89428	13.95504	102.251	0	9.58	4004	0	0	5	5	0.2774869	0.7631967	1	10	0.03	1800	-11.91995	40.92394	-91.39371
774510	-4068	-1052	10704	3.307483	18.08374	85.43456	0	9.58	4003	0	0	5	5	0.2774869	0.7606842	1	10	0.03	1800	4.625975	40.92394	-91.39371
774537	-2507	-677	10266	-4.333661	19.00168	73.66711	0	9.58	4004	0	0	5	5	0.2774869	0.7605141	1	10	0.03	1800	4.625975	40.92394	-91.39371
774611	-603	1513	5995	-9.354408	17.28945	64.55258	0	9.58	4004	0	0	5	5	0.2774869	0.7658831	1	10	0.03	1800	15.15125	40.92394	-91.39371
774724	4736	-262	-57	-7.525825	13.78176	60.37577	0	9.58	4002	0	0	5	5	0.2774869	0.7729458	1	10	0.03	1800	27.74467	40.92394	-91.39371
774857	735	-2535	-948	-0.3744954	18.62258	63.53368	0	9.58	4004	0	0	5	5	0.2774869	0.7805091	1	10	0.03	1800	32.36502	40.92394	-91.39371
774980	1499	686	937	2.270068	18.85307	61.89908	0	9.64	4004	0	0	5	5	0.2774869	0.781638	1	10	0.03	1800	33.79353	40.92394	-91.39371
775060	0	-1093	-3186	5.097356	18.82853	63.50873	0	9.64	4002	0	0	5	5	0.2774869	0.7856443	1	10	0.03	1800	35.32042	40.92394	-91.39371
775259	-661	270	-4749	12.94279	19.24188	78.08756	0	9.64	4003	0	0	5	5	0.2774869	0.7861236	1	10	0.03	1800	24.58239	40.92394	-91.39371
775378	-213	1091	-4802	13.9088	15.79071	86.10345	0	9.64	4002	0	0	5	5	0.2774869	0.7916856	1	10	0.03	1800	19.84864	40.92394	-91.39371
775396	-653	1159	-4521	14.87871	12.85494	91.2736	0	9.64	4003	0	0	5	5	0.2774869	0.7935824	1	10	0.03	1800	16.27635	40.92394	-91.39371
775501	-1932	1912	-4214	14.49839	8.854103	96.01637	0	9.64	4004	0	0	5	5	0.2774869	0.7914526	1	10	0.03	1800	14.29042	40.92394	-91.39371
775597	-970	2164	-2245	12.03332	4.080278	101.7983	0	9.64	4003	0	0	5	5	0.2774869	0.7881306	1	10	0.03	1800	8.98406	40.92394	-91.39371
775697	-1925	-725	-981	10.91441	3.517327	103.9832	0	9.64	4003	0	0	5	5	0.2774869	0.7679597	1	10	0.03	1800	9.697267	40.92394	-91.39371
775800	-2593	1215	-209	5.84978	2.123329	104.7579	0	9.64	4002	0	0	5	5	0.2774869	0.7499428	1	10	0.03	1800	11.80636	40.92394	-91.39371
775977	-1088	801	-1260	3.162331	0.3505222	106.4114	0	9.64	4003	0	0	5	5	0.2774869	0.6891006	1	10	0.03	1800	15.50273	40.92394	-91.3937
776052	-1592	2435	3245	2.552974	-0.4246966	109.2542	0	9.64	4004	0	0	5	5	0.2774869	0.6680527	1	10	0.03	1800	11.36247	40.92394	-91.3937
776098	-787	1541	2541	2.33778	-1.490454	107.8314	0	9.64	4003	0	0	5	5	0.2774869	0.6606186	1	10	0.03	1800	8.481292	40.92394	-91.3937
776201	496	-1016	603	1.372144	-2.67844	107.3525	0	9.64	4004	0	0	5	5	0.2774869	0.6376094	1	10	0.03	1800	8.603924	40.92394	-91.3937
776313	598	-850	73	2.460052	-0.9049321	107.4422	0	9.64	4004	0	0	5	5	0.2774869	0.6124314	1	10	0.03	1800	9.930853	40.92394	-91.3937
776435	162	-78	81	2.038957	-0.7920468	107.4897	0	9.64	4002	0	0	5	5	0.2774869	0.5917183	1	10	0.03	1800	9.676802	40.92394	-91.3937
776520	-89	0	12	2.021198	-0.4873329	107.5031	0	9.64	4003	0	0	5	5	0.2774869	0.5758384	1	10	0.03	1800	9.578261	40.92394	-91.3937
776649	-205	185	-193	1.742223	-0.6525351	107.4231	0	9.64	4003	0	0	5	5	0.2774869	0.5516137	1	10	0.03	1800	9.958609	40.92394	-91.3937
776733	-251	212	169	1.777051	-0.2820147	107.5099	0	9.64	4004	0	0	5	5	0.2774869	0.5360594	1	10	0.03	1800	10.63184	40.92394	-91.3937
776817	-18	11	4	1.675738	-0.2349	107.5075	0	9.58	4002	0	0	5	5	0.2774869	0.5337839	1	10	0.03	1800	10.68176	40.92394	-91.3937
776971	-106	196	105	1.581525	0.0316464	107.4605	0	9.58	4003	0	0	5	5	0.2774869	0.5314392	1	10	0.03	1800	10.67946	40.92394	-91.3937
777050	-47	-198	-12	1.471638	-0.05234206	107.4444	0	9.58	4002	0	0	5	5	0.2774869	0.5344734	1	10	0.03	1800	10.67946	40.92394	-91.3937
777107	-47	-198	-12	1.471638	-0.05234206	107.4444	0	9.58	4002	0	0	5	5	0.2774869	0.5362586	1	10	0.03	1800	10.67946	40.92394	-91.3937
777211	-34	-33	-25	1.307098	-0.07270357	107.424	0	9.58	4002	0	0	5	5	0.2774869	0.5449293	1	10	0.03	1800	10.77401	40.92394	-91.3937
