time(ms)	gyro_x(deg/s)	gyro_y(deg/s)	gyro_z(deg/s)	orientation_roll(deg)	orientation_pitch(deg)	orientation_yaw(deg)	throttle	battery(V)	loop_time(uS)	pid_output_roll	pid_output_pitch	pid_output_yaw	pid_output_throttle	ultrasonic_alt	baro_alt	flight_mode	p_gain_altitude	i_gain_altitude	d_gain_altitude	compass_heading	latitude	longitude
408447	26	0	3	0.3381206	-0.01191212	-1.851379	0	11.46	4003	0	0	5	5	0.03738701	0.008489922	1	10	0.03	1800	-6.364349	40.92393	-91.39363
408632	22	-7	-4	0.3375988	-0.007351065	-1.846855	0	11.46	4003	0	0	5	5	0.03738701	0.01683484	1	10	0.03	1800	-6.363739	40.92393	-91.39363
408660	23	-1	0	0.3352067	-0.008288634	-1.845204	0	11.46	4004	0	0	5	5	0.03738701	0.01769347	1	10	0.03	1800	-6.384979	40.92393	-91.39363
408756	23	-1	-2	0.3405449	-0.0099977	-1.843431	0	11.46	4004	0	0	5	5	0.03738701	0.01797469	1	10	0.03	1800	-6.366516	40.92393	-91.39363
408861	21	-4	-1	0.3504248	-0.008751629	-1.839946	0	11.46	4004	0	0	5	5	0.03738701	0.02379068	1	10	0.03	1800	-6.379822	40.92393	-91.39363
408967	29	0	0	0.3532478	-0.00610727	-1.837745	0	11.46	4002	0	0	5	5	0.03738701	0.03378895	1	10	0.03	1800	-6.629059	40.92393	-91.39363
409071	28	-4	-4	0.357387	-0.01040822	-1.832364	0	11.46	4003	0	0	5	5	0.03738701	0.04107566	1	10	0.03	1800	-6.397491	40.92393	-91.39363
409176	25	-3	-2	0.3509259	-0.007869823	-1.831753	0	11.46	4003	0	0	5	5	0.03738701	0.04574805	1	10	0.03	1800	-6.389893	40.92393	-91.39363
409281	29	-4	-4	0.3517664	-0.0009347639	-1.824661	0	11.46	4003	0	0	5	5	0.03738701	0.04835815	1	10	0.03	1800	-6.363892	40.92393	-91.39363
409386	19	0	-4	0.357831	-0.001575975	-1.820442	0	11.46	4004	0	0	5	5	0.03738701	0.05669856	1	10	0.03	1800	-6.38916	40.92393	-91.39363
409491	29	-2	-3	0.3611344	-0.003645643	-1.817446	0	11.46	4003	0	0	5	5	0.03738701	0.06204259	1	10	0.03	1800	-6.394897	40.92393	-91.39363
409595	25	-1	-2	0.3681034	0.002878817	-1.810721	0	11.46	4002	0	0	5	5	0.03738701	0.07287388	1	10	0.03	1800	-6.406586	40.92393	-91.39363
409700	33	0	-3	0.3721532	-0.001588039	-1.807419	0	11.4	4003	0	0	5	5	0.03738701	0.08031625	1	10	0.03	1800	-6.413116	40.92393	-91.39363
409804	28	0	-2	0.378297	-0.0025283	-1.804363	0	11.4	4003	0	0	5	5	0.03738701	0.0922892	1	10	0.03	1800	-6.203735	40.92393	-91.39363
409909	33	0	0	0.382516	-0.01520263	-1.800572	0	11.4	4003	0	0	5	5	0.03738701	0.09540012	1	10	0.03	1800	-6.429749	40.92393	-91.39363
410014	28	0	-1	0.3860612	-0.01871693	-1.796599	0	11.4	4002	0	0	5	5	0.03738701	0.0929797	1	10	0.03	1800	-6.435974	40.92393	-91.39363
410135	15	0	0	0.3873861	-0.02458645	-1.790484	0	11.4	4003	0	0	5	5	0.03738701	0.08769207	1	10	0.03	1800	-6.437439	40.92393	-91.39363
410238	31	0	0	0.3875936	-0.02374779	-1.78969	0	11.4	4004	0	0	5	5	0.03738701	0.08906311	1	10	0.03	1800	-6.439941	40.92393	-91.39363
410324	37	-5	3	0.3937106	-0.02819672	-1.786083	0	11.4	4003	0	0	5	5	0.03738701	0.09198591	1	10	0.03	1800	-6.424011	40.92393	-91.39363
410428	28	-6	-2	0.3927496	-0.03230299	-1.779846	0	11.4	4003	0	0	5	5	0.03738701	0.0959726	1	10	0.03	1800	-6.425812	40.92393	-91.39363
410532	34	-2	-1	0.3963534	-0.03566272	-1.778867	0	11.4	4003	0	0	5	5	0.03738701	0.1084894	1	10	0.03	1800	-6.479614	40.92393	-91.39363
410638	26	-4	-3	0.3882004	-0.0265343	-1.770858	0	11.4	4002	0	0	5	5	0.03738701	0.1179038	1	10	0.03	1800	-6.441986	40.92393	-91.39363
410736	25	1	0	0.3873747	-0.03103172	-1.768413	0	11.4	4003	0	0	5	5	0.03738701	0.1198469	1	10	0.03	1800	-6.415833	40.92393	-91.39363
410853	26	-3	-2	0.3886806	-0.02752064	-1.760586	0	11.4	4004	0	0	5	5	0.03738701	0.1074232	1	10	0.03	1800	-6.445862	40.92393	-91.39363
410993	29	0	4	0.3869829	-0.03345858	-1.756122	0	11.4	4004	0	0	5	5	0.03738701	0.09351476	3	10	0.03	1800	-6.446899	40.92393	-91.39363
411078	30	0	-4	0.3945001	-0.02760657	-1.754227	0	11.4	4003	0	0	5	5	0.03738701	0.08374677	3	10	0.03	1800	-6.450409	40.92393	-91.39363
411149	23	0	-6	0.3929373	-0.02509085	-1.750375	0	11.4	4004	0	0	5	5	0.03738701	0.07634431	3	10	0.03	1800	-6.449615	40.92393	-91.39363
411272	30	-2	-4	0.3906855	-0.02574229	-1.743161	0	11.4	4003	0	0	5	5	0.03738701	0.06880492	3	10	0.03	1800	-6.422852	40.92393	-91.39363
411363	28	-8	-2	0.3903739	-0.02552035	-1.740226	0	11.4	4003	0	0	5	5	0.03738701	0.06109987	3	10	0.03	1800	-6.44574	40.92393	-91.39363
411453	32	-8	0	0.3920338	-0.02599272	-1.737841	0	11.4	4004	0	0	5	5	0.03738701	0.05097181	3	10	0.03	1800	-6.423279	40.92393	-91.39363
411557	39	-1	-4	0.3946744	-0.02215097	-1.733501	0	11.4	4003	0	0	5	5	0.03738701	0.03793989	3	10	0.03	1800	-6.428528	40.92393	-91.39363
411662	31	-1	-2	0.3941334	-0.02528714	-1.730749	0	11.4	4002	0	0	5	5	0.03738701	0.01258389	3	10	0.03	1800	-6.476379	40.92393	-91.39363
411783	27	1	0	0.3961136	-0.03139718	-1.723658	0	11.4	4003	0	0	5	5	0.03738701	-0.002932688	3	10	0.03	1800	-6.454559	40.92393	-91.39363
411865	25	0	-4	0.401189	-0.03154689	-1.72054	0	11.4	4004	0	0	5	5	0.03738701	-0.009150507	3	10	0.03	1800	-6.441376	40.92393	-91.39363
411969	36	-4	-2	0.4064776	-0.02757738	-1.717788	0	11.4	4002	0	0	5	5	0.03738701	-0.01331355	3	10	0.03	1800	-6.441376	40.92393	-91.39363
412073	26	-4	-2	0.4045848	-0.02216896	-1.715159	0	11.4	4003	0	0	5	5	0.03738701	-0.01335441	3	10	0.03	1800	-6.475433	40.92393	-91.39363
412177	39	-2	-3	0.4159942	-0.02157543	-1.712041	0	11.4	4004	0	0	5	5	0.03738701	-0.01644404	3	10	0.03	1800	-6.473846	40.92393	-91.39363
412281	30	0	-6	0.4145866	-0.0261431	-1.709045	0	11.4	4004	0	0	5	5	0.03738701	-0.02333484	3	10	0.03	1800	-6.487457	40.92393	-91.39363
412385	32	-5	-1	0.4137428	-0.01836858	-1.704887	0	11.4	4003	0	0	5	5	0.03738701	-0.02935945	3	10	0.03	1800	-6.483582	40.92393	-91.39363
412489	39	0	0	0.4188723	-0.01901554	-1.700179	0	11.4	4003	0	0	5	5	0.03738701	-0.03045171	3	10	0.03	1800	-6.458313	40.92393	-91.39363
412593	34	2	-4	0.4240354	-0.0213795	-1.698162	0	11.46	4002	0	0	5	5	0.03738701	-0.03894093	3	10	0.03	1800	-6.270782	40.92393	-91.39363
412698	30	-4	-6	0.4257292	-0.02190438	-1.693148	0	11.46	4003	0	0	5	5	0.03738701	-0.04092944	3	10	0.03	1800	-6.49411	40.92393	-91.39363
412802	26	0	-6	0.4215667	-0.01761787	-1.688563	0	11.46	4002	0	0	5	5	0.03738701	-0.04526183	3	10	0.03	1800	-6.686157	40.92393	-91.39363
412906	35	-4	0	0.4189776	-0.02346021	-1.685628	0	11.46	4002	0	0	5	5	0.03738701	-0.05153671	3	10	0.03	1800	-6.466187	40.92393	-91.39363
413010	33	-2	5	0.4291508	-0.02343297	-1.681349	0	11.46	4003	0	0	5	5	0.03738701	-0.05015671	3	10	0.03	1800	-6.500793	40.92393	-91.39363
413114	35	1	-2	0.4307058	-0.02082468	-1.677558	0	11.46	4002	0	0	5	5	0.03738701	-0.04601336	3	10	0.03	1800	-6.482391	40.92393	-91.39363
413218	28	0	-4	0.4412969	-0.02196151	-1.674012	0	11.46	4004	0	0	5	5	0.03738701	-0.04148543	3	10	0.03	1800	-6.525879	40.92393	-91.39363
413323	35	0	-9	0.4420579	-0.02323704	-1.668999	0	11.46	4003	0	0	5	5	0.03738701	-0.03870524	3	10	0.03	1800	-6.518188	40.92393	-91.39363
413427	34	-2	-5	0.4393423	-0.02430147	-1.661907	0	11.46	4003	0	0	5	5	0.03738701	-0.03314516	3	10	0.03	1800	-6.526276	40.92393	-91.39363
413531	41	-2	-3	0.4377691	-0.0131119	-1.658177	0	11.46	4002	0	0	5	5	0.03738701	-0.0346846	3	10	0.03	1800	-6.730957	40.92393	-91.39363
413635	40	-5	-7	0.4412312	-0.01602598	-1.652919	0	11.46	4002	0	0	5	5	0.03738701	-0.03382316	3	10	0.03	1800	-6.540985	40.92393	-91.39363
413739	30	-8	0	0.4382158	-0.01735012	-1.650963	0	11.46	4002	0	0	5	5	0.03738701	-0.03688646	3	10	0.03	1800	-6.5242	40.92393	-91.39363
413843	32	3	-6	0.4378848	-0.01885385	-1.647233	0	11.46	4002	0	0	5	5	0.03738701	-0.03734591	3	10	0.03	1800	-6.515411	40.92393	-91.39363
413947	41	-9	-1	0.444337	-0.01861387	-1.643626	0	11.46	4002	0	0	5	5	0.03738701	-0.0333535	3	10	0.03	1800	-6.51825	40.92393	-91.39363
414051	34	-4	0	0.447119	-0.01226701	-1.638919	0	11.46	4003	0	0	5	5	0.03738701	-0.02953873	3	10	0.03	1800	-6.526794	40.92393	-91.39363
414154	33	1	-1	0.4452864	-0.01300186	-1.633355	0	11.46	4004	0	0	5	5	0.03738701	-0.0175462	3	10	0.03	1800	-6.530151	40.92393	-91.39363
414325	29	3	-1	0.4424477	-0.01537685	-1.62773	0	11.46	4003	0	0	5	5	0.03738701	-0.01100959	3	10	0.03	1800	-6.536713	40.92393	-91.39363
414417	27	2	-5	0.4406165	-0.0143092	-1.62504	0	11.46	4003	0	0	5	5	0.03738701	-0.001396027	3	10	0.03	1800	-6.519684	40.92393	-91.39363
414453	42	5	0	0.441907	-0.01409493	-1.623818	0	11.46	4003	0	0	5	5	0.03738701	0.003339166	3	10	0.03	1800	-6.495544	40.92393	-91.39363
414572	44	-4	-15	0.4440222	-0.01677069	-1.619538	0	11.46	4003	0	0	5	5	0.03738701	0.00826142	3	10	0.03	1800	-6.495544	40.92393	-91.39363
414671	31	-4	0	0.4361043	-0.0194848	-1.610795	0	11.46	4003	0	0	5	5	0.03738701	0.00959194	3	10	0.03	1800	-6.490265	40.92393	-91.39363
414780	18	-23	14	0.4334901	-0.02720944	-1.610974	0	11.46	4003	0	0	5	5	0.03738701	0.0120815	3	10	0.03	1800	-6.515259	40.92393	-91.39363
414866	14	7	51	0.4387728	-0.03749762	-1.605775	0	11.46	4003	0	0	5	5	0.03738701	0.01767946	3	10	0.03	1800	-6.476257	40.92393	-91.39363
415019	12	-60	-115	0.4359685	-0.03333655	-1.589389	0	11.46	4003	0	0	5	5	0.03738701	0.01863241	3	10	0.03	1800	-6.508118	40.92393	-91.39363
415113	56	-89	35	0.4665692	-0.03587652	-1.58591	0	11.46	4004	0	0	5	5	0.03738701	0.01932822	3	10	0.03	1800	-6.084442	40.92393	-91.39363
415225	95	-9	47	0.4795087	-0.04041133	-1.587436	0	11.46	4004	0	0	5	5	0.03738701	0.02931013	3	10	0.03	1800	-6.084442	40.92393	-91.39363
415273	22	-18	-40	0.4712306	-0.04001466	-1.578571	0	11.46	4004	0	0	5	5	0.03738701	0.03226253	3	10	0.03	1800	-5.466949	40.92393	-91.39363
415377	68	-26	-47	0.471454	-0.01363875	-1.583756	0	11.4	4002	0	0	5	5	0.03738701	0.0389622	3	10	0.03	1800	-6.278412	40.92393	-91.39363
415484	7	-43	-36	0.4666538	-0.00993876	-1.571714	0	11.4	4004	0	0	5	5	0.03738701	0.04376264	3	10	0.03	1800	-6.747406	40.92393	-91.39363
415589	-3	0	-29	0.4709256	0.01319432	-1.559855	0	11.4	4002	0	0	5	5	0.03738701	0.04484986	3	10	0.03	1800	-6.529144	40.92393	-91.39363
415752	101	-64	-85	0.4684495	0.05095252	-1.54959	0	11.4	4004	0	0	5	5	0.03738701	0.04037627	3	10	0.03	1800	-6.239777	40.92393	-91.39363
415843	30	10	-74	0.4497575	0.027294	-1.544642	0	11.4	4003	0	0	5	5	0.03738701	0.03690673	3	10	0.03	1800	-6.239777	40.92393	-91.39363
415976	96	19	67	0.493405	0.002716292	-1.560294	0	11.4	4004	0	0	5	5	0.03738701	0.02788631	3	10	0.03	1800	-6.166962	40.92393	-91.39363
416057	122	52	6	0.5090435	-0.0124217	-1.559685	0	11.4	4002	0	0	5	5	0.03738701	0.01747669	3	10	0.03	1800	-6.787689	40.92393	-91.39363
416136	203	11	-87	0.5225742	0.01921323	-1.554	0	11.4	4003	0	0	5	5	0.03738701	0.009698705	3	10	0.03	1800	-6.682373	40.92393	-91.39363
416222	-11	48	33	0.4922208	0.0312572	-1.54937	0	11.4	4003	0	0	5	5	0.03738701	0.008413164	3	10	0.03	1800	-6.35849	40.92393	-91.39363
416314	38	-40	-69	0.5108698	-0.002013066	-1.541425	0	11.34	4003	0	0	5	5	0.03738701	0.003531352	3	10	0.03	1800	-6.779755	40.92393	-91.39363
416441	133	81	25	0.5046901	-0.02418117	-1.530975	0	11.34	4003	0	0	5	5	0.03738701	0.008326759	3	10	0.03	1800	-5.885193	40.92393	-91.39363
416496	-43	225	-255	0.4936267	-0.03321735	-1.512152	0	11.34	4004	0	0	5	5	0.03738701	0.01184141	3	10	0.03	1800	-5.91684	40.92393	-91.39363
416650	214	-102	450	0.5085115	0.04205109	-1.525846	0	11.34	4004	0	0	5	5	0.03738701	0.01396619	3	10	0.03	1800	-6.302155	40.92393	-91.39363
416700	74	-42	130	0.5233353	0.04880964	-1.511664	0	11.34	4004	0	0	5	5	0.03738701	0.01414876	3	10	0.03	1800	-6.725739	40.92393	-91.39363
416803	54	17	-306	0.5425868	0.09048416	-1.498232	0	11.34	4002	0	0	5	5	0.03738701	0.009982101	3	10	0.03	1800	-6.011566	40.92393	-91.39363
416959	153	-88	162	0.5059166	0.1112012	-1.531674	0	11.34	4002	0	0	5	5	0.03738701	0.01737375	3	10	0.03	1800	-6.143829	40.92393	-91.39363
417072	84	-95	423	0.534639	0.07803499	-1.539465	0	11.34	4003	0	0	5	5	0.03738701	0.02208413	3	10	0.03	1800	-6.719574	40.92393	-91.39363
417122	-113	10	-274	0.543565	0.04481582	-1.518868	0	11.34	4003	0	0	5	5	0.03738701	0.02838824	3	10	0.03	1800	-6.719574	40.92393	-91.39363
417311	31	154	-230	0.4689889	0.09940249	-1.504338	0	11.17	4003	0	0	5	5	0.03738701	0.04478164	3	10	0.03	1800	-6.313019	40.92393	-91.39363
417332	116	65	67	0.5585955	0.06902269	-1.510213	0	11.17	4004	0	0	5	5	0.03738701	0.04478164	3	10	0.03	1800	-6.96048	40.92393	-91.39363
417422	-17	-83	344	0.4117674	0.05215807	-1.528625	0	11.17	4003	0	0	5	5	0.03738701	0.05288102	3	10	0.03	1800	-6.211578	40.92393	-91.39363
417582	165	-44	418	0.3438652	0.191478	-1.500913	0	11.17	4003	0	0	5	5	0.03738701	0.06306747	3	10	0.03	1800	-6.249237	40.92393	-91.39363
417692	82	56	65	0.5594206	-0.07133364	-1.535431	0	11.17	4003	0	0	5	5	0.03738701	0.06916183	3	10	0.03	1800	-6.011871	40.92393	-91.39363
417747	-64	19	-24	0.4942455	-0.08751458	-1.550162	0	11.17	4002	0	0	5	5	0.03738701	0.07002465	3	10	0.03	1800	-6.011871	40.92393	-91.39363
417828	102	51	-187	0.433562	0.02070535	-1.531491	0	11.17	4002	0	0	5	5	0.03738701	0.0703881	3	10	0.03	1800	-6.518066	40.92393	-91.39363
417940	-5	-19	-497	0.4255199	0.01669062	-1.531917	0	11.17	4004	0	0	5	5	0.03738701	0.05953702	3	10	0.03	1800	-6.073029	40.92393	-91.39363
418131	-156	-148	259	0.4248757	0.1007536	-1.543935	0	11.17	4002	0	0	5	5	0.03738701	0.0554825	3	10	0.03	1800	-6.033539	40.92393	-91.39363
418210	90	-63	323	0.3148175	0.1799165	-1.54653	0	11.34	4002	0	0	5	5	0.03738701	0.05799262	3	10	0.03	1800	-6.023926	40.92393	-91.39363
418284	28	-11	-61	0.1950805	0.2571681	-1.526994	0	11.34	4002	0	0	5	5	0.03738701	0.05821827	3	10	0.03	1800	-5.928833	40.92393	-91.39363
418386	-65	-47	-266	0.2177535	0.1801625	-1.528204	0	11.34	4004	0	0	5	5	0.03738701	0.05463651	3	10	0.03	1800	-6.272614	40.92393	-91.39363
418405	-129	-47	-266	0.2177535	0.1801625	-1.528204	0	11.34	4004	0	0	5	5	0.03738701	0.0548888	3	10	0.03	1800	-6.272614	40.92393	-91.39363
418518	193	32	-283	0.3342673	0.2706431	-1.508075	0	11.34	4002	0	0	5	5	0.03738701	0.06731655	3	10	0.03	1800	-5.139404	40.92393	-91.39363
418573	-62	79	-30	0.4005859	0.3136475	-1.688659	0	11.34	4003	0	0	5	5	0.03738701	0.07682074	3	10	0.03	1800	-6.391235	40.92393	-91.39363
418669	1	197	258	0.4452262	0.3511133	-2.416934	0	11.34	4004	0	0	5	5	0.03738701	0.08927266	3	10	0.03	1800	-5.618134	40.92393	-91.39363
418759	-195	-342	-176	0.5524259	0.4194572	-2.590809	0	11.34	4004	0	0	5	5	0.03738701	0.1053674	3	10	0.03	1800	-5.992462	40.92393	-91.39363
418919	158	155	42	0.7178834	0.4182931	-2.861626	0	11.34	4003	0	0	5	5	0.03738701	0.1040567	3	10	0.03	1800	-5.296631	40.92393	-91.39363
418972	-289	-251	-142	0.7773615	0.4687653	-3.125524	0	11.4	4004	0	0	5	5	0.03738701	0.1034796	3	10	0.03	1800	-5.517487	40.92393	-91.39363
419049	86	275	7	0.8631554	0.4149075	-3.334994	0	11.4	4002	0	0	5	5	0.03738701	0.09897207	3	10	0.03	1800	-4.954468	40.92393	-91.39363
419206	48	0	588	0.6160643	0.3450375	-4.098365	0	11.4	4004	0	0	5	5	0.03738701	0.09198689	3	10	0.03	1800	-4.648743	40.92393	-91.39363
419352	-232	-127	207	0.6121973	0.2029223	-4.654909	0	11.4	4003	0	0	5	5	0.03738701	0.08712377	3	10	0.03	1800	-4.08194	40.92393	-91.39363
419499	171	196	-68	0.6626355	0.1353091	-4.823305	0	11.4	4003	0	0	5	5	0.03738701	0.08858157	3	10	0.03	1800	-4.834869	40.92393	-91.39363
419592	234	-378	580	0.6716883	0.001484854	-5.125899	0	11.4	4003	0	0	5	5	0.03738701	0.09111728	3	10	0.03	1800	-4.770477	40.92393	-91.39363
419722	-142	-27	-28	0.730855	-0.01005992	-5.373498	0	11.4	4004	0	0	5	5	0.03738701	0.09854285	3	10	0.03	1800	-3.759338	40.92393	-91.39363
419796	-144	-384	-44	0.7060931	-0.1156078	-5.468379	0	11.4	4003	0	0	5	5	0.03738701	0.1031802	3	10	0.03	1800	-4.440216	40.92392	-91.39363
419882	-183	-114	-115	0.7227452	-0.1018486	-5.484773	0	10.66	4004	0	0	5	5	0.03738701	0.1079867	6	10	0.03	1800	-4.313416	40.92392	-91.39363
419942	121	-87	319	0.5777452	-0.1298389	-5.426281	0	10.66	4002	0	0	5	5	0.03908143	0.1071765	6	10	0.03	1800	-3.527832	40.92392	-91.39363
420066	239	-174	489	0.7134148	-0.2634185	-5.55687	0	10.66	4002	0	0	5	5	0.04103902	0.1044888	6	10	0.03	1800	-4.639954	40.92393	-91.39363
420247	-172	136	-424	0.5662021	-0.321445	-5.593221	0	10.66	4002	0	0	5	5	0.04483486	0.09617436	6	10	0.03	1800	-3.992249	40.92392	-91.39363
420341	284	84	-147	0.4883625	-0.1742834	-5.342291	0	10.66	4003	0	0	5	5	0.04520324	0.09493256	6	10	0.03	1800	-3.425354	40.92392	-91.39363
420482	205	-69	-537	0.2250766	-0.491245	-4.879925	0	10.66	4004	0	0	5	5	0.04543616	0.08775021	6	10	0.03	1800	-3.729767	40.92392	-91.39363
420571	-64	300	114	0.357141	-0.2667544	-4.790969	0	10.66	4003	0	0	5	5	0.0452998	0.08708616	6	10	0.03	1800	-4.192688	40.92392	-91.39363
420648	-307	261	-790	-0.003163796	-0.46974	-4.459997	0	10.66	4003	0	0	5	5	0.04549079	0.08674283	6	10	0.03	1800	-3.379578	40.92392	-91.39363
420804	-589	-724	676	-1.3869	0.5532062	-4.006608	0	10.66	4002	0	0	5	5	0.04826418	0.0743365	6	10	0.03	1800	-4.268127	40.92392	-91.39363
420930	-1057	1343	-176	-2.407911	2.191751	-3.158265	0	10.32	4003	0	0	5	5	0.05097048	0.07779309	6	10	0.03	1800	-4.398071	40.92392	-91.39363
420983	-1145	-881	-2444	-2.825979	1.162155	-2.572753	0	10.32	4004	0	0	5	5	0.05510213	0.08387471	6	10	0.03	1800	-5.985443	40.92392	-91.39363
421079	158	-1087	-386	-1.715637	2.613497	-0.06575341	0	10.32	4003	0	0	5	5	0.05967998	0.09860506	6	10	0.03	1800	-10.60254	40.92392	-91.39363
421248	346	1818	-1091	-3.076336	-1.108406	-0.2597213	0	10.32	4002	0	0	5	5	0.08588906	0.1241405	6	10	0.03	1800	-12.19193	40.92392	-91.39363
421268	1248	1614	-271	-2.267874	-2.546703	-0.3631957	0	10.32	4002	0	0	5	5	0.09383276	0.1280961	6	10	0.03	1800	-12.19193	40.92392	-91.39363
421411	280	1178	445	-0.1611693	-7.345723	-1.329393	0	10.32	4003	0	0	5	5	0.1522781	0.1648193	6	10	0.03	1800	-12.45355	40.92392	-91.39363
421463	-1059	-1603	544	-0.1032037	-7.208624	-1.537793	0	10.32	4005	0	0	5	5	0.1662396	0.1692172	8	10	0.03	1800	-12.45355	40.92392	-91.39363
421716	104	-71	-1482	3.79189	-11.41642	1.125576	0	10.32	4002	0	0	5	5	0.2317934	0.1988372	8	10	0.03	1800	-11.71664	40.92392	-91.39364
421855	-2898	-1232	2205	1.244551	-7.370231	0.4344428	0	10.6	4004	-24	0	5	5	0.2564048	0.2527776	8	10	0.03	1800	-10.65594	40.92392	-91.39364
421907	2333	-1383	2589	0.6076661	-4.627695	-0.6222557	0	10.6	4003	-24	0	5	5	0.2599536	0.262542	8	10	0.03	1800	-8.862762	40.92392	-91.39364
422011	1883	196	-1201	2.279466	-4.051176	-1.302446	0	10.6	4003	-24	0	5	5	0.2709376	0.333802	8	10	0.03	1800	-7.589813	40.92392	-91.39364
422122	-415	-662	890	3.131161	-3.634017	-0.6147093	0	10.6	4002	-24	-12	5	5	0.2766165	0.3868029	8	10	0.03	1800	-6.688202	40.92392	-91.39364
422264	-340	-482	-1487	0.4118959	-3.686765	-1.124958	0	10.6	4003	-24	-12	5	5	0.2828723	0.4985734	8	10	0.03	1800	-5.553558	40.92392	-91.39364
422366	-144	952	1685	0.7602584	-5.770297	-1.366258	0	10.6	4003	-24	-12	5	5	0.2853169	0.5945875	8	10	0.03	1800	-5.459869	40.92392	-91.39364
422461	1328	-2586	-563	1.428229	-2.273283	-0.4531651	0	10.6	4003	-24	-12	5	5	0.2865664	0.7289184	8	10	0.03	1800	-5.28891	40.92392	-91.39364
422592	-873	-870	-595	0.898431	-4.064258	-0.5698518	0	10.6	4002	-24	-12	5	5	0.2883982	0.8082007	8	10	0.03	1800	-4.739044	40.92392	-91.39364
422697	-155	-190	-271	2.204925	-4.084061	-0.6125691	0	10.77	4002	-24	-12	5	5	0.2893453	0.8960711	8	10	0.03	1800	-3.935272	40.92392	-91.39364
422839	375	-821	751	3.133127	-4.901752	0.3174681	0	10.77	4002	-24	-12	5	5	0.2903886	1.001477	8	10	0.03	1800	-6.726776	40.92392	-91.39364
422929	-775	306	-573	2.533313	-6.961091	0.5108439	0	10.77	4003	-24	-12	5	5	0.2906745	1.052181	8	10	0.03	1800	-2.988464	40.92392	-91.39364
422975	-400	-1619	107	2.268219	-7.221566	0.3533339	0	10.77	4002	-24	0	5	5	0.290906	1.101292	8	10	0.03	1800	-2.988464	40.92392	-91.39364
423135	-1470	356	899	0.5662813	-1.453522	-1.178439	0	10.77	4003	-24	0	5	5	0.2913102	1.205248	8	10	0.03	1800	0.05881339	40.92392	-91.39364
423242	105	-104	-517	-0.5863112	-4.599266	-2.151404	0	10.77	4002	-24	0	5	5	0.2914681	1.281473	8	10	0.03	1800	-0.3968811	40.92392	-91.39364
423286	1424	-1009	-971	0.1487358	-3.612314	-1.984599	0	10.77	4003	-24	0	5	5	0.2914681	1.281473	8	10	0.03	1800	1.534014	40.92392	-91.39364
423410	365	-1051	-2921	2.356776	-3.864413	-0.2850344	0	10.77	4004	-24	-12	5	5	0.2916421	1.363127	8	10	0.03	1800	1.162289	40.92392	-91.39364
423557	-394	-718	644	1.475468	-5.365662	0.2629684	0	10.77	4004	-24	-12	5	5	0.2917449	1.475782	8	10	0.03	1800	3.321357	40.92392	-91.39364
423609	-442	-2054	787	0.9451002	-3.156457	-0.1640156	0	11.17	4003	-24	-12	5	5	0.2917597	1.489754	8	10	0.03	1800	3.321357	40.92392	-91.39364
423775	281	1451	173	1.62009	-3.297216	-1.526777	0	11.17	4004	-24	-24	5	5	0.2918221	1.58461	8	10	0.03	1800	3.113746	40.92392	-91.39364
423942	826	2272	644	0.7553716	-3.118378	-1.164762	0	11.17	4003	-24	-24	5	5	0.2918465	1.640296	8	10	0.03	1800	6.747882	40.92392	-91.39364
424066	954	2009	-2454	0.6348163	-9.205813	-1.104084	0	11.17	4004	0	-36	5	5	0.2918625	1.680406	8	10	0.03	1800	9.645686	40.92391	-91.39363
424136	1929	100	-1201	1.962864	-10.32392	0.04882821	0	11.17	4004	0	-43	5	5	0.2918683	1.699288	8	10	0.03	1800	7.563811	40.92391	-91.39363
424180	184	-1380	-825	2.294	-9.880535	0.3292517	0	11.17	4002	0	-36	5	5	0.291873	1.716084	8	10	0.03	1800	7.623208	40.92391	-91.39363
424247	-1409	-1206	1928	0.9623546	-6.280437	-0.1729862	0	11.17	4004	0	-36	5	5	0.2918768	1.732369	8	10	0.03	1800	9.845603	40.92391	-91.39363
424500	-831	3932	1376	-1.180428	-11.58125	-1.477736	0	10.15	4004	0	-48	5	5	0.2918853	1.751479	8	10	0.03	1800	10.48786	40.92391	-91.39363
424673	-1136	-1468	-40	-0.8928109	-9.349637	0.3232434	0	10.15	4003	24	-60	5	5	0.2918889	1.754645	8	10	0.03	1800	4.454782	40.9239	-91.39362
424813	2106	2991	-702	0.3434264	-12.21156	1.185428	0	10.15	4003	24	-72	5	5	0.29189	1.7521	8	10	0.03	1800	4.831528	40.9239	-91.39362
424928	-1855	-71	2218	-0.4688067	-12.81429	-0.2254482	0	10.15	4002	24	-72	5	5	0.291891	1.744494	8	10	0.03	1800	2.274546	40.9239	-91.39362
425052	1058	1905	902	0.1555812	-10.95663	-1.394878	0	10.15	4003	24	-84	5	5	0.2918918	1.724	8	10	0.03	1800	0.775655	40.9239	-91.39362
425071	223	20	-892	0.5862868	-11.21039	-1.578687	0	10.15	4004	24	-84	5	5	0.2918918	1.724	8	10	0.03	1800	0.775655	40.9239	-91.39362
425149	-773	852	184	0.4231305	-11.79239	-1.262616	0	10.15	4003	24	-84	5	5	0.2918921	1.714834	8	10	0.03	1800	3.069027	40.92389	-91.39362
425291	-254	1697	1358	-1.459079	-12.47948	0.04036348	0	10.15	4002	48	-96	5	5	0.2918924	1.683022	8	10	0.03	1800	-0.7582703	40.92389	-91.39362
425361	208	-1068	-960	-0.5132117	-13.14035	0.9741718	0	10.15	4003	48	-108	5	5	0.2918926	1.670227	8	10	0.03	1800	-4.006134	40.92389	-91.39362
425533	-274	623	-95	-3.456092	-10.46879	-0.2396189	0	10.55	4004	72	-108	5	5	0.2918927	1.65227	8	10	0.03	1800	-3.585907	40.92389	-91.39361
425561	690	1936	817	-2.683005	-10.63095	-0.4899772	0	10.55	4002	72	-108	5	5	0.2918927	1.650624	8	10	0.03	1800	-7.761108	40.92389	-91.39361
425660	-1329	444	-1595	-2.852647	-12.96371	-1.276936	0	10.55	4004	72	-108	5	5	0.2918928	1.64459	8	10	0.03	1800	-7.187042	40.92389	-91.39361
425799	-981	-944	-463	-2.587829	-13.38994	-0.6735455	0	10.55	4002	72	-120	5	5	0.2918929	1.644809	8	10	0.03	1800	-8.20108	40.92389	-91.39361
425886	-1495	-2778	471	-3.257195	-11.11522	-1.234666	0	10.55	4002	96	-132	5	5	0.2918929	1.648826	8	10	0.03	1800	-8.414948	40.92388	-91.3936
425952	-975	711	-12	-4.47438	-8.95634	-1.848313	0	10.55	4003	96	-132	5	5	0.2918929	1.657515	8	10	0.03	1800	-9.489105	40.92388	-91.3936
426069	-1419	195	1224	-6.082525	-7.758711	-1.184949	0	10.55	4003	96	-132	5	5	0.2918929	1.678979	8	10	0.03	1800	-9.467194	40.92388	-91.3936
426188	-739	660	-199	-6.816973	-8.843633	-1.120016	0	10.55	4003	96	-132	5	5	0.2918929	1.69254	8	10	0.03	1800	-12.98676	40.92388	-91.3936
426254	1454	1206	-1562	-6.232075	-11.65156	-0.9165583	0	10.55	4003	96	-132	5	5	0.2918929	1.700888	8	10	0.03	1800	-15.26944	40.92388	-91.3936
426354	-907	962	-279	-5.58361	-12.71396	-0.5517309	0	10.43	4003	115	-158	5	5	0.2918929	1.70772	8	10	0.03	1800	-14.91626	40.92388	-91.3936
426462	-1600	-724	-686	-6.690154	-12.38393	0.3739983	0	10.43	4004	96	-132	5	5	0.2918929	1.711038	8	10	0.03	1800	-14.44907	40.92388	-91.3936
426579	-1113	57	1211	-6.39679	-10.25912	-0.2984458	0	10.43	4004	96	-132	5	5	0.2918929	1.709871	8	10	0.03	1800	-17.07034	40.92388	-91.3936
426745	-940	-967	-900	-6.63697	-9.90437	-0.7672637	0	10.43	4002	96	-132	5	5	0.2918929	1.695743	8	10	0.03	1800	-16.10641	40.92388	-91.3936
426776	-853	-615	-358	-7.201402	-8.504858	-0.9142507	0	10.43	4003	96	-132	5	5	0.2918929	1.690808	8	10	0.03	1800	-16.73361	40.92388	-91.3936
426877	-331	3495	405	-7.608871	-10.31562	-0.3965275	0	10.43	4003	96	-132	5	5	0.2918929	1.68862	8	10	0.03	1800	-17.35986	40.92388	-91.3936
427036	-1918	-1558	-947	-6.909908	-12.36455	-0.4403233	0	10.43	4002	96	-132	5	5	0.2918929	1.694787	8	10	0.03	1800	-19.4007	40.92388	-91.3936
427233	15	1922	1119	-7.379669	-11.93905	0.2082499	0	10.89	4003	96	-120	5	5	0.2918929	1.729174	8	10	0.03	1800	-20.7135	40.92389	-91.3936
427354	-661	1179	1600	-7.115901	-14.03194	-0.3114468	0	10.89	4003	96	-108	5	5	0.2918929	1.765195	8	10	0.03	1800	-20.99243	40.92389	-91.3936
427437	91	670	617	-7.829812	-14.09515	-0.5082145	0	10.89	4003	96	-108	5	5	0.2918929	1.793885	8	10	0.03	1800	-21.10083	40.92389	-91.3936
427503	1090	175	-1034	-6.819281	-13.60762	0.8581521	0	10.89	4004	72	-96	5	5	0.2918929	1.839863	8	10	0.03	1800	-23.34824	40.92389	-91.39361
427609	-1902	-1685	648	-6.679704	-12.06576	1.355165	0	10.89	4003	72	-96	5	5	0.2918929	1.907056	8	10	0.03	1800	-22.99493	40.92389	-91.39361
427671	-1996	-904	1397	-7.863638	-11.10705	0.9195696	0	10.89	4002	72	-96	5	5	0.2918929	1.952551	8	10	0.03	1800	-22.99493	40.9239	-91.39362
427770	4695	-1432	395	-5.24304	-8.977849	-1.131812	0	10.89	4002	48	-84	5	5	0.2918929	2.0236	8	10	0.03	1800	-22.4256	40.9239	-91.39362
427831	2731	125	1510	-1.066488	-8.520373	-1.72271	0	10.89	4004	48	-84	5	5	0.2918929	2.036957	8	10	0.03	1800	-20.71494	40.9239	-91.39362
427931	1709	-1666	604	0.8370771	-9.089879	-1.948839	0	10.89	4004	48	-72	5	5	0.2918929	2.098849	8	10	0.03	1800	-19.10785	40.9239	-91.39362
428024	4702	-1224	-518	3.16678	-6.949275	-1.310183	0	10.89	4004	48	-72	5	5	0.2918929	2.142832	8	10	0.03	1800	-19.33188	40.9239	-91.39362
428164	1450	-4119	371	6.950033	-3.708718	-0.7840407	0	10.38	4003	0	-72	5	5	0.2918929	2.213883	8	10	0.03	1800	-17.17004	40.9239	-91.39363
428296	1211	-4797	1513	6.924228	5.306304	-1.629234	0	10.38	4003	0	-36	5	5	0.2918929	2.256221	8	10	0.03	1800	-15.78613	40.92391	-91.39363
428362	1934	-2665	2030	7.779834	8.808217	-1.668439	0	10.38	4003	0	-36	5	5	0.2918929	2.285401	8	10	0.03	1800	-15.37778	40.92391	-91.39363
428428	335	-3036	-367	7.265624	9.53847	-2.093331	0	10.38	4002	0	-36	5	5	0.2918929	2.302973	8	10	0.03	1800	-14.60089	40.92392	-91.39364
428540	-1287	-5364	-1211	3.020578	14.45884	-1.656833	0	10.38	4003	-24	-12	5	5	0.2918929	2.334438	8	10	0.03	1800	-8.83017	40.92392	-91.39364
428631	2100	4156	469	4.968899	11.07292	-1.545701	0	10.38	4003	300	300	5	5	0.2918929	2.330709	8	10	0.03	1800	-7.227905	40.92393	-91.39365
428770	1933	1479	110	1.441304	2.853367	-2.261726	0	10.38	4002	-48	12	5	5	0.2918929	2.263183	8	10	0.03	1800	1.701936	40.92393	-91.39365
428855	4320	2246	919	4.866137	0.6551333	-2.383473	0	10.38	4003	-72	24	5	5	0.2918929	2.244009	8	10	0.03	1800	1.455301	40.92393	-91.39365
428955	2853	2509	-248	5.945354	-2.689091	-1.514758	0	10.38	4003	-72	24	5	5	0.2918929	2.022352	8	10	0.03	1800	11.67292	40.92393	-91.39365
429107	339	1351	-1803	11.93718	-12.0572	-0.2027744	0	10.55	4002	-96	36	5	5	0.2918929	1.714366	8	10	0.03	1800	22.63246	40.92393	-91.39366
429208	-1415	-1596	-11	7.901314	-10.0563	0.4742303	0	10.55	4004	-96	36	5	5	0.2918929	1.631692	8	10	0.03	1800	22.69151	40.92393	-91.39366
429327	2303	2137	525	7.340238	-8.104121	0.8051636	0	10.55	4002	-120	36	5	5	0.2918929	1.434369	8	10	0.03	1800	26.64114	40.92393	-91.39367
429352	1909	1425	1113	8.346779	-8.298888	0.8052099	0	10.55	4004	-120	36	5	5	0.2918929	1.396151	8	10	0.03	1800	27.1987	40.92393	-91.39367
429470	-612	-2160	147	8.530277	-6.965727	0.414883	0	10.55	4002	-120	36	5	5	0.2918929	1.209078	8	10	0.03	1800	34.108	40.92393	-91.39367
429576	13756	1212	-3808	17.99928	-6.372277	0.6381137	0	10.55	4002	-120	36	5	5	0.2918929	1.013898	8	10	0.03	1800	32.38143	40.92393	-91.39367
429691	-12690	641	-239	21.54121	-5.726958	5.261066	0	10.55	4004	-120	36	5	5	0.2918929	0.9556034	8	10	0.03	1800	23.69212	40.92393	-91.39367
429779	-13841	-4618	1933	5.28924	-3.14698	2.81121	0	10.55	4003	-120	48	5	5	0.2918929	0.8312879	8	10	0.03	1800	31.27028	40.92394	-91.39367
429865	-5095	-1770	1832	-5.105503	1.21181	0.3918572	0	10.55	4004	-120	48	5	5	0.2918929	0.7733135	8	10	0.03	1800	30.44377	40.92394	-91.39367
429996	-2919	-363	-1779	-12.38351	-1.479549	-1.067653	0	9.75	4004	-96	48	5	5	0.2918929	0.6791273	8	10	0.03	1800	27.94654	40.92394	-91.39366
430103	2954	-104	-1167	-9.261562	-0.9768192	0.3060598	0	9.75	4002	-96	48	5	5	0.2918929	0.6360666	8	10	0.03	1800	20.22572	40.92393	-91.39366
430176	-1714	-1871	1481	-5.641476	2.188797	-0.2891622	0	9.75	4004	-96	36	5	5	0.2918929	0.6180294	8	10	0.03	1800	19.41501	40.92393	-91.39366
430258	999	3932	1117	-5.314655	0.8393033	-1.108736	0	9.75	4004	-72	36	5	5	0.2918929	0.6071755	8	10	0.03	1800	21.52807	40.92393	-91.39365
430417	-3080	2620	-645	-6.90363	-8.253985	-2.613992	0	9.75	4002	-72	36	5	5	0.2918929	0.5948831	8	10	0.03	1800	12.82957	40.92393	-91.39365
430539	1045	1225	-2531	-6.131138	-8.654908	-0.9781818	0	9.75	4004	-72	24	5	5	0.2918929	0.6040477	8	10	0.03	1800	2.239028	40.92393	-91.39365
430559	-150	1909	-479	-6.214435	-8.875181	-0.3567868	0	9.75	4003	-72	24	5	5	0.2918929	0.6040477	8	10	0.03	1800	-0.03939819	40.92393	-91.39365
430655	-1385	293	-2242	-7.569774	-8.362172	0.9399224	0	9.75	4003	-48	12	5	5	0.2918929	0.6233588	8	10	0.03	1800	-1.041718	40.92393	-91.39365
430765	-586	-106	618	-7.94944	-9.283544	0.6744618	0	9.75	4004	-48	12	5	5	0.2918929	0.6484357	8	10	0.03	1800	-7.172974	40.92393	-91.39365
430928	2668	4609	91	-1.875642	-15.98796	-1.174807	0	10.26	4002	-48	0	5	5	0.2918929	0.7193501	8	10	0.03	1800	-5.772614	40.92392	-91.39365
430966	98	649	-1764	-1.246052	-16.96245	-0.9210622	0	10.26	4003	-48	0	5	5	0.2918929	0.7299323	8	10	0.03	1800	-5.772614	40.92392	-91.39365
431052	-111	-1232	-1278	-1.168893	-16.04198	-0.7128941	0	10.26	4003	-48	-12	5	5	0.2918929	0.7620525	8	10	0.03	1800	-7.54007	40.92392	-91.39365
431160	-1036	-1529	-549	-0.2872785	-13.561	-0.3099145	0	10.26	4004	-48	-12	5	5	0.2918929	0.8297023	8	10	0.03	1800	-6.429688	40.92392	-91.39364
431241	-1576	-1810	2133	-0.7775011	-12.6009	-0.8768599	0	10.26	4002	-24	-12	5	5	0.2918929	0.8642738	8	10	0.03	1800	-6.056793	40.92392	-91.39364
431336	-498	-3411	-723	-1.592136	-10.26119	-0.8634166	0	10.26	4003	-24	-12	5	5	0.2918929	0.9210117	8	10	0.03	1800	-7.342133	40.92392	-91.39364
431479	169	1218	1168	-0.03852263	-8.62671	-1.683591	0	10.26	4002	-24	-12	5	5	0.2918929	1.007666	8	10	0.03	1800	-5.084106	40.92392	-91.39364
431540	-153	-3866	-571	0.1000445	-7.36294	-2.037318	0	10.26	4004	-24	-12	5	5	0.2918929	1.031262	8	10	0.03	1800	-5.054321	40.92392	-91.39364
431694	1259	1453	-1342	2.85442	-4.550378	-0.5853589	0	10.26	4004	-24	-24	5	5	0.2918929	1.140106	8	10	0.03	1800	-5.269409	40.92392	-91.39364
431732	472	860	-699	3.154879	-5.391286	-0.2529381	0	10.26	4002	0	-24	5	5	0.2918929	1.153045	8	10	0.03	1800	-6.358734	40.92392	-91.39363
431878	-626	1717	1077	0.3942985	-4.268634	-0.3790592	0	10.38	4002	0	-24	5	5	0.2918929	1.239412	8	10	0.03	1800	-5.518616	40.92392	-91.39363
431932	395	1988	166	0.04422667	-5.386621	-0.7007887	0	10.38	4004	0	-24	5	5	0.2918929	1.271691	8	10	0.03	1800	-4.408905	40.92392	-91.39363
432129	1106	1578	56	1.354479	-9.697569	0.04972077	0	10.38	4003	0	-12	5	5	0.2918929	1.33903	8	10	0.03	1800	-5.404846	40.92392	-91.39363
432188	117	-1984	-413	2.229339	-8.578475	0.8064659	0	10.38	4003	0	-12	5	5	0.2918929	1.353622	8	10	0.03	1800	-5.269318	40.92392	-91.39363
432289	-1808	-2137	1634	-0.04912807	-5.392832	-0.471992	0	10.38	4004	0	-12	5	5	0.2918929	1.377017	8	10	0.03	1800	-4.652649	40.92392	-91.39363
432333	530	-1445	816	-0.7214448	-2.606366	-1.258685	0	10.38	4004	0	-12	5	5	0.2918929	1.392578	8	10	0.03	1800	-4.284973	40.92392	-91.39363
432439	231	743	-1579	-0.1488593	-2.595358	-1.837841	0	10.38	4004	0	-12	5	5	0.2918929	1.414869	8	10	0.03	1800	-3.696014	40.92392	-91.39362
432574	585	146	327	-2.060563	-3.358025	-1.307256	0	10.38	4004	24	-24	5	5	0.2918929	1.449395	8	10	0.03	1800	-4.900543	40.92392	-91.39362
432653	-333	-1543	-1941	-2.047844	-2.595095	-0.5297285	0	10.38	4003	24	-24	5	5	0.2918929	1.477766	8	10	0.03	1800	-5.375885	40.92392	-91.39362
432733	-776	-958	-686	-2.395668	-2.754794	-0.3408248	0	10.72	4004	24	-24	5	5	0.2918929	1.500643	8	10	0.03	1800	-4.346436	40.92392	-91.39362
432837	-1105	-508	210	-1.46428	-3.20086	-0.5107836	0	10.72	4003	48	-24	5	5	0.2918929	1.511878	8	10	0.03	1800	-6.05246	40.92392	-91.39362
433034	334	-1213	-1098	-2.506685	-1.439248	-1.860519	0	10.72	4002	48	-24	5	5	0.2918929	1.537583	8	10	0.03	1800	-8.235504	40.92392	-91.39362
433081	657	2283	-651	-2.148655	-3.934916	-1.635452	0	10.72	4003	48	-24	5	5	0.2918929	1.539951	8	10	0.03	1800	-7.647644	40.92392	-91.39362
433149	-907	1171	57	-2.502171	-5.542231	-1.651041	0	10.72	4004	48	-24	5	5	0.2918929	1.544346	8	10	0.03	1800	-7.992523	40.92392	-91.39362
433263	-793	2494	1730	-2.160159	-5.459935	-1.2901	0	10.72	4002	48	-24	5	5	0.2918929	1.544117	8	10	0.03	1800	-10.27734	40.92392	-91.39362
433352	-481	-1331	-1987	-3.563947	-7.685239	-1.273536	0	10.72	4002	48	-24	5	5	0.2918929	1.531748	8	10	0.03	1800	-11.61319	40.92392	-91.39362
433456	488	-1479	-895	-3.102049	-6.059189	-0.8263897	0	10.72	4003	48	-24	5	5	0.2918929	1.519223	8	10	0.03	1800	-11.99908	40.92392	-91.39362
433587	624	-28	-403	-3.433503	-5.950615	-0.7047463	0	10.72	4003	57	-43	5	5	0.2918929	1.505556	8	10	0.03	1800	-11.42758	40.92391	-91.39362
433655	348	244	1789	-3.466003	-6.111536	-0.4136333	0	9.87	4002	48	-36	5	5	0.2918929	1.501356	8	10	0.03	1800	-10.48895	40.92391	-91.39362
433816	-869	-424	1779	-2.878724	-6.145308	0.09382303	0	9.87	4003	72	-36	5	5	0.2918929	1.492259	8	10	0.03	1800	-14.79691	40.92391	-91.39361
433849	-1428	-372	1517	-3.338829	-5.823007	-0.6183711	0	9.87	4003	72	-36	5	5	0.2918929	1.488707	8	10	0.03	1800	-14.79691	40.92391	-91.39361
434014	365	-1024	-1594	-3.849972	-5.599087	-1.201203	0	9.87	4003	72	-36	5	5	0.2918929	1.479175	8	10	0.03	1800	-16.20157	40.92391	-91.39361
434108	-2897	-2788	-2784	-4.712777	-4.935128	0.04771538	0	9.87	4003	72	-36	5	5	0.2918929	1.474683	8	10	0.03	1800	-17.80502	40.92391	-91.39361
434226	-2068	1723	2008	-8.765343	-2.236428	1.062566	0	9.87	4003	72	-36	5	5	0.2918929	1.479453	8	10	0.03	1800	-19.43442	40.92391	-91.39361
434275	668	2365	-718	-9.371144	-4.152108	0.566075	0	9.87	4002	72	-36	5	5	0.2918929	1.483443	8	10	0.03	1800	-24.02347	40.92391	-91.39361
434398	178	-335	344	-4.394891	-6.07328	-0.3357181	0	9.87	4003	72	-36	5	5	0.2918929	1.496612	8	10	0.03	1800	-24.23419	40.92391	-91.39361
434447	-1157	-621	-61	-5.249847	-5.324025	-0.9612119	0	9.87	4002	72	-48	5	5	0.2918929	1.498578	8	10	0.03	1800	-23.3071	40.92391	-91.39361
434552	2124	1880	-710	-4.145238	-5.692402	-0.7331316	0	10.55	4002	72	-48	5	5	0.2918929	1.514566	8	10	0.03	1800	-25.79074	40.92391	-91.39361
434672	-1405	-1319	-168	-3.391128	-7.234882	-0.4268362	0	10.55	4002	72	-60	5	5	0.2918929	1.537401	8	10	0.03	1800	-23.34229	40.9239	-91.39361
434767	36	233	-1862	-3.721551	-5.314323	-0.2436486	0	10.55	4003	72	-60	5	5	0.2918929	1.55037	8	10	0.03	1800	-24.74744	40.9239	-91.39361
434892	-1125	-176	312	-5.598652	-6.030206	-0.7451733	0	10.55	4002	48	-60	5	5	0.2918929	1.5815	8	10	0.03	1800	-26.5065	40.9239	-91.39362
434925	-389	669	1005	-5.715185	-5.972414	-1.055297	0	10.55	4002	48	-60	5	5	0.2918929	1.5815	8	10	0.03	1800	-25.48944	40.9239	-91.39362
435029	-1105	-2831	-250	-6.221699	-3.069399	-1.687314	0	10.55	4002	48	-72	5	5	0.2918929	1.612984	8	10	0.03	1800	-27.6608	40.9239	-91.39362
435122	703	-553	-2678	-6.115675	-1.651437	-1.190171	0	10.55	4004	57	-86	5	5	0.2918929	1.634062	8	10	0.03	1800	-28.08218	40.9239	-91.39362
435259	2546	357	-1935	-4.295758	-6.048625	-0.1909797	0	10.55	4003	24	-84	5	5	0.2918929	1.662844	8	10	0.03	1800	-28.53845	40.9239	-91.39362
435325	-292	2178	1586	-2.688688	-6.888807	-0.02082964	0	10.55	4004	24	-84	5	5	0.2918929	1.681956	8	10	0.03	1800	-28.99869	40.9239	-91.39362
435456	1200	-983	315	-4.609133	-6.522326	-1.668722	0	10.38	4003	24	-84	5	5	0.2918929	1.709461	8	10	0.03	1800	-25.94168	40.9239	-91.39362
435526	2309	662	408	-3.590584	-5.922523	-1.680435	0	10.38	4003	24	-84	5	5	0.2918929	1.729702	8	10	0.03	1800	-25.94168	40.92389	-91.39363
435631	3624	2422	-857	1.758046	-8.957068	-0.6703234	0	10.38	4005	0	-96	5	5	0.2918929	1.750842	8	10	0.03	1800	-24.12845	40.92389	-91.39363
435733	1856	-951	97	4.693909	-10.07288	-0.8872681	0	10.38	4002	0	-108	5	5	0.2918929	1.766068	8	10	0.03	1800	-17.13516	40.92389	-91.39363
435836	4351	-803	-141	7.114256	-8.604836	-1.236813	0	10.38	4003	0	-108	5	5	0.2918929	1.79386	8	10	0.03	1800	-17.13516	40.92389	-91.39363
435941	3163	2163	-339	11.38595	-9.874676	-2.225012	0	10.38	4004	-24	-108	5	5	0.2918929	1.801917	8	10	0.03	1800	-13.5257	40.92389	-91.39364
436085	2397	902	1352	14.54568	-11.08622	-1.219172	0	10.38	4002	-24	-108	5	5	0.2918929	1.785825	8	10	0.03	1800	-3.592773	40.92389	-91.39364
436145	839	-291	-997	14.56798	-11.03548	-0.6336807	0	10.38	4003	-48	-108	5	5	0.2918929	1.766206	8	10	0.03	1800	-0.186676	40.92389	-91.39365
436260	1105	2300	-158	8.479752	-12.01554	1.044828	0	10.38	4003	-48	-108	5	5	0.2918929	1.728854	8	10	0.03	1800	5.279477	40.92389	-91.39365
436351	-415	1336	1672	8.055757	-12.79251	0.8051875	0	10.38	4004	-72	-120	5	5	0.2918929	1.686275	8	10	0.03	1800	5.72529	40.92389	-91.39365
436444	832	-156	1064	7.853745	-11.51727	0.3525321	0	10.55	4004	-72	-120	5	5	0.2918929	1.617987	8	10	0.03	1800	5.964069	40.92389	-91.39365
436547	-742	1729	1435	6.890787	-9.299878	-1.179582	0	10.55	4003	-72	-120	5	5	0.2918929	1.568132	8	10	0.03	1800	8.41336	40.92389	-91.39365
436650	-191	1103	272	6.511392	-11.89582	-1.761014	0	10.55	4004	-86	-143	5	5	0.2918929	1.475793	8	10	0.03	1800	12.0647	40.92389	-91.39365
436785	-7162	1633	285	0.289159	-11.8008	-0.6778953	0	10.55	4002	-72	-108	5	5	0.2918929	1.370417	8	10	0.03	1800	12.94432	40.92389	-91.39365
436862	-3751	1283	-16	-6.852422	-11.48993	-0.50692	0	10.55	4002	-72	-108	5	5	0.2918929	1.303247	8	10	0.03	1800	10.38049	40.92389	-91.39365
436950	-2670	801	-72	-11.10458	-10.4643	-1.301647	0	10.55	4004	-72	-108	5	5	0.2918929	1.257031	8	10	0.03	1800	8.219152	40.92389	-91.39365
437052	-3268	-1226	692	-13.22776	-9.866776	-1.614798	0	10.55	4004	-48	-108	5	5	0.2918929	1.196802	8	10	0.03	1800	5.151894	40.92389	-91.39365
437155	-3093	-1569	720	-15.32399	-7.629534	-2.487756	0	10.55	4004	-48	-108	5	5	0.2918929	1.138519	8	10	0.03	1800	3.652733	40.92389	-91.39365
437260	3180	3025	425	-10.35446	-8.295385	-2.837789	0	10.55	4004	-48	-96	5	5	0.2918929	1.069431	8	10	0.03	1800	0.3060653	40.92389	-91.39365
437362	1967	-1848	37	-5.794077	-6.613496	-2.759901	0	10.26	4002	-48	-96	5	5	0.2918929	1.042524	8	10	0.03	1800	-0.5192566	40.92389	-91.39365
437465	2115	-604	-6	-2.086217	-4.443074	-1.374128	0	10.26	4004	-48	-84	5	5	0.2918929	1.007716	8	10	0.03	1800	-2.208466	40.9239	-91.39365
437569	1417	-4719	-1937	-0.2624609	0.2784983	0.425796	0	10.26	4002	-48	-84	5	5	0.2918929	0.9562385	8	10	0.03	1800	-2.887329	40.9239	-91.39365
437672	561	-1171	700	0.8391715	4.202437	0.3491445	0	10.26	4003	-57	-100	5	5	0.2918929	0.929599	8	10	0.03	1800	-3.595276	40.9239	-91.39365
437776	628	3970	1709	0.4347043	-0.4309373	-1.078853	0	10.26	4002	-48	-84	5	5	0.2918929	0.8899304	8	10	0.03	1800	-1.949402	40.9239	-91.39365
437879	82	-194	726	2.362417	-4.274574	-1.159736	0	10.26	4004	-48	-60	5	5	0.2918929	0.8681949	8	10	0.03	1800	-1.715302	40.9239	-91.39365
437982	-4206	5	345	-4.910888	-5.70705	-0.2507437	0	10.26	4003	-48	-60	5	5	0.2918929	0.8437136	8	10	0.03	1800	0.7991957	40.92391	-91.39365
438085	-2794	1	1595	-8.564963	-4.938494	-0.2660327	0	10.26	4004	-48	-48	5	5	0.2918929	0.8063982	8	10	0.03	1800	-1.446014	40.92391	-91.39365
438189	3339	-915	951	-7.234571	-4.227936	-0.8949434	0	10.26	4002	-24	-36	5	5	0.2918929	0.7912508	8	10	0.03	1800	-4.575134	40.92391	-91.39364
438293	-270	-783	880	-4.400188	-3.844274	-1.896214	0	10.26	4004	-24	-36	5	5	0.2918929	0.7779142	8	10	0.03	1800	-6.35849	40.92391	-91.39364
438397	1680	-5639	-1390	-2.207834	-0.3057629	-2.095091	0	10.26	4002	-24	-24	5	5	0.2918929	0.7786368	8	10	0.03	1800	-5.513336	40.92392	-91.39364
438501	-505	-5418	397	-0.5551505	4.801306	-1.694761	0	10.26	4002	-24	-24	5	5	0.2918929	0.778823	8	10	0.03	1800	-5.947479	40.92392	-91.39364
438605	262	1506	694	-0.2461132	7.530062	-1.069016	0	10.26	4004	-24	0	5	5	0.2918929	0.7809131	8	10	0.03	1800	-7.82785	40.92392	-91.39364
438709	-485	312	-707	-0.4002041	4.271295	-1.163578	0	10.26	4003	-24	0	5	5	0.2918929	0.7920944	8	10	0.03	1800	-8.782471	40.92393	-91.39364
438813	0	-1251	-1837	0.3760528	2.554473	-0.9125882	0	10.26	4003	-24	12	5	5	0.2918929	0.7931717	8	10	0.03	1800	-8.171448	40.92393	-91.39364
438917	996	-2011	-503	0.2853172	-0.0329281	-0.8152572	0	10.26	4002	-28	14	5	5	0.2918929	0.7931331	8	10	0.03	1800	-6.759399	40.92393	-91.39364
439030	135	-815	1313	0.1477058	2.131056	-1.081695	0	10.26	4003	-28	28	5	5	0.2918929	0.7783552	8	10	0.03	1800	-7.437439	40.92393	-91.39364
439123	1234	-198	-634	0.4440533	2.068611	-1.192342	0	10.26	4004	0	36	5	5	0.2918929	0.7687171	8	10	0.03	1800	-9.372528	40.92393	-91.39363
439226	-242	1935	1451	0.7700682	1.111748	-1.208175	0	10.09	4004	0	36	5	5	0.2918929	0.7509164	8	10	0.03	1800	-5.618225	40.92393	-91.39363
439330	1452	893	517	1.065741	-0.08189207	-0.8187801	0	10.09	4003	0	36	5	5	0.2918929	0.739949	8	10	0.03	1800	-5.737244	40.92393	-91.39363
439436	14	1534	1185	1.645682	-1.999102	-0.1885087	0	10.09	4002	0	36	5	5	0.2918929	0.7260212	8	10	0.03	1800	-6.183136	40.92393	-91.39363
