time(ms)	gyro_x(deg/s)	gyro_y(deg/s)	gyro_z(deg/s)	orientation_roll(deg)	orientation_pitch(deg)	orientation_yaw(deg)	throttle	battery(V)	loop_time(uS)	pid_output_roll	pid_output_pitch	pid_output_yaw	pid_output_throttle	ultrasonic_alt	baro_alt	flight_mode	p_gain_altitude	i_gain_altitude	d_gain_altitude	compass_heading	latitude	longitude
345441	-62	-183	-2	0.3646062	-0.03908204	0.7108175	0	11.46	4002	0	0	5	5	0.04561902	0.02910478	3	10	0.03	1800	-4.356842	40.92393	-91.39362
345525	3	-49	-14	0.3991987	-0.05177357	0.7121578	0	11.46	4002	0	0	5	5	0.04561902	0.03142177	3	10	0.03	1800	-5.101257	40.92393	-91.39362
345630	30	-78	-48	0.3373943	-0.02209677	0.7305619	0	11.46	4004	0	0	5	5	0.04561902	0.03710858	3	10	0.03	1800	-4.193146	40.92393	-91.39362
345730	126	-26	293	0.3932639	-0.009122781	0.7162032	0	11.46	4003	0	0	5	5	0.04561902	0.04259094	3	10	0.03	1800	-4.134705	40.92393	-91.39362
345879	18	-226	37	0.3678771	-0.01585897	0.726781	0	11.46	4003	0	0	5	5	0.04561902	0.0447135	3	10	0.03	1800	-5.004974	40.92393	-91.39362
345964	-93	-28	-103	0.3781658	-0.002246046	0.7262375	0	11.46	4007	0	0	5	5	0.04561902	0.0438742	3	10	0.03	1800	-4.442719	40.92393	-91.39362
346110	116	-186	208	0.3580415	0.0318406	0.7404153	0	11.46	4002	0	0	5	5	0.04561902	0.0415947	3	10	0.03	1800	-5.186584	40.92393	-91.39362
346177	187	-131	570	0.372804	0.01040475	0.7459177	0	11.46	4002	0	0	5	5	0.04561902	0.04119805	3	10	0.03	1800	-4.634308	40.92393	-91.39362
346243	-20	-18	-8	0.3299509	0.020339	0.771963	0	11.46	4004	0	0	5	5	0.04561902	0.03719775	3	10	0.03	1800	-4.594971	40.92393	-91.39362
346428	-5	102	-155	0.4059568	0.009244429	0.7788903	0	11.51	4002	0	0	5	5	0.04561902	0.03826761	3	10	0.03	1800	-4.413422	40.92393	-91.39362
346461	-73	-67	-290	0.3596931	0.06276109	0.7999867	0	11.51	4003	0	0	5	5	0.04561902	0.03996187	3	10	0.03	1800	-4.413422	40.92393	-91.39362
346561	-3	3	124	0.3607309	-0.06020725	0.7862836	0	11.51	4002	0	0	5	5	0.04561902	0.04309313	3	10	0.03	1800	-4.651855	40.92393	-91.39362
346647	196	93	197	0.3187418	-0.05954926	0.779967	0	11.51	4003	0	0	5	5	0.04561902	0.04012087	3	10	0.03	1800	-4.708832	40.92393	-91.39362
346750	-110	-98	-31	0.3349987	-0.04360633	0.7824675	0	11.51	4004	0	0	5	5	0.04561902	0.03100299	3	10	0.03	1800	-4.177307	40.92393	-91.39362
346875	-49	-30	169	0.394322	-0.005069243	0.7847444	0	11.51	4002	0	0	5	5	0.04561902	0.02311693	3	10	0.03	1800	-4.325653	40.92393	-91.39362
346987	-52	96	-18	0.3058553	0.001475947	0.7819233	0	11.51	4002	0	0	5	5	0.04561902	0.01227698	3	10	0.03	1800	-4.842499	40.92393	-91.39362
347065	0	27	180	0.462061	-0.05760631	0.7583779	0	11.51	4004	0	0	5	5	0.04561902	0.01695088	3	10	0.03	1800	-5.006897	40.92393	-91.39362
347231	-83	-34	-286	0.6454352	-0.1057433	0.8200649	0	11.51	4002	0	0	5	5	0.04561902	0.02050826	3	10	0.03	1800	-4.73053	40.92393	-91.39362
347300	-154	10	-43	0.6419103	-0.07086418	0.8285491	0	11.51	4004	0	0	5	5	0.04561902	0.02204745	3	10	0.03	1800	-4.853058	40.92393	-91.39362
347439	-124	-46	-236	0.6335348	-0.06063596	0.7980028	0	11.51	4003	0	0	5	5	0.04561902	0.02040869	3	10	0.03	1800	-5.257172	40.92393	-91.39362
347539	197	66	325	0.5716408	-0.04550379	0.8416343	0	11.51	4004	0	0	5	5	0.04561902	0.01345478	3	10	0.03	1800	-4.586243	40.92393	-91.39362
347690	154	125	-264	0.6023418	-0.07390163	0.837557	0	11.51	4004	0	0	5	5	0.04561902	0.01138503	3	10	0.03	1800	-5.197845	40.92393	-91.39362
347796	37	-166	681	0.6996946	0.1859851	0.6527775	0	11.51	4004	0	0	5	5	0.04535298	0.01319312	6	10	0.03	1800	-4.62442	40.92393	-91.39362
347975	38	-46	358	0.6611498	0.2624193	0.2615918	0	11.51	4002	0	0	5	5	0.04475085	0.02117436	6	10	0.03	1800	-5.681488	40.92393	-91.39362
348026	98	-197	-619	0.6537768	0.3932363	-0.07730008	0	11.51	4003	0	0	5	5	0.04500053	0.03315932	6	10	0.03	1800	-5.003021	40.92393	-91.39362
348092	-28	-105	438	0.6553934	0.3640347	-0.5956318	0	11.51	4003	0	0	5	5	0.04492253	0.03826683	6	10	0.03	1800	-4.07782	40.92393	-91.39362
348283	301	-231	11	0.9116111	0.2645866	-1.039467	0	11	4003	0	0	5	5	0.04513728	0.04340054	6	10	0.03	1800	-3.927368	40.92393	-91.39362
348342	-72	295	-632	1.052529	0.1487269	-0.9147531	0	11	4003	0	0	5	5	0.0453426	0.04422349	6	10	0.03	1800	-3.927368	40.92393	-91.39362
348487	-92	-163	-411	1.303333	0.1887965	-0.3583949	0	11	4003	0	0	5	5	0.04550207	0.04981166	6	10	0.03	1800	-4.670746	40.92393	-91.39362
348555	227	-152	-881	1.146899	0.4015226	0.06291832	0	11	4003	0	0	5	5	0.04552929	0.06108716	6	10	0.03	1800	-5.168182	40.92393	-91.39362
348736	-632	-746	234	0.2889648	1.317792	0.8022661	0	11	4004	0	0	5	5	0.04642879	0.07587336	6	10	0.03	1800	-5.850983	40.92393	-91.39362
348875	-576	-871	2	-2.505145	2.893541	1.52584	0	11	4003	0	0	5	5	0.04191052	0.08534069	6	10	0.03	1800	-6.918732	40.92393	-91.39362
348946	-1686	2444	1332	-3.581297	0.8756895	0.9557748	0	11	4003	0	0	5	5	0.04756805	0.0916734	6	10	0.03	1800	-7.978241	40.92393	-91.39362
349028	673	680	377	-2.779436	-3.225706	0.9528645	0	11	4004	0	0	5	5	0.05372845	0.09736606	6	10	0.03	1800	-9.880615	40.92393	-91.39362
349145	1071	1909	-474	-0.4966129	-6.6053	1.687212	0	11.29	4004	0	0	5	5	0.07739048	0.1226936	6	10	0.03	1800	-10.27301	40.92393	-91.39362
349239	-705	-1364	3	-0.6188536	-7.952012	2.014669	0	11.29	4002	0	0	5	5	0.09525413	0.1331103	6	10	0.03	1800	-10.98969	40.92393	-91.39362
349284	49	-1980	-809	-0.6985813	-7.222015	2.322871	0	11.29	4003	0	0	5	5	0.1051768	0.1366053	6	10	0.03	1800	-10.15097	40.92393	-91.39362
349433	-779	-1062	-619	-0.8213118	-7.262141	2.279423	0	11.29	4002	0	0	5	5	0.1723625	0.167888	6	10	0.03	1800	-9.064728	40.92393	-91.39362
349512	-2529	-2620	765	-2.039884	-4.386674	2.035906	0	11.29	4004	0	0	5	5	0.2153412	0.185767	8	10	0.03	1800	-10.82367	40.92393	-91.39362
349595	5628	1802	-215	1.349889	-2.234128	2.571801	0	11.29	4004	0	-4	5	5	0.2501539	0.2121839	8	10	0.03	1800	-10.99399	40.92393	-91.39362
349762	725	-1233	-2200	4.253139	-3.745695	2.886556	0	11.29	4003	0	0	5	5	0.3196937	0.3219837	8	10	0.03	1800	-8.614563	40.92393	-91.39362
349793	6483	2420	-1033	6.226284	-3.955523	4.054053	0	11.29	4004	0	0	5	5	0.3275809	0.3545112	8	10	0.03	1800	-8.614563	40.92393	-91.39362
349958	-1916	-1032	1047	12.19977	-7.599977	7.027203	0	11.29	4004	0	0	5	5	0.3519927	0.4464937	8	10	0.03	1800	-7.122681	40.92393	-91.39362
350001	-3579	-305	3464	10.09766	-6.517849	5.898232	0	11.29	4002	0	0	5	5	0.3608416	0.502384	8	10	0.03	1800	-4.511932	40.92393	-91.39362
350126	971	-1346	529	3.789119	-3.375171	2.185044	0	10.26	4002	0	0	5	5	0.373815	0.7060432	8	10	0.03	1800	-0.06362915	40.92393	-91.39362
350228	-734	-591	-731	0.7395976	-0.2370657	1.282093	0	10.26	4004	0	0	5	5	0.3785177	0.7499181	8	10	0.03	1800	2.649174	40.92393	-91.39362
350307	-1095	387	810	0.5702726	-0.7038252	1.336763	0	10.26	4004	0	-12	5	5	0.3839508	0.8102853	8	10	0.03	1800	2.649174	40.92393	-91.39362
350437	-823	-179	1607	-2.386129	-2.948843	0.8863137	0	10.26	4004	0	-12	5	5	0.3879115	0.8748593	8	10	0.03	1800	2.447621	40.92393	-91.39362
350565	1200	288	-896	-2.765665	-1.084165	0.6777543	0	10.26	4002	0	-12	5	5	0.3922746	0.9914225	8	10	0.03	1800	3.131695	40.92393	-91.39362
350652	168	-1511	-2173	-2.140779	-1.279181	1.014484	0	10.26	4004	0	-12	5	5	0.39347	1.048443	8	10	0.03	1800	2.543195	40.92393	-91.39362
350728	261	-124	-118	-0.8821355	0.6732972	2.724708	0	10.26	4004	0	-12	5	5	0.3944382	1.109851	8	10	0.03	1800	1.743444	40.92393	-91.39362
350812	697	883	126	-0.7191045	0.6054858	2.915622	0	10.26	4003	0	-12	5	5	0.3955568	1.18779	8	10	0.03	1800	1.89257	40.92393	-91.39362
350943	-1128	335	-326	-1.564565	-1.280803	1.221198	0	10.26	4002	0	-12	5	5	0.3963723	1.265225	8	10	0.03	1800	2.310147	40.92393	-91.39362
351019	-1001	-573	-265	-3.116252	-2.142047	1.028501	0	9.81	4002	0	-12	5	5	0.3969668	1.458458	8	10	0.03	1800	2.510849	40.92393	-91.39362
351130	-117	-1078	-380	-3.400057	-1.70243	1.275373	0	9.81	4003	0	-12	5	5	0.3974002	1.529274	8	10	0.03	1800	4.046795	40.92393	-91.39362
351212	1519	2077	1760	-1.511328	-2.612196	2.064391	0	9.81	4003	24	-12	5	5	0.3977161	1.704865	8	10	0.03	1800	3.616235	40.92393	-91.39361
351319	-1819	1688	435	-2.756194	-7.718662	1.207694	0	9.81	4002	24	-12	5	5	0.3979464	1.768054	8	10	0.03	1800	3.417515	40.92393	-91.39361
351474	614	1320	465	-1.885211	-8.585209	0.5351483	0	9.81	4003	24	-12	5	5	0.3982002	1.934428	8	10	0.03	1800	3.474308	40.92393	-91.39361
351533	114	-13	-921	-2.394889	-8.55081	0.9183886	0	9.81	4003	24	-12	5	5	0.3982697	1.976954	8	10	0.03	1800	3.658512	40.92393	-91.39361
351723	-1011	-48	931	-1.718418	-5.221292	1.838082	0	9.81	4004	24	-12	5	5	0.398391	2.115275	8	10	0.03	1800	4.488745	40.92393	-91.39361
351783	-1025	-658	2271	-3.027971	-4.560346	1.382498	0	9.81	4003	48	-12	5	5	0.3984242	2.16401	8	10	0.03	1800	4.488745	40.92393	-91.3936
351904	529	4506	412	-2.998724	-6.31795	0.6295039	0	10.04	4004	48	-12	5	5	0.398473	2.239595	8	10	0.03	1800	3.886054	40.92393	-91.3936
351961	1060	2540	481	-3.340847	-11.42153	1.004037	0	10.04	4003	48	-12	5	5	0.3984823	2.25363	8	10	0.03	1800	4.127334	40.92393	-91.3936
352085	-819	-1760	1081	-2.991581	-10.43478	1.834771	0	10.04	4002	48	-12	5	5	0.3985111	2.338344	8	10	0.03	1800	2.335105	40.92393	-91.3936
352192	-1112	-2491	-380	-4.238739	-7.214652	1.392766	0	10.04	4003	48	-12	5	5	0.398526	2.379963	8	10	0.03	1800	3.379307	40.92393	-91.3936
352213	-1194	1840	-177	-4.871626	-8.724199	0.5434567	0	10.04	4003	48	-12	5	5	0.3985299	2.398834	8	10	0.03	1800	1.974431	40.92393	-91.3936
352347	982	141	712	-4.92667	-11.0499	0.2719356	0	10.04	4003	48	-12	5	5	0.3985447	2.44609	8	10	0.03	1800	-0.2723694	40.92393	-91.3936
352487	-842	-1742	-1259	-1.774085	-5.513723	2.786583	0	10.04	4002	48	-12	5	5	0.398552	2.462012	8	10	0.03	1800	-2.089386	40.92393	-91.3936
352563	-1574	-3103	-251	-2.958524	-3.553984	2.790337	0	10.04	4002	48	-24	5	5	0.3985547	2.468234	8	10	0.03	1800	-3.21759	40.92393	-91.3936
352616	-1001	-2276	2209	-3.152381	-2.855072	2.509615	0	10.04	4002	57	-28	5	5	0.3985568	2.473129	8	10	0.03	1800	-3.21759	40.92393	-91.3936
352767	-645	1372	-498	-4.555344	-7.828749	0.1941941	0	10.04	4003	72	-24	5	5	0.3985606	2.486737	8	10	0.03	1800	-5.303864	40.92393	-91.39359
352834	-902	1195	-613	-4.358942	-9.442527	-0.006976567	0	10.49	4004	72	-24	5	5	0.3985611	2.484874	8	10	0.03	1800	-7.313263	40.92393	-91.39359
352951	25	2423	-701	-3.225544	-11.81763	1.463743	0	10.49	4002	72	-24	5	5	0.3985628	2.474785	8	10	0.03	1800	-8.156891	40.92393	-91.39359
353044	1419	2584	502	-4.09364	-15.84289	2.573899	0	10.49	4003	72	-24	5	5	0.3985637	2.471063	8	10	0.03	1800	-9.182983	40.92393	-91.39359
353107	446	1159	271	-3.239783	-16.20885	2.618111	0	10.49	4003	72	-24	5	5	0.3985641	2.469656	8	10	0.03	1800	-9.182983	40.92393	-91.39359
353256	227	-494	-1015	-5.788353	-9.512857	1.413691	0	10.49	4004	72	-24	5	5	0.3985649	2.457692	8	10	0.03	1800	-9.203827	40.92393	-91.39359
353385	-1310	-2216	-1274	-4.667541	-8.682645	1.088974	0	10.49	4002	72	-24	5	5	0.3985652	2.44809	8	10	0.03	1800	-9.167389	40.92393	-91.39359
353542	-1781	-2802	-733	-6.51517	-5.249275	1.426912	0	10.49	4003	72	-24	5	5	0.3985655	2.427315	8	10	0.03	1800	-11.88705	40.92393	-91.39359
353646	-179	9	370	-5.995182	-4.609763	1.946233	0	10.49	4003	72	-12	5	5	0.3985656	2.409943	8	10	0.03	1800	-11.78864	40.92393	-91.39359
353825	1839	1908	-1848	-5.639273	-5.336451	2.438794	0	10.72	4004	72	-12	5	5	0.3985658	2.383328	8	10	0.03	1800	-13.30719	40.92393	-91.39359
353913	-1307	107	-80	-5.671735	-7.24304	2.425019	0	10.72	4003	72	-12	5	5	0.3985658	2.362044	8	10	0.03	1800	-14.90094	40.92393	-91.39359
354052	680	2745	5	-6.778803	-4.349811	1.600627	0	10.72	4002	72	-12	5	5	0.3985658	2.344297	8	10	0.03	1800	-16.38931	40.92393	-91.39359
354164	-96	-130	929	-5.775805	-6.349308	1.669252	0	10.72	4003	72	-12	5	5	0.3985658	2.330023	8	10	0.03	1800	-17.34036	40.92393	-91.3936
354217	289	-4292	-1214	-6.308085	-4.275582	2.022299	0	10.72	4004	48	0	5	5	0.3985658	2.329613	8	10	0.03	1800	-17.66263	40.92393	-91.3936
354317	-520	479	1370	-4.998519	-1.550852	2.4049	0	10.72	4003	48	0	5	5	0.3985658	2.325693	8	10	0.03	1800	-20.04584	40.92393	-91.3936
354435	862	-94	-1542	-4.903719	-5.366555	1.873458	0	10.72	4003	48	0	5	5	0.3985658	2.32389	8	10	0.03	1800	-21.42969	40.92393	-91.3936
354536	335	-2662	-706	-4.775223	-3.983301	2.18464	0	10.72	4003	48	0	5	5	0.3985658	2.326522	8	10	0.03	1800	-22.03799	40.92393	-91.3936
354609	-688	-1259	146	-4.340014	-2.526577	1.961064	0	10.72	4005	48	0	5	5	0.3985658	2.325267	8	10	0.03	1800	-21.30664	40.92393	-91.3936
354760	376	-1967	-362	-4.070821	-2.9859	1.437874	0	10.89	4003	24	0	5	5	0.3985658	2.328565	8	10	0.03	1800	-24.63434	40.92393	-91.39361
354878	3250	971	-1331	-1.639069	-3.557768	1.892432	0	10.89	4004	24	0	5	5	0.3985658	2.312203	8	10	0.03	1800	-25.91931	40.92393	-91.39362
354986	3833	2997	-1695	4.723393	-13.15293	2.368047	0	10.89	4003	0	0	5	5	0.3985658	2.290543	8	10	0.03	1800	-28.28439	40.92393	-91.39362
355100	2091	977	2208	9.372942	-13.04157	2.478245	0	10.89	4003	0	0	5	5	0.3985658	2.276469	8	10	0.03	1800	-18.50534	40.92393	-91.39362
355135	28	-332	-1358	9.097982	-12.18048	2.771746	0	10.89	4003	0	0	5	5	0.3985658	2.266077	8	10	0.03	1800	-13.45798	40.92393	-91.39362
355207	-2667	-2214	161	6.844714	-10.44205	3.191351	0	10.89	4003	0	0	5	5	0.3985658	2.251267	8	10	0.03	1800	-10.32156	40.92393	-91.39362
355298	-924	-2238	2516	1.96692	-4.028561	2.076814	0	10.89	4003	-24	0	5	5	0.3985658	2.244506	8	10	0.03	1800	-9.251221	40.92393	-91.39362
355421	940	1962	1851	1.527291	-2.673413	0.8338673	0	10.89	4006	-48	0	5	5	0.3985658	2.215211	8	10	0.03	1800	-6.755066	40.92393	-91.39363
355614	2784	151	1245	9.511772	-6.375913	1.641522	0	10.32	4002	-48	0	5	5	0.3985658	2.168645	8	10	0.03	1800	-2.638824	40.92393	-91.39363
355632	2732	1132	1061	9.994874	-6.141204	1.665552	0	10.32	4004	-48	0	5	5	0.3985658	2.168645	8	10	0.03	1800	2.010237	40.92393	-91.39363
355788	2362	53	409	14.10038	-10.155	1.997538	0	10.32	4003	-48	0	5	5	0.3985658	2.124276	8	10	0.03	1800	7.25598	40.92393	-91.39364
355816	2362	53	409	14.10038	-10.155	1.997538	0	10.32	4003	-72	0	5	5	0.3985658	2.097759	8	10	0.03	1800	7.25598	40.92393	-91.39364
355918	-267	-1219	-352	14.56613	-9.110483	2.164954	0	10.32	4003	-72	0	5	5	0.3985658	2.061386	8	10	0.03	1800	14.26053	40.92393	-91.39364
356067	670	168	-983	8.949281	-6.074674	1.40234	0	10.32	4003	-86	0	5	5	0.3985658	1.991554	8	10	0.03	1800	19.8123	40.92393	-91.39364
356112	754	1629	1059	9.155625	-6.242415	1.370251	0	10.32	4004	-72	0	5	5	0.3985658	1.98314	8	10	0.03	1800	20.89366	40.92393	-91.39364
356231	1363	-865	-97	6.418883	-4.237137	1.61078	0	10.32	4003	-72	-12	5	5	0.3985658	1.929818	8	10	0.03	1800	23.52269	40.92393	-91.39364
356341	-1745	-2104	478	6.537771	-2.29483	1.725794	0	10.32	4004	-72	-12	5	5	0.3985658	1.882118	8	10	0.03	1800	25.00916	40.92393	-91.39364
356459	-2996	3065	-365	1.306913	-6.767545	0.3508068	0	11.11	4003	-72	-12	5	5	0.3985658	1.839699	8	10	0.03	1800	27.34895	40.92393	-91.39364
356497	-3342	1763	-721	-0.4716251	-8.265465	0.2681885	0	11.11	4003	-72	-12	5	5	0.3985658	1.809711	8	10	0.03	1800	25.9973	40.92393	-91.39364
356630	-1814	1	75	-3.703441	-8.670555	1.642602	0	11.11	4003	-72	-12	5	5	0.3985658	1.75751	8	10	0.03	1800	22.46597	40.92393	-91.39364
356718	-675	951	-323	-4.304226	-10.37546	1.707488	0	11.11	4003	-48	0	5	5	0.3985658	1.72709	8	10	0.03	1800	18.78938	40.92393	-91.39363
356795	-1292	-216	-684	-4.838944	-10.12618	1.610068	0	11.11	4003	-48	0	5	5	0.3985658	1.688485	8	10	0.03	1800	16.44458	40.92393	-91.39363
356990	185	-1008	100	-2.48336	-5.74648	1.06357	0	11.11	4002	-48	-12	5	5	0.3985658	1.640051	8	10	0.03	1800	14.25062	40.92393	-91.39363
357040	-2824	553	2072	-2.913204	-5.415064	0.6242817	0	11.11	4004	-24	-12	5	5	0.3985658	1.620872	8	10	0.03	1800	14.25062	40.92393	-91.39362
357129	-3263	9	-1045	-10.66852	-4.175244	1.063738	0	11.11	4006	-24	-12	5	5	0.3985658	1.604846	8	10	0.03	1800	11.86491	40.92393	-91.39362
357247	-1321	2052	996	-14.16005	-4.634613	1.639551	0	11.11	4002	-24	-12	5	5	0.3985658	1.591208	8	10	0.03	1800	9.796411	40.92393	-91.39362
357321	-132	8	-198	-12.60915	-9.14876	0.9587213	0	11.11	4002	0	-12	5	5	0.3985658	1.579785	8	10	0.03	1800	2.979463	40.92393	-91.39362
357404	3444	-660	-504	-9.097837	-9.484884	1.224965	0	10.77	4004	0	-12	5	5	0.3985658	1.574264	8	10	0.03	1800	2.979463	40.92393	-91.39362
357508	867	-2162	1824	-6.203	-7.2163	1.01368	0	10.77	4004	0	-12	5	5	0.3985658	1.569212	8	10	0.03	1800	0.3027568	40.92393	-91.39362
357649	130	-608	-1183	-2.206572	-3.133781	1.302677	0	10.77	4004	24	-12	5	5	0.3985658	1.554763	8	10	0.03	1800	-1.167389	40.92393	-91.39361
357753	978	23	341	-2.671159	-2.824105	1.070022	0	10.77	4004	24	-12	5	5	0.3985658	1.532218	8	10	0.03	1800	-2.469666	40.92393	-91.39361
357831	-204	-1823	-513	-2.21117	-2.612195	0.9994867	0	10.77	4003	24	0	5	5	0.3985658	1.514555	8	10	0.03	1800	-3.100067	40.92393	-91.39361
357991	-14	-78	-112	-2.107255	0.1262727	1.655013	0	10.77	4002	48	-12	5	5	0.3985658	1.489942	8	10	0.03	1800	-5.68515	40.92393	-91.3936
358065	720	1883	813	-1.445685	-1.023546	1.667274	0	10.77	4003	48	-12	5	5	0.3985658	1.475978	8	10	0.03	1800	-5.170746	40.92393	-91.3936
358219	-52	3266	88	-3.347309	-4.625105	1.855923	0	10.77	4003	48	-12	5	5	0.3985658	1.448104	8	10	0.03	1800	-5.778168	40.92393	-91.3936
358400	775	1747	-15	-0.9783394	-12.8071	2.295478	0	11.06	4002	48	-12	5	5	0.3985658	1.426642	8	10	0.03	1800	-8.481476	40.92393	-91.3936
358437	949	-457	17	-0.2763302	-11.78658	2.609426	0	11.06	4002	48	-12	5	5	0.3985658	1.420358	8	10	0.03	1800	-8.481476	40.92393	-91.3936
358549	-494	-1357	-186	-1.830403	-4.087607	2.978876	0	11.06	4002	48	0	5	5	0.3985658	1.417418	8	10	0.03	1800	-9.348816	40.92393	-91.3936
358624	-545	990	1557	-1.917183	-4.196415	2.137625	0	11.06	4004	48	0	5	5	0.3985658	1.415784	8	10	0.03	1800	-9.437195	40.92393	-91.3936
358791	-1402	-1650	-1478	-4.070843	-3.366118	0.6538908	0	11.06	4004	72	-12	5	5	0.3985658	1.418353	8	10	0.03	1800	-9.760864	40.92393	-91.39359
358845	-76	115	-1222	-3.962641	-2.283581	1.409645	0	11.06	4004	72	-12	5	5	0.3985658	1.419932	8	10	0.03	1800	-14.3071	40.92393	-91.39359
358980	1384	2002	1574	-3.358806	-5.32576	2.434468	0	11.06	4004	72	-12	5	5	0.3985658	1.416369	8	10	0.03	1800	-16.371	40.92393	-91.39359
359027	-1926	-1020	-153	-4.775868	-5.73344	2.427864	0	11.06	4002	72	-12	5	5	0.3985658	1.415871	8	10	0.03	1800	-16.87265	40.92393	-91.39359
359138	688	377	1012	-4.217222	-5.136327	1.958725	0	11.06	4002	72	-12	5	5	0.3985658	1.420896	8	10	0.03	1800	-17.39725	40.92393	-91.39359
359199	-719	-541	903	-3.880429	-4.905842	1.517942	0	11.17	4003	72	-12	5	5	0.3985658	1.427409	8	10	0.03	1800	-17.39725	40.92393	-91.39359
359352	-881	229	-191	-6.673175	-3.983538	0.4415106	0	11.17	4003	72	-12	5	5	0.3985658	1.440389	8	10	0.03	1800	-18.15338	40.92393	-91.39359
359472	-642	-1473	-1186	-6.681893	-4.109503	0.800593	0	11.17	4004	86	-14	5	5	0.3985658	1.451252	8	10	0.03	1800	-24.11349	40.92393	-91.39359
359566	990	-595	-1674	-5.953493	-2.164701	0.8349671	0	11.17	4003	86	-14	5	5	0.3985658	1.457757	8	10	0.03	1800	-27.94022	40.92393	-91.39359
359616	598	-1592	-1142	-5.389963	-2.360815	0.9387721	0	11.17	4002	72	-12	5	5	0.3985658	1.464417	8	10	0.03	1800	-27.94022	40.92393	-91.39359
359703	-689	2373	-891	-4.662945	-2.926922	1.401316	0	11.17	4003	72	-12	5	5	0.3985658	1.473245	8	10	0.03	1800	-32.14392	40.92393	-91.39359
359843	4278	3868	608	-2.350315	-10.00442	1.011253	0	11.17	4004	48	-12	5	5	0.3985658	1.495651	8	10	0.03	1800	-27.6329	40.92393	-91.3936
359982	1145	2884	-37	2.591673	-14.67717	1.925049	0	11.17	4003	48	-24	5	5	0.3985658	1.523426	8	10	0.03	1800	-24.5896	40.92393	-91.3936
360046	3553	3471	1109	4.342183	-18.59631	1.027484	0	11.17	4004	48	-24	5	5	0.3985658	1.541528	8	10	0.03	1800	-20.27301	40.92393	-91.3936
360123	4671	2062	355	5.725389	-19.29151	1.312072	0	11.17	4002	48	-24	5	5	0.3985658	1.563957	8	10	0.03	1800	-20.27301	40.92393	-91.3936
360198	1443	-1044	-1992	7.376225	-17.34815	2.59294	0	10.49	4003	24	-24	5	5	0.3985658	1.57824	8	10	0.03	1800	-14.79459	40.92393	-91.39361
360313	-2099	-1878	1141	6.398058	-11.41321	1.958831	0	10.49	4003	24	-24	5	5	0.3985658	1.592273	8	10	0.03	1800	-11.48483	40.92393	-91.39361
360434	-174	1007	1386	2.163925	-8.273621	0.6230898	0	10.49	4004	24	-24	5	5	0.3985658	1.589942	8	10	0.03	1800	-10.16064	40.92393	-91.39361
360487	-808	343	1478	1.776337	-8.926336	0.5004274	0	10.49	4003	24	-24	5	5	0.3985658	1.588847	8	10	0.03	1800	-7.398499	40.92393	-91.39362
360597	-272	-997	624	0.554285	-7.241714	1.559838	0	10.49	4004	0	-24	5	5	0.3985658	1.573913	8	10	0.03	1800	-8.455353	40.92393	-91.39362
360689	-274	-662	-471	0.6981375	-5.578784	0.9829541	0	10.49	4004	0	-24	5	5	0.3985658	1.561371	8	10	0.03	1800	-7.045532	40.92393	-91.39362
360872	2374	998	496	4.965428	-6.268272	1.481337	0	10.49	4003	0	-12	5	5	0.3985658	1.525017	8	10	0.03	1800	-7.457428	40.92393	-91.39362
360944	1872	180	223	6.695663	-6.394795	1.19756	0	10.49	4003	0	-12	5	5	0.3985658	1.510162	8	10	0.03	1800	-5.309326	40.92393	-91.39362
361019	-2582	709	2182	7.591624	-6.873702	0.5955318	0	10.49	4003	0	-12	5	5	0.3985658	1.484568	8	10	0.03	1800	-2.38739	40.92393	-91.39362
361080	-2584	-1321	1189	3.229578	-6.094875	0.4758105	0	10.38	4002	-24	-12	5	5	0.3985658	1.466206	8	10	0.03	1800	-1.662384	40.92393	-91.39362
361184	584	-821	-1080	2.285326	-3.060519	1.402941	0	10.38	4003	-24	-12	5	5	0.3985658	1.446936	8	10	0.03	1800	-0.2146606	40.92393	-91.39362
361353	-206	580	765	1.870562	-5.239347	2.333968	0	10.38	4003	-24	-12	5	5	0.3985658	1.395179	8	10	0.03	1800	0.369402	40.92393	-91.39362
361406	468	-264	260	0.7559283	-4.717555	2.504744	0	10.38	4003	-24	-12	5	5	0.3985658	1.383636	8	10	0.03	1800	1.887761	40.92393	-91.39362
361569	603	-65	38	1.396419	-3.772141	1.219858	0	10.38	4003	-24	0	5	5	0.3985658	1.35369	8	10	0.03	1800	5.501134	40.92393	-91.39362
361624	1081	-574	257	1.717346	-3.324596	0.9801165	0	10.38	4003	-24	0	5	5	0.3985658	1.320377	8	10	0.03	1800	5.501134	40.92393	-91.39362
361716	144	-2209	844	2.318285	-1.256571	0.8042243	0	10.38	4004	-24	0	5	5	0.3985658	1.312754	8	10	0.03	1800	7.467577	40.92393	-91.39362
361826	751	1066	-2030	2.297896	-1.613757	1.715619	0	10.38	4004	-24	0	5	5	0.3985658	1.309129	8	10	0.03	1800	7.568722	40.92393	-91.39362
362052	-528	628	2772	2.24759	-5.022525	2.375998	0	10.43	4003	-24	0	5	5	0.3985658	1.300341	8	10	0.03	1800	7.750344	40.92393	-91.39362
362159	545	2661	2678	2.996775	-5.499253	1.491543	0	10.43	4003	-24	0	5	5	0.3985658	1.28652	8	10	0.03	1800	10.58466	40.92393	-91.39362
362224	-738	3262	1045	2.202365	-7.879676	1.273708	0	10.43	4004	-24	0	5	5	0.3985658	1.280453	8	10	0.03	1800	10.27614	40.92393	-91.39362
362312	-83	-1713	831	0.5464751	-9.367901	0.3388522	0	10.43	4004	-24	0	5	5	0.3985658	1.272224	8	10	0.03	1800	10.60998	40.92393	-91.39362
362433	674	-4174	-2499	0.7494374	-4.510939	1.593632	0	10.43	4003	-24	0	5	5	0.3985658	1.267598	8	10	0.03	1800	11.44215	40.92393	-91.39362
362520	229	-1453	-1156	1.034257	-2.807282	3.523878	0	10.43	4003	-24	0	5	5	0.3985658	1.267459	8	10	0.03	1800	12.94206	40.92393	-91.39362
362673	253	1784	2090	-0.3269279	-2.251129	1.878471	0	10.43	4004	-24	0	5	5	0.3985658	1.279689	8	10	0.03	1800	16.15469	40.92393	-91.39362
362726	-1184	2028	2890	-0.1202963	-3.818554	0.5441592	0	10.43	4003	-24	0	5	5	0.3985658	1.28327	8	10	0.03	1800	16.37385	40.92393	-91.39362
362889	-1048	860	59	-3.625605	-5.927442	0.4338621	0	10.43	4003	0	0	5	5	0.3985658	1.309809	8	10	0.03	1800	17.06462	40.92393	-91.39362
362997	1048	2928	33	-4.134125	-7.291052	1.1938	0	10.77	4004	0	0	5	5	0.3985658	1.34407	8	10	0.03	1800	10.43786	40.92393	-91.39362
363017	1048	2928	33	-4.134125	-7.291052	1.1938	0	10.77	4004	0	0	5	5	0.3985658	1.367258	8	10	0.03	1800	10.43786	40.92393	-91.39362
363161	694	4433	-439	-1.90213	-14.2214	2.410936	0	10.77	4002	0	-12	5	5	0.3985658	1.386225	8	10	0.03	1800	6.524292	40.92393	-91.39362
363256	-860	398	-366	-1.544143	-17.01969	2.355175	0	10.77	4002	0	-12	5	5	0.3985658	1.414327	8	10	0.03	1800	6.806159	40.92393	-91.39361
363327	-1431	2449	744	-3.361505	-16.02664	0.8415746	0	10.77	4003	24	-24	5	5	0.3985658	1.433259	8	10	0.03	1800	5.34084	40.92393	-91.39361
363419	-91	201	-628	-2.865173	-19.39585	0.6596708	0	10.77	4003	24	-24	5	5	0.3985658	1.449624	8	10	0.03	1800	3.681516	40.92393	-91.39361
363554	-2663	-3822	-1227	-4.486596	-8.841325	1.315617	0	10.77	4003	48	-24	5	5	0.3985658	1.470185	8	10	0.03	1800	1.064045	40.92393	-91.3936
363624	-737	3114	1239	-5.198155	-9.140852	0.5396549	0	10.77	4003	48	-24	5	5	0.3985658	1.478534	8	10	0.03	1800	0.5295814	40.92393	-91.3936
363880	-1467	-2819	-980	-2.247817	-7.747404	1.23685	0	11.17	4003	48	-36	5	5	0.3985658	1.53753	8	10	0.03	1800	-2.707275	40.92392	-91.3936
364005	-159	-2304	-539	-3.026911	-4.603983	0.7003331	0	11.17	4004	48	-36	5	5	0.3985658	1.556392	8	10	0.03	1800	-4.254608	40.92392	-91.39359
364109	-1602	-1227	-1125	-4.006355	-2.797403	0.5328681	0	11.17	4004	72	-48	5	5	0.3985658	1.580259	8	10	0.03	1800	-4.630432	40.92392	-91.39359
364178	-1935	-480	-717	-4.917623	-3.686425	0.5797107	0	11.17	4002	72	-48	5	5	0.3985658	1.586011	8	10	0.03	1800	-5.766052	40.92392	-91.39359
364278	-188	377	1165	-4.566974	-4.726635	0.9842088	0	11.17	4004	72	-36	5	5	0.3985658	1.592296	8	10	0.03	1800	-9.130371	40.92392	-91.39359
364396	1024	1463	1494	-3.977623	-5.886348	1.565784	0	11.17	4002	72	-36	5	5	0.3985658	1.600638	8	10	0.03	1800	-9.707611	40.92392	-91.39359
364462	-580	-711	-949	-3.830807	-7.564745	1.671871	0	11.17	4002	96	-48	5	5	0.3985658	1.602817	8	10	0.03	1800	-10.0773	40.92392	-91.39359
364546	-1228	594	2356	-3.595395	-8.408051	1.071644	0	11.17	4008	96	-48	5	5	0.3985658	1.603537	8	10	0.03	1800	-13.26602	40.92392	-91.39359
364639	-593	-915	-965	-4.605139	-8.338599	0.4688529	0	11.17	4004	115	-57	5	5	0.3985658	1.61201	8	10	0.03	1800	-14.04001	40.92392	-91.39359
364793	1238	-1441	-1624	-6.835106	-5.918606	0.3352165	0	10.77	4004	96	-48	5	5	0.3985658	1.617824	8	10	0.03	1800	-16.1701	40.92392	-91.39359
364911	-2217	-416	292	-6.85913	-6.241804	1.30058	0	10.77	4002	96	-48	5	5	0.3985658	1.609629	8	10	0.03	1800	-18.42273	40.92392	-91.39359
364965	49	1376	-368	-7.696134	-6.19901	2.082571	0	10.77	4003	96	-48	5	5	0.3985658	1.603694	8	10	0.03	1800	-18.42273	40.92392	-91.39359
365119	-690	-810	348	-7.403321	-5.047744	1.764546	0	10.77	4004	96	-48	5	5	0.3985658	1.596865	8	10	0.03	1800	-21.66501	40.92392	-91.39358
365160	568	1506	806	-7.197962	-5.50029	0.7437986	0	10.77	4004	96	-38	5	5	0.3985658	1.594837	8	10	0.03	1800	-21.87497	40.92392	-91.39358
365281	-1391	2672	-1619	-7.720371	-9.619683	0.6034207	0	10.77	4003	120	-48	5	5	0.3985658	1.597563	8	10	0.03	1800	-23.01266	40.92392	-91.39358
365407	-518	1829	942	-8.575505	-13.40398	2.536785	0	10.77	4002	120	-48	5	5	0.3985658	1.595503	8	10	0.03	1800	-29.36023	40.92392	-91.39358
365458	-659	1292	-1579	-9.098884	-14.5423	3.188979	0	10.77	4003	144	-57	5	5	0.3985658	1.593435	8	10	0.03	1800	-29.33865	40.92392	-91.39358
365560	-1277	-1575	-654	-9.458014	-16.30785	2.573161	0	10.77	4003	96	-48	5	5	0.3985658	1.600377	8	10	0.03	1800	-29.11703	40.92392	-91.39359
365687	-303	-2809	698	-8.754574	-12.0914	1.99328	0	11	4003	96	-48	5	5	0.3985658	1.616418	8	10	0.03	1800	-29.25003	40.92392	-91.39359
365797	-691	-1712	-2149	-8.700099	-9.542092	1.436377	0	11	4002	96	-60	5	5	0.3985658	1.629109	8	10	0.03	1800	-30.57169	40.92392	-91.39359
365928	-695	515	-169	-7.94836	-9.246428	1.751215	0	11	4002	96	-60	5	5	0.3985658	1.683576	8	10	0.03	1800	-31.02444	40.92392	-91.39359
366021	1503	153	248	-7.970118	-8.556208	0.9772077	0	11	4003	96	-60	5	5	0.3985658	1.699216	8	10	0.03	1800	-31.65033	40.92392	-91.39359
366075	2722	1833	-777	-6.675833	-9.023681	0.8191085	0	11	4002	72	-60	5	5	0.3985658	1.741132	8	10	0.03	1800	-31.65033	40.92392	-91.39359
366258	2217	-1233	114	0.9399223	-11.91815	0.8895208	0	11	4003	72	-60	5	5	0.3985658	1.814916	8	10	0.03	1800	-29.41989	40.92392	-91.39359
366281	2096	-755	424	1.879022	-10.88438	0.9028942	0	11	4004	48	-60	5	5	0.3985658	1.814916	8	10	0.03	1800	-28.11551	40.92392	-91.3936
366398	3766	-783	-1135	4.414685	-10.09142	1.033647	0	11	4004	48	-60	5	5	0.3985658	1.854747	8	10	0.03	1800	-28.65155	40.92392	-91.3936
366505	5936	-1845	-820	11.90125	-11.68933	0.7235088	0	11	4002	24	-48	5	5	0.3985658	1.886891	8	10	0.03	1800	-21.98059	40.92392	-91.39361
366746	2536	-1257	-1464	16.53363	-5.667257	1.041321	0	10.77	4004	0	-48	5	5	0.3985658	1.917668	8	10	0.03	1800	-8.864136	40.92392	-91.39362
366850	-1643	2341	130	15.73848	-7.51508	0.6474221	0	10.77	4003	0	-48	5	5	0.3985658	1.897763	8	10	0.03	1800	-4.035156	40.92392	-91.39362
366902	-2525	2010	-1290	13.64226	-9.161884	0.6178313	0	10.77	4002	0	-48	5	5	0.3985658	1.873967	8	10	0.03	1800	-4.035156	40.92392	-91.39362
366997	482	-2630	-784	7.730593	-8.576949	0.8159639	0	10.77	4002	0	-48	5	5	0.3985658	1.857318	8	10	0.03	1800	0.6653852	40.92392	-91.39362
367112	56	-140	-544	7.303876	-7.564304	1.56705	0	10.77	4004	-24	-48	5	5	0.3985658	1.774213	8	10	0.03	1800	2.72164	40.92392	-91.39362
367219	-654	3041	1076	4.531	-8.123141	1.59823	0	10.77	4003	-24	-48	5	5	0.3985658	1.570692	8	10	0.03	1800	7.840342	40.92392	-91.39362
367314	-618	2361	683	4.528568	-8.738342	1.25512	0	10.77	4003	-24	-48	5	5	0.3985658	1.493183	8	10	0.03	1800	7.840342	40.92392	-91.39362
367448	-1024	-434	-711	3.477894	-10.0662	1.220673	0	10.77	4002	-48	-48	5	5	0.3985658	1.40573	8	10	0.03	1800	7.222442	40.92392	-91.39363
367580	1206	392	267	-4.391441	-5.596077	2.057531	0	10.72	4002	-48	-48	5	5	0.3985658	1.312582	8	10	0.03	1800	11.96094	40.92392	-91.39363
367615	-1091	2064	1966	-4.12991	-6.307733	1.636459	0	10.72	4003	-48	-48	5	5	0.3985658	1.293273	8	10	0.03	1800	7.678927	40.92392	-91.39363
367686	-1644	1613	27	-4.56759	-7.312188	0.98739	0	10.72	4004	-48	-48	5	5	0.3985658	1.235759	8	10	0.03	1800	7.678927	40.92392	-91.39363
367835	3171	-647	-161	-4.501902	-5.167023	-0.1901511	0	10.72	4003	-48	-48	5	5	0.3985658	1.088242	8	10	0.03	1800	4.830184	40.92392	-91.39363
367912	1705	-500	-1081	-1.278991	-4.874844	0.0767833	0	10.72	4003	-48	-48	5	5	0.3985658	1.054309	8	10	0.03	1800	3.096556	40.92392	-91.39363
367992	649	155	38	-0.8281953	-4.622042	0.3309194	0	10.72	4003	-48	-36	5	5	0.3985658	0.97582	8	10	0.03	1800	3.807226	40.92392	-91.39363
368143	-1248	2281	-806	-1.954378	-6.861557	0.7496721	0	10.72	4002	-24	-36	5	5	0.3985658	0.8958474	8	10	0.03	1800	3.61403	40.92392	-91.39362
368198	-1146	1241	812	-2.815997	-7.438656	0.6536934	0	10.72	4004	-24	-36	5	5	0.3985658	0.8707383	8	10	0.03	1800	3.216962	40.92392	-91.39362
368297	-1989	-1281	-496	-4.795931	-5.171915	0.3679743	0	10.72	4003	-24	-24	5	5	0.3985658	0.8368165	8	10	0.03	1800	2.490946	40.92392	-91.39362
368398	-952	-171	-827	-6.980818	-2.908188	0.4317531	0	10.72	4002	-24	-24	5	5	0.3985658	0.7748109	8	10	0.03	1800	1.597583	40.92393	-91.39362
368558	-1857	-1628	697	-12.67553	-3.525834	1.771016	0	10.83	4002	0	0	5	5	0.3985658	0.7359598	3	10	0.03	1800	-5.184784	40.92393	-91.39362
368664	-1274	-2502	1550	-12.64846	-0.7025756	1.449183	0	10.83	4003	0	0	5	5	0.3985658	0.690574	3	10	0.03	1800	-7.299164	40.92393	-91.39362
368790	2988	387	-298	-7.850984	-0.7572682	-0.08342056	0	10.83	4002	0	0	5	5	0.3985658	0.6484538	3	10	0.03	1800	-7.404724	40.92393	-91.39362
368849	4459	1933	1541	-5.432463	-1.396378	-0.4462026	0	10.83	4002	0	0	5	5	0.3985658	0.640846	3	10	0.03	1800	-7.404724	40.92393	-91.39362
368925	4829	527	1640	0.769698	-1.93295	-1.232655	0	10.83	4003	0	0	5	5	0.3985658	0.6042559	3	10	0.03	1800	-9.864258	40.92393	-91.39362
369033	-521	687	-70	0.6432784	-2.952751	-1.563713	0	10.83	4002	0	0	5	5	0.3985658	0.5792912	3	10	0.03	1800	-7.226349	40.92393	-91.39362
369134	299	1286	-816	1.829411	-3.771888	-0.8953455	0	10.83	4003	0	0	5	5	0.3985658	0.5397153	3	10	0.03	1800	-9.036407	40.92393	-91.39362
369190	396	2786	-1144	1.236486	-5.540664	0.1879529	0	10.83	4004	0	0	5	5	0.3985658	0.5227891	3	10	0.03	1800	-8.616699	40.92393	-91.39362
369326	-859	1491	492	0.3813533	-11.02733	1.771102	0	10.83	4002	0	0	5	5	0.3985658	0.4619987	3	10	0.03	1800	-8.855804	40.92393	-91.39362
369422	498	-684	289	0.2676875	-10.8314	1.564055	0	10.38	4003	0	0	5	5	0.3985658	0.4222265	3	10	0.03	1800	-7.936401	40.92393	-91.39362
369512	-898	-1449	635	-0.2221141	-7.402508	1.309881	0	10.38	4004	0	0	5	5	0.3985658	0.4104705	3	10	0.03	1800	-8.020874	40.92393	-91.39362
369651	-714	-4985	-1055	-2.057371	-2.963017	2.927866	0	10.38	4002	0	0	5	5	0.3985658	0.4084193	3	10	0.03	1800	-7.69455	40.92393	-91.39362
369743	-1784	-1537	2391	-2.832364	6.845942	3.88859	0	10.38	4003	0	0	5	5	0.3985658	0.4109726	3	10	0.03	1800	-9.05661	40.92393	-91.39362
369896	1608	2733	1473	-0.2486057	0.7633915	-0.12627	0	10.38	4003	0	0	5	5	0.3985658	0.4098613	3	10	0.03	1800	-8.260529	40.92393	-91.39362
369983	128	-2547	-218	0.1403513	-0.09231216	-1.637805	0	10.38	4004	0	0	5	5	0.3985658	0.3940817	3	10	0.03	1800	-6.573792	40.92393	-91.39362
370113	294	368	-203	-0.7730224	1.425945	-0.8978375	0	10.38	4003	0	0	5	5	0.3985658	0.3877538	3	10	0.03	1800	-6.905518	40.92393	-91.39362
370231	-812	4423	-1031	2.527892	-7.272775	0.8314041	0	10.38	4003	0	0	5	5	0.3985658	0.3702966	3	10	0.03	1800	-5.685577	40.92393	-91.39362
370335	-1077	-4231	-95	-0.4743532	-5.524475	1.169958	0	10.43	4002	0	0	5	5	0.3985658	0.3559023	3	10	0.03	1800	-3.238434	40.92393	-91.39362
370464	741	2226	-619	0.1569994	-4.304683	0.9876326	0	10.43	4004	0	0	5	5	0.3985658	0.3497326	3	10	0.03	1800	-2.5242	40.92393	-91.39362
370553	-1286	-1214	372	-0.04615676	-5.878451	0.6922211	0	10.43	4002	0	0	5	5	0.3985658	0.3428637	3	10	0.03	1800	-2.196136	40.92393	-91.39362
370600	-958	-1398	-455	-0.8893034	-5.46544	0.6927045	0	10.43	4004	0	0	5	5	0.3985658	0.3350111	3	10	0.03	1800	1.376255	40.92393	-91.39362
370790	463	-2823	340	0.4659997	-6.191759	1.114201	0	10.43	4003	0	0	5	5	0.3985658	0.3113416	3	10	0.03	1800	0.3196583	40.92394	-91.39362
370859	-522	-3511	1016	0.3119548	-2.21865	0.8432902	0	10.43	4004	0	0	5	5	0.3985658	0.3010345	3	10	0.03	1800	0.1518135	40.92394	-91.39362
370937	-866	-2113	-574	-1.058492	2.426373	0.5822122	0	10.43	4002	0	0	5	5	0.3985658	0.2853672	3	10	0.03	1800	3.093231	40.92394	-91.39362
371002	2178	18143	-3400	-4.837101	-7.014554	1.562977	0	10.43	4010	0	0	5	5	0.3985658	0.2508007	3	10	0.03	1800	0.5613852	40.92394	-91.39362
371136	-3120	-2312	-619	0.7147927	-14.83191	4.345482	0	10.43	4003	0	0	5	5	0.3985658	0.1763057	3	10	0.03	1800	-3.869843	40.92394	-91.39362
371198	415	311	-120	-1.719689	-8.619443	4.294622	0	11.29	4004	0	0	5	5	0.3985658	0.1629392	3	10	0.03	1800	-7.409576	40.92394	-91.39362
371350	108	161	25	-1.018917	-7.55533	4.195164	0	11.29	4002	0	0	5	5	0.3985658	0.0779276	3	10	0.03	1800	-8.270386	40.92394	-91.39362
371431	-12	10	-25	-0.6624045	-6.533277	4.168325	0	11.29	4004	0	0	5	5	0.3985658	0.0317762	3	10	0.03	1800	-7.419037	40.92394	-91.39362
371495	-83	-58	61	-0.5153577	-5.866071	4.155419	0	11.29	4002	0	0	5	5	0.3985658	-0.005091976	3	10	0.03	1800	-7.709808	40.92394	-91.39362
371677	-47	39	-19	-0.2646274	-4.716503	4.150899	0	11.29	4003	0	0	5	5	0.3985658	-0.08308209	1	10	0.03	1800	-8.961182	40.92394	-91.39362
371757	-67	-5	9	-0.05719366	-3.762855	4.127053	0	11.29	4004	0	0	5	5	0.3985658	-0.1329809	1	10	0.03	1800	-8.910217	40.92394	-91.39362
371889	-47	-8	8	0.07413512	-3.146387	4.110362	0	11.29	4004	0	0	5	5	0.3985658	-0.1763977	1	10	0.03	1800	-8.328949	40.92394	-91.39362
371944	-40	-13	12	0.2001912	-2.611	4.095077	0	11.29	4003	0	0	5	5	0.3985658	-0.1836396	1	10	0.03	1800	-9.000793	40.92394	-91.39362
372042	-37	-1	12	0.267339	-2.287084	4.085294	0	11.29	4003	0	0	5	5	0.3985658	-0.2180021	1	10	0.03	1800	-9.102356	40.92394	-91.39362
372086	-37	-2	7	0.3066042	-2.135908	4.079975	0	11.29	4004	0	0	5	5	0.3985658	-0.2294974	1	10	0.03	1800	-8.929657	40.92394	-91.39362
372199	-30	0	7	0.4268045	-1.608368	4.062123	0	11.29	4003	0	0	5	5	0.3985658	-0.2495587	1	10	0.03	1800	-9.235626	40.92394	-91.39362
372293	-40	0	7	0.5020606	-1.264475	4.048797	0	11.29	4003	0	0	5	5	0.3985658	-0.2677056	1	10	0.03	1800	-9.264221	40.92394	-91.39362
372418	-35	-3	4	0.5723099	-0.9629238	4.036386	0	11.29	4003	0	0	5	5	0.3985658	-0.2906723	1	10	0.03	1800	-9.068756	40.92394	-91.39362
372498	-37	-6	9	0.6350338	-0.6945621	4.02263	0	11.29	4004	0	0	5	5	0.3985658	-0.3157377	1	10	0.03	1800	-9.093933	40.92394	-91.39362
372675	-39	0	7	0.7075773	-0.3849365	4.007283	0	11.29	4004	0	0	5	5	0.3985658	-0.3322808	1	10	0.03	1800	-9.320618	40.92394	-91.39362
372752	-41	3	6	0.7775812	-0.1359343	3.991814	0	11.29	4003	0	0	5	5	0.3985658	-0.3444058	1	10	0.03	1800	-9.214935	40.92394	-91.39362
372811	-32	2	5	0.7906389	-0.08115385	3.989613	0	11.29	4003	0	0	5	5	0.3985658	-0.3487979	1	10	0.03	1800	-9.214935	40.92394	-91.39362
372900	-28	2	9	0.8296269	0.06940316	3.978486	0	11.29	4003	0	0	5	5	0.3985658	-0.3510606	1	10	0.03	1800	-9.2117	40.92394	-91.39362
373064	68	243	44	0.8928428	0.2408173	3.941072	0	11.34	4003	0	0	5	5	0.3985658	-0.3534906	1	10	0.03	1800	-9.245911	40.92394	-91.39362
373118	398	209	103	1.003547	0.1390899	3.898094	0	11.34	4004	0	0	5	5	0.3985658	-0.3444709	1	10	0.03	1800	-9.166534	40.92394	-91.39362
373226	383	1607	479	1.327096	-0.3277507	3.756453	0	11.34	4004	0	0	5	5	0.3985658	-0.3264026	1	10	0.03	1800	-9.233765	40.92394	-91.39362
373311	-1247	-2239	-305	-0.223311	-0.6104677	3.495417	0	11.34	4004	0	0	5	5	0.3985658	-0.307202	1	10	0.03	1800	-8.887024	40.92394	-91.39362
373466	982	-608	-2425	0.6399491	5.343887	6.296339	0	11.34	4002	0	0	5	5	0.3985658	-0.2825953	1	10	0.03	1800	-9.398071	40.92394	-91.39362
373513	709	-149	-1998	2.206978	6.231145	8.792921	0	11.34	4002	0	0	5	5	0.3985658	-0.2711235	1	10	0.03	1800	-11.05219	40.92394	-91.39362
373650	-530	-175	2040	3.858435	8.599589	9.252234	0	11.34	4003	0	0	5	5	0.3985658	-0.2254678	1	10	0.03	1800	-13.15445	40.92394	-91.39362
373717	-1404	-2481	3285	2.826764	11.73011	6.206416	0	11.34	4003	0	0	5	5	0.3985658	-0.1997622	1	10	0.03	1800	-12.04605	40.92394	-91.39362
373820	-965	-2994	2493	-0.02813398	19.43291	-1.149067	0	11.34	4003	0	0	5	5	0.3985658	-0.1682078	1	10	0.03	1800	-9.004333	40.92394	-91.39362
373924	-511	-1008	-416	-0.7166402	22.498	-2.846074	0	11.34	4003	0	0	5	5	0.3985658	-0.1113329	1	10	0.03	1800	-7.858704	40.92394	-91.39362
374053	1503	-136	-1279	1.412404	20.98128	-1.243288	0	11.34	4003	0	0	5	5	0.3985658	-0.05149851	1	10	0.03	1800	-10.38574	40.92394	-91.39362
374135	2439	1082	-658	3.362203	20.1932	-0.1272807	0	11.34	4003	0	0	5	5	0.3985658	-0.02075649	1	10	0.03	1800	-10.53177	40.92394	-91.39362
374303	707	1964	-434	4.621725	14.10458	0.5191129	0	11.34	4002	0	0	5	5	0.3985658	0.05892807	1	10	0.03	1800	-7.770294	40.92394	-91.39362
374411	698	2094	-613	5.42906	9.102738	1.531707	0	11.34	4004	0	0	5	5	0.3985658	0.09668311	1	10	0.03	1800	-6.614288	40.92394	-91.39362
374473	-1435	2055	-530	3.974746	5.171341	2.501088	0	11.34	4003	0	0	5	5	0.3985658	0.110154	1	10	0.03	1800	-6.428162	40.92394	-91.39362
374554	-1352	2170	968	2.171374	2.031334	2.320065	0	11.34	4004	0	0	5	5	0.3985658	0.1259041	1	10	0.03	1800	-5.765656	40.92394	-91.39362
374654	-1430	-685	1851	0.252531	0.8624017	-0.2120856	0	11.34	4002	0	0	5	5	0.3985658	0.1204173	1	10	0.03	1800	-5.666565	40.92394	-91.39362
374749	-1464	1959	-112	-0.3902255	-1.720193	-1.737104	0	11.34	4003	0	0	5	5	0.3985658	0.113035	1	10	0.03	1800	-5.140167	40.92395	-91.39362
374919	-100	42	71	-0.315632	-2.023455	-1.594423	0	11.4	4004	0	0	5	5	0.3985658	0.1110202	1	10	0.03	1800	-5.508179	40.92395	-91.39362
374982	79	-129	-62	-0.4610445	-1.859852	-1.542884	0	11.4	4002	0	0	5	5	0.3985658	0.1051966	1	10	0.03	1800	-5.439667	40.92395	-91.39362
375083	51	24	24	-0.430066	-1.632831	-1.509445	0	11.4	4003	0	0	5	5	0.3985658	0.0966831	1	10	0.03	1800	-5.439667	40.92395	-91.39362
375137	-46	-19	17	-0.3885084	-1.447678	-1.513602	0	11.4	4003	0	0	5	5	0.3985658	0.09420495	1	10	0.03	1800	-5.272522	40.92395	-91.39362
375219	-11	6	0	-0.3969235	-1.305461	-1.515742	0	11.4	4003	0	0	5	5	0.3985658	0.09961817	1	10	0.03	1800	-5.44043	40.92395	-91.39362
375388	-43	0	7	-0.390057	-1.042533	-1.529375	0	11.4	4004	0	0	5	5	0.3985658	0.1079304	1	10	0.03	1800	-5.393524	40.92395	-91.39362
375447	-18	4	3	-0.3928631	-0.8943453	-1.537568	0	11.4	4002	0	0	5	5	0.3985658	0.1084042	1	10	0.03	1800	-5.398468	40.92395	-91.39362
375498	-21	6	1	-0.3866961	-0.8109239	-1.543315	0	11.4	4004	0	0	5	5	0.3985658	0.09558491	1	10	0.03	1800	-5.380859	40.92395	-91.39362
375574	-30	4	14	-0.3848187	-0.7415684	-1.548878	0	11.4	4003	0	0	5	5	0.3985658	0.07999271	1	10	0.03	1800	-5.393036	40.92395	-91.39362
375772	-27	2	3	-0.3798325	-0.5143943	-1.563306	0	11.34	4002	0	0	5	5	0.3985658	0.03160578	1	10	0.03	1800	-5.368378	40.92395	-91.39362
375876	-27	0	6	-0.3697323	-0.4719299	-1.569359	0	11.34	4004	0	0	5	5	0.3985658	0.01094332	1	10	0.03	1800	-5.371704	40.92395	-91.39362
375979	-32	-3	3	-0.3696167	-0.3817597	-1.579691	0	11.34	4003	0	0	5	5	0.3985658	-0.007534177	1	10	0.03	1800	-5.322754	40.92395	-91.39362
376101	-34	-2	11	-0.3685392	-0.3218459	-1.587639	0	11.34	4004	0	0	5	5	0.3985658	-0.01732346	1	10	0.03	1800	-5.356506	40.92395	-91.39362
376217	-26	-2	2	-0.3667275	-0.2623356	-1.596932	0	11.34	4003	0	0	5	5	0.3985658	-0.02076248	1	10	0.03	1800	-5.133026	40.92395	-91.39362
376283	-34	3	8	-0.3629735	-0.2319099	-1.60329	0	11.34	4002	0	0	5	5	0.3985658	-0.02078393	1	10	0.03	1800	-5.374878	40.92395	-91.39362
376373	-24	8	2	-0.3595349	-0.2021886	-1.607814	0	11.34	4003	0	0	5	5	0.3985658	-0.02085034	1	10	0.03	1800	-5.348572	40.92395	-91.39362
376551	-33	2	2	-0.3696388	-0.1371479	-1.621693	0	11.34	4003	0	0	5	5	0.3985658	-0.02577848	1	10	0.03	1800	-5.330536	40.92395	-91.39362
