time(ms)	gyro_x(deg/s)	gyro_y(deg/s)	gyro_z(deg/s)	orientation_roll(deg)	orientation_pitch(deg)	orientation_yaw(deg)	throttle	battery(V)	loop_time(uS)	pid_output_roll	pid_output_pitch	pid_output_yaw	pid_output_throttle	ultrasonic_alt	baro_alt	flight_mode	p_gain_altitude	i_gain_altitude	d_gain_altitude	compass_heading	latitude	longitude
31080	492	-962	562	-4.36489	-3.214549	0.5184407	0	11.23	4004	0	0	5	5	0.3454009	1.513209	3	15	0.04	1900	-0.8691406	40.92397	-91.39362
31129	2392	798	268	-3.364223	-3.302491	-0.02666874	0	11.23	4003	0	0	5	5	0.3454009	1.449455	3	15	0.04	1900	-2.811676	40.92397	-91.39362
31201	-508	-1185	-1889	-1.603342	-3.874181	0.2067945	0	11.23	4002	0	0	5	5	0.3454009	1.426424	3	15	0.04	1900	-4.309845	40.92397	-91.39362
31336	-289	13	-744	-2.369839	-3.358653	2.285233	0	11.57	4003	0	0	5	5	0.3454009	1.380593	3	15	0.04	1900	-4.273895	40.92397	-91.39362
31397	-567	29	411	-2.293425	-3.373726	2.149783	0	11.57	4004	0	0	5	5	0.3454009	1.352161	3	15	0.04	1900	-6.984406	40.92397	-91.39362
31579	-229	1975	-122	-1.144308	-5.474629	1.131783	0	11.57	4004	0	0	5	5	0.3454009	1.311553	3	15	0.04	1900	-6.364746	40.92397	-91.39362
31662	-414	1682	0	-1.002215	-7.895483	-0.02008586	0	11.57	4003	0	0	5	5	0.3454009	1.283505	3	15	0.04	1900	-6.977203	40.92397	-91.39362
31727	-380	900	510	-1.458884	-8.367647	-0.4036422	0	11.57	4003	0	0	5	5	0.3454009	1.262686	3	15	0.04	1900	-5.170868	40.92397	-91.39362
31862	-248	171	-665	-1.618542	-8.231386	-0.04979891	0	11.57	4002	0	0	5	5	0.3454009	1.228331	3	15	0.04	1900	-6.393799	40.92396	-91.39362
31912	552	450	-1279	-1.506312	-8.447138	0.3867036	0	11.57	4003	0	0	5	5	0.3454009	1.222901	3	15	0.04	1900	-5.998749	40.92396	-91.39362
32078	-550	2381	1392	-1.889448	-9.106801	0.9362627	0	11.57	4002	0	0	5	5	0.3454009	1.189483	3	15	0.04	1900	-7.140594	40.92396	-91.39362
32195	532	259	-1107	-0.825406	-11.3992	0.7260089	0	11.57	4004	0	0	5	5	0.3454009	1.161232	3	15	0.04	1900	-7.746307	40.92396	-91.39362
32224	1582	312	-388	-0.07658347	-11.32908	0.7277171	0	11.85	4004	0	0	5	5	0.3454009	1.146906	3	15	0.04	1900	-7.746307	40.92396	-91.39362
32367	1796	-861	-430	2.748769	-10.31604	0.9268223	0	11.85	4003	0	0	5	5	0.3454009	1.104039	3	15	0.04	1900	-4.338074	40.92396	-91.39362
32473	2902	1723	666	5.264461	-10.1774	0.4749625	0	11.85	4003	0	0	5	5	0.3454009	1.057108	3	15	0.04	1900	-3.249969	40.92396	-91.39362
32572	2340	-419	819	7.995789	-9.272384	1.566788	0	11.85	4002	0	0	5	5	0.3454009	1.026919	3	15	0.04	1900	-0.6438904	40.92396	-91.39362
32713	-2354	-1960	-2515	5.490983	-5.791105	2.833965	0	11.85	4004	0	0	5	5	0.3454009	0.93938	3	15	0.04	1900	2.382628	40.92396	-91.39362
32767	-3543	-2187	-83	2.819041	-2.999592	2.715124	0	11.85	4003	0	0	5	5	0.3454009	0.9296728	3	15	0.04	1900	1.522287	40.92396	-91.39362
32873	-2850	-364	-259	-1.383253	-2.69021	0.8618729	0	11.85	4002	0	0	5	5	0.3454009	0.8964195	3	15	0.04	1900	2.599969	40.92396	-91.39362
32945	-4047	-608	2263	-7.045735	-2.05239	-0.3529232	0	11.85	4004	0	0	5	5	0.3454009	0.8771114	3	15	0.04	1900	1.464408	40.92396	-91.39362
33039	653	1431	-1023	-8.9276	-2.198033	0.02043277	0	11.85	4004	0	0	5	5	0.3454009	0.8440801	3	15	0.04	1900	1.979113	40.92396	-91.39362
33171	-1274	-3060	-1089	-4.537909	-1.600276	2.505179	0	11.17	4004	0	0	5	5	0.3454009	0.8330833	3	15	0.04	1900	-3.153046	40.92396	-91.39362
33273	582	-1005	637	-3.572387	-0.7476304	2.192524	0	11.17	4002	0	0	5	5	0.3454009	0.8139044	3	15	0.04	1900	-5.149597	40.92396	-91.39362
33315	1412	555	645	-2.975485	-0.6288918	1.69651	0	11.17	4004	0	0	5	5	0.3454009	0.8096498	3	15	0.04	1900	-4.625244	40.92396	-91.39362
33413	-581	-1506	-1376	-0.4575798	-3.287164	1.081314	0	11.17	4004	0	0	5	5	0.3454009	0.793576	3	15	0.04	1900	-4.727844	40.92396	-91.39362
33611	769	43	-241	-0.3799731	1.356718	0.4783835	0	11.17	4003	0	0	5	5	0.3454009	0.7685404	3	15	0.04	1900	-6.429352	40.92396	-91.39362
33667	1059	865	1037	-0.007846074	1.181166	0.5758145	0	11.17	4004	0	0	5	5	0.3454009	0.7636127	3	15	0.04	1900	-5.825256	40.92396	-91.39362
33732	-1286	-886	-1298	-0.5176923	-0.9724069	1.460565	0	11.17	4003	0	0	5	5	0.3454009	0.7610204	3	15	0.04	1900	-4.4198	40.92396	-91.39362
33898	-728	147	546	0.06679809	-3.601461	1.48003	0	11.17	4003	0	0	5	5	0.3454009	0.7316079	3	15	0.04	1900	-6.164459	40.92396	-91.39362
33931	-760	-2571	609	0.02181257	-3.190206	0.9387075	0	11.17	4002	0	0	5	5	0.3454009	0.7316079	3	15	0.04	1900	-8.676056	40.92396	-91.39362
34071	470	452	319	-1.712485	0.914433	0.198994	0	11.06	4004	0	0	5	5	0.3454009	0.7098005	3	15	0.04	1900	-5.691528	40.92396	-91.39362
34130	724	1940	1435	-1.525974	-0.2174648	0.3827112	0	11.06	4004	0	0	5	5	0.3454009	0.696078	3	15	0.04	1900	-5.691528	40.92396	-91.39362
34319	1676	4514	-1694	-0.6779721	-6.70836	2.200629	0	11.06	4003	0	0	5	5	0.3454009	0.620216	3	15	0.04	1900	-11.30453	40.92395	-91.39362
34370	623	2224	548	1.146428	-11.06421	2.382637	0	11.06	4003	0	0	5	5	0.3454009	0.6099217	3	15	0.04	1900	-7.047485	40.92395	-91.39362
34449	-2044	885	2861	0.2900989	-12.91119	1.091265	0	11.06	4002	0	0	5	5	0.3454009	0.5824231	3	15	0.04	1900	-5.06427	40.92395	-91.39362
34553	1336	1217	247	-1.35879	-12.47324	-1.20072	0	11.06	4003	0	0	5	5	0.3454009	0.5377807	3	15	0.04	1900	-5.234314	40.92395	-91.39362
34644	1250	1900	-1761	0.06276861	-12.90397	-1.104009	0	11.06	4002	0	0	5	5	0.3454009	0.5259768	3	15	0.04	1900	-5.234314	40.92395	-91.39362
34776	-1144	-743	-2935	-0.9698542	-13.42408	2.619806	0	11.06	4003	0	0	5	5	0.3454009	0.5123702	3	15	0.04	1900	-1.869232	40.92395	-91.39362
34856	1175	1180	-249	1.31087	-14.27388	4.085821	0	11.06	4002	0	0	5	5	0.3454009	0.5027984	3	15	0.04	1900	-4.040222	40.92395	-91.39362
34986	-2051	-1502	2605	-0.1934028	-11.10697	1.654243	0	11.06	4002	0	0	5	5	0.3454009	0.4758559	3	15	0.04	1900	-2.401947	40.92395	-91.39362
35113	-477	-1669	-525	-0.3920074	-6.795576	-1.547459	0	11.97	4004	0	0	5	5	0.3454009	0.4535525	3	15	0.04	1900	1.229952	40.92395	-91.39362
35141	-1316	-1424	-102	-0.8804789	-6.157702	-1.511817	0	11.97	4004	0	0	5	5	0.3454009	0.4427121	3	15	0.04	1900	1.229952	40.92395	-91.39362
35264	-1116	843	-267	-2.520802	-5.677077	-1.210747	0	11.97	4004	0	0	5	5	0.3454009	0.3992673	3	15	0.04	1900	0.634813	40.92395	-91.39362
35349	10202	-12985	-5304	-0.9047071	-1.184124	0.4622102	0	11.97	4004	0	0	5	5	0.3454009	0.3792349	3	15	0.04	1900	-0.2236023	40.92394	-91.39362
35567	46	119	-53	1.152925	-1.099986	1.301979	0	11.97	4003	0	0	5	5	0.3454009	0.27371	1	15	0.04	1900	-4.082367	40.92394	-91.39362
35727	-58	-83	-108	1.107532	-0.6458727	1.303133	0	11.97	4003	0	0	5	5	0.3454009	0.1651989	1	15	0.04	1900	-3.638	40.92394	-91.39362
35783	-55	26	-23	1.056188	-0.4097473	1.294755	0	11.97	4002	0	0	5	5	0.3454009	0.1393773	1	15	0.04	1900	-4.433777	40.92394	-91.39362
35870	-79	-29	3	1.003102	-0.1026654	1.272807	0	11.97	4004	0	0	5	5	0.3454009	0.1054376	1	15	0.04	1900	-4.468109	40.92394	-91.39362
35983	-58	13	0	0.9872335	0.1674479	1.270114	0	12.14	4004	0	0	5	5	0.3454009	0.05247825	1	15	0.04	1900	-3.862305	40.92394	-91.39362
36091	-42	0	-5	0.9609729	0.4006893	1.254952	0	12.14	4003	0	0	5	5	0.3454009	0.01466935	1	15	0.04	1900	-4.269379	40.92394	-91.39362
36213	-53	0	9	0.9206899	0.685259	1.236183	0	12.14	4003	0	0	5	5	0.3454009	-0.03449943	1	15	0.04	1900	-3.432983	40.92394	-91.39362
36276	-55	0	17	0.9146617	0.7444515	1.230681	0	12.14	4002	0	0	5	5	0.3454009	-0.05757365	1	15	0.04	1900	-3.432983	40.92394	-91.39362
36415	-54	6	7	0.8856995	1.007247	1.205309	0	12.14	4002	0	0	5	5	0.3454009	-0.08775066	1	15	0.04	1900	-3.326904	40.92394	-91.39362
36484	-52	2	12	0.8824554	1.095483	1.195772	0	12.14	4003	0	0	5	5	0.3454009	-0.1182029	1	15	0.04	1900	-3.547333	40.92394	-91.39362
36587	-54	0	9	0.8709351	1.182278	1.18709	0	12.14	4003	0	0	5	5	0.3454009	-0.1394505	1	15	0.04	1900	-3.547333	40.92394	-91.39362
36707	-57	3	9	0.8586871	1.325683	1.16985	0	12.14	4003	0	0	5	5	0.3454009	-0.1609706	1	15	0.04	1900	-3.272766	40.92394	-91.39362
36849	-52	5	10	0.8468485	1.439165	1.156154	0	12.14	4004	0	0	5	5	0.3454009	-0.1662592	1	15	0.04	1900	-3.462799	40.92394	91.37701
36957	-53	-5	7	0.8402407	1.520517	1.144476	0	12.19	4002	0	0	5	5	0.3454009	-0.1641037	1	15	0.04	1900	-3.428436	40.92394	91.37701
36997	-57	4	7	0.835024	1.569318	1.135428	0	12.19	4002	0	0	5	5	0.3454009	-0.1630469	1	15	0.04	1900	-3.188263	40.92394	-91.39362
37198	290	70	-27	0.6797775	1.63744	1.217773	0	12.19	4002	0	0	5	5	0.3454009	-0.148319	1	15	0.04	1900	-3.570953	40.92394	-91.39362
37242	-450	2191	328	1.856604	0.02114924	1.232799	0	12.19	4002	0	0	5	5	0.3454009	-0.1442941	1	15	0.04	1900	-3.151978	40.92394	-91.39362
37307	-403	3800	-7	1.704475	-1.8031	1.09972	0	12.19	4002	0	0	5	5	0.3454009	-0.1265581	1	15	0.04	1900	-3.151978	40.92394	-91.39362
37445	2333	2703	275	3.979243	-20.36917	0.3093427	0	12.19	4004	0	0	5	5	0.3454009	-0.1025436	1	15	0.04	1900	-2.527649	40.92394	-91.39362
37586	1012	2165	-1099	6.981396	-26.78881	3.108737	0	12.19	4004	0	0	5	5	0.3454009	-0.09001432	1	15	0.04	1900	-2.120483	40.92394	-91.39362
37646	-3	2671	-1012	6.79886	-29.9046	4.064452	0	12.19	4002	0	0	5	5	0.3454009	-0.06583084	1	15	0.04	1900	-2.640533	40.92394	-91.39362
37729	-577	3207	-935	5.20298	-33.18144	5.173331	0	12.19	4004	0	0	5	5	0.3454009	-0.02675263	1	15	0.04	1900	-2.517822	40.92394	-91.39362
37794	-776	2068	-1614	3.41706	-35.79581	6.546874	0	12.14	4003	0	0	5	5	0.3454009	-0.01698317	1	15	0.04	1900	-2.904938	40.92394	-91.39362
37906	-2752	2806	-2781	-3.805624	-39.6571	11.54219	0	12.14	4002	0	0	5	5	0.3454009	0.0331114	1	15	0.04	1900	-7.693665	40.92394	-91.39362
37991	-2989	2190	-3289	-8.494673	-41.31805	14.86812	0	12.14	4003	0	0	5	5	0.3454009	0.08038604	1	15	0.04	1900	-11.07294	40.92394	-91.39362
38125	-519	442	-4386	-17.92705	-37.48586	25.59644	0	12.14	4003	0	0	5	5	0.3454009	0.116291	1	15	0.04	1900	-22.05215	40.92394	-91.39362
38274	6525	-1269	-1246	-11.38009	-32.886	31.5603	0	12.14	4004	0	0	5	5	0.3454009	0.18359	1	15	0.04	1900	-29.32617	40.92394	-91.39362
38296	6525	-1269	-1246	-11.38009	-32.886	31.5603	0	12.14	4004	0	0	5	5	0.3454009	0.2051074	1	15	0.04	1900	-29.32617	40.92394	-91.39362
38422	3518	2175	476	2.937123	-33.13713	32.47766	0	12.14	4003	0	0	5	5	0.3454009	0.2522312	1	15	0.04	1900	-27.83936	40.92394	-91.39362
38522	3016	1702	1057	4.767998	-34.18047	32.03392	0	12.14	4003	0	0	5	5	0.3454009	0.3155333	1	15	0.04	1900	-26.20703	40.92394	-91.39362
38659	-4169	453	2273	7.169811	-27.50059	25.77073	0	12.14	4004	0	0	5	5	0.3454009	0.3647594	1	15	0.04	1900	-21.11603	40.92395	-91.39362
38753	-2174	-561	3062	5.080814	-29.0395	22.72431	0	12.14	4003	0	0	5	5	0.3454009	0.4184178	1	15	0.04	1900	-19.68408	40.92395	-91.39362
38867	1397	-3198	4287	8.487274	-24.36978	16.6428	0	12.14	4002	0	0	5	5	0.3454009	0.4511621	1	15	0.04	1900	-17.73874	40.92395	-91.39362
38907	-531	-1979	2761	10.37947	-21.55816	12.73921	0	12.14	4002	0	0	5	5	0.3454009	0.4597271	1	15	0.04	1900	-14.8356	40.92395	-91.39362
39059	-551	-3587	1469	9.227563	-18.62869	8.989083	0	12.14	4002	0	0	5	5	0.3454009	0.5245072	1	15	0.04	1900	-12.00885	40.92395	-91.39362
39110	-1424	-3900	1174	8.377666	-14.87382	7.516121	0	12.14	4002	0	0	5	5	0.3454009	0.5320609	1	15	0.04	1900	-11.63632	40.92395	-91.39362
39201	70	-2589	640	7.007878	-12.5874	5.784225	0	12.14	4004	0	0	5	5	0.3454009	0.5600238	1	15	0.04	1900	-11.32806	40.92395	-91.39362
39305	822	-451	1301	7.871581	-11.74326	3.492307	0	12.14	4002	0	0	5	5	0.3454009	0.5820872	1	15	0.04	1900	-9.41806	40.92395	-91.39362
39458	-205	884	671	7.312345	-11.31618	1.321846	0	12.14	4003	0	0	5	5	0.3454009	0.5918708	1	15	0.04	1900	-6.527405	40.92395	-91.39362
39515	-840	1454	-185	6.953215	-12.22935	1.216192	0	12.14	4003	0	0	5	5	0.3454009	0.5769046	1	15	0.04	1900	-5.415802	40.92395	-91.39362
39655	-937	-867	-267	3.784773	-14.01236	1.988537	0	12.31	4003	0	0	5	5	0.3454009	0.5423179	1	15	0.04	1900	-6.06366	40.92396	-91.39362
39716	262	394	-581	2.63082	-14.63706	2.910823	0	12.31	4002	0	0	5	5	0.3454009	0.5184976	1	15	0.04	1900	-7.026215	40.92396	-91.39362
39868	-4646	-1885	3188	-0.7635792	-14.83688	1.655576	0	12.31	4002	0	0	5	5	0.3454009	0.4872133	1	15	0.04	1900	-6.247406	40.92396	-91.39362
40008	-416	-3640	572	-0.9771686	-7.175507	0.9586275	0	12.31	4003	0	0	5	5	0.3454009	0.4747266	1	15	0.04	1900	-6.001434	40.92396	-91.39362
40200	-94	-14	-44	-0.3708716	-3.638604	0.8616607	0	12.31	4003	0	0	5	5	0.3454009	0.4657001	1	15	0.04	1900	-5.638153	40.92396	-91.39362
40235	8	-161	17	-0.4707478	-3.49155	0.83531	0	12.31	4002	0	0	5	5	0.3454009	0.4627347	1	15	0.04	1900	-5.777954	40.92396	-91.39362
40343	-227	178	26	-0.5101134	-2.899485	0.7812582	0	12.31	4003	0	0	5	5	0.3454009	0.438249	1	15	0.04	1900	-5.592194	40.92396	-91.39362
40413	-142	57	33	-0.6736122	-2.634541	0.7502624	0	12.31	4004	0	0	5	5	0.3454009	0.421633	1	15	0.04	1900	-5.646545	40.92396	-91.39362
40584	-37	-138	28	-0.7436784	-2.441687	0.7542967	0	12.25	4002	0	0	5	5	0.3454009	0.3862645	1	15	0.04	1900	-5.465454	40.92396	-91.39362
40649	-21	63	42	-0.7038879	-1.960856	0.7418926	0	12.25	4002	0	0	5	5	0.3454009	0.3498254	1	15	0.04	1900	-5.228149	40.92395	-91.39362
40746	-22	-3	8	-0.7349679	-1.794342	0.7181726	0	12.25	4004	0	0	5	5	0.3454009	0.3336095	1	15	0.04	1900	-5.426331	40.92395	-91.39362
40811	-43	14	27	-0.7387419	-1.628341	0.7163399	0	12.25	4004	0	0	5	5	0.3454009	0.3097874	1	15	0.04	1900	-5.390747	40.92395	-91.39362
41021	-49	17	2	-0.7201858	-1.233805	0.6912756	0	12.25	4002	0	0	5	5	0.3454009	0.249019	1	15	0.04	1900	-5.303589	40.92395	-91.39362
41091	-38	0	9	-0.7329759	-1.121424	0.6851617	0	12.25	4004	0	0	5	5	0.3454009	0.2364041	1	15	0.04	1900	-5.537689	40.92395	-91.39362
41143	-52	4	5	-0.7169116	-0.9625275	0.6737883	0	12.25	4004	0	0	5	5	0.3454009	0.2218299	1	15	0.04	1900	-5.051117	40.92395	-91.39362
41230	-45	-17	11	-0.7122039	-0.8783963	0.6676746	0	12.25	4004	0	0	5	5	0.3454009	0.205775	1	15	0.04	1900	-5.292755	40.92395	-91.39362
41346	-58	3	6	-0.7146138	-0.7515495	0.6552641	0	12.25	4002	0	0	5	5	0.3454009	0.1995898	1	15	0.04	1900	-5.494568	40.92395	-91.39362
41437	-52	8	5	-0.7149916	-0.6530151	0.6452981	0	12.25	4004	0	0	5	5	0.3454009	0.1918682	1	15	0.04	1900	-5.234009	40.92395	-91.39362
41512	-54	-4	11	-0.7092438	-0.5920368	0.6368611	0	12.25	4003	0	0	5	5	0.3454009	0.1889906	1	15	0.04	1900	-5.474243	40.92395	-91.39362
41614	-47	-2	11	-0.7075183	-0.5079069	0.6249402	0	12.25	4004	0	0	5	5	0.3454009	0.1845373	1	15	0.04	1900	-5.221161	40.92395	-91.39362
41718	-40	-1	9	-0.6978866	-0.4173351	0.6132016	0	12.25	4004	0	0	5	5	0.3454009	0.1819126	1	15	0.04	1900	-5.239532	40.92395	-91.39362
41815	-45	0	7	-0.6992548	-0.3770728	0.6066595	0	12.25	4004	0	0	5	5	0.3454009	0.1749525	1	15	0.04	1900	-4.996155	40.92395	-91.39362
41968	-41	1	11	-0.7086402	-0.2862101	0.5864852	0	12.25	4002	0	0	5	5	0.3454009	0.1622843	1	15	0.04	1900	-5.201782	40.92395	-91.39362
42022	-44	-2	11	-0.7051079	-0.2546659	0.5793329	0	12.25	4002	0	0	5	5	0.3454009	0.1576515	1	15	0.04	1900	-5.188202	40.92395	-91.39362
42125	-50	3	6	-0.7078038	-0.2280407	0.5716909	0	12.25	4003	0	0	5	5	0.3454009	0.1519767	1	15	0.04	1900	-5.424805	40.92395	-91.39362
42283	-37	-2	12	-0.7035131	-0.1732083	0.5529818	0	12.25	4003	0	0	5	5	0.3454009	0.1456636	1	15	0.04	1900	-5.191742	40.92395	-91.39362
42331	-41	1	5	-0.7041388	-0.1504017	0.5486412	0	12.25	4004	0	0	5	5	0.3454009	0.1445355	1	15	0.04	1900	-5.219177	40.92395	-91.39362
42434	-52	0	9	-0.7043549	-0.1163653	0.537636	0	12.25	4002	0	0	5	5	0.3454009	0.1293549	1	15	0.04	1900	-5.175293	40.92395	-91.39362
42558	-37	8	2	-0.6987025	-0.09768573	0.5293826	0	12.25	4003	0	0	5	5	0.3454009	0.1181082	1	15	0.04	1900	-5.391327	40.92395	-91.39362
42633	-49	4	7	-0.7040274	-0.07803085	0.521068	0	12.25	4003	0	0	5	5	0.3454009	0.1081229	1	15	0.04	1900	-5.202881	40.92395	-91.39362
42738	-36	-6	12	-0.6972444	-0.0551994	0.5123261	0	12.25	4003	0	0	5	5	0.3454009	0.1071028	1	15	0.04	1900	-5.165924	40.92395	-91.39362
42859	-50	3	10	-0.6953928	-0.03849271	0.5012606	0	12.25	4004	0	0	5	5	0.3454009	0.1131083	1	15	0.04	1900	-5.190308	40.92395	-91.39362
42937	-49	-5	6	-0.687997	-0.02803271	0.4949026	0	12.25	4002	0	0	5	5	0.3454009	0.1135703	1	15	0.04	1900	-5.171112	40.92395	-91.39362
43063	-45	2	6	-0.6825079	-0.01088579	0.4855494	0	12.25	4003	0	0	5	5	0.3454009	0.116412	1	15	0.04	1900	-5.432129	40.92395	-91.39362
43128	-52	1	5	-0.6774589	-0.0009954607	0.4805359	0	12.25	4003	0	0	5	5	0.3454009	0.1154674	1	15	0.04	1900	-5.207977	40.92395	-91.39362
43238	-47	4	9	-0.6707335	0.01219997	0.4687978	0	12.25	4002	0	0	5	5	0.3454009	0.1120489	1	15	0.04	1900	-5.198029	40.92395	-91.39362
43334	-51	4	3	-0.666701	0.02211611	0.4647627	0	12.25	4004	0	0	5	5	0.3454009	0.1050238	1	15	0.04	1900	-5.424011	40.92395	-91.39362
43420	-51	2	4	-0.6702263	0.0280188	0.4553472	0	12.25	4003	0	0	5	5	0.3454009	0.1037627	1	15	0.04	1900	-5.202576	40.92395	-91.39362
43520	-46	8	4	-0.6661912	0.03342934	0.4473988	0	12.25	4003	0	0	5	5	0.3454009	0.09952017	1	15	0.04	1900	-5.221649	40.92395	-91.39362
43628	-46	3	5	-0.6699798	0.03647909	0.4384122	0	12.25	4003	0	0	5	5	0.3454009	0.09800372	1	15	0.04	1900	-5.445374	40.92395	-91.39362
43685	-42	2	5	-0.6725075	0.03696756	0.4347438	0	12.25	4004	0	0	5	5	0.3454009	0.09863922	1	15	0.04	1900	-5.000519	40.92395	-91.39362
43805	-48	6	5	-0.6643879	0.04177442	0.4247788	0	12.25	4004	0	0	5	5	0.3454009	0.1020622	1	15	0.04	1900	-5.20578	40.92395	-91.39362
43952	-49	0	4	-0.6620755	0.04877392	0.4171368	0	12.25	4003	0	0	5	5	0.3454009	0.1060117	1	15	0.04	1900	-5.453308	40.92395	-91.39362
44075	-54	4	6	-0.6663399	0.04958277	0.4081491	0	12.25	4004	0	0	5	5	0.3454009	0.108347	1	15	0.04	1900	-5.426941	40.92395	-91.39362
44124	-49	0	6	-0.6658682	0.04786142	0.406254	0	12.25	4004	0	0	5	5	0.3454009	0.1093782	1	15	0.04	1900	-5.203766	40.92395	-91.39362
44202	-50	-4	3	-0.6611247	0.05739415	0.4008126	0	12.31	4004	0	0	5	5	0.3454009	0.1165561	1	15	0.04	1900	-5.450134	40.92395	-91.39362
44329	-43	-1	1	-0.6602305	0.05262184	0.392865	0	12.31	4003	0	0	5	5	0.3454009	0.1252972	1	15	0.04	1900	-5.205841	40.92395	-91.39362
44493	-42	-7	1	-0.6669636	0.0509013	0.3773357	0	12.31	4002	0	0	5	5	0.3454009	0.1286379	1	15	0.04	1900	-5.445587	40.92395	-91.39362
44607	-46	1	9	-0.6595224	0.05595525	0.3649248	0	12.31	4003	0	0	5	5	0.3454009	0.1318236	1	15	0.04	1900	-5.458862	40.92395	-91.39362
44683	-42	10	5	-0.6524031	0.05353628	0.3582616	0	12.31	4003	0	0	5	5	0.3454009	0.1323898	1	15	0.04	1900	-5.458862	40.92395	-91.39362
44785	-47	1	7	-0.649236	0.0520053	0.3533099	0	12.31	4004	0	0	5	5	0.3454009	0.132159	1	15	0.04	1900	-5.44632	40.92395	-91.39362
44905	-59	2	5	-0.6471919	0.05281058	0.3402265	0	12.31	4003	0	0	5	5	0.3454009	0.1432272	1	15	0.04	1900	-5.22821	40.92395	-91.39362
45001	-50	5	8	-0.6501597	0.05322217	0.3342961	0	12.31	4004	0	0	5	5	0.3454009	0.1589118	1	15	0.04	1900	-5.474213	40.92395	-91.39362
45099	-48	-1	4	-0.6492075	0.05751432	0.3273872	0	12.25	4003	0	0	5	5	0.3454009	0.1623737	1	15	0.04	1900	-5.00592	40.92395	-91.39362
45206	-39	-3	3	-0.6430045	0.05751677	0.3204175	0	12.25	4003	0	0	5	5	0.3454009	0.1718626	1	15	0.04	1900	-5.458099	40.92395	-91.39362
45328	-45	-2	7	-0.6386686	0.05560414	0.3130812	0	12.25	4003	0	0	5	5	0.3454009	0.174179	1	15	0.04	1900	-5.021027	40.92395	-91.39362
45390	-34	-3	8	-0.63639	0.05494602	0.3053159	0	12.25	4003	0	0	5	5	0.3454009	0.1739055	1	15	0.04	1900	-5.264893	40.92395	-91.39362
45512	-38	0	5	-0.6490524	0.05602445	0.2959617	0	12.25	4004	0	0	5	5	0.3454009	0.1726213	1	15	0.04	1900	-5.04953	40.92395	-91.39362
45605	-49	-2	5	-0.643944	0.06129557	0.2877694	0	12.25	4002	0	0	5	5	0.3454009	0.1723022	1	15	0.04	1900	-5.473663	40.92395	-91.39362
45707	-32	5	7	-0.6436698	0.05160161	0.2825114	0	12.25	4002	0	0	5	5	0.3454009	0.1817653	1	15	0.04	1900	-5.234802	40.92395	-91.39362
45833	-44	3	2	-0.6402802	0.0540411	0.2732799	0	12.25	4002	0	0	5	5	0.3454009	0.1915597	1	15	0.04	1900	-5.484985	40.92394	-91.39362
45889	-49	5	8	-0.639384	0.05102748	0.2670437	0	12.25	4004	0	0	5	5	0.3454009	0.1919842	1	15	0.04	1900	-5.24585	40.92394	-91.39362
46009	-40	-1	2	-0.6378851	0.05476909	0.2615409	0	12.25	4003	0	0	5	5	0.3454009	0.190518	1	15	0.04	1900	-5.269653	40.92394	-91.39362
46153	-41	0	1	-0.6337916	0.04547951	0.2504747	0	12.25	4002	0	0	5	5	0.3454009	0.1825822	1	15	0.04	1900	-5.228485	40.92394	-91.39362
46291	-36	2	4	-0.6374707	0.05121645	0.2438718	0	12.25	4004	0	0	5	5	0.3454009	0.1841779	1	15	0.04	1900	-5.26767	40.92394	-91.39362
46324	-39	3	2	-0.6391125	0.05076944	0.2416097	0	12.25	4004	0	0	5	5	0.3454009	0.1851396	1	15	0.04	1900	-5.26767	40.92394	-91.39362
46411	-42	5	1	-0.6372282	0.05595833	0.2351907	0	12.25	4004	0	0	5	5	0.3454009	0.1907431	1	15	0.04	1900	-5.222565	40.92394	-91.39362
46534	-35	-1	4	-0.6337873	0.05207377	0.2282824	0	12.25	4003	0	0	5	5	0.3454009	0.1981802	1	15	0.04	1900	-5.497223	40.92394	-91.39362
46617	-46	0	-1	-0.6361177	0.05071716	0.2215572	0	12.25	4004	0	0	5	5	0.3454009	0.2141474	1	15	0.04	1900	-5.270782	40.92394	-91.39362
46750	-45	2	0	-0.6321911	0.05187154	0.215016	0	12.25	4002	0	0	5	5	0.3454009	0.2242827	1	15	0.04	1900	-5.472565	40.92394	-91.39362
46827	-49	-2	4	-0.6303709	0.05414327	0.2112864	0	12.25	4003	0	0	5	5	0.3454009	0.231312	1	15	0.04	1900	-5.055511	40.92395	-91.39362
46923	-41	4	-1	-0.6320552	0.05503407	0.2037666	0	12.25	4002	0	0	5	5	0.3454009	0.2372379	1	15	0.04	1900	-5.251953	40.92395	-91.39362
47067	-43	1	3	-0.6298052	0.05966561	0.1977753	0	12.25	4002	0	0	5	5	0.3454009	0.243675	1	15	0.04	1900	-5.262451	40.92395	-91.39362
47257	-44	-3	-1	-0.6266785	0.05839173	0.1849974	0	12.25	4004	0	0	5	5	0.3454009	0.2328476	1	15	0.04	1900	-5.261292	40.92395	-91.39362
47333	-39	-1	3	-0.6272622	0.05466636	0.1792506	0	12.25	4002	0	0	5	5	0.3454009	0.2278268	1	15	0.04	1900	-5.48291	40.92395	-91.39362
47407	-33	0	6	-0.6170923	0.05211068	0.1743601	0	12.25	4002	0	0	5	5	0.3454009	0.2228449	1	15	0.04	1900	-5.519348	40.92395	-91.39362
47570	-41	0	4	-0.6091708	0.04772976	0.1643947	0	12.25	4002	0	0	5	5	0.3454009	0.2344335	1	15	0.04	1900	-5.288055	40.92395	-91.39362
47600	-38	6	4	-0.6118614	0.04566473	0.1613379	0	12.25	4003	0	0	5	5	0.3454009	0.2367054	1	15	0.04	1900	-5.088531	40.92395	-91.39362
47729	-28	-2	2	-0.6117065	0.03255253	0.1541241	0	12.25	4002	0	0	5	5	0.3454009	0.2470177	1	15	0.04	1900	-5.308624	40.92395	-91.39362
47829	-29	-3	6	-0.6071418	0.02966382	0.1478883	0	12.25	4002	0	0	5	5	0.3454009	0.2552578	1	15	0.04	1900	-5.31842	40.92395	-91.39362
47907	-40	-1	6	-0.5981522	0.0299047	0.1406131	0	12.31	4004	0	0	5	5	0.3454009	0.266999	1	15	0.04	1900	-5.549194	40.92395	-91.39362
48046	-45	2	3	-0.5982218	0.02889532	0.1327879	0	12.31	4002	0	0	5	5	0.3454009	0.293848	1	15	0.04	1900	-5.336182	40.92395	-91.39362
48112	-37	2	0	-0.5956906	0.03352828	0.1282029	0	12.31	4002	0	0	5	5	0.3454009	0.3040695	1	15	0.04	1900	-5.08783	40.92395	-91.39362
48242	-40	4	9	-0.5988078	0.02901781	0.1222728	0	12.31	4002	0	0	5	5	0.3454009	0.3156701	1	15	0.04	1900	-5.532715	40.92395	-91.39362
48307	-44	-2	10	-0.6025226	0.03139698	0.1188497	0	12.31	4003	0	0	5	5	0.3454009	0.3264181	1	15	0.04	1900	-5.325958	40.92395	-91.39362
48402	-38	4	7	-0.5937242	0.03530709	0.1112683	0	12.31	4004	0	0	5	5	0.3454009	0.3327949	1	15	0.04	1900	-5.561279	40.92395	-91.39362
48527	-36	2	4	-0.5981917	0.03528387	0.1053376	0	12.31	4003	0	0	5	5	0.3454009	0.3417427	1	15	0.04	1900	-5.538818	40.92395	-91.39362
48592	-44	1	-1	-0.5959142	0.03989194	0.1000187	0	12.31	4003	0	0	5	5	0.3454009	0.3409365	1	15	0.04	1900	-5.332733	40.92395	-91.39362
48756	-41	-2	5	-0.5948703	0.04216104	0.09469952	0	12.31	4002	0	0	5	5	0.3454009	0.3538412	1	15	0.04	1900	-5.316711	40.92395	-91.39362
48893	-39	1	9	-0.5921552	0.04387258	0.08540664	0	12.31	4002	0	0	5	5	0.3454009	0.3651188	1	15	0.04	1900	-5.096405	40.92394	-91.39362
48927	-43	-8	5	-0.5882689	0.04392895	0.08302211	0	12.31	4004	0	0	5	5	0.3454009	0.3714432	1	15	0.04	1900	-5.096405	40.92394	-91.39362
49097	-35	3	0	-0.5890713	0.04214374	0.07544151	0	12.31	4008	0	0	5	5	0.3454009	0.3492054	1	15	0.04	1900	-5.32019	40.92394	-91.39362
49141	-39	0	4	-0.5885363	0.04299151	0.07324062	0	12.31	4002	0	0	5	5	0.3454009	0.3451927	1	15	0.04	1900	-5.32019	40.92394	-91.39362
49217	-39	2	2	-0.5866419	0.05015461	0.0649872	0	12.31	4003	0	0	5	5	0.3454009	0.3329806	1	15	0.04	1900	-5.33139	40.92394	-91.39362
49291	-39	3	3	-0.5900184	0.05080691	0.06358115	0	12.31	4004	0	0	5	5	0.3454009	0.3244146	1	15	0.04	1900	-5.347839	40.92394	-91.39362
49400	-43	3	8	-0.5884462	0.05062873	0.0550832	0	12.31	4003	0	0	5	5	0.3454009	0.3064727	1	15	0.04	1900	-5.324036	40.92394	-91.39362
49483	-29	-6	9	-0.5773213	0.05272372	0.04860308	0	12.31	4003	0	0	5	5	0.3454009	0.2999343	1	15	0.04	1900	-5.554749	40.92394	-91.39362
49585	-44	3	1	-0.5740238	0.04899423	0.04346769	0	12.31	4004	0	0	5	5	0.3454009	0.2823543	1	15	0.04	1900	-5.342072	40.92394	-91.39362
49703	-47	1	8	-0.5751365	0.04923426	0.03986112	0	12.31	4003	0	0	5	5	0.3454009	0.2641837	1	15	0.04	1900	-5.585815	40.92394	-91.39362
49801	-34	0	3	-0.5816303	0.04704434	0.0343588	0	12.31	4004	0	0	5	5	0.3454009	0.2501241	1	15	0.04	1900	-5.131073	40.92394	-91.39362
49883	-30	5	7	-0.5815553	0.05015002	0.02910153	0	12.31	4003	0	0	5	5	0.3454009	0.2326522	1	15	0.04	1900	-5.3237	40.92394	-91.39362
49987	-30	-1	0	-0.5842135	0.04520016	0.02488283	0	12.31	4003	0	0	5	5	0.3454009	0.2282297	1	15	0.04	1900	-5.574951	40.92394	-91.39362
50116	-36	2	3	-0.5827594	0.04562543	0.02090921	0	12.31	4003	0	0	5	5	0.3454009	0.2201456	1	15	0.04	1900	-5.32019	40.92394	-91.39362
50194	-37	-1	3	-0.5798471	0.04735678	0.01638547	0	12.31	4003	0	0	5	5	0.3454009	0.2179471	1	15	0.04	1900	-5.356934	40.92394	-91.39362
50311	-31	0	-3	-0.5696436	0.04831794	0.01247308	0	12.31	4003	0	0	5	5	0.3454009	0.2168174	1	15	0.04	1900	-5.128326	40.92394	-91.39362
50414	-35	1	1	-0.574723	0.04302405	0.007031677	0	12.31	4002	0	0	5	5	0.3454009	0.2244194	1	15	0.04	1900	-5.350922	40.92394	-91.39362
50503	-35	-4	3	-0.5739312	0.04588927	0.00428047	0	12.31	4003	0	0	5	5	0.3454009	0.2291872	1	15	0.04	1900	-5.346497	40.92395	-91.39362
50637	-49	3	6	-0.5755793	0.05332046	-0.001283332	0	12.31	4004	0	0	5	5	0.3454009	0.2371886	1	15	0.04	1900	-5.573151	40.92395	-91.39362
50819	-32	1	4	-0.5704764	0.0484784	-0.008985577	0	12.31	4002	0	0	5	5	0.3454009	0.2440194	1	15	0.04	1900	-5.129639	40.92395	-91.39362
50999	-44	1	5	-0.561533	0.05215986	-0.01754542	0	12.31	4003	0	0	5	5	0.3454009	0.2460017	1	15	0.04	1900	-5.602966	40.92394	-91.39362
51036	-43	0	4	-0.5557403	0.05519317	-0.01937959	0	12.31	4003	0	0	5	5	0.3454009	0.2442519	1	15	0.04	1900	-5.386536	40.92394	-91.39362
51164	-33	2	4	-0.5570432	0.05223776	-0.02457607	0	12.31	4004	0	0	5	5	0.3454009	0.2486664	1	15	0.04	1900	-5.3703	40.92394	-91.39362
51211	-36	-1	8	-0.5576802	0.05016796	-0.02598236	0	12.31	4003	0	0	5	5	0.3454009	0.2570492	1	15	0.04	1900	-5.3703	40.92394	-91.39362
51315	-42	-1	6	-0.5601316	0.05311165	-0.02965031	0	12.31	4004	0	0	5	5	0.3454009	0.2804217	1	15	0.04	1900	-5.124603	40.92394	-91.39362
51448	-28	6	6	-0.5514421	0.04885087	-0.03619227	0	12.31	4003	0	0	5	5	0.3454009	0.2909949	1	15	0.04	1900	-5.59198	40.92395	-91.39362
51556	-37	-4	-1	-0.5493862	0.04842687	-0.03839335	0	12.31	4002	0	0	5	5	0.3454009	0.3119492	1	15	0.04	1900	-5.385712	40.92395	-91.39362
51622	-30	3	3	-0.551282	0.0513348	-0.04334547	0	12.31	4004	0	0	5	5	0.3454009	0.3254408	1	15	0.04	1900	-5.381165	40.92395	-91.39362
51846	-47	1	0	-0.5503531	0.04193649	-0.05355558	0	12.31	4004	0	0	5	5	0.3454009	0.3291313	1	15	0.04	1900	-5.38623	40.92394	-91.39362
51952	-24	4	7	-0.5492352	0.04497717	-0.0560618	0	12.31	4004	0	0	5	5	0.3454009	0.3206086	1	15	0.04	1900	-5.608215	40.92394	-91.39362
52098	-43	5	8	-0.5397222	0.03604763	-0.06523264	0	12.31	4004	0	0	5	5	0.3454009	0.314937	1	15	0.04	1900	-5.16272	40.92395	-91.39362
52164	-36	2	6	-0.5353578	0.03577706	-0.06773911	0	12.31	4002	0	0	5	5	0.3454009	0.3069229	1	15	0.04	1900	-5.630768	40.92394	-91.39362
52289	-38	-2	6	-0.5362512	0.04298477	-0.0711017	0	12.31	4004	0	0	5	5	0.3454009	0.2968317	1	15	0.04	1900	-5.40094	40.92394	-91.39362
52339	-37	-1	1	-0.5360848	0.04186761	-0.07189646	0	12.31	4003	0	0	5	5	0.3454009	0.2798058	1	15	0.04	1900	-5.407349	40.92394	-91.39362
52395	-26	0	4	-0.532506	0.04382782	-0.07397527	0	12.31	4003	0	0	5	5	0.3454009	0.2763969	1	15	0.04	1900	-5.655914	40.92394	-91.39362
52509	-35	1	2	-0.529107	0.04610035	-0.07648173	0	12.31	4004	0	0	5	5	0.3454009	0.2498234	1	15	0.04	1900	-5.440643	40.92394	-91.39362
52593	-33	-1	1	-0.5261794	0.04198938	-0.08021121	0	12.31	4004	0	0	5	5	0.3454009	0.2317512	1	15	0.04	1900	-5.421417	40.92394	-91.39362
52721	-43	-1	2	-0.5273278	0.03657554	-0.08510207	0	12.31	4003	0	0	5	5	0.3454009	0.1929947	1	15	0.04	1900	-5.442535	40.92394	-91.39362
52796	-37	0	4	-0.5251292	0.03987866	-0.08779231	0	12.31	4004	0	0	5	5	0.3454009	0.1773234	1	15	0.04	1900	-5.64444	40.92394	-91.39362
52901	-29	-2	0	-0.5291131	0.03983582	-0.0915824	0	12.31	4003	0	0	5	5	0.3454009	0.148388	1	15	0.04	1900	-5.416656	40.92394	-91.39362
53010	-40	5	5	-0.5323445	0.03924686	-0.09561716	0	12.31	4002	0	0	5	5	0.3454009	0.116053	1	15	0.04	1900	-5.395569	40.92394	-91.39362
53199	-35	0	0	-0.5271214	0.04314229	-0.1036262	0	12.31	4004	0	0	5	5	0.3454009	0.09717403	1	15	0.04	1900	-5.431519	40.92394	-91.39362
53268	-35	-3	8	-0.5226495	0.04109214	-0.1063159	0	12.31	4002	0	0	5	5	0.3454009	0.09236622	1	15	0.04	1900	-5.447327	40.92394	-91.39362
53319	-35	-4	3	-0.5314987	0.04065094	-0.107722	0	12.31	4003	0	0	5	5	0.3454009	0.09148379	1	15	0.04	1900	-5.441406	40.92394	-91.39362
53392	-26	4	3	-0.5184456	0.04420245	-0.1120015	0	12.25	4003	0	0	5	5	0.3454009	0.08897142	1	15	0.04	1900	-5.452789	40.92394	-91.39362
53561	-37	2	8	-0.5120262	0.0471163	-0.1169538	0	12.25	4004	0	0	5	5	0.3454009	0.08013332	1	15	0.04	1900	-5.87738	40.92394	-91.39362
53614	-38	0	5	-0.5143137	0.04475794	-0.121172	0	12.25	4004	0	0	5	5	0.3454009	0.08146442	1	15	0.04	1900	-5.661133	40.92394	-91.39362
53751	-32	5	2	-0.50371	0.04341719	-0.1250238	0	12.25	4003	0	0	5	5	0.3454009	0.08169509	1	15	0.04	1900	-5.447052	40.92394	-91.39362
53825	-38	0	4	-0.5072054	0.04265712	-0.1282027	0	12.25	4002	0	0	5	5	0.3454009	0.07822378	1	15	0.04	1900	-5.435272	40.92394	-91.39362
53917	-36	5	0	-0.5064443	0.04107559	-0.1300979	0	12.25	4004	0	0	5	5	0.3454009	0.07491254	1	15	0.04	1900	-5.470306	40.92394	-91.39362
54000	-37	5	-2	-0.5045149	0.03880983	-0.131504	0	12.25	4003	0	0	5	5	0.3454009	0.07627519	1	15	0.04	1900	-5.652649	40.92394	-91.39362
54084	-32	-2	-2	-0.5013465	0.03451423	-0.1369448	0	12.25	4004	0	0	5	5	0.3454009	0.07720015	1	15	0.04	1900	-5.70343	40.92394	-91.39362
54199	-32	-2	-2	-0.5013465	0.03451423	-0.1369448	0	12.25	4004	0	0	5	5	0.3454009	0.07635247	1	15	0.04	1900	-5.70343	40.92394	-91.39362
54288	-34	-2	3	-0.5116935	0.03579767	-0.1426767	0	12.31	4003	0	0	5	5	0.3454009	0.06241922	1	15	0.04	1900	-5.467377	40.92394	-91.39362
54473	-39	8	3	-0.5167907	0.03431735	-0.1508254	0	12.31	4003	0	0	5	5	0.3454009	0.06560723	1	15	0.04	1900	-5.457489	40.92394	-91.39362
54632	-32	3	0	-0.5135522	0.03646801	-0.1541272	0	12.31	4002	0	0	5	5	0.3454009	0.08657112	1	15	0.04	1900	-5.440308	40.92394	-91.39362
54671	-31	0	3	-0.5127707	0.0405549	-0.1575508	0	12.31	4002	0	0	5	5	0.3454009	0.09148479	1	15	0.04	1900	-5.245056	40.92394	-91.39362
54743	-40	-1	0	-0.5140912	0.03853313	-0.1600574	0	12.31	4002	0	0	5	5	0.3454009	0.1194894	1	15	0.04	1900	-5.419891	40.92394	-91.39362
54913	-31	-1	1	-0.5034112	0.03878824	-0.1632364	0	12.31	4004	0	0	5	5	0.3454009	0.1348032	1	15	0.04	1900	-5.472992	40.92394	-91.39362
54954	-26	2	6	-0.5038946	0.03869443	-0.1672714	0	12.31	4004	0	0	5	5	0.3454009	0.1377358	1	15	0.04	1900	-5.480194	40.92394	-91.39362
55049	-36	3	6	-0.4990933	0.04285428	-0.1671492	0	12.31	4002	0	0	5	5	0.3454009	0.1370758	1	15	0.04	1900	-5.457184	40.92394	-91.39362
55197	-26	0	2	-0.4866925	0.03829313	-0.1697168	0	12.36	4004	0	0	5	5	0.3454009	0.1309242	1	15	0.04	1900	-5.504059	40.92394	-91.39362
55259	-29	1	-3	-0.4889809	0.03296328	-0.1710005	0	12.36	4002	0	0	5	5	0.3454009	0.1272115	1	15	0.04	1900	-5.507813	40.92394	-91.39362
55371	-27	1	1	-0.4856346	0.02907285	-0.1729569	0	12.36	4004	0	0	5	5	0.3454009	0.1197499	1	15	0.04	1900	-5.464172	40.92394	-91.39362
55494	-28	7	-1	-0.4753124	0.03358884	-0.1787039	0	12.36	4003	0	0	5	5	0.3454009	0.1196133	1	15	0.04	1900	-5.271149	40.92394	-91.39362
55637	-26	-4	1	-0.4755382	0.03455158	-0.180966	0	12.36	4003	0	0	5	5	0.3454009	0.1148938	1	15	0.04	1900	-5.524506	40.92394	-91.39362
55715	-29	-6	0	-0.4715022	0.03660423	-0.1820665	0	12.36	4004	0	0	5	5	0.3454009	0.1253552	1	15	0.04	1900	-5.523102	40.92394	-91.39362
55759	-28	12	-3	-0.4621783	0.03622847	-0.1816996	0	12.36	4004	0	0	5	5	0.3454009	0.1286015	1	15	0.04	1900	-5.737946	40.92394	-91.39362
55868	-25	2	-1	-0.4615897	0.03354692	-0.1818219	0	12.36	4003	0	0	5	5	0.3454009	0.1440179	1	15	0.04	1900	-5.753204	40.92394	-91.39362
55916	-27	3	0	-0.4621678	0.03720054	-0.1823109	0	12.36	4002	0	0	5	5	0.3454009	0.1542488	1	15	0.04	1900	-5.753204	40.92394	-91.39362
56018	-37	0	6	-0.4611644	0.03763971	-0.1854898	0	12.31	4002	0	0	5	5	0.3454009	0.155072	1	15	0.04	1900	-5.548218	40.92394	-91.39362
56185	-29	-4	0	-0.4549607	0.03654787	-0.1871404	0	12.31	4003	0	0	5	5	0.3454009	0.152627	1	15	0.04	1900	-5.522308	40.92394	-91.39362
56242	-19	7	3	-0.4537263	0.03771494	-0.1900136	0	12.31	4003	0	0	5	5	0.3454009	0.1538655	1	15	0.04	1900	-5.774414	40.92394	-91.39362
56309	-24	1	0	-0.4508529	0.03727847	-0.1906251	0	12.31	4003	0	0	5	5	0.3454009	0.159095	1	15	0.04	1900	-5.317444	40.92394	-91.39362
56409	-31	4	1	-0.4501215	0.03699889	-0.1928258	0	12.31	4003	0	0	5	5	0.3454009	0.1723853	1	15	0.04	1900	-5.537476	40.92394	-91.39362
56550	-19	4	-1	-0.4418132	0.03482758	-0.1966162	0	12.31	4004	0	0	5	5	0.3454009	0.1877501	1	15	0.04	1900	-5.565674	40.92394	-91.39362
56612	-25	3	2	-0.4405257	0.03141929	-0.1993062	0	12.31	4002	0	0	5	5	0.3454009	0.1906436	1	15	0.04	1900	-5.555756	40.92394	-91.39362
56718	-24	3	0	-0.4349402	0.03114904	-0.2000401	0	12.31	4004	0	0	5	5	0.3454009	0.1990065	1	15	0.04	1900	-5.804901	40.92394	-91.39362
56816	-25	3	2	-0.4333843	0.03370016	-0.2038917	0	12.31	4002	0	0	5	5	0.3454009	0.1999896	1	15	0.04	1900	-5.344055	40.92394	-91.39362
56931	-26	-1	1	-0.4294118	0.03638295	-0.2053589	0	12.36	4004	0	0	5	5	0.3454009	0.2011749	1	15	0.04	1900	-5.787079	40.92394	-91.39362
57018	-21	0	2	-0.4251692	0.03510141	-0.2070093	0	12.36	4004	0	0	5	5	0.3454009	0.1984883	1	15	0.04	1900	-5.594177	40.92394	-91.39362
57121	-28	2	-1	-0.4311173	0.03755305	-0.2132456	0	12.36	4002	0	0	5	5	0.3454009	0.1974694	1	15	0.04	1900	-5.576813	40.92394	-91.39362
57310	-27	0	4	-0.4255579	0.03246141	-0.2172195	0	12.36	4004	0	0	5	5	0.3454009	0.2001205	1	15	0.04	1900	-5.576874	40.92394	-91.39362
57326	-20	0	-2	-0.4198498	0.03264605	-0.217464	0	12.36	4003	0	0	5	5	0.3454009	0.2001205	1	15	0.04	1900	-5.576874	40.92394	-91.39362
57439	-18	1	0	-0.416695	0.03364636	-0.2205212	0	12.36	4003	0	0	5	5	0.3454009	0.2048936	1	15	0.04	1900	-5.610779	40.92394	-91.39362
57583	-34	2	3	-0.4221167	0.03414278	-0.2232729	0	12.36	4002	0	0	5	5	0.3454009	0.1997757	1	15	0.04	1900	-5.807434	40.92394	-91.39362
57623	-20	9	4	-0.4216321	0.03801771	-0.2259016	0	12.36	4004	0	0	5	5	0.3454009	0.1985369	1	15	0.04	1900	-5.585052	40.92394	-91.39362
57724	-26	0	0	-0.4230998	0.03989981	-0.2268187	0	12.36	4004	0	0	5	5	0.3454009	0.2003912	1	15	0.04	1900	-5.585052	40.92394	-91.39362
57864	-20	0	-2	-0.4238367	0.03290999	-0.2302199	0	12.31	4002	0	0	5	5	0.3454009	0.2001811	1	15	0.04	1900	-5.781158	40.92394	-91.39362
57971	-18	0	2	-0.4238515	0.03148088	-0.2302811	0	12.31	4003	0	0	5	5	0.3454009	0.1977223	1	15	0.04	1900	-5.781158	40.92394	-91.39362
58018	-25	0	0	-0.4308077	0.02959742	-0.2326383	0	12.31	4002	0	0	5	5	0.3454009	0.1914993	1	15	0.04	1900	-5.581757	40.92394	-91.39362
58175	-20	0	5	-0.427334	0.03455769	-0.2378347	0	12.31	4002	0	0	5	5	0.3454009	0.1844063	1	15	0.04	1900	-5.574402	40.92394	-91.39362
58273	-24	0	1	-0.4097832	0.03426528	-0.2413193	0	12.31	4004	0	0	5	5	0.3454009	0.1764672	1	15	0.04	1900	-5.597351	40.92394	-91.39362
58318	-30	4	0	-0.4112503	0.03735445	-0.2419307	0	12.31	4003	0	0	5	5	0.3454009	0.1706253	1	15	0.04	1900	-5.597351	40.92394	-91.39362
58419	-18	0	-2	-0.4080691	0.03383528	-0.2430926	0	12.31	4002	0	0	5	5	0.3454009	0.1681192	1	15	0.04	1900	-5.603973	40.92394	-91.39362
58638	-24	3	6	-0.3929522	0.02629757	-0.248656	0	12.31	4002	0	0	5	5	0.3454009	0.159986	1	15	0.04	1900	-5.623871	40.92394	-91.39362
58726	-23	0	1	-0.3908147	0.02597081	-0.2515908	0	12.36	4003	0	0	5	5	0.3454009	0.1516135	1	15	0.04	1900	-5.4263	40.92394	-91.39362
58780	-30	0	1	-0.3929499	0.02474524	-0.251652	0	12.36	4003	0	0	5	5	0.3454009	0.152284	1	15	0.04	1900	-5.4263	40.92394	-91.39362
58976	-23	2	-1	-0.3828209	0.02877633	-0.2549533	0	12.36	4010	0	0	5	5	0.3454009	0.1447281	1	15	0.04	1900	-5.646851	40.92394	-91.39362
58991	-22	6	0	-0.3850111	0.02694108	-0.2551979	0	12.36	4002	0	0	5	5	0.3454009	0.1447281	1	15	0.04	1900	-5.644684	40.92394	-91.39362
59186	-28	-1	-2	-0.382069	0.02672043	-0.2569711	0	12.36	4003	0	0	5	5	0.3454009	0.1460103	1	15	0.04	1900	-5.887848	40.92394	-91.39362
59236	-19	10	0	-0.3777063	0.02773884	-0.2581937	0	12.36	4004	0	0	5	5	0.3454009	0.147156	1	15	0.04	1900	-5.678406	40.92394	-91.39362
59322	-14	5	3	-0.3765702	0.02273278	-0.2587439	0	12.36	4003	0	0	5	5	0.3454009	0.1483509	1	15	0.04	1900	-5.902679	40.92394	-91.39362
59479	-13	2	3	-0.3731464	0.02249185	-0.2646744	0	12.36	4003	0	0	5	5	0.3454009	0.1619637	1	15	0.04	1900	-5.656555	40.92394	-91.39362
59651	-16	-1	0	-0.3666047	0.01997769	-0.2646745	0	12.36	4003	0	0	5	5	0.3454009	0.1749438	1	15	0.04	1900	-5.468658	40.92394	-91.39362
59707	-21	-6	2	-0.3653996	0.01761378	-0.265286	0	12.36	4003	0	0	5	5	0.3454009	0.1784194	1	15	0.04	1900	-5.916565	40.92394	-91.39362
59777	-24	-1	-2	-0.3610541	0.01572721	-0.2679758	0	12.36	4004	0	0	5	5	0.3454009	0.1811897	1	15	0.04	1900	-5.683929	40.92394	-91.39362
59878	-26	0	-1	-0.3617831	0.01523063	-0.2699939	0	12.36	4004	0	0	5	5	0.3454009	0.1762228	1	15	0.04	1900	-5.702515	40.92394	-91.39362
60011	-22	1	-1	-0.3662309	0.01380467	-0.2722559	0	12.36	4004	0	0	5	5	0.3454009	0.1671106	1	15	0.04	1900	-5.671326	40.92394	-91.39362
60089	-18	4	-1	-0.3640397	0.0128196	-0.273234	0	12.36	4002	0	0	5	5	0.3454009	0.167662	1	15	0.04	1900	-5.453522	40.92394	-91.39362
60221	-16	1	-4	-0.3603542	0.01707317	-0.2736007	0	12.36	4002	0	0	5	5	0.3454009	0.1673406	1	15	0.04	1900	-5.702759	40.92394	-91.39362
60308	-21	5	-4	-0.3617078	0.01872471	-0.2742117	0	12.36	4002	0	0	5	5	0.3454009	0.1662887	1	15	0.04	1900	-5.705841	40.92394	-91.39362
60386	-13	-3	0	-0.3563174	0.02219597	-0.2749454	0	12.36	4002	0	0	5	5	0.3454009	0.1743459	1	15	0.04	1900	-5.483215	40.92394	-91.39362
60472	-21	-3	5	-0.3520797	0.0237259	-0.2750677	0	12.36	4004	0	0	5	5	0.3454009	0.1823033	1	15	0.04	1900	-5.714203	40.92394	-91.39363
60601	-17	0	1	-0.3505752	0.02056786	-0.2768405	0	12.36	4002	0	0	5	5	0.3454009	0.1980276	1	15	0.04	1900	-5.719635	40.92394	-91.39363
60713	-12	1	-1	-0.3415539	0.02358952	-0.2764125	0	12.36	4002	0	0	5	5	0.3454009	0.2049193	1	15	0.04	1900	-5.482971	40.92394	-91.39363
60769	-20	0	5	-0.3418562	0.02287373	-0.2767792	0	12.36	4002	0	0	5	5	0.3454009	0.2097984	1	15	0.04	1900	-5.7117	40.92394	-91.39363
60912	-15	-3	0	-0.3339759	0.0229488	-0.2773297	0	12.36	4003	0	0	5	5	0.3454009	0.2319195	1	15	0.04	1900	-5.740814	40.92394	-91.39363
60987	-16	-6	2	-0.3289207	0.02346373	-0.2789191	0	12.36	4004	0	0	5	5	0.3454009	0.2371563	1	15	0.04	1900	-5.948212	40.92394	-91.39363
61063	-19	1	0	-0.3280188	0.02750687	-0.2784911	0	12.36	4003	0	0	5	5	0.3454009	0.2402544	1	15	0.04	1900	-5.776184	40.92394	-91.39363
61187	-25	-1	2	-0.3243324	0.02394114	-0.2784912	0	12.36	4003	0	0	5	5	0.3454009	0.2559901	1	15	0.04	1900	-5.515991	40.92394	-91.39363
61252	-9	1	3	-0.3266085	0.02195324	-0.2794694	0	12.36	4003	0	0	5	5	0.3454009	0.2563807	1	15	0.04	1900	-5.515991	40.92394	-91.39363
61355	-12	1	-1	-0.3227147	0.03094529	-0.2808142	0	12.36	4003	0	0	5	5	0.3454009	0.2523647	1	15	0.04	1900	-5.75705	40.92394	-91.39363
61454	-20	2	0	-0.3294494	0.03719933	-0.2795306	0	12.36	4002	0	0	5	5	0.3454009	0.2452811	1	15	0.04	1900	-5.755646	40.92394	-91.39363
61558	-13	4	9	-0.3205344	0.0270117	-0.2804475	0	12.36	4003	0	0	5	5	0.3454009	0.2506959	1	15	0.04	1900	-5.740112	40.92393	-91.39363
61677	-22	-1	-1	-0.3236124	0.03505608	-0.281731	0	12.36	4003	0	0	5	5	0.3454009	0.2625411	1	15	0.04	1900	-5.739502	40.92393	-91.39363
61770	-10	0	0	-0.3151656	0.03089146	-0.2821589	0	12.36	4003	0	0	5	5	0.3454009	0.2705205	1	15	0.04	1900	-5.747925	40.92393	-91.39363
