time(ms)	gyro_x(deg/s)	gyro_y(deg/s)	gyro_z(deg/s)	orientation_roll(deg)	orientation_pitch(deg)	orientation_yaw(deg)	throttle	battery(V)	loop_time(uS)	pid_output_roll	pid_output_pitch	pid_output_yaw	pid_output_throttle	ultrasonic_alt	baro_alt	flight_mode	p_gain_altitude	i_gain_altitude	d_gain_altitude	compass_heading	latitude	longitude
46	6	4	-2	0.06650715	-0.02354052	-0.5750037	0	12.53	4003	0	0	5	5	0.02	-0.05869491	1	15	0.04	1900	-5.940674	40.92394	-91.39363
148	3	0	-3	0.06571008	-0.02482593	-0.5730475	0	12.53	4003	0	0	5	5	0.02	-0.05356397	1	15	0.04	1900	-5.746796	40.92394	-91.39363
208	2	-6	-5	0.06769558	-0.02223462	-0.5712135	0	12.53	4002	0	0	5	5	0.02	-0.05420847	1	15	0.04	1900	-5.940857	40.92394	-91.39363
323	-1	-1	-1	0.06783126	-0.0210045	-0.5694405	0	12.53	4003	0	0	5	5	0.02	-0.0558027	1	15	0.04	1900	-5.752075	40.92394	-91.39363
414	5	2	0	0.06781714	-0.01813472	-0.5685236	0	12.53	4004	0	0	5	5	0.02	-0.04579813	1	15	0.04	1900	-5.960388	40.92394	-91.39363
519	5	-1	-1	0.06767398	-0.0201862	-0.5674841	0	12.53	4003	0	0	5	5	0.02	-0.03570903	1	15	0.04	1900	-5.748749	40.92394	-91.39363
670	11	-3	0	0.06999926	-0.01450955	-0.5647329	0	12.53	4004	0	0	5	5	0.02	-0.02560282	1	15	0.04	1900	-5.988342	40.92394	-91.39363
796	0	0	1	0.07077663	-0.01997734	-0.5613093	0	12.53	4004	0	0	5	5	0.02	-0.01956043	1	15	0.04	1900	-5.991119	40.92394	-91.39363
893	9	0	3	0.06631713	-0.02348963	-0.5596586	0	12.53	4004	0	0	5	5	0.02	-0.01648632	1	15	0.04	1900	-5.944183	40.92394	-91.39363
938	6	7	-5	0.06582596	-0.02156901	-0.5593531	0	12.53	4002	0	0	5	5	0.02	-0.01491512	1	15	0.04	1900	-5.944183	40.92394	-91.39363
1057	8	-2	-6	0.06825624	-0.02146749	-0.5555016	0	12.53	4003	0	0	5	5	0.02	-0.01065927	1	15	0.04	1900	-5.76828	40.92394	-91.39363
1128	7	0	0	0.0729879	-0.02205062	-0.5562962	0	12.53	4004	0	0	5	5	0.02	-0.006865011	1	15	0.04	1900	-5.753479	40.92394	-91.39363
1232	3	5	0	0.07194346	-0.02741088	-0.5558683	0	12.53	4004	0	0	5	5	0.02	-0.006456086	1	15	0.04	1900	-5.973633	40.92394	-91.39363
1342	2	0	0	0.07459318	-0.01859691	-0.5554403	0	12.53	4003	0	0	5	5	0.02	-0.02295729	1	15	0.04	1900	-5.749725	40.92394	-91.39363
1438	1	0	-2	0.07245231	-0.02198362	-0.5541565	0	12.53	4004	0	0	5	5	0.02	-0.03411272	1	15	0.04	1900	-5.956451	40.92394	-91.39363
1547	0	-4	0	0.0667439	-0.0175631	-0.5538507	0	12.53	4003	0	0	5	5	0.02	-0.04535831	1	15	0.04	1900	-5.75296	40.92394	-91.39363
1681	11	8	1	0.07658242	-0.02250829	-0.5521999	0	12.53	4004	0	0	5	5	0.02	-0.05482062	1	15	0.04	1900	-5.774414	40.92394	-91.39363
1744	7	2	2	0.07736438	-0.02597916	-0.5523834	0	12.53	4004	0	0	5	5	0.02	-0.06347492	1	15	0.04	1900	-5.979492	40.92394	-91.39363
1855	8	5	1	0.07111852	-0.02529096	-0.5495099	0	12.53	4003	0	0	5	5	0.02	-0.07941415	1	15	0.04	1900	-5.714569	40.92394	-91.39363
1955	4	6	2	0.07094377	-0.03129833	-0.5488986	0	12.53	4003	0	0	5	5	0.02	-0.09146143	1	15	0.04	1900	-5.779358	40.92394	-91.39363
2048	7	3	0	0.07104716	-0.03168458	-0.5485927	0	12.53	4003	0	0	5	5	0.02	-0.1002831	1	15	0.04	1900	-5.735016	40.92394	-91.39363
2162	10	1	4	0.07059197	-0.0272432	-0.546881	0	12.53	4003	0	0	5	5	0.02	-0.1150374	1	15	0.04	1900	-5.736206	40.92394	-91.39363
2331	3	3	0	0.06330379	-0.01871589	-0.5439462	0	12.53	4002	0	0	5	5	0.02	-0.1307479	1	15	0.04	1900	-5.958679	40.92394	-91.39363
2438	2	-3	1	0.06449653	-0.02175398	-0.5420512	0	12.53	4002	0	0	5	5	0.02	-0.1430942	1	15	0.04	1900	-5.940979	40.92394	-91.39363
2453	2	-3	1	0.06449653	-0.02175398	-0.5420512	0	12.53	4002	0	0	5	5	0.02	-0.144501	1	15	0.04	1900	-5.940979	40.92394	-91.39363
2588	8	0	-4	0.06998096	-0.02380365	-0.5393	0	12.53	4003	0	0	5	5	0.02	-0.143997	1	15	0.04	1900	-5.988434	40.92394	-91.39363
2726	1	-2	0	0.07185645	-0.02181306	-0.5387498	0	12.53	4002	0	0	5	5	0.02	-0.1345224	1	15	0.04	1900	-5.992676	40.92394	-91.39363
2863	7	1	-2	0.0581409	-0.02066037	-0.5359377	0	12.53	4004	0	0	5	5	0.02	-0.1265371	1	15	0.04	1900	-5.957306	40.92394	-91.39363
2915	5	-4	-2	0.06170572	-0.02005638	-0.5347762	0	12.53	4003	0	0	5	5	0.02	-0.1172435	1	15	0.04	1900	-5.957306	40.92394	-91.39363
3019	7	-1	-1	0.06058475	-0.02125954	-0.532881	0	12.53	4004	0	0	5	5	0.02	-0.1056679	1	15	0.04	1900	-5.978149	40.92394	-91.39363
3106	3	0	-2	0.06611419	-0.02011688	-0.5301913	0	12.53	4003	0	0	5	5	0.02	-0.09173974	1	15	0.04	1900	-5.95993	40.92394	-91.39363
3239	6	0	-5	0.06143852	-0.01780576	-0.5289687	0	12.53	4003	0	0	5	5	0.02	-0.08664285	1	15	0.04	1900	-5.740204	40.92394	-91.39363
3322	3	6	0	0.06268686	-0.02141722	-0.5275626	0	12.53	4003	0	0	5	5	0.02	-0.08469094	1	15	0.04	1900	-5.734497	40.92394	-91.39363
3448	4	5	-1	0.06053535	-0.02489859	-0.5267066	0	12.53	4003	0	0	5	5	0.02	-0.08418465	1	15	0.04	1900	-5.958923	40.92394	-91.39363
3492	-1	0	1	0.05925819	-0.02241969	-0.5241389	0	12.53	4003	0	0	5	5	0.02	-0.08325749	1	15	0.04	1900	-5.956451	40.92394	-91.39363
3602	3	0	-4	0.06479169	-0.02531301	-0.5208377	0	12.53	4002	0	0	5	5	0.02	-0.07566256	1	15	0.04	1900	-5.7435	40.92394	-91.39363
3633	3	0	-4	0.06479169	-0.02531301	-0.5208377	0	12.53	4002	0	0	5	5	0.02	-0.07204083	1	15	0.04	1900	-5.7435	40.92394	-91.39363
3737	7	-3	0	0.06445971	-0.02513909	-0.5202262	0	12.53	4003	0	0	5	5	0.02	-0.06190823	1	15	0.04	1900	-5.786407	40.92394	-91.39363
3841	8	0	-2	0.064387	-0.02217725	-0.5202262	0	12.53	4003	0	0	5	5	0.02	-0.05572447	1	15	0.04	1900	-5.940338	40.92394	-91.39363
3945	4	0	1	0.0737103	-0.02021112	-0.51827	0	12.53	4003	0	0	5	5	0.02	-0.05632327	1	15	0.04	1900	-5.962982	40.92394	-91.39363
4048	2	2	0	0.07305326	-0.02242219	-0.5175974	0	12.53	4003	0	0	5	5	0.02	-0.05575445	1	15	0.04	1900	-5.975189	40.92394	-91.39363
4150	11	3	0	0.0703081	-0.02316999	-0.5157021	0	12.53	4004	0	0	5	5	0.02	-0.05245462	1	15	0.04	1900	-5.968475	40.92394	-91.39363
4253	10	2	-4	0.06909339	-0.03101727	-0.5147233	0	12.53	4009	0	0	5	5	0.02	-0.05028901	1	15	0.04	1900	-5.968719	40.92394	-91.39363
4355	2	2	0	0.0722791	-0.03005334	-0.5119722	0	12.53	4003	0	0	5	5	0.02	-0.04624292	1	15	0.04	1900	-5.994934	40.92394	-91.39363
4459	2	1	-2	0.06802969	-0.02821821	-0.5119721	0	12.53	4002	0	0	5	5	0.02	-0.04572596	1	15	0.04	1900	-5.967041	40.92394	-91.39363
4650	9	4	2	0.06714362	-0.02493133	-0.5074478	0	12.53	4004	0	0	5	5	0.02	-0.04948777	1	15	0.04	1900	-5.510651	40.92394	-91.39363
4771	1	0	-3	0.07350931	-0.02740212	-0.5054915	0	12.53	4004	0	0	5	5	0.02	-0.05096093	1	15	0.04	1900	-5.973572	40.92394	-91.39363
4935	4	0	-2	0.07385008	-0.02563411	-0.5032296	0	12.53	4002	0	0	5	5	0.02	-0.05712731	1	15	0.04	1900	-6.000458	40.92394	-91.39363
5117	3	5	-1	0.07150846	-0.02758594	-0.500784	0	12.53	4003	0	0	5	5	0.02	-0.05976031	1	15	0.04	1900	-5.757294	40.92394	-91.39363
5217	6	-1	-3	0.07301398	-0.02965834	-0.4971155	0	12.53	4004	0	0	5	5	0.02	-0.05744175	1	15	0.04	1900	-5.764893	40.92394	-91.39363
5323	4	-5	2	0.07046173	-0.03199521	-0.4983994	0	12.53	4004	0	0	5	5	0.02	-0.04848467	1	15	0.04	1900	-5.734741	40.92394	-91.39363
5350	5	-1	-3	0.07183207	-0.03044091	-0.4972989	0	12.53	4003	0	0	5	5	0.02	-0.04707973	1	15	0.04	1900	-5.734741	40.92394	-91.39363
5549	7	5	-1	0.062589	-0.02512205	-0.4954648	0	12.53	4003	0	0	5	5	0.02	-0.0522672	1	15	0.04	1900	-5.746246	40.92394	-91.39363
5596	1	0	1	0.06049991	-0.02868883	-0.495098	0	12.53	4002	0	0	5	5	0.02	-0.05404351	1	15	0.04	1900	-5.958344	40.92394	-91.39363
5704	5	0	0	0.06296592	-0.03245533	-0.4944865	0	12.53	4004	0	0	5	5	0.02	-0.0577823	1	15	0.04	1900	-5.959564	40.92394	-91.39363
5788	2	-2	-3	0.05704745	-0.03006179	-0.4944255	0	12.53	4002	0	0	5	5	0.02	-0.05980365	1	15	0.04	1900	-5.929382	40.92394	-91.39363
5867	4	-3	0	0.05802352	-0.02909368	-0.4936307	0	12.53	4003	0	0	5	5	0.02	-0.06436399	1	15	0.04	1900	-5.952881	40.92394	-91.39363
6016	8	1	0	0.06303149	-0.01915565	-0.4940586	0	12.53	4003	0	0	5	5	0.02	-0.07150757	1	15	0.04	1900	-5.955261	40.92394	-91.39363
6076	8	7	0	0.06104798	-0.02098844	-0.4928971	0	12.53	4004	0	0	5	5	0.02	-0.07159251	1	15	0.04	1900	-5.740845	40.92394	-91.39363
6165	1	0	-2	0.05166192	-0.01235198	-0.4929581	0	12.53	4002	0	0	5	5	0.02	-0.07022993	1	15	0.04	1900	-5.947449	40.92394	-91.39363
6258	7	-2	1	0.05142221	-0.01108706	-0.4911854	0	12.53	4004	0	0	5	5	0.02	-0.07252377	1	15	0.04	1900	-5.919159	40.92394	-91.39363
6392	3	0	1	0.05651405	-0.009545964	-0.4921028	0	12.53	4004	0	0	5	5	0.02	-0.07834059	1	15	0.04	1900	-5.708191	40.92394	-91.39363
6461	4	3	-1	0.05759566	-0.01043717	-0.4905745	0	12.53	4004	0	0	5	5	0.02	-0.08012851	1	15	0.04	1900	-5.733337	40.92394	-91.39363
6563	8	-4	-2	0.06045663	-0.006058421	-0.4907578	0	12.53	4002	0	0	5	5	0.02	-0.08066963	1	15	0.04	1900	-5.923218	40.92394	-91.39363
6680	6	0	0	0.06537142	-0.006189287	-0.4905744	0	12.48	4004	0	0	5	5	0.02	-0.07275206	1	15	0.04	1900	-5.719269	40.92394	-91.39363
6791	14	4	-1	0.06591676	-0.006027316	-0.4880679	0	12.48	4002	0	0	5	5	0.02	-0.05749879	1	15	0.04	1900	-5.958069	40.92394	-91.39363
6860	3	-5	2	0.06067146	-0.008089224	-0.4879454	0	12.48	4004	0	0	5	5	0.02	-0.05070027	1	15	0.04	1900	-5.934998	40.92394	-91.39363
6966	6	-3	-2	0.06285542	-0.009504738	-0.4869061	0	12.48	4004	0	0	5	5	0.02	-0.03679887	1	15	0.04	1900	-5.522614	40.92394	-91.39363
7093	5	7	3	0.06539384	-0.004022261	-0.4858055	0	12.48	4002	0	0	5	5	0.02	-0.02268797	1	15	0.04	1900	-5.937531	40.92394	-91.39363
7193	7	0	-2	0.05637569	-0.01059385	-0.4821375	0	12.48	4003	0	0	5	5	0.02	-0.02054886	1	15	0.04	1900	-5.734863	40.92394	-91.39363
7275	10	0	-1	0.0577535	-0.01059252	-0.4820153	0	12.48	4003	0	0	5	5	0.02	-0.02381012	1	15	0.04	1900	-5.923737	40.92394	-91.39363
7415	3	5	1	0.05628239	-0.004569539	-0.4798757	0	12.48	4003	0	0	5	5	0.02	-0.02530093	1	15	0.04	1900	-5.948303	40.92394	-91.39363
7502	5	1	0	0.04857337	-0.002408488	-0.478041	0	12.48	4004	0	0	5	5	0.02	-0.03342955	1	15	0.04	1900	-5.938995	40.92394	-91.39363
7580	0	-5	-4	0.0477725	-0.002040079	-0.4773684	0	12.48	4003	0	0	5	5	0.02	-0.04078675	1	15	0.04	1900	-5.934448	40.92394	-91.39363
7704	4	5	-2	0.05149667	-0.004943258	-0.4713157	0	12.48	4003	0	0	5	5	0.02	-0.04096475	1	15	0.04	1900	-5.719269	40.92394	-91.39363
7810	4	0	-5	0.05231775	-0.0006085622	-0.4696649	0	12.48	4002	0	0	5	5	0.02	-0.04046248	1	15	0.04	1900	-5.748108	40.92394	-91.39363
7874	8	-7	-1	0.05024127	0.004316254	-0.4677699	0	12.48	4004	0	0	5	5	0.02	-0.03668128	1	15	0.04	1900	-5.719086	40.92394	-91.39363
7978	1	2	2	0.05172489	-0.0001943472	-0.4674642	0	12.48	4004	0	0	5	5	0.02	-0.02733321	1	15	0.04	1900	-5.93634	40.92394	-91.39363
8081	6	-2	-4	0.05246361	0.001336849	-0.4634293	0	12.48	4004	0	0	5	5	0.02	-0.02247675	1	15	0.04	1900	-5.701202	40.92394	-91.39363
8197	3	1	-9	0.05269549	-0.003692309	-0.4596387	0	12.48	4003	0	0	5	5	0.02	-0.02142233	1	15	0.04	1900	-5.921234	40.92394	-91.39363
8280	2	0	-1	0.05385393	-0.004268178	-0.4586604	0	12.48	4003	0	0	5	5	0.02	-0.02659633	1	15	0.04	1900	-5.942291	40.92394	-91.39363
8382	3	6	0	0.05327192	-0.006945242	-0.4574988	0	12.48	4002	0	0	5	5	0.02	-0.04120472	1	15	0.04	1900	-5.749878	40.92394	-91.39363
8516	7	2	0	0.04583118	-0.004411323	-0.4561537	0	12.53	4003	0	0	5	5	0.02	-0.04979688	1	15	0.04	1900	-5.935577	40.92394	-91.39363
8582	7	2	0	0.04583118	-0.004411323	-0.4561537	0	12.53	4003	0	0	5	5	0.02	-0.052223	1	15	0.04	1900	-5.935577	40.92394	-91.39363
8747	-1	-1	-2	0.0527073	-0.004793449	-0.4520577	0	12.53	4002	0	0	5	5	0.02	-0.05146253	1	15	0.04	1900	-5.940857	40.92394	-91.39363
8822	0	-1	-1	0.0529401	-0.004826858	-0.4494288	0	12.53	4004	0	0	5	5	0.02	-0.04682284	1	15	0.04	1900	-5.944031	40.92394	-91.39363
8878	5	0	0	0.05781924	-0.006458079	-0.4489398	0	12.53	4004	0	0	5	5	0.02	-0.04315062	1	15	0.04	1900	-5.942444	40.92394	-91.39363
9005	8	-2	-4	0.05404752	-0.008204536	-0.4468612	0	12.53	4002	0	0	5	5	0.02	-0.04372618	1	15	0.04	1900	-5.965118	40.92394	-91.39363
9086	6	2	-2	0.05443785	-0.007569804	-0.4449047	0	12.53	4003	0	0	5	5	0.02	-0.03897803	1	15	0.04	1900	-5.745422	40.92394	-91.39363
9177	5	0	0	0.05757369	-0.006261965	-0.4442324	0	12.53	4003	0	0	5	5	0.02	-0.03088328	1	15	0.04	1900	-5.75058	40.92394	-91.39363
9277	4	-4	2	0.05671163	-0.00516259	-0.4432545	0	12.53	4002	0	0	5	5	0.02	-0.0333746	1	15	0.04	1900	-5.926483	40.92394	-91.39363
9380	8	-2	0	0.05637996	-0.008072383	-0.4411148	0	12.53	4003	0	0	5	5	0.02	-0.03473082	1	15	0.04	1900	-5.922028	40.92394	-91.39363
9487	3	-3	-2	0.05636188	-0.00350269	-0.4417872	0	12.53	4003	0	0	5	5	0.02	-0.03617443	1	15	0.04	1900	-5.729828	40.92394	-91.39363
9582	8	1	-1	0.05709933	-0.006937557	-0.4423985	0	12.53	4002	0	0	5	5	0.02	-0.03413446	1	15	0.04	1900	-5.706299	40.92394	-91.39363
9757	9	-1	-1	0.05530625	-0.01034373	-0.443682	0	12.53	4002	0	0	5	5	0.02	-0.02884923	1	15	0.04	1900	-5.948303	40.92394	-91.39363
9823	9	0	-1	0.05706862	-0.008529077	-0.4438655	0	12.53	4002	0	0	5	5	0.02	-0.02412055	1	15	0.04	1900	-5.708588	40.92394	-91.39363
9898	13	4	-6	0.06074058	-0.008568541	-0.4409922	0	12.53	4003	0	0	5	5	0.02	-0.01949741	1	15	0.04	1900	-5.970428	40.92394	-91.39363
10023	-1	0	0	0.05934696	-0.01056443	-0.4376911	0	12.53	4004	0	0	5	5	0.02	-0.006670129	1	15	0.04	1900	-5.952332	40.92394	-91.39363
10132	7	2	-6	0.05990893	-0.01330603	-0.437141	0	12.53	4003	0	0	5	5	0.02	0.00448794	1	15	0.04	1900	-5.930206	40.92394	-91.39363
10159	0	0	-6	0.05822959	-0.01229584	-0.4364073	0	12.53	4004	0	0	5	5	0.02	0.006949555	1	15	0.04	1900	-5.735474	40.92394	-91.39363
10312	8	2	2	0.06664904	-0.01202062	-0.4346955	0	12.53	4003	0	0	5	5	0.02	0.00732793	1	15	0.04	1900	-5.734863	40.92394	-91.39363
10354	8	5	-2	0.06852598	-0.0149892	-0.4339618	0	12.53	4003	0	0	5	5	0.02	0.00891452	1	15	0.04	1900	-5.940125	40.92394	-91.39363
10499	8	-2	-2	0.06991056	-0.0145448	-0.4307217	0	12.53	4002	0	0	5	5	0.02	0.008363503	1	15	0.04	1900	-5.967926	40.92394	-91.39363
10553	4	0	0	0.06574009	-0.0111425	-0.4306604	0	12.53	4004	0	0	5	5	0.02	0.007123559	1	15	0.04	1900	-5.72522	40.92394	-91.39363
10689	6	0	-6	0.07004154	-0.01312099	-0.4287654	0	12.53	4003	0	0	5	5	0.02	0.01286145	1	15	0.04	1900	-5.987091	40.92394	-91.39363
10743	9	-1	-1	0.07109966	-0.01011489	-0.4281539	0	12.53	4003	0	0	5	5	0.02	0.01426124	1	15	0.04	1900	-5.969421	40.92394	-91.39363
10913	8	0	-4	0.0750313	-0.009268823	-0.4223462	0	12.53	4004	0	0	5	5	0.02	0.01309628	1	15	0.04	1900	-5.978058	40.92394	-91.39363
11004	3	1	3	0.07244464	-0.007748897	-0.4229575	0	12.53	4003	0	0	5	5	0.02	0.01313157	1	15	0.04	1900	-5.951202	40.92394	-91.39363
11041	1	2	-1	0.0743779	-0.005519992	-0.423202	0	12.53	4003	0	0	5	5	0.02	0.01293688	1	15	0.04	1900	-5.951202	40.92394	-91.39363
11155	11	1	1	0.07114913	-0.002054686	-0.4233242	0	12.53	4003	0	0	5	5	0.02	0.01004424	1	15	0.04	1900	-5.740295	40.92394	-91.39363
11278	10	2	0	0.07286544	-0.008013503	-0.4217956	0	12.48	4002	0	0	5	5	0.02	0.01087287	1	15	0.04	1900	-5.969147	40.92394	-91.39363
11337	7	6	2	0.07551381	-0.01124648	-0.422407	0	12.48	4004	0	0	5	5	0.02	0.01456169	1	15	0.04	1900	-5.758423	40.92394	-91.39363
11429	9	-2	0	0.07315344	-0.0108992	-0.4211232	0	12.48	4004	0	0	5	5	0.02	0.01590322	1	15	0.04	1900	-5.951233	40.92394	-91.39363
11566	4	-3	0	0.07209811	-0.009745437	-0.4158657	0	12.48	4003	0	0	5	5	0.02	0.007302912	1	15	0.04	1900	-5.952423	40.92394	-91.39363
11699	9	-1	-6	0.07237046	-0.01212636	-0.4140317	0	12.48	4002	0	0	5	5	0.02	0.007291286	1	15	0.04	1900	-5.732239	40.92394	-91.39363
11738	9	1	-2	0.07241575	-0.01225998	-0.4113413	0	12.48	4003	0	0	5	5	0.02	0.01331594	1	15	0.04	1900	-5.753021	40.92394	-91.39363
11849	6	7	0	0.07492205	-0.01359076	-0.4101797	0	12.48	4004	0	0	5	5	0.02	0.02309166	1	15	0.04	1900	-5.952911	40.92394	-91.39363
11985	11	-1	-2	0.08143287	-0.008138407	-0.4082235	0	12.48	4002	0	0	5	5	0.02	0.04184169	1	15	0.04	1900	-5.791962	40.92394	-91.39363
12050	4	0	5	0.08038052	-0.004563858	-0.4084069	0	12.48	4003	0	0	5	5	0.02	0.05600936	1	15	0.04	1900	-5.747772	40.92394	-91.39363
12243	8	-3	-2	0.08831279	-0.007523776	-0.4052888	0	12.53	4003	0	0	5	5	0.02	0.07180125	1	15	0.04	1900	-5.773071	40.92394	-91.39363
12291	4	0	0	0.08519911	-0.01101707	-0.4055334	0	12.53	4002	0	0	5	5	0.02	0.07617508	1	15	0.04	1900	-5.773071	40.92394	-91.39363
12464	12	0	-4	0.08876994	-0.01054262	-0.4022319	0	12.53	4002	0	0	5	5	0.02	0.09251074	1	15	0.04	1900	-5.990479	40.92394	-91.39363
12584	8	2	-6	0.08885427	-0.009281035	-0.3955069	0	12.53	4002	0	0	5	5	0.02	0.08386867	1	15	0.04	1900	-5.972137	40.92394	-91.39363
12658	-1	-7	0	0.08747043	-0.0161846	-0.3947122	0	12.53	4003	0	0	5	5	0.02	0.08003549	1	15	0.04	1900	-6.017426	40.92394	-91.39363
12763	12	-4	-1	0.08878018	-0.02163941	-0.3915944	0	12.53	4003	0	0	5	5	0.02	0.07357459	1	15	0.04	1900	-5.977173	40.92394	-91.39363
12912	9	3	2	0.09403685	-0.01358257	-0.3878647	0	12.53	4004	0	0	5	5	0.02	0.06982213	1	15	0.04	1900	-6.000488	40.92394	-91.39363
13015	2	-5	0	0.08773783	-0.007070509	-0.3885983	0	12.53	4003	0	0	5	5	0.02	0.07609987	1	15	0.04	1900	-5.995544	40.92394	-91.39363
13056	10	5	-2	0.08573996	-0.008020964	-0.3877424	0	12.59	4003	0	0	5	5	0.02	0.07826386	1	15	0.04	1900	-5.992188	40.92394	-91.39363
13160	11	-2	2	0.08831289	-0.01128368	-0.3860922	0	12.59	4003	0	0	5	5	0.02	0.08005396	1	15	0.04	1900	-5.778625	40.92394	-91.39363
13352	5	-3	-4	0.07660288	-0.01301841	-0.3804065	0	12.59	4002	0	0	5	5	0.02	0.1024961	1	15	0.04	1900	-5.987	40.92394	-91.39363
13388	7	-3	5	0.07772727	-0.01137664	-0.3797951	0	12.59	4004	0	0	5	5	0.02	0.1114163	1	15	0.04	1900	-5.761749	40.92394	-91.39363
13475	3	5	-4	0.07668282	-0.01130754	-0.3794894	0	12.59	4003	0	0	5	5	0.02	0.1147894	1	15	0.04	1900	-5.738861	40.92394	-91.39363
13611	6	0	-2	0.06674368	-0.007225452	-0.3781447	0	12.59	4002	0	0	5	5	0.02	0.107983	3	15	0.04	1900	-5.971893	40.92394	-91.39363
13674	5	-4	-6	0.07120797	-0.008091284	-0.3775333	0	12.59	4004	0	0	5	5	0.02	0.1070008	3	15	0.04	1900	-5.962402	40.92394	-91.39363
13771	9	-3	0	0.07700421	-0.0067113	-0.3759438	0	12.59	4004	0	0	5	5	0.02	0.1068715	3	15	0.04	1900	-5.753937	40.92394	-91.39363
13908	12	-2	0	0.07642661	-0.005353147	-0.376127	0	12.59	4002	0	0	5	5	0.02	0.1079075	3	15	0.04	1900	-5.759308	40.92394	-91.39363
13974	2	3	-2	0.07792316	-0.00945404	-0.3752707	0	12.59	4004	0	0	5	5	0.02	0.1110566	3	15	0.04	1900	-5.759308	40.92394	-91.39363
14068	9	-3	1	0.08266732	-0.008051223	-0.3736811	0	12.59	4003	0	0	5	5	0.02	0.1147409	1	15	0.04	1900	-5.765259	40.92394	-91.39363
14219	6	0	1	0.07988585	-0.004810695	-0.371358	0	12.59	4004	0	0	5	5	0.02	0.1225713	1	15	0.04	1900	-5.790588	40.92394	-91.39363
14281	1	-2	1	0.07774686	-0.00191146	-0.3686682	0	12.59	4003	0	0	5	5	0.02	0.117494	1	15	0.04	1900	-5.957184	40.92394	-91.39363
14423	10	-4	-1	0.08810684	-0.0007562864	-0.3654895	0	12.59	4003	0	0	5	5	0.02	0.1015462	1	15	0.04	1900	-5.774506	40.92394	-91.39363
14465	0	-2	2	0.0869057	-0.002340104	-0.3656729	0	12.59	4003	0	0	5	5	0.02	0.1015108	1	15	0.04	1900	-5.774506	40.92394	-91.39363
14628	13	0	-1	0.08692905	-0.006515478	-0.3651839	0	12.59	4003	0	0	5	5	0.02	0.1186008	1	15	0.04	1900	-6.00943	40.92394	-91.39363
14668	6	1	-1	0.08781713	-0.00777175	-0.3641446	0	12.59	4003	0	0	5	5	0.02	0.1209161	1	15	0.04	1900	-5.992035	40.92394	-91.39363
14767	13	-2	0	0.09567293	-0.01021928	-0.361638	0	12.59	4003	0	0	5	5	0.02	0.1314957	3	15	0.04	1900	-5.777954	40.92394	-91.39363
14868	6	-5	4	0.09154042	-0.01114122	-0.3606601	0	12.59	4004	0	0	5	5	0.02	0.1352547	3	15	0.04	1900	-5.786682	40.92394	-91.39363
14971	7	-6	-5	0.09840788	-0.01469236	-0.3585815	0	12.53	4003	0	0	5	5	0.02	0.1346307	3	15	0.04	1900	-5.997894	40.92394	-91.39363
15115	6	-5	-3	0.09710684	-0.01584777	-0.3533235	0	12.53	4003	0	0	5	5	0.02	0.1310375	3	15	0.04	1900	-5.791931	40.92394	-91.39363
15177	4	3	-4	0.09470133	-0.01840763	-0.3516728	0	12.53	4003	0	0	5	5	0.02	0.1305526	3	15	0.04	1900	-6.004974	40.92394	-91.39363
15255	4	-1	0	0.0951911	-0.01658113	-0.3502667	0	12.53	4002	0	0	5	5	0.02	0.1313256	3	15	0.04	1900	-6.004974	40.92394	-91.39363
15378	5	0	-6	0.101043	-0.02113207	-0.3465985	0	12.53	4004	0	0	5	5	0.02	0.1296636	3	15	0.04	1900	-5.803436	40.92394	-91.39363
15471	14	-4	-3	0.1004829	-0.01711311	-0.3475765	0	12.53	4002	0	0	5	5	0.02	0.1330611	3	15	0.04	1900	-6.035675	40.92394	-91.39363
15609	-19	14	2	0.09762953	-0.004060492	-0.339018	0	12.53	4002	0	0	5	5	0.02	0.154151	3	15	0.04	1900	-6.234467	40.92394	-91.39363
15661	5	15	19	0.09504036	-0.006665024	-0.3393245	0	12.53	4004	0	0	5	5	0.02	0.1594395	3	15	0.04	1900	-6.294739	40.92394	-91.39363
15830	-60	26	-500	0.1205246	-0.02014275	-0.2664405	0	12.25	4003	0	0	5	5	0.02	0.1621769	3	15	0.04	1900	-6.357605	40.92394	-91.39363
15856	-13	-46	244	0.1221929	-0.02832219	-0.2873585	0	12.25	4003	0	0	5	5	0.02	0.162186	3	15	0.04	1900	-6.357605	40.92394	-91.39363
15971	89	-136	-1	0.1160276	-0.02996243	-0.3117735	0	12.25	4004	0	0	5	5	0.02	0.1673997	3	15	0.04	1900	-6.321777	40.92394	-91.39363
16132	112	-75	21	0.1641728	0.0157594	-0.2835267	0	12.25	4003	0	0	5	5	0.02	0.1692947	3	15	0.04	1900	-6.079285	40.92394	-91.39363
16185	88	42	7	0.1514505	0.01752235	-0.2754555	0	12.25	4002	0	0	5	5	0.02	0.1688671	3	15	0.04	1900	-6.193359	40.92394	-91.39363
16261	70	-33	6	0.1732117	0.0070012	-0.2754526	0	12.25	4003	0	0	5	5	0.02	0.1693567	3	15	0.04	1900	-6.292633	40.92394	-91.39363
16408	3	-100	3	0.1604914	0.06543817	-0.277534	0	12.25	4003	0	0	5	5	0.02	0.1584777	3	15	0.04	1900	-6.762024	40.92394	-91.39363
16485	68	139	-51	0.1531617	0.09458201	-0.2785764	0	12.25	4002	0	0	5	5	0.02	0.1567486	3	15	0.04	1900	-6.131561	40.92394	-91.39363
16616	36	108	-211	0.182587	0.0823862	-0.271006	0	12.25	4003	0	0	5	5	0.02	0.1602786	3	15	0.04	1900	-6.305847	40.92394	-91.39363
16668	-159	-39	86	0.11649	0.08458053	-0.2816488	0	12.25	4003	0	0	5	5	0.02	0.1613952	3	15	0.04	1900	-6.328583	40.92394	-91.39363
16803	182	-20	212	0.1453836	0.09627033	-0.2882494	0	12.48	4003	0	0	5	5	0.02	0.1801304	3	15	0.04	1900	-6.482056	40.92394	-91.39363
16905	-106	-115	-113	0.09599239	0.1200612	-0.2763562	0	12.48	4003	0	0	5	5	0.02	0.1919095	3	15	0.04	1900	-5.554596	40.92394	-91.39363
16961	74	-80	354	0.1362588	0.1286334	-0.2953168	0	12.48	4002	0	0	5	5	0.02	0.201408	3	15	0.04	1900	-6.169464	40.92394	-91.39363
17066	159	-42	6	0.0638316	0.1770396	-0.2670699	0	12.48	4002	0	0	5	5	0.02	0.2083324	3	15	0.04	1900	-6.458923	40.92394	-91.39363
17182	51	-90	68	0.08334999	0.2234181	-0.2591178	0	12.48	4004	0	0	5	5	0.02	0.2200106	3	15	0.04	1900	-5.857788	40.92394	-91.39363
17262	-27	10	7	0.1047756	0.2030857	-0.2755041	0	12.48	4002	0	0	5	5	0.02	0.229249	3	15	0.04	1900	-5.915009	40.92394	-91.39363
17380	256	-31	210	0.1155956	0.1773243	-0.2720816	0	12.48	4004	0	0	5	5	0.02	0.2346985	3	15	0.04	1900	-6.121979	40.92394	-91.39363
17438	151	-90	122	0.131205	0.2322261	-0.2863934	0	12.48	4003	0	0	5	5	0.02	0.2389256	3	15	0.04	1900	-5.940521	40.92394	-91.39363
17541	-30	-38	-66	0.1148752	0.2520432	-0.2748308	0	12.48	4003	0	0	5	5	0.02	0.2414075	3	15	0.04	1900	-5.800659	40.92394	-91.39363
17647	1	3	-167	0.0578812	0.2304198	-0.2623001	0	11.91	4004	0	0	5	5	0.02	0.2419822	3	15	0.04	1900	-5.816193	40.92394	-91.39363
17822	-54	73	141	0.03886546	0.2401564	-0.2494312	0	11.91	4002	0	0	5	5	0.02	0.2453527	3	15	0.04	1900	-5.459503	40.92394	-91.39363
17875	-73	-44	-95	-0.06274544	0.2148942	-0.2369648	0	11.91	4004	0	0	5	5	0.02	0.2532057	3	15	0.04	1900	-6.2742	40.92394	-91.39363
18006	83	-98	61	0.02215464	0.1610871	-0.25113	0	11.91	4003	0	0	5	5	0.02	0.2792864	3	15	0.04	1900	-5.742859	40.92395	-91.39363
18172	-28	-40	125	0.005252645	0.1736452	-0.3042912	0	11.91	4003	0	0	5	5	0.02	0.2936189	3	15	0.04	1900	-5.39267	40.92395	-91.39363
18252	185	-49	62	0.000297038	0.1991109	-0.301913	0	11.91	4006	0	0	5	5	0.02	0.2968201	3	15	0.04	1900	-5.977539	40.92395	-91.39363
18396	-296	-57	-67	0.0146386	0.2127946	-0.2878002	0	11.91	4003	0	0	5	5	0.02	0.2864667	3	15	0.04	1900	-5.503906	40.92395	-91.39363
18470	-118	-35	-204	0.001980705	0.2100821	-0.2818075	0	11.91	4004	0	0	5	5	0.02	0.280762	3	15	0.04	1900	-6.131042	40.92395	-91.39363
18568	-164	49	-407	-0.02712168	0.2143257	-0.2940786	0	12.48	4004	0	0	5	5	0.02	0.2746439	3	15	0.04	1900	-5.764343	40.92395	-91.39363
18698	-139	44	-462	-0.07845404	0.2623164	-0.3074273	0	12.48	4003	0	0	5	5	0.02	0.2706496	3	15	0.04	1900	-5.928345	40.92395	-91.39363
18743	-57	83	-357	-0.08986633	0.2764254	-0.2960005	0	12.48	4004	0	0	5	5	0.02	0.2709062	3	15	0.04	1900	-5.997925	40.92395	-91.39363
18855	116	-148	350	-0.06859893	0.2566067	-0.3402633	0	12.48	4003	0	0	5	5	0.02	0.2756562	3	15	0.04	1900	-5.775787	40.92395	-91.39363
18966	-20	92	-539	-0.05941876	0.331231	-0.3203582	0	12.48	4002	0	0	5	5	0.02	0.2814948	3	15	0.04	1900	-5.468475	40.92395	-91.39363
19111	47	61	256	-0.04560316	0.3715143	-0.3038355	0	12.48	4003	0	0	5	5	0.02	0.28822	3	15	0.04	1900	-5.864807	40.92395	-91.39363
19156	-39	-75	-464	-0.01936173	0.3831463	-0.2948443	0	12.48	4003	0	0	5	5	0.02	0.2954433	3	15	0.04	1900	-5.243378	40.92395	-91.39363
19267	7	24	-96	-0.03493188	0.375038	-0.342962	0	12.48	4003	0	0	5	5	0.02	0.3273801	3	15	0.04	1900	-6.010437	40.92395	-91.39363
19346	-83	65	-520	-0.02619391	0.3131498	-0.3436387	0	12.48	4004	0	0	5	5	0.02	0.3387313	3	15	0.04	1900	-5.659851	40.92395	-91.39363
19438	109	-53	329	0.03726513	0.34447	-0.3639631	0	12.36	4002	0	0	5	5	0.02	0.3545546	3	15	0.04	1900	-6.027222	40.92395	-91.39363
19548	140	-97	-355	-0.09098506	0.2734157	-0.3556691	0	12.36	4002	0	0	5	5	0.02	0.3859627	3	15	0.04	1900	-5.674835	40.92395	-91.39363
19699	43	-144	-181	-0.1322524	0.2344482	-0.3522161	0	12.36	4004	0	0	5	5	0.02	0.3986489	3	15	0.04	1900	-5.845001	40.92395	-91.39363
19847	235	21	128	-0.06669889	0.1694626	-0.3548622	0	12.36	4002	0	0	5	5	0.02890031	0.4100589	6	15	0.04	1900	-5.937622	40.92395	-91.39363
19967	-286	112	451	-0.05662123	0.2067614	-0.4023359	0	12.36	4004	0	0	5	5	0.03338408	0.4198594	6	15	0.04	1900	-5.329315	40.92395	-91.39363
20088	-198	-55	802	-0.007743285	0.2588724	-0.5362243	0	12.36	4002	0	0	5	5	0.03764902	0.4245908	6	15	0.04	1900	-5.746521	40.92395	-91.39363
20150	-261	135	512	-0.01744853	0.2516092	-0.5634821	0	12.36	4002	0	0	5	5	0.03903297	0.4251791	6	15	0.04	1900	-5.746521	40.92395	-91.39363
20251	142	-442	-268	0.1699466	0.599235	-0.7078117	0	12.36	4003	0	0	5	5	0.04139663	0.4338058	6	15	0.04	1900	-4.671265	40.92395	-91.39363
20332	232	-359	-552	0.2804265	0.8411553	-0.6493788	0	12.36	4003	0	0	5	5	0.04090234	0.4369934	6	15	0.04	1900	-5.203766	40.92395	-91.39363
20436	-77	-106	432	0.3385443	0.6093313	-0.8482919	0	11	4002	0	0	5	5	0.03945239	0.4379154	6	15	0.04	1900	-6.582001	40.92395	-91.39363
20581	524	-577	323	0.3865233	1.28948	-0.9587933	0	11	4003	0	0	5	5	0.04262494	0.426707	6	15	0.04	1900	-4.903687	40.92395	-91.39363
20685	98	-1184	-1040	0.1291076	2.413479	-0.1661491	0	11	4003	0	0	5	5	0.04306452	0.4287111	6	15	0.04	1900	-5.450256	40.92395	-91.39363
20736	2385	1171	-1143	0.9546735	1.897467	0.4639763	0	11	4002	0	0	5	5	0.04374538	0.4365058	6	15	0.04	1900	-6.194977	40.92395	-91.39363
20877	-826	2978	2042	2.295756	-4.183239	2.14433	0	11	4002	0	0	5	5	0.0492894	0.4524312	6	15	0.04	1900	-7.718933	40.92395	-91.39363
20935	-137	706	1	2.119534	-5.131052	1.764263	0	11	4002	0	0	5	5	0.05907727	0.4582331	6	15	0.04	1900	-7.718933	40.92395	-91.39363
21071	1178	1442	99	2.810944	-7.069802	-0.7140586	0	11	4004	0	0	5	5	0.113654	0.4623371	6	15	0.04	1900	-4.882172	40.92395	-91.39363
21127	-1714	-1031	-1076	2.772378	-7.788405	-0.4349354	0	11	4004	0	0	5	5	0.1490732	0.4707876	6	15	0.04	1900	-3.852966	40.92395	-91.39363
21221	-1825	737	519	2.611368	-5.963889	0.1487252	0	11	4003	300	300	5	5	0.202278	0.4828785	8	15	0.04	1900	-5.529633	40.92395	-91.39363
21324	-3516	-8476	-1017	-13.91589	-4.513883	-3.066557	0	10.89	4003	300	300	5	5	0.2294714	0.491456	8	15	0.04	1900	-7.984955	40.92395	-91.39363
21436	-1888	-6799	-2234	-14.27571	10.17904	-1.31828	0	10.89	4003	300	300	5	5	0.2693396	0.5224039	8	15	0.04	1900	-8.920502	40.92395	-91.39363
21552	-2352	-3304	-873	-15.8494	17.45023	1.99035	0	10.89	4004	300	300	5	5	0.2954971	0.5851543	8	15	0.04	1900	-20.11261	40.92395	-91.39363
21667	5254	1287	1219	-12.51039	18.44553	2.246969	0	10.89	4002	0	12	5	5	0.3090211	0.6668983	8	15	0.04	1900	-26.80478	40.92395	-91.39363
21761	5928	3195	1445	-1.414404	12.34645	0.7337756	0	10.89	4003	0	12	5	5	0.3215321	0.7878747	8	15	0.04	1900	-31.09009	40.92395	-91.39363
21838	4745	4340	1302	3.118861	5.667202	0.2458227	0	10.89	4004	0	14	5	5	0.3260672	0.8318567	8	15	0.04	1900	-25.71912	40.92395	-91.39363
21924	4926	5267	-32	12.038	-2.772495	1.041828	0	10.89	4002	0	12	5	5	0.3297406	0.9823462	8	15	0.04	1900	-21.98096	40.92395	-91.39363
22034	3035	5100	-403	14.92157	-11.41905	1.564665	0	10.89	4003	0	0	5	5	0.3351262	1.084639	8	15	0.04	1900	-12.25391	40.92395	-91.39363
22138	2679	3678	1144	18.74492	-17.63762	1.310031	0	10.89	4002	0	0	5	5	0.3379107	1.160711	8	15	0.04	1900	-5.480713	40.92395	-91.39363
22245	-3151	-614	237	16.66378	-17.84973	0.1946592	0	11.63	4003	0	0	5	5	0.3404866	1.286599	8	15	0.04	1900	-0.102356	40.92395	-91.39363
22326	25	-1998	-795	9.57301	-12.34699	0.189517	0	11.63	4003	-24	0	5	5	0.3414203	1.351412	8	15	0.04	1900	3.589698	40.92395	-91.39364
22468	-646	3277	883	8.165009	-14.81653	0.8793644	0	11.63	4002	-24	0	5	5	0.3427893	1.524747	8	15	0.04	1900	4.0914	40.92395	-91.39364
22519	-350	1385	-78	7.496419	-15.67095	1.143834	0	11.63	4002	-24	0	5	5	0.3432855	1.571305	8	15	0.04	1900	4.0914	40.92395	-91.39364
22621	-1169	-4037	1028	3.886788	-7.947299	1.225971	0	11.63	4002	-24	0	5	5	0.3436874	1.627453	8	15	0.04	1900	5.2534	40.92395	-91.39364
22737	1775	-40	1281	3.378366	-6.048671	1.14683	0	11.63	4002	-24	0	5	5	0.3441518	1.733872	8	15	0.04	1900	6.973055	40.92395	-91.39364
22839	-193	-568	192	3.050955	-3.963063	1.543516	0	11.63	4004	-24	0	5	5	0.3445814	1.840643	8	15	0.04	1900	8.424718	40.92395	-91.39364
22923	648	-256	-1163	2.276727	-4.002152	1.598894	0	11.63	4004	-24	0	5	5	0.3447371	1.902056	8	15	0.04	1900	9.041251	40.92395	-91.39364
23044	870	-39	603	3.32021	-6.222178	1.577722	0	11.63	4002	-24	0	5	5	0.345009	2.045084	8	15	0.04	1900	9.982868	40.92395	-91.39364
23148	-404	-1285	778	2.95501	-5.773489	0.7971593	0	11.11	4002	-24	0	5	5	0.3451152	2.118362	8	15	0.04	1900	12.95835	40.92395	-91.39364
23330	-1258	-1847	-1151	1.369947	-4.170171	0.7806994	0	11.11	4003	-24	12	5	5	0.3452491	2.276324	8	15	0.04	1900	13.93605	40.92395	-91.39364
23453	256	511	-1445	-0.4762735	-2.429879	0.6428977	0	11.11	4004	-24	12	5	5	0.3452903	2.337167	8	15	0.04	1900	15.14029	40.92395	-91.39364
23513	-433	1660	173	-0.4486506	-3.459955	0.5144048	0	11.11	4004	-24	12	5	5	0.3453203	2.398267	8	15	0.04	1900	17.38828	40.92395	-91.39364
23595	-1611	-2328	-534	-1.943749	-3.525251	0.3167581	0	11.11	4004	-24	12	5	5	0.3453356	2.447632	8	15	0.04	1900	14.42496	40.92395	-91.39364
23703	2166	-179	-1214	-0.362527	-1.364043	1.007065	0	11.11	4002	-24	12	5	5	0.3453533	2.514414	8	15	0.04	1900	14.11976	40.92395	-91.39364
23794	-1310	-1373	1360	1.543871	-2.966012	1.238371	0	11.11	4003	-24	12	5	5	0.3453624	2.569613	8	15	0.04	1900	15.91586	40.92395	-91.39364
23973	-2828	439	-242	-2.735074	-2.92942	-0.02487944	0	11.11	4003	0	12	5	5	0.3453805	2.718543	8	15	0.04	1900	16.36355	40.92395	-91.39363
24038	-1044	2029	-1858	-4.654422	-5.28911	0.2609124	0	11.63	4004	0	12	5	5	0.3453844	2.747322	8	15	0.04	1900	14.85925	40.92395	-91.39363
24100	-2827	-1002	-740	-7.007363	-7.219869	1.218052	0	11.63	4003	0	24	5	5	0.3453861	2.777008	8	15	0.04	1900	11.96109	40.92395	-91.39363
24295	329	-1117	1271	-4.328167	-3.419433	0.6048276	0	11.63	4004	0	12	5	5	0.3453939	2.911618	8	15	0.04	1900	7.62991	40.92395	-91.39363
24426	871	-456	-2665	-2.648123	-4.67582	0.3356603	0	11.63	4003	0	12	5	5	0.3453963	2.977958	8	15	0.04	1900	3.770307	40.92395	-91.39363
24584	264	-778	1104	-2.585323	-1.494607	0.8562308	0	11.63	4004	24	24	5	5	0.3453979	3.030925	8	15	0.04	1900	3.959077	40.92395	-91.39362
24619	-413	-1489	1061	-1.966552	-1.223477	0.7308341	0	11.63	4003	24	24	5	5	0.3453982	3.038375	8	15	0.04	1900	3.885511	40.92395	-91.39362
24709	-698	-751	1650	-2.805628	-0.007892667	0.05880594	0	11.63	4003	24	12	5	5	0.3453992	3.072172	8	15	0.04	1900	3.728165	40.92395	-91.39362
24838	677	2488	752	-0.4036489	-4.199998	-0.0237404	0	11.63	4003	24	12	5	5	0.3453996	3.09119	8	15	0.04	1900	2.652167	40.92395	-91.39362
24896	-1148	1617	-25	-0.6493255	-4.690204	0.07711691	0	11.97	4004	24	12	5	5	0.3453999	3.099183	8	15	0.04	1900	1.488289	40.92395	-91.39362
25044	656	4814	473	-0.7629825	-12.36138	0.6447777	0	11.97	4003	48	12	5	5	0.3454004	3.103732	8	15	0.04	1900	-2.946442	40.92395	-91.39362
25126	-2306	3353	389	-1.491191	-15.86027	0.4265244	0	11.97	4003	48	12	5	5	0.3454005	3.097818	8	15	0.04	1900	-2.926605	40.92395	-91.39362
25241	763	3038	-251	-2.638533	-20.26848	0.5852208	0	11.97	4003	48	12	5	5	0.3454006	3.073264	8	15	0.04	1900	-4.104614	40.92395	-91.39362
25333	-1881	-1043	690	-3.290364	-19.6586	0.2605647	0	11.97	4002	48	12	5	5	0.3454007	3.050508	8	15	0.04	1900	-3.95755	40.92395	-91.39362
25454	555	-433	255	-2.532467	-11.64294	0.1604211	0	11.97	4003	57	0	5	5	0.3454008	2.993934	8	15	0.04	1900	-6.492828	40.92395	-91.39362
25542	-1418	-1616	-1406	-2.389899	-11.07239	0.2192498	0	11.97	4003	48	0	5	5	0.3454009	2.93241	8	15	0.04	1900	-7.789459	40.92395	-91.39362
25598	568	-667	539	-2.795905	-9.172881	0.1416446	0	11.97	4003	48	0	5	5	0.3454009	2.916068	8	15	0.04	1900	-7.337158	40.92395	-91.39362
25770	-1208	-1123	1299	-3.49352	-4.334382	0.08078999	0	11.97	4003	48	0	5	5	0.3454009	2.748746	8	15	0.04	1900	-8.861481	40.92395	-91.39362
25830	-580	-1417	-708	-4.323628	-3.267631	0.1409553	0	11.85	4004	48	0	5	5	0.3454009	2.707109	8	15	0.04	1900	-8.861481	40.92395	-91.39362
25903	921	519	1485	-4.117599	-2.687448	0.2152533	0	11.85	4002	48	0	5	5	0.3454009	2.664862	8	15	0.04	1900	-8.254913	40.92395	-91.39362
26119	-2264	0	-787	-4.101861	0.03522239	1.113995	0	11.85	4003	48	0	5	5	0.3454009	2.419805	8	15	0.04	1900	-11.55447	40.92395	-91.39362
26244	2579	1459	453	-2.376791	-2.028071	1.276268	0	11.85	4004	48	-12	5	5	0.3454009	2.343569	8	15	0.04	1900	-14.04092	40.92394	-91.39362
26309	3101	3259	-880	1.579732	-5.070958	0.6992388	0	11.85	4002	48	-12	5	5	0.3454009	2.309366	8	15	0.04	1900	-12.69379	40.92394	-91.39362
26441	4136	4109	44	7.33479	-11.60364	0.6774892	0	11.85	4003	48	-12	5	5	0.3454009	2.266386	8	15	0.04	1900	-9.656677	40.92394	-91.39362
26513	682	610	-1738	11.26573	-13.7992	1.322965	0	11.85	4002	48	-12	5	5	0.3454009	2.238298	8	15	0.04	1900	-5.384705	40.92394	-91.39362
26694	-3354	-2861	-1492	7.833183	-10.79643	1.326738	0	11.85	4002	48	-12	5	5	0.3454009	2.207656	8	15	0.04	1900	-1.552277	40.92394	-91.39362
26795	-807	-164	-556	4.67158	-6.776054	4.269665	0	11.8	4003	48	-12	5	5	0.3454009	2.207259	8	15	0.04	1900	-3.049713	40.92394	-91.39362
26865	-1963	-438	-1097	2.251778	-6.650309	3.564815	0	11.8	4003	24	-12	5	5	0.3454009	2.206892	8	15	0.04	1900	-2.96286	40.92394	-91.39362
26928	-1145	-2726	339	1.631742	-5.541205	2.949751	0	11.8	4007	24	-12	5	5	0.3454009	2.208156	8	15	0.04	1900	-2.205017	40.92394	-91.39362
27020	-853	-2622	1222	1.376652	-3.376665	2.302596	0	11.8	4003	24	-12	5	5	0.3454009	2.216532	8	15	0.04	1900	-2.923401	40.92394	-91.39362
27163	-1438	-3362	-1016	-0.6094981	4.093301	1.097913	0	11.8	4004	24	-12	5	5	0.3454009	2.238744	8	15	0.04	1900	-3.447174	40.92394	-91.39362
27274	312	717	2473	-0.3087788	3.842079	0.3763572	0	11.8	4003	24	0	5	5	0.3454009	2.273585	8	15	0.04	1900	-0.7981262	40.92395	-91.39362
27383	1654	2183	1167	-0.8112051	0.3939428	0.8236719	0	11.8	4003	24	0	5	5	0.3454009	2.337605	8	15	0.04	1900	-0.7546692	40.92395	-91.39362
27419	-624	-927	-225	-1.296459	-0.09895931	1.414356	0	11.8	4003	24	0	5	5	0.3454009	2.360852	8	15	0.04	1900	-1.38974	40.92395	-91.39362
27572	1584	-690	-1861	-2.257738	-0.7954322	1.583588	0	11.8	4002	24	0	5	5	0.3454009	2.450232	8	15	0.04	1900	-0.7825012	40.92395	-91.39362
27694	-1315	-118	1106	-1.740273	-2.139375	1.179201	0	11.91	4003	0	0	5	5	0.3454009	2.501852	3	15	0.04	1900	-1.064453	40.92395	-91.39362
27714	-1862	-1725	-967	-2.592807	-2.379915	1.263691	0	11.91	4004	0	0	5	5	0.3454009	2.528226	3	15	0.04	1900	-1.064453	40.92395	-91.39362
27804	-348	-3626	579	-4.421506	2.338014	1.191305	0	11.91	4003	0	0	5	5	0.3454009	2.566407	3	15	0.04	1900	-1.322845	40.92395	-91.39362
27946	1041	1267	344	-3.782184	4.296984	0.02698093	0	11.91	4004	0	0	5	5	0.3454009	2.637935	3	15	0.04	1900	-2.597504	40.92395	-91.39362
28011	1114	1815	-213	-2.898195	2.912766	-0.6825855	0	11.91	4004	0	0	5	5	0.3454009	2.689499	3	15	0.04	1900	-0.6491394	40.92395	-91.39362
28117	2	3189	-397	-2.023649	-2.834042	-0.8201757	0	11.91	4006	0	0	5	5	0.3454009	2.71073	3	15	0.04	1900	-0.159729	40.92395	-91.39362
28242	73	1049	-403	-2.577508	-8.249838	-0.4069569	0	11.91	4003	0	0	5	5	0.3454009	2.768517	3	15	0.04	1900	1.574417	40.92395	-91.39362
28322	289	-2053	-617	-2.503394	-6.558841	-0.1565891	0	11.91	4003	0	0	5	5	0.3454009	2.79018	3	15	0.04	1900	2.243096	40.92395	-91.39362
28475	1935	2248	-91	-1.949584	-4.11254	-0.0006576059	0	11.91	4002	0	0	5	5	0.3454009	2.772805	3	15	0.04	1900	2.900775	40.92395	-91.39362
28580	-779	972	-981	-0.1880451	-5.389486	-0.1334158	0	10.94	4004	0	0	5	5	0.3454009	2.730745	3	15	0.04	1900	3.195818	40.92395	-91.39362
28652	419	727	304	0.5327619	-5.691665	-0.4539054	0	10.94	4003	0	0	5	5	0.3454009	2.687105	3	15	0.04	1900	2.719331	40.92395	-91.39362
28720	-1165	-319	114	0.09895968	-5.167119	-0.5873171	0	10.94	4005	0	0	5	5	0.3454009	2.634001	3	15	0.04	1900	2.719331	40.92396	-91.39362
28851	434	-256	-244	0.428126	-2.989324	-1.271156	0	10.94	4003	0	0	5	5	0.3454009	2.527736	3	15	0.04	1900	5.197873	40.92396	-91.39362
28926	-512	189	-235	1.022629	-2.892769	-1.053664	0	10.94	4004	0	0	5	5	0.3454009	2.478601	3	15	0.04	1900	3.236177	40.92396	-91.39363
29073	186	2510	-990	-0.9863377	-2.526488	-0.2192347	0	10.94	4002	0	0	5	5	0.3454009	2.371811	3	15	0.04	1900	2.659326	40.92396	-91.39363
29131	1313	366	-1202	0.0571059	-2.915957	0.03223509	0	10.94	4003	0	0	5	5	0.3454009	2.317377	3	15	0.04	1900	2.659326	40.92396	-91.39363
29219	-1230	-475	-1025	2.035244	-3.769774	1.322804	0	10.94	4003	0	0	5	5	0.3454009	2.261603	3	15	0.04	1900	1.825264	40.92396	-91.39363
29366	1089	-434	1211	1.428151	-2.793385	3.030814	0	10.94	4008	0	0	5	5	0.3454009	2.132342	3	15	0.04	1900	0.4656613	40.92396	-91.39363
29505	-1165	-2675	2170	1.06323	-1.402412	1.88269	0	11.57	4003	0	0	5	5	0.3454009	2.044011	3	15	0.04	1900	1.511342	40.92397	-91.39363
29543	-162	-1399	1227	0.04024341	0.3316638	0.2507203	0	11.57	4004	0	0	5	5	0.3454009	2.020909	3	15	0.04	1900	4.154285	40.92397	-91.39363
29632	515	35	297	0.1891799	0.2724423	-0.8245005	0	11.57	4003	0	0	5	5	0.3454009	1.984142	3	15	0.04	1900	4.154285	40.92397	-91.39362
29740	353	2651	362	1.188761	-3.702039	-1.032535	0	11.57	4002	0	0	5	5	0.3454009	1.955845	3	15	0.04	1900	4.894657	40.92397	-91.39362
29839	-1924	-2631	-740	-0.0108147	-2.528366	0.4914279	0	11.57	4003	0	0	5	5	0.3454009	1.938457	3	15	0.04	1900	3.853587	40.92397	-91.39362
29936	-896	-2095	-1569	-1.487881	-0.9454156	0.9522057	0	11.57	4003	0	0	5	5	0.3454009	1.912167	3	15	0.04	1900	6.269252	40.92397	-91.39362
30063	-1115	651	970	-1.213319	-3.84645	1.724966	0	11.57	4004	0	0	5	5	0.3454009	1.899659	3	15	0.04	1900	3.966464	40.92397	-91.39362
30213	-2439	-239	-936	-3.621737	-6.69096	-0.05632319	0	11.57	4004	0	0	5	5	0.3454009	1.874657	3	15	0.04	1900	5.270148	40.92397	-91.39362
30309	-599	-893	902	-5.106398	-6.12564	-0.4452372	0	11.57	4002	0	0	5	5	0.3454009	1.854973	3	15	0.04	1900	3.985704	40.92397	-91.39362
30368	2858	1645	92	-2.633505	-4.878517	0.7801851	0	11.57	4003	0	0	5	5	0.3454009	1.831797	3	15	0.04	1900	1.446483	40.92397	-91.39362
30441	1255	1798	489	-1.003247	-6.736813	1.586887	0	11.23	4003	0	0	5	5	0.3454009	1.812866	3	15	0.04	1900	1.905053	40.92397	-91.39362
30521	449	472	236	-0.5327207	-7.818716	1.959347	0	11.23	4003	0	0	5	5	0.3454009	1.790925	3	15	0.04	1900	1.592765	40.92397	-91.39362
30722	-838	-1150	-72	0.245729	-7.134422	0.1139713	0	11.23	4003	0	0	5	5	0.3454009	1.705555	3	15	0.04	1900	0.8083684	40.92397	-91.39362
30840	2018	175	686	-0.3785834	-2.934394	-0.6887348	0	11.23	4002	0	0	5	5	0.3454009	1.660307	3	15	0.04	1900	2.345937	40.92397	-91.39362
