time(ms)	gyro_x(deg/s)	gyro_y(deg/s)	gyro_z(deg/s)	orientation_roll(deg)	orientation_pitch(deg)	orientation_yaw(deg)	throttle	battery(V)	loop_time(uS)	pid_output_roll	pid_output_pitch	pid_output_yaw	pid_output_throttle	ultrasonic_alt	baro_alt	flight_mode	p_gain_altitude	i_gain_altitude	d_gain_altitude	compass_heading	latitude	longitude
220308	-684	-1446	-773	-12.08339	0.07900523	-5.219081	0	9.58	4002	0	0	5	5	0.2647958	1.94708	3	10	0.03	1800	-2.399445	40.92393	-91.39364
220344	1590	-1107	-1596	-10.93333	0.44169	-4.825299	0	10.6	4003	0	0	5	5	0.2647958	1.938529	3	10	0.03	1800	-2.399445	40.92393	-91.39364
220566	185	-4458	1196	-9.490875	5.221346	-5.86579	0	10.6	4003	0	0	5	5	0.2647958	1.831501	3	10	0.03	1800	-6.808929	40.92394	-91.39363
220670	-1409	-597	907	-8.217478	8.695311	-6.161836	0	10.6	4002	0	0	5	5	0.2647958	1.77619	3	10	0.03	1800	-8.033081	40.92394	-91.39363
220768	1038	-280	-345	-7.750152	4.940526	-6.57691	0	10.6	4004	0	0	5	5	0.2647958	1.756888	3	10	0.03	1800	-11.11203	40.92394	-91.39363
220878	3611	375	13	-2.877508	3.238232	-6.23466	0	10.6	4004	0	0	5	5	0.2647958	1.700549	3	10	0.03	1800	-14.38217	40.92394	-91.39363
220982	3702	2536	1356	2.764747	0.4972978	-5.775245	0	10.6	4004	0	0	5	5	0.2647958	1.672141	3	10	0.03	1800	-13.5097	40.92395	-91.39363
221106	1321	114	75	5.568393	-2.502491	-4.673763	0	10.6	4004	0	0	5	5	0.2647958	1.60638	3	10	0.03	1800	-12.51263	40.92395	-91.39363
221203	799	543	693	6.105844	-3.530784	-4.985354	0	10.6	4003	0	0	5	5	0.2647958	1.573051	3	10	0.03	1800	-9.453369	40.92395	-91.39363
221277	843	-2807	947	6.737478	-0.7746336	-5.899424	0	10.89	4004	0	0	5	5	0.2647958	1.52961	3	10	0.03	1800	-2.303528	40.92395	-91.39363
221375	-127	494	77	6.612611	0.7145267	-6.602839	0	10.89	4003	0	0	5	5	0.2647958	1.500125	3	10	0.03	1800	0.2354386	40.92395	-91.39363
221536	-338	1525	-1017	2.097107	-4.585932	-6.017899	0	10.89	4002	0	0	5	5	0.2647958	1.433723	3	10	0.03	1800	9.858119	40.92395	-91.39363
221661	-4034	-843	-1245	-3.214165	-3.813207	-4.630447	0	10.89	4003	0	0	5	5	0.2647958	1.396481	3	10	0.03	1800	12.38703	40.92395	-91.39363
221722	-1347	-1196	-816	-6.135055	-3.344395	-4.756651	0	10.89	4004	0	0	5	5	0.2647958	1.364119	3	10	0.03	1800	13.25647	40.92395	-91.39363
221798	-1432	-832	-15	-6.109957	-2.112612	-4.909555	0	10.89	4003	0	0	5	5	0.2647958	1.336823	3	10	0.03	1800	9.108325	40.92395	-91.39363
221880	1482	1136	1604	-4.658105	-4.647931	-6.001773	0	10.89	4003	0	0	5	5	0.2647958	1.304452	3	10	0.03	1800	5.652004	40.92395	-91.39363
222020	201	-2597	-562	-1.755121	-5.459177	-6.423851	0	10.89	4004	0	0	5	5	0.2647958	1.225921	3	10	0.03	1800	5.042126	40.92395	-91.39363
222115	475	1348	-940	-2.140054	-4.584419	-5.166472	0	10.89	4004	0	0	5	5	0.2647958	1.185542	3	10	0.03	1800	9.83641	40.92394	-91.39363
222322	285	-746	1129	-0.5465832	-9.600797	-6.813128	0	11.06	4003	0	0	5	5	0.2647958	1.123344	3	10	0.03	1800	11.09287	40.92394	-91.39363
222509	436	554	-1486	0.1552292	-7.263377	-6.558004	0	11.06	4004	0	0	5	5	0.2647958	1.054952	3	10	0.03	1800	11.10853	40.92394	-91.39363
222697	-171	-1669	39	-1.562005	-8.591605	-6.310327	0	11.06	4004	0	0	5	5	0.2647958	0.9724405	3	10	0.03	1800	10.16405	40.92394	-91.39363
222733	-697	-1647	-826	-2.042626	-7.484745	-5.86656	0	11.06	4002	0	0	5	5	0.2647958	0.9724405	3	10	0.03	1800	9.091949	40.92394	-91.39363
222854	-2938	880	412	-6.180921	-4.292363	-5.759382	0	11.06	4003	0	0	5	5	0.2647958	0.9128648	3	10	0.03	1800	9.318728	40.92394	-91.39363
222905	-1866	3249	1945	-7.127033	-5.197992	-6.042612	0	11.06	4003	0	0	5	5	0.2647958	0.8820027	3	10	0.03	1800	9.318728	40.92394	-91.39363
223014	-156	-377	-1630	-6.490879	-10.33252	-6.216609	0	11.06	4003	0	0	5	5	0.2647958	0.8526113	3	10	0.03	1800	5.648113	40.92393	-91.39363
223219	-305	2315	912	-4.398261	-9.787595	-5.565193	0	10.94	4004	0	0	5	5	0.2647958	0.7948013	3	10	0.03	1800	4.620687	40.92393	-91.39363
223415	-907	2279	135	-4.474593	-11.25616	-5.576982	0	10.94	4003	0	0	5	5	0.2647958	0.7668193	3	10	0.03	1800	1.460393	40.92393	-91.39363
223474	229	-1711	268	-4.624988	-11.50773	-5.865977	0	10.94	4004	0	0	5	5	0.2647958	0.7603802	3	10	0.03	1800	-0.7049255	40.92393	-91.39363
223576	-452	-906	-642	-4.346365	-8.642379	-6.277831	0	10.94	4003	0	0	5	5	0.2647958	0.7492731	3	10	0.03	1800	0.09519294	40.92393	-91.39363
223695	660	-2107	-649	-5.231952	-5.871707	-6.163431	0	10.94	4004	0	0	5	5	0.2647958	0.7349941	3	10	0.03	1800	0.7120308	40.92393	-91.39363
223726	1380	61	159	-3.41861	-5.57293	-5.940548	0	10.94	4002	0	0	5	5	0.2647958	0.7325384	3	10	0.03	1800	0.6150354	40.92393	-91.39362
223839	-482	-190	-688	-3.480828	-5.331356	-6.5459	0	10.94	4003	0	0	5	5	0.2647958	0.7123777	3	10	0.03	1800	1.162736	40.92393	-91.39362
223912	-219	-563	-1194	-3.806847	-5.539376	-6.171015	0	10.94	4002	0	0	5	5	0.2647958	0.7005693	3	10	0.03	1800	1.014542	40.92393	-91.39362
224016	-388	259	-727	-5.047198	-5.76145	-5.189205	0	10.94	4002	0	0	5	5	0.2647958	0.6855409	3	10	0.03	1800	1.326756	40.92393	-91.39362
224120	-1459	1171	891	-7.14012	-7.710298	-6.231875	0	11.29	4003	0	0	5	5	0.2647958	0.6756271	3	10	0.03	1800	0.790311	40.92393	-91.39363
224285	2182	1934	-169	-3.528974	-8.650015	-6.872792	0	11.29	4003	0	0	5	5	0.2647958	0.6264538	3	10	0.03	1800	-0.03152466	40.92393	-91.39363
224342	2935	158	-795	-2.496025	-9.363398	-6.640583	0	11.29	4003	0	0	5	5	0.2647958	0.6188133	3	10	0.03	1800	0.157803	40.92393	-91.39363
224425	-236	-5117	455	-2.199904	1.023901	-5.287643	0	11.29	4003	0	0	5	5	0.2647958	0.5915015	3	10	0.03	1800	-0.9242249	40.92393	-91.39363
224572	-512	-611	206	-0.1869075	-1.675399	-5.645058	0	11.29	4004	0	0	5	5	0.2647958	0.5041268	3	10	0.03	1800	-0.3275452	40.92393	-91.39363
224690	-96	-241	151	-0.4972748	-0.9056918	-5.728387	0	11.29	4003	0	0	5	5	0.2647958	0.4349315	3	10	0.03	1800	-0.2988892	40.92393	-91.39363
224786	-68	95	-29	-0.5116143	-0.3996692	-5.748374	0	11.29	4003	0	0	5	5	0.2647958	0.4242608	3	10	0.03	1800	-0.7446899	40.92393	-91.39363
224894	-101	18	-113	-0.4726981	-0.2275487	-5.763536	0	11.29	4004	0	0	5	5	0.2647958	0.361286	3	10	0.03	1800	-0.8724976	40.92392	-91.39363
224991	-71	14	39	-0.3813078	0.08127818	-5.802667	0	11.57	4003	0	0	5	5	0.2647958	0.3355178	3	10	0.03	1800	-0.2836609	40.92392	-91.39363
225076	-79	2	17	-0.3449331	0.2280281	-5.812694	0	11.57	4003	0	0	5	5	0.2647958	0.296071	3	10	0.03	1800	-0.3547363	40.92392	-91.39363
225146	-77	8	20	-0.2994193	0.4241539	-5.833726	0	11.57	4004	0	0	5	5	0.2647958	0.2781406	3	10	0.03	1800	-0.4045105	40.92392	-91.39363
225262	-94	16	3	-0.2343869	0.6332157	-5.860687	0	11.57	4004	0	0	5	5	0.2647958	0.2500336	3	10	0.03	1800	-0.9166565	40.92392	-91.39363
225364	-94	0	29	-0.2242182	0.7265461	-5.877622	0	11.57	4003	0	0	5	5	0.2647958	0.2274027	3	10	0.03	1800	-0.5344543	40.92392	-91.39363
225440	-81	-8	32	-0.182974	0.889827	-5.902384	0	11.57	4003	0	0	5	5	0.2647958	0.2177273	3	10	0.03	1800	-1.060699	40.92392	-91.39363
225535	-78	5	9	-0.1676808	0.9634064	-5.915653	0	11.57	4002	0	0	5	5	0.2647958	0.2094743	3	10	0.03	1800	-0.86026	40.92392	-91.39363
225617	-83	8	3	-0.1500819	1.051131	-5.938763	0	11.57	4004	0	0	5	5	0.2647958	0.2034512	3	10	0.03	1800	-0.2030029	40.92392	-91.39363
225679	-75	4	20	-0.1319824	1.108131	-5.952213	0	11.57	4002	0	0	5	5	0.2647958	0.1964782	3	10	0.03	1800	-0.6782837	40.92392	-91.39363
225783	-79	4	18	-0.1202425	1.159006	-5.965723	0	11.57	4003	0	0	5	5	0.2647958	0.1834154	3	10	0.03	1800	-0.9243469	40.92392	-91.39363
225924	-74	8	18	-0.09354085	1.263947	-6.000081	0	11.63	4002	0	0	5	5	0.2647958	0.169165	3	10	0.03	1800	-0.5234375	40.92392	-91.39363
225992	-82	4	11	-0.08638225	1.287346	-6.00699	0	11.63	4003	0	0	5	5	0.2647958	0.1610819	3	10	0.03	1800	-0.7600708	40.92392	-91.39363
226093	-78	10	15	-0.06128325	1.347944	-6.035177	0	11.63	4004	0	0	5	5	0.2647958	0.1485711	3	10	0.03	1800	-0.5847473	40.92392	-91.39363
226187	-81	3	8	-0.04535342	1.384952	-6.056211	0	11.63	4004	0	0	5	5	0.2647958	0.1336498	3	10	0.03	1800	-0.6049805	40.92392	-91.39363
226310	-72	-1	10	-0.04132264	1.430718	-6.074737	0	11.63	4003	0	0	5	5	0.2647958	0.1168526	3	10	0.03	1800	-0.6181946	40.92392	-91.39363
226396	-71	5	6	-0.02738426	1.467039	-6.091855	0	11.63	4003	0	0	5	5	0.2647958	0.1120494	3	10	0.03	1800	-0.8546143	40.92392	-91.39363
226504	-71	-3	13	-0.01742239	1.48974	-6.107507	0	11.63	4004	0	0	5	5	0.2647958	0.1113066	3	10	0.03	1800	-0.4167175	40.92392	-91.39363
226603	-74	5	13	-0.007173961	1.508215	-6.118939	0	11.63	4004	0	0	5	5	0.2647958	0.1106451	3	10	0.03	1800	-0.8828125	40.92392	-91.39363
226785	-77	6	10	0.01588874	1.544157	-6.157333	0	11.63	4002	0	0	5	5	0.2647958	0.1045155	3	10	0.03	1800	-0.9259644	40.92392	-91.39362
226855	-73	7	16	0.01689805	1.559826	-6.175612	0	11.68	4004	0	0	5	5	0.2647958	0.1010207	3	10	0.03	1800	-0.932373	40.92392	-91.39362
227037	-54	149	108	-0.0630936	1.337215	-6.210158	0	11.68	4004	0	0	5	5	0.2647958	0.1184651	3	10	0.03	1800	-0.7641602	40.92393	-91.39362
227157	-3717	635	-924	-2.433644	0.1014405	-5.467523	0	11.68	4004	0	0	5	5	0.2647958	0.1514809	3	10	0.03	1800	-0.8124695	40.92393	-91.39362
227219	-970	-2608	-1276	-4.882843	1.229116	-4.470064	0	11.68	4003	0	0	5	5	0.2647958	0.1561368	3	10	0.03	1800	-1.624054	40.92393	-91.39362
227294	-1140	-3887	-1993	-6.103422	5.332935	-2.583328	0	11.68	4003	0	0	5	5	0.2647958	0.1716496	3	10	0.03	1800	-1.932678	40.92393	-91.39362
227390	-603	-958	-2610	-6.684234	9.391988	1.141459	0	11.68	4003	0	0	5	5	0.2647958	0.2091489	3	10	0.03	1800	-3.739136	40.92393	-91.39362
227535	-576	1340	-593	-6.606543	10.14738	4.934725	0	11.68	4002	0	0	5	5	0.2647958	0.2487448	3	10	0.03	1800	-7.323181	40.92393	-91.39362
227649	-1674	331	-780	-8.379677	10.47736	6.147635	0	11.68	4004	0	0	5	5	0.2647958	0.293341	3	10	0.03	1800	-9.435852	40.92393	-91.39362
227731	-2556	98	-597	-9.624308	11.67182	6.923671	0	11.68	4004	0	0	5	5	0.2647958	0.3202799	3	10	0.03	1800	-11.12909	40.92393	-91.39362
227879	-1572	-919	-874	-12.91235	14.38785	7.616103	0	11.68	4003	0	0	5	5	0.2647958	0.3827202	3	10	0.03	1800	-14.48505	40.92393	-91.39362
227933	825	-1016	-2920	-12.16895	17.13857	9.801265	0	11.68	4004	0	0	5	5	0.2647958	0.3993975	3	10	0.03	1800	-16.86423	40.92393	-91.39362
228112	3816	1719	1835	-1.174147	18.98619	13.51174	0	11.68	4003	0	0	5	5	0.2647958	0.4625683	3	10	0.03	1800	-21.20279	40.92393	-91.39362
228241	1669	286	3117	-0.6530392	15.06796	7.59339	0	11.68	4003	0	0	5	5	0.2647958	0.5185962	3	10	0.03	1800	-16.70297	40.92393	-91.39362
228356	1202	149	2127	-0.03505207	12.80361	1.458174	0	11.68	4003	0	0	5	5	0.2647958	0.547579	3	10	0.03	1800	-8.334015	40.92393	-91.39362
228390	937	-219	1551	0.1135825	11.75074	0.4526713	0	11.68	4002	0	0	5	5	0.2647958	0.547579	3	10	0.03	1800	-4.14621	40.92393	-91.39362
228507	-743	2706	-1203	-0.931513	5.511532	0.5428987	0	11.68	4004	0	0	5	5	0.2647958	0.5605114	3	10	0.03	1800	-2.042511	40.92393	-91.39363
228623	-663	-396	-66	-2.259226	2.123954	2.183425	0	11.68	4003	0	0	5	5	0.2647958	0.5594908	3	10	0.03	1800	-2.91037	40.92393	-91.39363
228701	-560	-839	3430	-2.869127	2.329433	-0.6250848	0	11.68	4003	0	0	5	5	0.2647958	0.5545044	3	10	0.03	1800	-2.777527	40.92393	-91.39363
228773	762	4251	672	-1.431162	0.5126333	-3.255456	0	11.68	4002	0	0	5	5	0.2647958	0.543622	3	10	0.03	1800	-1.408173	40.92393	-91.39363
228889	-153	-392	-1216	-1.814281	-2.373774	-1.665252	0	11.68	4004	0	0	5	5	0.2647958	0.5328353	3	10	0.03	1800	-1.060638	40.92393	-91.39363
228982	-247	62	-1034	-2.001112	-1.792612	0.4752722	0	11.68	4004	0	0	5	5	0.2647958	0.5244151	3	10	0.03	1800	-2.188629	40.92394	-91.39363
229072	-433	719	114	-1.577792	-1.349649	1.025793	0	11.68	4004	0	0	5	5	0.2647958	0.5119413	3	10	0.03	1800	-4.398468	40.92394	-91.39363
229182	-200	81	-29	-1.77344	-1.748288	0.9859366	0	11.68	4004	0	0	5	5	0.2647958	0.4958446	3	10	0.03	1800	-4.687347	40.92394	-91.39363
229320	82	-235	-32	-1.705379	-1.35642	1.015281	0	11.68	4004	0	0	5	5	0.2647958	0.4746948	3	10	0.03	1800	-4.655029	40.92394	-91.39363
229355	-163	148	9	-1.554653	-1.037003	1.014915	0	11.68	4003	0	0	5	5	0.2647958	0.4684369	3	10	0.03	1800	-4.655609	40.92394	-91.39363
229473	-37	-17	-12	-1.662597	-1.044755	0.9929057	0	11.68	4002	0	0	5	5	0.2647958	0.4549778	3	10	0.03	1800	-4.850983	40.92394	-91.39363
229505	-114	-9	5	-1.598054	-0.9658046	0.991194	0	11.68	4002	0	0	5	5	0.2647958	0.4512179	3	10	0.03	1800	-4.752808	40.92394	-91.39363
229596	-43	-32	24	-1.622353	-0.8884923	0.977861	0	11.68	4004	0	0	5	5	0.2647958	0.4501643	3	10	0.03	1800	-5.025452	40.92394	-91.39363
229692	-92	39	7	-1.570432	-0.7764319	0.9613531	0	11.68	4002	0	0	5	5	0.2647958	0.438713	3	10	0.03	1800	-5.082275	40.92394	-91.39363
229816	-58	-13	9	-1.530101	-0.6033077	0.9388562	0	11.68	4002	0	0	5	5	0.2647958	0.4276462	3	10	0.03	1800	-4.887909	40.92394	-91.39363
229952	-60	10	8	-1.499776	-0.4891253	0.9199042	0	11.68	4002	0	0	5	5	0.2647958	0.4306199	3	10	0.03	1800	-4.926971	40.92394	-91.39363
230026	-73	2	9	-1.480371	-0.4414291	0.9099997	0	11.68	4004	0	0	5	5	0.2647958	0.4297054	3	10	0.03	1800	-4.926971	40.92394	-91.39363
230098	-63	-2	13	-1.457374	-0.4083698	0.9005224	0	11.68	4004	0	0	5	5	0.2647958	0.4278399	3	10	0.03	1800	-5.153778	40.92394	-91.39363
230204	-67	2	9	-1.427158	-0.3342772	0.881326	0	11.68	4003	0	0	5	5	0.2647958	0.4202276	3	10	0.03	1800	-4.997559	40.92394	-91.39363
230303	-62	2	10	-1.40871	-0.289398	0.8685498	0	11.68	4002	0	0	5	5	0.2647958	0.411431	3	10	0.03	1800	-5.019623	40.92394	-91.39363
230420	-71	1	9	-1.390803	-0.237268	0.8491701	0	11.68	4002	0	0	5	5	0.2647958	0.3998648	3	10	0.03	1800	-5.290314	40.92394	-91.39363
230468	-73	3	8	-1.387252	-0.2249391	0.8448904	0	11.68	4003	0	0	5	5	0.2647958	0.3944634	3	10	0.03	1800	-5.290314	40.92394	-91.39363
230576	-68	6	10	-1.36842	-0.1819078	0.8269161	0	11.68	4004	0	0	5	5	0.2647958	0.3849756	3	10	0.03	1800	-5.303528	40.92394	-91.39363
230674	-66	5	4	-1.36674	-0.1622407	0.8190293	0	11.68	4003	0	0	5	5	0.2647958	0.380077	3	10	0.03	1800	-5.08606	40.92394	-91.39363
230822	-72	0	8	-1.356808	-0.1160273	0.7973856	0	11.68	4003	0	0	5	5	0.2647958	0.3802986	3	10	0.03	1800	-5.31723	40.92394	-91.39363
230926	-62	3	9	-1.346183	-0.09010362	0.7832024	0	11.68	4002	0	0	5	5	0.2647958	0.3772493	3	10	0.03	1800	-5.092865	40.92394	-91.39363
230995	-70	6	12	-1.33689	-0.06675885	0.7692634	0	11.68	4003	0	0	5	5	0.2647958	0.3684812	3	10	0.03	1800	-5.339417	40.92394	-91.39363
231095	-69	5	10	-1.339048	-0.05273318	0.7600313	0	11.68	4004	0	0	5	5	0.2647958	0.347866	3	10	0.03	1800	-5.33609	40.92394	-91.39363
231215	-74	5	6	-1.335045	-0.03223965	0.7400395	0	11.68	4004	0	0	5	5	0.2647958	0.3415243	3	10	0.03	1800	-5.118439	40.92394	-91.39363
231273	-66	3	11	-1.329916	-0.02611914	0.7300124	0	11.68	4004	0	0	5	5	0.2647958	0.3393126	3	10	0.03	1800	-5.335083	40.92394	-91.39363
231484	-69	1	6	-1.321718	-0.009338055	0.7061682	0	11.68	4003	0	0	5	5	0.2647958	0.3308628	3	10	0.03	1800	-5.364929	40.92393	-91.39363
231610	-66	0	5	-1.314049	0.002832426	0.6844031	0	11.68	4003	0	0	5	5	0.2647958	0.3210165	3	10	0.03	1800	-5.12735	40.92393	-91.39363
231686	-64	0	5	-1.310099	0.01358571	0.6740099	0	11.68	4005	0	0	5	5	0.2647958	0.3172576	3	10	0.03	1800	-5.377655	40.92393	-91.39363
231812	-68	-1	9	-1.308448	0.02232258	0.6605601	0	11.68	4003	0	0	5	5	0.2647958	0.3007145	3	10	0.03	1800	-5.601776	40.92393	-91.39363
231901	-62	-4	8	-1.311022	0.03081878	0.6433812	0	11.68	4004	0	0	5	5	0.2647958	0.2919763	3	10	0.03	1800	-5.371368	40.92393	-91.39363
231987	-66	0	6	-1.308173	0.03529964	0.6343937	0	11.68	4003	0	0	5	5	0.2647958	0.2867177	3	10	0.03	1800	-5.400238	40.92393	-91.39363
232136	-68	8	5	-1.313056	0.03915807	0.6176416	0	11.68	4004	0	0	5	5	0.2647958	0.281657	3	10	0.03	1800	-5.15094	40.92394	-91.39363
232220	-66	4	6	-1.311009	0.04059688	0.6049856	0	11.68	4003	0	0	5	5	0.2647958	0.2793064	3	10	0.03	1800	-4.909515	40.92394	-91.39363
232355	-66	4	8	-1.304878	0.04536704	0.5928813	0	11.68	4003	0	0	5	5	0.2647958	0.2790745	3	10	0.03	1800	-5.15448	40.92394	-91.39363
232472	-59	7	6	-1.30002	0.04321845	0.5728281	0	11.68	4003	0	0	5	5	0.2647958	0.2846391	3	10	0.03	1800	-5.189758	40.92394	-91.39363
232521	-59	-5	11	-1.296691	0.05188646	0.5642077	0	11.68	4002	0	0	5	5	0.2647958	0.2891052	3	10	0.03	1800	-5.189758	40.92394	-91.39363
232583	-72	-5	8	-1.296806	0.05557409	0.5569934	0	11.68	4004	0	0	5	5	0.2647958	0.2941273	3	10	0.03	1800	-5.397736	40.92394	-91.39363
232705	-71	1	11	-1.294657	0.05709655	0.53847	0	11.68	4004	0	0	5	5	0.2647958	0.3092091	3	10	0.03	1800	-5.162689	40.92394	-91.39363
232779	-70	6	8	-1.288559	0.05722185	0.5318673	0	11.68	4003	0	0	5	5	0.2647958	0.3193464	3	10	0.03	1800	-5.166687	40.92393	-91.39363
232889	-71	0	8	-1.286664	0.05459274	0.5194566	0	11.68	4004	0	0	5	5	0.2647958	0.3363089	3	10	0.03	1800	-5.180573	40.92393	-91.39363
233035	-70	-5	10	-1.291085	0.05536304	0.49977	0	11.68	4003	0	0	5	5	0.2647958	0.3558901	3	10	0.03	1800	-5.163422	40.92393	-91.39363
233087	-62	-3	6	-1.28917	0.05909973	0.4962854	0	11.74	4004	0	0	5	5	0.2647958	0.3614876	3	10	0.03	1800	-5.407166	40.92393	-91.39363
233186	-69	4	8	-1.286173	0.06114902	0.4821633	0	11.74	4003	0	0	5	5	0.2647958	0.3635501	3	10	0.03	1800	-5.401947	40.92393	-91.39363
233276	-65	-1	7	-1.279345	0.05803943	0.4699974	0	11.74	4003	0	0	5	5	0.2647958	0.3610396	3	10	0.03	1800	-5.392426	40.92393	-91.39363
233410	-67	0	10	-1.27375	0.06171395	0.4522065	0	11.74	4003	0	0	5	5	0.2647958	0.3520544	3	10	0.03	1800	-5.188721	40.92393	-91.39363
233529	-65	4	6	-1.265913	0.06553509	0.4402847	0	11.74	4003	0	0	5	5	0.2647958	0.3414646	3	10	0.03	1800	-5.2117	40.92393	-91.39363
233599	-70	2	8	-1.261291	0.06534617	0.4321534	0	11.74	4003	0	0	5	5	0.2647958	0.335793	3	10	0.03	1800	-5.423218	40.92393	-91.39363
233684	-65	-2	6	-1.267097	0.06527231	0.4168698	0	11.74	4004	0	0	5	5	0.2647958	0.3216186	3	10	0.03	1800	-5.417511	40.92393	-91.39363
233843	-65	3	3	-1.2663	0.06341212	0.3995682	0	11.74	4002	0	0	5	5	0.2647958	0.3087186	3	10	0.03	1800	-5.243195	40.92393	-91.39363
233922	-67	2	8	-1.265115	0.0674606	0.386607	0	11.74	4004	0	0	5	5	0.2647958	0.306136	3	10	0.03	1800	-5.215393	40.92393	-91.39363
233987	-62	4	6	-1.266283	0.06558949	0.3834887	0	11.74	4003	0	0	5	5	0.2647958	0.3073343	3	10	0.03	1800	-5.215393	40.92393	-91.39363
234162	-62	-2	3	-1.26057	0.06361737	0.3649031	0	11.74	4002	0	0	5	5	0.2647958	0.3148322	3	10	0.03	1800	-5.204803	40.92393	-91.39363
234276	-63	5	2	-1.256055	0.06108288	0.3490066	0	11.74	4004	0	0	5	5	0.2647958	0.3255241	3	10	0.03	1800	-5.66098	40.92393	-91.39363
234307	-70	0	6	-1.254908	0.05918964	0.3454609	0	11.74	4003	0	0	5	5	0.2647958	0.3261928	3	10	0.03	1800	-5.66098	40.92393	-91.39363
234458	-66	4	7	-1.262277	0.055375	0.327059	0	11.74	4004	0	0	5	5	0.2647958	0.3244582	3	10	0.03	1800	-4.980072	40.92393	-91.39363
234579	-62	0	7	-1.265878	0.05557316	0.3167274	0	11.74	4003	0	0	5	5	0.2647958	0.3137404	3	10	0.03	1800	-5.42215	40.92393	-91.39363
234643	-64	1	3	-1.263782	0.05931168	0.3098805	0	11.74	4004	0	0	5	5	0.2647958	0.3126318	3	10	0.03	1800	-5.224823	40.92393	-91.39363
234766	-68	0	6	-1.255929	0.05794748	0.2986932	0	11.74	4003	0	0	5	5	0.2647958	0.3129454	3	10	0.03	1800	-5.433594	40.92393	-91.39363
234799	-60	0	4	-1.256989	0.0558304	0.2956974	0	11.74	4002	0	0	5	5	0.2647958	0.3155246	3	10	0.03	1800	-5.433594	40.92393	-91.39363
234925	-64	1	8	-1.250943	0.05368207	0.2748483	0	11.74	4004	0	0	5	5	0.2647958	0.3235803	3	10	0.03	1800	-5.438568	40.92393	-91.39363
234983	-63	2	10	-1.250085	0.05250121	0.2705077	0	11.74	4004	0	0	5	5	0.2647958	0.3311923	3	10	0.03	1800	-5.438568	40.92393	-91.39363
235185	-61	6	9	-1.256388	0.05973006	0.2452601	0	11.74	4003	0	0	5	5	0.2647958	0.3335602	3	10	0.03	1800	-5.437775	40.92393	-91.39363
235311	-65	2	5	-1.254626	0.05742029	0.2285694	0	11.74	4002	0	0	5	5	0.2647958	0.3309628	3	10	0.03	1800	-5.459412	40.92393	-91.39363
235404	-63	5	4	-1.256148	0.06334575	0.2231288	0	11.74	4004	0	0	5	5	0.2647958	0.3254347	3	10	0.03	1800	-5.45282	40.92393	-91.39363
235490	-64	2	6	-1.255324	0.06401954	0.2112062	0	11.74	4004	0	0	5	5	0.2647958	0.3098236	3	10	0.03	1800	-5.461731	40.92393	-91.39363
235652	-59	6	5	-1.251853	0.06378037	0.197573	0	11.74	4003	0	0	5	5	0.2647958	0.290153	3	10	0.03	1800	-5.462708	40.92393	-91.39363
235734	-60	-3	7	-1.254945	0.06911758	0.1808834	0	11.74	4002	0	0	5	5	0.2647958	0.2857215	3	10	0.03	1800	-5.22937	40.92393	-91.39363
235768	-51	3	10	-1.250121	0.07301359	0.1768485	0	11.74	4004	0	0	5	5	0.2647958	0.2769203	3	10	0.03	1800	-5.22937	40.92393	-91.39363
235872	-56	1	4	-1.242774	0.07072049	0.1643762	0	11.68	4002	0	0	5	5	0.2647958	0.2741674	3	10	0.03	1800	-5.249939	40.92394	-91.39363
236048	-64	4	10	-1.229018	0.07139065	0.148359	0	11.68	4002	0	0	5	5	0.2647958	0.2797991	3	10	0.03	1800	-5.493561	40.92394	-91.39363
236143	-67	-8	5	-1.223715	0.06565361	0.1388217	0	11.68	4002	0	0	5	5	0.2647958	0.279213	3	10	0.03	1800	-5.277191	40.92394	-91.39363
236169	-67	1	7	-1.2229	0.06986091	0.1329532	0	11.68	4002	0	0	5	5	0.2647958	0.2783566	3	10	0.03	1800	-5.277191	40.92394	-91.39363
236306	-63	-2	7	-1.22486	0.06512922	0.1217037	0	11.68	4003	0	0	5	5	0.2647958	0.2748471	3	10	0.03	1800	-5.510406	40.92394	-91.39363
236367	-67	-5	5	-1.228598	0.06508243	0.112716	0	11.68	4002	0	0	5	5	0.2647958	0.2747874	3	10	0.03	1800	-5.273376	40.92394	-91.39363
236482	-61	3	8	-1.221251	0.06594726	0.09700359	0	11.68	4002	0	0	5	5	0.2647958	0.275353	3	10	0.03	1800	-5.491699	40.92394	-91.39363
236591	-69	4	8	-1.21152	0.06286011	0.08514276	0	11.68	4003	0	0	5	5	0.2647958	0.2868739	3	10	0.03	1800	-5.487213	40.92394	-91.39363
236769	-59	-1	5	-1.211383	0.06252291	0.06600714	0	11.74	4002	0	0	5	5	0.2647958	0.2938642	3	10	0.03	1800	-5.305817	40.92394	-91.39363
236816	-62	7	9	-1.211579	0.06146152	0.06209429	0	11.74	4004	0	0	5	5	0.2647958	0.2926196	3	10	0.03	1800	-5.305817	40.92394	-91.39363
236955	-55	3	5	-1.203214	0.05764345	0.04412027	0	11.74	4003	0	0	5	5	0.2647958	0.289295	3	10	0.03	1800	-5.30481	40.92394	-91.39363
237039	-58	6	10	-1.204216	0.0606535	0.03660059	0	11.74	4004	0	0	5	5	0.2647958	0.288719	3	10	0.03	1800	-5.293945	40.92394	-91.39363
237089	-64	8	8	-1.199755	0.05967187	0.03336076	0	11.74	4002	0	0	5	5	0.2647958	0.292592	3	10	0.03	1800	-5.514038	40.92394	-91.39363
237185	-59	4	7	-1.197767	0.06365569	0.01929931	0	11.74	4003	0	0	5	5	0.2647958	0.2981623	3	10	0.03	1800	-5.339386	40.92394	-91.39363
237297	-59	3	10	-1.201911	0.05872432	0.009577176	0	11.74	4003	0	0	5	5	0.2647958	0.310968	3	10	0.03	1800	-5.546783	40.92394	-91.39363
237389	-57	-5	2	-1.201575	0.05989179	0.003463709	0	11.74	4003	0	0	5	5	0.2647958	0.3202997	3	10	0.03	1800	-5.544281	40.92394	-91.39363
237512	-57	-3	11	-1.199704	0.05990347	-0.01212519	0	11.74	4003	0	0	5	5	0.2647958	0.3198703	3	10	0.03	1800	-5.523651	40.92394	-91.39363
237587	-59	4	2	-1.198292	0.06406044	-0.01976638	0	11.74	4003	0	0	5	5	0.2647958	0.3164471	3	10	0.03	1800	-5.298706	40.92394	-91.39363
237714	-58	-5	8	-1.187317	0.06491728	-0.03914748	0	11.74	4002	0	0	5	5	0.2647958	0.3201154	3	10	0.03	1800	-5.319336	40.92394	-91.39363
237917	-61	0	2	-1.181188	0.06136889	-0.05761065	0	11.74	4002	0	0	5	5	0.2647958	0.3205565	3	10	0.03	1800	-5.328064	40.92394	-91.39363
238082	-58	1	6	-1.186888	0.05235944	-0.07399561	0	11.74	4002	0	0	5	5	0.2647958	0.3294605	3	10	0.03	1800	-5.34549	40.92394	-91.39363
238148	-58	-1	6	-1.188254	0.0554372	-0.0840226	0	11.74	4003	0	0	5	5	0.2647958	0.3357126	3	10	0.03	1800	-5.345856	40.92394	-91.39363
238316	-54	-1	9	-1.189126	0.05775152	-0.09704536	0	11.74	4002	0	0	5	5	0.2647958	0.3514792	3	10	0.03	1800	-5.312378	40.92394	-91.39363
238427	-61	2	10	-1.185888	0.05977778	-0.1122681	0	11.74	4003	0	0	5	5	0.2647958	0.3630859	3	10	0.03	1800	-5.540619	40.92394	-91.39363
238483	-51	5	8	-1.183567	0.05697851	-0.1207045	0	11.74	4003	0	0	5	5	0.2647958	0.363958	3	10	0.03	1800	-5.345367	40.92394	-91.39363
238654	-56	2	3	-1.187839	0.05094627	-0.1361101	0	11.74	4004	0	0	5	5	0.2647958	0.3678278	3	10	0.03	1800	-5.547668	40.92394	-91.39363
238771	-57	2	7	-1.181387	0.04817308	-0.1594019	0	11.74	4002	0	0	5	5	0.2647958	0.3758067	3	10	0.03	1800	-5.573181	40.92394	-91.39363
238917	-59	4	10	-1.177044	0.04863092	-0.1710787	0	11.74	4003	0	0	5	5	0.2647958	0.3857621	3	10	0.03	1800	-5.333313	40.92394	-91.39363
239041	-56	-2	13	-1.167766	0.04427815	-0.1837954	0	11.74	4002	0	0	5	5	0.2647958	0.3882731	3	10	0.03	1800	-5.360321	40.92394	-91.39363
239070	-56	2	6	-1.165757	0.04378034	-0.1883195	0	11.74	4003	0	0	5	5	0.2647958	0.386375	3	10	0.03	1800	-5.597992	40.92394	-91.39363
239165	-59	1	10	-1.169342	0.05066743	-0.197795	0	11.74	4004	0	0	5	5	0.2647958	0.3823777	3	10	0.03	1800	-5.353943	40.92394	-91.39363
239310	-55	5	7	-1.165913	0.05181349	-0.2160747	0	11.74	4003	0	0	5	5	0.2647958	0.3631401	3	10	0.03	1800	-5.378937	40.92394	-91.39363
239396	-54	0	10	-1.161226	0.04809121	-0.2236559	0	11.74	4004	0	0	5	5	0.2647958	0.3530347	3	10	0.03	1800	-5.378937	40.92394	-91.39363
239587	-54	-3	9	-1.145165	0.04861433	-0.2419358	0	11.8	4002	0	0	5	5	0.2647958	0.335556	3	10	0.03	1800	-5.379547	40.92394	-91.39364
239678	-60	9	2	-1.143494	0.0551507	-0.2531854	0	11.8	4002	0	0	5	5	0.2647958	0.3271463	3	10	0.03	1800	-5.368195	40.92394	-91.39364
239856	-58	3	7	-1.144254	0.0514209	-0.270487	0	11.8	4003	0	0	5	5	0.2647958	0.2965162	3	10	0.03	1800	-5.411133	40.92394	-91.39364
239948	-52	0	9	-1.144915	0.05912953	-0.2799633	0	11.8	4004	0	0	5	5	0.2647958	0.2852925	3	10	0.03	1800	-5.401062	40.92394	-91.39364
239996	-46	0	5	-1.141604	0.06083531	-0.2836927	0	11.8	4002	0	0	5	5	0.2647958	0.2767507	3	10	0.03	1800	-5.401062	40.92394	-91.39364
240039	-57	3	11	-1.132021	0.0554405	-0.292374	0	11.8	4003	0	0	5	5	0.2647958	0.2709104	3	10	0.03	1800	-5.626434	40.92394	-91.39364
240157	-57	4	7	-1.122689	0.05416742	-0.3016051	0	11.8	4002	0	0	5	5	0.2647958	0.2587622	3	10	0.03	1800	-5.640564	40.92394	-91.39364
240342	-54	2	6	-1.114057	0.05006315	-0.3173777	0	11.8	4004	0	0	5	5	0.2647958	0.2451793	3	10	0.03	1800	-5.454987	40.92394	-91.39364
240408	-48	3	4	-1.110517	0.05221314	-0.3270985	0	11.74	4004	0	0	5	5	0.2647958	0.2489487	3	10	0.03	1800	-5.657166	40.92394	-91.39364
240543	-51	3	10	-1.107519	0.04793953	-0.3381028	0	11.74	4003	0	0	5	5	0.2647958	0.2584372	3	10	0.03	1800	-5.668762	40.92394	-91.39364
240656	-51	7	4	-1.095659	0.04994067	-0.3564433	0	11.74	4004	0	0	5	5	0.2647958	0.2623036	3	10	0.03	1800	-5.702606	40.92394	-91.39364
240758	-46	6	11	-1.094345	0.05195117	-0.3650028	0	11.74	4004	0	0	5	5	0.2647958	0.271146	3	10	0.03	1800	-5.487946	40.92394	-91.39364
240872	-55	0	1	-1.091601	0.04792499	-0.370627	0	11.74	4004	0	0	5	5	0.2647958	0.268765	3	10	0.03	1800	-5.682526	40.92394	-91.39364
240965	-56	-2	9	-1.096476	0.05287418	-0.3822428	0	11.74	4004	0	0	5	5	0.2647958	0.2660837	3	10	0.03	1800	-5.507355	40.92394	-91.39364
241028	-51	7	3	-1.09593	0.05375822	-0.3851157	0	11.74	4003	0	0	5	5	0.2647958	0.2660318	3	10	0.03	1800	-5.507355	40.92394	-91.39364
241155	-52	2	3	-1.092898	0.04609229	-0.4002774	0	11.74	4002	0	0	5	5	0.2647958	0.2651064	3	10	0.03	1800	-5.48642	40.92394	-91.39364
241227	-55	1	8	-1.086067	0.04452312	-0.4075529	0	11.74	4004	0	0	5	5	0.2647958	0.2654281	3	10	0.03	1800	-5.48642	40.92394	-91.39364
241279	-57	4	6	-1.084081	0.04535344	-0.4169067	0	11.8	4002	0	0	5	5	0.2647958	0.2524442	3	10	0.03	1800	-5.506287	40.92394	-91.39364
241366	-55	0	3	-1.081024	0.04015991	-0.4269331	0	11.8	4003	0	0	5	5	0.2647958	0.246091	3	10	0.03	1800	-5.727081	40.92394	-91.39364
241487	-45	7	0	-1.075083	0.03067444	-0.4359213	0	11.8	4003	0	0	5	5	0.2647958	0.2376539	3	10	0.03	1800	-5.500244	40.92394	-91.39364
241595	-53	9	1	-1.066785	0.03432306	-0.4491262	0	11.8	4003	0	0	5	5	0.2647958	0.2293756	3	10	0.03	1800	-5.529144	40.92394	-91.39364
241671	-48	0	2	-1.068221	0.03549695	-0.4545673	0	11.8	4002	0	0	5	5	0.2647958	0.2261761	3	10	0.03	1800	-5.753693	40.92394	-91.39364
241778	-54	-2	9	-1.069442	0.04348965	-0.4696075	0	11.8	4003	0	0	5	5	0.2647958	0.2149552	3	10	0.03	1800	-5.754883	40.92394	-91.39364
241852	-40	7	9	-1.067888	0.04460521	-0.4765158	0	11.8	4004	0	0	5	5	0.2647958	0.2085936	3	10	0.03	1800	-5.750763	40.92394	-91.39364
241996	-46	0	8	-1.059052	0.04758372	-0.4947954	0	11.8	4002	0	0	5	5	0.2647958	0.1950353	3	10	0.03	1800	-5.738525	40.92394	-91.39364
242070	-48	4	5	-1.054196	0.04673281	-0.5008488	0	11.8	4004	0	0	5	5	0.2647958	0.1819202	3	10	0.03	1800	-5.750702	40.92394	-91.39364
242156	-51	0	11	-1.051743	0.04572582	-0.5089799	0	11.74	4002	0	0	5	5	0.2647958	0.1711742	3	10	0.03	1800	-5.530579	40.92394	-91.39364
242259	-55	2	8	-1.058781	0.05341459	-0.520474	0	11.74	4002	0	0	5	5	0.2647958	0.1647463	3	10	0.03	1800	-5.748932	40.92394	-91.39364
242373	-58	-1	4	-1.061805	0.04917611	-0.5308675	0	11.74	4002	0	0	5	5	0.2647958	0.158965	3	10	0.03	1800	-5.54248	40.92395	-91.39364
242513	-50	9	11	-1.06663	0.04829728	-0.5405882	0	11.74	4003	0	0	5	5	0.2647958	0.1612228	3	10	0.03	1800	-5.758514	40.92395	-91.39364
242564	-56	0	11	-1.061747	0.04703098	-0.5485975	0	11.74	4003	0	0	5	5	0.2647958	0.1652698	3	10	0.03	1800	-5.732697	40.92395	-91.39364
242657	-53	0	4	-1.060458	0.04174027	-0.5582566	0	11.74	4004	0	0	5	5	0.2647958	0.1794006	3	10	0.03	1800	-5.763794	40.92395	-91.39364
242776	-46	3	4	-1.061265	0.0397855	-0.5674878	0	11.74	4003	0	0	5	5	0.2647958	0.1857356	3	10	0.03	1800	-5.318939	40.92395	-91.39364
242923	-52	0	7	-1.0626	0.04101497	-0.5844834	0	11.74	4002	0	0	5	5	0.2647958	0.202177	3	10	0.03	1800	-5.518494	40.92395	-91.39364
242982	-52	2	5	-1.062829	0.03907019	-0.591453	0	11.74	4002	0	0	5	5	0.2647958	0.2064536	3	10	0.03	1800	-5.767426	40.92395	-91.39364
243117	-48	-4	2	-1.070632	0.03967529	-0.6030689	0	11.8	4004	0	0	5	5	0.2647958	0.2209574	3	10	0.03	1800	-5.528107	40.92395	-91.39364
243162	-45	-3	8	-1.063633	0.04207949	-0.6089993	0	11.8	4003	0	0	5	5	0.2647958	0.2257594	3	10	0.03	1800	-5.509552	40.92395	-91.39364
243298	-47	6	10	-1.05822	0.04801717	-0.6229995	0	11.8	4003	0	0	5	5	0.2647958	0.2348198	3	10	0.03	1800	-5.736969	40.92395	-91.39364
243412	-44	1	5	-1.047212	0.04369658	-0.6297853	0	11.8	4002	0	0	5	5	0.2647958	0.2489448	3	10	0.03	1800	-5.756744	40.92395	-91.39364
243465	-51	-5	2	-1.046003	0.04435318	-0.63327	0	11.8	4003	0	0	5	5	0.2647958	0.2511653	3	10	0.03	1800	-5.756744	40.92395	-91.39364
243559	-49	6	5	-1.035208	0.04698338	-0.6456801	0	11.8	4004	0	0	5	5	0.2647958	0.2550293	3	10	0.03	1800	-5.576721	40.92395	-91.39364
243774	-43	1	4	-1.026487	0.04382784	-0.6611471	0	11.8	4003	0	0	5	5	0.2647958	0.2579986	3	10	0.03	1800	-5.811005	40.92395	-91.39364
243958	-34	1	6	-1.019505	0.04503706	-0.6777146	0	11.8	4002	0	0	5	5	0.2647958	0.2564046	3	10	0.03	1800	-5.803925	40.92395	-91.39364
244019	-45	8	4	-1.017447	0.04227331	-0.6879237	0	11.8	4002	0	0	5	5	0.2647958	0.259027	3	10	0.03	1800	-6.062225	40.92395	-91.39364
244242	-46	5	4	-1.007342	0.04143668	-0.7084036	0	11.8	4003	0	0	5	5	0.2647958	0.2580003	3	10	0.03	1800	-5.599243	40.92395	-91.39364
244300	-48	-2	3	-1.010096	0.03933364	-0.7118884	0	11.8	4003	0	0	5	5	0.2647958	0.2580656	3	10	0.03	1800	-5.599243	40.92395	-91.39364
244444	-43	-1	7	-1.014437	0.03758566	-0.7215499	0	11.8	4003	0	0	5	5	0.2647958	0.255955	3	10	0.03	1800	-5.818604	40.92395	-91.39364
244511	-49	3	0	-1.014982	0.03657772	-0.7294368	0	11.8	4003	0	0	5	5	0.2647958	0.2458782	3	10	0.03	1800	-5.81546	40.92395	-91.39364
244556	-41	2	6	-1.013559	0.03335899	-0.7305374	0	11.8	4004	0	0	5	5	0.2647958	0.2437929	3	10	0.03	1800	-5.81546	40.92395	-91.39364
244720	-42	8	6	-1.015254	0.03141182	-0.7422766	0	11.8	4002	0	0	5	5	0.2647958	0.2336197	3	10	0.03	1800	-5.590729	40.92395	-91.39364
244822	-52	6	3	-1.015703	0.02557912	-0.7507747	0	11.8	4004	0	0	5	5	0.2647958	0.2140376	3	10	0.03	1800	-5.639069	40.92395	-91.39364
244847	-44	2	3	-1.014258	0.02444453	-0.7534646	0	11.8	4004	0	0	5	5	0.2647958	0.2083901	3	10	0.03	1800	-5.843689	40.92395	-91.39364
245064	-49	5	0	-1.012686	0.02867742	-0.7710109	0	11.8	4002	0	0	5	5	0.2647958	0.1834193	3	10	0.03	1800	-6.042145	40.92395	-91.39364
245167	-39	6	3	-1.011392	0.02345565	-0.7787754	0	11.8	4002	0	0	5	5	0.2647958	0.1662849	3	10	0.03	1800	-5.839172	40.92395	-91.39364
245249	-48	0	8	-1.010073	0.01815139	-0.7898414	0	11.8	4003	0	0	5	5	0.2647958	0.1616365	3	10	0.03	1800	-5.605225	40.92395	-91.39364
245347	-48	1	9	-1.010738	0.01646287	-0.7960159	0	11.8	4002	0	0	5	5	0.2647958	0.1605215	3	10	0.03	1800	-5.84668	40.92395	-91.39364
245475	-47	0	8	-1.015236	0.01621303	-0.8042078	0	11.8	4003	0	0	5	5	0.2647958	0.157018	3	10	0.03	1800	-5.59436	40.92395	-91.39364
245561	-46	2	4	-1.015427	0.02126821	-0.8110551	0	11.8	4002	0	0	5	5	0.2647958	0.1516179	3	10	0.03	1800	-5.646179	40.92395	-91.39364
245644	-44	2	8	-1.012283	0.02285371	-0.8158236	0	11.8	4002	0	0	5	5	0.2647958	0.1489312	3	10	0.03	1800	-5.601746	40.92395	-91.39364
245740	-43	6	3	-1.011203	0.02374327	-0.8253608	0	11.8	4002	0	0	5	5	0.2647958	0.1456042	3	10	0.03	1800	-5.622345	40.92395	-91.39364
245840	-43	1	3	-1.015453	0.02912054	-0.8313518	0	11.74	4003	0	0	5	5	0.2647958	0.135547	3	10	0.03	1800	-5.81543	40.92395	-91.39364
245967	-43	-3	10	-1.013669	0.0294196	-0.8420512	0	11.74	4003	0	0	5	5	0.2647958	0.1273649	3	10	0.03	1800	-5.820343	40.92395	-91.39364
246130	-50	4	5	-1.011306	0.02173243	-0.853728	0	11.74	4004	0	0	5	5	0.2647958	0.08844346	3	10	0.03	1800	-5.849396	40.92395	-91.39364
246168	-47	-1	2	-1.011681	0.0262235	-0.8555009	0	11.74	4002	0	0	5	5	0.2647958	0.08305638	3	10	0.03	1800	-5.849396	40.92395	-91.39364
246296	-42	0	5	-1.017422	0.03154767	-0.8696228	0	11.74	4004	0	0	5	5	0.2647958	0.06818804	3	10	0.03	1800	-5.810608	40.92395	-91.39364
246331	-44	1	8	-1.014318	0.03176121	-0.8709677	0	11.74	4002	0	0	5	5	0.2647958	0.06597591	3	10	0.03	1800	-5.810608	40.92395	-91.39364
246461	-48	9	7	-1.010452	0.03358615	-0.8781204	0	11.74	4003	0	0	5	5	0.2647958	0.0633742	3	10	0.03	1800	-5.80069	40.92395	-91.39364
246549	-42	3	0	-1.00662	0.03706894	-0.883195	0	11.74	4002	0	0	5	5	0.2647958	0.06487083	3	10	0.03	1800	-5.600494	40.92395	-91.39364
246677	-42	8	-2	-1.007832	0.03301108	-0.8929158	0	11.8	4002	0	0	5	5	0.2647958	0.06857133	3	10	0.03	1800	-5.84314	40.92395	-91.39364
246732	-41	-3	3	-1.012686	0.03205835	-0.8955448	0	11.8	4002	0	0	5	5	0.2647958	0.06618226	3	10	0.03	1800	-5.598236	40.92395	-91.39364
246870	-43	-2	6	-1.00271	0.03317676	-0.9088112	0	11.8	4002	0	0	5	5	0.2647958	0.06138257	3	10	0.03	1800	-5.831909	40.92395	-91.39364
246962	-39	5	6	-0.9991285	0.03405963	-0.9130297	0	11.8	4003	0	0	5	5	0.2647958	0.05506748	3	10	0.03	1800	-5.640869	40.92395	-91.39364
247050	-36	3	2	-0.9942029	0.03373548	-0.9214052	0	11.8	4003	0	0	5	5	0.2647958	0.05382141	3	10	0.03	1800	-5.868195	40.92395	-91.39364
247126	-40	0	1	-0.9846736	0.02487524	-0.9289246	0	11.8	4003	0	0	5	5	0.2647958	0.05513084	3	10	0.03	1800	-5.856689	40.92395	-91.39364
247264	-36	7	6	-0.9775058	0.02607279	-0.9393179	0	11.8	4003	0	0	5	5	0.2647958	0.05114912	3	10	0.03	1800	-5.896362	40.92395	-91.39364
247328	-43	3	2	-0.9732947	0.02450542	-0.9421311	0	11.8	4004	0	0	5	5	0.2647958	0.05076577	3	10	0.03	1800	-5.896362	40.92395	-91.39364
247534	-39	1	4	-0.9623258	0.01942759	-0.9579664	0	11.8	4003	0	0	5	5	0.2647958	0.0426331	3	10	0.03	1800	-5.895416	40.92395	-91.39364
247606	-38	-2	7	-0.959651	0.02263326	-0.9616956	0	11.8	4004	0	0	5	5	0.2647958	0.03986109	3	10	0.03	1800	-5.699707	40.92395	-91.39364
247725	-33	3	1	-0.9513017	0.02201454	-0.9751453	0	11.74	4003	0	0	5	5	0.2647958	0.0384292	3	10	0.03	1800	-6.159241	40.92395	-91.39364
247805	-41	-3	9	-0.951121	0.01989163	-0.9846826	0	11.74	4002	0	0	5	5	0.2647958	0.033124	3	10	0.03	1800	-5.675354	40.92395	-91.39364
247857	-36	-1	7	-0.9505677	0.01639505	-0.9878615	0	11.74	4003	0	0	5	5	0.2647958	0.03038111	3	10	0.03	1800	-5.675354	40.92395	-91.39364
247946	-39	-1	7	-0.9459888	0.01867121	-0.9951364	0	11.74	4002	0	0	5	5	0.2647958	0.03036696	3	10	0.03	1800	-5.945374	40.92395	-91.39364
247996	-38	-3	5	-0.947053	0.01928908	-1.000455	0	11.74	4003	0	0	5	5	0.2647958	0.03397353	3	10	0.03	1800	-5.945374	40.92395	-91.39364
248103	-40	2	9	-0.9609558	0.01563478	-1.005392	0	11.74	4002	0	0	5	5	0.2647958	0.04117129	3	10	0.03	1800	-5.946716	40.92395	-91.39364
248344	-39	4	3	-0.9595937	0.01099838	-1.020005	0	11.74	4002	0	0	5	5	0.2647958	0.06094141	3	10	0.03	1800	-5.924896	40.92395	-91.39364
248477	-41	0	4	-0.966727	0.01312066	-1.034595	0	11.8	4002	0	0	5	5	0.2647958	0.08182865	3	10	0.03	1800	-5.911041	40.92395	-91.39364
248531	-28	1	9	-0.9643156	0.0134919	-1.03918	0	11.8	4003	0	0	5	5	0.2647958	0.09726305	3	10	0.03	1800	-5.673706	40.92395	-91.39364
248660	-48	6	2	-0.9517552	0.008984523	-1.051957	0	11.8	4004	0	0	5	5	0.2647958	0.1128196	3	10	0.03	1800	-5.936066	40.92395	-91.39365
248730	-47	0	5	-0.9499948	0.01193227	-1.054281	0	11.8	4003	0	0	5	5	0.2647958	0.1225299	3	10	0.03	1800	-5.936066	40.92395	-91.39365
248812	-39	0	0	-0.9435089	0.009838992	-1.060211	0	11.8	4004	0	0	5	5	0.2647958	0.1353586	3	10	0.03	1800	-5.947235	40.92395	-91.39365
248927	-44	4	11	-0.9429883	0.01343922	-1.066996	0	11.8	4002	0	0	5	5	0.2647958	0.1465719	3	10	0.03	1800	-5.957275	40.92395	-91.39365
249063	-40	-2	6	-0.9413977	0.01545012	-1.077696	0	11.8	4004	0	0	5	5	0.2647958	0.1630664	3	10	0.03	1800	-5.710327	40.92395	-91.39365
249140	-48	9	-2	-0.9356245	0.0144272	-1.083259	0	11.8	4003	0	0	5	5	0.2647958	0.1736708	3	10	0.03	1800	-5.96286	40.92395	-91.39365
249185	-36	0	9	-0.9327493	0.01587293	-1.088456	0	11.8	4004	0	0	5	5	0.2647958	0.1848602	3	10	0.03	1800	-5.943695	40.92395	-91.39365
249298	-32	0	2	-0.9350035	0.0159913	-1.095487	0	11.8	4003	0	0	5	5	0.2647958	0.184615	3	10	0.03	1800	-5.974091	40.92395	-91.39365
249352	-47	2	3	-0.9303563	0.02029752	-1.103069	0	11.74	4002	0	0	5	5	0.2647958	0.1835759	3	10	0.03	1800	-5.949097	40.92395	-91.39365
249524	-43	-3	7	-0.9339132	0.02133021	-1.112178	0	11.74	4003	0	0	5	5	0.2647958	0.1812647	3	10	0.03	1800	-5.748718	40.92395	-91.39365
249573	-48	1	3	-0.9317498	0.02101097	-1.115052	0	11.74	4004	0	0	5	5	0.2647958	0.1806905	3	10	0.03	1800	-5.748718	40.92395	-91.39365
249664	-40	2	6	-0.9355444	0.02055577	-1.123366	0	11.74	4002	0	0	5	5	0.2647958	0.1751399	3	10	0.03	1800	-5.724396	40.92395	-91.39365
249761	-38	3	7	-0.9340683	0.02178547	-1.127217	0	11.74	4002	0	0	5	5	0.2647958	0.1714077	3	10	0.03	1800	-5.969025	40.92395	-91.39365
249903	-38	2	7	-0.931757	0.02613023	-1.136694	0	11.74	4002	0	0	5	5	0.2647958	0.1557735	3	10	0.03	1800	-5.720795	40.92395	-91.39365
250014	-40	1	2	-0.9338023	0.02331385	-1.142319	0	11.74	4002	0	0	5	5	0.2647958	0.1523041	3	10	0.03	1800	-5.967651	40.92395	-91.39365
250115	-38	5	7	-0.930972	0.0179986	-1.152468	0	11.74	4004	0	0	5	5	0.2647958	0.1575066	3	10	0.03	1800	-5.754883	40.92395	-91.39365
250180	-38	5	1	-0.9277762	0.009387813	-1.157726	0	11.74	4004	0	0	5	5	0.2647958	0.1587458	3	10	0.03	1800	-5.77652	40.92395	-91.39365
250274	-36	4	7	-0.9260873	0.006994306	-1.162739	0	11.74	4004	0	0	5	5	0.2647958	0.161293	3	10	0.03	1800	-5.959076	40.92395	-91.39365
250510	-36	3	-1	-0.9142463	0.009847585	-1.177412	0	11.74	4004	0	0	5	5	0.2647958	0.1617793	3	10	0.03	1800	-5.970398	40.92395	-91.39365
250581	-36	-8	9	-0.910422	0.01036445	-1.182486	0	11.74	4002	0	0	5	5	0.2647958	0.1630723	3	10	0.03	1800	-5.780304	40.92395	-91.39365
250694	-41	-2	4	-0.9133548	0.005536703	-1.191718	0	11.74	4002	0	0	5	5	0.2647958	0.1700133	3	10	0.03	1800	-5.785187	40.92395	-91.39365
250825	-43	8	0	-0.902572	0.005012649	-1.199727	0	11.74	4004	0	0	5	5	0.2647958	0.1835553	3	10	0.03	1800	-5.789276	40.92395	-91.39365
250877	-37	-6	6	-0.9005389	0.00753469	-1.201623	0	11.74	4003	0	0	5	5	0.2647958	0.1861789	3	10	0.03	1800	-5.995911	40.92395	-91.39365
251054	-40	-1	7	-0.8933966	0.01082841	-1.213789	0	11.74	4002	0	0	5	5	0.2647958	0.1846976	3	10	0.03	1800	-5.782715	40.92395	-91.39365
251185	-36	2	0	-0.8873369	0.01172429	-1.221247	0	11.74	4004	0	0	5	5	0.2647958	0.1904752	3	10	0.03	1800	-6.014252	40.92395	-91.39365
251230	-32	2	0	-0.8882281	0.009715728	-1.225711	0	11.8	4003	0	0	5	5	0.2647958	0.1921442	3	10	0.03	1800	-6.017914	40.92395	-91.39365
251327	-32	2	7	-0.8878739	0.00812949	-1.229684	0	11.8	4002	200	200	5	5	0.2647958	0.1969474	8	10	0.03	1800	-6.043701	40.92395	-91.39365
251423	-39	-5	2	-0.8806728	0.009990966	-1.239099	0	11.8	4002	200	200	5	5	0.2647958	0.1962924	8	10	0.03	1800	-5.811584	40.92395	-91.39365
251522	-31	6	3	-0.8782358	0.01016638	-1.242462	0	11.8	4002	200	200	5	5	0.2647958	0.1944034	8	10	0.03	1800	-6.052094	40.92395	-91.39365
251630	-45	0	6	-0.8728238	0.01642717	-1.252549	0	11.8	4002	200	200	5	5	0.2647958	0.1941824	8	10	0.03	1800	-6.062164	40.92395	-91.39365
251681	-32	2	7	-0.8737456	0.01786269	-1.255423	0	11.8	4003	0	0	5	5	0.2647958	0.195575	8	10	0.03	1800	-6.062164	40.92395	-91.39365
