time(ms)	gyro_x(deg/s)	gyro_y(deg/s)	gyro_z(deg/s)	orientation_roll(deg)	orientation_pitch(deg)	orientation_yaw(deg)	throttle	battery(V)	loop_time(uS)	pid_output_roll	pid_output_pitch	pid_output_yaw	pid_output_throttle	ultrasonic_alt	baro_alt	flight_mode	p_gain_altitude	i_gain_altitude	d_gain_altitude	compass_heading	latitude	longitude
533367	-1546	-1470	-1933	-7.134029	-12.90067	-74.6059	0	10.72	4003	64	-64	5	5	0.3309905	1.938235	8	10	0.03	1800	-8.409637	40.92389	-91.39361
533471	-1173	-1718	-1230	-9.472051	-10.33901	-74.11754	0	10.72	4003	96	-80	5	5	0.3309917	1.950157	8	10	0.03	1800	-10.50372	40.92389	-91.3936
533601	-2629	-860	1435	-6.51312	-7.927162	-74.52427	0	10.72	4002	96	-80	5	5	0.3309926	1.963556	8	10	0.03	1800	-14.5885	40.92389	-91.3936
533738	-262	1090	1988	-7.289735	-6.078125	-76.52831	0	10.72	4002	96	-96	5	5	0.3309936	1.989776	8	10	0.03	1800	-14.65222	40.92388	-91.3936
533864	-2064	2056	103	-7.196356	-9.200554	-75.16727	0	10.72	4004	96	-96	5	5	0.3309941	2.019068	8	10	0.03	1800	-17.48389	40.92388	-91.3936
533938	-1288	1786	-42	-9.213826	-9.3316	-74.80996	0	10.72	4002	96	-96	5	5	0.3309942	2.022813	8	10	0.03	1800	-18.63528	40.92388	-91.3936
534067	-688	227	-273	-7.912964	-13.04762	-75.31966	0	10.72	4003	96	-112	5	5	0.3309944	2.041153	8	10	0.03	1800	-21.29144	40.92387	-91.3936
534208	1249	-2928	-2073	-8.674293	-9.810603	-75.95176	0	10.72	4003	96	-112	5	5	0.3309946	2.059806	8	10	0.03	1800	-21.8172	40.92387	-91.3936
534324	-187	2523	-1158	-7.859828	-10.61885	-75.86359	0	11	4004	96	-128	5	5	0.3309947	2.084866	8	10	0.03	1800	-24.1839	40.92387	-91.3936
534370	-39	-1532	-1628	-6.81832	-10.67207	-75.35862	0	11	4003	96	-128	5	5	0.3309948	2.107579	8	10	0.03	1800	-24.45032	40.92387	-91.3936
534515	-1221	-1224	-1384	-6.7963	-7.322955	-74.69537	0	11	4004	96	-128	5	5	0.3309948	2.132544	8	10	0.03	1800	-26.29453	40.92387	-91.3936
534619	-410	2638	1482	-6.277489	-7.705154	-75.19854	0	11	4003	96	-128	5	5	0.3309948	2.166144	8	10	0.03	1800	-30.33713	40.92387	-91.39361
534705	55	-493	31	-5.717062	-8.97907	-75.49658	0	11	4003	64	-128	5	5	0.3309948	2.193755	8	10	0.03	1800	-28.52151	40.92387	-91.39361
534845	3392	1619	-1284	-1.875617	-8.395162	-75.26695	0	11	4003	76	-153	5	5	0.3309948	2.227484	8	10	0.03	1800	-29.42361	40.92387	-91.39361
534890	3143	3003	-796	0.2847828	-10.17646	-75.26475	0	11	4002	64	-128	5	5	0.3309948	2.240649	8	10	0.03	1800	-29.42361	40.92387	-91.39361
534996	985	-233	-108	2.881485	-11.76299	-75.43293	0	11	4002	64	-128	5	5	0.3309948	2.285434	8	10	0.03	1800	-25.04156	40.92387	-91.39361
535085	3759	2860	-553	7.633184	-15.07132	-75.45898	0	11	4003	64	-128	5	5	0.3309948	2.299703	8	10	0.03	1800	-24.45099	40.92387	-91.39361
535162	2099	-665	-1365	8.437977	-15.59876	-75.00871	0	11	4003	32	-144	5	5	0.3309948	2.331484	8	10	0.03	1800	-24.45099	40.92387	-91.39362
535296	-2320	-694	-371	3.270705	-9.946484	-74.89559	0	9.98	4003	32	-144	5	5	0.3309948	2.350832	8	10	0.03	1800	-18.46118	40.92387	-91.39362
535362	648	3946	-830	0.5189264	-13.47926	-75.4172	0	9.98	4003	0	-144	5	5	0.3309948	2.354342	8	10	0.03	1800	-18.62372	40.92387	-91.39362
535539	-912	-1105	-7	-0.291499	-15.31543	-75.30153	0	9.98	4004	-32	-144	5	5	0.3309948	2.357326	8	10	0.03	1800	-18.49927	40.92387	-91.39363
535669	2283	831	1252	0.2530044	-14.86294	-74.54872	0	9.98	4003	-32	-144	5	5	0.3309948	2.351328	8	10	0.03	1800	-15.52222	40.92387	-91.39363
535727	5871	-750	-207	2.629285	-13.69056	-74.09404	0	9.98	4003	-19	-86	5	5	0.3309948	2.343473	8	10	0.03	1800	-15.52222	40.92387	-91.39363
535828	-373	-2593	-878	9.031113	-9.68951	-74.23721	0	9.98	4002	-32	-144	5	5	0.3309948	2.329137	8	10	0.03	1800	-13.05399	40.92387	-91.39363
535927	-126	-6611	1782	3.208742	2.144988	-75.77402	0	9.98	4004	-64	-128	5	5	0.3309948	2.311234	8	10	0.03	1800	-11.06952	40.92387	-91.39364
536020	1160	-3871	-181	4.333141	6.250496	-75.58958	0	9.98	4004	-64	-128	5	5	0.3309948	2.259949	8	10	0.03	1800	-10.10681	40.92387	-91.39364
536124	649	3656	-48	3.939362	2.491519	-75.82899	0	10.49	4003	-96	-128	5	5	0.3309948	2.19165	8	10	0.03	1800	-9.418152	40.92387	-91.39365
536194	666	1946	601	4.383494	-4.12723	-75.90598	0	10.49	4004	-96	-128	5	5	0.3309948	2.175925	8	10	0.03	1800	-6.961273	40.92387	-91.39365
536283	2170	2340	929	5.228782	-5.352659	-75.83412	0	10.49	4003	-96	-112	5	5	0.3309948	2.078439	8	10	0.03	1800	-7.243042	40.92387	-91.39365
536450	3763	2553	252	9.659331	-11.81081	-75.01266	0	10.49	4002	-96	-112	5	5	0.3309948	1.971253	8	10	0.03	1800	1.372565	40.92388	-91.39365
536525	-319	-324	1026	11.55603	-10.74607	-74.77277	0	10.49	4004	-128	-96	5	5	0.3309948	1.913087	8	10	0.03	1800	4.57604	40.92388	-91.39365
536594	-933	250	1604	10.55913	-9.891007	-75.00999	0	10.49	4003	-128	-96	5	5	0.3309948	1.834154	8	10	0.03	1800	4.57604	40.92388	-91.39365
536674	-151	-2125	-398	9.232676	-7.957647	-75.10746	0	10.49	4003	-128	-96	5	5	0.3309948	1.792075	8	10	0.03	1800	5.402465	40.92388	-91.39365
536810	-1607	-299	263	8.031711	-8.013486	-75.72657	0	10.49	4003	-128	-96	5	5	0.3309948	1.57011	8	10	0.03	1800	9.676671	40.92388	-91.39365
536894	-6409	1277	484	2.245605	-6.984225	-75.77453	0	10.49	4003	-128	-96	5	5	0.3309948	1.524203	8	10	0.03	1800	12.37031	40.92388	-91.39365
536978	-2045	607	-875	-3.396582	-9.443949	-75.02467	0	10.49	4004	-128	-96	5	5	0.3309948	1.492387	8	10	0.03	1800	11.27937	40.92389	-91.39365
537137	-2907	-1613	351	-8.688156	-8.25398	-75.07809	0	9.92	4004	-128	-80	5	5	0.3309948	1.372234	8	10	0.03	1800	7.61072	40.92389	-91.39365
537185	-1391	-279	-619	-9.734042	-7.640324	-75.81303	0	9.92	4003	-128	-80	5	5	0.3309948	1.356896	8	10	0.03	1800	6.210305	40.92389	-91.39365
537307	-50	991	150	-6.960677	-5.9584	-75.88091	0	9.92	4002	-96	-64	5	5	0.3309948	1.261807	8	10	0.03	1800	4.970112	40.92389	-91.39365
537383	-989	-2631	255	-6.576042	-4.11526	-75.65191	0	9.92	4004	-96	-64	5	5	0.3309948	1.228738	8	10	0.03	1800	3.002638	40.92389	-91.39365
537519	-2290	-858	436	-8.526669	2.871493	-75.14095	0	9.92	4003	-96	-64	5	5	0.3309948	1.192761	8	10	0.03	1800	1.530667	40.92389	-91.39365
537662	-1045	-941	-464	-11.20541	2.444519	-75.90163	0	9.92	4003	-96	-48	5	5	0.3309948	1.144875	8	10	0.03	1800	-1.510345	40.92389	-91.39365
537740	2337	847	-198	-9.697423	2.039032	-75.71149	0	9.92	4002	-96	-48	5	5	0.3309948	1.130836	8	10	0.03	1800	-4.043457	40.9239	-91.39364
537879	357	1381	1154	-3.469094	-2.67879	-76.51369	0	9.92	4002	-64	-32	5	5	0.3309948	1.099039	8	10	0.03	1800	-5.949615	40.9239	-91.39364
537934	2193	1543	275	-1.924983	-2.948675	-76.29894	0	9.92	4003	-64	-16	5	5	0.3309948	1.095469	8	10	0.03	1800	-6.377747	40.9239	-91.39364
538046	2016	-1659	-1781	2.299479	-3.99953	-74.87137	0	10.49	4003	-64	-16	5	5	0.3309948	1.07917	8	10	0.03	1800	-7.982117	40.9239	-91.39364
538089	257	-1371	-1151	3.269476	-4.192386	-74.27307	0	10.49	4002	-64	0	5	5	0.3309948	1.070767	8	10	0.03	1800	-6.270416	40.9239	-91.39364
538241	501	-498	1008	3.33026	-0.8472736	-74.46699	0	10.49	4004	-64	0	5	5	0.3309948	1.060392	8	10	0.03	1800	-6.404419	40.9239	-91.39364
538297	845	-593	-1653	3.461317	-1.083565	-74.5462	0	10.49	4003	-32	0	5	5	0.3309948	1.05881	8	10	0.03	1800	-4.355621	40.9239	-91.39363
538443	-2781	-2953	-340	-0.7157547	-0.4848856	-75.12572	0	10.49	4004	-32	0	5	5	0.3309948	1.050693	8	10	0.03	1800	-4.839752	40.9239	-91.39363
538493	-3559	43	-422	-3.218757	-0.0003803628	-75.08023	0	10.49	4002	-32	0	5	5	0.3309948	1.051212	8	10	0.03	1800	-5.867218	40.9239	-91.39363
538633	-1824	-2285	-1430	-8.772536	-1.44524	-75.00564	0	10.49	4004	-32	0	5	5	0.3309948	1.056034	8	10	0.03	1800	-8.375031	40.9239	-91.39363
538722	211	-10	-1503	-8.678676	-1.71783	-75.11459	0	10.49	4003	-32	16	5	5	0.3309948	1.056587	8	10	0.03	1800	-12.39355	40.92391	-91.39363
538785	1440	844	1022	-8.051249	-2.086686	-75.09402	0	10.49	4003	-32	16	5	5	0.3309948	1.061551	8	10	0.03	1800	-14.95148	40.92391	-91.39363
538876	2062	-417	2220	-2.962102	-1.69795	-75.18085	0	9.98	4002	-38	38	5	5	0.3309948	1.077196	8	10	0.03	1800	-16.49457	40.92391	-91.39363
539017	-658	1063	-148	-0.953393	-3.366866	-75.69931	0	9.98	4002	0	32	5	5	0.3309948	1.087218	8	10	0.03	1800	-18.71765	40.92391	-91.39362
539164	1306	-1930	-744	-1.969077	-1.584857	-75.1451	0	9.98	4003	0	38	5	5	0.3309948	1.098631	8	10	0.03	1800	-19.01053	40.92391	-91.39362
539211	701	682	-507	-0.8499264	-1.785665	-74.62668	0	9.98	4002	0	32	5	5	0.3309948	1.104806	8	10	0.03	1800	-18.04074	40.92391	-91.39362
539328	78	4875	1893	-0.2079208	-7.606149	-75.04111	0	9.98	4002	0	32	5	5	0.3309948	1.121551	8	10	0.03	1800	-18.69171	40.92391	-91.39362
539386	-506	1750	1120	0.279088	-9.116732	-75.22057	0	9.98	4004	0	32	5	5	0.3309948	1.134683	8	10	0.03	1800	-18.69171	40.92391	-91.39362
539542	-1077	-2497	823	0.07863789	0.008253075	-74.60706	0	9.98	4003	0	32	5	5	0.3309948	1.175441	8	10	0.03	1800	-18.07458	40.92391	-91.39362
539591	622	-1355	-524	-0.6143112	0.8544703	-74.65482	0	9.98	4002	0	16	5	5	0.3309948	1.187633	8	10	0.03	1800	-16.46268	40.92391	-91.39362
539776	-845	3168	119	-1.076991	-4.143768	-74.72863	0	9.98	4003	-32	16	5	5	0.3309948	1.257181	8	10	0.03	1800	-17.36276	40.92391	-91.39363
539862	1252	2264	198	-0.8627005	-9.124881	-75.29424	0	10.89	4004	-32	16	5	5	0.3309948	1.281824	8	10	0.03	1800	-21.32016	40.92391	-91.39363
539896	2524	3651	505	-0.1651452	-10.43361	-75.34528	0	10.89	4004	-32	16	5	5	0.3309948	1.289574	8	10	0.03	1800	-18.68906	40.92391	-91.39363
540029	-723	4298	1667	2.075333	-14.87974	-74.57282	0	10.89	4002	-32	0	5	5	0.3309948	1.33484	8	10	0.03	1800	-17.48358	40.9239	-91.39363
540114	-880	2870	295	1.082152	-17.18902	-75.05795	0	10.89	4004	-32	0	5	5	0.3309948	1.359063	8	10	0.03	1800	-14.53796	40.9239	-91.39363
540269	-403	-2054	736	0.09487149	-11.6233	-75.70698	0	10.89	4004	-32	0	5	5	0.3309948	1.406416	8	10	0.03	1800	-12.37311	40.9239	-91.39363
540320	-349	-1711	-764	0.01343879	-11.45181	-75.74198	0	10.89	4003	-32	-16	5	5	0.3309948	1.413661	8	10	0.03	1800	-9.295044	40.9239	-91.39363
540546	55	-1875	970	2.845047	-4.973397	-75.51564	0	10.89	4004	-32	-16	5	5	0.3309948	1.465471	8	10	0.03	1800	-11.073	40.9239	-91.39363
540641	1327	3281	773	3.385088	-4.976608	-74.7026	0	10.89	4002	-32	-16	5	5	0.3309948	1.497064	8	10	0.03	1800	-12.18097	40.9239	-91.39363
540727	-775	-1176	-392	2.606399	-6.984731	-74.66877	0	10.89	4003	-32	-32	5	5	0.3309948	1.525485	8	10	0.03	1800	-10.62134	40.9239	-91.39363
540854	923	4328	-278	1.947969	-8.353318	-75.78446	0	9.87	4002	-32	-32	5	5	0.3309948	1.556172	8	10	0.03	1800	-8.021851	40.9239	-91.39363
540926	-1351	580	-2120	0.4028045	-12.32749	-74.64214	0	9.87	4003	-32	-32	5	5	0.3309948	1.587986	8	10	0.03	1800	-5.615051	40.9239	-91.39363
541066	-2214	-1371	-1664	-2.747298	-10.92729	-73.35168	0	9.87	4003	-32	-32	5	5	0.3309948	1.607762	8	10	0.03	1800	-6.420959	40.9239	-91.39363
541155	-3602	-2233	3	-5.857903	-10.88149	-73.91908	0	9.87	4004	-32	-32	5	5	0.3309948	1.625857	8	10	0.03	1800	-6.928864	40.9239	-91.39363
541275	-2282	-42	-1240	-8.930635	-10.00832	-74.91579	0	9.87	4002	0	-48	5	5	0.3309948	1.650025	8	10	0.03	1800	-9.432556	40.92389	-91.39362
541359	-307	330	1076	-8.850111	-10.10245	-75.62072	0	9.87	4004	0	-48	5	5	0.3309948	1.671742	8	10	0.03	1800	-11.47263	40.92389	-91.39362
541491	-498	1216	-1724	-7.513984	-8.451346	-76.0969	0	9.87	4002	0	-76	5	5	0.3309948	1.693942	8	10	0.03	1800	-12.92987	40.92389	-91.39362
541574	884	5215	-737	-6.553095	-15.12003	-75.58004	0	9.87	4002	0	-64	5	5	0.3309948	1.733045	8	10	0.03	1800	-18.75305	40.92389	-91.39362
541626	2325	4168	-1236	-5.592151	-17.08298	-75.19765	0	9.87	4002	0	-64	5	5	0.3309948	1.747418	8	10	0.03	1800	-18.75305	40.92389	-91.39362
541745	-339	-1097	759	-2.652748	-10.90622	-74.25956	0	10.72	4003	0	-64	5	5	0.3309948	1.78032	8	10	0.03	1800	-16.36801	40.92389	-91.39362
541897	1435	873	-83	-2.155286	-10.18594	-74.41511	0	10.72	4004	0	-64	5	5	0.3309948	1.819604	8	10	0.03	1800	-17.23761	40.92389	-91.39362
541923	1920	763	-849	-1.012183	-10.38177	-74.49392	0	10.72	4003	0	-64	5	5	0.3309948	1.824875	8	10	0.03	1800	-17.23761	40.92389	-91.39363
542015	-12	-2526	1075	-0.9906219	-7.236767	-75.35551	0	10.72	4004	-32	-64	5	5	0.3309948	1.846263	8	10	0.03	1800	-15.02454	40.92389	-91.39363
542197	-485	-810	520	0.789003	-7.377309	-74.96715	0	10.72	4002	-32	-64	5	5	0.3309948	1.886393	8	10	0.03	1800	-15.12054	40.92389	-91.39363
542286	793	937	-255	2.05325	-6.641948	-74.90523	0	10.72	4003	-32	-64	5	5	0.3309948	1.888037	8	10	0.03	1800	-17.33502	40.92389	-91.39363
542390	-157	1480	1903	0.8500302	-7.705867	-75.21185	0	10.72	4002	-32	-64	5	5	0.3309948	1.891938	8	10	0.03	1800	-16.40115	40.92389	-91.39363
542468	318	-2008	-1753	1.479061	-8.646716	-75.25124	0	10.72	4004	-32	-64	5	5	0.3309948	1.893797	8	10	0.03	1800	-16.08408	40.92389	-91.39363
542522	-516	-2913	-1740	1.540346	-8.636628	-75.58446	0	10.72	4003	-32	-48	5	5	0.3309948	1.895901	8	10	0.03	1800	-15.10077	40.92389	-91.39363
542635	733	-2015	-696	0.04740947	-2.884812	-74.68765	0	10.77	4003	-32	-48	5	5	0.3309948	1.897836	8	10	0.03	1800	-15.09128	40.92389	-91.39363
542736	1388	3409	929	1.727052	-7.426455	-74.55496	0	10.77	4004	-32	-32	5	5	0.3309948	1.898122	8	10	0.03	1800	-13.76288	40.9239	-91.39363
542819	-360	-397	975	1.849504	-8.967089	-74.96785	0	10.77	4004	-32	-32	5	5	0.3309948	1.903699	8	10	0.03	1800	-13.06094	40.9239	-91.39363
542956	283	-1006	-344	1.766122	-7.032026	-75.34264	0	10.77	4003	-32	-32	5	5	0.3309948	1.910815	8	10	0.03	1800	-13.12943	40.9239	-91.39363
543088	167	-1861	-1341	1.70538	-6.977649	-75.06348	0	10.77	4003	-32	-32	5	5	0.3309948	1.90648	8	10	0.03	1800	-11.41614	40.9239	-91.39364
543126	-99	-940	-415	1.353698	-5.922261	-75.41028	0	10.77	4002	-64	-16	5	5	0.3309948	1.904941	8	10	0.03	1800	-13.35886	40.9239	-91.39364
543227	-435	64	890	0.830325	-6.127336	-76.06738	0	10.77	4003	-64	-16	5	5	0.3309948	1.890507	8	10	0.03	1800	-11.12869	40.9239	-91.39364
543353	2532	404	-251	2.053228	-4.335615	-75.80556	0	10.77	4004	-64	0	5	5	0.3309948	1.873702	8	10	0.03	1800	-9.675323	40.9239	-91.39364
543468	1393	-1233	-782	4.133955	-5.148513	-74.51879	0	10.77	4002	-64	0	5	5	0.3309948	1.855232	8	10	0.03	1800	-10.46857	40.9239	-91.39364
543616	850	-25	200	4.036941	-5.317894	-74.24206	0	10.32	4004	-64	16	5	5	0.3309948	1.828458	8	10	0.03	1800	-7.077026	40.92391	-91.39364
543653	1370	-2241	-1061	4.937258	-5.111537	-74.37948	0	10.32	4003	-64	16	5	5	0.3309948	1.810168	8	10	0.03	1800	-7.077026	40.92391	-91.39364
543746	344	-577	-131	4.229224	-3.773134	-74.90073	0	10.32	4003	-64	16	5	5	0.3309948	1.779017	8	10	0.03	1800	-3.732819	40.92391	-91.39364
543850	276	-2585	-397	4.462441	-3.382308	-75.29647	0	10.32	4003	-64	16	5	5	0.3309948	1.748025	8	10	0.03	1800	-1.608826	40.92391	-91.39364
543955	278	987	221	5.273379	-2.133055	-74.8442	0	10.32	4003	-64	32	5	5	0.3309948	1.725366	8	10	0.03	1800	0.04997727	40.92391	-91.39364
544078	171	-679	657	3.22757	-1.922465	-75.09637	0	10.32	4003	-64	32	5	5	0.3309948	1.671966	8	10	0.03	1800	6.553243	40.92391	-91.39364
544169	216	-207	-1415	4.351851	-0.9322264	-75.19945	0	10.32	4003	-64	32	5	5	0.3309948	1.650718	8	10	0.03	1800	6.87142	40.92391	-91.39364
544261	-351	-488	532	4.332674	-0.9176468	-75.29045	0	10.32	4004	-64	32	5	5	0.3309948	1.619038	8	10	0.03	1800	7.062828	40.92391	-91.39364
544309	-261	-2206	-206	3.82698	-1.207406	-75.1398	0	10.32	4003	-64	32	5	5	0.3309948	1.607411	8	10	0.03	1800	10.72257	40.92391	-91.39364
544441	-733	-586	2275	3.868079	1.386504	-74.71389	0	10.55	4002	-64	32	5	5	0.3309948	1.572774	8	10	0.03	1800	11.43907	40.92391	-91.39364
544561	90	-1	-58	1.04128	0.1917609	-75.33675	0	10.55	4003	-32	32	5	5	0.3309948	1.561615	8	10	0.03	1800	28.47112	40.92391	-91.39363
544614	1625	2342	624	1.651975	-0.3484614	-75.50935	0	10.55	4003	-32	32	5	5	0.3309948	1.551532	8	10	0.03	1800	28.47112	40.92391	-91.39363
544716	-822	-1291	-487	4.117358	-1.025593	-75.50694	0	10.55	4004	-32	16	5	5	0.3309948	1.529906	8	10	0.03	1800	23.85679	40.92391	-91.39363
544850	-130	507	-487	4.186344	-2.39687	-74.78119	0	10.55	4004	-32	16	5	5	0.3309948	1.525481	8	10	0.03	1800	27.38341	40.9239	-91.39363
544956	304	399	-477	2.554647	-2.081023	-74.90577	0	10.55	4004	-32	0	5	5	0.3309948	1.518443	8	10	0.03	1800	27.00173	40.9239	-91.39363
544997	-691	369	-2065	2.420322	-3.512644	-74.89159	0	10.55	4004	-32	0	5	5	0.3309948	1.515235	8	10	0.03	1800	29.90544	40.9239	-91.39363
545143	-3437	2419	-1507	-3.266132	-12.5388	-75.39164	0	10.55	4002	0	0	5	5	0.3309948	1.494929	8	10	0.03	1800	28.75403	40.9239	-91.39362
545212	-504	1402	-728	-4.799917	-14.03454	-74.89984	0	10.55	4004	0	0	5	5	0.3309948	1.491112	8	10	0.03	1800	23.97377	40.9239	-91.39362
545373	-3982	1673	233	-7.684489	-18.3801	-73.78275	0	10.89	4004	0	-16	5	5	0.3309948	1.436564	8	10	0.03	1800	7.239994	40.9239	-91.39362
545426	-2151	1816	-744	-9.486492	-19.85993	-74.2831	0	10.89	4002	0	-19	5	5	0.3309948	1.428867	8	10	0.03	1800	1.39479	40.9239	-91.39362
545507	-3640	-2739	316	-10.96649	-19.08697	-74.7431	0	10.89	4003	38	-38	5	5	0.3309948	1.403854	8	10	0.03	1800	-2.92334	40.9239	-91.39362
545619	-2112	1645	1336	-15.71667	-13.63934	-75.24709	0	10.89	4003	32	-64	5	5	0.3309948	1.369073	8	10	0.03	1800	-11.67081	40.92389	-91.39362
545732	1793	3200	2258	-14.22623	-13.80021	-75.71815	0	10.89	4003	38	-76	5	5	0.3309948	1.316422	8	10	0.03	1800	-15.24933	40.92389	-91.39362
545900	-203	-509	934	-6.483812	-11.51837	-75.48646	0	10.89	4010	64	-64	5	5	0.3309948	1.252627	8	10	0.03	1800	-18.44528	40.92389	-91.39361
545938	308	369	448	-5.004745	-10.8512	-76.06233	0	10.89	4003	64	-64	5	5	0.3309948	1.238449	8	10	0.03	1800	-19.89343	40.92389	-91.39361
546043	453	-672	-1040	-4.265693	-9.872796	-76.32567	0	10.89	4003	64	-80	5	5	0.3309948	1.214962	8	10	0.03	1800	-19.89343	40.92389	-91.39361
546115	461	288	-644	-4.476734	-9.144404	-75.7481	0	10.89	4003	64	-80	5	5	0.3309948	1.191312	8	10	0.03	1800	-20.3877	40.92389	-91.39361
546282	1327	-3162	-325	-4.994737	-5.863053	-75.85955	0	11	4003	64	-80	5	5	0.3309948	1.151226	8	10	0.03	1800	-20.42014	40.92389	-91.39361
546386	-725	3268	1037	-3.783572	-4.547303	-75.12623	0	11	4002	64	-96	5	5	0.3309948	1.125744	8	10	0.03	1800	-22.34787	40.92388	-91.39361
546419	-725	3268	1037	-3.783572	-4.547303	-75.12623	0	11	4002	64	-96	5	5	0.3309948	1.108865	8	10	0.03	1800	-22.34787	40.92388	-91.39361
546551	-520	2477	1527	-3.955907	-4.507577	-75.00066	0	11	4003	64	-96	5	5	0.3309948	1.092099	8	10	0.03	1800	-23.78922	40.92388	-91.39361
546705	-970	-1790	-1803	-4.600027	-7.257702	-75.02591	0	11	4003	64	-96	5	5	0.3309948	1.071635	8	10	0.03	1800	-23.84946	40.92388	-91.39361
546736	-970	-1790	-1803	-4.600027	-7.257702	-75.02591	0	11	4003	64	-96	5	5	0.3309948	1.071203	8	10	0.03	1800	-23.84946	40.92388	-91.39361
546988	2876	1468	-4	-1.300146	-10.48621	-74.50419	0	11	4004	64	-96	5	5	0.3309948	1.092374	8	10	0.03	1800	-26.95886	40.92388	-91.39361
547089	3838	2170	-806	4.983469	-12.59878	-74.08727	0	11	4002	64	-96	5	5	0.3309948	1.105434	8	10	0.03	1800	-23.9223	40.92388	-91.39361
547137	3777	-3	289	7.024279	-12.8803	-74.00073	0	11	4003	64	-96	5	5	0.3309948	1.114365	8	10	0.03	1800	-23.9223	40.92388	-91.39361
547261	1674	-1751	1280	11.1992	-8.076171	-75.2481	0	11.06	4004	64	-96	5	5	0.3309948	1.131135	8	10	0.03	1800	-19.74722	40.92388	-91.39362
547340	-242	-212	2095	10.89997	-7.125095	-75.81927	0	11.06	4002	32	-96	5	5	0.3309948	1.148863	8	10	0.03	1800	-17.66284	40.92388	-91.39362
547453	-2071	-3904	-651	5.846038	-1.627116	-74.86961	0	11.06	4004	32	-96	5	5	0.3309948	1.167819	8	10	0.03	1800	-13.72156	40.92388	-91.39362
547542	-795	-2732	603	2.036005	3.492008	-74.26042	0	11.06	4003	32	-96	5	5	0.3309948	1.184223	8	10	0.03	1800	-13.20825	40.92388	-91.39362
547644	-621	-1106	1779	0.8637437	4.711978	-74.53397	0	11.06	4003	32	-96	5	5	0.3309948	1.203295	8	10	0.03	1800	-13.43338	40.92388	-91.39362
547926	-1028	336	-668	-1.890167	-3.802687	-74.42204	0	11.06	4004	32	-80	5	5	0.3309948	1.244812	8	10	0.03	1800	-12.11853	40.92389	-91.39362
548003	-489	1447	1164	-3.216091	-4.928415	-74.56794	0	11.06	4003	32	-80	5	5	0.3309948	1.259678	8	10	0.03	1800	-12.29242	40.92389	-91.39362
548083	706	1043	974	-2.787098	-6.039975	-74.7725	0	10.66	4004	0	-64	5	5	0.3309948	1.275043	8	10	0.03	1800	-12.7775	40.92389	-91.39362
548174	-503	-3316	-1121	-1.580205	-5.625504	-74.78525	0	10.66	4003	0	-64	5	5	0.3309948	1.301414	8	10	0.03	1800	-12.03796	40.92389	-91.39362
548236	36	-591	1636	-2.201646	-3.132607	-74.75902	0	10.66	4003	0	-64	5	5	0.3309948	1.308463	8	10	0.03	1800	-10.79947	40.92389	-91.39362
548389	1801	3321	-371	-0.1259703	-10.57285	-74.81815	0	10.66	4002	0	-64	5	5	0.3309948	1.324049	8	10	0.03	1800	-13.19162	40.92389	-91.39362
548454	-47	-383	-290	0.2533768	-11.05638	-74.82726	0	10.66	4003	0	-64	5	5	0.3309948	1.344371	8	10	0.03	1800	-13.19162	40.92389	-91.39362
548553	-305	-2171	10	-1.761098	-6.326063	-74.62613	0	10.66	4002	0	-64	5	5	0.3309948	1.361696	8	10	0.03	1800	-12.97229	40.92389	-91.39362
548646	392	513	-666	-1.894887	-6.392824	-75.13522	0	10.66	4002	0	-64	5	5	0.3309948	1.370137	8	10	0.03	1800	-11.92413	40.92389	-91.39362
548783	-240	474	1622	-0.3727606	-10.36102	-75.13519	0	10.66	4003	-32	-48	5	5	0.3309948	1.411062	8	10	0.03	1800	-11.401	40.92389	-91.39363
548885	1898	-704	460	0.9848509	-7.200533	-73.81355	0	10.66	4003	-32	-48	5	5	0.3309948	1.447822	8	10	0.03	1800	-11.47644	40.92389	-91.39363
548951	553	-869	343	1.296639	-6.293728	-73.56063	0	10.66	4002	-32	-48	5	5	0.3309948	1.461939	8	10	0.03	1800	-10.1152	40.92389	-91.39363
549118	-591	-1046	1191	2.266113	-5.492887	-74.3745	0	10.49	4004	-32	-48	5	5	0.3309948	1.515473	8	10	0.03	1800	-5.450165	40.92389	-91.39363
549171	-1381	-1185	604	1.69889	-4.91267	-74.88839	0	10.49	4003	-32	-48	5	5	0.3309948	1.530352	8	10	0.03	1800	-5.450165	40.92389	-91.39363
549328	1149	2907	391	1.059939	-6.804647	-75.94831	0	10.49	4004	-32	-32	5	5	0.3309948	1.550674	8	10	0.03	1800	-7.20752	40.9239	-91.39363
549420	-1914	-1239	170	0.9804964	-8.088277	-75.66589	0	10.49	4002	-32	-32	5	5	0.3309948	1.55692	8	10	0.03	1800	-3.908417	40.9239	-91.39363
549457	-1171	-1157	440	0.6816878	-7.768192	-75.40888	0	10.49	4002	-32	-32	5	5	0.3309948	1.560113	8	10	0.03	1800	-3.908417	40.9239	-91.39363
549665	956	17	1123	1.41915	-6.579764	-73.92065	0	10.49	4002	-32	-32	5	5	0.3309948	1.577292	8	10	0.03	1800	-7.301331	40.9239	-91.39363
549721	1820	-150	-1429	1.019426	-7.441995	-74.46468	0	10.49	4003	-32	-32	5	5	0.3309948	1.581067	8	10	0.03	1800	-6.989868	40.9239	-91.39363
549813	-941	-2347	-149	1.771639	-7.737834	-75.11456	0	10.49	4003	-32	-32	5	5	0.3309948	1.578336	8	10	0.03	1800	-6.989868	40.9239	-91.39363
549863	-2097	-752	2123	0.8283972	-6.69564	-75.50471	0	10.49	4004	-32	-32	5	5	0.3309948	1.571957	8	10	0.03	1800	-4.3974	40.9239	-91.39363
550004	1092	-855	-904	1.56711	-5.853936	-75.60119	0	10.09	4002	-38	-38	5	5	0.3309948	1.570903	8	10	0.03	1800	-3.262787	40.9239	-91.39363
550070	874	1233	1436	3.297642	-6.728113	-74.67101	0	10.09	4004	-32	-32	5	5	0.3309948	1.570206	8	10	0.03	1800	-2.111786	40.9239	-91.39363
550196	-901	-795	1478	1.535232	-6.29987	-74.35527	0	10.09	4003	-32	-32	5	5	0.3309948	1.570538	8	10	0.03	1800	-2.16217	40.9239	-91.39363
550321	1279	893	-35	3.108473	-3.830536	-74.17865	0	10.09	4003	0	-16	5	5	0.3309948	1.570012	8	10	0.03	1800	-1.245972	40.9239	-91.39362
550449	-1077	-980	173	1.466226	-6.444334	-75.6689	0	10.09	4002	0	-16	5	5	0.3309948	1.565684	8	10	0.03	1800	-1.722992	40.9239	-91.39362
550508	28	-3471	-873	0.2103378	-3.237859	-76.2996	0	10.09	4003	0	-16	5	5	0.3309948	1.565409	8	10	0.03	1800	-0.4473572	40.9239	-91.39362
550591	1253	810	-1483	1.318361	-2.25732	-75.39847	0	10.09	4003	0	-16	5	5	0.3309948	1.572369	8	10	0.03	1800	2.099418	40.9239	-91.39362
550736	327	365	-2090	1.347028	-8.845011	-73.57024	0	10.09	4002	0	-38	5	5	0.3309948	1.588659	8	10	0.03	1800	3.422991	40.9239	-91.39362
550874	-1668	-3817	-949	-0.03948355	-6.396611	-73.22472	0	10.09	4003	0	-32	5	5	0.3309948	1.604407	8	10	0.03	1800	3.078307	40.9239	-91.39362
550915	-1612	-2060	142	-1.663453	-4.332596	-73.86286	0	9.87	4004	0	-32	5	5	0.3309948	1.607342	8	10	0.03	1800	3.224803	40.9239	-91.39362
550973	237	2689	3138	-2.821039	-4.429839	-75.14909	0	9.87	4003	32	-48	5	5	0.3309948	1.620472	8	10	0.03	1800	5.82966	40.92389	-91.39362
551084	75	743	780	-1.113289	-7.750677	-76.01524	0	9.87	4003	32	-48	5	5	0.3309948	1.639324	8	10	0.03	1800	5.82081	40.92389	-91.39362
551203	-378	383	-759	-2.613456	-10.32717	-76.60415	0	9.87	4002	32	-48	5	5	0.3309948	1.653608	8	10	0.03	1800	3.354498	40.92389	-91.39362
551277	-271	-2112	-1009	-1.953605	-9.814687	-75.86851	0	9.87	4004	38	-57	5	5	0.3309948	1.656413	8	10	0.03	1800	0.04863433	40.92389	-91.39362
551447	79	-1128	-1745	-3.66794	-6.191187	-74.28591	0	9.87	4002	64	-64	5	5	0.3309948	1.677518	8	10	0.03	1800	-2.705719	40.92389	-91.39361
551505	473	2014	-264	-2.852506	-6.935758	-74.95751	0	9.87	4004	64	-64	5	5	0.3309948	1.686535	8	10	0.03	1800	-5.062012	40.92389	-91.39361
551576	-524	1117	134	-2.574725	-7.697653	-75.15958	0	9.87	4004	64	-64	5	5	0.3309948	1.690909	8	10	0.03	1800	-5.062012	40.92389	-91.39361
551750	-1447	-768	-77	-3.844354	-5.500667	-75.54971	0	9.87	4003	64	-96	5	5	0.3309948	1.716951	8	10	0.03	1800	-7.877197	40.92388	-91.39361
551893	-1100	865	167	-4.164581	-8.84083	-75.01041	0	10.21	4004	64	-96	5	5	0.3309948	1.724165	8	10	0.03	1800	-12.89548	40.92388	-91.39361
552024	-818	-1052	-563	-2.429294	-10.17076	-75.15231	0	10.21	4003	96	-112	5	5	0.3309948	1.723599	8	10	0.03	1800	-16.53128	40.92387	-91.3936
552088	-1575	-27	1627	-2.807335	-9.423184	-75.36693	0	10.21	4003	96	-112	5	5	0.3309948	1.722348	8	10	0.03	1800	-16.53128	40.92387	-91.3936
552203	-1150	2699	231	-4.752632	-6.549748	-75.42168	0	10.21	4003	96	-128	5	5	0.3309948	1.704172	8	10	0.03	1800	-20.75452	40.92387	-91.3936
552389	-574	447	-1643	-3.471622	-14.62599	-74.32652	0	10.21	4003	96	-128	5	5	0.3309948	1.682693	8	10	0.03	1800	-21.43823	40.92387	-91.3936
552496	-2198	-1005	913	-6.352122	-12.23948	-73.94085	0	10.21	4003	128	-160	5	5	0.3309948	1.662087	8	10	0.03	1800	-21.74808	40.92387	-91.39359
552644	-1566	1678	88	-9.350135	-7.618546	-75.6518	0	10.21	4003	128	-160	5	5	0.3309948	1.624791	8	10	0.03	1800	-24.1467	40.92387	-91.39359
552709	-772	2296	-765	-9.796903	-8.729016	-76.10885	0	10.21	4004	128	-160	5	5	0.3309948	1.604956	8	10	0.03	1800	-24.1467	40.92387	-91.39359
552800	-149	2700	342	-7.315105	-12.9969	-75.5993	0	10.32	4004	128	-160	5	5	0.3309948	1.579536	8	10	0.03	1800	-23.87698	40.92387	-91.39359
552916	115	3017	-1251	-7.797686	-14.87546	-74.09453	0	10.32	4003	128	-176	5	5	0.3309948	1.520189	8	10	0.03	1800	-27.19897	40.92386	-91.39359
552995	-708	446	1984	-7.58221	-15.98591	-74.32931	0	10.32	4004	128	-176	5	5	0.3309948	1.500572	8	10	0.03	1800	-27.19897	40.92385	-91.39359
553098	-812	196	903	-7.705796	-13.17165	-75.1424	0	10.32	4003	128	-192	5	5	0.3309948	1.488285	8	10	0.03	1800	-26.54648	40.92385	-91.39359
553253	-856	19	-2342	-8.20515	-13.78779	-75.38314	0	10.32	4003	128	-192	5	5	0.3309948	1.444408	8	10	0.03	1800	-28.72586	40.92385	-91.39359
553371	-383	782	1519	-10.39958	-14.824	-74.85211	0	10.32	4004	128	-192	5	5	0.3309948	1.430626	8	10	0.03	1800	-29.61359	40.92385	-91.3936
553425	0	1310	144	-10.13218	-14.5502	-74.77473	0	10.32	4004	96	-192	5	5	0.3309948	1.42625	8	10	0.03	1800	-30.15152	40.92385	-91.3936
553523	-824	3374	1876	-8.59742	-16.87358	-75.56634	0	10.32	4002	96	-192	5	5	0.3309948	1.424463	8	10	0.03	1800	-30.673	40.92385	-91.3936
553667	2605	2424	1145	-3.503016	-17.99121	-74.77791	0	10.32	4002	96	-192	5	5	0.3309948	1.45397	8	10	0.03	1800	-29.29889	40.92385	-91.3936
553783	3751	-2711	-1276	0.2133197	-15.69413	-73.784	0	9.75	4004	96	-176	5	5	0.3309948	1.496228	8	10	0.03	1800	-28.96048	40.92386	-91.3936
553831	4361	1661	1269	4.689551	-14.81274	-73.98431	0	9.75	4002	96	-176	5	5	0.3309948	1.517585	8	10	0.03	1800	-27.06555	40.92386	-91.3936
553889	1115	-2799	269	6.712727	-10.43761	-75.11864	0	9.75	4002	64	-160	5	5	0.3309948	1.60444	8	10	0.03	1800	-22.4826	40.92387	-91.39361
553909	2539	-2980	-668	7.67073	-7.710356	-74.89178	0	9.75	4002	64	-160	5	5	0.3309948	1.639173	8	10	0.03	1800	-22.33127	40.92387	-91.39361
554022	-476	-3729	1202	8.311368	-2.490881	-74.81213	0	9.75	4002	32	-144	5	5	0.3309948	1.69488	8	10	0.03	1800	-21.97961	40.92387	-91.39362
554053	-322	-6818	1138	5.735353	6.672596	-75.44022	0	9.75	4003	32	-144	5	5	0.3309948	1.722822	8	10	0.03	1800	-23.13464	40.92387	-91.39362
554074	-1433	-8654	-126	4.712747	10.04196	-75.53347	0	9.75	4004	32	-112	5	5	0.3309948	1.728234	8	10	0.03	1800	-23.13464	40.92387	-91.39362
554252	2994	2517	312	2.307109	12.56354	-76.06686	0	9.75	4003	300	300	5	5	0.3309948	1.769258	8	10	0.03	1800	-27.52142	40.92389	-91.39362
554366	3547	2101	-288	6.398633	4.941621	-76.46582	0	10.83	4003	0	0	5	5	0.3309948	1.761244	1	10	0.03	1800	-24.3446	40.92389	-91.39362
554507	1391	3635	258	13.0171	-0.6209468	-78.70569	0	10.83	4003	0	0	5	5	0.3309948	1.735915	1	10	0.03	1800	-17.50464	40.92389	-91.39362
554597	538	31613	2594	18.23089	-17.82862	-80.17429	0	10.83	4002	0	0	5	5	0.3309948	1.509693	1	10	0.03	1800	-40.42068	40.9239	-91.39363
554650	-8409	18482	1654	15.35618	-43.86539	-83.65122	0	10.83	4002	0	0	5	5	0.3309948	1.494066	1	10	0.03	1800	-12.99319	40.9239	-91.39363
554769	-1724	18113	10918	2.679826	-66.66232	-78.85288	0	10.83	4002	0	0	5	5	0.3309948	1.305161	1	10	0.03	1800	-10.42606	40.9239	-91.39363
554928	4326	7207	-2316	17.4857	-99.33951	-87.7197	0	10.83	4004	0	0	5	5	0.3309948	0.9406098	1	10	0.03	1800	13.68588	40.92391	-91.39363
554983	6132	2435	-4942	16.4256	-99.17489	-85.65936	0	10.83	4003	0	0	5	5	0.3309948	0.9066933	1	10	0.03	1800	7.588902	40.92391	-91.39363
555042	1128	3866	-4988	1.414074	-95.77062	-74.61219	0	10.83	4003	0	0	5	5	0.3309948	0.8668922	1	10	0.03	1800	-6.341858	40.92391	-91.39363
555146	330	3615	-1496	-3.653986	-94.39507	-72.09393	0	10.83	4002	0	0	5	5	0.3309948	0.6354365	1	10	0.03	1800	-22.1485	40.92391	-91.39363
555326	80	411	-287	-7.241467	-77.80383	-71.53097	0	11	4003	0	0	5	5	0.3309948	0.5487785	1	10	0.03	1800	-27.40512	40.92392	-91.39363
555383	-30	-63	46	-8.185834	-73.38504	-71.35997	0	11	4002	0	0	5	5	0.3309948	0.4985684	1	10	0.03	1800	-28.80276	40.92392	-91.39363
555496	-26	-14	16	-9.399467	-65.37471	-71.4149	0	11	4003	0	0	5	5	0.3309948	0.403272	1	10	0.03	1800	-30.92627	40.92392	-91.39363
555554	-33	26	-9	-9.941815	-61.88603	-71.43297	0	11	4004	0	0	5	5	0.3309948	0.3380461	1	10	0.03	1800	-32.42487	40.92392	-91.39363
555620	-23	6	-2	-10.21043	-60.26723	-71.42747	0	11	4002	0	0	5	5	0.3309948	0.2955675	1	10	0.03	1800	-32.42487	40.92392	-91.39363
555806	-27	1	2	-11.34107	-53.14915	-71.44481	0	11	4002	0	0	5	5	0.3309948	0.2144613	1	10	0.03	1800	-36.10315	40.92392	-91.39364
555853	-23	-4	3	-11.90786	-49.59385	-71.45525	0	11	4003	0	0	5	5	0.3309948	0.1983696	1	10	0.03	1800	-37.22849	40.92391	-91.39364
555950	-25	0	1	-12.40077	-46.48592	-71.46245	0	11	4003	0	0	5	5	0.3309948	0.1779799	1	10	0.03	1800	-38.36606	40.92391	-91.39364
556075	-18	0	-8	-12.96178	-42.94715	-71.47258	0	11	4002	0	0	5	5	0.3309948	0.1699174	1	10	0.03	1800	-41.02469	40.92391	-91.39364
556120	-22	-8	0	-13.20578	-41.40001	-71.48302	0	11.06	4004	0	0	5	5	0.3309948	0.1674702	1	10	0.03	1800	-41.79733	40.92391	-91.39364
556197	-18	-10	7	-13.42988	-39.99092	-71.48759	0	11.06	4003	0	0	5	5	0.3309948	0.1640494	1	10	0.03	1800	-42.93082	40.92391	-91.39363
556306	-19	3	1	-13.63901	-38.70012	-71.49229	0	11.06	4002	0	0	5	5	0.3309948	0.1470336	1	10	0.03	1800	-43.99072	40.92391	-91.39363
556409	-22	1	5	-13.99744	-36.44607	-71.50664	0	11.06	4002	0	0	5	5	0.3309948	0.1183505	1	10	0.03	1800	-45.53235	40.92391	-91.39363
556507	-27	0	3	-14.22926	-35.00099	-71.51439	0	11.06	4002	0	0	5	5	0.3309948	0.109366	1	10	0.03	1800	-46.40045	40.92391	-91.39363
556614	-15	6	0	-14.49285	-33.35913	-71.5258	0	11.06	4003	0	0	5	5	0.3309948	0.09535766	1	10	0.03	1800	-47.74176	40.92391	-91.39363
556791	-22	-1	6	-14.75954	-31.67813	-71.54027	0	11.06	4003	0	0	5	5	0.3309948	0.07322124	1	10	0.03	1800	-49.67148	40.92391	-91.39363
556827	-21	4	4	-14.80617	-31.38708	-71.54356	0	11.06	4003	0	0	5	5	0.3309948	0.07022689	1	10	0.03	1800	-49.67148	40.92391	-91.39363
556983	-27	2	3	-14.97598	-30.33792	-71.55608	0	11.06	4004	0	0	5	5	0.3309948	0.04334367	1	10	0.03	1800	-50.67044	40.92392	-91.39363
557041	-20	0	4	-15.01396	-30.10026	-71.55876	0	11.06	4004	0	0	5	5	0.3309948	0.03578072	1	10	0.03	1800	-51.10233	40.92392	-91.39363
557123	-25	-1	11	-15.14562	-29.45987	-71.56853	0	11.06	4004	0	0	5	5	0.3309948	0.02723007	1	10	0.03	1800	-51.59598	40.92392	-91.39363
557238	-13	-3	12	-15.2287	-28.72744	-71.58	0	11.06	4002	0	0	5	5	0.3309948	0.01302178	1	10	0.03	1800	-52.25427	40.92392	-91.39363
557394	-20	-1	13	-15.32571	-28.12158	-71.59367	0	11.06	4003	0	0	5	5	0.3309948	-0.0256938	1	10	0.03	1800	-52.93213	40.92391	-91.39363
557465	-18	0	7	-15.36893	-27.85339	-71.60222	0	11.06	4004	0	0	5	5	0.3309948	-0.03509665	1	10	0.03	1800	-52.90488	40.9239	-91.39363
557588	-23	0	-1	-15.44535	-27.39213	-71.6118	0	11.06	4002	0	0	5	5	0.3309948	-0.05906764	1	10	0.03	1800	-53.34625	40.9239	-91.39363
557623	-26	1	11	-15.46517	-27.28769	-71.61449	0	11.06	4003	0	0	5	5	0.3309948	-0.06391561	1	10	0.03	1800	-53.34625	40.9239	-91.39363
557745	-14	-4	9	-15.51298	-26.91219	-71.62767	0	11.06	4003	0	0	5	5	0.3309948	-0.07500636	1	10	0.03	1800	-53.77957	40.9239	-91.39363
557832	-18	0	5	-15.55128	-26.67529	-71.63542	0	11.06	4002	0	0	5	5	0.3309948	-0.07779627	1	10	0.03	1800	-54.05496	40.9239	-91.39362
557922	-16	-2	4	-15.58381	-26.4709	-71.64549	0	11.06	4002	0	0	5	5	0.3309948	-0.07315551	1	10	0.03	1800	-54.04062	40.9239	-91.39362
558001	-13	-2	3	-15.59489	-26.4063	-71.64769	0	11.06	4002	0	0	5	5	0.3309948	-0.07558349	1	10	0.03	1800	-54.04062	40.9239	-91.39362
558146	-2	-11	7	-15.62797	-26.07051	-71.66791	0	11.06	4003	0	0	5	5	0.3309948	-0.08497417	1	10	0.03	1800	-54.66644	40.9239	-91.39362
558222	-20	-2	-1	-15.64643	-25.98198	-71.67151	0	11.06	4003	0	0	5	5	0.3309948	-0.09709743	1	10	0.03	1800	-54.75613	40.9239	-91.39362
558383	-17	0	2	-15.67527	-25.8268	-71.68506	0	11.06	4003	0	0	5	5	0.3309948	-0.1136703	1	10	0.03	1800	-54.93088	40.9239	-91.39362
558422	-16	2	6	-15.67805	-25.79364	-71.69025	0	11.06	4003	0	0	5	5	0.3309948	-0.1145145	1	10	0.03	1800	-54.93088	40.9239	-91.39362
558562	-18	-1	6	-15.71031	-25.6402	-71.70416	0	11.06	4004	0	0	5	5	0.3309948	-0.1345586	1	10	0.03	1800	-54.99774	40.9239	-91.39362
558604	-26	-5	2	-15.71902	-25.61499	-71.70605	0	11.06	4003	0	0	5	5	0.3309948	-0.137015	1	10	0.03	1800	-54.99774	40.9239	-91.39362
558734	4344	-13727	-517	-11.14832	-14.74616	-68.57931	0	11.06	4003	0	0	5	5	0.3309948	-0.1457112	1	10	0.03	1800	-58.12253	40.9239	-91.39362
558875	2833	-2607	-2829	-5.809525	0.2243859	-66.71558	0	11.06	4003	0	0	5	5	0.3309948	-0.1615068	1	10	0.03	1800	-52.75748	40.9239	-91.39362
558975	2630	-179	-5982	-8.306733	-7.241812	-57.77674	0	11.06	4004	0	0	5	5	0.3309948	-0.1738147	1	10	0.03	1800	-55.56793	40.9239	-91.39363
559079	-67	681	-5122	-10.57214	-8.583385	-51.42901	0	11.06	4004	0	0	5	5	0.3309948	-0.1685325	1	10	0.03	1800	-62.72943	40.9239	-91.39363
559124	-1136	309	-4029	-13.09307	-9.571594	-48.86615	0	11.06	4003	0	0	5	5	0.3309948	-0.1644169	1	10	0.03	1800	-62.72943	40.9239	-91.39363
559264	2104	-6301	-1170	-19.95806	-6.933362	-44.09674	0	11.06	4003	0	0	5	5	0.3309948	-0.1236164	1	10	0.03	1800	-70.61368	40.9239	-91.39363
559351	7712	-12115	309	-15.11918	2.284734	-42.97804	0	11.06	4003	0	0	5	5	0.3309948	-0.1100707	1	10	0.03	1800	-67.25592	40.9239	-91.39363
559420	8529	-14317	932	-11.8876	7.323602	-43.3572	0	11.06	4004	0	0	5	5	0.3309948	-0.08459163	1	10	0.03	1800	-62.75879	40.9239	-91.39363
559571	-3183	-2341	4518	-15.63077	23.82666	-49.96284	0	11.06	4002	0	0	5	5	0.3309948	1.020888E-05	1	10	0.03	1800	-49.9805	40.9239	-91.39362
559672	181	4098	5866	-25.3972	10.41264	-57.6647	0	11.06	4002	0	0	5	5	0.3309948	0.04145901	1	10	0.03	1800	-42.65045	40.9239	-91.39362
559799	-3067	-5193	4013	-31.77645	-0.5205743	-70.57086	0	11.06	4003	0	0	5	5	0.3309948	0.1069583	1	10	0.03	1800	-32.36322	40.92391	-91.39363
559866	-2586	-5066	2923	-36.1916	-0.2294526	-74.18971	0	11.06	4002	0	0	5	5	0.3309948	0.1577143	1	10	0.03	1800	-26.06851	40.92391	-91.39363
559944	1865	-5351	138	-36.31833	1.351098	-76.49829	0	11.06	4003	0	0	5	5	0.3309948	0.1889405	1	10	0.03	1800	-21.30936	40.92391	-91.39363
560027	568	-1377	-426	-33.5312	0.09896839	-76.23855	0	11.06	4008	0	0	5	5	0.3309948	0.2249629	1	10	0.03	1800	-14.61899	40.92391	-91.39363
560201	2951	-1835	1201	-29.83914	-2.155728	-74.78326	0	11.06	4002	0	0	5	5	0.3309948	0.2690904	1	10	0.03	1800	-14.78354	40.92391	-91.39363
560248	4290	-944	3223	-27.22178	-4.244428	-76.07175	0	11.06	4002	0	0	5	5	0.3309948	0.2742679	1	10	0.03	1800	-14.78354	40.92391	-91.39362
560424	4250	-3260	2747	-16.4873	-10.25185	-91.36287	0	11.06	4002	0	0	5	5	0.3309948	0.2945689	1	10	0.03	1800	-5.630798	40.9239	-91.39362
560604	-74	-7254	986	-5.135827	2.907301	-91.01111	0	11.06	4003	0	0	5	5	0.3309948	0.2829702	1	10	0.03	1800	0.5050036	40.9239	-91.39362
560641	-369	-8696	1017	-5.244565	7.029599	-91.63102	0	11.06	4002	0	0	5	5	0.3309948	0.2787664	1	10	0.03	1800	1.95777	40.9239	-91.39362
560704	-633	-753	-700	-5.181386	12.16587	-91.34665	0	11.06	4002	0	0	5	5	0.3309948	0.2708109	1	10	0.03	1800	2.307835	40.9239	-91.39362
560873	-209	-1189	177	-3.681083	8.66354	-88.68467	0	11.06	4002	0	0	5	5	0.3309948	0.2728594	1	10	0.03	1800	-0.5550537	40.9239	-91.39362
560916	-203	-585	13	-3.666781	9.093259	-88.72404	0	11.06	4002	0	0	5	5	0.3309948	0.2750511	1	10	0.03	1800	-0.5550537	40.9239	-91.39362
561039	301	-561	132	-3.10112	7.858068	-88.79645	0	11.06	4003	0	0	5	5	0.3309948	0.2791782	1	10	0.03	1800	-0.657074	40.9239	-91.39362
561103	353	-669	-24	-2.44264	7.879267	-88.77682	0	11.06	4002	0	0	5	5	0.3309948	0.2720931	1	10	0.03	1800	-0.7327881	40.9239	-91.39362
561292	-16	-33	56	-2.46257	5.764628	-88.79488	0	11.06	4003	0	0	5	5	0.3309948	0.2563727	1	10	0.03	1800	-1.910278	40.9239	-91.39362
561324	116	-237	44	-2.166122	5.435284	-88.81018	0	11.06	4003	0	0	5	5	0.3309948	0.2568267	1	10	0.03	1800	-1.842377	40.9239	-91.39362
561404	-25	28	-41	-1.990565	4.996977	-88.81023	0	11.06	4004	0	0	5	5	0.3309948	0.2527041	1	10	0.03	1800	-1.950439	40.9239	-91.39362
561507	-60	53	5	-2.02588	4.058391	-88.82521	0	11.06	4002	0	0	5	5	0.3309948	0.2461033	1	10	0.03	1800	-2.171631	40.9239	-91.39362
561638	45	-81	40	-1.815122	3.099705	-88.8452	0	11.06	4003	0	0	5	5	0.3309948	0.2363704	1	10	0.03	1800	-2.431091	40.9239	-91.39362
561718	-59	59	-9	-1.725449	2.805957	-88.84959	0	11.06	4004	0	0	5	5	0.3309948	0.2221341	1	10	0.03	1800	-2.738678	40.9239	-91.39362
561835	9	-30	4	-1.613856	2.211674	-88.85625	0	11.06	4004	0	0	5	5	0.3309948	0.2173732	1	10	0.03	1800	-3.009796	40.9239	-91.39362
561970	-8	-17	8	-1.512031	1.837162	-88.86021	0	11.06	4003	0	0	5	5	0.3309948	0.2040451	1	10	0.03	1800	-3.226288	40.9239	-91.39362
562070	-13	3	4	-1.412109	1.424445	-88.87016	0	11.06	4004	0	0	5	5	0.3309948	0.2002163	1	10	0.03	1800	-3.53009	40.9239	-91.39363
562217	-16	0	6	-1.335064	1.080089	-88.87999	0	11.06	4004	0	0	5	5	0.3309948	0.204119	1	10	0.03	1800	-3.48465	40.9239	-91.39363
562354	-14	-4	2	-1.271115	0.7932104	-88.88884	0	11.06	4004	0	0	5	5	0.3309948	0.2110444	1	10	0.03	1800	-3.424316	40.9239	-91.39363
562420	-17	1	2	-1.243888	0.6671557	-88.89262	0	11.06	4003	0	0	5	5	0.3309948	0.2148988	1	10	0.03	1800	-3.907227	40.9239	-91.39363
562505	-14	-6	5	-1.194477	0.4975062	-88.90117	0	11.06	4003	0	0	5	5	0.3309948	0.2273965	3	10	0.03	1800	-3.827362	40.9239	-91.39363
562613	-11	-5	10	-1.168556	0.3920444	-88.90666	0	11.06	4002	0	0	5	5	0.3309948	0.2390451	3	10	0.03	1800	-3.877014	40.9239	-91.39363
562745	-13	0	2	-1.122036	0.1723685	-88.91795	0	11.06	4002	0	0	5	5	0.3309948	0.2478168	8	10	0.03	1800	-4.199341	40.9239	-91.39363
562810	-8	-7	5	-1.109021	0.1011201	-88.92308	0	11.06	4003	300	300	5	5	0.3309948	0.2484861	8	10	0.03	1800	-4.004852	40.9239	-91.39363
562995	-16	0	12	-1.06082	-0.05939887	-88.93547	0	11.06	4003	300	300	5	5	0.3309948	0.2537219	8	10	0.03	1800	-4.28595	40.9239	-91.39363
563038	-13	1	0	-1.050737	-0.08811084	-88.93785	0	11.06	4003	300	300	5	5	0.3309948	0.2503501	8	10	0.03	1800	-4.338989	40.9239	-91.39363
563168	-15	3	0	-1.013438	-0.2087272	-88.94963	0	11.06	4002	300	300	5	5	0.3309948	0.2424743	8	10	0.03	1800	-4.219727	40.9239	-91.39363
563245	-13	0	4	-1.00983	-0.2275503	-88.95061	0	11.06	4003	0	0	5	5	0.3309948	0.2391262	8	10	0.03	1800	-4.431091	40.9239	-91.39363
563353	-12	2	3	-0.9854012	-0.2999997	-88.95738	0	11.06	4004	0	0	5	5	0.3309948	0.2439941	8	10	0.03	1800	-4.460846	40.9239	-91.39363
563440	-18	0	6	-0.9829707	-0.3353165	-88.96147	0	11.06	4003	0	0	5	5	0.3309948	0.2485455	3	10	0.03	1800	-4.47998	40.9239	-91.39363
563515	-16	-4	4	-0.9714174	-0.3644474	-88.96587	0	11.06	4003	0	0	5	5	0.3309948	0.2521915	3	10	0.03	1800	-4.249878	40.9239	-91.39363
563663	-14	0	6	-0.947987	-0.4428648	-88.9785	0	11.06	4004	0	0	5	5	0.253565	0.2663295	8	10	0.03	1800	-4.540009	40.9239	-91.39363
563747	-20	2	0	-0.9404226	-0.4639225	-88.98228	0	11.06	4003	0	0	5	5	0.1971187	0.2705318	8	10	0.03	1800	-4.355774	40.9239	-91.39363
563824	-12	-2	8	-0.9386395	-0.4886528	-88.98656	0	11.06	4003	0	0	5	5	0.1682686	0.275104	8	10	0.03	1800	-4.328247	40.9239	-91.39363
564030	-16	-7	5	-0.9286261	-0.5375724	-88.99925	0	11.06	4004	0	0	5	5	0.1106736	0.2736354	6	10	0.03	1800	-4.377533	40.9239	-91.39363
564128	-17	3	6	-0.9231811	-0.5554672	-89.00829	0	11.06	4003	0	0	5	5	0.08823617	0.2684731	6	10	0.03	1800	-4.381927	40.9239	-91.39363
