time(ms)	gyro_x(deg/s)	gyro_y(deg/s)	gyro_z(deg/s)	orientation_roll(deg)	orientation_pitch(deg)	orientation_yaw(deg)	throttle	battery(V)	loop_time(uS)	pid_output_roll	pid_output_pitch	pid_output_yaw	pid_output_throttle	ultrasonic_alt	baro_alt	flight_mode
458666	-20	-25	4	-0.4618263	-0.02544802	5.438593	0	11.11	4004	0	0	0	0	1.371657	0.1690553	1
458702	-24	-24	4	-0.4237257	-0.01398686	5.436637	0	11.11	4002	0	0	0	0	1.371657	0.1699733	1
458818	-23	-26	5	-0.422843	-0.02891665	5.430586	0	11.11	4004	0	0	0	0	1.371657	0.1728144	1
458908	-26	-24	3	-0.4365065	-0.04275958	5.42753	0	11.11	4002	0	0	0	0	1.371657	0.1746785	1
459011	-31	-26	2	-0.4341021	-0.05203512	5.423678	0	11.11	4002	0	0	0	0	1.371657	0.1712688	1
459120	-21	-23	7	-0.4316147	-0.03822038	5.416465	0	11.11	4004	0	0	0	0	1.371657	0.1708753	1
459246	-26	-20	-4	-0.4339803	-0.04633356	5.411758	0	11.11	4004	0	0	0	0	1.371657	0.1751026	1
459394	-24	-27	7	-0.4342977	-0.0227981	5.404484	0	11.11	4002	0	0	0	0	1.371657	0.1919563	1
459473	-18	-19	0	-0.416559	-0.03424893	5.398982	0	11.11	4002	0	0	0	0	1.371657	0.1979389	1
459513	-33	-22	2	-0.4084214	-0.02109209	5.39727	0	11.11	4004	0	0	0	0	1.371657	0.2048507	1
459622	-19	-16	3	-0.4099296	-0.03507521	5.393664	0	11.17	4002	0	0	0	0	1.371657	0.2092114	1
459729	-23	-23	0	-0.4186226	-0.04349369	5.386755	0	11.17	4002	0	0	0	0	1.371657	0.2064684	1
459843	-12	-26	4	-0.4155727	-0.04307554	5.380274	0	11.17	4004	0	0	0	0	1.371657	0.2098828	1
459926	-31	-14	0	-0.4071384	-0.05133245	5.375444	0	11.17	4003	0	0	0	0	1.371657	0.2121674	1
460063	-27	-18	1	-0.4123207	-0.06158049	5.368905	0	11.17	4003	0	0	0	0	1.371657	0.2087199	1
460139	-19	-23	6	-0.4011083	-0.0425984	5.365909	0	11.17	4003	0	0	0	0	1.371657	0.2060988	1
460237	-7	-19	0	-0.4091761	-0.0414998	5.358389	0	11.17	4004	0	0	0	0	1.371657	0.1971166	1
460337	-19	-22	7	-0.4016891	-0.03849072	5.352704	0	11.17	4003	0	0	0	0	1.371657	0.192365	1
460437	-31	-14	1	-0.4127756	-0.03404943	5.345734	0	11.17	4004	0	0	0	0	1.371657	0.1908595	1
460582	-28	-25	1	-0.3960404	-0.0439248	5.342248	0	11.17	4002	0	0	0	0	1.371657	0.1850535	1
460711	-16	-20	3	-0.4074893	-0.04000788	5.33864	0	11.17	4002	0	0	0	0	1.371657	0.1808181	1
460799	-36	-15	2	-0.4317441	-0.03889769	5.332954	0	11.17	4004	0	0	0	0	1.371657	0.1790898	1
460846	-25	-23	2	-0.4229878	-0.05470071	5.329959	0	11.17	4003	0	0	0	0	1.371657	0.1798961	1
460961	-18	-15	3	-0.4019958	-0.05653873	5.325313	0	11.17	4002	0	0	0	0	1.371657	0.1935657	1
461049	-12	-24	6	-0.4066143	-0.05758049	5.319994	0	11.17	4004	0	0	0	0	1.371657	0.1990347	1
461172	-18	-21	0	-0.4233874	-0.05370086	5.316693	0	11.17	4003	0	0	0	0	1.371657	0.1990528	1
461254	-23	-19	4	-0.4431548	-0.04438564	5.313148	0	11.17	4002	0	0	0	0	1.371657	0.1993452	1
461357	-14	-15	4	-0.445306	-0.04340447	5.309357	0	11.17	4002	0	0	0	0	1.371657	0.2031107	1
461482	-10	-21	5	-0.4323364	-0.04643916	5.306667	0	11.11	4004	0	0	0	0	1.371657	0.204323	1
461584	-16	-25	-5	-0.4192601	-0.04017853	5.303549	0	11.11	4004	0	0	0	0	1.371657	0.2042123	1
461676	-15	-10	-2	-0.4360584	-0.05949962	5.301165	0	11.11	4003	0	0	0	0	1.371657	0.2066085	1
461778	-23	-19	2	-0.4275953	-0.06245062	5.299331	0	11.11	4004	0	0	0	0	1.371657	0.209504	1
461869	-24	-21	-2	-0.4256888	-0.0751934	5.296885	0	11.11	4004	0	0	0	0	1.371657	0.2140837	1
461998	-5	-24	5	-0.4203342	-0.06696949	5.289365	0	11.11	4003	0	0	0	0	1.371657	0.2135124	1
462064	-5	-24	5	-0.4203342	-0.06696949	5.289365	0	11.11	4003	0	0	0	0	1.371657	0.2095727	1
462166	-1	-19	-2	-0.4270092	-0.07315389	5.281846	0	11.11	4003	0	0	0	0	1.371657	0.2038123	1
462270	-17	-18	4	-0.4093621	-0.05462137	5.276893	0	11.11	4004	0	0	0	0	1.371657	0.1967624	1
462367	-14	-18	3	-0.4309865	-0.05945343	5.273715	0	11.23	4003	0	0	0	0	1.371657	0.1960151	1
462471	-23	-20	4	-0.414456	-0.04699844	5.268641	0	11.23	4003	0	0	0	0	1.371657	0.1991004	1
462580	-19	-24	3	-0.4102404	-0.06281658	5.262222	0	11.23	4002	0	0	0	0	1.371657	0.2055542	1
462724	-27	-10	5	-0.4098947	-0.0601878	5.257882	0	11.23	4002	0	0	0	0	1.371657	0.2051707	1
462775	-23	-22	0	-0.4148894	-0.05564308	5.25507	0	11.23	4003	0	0	0	0	1.371657	0.209392	1
462875	-15	-22	0	-0.409533	-0.05124858	5.250853	0	11.23	4004	0	0	0	0	1.371657	0.2153431	1
463008	-23	-13	2	-0.4116902	-0.05007321	5.244864	0	11.23	4003	0	0	0	0	1.371657	0.2272372	1
463098	-20	-15	5	-0.4175892	-0.0435429	5.24089	0	11.23	4002	0	0	0	0	1.371657	0.2340702	1
463176	-3	-14	4	-0.4237375	-0.04441009	5.237589	0	11.23	4003	0	0	0	0	1.371657	0.2405365	1
463280	-15	-16	3	-0.417173	-0.0523055	5.231536	0	11.17	4004	0	0	0	0	1.371657	0.2421459	1
463397	-11	-15	0	-0.4066559	-0.04850817	5.227439	0	11.17	4003	0	0	0	0	1.371657	0.2422803	1
463483	-30	-23	4	-0.4189189	-0.06179731	5.222917	0	11.17	4002	0	0	0	0	1.371657	0.2432971	1
463602	-25	-30	5	-0.4073745	-0.05857429	5.216072	0	11.17	4002	0	0	0	0	1.371657	0.2404412	1
463687	-11	-19	5	-0.4071818	-0.05599352	5.214238	0	11.17	4002	0	0	0	0	1.371657	0.241338	1
463783	-18	-9	1	-0.3863099	-0.05967072	5.210876	0	11.17	4004	0	0	0	0	1.371657	0.2422878	1
463888	-21	-18	5	-0.3907248	-0.04236182	5.206842	0	11.17	4004	0	0	0	0	1.371657	0.2457439	1
463988	-11	-14	4	-0.3784573	-0.0622014	5.202135	0	11.17	4003	0	0	0	0	1.371657	0.249887	1
464106	-17	-20	0	-0.3946275	-0.05632546	5.198773	0	11.17	4003	0	0	0	0	1.371657	0.253476	1
464190	-21	-11	2	-0.3995783	-0.05653162	5.193822	0	11.11	4003	0	0	0	0	1.371657	0.2547529	1
464300	-32	-14	0	-0.4152972	-0.06421563	5.190583	0	11.11	4004	0	0	0	0	1.371657	0.2593257	1
464425	-35	-14	6	-0.3858952	-0.06368885	5.184591	0	11.11	4004	0	0	0	0	1.371657	0.270629	1
464575	-14	-18	0	-0.4167604	-0.08182315	5.178968	0	11.11	4002	0	0	0	0	1.371657	0.2731566	1
464657	-20	-16	6	-0.4216914	-0.08134189	5.175728	0	11.11	4003	0	0	0	0	1.371657	0.2789499	1
464742	-15	-14	-1	-0.4232644	-0.09010341	5.174321	0	11.11	4004	0	0	0	0	1.371657	0.2842225	1
464801	-15	-21	5	-0.4015845	-0.08510082	5.173221	0	11.11	4004	0	0	0	0	1.371657	0.2843254	1
464901	-18	-15	-2	-0.4037927	-0.07058217	5.169736	0	11.11	4004	0	0	0	0	1.371657	0.2852381	1
465009	-15	-21	6	-0.3972315	-0.09352008	5.167292	0	11.11	4004	0	0	0	0	1.371657	0.2921567	1
465120	-7	-12	2	-0.391206	-0.08592175	5.162889	0	11.11	4004	0	0	0	0	1.371657	0.2963569	1
465272	-17	-15	-3	-0.4062165	-0.06971015	5.157205	0	11.17	4002	0	0	0	0	1.371657	0.2859645	1
465369	-19	-12	-1	-0.4041154	-0.06739007	5.15152	0	11.17	4004	0	0	0	0	1.371657	0.2866306	1
465494	-29	-18	3	-0.3818395	-0.08977663	5.145957	0	11.17	4004	0	0	0	0	1.371657	0.2935098	1
465599	-18	-12	4	-0.3705561	-0.107706	5.141861	0	11.17	4004	0	0	0	0	1.371657	0.2932176	1
465674	-4	-9	1	-0.3620327	-0.1133315	5.138255	0	11.17	4002	0	0	0	0	1.371657	0.2864949	1
465754	-19	-14	7	-0.3725809	-0.1062214	5.134831	0	11.17	4004	0	0	0	0	1.371657	0.2803472	1
465838	-8	-11	4	-0.3974012	-0.1052514	5.132387	0	11.17	4004	0	0	0	0	1.371657	0.2784554	1
465927	-11	-14	0	-0.3954066	-0.1024328	5.130001	0	11.17	4004	0	0	0	0	1.371657	0.2771076	1
466022	-15	-4	2	-0.3876786	-0.08163106	5.126516	0	11.17	4003	0	0	0	0	1.371657	0.267881	1
466117	-7	-14	6	-0.3731255	-0.07716761	5.121504	0	11.11	4004	0	0	0	0	1.371657	0.2612266	1
466338	-21	-11	-1	-0.3665653	-0.08231218	5.117166	0	11.11	4002	0	0	0	0	1.371657	0.2464861	1
466505	-12	-6	0	-0.3742778	-0.07246013	5.113619	0	11.11	4003	0	0	0	0	1.371657	0.238039	1
466592	-14	-12	1	-0.385229	-0.08694328	5.111358	0	11.11	4003	0	0	0	0	1.371657	0.2261237	1
466721	-13	-15	3	-0.3891324	-0.1016179	5.109709	0	11.11	4003	0	0	0	0	1.371657	0.2067623	1
466876	-11	-15	0	-0.3988195	-0.1160392	5.106958	0	11.11	4002	0	0	0	0	1.371657	0.1827249	1
466933	-1	-13	5	-0.3979308	-0.1167403	5.105246	0	11.11	4004	0	0	0	0	1.371657	0.1813741	1
467048	-16	-13	0	-0.3834974	-0.1315881	5.105551	0	11.11	4003	0	0	0	0	1.371657	0.1754662	1
467212	-7	-16	0	-0.375979	-0.1118945	5.105063	0	11.11	4003	0	0	0	0	1.371657	0.1732005	1
467300	-9	-10	0	-0.3539623	-0.1093637	5.104023	0	11.11	4004	0	0	0	0	1.371657	0.1749318	1
467372	-7	0	0	-0.3733721	-0.1059117	5.102799	0	11.11	4004	0	0	0	0	1.371657	0.1747539	1
467416	-6	-9	2	-0.3896603	-0.1061453	5.101637	0	11.11	4004	0	0	0	0	1.371657	0.175102	1
467511	0	-9	2	-0.3723882	-0.108739	5.097785	0	11.11	4004	0	0	0	0	1.371657	0.174318	1
467607	-17	-12	3	-0.3702098	-0.1189675	5.096378	0	11.11	4004	0	0	0	0	1.371657	0.1644249	1
467804	-3	-4	-1	-0.3772345	-0.1016446	5.094788	0	11.11	4003	0	0	0	0	1.371657	0.1470076	1
467855	-10	4	5	-0.3671722	-0.09218147	5.093565	0	11.11	4003	0	0	0	0	1.371657	0.1510658	1
467909	-12	-9	0	-0.3683095	-0.09279464	5.092893	0	11.06	4004	0	0	0	0	1.371657	0.1560121	1
468060	-10	-11	5	-0.3634302	-0.1174089	5.091975	0	11.06	4002	0	0	0	0	1.371657	0.1660425	1
468123	-13	-6	1	-0.3308814	-0.1142455	5.088063	0	11.06	4004	0	0	0	0	1.371657	0.1725901	1
468287	-1	-8	-1	-0.3558063	-0.1299262	5.085863	0	11.06	4004	0	0	0	0	1.371657	0.1783208	1
468388	-8	-4	2	-0.3305343	-0.1380915	5.082379	0	11.06	4004	0	0	0	0	1.371657	0.1874598	1
468448	-5	-6	0	-0.3524882	-0.138591	5.080117	0	11.06	4003	0	0	0	0	1.371657	0.1969608	1
468492	-24	-4	1	-0.3457246	-0.143739	5.078466	0	11.06	4003	0	0	0	0	1.371657	0.1995166	1
468681	-11	-6	0	-0.3432988	-0.1368917	5.076266	0	11.06	4002	0	0	0	0	1.371657	0.2152167	1
468761	-3	-18	2	-0.3530263	-0.1176717	5.074248	0	11.06	4002	0	0	0	0	1.371657	0.2224697	1
468847	-7	-8	-1	-0.345417	-0.1232142	5.074919	0	11.17	4002	0	0	0	0	1.371657	0.2273981	1
468947	-10	-7	0	-0.3488266	-0.1046641	5.072598	0	11.17	4003	0	0	0	0	1.371657	0.2323236	1
468987	-10	-12	0	-0.364923	-0.1044206	5.070642	0	11.17	4002	0	0	0	0	1.371657	0.2355247	1
469162	-13	-10	-2	-0.3576713	-0.1113784	5.063919	0	11.17	4002	0	0	0	0	1.371657	0.2503158	1
469272	6	-6	2	-0.3573668	-0.09619145	5.061534	0	11.17	4003	0	0	0	0	1.371657	0.2588688	1
469304	-3	-5	-2	-0.3565677	-0.1120354	5.061289	0	11.17	4004	0	0	0	0	1.371657	0.2597226	1
469397	-6	-1	0	-0.3367318	-0.1081846	5.058967	0	11.17	4003	0	0	0	0	1.371657	0.2611455	1
469498	-4	-13	0	-0.3344543	-0.1127351	5.056217	0	11.17	4003	0	0	0	0	1.371657	0.260344	1
469604	-6	-11	0	-0.3272528	-0.09875832	5.055544	0	11.17	4002	0	0	0	0	1.371657	0.2526122	1
469776	-2	-14	0	-0.3462076	-0.1193516	5.050899	0	11.17	4003	0	0	0	0	1.371657	0.243484	1
469873	1	-3	4	-0.3541398	-0.1150922	5.048638	0	11.17	4003	0	0	0	0	1.371657	0.2368859	1
469919	3	-7	1	-0.3585981	-0.1234359	5.048027	0	11.17	4004	0	0	0	0	1.371657	0.228133	1
469999	-9	-4	5	-0.3595085	-0.1300445	5.044541	0	11.17	4003	0	0	0	0	1.371657	0.217774	1
470103	-11	-12	0	-0.3795024	-0.1176092	5.041608	0	11.17	4004	0	0	0	0	1.371657	0.1991739	1
470206	-5	0	3	-0.3576666	-0.1245294	5.037513	0	11.17	4002	0	0	0	0	1.371657	0.1878553	1
470360	-7	-14	3	-0.3556978	-0.1241801	5.03574	0	11.17	4002	0	0	0	0	1.371657	0.1918626	1
470432	1	-14	3	-0.3540953	-0.1400878	5.034273	0	11.17	4003	0	0	0	0	1.371657	0.1872242	1
470542	-9	-4	5	-0.3234487	-0.1479608	5.031951	0	11.17	4003	0	0	0	0	1.371657	0.1780052	1
470602	-6	-8	6	-0.3471273	-0.1548901	5.029261	0	11.17	4004	0	0	0	0	1.371657	0.1767612	1
470706	-6	0	3	-0.3431169	-0.136875	5.02547	0	11.17	4004	0	0	0	0	1.371657	0.1802545	1
470884	-19	-5	-2	-0.3523107	-0.1289784	5.020151	0	11.17	4002	0	0	0	0	1.371657	0.1837208	1
470960	-2	-3	0	-0.3471948	-0.1167266	5.018866	0	11.17	4003	0	0	0	0	1.371657	0.1868859	1
471010	-2	-7	-2	-0.3276597	-0.1208599	5.017704	0	11.17	4002	0	0	0	0	1.371657	0.1926793	1
471111	-23	-3	0	-0.3436545	-0.1271386	5.015259	0	11.17	4004	0	0	0	0	1.371657	0.2040749	1
471292	-13	-1	1	-0.3318759	-0.124213	5.010369	0	11.17	4003	0	0	0	0	1.371657	0.2027613	1
471386	-11	-3	2	-0.3441133	-0.1371126	5.008536	0	11.17	4003	0	0	0	0	1.371657	0.196118	1
471449	-9	-9	-1	-0.3545787	-0.1329059	5.00658	0	11.17	4004	0	0	0	0	1.371657	0.193466	1
471576	-4	-10	2	-0.339649	-0.1208356	5.005235	0	11.11	4003	0	0	0	0	1.371657	0.1881241	1
471716	0	-7	0	-0.3454993	-0.1378644	5.001447	0	11.11	4002	0	0	0	0	1.371657	0.1771974	1
471837	0	0	2	-0.3458343	-0.1307096	4.998453	0	11.11	4003	0	0	0	0	1.371657	0.1726718	1
471952	-6	-6	1	-0.3619263	-0.1262691	4.99674	0	11.11	4003	0	0	0	0	1.371657	0.1743983	1
472017	-8	-6	0	-0.3640833	-0.1371613	4.995151	0	11.11	4004	0	0	0	0	1.371657	0.1798574	1
472108	-15	-8	3	-0.3588127	-0.1521589	4.994174	0	11.11	4003	0	0	0	0	1.371657	0.1882331	1
472285	1	-14	1	-0.3477325	-0.1342328	4.990323	0	11.11	4002	0	0	0	0	1.371657	0.1923556	1
472372	-1	-9	4	-0.3421666	-0.152876	4.989284	0	11.11	4003	0	0	0	0	1.371657	0.1893687	1
472458	0	-3	3	-0.3618112	-0.1384898	4.987328	0	11.17	4002	0	0	0	0	1.371657	0.1930581	1
472508	0	-4	-1	-0.3505218	-0.1425305	4.985371	0	11.17	4002	0	0	0	0	1.371657	0.1941909	1
472583	-13	-1	0	-0.3397057	-0.1437659	4.984699	0	11.17	4003	0	0	0	0	1.371657	0.1946069	1
472759	-5	0	2	-0.3518638	-0.1482017	4.983905	0	11.17	4003	0	0	0	0	1.371657	0.183622	1
472811	-5	0	2	-0.3518638	-0.1482017	4.983905	0	11.17	4003	0	0	0	0	1.371657	0.1815357	1
472940	-7	2	-5	-0.3430822	-0.1532137	4.982124	0	11.17	4003	0	0	0	0	1.371657	0.174057	1
473022	5	-3	0	-0.3344506	-0.1382382	4.981269	0	11.17	4003	0	0	0	0	1.371657	0.1756442	1
473076	-4	-8	-3	-0.3554896	-0.1331615	4.980719	0	11.17	4004	0	0	0	0	1.371657	0.1755859	1
473162	6	7	2	-0.353258	-0.1283574	4.980597	0	11.17	4003	0	0	0	0	1.371657	0.170248	1
473359	23	0	0	-0.3554579	-0.1275247	4.979679	0	11.17	4003	0	0	0	0	1.371657	0.165878	1
473412	5	-2	0	-0.3445284	-0.1428186	4.980535	0	11.17	4002	0	0	0	0	1.371657	0.1670973	1
473525	7	0	8	-0.3369008	-0.1538959	4.978334	0	11.17	4005	0	0	0	0	1.371657	0.1688038	1
473637	0	8	5	-0.3412542	-0.1553535	4.978395	0	11.17	4003	0	0	0	0	1.371657	0.1704829	1
473682	0	-4	2	-0.3328629	-0.1359179	4.976806	0	11.17	4002	0	0	0	0	1.371657	0.170776	1
473802	-4	-9	4	-0.3529983	-0.1512084	4.975154	0	11.17	4002	0	0	0	0	1.371657	0.1727722	1
473932	-2	0	0	-0.3437591	-0.1526442	4.975215	0	11.17	4004	0	0	0	0	1.371657	0.186487	1
473968	-5	1	1	-0.3400289	-0.148851	4.975093	0	11.17	4003	0	0	0	0	1.371657	0.1938938	1
474036	-2	3	2	-0.3602336	-0.1551398	4.974299	0	11.17	4002	0	0	0	0	1.371657	0.2024831	1
474130	-2	5	3	-0.3626816	-0.1581435	4.970448	0	11.17	4004	0	0	0	0	1.371657	0.2119707	1
474299	7	2	-1	-0.348648	-0.1608734	4.970997	0	11.23	4004	0	0	0	0	1.371657	0.2224721	1
474377	5	-3	0	-0.3567337	-0.1559871	4.969713	0	11.23	4002	0	0	0	0	1.371657	0.2249028	1
474449	-9	0	0	-0.3393033	-0.1623816	4.970019	0	11.23	4003	0	0	0	0	1.371657	0.2249402	1
474577	-9	7	1	-0.3422305	-0.1536775	4.969163	0	11.23	4002	0	0	0	0	1.371657	0.2220401	1
474659	2	0	-2	-0.3337118	-0.1406036	4.968492	0	11.23	4002	0	0	0	0	1.371657	0.2212778	1
474765	-1	-9	0	-0.338523	-0.1239396	4.968797	0	11.23	4003	0	0	0	0	1.371657	0.2184734	1
474881	7	2	-4	-0.3520108	-0.1510812	4.969714	0	11.23	4003	0	0	0	0	1.371657	0.2065484	1
474938	6	-5	-2	-0.3546243	-0.1529189	4.971488	0	11.23	4002	0	0	0	0	1.371657	0.2051419	1
475037	1	-2	-1	-0.3381674	-0.1376522	4.970936	0	11.23	4003	0	0	0	0	1.371657	0.2018275	1
475253	2	4	0	-0.3420556	-0.1300788	4.972281	0	11.17	4004	0	0	0	0	1.371657	0.1863659	3
475364	-2	-2	1	-0.3453637	-0.1533942	4.972342	0	11.17	4003	0	0	0	0	1.371657	0.1666932	3
475469	13	-1	0	-0.34317	-0.1520826	4.974727	0	11.17	4003	0	0	0	0	1.371657	0.1527298	3
475553	0	4	-1	-0.3274252	-0.1657652	4.974178	0	11.17	4004	0	0	0	0	1.371657	0.1449176	3
475686	-4	5	-1	-0.319574	-0.1598428	4.974546	0	11.17	4002	0	0	0	0	1.371657	0.117972	3
475730	6	0	4	-0.3113779	-0.1466184	4.973691	0	11.17	4003	0	0	0	0	1.371657	0.1141591	3
475831	0	7	0	-0.310723	-0.1471628	4.972651	0	11.17	4003	0	0	0	0	1.371657	0.09684881	3
475944	-2	-2	0	-0.3235594	-0.1428908	4.973386	0	11.17	4003	0	0	0	0	1.371657	0.09008788	3
476033	3	-1	-4	-0.3124703	-0.1333611	4.975036	0	11.23	4003	0	0	0	0	1.371657	0.08924091	3
476135	-4	1	5	-0.3192472	-0.1424723	4.975342	0	11.23	4003	0	0	0	0	1.371657	0.07986733	3
476294	15	-2	4	-0.3054239	-0.1537362	4.972898	0	11.23	4003	0	0	0	0	1.371657	0.07576257	3
476391	2	1	0	-0.3200007	-0.1517262	4.972958	0	11.23	4004	0	0	0	0	1.371657	0.07733661	3
476454	2	4	0	-0.3284602	-0.1449591	4.973569	0	11.23	4002	0	0	0	0	1.371657	0.08071931	3
476544	1	0	4	-0.3213061	-0.162153	4.974792	0	11.23	4002	0	0	0	0	1.371657	0.08490612	3
476648	-6	2	-21	-0.320299	-0.1438106	4.978705	0	11.23	4002	0	0	0	0	1.371657	0.08326887	3
476749	23	47	-11	-0.3367028	-0.1912589	4.973814	0	11.23	4003	1	2	1	0	1.371657	0.08274028	3
476852	-14	31	-67	-0.2829045	-0.2717202	4.988612	0	11.23	4003	9	2	1	0	1.371657	0.08256642	3
477012	3	11	85	-0.2972669	-0.1438933	4.960615	0	11.17	4003	14	-1	0	0	1.371657	0.08143196	3
477054	-68	80	-121	-0.2871875	-0.1897982	4.955729	0	11.17	4004	0	15	0	0	1.371657	0.0851656	3
477175	148	-45	1	-0.3063481	-0.1657389	4.942832	0	11.17	4003	-6	-21	2	0	1.371657	0.1009824	3
477303	131	-31	21	-0.2844135	-0.2065792	4.932805	0	11.17	4002	-24	-10	1	0	1.371657	0.1214616	3
477415	20	19	-63	-0.2078058	-0.2944272	4.936348	0	11.17	4003	5	6	1	0	1.371657	0.1491759	3
477458	49	43	-66	-0.2275718	-0.2608523	4.936224	0	11.17	4004	17	-5	0	0	1.371657	0.16422	3
477630	38	83	50	-0.2922952	-0.1657508	4.925527	0	11.17	4002	15	13	-2	0	1.371657	0.194388	3
477688	-68	-3	29	-0.3151373	-0.1335449	4.919468	0	11.17	4004	-12	0	1	0	1.371657	0.210336	3
477805	-74	-24	-31	-0.2539304	-0.1854466	4.92931	0	11.17	4003	-12	10	0	0	1.371657	0.2278677	3
477891	13	-66	-36	-0.2362349	-0.2636545	4.924482	0	10.94	4004	15	-8	3	0	1.371657	0.2365202	3
477966	-171	4	-111	-0.2021481	-0.2649688	4.915854	0	10.94	4002	23	8	1	0	1.371657	0.2398912	3
478085	150	-112	116	-0.4290357	-0.07036826	4.913652	0	10.94	4003	11	28	-1	0	1.371657	0.2423493	3
478229	57	38	-503	-0.287942	-0.4091849	4.866344	0	10.94	4002	-7	-3	0	0	1.371657	0.2368094	3
478343	131	-91	-76	-0.04494203	-0.3836039	4.855211	0	10.94	4003	9	0	-4	0	1.371657	0.2381895	3
478401	-242	12	-40	-0.05029437	-0.5017912	4.771801	0	10.94	4004	-1	-20	8	0	1.371657	0.2377731	3
478527	231	-557	-1076	-0.1014214	-0.7301674	4.904516	0	10.94	4004	-26	-66	-6	0	1.371657	0.2408883	3
478599	16	828	396	-1.562299	-2.466232	4.825313	0	10.94	4003	-83	-8	3	0	1.371657	0.2429061	3
478648	-355	1100	215	-1.03475	-4.086146	4.806286	0	10.94	4004	21	9	8	0	1.371657	0.2454688	3
478802	-1145	1371	-189	-0.685035	-6.906092	4.058012	0	9.64	4004	8	134	20	0	1.371657	0.2559453	3
478939	-923	2117	-173	0.005046522	-10.65075	3.762734	0	9.64	4004	-54	-116	23	0	1.371657	0.2786835	3
479021	-3211	-83	-750	-1.475594	-11.27514	4.544371	0	9.64	4003	155	-43	-3	0	1.371657	0.2900157	3
479134	675	-2298	-497	-1.196649	-4.509995	5.484435	0	9.64	4002	20	-2	-16	0	1.371657	0.3114422	3
479152	675	-2298	-497	-1.196649	-4.509995	5.484435	0	9.64	4002	-29	-119	-12	0	1.371657	0.3172587	3
479271	1205	-745	-54	1.791402	-3.16893	5.226625	0	9.64	4003	-119	7	-2	0	1.371657	0.3343702	3
479349	-190	-1213	-56	0.6923727	-3.353092	4.913146	0	9.64	4004	-39	-107	1	0	1.371657	0.3679304	3
479458	-170	-677	-99	-0.540193	-2.387715	4.704574	0	9.64	4003	28	27	6	0	1.371657	0.3993975	3
479552	1711	1061	548	5.670926	-4.450377	4.593688	0	9.64	4004	99	12	18	0	1.371657	0.4099329	3
479654	-1449	-1281	179	2.92593	-6.173506	4.196011	0	9.64	4002	40	-183	12	0	1.371657	0.417768	3
479749	-167	-1099	-999	2.489912	-4.64252	4.514632	0	10.94	4002	119	132	5	0	1.371657	0.4237357	3
479889	-1505	-1798	29	1.118035	-7.566081	5.132136	0	10.94	4002	111	-59	-15	0	1.371657	0.4429138	3
479968	-422	-2197	-16	0.8455127	-8.083739	5.196199	0	10.94	4002	-6	-124	-8	0	1.371657	0.4612031	3
480050	-703	2018	1209	0.2242459	-6.916884	4.61279	0	10.94	4004	-4	158	9	0	1.371657	0.4687177	3
480163	1116	-1509	260	-0.5353808	-6.251411	4.029453	0	10.94	4004	-14	-82	26	0	1.371657	0.4859525	3
480249	-321	710	-221	-1.408489	-7.061422	3.818277	0	10.94	4002	-116	8	26	0	1.371657	0.4980338	3
480364	1721	516	-949	2.021982	-8.530679	4.964732	0	10.94	4003	-81	8	-11	0	1.371657	0.512175	3
480438	810	-561	-1102	1.905282	-7.203635	5.317117	0	10.94	4004	20	1	-26	0	1.371657	0.5175907	3
480639	-162	-1345	-247	2.27363	-4.936405	4.890361	0	11	4003	-58	-31	-23	0	1.371657	0.5205057	3
480737	-1227	-1842	-352	2.370014	-4.919368	5.246455	0	11	4003	44	8	-28	0	1.371657	0.5215272	3
480868	-1189	2173	-712	4.79761	-7.958935	6.108583	0	11	4003	66	125	-62	0	1.371657	0.5158482	3
480964	-1224	-531	-19	2.462152	-7.536894	6.098522	0	11	4003	29	-167	-62	0	1.371657	0.5107153	3
481080	-2127	-1140	1429	0.9806732	-7.787888	4.713881	0	11	4002	199	-270	-20	0	1.371657	0.5055541	3
481138	332	2628	1179	3.071144	-8.618046	3.971117	0	11	4004	-105	14	3	0	1.371657	0.5005215	3
481283	-1499	-263	-41	-0.2637992	-9.223309	2.781018	0	11	4004	-25	6	16	0	1.371657	0.5023089	3
481389	-164	2480	522	0.6568714	-8.696339	2.67153	0	11	4004	7	68	26	0	1.371657	0.5054689	3
481480	-405	2197	-335	0.07092787	-10.84565	2.636955	0	11	4002	-3	-97	11	0	1.371657	0.5071215	3
481566	-278	1112	-203	-0.9484553	-12.33919	3.110519	0	10.09	4002	88	-60	10	0	1.371657	0.5124736	3
481626	602	-2568	-1309	-0.2259984	-10.26871	3.680081	0	10.09	4003	13	29	-14	0	1.371657	0.5250666	3
481727	-222	-3039	186	0.2055122	-6.084834	3.852768	0	10.09	4002	-18	81	-18	0	1.371657	0.5392244	3
481908	-86	-773	724	0.5237505	-6.154222	2.944356	0	10.09	4003	-17	6	16	0	1.371657	0.5603613	3
481985	369	-1428	-213	1.909265	-7.161138	2.994315	0	10.09	4003	5	62	9	0	1.371657	0.5813318	3
482073	-639	-517	-341	2.049251	-6.134664	2.827018	0	10.09	4002	34	-137	2	0	1.371657	0.5961227	3
482118	1156	365	-824	2.325082	-6.17807	2.920114	0	10.09	4003	-230	105	8	-5	1.322265	0.6084599	4
482220	626	1272	-501	1.405741	-10.87858	3.137185	0	10.09	4004	-46	-151	2	-6	1.196138	0.619873	4
482356	-2597	-1180	117	1.284971	-9.952597	2.772036	0	10.09	4002	174	-106	14	-6	1.086351	0.6314445	4
482454	1073	2369	802	0.5800711	-11.30803	2.673435	0	10.6	4002	-81	92	20	-6	0.884532	0.6347272	4
482546	-728	-2139	-424	-0.508641	-10.56674	2.703399	0	10.6	4004	123	-257	13	-7	0.8011255	0.6332647	4
482618	539	-1114	731	3.218059	-7.719978	2.512646	0	10.6	4003	134	11	31	-7	0.75755	0.6336991	4
482771	-483	-1130	-191	4.789647	-9.635485	0.8740764	0	10.6	4004	72	-100	61	-7	0.6266587	0.6261301	4
482827	1210	294	844	5.22186	-8.448918	0.2556182	0	10.6	4003	5	174	78	-7	0.6023059	0.6257757	4
482931	-255	-828	-652	4.152566	-6.588174	0.5144531	0	10.6	4002	-36	11	69	-6	0.4832337	0.6211488	4
483022	-1297	515	-319	2.511683	-4.970323	1.246772	0	10.6	4003	170	-65	45	-5	0.4139052	0.6060201	4
483123	180	-133	-1064	3.904135	-7.186362	2.740259	0	10.6	4003	-145	92	23	-5	0.366711	0.586499	4
483224	-119	285	-982	3.284584	-10.32429	3.421594	0	10.6	4002	151	-19	-16	-4	0.3031192	0.5661049	4
483325	1606	-991	117	3.980088	-10.89348	3.905995	0	10.6	4003	155	-70	-11	-4	0.2645689	0.5414077	4
483427	64	-705	899	2.978815	-10.77258	3.673859	0	10.66	4004	26	-60	-4	-3	0.2553351	0.5075783	4
483572	350	-1690	-948	0.1722651	-13.84673	2.712944	0	10.66	4002	52	95	17	-2	0.3092272	0.4657217	4
483685	-385	-1434	-644	-1.738258	-10.97124	3.164476	0	10.66	4002	47	-198	-3	-3	0.4209425	0.4577352	4
483763	-664	-629	-311	-0.08632246	-9.567327	3.698631	0	10.66	4003	24	37	-19	-3	0.4419769	0.4594225	4
483846	-1250	1574	491	0.1292996	-10.41512	3.491747	0	10.66	4003	-122	-16	-9	-3	0.4784552	0.4670887	4
483931	-896	666	735	-0.621246	-10.99841	2.884168	0	10.66	4004	-82	19	23	-3	0.521473	0.4717312	4
484029	-1499	-166	768	-1.090217	-7.082054	2.339072	0	10.66	4003	76	27	27	-4	0.5880513	0.4818923	4
484178	-1397	466	-156	0.4040354	-10.89304	1.284335	0	10.66	4003	-88	24	57	-5	0.6804471	0.4871155	4
484239	329	207	50	2.400092	-11.06671	1.995808	0	10.66	4004	-162	10	40	-5	0.7168894	0.4889664	4
484324	650	1576	-10	1.689578	-12.10742	2.901064	0	10.94	4004	64	134	2	-6	0.770136	0.5003179	4
484452	806	-1092	-510	2.210142	-11.25568	3.777604	0	10.94	4002	-9	-61	-15	-7	0.8152677	0.5120918	4
484557	-181	719	158	2.12668	-9.739865	3.533469	0	10.94	4004	22	104	0	-8	0.8583503	0.5312047	4
484626	546	-375	182	2.039602	-12.05114	2.701946	0	10.94	4003	27	-45	20	-9	0.8906914	0.5382124	4
484721	-389	-384	1304	0.7227026	-10.29523	2.572548	0	10.94	4003	-53	-163	17	-10	0.9365331	0.549314	4
484824	1024	-848	-702	-0.8773876	-12.48636	2.923214	0	10.94	4002	71	66	17	-10	0.9315006	0.5586464	4
484926	1007	1033	15	1.016732	-12.23932	3.424626	0	10.94	4004	-6	-63	-6	-11	0.9157387	0.5656169	4
485029	872	-495	-2	-0.08418089	-10.59352	3.505614	0	10.94	4004	95	-37	0	-12	0.8876821	0.567363	4
485130	362	572	892	2.188119	-9.779217	3.045485	0	10.94	4003	52	91	17	-12	0.8622567	0.5749212	4
485230	1005	-222	-73	0.8408694	-9.649427	2.39782	0	10.89	4003	-43	-28	25	-13	0.819312	0.5798376	4
485352	-904	-1571	920	-0.2780108	-7.12826	2.071741	0	10.89	4003	62	-51	29	-13	0.7424186	0.577853	4
485433	-466	-2139	808	-0.3533556	-5.541671	1.636693	0	10.89	4002	-89	-62	53	-13	0.6967028	0.5731928	4
485560	160	864	-97	1.647108	-8.384809	1.706095	0	10.89	4002	106	-160	30	-12	0.5247402	0.5532429	4
485711	607	3605	-544	-0.262587	-22.42435	9.147532	0	10.89	4003	5	68	-133	-11	0.3931706	0.5482643	4
485803	756	-100	878	2.931581	-19.28749	7.398463	0	10.89	4002	56	-122	-105	-11	0.3205749	0.5387496	4
485897	900	-1198	991	3.434011	-13.85298	5.813358	0	10.89	4004	1	-153	-42	-10	0.2476566	0.5137557	4
485962	1746	-936	1259	4.612147	-11.18369	3.988896	0	10.89	4004	-196	-33	4	-9	0.2505872	0.5029319	4
486042	-114	-2653	669	5.746324	-6.483011	2.199709	0	10.89	4004	103	-184	38	-9	0.2580031	0.4904863	4
486110	192	-2183	-269	4.729366	-5.120476	1.971711	0	9.87	4003	-42	-150	26	-9	0.2685479	0.4795415	4
486223	-1055	736	-708	4.175081	-5.126036	2.997641	0	9.87	4002	-39	78	-3	-9	0.3625934	0.475997	4
486301	-2106	-416	299	1.440975	-3.959196	3.409073	0	9.87	4002	53	86	-2	-9	0.4025998	0.4769127	4
486428	387	1230	256	-0.8218862	-7.061176	2.832683	0	9.87	4002	-13	-126	16	-9	0.4470358	0.4938329	4
486490	-927	-2163	-501	-0.9875668	-6.101267	2.626569	0	9.87	4004	12	-198	6	-9	0.4846838	0.4950654	4
486609	255	88	1085	0.7082614	-5.325013	2.867025	0	9.87	4002	22	-262	7	-10	0.5650814	0.5020766	4
486684	-1405	-270	153	1.280508	-6.306741	2.600567	0	9.87	4003	94	-43	13	-10	0.6100833	0.5064821	4
486868	-723	-1180	-208	4.883874	-5.951482	3.39082	0	9.87	4002	101	-61	-6	-11	0.7127031	0.5134293	4
486968	-692	676	527	1.395689	-5.162926	3.122259	0	9.87	4004	21	-64	0	-12	0.6953753	0.5204316	4
487004	-529	924	629	1.036133	-5.729515	2.852448	0	10.43	4002	46	19	27	-12	0.7093926	0.5242314	4
487141	1180	549	-364	0.09009225	-5.873478	3.004911	0	10.43	4003	-122	44	11	-13	0.7672781	0.547062	4
487255	-116	785	-367	0.8930795	-6.852263	3.487329	0	10.43	4002	53	-113	2	-14	0.7773206	0.5560619	4
487314	-745	238	-688	-0.1137638	-6.63196	3.424954	0	10.43	4004	44	1	5	-14	0.7853208	0.5580256	4
487462	-1487	-1033	1137	-0.8965499	-5.989319	3.463205	0	10.43	4002	-6	-124	0	-14	0.771209	0.5627077	4
487571	1320	-1052	-603	-0.7242913	-4.458541	3.467135	0	10.43	4003	-54	122	-6	-15	0.7198597	0.5653902	4
487667	-443	1461	-422	0.81508	-7.649707	3.546077	0	10.43	4002	100	-93	-2	-14	0.6322314	0.5614832	4
487704	-655	163	114	-0.3936206	-8.717367	3.525237	0	10.43	4003	81	-65	5	-14	0.5776341	0.5585367	4
487801	573	253	188	0.1319268	-8.483685	3.135776	0	10.43	4002	68	41	8	-14	0.4842313	0.5414236	4
487936	149	-1995	-469	-0.05830633	-4.985002	2.4932	0	10.6	4003	12	-139	14	-13	0.3579746	0.5104496	4
488027	696	-213	-214	2.216845	-5.078677	2.477719	0	10.6	4003	-3	39	28	-12	0.2844597	0.4928045	4
488095	2154	1905	110	3.352136	-6.714633	2.825042	0	10.6	4003	-81	-144	10	-12	0.2502755	0.4807483	4
488197	-654	505	-592	2.72054	-7.934371	3.791171	0	10.6	4002	11	100	-15	-11	0.2321248	0.4671454	4
488312	965	-956	-62	1.155525	-8.587193	4.030597	0	10.6	4003	-124	6	-13	-11	0.2510056	0.4534365	4
488418	253	159	1030	1.367377	-8.239704	3.001849	0	10.6	4002	122	20	19	-10	0.2956928	0.445574	4
488498	-296	655	792	2.260602	-9.026016	2.683259	0	10.6	4003	66	10	27	-10	0.3232718	0.449741	4
488614	-1329	-1418	-282	0.5377181	-8.298147	3.123161	0	10.6	4002	1	-139	-8	-10	0.40929	0.4599639	4
488706	-287	858	423	-2.743115	-6.79798	3.665298	0	10.6	4002	-43	-15	-7	-11	0.4338053	0.4594353	4
488809	446	245	-614	-3.012162	-7.692878	3.775384	0	10.6	4003	-70	-97	-18	-11	0.4885826	0.453263	4
488928	-260	-519	111	-4.035808	-8.000746	3.578694	0	10.83	4002	25	-88	5	-11	0.5350605	0.4413914	4
489061	631	-589	541	-3.076349	-7.099203	3.244243	0	10.83	4004	-67	72	10	-11	0.5517812	0.432623	4
