time(ms)	gyro_x(deg/s)	gyro_y(deg/s)	gyro_z(deg/s)	orientation_roll(deg)	orientation_pitch(deg)	orientation_yaw(deg)	throttle	battery(V)	loop_time(uS)	pid_output_roll	pid_output_pitch	pid_output_yaw	pid_output_throttle	ultrasonic_alt	baro_alt	flight_mode
306364	321	-393	-121	0.2732753	-10.12648	-0.4268697	0	10.77	4003	-30	-17	48	25	0.6228473	0.2920198	4
306565	747	961	546	1.373161	-8.61224	-0.2092051	0	10.77	4003	6	-119	18	24	0.6843363	0.2882354	4
306631	-25	1356	871	0.424739	-10.43309	-0.1813585	0	10.77	4004	-18	94	34	24	0.698902	0.2865188	4
306702	1218	1253	344	1.510479	-11.32048	0.03533092	0	10.77	4004	-65	-91	19	24	0.70755	0.2899563	4
306790	-866	-682	-443	1.658879	-10.06076	0.3209016	0	10.77	4003	40	-114	8	23	0.647656	0.2983549	4
306902	-204	-997	-215	-0.08760412	-10.06459	1.126089	0	10.77	4003	57	-1	-7	23	0.6791475	0.3157266	4
307009	-986	-1467	1106	1.427747	-9.00072	0.9475313	0	10.77	4002	63	-13	18	23	0.675535	0.3309966	4
307110	-428	-1434	132	0.358126	-9.455797	0.4962902	0	10.77	4002	-33	-62	30	22	0.6529599	0.3430277	4
307172	1594	-324	525	4.570013	-6.540043	-0.3568455	0	10.77	4003	-53	-17	40	22	0.6371449	0.3491477	4
307276	501	444	-993	1.811662	-7.769958	-0.5887399	0	10.77	4003	-42	-67	37	22	0.5937763	0.353025	4
307392	283	-199	-559	3.821425	-7.324679	0.576614	0	10.77	4003	-40	-106	2	22	0.5489612	0.3558983	4
307520	60	1338	-1045	2.924481	-9.430852	1.540677	0	10.77	4004	-27	44	-30	23	0.4799464	0.3572895	4
307657	-1386	-1545	-276	0.7550674	-5.725373	2.741974	0	10.77	4004	45	-151	-45	23	0.4173981	0.3434229	4
307802	878	273	734	0.2062442	-7.081727	2.228804	0	10.43	4003	-62	13	-24	24	0.320933	0.3240287	4
307892	842	1503	130	2.777038	-7.457397	1.631326	0	10.43	4003	-60	76	-5	25	0.2882052	0.3084896	4
307997	205	9	-134	0.8778152	-10.08069	1.07485	0	10.43	4003	14	-130	-6	26	0.2483742	0.2806772	4
308097	-187	-619	-351	1.197688	-8.377122	1.709635	0	10.43	4002	-66	-70	-17	26	0.2272875	0.2507886	4
308216	-358	-980	76	-1.168792	-6.713025	1.146616	0	10.43	4003	51	-69	-3	27	0.2711429	0.2046911	4
308304	1153	-324	-514	-1.068913	-8.231409	1.160984	0	10.43	4002	-47	-113	-9	27	0.2922251	0.1918858	4
308430	-531	356	-313	0.0008568349	-8.081246	1.384036	0	10.43	4002	17	-111	-14	27	0.3399583	0.1828548	4
308525	-129	2002	157	1.072137	-7.515528	1.188784	0	10.43	4004	8	14	-7	27	0.3918138	0.1838332	4
308588	-450	2331	45	0.8308814	-7.250856	0.9693334	0	10.43	4004	-38	27	1	27	0.4325897	0.1850308	4
308716	1111	854	-389	2.600392	-11.30727	1.088863	0	10.09	4003	22	-55	-3	27	0.5044277	0.1873982	4
308784	-773	-558	-285	2.322396	-8.20238	1.173117	0	10.09	4004	-20	-26	-13	26	0.5379901	0.1886565	4
308900	487	991	188	0.4716668	-6.605741	1.198063	0	10.09	4004	-39	50	-5	26	0.5808671	0.1880955	4
309003	-416	-502	460	1.194547	-8.383571	0.7078863	0	10.09	4003	90	-54	14	25	0.6169401	0.1884334	4
309119	1065	183	-289	0.8986683	-11.07843	0.8718688	0	10.09	4003	-64	-76	-6	25	0.6481759	0.2034984	4
309191	-704	-556	418	2.556717	-9.403408	1.013281	0	10.09	4003	88	-86	4	25	0.6619069	0.2083749	4
309311	-378	-1130	-529	1.180056	-6.707286	1.029681	0	10.09	4003	21	-90	-11	25	0.6103937	0.2175435	4
309421	1212	655	-38	1.845729	-8.172014	0.970892	0	10.09	4002	-55	-63	1	24	0.6491358	0.2370079	4
309492	-611	-1766	-495	3.63056	-7.558359	1.249141	0	10.09	4004	-71	-25	-19	24	0.6626692	0.2518355	4
309633	766	-456	-293	3.137841	-8.138619	1.599704	0	10.38	4002	-18	-39	-15	23	0.6629452	0.2695665	4
309694	-1154	-1044	-206	2.368537	-6.12461	1.608573	0	10.38	4002	49	-12	-14	23	0.6597284	0.2723755	4
309849	-599	-406	439	1.520144	-5.227408	1.982068	0	10.38	4002	42	14	-19	23	0.6171718	0.2999184	4
309920	-2051	-529	-79	-0.5209066	-4.7763	1.592222	0	10.38	4003	17	-89	-16	23	0.6039856	0.3221131	4
310086	1360	683	1207	1.945071	-4.602454	0.6049411	0	10.38	4002	-37	102	23	23	0.5685249	0.3496221	4
310143	1518	979	634	3.155942	-6.270645	0.2880887	0	10.38	4002	-34	-36	22	23	0.5437924	0.3548461	4
310230	-1208	-948	344	1.311574	-5.567584	0.2576265	0	10.38	4004	110	-63	7	23	0.4520511	0.3613721	4
310300	2543	-291	-1034	2.16151	-7.082745	0.4379714	0	10.38	4004	10	-73	0	24	0.4195356	0.3528974	4
310473	-323	839	-385	3.407817	-7.616397	0.8706155	0	10.38	4003	16	69	0	25	0.3534801	0.3380103	4
310573	-1703	885	-200	1.735144	-9.772256	1.495946	0	11.11	4003	22	59	-11	25	0.3349968	0.3322449	4
310694	-663	113	782	-0.5312917	-8.379484	0.683175	0	11.11	4004	-55	22	14	26	0.2882729	0.3082742	4
310737	-394	-259	105	1.184494	-8.390533	0.4473133	0	11.11	4003	83	-84	20	26	0.2799914	0.3022411	4
310844	-151	907	117	2.93842	-7.916718	-0.011864	0	11.11	4002	-12	68	22	26	0.2683949	0.2650129	4
310894	696	-726	-396	2.802245	-8.40983	0.5282146	0	11.11	4002	-68	-73	11	27	0.2683949	0.2650129	4
311007	-735	-507	36	2.972815	-8.439832	1.551003	0	11.11	4002	60	-36	-9	27	0.3267119	0.2277846	4
311090	1280	-387	-372	3.660269	-9.548054	2.056352	0	11.11	4002	28	-81	-28	27	0.3575931	0.2234591	4
311224	-1145	-506	490	1.549543	-9.345935	1.48266	0	11.11	4002	-33	4	-6	27	0.4105328	0.2287266	4
311299	-567	561	412	1.33578	-10.07714	0.9782795	0	11.11	4002	-1	-119	1	27	0.4738664	0.2390737	4
311424	266	-979	-549	-0.4352394	-9.677136	0.8015673	0	10.49	4008	-18	-139	-4	26	0.5785094	0.2599682	4
311534	-911	754	44	-1.154153	-10.97636	0.8623774	0	10.49	4003	-21	37	5	26	0.6312488	0.2762603	4
311616	114	-67	-100	-1.151903	-9.383879	1.263103	0	10.49	4002	-9	28	-3	25	0.6651127	0.2894	4
311695	-355	156	162	0.9600419	-6.165242	1.291356	0	10.49	4003	23	-7	-7	25	0.6933314	0.2971466	4
311764	-1436	-623	153	-0.8003661	-7.317596	1.159477	0	10.49	4003	62	-112	-4	24	0.7273572	0.3150915	4
311907	-402	-5	-30	-0.9682512	-6.447561	1.08254	0	10.49	4002	4	-85	0	23	0.7536669	0.3348334	4
311993	718	166	-263	-0.5401998	-7.137938	0.7762569	0	10.49	4002	-36	-72	5	23	0.7573016	0.3401496	4
312083	565	1053	-29	1.216077	-7.626221	0.8319083	0	10.49	4003	-22	78	4	22	0.7979699	0.3529418	4
312156	-308	1547	-420	2.438575	-8.236226	1.018428	0	10.49	4003	-3	21	0	22	0.7980611	0.3565304	4
312260	749	-685	-182	2.654664	-7.333667	1.190462	0	10.49	4003	44	35	1	21	0.7523004	0.36069	4
312379	-177	-524	310	2.422638	-6.369857	0.8598012	0	11.06	4003	-33	37	6	21	0.6885501	0.3629032	4
312475	1197	-1134	-1068	1.348947	-7.342886	0.7661222	0	11.06	4004	-66	-118	-2	21	0.6595212	0.364802	4
312557	-458	-904	932	4.502784	-6.36825	0.7027509	0	11.06	4004	-3	-2	6	21	0.6085083	0.3665585	4
312723	714	626	373	2.438759	-5.333703	-0.9162341	0	11.06	4002	-43	13	45	22	0.4999267	0.3733395	4
312839	651	-9	-809	1.89589	-6.666885	-0.8160628	0	11.06	4004	-64	73	49	22	0.4280374	0.3884413	4
312920	340	2231	2	2.332714	-7.585754	-0.6198409	0	11.06	4003	20	-45	10	23	0.3861519	0.3900234	4
313049	-1927	267	-112	0.4407753	-7.101901	1.320758	0	11.06	4002	30	54	-6	23	0.3069791	0.3955932	4
313069	-1927	267	-112	0.4407753	-7.101901	1.320758	0	11.06	4002	19	54	-7	23	0.3069791	0.3955932	4
313258	-270	-2296	140	-0.4434299	-6.875259	0.7057301	0	11.23	4003	-37	-30	4	0	0.2587671	0.3861704	3
313301	408	-3170	-148	-0.4982947	-5.747122	0.7189394	0	11.23	4003	-6	-125	5	0	0.2532989	0.3834378	3
313372	-104	-1718	276	-0.3243818	-4.049073	0.6367841	0	11.23	4003	-2	-121	11	0	0.2439482	0.3689268	3
313547	291	-783	87	-0.7051646	-4.699942	0.814069	0	11.23	4003	-45	8	8	0	0.2276239	0.331564	3
313650	-3998	-985	-44	-2.15298	-4.129158	0.834977	0	11.23	4003	19	-58	-12	0	0.2195288	0.3097757	3
313700	-3786	-484	-336	-6.338484	-2.28112	1.594735	0	11.23	4003	23	-31	-16	0	0.2179844	0.3061038	3
313768	-3501	-683	-818	-8.899096	-3.261571	1.749408	0	11.23	4002	43	-41	-17	0	0.2153435	0.2955368	3
313907	136	2092	-411	-10.20734	-4.29187	1.554018	0	11.23	4003	0	29	-13	0	0.2107331	0.2666185	3
314063	3041	2875	-1179	1.038737	-10.9599	0.8915092	0	11.23	4003	-4	-80	-6	0	0.2080106	0.2514216	3
314117	1300	3261	534	3.245223	-11.61988	1.318467	0	10.72	4004	12	11	-18	0	0.2076181	0.2517503	3
314178	800	3192	517	4.053504	-11.47521	1.402062	0	10.72	4004	-75	108	-9	0	0.2069468	0.2536303	3
314305	-2313	-1957	776	3.069005	-7.588146	1.045734	0	10.72	4003	11	75	14	0	0.2059626	0.2619331	3
314371	1677	-760	-270	0.5798305	-4.810712	1.237933	0	10.72	4003	-129	79	-6	0	0.2056059	0.2693196	3
314539	1018	-2649	91	4.156705	-3.86494	1.101838	0	10.72	4004	-53	-109	-1	0	0.2050828	0.2996523	3
314586	1810	-282	470	5.856889	-1.907415	0.8529118	0	10.72	4003	-48	-91	4	0	0.2048932	0.3166578	3
314689	1021	-986	164	4.990386	-3.590266	0.3693109	0	10.72	4002	-29	-36	20	0	0.2046742	0.3416151	3
314811	2109	-1712	61	4.367211	-2.355567	0.4114727	0	10.72	4002	-63	-105	16	0	0.2045145	0.3741745	3
314884	1749	-780	-392	5.672475	-0.8033715	0.5434356	0	10.72	4002	-7	-82	14	0	0.2043981	0.4056113	3
315031	2306	-82	-320	4.411734	-4.313279	1.043913	0	10.72	4003	-38	19	-10	0	0.2042904	0.4500229	3
315095	1682	-1891	81	4.45115	-4.345481	1.433225	0	10.09	4003	39	-100	-12	0	0.2042514	0.4721777	3
315193	-266	744	-149	3.688379	-4.315995	1.278628	0	10.09	4003	-43	-7	-8	0	0.2042063	0.5040368	3
315344	-1334	-1109	248	1.508042	-6.276718	1.693384	0	10.09	4004	-82	106	-7	0	0.2041566	0.5499245	3
315396	-1334	-1109	248	1.508042	-6.276718	1.693384	0	10.09	4004	33	-16	-20	0	0.2041495	0.5528028	3
315498	-226	1251	437	2.308978	-8.936997	1.931786	0	10.09	4003	4	17	-23	0	0.2041231	0.5707385	3
315516	-746	-942	-164	-0.3011477	-6.105075	1.437755	0	10.09	4002	14	-42	-10	0	0.2041158	0.5723053	3
315563	210	-284	547	-0.4709288	-5.362292	1.142153	0	10.09	4002	-15	-95	8	0	0.2041075	0.5706331	3
315742	-56	-788	203	-0.6951619	-6.92724	0.9776853	0	10.09	4004	-17	-69	6	0	0.2040983	0.562281	3
315810	359	564	268	-1.177963	-5.802773	1.116865	0	10.09	4002	-61	-36	-1	0	0.2040958	0.5551472	3
315872	-2301	1218	554	-1.647585	-6.338022	1.134411	0	10.43	4003	3	-87	5	0	0.2040937	0.5481309	3
316041	-2110	124	291	-6.1651	-6.445008	1.195467	0	10.43	4003	21	-41	1	0	0.2040901	0.5175167	3
316119	-1049	-376	256	-4.515836	-7.926706	1.029671	0	10.43	4003	15	13	2	0	0.2040891	0.5050934	3
316248	540	-407	-141	-1.86095	-4.762331	0.9577703	0	10.43	4003	-45	-71	-1	0	0.2040877	0.4837443	3
316271	731	626	123	-1.026595	-4.821393	1.088051	0	10.43	4002	-45	-71	-1	0	0.2040875	0.4750561	3
316375	-4126	4589	688	0.01161797	-7.535697	0.7605228	0	10.43	4002	-107	-22	7	0	0.2040868	0.4505799	3
316498	926	3046	-464	-2.641164	-11.56833	0.8683044	0	10.43	4002	-4	-7	-9	0	0.2040863	0.4185059	3
316591	-314	42	-388	0.185238	-10.49782	0.8763706	0	10.43	4003	21	-55	3	0	0.2040859	0.4046146	3
316690	916	-1532	100	-0.4994402	-9.325864	0.8083503	0	10.43	4004	-41	-72	6	0	0.2040857	0.3954027	3
316755	680	-739	80	1.002104	-6.79535	0.8402594	0	10.21	4004	-17	-21	4	0	0.2040855	0.3908288	3
316892	3026	-512	23	1.141399	-5.199923	0.9061061	0	10.21	4002	-24	-8	1	0	0.2040854	0.3881237	3
316969	660	-1151	120	3.099254	-4.016228	0.616294	0	10.21	4003	12	-38	21	0	0.2040853	0.3790556	3
317046	663	205	2	3.238229	-3.690022	0.8550468	0	10.21	4002	33	-107	3	0	0.2040852	0.3742448	3
317158	-794	1254	-187	-0.01546932	-4.557678	0.7810181	0	10.21	4003	0	0	0	0	0.2040851	0.3717219	3
317233	-837	1002	-94	-2.565953	-4.035205	0.5886158	0	10.21	4002	0	0	0	0	0.2040851	0.3580968	3
317336	-307	-1593	750	-1.974498	-11.53652	0.9681756	0	10.21	4004	0	0	0	0	0.2040851	0.3260005	3
317508	-103	-160	1	-1.229949	3.819023	4.909396	0	10.21	4002	0	0	0	0	0.2040851	0.2699455	3
317566	123	-290	-154	-0.8101488	2.463931	4.829375	0	10.21	4003	0	0	0	0	0.2040851	0.2465269	3
317674	-30	-246	-8	-0.1788329	1.770523	4.869592	0	11.23	4004	0	0	0	0	0.2040851	0.216683	3
317746	31	-27	88	0.1127668	1.248675	4.843243	0	11.23	4004	0	0	0	0	0.2040851	0.2001549	1
317883	-79	-37	41	0.4567355	0.662361	4.853941	0	11.23	4003	0	0	0	0	0.2040851	0.170631	1
317949	-70	-75	-20	0.5499304	0.4646072	4.843739	0	11.23	4004	0	0	0	0	0.2040851	0.1445722	1
318053	-58	-98	-46	0.703054	0.2564949	4.821301	0	11.23	4002	0	0	0	0	0.2040851	0.09923287	1
318186	-76	-57	60	0.7733001	0.05260033	4.795075	0	11.23	4002	0	0	0	0	0.2040851	0.07371955	1
318268	-63	-70	-15	0.8193238	-0.07680082	4.786205	0	11.23	4003	0	0	0	0	0.2040851	0.05205495	1
318361	-64	-75	23	0.8520576	-0.113269	4.763705	0	11.23	4003	0	0	0	0	0.2040851	0.03499044	1
318491	-84	-74	27	0.8502626	-0.1286957	4.742431	0	11.23	4004	0	0	0	0	0.2040851	0.01948127	1
318579	-73	-59	-25	0.8928543	-0.1214234	4.732588	0	11.29	4004	0	0	0	0	0.2040851	0.007313734	1
318658	-99	-77	1	0.894254	-0.1439132	4.722868	0	11.29	4003	0	0	0	0	0.2040851	-0.01418777	1
318756	-70	-46	-7	0.9185303	-0.151144	4.706301	0	11.29	4003	0	0	0	0	0.2040851	-0.02582091	1
318873	-65	-78	-10	0.9011419	-0.1687253	4.683986	0	11.29	4003	0	0	0	0	0.2040851	-0.03284231	1
318976	-63	-64	15	0.8988708	-0.1898691	4.671757	0	11.29	4002	0	0	0	0	0.2040851	-0.04082623	1
319058	-71	-70	11	0.9041668	-0.2044277	4.662712	0	11.29	4003	0	0	0	0	0.2040851	-0.04449894	1
319173	-69	-72	15	0.9122422	-0.2050403	4.64755	0	11.29	4003	0	0	0	0	0.2040851	-0.05234208	1
319264	-65	-65	11	0.9026473	-0.2119392	4.634467	0	11.29	4003	0	0	0	0	0.2040851	-0.05762533	1
319364	-65	-58	18	0.882074	-0.184485	4.623706	0	11.29	4003	0	0	0	0	0.2040851	-0.05801062	1
319502	-69	-63	8	0.8901578	-0.1578935	4.606405	0	11.34	4002	0	0	0	0	0.2040851	-0.05292952	1
319669	-69	-67	8	0.8763254	-0.1773359	4.591181	0	11.34	4003	0	0	0	0	0.2040851	-0.04845566	1
319712	-73	-53	10	0.8910585	-0.1807855	4.58299	0	11.34	4004	0	0	0	0	0.2040851	-0.04932848	1
319820	-67	-64	3	0.9023936	-0.193324	4.563794	0	11.34	4003	0	0	0	0	0.2040851	-0.05387117	1
319974	-60	-59	7	0.929004	-0.1951395	4.543007	0	11.34	4003	0	0	0	0	0.2040851	-0.06210104	1
320060	-71	-61	7	0.9401254	-0.1946008	4.535181	0	11.34	4002	0	0	0	0	0.2040851	-0.0648014	1
320214	-53	-71	8	0.9207084	-0.2112608	4.512806	0	11.34	4003	0	0	0	0	0.2040851	-0.05768365	1
320276	-69	-65	13	0.9230961	-0.2043658	4.504491	0	11.34	4003	0	0	0	0	0.2040851	-0.05565213	1
320385	-72	-68	6	0.9357675	-0.2167289	4.49312	0	11.34	4002	0	0	0	0	0.2040851	-0.05541133	1
320464	-61	-59	10	0.9342421	-0.2089596	4.486395	0	11.29	4003	0	0	0	0	0.2040851	-0.05005571	1
320599	-62	-59	9	0.9165551	-0.1966317	4.470071	0	11.29	4004	0	0	0	0	0.2040851	-0.04595827	1
320677	-56	-59	2	0.9438182	-0.1960649	4.461758	0	11.29	4003	0	0	0	0	0.2040851	-0.04434093	1
320787	-61	-63	3	0.9315403	-0.1899575	4.448737	0	11.29	4002	0	0	0	0	0.2040851	-0.04187212	1
320910	-66	-58	13	0.9411361	-0.2008761	4.439627	0	11.29	4002	0	0	0	0	0.2040851	-0.04087177	1
321030	-63	-67	1	0.9443222	-0.1934055	4.426118	0	11.29	4004	0	0	0	0	0.2040851	-0.03834506	1
321071	-64	-66	11	0.9279682	-0.2108759	4.419148	0	11.29	4004	0	0	0	0	0.2040851	-0.03752264	1
321158	-59	-65	4	0.9444838	-0.2316277	4.414135	0	11.29	4004	0	0	0	0	0.2040851	-0.03520944	1
321249	-68	-63	3	0.9366032	-0.2368192	4.406188	0	11.29	4003	0	0	0	0	0.2040851	-0.03140417	1
321360	-61	-61	5	0.9480098	-0.2252188	4.397261	0	11.34	4002	0	0	0	0	0.2040851	-0.03179662	1
321487	-68	-71	5	0.9469127	-0.2197502	4.385768	0	11.34	4003	0	0	0	0	0.2040851	-0.02549324	1
321549	-63	-58	3	0.9427539	-0.2238075	4.378799	0	11.34	4002	0	0	0	0	0.2040851	-0.02298568	1
321670	-56	-59	6	0.9188793	-0.2203187	4.364861	0	11.34	4002	0	0	0	0	0.2040851	-0.01678176	1
321742	-58	-68	4	0.9127522	-0.2018911	4.357464	0	11.34	4003	0	0	0	0	0.2040851	-0.0163979	1
321916	-60	-62	6	0.9269636	-0.2036866	4.348048	0	11.34	4004	0	0	0	0	0.2040851	-0.02721694	1
321956	-67	-60	6	0.9301515	-0.2237177	4.342179	0	11.34	4003	0	0	0	0	0.2040851	-0.02956788	1
322109	-72	-57	9	0.9362487	-0.24222	4.328854	0	11.34	4002	0	0	0	0	0.2040851	-0.03494633	1
322171	-50	-59	4	0.9333445	-0.2541095	4.322556	0	11.34	4002	0	0	0	0	0.2040851	-0.03310819	1
322275	-57	-62	7	0.960887	-0.2483515	4.313142	0	11.34	4004	0	0	0	0	0.2040851	-0.02800037	1
322394	-63	-59	8	0.9610143	-0.2419551	4.302933	0	11.34	4003	0	0	0	0	0.2040851	-0.01913433	1
322459	-60	-55	8	0.9784162	-0.2506749	4.298043	0	11.34	4003	0	0	0	0	0.2040851	-0.01952888	1
322586	-59	-57	6	0.9940151	-0.2641406	4.289546	0	11.34	4003	0	0	0	0	0.2040851	-0.02088817	1
322671	-62	-60	8	0.9761888	-0.2477599	4.281292	0	11.34	4002	0	0	0	0	0.2040851	-0.02489152	1
322753	-59	-51	6	0.9642316	-0.2329428	4.276035	0	11.34	4004	0	0	0	0	0.2040851	-0.02985319	1
322926	-55	-61	6	0.9737732	-0.2530967	4.265031	0	11.34	4002	0	0	0	0	0.2040851	-0.03705137	1
323015	-58	-55	6	0.971738	-0.2479562	4.257025	0	11.34	4002	0	0	0	0	0.2040851	-0.04222484	1
323049	-59	-57	4	0.9848886	-0.2552783	4.255619	0	11.34	4003	0	0	0	0	0.2040851	-0.04362827	1
323171	-55	-55	3	0.955438	-0.2313436	4.248973	0	11.34	4003	0	0	0	0	0.2040851	-0.04732367	1
323333	-53	-52	5	0.9680209	-0.2464973	4.238458	0	11.34	4004	0	0	0	0	0.2040851	-0.05206411	1
323364	-53	-52	5	0.9680209	-0.2464973	4.238458	0	11.34	4004	0	0	0	0	0.2040851	-0.05206411	1
323447	-60	-55	8	0.9446084	-0.2221145	4.227803	0	11.34	4003	0	0	0	0	0.2040851	-0.05743372	1
323584	-53	-50	5	0.95369	-0.2105461	4.219488	0	11.34	4004	0	0	0	0	0.2040851	-0.05064909	1
323650	-59	-58	3	0.9490427	-0.2172342	4.214046	0	11.34	4004	0	0	0	0	0.2040851	-0.04797181	1
323847	-64	-63	7	0.9463845	-0.2471833	4.200476	0	11.34	4003	0	0	0	0	0.2040851	-0.03214796	1
323943	-56	-56	3	0.9575887	-0.2502586	4.191489	0	11.34	4004	0	0	0	0	0.2040851	-0.02370061	1
324055	-49	-49	3	0.9560024	-0.2355237	4.180241	0	11.34	4004	0	0	0	0	0.2040851	-0.01784506	1
324203	-53	-57	4	0.9594322	-0.2421093	4.170214	0	11.34	4003	0	0	0	0	0.2040851	-0.02746252	1
324273	-51	-47	6	0.9466542	-0.2516824	4.164223	0	11.34	4003	0	0	0	0	0.2040851	-0.03284984	1
324358	-60	-52	4	0.9678248	-0.2509126	4.158538	0	11.34	4002	0	0	0	0	0.2040851	-0.03560837	1
324400	-57	-50	6	0.9719945	-0.2478578	4.156276	0	11.34	4003	0	0	0	0	0.2040851	-0.0322547	1
324518	-49	-59	9	0.9654784	-0.2467214	4.145088	0	11.34	4004	0	0	0	0	0.2040851	-0.0257189	1
324599	-52	-56	5	0.9714121	-0.25713	4.139157	0	11.34	4003	0	0	0	0	0.2040851	-0.02511766	1
324713	-53	-50	5	0.9687023	-0.2358609	4.12956	0	11.34	4004	0	0	0	0	0.2040851	-0.01732961	1
324797	-42	-51	6	0.9664432	-0.2369605	4.122957	0	11.34	4004	0	0	0	0	0.2040851	-0.01692976	1
324891	-54	-58	6	0.967878	-0.2400158	4.120512	0	11.34	4002	0	0	0	0	0.2040851	-0.02341333	1
325031	-61	-65	5	0.9727638	-0.2486649	4.106877	0	11.4	4003	0	0	0	0	0.2040851	-0.0425549	1
325084	-52	-59	3	0.9880274	-0.2509485	4.10272	0	11.4	4003	0	0	0	0	0.2040851	-0.04481705	1
325217	-51	-56	0	0.9986722	-0.2592428	4.093123	0	11.4	4003	0	0	0	0	0.2040851	-0.0537841	1
325277	-60	-54	5	0.998974	-0.2539045	4.087988	0	11.4	4002	0	0	0	0	0.2040851	-0.0565641	1
325386	-51	-61	8	0.9916502	-0.2541241	4.080287	0	11.4	4003	0	0	0	0	0.2040851	-0.05824115	1
325495	-56	-57	2	0.9939275	-0.2557479	4.074051	0	11.4	4003	0	0	0	0	0.2040851	-0.05226205	1
325615	-57	-48	7	0.9885649	-0.2695377	4.062191	0	11.4	4004	0	0	0	0	0.2040851	-0.04657827	1
325684	-57	-53	2	0.9858741	-0.2542832	4.057606	0	11.4	4003	0	0	0	0	0.2040851	-0.04654587	1
325798	-64	-54	2	0.9816694	-0.2374875	4.051553	0	11.4	4002	0	0	0	0	0.2040851	-0.046445	1
325893	-51	-52	2	0.9737116	-0.2439463	4.046113	0	11.34	4003	0	0	0	0	0.2040851	-0.04527113	1
325980	-42	-48	1	0.9811025	-0.264328	4.040061	0	11.34	4003	0	0	0	0	0.2040851	-0.04084214	1
326077	-43	-47	11	0.9809892	-0.2684576	4.031991	0	11.34	4002	0	0	0	0	0.2040851	-0.03247715	1
326181	-47	-57	6	0.9842829	-0.263871	4.026304	0	11.34	4002	0	0	0	0	0.2040851	-0.02796858	1
326328	-52	-55	5	0.9815123	-0.2681175	4.021169	0	11.34	4003	0	0	0	0	0.2040851	-0.03252078	1
326385	-53	-55	1	0.9782961	-0.2749099	4.014505	0	11.34	4002	0	0	0	0	0.2040851	-0.02994376	1
326489	-50	-50	0	0.9668386	-0.2817979	4.009187	0	11.34	4002	0	0	0	0	0.2040851	-0.02467068	1
326618	-52	-51	9	0.9879766	-0.269663	4.003684	0	11.34	4004	0	0	0	0	0.2040851	-0.01903443	1
326693	-43	-51	7	0.9812537	-0.2641553	4.000138	0	11.34	4002	0	0	0	0	0.2040851	-0.01835648	1
326798	-52	-53	3	0.9752346	-0.2707624	3.991946	0	11.34	4002	0	0	0	0	0.2040851	-0.0161864	1
326933	-59	-58	4	0.9870194	-0.298477	3.980942	0	11.34	4003	0	0	0	0	0.2040851	-0.004681639	1
327006	-52	-47	6	0.9959691	-0.2959962	3.977396	0	11.34	4003	0	0	0	0	0.2040851	-0.001045454	1
327088	-48	-46	5	1.013081	-0.2905017	3.972873	0	11.34	4003	0	0	0	0	0.2040851	0.004448859	1
327230	-57	-54	-2	1.020464	-0.2677963	3.966088	0	11.34	4002	0	0	0	0	0.2040851	0.008938644	1
327315	-49	-53	6	1.005398	-0.2821575	3.960708	0	11.34	4004	0	0	0	0	0.2040851	0.01376894	1
327395	-39	-47	0	0.9991586	-0.2862438	3.955082	0	11.34	4002	0	0	0	0	0.2040851	0.01878832	1
327527	-61	-51	7	1.001292	-0.2938167	3.94738	0	11.34	4004	0	0	0	0	0.2040851	0.02629516	1
327704	-56	-50	0	0.9887626	-0.2698967	3.937721	0	11.46	4004	0	0	0	0	0.2040851	0.04021212	1
327801	-45	-44	-2	1.003516	-0.2614457	3.933443	0	11.46	4004	0	0	0	0	0.2040851	0.04874519	1
327913	-56	-45	1	1.000226	-0.2584021	3.926717	0	11.46	4003	0	0	0	0	0.2040851	0.05310384	1
328043	-54	-43	5	0.9956776	-0.2717522	3.922376	0	11.46	4004	0	0	0	0	0.2040851	0.04397602	1
328171	-47	-54	0	0.9941275	-0.2786069	3.916446	0	11.46	4004	0	0	0	0	0.2040851	0.04633025	1
328284	-52	-52	4	1.016564	-0.2886981	3.908194	0	11.46	4003	0	0	0	0	0.2040851	0.04652675	1
328316	-52	-47	0	1.009816	-0.2963375	3.906299	0	11.46	4002	0	0	0	0	0.2040851	0.04496038	1
328399	-55	-47	1	1.001882	-0.2812456	3.902081	0	11.46	4003	0	0	0	0	0.2040851	0.03952653	1
328494	-35	-56	2	0.9973998	-0.2743174	3.896578	0	11.46	4004	0	0	0	0	0.2040851	0.03398054	1
328619	-52	-50	5	1.000289	-0.2681416	3.889793	0	11.4	4004	0	0	0	0	0.2040851	0.02651156	1
328756	-47	-48	3	0.9810873	-0.2848815	3.883741	0	11.4	4003	0	0	0	0	0.2040851	0.01646541	1
328818	-47	-54	10	1.001838	-0.2956755	3.879156	0	11.4	4004	0	0	0	0	0.2040851	0.01078046	1
328889	-44	-45	6	1.015968	-0.2976879	3.877689	0	11.4	4003	0	0	0	0	0.2040851	0.007230124	1
329095	-50	-41	6	1.020782	-0.3078377	3.862284	0	11.4	4002	0	0	0	0	0.2040851	0.003494928	1
329221	-44	-53	3	0.9977531	-0.3045939	3.853664	0	11.4	4002	0	0	0	0	0.2040851	0.0009588851	1
329357	-56	-50	4	0.9958187	-0.3101381	3.851952	0	11.4	4002	0	0	0	0	0.2040851	-0.004738107	1
329450	-56	-50	4	0.9958187	-0.3101381	3.851952	0	11.4	4002	0	0	0	0	0.2040851	-0.004738107	1
329490	-56	-50	4	0.9958187	-0.3101381	3.851952	0	11.4	4002	0	0	0	0	0.2040851	-0.004738107	1
329587	-56	-50	4	0.9958187	-0.3101381	3.851952	0	11.4	4002	0	0	0	0	0.2040851	-0.004738107	1
329730	-56	-50	4	0.9958187	-0.3101381	3.851952	0	11.4	4002	0	0	0	0	0.2040851	-0.004738107	1
329795	-56	-50	4	0.9958187	-0.3101381	3.851952	0	11.4	4002	0	0	0	0	0.2040851	-0.004738107	1
329965	-56	-50	4	0.9958187	-0.3101381	3.851952	0	11.4	4002	0	0	0	0	0.2040851	-0.004738107	1
330042	-56	-50	4	0.9958187	-0.3101381	3.851952	0	11.4	4002	0	0	0	0	0.2040851	-0.004738107	1
330117	-56	-50	4	0.9958187	-0.3101381	3.851952	0	11.4	4002	0	0	0	0	0.2040851	-0.004738107	1
330201	-56	-50	4	0.9958187	-0.3101381	3.851952	0	11.4	4002	0	0	0	0	0.2040851	-0.004738107	1
330336	-56	-50	4	0.9958187	-0.3101381	3.851952	0	11.4	4002	0	0	0	0	0.2040851	-0.004738107	1
330472	-56	-50	4	0.9958187	-0.3101381	3.851952	0	11.29	4002	0	0	0	0	0.2040851	-0.004738107	1
330514	-56	-50	4	0.9958187	-0.3101381	3.851952	0	11.29	4002	0	0	0	0	0.2040851	-0.004738107	1
330633	-56	-50	4	0.9958187	-0.3101381	3.851952	0	11.29	4002	0	0	0	0	0.2040851	-0.004738107	1
330712	-56	-50	4	0.9958187	-0.3101381	3.851952	0	11.29	4002	0	0	0	0	0.2040851	-0.004738107	1
330826	-56	-50	4	0.9958187	-0.3101381	3.851952	0	11.29	4002	0	0	0	0	0.2040851	-0.004738107	1
330971	-56	-50	4	0.9958187	-0.3101381	3.851952	0	11.29	4002	0	0	0	0	0.2040851	-0.004738107	1
331019	-56	-50	4	0.9958187	-0.3101381	3.851952	0	11.29	4002	0	0	0	0	0.2040851	-0.004738107	1
331166	-56	-50	4	0.9958187	-0.3101381	3.851952	0	11.29	4002	0	0	0	0	0.2040851	-0.004738107	1
331224	-56	-50	4	0.9958187	-0.3101381	3.851952	0	11.29	4002	0	0	0	0	0.2040851	-0.004738107	1
331348	-56	-50	4	0.9958187	-0.3101381	3.851952	0	11.29	4002	0	0	0	0	0.2040851	-0.004738107	1
331432	-56	-50	4	0.9958187	-0.3101381	3.851952	0	11.34	4002	0	0	0	0	0.2040851	-0.004738107	1
331538	-56	-50	4	0.9958187	-0.3101381	3.851952	0	11.34	4002	0	0	0	0	0.2040851	-0.004738107	1
331636	-56	-50	4	0.9958187	-0.3101381	3.851952	0	11.34	4002	0	0	0	0	0.2040851	-0.004738107	1
331729	-56	-50	4	0.9958187	-0.3101381	3.851952	0	11.34	4002	0	0	0	0	0.2040851	-0.004738107	1
331829	-56	-50	4	0.9958187	-0.3101381	3.851952	0	11.34	4002	0	0	0	0	0.2040851	-0.004738107	1
331932	-56	-50	4	0.9958187	-0.3101381	3.851952	0	11.34	4002	0	0	0	0	0.2040851	-0.004738107	1
332029	-56	-50	4	0.9958187	-0.3101381	3.851952	0	11.34	4002	0	0	0	0	0.2040851	-0.004738107	1
332162	-56	-50	4	0.9958187	-0.3101381	3.851952	0	11.34	4002	0	0	0	0	0.2040851	-0.004738107	1
332232	-56	-50	4	0.9958187	-0.3101381	3.851952	0	11.34	4002	0	0	0	0	0.2040851	-0.004738107	1
332343	-56	-50	4	0.9958187	-0.3101381	3.851952	0	11.34	4002	0	0	0	0	0.2040851	-0.004738107	1
332477	-56	-50	4	0.9958187	-0.3101381	3.851952	0	11.34	4002	0	0	0	0	0.2040851	-0.004738107	1
332588	-56	-50	4	0.9958187	-0.3101381	3.851952	0	11.34	4002	0	0	0	0	0.2040851	-0.004738107	1
332659	-56	-50	4	0.9958187	-0.3101381	3.851952	0	11.34	4002	0	0	0	0	0.2040851	-0.004738107	1
332728	-56	-50	4	0.9958187	-0.3101381	3.851952	0	11.34	4002	0	0	0	0	0.2040851	-0.004738107	1
332871	-56	-50	4	0.9958187	-0.3101381	3.851952	0	11.34	4002	0	0	0	0	0.2040851	-0.004738107	1
332933	-56	-50	4	0.9958187	-0.3101381	3.851952	0	11.34	4002	0	0	0	0	0.2040851	-0.004738107	1
333037	-56	-50	4	0.9958187	-0.3101381	3.851952	0	11.34	4002	0	0	0	0	0.2040851	-0.004738107	1
333177	-56	-50	4	0.9958187	-0.3101381	3.851952	0	11.34	4002	0	0	0	0	0.2040851	-0.004738107	1
333263	-56	-50	4	0.9958187	-0.3101381	3.851952	0	11.4	4002	0	0	0	0	0.2040851	-0.004738107	1
333358	-56	-50	4	0.9958187	-0.3101381	3.851952	0	11.4	4002	0	0	0	0	0.2040851	-0.004738107	1
333451	-56	-50	4	0.9958187	-0.3101381	3.851952	0	11.4	4002	0	0	0	0	0.2040851	-0.004738107	1
333606	-56	-50	4	0.9958187	-0.3101381	3.851952	0	11.4	4002	0	0	0	0	0.2040851	-0.004738107	1
333690	-56	-50	4	0.9958187	-0.3101381	3.851952	0	11.4	4002	0	0	0	0	0.2040851	-0.004738107	1
333808	-56	-50	4	0.9958187	-0.3101381	3.851952	0	11.4	4002	0	0	0	0	0.2040851	-0.004738107	1
333859	-56	-50	4	0.9958187	-0.3101381	3.851952	0	11.4	4002	0	0	0	0	0.2040851	-0.004738107	1
333988	-56	-50	4	0.9958187	-0.3101381	3.851952	0	11.4	4002	0	0	0	0	0.2040851	-0.004738107	1
334081	-56	-50	4	0.9958187	-0.3101381	3.851952	0	11.4	4002	0	0	0	0	0.2040851	-0.004738107	1
334170	-56	-50	4	0.9958187	-0.3101381	3.851952	0	11.4	4002	0	0	0	0	0.2040851	-0.004738107	1
334263	-56	-50	4	0.9958187	-0.3101381	3.851952	0	11.4	4002	0	0	0	0	0.2040851	-0.004738107	1
334414	-56	-50	4	0.9958187	-0.3101381	3.851952	0	11.4	4002	0	0	0	0	0.2040851	-0.004738107	1
334468	-56	-50	4	0.9958187	-0.3101381	3.851952	0	11.4	4002	0	0	0	0	0.2040851	-0.004738107	1
334571	-56	-50	4	0.9958187	-0.3101381	3.851952	0	11.4	4002	0	0	0	0	0.2040851	-0.004738107	1
334705	-56	-50	4	0.9958187	-0.3101381	3.851952	0	11.4	4002	0	0	0	0	0.2040851	-0.004738107	1
334763	-56	-50	4	0.9958187	-0.3101381	3.851952	0	11.4	4002	0	0	0	0	0.2040851	-0.004738107	1
334958	-56	-50	4	0.9958187	-0.3101381	3.851952	0	11.4	4002	0	0	0	0	0.2040851	-0.004738107	1
335043	-56	-50	4	0.9958187	-0.3101381	3.851952	0	11.4	4002	0	0	0	0	0.2040851	-0.004738107	1
335120	-56	-50	4	0.9958187	-0.3101381	3.851952	0	11.4	4002	0	0	0	0	0.2040851	-0.004738107	1
335218	-56	-50	4	0.9958187	-0.3101381	3.851952	0	11.4	4002	0	0	0	0	0.2040851	-0.004738107	1
335258	-56	-50	4	0.9958187	-0.3101381	3.851952	0	11.4	4002	0	0	0	0	0.2040851	-0.004738107	1
335344	-56	-50	4	0.9958187	-0.3101381	3.851952	0	11.4	4002	0	0	0	0	0.2040851	-0.004738107	1
335443	-56	-50	4	0.9958187	-0.3101381	3.851952	0	11.4	4002	0	0	0	0	0.2040851	-0.004738107	1
335575	-56	-50	4	0.9958187	-0.3101381	3.851952	0	11.4	4002	0	0	0	0	0.2040851	-0.004738107	1
335648	-56	-50	4	0.9958187	-0.3101381	3.851952	0	11.4	4002	0	0	0	0	0.2040851	-0.004738107	1
335737	-56	-50	4	0.9958187	-0.3101381	3.851952	0	11.4	4002	0	0	0	0	0.2040851	-0.004738107	1
335898	-56	-50	4	0.9958187	-0.3101381	3.851952	0	11.4	4002	0	0	0	0	0.2040851	-0.004738107	1
335938	-56	-50	4	0.9958187	-0.3101381	3.851952	0	11.34	4002	0	0	0	0	0.2040851	-0.004738107	1
336025	-56	-50	4	0.9958187	-0.3101381	3.851952	0	11.34	4002	0	0	0	0	0.2040851	-0.004738107	1
336166	-56	-50	4	0.9958187	-0.3101381	3.851952	0	11.34	4002	0	0	0	0	0.2040851	-0.004738107	1
336274	-56	-50	4	0.9958187	-0.3101381	3.851952	0	11.34	4002	0	0	0	0	0.2040851	-0.004738107	1
336394	-56	-50	4	0.9958187	-0.3101381	3.851952	0	11.34	4002	0	0	0	0	0.2040851	-0.004738107	1
336429	-56	-50	4	0.9958187	-0.3101381	3.851952	0	11.34	4002	0	0	0	0	0.2040851	-0.004738107	1
336566	-56	-50	4	0.9958187	-0.3101381	3.851952	0	11.34	4002	0	0	0	0	0.2040851	-0.004738107	1
336620	-56	-50	4	0.9958187	-0.3101381	3.851952	0	11.34	4002	0	0	0	0	0.2040851	-0.004738107	1
