time(ms)	gyro_x(deg/s)	gyro_y(deg/s)	gyro_z(deg/s)	orientation_roll(deg)	orientation_pitch(deg)	orientation_yaw(deg)	throttle	battery(V)	loop_time(uS)	pid_output_roll	pid_output_pitch	pid_output_yaw	pid_output_throttle	ultrasonic_alt	baro_alt	flight_mode
397811	-10	-5	0	-1.124353	0.6651631	5.701124	0	11.29	4003	0	0	0	0	0.7978177	0.04355964	1
397960	6	-2	1	-1.148719	0.6282744	5.697761	0	11.29	4002	0	0	0	0	0.7978177	0.04554832	1
398040	-2	-7	7	-1.112955	0.6625231	5.694827	0	11.29	4003	0	0	0	0	0.7978177	0.04514234	1
398125	-17	-4	1	-1.149977	0.6766767	5.695133	0	11.29	4002	0	0	0	0	0.7978177	0.04802318	1
398362	-11	0	-2	-1.10853	0.6737087	5.694031	0	11.29	4004	0	0	0	0	0.7978177	0.06165052	1
398504	0	-5	1	-1.159426	0.6846762	5.692074	0	11.29	4003	0	0	0	0	0.7978177	0.07706437	1
398634	5	-2	4	-1.072048	0.6967794	5.692197	0	11.29	4004	0	0	0	0	0.7978177	0.07556289	1
398666	-15	-5	2	-1.071961	0.6923169	5.690731	0	11.29	4003	0	0	0	0	0.7978177	0.07534639	1
398744	0	2	-6	-1.029967	0.6969781	5.690363	0	11.29	4002	0	0	0	0	0.7978177	0.07565024	1
398834	7	-1	-4	-1.023675	0.6485104	5.690913	0	11.29	4004	0	0	0	0	0.7978177	0.07654015	1
399036	-2	-6	1	-1.014379	0.6982104	5.685347	0	11.29	4003	0	0	0	0	0.7978177	0.07175004	1
399100	-5	-8	5	-1.030857	0.7204145	5.68388	0	11.29	4004	0	0	0	0	0.7978177	0.07470921	1
399196	-2	4	0	-1.050298	0.7212136	5.681129	0	11.29	4003	0	0	0	0	0.7978177	0.07537896	1
399299	-2	0	-4	-1.064507	0.7068692	5.68009	0	11.29	4003	0	0	0	0	0.7978177	0.07567398	1
399435	4	0	0	-1.044433	0.6823248	5.678683	0	11.29	4002	0	0	0	0	0.7978177	0.08400369	1
399477	-1	0	3	-1.055976	0.6865032	5.678317	0	11.29	4004	0	0	0	0	0.7978177	0.09074938	1
399560	-5	-2	-3	-1.043941	0.6924775	5.676911	0	11.29	4002	0	0	0	0	0.7978177	0.0936113	1
399625	-1	4	-2	-1.062731	0.6832795	5.677094	0	11.23	4003	0	0	0	0	0.7978177	0.09385572	1
399734	3	-6	-2	-1.077904	0.6840677	5.67697	0	11.23	4002	0	0	0	0	0.7978177	0.09283642	1
399832	0	3	0	-1.082626	0.6816649	5.675624	0	11.23	4002	0	0	0	0	0.7978177	0.09440134	1
399960	-2	3	0	-1.08104	0.7008968	5.674461	0	11.23	4004	0	0	0	0	0.7978177	0.1020745	1
400045	-3	6	-1	-1.065646	0.6695399	5.674828	0	11.23	4003	0	0	0	0	0.7978177	0.1047185	1
400132	6	-3	3	-1.050859	0.5980524	5.674033	0	11.23	4004	0	0	0	0	0.7978177	0.1046028	1
400265	0	4	0	-1.012658	0.6361308	5.672381	0	11.23	4003	0	0	0	0	0.7978177	0.1059928	1
400337	-1	-4	-4	-1.052733	0.6643782	5.673177	0	11.23	4003	0	0	0	0	0.7978177	0.1076003	1
400451	5	-2	-4	-1.047261	0.6757606	5.672688	0	11.23	4003	0	0	0	0	0.7978177	0.1052214	1
400584	-2	0	0	-1.068639	0.6716638	5.672077	0	11.23	4004	0	0	0	0	0.7978177	0.0871228	1
400694	5	3	-2	-1.047594	0.6485584	5.671404	0	11.23	4004	0	0	0	0	0.7978177	0.08725165	1
400758	-6	1	3	-1.053705	0.6494752	5.671343	0	11.23	4002	0	0	0	0	0.7978177	0.09010595	1
400864	9	-3	-3	-1.073404	0.6728631	5.671098	0	11.23	4004	0	0	0	0	0.7978177	0.09427908	1
400987	-13	-4	3	-1.056422	0.6721927	5.673666	0	11.23	4002	0	0	0	0	0.7978177	0.1007972	1
401059	-9	-13	2	-1.067566	0.6696583	5.674155	0	11.23	4002	0	0	0	0	0.7978177	0.1078647	1
401162	-8	4	-1	-1.059028	0.6903704	5.675683	0	11.23	4003	0	0	0	0	0.7978177	0.1178691	1
401327	0	-3	1	-1.059887	0.6822961	5.674399	0	11.23	4004	0	0	0	0	0.7978177	0.1291761	1
401401	3	1	6	-1.060813	0.6953992	5.673665	0	11.23	4004	0	0	0	0	0.7978177	0.1253337	1
401483	1	-1	0	-1.067756	0.6947632	5.671832	0	11.29	4004	0	0	0	0	0.7978177	0.1172966	1
401564	7	6	0	-1.036889	0.6851947	5.671833	0	11.29	4004	0	0	0	0	0.7978177	0.1103994	1
401706	2	3	-3	-1.07655	0.6580978	5.672262	0	11.29	4002	0	0	0	0	0.7978177	0.1033152	1
401789	3	-1	0	-1.073244	0.6715128	5.671712	0	11.29	4002	0	0	0	0	0.7978177	0.1075579	1
401910	2	0	3	-1.106023	0.6584884	5.67165	0	11.29	4002	0	0	0	0	0.7978177	0.1103561	1
401975	-5	2	-3	-1.091601	0.6687332	5.671894	0	11.29	4002	0	0	0	0	0.7978177	0.1101197	1
402079	-3	4	0	-1.057209	0.6841512	5.672261	0	11.29	4003	0	0	0	0	0.7978177	0.116958	1
402184	3	0	-1	-1.07711	0.6779497	5.6722	0	11.29	4003	0	0	0	0	0.7978177	0.117838	1
402326	1	-1	1	-1.050638	0.6673705	5.674339	0	11.29	4002	0	0	0	0	0.7978177	0.115721	1
402423	8	-5	-2	-1.061958	0.6662849	5.6755	0	11.29	4004	0	0	0	0	0.7978177	0.1134326	1
402542	1	9	1	-1.079932	0.6678483	5.674277	0	11.29	4004	0	0	0	0	0.7978177	0.1116448	1
402644	1	8	2	-1.065823	0.665482	5.672994	0	11.29	4003	0	0	0	0	0.7978177	0.1068045	1
402690	-3	2	-1	-1.068918	0.6598497	5.673728	0	11.29	4003	0	0	0	0	0.7978177	0.1010891	1
402795	-10	0	2	-1.040983	0.661964	5.673177	0	11.29	4004	0	0	0	0	0.7978177	0.1008308	1
402892	0	7	0	-1.05509	0.6811613	5.672075	0	11.29	4004	0	0	0	0	0.7978177	0.1023114	1
403029	10	2	0	-1.059073	0.6534823	5.675559	0	11.29	4003	0	0	0	0	0.7978177	0.1012056	1
403124	19	-4	3	-1.05964	0.6500804	5.675497	0	11.29	4003	0	0	0	0	0.7978177	0.1027305	1
403196	-3	4	0	-1.071796	0.6241114	5.676353	0	11.29	4002	0	0	0	0	0.7978177	0.1061634	1
403288	0	1	-6	-1.069978	0.6271317	5.679714	0	11.29	4003	0	0	0	0	0.7978177	0.1071619	1
403410	3	1	4	-1.056323	0.6445374	5.681914	0	11.23	4003	0	0	0	0	0.7978177	0.1074717	1
403557	2	0	-3	-1.048417	0.6524578	5.683197	0	11.23	4002	0	0	0	0	0.7978177	0.1080424	1
403640	7	0	2	-1.037558	0.6354975	5.686803	0	11.23	4002	0	0	0	0	0.7978177	0.1059853	1
403717	-6	1	5	-1.03751	0.6287596	5.687536	0	11.23	4003	0	0	0	0	0.7978177	0.1067117	1
403771	8	4	-1	-1.047902	0.6445531	5.687232	0	11.23	4002	0	0	0	0	0.7978177	0.1101108	1
403875	7	5	0	-1.029167	0.6352393	5.687966	0	11.23	4002	0	0	0	0	0.7978177	0.1151095	1
404060	1	2	-6	-1.032469	0.6440058	5.68974	0	11.23	4004	0	0	0	0	0.7978177	0.1038259	1
404114	7	10	-2	-1.039259	0.648411	5.69139	0	11.23	4003	0	0	0	0	0.7978177	0.09623604	1
404237	15	9	0	-1.039844	0.6452447	5.694079	0	11.23	4002	0	0	0	0	0.7978177	0.08645277	1
404359	7	7	-5	-1.043439	0.6329159	5.697808	0	11.29	4003	0	0	0	0	0.7978177	0.08300692	1
404407	8	1	-3	-1.018771	0.6280973	5.700252	0	11.29	4002	0	0	0	0	0.7978177	0.08142609	1
404490	16	4	-3	-1.017158	0.6199468	5.701475	0	11.29	4003	0	0	0	0	0.7978177	0.08972002	1
404574	27	2	-2	-1.027274	0.6336454	5.704164	0	11.29	4004	0	0	0	0	0.7978177	0.09504487	1
404684	17	7	3	-1.042104	0.6157454	5.705509	0	11.29	4004	0	0	0	0	0.7978177	0.09766193	1
404781	4	10	3	-1.042926	0.6082914	5.706059	0	11.29	4004	0	0	0	0	0.7978177	0.0961017	1
404884	8	9	-5	-1.039061	0.6073291	5.708199	0	11.29	4004	0	0	0	0	0.7978177	0.09343608	1
405017	7	6	0	-1.024709	0.608508	5.709787	0	11.29	4002	0	0	0	0	0.7978177	0.08778849	1
405091	9	10	0	-1.028634	0.6125709	5.710216	0	11.29	4002	0	0	0	0	0.7978177	0.08163829	1
405212	-2	4	3	-1.03108	0.6060585	5.711315	0	11.29	4003	0	0	0	0	0.7978177	0.07868537	1
405290	14	10	0	-1.034813	0.6014209	5.711804	0	11.29	4003	0	0	0	0	0.7978177	0.08177781	1
405414	17	5	0	-1.033335	0.6153425	5.711988	0	11.29	4003	0	0	0	0	0.7978177	0.08898683	1
405486	7	4	-3	-1.025184	0.6225001	5.71205	0	11.29	4004	0	0	0	0	0.7978177	0.08849531	1
405606	10	11	-4	-1.031207	0.6316459	5.714619	0	11.29	4003	0	0	0	0	0.7978177	0.08195136	1
405713	13	11	-1	-1.007568	0.6244063	5.716697	0	11.29	4002	0	0	0	0	0.7978177	0.07548369	1
405831	0	8	1	-1.026421	0.6052908	5.718593	0	11.29	4004	0	0	0	0	0.7978177	0.07894339	1
405893	10	5	-1	-1.033327	0.6108454	5.72006	0	11.29	4004	0	0	0	0	0.7978177	0.07814286	1
406013	-5	11	0	-1.037428	0.5973246	5.723484	0	11.29	4002	0	0	0	0	0.7978177	0.08121789	1
406100	0	8	1	-1.042607	0.6012654	5.722995	0	11.29	4005	0	0	0	0	0.7978177	0.08893117	1
406220	13	5	-1	-1.056878	0.5901743	5.722261	0	11.23	4002	0	0	0	0	0.7978177	0.09801257	1
406314	8	10	5	-1.038961	0.5779768	5.721894	0	11.23	4002	0	0	0	0	0.7978177	0.1014237	1
406477	13	8	-7	-1.045493	0.6065794	5.72275	0	11.23	4003	0	0	0	0	0.7978177	0.1044087	1
406560	8	8	-2	-1.02228	0.6009815	5.723544	0	11.23	4002	0	0	0	0	0.7978177	0.1060124	1
406658	10	18	-1	-1.018064	0.6139886	5.725805	0	11.23	4002	0	0	0	0	0.7978177	0.1070064	1
406787	10	4	0	-1.028401	0.6056941	5.725683	0	11.23	4003	0	0	0	0	0.7978177	0.1094382	1
406849	15	8	0	-0.9983938	0.6125188	5.725254	0	11.23	4002	0	0	0	0	0.7978177	0.1132726	1
406911	19	11	2	-1.015688	0.6014579	5.72666	0	11.23	4003	0	0	0	0	0.7978177	0.1145995	1
407026	16	-1	-8	-1.008075	0.6060046	5.728922	0	11.23	4002	0	0	0	0	0.7978177	0.1135676	1
407134	11	8	-3	-0.9874665	0.6183203	5.729779	0	11.29	4002	0	0	0	0	0.7978177	0.1101368	1
407219	8	8	0	-1.005727	0.6234127	5.729534	0	11.29	4002	0	0	0	0	0.7978177	0.1046277	1
407368	6	20	-2	-0.9886701	0.6134138	5.732467	0	11.29	4004	0	0	0	0	0.7978177	0.1122693	1
407450	23	9	-1	-0.997744	0.6272151	5.732529	0	11.29	4002	0	0	0	0	0.7978177	0.1207767	1
407527	18	14	0	-1.018381	0.6244816	5.733568	0	11.29	4002	0	0	0	0	0.7978177	0.1210496	1
407670	12	11	1	-1.012494	0.6129063	5.731979	0	11.29	4002	0	0	0	0	0.7978177	0.1211672	1
407859	6	16	-4	-1.013281	0.5926806	5.730877	0	11.29	4004	0	0	0	0	0.7978177	0.1222804	1
407937	13	20	0	-1.010285	0.6135437	5.731916	0	11.29	4002	0	0	0	0	0.7978177	0.1286734	1
408041	19	9	-1	-1.003482	0.6149192	5.734546	0	11.17	4003	0	0	0	0	0.7978177	0.1286082	1
408117	19	16	-5	-1.0038	0.623633	5.737113	0	11.17	4003	0	0	0	0	0.7978177	0.1236325	1
408273	22	11	0	-1.014304	0.607991	5.740293	0	11.17	4004	0	0	0	0	0.7978177	0.1066902	1
408353	23	20	-4	-1.031041	0.6157569	5.741148	0	11.17	4003	0	0	0	0	0.7978177	0.1000002	1
408433	10	20	3	-1.038993	0.6059998	5.743104	0	11.17	4003	0	0	0	0	0.7978177	0.09440571	1
408537	5	6	-1	-1.024007	0.5932353	5.744999	0	11.17	4003	0	0	0	0	0.7978177	0.09058017	1
408596	26	12	-2	-1.012752	0.5991365	5.746161	0	11.17	4003	0	0	0	0	0.7978177	0.08673249	1
408747	0	12	0	-1.013094	0.5889359	5.747262	0	11.17	4004	0	0	0	0	0.7978177	0.08565803	1
408806	19	16	0	-1.003267	0.5844714	5.746833	0	11.17	4004	0	0	0	0	0.7978177	0.0859745	1
408938	12	18	-1	-1.015202	0.5759953	5.749218	0	11.29	4003	0	0	0	0	0.7978177	0.08851209	1
409063	9	11	-2	-1.019095	0.5819709	5.752151	0	11.29	4002	0	0	0	0	0.7978177	0.0878633	1
409169	14	17	-4	-1.000816	0.5746676	5.755086	0	11.29	4002	0	0	0	0	0.7978177	0.07533062	1
409205	24	18	-4	-0.9961517	0.5730943	5.755209	0	11.29	4002	0	0	0	0	0.7978177	0.07243104	1
409347	29	11	0	-0.9937897	0.5800599	5.753865	0	11.29	4003	0	0	0	0	0.7978177	0.05167349	1
409403	19	16	0	-0.9941475	0.5897737	5.754538	0	11.29	4003	0	0	0	0	0.7978177	0.04704016	1
409535	16	14	2	-1.008018	0.5808166	5.759183	0	11.29	4002	0	0	0	0	0.7978177	0.04335574	1
409655	25	18	0	-0.9935548	0.5843235	5.760956	0	11.29	4004	0	0	0	0	0.7978177	0.04736541	1
409711	31	20	-1	-0.9867926	0.5853918	5.763034	0	11.29	4004	0	0	0	0	0.7978177	0.046149	1
409818	14	21	0	-0.9946221	0.5987272	5.765845	0	11.29	4002	0	0	0	0	0.7978177	0.04006204	1
409915	26	14	-4	-1.011391	0.5990579	5.766335	0	11.29	4002	0	0	0	0	0.7978177	0.03047292	1
410009	14	17	0	-1.022642	0.585623	5.765785	0	11.29	4002	0	0	0	0	0.7978177	0.02547674	1
410123	15	12	0	-1.029618	0.5763832	5.766641	0	11.29	4003	0	0	0	0	0.7978177	0.02693615	1
410264	24	19	0	-1.043121	0.5747799	5.768352	0	11.29	4003	0	0	0	0	0.7978177	0.03423982	1
410329	19	16	0	-1.02998	0.587892	5.769574	0	11.29	4003	0	0	0	0	0.7978177	0.03567588	1
410475	16	11	-1	-1.00424	0.598258	5.771834	0	11.29	4003	0	0	0	0	0.7978177	0.03500158	1
410568	12	18	-4	-0.979672	0.5871701	5.774341	0	11.29	4003	0	0	0	0	0.7978177	0.04222511	1
410631	13	23	1	-0.9831607	0.5874507	5.776664	0	11.29	4004	0	0	0	0	0.7978177	0.04185605	1
410751	17	12	-6	-0.9726309	0.584865	5.780332	0	11.23	4004	0	0	0	0	0.7978177	0.03527061	1
410860	24	28	3	-0.9814047	0.59214	5.782656	0	11.23	4002	0	0	0	0	0.7978177	0.01830694	1
410953	26	22	-1	-0.9768025	0.5881965	5.784612	0	11.23	4002	0	0	0	0	0.7978177	0.01620751	1
411018	18	18	-1	-0.9677222	0.594117	5.785101	0	11.23	4004	0	0	0	0	0.7978177	0.01690802	1
411120	15	22	0	-0.975939	0.573159	5.784367	0	11.23	4002	0	0	0	0	0.7978177	0.01771733	1
411306	24	26	-5	-0.9697778	0.5595089	5.785712	0	11.23	4002	0	0	0	0	0.7978177	0.02255895	1
411383	15	19	5	-0.9765762	0.5467365	5.787547	0	11.23	4002	0	0	0	0	0.7978177	0.04791391	1
411470	24	16	-1	-0.9751604	0.5616822	5.787119	0	11.23	4002	0	0	0	0	0.7978177	0.06147797	1
411510	13	17	-6	-0.9721755	0.5683948	5.78877	0	11.23	4003	0	0	0	0	0.7978177	0.06270109	1
411672	18	21	3	-0.9664542	0.561782	5.792254	0	11.29	4002	0	0	0	0	0.7978177	0.06804574	1
411738	16	16	0	-0.9585349	0.5581062	5.795494	0	11.29	4003	0	0	0	0	0.7978177	0.07019215	1
411834	25	15	0	-0.9724428	0.5608618	5.796472	0	11.29	4003	0	0	0	0	0.7978177	0.07151127	1
411978	15	17	-1	-0.9787697	0.5813654	5.799833	0	11.29	4002	0	0	0	0	0.7978177	0.06761025	1
412017	22	17	-1	-0.991775	0.5719451	5.800506	0	11.29	4004	0	0	0	0	0.7978177	0.06434554	1
412101	26	18	-1	-0.9805914	0.5623393	5.802217	0	11.29	4002	0	0	0	0	0.7978177	0.0636913	1
412281	17	19	0	-0.9968158	0.5602297	5.807168	0	11.29	4003	0	0	0	0	0.7978177	0.05529599	1
412333	13	26	-2	-0.9896498	0.5521051	5.807963	0	11.29	4006	0	0	0	0	0.7978177	0.0488399	1
412395	17	26	0	-0.9917051	0.562168	5.809002	0	11.29	4004	0	0	0	0	0.7978177	0.04524291	1
412476	21	22	6	-0.9895028	0.5540828	5.809309	0	11.29	4002	0	0	0	0	0.7978177	0.03594545	1
412687	15	15	0	-0.991954	0.5657983	5.811142	0	11.29	4002	0	0	0	0	0.7978177	0.01984248	1
412786	16	26	2	-0.9864436	0.5540039	5.813649	0	11.29	4004	0	0	0	0	0.7978177	0.01926357	1
412953	20	23	2	-0.9795908	0.5587465	5.815115	0	11.29	4004	0	0	0	0	0.7978177	0.02946934	1
413014	16	21	-1	-0.9986502	0.5488485	5.816582	0	11.29	4004	0	0	0	0	0.7978177	0.03217683	1
413100	33	24	-4	-0.9875943	0.5607389	5.816765	0	11.29	4003	0	0	0	0	0.7978177	0.03024303	1
413291	-1	17	0	-0.9926221	0.5288463	5.8219	0	11.29	4004	0	0	0	0	0.7978177	0.02162558	1
413342	34	22	-3	-0.9899434	0.5302547	5.823917	0	11.29	4003	0	0	0	0	0.7978177	0.02437383	1
413394	25	23	-2	-0.9928933	0.5397457	5.824773	0	11.29	4003	0	0	0	0	0.7978177	0.02584078	1
413516	13	14	0	-0.9898465	0.5545065	5.825811	0	11.23	4003	0	0	0	0	0.7978177	0.02126961	1
413589	26	24	0	-0.9836794	0.5590845	5.826668	0	11.23	4003	0	0	0	0	0.7978177	0.01812395	1
413726	36	25	0	-0.9531558	0.5842321	5.828503	0	11.23	4002	0	0	0	0	0.7978177	0.01416371	1
413805	19	22	-4	-0.9866609	0.5761451	5.831192	0	11.23	4002	0	0	0	0	0.7978177	0.01133699	1
413880	23	14	2	-0.9942801	0.5645662	5.833026	0	11.23	4003	0	0	0	0	0.7978177	0.01370643	1
413978	22	21	2	-0.9772958	0.5420216	5.833943	0	11.23	4003	0	0	0	0	0.7978177	0.01884364	1
414079	25	20	-1	-0.9869576	0.5430578	5.833026	0	11.23	4002	0	0	0	0	0.7978177	0.01598267	1
414180	25	28	-2	-0.9921524	0.541406	5.833454	0	11.23	4004	0	0	0	0	0.7978177	0.0134539	1
414280	25	28	-2	-0.9921524	0.541406	5.833454	0	11.23	4004	0	0	0	0	0.7978177	0.0134539	1
414392	25	28	-2	-0.9921524	0.541406	5.833454	0	11.29	4004	0	0	0	0	0.7978177	0.0134539	1
414473	25	28	-2	-0.9921524	0.541406	5.833454	0	11.29	4004	0	0	0	0	0.7978177	0.0134539	1
414642	25	28	-2	-0.9921524	0.541406	5.833454	0	11.29	4004	0	0	0	0	0.7978177	0.0134539	1
414697	25	28	-2	-0.9921524	0.541406	5.833454	0	11.29	4004	0	0	0	0	0.7978177	0.0134539	1
414793	25	28	-2	-0.9921524	0.541406	5.833454	0	11.29	4004	0	0	0	0	0.7978177	0.0134539	1
414859	25	28	-2	-0.9921524	0.541406	5.833454	0	11.29	4004	0	0	0	0	0.7978177	0.0134539	1
414985	25	28	-2	-0.9921524	0.541406	5.833454	0	11.29	4004	0	0	0	0	0.7978177	0.0134539	1
415064	25	28	-2	-0.9921524	0.541406	5.833454	0	11.29	4004	0	0	0	0	0.7978177	0.0134539	1
415166	25	28	-2	-0.9921524	0.541406	5.833454	0	11.29	4004	0	0	0	0	0.7978177	0.0134539	1
415284	25	28	-2	-0.9921524	0.541406	5.833454	0	11.29	4004	0	0	0	0	0.7978177	0.0134539	1
415363	25	28	-2	-0.9921524	0.541406	5.833454	0	11.29	4004	0	0	0	0	0.7978177	0.0134539	1
415479	25	28	-2	-0.9921524	0.541406	5.833454	0	11.29	4004	0	0	0	0	0.7978177	0.0134539	1
415552	25	28	-2	-0.9921524	0.541406	5.833454	0	11.29	4004	0	0	0	0	0.7978177	0.0134539	1
415657	25	28	-2	-0.9921524	0.541406	5.833454	0	11.29	4004	0	0	0	0	0.7978177	0.0134539	1
415759	25	28	-2	-0.9921524	0.541406	5.833454	0	11.29	4004	0	0	0	0	0.7978177	0.0134539	1
415894	25	28	-2	-0.9921524	0.541406	5.833454	0	11.29	4004	0	0	0	0	0.7978177	0.0134539	1
415960	25	28	-2	-0.9921524	0.541406	5.833454	0	11.29	4004	0	0	0	0	0.7978177	0.0134539	1
416076	25	28	-2	-0.9921524	0.541406	5.833454	0	11.29	4004	0	0	0	0	0.7978177	0.0134539	1
416187	25	28	-2	-0.9921524	0.541406	5.833454	0	11.29	4004	0	0	0	0	0.7978177	0.0134539	1
416292	25	28	-2	-0.9921524	0.541406	5.833454	0	11.29	4004	0	0	0	0	0.7978177	0.0134539	1
416345	25	28	-2	-0.9921524	0.541406	5.833454	0	11.29	4004	0	0	0	0	0.7978177	0.0134539	1
416477	25	28	-2	-0.9921524	0.541406	5.833454	0	11.29	4004	0	0	0	0	0.7978177	0.0134539	1
416550	25	28	-2	-0.9921524	0.541406	5.833454	0	11.29	4004	0	0	0	0	0.7978177	0.0134539	1
416654	25	28	-2	-0.9921524	0.541406	5.833454	0	11.29	4004	0	0	0	0	0.7978177	0.0134539	1
416729	25	28	-2	-0.9921524	0.541406	5.833454	0	11.29	4004	0	0	0	0	0.7978177	0.0134539	1
416791	25	28	-2	-0.9921524	0.541406	5.833454	0	11.29	4004	0	0	0	0	0.7978177	0.0134539	1
416848	25	28	-2	-0.9921524	0.541406	5.833454	0	11.29	4004	0	0	0	0	0.7978177	0.0134539	1
416932	25	28	-2	-0.9921524	0.541406	5.833454	0	11.29	4004	0	0	0	0	0.7978177	0.0134539	1
417007	25	28	-2	-0.9921524	0.541406	5.833454	0	11.29	4004	0	0	0	0	0.7978177	0.0134539	1
417120	25	28	-2	-0.9921524	0.541406	5.833454	0	11.29	4004	0	0	0	0	0.7978177	0.0134539	1
417239	25	28	-2	-0.9921524	0.541406	5.833454	0	11.29	4004	0	0	0	0	0.7978177	0.0134539	1
417297	25	28	-2	-0.9921524	0.541406	5.833454	0	11.29	4004	0	0	0	0	0.7978177	0.0134539	1
417401	25	28	-2	-0.9921524	0.541406	5.833454	0	11.29	4004	0	0	0	0	0.7978177	0.0134539	1
417553	25	28	-2	-0.9921524	0.541406	5.833454	0	11.29	4004	0	0	0	0	0.7978177	0.0134539	1
417610	25	28	-2	-0.9921524	0.541406	5.833454	0	11.29	4004	0	0	0	0	0.7978177	0.0134539	1
417731	25	28	-2	-0.9921524	0.541406	5.833454	0	11.29	4004	0	0	0	0	0.7978177	0.0134539	1
417865	25	28	-2	-0.9921524	0.541406	5.833454	0	11.29	4004	0	0	0	0	0.7978177	0.0134539	1
417962	25	28	-2	-0.9921524	0.541406	5.833454	0	11.29	4004	0	0	0	0	0.7978177	0.0134539	1
418014	25	28	-2	-0.9921524	0.541406	5.833454	0	11.29	4004	0	0	0	0	0.7978177	0.0134539	1
418118	25	28	-2	-0.9921524	0.541406	5.833454	0	11.29	4004	0	0	0	0	0.7978177	0.0134539	1
418272	25	28	-2	-0.9921524	0.541406	5.833454	0	11.29	4004	0	0	0	0	0.7978177	0.0134539	1
418325	25	28	-2	-0.9921524	0.541406	5.833454	0	11.29	4004	0	0	0	0	0.7978177	0.0134539	1
418480	25	28	-2	-0.9921524	0.541406	5.833454	0	11.29	4004	0	0	0	0	0.7978177	0.0134539	1
418574	25	28	-2	-0.9921524	0.541406	5.833454	0	11.29	4004	0	0	0	0	0.7978177	0.0134539	1
418626	25	28	-2	-0.9921524	0.541406	5.833454	0	11.29	4004	0	0	0	0	0.7978177	0.0134539	1
418749	25	28	-2	-0.9921524	0.541406	5.833454	0	11.29	4004	0	0	0	0	0.7978177	0.0134539	1
418909	25	28	-2	-0.9921524	0.541406	5.833454	0	11.29	4004	0	0	0	0	0.7978177	0.0134539	1
418958	25	28	-2	-0.9921524	0.541406	5.833454	0	11.29	4004	0	0	0	0	0.7978177	0.0134539	1
419031	25	28	-2	-0.9921524	0.541406	5.833454	0	11.29	4004	0	0	0	0	0.7978177	0.0134539	1
419139	25	28	-2	-0.9921524	0.541406	5.833454	0	11.29	4004	0	0	0	0	0.7978177	0.0134539	1
419271	25	28	-2	-0.9921524	0.541406	5.833454	0	11.29	4004	0	0	0	0	0.7978177	0.0134539	1
419335	25	28	-2	-0.9921524	0.541406	5.833454	0	11.29	4004	0	0	0	0	0.7978177	0.0134539	1
419475	25	28	-2	-0.9921524	0.541406	5.833454	0	11.29	4004	0	0	0	0	0.7978177	0.0134539	1
419538	25	28	-2	-0.9921524	0.541406	5.833454	0	11.29	4004	0	0	0	0	0.7978177	0.0134539	1
419646	25	28	-2	-0.9921524	0.541406	5.833454	0	11.29	4004	0	0	0	0	0.7978177	0.0134539	1
419783	25	28	-2	-0.9921524	0.541406	5.833454	0	11.29	4004	0	0	0	0	0.7978177	0.0134539	1
419846	25	28	-2	-0.9921524	0.541406	5.833454	0	11.29	4004	0	0	0	0	0.7978177	0.0134539	1
419973	25	28	-2	-0.9921524	0.541406	5.833454	0	11.29	4004	0	0	0	0	0.7978177	0.0134539	1
420049	25	28	-2	-0.9921524	0.541406	5.833454	0	11.29	4004	0	0	0	0	0.7978177	0.0134539	1
420134	25	28	-2	-0.9921524	0.541406	5.833454	0	11.29	4004	0	0	0	0	0.7978177	0.0134539	1
420288	25	28	-2	-0.9921524	0.541406	5.833454	0	11.29	4004	0	0	0	0	0.7978177	0.0134539	1
420423	25	28	-2	-0.9921524	0.541406	5.833454	0	11.29	4004	0	0	0	0	0.7978177	0.0134539	1
420462	25	28	-2	-0.9921524	0.541406	5.833454	0	11.29	4004	0	0	0	0	0.7978177	0.0134539	1
420547	25	28	-2	-0.9921524	0.541406	5.833454	0	11.29	4004	0	0	0	0	0.7978177	0.0134539	1
420684	25	28	-2	-0.9921524	0.541406	5.833454	0	11.23	4004	0	0	0	0	0.7978177	0.0134539	1
420773	25	28	-2	-0.9921524	0.541406	5.833454	0	11.23	4004	0	0	0	0	0.7978177	0.0134539	1
420815	25	28	-2	-0.9921524	0.541406	5.833454	0	11.23	4004	0	0	0	0	0.7978177	0.0134539	1
420928	25	28	-2	-0.9921524	0.541406	5.833454	0	11.23	4004	0	0	0	0	0.7978177	0.0134539	1
421013	25	28	-2	-0.9921524	0.541406	5.833454	0	11.23	4004	0	0	0	0	0.7978177	0.0134539	1
421111	25	28	-2	-0.9921524	0.541406	5.833454	0	11.23	4004	0	0	0	0	0.7978177	0.0134539	1
421214	25	28	-2	-0.9921524	0.541406	5.833454	0	11.23	4004	0	0	0	0	0.7978177	0.0134539	1
421324	25	28	-2	-0.9921524	0.541406	5.833454	0	11.23	4004	0	0	0	0	0.7978177	0.0134539	1
421475	25	28	-2	-0.9921524	0.541406	5.833454	0	11.23	4004	0	0	0	0	0.7978177	0.0134539	1
421531	25	28	-2	-0.9921524	0.541406	5.833454	0	11.23	4004	0	0	0	0	0.7978177	0.0134539	1
421644	25	28	-2	-0.9921524	0.541406	5.833454	0	11.23	4004	0	0	0	0	0.7978177	0.0134539	1
421719	25	28	-2	-0.9921524	0.541406	5.833454	0	11.23	4004	0	0	0	0	0.7978177	0.0134539	1
421805	25	28	-2	-0.9921524	0.541406	5.833454	0	11.23	4004	0	0	0	0	0.7978177	0.0134539	1
421910	25	28	-2	-0.9921524	0.541406	5.833454	0	11.23	4004	0	0	0	0	0.7978177	0.0134539	1
421997	25	28	-2	-0.9921524	0.541406	5.833454	0	11.23	4004	0	0	0	0	0.7978177	0.0134539	1
422097	25	28	-2	-0.9921524	0.541406	5.833454	0	11.23	4004	0	0	0	0	0.7978177	0.0134539	1
422215	7	7	0	0.4485831	-0.2158176	-0.1373137	0	11.23	4003	0	0	0	0	0.7978177	-0.007828791	1
422331	12	8	-2	0.2844155	-0.1499238	-0.1377419	0	11.23	4002	0	0	0	0	0.7978177	-0.02502061	1
422395	12	-6	0	0.2286414	-0.09590085	-0.1357244	0	11.23	4003	0	0	0	0	0.7978177	-0.02895885	1
422513	7	7	0	0.1360745	-0.07757358	-0.1324845	0	11.23	4004	0	0	0	0	0.7978177	-0.03107998	1
422626	15	6	2	0.1014918	-0.05364999	-0.1335238	0	11.23	4003	0	0	0	0	0.7978177	-0.03132563	1
422705	4	9	-6	0.09060381	-0.03945979	-0.132301	0	11.23	4004	0	0	0	0	0.7978177	-0.03206214	1
422845	7	4	-3	0.04416558	-0.004910833	-0.1288165	0	11.23	4003	0	0	0	0	0.7978177	-0.04017925	1
422925	3	3	-3	0.04736597	-0.006282127	-0.1278383	0	11.23	4004	0	0	0	0	0.7978177	-0.04631832	1
423025	0	8	-4	0.04539586	-0.02553458	-0.1258819	0	11.23	4002	0	0	0	0	0.7978177	-0.04530357	1
423114	9	5	-4	0.03040145	-0.0424404	-0.1233751	0	11.23	4004	0	0	0	0	0.7978177	-0.03618788	1
423208	8	9	0	0.03331809	-0.03215406	-0.123375	0	11.23	4003	0	0	0	0	0.7978177	-0.02476621	1
423318	7	5	-1	0.03934852	-0.0372447	-0.121541	0	11.23	4004	0	0	0	0	0.7978177	-0.0234348	1
423478	26	11	-8	0.0407093	-0.03014377	-0.1178728	0	11.29	4003	0	0	0	0	0.7978177	-0.02554015	1
423570	9	8	-1	0.04816321	-0.01005301	-0.1164058	0	11.29	4003	0	0	0	0	0.7978177	-0.02606449	1
423668	15	8	-1	0.03209787	-0.01239704	-0.115122	0	11.29	4003	0	0	0	0	0.7978177	-0.0266421	1
423769	17	11	4	0.04321086	-0.01327454	-0.1133492	0	11.29	4003	0	0	0	0	0.7978177	-0.024367	1
423817	14	5	-1	0.04404216	-0.02306374	-0.1126155	0	11.29	4004	0	0	0	0	0.7978177	-0.02020988	1
423977	21	12	1	0.05648041	-0.02085004	-0.1095587	0	11.29	4002	0	0	0	0	0.7978177	-0.01335906	1
424042	11	11	-3	0.05558811	-0.006235882	-0.1109648	0	11.29	4003	0	0	0	0	0.7978177	-0.009850406	1
424121	11	11	0	0.04861813	-0.03073104	-0.1091309	0	11.29	4004	0	0	0	0	0.7978177	-0.00582713	1
424187	10	10	0	0.04303854	-0.02553447	-0.1081527	0	11.29	4003	0	0	0	0	0.7978177	-0.005057011	1
424331	11	13	0	0.05882525	-0.02425525	-0.1067466	0	11.29	4002	0	0	0	0	0.7978177	-0.008624783	1
424432	15	12	-6	0.05336735	-0.02279353	-0.1063185	0	11.29	4002	0	0	0	0	0.7978177	-0.01990971	1
424531	10	16	0	0.05113338	-0.03192825	-0.1048513	0	11.29	4003	0	0	0	0	0.7978177	-0.02526187	1
424622	16	12	4	0.04356726	-0.03983612	-0.104729	0	11.29	4004	0	0	0	0	0.7978177	-0.02695182	1
424685	2	10	2	0.03446092	-0.05141618	-0.1027727	0	11.29	4003	0	0	0	0	0.7978177	-0.02727025	1
424804	18	12	-2	0.04424128	-0.03646918	-0.1011829	0	11.29	4004	0	0	0	0	0.7978177	-0.03087831	1
424924	26	8	-4	0.05021269	-0.05641446	-0.09794261	0	11.29	4004	0	0	0	0	0.7978177	-0.02404946	1
424985	-3	14	0	0.04075827	-0.05397156	-0.09641416	0	11.29	4003	0	0	0	0	0.7978177	-0.01955834	1
425137	4	7	0	0.06075542	-0.06072406	-0.09396856	0	11.29	4004	0	0	0	0	0.7978177	-0.01817723	1
425190	6	10	0	0.06526606	-0.04492671	-0.09317373	0	11.23	4003	0	0	0	0	0.7978177	-0.0182455	1
425285	10	8	-6	0.06198726	-0.05038239	-0.09127829	0	11.23	4003	0	0	0	0	0.7978177	-0.01959557	1
425416	13	18	1	0.04725983	-0.06292861	-0.09207313	0	11.23	4002	0	0	0	0	0.7978177	-0.02702028	1
425554	19	12	0	0.04437172	-0.04939345	-0.0893831	0	11.23	4003	0	0	0	0	0.7978177	-0.03445973	1
425635	17	18	-2	0.04069003	-0.05199889	-0.08632628	0	11.23	4002	0	0	0	0	0.7978177	-0.0365666	3
425701	7	6	-3	0.03671477	-0.048145	-0.08424768	0	11.23	4003	0	0	0	0	0.7978177	-0.03678686	3
425748	27	4	-3	0.0357781	-0.02604143	-0.08357522	0	11.23	4003	0	0	0	0	0.7978177	-0.03614254	3
425890	14	16	-5	0.04613956	-0.03831139	-0.07984654	0	11.23	4002	0	0	0	0	0.7978177	-0.03090528	3
425953	16	11	0	0.0321072	-0.04337468	-0.07801239	0	11.23	4004	0	0	0	0	0.7978177	-0.02884096	3
426079	25	15	0	0.03439175	-0.04628624	-0.07770681	0	11.29	4004	0	0	0	0	0.7978177	-0.01695897	3
426158	4	18	-1	0.02068665	-0.04928004	-0.07709537	0	11.29	4003	0	0	0	0	0.7978177	-0.01014252	3
426290	22	12	3	0.02452824	-0.05105827	-0.07776771	0	11.29	4004	0	0	0	0	0.7978177	-0.009453557	3
426373	15	11	4	0.02441107	-0.04977683	-0.07636178	0	11.29	4002	0	0	0	0	0.7978177	-0.006117647	3
426463	17	14	0	0.02002611	-0.05181823	-0.07623944	0	11.29	4004	0	0	0	0	0.7978177	0.004936979	3
426602	10	13	-1	0.01112664	-0.04951414	-0.0752001	0	11.29	4004	0	0	0	0	0.7978177	0.02438611	3
426727	0	6	0	0.03102548	-0.06053811	-0.07263269	0	11.29	4004	0	0	0	0	0.7978177	0.03700294	3
426866	15	-11	11	0.04309906	-0.07358293	-0.07086004	0	11.29	4004	1	1	0	0	0.7978177	0.03984455	3
426907	59	-37	18	0.05140799	-0.01822359	-0.07691164	0	11.29	4002	-4	0	0	0	0.7978177	0.03288022	3
426962	14	12	85	0.06685224	-0.03613755	-0.07519973	0	10.77	4002	-7	-4	0	0	0.7978177	0.02877305	3
427139	1	47	-4	0.07902943	-0.1108499	-0.07555676	0	10.77	4004	11	8	-1	0	0.7978177	0.02501884	3
427165	24	51	-150	0.08832932	-0.08962661	-0.07311413	0	10.77	4003	-15	13	0	0	0.7978177	0.02643811	3
427269	31	-59	123	0.05516145	-0.01752409	-0.08460557	0	10.77	4003	7	4	2	0	0.7978177	0.02638226	3
427356	-127	81	47	0.0235684	-0.0524613	-0.0795915	0	10.77	4003	22	16	0	0	0.7978177	0.02425583	3
427512	-13	-49	-84	0.02640221	-0.1247766	-0.06913502	0	10.77	4003	1	2	0	0	0.7978177	0.02689978	3
427636	-85	-112	85	0.1533259	-0.1043793	-0.08179809	0	10.77	4004	9	-14	0	0	0.7978177	0.03852785	3
427675	27	154	-121	0.115179	-0.1225382	-0.08302259	0	10.77	4002	16	-12	1	0	0.7978177	0.04726795	3
427762	-200	-14	124	0.09681619	-0.1988994	-0.09958806	0	10.77	4004	5	49	-2	0	0.7978177	0.06268679	3
427859	171	-81	174	0.09134918	-0.1153128	-0.06693212	0	10.94	4003	28	22	1	0	0.7978177	0.07765908	3
