time(ms)	gyro_x(deg/s)	gyro_y(deg/s)	gyro_z(deg/s)	orientation_roll(deg)	orientation_pitch(deg)	orientation_yaw(deg)	throttle	battery(V)	loop_time(uS)	pid_output_roll	pid_output_pitch	pid_output_yaw	pid_output_throttle	ultrasonic_alt	baro_alt	flight_mode
550468	-60	-54	6	-0.4091363	0.03981598	-9.005739	0	10.66	4003	0	0	0	0	0.6136267	0.2300746	1
550527	-57	-60	4	-0.4088666	0.02141454	-9.013321	0	10.66	4003	0	0	0	0	0.6136267	0.2390836	1
550638	-73	-57	8	-0.3972747	0.01030134	-9.02616	0	10.66	4002	0	0	0	0	0.6136267	0.2435544	1
550737	-52	-58	4	-0.4127549	-0.00369023	-9.03594	0	10.72	4004	0	0	0	0	0.6136267	0.2405507	1
550872	-61	-61	2	-0.4100484	-0.01229238	-9.052695	0	10.72	4003	0	0	0	0	0.6136267	0.23287	1
550980	-56	-64	11	-0.4047749	-0.01828996	-9.064308	0	10.72	4002	0	0	0	0	0.6136267	0.2306168	1
551103	-61	-57	12	-0.3908079	-0.01662372	-9.082343	0	10.72	4003	0	0	0	0	0.6136267	0.2307683	1
551173	-63	-48	7	-0.4165761	0.006857051	-9.093103	0	10.72	4002	0	0	0	0	0.6136267	0.2311753	1
551270	-48	-57	5	-0.4292997	0.003692317	-9.104166	0	10.72	4003	0	0	0	0	0.6136267	0.23239	1
551425	-65	-58	8	-0.4207585	-0.001450449	-9.120673	0	10.72	4003	0	0	0	0	0.6136267	0.2376046	1
551499	-59	-58	7	-0.4276523	-0.006729039	-9.129354	0	10.72	4003	0	0	0	0	0.6136267	0.2414409	1
551685	-65	-58	9	-0.3937793	-0.01851622	-9.15105	0	10.77	4002	0	0	0	0	0.6136267	0.2440176	1
551785	-57	-59	3	-0.397191	-0.02104515	-9.161504	0	10.77	4003	0	0	0	0	0.6136267	0.2472543	1
551842	-55	-51	9	-0.3992445	-0.01047244	-9.169512	0	10.77	4002	0	0	0	0	0.6136267	0.2502708	1
551954	-64	-59	7	-0.4162778	-0.01701114	-9.181373	0	10.77	4004	0	0	0	0	0.6136267	0.2575666	1
552026	-45	-58	12	-0.4236493	-0.02419627	-9.190299	0	10.77	4003	0	0	0	0	0.6136267	0.2552034	1
552212	-62	-55	8	-0.4058034	-0.01553096	-9.208335	0	10.77	4003	0	0	0	0	0.6136267	0.2542281	1
552244	-67	-58	12	-0.4143965	-0.007955978	-9.213103	0	10.77	4003	0	0	0	0	0.6136267	0.2557456	1
552408	-43	-53	6	-0.4055036	-0.005348717	-9.23585	0	10.77	4002	0	0	0	0	0.6136267	0.2491665	1
552454	-61	-60	8	-0.4042232	-0.002476563	-9.238173	0	10.77	4002	0	0	0	0	0.6136267	0.2376074	1
552651	-57	-59	6	-0.393434	-0.03333256	-9.259508	0	10.66	4002	0	0	0	0	0.6136267	0.2142421	1
552725	-53	-63	5	-0.3796609	-0.02371912	-9.266844	0	10.66	4003	0	0	0	0	0.6136267	0.2001209	1
552768	-49	-57	8	-0.4030061	-0.02670798	-9.273265	0	10.66	4003	0	0	0	0	0.6136267	0.1978606	1
552840	-56	-59	5	-0.4031341	-0.03587634	-9.279867	0	10.66	4003	0	0	0	0	0.6136267	0.1928362	1
552960	-63	-55	7	-0.3986601	-0.03598094	-9.295519	0	10.66	4003	0	0	0	0	0.6136267	0.1663153	1
553111	-55	-53	2	-0.4010484	-0.03308154	-9.307624	0	10.66	4003	0	0	0	0	0.6136267	0.122472	1
553189	-54	-59	7	-0.3860292	-0.02318766	-9.313921	0	10.66	4002	0	0	0	0	0.6136267	0.09759226	1
553263	-61	-55	10	-0.3797953	-0.009169685	-9.324069	0	10.66	4003	0	0	0	0	0.6136267	0.08387017	1
553338	-61	-49	6	-0.3908225	-0.01471881	-9.329389	0	10.66	4004	0	0	0	0	0.6136267	0.0755655	1
553447	-52	-51	9	-0.3832444	-0.01734678	-9.340026	0	10.66	4003	0	0	0	0	0.6136267	0.06882997	1
553551	-53	-49	5	-0.3818145	-0.02303759	-9.353107	0	10.72	4002	0	0	0	0	0.6136267	0.07041189	1
553671	-49	-48	7	-0.409948	-0.01144615	-9.369493	0	10.72	4003	0	0	0	0	0.6136267	0.08577619	1
553743	-53	-56	8	-0.391561	-0.004724688	-9.376401	0	10.72	4004	0	0	0	0	0.6136267	0.0959606	1
553905	-58	-52	4	-0.4023655	-0.03036717	-9.393948	0	10.72	4002	0	0	0	0	0.6136267	0.1044724	1
553992	-53	-52	3	-0.4019174	-0.03253831	-9.399818	0	10.72	4003	0	0	0	0	0.6136267	0.110247	1
554043	-57	-55	0	-0.3960673	-0.03771024	-9.407034	0	10.72	4004	0	0	0	0	0.6136267	0.1104555	1
554171	-56	-54	2	-0.4037561	-0.03190698	-9.420607	0	10.72	4002	0	0	0	0	0.6136267	0.09993718	1
554245	-49	-52	8	-0.3982505	-0.03796551	-9.427025	0	10.72	4002	0	0	0	0	0.6136267	0.08895494	1
554403	-57	-52	5	-0.4017466	-0.03165231	-9.442614	0	10.72	4003	0	0	0	0	0.6136267	0.08337228	1
554532	-51	-57	1	-0.3937439	-0.02702442	-9.45857	0	10.72	4004	0	0	0	0	0.6136267	0.07555829	1
554591	-52	-52	4	-0.397759	-0.02430639	-9.464804	0	10.72	4003	0	0	0	0	0.6136267	0.07239264	1
554778	-54	-55	4	-0.4044577	-0.0269019	-9.481922	0	10.72	4002	0	0	0	0	0.6136267	0.07858138	1
554958	-55	-50	6	-0.400733	-0.05137532	-9.495857	0	10.72	4004	0	0	0	0	0.6136267	0.09481487	1
554993	-54	-60	6	-0.4045137	-0.03736494	-9.49928	0	10.72	4003	0	0	0	0	0.6136267	0.09122171	1
555128	-49	-54	4	-0.3765185	-0.02747762	-9.514013	0	10.72	4003	0	0	0	0	0.6136267	0.08492315	1
555200	-55	-56	5	-0.3989276	-0.04738953	-9.521408	0	10.72	4004	0	0	0	0	0.6136267	0.08260155	1
555307	-47	-53	6	-0.3845091	-0.04341215	-9.531005	0	10.77	4003	0	0	0	0	0.6136267	0.07943009	1
555374	-61	-57	4	-0.3746296	-0.03445464	-9.537729	0	10.77	4002	0	0	0	0	0.6136267	0.07744857	1
555477	-50	-50	7	-0.3771713	-0.0405877	-9.547753	0	10.77	4002	0	0	0	0	0.6136267	0.06445135	1
555569	-48	-49	9	-0.3784514	-0.04444377	-9.554295	0	10.77	4004	0	0	0	0	0.6136267	0.0580666	1
555720	-55	-49	8	-0.375598	-0.06458943	-9.569395	0	10.77	4004	0	0	0	0	0.6136267	0.06354249	1
555829	-40	-48	4	-0.3702193	-0.0555246	-9.581805	0	10.77	4004	0	0	0	0	0.6136267	0.06379937	1
555904	-45	-51	7	-0.371537	-0.04815453	-9.589691	0	10.77	4004	0	0	0	0	0.6136267	0.06333971	1
555956	-52	-51	11	-0.3759838	-0.04150309	-9.594766	0	10.77	4003	0	0	0	0	0.6136267	0.06332497	1
556058	-36	-53	4	-0.3956207	-0.02095847	-9.604731	0	10.77	4002	0	0	0	0	0.6136267	0.06184798	1
556199	-49	-53	5	-0.3771228	-0.03859771	-9.619157	0	10.77	4004	0	0	0	0	0.6136267	0.0519128	1
556263	-52	-50	5	-0.3848214	-0.04701881	-9.622643	0	10.77	4004	0	0	0	0	0.6136267	0.03883565	1
556367	-47	-54	4	-0.4202107	-0.04217582	-9.631445	0	10.77	4004	0	0	0	0	0.6136267	0.02197012	1
556486	-52	-47	7	-0.4062111	-0.04321037	-9.646667	0	10.77	4002	0	0	0	0	0.6136267	0.0104896	1
556576	-53	-50	7	-0.3955106	-0.04830021	-9.657855	0	10.77	4002	0	0	0	0	0.6136267	0.01192227	1
556665	-52	-51	5	-0.3910464	-0.06339236	-9.66415	0	10.77	4003	0	0	0	0	0.6136267	0.02452042	1
556787	-56	-49	6	-0.4012641	-0.05772097	-9.679619	0	10.77	4004	0	0	0	0	0.6136267	0.04331293	1
556895	-42	-48	6	-0.3867639	-0.05490638	-9.688298	0	10.77	4003	0	0	0	0	0.6136267	0.06068741	1
556989	-49	-52	4	-0.3734735	-0.0584742	-9.698506	0	10.77	4004	0	0	0	0	0.6136267	0.07036167	1
557102	-42	-54	5	-0.3823068	-0.03586105	-9.706944	0	10.77	4004	0	0	0	0	0.6136267	0.08140468	1
557228	-48	-47	7	-0.3714066	-0.04734712	-9.718685	0	10.77	4003	0	0	0	0	0.6136267	0.09689831	1
557285	-52	-42	3	-0.368261	-0.03703373	-9.721924	0	10.77	4003	0	0	0	0	0.6136267	0.106024	1
557372	-41	-47	3	-0.3840314	-0.03094404	-9.731949	0	10.77	4003	0	0	0	0	0.6136267	0.1101491	1
557544	-57	-43	8	-0.3632286	-0.03579665	-9.747843	0	10.77	4003	0	0	0	0	0.6136267	0.09229998	1
557646	-43	-47	6	-0.3666081	-0.05426279	-9.760314	0	10.77	4003	0	0	0	0	0.6136267	0.07092704	1
557727	-49	-49	7	-0.3627136	-0.04041339	-9.771989	0	10.77	4003	0	0	0	0	0.6136267	0.06061985	1
557788	-49	-43	7	-0.3602361	-0.03132889	-9.778163	0	10.77	4002	0	0	0	0	0.6136267	0.05548727	1
557856	-42	-50	6	-0.359689	-0.03125737	-9.783724	0	10.77	4004	0	0	0	0	0.6136267	0.05227538	1
557960	-45	-46	4	-0.3578381	-0.03188881	-9.792403	0	10.77	4003	0	0	0	0	0.6136267	0.04615516	1
558077	-49	-45	8	-0.3605386	-0.03067986	-9.802979	0	10.77	4003	0	0	0	0	0.6136267	0.03863433	1
558184	-54	-49	2	-0.3687648	-0.03497729	-9.812029	0	10.77	4004	0	0	0	0	0.6136267	0.02728242	1
558273	-47	-53	5	-0.365038	-0.05472348	-9.821565	0	10.77	4003	0	0	0	0	0.6136267	0.02561025	1
558356	-51	-45	5	-0.3598629	-0.06302484	-9.829267	0	10.77	4004	0	0	0	0	0.6136267	0.02157217	1
558452	-43	-50	4	-0.375683	-0.04580809	-9.834952	0	10.77	4003	0	0	0	0	0.6136267	0.02307093	1
558564	-47	-49	6	-0.36197	-0.03378863	-9.84516	0	10.77	4004	0	0	0	0	0.6136267	0.03103959	1
558691	-57	-39	8	-0.3670267	-0.05334923	-9.852981	0	10.77	4004	0	0	0	0	0.6136267	0.04392771	1
558790	-48	-45	5	-0.3417878	-0.0560731	-9.861417	0	10.77	4003	0	0	0	0	0.6136267	0.04894157	1
558865	-46	-47	6	-0.3549324	-0.05387153	-9.871442	0	10.77	4002	0	0	0	0	0.6136267	0.04679589	1
558989	-40	-42	8	-0.3725837	-0.05556395	-9.882079	0	10.77	4003	0	0	0	0	0.6136267	0.04602249	1
559066	-49	-41	3	-0.3585919	-0.05498463	-9.889721	0	10.77	4002	0	0	0	0	0.6136267	0.0492949	1
559186	-45	-43	9	-0.3748195	-0.05845807	-9.900722	0	10.77	4003	0	0	0	0	0.6136267	0.05075077	1
559346	-58	-41	7	-0.3558765	-0.06341543	-9.913193	0	10.77	4003	0	0	0	0	0.6136267	0.06523633	1
559380	-55	-44	8	-0.3636534	-0.06340747	-9.919368	0	10.77	4005	0	0	0	0	0.6136267	0.06703484	1
559483	-40	-44	1	-0.3756449	-0.05592418	-9.926764	0	10.77	4003	0	0	0	0	0.6136267	0.07497877	1
559593	-48	-46	3	-0.3604941	-0.06067619	-9.932387	0	10.77	4003	0	0	0	0	0.6136267	0.08446918	1
559691	-59	-48	6	-0.3578767	-0.06364407	-9.936789	0	10.77	4003	0	0	0	0	0.6136267	0.0917708	1
559779	-45	-47	6	-0.3639201	-0.07371262	-9.942841	0	10.77	4003	0	0	0	0	0.6136267	0.0909583	1
559879	-39	-49	5	-0.3641623	-0.08759387	-9.951336	0	10.77	4002	0	0	0	0	0.6136267	0.0896699	1
559997	-49	-40	6	-0.3594151	-0.07139052	-9.960196	0	10.77	4003	0	0	0	0	0.6136267	0.06663397	1
560159	-46	-42	4	-0.3533455	-0.08234271	-9.973337	0	10.77	4002	0	0	0	0	0.6136267	0.05286931	1
560252	-47	-42	5	-0.3437889	-0.1179744	-9.981404	0	10.77	4003	0	0	0	0	0.6136267	0.04370431	1
560304	-43	-49	1	-0.3559626	-0.09941517	-9.987396	0	10.77	4004	0	0	0	0	0.6136267	0.03999838	1
560387	-36	-39	5	-0.3398477	-0.07438279	-9.992834	0	10.77	4002	0	0	0	0	0.6136267	0.03810425	1
560543	-45	-43	8	-0.3515561	-0.07540902	-10.00402	0	10.77	4003	0	0	0	0	0.6136267	0.04063891	1
560616	-44	-43	8	-0.3397596	-0.06364703	-10.01398	0	10.77	4002	0	0	0	0	0.6136267	0.04236921	1
560752	-52	-42	3	-0.3641106	-0.05926936	-10.02205	0	10.77	4004	0	0	0	0	0.6136267	0.03937851	1
560821	-42	-51	5	-0.3485179	-0.04280124	-10.02883	0	10.83	4003	0	0	0	0	0.6136267	0.03684488	1
560917	-36	-42	5	-0.3606913	-0.0489229	-10.03476	0	10.83	4002	0	0	0	0	0.6136267	0.0363628	1
560993	-31	-44	3	-0.3558318	-0.06594454	-10.04039	0	10.83	4003	0	0	0	0	0.6136267	0.03765657	1
561133	-40	-46	4	-0.3585531	-0.05077124	-10.04821	0	10.83	4003	0	0	0	0	0.6136267	0.05566822	1
561219	-51	-35	3	-0.3485471	-0.0783805	-10.05444	0	10.83	4002	0	0	0	0	0.6136267	0.05985831	1
561348	-36	-34	0	-0.3516116	-0.072436	-10.06434	0	10.83	4004	0	0	0	0	0.6136267	0.06277869	1
561416	-39	-49	3	-0.3566783	-0.08288044	-10.06746	0	10.83	4002	0	0	0	0	0.6136267	0.06816227	1
561515	-48	-41	0	-0.3345889	-0.08978976	-10.07504	0	10.83	4002	0	0	0	0	0.6136267	0.07359513	1
561620	-39	-44	4	-0.3274733	-0.0893472	-10.08286	0	10.83	4004	0	0	0	0	0.6136267	0.08483595	1
561760	-51	-32	5	-0.3283715	-0.09967706	-10.09624	0	10.77	4003	0	0	0	0	0.6136267	0.09016875	1
561898	-44	-37	8	-0.3305685	-0.07970264	-10.10584	0	10.77	4003	0	0	0	0	0.6136267	0.08617679	1
561935	-39	-42	2	-0.3353191	-0.07207093	-10.10804	0	10.77	4002	0	0	0	0	0.6136267	0.08588126	1
562026	-41	-37	6	-0.3248456	-0.07276637	-10.11666	0	10.77	4003	0	0	0	0	0.6136267	0.08604911	1
562146	-36	-43	6	-0.3447909	-0.07836754	-10.12546	0	10.77	4003	0	0	0	0	0.6136267	0.08222854	1
562203	-30	-39	3	-0.338168	-0.06385312	-10.13078	0	10.77	4003	0	0	0	0	0.6136267	0.07881975	1
562299	-44	-36	0	-0.3183928	-0.07590548	-10.13725	0	10.77	4003	0	0	0	0	0.6136267	0.07537297	1
562432	-40	-39	5	-0.3370999	-0.09214207	-10.14459	0	10.77	4003	0	0	0	0	0.6136267	0.06514769	1
562505	-42	-38	1	-0.3257991	-0.08856024	-10.14844	0	10.77	4003	0	0	0	0	0.6136267	0.06379499	1
562611	-33	-42	7	-0.3231214	-0.09571266	-10.15491	0	10.77	4002	0	0	0	0	0.6136267	0.07001537	1
562754	-42	-43	7	-0.3191065	-0.0996226	-10.16897	0	10.77	4004	0	0	0	0	0.6136267	0.06831086	1
562850	-44	-35	4	-0.3063962	-0.08422893	-10.17441	0	10.77	4004	0	0	0	0	0.6136267	0.05853907	1
562918	-44	-34	0	-0.3274097	-0.09026489	-10.17924	0	10.77	4002	0	0	0	0	0.6136267	0.05338039	1
563020	-39	-45	12	-0.3218358	-0.105345	-10.1889	0	10.77	4004	0	0	0	0	0.6136267	0.04455142	1
563104	-40	-40	4	-0.3210035	-0.09127441	-10.19336	0	10.77	4002	0	0	0	0	0.6136267	0.04153059	1
563207	-42	-37	3	-0.3285769	-0.08206937	-10.20131	0	10.77	4002	0	0	0	0	0.6136267	0.04064194	1
563337	-51	-31	2	-0.3453374	-0.08673691	-10.21108	0	10.77	4002	0	0	0	0	0.6136267	0.03604426	1
563447	-35	-35	11	-0.3500765	-0.09372266	-10.21781	0	10.77	4003	0	0	0	0	0.6136267	0.03482751	1
563496	-43	-39	9	-0.3397322	-0.1055172	-10.22288	0	10.77	4004	0	0	0	0	0.6136267	0.03616135	1
563629	-51	-39	5	-0.3420578	-0.0968277	-10.23394	0	10.72	4004	0	0	0	0	0.6136267	0.03622449	1
563727	-34	-39	0	-0.3562051	-0.1079283	-10.23846	0	10.72	4004	0	0	0	0	0.6136267	0.02920174	1
563870	-38	-40	5	-0.3342316	-0.1046819	-10.24745	0	10.72	4003	0	0	0	0	0.6136267	0.02610314	1
563960	-35	-37	4	-0.3369926	-0.09432936	-10.2543	0	10.72	4003	0	0	0	0	0.6136267	0.025391	1
564070	-42	-39	9	-0.3458037	-0.1092293	-10.2609	0	10.72	4002	0	0	0	0	0.6136267	0.02219331	1
564124	-47	-39	6	-0.3294432	-0.1055618	-10.2656	0	10.72	4003	0	0	0	0	0.6136267	0.02228512	1
564226	-32	-33	2	-0.331216	-0.1270229	-10.27288	0	10.72	4003	0	0	0	0	0.6136267	0.02912139	1
564298	-30	-34	6	-0.3202676	-0.1217909	-10.27758	0	10.72	4004	0	0	0	0	0.6136267	0.03080631	1
564420	-40	-34	2	-0.3414195	-0.1319674	-10.28253	0	10.72	4002	0	0	0	0	0.6136267	0.02408869	1
564493	-32	-34	3	-0.3281939	-0.1393379	-10.28754	0	10.83	4003	0	0	0	0	0.6136267	0.02476526	1
564626	-39	-38	3	-0.3302408	-0.1369572	-10.29591	0	10.83	4002	0	0	0	0	0.6136267	0.03249487	1
564720	-40	-36	9	-0.3387141	-0.1358535	-10.29927	0	10.83	4004	0	0	0	0	0.6136267	0.03683813	1
564777	-47	-39	1	-0.3235596	-0.1329229	-10.30245	0	10.83	4002	0	0	0	0	0.6136267	0.04315732	1
564903	-47	-34	-1	-0.3323611	-0.1364006	-10.30924	0	10.83	4002	0	0	0	0	0.6136267	0.05122683	1
565069	-30	-25	3	-0.3271604	-0.140434	-10.31541	0	10.83	4003	0	0	0	0	0.6136267	0.06370666	1
565142	-51	-34	8	-0.3325725	-0.143491	-10.31865	0	10.83	4003	0	0	0	0	0.6136267	0.07462202	1
565213	-33	-33	8	-0.326669	-0.1380457	-10.32347	0	10.83	4002	0	0	0	0	0.6136267	0.08036806	1
565303	-29	-51	3	-0.3270929	-0.131537	-10.32775	0	10.83	4004	0	0	0	0	0.6136267	0.08957487	1
565353	-39	-34	3	-0.3223687	-0.1180781	-10.33166	0	10.72	4003	0	0	0	0	0.6136267	0.0922812	1
565494	-31	-31	2	-0.3210914	-0.112911	-10.33948	0	10.72	4004	0	0	0	0	0.6136267	0.09529845	1
565556	-36	-36	5	-0.3030021	-0.1050034	-10.34175	0	10.72	4004	0	0	0	0	0.6136267	0.09427237	1
565636	-34	-30	4	-0.2945164	-0.09946876	-10.34737	0	10.72	4003	0	0	0	0	0.6136267	0.1038687	1
565735	-26	-32	2	-0.3234698	-0.1212694	-10.35556	0	10.72	4004	0	0	0	0	0.6136267	0.1259227	1
565790	-33	-29	1	-0.3159443	-0.1311961	-10.36185	0	10.72	4002	0	0	0	0	0.6136267	0.1336171	1
565952	-22	-29	1	-0.3118601	-0.1361191	-10.36961	0	10.72	4004	0	0	0	0	0.6136267	0.143426	1
566050	-33	-35	0	-0.2801877	-0.1487802	-10.37486	0	10.72	4004	0	0	0	0	0.6136267	0.1370974	1
566144	-26	-33	-1	-0.2833699	-0.147673	-10.37987	0	10.72	4003	0	0	0	0	0.6136267	0.1223397	1
566224	-31	-32	0	-0.2720937	-0.1452072	-10.38434	0	10.77	4002	0	0	0	0	0.6136267	0.1159058	1
566370	-42	-39	1	-0.282301	-0.1326343	-10.39161	0	10.77	4003	0	0	0	0	0.6136267	0.09574476	1
566439	-29	-35	6	-0.2884826	-0.1213374	-10.39858	0	10.77	4003	0	0	0	0	0.6136267	0.08618373	1
566472	-27	-29	6	-0.2912288	-0.1477928	-10.40065	0	10.77	4004	0	0	0	0	0.6136267	0.08325099	1
566596	-32	-38	2	-0.3028204	-0.158816	-10.40946	0	10.77	4003	0	0	0	0	0.6136267	0.08349478	1
566777	-25	-32	1	-0.2947268	-0.1340926	-10.41838	0	10.77	4002	0	0	0	0	0.6136267	0.07302174	1
566898	-34	-41	3	-0.3020224	-0.1704513	-10.4254	0	10.77	4004	0	0	0	0	0.6136267	0.08188122	1
566969	-39	-34	9	-0.3260772	-0.1705369	-10.4317	0	10.77	4004	0	0	0	0	0.6136267	0.08693284	1
567033	-21	-28	5	-0.3384545	-0.1715809	-10.43353	0	10.77	4003	0	0	0	0	0.6136267	0.09516636	1
567124	-40	-30	-1	-0.2891127	-0.1235711	-10.43677	0	10.77	4003	0	0	0	0	0.6136267	0.1062662	1
567275	-36	-33	3	-0.3236279	-0.1350019	-10.44582	0	10.77	4003	0	0	0	0	0.6136267	0.130915	1
567328	-28	-35	2	-0.3372647	-0.1149286	-10.44777	0	10.77	4003	0	0	0	0	0.6136267	0.1400899	1
567432	-40	-24	2	-0.3013491	-0.08806715	-10.4537	0	10.77	4004	0	0	0	0	0.6136267	0.1499043	1
567541	-29	-29	0	-0.3034047	-0.1148177	-10.45828	0	10.77	4002	0	0	0	0	0.6136267	0.1610277	1
567644	-28	-29	0	-0.3012441	-0.13198	-10.46305	0	10.77	4002	0	0	0	0	0.6136267	0.1520699	1
567747	-29	-28	4	-0.2980884	-0.111318	-10.47081	0	10.77	4003	0	0	0	0	0.6136267	0.14457	1
567857	-29	-26	4	-0.2670361	-0.1210734	-10.47405	0	10.77	4004	0	0	0	0	0.6136267	0.1326134	1
567966	-28	-30	2	-0.2723025	-0.1317586	-10.48083	0	10.77	4003	0	0	0	0	0.6136267	0.1254115	1
568143	-29	-33	2	-0.2985369	-0.1531576	-10.48975	0	10.77	4004	0	0	0	0	0.6136267	0.120694	1
568218	-29	-29	2	-0.3047568	-0.1746081	-10.49483	0	10.77	4002	0	0	0	0	0.6136267	0.118131	1
568259	-34	-27	3	-0.3244002	-0.1738951	-10.49629	0	10.77	4004	0	0	0	0	0.6136267	0.1165399	1
568361	-27	-29	0	-0.2976282	-0.1655667	-10.50338	0	10.77	4002	0	0	0	0	0.6136267	0.1169077	1
568435	-31	-37	4	-0.2589633	-0.1634544	-10.50766	0	10.77	4009	0	0	0	0	0.6136267	0.1203666	1
568520	-23	-28	5	-0.2716845	-0.1783367	-10.51139	0	10.77	4004	0	0	0	0	0.6136267	0.1264973	1
568628	-33	-28	-7	-0.2967106	-0.1207611	-10.51475	0	10.77	4002	0	0	0	0	0.6136267	0.1249873	1
568742	-28	-32	9	-0.3396567	-0.163789	-10.52239	0	10.77	4004	0	0	0	0	0.6136267	0.1177043	1
568827	-29	-24	0	-0.3286563	-0.1447635	-10.52373	0	10.77	4003	0	0	0	0	0.6136267	0.1058878	1
568932	-26	-34	1	-0.3104595	-0.1494192	-10.52911	0	10.77	4002	0	0	0	0	0.6136267	0.09153432	1
569027	-35	-34	2	-0.2832397	-0.1563527	-10.5318	0	10.77	4004	0	0	0	0	0.6136267	0.08542723	1
569117	-22	-27	5	-0.3171352	-0.1691725	-10.53516	0	10.77	4003	0	0	0	0	0.6136267	0.08564409	1
569265	-26	-28	0	-0.3320526	-0.1577214	-10.53919	0	10.77	4003	0	0	0	0	0.6136267	0.08392773	1
569340	-25	-26	0	-0.3497062	-0.1743128	-10.54359	0	10.77	4002	0	0	0	0	0.6136267	0.08890194	1
569432	-29	-29	0	-0.3173721	-0.164155	-10.54756	0	10.77	4003	0	0	0	0	0.6136267	0.1019941	1
569530	-28	-19	0	-0.3022812	-0.1337517	-10.55147	0	10.77	4003	0	0	0	0	0.6136267	0.1117034	1
569648	-20	-23	5	-0.2741819	-0.1698171	-10.55813	0	10.77	4003	0	0	0	0	0.6136267	0.1268661	1
569723	-22	-27	-2	-0.2757037	-0.1786259	-10.55935	0	10.77	4003	0	0	0	0	0.6136267	0.1288664	1
569830	-25	-24	4	-0.280379	-0.1622136	-10.56375	0	10.89	4003	0	0	0	0	0.6136267	0.1461135	1
569944	-29	-26	2	-0.2883165	-0.1706233	-10.57059	0	10.89	4004	0	0	0	0	0.6136267	0.1508654	1
570013	-33	-23	2	-0.2908224	-0.1755484	-10.57335	0	10.89	4003	0	0	0	0	0.6136267	0.1417111	1
570124	-26	-23	0	-0.294709	-0.2061899	-10.57609	0	10.89	4004	0	0	0	0	0.6136267	0.1187731	1
570245	-33	-30	1	-0.2704347	-0.1960444	-10.58098	0	10.89	4004	0	0	0	0	0.6136267	0.09213044	1
570320	-38	-28	0	-0.2733772	-0.1753646	-10.5819	0	10.89	4002	0	0	0	0	0.6136267	0.08328991	1
570440	-14	-25	2	-0.291642	-0.1598157	-10.58496	0	10.89	4002	0	0	0	0	0.6136267	0.07717645	1
570510	-31	-31	5	-0.2700605	-0.1402654	-10.58978	0	10.89	4004	0	0	0	0	0.6136267	0.07627165	1
570641	-21	-27	0	-0.2999814	-0.1478311	-10.59479	0	10.89	4003	0	0	0	0	0.6136267	0.07843297	1
570756	-28	-36	5	-0.2920253	-0.1452148	-10.59901	0	10.83	4003	0	0	0	0	0.6136267	0.08768709	1
570861	-28	-30	3	-0.2815235	-0.1584148	-10.60628	0	10.83	4003	0	0	0	0	0.6136267	0.0935972	1
570908	-39	-21	4	-0.2936246	-0.163107	-10.60744	0	10.83	4003	0	0	0	0	0.6136267	0.1020532	1
570980	-23	-26	7	-0.2899769	-0.1664529	-10.6141	0	10.83	4004	0	0	0	0	0.6136267	0.1019481	1
571065	-21	-23	4	-0.2897444	-0.1711282	-10.61924	0	10.83	4003	0	0	0	0	0.6136267	0.1010603	1
571165	-20	-23	2	-0.2747646	-0.1670806	-10.62486	0	10.83	4004	0	0	0	0	0.6136267	0.1017838	1
571296	-29	-34	4	-0.2831982	-0.1775474	-10.62858	0	10.83	4003	0	0	0	0	0.6136267	0.1067424	1
571368	-25	-25	5	-0.293944	-0.1713846	-10.63109	0	10.83	4002	0	0	0	0	0.6136267	0.1103214	1
571471	-13	-27	1	-0.2961216	-0.1717859	-10.63622	0	10.83	4002	0	0	0	0	0.6136267	0.1167768	1
571589	-31	-20	8	-0.3010822	-0.1992498	-10.64105	0	10.83	4004	0	0	0	0	0.6136267	0.125183	1
571715	-32	-21	0	-0.294695	-0.1729329	-10.64764	0	10.77	4002	0	0	0	0	0.6136267	0.1141552	1
571778	-19	-28	5	-0.2782982	-0.1720129	-10.65125	0	10.77	4002	0	0	0	0	0.6136267	0.1093679	1
571886	-31	-29	8	-0.2880509	-0.1864811	-10.65651	0	10.77	4002	0	0	0	0	0.6136267	0.1079352	1
572026	-9	-26	2	-0.2994285	-0.1772197	-10.66207	0	10.77	4003	0	0	0	0	0.6136267	0.1222154	1
572080	-25	-24	2	-0.2845112	-0.1831683	-10.66463	0	10.77	4004	0	0	0	0	0.6136267	0.1293713	1
572180	-31	-27	4	-0.27487	-0.1900891	-10.66915	0	10.77	4002	0	0	0	0	0.6136267	0.1343776	1
572283	-19	-23	1	-0.2827095	-0.1825289	-10.67368	0	10.77	4003	0	0	0	0	0.6136267	0.1328448	1
572437	-29	-28	5	-0.2989706	-0.1933802	-10.68107	0	10.77	4003	0	0	0	0	0.6136267	0.1225172	1
572496	-16	-23	1	-0.2888222	-0.1958293	-10.68235	0	10.77	4003	0	0	0	0	0.6136267	0.1175346	1
572588	-26	-27	6	-0.2820519	-0.1950036	-10.68645	0	10.77	4003	0	0	0	0	0.6136267	0.1095821	1
572698	-28	-19	4	-0.2770323	-0.1846131	-10.68999	0	10.77	4003	0	0	0	0	0.6136267	0.1028083	1
572812	-19	-19	1	-0.2714835	-0.193093	-10.69574	0	10.77	4003	0	0	0	0	0.6136267	0.1031679	1
572883	-35	-22	2	-0.2722957	-0.1970474	-10.69782	0	10.77	4004	0	0	0	0	0.6136267	0.1074417	1
572986	-33	-30	-1	-0.2823369	-0.1858605	-10.70038	0	10.77	4004	0	0	0	0	0.6136267	0.1134486	1
573139	-25	-23	8	-0.2716095	-0.1876699	-10.70619	0	10.77	4003	0	0	0	0	0.6136267	0.1229535	1
573191	-23	-17	-1	-0.2723612	-0.1855349	-10.70899	0	10.77	4004	0	0	0	0	0.6136267	0.1332444	1
573291	-36	-24	5	-0.2703312	-0.2003539	-10.71242	0	10.77	4004	0	0	0	0	0.6136267	0.1490175	1
573402	-22	-18	0	-0.2522772	-0.2120785	-10.71828	0	10.77	4002	0	0	0	0	0.6136267	0.1607041	1
573482	-20	-20	1	-0.2580309	-0.2021437	-10.72073	0	10.77	4002	0	0	0	0	0.6136267	0.1632399	1
573716	-24	-20	0	-0.267421	-0.2066722	-10.72818	0	10.77	4002	0	0	0	0	0.6136267	0.1550286	1
573845	-21	-21	6	-0.2927066	-0.2074213	-10.73185	0	10.77	4003	0	0	0	0	0.6136267	0.15637	1
574033	-17	-21	7	-0.2811872	-0.168262	-10.74401	0	10.77	4003	0	0	0	0	0.6136267	0.1532002	1
574109	-12	-20	5	-0.2643476	-0.1697456	-10.74743	0	10.77	4004	0	0	0	0	0.6136267	0.1500935	1
574181	-20	-17	3	-0.2523824	-0.1678247	-10.75012	0	10.77	4004	0	0	0	0	0.6136267	0.1441503	1
574313	-22	-23	4	-0.2750249	-0.178645	-10.75702	0	10.77	4003	0	0	0	0	0.6136267	0.1250819	1
574380	-25	-18	2	-0.2692702	-0.1985834	-10.76136	0	10.77	4003	0	0	0	0	0.6136267	0.1140915	1
574471	-18	-17	3	-0.2479715	-0.1846453	-10.76539	0	10.77	4002	0	0	0	0	0.6136267	0.1040158	1
574621	-17	-19	-3	-0.2476173	-0.1908273	-10.76979	0	10.77	4002	0	0	0	0	0.6136267	0.08659428	1
574678	-12	-25	1	-0.2501028	-0.1737842	-10.77175	0	10.77	4002	0	0	0	0	0.6136267	0.08334593	1
574779	-7	-20	-3	-0.2636203	-0.2022699	-10.7778	0	10.77	4002	0	0	0	0	0.6136267	0.05611973	1
574893	-17	-18	4	-0.2580697	-0.1862975	-10.78165	0	10.77	4002	0	0	0	0	0.6136267	0.03971741	1
575021	-33	-23	5	-0.2690664	-0.2004965	-10.78672	0	10.77	4002	0	0	0	0	0.6136267	0.02491581	1
575065	-17	-24	0	-0.267559	-0.2048046	-10.79044	0	10.77	4004	0	0	0	0	0.6136267	0.01628616	1
575260	-21	-15	0	-0.254201	-0.1940655	-10.79539	0	10.83	4003	0	0	0	0	0.6136267	0.003057343	1
575334	-13	-19	6	-0.2650837	-0.2063435	-10.79778	0	10.83	4003	0	0	0	0	0.6136267	0.005787357	1
575426	-17	-14	1	-0.270964	-0.2091069	-10.80157	0	10.83	4004	0	0	0	0	0.6136267	0.004770142	1
575454	-27	-14	-3	-0.270924	-0.210868	-10.80212	0	10.83	4004	0	0	0	0	0.6136267	0.00262168	1
575560	-9	-19	4	-0.259908	-0.2025484	-10.80615	0	10.83	4003	0	0	0	0	0.6136267	-0.00471396	1
575682	-25	-16	5	-0.2379067	-0.1995017	-10.81092	0	10.83	4003	0	0	0	0	0.6136267	-0.01722068	1
575783	-24	-24	2	-0.2397733	-0.1979557	-10.81348	0	10.83	4002	0	0	0	0	0.6136267	-0.02820088	1
575855	-22	-13	4	-0.2555838	-0.2046211	-10.81574	0	10.83	4004	0	0	0	0	0.6136267	-0.03945966	1
576034	-24	-15	3	-0.2597954	-0.1946494	-10.82185	0	10.83	4002	0	0	0	0	0.6136267	-0.03969028	1
576089	-15	-20	0	-0.2590316	-0.1888466	-10.82314	0	10.83	4004	0	0	0	0	0.6136267	-0.0383533	1
576144	-8	-18	4	-0.2545378	-0.1920802	-10.82516	0	10.77	4003	0	0	0	0	0.6136267	-0.03772689	1
576260	-11	-11	0	-0.2444654	-0.1844045	-10.82858	0	10.77	4004	0	0	0	0	0.6136267	-0.04484532	1
576425	-11	-17	1	-0.2570907	-0.1958416	-10.8378	0	10.77	4003	0	0	0	0	0.6136267	-0.04705688	1
576450	-7	-11	-3	-0.2525008	-0.2044659	-10.83854	0	10.77	4004	0	0	0	0	0.6136267	-0.04705688	1
576584	-20	-16	4	-0.2383194	-0.2092783	-10.84	0	10.77	4004	0	0	0	0	0.6136267	-0.0611277	1
576667	-5	-15	0	-0.2614771	-0.1970489	-10.84178	0	10.77	4003	0	0	0	0	0.6136267	-0.06939226	1
576796	-21	-11	0	-0.246211	-0.2119426	-10.84502	0	10.77	4003	0	0	0	0	0.6136267	-0.07198887	1
576872	-16	-16	0	-0.2439174	-0.2184591	-10.84752	0	10.77	4004	0	0	0	0	0.6136267	-0.07820331	1
576964	-14	-13	0	-0.2586387	-0.2164463	-10.85211	0	10.77	4004	0	0	0	0	0.6136267	-0.08503649	1
577089	-27	-21	5	-0.2450742	-0.2149576	-10.85595	0	10.77	4002	0	0	0	0	0.6136267	-0.09404252	1
577240	-22	-17	3	-0.2534509	-0.2151685	-10.86206	0	10.77	4004	0	0	0	0	0.6136267	-0.09676795	1
577325	-17	-18	5	-0.236198	-0.2075603	-10.86591	0	10.77	4003	0	0	0	0	0.6136267	-0.08546908	1
577401	-20	-11	8	-0.2463955	-0.2056507	-10.86909	0	10.77	4003	0	0	0	0	0.6136267	-0.07613014	1
577499	-18	-10	-1	-0.2555349	-0.2059657	-10.87373	0	10.77	4004	0	0	0	0	0.6136267	-0.05970426	1
577570	-6	-19	1	-0.2466052	-0.2066073	-10.87587	0	10.77	4003	0	0	0	0	0.6136267	-0.05426594	1
577729	-15	-11	-1	-0.2372066	-0.2274498	-10.87899	0	10.77	4003	0	0	0	0	0.6136267	-0.03533761	1
577768	-21	-18	5	-0.2437	-0.2319961	-10.88131	0	10.77	4003	0	0	0	0	0.6136267	-0.03412105	1
577917	-7	-11	1	-0.2386385	-0.2121041	-10.88645	0	10.77	4004	0	0	0	0	0.6136267	-0.02937532	1
577974	-19	-13	5	-0.240004	-0.2116797	-10.88815	0	10.77	4003	0	0	0	0	0.6136267	-0.03011079	1
578126	-11	-15	5	-0.2428477	-0.2275577	-10.89268	0	10.77	4003	0	0	0	0	0.6136267	-0.04012007	1
578211	-19	-15	1	-0.2684226	-0.2147862	-10.89591	0	10.77	4003	0	0	0	0	0.6136267	-0.04147831	1
578301	-14	-6	1	-0.2640921	-0.2217326	-10.89897	0	10.77	4002	0	0	0	0	0.6136267	-0.04468168	1
578374	-16	-11	4	-0.2499066	-0.2223126	-10.90068	0	10.77	4004	0	0	0	0	0.6136267	-0.04794003	1
578534	-8	-11	6	-0.2508016	-0.2110746	-10.90538	0	10.77	4004	0	0	0	0	0.6136267	-0.05591172	1
578587	-15	-15	2	-0.2420854	-0.2272688	-10.90765	0	10.77	4004	0	0	0	0	0.6136267	-0.06484646	1
578691	-26	-15	4	-0.2307031	-0.2301232	-10.91369	0	10.77	4002	0	0	0	0	0.6136267	-0.07834485	1
578796	-13	-16	0	-0.2574273	-0.2140329	-10.91779	0	10.77	4003	0	0	0	0	0.6136267	-0.08927893	1
578891	-12	-7	0	-0.2357325	-0.2226403	-10.91913	0	10.77	4003	0	0	0	0	0.6136267	-0.1033561	1
579059	-4	-9	2	-0.2529016	-0.2205403	-10.92542	0	10.72	4002	0	0	0	0	0.6136267	-0.1105452	1
579161	-16	-10	3	-0.2398105	-0.2265247	-10.92909	0	10.72	4002	0	0	0	0	0.6136267	-0.1105701	1
579251	-16	-9	0	-0.249432	-0.2300869	-10.93263	0	10.72	4004	0	0	0	0	0.6136267	-0.102942	1
579323	-12	-6	3	-0.2638229	-0.2109858	-10.93342	0	10.72	4004	0	0	0	0	0.6136267	-0.09582379	1
579403	-12	-12	-4	-0.2736481	-0.211892	-10.93459	0	10.72	4003	0	0	0	0	0.6136267	-0.08890885	1
579523	-18	-16	3	-0.2463665	-0.2285703	-10.93886	0	10.72	4003	0	0	0	0	0.6136267	-0.07808294	1
579644	-10	-15	4	-0.2574322	-0.2466244	-10.94418	0	10.72	4003	0	0	0	0	0.6136267	-0.07692631	1
579713	-28	-15	1	-0.2428248	-0.2584658	-10.94357	0	10.72	4002	0	0	0	0	0.6136267	-0.07513259	1
579852	-12	-12	0	-0.2307526	-0.2455816	-10.94815	0	10.72	4002	0	0	0	0	0.6136267	-0.07554466	1
579917	-10	-15	8	-0.2362787	-0.2311323	-10.94955	0	10.72	4003	0	0	0	0	0.6136267	-0.07570828	1
580045	-10	-16	6	-0.2306485	-0.2432107	-10.95181	0	10.72	4003	0	0	0	0	0.6136267	-0.07690768	1
580146	-6	-12	3	-0.2268955	-0.231689	-10.95511	0	10.72	4002	0	0	0	0	0.6136267	-0.07801291	1
580237	-13	-16	4	-0.2329569	-0.2239167	-10.95939	0	10.72	4003	0	0	0	0	0.6136267	-0.07680698	1
580344	-10	-14	0	-0.2199341	-0.2297923	-10.96177	0	10.72	4004	0	0	0	0	0.6136267	-0.07414564	1
580493	0	-8	3	-0.2110763	-0.2476311	-10.96886	0	10.72	4003	0	0	0	0	0.6136267	-0.04598009	1
580582	-19	-16	0	-0.205509	-0.2389967	-10.97332	0	10.72	4002	0	0	0	0	0.6136267	-0.03022854	1
580618	-10	-13	1	-0.214909	-0.2361382	-10.97313	0	10.72	4004	0	0	0	0	0.6136267	-0.02681659	1
580701	-14	-8	-2	-0.2341437	-0.230451	-10.97582	0	10.72	4003	0	0	0	0	0.6136267	-0.01010045	1
