time(ms)	gyro_x(deg/s)	gyro_y(deg/s)	gyro_z(deg/s)	orientation_roll(deg)	orientation_pitch(deg)	orientation_yaw(deg)	throttle	battery(V)	loop_time(uS)	pid_output_roll	pid_output_pitch	pid_output_yaw	pid_output_throttle	ultrasonic_alt	baro_alt	flight_mode
23	28	36	-6	0.1471469	-0.1971899	0.9715198	0	12.53	4004	0	0	0	0	0.02	-0.05081354	1
189	35	29	-5	0.1477807	-0.1934904	0.9809957	0	12.53	4004	0	0	0	0	0.02	-0.04459305	1
253	35	33	-3	0.1343854	-0.1842943	0.9822181	0	12.53	4003	0	0	0	0	0.02	-0.04425376	1
335	35	29	0	0.1426725	-0.1887777	0.9846635	0	12.53	4004	0	0	0	0	0.02	-0.04408035	1
491	35	34	-1	0.1481822	-0.1773648	0.9931006	0	12.53	4002	0	0	0	0	0.02	-0.04123692	1
564	31	28	-4	0.141586	-0.1671584	0.9971968	0	12.53	4004	0	0	0	0	0.02	-0.04025257	1
648	27	37	-10	0.1425808	-0.1768297	1.00166	0	12.53	4004	0	0	0	0	0.02	-0.04160187	1
784	34	19	-6	0.1447799	-0.1728154	1.006734	0	12.53	4003	0	0	0	0	0.02	-0.04732117	1
897	25	35	-2	0.1290296	-0.1779776	1.011747	0	12.65	4003	0	0	0	0	0.02	-0.05658745	1
969	38	30	-5	0.1472899	-0.1925384	1.016883	0	12.65	4003	0	0	0	0	0.02	-0.05909606	1
1050	31	38	-4	0.1339801	-0.1827283	1.021652	0	12.65	4003	0	0	0	0	0.02	-0.06032677	1
1268	37	40	-4	0.1615073	-0.1783595	1.035163	0	12.65	4002	0	0	0	0	0.02	-0.04322638	1
1458	35	33	-3	0.1575795	-0.1777781	1.044089	0	12.65	4003	0	0	0	0	0.02	-0.02192553	1
1531	46	34	-1	0.1428735	-0.1764422	1.050324	0	12.65	4002	0	0	0	0	0.02	-0.0134803	1
1581	40	28	-3	0.1311505	-0.1764844	1.052953	0	12.65	4003	0	0	0	0	0.02	-0.008261786	1
1663	40	33	1	0.1301276	-0.1759306	1.057232	0	12.65	4002	0	0	0	0	0.02	0.002191846	1
1786	45	37	-4	0.1283045	-0.1825988	1.062124	0	12.65	4003	0	0	0	0	0.02	0.01944111	1
1863	25	37	-2	0.1193641	-0.1913798	1.066464	0	12.65	4003	0	0	0	0	0.02	0.02314792	1
1994	32	43	-1	0.1545165	-0.1925316	1.072455	0	12.65	4003	0	0	0	0	0.02	0.02709552	1
2053	39	34	-6	0.1537366	-0.1896472	1.074778	0	12.65	4003	0	0	0	0	0.02	0.02765395	1
2244	40	36	-2	0.1788256	-0.2059244	1.088473	0	12.65	4003	0	0	0	0	0.02	0.02463285	1
2319	37	29	-3	0.1672323	-0.2120904	1.093302	0	12.65	4004	0	0	0	0	0.02	0.02009667	1
2482	38	40	-7	0.172158	-0.2100033	1.102656	0	12.65	4004	0	0	0	0	0.02	0.01186744	1
2594	32	36	-2	0.1591953	-0.1916098	1.109076	0	12.65	4008	0	0	0	0	0.02	0.008862826	1
2701	28	35	0	0.1616746	-0.215412	1.114762	0	12.59	4003	0	0	0	0	0.02	0.01027553	1
2832	50	41	-3	0.1677298	-0.2232685	1.118981	0	12.59	4004	0	0	0	0	0.02	0.005484579	1
2878	30	42	-6	0.1672276	-0.2177363	1.120265	0	12.59	4003	0	0	0	0	0.02	0.004777668	1
2986	31	42	0	0.1694489	-0.2157599	1.124544	0	12.59	4004	0	0	0	0	0.02	0.001240853	1
3063	39	36	-8	0.1783574	-0.2200098	1.132432	0	12.59	4003	0	0	0	0	0.02	-0.003733385	1
3213	45	38	-1	0.159422	-0.2184829	1.137996	0	12.59	4002	0	0	0	0	0.02	-0.01301277	1
3308	44	33	-6	0.1602565	-0.2108878	1.145576	0	12.59	4002	0	0	0	0	0.02	-0.02176742	1
3380	39	35	0	0.1381474	-0.2065429	1.151384	0	12.59	4003	0	0	0	0	0.02	-0.03463241	1
3581	43	36	-3	0.1485667	-0.2164958	1.158782	0	12.59	4003	0	0	0	0	0.02	-0.05738923	1
3690	38	39	5	0.1425545	-0.1899979	1.166547	0	12.48	4004	0	0	0	0	0.02	-0.07041585	1
3772	40	38	-5	0.1611856	-0.2085595	1.170459	0	12.48	4002	0	0	0	0	0.02	-0.07483985	1
3879	36	40	-3	0.1529627	-0.2042819	1.175962	0	12.48	4004	0	0	0	0	0.02	-0.08464397	1
3933	27	31	-9	0.1447109	-0.209846	1.178224	0	12.48	4003	0	0	0	0	0.02	-0.09038511	1
4078	27	31	-9	0.1447109	-0.209846	1.178224	0	12.48	4003	0	0	0	0	0.02	-0.09038511	1
4130	27	31	-9	0.1447109	-0.209846	1.178224	0	12.48	4003	0	0	0	0	0.02	-0.09038511	1
4265	27	31	-9	0.1447109	-0.209846	1.178224	0	12.48	4003	0	0	0	0	0.02	-0.09038511	1
4371	27	31	-9	0.1447109	-0.209846	1.178224	0	12.48	4003	0	0	0	0	0.02	-0.09038511	1
4418	27	31	-9	0.1447109	-0.209846	1.178224	0	12.48	4003	0	0	0	0	0.02	-0.09038511	1
4566	27	31	-9	0.1447109	-0.209846	1.178224	0	12.59	4003	0	0	0	0	0.02	-0.09038511	1
4702	27	31	-9	0.1447109	-0.209846	1.178224	0	12.59	4003	0	0	0	0	0.02	-0.09038511	1
4759	27	31	-9	0.1447109	-0.209846	1.178224	0	12.59	4003	0	0	0	0	0.02	-0.09038511	1
4857	27	31	-9	0.1447109	-0.209846	1.178224	0	12.59	4003	0	0	0	0	0.02	-0.09038511	1
4969	27	31	-9	0.1447109	-0.209846	1.178224	0	12.59	4003	0	0	0	0	0.02	-0.09038511	1
5032	27	31	-9	0.1447109	-0.209846	1.178224	0	12.59	4003	0	0	0	0	0.02	-0.09038511	1
5118	27	31	-9	0.1447109	-0.209846	1.178224	0	12.59	4003	0	0	0	0	0.02	-0.09038511	1
5229	27	31	-9	0.1447109	-0.209846	1.178224	0	12.59	4003	0	0	0	0	0.02	-0.09038511	1
5324	27	31	-9	0.1447109	-0.209846	1.178224	0	12.59	4003	0	0	0	0	0.02	-0.09038511	1
5468	27	31	-9	0.1447109	-0.209846	1.178224	0	12.65	4003	0	0	0	0	0.02	-0.09038511	1
5537	27	31	-9	0.1447109	-0.209846	1.178224	0	12.65	4003	0	0	0	0	0.02	-0.09038511	1
5655	27	31	-9	0.1447109	-0.209846	1.178224	0	12.65	4003	0	0	0	0	0.02	-0.09038511	1
5774	27	31	-9	0.1447109	-0.209846	1.178224	0	12.65	4003	0	0	0	0	0.02	-0.09038511	1
5853	27	31	-9	0.1447109	-0.209846	1.178224	0	12.65	4003	0	0	0	0	0.02	-0.09038511	1
5955	27	31	-9	0.1447109	-0.209846	1.178224	0	12.65	4003	0	0	0	0	0.02	-0.09038511	1
6041	27	31	-9	0.1447109	-0.209846	1.178224	0	12.65	4003	0	0	0	0	0.02	-0.09038511	1
6168	27	31	-9	0.1447109	-0.209846	1.178224	0	12.65	4003	0	0	0	0	0.02	-0.09038511	1
6266	27	31	-9	0.1447109	-0.209846	1.178224	0	12.65	4003	0	0	0	0	0.02	-0.09038511	1
6400	27	31	-9	0.1447109	-0.209846	1.178224	0	12.59	4003	0	0	0	0	0.02	-0.09038511	1
6543	27	31	-9	0.1447109	-0.209846	1.178224	0	12.59	4003	0	0	0	0	0.02	-0.09038511	1
6590	27	31	-9	0.1447109	-0.209846	1.178224	0	12.59	4003	0	0	0	0	0.02	-0.09038511	1
6788	27	31	-9	0.1447109	-0.209846	1.178224	0	12.59	4003	0	0	0	0	0.02	-0.09038511	1
6852	27	31	-9	0.1447109	-0.209846	1.178224	0	12.59	4003	0	0	0	0	0.02	-0.09038511	1
6917	27	31	-9	0.1447109	-0.209846	1.178224	0	12.59	4003	0	0	0	0	0.02	-0.09038511	1
6970	27	31	-9	0.1447109	-0.209846	1.178224	0	12.59	4003	0	0	0	0	0.02	-0.09038511	1
7074	27	31	-9	0.1447109	-0.209846	1.178224	0	12.59	4003	0	0	0	0	0.02	-0.09038511	1
7191	27	31	-9	0.1447109	-0.209846	1.178224	0	12.59	4003	0	0	0	0	0.02	-0.09038511	1
7283	27	31	-9	0.1447109	-0.209846	1.178224	0	12.65	4003	0	0	0	0	0.02	-0.09038511	1
7400	27	31	-9	0.1447109	-0.209846	1.178224	0	12.65	4003	0	0	0	0	0.02	-0.09038511	1
7497	27	31	-9	0.1447109	-0.209846	1.178224	0	12.65	4003	0	0	0	0	0.02	-0.09038511	1
7647	27	31	-9	0.1447109	-0.209846	1.178224	0	12.65	4003	0	0	0	0	0.02	-0.09038511	1
7769	27	31	-9	0.1447109	-0.209846	1.178224	0	12.65	4003	0	0	0	0	0.02	-0.09038511	1
7888	27	31	-9	0.1447109	-0.209846	1.178224	0	12.65	4003	0	0	0	0	0.02	-0.09038511	1
8000	27	31	-9	0.1447109	-0.209846	1.178224	0	12.65	4003	0	0	0	0	0.02	-0.09038511	1
8066	27	31	-9	0.1447109	-0.209846	1.178224	0	12.65	4003	0	0	0	0	0.02	-0.09038511	1
8238	27	31	-9	0.1447109	-0.209846	1.178224	0	12.59	4003	0	0	0	0	0.02	-0.09038511	1
8281	27	31	-9	0.1447109	-0.209846	1.178224	0	12.59	4003	0	0	0	0	0.02	-0.09038511	1
8430	27	31	-9	0.1447109	-0.209846	1.178224	0	12.59	4003	0	0	0	0	0.02	-0.09038511	1
8478	27	31	-9	0.1447109	-0.209846	1.178224	0	12.59	4003	0	0	0	0	0.02	-0.09038511	1
8602	27	31	-9	0.1447109	-0.209846	1.178224	0	12.59	4003	0	0	0	0	0.02	-0.09038511	1
8719	27	31	-9	0.1447109	-0.209846	1.178224	0	12.59	4003	0	0	0	0	0.02	-0.09038511	1
8815	27	31	-9	0.1447109	-0.209846	1.178224	0	12.59	4003	0	0	0	0	0.02	-0.09038511	1
8879	27	31	-9	0.1447109	-0.209846	1.178224	0	12.59	4003	0	0	0	0	0.02	-0.09038511	1
8994	27	31	-9	0.1447109	-0.209846	1.178224	0	12.59	4003	0	0	0	0	0.02	-0.09038511	1
9090	27	31	-9	0.1447109	-0.209846	1.178224	0	12.59	4003	0	0	0	0	0.02	-0.09038511	1
9224	27	31	-9	0.1447109	-0.209846	1.178224	0	12.65	4003	0	0	0	0	0.02	-0.09038511	1
9328	27	31	-9	0.1447109	-0.209846	1.178224	0	12.65	4003	0	0	0	0	0.02	-0.09038511	1
9465	27	31	-9	0.1447109	-0.209846	1.178224	0	12.65	4003	0	0	0	0	0.02	-0.09038511	1
9550	27	31	-9	0.1447109	-0.209846	1.178224	0	12.65	4003	0	0	0	0	0.02	-0.09038511	1
9646	27	31	-9	0.1447109	-0.209846	1.178224	0	12.65	4003	0	0	0	0	0.02	-0.09038511	1
9703	27	31	-9	0.1447109	-0.209846	1.178224	0	12.65	4003	0	0	0	0	0.02	-0.09038511	1
9811	27	31	-9	0.1447109	-0.209846	1.178224	0	12.65	4003	0	0	0	0	0.02	-0.09038511	1
9919	27	31	-9	0.1447109	-0.209846	1.178224	0	12.65	4003	0	0	0	0	0.02	-0.09038511	1
9992	27	31	-9	0.1447109	-0.209846	1.178224	0	12.65	4003	0	0	0	0	0.02	-0.09038511	1
10131	27	31	-9	0.1447109	-0.209846	1.178224	0	12.53	4003	0	0	0	0	0.02	-0.09038511	1
10190	27	31	-9	0.1447109	-0.209846	1.178224	0	12.53	4003	0	0	0	0	0.02	-0.09038511	1
10402	27	31	-9	0.1447109	-0.209846	1.178224	0	12.53	4003	0	0	0	0	0.02	-0.09038511	1
10507	27	31	-9	0.1447109	-0.209846	1.178224	0	12.53	4003	0	0	0	0	0.02	-0.09038511	1
10599	27	31	-9	0.1447109	-0.209846	1.178224	0	12.53	4003	0	0	0	0	0.02	-0.09038511	1
10705	27	31	-9	0.1447109	-0.209846	1.178224	0	12.53	4003	0	0	0	0	0.02	-0.09038511	1
10826	27	31	-9	0.1447109	-0.209846	1.178224	0	12.53	4003	0	0	0	0	0.02	-0.09038511	1
10932	27	31	-9	0.1447109	-0.209846	1.178224	0	12.53	4003	0	0	0	0	0.02	-0.09038511	1
11011	27	31	-9	0.1447109	-0.209846	1.178224	0	12.53	4003	0	0	0	0	0.02	-0.09038511	1
11128	27	31	-9	0.1447109	-0.209846	1.178224	0	12.53	4003	0	0	0	0	0.02	-0.09038511	1
11212	27	31	-9	0.1447109	-0.209846	1.178224	0	12.53	4003	0	0	0	0	0.02	-0.09038511	1
11333	27	31	-9	0.1447109	-0.209846	1.178224	0	12.53	4003	0	0	0	0	0.02	-0.09038511	1
11425	27	31	-9	0.1447109	-0.209846	1.178224	0	12.53	4003	0	0	0	0	0.02	-0.09038511	1
11574	27	31	-9	0.1447109	-0.209846	1.178224	0	12.53	4003	0	0	0	0	0.02	-0.09038511	1
11632	27	31	-9	0.1447109	-0.209846	1.178224	0	12.53	4003	0	0	0	0	0.02	-0.09038511	1
11721	27	31	-9	0.1447109	-0.209846	1.178224	0	12.53	4003	0	0	0	0	0.02	-0.09038511	1
11861	27	31	-9	0.1447109	-0.209846	1.178224	0	12.53	4003	0	0	0	0	0.02	-0.09038511	1
11963	27	31	-9	0.1447109	-0.209846	1.178224	0	12.59	4003	0	0	0	0	0.02	-0.09038511	1
12050	27	31	-9	0.1447109	-0.209846	1.178224	0	12.59	4003	0	0	0	0	0.02	-0.09038511	1
12164	27	31	-9	0.1447109	-0.209846	1.178224	0	12.59	4003	0	0	0	0	0.02	-0.09038511	1
12259	4	6	-5	-0.1986218	-0.914814	0.137931	0	12.59	4003	0	0	0	0	0.02	-0.07216074	1
12348	8	8	1	-0.1586671	-0.6729186	0.136586	0	12.59	4002	0	0	0	0	0.02	-0.05916696	1
12454	9	2	0	-0.08913157	-0.4353342	0.1354857	0	12.59	4003	0	0	0	0	0.02	-0.03791226	1
12560	1	9	-3	-0.03590949	-0.289121	0.1349965	0	12.59	4002	0	0	0	0	0.02	-0.03104198	1
12712	2	7	3	-0.03243956	-0.1929838	0.1328569	0	12.59	4004	0	0	0	0	0.02	-0.02906481	1
12813	2	4	0	-0.02198043	-0.1067731	0.1327955	0	12.53	4004	0	0	0	0	0.02	-0.03376696	1
12852	2	8	2	-0.02713394	-0.1051523	0.1311448	0	12.53	4003	0	0	0	0	0.02	-0.03647972	1
12966	9	12	6	-0.02263163	-0.06896064	0.1295548	0	12.53	4009	0	0	0	0	0.02	-0.03706025	1
13068	0	-5	0	-0.005123003	-0.06201652	0.1297383	0	12.53	4004	0	0	0	0	0.02	-0.03237581	1
13216	4	0	4	-0.01895036	-0.04734703	0.1261314	0	12.53	4004	0	0	0	0	0.02	-0.02498714	1
13255	8	6	6	0.006441913	-0.02310649	0.1247866	0	12.53	4004	0	0	0	0	0.02	-0.02125059	1
13360	10	11	2	0.03324271	-0.01079984	0.1224022	0	12.53	4003	0	0	0	0	0.02	-0.01641848	1
13465	14	6	-1	0.02519086	-0.01107379	0.1214853	0	12.53	4003	0	0	0	0	0.02	-0.01085213	1
13598	4	1	-1	0.01510625	-0.0134148	0.1203238	0	12.53	4003	0	0	0	0	0.02	-0.01207103	1
13748	6	5	0	-0.008821087	-0.01002817	0.1210575	0	12.59	4004	0	0	0	0	0.02	-0.008865188	1
13813	4	4	-2	0.002281816	-0.01201595	0.1207517	0	12.59	4002	0	0	0	0	0.02	-0.003981743	1
13894	3	4	-2	0.0222902	-0.01514305	0.1189789	0	12.59	4004	0	0	0	0	0.02	0.002509004	1
13953	14	7	0	0.02318626	-0.01002738	0.1202015	0	12.59	4002	0	0	0	0	0.02	0.004154161	1
14052	7	9	0	0.01322441	-0.01219919	0.1199569	0	12.59	4003	0	0	0	0	0.02	0.007756792	1
14213	7	16	0	0.001669944	-0.02064806	0.120201	0	12.59	4004	0	0	0	0	0.02	0.009228235	1
14255	9	8	-1	0.003458127	-0.02199942	0.1199565	0	12.59	4002	0	0	0	0	0.02	0.008715263	1
14423	4	10	0	0.01812003	-0.0342861	0.1202619	0	12.59	4004	0	0	0	0	0.02	-0.001755062	1
14485	7	14	0	0.0327079	-0.05311073	0.1203843	0	12.59	4002	0	0	0	0	0.02	-0.008223981	1
14559	3	12	2	0.02504152	-0.05581266	0.1206901	0	12.59	4004	0	0	0	0	0.02	-0.01212477	1
14722	14	10	0	0.05393166	-0.0508889	0.1187945	0	12.53	4003	0	0	0	0	0.02	-0.0323586	1
14819	9	11	5	0.051223	-0.03954035	0.1161661	0	12.53	4003	0	0	0	0	0.02	-0.03954028	1
14861	11	12	9	0.05669674	-0.03401156	0.1154325	0	12.53	4003	0	0	0	0	0.02	-0.04141847	1
14989	16	1	3	0.04758385	-0.03240105	0.1159824	0	12.53	4004	0	0	0	0	0.02	-0.05499309	1
15069	10	13	4	0.04279233	-0.03712904	0.1159212	0	12.53	4002	0	0	0	0	0.02	-0.05632847	1
15206	16	18	-3	0.04399303	-0.06491512	0.1165937	0	12.53	4002	0	0	0	0	0.02	-0.05275574	1
15263	16	4	-7	0.0294114	-0.05697325	0.115371	0	12.53	4003	0	0	0	0	0.02	-0.05319531	1
15462	10	12	3	0.02562574	-0.03382457	0.1152486	0	12.53	4002	0	0	0	0	0.02	-0.04948749	1
15513	6	12	-3	0.04686816	-0.03464536	0.1153098	0	12.53	4003	0	0	0	0	0.02	-0.04888475	1
15599	12	16	3	0.02954208	-0.03821956	0.1148819	0	12.65	4002	0	0	0	0	0.02	-0.04540818	1
15749	19	14	-2	0.05152511	-0.04784496	0.1169604	0	12.65	4004	0	0	0	0	0.02	-0.02546011	3
15829	15	8	-1	0.04229011	-0.03641598	0.1169605	0	12.65	4004	0	0	0	0	0.02	-0.01857548	3
15920	14	12	6	0.05691932	-0.03612342	0.1162882	0	12.65	4002	0	0	0	0	0.02	-0.009365328	3
15962	11	10	-2	0.0583149	-0.04352223	0.1165937	0	12.65	4002	0	0	0	0	0.02	-0.00385641	3
16083	13	16	-5	0.02662937	-0.03490718	0.1177552	0	12.65	4003	0	0	0	0	0.02	-0.007423083	3
16163	17	8	7	0.01969989	-0.02072676	0.1186722	0	12.65	4003	0	0	0	0	0.02	-0.01662944	3
16335	15	13	-3	0.01380313	-0.02976088	0.1217287	0	12.65	4002	0	0	0	0	0.02	-0.03645104	3
16375	12	4	1	0.009511454	-0.04002452	0.1219122	0	12.65	4004	0	0	0	0	0.02	-0.04292299	3
16486	14	13	-3	0.04473299	-0.03851893	0.1215451	0	12.48	4002	0	0	0	0	0.02	-0.04872272	3
16561	13	16	2	0.04084828	-0.04677102	0.1222176	0	12.48	4002	0	0	0	0	0.02	-0.04712959	3
16664	9	14	0	0.04694352	-0.03879759	0.1201391	0	12.48	4004	0	0	0	0	0.02	-0.04562689	3
16767	6	16	-3	0.04708873	-0.02635667	0.1218511	0	12.48	4010	0	0	0	0	0.02	-0.04848944	3
16909	15	10	0	0.02355356	-0.03186648	0.1228906	0	12.48	4002	0	0	0	0	0.02	-0.05905055	3
17007	12	17	0	0.02588572	-0.03327518	0.1215458	0	12.48	4003	0	0	0	0	0.02	-0.05920859	3
17068	5	11	-3	0.03582399	-0.04411541	0.1219127	0	12.48	4003	0	0	0	0	0.02	-0.05512512	3
17221	-7	13	3	0.04509351	-0.07270145	0.1207511	0	12.48	4003	0	1	0	0	0.02	-0.04245004	3
17273	17	14	6	0.05131324	-0.07360055	0.120262	0	12.48	4004	1	0	0	0	0.02	-0.03462737	3
17456	-67	-7	110	-0.02496475	-0.1326375	0.119291	0	12.48	4004	-2	-5	-1	0	0.02	-0.01584075	3
17578	12	70	-15	0.04779075	-0.05594317	0.1466235	0	12.48	4004	0	-8	0	0	0.02	-0.007155904	3
17664	80	-27	-36	0.01710702	-0.05023964	0.1667938	0	12.48	4004	0	2	-1	0	0.02	0.004924412	3
17719	-76	56	-77	0.06500472	0.0008381524	0.1585347	0	12.48	4002	0	0	0	0	0.02	0.009864235	3
17878	93	-10	35	0.1665879	-0.05543989	0.1372076	0	12.48	4003	-7	0	0	0	0.02	0.01847904	3
17974	82	12	56	0.2506093	-0.003565838	0.1307402	0	12.48	4004	-2	2	1	0	0.02	0.0266852	3
18093	-42	46	-42	0.2327846	-0.06938446	0.134329	0	12.48	4003	7	0	0	0	0.02	0.03525414	3
18171	13	-36	46	0.02425498	-0.07604951	0.1481604	0	12.48	4004	9	1	-2	0	0.02	0.03542114	3
18322	37	-7	23	0.06001995	-0.1066084	0.1278036	0	12.48	4003	0	-2	0	0	0.02	0.03544784	3
18393	-11	-56	179	0.2580354	-0.1379212	0.09289207	0	12.48	4004	1	-1	0	0	0.02	0.03406204	3
18479	21	-22	202	0.2471879	-0.004563489	0.08744775	0	12.48	4003	-4	-1	1	0	0.02	0.03752015	3
18711	-50	54	-76	0.09841759	0.06994227	0.1043701	0	12.48	4004	2	7	0	0	0.02	0.03135771	3
18813	10	96	-120	-0.01826439	0.0009014336	0.1089451	0	12.48	4002	3	23	-2	0	0.02	0.02788499	3
18885	90	-79	241	0.09347503	0.03517899	0.1074226	0	12.48	4002	0	9	-3	0	0.02	0.02946869	3
18989	91	64	44	0.06682716	0.112309	0.1176389	0	12.48	4002	4	2	-2	0	0.02	0.03330103	3
19093	-24	14	-93	0.1690522	0.05968598	0.11928	0	12.48	4004	7	-6	2	0	0.02	0.03812622	3
19198	-9	-59	-65	-0.05725814	0.1185611	0.1067431	0	12.48	4002	-1	8	1	0	0.02	0.04123279	3
19319	17	27	20	-0.09188906	0.1569931	0.1090614	0	12.48	4003	-10	1	2	0	0.02	0.04244673	3
19395	-78	37	-39	-0.1225401	0.08838896	0.1156055	0	12.48	4003	-1	20	-2	0	0.02	0.04672581	3
19538	134	98	-228	0.1818804	0.09729282	0.1250894	0	12.48	4004	-42	11	1	0	0.02	0.05465394	3
19633	-66	-57	21	0.482011	-0.09820078	0.08865243	0	12.48	4002	-1	-7	-1	0	0.02	0.05654472	3
19757	-27	41	-138	0.3864362	0.1906576	0.08340415	0	12.48	4004	15	-10	0	0	0.02	0.06364363	3
19872	37	-123	-441	0.2874666	0.06768794	0.09929273	0	12.48	4004	8	-19	7	0	0.02	0.07757981	3
19914	-222	-140	728	0.2233757	0.04707965	-0.03299123	0	12.48	4002	1	-3	5	0	0.02	0.08559523	3
20002	-2	-1769	854	-0.2467557	-0.04568805	-0.4911157	0	12.48	4005	-9	-83	25	0	0.02	0.09898488	3
20126	-63	1306	111	1.362673	-3.189839	-0.8321185	0	12.48	4003	-58	47	30	0	0.02	0.1362145	3
20261	1198	2325	12	2.810215	-6.412417	-0.3878191	0	12.42	4004	22	-63	-13	0	0.02	0.2023336	3
20376	-749	1716	53	2.373548	-12.17699	-0.2500626	0	12.42	4003	-31	103	0	0	0.02	0.2268566	3
20412	-1431	777	551	3.313213	-12.82487	-0.2537644	0	12.42	4004	61	-114	-31	0	0.02	0.2455186	3
20501	-2937	-1133	1473	1.746724	-10.47099	-1.967228	0	12.42	4003	82	-102	-2	0	0.02	0.2682457	3
20625	-40	1517	848	-1.877101	-8.349079	-4.148056	0	12.42	4002	-108	26	18	0	0.02	0.308402	3
20761	-172	133	408	-2.44045	-11.5153	-5.793571	0	12.42	4004	-5	-96	-13	0	0.02	0.3475993	3
20802	28	1047	974	-2.20865	-12.33018	-6.678681	0	12.42	4002	-47	11	-9	0	0.02	0.3599864	3
20955	1331	1076	1016	-1.42247	-13.16556	-9.095632	0	12.42	4004	-66	9	24	0	0.02	0.3885328	3
21020	772	-607	422	-0.8632871	-12.39415	-9.61349	0	12.42	4007	-46	-41	25	0	0.02	0.408474	3
21103	1826	-177	-338	1.593782	-10.33841	-9.164239	0	11.91	4004	48	-101	-9	0	0.02	0.4481131	3
21243	486	-2729	-583	-0.16814	-8.373794	-8.34573	0	11.91	4002	3	-92	-16	0	0.02	0.4966726	3
21363	-891	-230	960	-0.4105907	-5.889372	-8.759245	0	11.91	4002	13	4	11	0	0.02	0.5302862	3
21422	1216	-712	492	0.1371715	-6.850386	-8.92693	0	11.91	4002	-59	23	12	0	0.02	0.5553308	3
21511	-1311	-1176	275	1.228299	-4.977091	-9.001703	0	11.91	4003	-39	8	6	0	0.02	0.5942305	3
21640	1946	-1593	-127	3.101595	-6.976609	-8.873752	0	11.91	4002	-12	-120	2	0	0.02	0.650502	3
21720	893	613	992	6.318897	-5.275437	-9.411313	0	11.91	4002	-23	1	28	0	0.02	0.6841114	3
21831	516	-793	-448	5.268175	-6.489985	-9.588144	0	11.91	4004	66	-123	13	0	0.02	0.7011087	3
21916	362	2686	283	6.737701	-8.608295	-9.450261	0	11.91	4004	-1	75	18	0	0.02	0.7211027	3
22047	2277	727	-94	4.547525	-12.62215	-8.863847	0	11.46	4004	-59	-11	2	0	0.02	0.7348171	3
22133	1243	492	264	3.799501	-13.01962	-8.943127	0	11.46	4003	33	25	6	0	0.02	0.7479422	3
22243	4007	-1811	-976	3.211118	-12.46591	-8.903509	0	11.46	4003	-20	-33	-1	0	0.02	0.7624983	3
22332	2620	-1139	867	6.898371	-10.24926	-9.116401	0	11.46	4005	6	-83	16	0	0.02	0.7623936	3
22489	-423	-477	-695	3.279723	-10.02161	-9.089319	0	11.46	4002	-23	-56	8	0	0.02	0.7433501	3
22530	-561	2359	277	2.997612	-10.52186	-9.310572	0	11.46	4003	-52	79	22	0	0.02	0.7240946	3
22671	-1202	-990	-1101	-1.151704	-11.85319	-8.798837	0	11.46	4002	-21	-93	-14	0	0.02	0.6860042	3
22773	-1499	2119	-77	-0.7622858	-12.30562	-8.244535	0	11.46	4003	40	-13	-17	0	0.02	0.6525946	3
22856	709	579	-131	-0.9842185	-11.08801	-8.163639	0	11.46	4004	-21	-73	-22	0	0.02	0.6257114	3
22948	36	1901	812	0.6169232	-12.65519	-9.265726	0	11.8	4004	-89	-12	15	0	0.02	0.5815554	3
23028	-1248	2320	813	-1.107028	-13.3916	-9.622952	0	11.8	4004	10	-123	4	0	0.02	0.5445314	3
23157	220	917	243	-1.211704	-13.2648	-9.547318	0	11.8	4003	69	-23	1	0	0.02	0.5078952	3
23228	528	-2017	202	0.2655019	-11.55971	-9.435195	0	11.8	4004	-60	18	23	0	0.02	0.4904619	3
23339	-441	-3378	421	1.190602	-5.192127	-8.658737	0	11.8	4002	-6	160	4	0	0.02	0.4759212	3
23475	-2152	-2510	159	2.940095	4.437697	-8.325837	0	11.8	4004	41	59	-12	0	0.02	0.4525085	3
23521	809	-24	-462	2.497101	1.511828	-8.780965	0	11.8	4002	-7	-9	5	0	0.02	0.4483395	3
23690	-1537	2668	1016	3.588921	-3.24153	-9.656095	0	11.8	4004	-11	-48	15	0	0.02	0.407082	3
23731	-1697	2663	-672	2.923361	-6.861055	-9.847557	0	11.8	4003	-11	-54	24	0	0.02	0.402095	3
23839	-900	2307	-110	2.061853	-8.669965	-9.457726	0	11.8	4002	32	-82	4	0	0.02	0.3894224	3
23968	-109	-3539	-1145	1.967684	-8.236399	-8.953062	0	11.11	4003	0	-80	10	0	0.02	0.3938442	3
24034	149	-2037	680	2.0051	-5.899396	-8.892286	0	11.11	4004	63	-58	-4	0	0.02	0.397406	3
24203	2348	858	-18	3.730837	-5.846082	-8.744439	0	11.11	4003	-115	32	1	0	0.02	0.4183804	3
24304	-455	140	453	3.422443	-7.383358	-8.69584	0	11.11	4004	145	-152	-16	0	0.02	0.4490466	3
24350	533	-1618	-687	3.094475	-7.709264	-8.470845	0	11.11	4003	-34	-69	-8	0	0.02	0.4598301	3
24445	122	-2290	-937	2.093155	-6.823678	-8.460833	0	11.11	4004	82	-27	-6	0	0.02	0.5107399	3
24548	2044	-736	-68	6.20376	-8.633731	-8.611903	0	11.11	4003	-14	-95	-11	0	0.02	0.5895646	3
24653	-1845	-2113	-391	1.862416	-5.451428	-8.705606	0	11.11	4003	69	-57	-1	0	0.02	0.6625094	3
24755	2692	-74	318	5.875434	-6.944557	-8.610007	0	11.11	4003	-25	-65	-11	0	0.02	0.7435111	3
24909	2857	-1904	-230	6.041058	-5.062156	-8.534519	0	11.68	4003	16	-81	-9	0	0.02	0.8983177	3
24996	1995	-568	96	6.477449	-4.598651	-9.080233	0	11.68	4002	6	-18	13	0	0.02	0.9521447	3
25049	2290	-1219	396	6.497566	-4.092407	-9.090071	0	11.68	4003	6	-18	13	0	0.02	0.988673	3
25157	-2636	1502	-400	2.921196	-5.906451	-9.458154	0	11.68	4004	11	0	8	0	0.02	1.083958	3
25250	1931	435	-143	-0.02241567	-8.78168	-9.029568	0	11.68	4002	-54	-25	7	0	0.02	1.13515	3
25394	-591	1539	-278	-1.881703	-9.398942	-9.170033	0	11.68	4003	5	-78	2	0	0.02	1.19645	3
25455	-458	1505	-172	-2.64786	-9.05853	-9.054676	0	11.68	4004	5	-51	1	0	0.02	1.224679	3
25561	-376	2164	-87	-4.179697	-8.282578	-8.69671	0	11.68	4003	-28	6	-5	0	0.02	1.260513	3
25657	315	2408	-433	-3.179518	-10.8278	-8.622779	0	11.68	4003	-28	-38	2	0	0.02	1.292005	3
25814	-3262	754	-914	-4.492923	-9.786379	-8.926212	0	11.85	4002	-16	-16	19	0	0.02	1.327577	3
25870	-3166	393	-783	-7.758185	-7.975287	-8.723087	0	11.85	4003	29	-42	-7	0	0.02	1.346926	3
25974	-2850	1564	-254	-9.078485	-8.727551	-8.516936	0	11.85	4002	-10	16	-3	0	0.02	1.365928	3
26091	-1859	407	319	-10.40405	-9.478001	-8.54171	0	11.85	4003	-13	-71	-2	0	0.02	1.382155	3
26164	-1768	1006	680	-9.739022	-9.728114	-8.684831	0	11.85	4003	25	1	0	0	0.02	1.391922	3
26317	791	2416	-219	-6.461985	-12.16857	-8.701526	0	11.85	4004	-13	-57	-8	0	0.02	1.403572	3
26372	750	2303	-238	-4.610907	-11.5436	-8.761636	0	11.85	4002	-24	-50	1	0	0.02	1.408349	3
26477	899	1762	-604	-3.878052	-13.66888	-8.775568	0	11.85	4003	43	-31	-3	0	0.02	1.406001	3
26608	-1958	-2351	274	-0.621126	-6.276268	-8.570068	0	11.85	4003	62	101	-3	0	0.02	1.387067	3
26676	194	-1994	396	-1.185946	-4.418164	-8.579405	0	11.85	4003	-18	35	-1	0	0.02	1.365893	3
26891	1065	1695	52	0.8884393	-9.090416	-9.431081	0	11.85	4004	20	-44	4	0	0.02	1.29844	3
27035	3428	-540	435	2.688296	-5.359225	-8.419628	0	11.85	4004	-52	-40	-4	0	0.02	1.266643	3
27088	-1483	-495	-343	1.66407	-7.982455	-9.121318	0	11.85	4003	35	15	14	0	0.02	1.252227	3
27209	5133	-1800	517	8.403015	-7.496511	-9.585167	0	11.85	4004	-42	-55	29	0	0.02	1.210147	3
27292	-813	-32	560	4.228715	-7.158962	-9.774861	0	11.85	4004	76	-3	16	0	0.02	1.169971	3
27395	907	86	-408	2.328407	-8.329409	-8.894391	0	11.85	4004	-14	46	13	0	0.02	1.098254	3
27498	-1584	1354	653	2.094556	-8.306087	-9.210464	0	11.85	4002	40	-26	12	0	0.02	1.03118	3
27622	-1101	2730	866	-0.2495487	-8.827904	-9.650749	0	11.23	4007	42	-74	17	0	0.02	0.9445656	3
27690	-846	1599	-70	2.756554	-10.40428	-9.741385	0	11.23	4003	-37	-2	35	0	0.02	0.8979917	3
27873	2897	6589	3862	-4.122273	-20.11788	-7.775007	0	11.23	4003	-108	53	34	0	0.02	0.7899363	3
27907	6405	4010	1127	-1.126228	-21.32432	-9.000634	0	11.23	4002	-149	-55	9	0	0.02	0.7546243	3
28005	-1115	-3055	-551	0.5573984	-8.343181	-10.42344	0	11.23	4006	59	-50	55	0	0.02	0.665465	3
28130	1148	-1161	-174	2.351865	-5.937179	-10.58828	0	11.23	4002	-96	-27	45	0	0.02	0.607379	3
28254	313	-1519	-887	2.861095	-5.55349	-10.35169	0	11.23	4004	-47	-68	37	0	0.02	0.571493	3
28312	-933	1537	34	1.325922	-6.418741	-10.23901	0	11.23	4002	11	-121	26	0	0.02	0.5546731	3
28406	-1129	3295	48	1.603381	-9.343938	-10.0693	0	11.23	4004	-12	-2	27	0	0.02	0.5375008	3
28561	-2107	-2480	116	1.827124	-10.36443	-9.358493	0	11.34	4003	-28	-36	18	0	0.02	0.5098288	3
28603	-920	-124	63	1.360992	-9.266425	-9.192168	0	11.34	4003	22	26	-6	0	0.02	0.5013682	3
28706	-2453	-1566	-23	1.143679	-10.64541	-9.069228	0	11.34	4008	54	-4	5	0	0.02	0.4888985	3
28822	759	77	635	2.405253	-6.500412	-8.724687	0	11.34	4003	22	-3	-2	0	0.02	0.4734148	3
28938	456	-2340	-578	-0.2914268	-7.900072	-8.697457	0	11.34	4002	27	-87	-12	0	0.02	0.4732033	3
29053	-896	-1080	-620	-1.726431	-6.085647	-8.87435	0	11.34	4004	27	-69	-3	0	0.02	0.4757284	3
29095	856	-1662	-76	-2.309161	-6.733498	-8.861504	0	11.34	4003	-8	-87	1	0	0.02	0.4755003	3
29220	-102	1339	-88	-0.9693584	-7.284626	-9.324119	0	11.34	4004	-1	30	22	0	0.02	0.474538	3
29293	-89	1419	182	-1.014307	-7.885796	-9.486353	0	11.34	4004	37	23	20	0	0.02	0.4742423	3
29421	737	2078	292	-0.6976593	-8.148314	-9.674613	0	11.34	4004	-21	44	30	0	0.02	0.4747219	3
29513	-705	281	-426	-1.389648	-11.53053	-9.715383	0	11.68	4003	37	-55	8	0	0.02	0.47435	3
29604	429	-3229	-749	-1.69807	-8.467834	-8.958119	0	11.68	4004	61	-136	-2	0	0.02	0.4760494	3
29700	-325	-525	240	0.2511835	-6.030431	-8.904797	0	11.68	4003	42	-5	9	0	0.02	0.4813946	3
29803	72	-887	361	-0.3889248	-4.606257	-9.50931	0	11.68	4004	2	-77	12	0	0.02	0.4865692	3
29904	917	722	719	0.7064298	-5.526071	-9.80018	0	11.68	4004	-3	17	22	0	0.02	0.492278	3
30029	289	-1997	-1165	-1.750508	-6.019337	-9.368566	0	11.68	4003	-59	-94	6	19	0.02	0.4938509	3
30099	1823	1380	52	-0.4410487	-6.208343	-9.030374	0	11.68	4002	-122	19	0	15	0.2188135	0.4972932	4
30233	563	-284	-42	-0.8335577	-5.77057	-8.854883	0	11.68	4003	-37	-155	0	2	0.4683722	0.5138068	4
30319	-1450	4775	19	0.1692961	-8.297982	-9.054551	0	11.68	4002	83	-32	1	0	0.5760567	0.5333269	4
30405	-940	5045	-241	0.3165411	-17.43519	-8.803727	0	11.63	4004	-75	44	-4	-3	0.6174779	0.5381285	4
30523	-1912	2697	-647	-3.209646	-18.98381	-8.098983	0	11.63	4004	17	-122	-29	-4	0.6316971	0.5353782	4
30619	-761	1048	-32	-3.058873	-20.17348	-8.209366	0	11.63	4004	37	16	-15	-3	0.6015062	0.5088713	4
30706	2037	-3799	-249	-2.884715	-11.32659	-8.007618	0	11.63	4003	-32	-78	-25	-2	0.5458258	0.4970089	4
30840	-1289	-95	500	-1.898736	-5.287063	-8.490868	0	11.63	4003	20	-37	-20	1	0.4386677	0.4727753	4
30910	1848	780	2256	-1.35857	-8.166977	-8.701874	0	11.63	4004	19	-5	10	3	0.3759248	0.4569	4
31075	-4770	-344	-133	-0.5835457	-27.02379	-14.56761	0	11.63	4004	81	-44	143	10	0.2440448	0.4030343	4
