time(ms)	gyro_x(deg/s)	gyro_y(deg/s)	gyro_z(deg/s)	orientation_roll(deg)	orientation_pitch(deg)	orientation_yaw(deg)	throttle	battery(V)	loop_time(uS)	pid_output_roll	pid_output_pitch	pid_output_yaw	pid_output_throttle	ultrasonic_alt	baro_alt	flight_mode
336728	-56	-50	4	0.9958187	-0.3101381	3.851952	0	11.34	4002	0	0	0	0	0.2040851	-0.004738107	1
336851	-56	-50	4	0.9958187	-0.3101381	3.851952	0	11.46	4002	0	0	0	0	0.2040851	-0.004738107	1
336937	-56	-50	4	0.9958187	-0.3101381	3.851952	0	11.46	4002	0	0	0	0	0.2040851	-0.004738107	1
337025	-56	-50	4	0.9958187	-0.3101381	3.851952	0	11.46	4002	0	0	0	0	0.2040851	-0.004738107	1
337153	-56	-50	4	0.9958187	-0.3101381	3.851952	0	11.46	4002	0	0	0	0	0.2040851	-0.004738107	1
337269	-56	-50	4	0.9958187	-0.3101381	3.851952	0	11.46	4002	0	0	0	0	0.2040851	-0.004738107	1
337335	-56	-50	4	0.9958187	-0.3101381	3.851952	0	11.46	4002	0	0	0	0	0.2040851	-0.004738107	1
337460	-56	-50	4	0.9958187	-0.3101381	3.851952	0	11.46	4002	0	0	0	0	0.2040851	-0.004738107	1
337592	17	15	0	-0.1549171	-0.03067571	-0.1369451	0	11.46	4004	0	0	0	0	0.2040851	-0.005805347	1
337662	11	10	-4	-0.1012738	-0.03319402	-0.1381067	0	11.46	4004	0	0	0	0	0.2040851	-0.005832733	1
337811	3	-1	-3	-0.035856	-0.0358972	-0.1368841	0	11.4	4003	0	0	0	0	0.2040851	-0.01106324	1
337853	2	9	-4	-0.02477912	-0.04477421	-0.1371907	0	11.4	4002	0	0	0	0	0.2040851	-0.01254877	1
337976	21	14	1	0.01524525	-0.04535769	-0.1356624	0	11.4	4002	0	0	0	0	0.2040851	-0.02300233	1
338067	14	1	1	0.0367221	-0.03664671	-0.1337059	0	11.4	4003	0	0	0	0	0.2040851	-0.03339335	1
338205	3	16	0	0.04796155	-0.0405831	-0.1336444	0	11.4	4003	0	0	0	0	0.2040851	-0.0466003	1
338360	8	2	0	0.04450094	-0.03852417	-0.1309543	0	11.4	4004	0	0	0	0	0.2040851	-0.0579995	1
338450	3	15	-6	0.05364804	-0.04702327	-0.1267971	0	11.4	4003	0	0	0	0	0.2040851	-0.06248083	1
338497	8	10	-1	0.03847119	-0.04415925	-0.1270417	0	11.4	4002	0	0	0	0	0.2040851	-0.05533003	1
338637	21	7	0	0.03563887	-0.05620454	-0.1249628	0	11.46	4002	0	0	0	0	0.2040851	-0.03991528	1
338743	19	14	5	0.03678266	-0.06071092	-0.1212941	0	11.46	4002	0	0	0	0	0.2040851	-0.02527514	1
338775	13	8	-2	0.04948179	-0.06222528	-0.1197656	0	11.46	4004	0	0	0	0	0.2040851	-0.01974732	1
338920	11	16	-3	0.03381783	-0.05886371	-0.114997	0	11.46	4003	0	0	0	0	0.2040851	-0.01492311	1
339056	10	7	0	0.04458863	-0.07423692	-0.1142635	0	11.46	4004	0	0	0	0	0.2040851	-0.01398292	1
339081	10	7	0	0.04744101	-0.08261921	-0.1140189	0	11.46	4003	0	0	0	0	0.2040851	-0.01280474	1
339202	10	15	0	0.05060235	-0.07887442	-0.1103509	0	11.46	4002	0	0	0	0	0.2040851	-0.01107741	1
339422	12	2	3	0.07165831	-0.07742321	-0.1069883	0	11.46	4002	0	0	0	0	0.2040851	-0.007117245	1
339488	10	19	-3	0.06845352	-0.06346172	-0.1058878	0	11.46	4002	0	0	0	0	0.2040851	-0.005058942	1
339680	7	9	-5	0.05639331	-0.06031431	-0.1023424	0	11.29	4002	0	0	0	0	0.2040851	-0.01486952	1
339762	12	18	-2	0.04431613	-0.05316162	-0.09965227	0	11.29	4004	0	0	0	0	0.2040851	-0.01786382	1
339792	16	15	-5	0.04723048	-0.04190391	-0.0990409	0	11.29	4004	0	0	0	0	0.2040851	-0.01866929	1
339910	7	19	3	0.05681881	-0.04096589	-0.09635064	0	11.29	4003	0	0	0	0	0.2040851	-0.02162552	1
339985	6	26	0	0.05321147	-0.03577798	-0.09457786	0	11.29	4002	0	0	0	0	0.2040851	-0.02061313	1
340177	22	12	-2	0.03669753	-0.05834866	-0.08718038	0	11.29	4003	0	0	0	0	0.2040851	-0.01507562	1
340242	16	14	-7	0.04087863	-0.06146157	-0.08222875	0	11.29	4003	0	0	0	0	0.2040851	-0.01640682	1
340357	7	17	2	0.06816783	-0.05379982	-0.07831609	0	11.29	4003	0	0	0	0	0.2040851	-0.01999467	1
340419	16	15	-1	0.07913511	-0.08318652	-0.07642081	0	11.29	4004	0	0	0	0	0.2040851	-0.01935052	1
340548	10	18	-11	0.07126708	-0.07679368	-0.07159138	0	11.4	4003	0	0	0	0	0.2040851	-0.01522698	1
340645	10	25	0	0.07413715	-0.07705685	-0.0685956	0	11.4	4003	0	0	0	0	0.2040851	-0.005873498	1
340766	26	15	0	0.05431304	-0.05584916	-0.06431595	0	11.4	4002	0	0	0	0	0.2040851	-0.003463188	1
340844	19	18	2	0.04578624	-0.06630671	-0.06382689	0	11.4	4002	0	0	0	0	0.2040851	-0.002514252	1
340882	18	17	-8	0.05925546	-0.08246464	-0.0611981	0	11.4	4002	0	0	0	0	0.2040851	-0.003247603	1
340975	23	14	-6	0.08441732	-0.06370105	-0.05856915	0	11.4	4003	0	0	0	0	0.2040851	-0.00447642	1
341079	21	20	-3	0.06261028	-0.05747398	-0.05343277	0	11.4	4004	0	0	0	0	0.2040851	-0.008795466	1
341217	10	21	-5	0.06623038	-0.08532922	-0.04903096	0	11.4	4004	0	0	0	0	0.2040851	-0.009921434	1
341287	14	22	-3	0.06677955	-0.08247267	-0.04615767	0	11.4	4002	0	0	0	0	0.2040851	-0.005710261	1
341435	20	16	0	0.05895772	-0.08435279	-0.04181728	0	11.4	4002	0	0	0	0	0.2040851	0.006028865	1
341490	10	16	-1	0.07061173	-0.08724242	-0.04047227	0	11.4	4003	0	0	0	0	0.2040851	0.01268026	1
341666	17	10	1	0.04027678	-0.07780971	-0.03607063	0	11.4	4004	0	0	0	0	0.2040851	0.02660918	1
341693	22	25	-2	0.04933544	-0.07407916	-0.03509257	0	11.4	4003	0	0	0	0	0.2040851	0.02812087	1
341819	19	20	1	0.05666334	-0.08791354	-0.03331962	0	11.4	4004	0	0	0	0	0.2040851	0.02812087	1
341886	17	18	-6	0.06943956	-0.09305456	-0.03069083	0	11.4	4004	0	0	0	0	0.2040851	0.02784283	1
341988	16	18	-1	0.06149645	-0.08655489	-0.02965145	0	11.4	4004	0	0	0	0	0.2040851	0.03027136	1
342124	15	20	-4	0.08670192	-0.07904208	-0.02409055	0	11.4	4003	0	0	0	0	0.2040851	0.03388597	1
342193	25	22	-6	0.08691084	-0.07442431	-0.02256232	0	11.4	4003	0	0	0	0	0.2040851	0.03932356	1
342353	24	19	-7	0.1076878	-0.08200611	-0.01583679	0	11.4	4004	0	0	0	0	0.2040851	0.05312569	1
342481	31	23	0	0.08135702	-0.0838077	-0.01063974	0	11.4	4004	0	0	0	0	0.2040851	0.05412451	1
342584	4	20	0	0.08601427	-0.09643327	-0.008255308	0	11.4	4002	0	0	0	0	0.2040851	0.04959685	1
342676	15	17	-3	0.08321961	-0.08927996	-0.005687415	0	11.4	4004	0	0	0	0	0.2040851	0.05068512	1
342755	14	20	-6	0.06712178	-0.07928435	-0.002936468	0	11.4	4002	0	0	0	0	0.2040851	0.05161661	1
342837	19	19	-1	0.06542846	-0.08736587	-0.001102331	0	11.4	4003	0	0	0	0	0.2040851	0.05292455	1
342908	30	25	0	0.06287692	-0.09624222	0.0009150431	0	11.4	4004	0	0	0	0	0.2040851	0.05199235	1
342998	25	23	-2	0.06654464	-0.08675674	0.001954188	0	11.4	4002	0	0	0	0	0.2040851	0.04952093	1
343123	28	16	-1	0.07239321	-0.09086432	0.007028601	0	11.4	4003	0	0	0	0	0.2040851	0.04849271	1
343228	18	22	-3	0.09306609	-0.07504205	0.01350894	0	11.34	4003	0	0	0	0	0.2040851	0.05028831	1
343357	18	18	-4	0.09446885	-0.09080124	0.01772761	0	11.34	4003	0	0	0	0	0.2040851	0.04950335	1
343485	23	28	0	0.1089077	-0.07479867	0.02102885	0	11.34	4003	0	0	0	0	0.2040851	0.05056025	1
343584	15	25	-7	0.092248	-0.07692093	0.02555302	0	11.34	4004	0	0	0	0	0.2040851	0.05224968	1
343686	19	24	0	0.09089766	-0.09160811	0.02818181	0	11.34	4004	0	0	0	0	0.2040851	0.05471791	1
343854	19	23	0	0.0682674	-0.1016995	0.03380599	0	11.34	4004	0	0	0	0	0.2040851	0.05173532	1
343895	26	20	-5	0.07195895	-0.1000241	0.03496758	0	11.34	4003	0	0	0	0	0.2040851	0.05344014	1
343999	29	21	-3	0.09299514	-0.07871133	0.03790236	0	11.34	4003	0	0	0	0	0.2040851	0.06107664	1
344103	26	15	-5	0.08400128	-0.09026554	0.04175424	0	11.34	4004	0	0	0	0	0.2040851	0.06371178	1
344197	18	26	-4	0.08346766	-0.09189734	0.04346618	0	11.34	4003	0	0	0	0	0.2040851	0.06729326	1
344301	28	22	-9	0.09546269	-0.08693137	0.04701233	0	11.34	4003	0	0	0	0	0.2040851	0.06429477	1
344405	8	23	0	0.1068499	-0.08817901	0.05159736	0	11.34	4003	0	0	0	0	0.2040851	0.06095328	1
344569	18	24	-6	0.08887991	-0.07834829	0.05911703	0	11.34	4003	0	0	0	0	0.2040851	0.05738709	1
344625	15	23	2	0.09983595	-0.08029628	0.05997283	0	11.34	4003	0	0	0	0	0.2040851	0.0556434	1
344711	27	23	-9	0.09186765	-0.0900948	0.06596398	0	11.34	4003	0	0	0	0	0.2040851	0.05284986	1
344827	26	22	1	0.1028893	-0.1042668	0.06749234	0	11.34	4002	0	0	0	0	0.2040851	0.03594533	1
344910	25	22	-3	0.09372036	-0.09840336	0.06877631	0	11.34	4002	0	0	0	0	0.2040851	0.02640872	1
345013	15	22	-3	0.09551158	-0.07721414	0.07201619	0	11.34	4002	0	0	0	0	0.2040851	0.01289929	3
345136	31	22	-2	0.09279977	-0.08382793	0.0761119	0	11.4	4002	0	0	0	0	0.2040851	-0.005151574	3
345226	18	26	-5	0.1036277	-0.1020145	0.07910764	0	11.4	4002	0	0	0	0	0.2040851	-0.004557951	3
345320	29	28	0	0.1161712	-0.1116437	0.08191973	0	11.4	4003	0	0	0	0	0.2040851	-0.00681434	3
345481	28	26	-4	0.1153068	-0.1000444	0.08644457	0	11.4	4004	0	0	0	0	0.2040851	-0.006225786	3
345523	32	28	-4	0.1156847	-0.1007498	0.08956235	0	11.4	4002	0	0	0	0	0.2040851	-0.004457041	3
345668	32	25	0	0.1146333	-0.1104818	0.09371965	0	11.4	4003	0	0	0	0	0.2040851	-0.0105856	3
345767	27	29	0	0.09656723	-0.1011113	0.09928272	0	11.4	4004	0	0	0	0	0.2040851	-0.01289903	3
345841	24	20	-5	0.1128007	-0.08749938	0.101728	0	11.4	4003	0	0	0	0	0.2040851	-0.01462881	3
345930	27	25	0	0.1189518	-0.0921727	0.106741	0	11.4	4002	0	0	0	0	0.2040851	-0.01635515	3
346046	30	24	-5	0.1093696	-0.1001973	0.1114486	0	11.4	4003	-1	0	0	0	0.2040851	-0.01757563	3
346201	22	25	-2	0.1025651	-0.09102564	0.1173788	0	11.4	4003	-2	0	0	0	0.2040851	-0.0256101	3
346265	-22	64	196	0.06971151	-0.06818321	0.104846	0	11.4	4003	-4	3	-1	0	0.2040851	-0.03063029	3
346345	39	10	-77	0.09699883	-0.0369585	0.1255125	0	11.4	4002	-2	5	0	0	0.2040851	-0.04103514	3
346479	56	35	6	0.06965332	-0.06942469	0.1112549	0	11.4	4003	15	8	0	0	0.2040851	-0.04104451	3
346604	124	-57	19	0.04079522	-0.2286407	0.0925327	0	11.4	4003	-18	-3	-3	0	0.2040851	-0.04239884	3
346751	20	8	-83	0.1313184	-0.06088526	0.09797677	0	11.4	4002	3	-2	0	0	0.2040851	-0.04072455	3
346907	-37	-44	23	0.09855573	-0.0124984	0.1146095	0	11.4	4002	4	-2	0	0	0.2040851	-0.025718	3
346966	50	34	-18	0.2875832	-0.04261013	0.1155896	0	11.4	4003	-13	-4	0	0	0.2040851	-0.02079813	3
347085	-87	7	-42	0.1590938	0.009448462	0.1284908	0	11.4	4002	14	-8	0	0	0.2040851	-0.01307505	3
347171	55	84	-56	0.1581356	-0.1062565	0.1282921	0	11.4	4002	-8	-9	0	0	0.2040851	-0.007748142	3
347263	30	-25	-9	0.1135009	-0.1968661	0.1224165	0	11.4	4003	13	0	0	0	0.2040851	0.001107217	3
347387	-17	31	-31	0.1048955	-0.1095199	0.1206417	0	11.4	4002	-12	-3	0	0	0.2040851	-0.001590486	3
347500	10	64	27	0.2414132	-0.04532304	0.1140442	0	11.4	4002	-1	4	0	0	0.2040851	-0.008429679	3
347611	1	-38	-66	0.1659137	-0.00638887	0.09882247	0	11.4	4003	-1	11	0	0	0.2040851	-0.01148452	3
347763	-25	-28	-111	0.2407512	0.005364674	0.08145861	0	11.4	4003	-15	9	0	0	0.2040851	-0.01291403	3
347857	60	14	36	0.2747455	-0.009030714	0.09197766	0	11.4	4003	6	-6	0	0	0.2040851	-0.006465804	3
347965	-113	102	-105	0.09977067	-0.06331752	0.1436308	0	11.34	4003	4	4	0	0	0.2040851	0.01169526	3
348095	-134	-110	250	0.03891816	-0.02303267	0.1861279	0	11.34	4003	24	-46	-2	0	0.2040851	0.01963847	3
348189	-84	137	-126	0.2924358	-0.2062107	0.1786218	0	11.34	4002	2	-45	1	0	0.2040851	0.02410045	3
348280	49	47	336	0.1269445	-0.07466831	0.1371393	0	11.34	4002	-31	-83	-6	0	0.2040851	0.03059537	3
348420	-700	708	382	-0.5988234	-0.6153812	0.2550581	0	11.34	4004	36	-43	-1	0	0.2040851	0.03950336	3
348555	-1119	1687	625	-2.234526	-4.820712	0.2803995	0	11.34	4003	18	-79	0	0	0.2040851	0.04675272	3
348607	-414	2233	34	-2.438326	-5.860879	0.1717028	0	11.34	4003	-89	24	-4	0	0.2040851	0.05465498	3
348723	549	859	-194	-0.7798294	-8.213666	0.04461499	0	11.34	4002	34	-12	-2	0	0.2040851	0.08118299	3
348804	-49	-1116	669	-0.6087975	-6.485518	-0.1278297	0	10.66	4003	-31	-64	10	0	0.2040851	0.09334378	3
348878	160	-1920	450	-0.9317573	-5.134339	-0.2664192	0	10.66	4002	3	-6	16	0	0.2040851	0.11035	3
348979	-714	-1171	-528	-0.1241617	-1.637245	-0.3051546	0	10.66	4003	60	-139	-1	0	0.2040851	0.1176811	3
349134	175	1453	-53	0.3024757	-5.386499	-0.4586385	0	10.66	4002	-113	-75	5	0	0.2040851	0.136883	3
349175	-3268	777	-1223	-0.335422	-7.528536	0.1518729	0	10.66	4003	-34	198	0	0	0.2040851	0.1397179	3
349267	-2602	1942	-153	-2.192909	-9.161628	0.7107548	0	10.66	4003	99	-115	-16	0	0.2040851	0.144707	3
349371	-578	811	790	-3.401209	-10.4372	0.5776522	0	10.66	4003	-250	74	0	0	0.2040851	0.148015	3
349496	1315	1029	333	-1.156396	-10.29295	0.2609061	0	10.66	4003	-116	-151	1	0	0.2040851	0.1738291	3
349617	-846	190	-164	-0.5891839	-9.56675	-0.2115737	0	10.66	4002	-2	55	5	0	0.2040851	0.1988091	3
349724	1790	-2121	-749	-0.758203	-8.106609	0.28072	0	11.29	4002	-28	-166	-14	0	0.2040851	0.2209841	3
349840	1211	-3028	341	-2.111805	-5.673995	0.3560554	0	11.29	4002	2	-145	-11	0	0.2040851	0.2806729	3
349950	1079	-176	41	1.722621	-5.173008	-0.3267997	0	11.29	4003	14	-143	9	0	0.2040851	0.3073442	3
349985	1613	-659	-41	1.188478	-6.688606	-0.4701044	0	11.29	4003	84	-140	24	0	0.2040851	0.3125564	3
350060	2437	-1869	-635	2.838478	-4.545005	-0.4078673	0	11.29	4004	16	-38	3	0	0.2040851	0.340956	3
350158	36	-770	-246	4.140417	-5.074014	-0.6366968	0	11.29	4003	117	-218	10	0	0.2040851	0.3651512	3
350268	-433	-2041	313	4.150737	-6.380383	0.1143853	0	11.29	4003	-211	147	1	0	0.2040851	0.3775822	3
350366	659	-2319	344	3.511393	-5.305171	-0.08116803	0	11.29	4003	4	13	-6	0	0.2040851	0.3830397	3
350552	-232	606	408	2.759166	-7.578068	-1.407187	0	11.29	4004	70	-23	34	0	0.2040851	0.387722	3
350626	-768	-1304	-719	1.019752	-7.42853	-0.1736199	0	10.89	4003	123	-73	-1	0	0.2040851	0.3853287	3
350732	-519	139	-61	-0.3551668	-6.662066	1.233414	0	10.89	4003	88	68	-25	0	0.2040851	0.3729438	3
350755	52	1362	296	-0.6846892	-7.139245	1.205418	0	10.89	4004	2	30	-24	0	0.2040851	0.3703968	3
350894	-1098	311	2857	-2.589522	-9.894603	-1.266158	0	10.89	4003	-5	34	79	0	0.2040851	0.3558811	3
350986	935	-937	-495	-0.03928278	-8.053283	-2.680564	0	10.89	4004	-18	22	76	0	0.2040851	0.3448295	3
351087	2542	1077	-1568	2.481151	-8.889853	-1.077818	0	10.89	4003	-122	-76	29	0	0.2040851	0.3387951	3
351167	-29	-1673	291	1.958787	-7.715077	1.139811	0	10.89	4003	61	16	-20	0	0.2040851	0.3266804	3
351317	-444	1793	-477	-2.057976	-7.682601	1.094228	0	10.89	4003	1	-95	-22	0	0.2040851	0.3160091	3
351391	172	2909	843	-1.544919	-9.595375	0.5308818	0	10.89	4002	-29	-6	-2	0	0.2040851	0.3194271	3
351474	791	2516	-74	-2.181169	-11.78214	-0.03384642	0	10.89	4004	-66	27	12	0	0.2040851	0.3197399	3
351577	-120	2082	-836	-1.919357	-12.69111	-0.2586187	0	10.94	4002	-37	-13	2	0	0.2040851	0.3157974	3
351693	48	329	-148	-0.793565	-11.68741	-0.1579674	0	10.94	4004	26	-76	8	0	0.2040851	0.3038758	3
351824	-1554	-1415	-739	-3.354531	-5.905945	0.252187	0	10.94	4003	-84	-56	-9	0	0.2040851	0.2953947	3
351881	-2425	-1508	215	-3.95649	-5.021221	0.1927935	0	10.94	4009	40	-28	-2	0	0.2040851	0.2909951	3
352018	-724	-1577	-623	-5.805062	-1.429659	0.4734961	0	10.94	4003	-13	-103	-15	0	0.2040851	0.2731492	3
352085	1955	-274	-454	-3.322916	-1.667618	0.8983995	0	10.94	4003	-3	-67	-32	0	0.2040851	0.2670322	3
352189	733	1938	1029	1.801229	-4.031038	2.074739	0	10.94	4002	11	-21	-37	0	0.2040851	0.2573501	3
352293	982	2417	2388	4.995994	-7.06059	-1.440164	0	10.94	4004	21	-78	92	0	0.2040851	0.2451516	3
352417	-1766	2756	-1193	1.621506	-10.93659	-4.235269	0	10.94	4003	65	-129	78	0	0.2040851	0.2309738	3
352574	-1177	-229	-1770	1.212772	-9.743372	0.6005525	0	10.55	4003	17	45	-41	0	0.2040851	0.2115206	3
352608	-2062	-629	-1391	0.7187822	-8.275328	1.479241	0	10.55	4003	-109	-30	-64	0	0.2040851	0.2052541	3
352724	314	-1474	884	-0.5318002	-5.80079	1.34251	0	10.55	4003	45	-106	-22	0	0.2040851	0.1966838	3
352834	-304	-1473	983	-1.71582	-4.109701	-0.1055161	0	10.55	4003	2	-16	6	0	0.2040851	0.1881076	3
352982	203	-4666	360	-1.811301	-0.3400701	-0.6486831	0	10.55	4002	-8	-141	13	0	0.2040851	0.191117	3
353102	863	661	189	-0.7790257	-1.540608	0.1094624	0	10.55	4004	-146	-6	-1	0	0.2040851	0.1990636	3
353124	799	1467	-1588	-0.09104284	-2.803398	0.4081549	0	10.55	4004	-95	58	0	0	0.2040851	0.2036088	3
353218	-174	8184	-542	-0.07519086	-10.06765	0.7629677	0	10.55	4004	-7	305	-18	0	0.2040851	0.2057071	3
353375	-2656	-10602	-500	-0.548672	-13.46875	5.447081	0	10.55	4004	133	-340	-134	0	0.2040851	0.1978598	3
353428	-2443	-7434	1134	-1.679296	-2.96527	4.671314	0	10.77	4004	29	22	-117	0	0.2040851	0.1931218	3
353522	2613	-1929	1909	0.7491754	-1.106517	2.899102	0	10.77	4003	-15	3	-42	0	0.2040851	0.1885594	3
353678	843	-2217	-320	0.4460562	1.932173	-0.6177867	0	10.77	4004	-69	-169	23	0	0.2040851	0.1891721	3
353757	-1283	1443	289	0.3717584	0.741271	-1.044704	0	10.77	4003	23	-110	27	0	0.2040851	0.1887766	3
353853	489	3529	10	-0.8525672	-5.665542	-1.053018	0	10.77	4004	-21	-64	25	0	0.2040851	0.193982	3
353932	689	2507	43	-1.579506	-8.431591	-0.4055667	0	10.77	4004	-52	-22	-4	0	0.2040851	0.1999262	3
354018	-857	1875	1005	-2.92662	-8.706911	0.09126799	0	10.77	4004	-4	-12	0	0	0.2040851	0.1990601	3
354119	372	-1616	132	-2.960769	-6.81838	0.1057133	0	10.77	4003	108	36	-5	0	0.2040851	0.189447	3
354223	2112	4415	281	5.442008	-7.00386	0.2628389	0	10.77	4003	-79	0	2	0	0.2040851	0.188738	3
354347	-484	1999	337	5.360528	-12.1891	-0.02036123	0	10.77	4003	184	59	7	0	0.2040851	0.1897075	3
354443	726	1136	-553	2.28419	-11.59781	0.447328	0	11	4003	0	-11	3	0	0.2040851	0.1951318	3
354612	-107	4388	-268	4.943258	-14.16912	0.4572602	0	11	4003	-65	-6	-5	0	0.2040851	0.2149664	3
354650	-2006	3951	-13	3.576548	-14.60794	0.327706	0	11	4002	-8	-77	-3	0	0.2040851	0.227457	3
354730	-1427	-4	-188	0.1795004	-15.2857	0.2372201	0	11	4002	64	-139	-4	0	0.2040851	0.2449494	3
354881	-2169	-1832	92	-4.684914	-10.48231	0.1730046	0	11	4002	105	-111	5	0	0.2040851	0.273749	3
355000	2083	-2728	35	-0.5910539	-5.42334	0.4284841	0	11	4003	-90	-98	-4	0	0.2040851	0.2877713	3
355023	467	-3203	298	-0.6235396	-4.33955	0.3466143	0	11	4003	-33	-91	-7	0	0.2040851	0.2964289	3
355173	792	-2329	571	-0.8128992	-3.655859	0.01988148	0	11	4002	30	-95	6	0	0.2040851	0.3189602	3
355233	-294	-1653	911	-1.470397	-1.731074	-0.3945642	0	11	4002	-20	29	18	0	0.2040851	0.3288027	3
355330	-341	-2121	177	-0.2009377	-2.102324	-0.3300608	0	10.83	4003	100	-47	12	0	0.2040851	0.3411819	3
355451	-1997	-958	322	-2.291296	-1.246571	-0.3581155	0	10.83	4002	0	-87	12	0	0.2040851	0.3700689	3
355572	439	-396	-96	0.9607074	-5.177909	0.2503489	0	10.83	4003	3	-61	-8	0	0.2040851	0.4002745	3
355664	1129	-2312	-686	-0.8448865	-3.713151	0.1942251	0	10.83	4005	-97	-90	-6	0	0.2040851	0.4097515	3
355749	1808	-283	-799	0.6820124	-5.016092	0.5088082	0	10.83	4002	-5	-163	-13	0	0.2040851	0.4251821	3
355810	-2135	-548	416	0.4106281	-5.410286	0.1582882	0	10.83	4002	13	26	9	0	0.2040851	0.4341244	3
355993	-993	2440	237	-0.1835393	-7.344476	-0.454304	0	10.83	4002	-98	65	20	0	0.2040851	0.4481701	3
356040	671	816	251	0.8051776	-9.650148	-0.1282891	0	10.83	4003	-101	108	7	0	0.2040851	0.4544603	3
356092	-976	2056	637	0.337024	-9.657991	0.3855797	0	9.81	4003	38	57	-1	0	0.2040851	0.4546062	3
356165	-1185	3978	261	-1.855229	-11.28763	0.2281815	0	9.81	4002	-143	308	-1	0	0.2040851	0.4547421	3
356253	142	14	-161	-1.54385	-15.08323	0.7727559	0	9.81	4004	49	-290	-22	0	0.2040851	0.4532268	3
356407	-1050	-2797	-530	-1.484433	-11.44995	1.160121	0	9.81	4002	147	-189	-31	0	0.2040851	0.4522516	3
356516	-196	-686	28	0.2456554	-9.38005	0.3552866	0	9.81	4003	144	-154	-14	0	0.2040851	0.4506395	3
356566	-838	548	-458	2.79214	-9.685105	0.3453346	0	9.81	4002	130	33	-11	0	0.2040851	0.4484305	3
356674	-925	-2440	-533	1.761109	-7.596887	0.470221	0	9.81	4004	99	19	-22	0	0.2040851	0.4369389	3
356747	-153	-995	-425	0.05585647	-3.812752	0.9003062	0	9.81	4004	62	-70	-17	0	0.2040851	0.434778	3
356900	555	-911	-488	-0.6411262	-4.497871	0.3526346	0	9.81	4003	83	-38	4	0	0.2040851	0.4336146	3
356986	4498	288	-117	2.497768	-6.031521	0.894766	0	9.81	4004	-31	0	-19	0	0.2040851	0.4302547	3
357039	173	128	123	4.109919	-5.481576	1.244851	0	11.06	4002	130	-52	-23	0	0.2040851	0.4280685	3
357177	888	1356	-186	-1.86298	-7.292969	1.321768	0	11.06	4002	-86	-41	-34	0	0.2040851	0.4152851	3
357244	786	2160	256	0.007111131	-8.583593	1.00638	0	11.06	4003	-17	-33	-20	0	0.2040851	0.4026863	3
357352	1160	1352	-321	-0.2745926	-9.930593	0.6050164	0	11.06	4002	-60	-73	-15	0	0.2040851	0.3840355	3
357446	1540	3159	-509	-0.5062951	-13.40658	0.439604	0	11.06	4003	81	-160	-5	0	0.2040851	0.3775386	3
357624	1599	-268	-294	2.285342	-11.37211	0.7917903	0	11.06	4003	-227	238	-14	0	0.2040851	0.3603831	3
357700	-786	-1962	126	1.791318	-8.893417	0.418071	0	11.06	4004	-10	-10	-1	0	0.2040851	0.3496383	3
357799	1643	-339	648	1.081408	-6.801722	0.4307179	0	11.06	4003	122	-97	-11	0	0.2040851	0.3489662	3
357855	729	1819	186	1.194655	-5.849085	0.3956866	0	11.06	4003	-30	134	0	0	0.2040851	0.3559844	3
357983	-814	-967	-808	-0.3166816	-5.324382	0.07134691	0	10.89	4002	12	-139	0	0	0.2040851	0.3718559	3
358045	-255	2144	706	-0.5725266	-6.472542	0.06136692	0	10.89	4003	-41	72	8	0	0.2040851	0.3741741	3
358145	-3042	194	-669	-3.872152	-9.024557	-0.118008	0	10.89	4002	-52	-116	-4	0	0.2040851	0.3901106	3
358295	-3408	-1070	-236	-7.577845	-7.309987	0.69092	0	10.89	4003	68	-98	-16	0	0.2040851	0.3933206	3
358345	-657	-1160	-575	-7.52049	-5.479235	0.874625	0	10.89	4003	-69	-13	-25	0	0.2040851	0.3916882	3
358453	2101	-1374	1061	-3.812088	-4.351027	0.2449072	0	10.89	4004	-79	-57	10	0	0.2040851	0.3745994	3
358593	727	-921	353	-1.912849	-2.61857	-1.038024	0	10.89	4002	-65	-4	35	0	0.2040851	0.3733797	3
358706	-909	1082	-1321	3.40521	-6.640036	-0.2813984	0	10.89	4004	-125	40	20	0	0.2040851	0.3800869	3
358748	-799	-494	-2199	2.686538	-9.126446	0.5160481	0	10.89	4004	-64	-240	-40	0	0.2040851	0.3819101	3
358904	1787	298	189	0.6745475	-12.35741	2.676886	0	11.11	4002	87	-117	-55	0	0.2040851	0.3864336	3
359015	1070	-1814	-131	1.092613	-8.743831	2.297895	0	11.11	4004	128	-119	-51	0	0.2040851	0.3899493	3
359096	2013	-3567	1639	1.788527	-6.9275	1.59195	0	11.11	4003	53	-148	-7	0	0.2040851	0.399122	3
359192	9	-154	-19	1.901609	-5.575915	-0.3344106	0	11.11	4004	-120	39	10	0	0.2040851	0.3987514	3
359230	-1852	-1755	604	0.757916	-5.861036	-0.500523	0	11.11	4007	183	-160	29	0	0.2040851	0.395167	3
359325	652	2719	-673	0.4274751	-5.349806	-0.4427294	0	11.11	4004	-122	175	6	0	0.2040851	0.3850998	3
359466	-644	-63	-1108	-2.964128	-10.30922	1.665835	0	11.11	4003	79	-215	-57	0	0.2040851	0.3772051	3
359543	-862	-633	-418	-2.311951	-8.318508	2.561825	0	11.11	4003	55	10	-73	0	0.2040851	0.3717555	3
359656	-681	453	-12	-0.4251823	-8.887138	2.948645	0	11.11	4002	-51	55	-69	0	0.2040851	0.3676586	3
359733	-526	-1673	-211	-0.108736	-7.790005	2.677917	0	11.11	4003	59	-154	-60	0	0.2040851	0.3621239	3
359830	704	-1443	293	-1.485635	-3.99313	1.541206	0	9.98	4003	56	-119	-19	0	0.2040851	0.3517652	3
359937	996	1453	-278	1.220353	-5.989438	1.101853	0	9.98	4004	96	26	-17	1	0.2700817	0.3447943	4
360046	-575	397	425	-0.463469	-7.050707	1.066873	0	9.98	4002	-128	42	-32	1	0.3500346	0.33569	4
360099	-763	-385	568	-1.019827	-6.221647	1.292361	0	9.98	4004	80	-46	-20	1	0.3849325	0.330828	4
360163	-1085	3820	348	-0.7935734	-8.078981	1.116744	0	9.98	4004	-28	159	-25	1	0.3976242	0.3266783	4
360272	-821	2814	165	-1.215632	-12.47733	0.6067883	0	9.98	4002	53	23	-13	2	0.4150655	0.3129004	4
360387	-723	3966	-709	-3.277597	-15.40962	1.033782	0	9.98	4002	27	-158	-24	2	0.4268715	0.3005893	4
360471	607	3495	70	-2.464901	-14.73812	1.408003	0	9.98	4004	-47	119	-33	2	0.4305338	0.2878657	4
360571	-1013	-299	1018	-0.9893054	-13.58124	0.4294595	0	9.98	4003	113	38	17	2	0.4380804	0.2752313	4
360719	-1581	-3668	553	-0.2376471	-7.96833	-2.262862	0	10.43	4003	57	-3	56	2	0.364334	0.2400307	4
360777	1668	-3849	-468	-1.296858	-4.162148	-2.0087	0	10.43	4004	-67	-71	56	3	0.3522879	0.2366508	4
360885	295	772	-105	0.9934184	-3.114876	-1.090435	0	10.43	4003	136	-38	25	3	0.3161771	0.2215357	4
361037	-323	-1482	-656	3.27549	-3.515411	-0.2158557	0	10.43	4004	69	-148	3	4	0.2905534	0.207305	4
361148	1903	-765	1203	4.265403	-3.125675	0.082945	0	10.43	4004	115	19	4	4	0.2993783	0.1984735	4
361173	230	-1418	-563	4.09828	-3.246388	0.06181132	0	10.43	4002	115	19	4	4	0.2993783	0.1984735	4
361265	253	277	-381	1.42484	-5.522813	-0.1498202	0	10.43	4002	72	160	3	5	0.3231907	0.2009025	4
361432	-704	-2212	-272	0.7688233	-11.13609	0.305315	0	10.43	4004	-30	-162	1	5	0.3831272	0.2176172	4
361524	816	58	868	0.002066076	-9.828937	0.008438349	0	10.15	4003	-103	-118	14	5	0.4316796	0.2223413	4
361590	656	-283	-608	0.9031047	-10.74537	-0.2481935	0	10.15	4002	-48	-211	3	4	0.4767008	0.2305315	4
361675	-668	-1604	74	0.1256419	-9.084181	-0.1289268	0	10.15	4004	87	71	8	4	0.5437754	0.2420479	4
361767	688	-1874	-461	-1.271119	-7.38296	-0.3043956	0	10.15	4003	-117	-142	12	4	0.5873513	0.2555264	4
361909	11	339	-1109	4.381755	-6.709408	-0.3937681	0	10.15	4004	64	-188	5	4	0.6084484	0.2776975	4
361985	-780	-196	-322	2.98188	-9.046037	-0.2893402	0	10.15	4003	152	-161	5	3	0.6791947	0.2895757	4
362144	-332	681	574	4.517751	-11.86104	0.1656389	0	10.15	4002	82	-171	-13	1	0.80443	0.3125282	4
362207	326	-24	433	1.581785	-13.16445	0.526379	0	10.15	4004	24	44	-12	1	0.8405779	0.3205542	4
362386	-589	-99	-18	-2.226054	-10.89923	-0.7246917	0	10.15	4002	-38	19	30	0	0.8083783	0.3432965	4
362505	2035	-333	-386	-0.2220313	-11.04779	-0.803826	0	10.94	4003	-76	180	28	0	0.9120835	0.3608591	4
362626	185	-350	63	-1.602774	-8.331028	-0.1080105	0	10.94	4003	-187	-99	2	-2	0.9944562	0.384124	4
362680	845	155	433	0.46813	-8.570918	-0.1229784	0	10.94	4004	-158	33	3	-3	1.012488	0.3876446	4
362792	703	-579	116	1.252949	-8.444643	0.02114199	0	10.94	4003	-112	-133	3	-4	1.033854	0.4091457	4
362928	101	-1600	-852	0.2280619	-6.393654	-0.53653	0	10.94	4002	-154	121	25	-5	1.064977	0.4378439	4
362989	-289	-825	-1046	3.593039	-7.720563	0.01475346	0	10.94	4003	154	-84	-9	-7	1.102448	0.4562587	4
363068	-1462	818	496	3.683877	-7.994223	0.03606989	0	10.94	4003	-92	215	5	-7	1.124587	0.4721407	4
363203	23	-1839	101	2.034782	-10.35758	-0.1123605	0	10.94	4003	157	-72	5	-9	1.1675	0.4971939	4
363263	-275	356	-84	1.161423	-8.879084	-0.1076063	0	10.94	4003	-104	-57	7	-10	1.189507	0.5033155	4
363402	531	-428	194	0.5773967	-9.750031	-0.1081072	0	10.77	4003	0	-155	16	-12	1.096537	0.5156107	4
363468	167	-1751	-34	-0.8048652	-9.515163	-0.6171318	0	10.77	4002	-70	-217	18	-12	1.109969	0.5205284	4
363576	280	-1356	-921	3.131847	-7.964136	-0.3161806	0	10.77	4002	-92	66	11	-14	1.124668	0.5242937	4
363765	975	-1026	-80	0.7279916	-7.443611	-0.3836164	0	10.77	4002	-166	24	5	-16	1.098769	0.5089971	4
363799	1670	-304	-443	1.759904	-6.984888	-0.2554849	0	10.77	4002	-43	132	6	-16	1.087848	0.5062725	4
363871	-599	5247	360	0.7090409	-10.25578	-0.001712458	0	10.77	4003	-7	41	8	-17	1.069172	0.5010656	4
364035	367	3049	-91	-2.76476	-16.69815	-0.3476358	0	10.77	4004	-114	40	7	-18	0.9292313	0.4802935	4
364151	-206	-3661	160	0.4766582	-8.407674	-0.2156349	0	10.77	4003	115	-103	11	-18	0.8662481	0.4614882	4
364215	337	-4599	463	1.001273	-2.910685	-0.1672297	0	10.77	4004	86	66	11	-18	0.7882113	0.4491176	4
364253	-111	-2819	214	0.2218833	0.478561	-0.434628	0	10.43	4003	25	104	19	-18	0.7623494	0.4458516	4
364344	1287	894	125	1.026209	-0.3472621	-0.4872159	0	10.43	4003	87	-83	6	-18	0.6507507	0.4264232	4
364449	-129	479	-727	1.818915	-4.682681	-0.3185624	0	10.43	4007	95	-44	19	-18	0.5177134	0.4099901	4
364553	660	1584	638	1.861684	-14.95112	2.423113	0	10.43	4003	-88	-8	-88	-17	0.3947023	0.3830696	4
364672	16	-2068	867	2.149371	-11.00678	1.873276	0	10.43	4004	-89	53	-38	-16	0.3307752	0.3471171	4
364788	-974	2820	2154	0.02246652	-10.20945	-1.31683	0	10.43	4003	52	-135	41	-15	0.2755211	0.304102	4
364847	644	911	857	0.3735676	-10.31181	-2.099286	0	10.43	4002	130	-84	68	-15	0.2588201	0.2894958	4
365005	662	-872	-1599	1.308109	-7.205643	-0.9409958	0	10.43	4003	96	-127	7	-14	0.2733787	0.2731489	4
365039	-231	-1281	-1293	0.2465139	-7.560895	-0.4393714	0	10.43	4002	-43	-37	-2	-14	0.2880405	0.2708142	4
365119	211	-2361	-443	-2.612808	-6.40519	0.7609926	0	10.94	4003	21	-16	-22	-14	0.3092119	0.2720992	4
365223	-74	-1240	-543	-2.23293	-3.471781	0.4039333	0	10.94	4004	-55	35	-16	-14	0.3761824	0.2827184	4
365329	375	818	-211	-1.31877	-2.520571	0.7521889	0	10.94	4004	37	79	-10	-14	0.4311156	0.2903306	4
365424	-165	791	-851	-2.381527	-4.974279	0.9111314	0	10.94	4004	-38	-130	-23	-14	0.4913021	0.2972629	4
365538	-265	-1331	-642	-3.398095	-3.707715	0.7579638	0	10.94	4004	-2	-12	-16	-15	0.5564315	0.3078711	4
365661	-243	1326	735	-3.394001	-5.939528	0.3094976	0	10.94	4007	-9	-61	3	-15	0.5553681	0.3210526	4
365732	-104	2521	221	-3.378557	-7.361531	-0.1728301	0	10.94	4002	33	51	15	-15	0.5993721	0.3221245	4
365825	1123	641	-136	-3.330033	-8.373684	-0.5862841	0	10.94	4003	-77	13	13	-16	0.6477647	0.3196013	4
366023	-574	-1276	-53	-2.004988	-7.254976	1.049364	0	10.94	4003	-62	51	-28	-16	0.5882654	0.3107504	4
366078	783	-1802	-619	-1.879645	-5.836667	1.287289	0	9.92	4002	-47	2	-38	-16	0.5738917	0.3104047	4
366152	333	-1160	277	-0.9932508	-3.787666	1.534977	0	9.92	4002	12	-65	-35	-16	0.531408	0.3059591	4
366222	-149	-602	-192	-0.7263521	-1.939765	1.278423	0	9.92	4003	-37	-20	-27	-15	0.459342	0.3008052	4
366322	212	1023	-294	-0.2394158	-1.605197	0.9337968	0	9.92	4003	-84	52	-53	-15	0.3974182	0.2920794	4
366428	621	-1677	-857	4.138758	3.509254	2.837129	0	9.92	4004	34	-84	-63	-16	0.5444054	0.2675038	4
366534	-98	-523	-1033	2.531746	2.89055	3.336086	0	9.92	4004	69	-77	-71	-15	0.3956135	0.2338198	4
366653	216	-888	-2034	3.916245	1.267035	4.940519	0	9.92	4003	73	-69	-116	-14	0.325143	0.2173069	4
366712	-2573	-1557	-2231	3.802538	0.447873	7.024881	0	9.92	4003	-78	145	-171	-14	0.3001869	0.199413	4
366876	1865	2731	3954	1.755016	-3.590971	10.15961	0	9.92	4003	-37	-11	-241	-13	0.2591785	0.1701231	4
366935	981	1325	6632	3.5138	-4.135879	4.125026	0	10.66	4002	57	-21	-72	-12	0.2601703	0.166477	4
366995	544	1478	3752	2.573363	-3.69347	1.178357	0	10.66	4003	-32	12	48	-12	0.2660673	0.1640839	4
367175	1514	-447	-2238	4.407693	-7.213849	-2.617164	0	10.66	4004	-53	-228	35	-12	0.340861	0.1670773	4
