time(ms)	gyro_x(deg/s)	gyro_y(deg/s)	gyro_z(deg/s)	orientation_roll(deg)	orientation_pitch(deg)	orientation_yaw(deg)	throttle	battery(V)	loop_time(uS)	pid_output_roll	pid_output_pitch	pid_output_yaw	pid_output_throttle	ultrasonic_alt	baro_alt	flight_mode
245174	-13	-15	4	-0.5117177	0.01029142	1.355883	0	11.51	4004	0	0	0	0	0.6537577	0.01155303	1
245265	-10	-2	5	-0.5058224	0.01116902	1.351603	0	11.51	4002	0	0	0	0	0.6537577	0.02451636	1
245364	0	-5	0	-0.5189214	-0.00816254	1.34983	0	11.51	4002	0	0	0	0	0.6537577	0.03662495	1
245473	-16	-7	0	-0.5276667	-0.003067174	1.346223	0	11.51	4003	0	0	0	0	0.6537577	0.04458265	1
245534	-2	-10	1	-0.5209277	-0.0004383377	1.342799	0	11.51	4004	0	0	0	0	0.6537577	0.04909286	1
245638	-12	-1	3	-0.5169565	-0.00880572	1.338703	0	11.51	4004	0	0	0	0	0.6537577	0.04957557	1
245797	-16	-14	4	-0.4911556	0.00413761	1.3332	0	11.51	4004	0	0	0	0	0.6537577	0.05485373	1
245856	-13	-6	1	-0.510624	0.009699173	1.331427	0	11.51	4003	0	0	0	0	0.6537577	0.05861383	1
245949	-5	-4	0	-0.5068179	0.009991754	1.330021	0	11.51	4003	0	0	0	0	0.6537577	0.05874268	1
246107	-5	-14	0	-0.5162088	-0.001678234	1.326352	0	11.51	4003	0	0	0	0	0.6537577	0.04679743	1
246146	-8	-8	1	-0.5128902	0.005166862	1.324946	0	11.51	4003	0	0	0	0	0.6537577	0.0400777	1
246352	-3	-10	-1	-0.5219413	0.01342042	1.322807	0	11.57	4002	0	0	0	0	0.6537577	0.0216466	1
246532	-5	-5	1	-0.5277424	-0.02991394	1.320606	0	11.57	4004	0	0	0	0	0.6537577	0.02799948	1
246616	-13	-7	0	-0.5062402	-0.01584296	1.318649	0	11.57	4003	0	0	0	0	0.6537577	0.02844293	1
246685	-5	-6	0	-0.5091433	-0.03189075	1.314737	0	11.57	4003	0	0	0	0	0.6537577	0.02553164	1
246807	-11	-9	7	-0.4956084	-0.01397193	1.310213	0	11.57	4002	0	0	0	0	0.6537577	0.02344058	1
246872	-14	-3	5	-0.4883366	-0.002640388	1.307339	0	11.57	4003	0	0	0	0	0.6537577	0.02187891	1
246956	-10	-1	-1	-0.5031207	-0.02276582	1.306177	0	11.57	4003	0	0	0	0	0.6537577	0.01995101	1
247063	-3	2	-1	-0.4938599	-0.02569667	1.304832	0	11.57	4004	0	0	0	0	0.6537577	0.0124223	1
247184	-7	-1	6	-0.5154169	-0.001262697	1.301959	0	11.57	4004	0	0	0	0	0.6537577	0.00412098	1
247245	-9	-10	0	-0.5101534	0.01811722	1.299208	0	11.57	4003	0	0	0	0	0.6537577	-0.0009804182	1
247452	0	-1	1	-0.488997	0.02625311	1.296841	0	11.57	4003	0	0	0	0	0.6537577	-0.01280829	1
247565	-1	-6	-2	-0.4870898	-0.003196153	1.293661	0	11.57	4002	0	0	0	0	0.6537577	-0.01416041	1
247652	-1	-6	-2	-0.4870898	-0.003196153	1.293661	0	11.57	4002	0	0	0	0	0.6537577	-0.01416041	1
247847	-8	-4	-1	-0.5165353	-0.0006103748	1.28785	0	11.57	4002	0	0	0	0	0.6537577	-0.03189093	1
247908	3	-10	0	-0.5164918	-0.008085436	1.286504	0	11.57	4003	0	0	0	0	0.6537577	-0.03761842	1
247974	-2	-7	0	-0.508806	-0.021071	1.286932	0	11.57	4004	0	0	0	0	0.6537577	-0.04058284	1
248045	1	0	4	-0.5059791	-0.02083201	1.284609	0	11.57	4003	0	0	0	0	0.6537577	-0.04334723	1
248149	-2	2	0	-0.5132203	-0.01910151	1.283263	0	11.51	4004	0	0	0	0	0.6537577	-0.03777183	1
248265	-14	-4	-1	-0.4981947	-0.01273586	1.282224	0	11.51	4003	0	0	0	0	0.6537577	-0.02736688	1
248472	-8	-6	0	-0.4916098	-0.01065724	1.280207	0	11.51	4004	0	0	0	0	0.6537577	-0.02260537	1
248617	-14	-3	0	-0.5075552	-0.02182286	1.278617	0	11.51	4003	0	0	0	0	0.6537577	-0.02579778	1
248706	9	-3	3	-0.500957	-0.02792905	1.278495	0	11.51	4003	0	0	0	0	0.6537577	-0.02909561	1
248807	3	-5	3	-0.4824817	-0.03127017	1.277272	0	11.51	4002	0	0	0	0	0.6537577	-0.03553632	1
248904	1	2	-3	-0.4892874	-0.03331641	1.277027	0	11.51	4003	0	0	0	0	0.6537577	-0.04425086	1
248964	1	2	-3	-0.4892874	-0.03331641	1.277027	0	11.51	4003	0	0	0	0	0.6537577	-0.04681192	1
249056	1	2	-3	-0.4892874	-0.03331641	1.277027	0	11.57	4003	0	0	0	0	0.6537577	-0.04681192	1
249165	1	2	-3	-0.4892874	-0.03331641	1.277027	0	11.57	4003	0	0	0	0	0.6537577	-0.04681192	1
249309	1	2	-3	-0.4892874	-0.03331641	1.277027	0	11.57	4003	0	0	0	0	0.6537577	-0.04681192	1
249447	1	2	-3	-0.4892874	-0.03331641	1.277027	0	11.57	4003	0	0	0	0	0.6537577	-0.04681192	1
249518	1	2	-3	-0.4892874	-0.03331641	1.277027	0	11.57	4003	0	0	0	0	0.6537577	-0.04681192	1
249632	1	2	-3	-0.4892874	-0.03331641	1.277027	0	11.57	4003	0	0	0	0	0.6537577	-0.04681192	1
249678	1	2	-3	-0.4892874	-0.03331641	1.277027	0	11.57	4003	0	0	0	0	0.6537577	-0.04681192	1
249806	1	2	-3	-0.4892874	-0.03331641	1.277027	0	11.57	4003	0	0	0	0	0.6537577	-0.04681192	1
249907	1	2	-3	-0.4892874	-0.03331641	1.277027	0	11.63	4003	0	0	0	0	0.6537577	-0.04681192	1
250000	1	2	-3	-0.4892874	-0.03331641	1.277027	0	11.63	4003	0	0	0	0	0.6537577	-0.04681192	1
250038	1	2	-3	-0.4892874	-0.03331641	1.277027	0	11.63	4003	0	0	0	0	0.6537577	-0.04681192	1
250141	1	2	-3	-0.4892874	-0.03331641	1.277027	0	11.63	4003	0	0	0	0	0.6537577	-0.04681192	1
250299	1	2	-3	-0.4892874	-0.03331641	1.277027	0	11.63	4003	0	0	0	0	0.6537577	-0.04681192	1
250377	1	2	-3	-0.4892874	-0.03331641	1.277027	0	11.63	4003	0	0	0	0	0.6537577	-0.04681192	1
250450	1	2	-3	-0.4892874	-0.03331641	1.277027	0	11.63	4003	0	0	0	0	0.6537577	-0.04681192	1
250583	1	2	-3	-0.4892874	-0.03331641	1.277027	0	11.63	4003	0	0	0	0	0.6537577	-0.04681192	1
250672	1	2	-3	-0.4892874	-0.03331641	1.277027	0	11.63	4003	0	0	0	0	0.6537577	-0.04681192	1
250758	1	2	-3	-0.4892874	-0.03331641	1.277027	0	11.63	4003	0	0	0	0	0.6537577	-0.04681192	1
250852	1	2	-3	-0.4892874	-0.03331641	1.277027	0	11.57	4003	0	0	0	0	0.6537577	-0.04681192	1
250951	1	2	-3	-0.4892874	-0.03331641	1.277027	0	11.57	4003	0	0	0	0	0.6537577	-0.04681192	1
251053	1	2	-3	-0.4892874	-0.03331641	1.277027	0	11.57	4003	0	0	0	0	0.6537577	-0.04681192	1
251158	1	2	-3	-0.4892874	-0.03331641	1.277027	0	11.57	4003	0	0	0	0	0.6537577	-0.04681192	1
251295	1	2	-3	-0.4892874	-0.03331641	1.277027	0	11.57	4003	0	0	0	0	0.6537577	-0.04681192	1
251359	1	2	-3	-0.4892874	-0.03331641	1.277027	0	11.57	4003	0	0	0	0	0.6537577	-0.04681192	1
251462	1	2	-3	-0.4892874	-0.03331641	1.277027	0	11.57	4003	0	0	0	0	0.6537577	-0.04681192	1
251580	1	2	-3	-0.4892874	-0.03331641	1.277027	0	11.57	4003	0	0	0	0	0.6537577	-0.04681192	1
251689	1	2	-3	-0.4892874	-0.03331641	1.277027	0	11.57	4003	0	0	0	0	0.6537577	-0.04681192	1
251781	1	2	-3	-0.4892874	-0.03331641	1.277027	0	11.57	4003	0	0	0	0	0.6537577	-0.04681192	1
251911	1	2	-3	-0.4892874	-0.03331641	1.277027	0	11.57	4003	0	0	0	0	0.6537577	-0.04681192	1
251996	1	2	-3	-0.4892874	-0.03331641	1.277027	0	11.57	4003	0	0	0	0	0.6537577	-0.04681192	1
252043	1	2	-3	-0.4892874	-0.03331641	1.277027	0	11.57	4003	0	0	0	0	0.6537577	-0.04681192	1
252148	1	2	-3	-0.4892874	-0.03331641	1.277027	0	11.57	4003	0	0	0	0	0.6537577	-0.04681192	1
252286	1	2	-3	-0.4892874	-0.03331641	1.277027	0	11.57	4003	0	0	0	0	0.6537577	-0.04681192	1
252343	1	2	-3	-0.4892874	-0.03331641	1.277027	0	11.57	4003	0	0	0	0	0.6537577	-0.04681192	1
252447	1	2	-3	-0.4892874	-0.03331641	1.277027	0	11.57	4003	0	0	0	0	0.6537577	-0.04681192	1
252549	1	2	-3	-0.4892874	-0.03331641	1.277027	0	11.57	4003	0	0	0	0	0.6537577	-0.04681192	1
252718	1	2	-3	-0.4892874	-0.03331641	1.277027	0	11.63	4003	0	0	0	0	0.6537577	-0.04681192	1
252793	1	2	-3	-0.4892874	-0.03331641	1.277027	0	11.63	4003	0	0	0	0	0.6537577	-0.04681192	1
252888	1	2	-3	-0.4892874	-0.03331641	1.277027	0	11.63	4003	0	0	0	0	0.6537577	-0.04681192	1
252949	1	2	-3	-0.4892874	-0.03331641	1.277027	0	11.63	4003	0	0	0	0	0.6537577	-0.04681192	1
253053	1	2	-3	-0.4892874	-0.03331641	1.277027	0	11.63	4003	0	0	0	0	0.6537577	-0.04681192	1
253156	1	2	-3	-0.4892874	-0.03331641	1.277027	0	11.63	4003	0	0	0	0	0.6537577	-0.04681192	1
253260	1	2	-3	-0.4892874	-0.03331641	1.277027	0	11.63	4003	0	0	0	0	0.6537577	-0.04681192	1
253372	1	2	-3	-0.4892874	-0.03331641	1.277027	0	11.63	4003	0	0	0	0	0.6537577	-0.04681192	1
253452	1	2	-3	-0.4892874	-0.03331641	1.277027	0	11.63	4003	0	0	0	0	0.6537577	-0.04681192	1
253547	1	2	-3	-0.4892874	-0.03331641	1.277027	0	11.63	4003	0	0	0	0	0.6537577	-0.04681192	1
253651	1	2	-3	-0.4892874	-0.03331641	1.277027	0	11.63	4003	0	0	0	0	0.6537577	-0.04681192	1
253752	1	2	-3	-0.4892874	-0.03331641	1.277027	0	11.63	4003	0	0	0	0	0.6537577	-0.04681192	1
253871	1	2	-3	-0.4892874	-0.03331641	1.277027	0	11.63	4003	0	0	0	0	0.6537577	-0.04681192	1
253979	1	2	-3	-0.4892874	-0.03331641	1.277027	0	11.63	4003	0	0	0	0	0.6537577	-0.04681192	1
254055	1	2	-3	-0.4892874	-0.03331641	1.277027	0	11.63	4003	0	0	0	0	0.6537577	-0.04681192	1
254159	1	2	-3	-0.4892874	-0.03331641	1.277027	0	11.63	4003	0	0	0	0	0.6537577	-0.04681192	1
254269	1	2	-3	-0.4892874	-0.03331641	1.277027	0	11.63	4003	0	0	0	0	0.6537577	-0.04681192	1
254401	1	2	-3	-0.4892874	-0.03331641	1.277027	0	11.63	4003	0	0	0	0	0.6537577	-0.04681192	1
254481	1	2	-3	-0.4892874	-0.03331641	1.277027	0	11.63	4003	0	0	0	0	0.6537577	-0.04681192	1
254569	1	2	-3	-0.4892874	-0.03331641	1.277027	0	11.68	4003	0	0	0	0	0.6537577	-0.04681192	1
254698	1	2	-3	-0.4892874	-0.03331641	1.277027	0	11.68	4003	0	0	0	0	0.6537577	-0.04681192	1
254789	1	2	-3	-0.4892874	-0.03331641	1.277027	0	11.68	4003	0	0	0	0	0.6537577	-0.04681192	1
254888	1	2	-3	-0.4892874	-0.03331641	1.277027	0	11.68	4003	0	0	0	0	0.6537577	-0.04681192	1
254993	1	2	-3	-0.4892874	-0.03331641	1.277027	0	11.68	4003	0	0	0	0	0.6537577	-0.04681192	1
255083	1	2	-3	-0.4892874	-0.03331641	1.277027	0	11.68	4003	0	0	0	0	0.6537577	-0.04681192	1
255249	1	2	-3	-0.4892874	-0.03331641	1.277027	0	11.68	4003	0	0	0	0	0.6537577	-0.04681192	1
255341	1	2	-3	-0.4892874	-0.03331641	1.277027	0	11.68	4003	0	0	0	0	0.6537577	-0.04681192	1
255383	1	2	-3	-0.4892874	-0.03331641	1.277027	0	11.68	4003	0	0	0	0	0.6537577	-0.04681192	1
255529	1	2	-3	-0.4892874	-0.03331641	1.277027	0	11.63	4003	0	0	0	0	0.6537577	-0.04681192	1
255586	1	2	-3	-0.4892874	-0.03331641	1.277027	0	11.63	4003	0	0	0	0	0.6537577	-0.04681192	1
255703	1	2	-3	-0.4892874	-0.03331641	1.277027	0	11.63	4003	0	0	0	0	0.6537577	-0.04681192	1
255807	1	2	-3	-0.4892874	-0.03331641	1.277027	0	11.63	4003	0	0	0	0	0.6537577	-0.04681192	1
255904	1	2	-3	-0.4892874	-0.03331641	1.277027	0	11.63	4003	0	0	0	0	0.6537577	-0.04681192	1
256023	1	2	-3	-0.4892874	-0.03331641	1.277027	0	11.63	4003	0	0	0	0	0.6537577	-0.04681192	1
256103	1	2	-3	-0.4892874	-0.03331641	1.277027	0	11.63	4003	0	0	0	0	0.6537577	-0.04681192	1
256200	1	2	-3	-0.4892874	-0.03331641	1.277027	0	11.63	4003	0	0	0	0	0.6537577	-0.04681192	1
256352	1	2	-3	-0.4892874	-0.03331641	1.277027	0	11.63	4003	0	0	0	0	0.6537577	-0.04681192	1
256448	1	2	-3	-0.4892874	-0.03331641	1.277027	0	11.63	4003	0	0	0	0	0.6537577	-0.04681192	1
256495	1	2	-3	-0.4892874	-0.03331641	1.277027	0	11.63	4003	0	0	0	0	0.6537577	-0.04681192	1
256620	1	2	-3	-0.4892874	-0.03331641	1.277027	0	11.63	4003	0	0	0	0	0.6537577	-0.04681192	1
256734	1	2	-3	-0.4892874	-0.03331641	1.277027	0	11.63	4003	0	0	0	0	0.6537577	-0.04681192	1
256817	1	2	-3	-0.4892874	-0.03331641	1.277027	0	11.63	4003	0	0	0	0	0.6537577	-0.04681192	1
256900	1	2	-3	-0.4892874	-0.03331641	1.277027	0	11.63	4003	0	0	0	0	0.6537577	-0.04681192	1
257032	1	2	-3	-0.4892874	-0.03331641	1.277027	0	11.63	4003	0	0	0	0	0.6537577	-0.04681192	1
257159	1	2	-3	-0.4892874	-0.03331641	1.277027	0	11.63	4003	0	0	0	0	0.6537577	-0.04681192	1
257205	1	2	-3	-0.4892874	-0.03331641	1.277027	0	11.63	4003	0	0	0	0	0.6537577	-0.04681192	1
257306	2	0	1	-0.1758293	-0.9546701	0.1389159	0	11.63	4003	0	0	0	0	0.6537577	-0.005650608	1
257414	9	1	-5	-0.09940322	-0.5323712	0.1403833	0	11.63	4003	0	0	0	0	0.6537577	0.02886855	1
257548	11	10	-1	-0.05881203	-0.3389809	0.141178	0	11.63	4004	0	0	0	0	0.6537577	0.05033128	1
257620	5	12	-5	-0.02806173	-0.237621	0.1431956	0	11.63	4002	0	0	0	0	0.6537577	0.05452764	1
257699	4	3	-4	-0.006776397	-0.1886628	0.1452742	0	11.63	4004	0	0	0	0	0.6537577	0.06136371	1
257804	24	18	2	0.009925697	-0.1285796	0.1470472	0	11.63	4002	0	0	0	0	0.6537577	0.07128903	1
257904	18	11	4	0.02182167	-0.1094728	0.1463747	0	11.63	4002	0	0	0	0	0.6537577	0.08229192	1
258009	10	7	0	0.0230428	-0.06811049	0.1498592	0	11.63	4002	0	0	0	0	0.6537577	0.08970445	1
258138	17	6	1	0.02790125	-0.06404355	0.151816	0	11.63	4004	0	0	0	0	0.6537577	0.08898963	1
258210	19	1	0	0.03872016	-0.0590449	0.1521829	0	11.63	4002	0	0	0	0	0.6537577	0.09133911	1
258330	12	10	0	0.02274056	-0.0583441	0.1549341	0	11.46	4004	0	0	0	0	0.6537577	0.09747052	1
258491	17	16	0	0.03779687	-0.05952471	0.1584797	0	11.46	4003	0	0	0	0	0.6537577	0.1106122	1
258597	3	17	0	0.05463335	-0.06013019	0.1605583	0	11.46	4004	0	0	0	0	0.6537577	0.115182	1
258644	9	7	0	0.04982408	-0.05734206	0.1623311	0	11.46	4004	0	0	0	0	0.6537577	0.1243125	1
258703	9	7	0	0.04982408	-0.05734206	0.1623311	0	11.46	4004	0	0	0	0	0.6537577	0.1345298	1
258822	15	2	0	0.03692161	-0.04541025	0.1661214	0	11.46	4002	0	0	0	0	0.6537577	0.1425285	1
258902	20	16	-4	0.04311375	-0.04311641	0.1693003	0	11.46	4002	0	0	0	0	0.6537577	0.1423859	1
259039	21	8	-3	0.04808541	-0.06418832	0.1706447	0	11.46	4002	0	0	0	0	0.6537577	0.141331	1
259152	5	16	-3	0.03633082	-0.03324081	0.1733961	0	11.57	4003	0	0	0	0	0.6537577	0.1435622	1
259227	10	13	-3	0.03483815	-0.04547609	0.173885	0	11.57	4002	0	0	0	0	0.6537577	0.1438643	1
259312	18	4	-2	0.05646625	-0.03582914	0.1787152	0	11.57	4010	0	0	0	0	0.6537577	0.1465901	1
259432	14	9	1	0.05218023	-0.03385607	0.1826276	0	11.57	4003	0	0	0	0	0.6537577	0.1432676	1
259579	21	7	0	0.04799514	-0.06178511	0.1883128	0	11.57	4003	0	0	0	0	0.6537577	0.1373751	1
259697	12	16	-5	0.03633726	-0.06206291	0.1911254	0	11.57	4003	0	0	0	0	0.6537577	0.135463	1
259728	4	9	-6	0.04587743	-0.05763544	0.1924704	0	11.57	4002	0	0	0	0	0.6537577	0.13636	1
259853	25	18	0	0.05587984	-0.06848388	0.1976058	0	11.57	4003	0	0	0	0	0.6537577	0.1328989	1
259922	-2	14	-2	0.04650109	-0.06675548	0.1993178	0	11.57	4002	0	0	0	0	0.6537577	0.130299	1
260011	12	11	-2	0.02699601	-0.05811441	0.2031081	0	11.57	4003	0	0	0	0	0.6537577	0.1290354	1
260107	16	9	1	0.03378686	-0.05030172	0.2064095	0	11.63	4003	0	0	0	0	0.6537577	0.1359143	1
260212	18	15	0	0.02997275	-0.03951306	0.2101383	0	11.63	4003	0	0	0	0	0.6537577	0.1400139	1
260314	19	13	0	0.02062695	-0.02931862	0.2123392	0	11.63	4004	0	0	0	0	0.6537577	0.140771	1
260412	7	14	-6	0.02948445	-0.03819745	0.2144181	0	11.63	4003	0	0	0	0	0.6537577	0.1395079	1
260517	25	18	0	0.04529909	-0.04619902	0.2175368	0	11.63	4003	0	0	0	0	0.6537577	0.1345384	1
260658	12	17	-1	0.05178952	-0.05135877	0.2213273	0	11.63	4003	0	0	0	0	0.6537577	0.1288391	1
260723	9	9	-3	0.05631825	-0.04884135	0.2229781	0	11.63	4004	0	0	0	0	0.6537577	0.1263629	1
260838	18	6	-1	0.04823153	-0.03791116	0.2267688	0	11.63	4003	0	0	0	0	0.6537577	0.1321031	1
260978	14	8	3	0.05084534	-0.0672996	0.231965	0	11.51	4002	0	0	0	0	0.6537577	0.1456047	1
261073	-9	11	1	0.03750051	-0.09839807	0.2333099	0	11.51	4002	0	0	0	0	0.6537577	0.1506867	1
261130	23	20	-1	0.04437966	-0.1097842	0.2348385	0	11.51	4004	0	0	0	0	0.6537577	0.1549234	1
261245	2	12	3	0.03893899	-0.1080671	0.2356334	0	11.51	4002	0	0	0	0	0.6537577	0.1555697	1
261319	15	16	-4	0.03762852	-0.09762059	0.2364281	0	11.51	4003	0	0	0	0	0.6537577	0.1587246	1
261426	18	20	0	0.04192265	-0.09556642	0.2368561	0	11.51	4003	0	0	0	0	0.6537577	0.1568376	1
261554	11	14	4	0.0417133	-0.09515562	0.2395461	0	11.51	4003	0	0	0	0	0.6537577	0.1482139	1
261632	24	8	-2	0.0430872	-0.07788052	0.2411966	0	11.51	4003	0	0	0	0	0.6537577	0.1346412	1
261727	6	13	-2	0.04650044	-0.08527435	0.2427861	0	11.51	4002	0	0	0	0	0.6537577	0.1284287	1
261841	19	1	0	0.03890213	-0.05712389	0.2448034	0	11.51	4003	0	0	0	0	0.6537577	0.1251832	1
261929	9	10	1	0.03822703	-0.048813	0.2468207	0	11.57	4004	0	0	0	0	0.6537577	0.1188882	1
262042	11	7	0	0.05993862	-0.04043942	0.2496938	0	11.57	4003	0	0	0	0	0.6537577	0.1192459	1
262184	19	14	-2	0.03925547	-0.04344183	0.2533616	0	11.57	4002	0	0	0	0	0.6537577	0.1147599	1
262326	11	16	-2	0.03246959	-0.05011245	0.25703	0	11.57	4004	0	0	0	0	0.6537577	0.09910734	1
262352	6	16	-8	0.0317474	-0.05720751	0.2591697	0	11.57	4003	0	0	0	0	0.6537577	0.09628736	1
262452	21	15	-3	0.04958326	-0.05425237	0.2608815	0	11.57	4002	0	0	0	0	0.6537577	0.0831392	1
262545	15	11	-3	0.04998415	-0.06855474	0.2621652	0	11.57	4004	0	0	0	0	0.6537577	0.07893275	1
262677	29	14	0	0.01774638	-0.05459009	0.2630824	0	11.57	4003	0	0	0	0	0.6537577	0.07564636	1
262778	9	13	-2	0.05518467	-0.0614138	0.2663838	0	11.57	4004	0	0	0	0	0.6537577	0.07515262	1
262830	24	15	1	0.04593629	-0.06245582	0.2666282	0	11.63	4003	0	0	0	0	0.6537577	0.07681857	1
262942	31	12	-4	0.03828174	-0.06313872	0.2707854	0	11.63	4003	0	0	0	0	0.6537577	0.08003938	1
263096	17	14	-2	0.04497968	-0.07123759	0.2754315	0	11.63	4002	0	0	0	0	0.6537577	0.0835552	1
263242	30	17	0	0.04192925	-0.08158506	0.2766544	0	11.63	4003	0	0	0	0	0.6537577	0.08113564	1
263299	7	17	-1	0.04157734	-0.07857306	0.2767766	0	11.63	4003	0	0	0	0	0.6537577	0.08109496	1
263368	17	23	1	0.0344107	-0.07592925	0.277755	0	11.63	4002	0	0	0	0	0.6537577	0.08233392	1
263436	21	16	-1	0.03490835	-0.08156525	0.2785501	0	11.63	4004	0	0	0	0	0.6537577	0.08487827	1
263605	4	16	6	0.06633229	-0.07685091	0.2810569	0	11.63	4003	0	0	0	0	0.6537577	0.102439	1
263631	7	20	2	0.06290226	-0.07738183	0.281118	0	11.63	4003	0	0	0	0	0.6537577	0.1046353	1
263760	16	14	-1	0.05884528	-0.07787225	0.2839913	0	11.63	4004	0	0	0	0	0.6537577	0.1117141	1
263826	18	10	1	0.05706903	-0.07736819	0.2838079	0	11.63	4003	0	0	0	0	0.6537577	0.1133993	1
263929	18	10	1	0.05706903	-0.07736819	0.2838079	0	11.63	4003	0	0	0	0	0.6537577	0.1133993	1
264043	18	10	1	0.05706903	-0.07736819	0.2838079	0	11.63	4003	0	0	0	0	0.6537577	0.1133993	1
264159	18	10	1	0.05706903	-0.07736819	0.2838079	0	11.63	4003	0	0	0	0	0.6537577	0.1133993	1
264264	18	10	1	0.05706903	-0.07736819	0.2838079	0	11.63	4003	0	0	0	0	0.6537577	0.1133993	1
264361	18	10	1	0.05706903	-0.07736819	0.2838079	0	11.63	4003	0	0	0	0	0.6537577	0.1133993	1
264416	18	10	1	0.05706903	-0.07736819	0.2838079	0	11.63	4003	0	0	0	0	0.6537577	0.1133993	1
264517	18	10	1	0.05706903	-0.07736819	0.2838079	0	11.63	4003	0	0	0	0	0.6537577	0.1133993	1
264619	18	10	1	0.05706903	-0.07736819	0.2838079	0	11.63	4003	0	0	0	0	0.6537577	0.1133993	1
264721	18	10	1	0.05706903	-0.07736819	0.2838079	0	11.63	4003	0	0	0	0	0.6537577	0.1133993	1
264812	18	10	1	0.05706903	-0.07736819	0.2838079	0	11.63	4003	0	0	0	0	0.6537577	0.1133993	1
264957	18	10	1	0.05706903	-0.07736819	0.2838079	0	11.63	4003	0	0	0	0	0.6537577	0.1133993	1
265015	18	10	1	0.05706903	-0.07736819	0.2838079	0	11.63	4003	0	0	0	0	0.6537577	0.1133993	1
265119	18	10	1	0.05706903	-0.07736819	0.2838079	0	11.63	4003	0	0	0	0	0.6537577	0.1133993	1
265230	18	10	1	0.05706903	-0.07736819	0.2838079	0	11.63	4003	0	0	0	0	0.6537577	0.1133993	1
265323	18	10	1	0.05706903	-0.07736819	0.2838079	0	11.63	4003	0	0	0	0	0.6537577	0.1133993	1
265424	18	10	1	0.05706903	-0.07736819	0.2838079	0	11.63	4003	0	0	0	0	0.6537577	0.1133993	1
265523	18	10	1	0.05706903	-0.07736819	0.2838079	0	11.63	4003	0	0	0	0	0.6537577	0.1133993	1
265645	18	10	1	0.05706903	-0.07736819	0.2838079	0	11.57	4003	0	0	0	0	0.6537577	0.1133993	1
265774	18	10	1	0.05706903	-0.07736819	0.2838079	0	11.57	4003	0	0	0	0	0.6537577	0.1133993	1
265828	18	10	1	0.05706903	-0.07736819	0.2838079	0	11.57	4003	0	0	0	0	0.6537577	0.1133993	1
265955	18	10	1	0.05706903	-0.07736819	0.2838079	0	11.57	4003	0	0	0	0	0.6537577	0.1133993	1
266064	18	10	1	0.05706903	-0.07736819	0.2838079	0	11.57	4003	0	0	0	0	0.6537577	0.1133993	1
266128	18	10	1	0.05706903	-0.07736819	0.2838079	0	11.57	4003	0	0	0	0	0.6537577	0.1133993	1
266232	18	10	1	0.05706903	-0.07736819	0.2838079	0	11.57	4003	0	0	0	0	0.6537577	0.1133993	1
266335	18	10	1	0.05706903	-0.07736819	0.2838079	0	11.57	4003	0	0	0	0	0.6537577	0.1133993	1
266442	18	10	1	0.05706903	-0.07736819	0.2838079	0	11.57	4003	0	0	0	0	0.6537577	0.1133993	1
266574	18	10	1	0.05706903	-0.07736819	0.2838079	0	11.63	4003	0	0	0	0	0.6537577	0.1133993	1
266634	18	10	1	0.05706903	-0.07736819	0.2838079	0	11.63	4003	0	0	0	0	0.6537577	0.1133993	1
266739	18	10	1	0.05706903	-0.07736819	0.2838079	0	11.63	4003	0	0	0	0	0.6537577	0.1133993	1
266849	18	10	1	0.05706903	-0.07736819	0.2838079	0	11.63	4003	0	0	0	0	0.6537577	0.1133993	1
266944	18	10	1	0.05706903	-0.07736819	0.2838079	0	11.63	4003	0	0	0	0	0.6537577	0.1133993	1
267051	18	10	1	0.05706903	-0.07736819	0.2838079	0	11.63	4003	0	0	0	0	0.6537577	0.1133993	1
267147	18	10	1	0.05706903	-0.07736819	0.2838079	0	11.63	4003	0	0	0	0	0.6537577	0.1133993	1
267245	18	10	1	0.05706903	-0.07736819	0.2838079	0	11.63	4003	0	0	0	0	0.6537577	0.1133993	1
267379	18	10	1	0.05706903	-0.07736819	0.2838079	0	11.63	4003	0	0	0	0	0.6537577	0.1133993	1
267443	18	10	1	0.05706903	-0.07736819	0.2838079	0	11.63	4003	0	0	0	0	0.6537577	0.1133993	1
267559	18	10	1	0.05706903	-0.07736819	0.2838079	0	11.63	4003	0	0	0	0	0.6537577	0.1133993	1
267716	18	10	1	0.05706903	-0.07736819	0.2838079	0	11.63	4003	0	0	0	0	0.6537577	0.1133993	1
267810	18	10	1	0.05706903	-0.07736819	0.2838079	0	11.63	4003	0	0	0	0	0.6537577	0.1133993	1
267907	18	10	1	0.05706903	-0.07736819	0.2838079	0	11.63	4003	0	0	0	0	0.6537577	0.1133993	1
267946	18	10	1	0.05706903	-0.07736819	0.2838079	0	11.63	4003	0	0	0	0	0.6537577	0.1133993	1
268048	18	10	1	0.05706903	-0.07736819	0.2838079	0	11.63	4003	0	0	0	0	0.6537577	0.1133993	1
268154	18	10	1	0.05706903	-0.07736819	0.2838079	0	11.63	4003	0	0	0	0	0.6537577	0.1133993	1
268253	18	10	1	0.05706903	-0.07736819	0.2838079	0	11.63	4003	0	0	0	0	0.6537577	0.1133993	1
268374	18	10	1	0.05706903	-0.07736819	0.2838079	0	11.63	4003	0	0	0	0	0.6537577	0.1133993	1
268514	18	10	1	0.05706903	-0.07736819	0.2838079	0	11.63	4003	0	0	0	0	0.6537577	0.1133993	1
268551	18	10	1	0.05706903	-0.07736819	0.2838079	0	11.63	4003	0	0	0	0	0.6537577	0.1133993	1
268658	18	10	1	0.05706903	-0.07736819	0.2838079	0	11.63	4003	0	0	0	0	0.6537577	0.1133993	1
268750	18	10	1	0.05706903	-0.07736819	0.2838079	0	11.63	4003	0	0	0	0	0.6537577	0.1133993	1
268857	18	10	1	0.05706903	-0.07736819	0.2838079	0	11.63	4003	0	0	0	0	0.6537577	0.1133993	1
268988	18	10	1	0.05706903	-0.07736819	0.2838079	0	11.63	4003	0	0	0	0	0.6537577	0.1133993	1
269068	18	10	1	0.05706903	-0.07736819	0.2838079	0	11.63	4003	0	0	0	0	0.6537577	0.1133993	1
269164	18	10	1	0.05706903	-0.07736819	0.2838079	0	11.63	4003	0	0	0	0	0.6537577	0.1133993	1
269275	18	10	1	0.05706903	-0.07736819	0.2838079	0	11.57	4003	0	0	0	0	0.6537577	0.1133993	1
269339	18	10	1	0.05706903	-0.07736819	0.2838079	0	11.57	4003	0	0	0	0	0.6537577	0.1133993	1
269470	18	10	1	0.05706903	-0.07736819	0.2838079	0	11.57	4003	0	0	0	0	0.6537577	0.1133993	1
269543	18	10	1	0.05706903	-0.07736819	0.2838079	0	11.57	4003	0	0	0	0	0.6537577	0.1133993	1
269648	18	10	1	0.05706903	-0.07736819	0.2838079	0	11.57	4003	0	0	0	0	0.6537577	0.1133993	1
269797	18	10	1	0.05706903	-0.07736819	0.2838079	0	11.57	4003	0	0	0	0	0.6537577	0.1133993	1
269851	18	10	1	0.05706903	-0.07736819	0.2838079	0	11.57	4003	0	0	0	0	0.6537577	0.1133993	1
269947	18	10	1	0.05706903	-0.07736819	0.2838079	0	11.57	4003	0	0	0	0	0.6537577	0.1133993	1
270046	18	10	1	0.05706903	-0.07736819	0.2838079	0	11.57	4003	0	0	0	0	0.6537577	0.1133993	1
270148	18	10	1	0.05706903	-0.07736819	0.2838079	0	11.57	4003	0	0	0	0	0.6537577	0.1133993	1
270265	18	10	1	0.05706903	-0.07736819	0.2838079	0	11.63	4003	0	0	0	0	0.6537577	0.1133993	1
270366	18	10	1	0.05706903	-0.07736819	0.2838079	0	11.63	4003	0	0	0	0	0.6537577	0.1133993	1
270465	18	10	1	0.05706903	-0.07736819	0.2838079	0	11.63	4003	0	0	0	0	0.6537577	0.1133993	1
270540	18	10	1	0.05706903	-0.07736819	0.2838079	0	11.63	4003	0	0	0	0	0.6537577	0.1133993	1
270650	18	10	1	0.05706903	-0.07736819	0.2838079	0	11.63	4003	0	0	0	0	0.6537577	0.1133993	1
270748	18	10	1	0.05706903	-0.07736819	0.2838079	0	11.63	4003	0	0	0	0	0.6537577	0.1133993	1
270877	18	10	1	0.05706903	-0.07736819	0.2838079	0	11.63	4003	0	0	0	0	0.6537577	0.1133993	1
270969	18	10	1	0.05706903	-0.07736819	0.2838079	0	11.63	4003	0	0	0	0	0.6537577	0.1133993	1
271053	18	10	1	0.05706903	-0.07736819	0.2838079	0	11.63	4003	0	0	0	0	0.6537577	0.1133993	1
271190	18	10	1	0.05706903	-0.07736819	0.2838079	0	11.57	4003	0	0	0	0	0.6537577	0.1133993	1
271290	18	10	1	0.05706903	-0.07736819	0.2838079	0	11.57	4003	0	0	0	0	0.6537577	0.1133993	1
271365	18	10	1	0.05706903	-0.07736819	0.2838079	0	11.57	4003	0	0	0	0	0.6537577	0.1133993	1
271445	18	10	1	0.05706903	-0.07736819	0.2838079	0	11.57	4003	0	0	0	0	0.6537577	0.1133993	1
271548	18	10	1	0.05706903	-0.07736819	0.2838079	0	11.57	4003	0	0	0	0	0.6537577	0.1133993	1
271651	18	10	1	0.05706903	-0.07736819	0.2838079	0	11.57	4003	0	0	0	0	0.6537577	0.1133993	1
271767	18	10	1	0.05706903	-0.07736819	0.2838079	0	11.57	4003	0	0	0	0	0.6537577	0.1133993	1
271840	18	10	1	0.05706903	-0.07736819	0.2838079	0	11.57	4003	0	0	0	0	0.6537577	0.1133993	1
271949	18	10	1	0.05706903	-0.07736819	0.2838079	0	11.57	4003	0	0	0	0	0.6537577	0.1133993	1
272097	12	8	2	0.3664925	-0.3825894	0.6872348	0	11.57	4003	0	0	0	0	0.6537577	0.0982519	1
272175	4	5	-2	0.2500271	-0.2597015	0.6891299	0	11.57	4003	0	0	0	0	0.6537577	0.07207794	1
272242	-6	5	-1	0.2070221	-0.2120286	0.6900473	0	11.57	4003	0	0	0	0	0.6537577	0.04279961	1
272414	19	0	-1	0.09976485	-0.1125037	0.6941434	0	11.57	4004	0	0	0	0	0.6537577	0.001198674	1
272464	11	3	-4	0.09874271	-0.09001339	0.6947547	0	11.57	4002	0	0	0	0	0.6537577	-0.001390676	1
272549	5	18	0	0.05946727	-0.08943046	0.6957942	0	11.57	4004	0	0	0	0	0.6537577	-0.01262539	1
272749	20	7	-1	0.05224441	-0.0489884	0.7006852	0	11.57	4003	0	0	0	0	0.6537577	-0.04522956	1
272793	6	5	-2	0.0424518	-0.02983553	0.7017244	0	11.57	4003	0	0	0	0	0.6537577	-0.04642498	1
272937	18	9	-4	0.05173239	-0.02077733	0.7041082	0	11.63	4003	0	0	0	0	0.6537577	-0.04228954	1
272987	5	6	-5	0.04204865	-0.01201285	0.7052093	0	11.63	4003	0	0	0	0	0.6537577	-0.03257528	1
273047	16	10	-3	0.04373406	-0.001836132	0.7067379	0	11.63	4004	0	0	0	0	0.6537577	-0.02316267	1
273196	7	8	1	0.02841343	-0.0205506	0.7093668	0	11.63	4002	0	0	0	0	0.6537577	-0.0109921	1
273336	3	3	1	0.03579469	-0.03051404	0.7111399	0	11.63	4004	0	0	0	0	0.6537577	0.001397712	1
273369	4	15	-2	0.03334996	-0.05343044	0.7135242	0	11.63	4003	0	0	0	0	0.6537577	0.003046324	1
273449	14	5	-5	0.02546191	-0.05069317	0.7156641	0	11.63	4003	0	0	0	0	0.6537577	0.0017091	1
273579	7	5	1	0.04210196	-0.03783661	0.7210448	0	11.63	4002	0	0	0	0	0.6537577	-0.0009620608	1
273669	21	12	-2	0.02178727	-0.04200003	0.7236126	0	11.63	4004	0	0	0	0	0.6537577	-0.002088043	1
273779	7	12	-6	0.02797041	-0.03654589	0.7278311	0	11.63	4004	0	0	0	0	0.6537577	-0.00351954	1
273863	11	7	0	0.0140769	-0.02701624	0.7305823	0	11.57	4003	0	0	0	0	0.6537577	-0.007039038	3
274019	8	6	-2	0.02846788	-0.02938301	0.7376738	0	11.57	4004	0	0	0	0	0.6537577	-0.01165672	3
274064	16	8	0	0.04070649	-0.0429381	0.7392634	0	11.57	4004	0	0	0	0	0.6537577	-0.01175082	3
274203	18	5	0	0.04351726	-0.03637401	0.7451324	0	11.57	4003	0	0	0	0	0.6537577	-0.008034482	3
274312	11	13	0	0.04775997	-0.02909948	0.751857	0	11.57	4003	0	0	0	0	0.6537577	-0.005882754	3
274396	10	16	1	0.048767	-0.03186247	0.7554031	0	11.57	4002	0	0	0	0	0.6537577	-0.006731034	3
274469	1	8	-4	0.04264801	-0.04087359	0.7583989	0	11.57	4002	0	0	0	0	0.6537577	-0.008189879	3
274580	5	16	-4	0.03615873	-0.03618689	0.762128	0	11.57	4003	0	0	0	0	0.6537577	-0.009748713	3
274715	3	13	-9	0.0430284	-0.0342591	0.7731324	0	11.57	4004	0	0	0	0	0.6537577	-0.004006244	3
274830	15	9	-1	0.03451185	-0.03586476	0.7782677	0	11.57	4004	0	0	0	0	0.6537577	0.007402287	3
274907	12	10	-2	0.04291844	-0.03826362	0.7830973	0	11.57	4004	0	0	0	0	0.6537577	0.0181231	3
274962	10	19	0	0.04514819	-0.03367097	0.7859095	0	11.57	4002	0	0	0	0	0.6537577	0.02582169	3
275082	4	8	-6	0.04165252	-0.04418914	0.7906783	0	11.57	4004	0	0	0	0	0.6537577	0.02980494	3
275168	23	15	-2	0.0550525	-0.04498402	0.7957523	0	11.57	4002	0	0	0	0	0.6537577	0.0295046	3
275375	0	12	0	0.06327917	-0.05122779	0.8058398	0	11.57	4003	0	0	0	0	0.6537577	0.01602737	3
275537	8	9	1	0.04268887	-0.06344666	0.8102416	0	11.57	4004	0	0	0	0	0.6537577	0.002997361	3
275695	12	21	-3	0.05593051	-0.06955709	0.8184336	0	11.63	4004	0	0	0	0	0.6537577	-0.01289701	3
