time(ms)	gyro_x(deg/s)	gyro_y(deg/s)	gyro_z(deg/s)	orientation_roll(deg)	orientation_pitch(deg)	orientation_yaw(deg)	throttle	battery(V)	loop_time(uS)	pid_output_roll	pid_output_pitch	pid_output_yaw	pid_output_throttle	ultrasonic_alt	baro_alt	flight_mode
153102	839	1441	-53	5.594571	-11.98822	-0.1741027	0	11.57	4003	22	-41	2	0	0.5762398	0.2628062	3
153139	-257	-21	148	5.063703	-11.07865	-0.2168143	0	11.57	4002	24	-33	12	0	0.5762398	0.2674429	3
153300	2411	2704	203	5.450798	-9.059994	0.08271486	0	11.57	4004	-32	105	11	0	0.5762398	0.2960345	3
153401	1885	1958	686	6.447262	-11.15418	-0.1816451	0	10.89	4004	-7	-29	13	0	0.5762398	0.3145462	3
153477	2288	-1361	-941	4.002617	-10.23923	0.146922	0	10.89	4002	25	-139	-3	0	0.5762398	0.3293698	3
153539	-660	363	571	4.661878	-9.265047	0.1147578	0	10.89	4004	5	-60	1	0	0.5762398	0.3382528	3
153660	-248	-950	-905	-0.483915	-8.140209	0.1829539	0	10.89	4002	-75	-28	0	0	0.5762398	0.3408602	3
153805	-1025	485	25	0.1998158	-10.44474	-0.5280106	0	10.89	4004	9	-82	19	0	0.5762398	0.3458151	3
153851	582	-1094	-899	-1.318081	-9.026504	-0.4073729	0	10.89	4002	1	-87	11	0	0.5762398	0.3475116	3
153985	150	1351	89	-0.3969073	-9.356501	0.2098661	0	10.89	4003	42	20	3	0	0.5762398	0.353322	3
154109	-594	1590	87	0.8727261	-12.72139	0.3124465	0	10.89	4004	9	23	1	0	0.5762398	0.3517874	3
154212	1863	-1336	803	-0.05598541	-8.996106	0.4582061	0	10.89	4002	-2	17	10	0	0.5762398	0.3529193	3
154315	-1118	925	555	1.63116	-9.102062	-0.462284	0	11.34	4003	-6	60	26	0	0.5762398	0.3554583	3
154414	684	-1798	-1277	2.692907	-7.721664	-0.1360738	0	11.34	4003	7	-69	-3	0	0.5762398	0.3587456	3
154472	-1696	-652	339	2.024425	-6.377181	-0.2128704	0	11.34	4004	70	-94	15	0	0.5762398	0.359399	3
154589	-2383	-566	-807	-0.7304583	-8.974292	-0.1371337	0	11.34	4003	-114	-11	-1	0	0.5762398	0.3757139	3
154699	-2944	-2147	-608	-0.644585	-10.32087	0.03819398	0	11.34	4003	56	-89	5	0	0.5762398	0.3848552	3
154786	906	-868	-235	2.141976	-8.624383	0.3768597	0	11.34	4002	12	-92	-14	0	0.5762398	0.3888509	3
154850	-282	-642	265	1.768777	-7.364825	0.1852133	0	11.34	4003	4	5	9	0	0.5762398	0.389534	3
155025	-875	-135	285	4.973221	-6.683422	0.06994533	0	11.34	4002	-113	35	9	0	0.5762398	0.39855	3
155091	-906	-1872	-343	1.32498	-5.900858	0.1443495	0	11.34	4004	17	-136	-5	0	0.5762398	0.3966861	3
155154	221	-1865	158	3.743157	-6.740444	0.2286246	0	11.57	4003	-27	46	5	0	0.5762398	0.3933774	3
155278	-511	-767	256	4.75009	-6.438214	-0.2667287	0	11.57	4003	16	-86	11	0	0.5762398	0.3900996	3
155362	-501	676	180	3.151583	-6.195391	-0.007114327	0	11.57	4004	41	-189	-11	0	0.5576492	0.3825209	4
155478	486	1549	-592	3.659992	-10.23891	0.5481884	0	11.57	4003	63	26	-12	0	0.5084652	0.3753964	4
155637	-105	-1562	-48	1.693278	-9.788613	0.05683314	0	11.57	4002	11	13	19	0	0.455932	0.3679975	4
155771	3417	1160	-1025	4.195461	-13.63588	0.2606954	0	11.57	4010	-109	-73	-14	0	0.4213704	0.3451332	4
155869	-249	-1784	-710	4.697557	-10.83495	0.7995886	0	11.57	4004	52	-124	-15	0	0.4063599	0.3352005	4
155960	430	-158	-309	4.125433	-8.441236	1.144171	0	11.57	4003	-23	-59	-29	0	0.4031323	0.3305526	4
156118	1247	623	142	2.2184	-8.578009	1.092683	0	10.6	4003	68	-11	-20	1	0.3796185	0.3282054	4
156183	1819	-840	-220	3.784708	-8.057605	1.382043	0	10.6	4003	6	-67	-28	1	0.3812635	0.3351449	4
156265	1956	639	702	3.809739	-6.47578	1.072128	0	10.6	4002	-38	-49	-21	1	0.3806541	0.3439492	4
156451	583	-608	-607	0.5236206	-6.560346	0.6935207	0	10.6	4003	17	-109	-20	1	0.3676876	0.3626283	4
156581	136	1988	141	2.921682	-8.114889	1.512223	0	10.6	4003	-70	53	-34	1	0.3662893	0.3718713	4
156697	-1001	121	622	-0.5523307	-6.8311	0.8814533	0	10.6	4003	-34	-40	-17	1	0.3717099	0.3691257	4
156782	-731	-241	-361	-1.569114	-6.231174	0.5855646	0	10.6	4002	37	-81	-9	1	0.3649516	0.368961	4
156966	2395	-606	-528	-0.6673439	-5.839962	0.5826269	0	10.6	4003	-139	9	-9	1	0.3344501	0.3622658	4
157007	-463	893	-206	1.653121	-5.970739	0.6445411	0	11.63	4002	-39	-22	-11	1	0.3307432	0.3599393	4
157146	-1049	-78	106	0.5772612	-6.859682	1.105013	0	11.63	4003	18	-63	-20	1	0.3380797	0.3431767	4
157177	-1830	-181	-128	-0.1685726	-6.849333	1.100316	0	11.63	4003	-18	10	-23	1	0.348553	0.3415903	4
157307	-1398	-654	-43	-1.396341	-7.119974	1.20359	0	11.63	4002	-2	-71	-24	1	0.3632428	0.3283048	4
157395	480	1725	32	-0.350338	-8.745269	1.166006	0	11.63	4004	-25	-86	-29	1	0.3680094	0.3214828	4
157510	1479	-838	497	1.81782	-9.664268	0.6380351	0	11.63	4003	-95	-64	-7	1	0.380559	0.3126146	4
157641	64	-335	-444	4.020347	-10.25681	-0.004956368	0	11.63	4002	66	-33	6	1	0.389051	0.2984387	4
157686	205	-752	-633	2.633841	-11.53861	0.2302435	0	11.63	4004	6	-119	-11	1	0.4089761	0.2950701	4
157801	-149	418	40	1.729541	-9.818281	0.4973017	0	11.63	4003	-35	-35	-7	1	0.4297149	0.2985065	4
157942	75	1420	692	1.000847	-8.969769	0.1567952	0	11.63	4003	31	50	8	0	0.478341	0.3068669	4
158039	-931	-7	248	0.2966246	-9.093565	-0.2088694	0	11.23	4003	-39	48	17	0	0.5078461	0.3170973	4
158140	-596	-40	879	1.613775	-9.541206	-0.01960571	0	11.23	4002	78	4	13	0	0.5831751	0.3267459	4
158194	-358	2424	1324	2.110167	-11.12146	-0.2613225	0	11.23	4003	65	0	16	0	0.6034389	0.3331049	4
158335	775	-1665	-844	1.074216	-12.56888	0.160061	0	11.23	4004	-40	-142	0	0	0.6125085	0.3448658	4
158428	-915	529	-469	1.562256	-11.22999	0.1248645	0	11.23	4004	64	-46	-3	0	0.6610522	0.3468645	4
158520	800	-2870	-1182	0.7795944	-11.47461	0.3736487	0	11.23	4004	-24	25	-2	0	0.6837443	0.349488	4
158683	4096	320	689	6.733501	-10.95493	0.2197373	0	11.23	4003	-98	-44	-1	0	0.6908512	0.3442602	4
158771	2519	-553	399	8.167864	-10.24935	-0.1252671	0	11.23	4003	-15	37	20	0	0.674664	0.3409958	4
158808	562	-1511	-675	8.72428	-9.766881	-0.300099	0	11.23	4002	102	-57	5	0	0.6656105	0.3382766	4
158911	1629	612	51	7.95909	-9.786134	-0.3280243	0	11.34	4002	-74	-143	4	0	0.6439406	0.3359677	4
159058	-1032	-982	-438	4.992757	-11.29633	-0.4611349	0	11.34	4003	-11	-93	17	0	0.6247526	0.3468626	4
159113	6	708	403	4.58308	-10.33486	-0.4036313	0	11.34	4002	-66	-21	30	0	0.6210675	0.3505656	4
159217	210	416	460	4.710287	-11.76713	-0.9224083	0	11.34	4003	-46	-21	39	0	0.6024345	0.3657591	4
159356	-488	180	-922	0.7486156	-14.06302	-0.222873	0	11.34	4002	-24	35	14	0	0.5608975	0.3919596	4
159437	692	-796	-714	1.784228	-15.02971	0.3205214	0	11.34	4003	24	-165	-9	0	0.5354812	0.3990608	4
159541	-2520	586	613	0.7883385	-15.26463	-0.7598779	0	11.34	4003	65	74	28	0	0.5111018	0.3978641	4
159612	-1186	-457	882	-0.1582629	-13.70401	-1.626745	0	11.34	4002	-16	-156	45	0	0.4985179	0.3969582	4
159757	-904	499	-472	1.870937	-9.089192	-1.475014	0	11.34	4002	60	-155	32	0	0.4368912	0.3916963	4
159892	-1348	2347	178	1.839953	-10.83644	0.776126	0	11.63	4003	-24	103	-12	1	0.3650244	0.378382	4
160000	510	147	-184	0.1073488	-13.10992	0.7216779	0	11.63	4003	-18	-33	-14	1	0.3511325	0.3692885	4
160057	2444	-123	-262	1.539278	-12.0697	0.5212198	0	11.63	4004	-16	-140	-16	1	0.3568212	0.3675644	4
160132	-63	-46	510	3.100243	-9.555426	0.249503	0	11.63	4004	-71	10	1	1	0.3614291	0.363905	4
160243	1037	571	113	4.803304	-9.784526	0.7834306	0	11.63	4003	18	-32	-13	1	0.3709732	0.3534093	4
160328	-127	-1666	967	2.520672	-6.659382	0.3315724	0	11.63	4002	-19	-140	-1	1	0.4045706	0.3465496	4
160432	-143	1925	490	4.126732	-8.575905	0.1693825	0	11.63	4002	-71	130	10	1	0.4118669	0.3415108	4
160543	-359	-443	-612	2.972718	-11.0883	0.4063377	0	11.63	4003	84	-53	-8	1	0.4362412	0.334288	4
160653	-735	-738	-384	1.745978	-8.261282	0.936975	0	11.63	4002	48	-138	-22	0	0.4668376	0.3318765	4
160749	488	-2282	-498	1.90845	-5.553999	1.148081	0	11.57	4002	12	-99	-26	0	0.481985	0.3315599	4
160849	119	1481	-12	1.658204	-8.163654	0.7237404	0	11.57	4004	20	-93	-14	0	0.4842294	0.3279136	4
160996	298	-1141	-553	2.439737	-5.219818	0.7997808	0	11.57	4003	28	-81	-19	0	0.5037619	0.3291994	4
161103	-477	-976	679	2.125905	-6.927608	0.3884305	0	11.57	4002	50	-5	4	0	0.4785928	0.3308394	4
161132	1546	-1028	73	2.469126	-7.709666	0.1968355	0	11.57	4002	54	-54	7	0	0.4821835	0.3287518	4
161290	-1808	784	287	3.386423	-8.114555	-0.4936074	0	11.57	4004	70	-27	15	0	0.4586257	0.3194285	4
161334	2118	790	901	2.430378	-8.963527	-0.2447905	0	11.57	4003	-4	-161	-1	0	0.4495605	0.3161047	4
161506	-1248	1801	192	3.122819	-12.36387	0.2508638	0	11.57	4004	39	57	-5	1	0.4291833	0.3122917	4
161532	-741	948	38	3.432647	-11.36063	0.389204	0	11.57	4003	24	-10	-4	1	0.4291833	0.3122917	4
161715	385	-1909	-44	2.939808	-5.268243	0.1637416	0	11.29	4003	29	-81	3	1	0.3971933	0.2935841	4
161759	-970	-749	376	2.517902	-5.692663	-0.4462203	0	11.29	4003	25	-130	16	1	0.3946552	0.2898135	4
161846	555	60	-235	2.334439	-7.105269	-0.7301404	0	11.29	4003	38	-116	18	1	0.390315	0.2798114	4
161969	-1001	661	593	3.092205	-7.916997	-0.8183318	0	11.29	4002	14	48	33	1	0.3868053	0.2670815	4
162076	-772	2010	248	2.832691	-8.398439	-0.2579022	0	11.29	4004	-106	21	14	1	0.3937388	0.2577399	4
162199	-165	-216	-529	0.04266087	-8.005985	0.4359757	0	11.29	4002	-12	-39	-13	1	0.3823881	0.2436996	4
162248	462	-309	-155	-1.439836	-8.168867	0.9842855	0	11.29	4002	-50	-24	-18	1	0.3820851	0.2410945	4
162349	530	44	-385	-2.96579	-9.597952	1.273469	0	11.29	4004	-25	-67	-29	1	0.3761668	0.2234325	4
162453	-837	-1152	152	-1.921569	-9.481563	1.050386	0	11.29	4003	47	-118	-17	1	0.3682436	0.2083973	4
162556	898	165	-557	-1.406556	-10.67768	1.373891	0	10.55	4002	-52	-35	-31	1	0.3715787	0.2012484	4
162659	-1502	-853	311	-0.4197812	-9.277083	0.8962485	0	10.55	4003	43	0	-18	1	0.3719808	0.2005083	4
162761	788	-695	368	1.306734	-6.821712	0.5450352	0	10.55	4002	-24	7	0	1	0.3684028	0.2101302	4
162907	-37	1491	781	1.873084	-7.2857	-0.268557	0	10.55	4002	67	17	15	1	0.3921848	0.222518	4
162995	-473	-366	-1122	3.991638	-9.983749	-0.3111424	0	10.55	4003	-10	0	9	1	0.424533	0.2327439	4
163058	-1365	-337	-612	2.917503	-10.38012	-0.1855695	0	10.55	4002	-35	89	19	1	0.4211634	0.2383282	4
163161	-403	323	-243	3.792455	-9.884916	-0.177828	0	10.55	4004	74	-24	5	1	0.393248	0.2351921	4
163371	315	1020	-174	2.917509	-12.55878	0.8616558	0	10.55	4004	5	50	-20	1	0.4261263	0.2178975	4
163419	651	824	149	2.702477	-12.55466	1.193909	0	10.55	4003	-14	31	-24	1	0.4469373	0.2175338	4
163472	276	732	73	3.737176	-11.87904	1.243115	0	10.55	4003	-11	68	-25	1	0.4733948	0.2109839	4
163572	443	-928	599	2.769648	-10.47492	0.9128464	0	11.06	4004	27	-52	-6	1	0.4769035	0.2016213	4
163745	626	-1354	-63	0.07275096	-8.407769	0.06641666	0	11.06	4003	1	-112	1	1	0.495299	0.1750601	4
163820	927	-341	256	2.210618	-5.963047	0.4377563	0	11.06	4003	33	9	-5	1	0.4945093	0.1681501	4
163911	41	-468	1	1.638431	-6.207807	0.4013685	0	11.06	4004	36	-21	-5	1	0.4945929	0.1637024	4
163959	557	-1054	-140	1.413173	-6.157144	0.4142681	0	11.06	4003	19	-26	-6	1	0.493683	0.1598531	4
164060	-1239	815	291	2.121555	-8.42878	0.3944684	0	11.06	4004	76	31	-6	1	0.4832473	0.1574378	4
164183	-518	-616	150	2.540548	-9.561809	0.5816715	0	11.06	4002	33	-85	-8	1	0.469749	0.1581264	4
164275	-1266	7	522	2.234974	-9.049174	0.09860652	0	11.06	4002	59	-25	4	1	0.4490188	0.1669577	4
164366	-216	608	676	1.993366	-8.44824	-0.3120586	0	11.06	4004	11	13	25	1	0.4263336	0.1772694	4
164462	821	-1421	-726	4.008394	-7.694838	-0.3466197	0	10.83	4003	6	-88	-3	2	0.3913875	0.1886383	4
164583	-1784	839	323	4.955524	-6.377313	-0.1361816	0	10.83	4002	86	-31	-17	2	0.336191	0.2068938	4
164668	592	-700	-137	4.088523	-6.886745	0.5507685	0	10.83	4004	-11	-5	-6	2	0.3169836	0.2129127	4
164795	-638	-1521	-274	1.117286	-3.772467	0.1248773	0	10.83	4003	-7	-124	4	3	0.2912995	0.2133948	4
164885	2274	249	482	3.753701	-6.151054	-0.4520968	0	10.83	4003	-5	-117	15	3	0.2696061	0.2217471	4
164980	194	-1522	-1139	5.898252	-6.840446	-0.5392652	0	10.83	4004	-57	-147	7	3	0.2585425	0.2322515	4
165106	431	-1507	-426	3.177555	-9.88061	0.2574509	0	10.83	4003	26	-83	-16	3	0.2961841	0.2410032	4
165191	-65	-291	7	4.145481	-8.301083	0.3605574	0	10.83	4002	14	-22	-2	3	0.3074252	0.2403272	4
165278	-640	-2601	226	2.387606	-5.413588	0.0264801	0	10.83	4003	74	-97	4	2	0.3542472	0.2273791	4
165380	328	804	-517	1.757101	-6.301701	-0.2372169	0	10.55	4003	2	117	23	2	0.3842905	0.2165131	4
165514	-210	-547	-429	1.887766	-5.001225	0.2542474	0	10.55	4003	20	1	-11	2	0.4493817	0.2086413	4
165623	669	-867	-228	2.549838	-4.89621	0.7724851	0	10.55	4003	48	-95	-22	1	0.4320016	0.2058485	4
165703	1047	2214	-217	3.429869	-10.03016	0.7111262	0	10.55	4003	-69	-25	-14	1	0.474396	0.2011257	4
165789	-474	956	277	2.948729	-9.934809	0.3178475	0	10.55	4002	9	0	6	1	0.529892	0.1898925	4
165911	452	-2287	-6	1.105742	-7.264641	0.06737133	0	10.55	4003	-29	-81	6	0	0.5906575	0.1783277	4
166033	67	666	136	2.490816	-7.029184	-0.07939085	0	10.55	4004	-36	-43	3	0	0.6488268	0.1704779	4
166091	-491	-1339	-155	1.693764	-4.602873	0.02258992	0	10.55	4003	35	-79	0	0	0.6674899	0.1672063	4
166190	1509	1424	247	1.20635	-6.075558	0.6396221	0	10.55	4002	-6	-128	-23	0	0.6878136	0.1689676	4
166293	-783	130	-256	1.914601	-8.696916	0.701438	0	10.55	4004	-6	25	-12	0	0.6286619	0.178838	4
166447	652	325	-41	1.624059	-6.559243	0.3309402	0	10.55	4003	27	-7	2	0	0.647315	0.1845838	4
166483	241	900	20	1.368255	-5.854439	0.1797553	0	10.55	4002	6	-49	-1	0	0.625078	0.1812914	4
166603	944	-343	7	0.3640674	-4.903527	0.4212326	0	10.55	4002	-12	1	-3	0	0.5978882	0.1652707	4
166703	-429	-85	-258	0.7787492	-5.417488	0.5662452	0	10.55	4003	15	-64	-13	0	0.5634816	0.1529593	4
166895	-3282	1230	-373	-3.145915	-6.171318	0.5068984	0	10.55	4002	10	17	-8	1	0.5047647	0.1279252	4
167025	448	2730	-259	-1.984155	-12.69673	0.7715274	0	10.55	4003	48	-127	-13	2	0.4252477	0.1153672	4
167096	-905	437	-135	-1.798544	-12.58251	0.781547	0	10.55	4003	-13	-69	-17	2	0.3849658	0.1138269	4
167202	106	-473	350	-0.7396646	-8.868171	0.6253681	0	11.23	4002	-5	-40	-2	2	0.3312065	0.1092509	4
167303	1384	-1171	432	0.7218903	-7.001283	0.03455459	0	11.23	4003	-34	-78	8	3	0.2842079	0.1025953	4
167402	-336	-489	-1455	1.688113	-5.725789	0.05048109	0	11.23	4003	-13	61	9	3	0.269745	0.09602395	4
167505	-956	-2	-828	3.154391	-8.420441	0.5503957	0	11.23	4003	-41	57	-4	3	0.2752823	0.09134244	4
167691	651	-487	-52	4.509203	-8.202407	0.2886062	0	11.23	4004	56	-86	2	3	0.294939	0.1144857	4
167747	1195	250	-28	4.945292	-8.665376	-0.3653416	0	11.23	4002	19	-96	10	3	0.3072639	0.1303702	4
167852	-944	-304	-1201	3.633588	-8.782946	0.007451631	0	11.23	4003	-27	27	3	3	0.3250222	0.1503917	4
167916	843	368	165	2.857458	-9.874082	0.2512226	0	11.23	4002	14	-154	-19	3	0.3483217	0.168682	4
168034	670	-1188	269	3.109185	-9.862261	0.7208512	0	11.23	4003	35	-122	-6	2	0.4041526	0.2001095	4
168111	-1547	-1415	864	3.24216	-8.565621	-0.2844366	0	11.23	4003	106	-99	23	2	0.4653819	0.2413622	4
168222	1179	-2829	-1586	3.153518	-9.001622	-0.3185288	0	10.77	4003	31	-129	9	0	0.5136433	0.2770211	3
168362	-1152	-3384	-1405	1.89529	-8.056828	0.7755643	0	10.77	4004	-97	103	-15	0	0.5668078	0.34015	3
168441	-4213	-1302	-250	-0.9122579	-6.14296	1.146136	0	10.77	4004	0	51	-23	0	0.5813732	0.3640085	3
168513	-2432	-4640	-555	-4.633901	-2.210925	1.261476	0	10.77	4003	-3	-90	-35	0	0.5931712	0.3836419	3
168616	-78	1676	208	-3.424303	-5.230816	0.6643335	0	10.77	4002	2	-65	-23	0	0.6068017	0.4013638	3
168776	285	-1884	366	-2.790268	-8.478323	-0.2831089	0	10.77	4002	-91	-76	17	0	0.6194112	0.421494	3
168822	1665	-1219	-93	-0.4973735	-5.93078	-0.5817118	0	10.77	4003	-62	-78	21	0	0.623982	0.4320833	3
168935	-2237	2358	334	1.485981	-7.806539	-0.8483486	0	10.77	4004	67	19	29	0	0.6292627	0.4450463	3
169063	2773	3278	33	-0.08630971	-12.92799	-0.1500371	0	10.72	4002	-73	49	2	0	0.6341478	0.4683703	3
169205	-923	1898	222	1.627581	-11.40901	0.1233964	0	10.72	4003	60	-101	2	0	0.6373531	0.4923203	3
169263	2866	3294	63	4.156938	-12.44462	0.5078354	0	10.72	4003	-5	12	-9	0	0.6385149	0.5008684	3
169355	1247	2643	753	3.678068	-12.84443	0.469103	0	10.72	4003	3	-49	-7	0	0.6398572	0.5029196	3
169427	-213	652	74	0.5005306	-11.28529	0.1682695	0	10.72	4004	0	0	0	0	0.6408357	0.4946127	3
169521	-1168	273	579	-4.243509	-6.250078	-0.443562	0	10.72	4003	0	0	0	0	0.6415491	0.4846412	3
169631	103	-4835	-4302	-4.88554	-22.74531	4.835402	0	10.72	4003	0	0	0	0	0.6420691	0.4463915	3
169732	-1376	-17779	-3712	-7.801444	3.175799	13.66325	0	10.72	4003	0	0	0	0	0.6424482	0.4032846	3
169836	843	-512	-881	-4.886002	5.354939	18.79514	0	10.72	4003	0	0	0	0	0.6427246	0.3651431	3
169944	50	-64	107	-2.353614	7.65937	18.70734	0	10.72	4003	0	0	0	0	0.642926	0.3131044	3
170071	-55	-1	17	-1.249856	3.886027	18.68576	0	11.63	4003	0	0	0	0	0.6431124	0.2473193	3
170128	-17	-20	-67	-0.9187334	2.827727	18.67989	0	11.63	4002	0	0	0	0	0.64318	0.2302313	3
170244	-4	-36	8	-0.471575	1.636032	18.66668	0	11.63	4002	0	0	0	0	0.643258	0.1981672	1
170326	-23	-42	20	-0.3006815	1.145084	18.65978	0	11.63	4003	0	0	0	0	0.6433148	0.1603316	1
170438	-33	-20	0	-0.162469	0.6235138	18.64921	0	11.63	4003	0	0	0	0	0.6433563	0.1343883	1
170543	-18	-16	-1	-0.05191885	0.2540967	18.64169	0	11.63	4003	0	0	0	0	0.6433866	0.1100781	1
170690	-43	-39	-57	0.07094391	-0.06472199	18.62903	0	11.63	4002	0	0	0	0	0.6434146	0.08250186	1
170731	-37	-40	23	0.1000741	-0.1318989	18.61852	0	11.63	4004	0	0	0	0	0.6434247	0.07427006	1
170866	-25	-32	16	0.0929983	-0.2535042	18.60758	0	11.63	4004	0	0	0	0	0.6434396	0.06730331	1
170935	-33	-32	21	0.1243474	-0.2444545	18.60153	0	11.68	4003	0	0	0	0	0.643445	0.06677157	1
171083	-34	-27	-3	0.1498643	-0.2723609	18.58808	0	11.68	4002	0	0	0	0	0.6434544	0.06909996	1
171127	-32	-16	9	0.1680769	-0.3185404	18.58325	0	11.68	4003	0	0	0	0	0.6434557	0.0691603	1
171292	-37	-26	10	0.1534536	-0.3273991	18.56949	0	11.68	4002	0	0	0	0	0.6434608	0.07466265	1
171330	-30	-28	15	0.1459036	-0.3376268	18.56209	0	11.68	4003	0	0	0	0	0.6434615	0.07538871	1
171430	-23	-28	-13	0.1634019	-0.3098597	18.55378	0	11.68	4003	0	0	0	0	0.6434633	0.07741462	1
171532	-29	-19	18	0.1558019	-0.3259795	18.54149	0	11.68	4004	0	0	0	0	0.6434645	0.07777099	1
171633	-25	-25	-2	0.1423337	-0.3289575	18.53691	0	11.68	4003	0	0	0	0	0.6434655	0.0825296	1
171755	-27	-31	17	0.1735853	-0.342389	18.52291	0	11.68	4003	0	0	0	0	0.6434661	0.08237187	1
171907	-32	-24	4	0.1686367	-0.361812	18.51203	0	11.74	4003	0	0	0	0	0.6434668	0.07757372	1
171951	-32	-25	8	0.1721295	-0.3620127	18.50629	0	11.74	4002	0	0	0	0	0.6434669	0.0769242	1
172044	-25	-25	1	0.1627419	-0.3755169	18.50219	0	11.74	4003	0	0	0	0	0.6434673	0.07530773	1
172171	-34	-32	8	0.1518276	-0.3861758	18.4945	0	11.74	4004	0	0	0	0	0.6434675	0.07533503	1
172246	-20	-30	2	0.1772311	-0.3803519	18.48858	0	11.74	4003	0	0	0	0	0.6434676	0.07520808	1
172348	-27	-23	0	0.1722926	-0.3408302	18.48119	0	11.74	4004	0	0	0	0	0.6434677	0.07741974	1
172450	-25	-26	3	0.1645521	-0.3547922	18.4735	0	11.74	4003	0	0	0	0	0.6434677	0.08563638	1
172554	-28	-25	10	0.1726936	-0.3639925	18.4677	0	11.74	4003	0	0	0	0	0.6434677	0.09408741	1
172657	-29	-24	4	0.1691781	-0.3653603	18.46019	0	11.74	4004	0	0	0	0	0.6434677	0.105653	1
172784	-30	-23	2	0.1814026	-0.3961287	18.45078	0	11.68	4002	0	0	0	0	0.6434677	0.1188204	1
172862	-31	-26	0	0.1734269	-0.3993587	18.44852	0	11.68	4003	0	0	0	0	0.6434677	0.1258613	1
172961	-16	-21	4	0.1741054	-0.3759224	18.44175	0	11.68	4003	0	0	0	0	0.6434677	0.1319875	1
173064	-15	-18	-1	0.2014631	-0.3785955	18.43692	0	11.68	4003	0	0	0	0	0.6434677	0.1316604	1
173214	-27	-18	-1	0.1672424	-0.3632694	18.42813	0	11.68	4004	0	0	0	0	0.6434677	0.1286241	1
173307	-33	-23	6	0.1719754	-0.3880743	18.42007	0	11.68	4002	0	0	0	0	0.6434677	0.1301315	1
173400	-23	-22	5	0.188564	-0.3758386	18.41531	0	11.68	4003	0	0	0	0	0.6434677	0.1292864	1
173473	-5	-26	2	0.1735202	-0.3648472	18.40982	0	11.68	4002	0	0	0	0	0.6434677	0.1278015	1
173569	-22	-25	0	0.2182574	-0.3642352	18.40292	0	11.68	4002	0	0	0	0	0.6434677	0.13304	1
173673	-42	-18	10	0.2021863	-0.3716433	18.39559	0	11.74	4003	0	0	0	0	0.6434677	0.1380669	1
173775	-14	-15	5	0.183175	-0.3774328	18.39052	0	11.74	4002	0	0	0	0	0.6434677	0.1450809	1
173882	-24	-9	4	0.207953	-0.393811	18.38466	0	11.74	4002	0	0	0	0	0.6434677	0.147978	1
174008	-20	-15	1	0.2226747	-0.3804565	18.38039	0	11.74	4003	0	0	0	0	0.6434677	0.1471253	1
174079	-21	-15	1	0.2370077	-0.3689017	18.37575	0	11.74	4003	0	0	0	0	0.6434677	0.1494371	1
174173	-32	-14	3	0.2092963	-0.3816175	18.37197	0	11.74	4003	0	0	0	0	0.6434677	0.1575197	1
174277	-14	-21	2	0.2237853	-0.3747373	18.36769	0	11.74	4003	0	0	0	0	0.6434677	0.1651156	1
174384	-31	-13	4	0.225758	-0.3890984	18.35933	0	11.74	4003	0	0	0	0	0.6434677	0.1684612	1
174531	-27	-16	0	0.2217668	-0.3928376	18.35292	0	11.74	4003	0	0	0	0	0.6434677	0.1775788	1
174591	-1	-18	0	0.2223695	-0.3792621	18.3503	0	11.8	4004	0	0	0	0	0.6434677	0.1817844	1
174685	-24	-23	6	0.2117659	-0.3835106	18.34572	0	11.8	4004	0	0	0	0	0.6434677	0.1879501	1
174803	-24	-21	5	0.1970587	-0.3777621	18.34059	0	11.8	4003	0	0	0	0	0.6434677	0.1910401	1
174929	-22	-23	3	0.2143041	-0.3765083	18.33357	0	11.8	4002	0	0	0	0	0.6434677	0.1898044	1
174988	-33	-19	2	0.2279308	-0.3757127	18.33119	0	11.8	4004	0	0	0	0	0.6434677	0.1899337	1
175095	-22	-14	6	0.225719	-0.3721235	18.32368	0	11.8	4002	0	0	0	0	0.6434677	0.1857998	1
175225	-29	-4	8	0.2427355	-0.3812771	18.31709	0	11.8	4004	0	0	0	0	0.6434677	0.1838212	1
175329	-19	-19	0	0.213085	-0.3713901	18.31367	0	11.8	4004	0	0	0	0	0.6434677	0.1764535	1
175386	-13	-14	5	0.2265413	-0.3920624	18.30829	0	11.8	4003	0	0	0	0	0.6434677	0.1752125	1
175624	-21	-23	-1	0.2266126	-0.3900588	18.30078	0	11.8	4003	0	0	0	0	0.6434677	0.1611978	1
175696	-25	-20	3	0.2253713	-0.3969547	18.29706	0	11.8	4002	0	0	0	0	0.6434677	0.155778	1
175794	-10	-29	3	0.2311101	-0.3905216	18.2937	0	11.8	4002	0	0	0	0	0.6434677	0.1530434	1
175933	-11	-22	6	0.2217666	-0.3756554	18.28113	0	11.8	4002	0	0	0	0	0.6434677	0.1403634	1
176034	-26	-21	8	0.2119585	-0.3720698	18.27692	0	11.8	4004	0	0	0	0	0.6434677	0.1318025	1
176080	-24	-24	5	0.2046394	-0.376317	18.27411	0	11.8	4003	0	0	0	0	0.6434677	0.130568	1
176186	-16	-19	4	0.1986925	-0.3775814	18.27057	0	11.8	4002	0	0	0	0	0.6434677	0.1216882	1
176287	-10	-14	1	0.2056887	-0.3853346	18.2666	0	11.8	4002	0	0	0	0	0.6434677	0.1095302	1
176414	-18	-19	3	0.2007148	-0.3755724	18.25887	0	11.8	4002	0	0	0	0	0.6434677	0.100132	1
176596	-19	-17	4	0.199937	-0.3828832	18.25192	0	11.8	4004	0	0	0	0	0.6434677	0.09587275	1
176678	-9	-17	2	0.1945223	-0.3913619	18.24686	0	11.8	4009	0	0	0	0	0.6434677	0.09043589	1
176831	-20	-10	5	0.2121743	-0.3833269	18.23947	0	11.8	4004	0	0	0	0	0.6434677	0.07284122	1
176877	-30	-17	4	0.2238139	-0.3876881	18.23624	0	11.8	4003	0	0	0	0	0.6434677	0.0703389	1
176977	-19	-17	2	0.2191673	-0.3827159	18.2308	0	11.8	4003	0	0	0	0	0.6434677	0.06657778	1
177075	-13	-20	3	0.2398668	-0.3867346	18.22629	0	11.8	4003	0	0	0	0	0.6434677	0.06097619	1
177275	-21	-18	5	0.2277799	-0.391629	18.21847	0	11.8	4003	0	0	0	0	0.6434677	0.04528352	1
177356	-27	-11	8	0.2461019	-0.4019588	18.21213	0	11.8	4003	0	0	0	0	0.6434677	0.04231322	1
177413	-29	-12	4	0.2456437	-0.3955875	18.20865	0	11.8	4004	0	0	0	0	0.6434677	0.04123796	1
177469	-22	-14	2	0.2356726	-0.3935686	18.20669	0	11.8	4003	0	0	0	0	0.6434677	0.04068645	1
177570	-12	-23	4	0.229604	-0.4023618	18.20285	0	11.8	4004	0	0	0	0	0.6434677	0.04446029	1
177666	-26	-9	-1	0.2499432	-0.4129851	18.19967	0	11.8	4003	0	0	0	0	0.6434677	0.04953033	1
177767	-16	-8	2	0.2339101	-0.4021142	18.19619	0	11.8	4003	0	0	0	0	0.6434677	0.05633353	1
177948	-15	-17	3	0.2394012	-0.4126973	18.18764	0	11.8	4004	0	0	0	0	0.6434677	0.06428202	1
178031	-3	-17	0	0.2318262	-0.417345	18.18533	0	11.8	4002	0	0	0	0	0.6434677	0.06167968	1
178094	-20	-13	2	0.2383073	-0.409696	18.18362	0	11.8	4002	0	0	0	0	0.6434677	0.05831265	1
178274	-2	-18	0	0.2268236	-0.4065854	18.18001	0	11.8	4002	0	0	0	0	0.6434677	0.06177718	1
178369	-13	-11	0	0.21379	-0.3954932	18.17647	0	11.8	4002	0	0	0	0	0.6434677	0.05691664	1
178424	-16	-16	1	0.2135147	-0.3956826	18.17666	0	11.8	4002	0	0	0	0	0.6434677	0.05691664	1
178559	-6	-16	0	0.2242035	-0.4161508	18.17299	0	11.8	4004	0	0	0	0	0.6434677	0.0595204	1
178662	-24	-13	1	0.2370735	-0.3949501	18.17019	0	11.8	4002	0	0	0	0	0.6434677	0.06714879	1
178742	-14	-21	8	0.229934	-0.4020126	18.16695	0	11.8	4004	0	0	0	0	0.6434677	0.07182454	1
178891	-25	-16	-3	0.2381146	-0.4008748	18.165	0	11.8	4003	0	0	0	0	0.6434677	0.07519663	1
179020	-4	-11	-3	0.2343711	-0.4393988	18.16219	0	11.8	4004	0	0	0	0	0.6434677	0.08332232	1
179095	0	-22	-3	0.2388611	-0.4192553	18.16085	0	11.8	4002	0	0	0	0	0.6434677	0.08183888	1
179304	-9	-6	4	0.2346911	-0.4149371	18.15902	0	11.74	4002	0	0	0	0	0.6434677	0.06112307	1
179379	-16	-20	0	0.2279777	-0.4239946	18.15621	0	11.74	4004	0	0	0	0	0.6434677	0.04954516	1
179477	-21	-13	3	0.2414759	-0.4305248	18.15291	0	11.74	4002	0	0	0	0	0.6434677	0.04175285	1
179560	-19	-12	0	0.2098785	-0.4131336	18.15084	0	11.74	4002	0	0	0	0	0.6434677	0.03245249	1
179620	-23	-5	1	0.2326297	-0.4196094	18.14919	0	11.74	4003	0	0	0	0	0.6434677	0.03170886	1
179721	-19	-8	4	0.2393129	-0.4159382	18.14589	0	11.74	4002	0	0	0	0	0.6434677	0.03125351	1
179867	0	-11	0	0.2220219	-0.4110693	18.14302	0	11.74	4003	0	0	0	0	0.6434677	0.02915822	1
179973	-12	-1	0	0.2427715	-0.4266801	18.14156	0	11.74	4004	0	0	0	0	0.6434677	0.03640745	1
180049	-10	-18	3	0.231772	-0.4099621	18.14083	0	11.74	4003	0	0	0	0	0.6434677	0.03875114	1
180175	-17	-9	0	0.2560542	-0.4124549	18.13777	0	11.74	4002	0	0	0	0	0.6434677	0.04574174	1
180298	-12	-12	2	0.2317667	-0.4268673	18.13545	0	11.74	4003	0	0	0	0	0.6434677	0.0463983	1
180453	4	-16	3	0.2412322	-0.4082154	18.13075	0	11.74	4004	0	0	0	0	0.6434677	0.05421347	1
180562	-15	-10	4	0.2524542	-0.4016514	18.12929	0	11.74	4002	0	0	0	0	0.6434677	0.06090225	1
180724	-1	-6	1	0.2779475	-0.4035387	18.12599	0	11.74	4003	0	0	0	0	0.6434677	0.07168491	1
180746	-3	-13	1	0.280432	-0.4008702	18.12477	0	11.74	4003	0	0	0	0	0.6434677	0.07609276	1
180950	-7	-16	-2	0.26609	-0.4049265	18.12245	0	11.74	4002	0	0	0	0	0.6434677	0.08948882	1
181075	-6	-7	3	0.2562119	-0.4188471	18.12081	0	11.74	4002	0	0	0	0	0.6434677	0.09409636	1
181175	-6	-5	2	0.2676367	-0.4157299	18.11739	0	11.74	4003	0	0	0	0	0.6434677	0.1038116	1
181236	-14	-12	3	0.267161	-0.4145305	18.11696	0	11.74	4003	0	0	0	0	0.6434677	0.1102992	1
181335	-22	-6	2	0.2771504	-0.4203508	18.11507	0	11.74	4002	0	0	0	0	0.6434677	0.1140015	1
181436	-11	-10	2	0.2582059	-0.444703	18.11202	0	11.74	4004	0	0	0	0	0.6434677	0.1232433	1
181535	0	-11	4	0.2587143	-0.4517373	18.10982	0	11.74	4002	0	0	0	0	0.6434677	0.1249294	1
181638	-11	-12	4	0.2668945	-0.4525867	18.10604	0	11.74	4002	0	0	0	0	0.6434677	0.1259735	1
181779	-14	-3	-2	0.2586553	-0.4234814	18.10567	0	11.74	4004	0	0	0	0	0.6434677	0.1232874	1
181831	-15	7	1	0.2759863	-0.4277039	18.10359	0	11.74	4004	0	0	0	0	0.6434677	0.1232074	1
181980	-13	-11	-2	0.2781699	-0.4522882	18.10201	0	11.8	4004	0	0	0	0	0.6434677	0.1176894	1
182063	-16	-12	3	0.2747564	-0.4473849	18.10085	0	11.8	4004	0	0	0	0	0.6434677	0.1085858	1
182131	-19	-2	7	0.2709628	-0.4340757	18.1006	0	11.8	4004	0	0	0	0	0.6434677	0.09880782	1
182279	-8	-3	3	0.2591759	-0.4413115	18.09737	0	11.8	4004	0	0	0	0	0.6434677	0.08849794	1
182375	-8	-18	4	0.2639558	-0.4488727	18.09694	0	11.8	4004	0	0	0	0	0.6434677	0.08886641	3
182434	-1	-2	3	0.2460762	-0.4544123	18.09596	0	11.8	4002	0	0	0	0	0.6434677	0.08971254	3
182533	-9	-3	0	0.2409863	-0.4418747	18.09273	0	11.8	4004	0	0	0	0	0.6434677	0.09561212	3
182656	-10	-1	0	0.2552474	-0.4383336	18.09206	0	11.8	4003	0	0	0	0	0.6434677	0.09686819	3
182742	-17	-4	3	0.2442994	-0.4336315	18.09096	0	11.8	4003	0	0	0	0	0.6434677	0.09585008	3
182838	-10	-8	-7	0.2639747	-0.4269557	18.09035	0	11.8	4002	0	0	0	0	0.6434677	0.09411208	3
182977	-10	-5	0	0.2849655	-0.4484117	18.08901	0	11.8	4002	0	0	0	0	0.6434677	0.0958569	3
183041	-7	-9	-1	0.2819474	-0.4493427	18.08949	0	11.8	4002	0	0	0	0	0.6434677	0.09294741	3
183147	-7	-11	0	0.28788	-0.4547125	18.08968	0	11.8	4003	-2	4	0	0	0.6434677	0.08694407	3
183293	-1	-3	0	0.2720639	-0.4401797	18.08937	0	11.8	4004	0	1	0	0	0.6434677	0.08296618	3
183358	-6	-33	-81	0.2908254	-0.4339142	18.08998	0	11.8	4003	-2	2	0	0	0.6434677	0.08453325	3
183459	-27	-29	34	0.26507	-0.459123	18.08789	0	11.8	4004	-2	0	0	0	0.6434677	0.08479957	3
183579	39	-34	-9	0.3488139	-0.5438724	18.08882	0	11.8	4002	0	-3	1	0	0.6434677	0.08869214	3
183659	-79	0	-44	0.3387686	-0.4887924	18.0923	0	11.8	4004	0	3	0	0	0.6434677	0.09120354	3
183753	34	-67	-101	0.3441788	-0.4368387	18.08784	0	11.85	4004	-4	-3	0	0	0.6434677	0.09584475	3
183856	69	39	-46	0.4031052	-0.4966817	18.08772	0	11.85	4004	-12	8	-1	0	0.6434677	0.09921917	3
183964	-59	39	-95	0.4070489	-0.413598	18.07684	0	11.85	4002	9	3	0	0	0.6434677	0.1072579	3
184055	-15	4	-22	0.3531605	-0.4621661	18.0835	0	11.85	4004	-16	-1	0	0	0.6434677	0.1117715	3
