time(ms)	gyro_x(deg/s)	gyro_y(deg/s)	gyro_z(deg/s)	orientation_roll(deg)	orientation_pitch(deg)	orientation_yaw(deg)	throttle	battery(V)	loop_time(uS)	pid_output_roll	pid_output_pitch	pid_output_yaw	pid_output_throttle	ultrasonic_alt	baro_alt	flight_mode
580832	-16	-13	-1	-0.2270982	-0.2413788	-10.98047	0	10.72	4002	0	0	0	0	0.6136267	0.02884287	1
580928	5	-9	3	-0.2024566	-0.2496726	-10.98346	0	10.72	4004	0	0	0	0	0.6136267	0.0473194	1
581075	-7	-1	-1	-0.1992788	-0.2456746	-10.98749	0	10.72	4003	0	0	0	0	0.6136267	0.06617065	1
581138	-4	-12	0	-0.2140739	-0.2415082	-10.98926	0	10.72	4004	0	0	0	0	0.6136267	0.07473484	1
581202	-16	-9	2	-0.2070585	-0.2464085	-10.99103	0	10.72	4003	0	0	0	0	0.6136267	0.08165265	1
581308	-20	-7	2	-0.2013039	-0.2589414	-10.99421	0	10.72	4004	0	0	0	0	0.6136267	0.07539233	1
581452	-4	-11	-3	-0.2092858	-0.2737565	-10.99885	0	10.72	4003	0	0	0	0	0.6136267	0.07286274	1
581565	-10	-8	-2	-0.2193168	-0.2659661	-10.99861	0	10.72	4002	0	0	0	0	0.6136267	0.06793015	1
581619	-18	-15	-3	-0.2316932	-0.2480388	-10.99977	0	10.77	4002	0	0	0	0	0.6136267	0.06566702	1
581736	-9	-14	-1	-0.2362555	-0.2629054	-10.9994	0	10.77	4004	0	0	0	0	0.6136267	0.05996767	1
581829	-13	-10	1	-0.2283083	-0.2505237	-11.00227	0	10.77	4003	0	0	0	0	0.6136267	0.05101194	1
581921	0	-11	0	-0.2219865	-0.2538544	-11.00276	0	10.77	4004	0	0	0	0	0.6136267	0.04964929	1
582104	-14	-2	2	-0.2060134	-0.2582431	-11.00527	0	10.77	4003	0	0	0	0	0.6136267	0.04945558	1
582174	0	-10	1	-0.2166371	-0.2368647	-11.00777	0	10.77	4003	0	0	0	0	0.6136267	0.04185317	1
582238	-4	-3	8	-0.2014437	-0.2510226	-11.00991	0	10.77	4003	0	0	0	0	0.6136267	0.03067232	1
582353	-11	-14	4	-0.1989789	-0.2589367	-11.01199	0	10.77	4002	0	0	0	0	0.6136267	0.01839559	1
582428	5	-7	4	-0.2259538	-0.2529325	-11.014	0	10.77	4002	0	0	0	0	0.6136267	0.009666111	1
582544	-12	-14	3	-0.1927243	-0.2469417	-11.01583	0	10.72	4003	0	0	0	0	0.6136267	0.002607889	1
582619	-2	-7	0	-0.2065833	-0.2548878	-11.01791	0	10.72	4002	0	0	0	0	0.6136267	-0.002655765	1
582721	-2	-11	-5	-0.205883	-0.2488836	-11.01895	0	10.72	4003	0	0	0	0	0.6136267	-0.01351828	1
582820	-10	-8	0	-0.1833564	-0.2496072	-11.02183	0	10.72	4004	0	0	0	0	0.6136267	-0.03141426	1
582935	-10	-11	2	-0.2099703	-0.2495267	-11.02372	0	10.72	4002	0	0	0	0	0.6136267	-0.04166854	1
583058	-4	-4	-3	-0.208124	-0.2413163	-11.02555	0	10.72	4003	0	0	0	0	0.6136267	-0.03628426	1
583127	-5	0	7	-0.2053923	-0.2479183	-11.02677	0	10.72	4003	0	0	0	0	0.6136267	-0.03256461	1
583233	-23	-1	1	-0.2284363	-0.2428681	-11.02769	0	10.72	4011	0	0	0	0	0.6136267	-0.02763425	1
583387	-14	-1	4	-0.2124136	-0.2378219	-11.03184	0	10.72	4003	0	0	0	0	0.6136267	-0.0214499	1
583433	-14	-6	5	-0.2058597	-0.2419526	-11.03264	0	10.72	4003	0	0	0	0	0.6136267	-0.01919141	1
583547	0	-11	5	-0.2056237	-0.2589179	-11.03508	0	10.89	4004	0	0	0	0	0.6136267	-0.02101893	1
583653	-22	-12	0	-0.1955665	-0.2457677	-11.03685	0	10.89	4002	0	0	0	0	0.6136267	-0.03090396	1
583741	-1	-5	-1	-0.2078228	-0.2567442	-11.03881	0	10.89	4004	0	0	0	0	0.6136267	-0.03777656	1
583864	-6	-11	1	-0.1942127	-0.2869332	-11.03905	0	10.89	4003	0	0	0	0	0.6136267	-0.03973871	1
583974	-5	-4	2	-0.2037535	-0.2967018	-11.04241	0	10.89	4004	0	0	0	0	0.6136267	-0.02498009	1
584107	-11	-9	-3	-0.2013488	-0.2802179	-11.04363	0	10.89	4003	0	0	0	0	0.6136267	-0.0109628	1
584213	-24	-15	4	-0.1896082	-0.2828735	-11.04473	0	10.89	4002	0	0	0	0	0.6136267	-0.002251077	1
584320	-10	-8	2	-0.2134078	-0.2646989	-11.04644	0	10.89	4002	0	0	0	0	0.6136267	-0.009605054	1
584341	-13	-12	1	-0.2240034	-0.2727649	-11.04656	0	10.89	4002	0	0	0	0	0.6136267	-0.009605054	1
584439	-4	-8	4	-0.2059963	-0.2855278	-11.04827	0	10.77	4003	0	0	0	0	0.6136267	-0.01676175	1
584544	-7	-5	0	-0.1997941	-0.2867029	-11.05072	0	10.77	4003	0	0	0	0	0.6136267	-0.02415501	1
584646	3	-5	4	-0.1869211	-0.2830093	-11.0509	0	10.77	4003	0	0	0	0	0.6136267	-0.02688618	1
584774	-10	-8	-3	-0.1800115	-0.2959712	-11.05469	0	10.77	4002	0	0	0	0	0.6136267	-0.03266461	1
584900	-4	-16	2	-0.1904492	-0.2782376	-11.05549	0	10.77	4004	0	0	0	0	0.6136267	-0.02914396	1
584951	-17	0	7	-0.1680195	-0.2751365	-11.05775	0	10.77	4003	0	0	0	0	0.6136267	-0.02819825	1
585111	-4	-4	3	-0.1719293	-0.2816347	-11.06184	0	10.77	4003	0	0	0	0	0.6136267	-0.02244022	1
585153	0	-9	0	-0.1654104	-0.2923322	-11.06263	0	10.77	4003	0	0	0	0	0.6136267	-0.02216489	1
585310	-9	-4	2	-0.190243	-0.3088654	-11.06312	0	10.77	4003	0	0	0	0	0.6136267	-0.01247754	1
585369	1	-4	0	-0.1875487	-0.3002083	-11.06459	0	10.77	4002	0	0	0	0	0.6136267	-0.007267245	1
585510	-15	-2	2	-0.1916242	-0.2895756	-11.06642	0	10.77	4003	0	0	0	0	0.6136267	-0.002010789	1
585610	4	-5	2	-0.1773292	-0.2842844	-11.06801	0	10.77	4002	0	0	0	0	0.6136267	-0.004481672	1
585703	-1	-2	4	-0.1714133	-0.2758812	-11.06978	0	10.77	4003	0	0	0	0	0.6136267	-0.01636704	1
585766	0	1	2	-0.1676217	-0.2877138	-11.07277	0	10.77	4004	0	0	0	0	0.6136267	-0.02460134	1
585873	-5	-5	6	-0.1875602	-0.2776602	-11.07455	0	10.77	4002	0	0	0	0	0.6136267	-0.03344972	1
586006	2	-4	0	-0.1681704	-0.2539238	-11.07632	0	10.77	4003	0	0	0	0	0.6136267	-0.03617878	1
586114	-5	-5	6	-0.1729146	-0.2518721	-11.07803	0	10.77	4002	0	0	0	0	0.6136267	-0.04285926	1
586218	-1	-1	0	-0.1807138	-0.2545753	-11.08072	0	10.77	4002	0	0	0	0	0.6136267	-0.04503366	1
586385	-12	-5	4	-0.1722859	-0.2734277	-11.08622	0	10.77	4003	0	0	0	0	0.6136267	-0.05150175	1
586603	-9	-10	-1	-0.162447	-0.2778533	-11.09141	0	10.77	4003	0	0	0	0	0.6136267	-0.0466096	1
586731	-13	-3	-2	-0.2024256	-0.2891208	-11.09544	0	10.77	4002	0	0	0	0	0.6136267	-0.04051661	1
586779	-5	-3	0	-0.196703	-0.2774272	-11.0955	0	10.77	4004	0	0	0	0	0.6136267	-0.04047313	1
586956	-18	-5	-1	-0.2021959	-0.2806569	-11.0982	0	10.77	4003	0	0	0	0	0.6136267	-0.03865794	1
587035	2	0	3	-0.1892829	-0.273645	-11.10272	0	10.77	4003	0	0	0	0	0.6136267	-0.03685021	1
587116	-4	-9	0	-0.1814788	-0.2772327	-11.10308	0	10.77	4003	0	0	0	0	0.6136267	-0.03542104	1
587265	-9	-3	2	-0.1990065	-0.2675941	-11.1047	0	10.77	4002	0	0	0	0	0.6136267	-0.03361798	1
587343	-10	-5	-5	-0.1948124	-0.2747123	-11.10476	0	10.77	4002	0	0	0	0	0.6136267	-0.03290528	1
587439	-10	0	3	-0.2100428	-0.2857864	-11.10836	0	10.77	4004	0	0	0	0	0.6136267	-0.02954732	1
587487	-2	-3	-1	-0.2131666	-0.2817703	-11.11044	0	10.77	4003	0	0	0	0	0.6136267	-0.03135941	1
587581	-2	-3	-1	-0.2131666	-0.2817703	-11.11044	0	10.77	4003	0	0	0	0	0.6136267	-0.03674795	1
587764	-14	-2	3	-0.1667008	-0.2986661	-11.11355	0	10.77	4004	0	0	0	0	0.6136267	-0.04387848	1
587822	-2	-5	0	-0.1658791	-0.2844288	-11.11496	0	10.77	4003	0	0	0	0	0.6136267	-0.04696006	1
587884	0	5	2	-0.1680066	-0.2972683	-11.11679	0	10.77	4003	0	0	0	0	0.6136267	-0.04979009	1
588006	-3	2	1	-0.1500169	-0.298182	-11.11917	0	10.77	4003	0	0	0	0	0.6136267	-0.0501226	1
588094	-5	-8	0	-0.1746136	-0.3012944	-11.12088	0	10.77	4002	0	0	0	0	0.6136267	-0.05475339	1
588257	-14	-2	-3	-0.1704912	-0.3272174	-11.12651	0	10.72	4002	0	0	0	0	0.6136267	-0.06347574	1
588317	-8	2	5	-0.1897551	-0.3132536	-11.12779	0	10.72	4003	0	0	0	0	0.6136267	-0.06688414	1
588401	1	-10	-1	-0.1757648	-0.3062091	-11.13048	0	10.72	4003	0	0	0	0	0.6136267	-0.06839892	1
588520	-4	1	-1	-0.1638741	-0.3102557	-11.13121	0	10.72	4004	0	0	0	0	0.6136267	-0.06931972	1
588629	-4	0	2	-0.1629438	-0.3143226	-11.13274	0	10.72	4003	0	0	0	0	0.6136267	-0.0655226	1
588691	-1	-4	0	-0.1626699	-0.3134772	-11.13164	0	10.72	4004	0	0	0	0	0.6136267	-0.06432156	1
588800	-11	3	3	-0.1635497	-0.3188725	-11.13573	0	10.72	4004	0	0	0	0	0.6136267	-0.06422355	1
588897	1	0	2	-0.1557805	-0.3313314	-11.13738	0	10.72	4003	0	0	0	0	0.6136267	-0.05947647	1
589011	-1	-3	5	-0.1525709	-0.3330464	-11.13854	0	10.72	4003	0	0	0	0	0.6136267	-0.05242016	1
589141	-3	-6	-2	-0.1767023	-0.3110186	-11.14129	0	10.72	4004	0	0	0	0	0.6136267	-0.04356455	1
589224	-11	-3	-1	-0.1802493	-0.2921947	-11.143	0	10.72	4004	0	0	0	0	0.6136267	-0.03119435	1
589389	-13	0	4	-0.1925576	-0.2869613	-11.14452	0	10.72	4003	0	0	0	0	0.6136267	-0.01918249	3
589438	0	-4	-2	-0.1990791	-0.2926038	-11.14642	0	10.72	4003	0	0	0	0	0.6136267	-0.01504691	3
589505	0	5	1	-0.2023604	-0.2943428	-11.14605	0	10.72	4004	0	0	0	0	0.6136267	-0.00881437	3
589598	-11	2	3	-0.1750999	-0.2909064	-11.14715	0	10.72	4004	0	0	0	0	0.6136267	-0.002209629	3
589694	6	1	6	-0.2032215	-0.304396	-11.1488	0	10.72	4002	0	0	0	0	0.6136267	-0.002714597	3
589798	-4	-4	-3	-0.1816372	-0.3072802	-11.15247	0	10.72	4002	0	0	0	0	0.6136267	-0.00184205	3
589934	15	7	2	-0.1692297	-0.315	-11.15192	0	10.77	4004	0	0	0	0	0.6136267	0.003030908	3
590012	-7	-2	-2	-0.1540381	-0.3047152	-11.15222	0	10.77	4003	0	0	0	0	0.6136267	0.001629539	3
590105	-2	2	0	-0.1580505	-0.3093308	-11.15369	0	10.77	4003	0	0	0	0	0.6136267	-0.003204751	3
590208	3	-3	1	-0.1888431	-0.3170367	-11.15613	0	10.77	4004	0	0	0	0	0.5064221	-0.003185852	4
590302	-10	1	0	-0.1731538	-0.3104669	-11.15662	0	10.77	4004	0	0	0	0	0.3823714	0.001434563	4
590463	13	2	3	-0.1664768	-0.331921	-11.15869	0	10.77	4003	0	0	0	0	0.2454436	-0.008605989	4
590543	2	4	0	-0.1663791	-0.3246815	-11.15765	0	10.77	4002	0	0	0	0	0.2081938	-0.007674672	4
590609	3	3	2	-0.1498636	-0.338071	-11.15808	0	10.77	4004	0	0	0	0	0.1780214	0.0005121339	4
590730	6	-1	4	-0.1635584	-0.3373725	-11.15924	0	10.77	4003	0	0	0	0	0.1337858	0.008376417	4
590804	-2	-1	0	-0.1708385	-0.3235762	-11.15924	0	10.77	4003	0	0	0	0	0.1177509	0.00752266	4
590924	4	-5	0	-0.1629571	-0.3172993	-11.16229	0	10.77	4003	0	0	0	0	0.0942423	0.01088083	4
591061	-2	7	0	-0.160406	-0.3178366	-11.16315	0	10.77	4003	0	0	0	0	0.07881828	0.01130557	4
591115	-1	-4	2	-0.1519331	-0.3206379	-11.16351	0	10.77	4003	0	0	0	0	0.07322729	0.009494853	4
591252	-3	0	3	-0.1467375	-0.314633	-11.16724	0	10.77	4004	0	0	0	0	0.06585554	0.01409203	3
591418	5	5	5	-0.1431033	-0.3127551	-11.16803	0	10.77	4002	0	0	0	0	0.05714709	0.01537065	3
591462	-9	3	0	-0.1379595	-0.320921	-11.16766	0	10.77	4004	0	0	0	0	0.05476125	0.0175871	3
591518	0	6	4	-0.1329957	-0.3170005	-11.16913	0	10.77	4003	0	0	0	0	0.05282871	0.02735578	3
591665	8	1	0	-0.1465012	-0.304068	-11.17011	0	10.77	4003	0	0	0	0	0.04999542	0.04656667	3
591724	0	0	0	-0.1389311	-0.3243149	-11.16992	0	10.77	4003	0	0	0	0	0.04896839	0.05061545	3
591831	-8	0	5	-0.1583583	-0.3312436	-11.17237	0	10.77	4002	0	0	0	0	0.04778185	0.05662211	3
591923	0	3	2	-0.1480857	-0.3237787	-11.17579	0	10.77	4004	0	0	0	0	0.04691686	0.05264958	3
592021	4	0	2	-0.1437693	-0.3503627	-11.17671	0	10.77	4002	0	0	0	0	0.04628628	0.04849091	3
592197	0	7	4	-0.1400273	-0.329365	-11.17842	0	10.77	4004	0	0	0	0	0.04559164	0.02495656	3
592260	-5	-5	0	-0.1288794	-0.3219052	-11.17848	0	10.77	4003	0	0	0	0	0.04540132	0.01328492	3
592364	0	2	0	-0.1409834	-0.3221665	-11.18013	0	10.77	4002	0	0	0	0	0.04518145	-0.003499713	3
592439	3	-2	1	-0.1456182	-0.3249782	-11.17982	0	10.77	4004	0	0	0	0	0.04506908	-0.01602956	3
592548	4	-8	-17	-0.1400571	-0.3223279	-11.18758	0	10.77	4004	3	2	0	0	0.04493925	-0.02848421	3
592635	8	54	-35	-0.1047877	-0.3448798	-11.18116	0	10.77	4002	3	1	0	0	0.0448446	-0.03680726	3
592737	12	0	19	-0.155399	-0.356175	-11.18581	0	10.83	4003	-2	5	0	0	0.0447756	-0.04004918	3
592876	13	52	-105	-0.08038004	-0.3563069	-11.19913	0	10.83	4003	-2	0	1	0	0.04471177	-0.02840867	3
592942	47	80	22	-0.1287921	-0.4308766	-11.19925	0	10.83	4002	9	6	0	0	0.04468863	-0.01367941	3
593084	159	-75	-48	0.01137287	-0.4088297	-11.22523	0	10.83	4003	-20	-5	-3	0	0.04465471	0.005669732	3
593144	108	83	-37	0.02296504	-0.5397458	-11.2457	0	10.83	4004	-21	38	-9	0	0.04464242	0.02414236	3
593272	-98	144	385	-0.007265022	-0.6251909	-11.2571	0	10.83	4003	-9	-37	-28	0	0.04462439	0.07292254	3
593383	-233	-373	1073	-0.0735703	-0.5836489	-11.6414	0	10.83	4003	25	-24	-35	0	0.04461507	0.09286357	3
593446	-233	-373	1073	-0.0735703	-0.5836489	-11.6414	0	10.83	4003	-1	-93	-25	0	0.04460828	0.0980795	3
593564	-786	1767	1716	-0.5850284	-3.903586	-14.56698	0	10.83	4003	-53	-73	-10	0	0.04460332	0.1129247	3
593647	-418	2360	704	-0.5517981	-5.368435	-15.73497	0	10.66	4002	-8	96	18	0	0.04459971	0.1209679	3
593770	481	1120	355	0.3767895	-7.38494	-16.71062	0	10.66	4004	-126	2	16	0	0.04459708	0.1273675	3
593846	-358	248	-460	0.4573782	-7.900855	-16.74379	0	10.66	4003	-5	-23	8	0	0.04459573	0.1270416	3
593981	170	-2185	-467	1.23295	-4.634588	-15.68399	0	10.66	4004	-63	-2	-18	0	0.04459376	0.1257037	3
594088	-957	-427	382	0.4506478	-3.201784	-15.58607	0	10.66	4004	52	38	-8	0	0.04459274	0.1266053	3
594152	-316	-1979	1157	-0.9374604	-2.646499	-16.09519	0	10.66	4002	-15	-77	14	0	0.04459222	0.1369591	3
594282	-743	-620	-80	0.8526253	-3.798043	-17.29251	0	10.66	4004	89	43	19	0	0.04459146	0.1565082	3
594393	241	-386	-911	2.900148	-5.659931	-17.29094	0	10.66	4004	2	-148	8	0	0.04459106	0.169829	3
594458	-385	1023	-69	3.058987	-6.14223	-16.72607	0	10.66	4004	-119	128	2	0	0.04459086	0.1814176	3
594593	-1814	-201	270	-0.7318096	-7.62428	-15.91047	0	9.24	4003	-31	-105	-5	0	0.04459056	0.194828	3
594711	-715	609	-187	-2.858546	-7.676106	-16.08753	0	9.24	4002	-109	-25	-8	0	0.04459037	0.2037778	3
594768	260	777	-777	-1.145244	-7.008667	-16.47185	0	9.24	4003	66	-214	1	0	0.0445903	0.2076442	3
594938	212	2925	-214	0.2057402	-12.26331	-16.59968	0	9.24	4004	45	-22	4	0	0.04459018	0.2076027	3
594990	1600	2339	-525	-0.009469736	-12.84925	-16.44678	0	9.24	4002	-83	-51	-6	0	0.04459015	0.2072229	3
595142	-344	-2655	-1092	0.3928638	-5.453765	-15.9102	0	9.24	4003	44	28	-14	0	0.04459009	0.2079587	3
595238	10489	-10777	-1367	3.341009	-1.636511	-15.55263	0	9.24	4004	337	400	1	0	0.04459007	0.2064831	3
595328	650	-278	1467	2.344151	-5.36384	-19.08062	0	9.24	4003	-25	-80	90	0	0.04459006	0.2024717	3
595391	1104	-106	831	0.3597968	-5.452601	-19.46113	0	9.24	4003	-80	148	85	0	0.04459005	0.202994	3
595528	-591	-1909	-2115	-1.789575	-4.835436	-17.43914	0	10.15	4002	-60	112	36	0	0.04459003	0.2022651	3
595640	-1198	-956	140	-1.912006	-2.613829	-16.21988	0	10.15	4003	26	92	-3	0	0.04459002	0.2065701	3
595730	-1201	-1447	-252	-3.472008	-3.264233	-16.51256	0	10.15	4002	110	-64	4	0	0.04459002	0.2234624	3
595788	389	-1244	-687	-2.317666	-4.099306	-16.7461	0	10.15	4002	-6	-82	13	0	0.04459002	0.2280211	3
595902	258	-1496	-671	0.0230017	-6.217532	-16.44179	0	10.15	4003	-44	29	-5	0	0.04459002	0.2740415	3
595978	-336	-2906	690	-0.1260928	-3.907272	-16.17756	0	10.15	4004	-93	-144	-17	0	0.04459002	0.2974233	3
596116	-1489	4159	182	-0.8319573	-5.596371	-16.81821	0	10.15	4003	-84	75	18	0	0.04459002	0.3414259	3
596225	-2461	2167	-1085	-3.181985	-12.73894	-16.92981	0	10.15	4004	86	-91	23	0	0.04459002	0.3628746	3
596276	-1544	682	-910	-4.29251	-13.12985	-16.58568	0	10.15	4002	-11	-127	-11	0	0.04459002	0.3617364	3
596442	-216	-1203	517	-0.2574896	-12.84878	-16.24859	0	9.53	4004	109	-116	0	0	0.04459002	0.3322358	3
596509	873	-4796	-1712	-1.022124	-7.75406	-15.95393	0	9.53	4004	-294	-11	-42	0	0.04459002	0.3205846	3
596600	-4332	1029	757	1.21193	-6.032509	-15.59062	0	9.53	4003	190	47	-16	0	0.04459002	0.3081968	3
596639	-666	3706	437	-0.6836078	-8.868652	-16.07267	0	9.53	4002	-62	-75	-7	0	0.04459002	0.3020984	3
596736	496	4265	559	0.8214918	-12.09574	-17.03324	0	9.53	4002	79	-287	10	0	0.04459002	0.3023068	3
596925	-825	1345	246	-0.9606339	-14.83727	-15.81106	0	9.53	4003	48	37	-13	0	0.04459002	0.3169219	3
596969	-702	202	12	-1.931467	-13.49001	-15.84993	0	9.53	4003	15	-80	-13	0	0.04459002	0.3311265	3
597097	2923	-2876	570	0.1836011	-3.762154	-16.52507	0	9.53	4002	-131	103	5	0	0.04459002	0.3471624	3
597149	3173	-2746	614	2.210041	-4.404455	-17.11156	0	9.53	4002	-34	-131	23	0	0.04459002	0.349427	3
597232	-2116	-439	-685	3.949026	-3.562019	-17.98681	0	9.53	4003	118	-28	35	0	0.04459002	0.3579125	3
597400	387	-379	342	3.123204	-5.129567	-16.9865	0	10.32	4004	-90	121	9	0	0.04459002	0.3621005	3
597438	-1054	-1543	-229	3.162428	-7.608256	-16.79429	0	10.32	4002	86	-181	0	0	0.04459002	0.3634558	3
597533	809	-2586	-175	3.311107	-7.885931	-16.84006	0	10.32	4002	122	-79	1	0	0.04459002	0.367375	3
597646	1233	2	432	2.1266	-6.241614	-17.89685	0	10.32	4002	-68	182	39	1	0.05590902	0.3701099	4
597810	-466	-1124	-543	1.757207	-8.851249	-18.80088	0	10.32	4003	32	-234	47	2	0.1181835	0.3807293	4
597888	-1268	-759	-855	-1.256209	-10.22618	-18.60906	0	10.32	4002	61	-227	48	2	0.1699191	0.3829997	4
597936	-402	906	-1197	-0.9418098	-9.391749	-18.18942	0	10.32	4003	-23	-89	30	2	0.1841745	0.382829	4
598039	-316	-318	-440	-0.01983422	-9.248838	-17.04886	0	10.32	4003	-40	90	2	2	0.2383706	0.3793751	4
598204	-773	-84	-162	-1.996918	-9.564075	-17.51601	0	10.32	4004	7	-206	22	2	0.2792959	0.3823004	4
598287	1604	-525	-1296	-0.8548202	-9.378372	-17.24643	0	9.87	4003	-162	30	15	2	0.2834009	0.3745296	4
598342	-41	-1090	-614	0.7616505	-10.66119	-16.71161	0	9.87	4003	-56	-156	1	2	0.2835155	0.3639225	4
598495	78	-561	502	1.920213	-10.81091	-16.70499	0	9.87	4003	-29	-167	9	2	0.289726	0.3049335	4
598549	-100	715	481	3.071667	-9.703659	-16.89192	0	9.87	4002	-71	-77	16	3	0.289726	0.3049335	4
598668	-773	-1413	776	0.774482	-10.46157	-16.41419	0	9.87	4004	70	-104	9	3	0.2951408	0.2577804	4
598754	686	-1334	23	-0.7848372	-9.144032	-16.45516	0	9.87	4003	40	-200	-2	3	0.2840313	0.2437497	4
598875	1378	-204	457	-0.2199641	-7.72394	-16.78574	0	9.87	4004	17	-152	-1	3	0.3008354	0.2294275	4
598946	1975	1116	647	1.654153	-6.69702	-16.70534	0	9.87	4003	-149	57	11	3	0.2831697	0.2281296	4
599050	-1853	-1566	461	0.4511992	-6.746142	-17.01904	0	9.87	4003	84	-120	15	3	0.3207629	0.2247203	4
599213	387	1184	-497	3.703725	-8.2981	-16.57692	0	10.21	4002	16	116	-5	4	0.3000636	0.228168	4
599252	95	1024	73	3.025967	-8.853435	-16.47947	0	10.21	4003	64	-15	3	4	0.2811759	0.2275126	4
599356	-82	-1333	517	2.676934	-8.28625	-16.61404	0	10.21	4004	5	55	10	4	0.2613068	0.2203616	4
599508	-982	1699	-18	1.133477	-9.955214	-17.07075	0	10.21	4003	18	149	21	4	0.2267446	0.2022983	4
599603	-660	-1036	158	1.134997	-8.524787	-16.95606	0	10.21	4003	56	90	16	5	0.201663	0.1967303	4
599711	-515	-329	-763	-0.2651854	-8.572112	-16.65061	0	10.21	4002	83	-209	8	5	0.1906804	0.1846505	4
599770	449	644	564	0.02115279	-8.892562	-16.6448	0	10.21	4002	57	-199	6	5	0.1848203	0.1809964	4
599887	-853	-283	253	-0.6656178	-8.814418	-16.87357	0	10.21	4004	-48	-85	14	5	0.2170279	0.1768289	4
599941	437	-1076	-584	-1.342142	-7.278521	-16.74276	0	10.21	4003	-123	-20	1	6	0.2116176	0.1717114	4
600044	-358	541	-603	0.61528	-7.870973	-16.05066	0	9.7	4002	4	-93	-20	6	0.1934038	0.1653096	4
600148	0	239	83	0.6119635	-8.195259	-15.95097	0	9.7	4003	65	-132	-15	6	0.1820272	0.1623896	4
600250	-1193	-2001	25	0.5599153	-5.127083	-16.33608	0	9.7	4003	90	-24	8	6	0.1779898	0.1538504	4
600379	-691	-186	-425	0.6047955	-5.666067	-16.90892	0	9.7	4002	56	-46	5	7	0.1807769	0.1449701	4
600546	-924	-109	446	1.023624	-8.792406	-16.56638	0	9.7	4004	84	-35	9	7	0.1904849	0.1501741	4
600582	-485	-616	30	0.370782	-8.469679	-16.50017	0	9.7	4003	-78	81	-2	7	0.1802304	0.1578503	4
600704	-482	1346	138	1.179452	-8.129849	-16.20945	0	9.7	4004	60	56	0	8	0.1800024	0.1678842	4
600771	-535	1717	-204	-0.1835373	-8.91975	-16.23323	0	9.7	4003	22	132	-5	8	0.1810589	0.1760686	4
600859	-220	315	146	-1.111226	-10.6198	-16.38923	0	9.7	4004	84	-75	2	8	0.1797379	0.1784993	4
600994	-102	-1315	162	-0.3396899	-7.837165	-16.43517	0	9.87	4002	4	-31	-4	8	0.1831656	0.1760328	4
601063	1376	-2348	419	0.4639961	-4.798533	-16.3975	0	9.87	4004	-65	-209	2	8	0.1858335	0.1782818	4
601189	1823	628	-600	2.412675	-6.536826	-17.06633	0	9.87	4002	-21	8	18	9	0.1657715	0.1856298	4
601273	410	-1109	191	2.936606	-6.557803	-16.99913	0	9.87	4002	-40	78	14	9	0.1638589	0.1894566	4
601482	379	-113	-523	0.9858477	-10.81061	-16.42895	0	9.87	4002	0	-115	1	10	0.156105	0.2009674	4
601594	-783	-1831	611	0.4569605	-6.411892	-17.01954	0	9.87	4004	31	-175	13	10	0.1466872	0.2144069	4
601667	-1409	314	-313	0.2642936	-6.241412	-16.99589	0	9.87	4003	-71	104	4	10	0.1379732	0.2118572	4
601778	-1789	-1394	-438	-3.273941	-6.133053	-16.76317	0	9.87	4003	-77	-117	-3	11	0.124883	0.2127702	4
601872	-286	228	236	-0.04973077	-6.877604	-15.93274	0	9.87	4004	0	26	-11	11	0.1158383	0.2100127	4
602038	-86	1230	3	-0.0941126	-6.465456	-15.37475	0	9.98	4003	-65	64	-22	12	0.1144015	0.1912245	4
602100	-152	338	309	0.2023833	-7.596595	-15.84869	0	9.98	4003	-2	-74	-5	12	0.1167499	0.1874353	4
602215	-102	964	-268	-0.8329927	-8.066777	-16.35389	0	9.98	4002	32	50	0	12	0.1324531	0.1539178	4
602293	-330	-1666	36	-0.8090134	-7.136943	-16.37646	0	9.98	4002	30	-22	-7	12	0.1382016	0.1447166	4
602392	946	400	-164	-0.6438907	-5.486517	-16.20474	0	9.98	4003	-60	88	-4	13	0.1435176	0.1451133	4
602499	-1327	409	1109	-0.1347624	-6.388148	-16.53126	0	9.98	4002	24	92	8	13	0.144803	0.1502804	4
602590	1129	-1471	203	-0.7507679	-6.43165	-16.75394	0	9.98	4002	7	-158	-2	13	0.1589706	0.148013	4
602693	216	1091	434	1.204814	-8.663816	-16.53734	0	9.98	4004	84	-21	8	13	0.1746283	0.1426945	4
602806	476	1543	133	0.9755923	-10.83534	-16.50159	0	9.98	4004	-73	-143	-3	14	0.1674796	0.130196	4
602978	-295	-1526	-672	-0.3961482	-7.714169	-16.67688	0	9.47	4004	1	-120	0	14	0.1563254	0.1290494	4
603073	-298	-448	-438	0.02207386	-5.076602	-16.55154	0	9.47	4003	-74	29	-5	14	0.1586716	0.1333471	4
603229	10	700	-461	0.1532796	-7.25238	-16.28365	0	9.47	4003	-10	92	-21	15	0.1490463	0.1366	4
603289	212	385	-585	0.09979563	-6.835394	-15.99871	0	9.47	4002	-12	-62	-16	15	0.1368245	0.1366	4
603380	-57	-683	538	-0.07170475	-5.462785	-15.77725	0	9.47	4004	-51	-55	-21	15	0.1251339	0.1381274	4
603484	872	303	744	1.071927	-6.827211	-15.73281	0	9.47	4004	-44	-136	-15	16	0.1179002	0.1358524	4
603622	-2470	-967	920	-1.589031	-5.835848	-15.87466	0	9.47	4002	39	-116	-9	16	0.1103323	0.1164457	4
603701	41	-1314	-459	-1.024266	-4.773942	-15.87786	0	9.47	4003	87	-90	-7	17	0.1102235	0.1084739	4
603842	125	404	-56	1.497635	-8.751734	-15.7425	0	9.53	4003	27	113	-11	17	0.1236059	0.0952333	4
603886	-31	885	-630	1.490866	-8.750228	-15.62718	0	9.53	4003	49	43	-23	17	0.1409824	0.09781932	4
603990	198	-637	71	2.422722	-8.69093	-15.39168	0	9.53	4003	83	-127	-23	17	0.1730486	0.09832019	4
604089	-800	-1268	68	2.363467	-8.590641	-15.50525	0	9.53	4004	-73	-172	-21	17	0.2061214	0.09691152	4
604249	-736	-420	-491	1.311463	-7.278588	-16.76163	0	9.53	4003	120	-67	5	17	0.330422	0.09881144	4
604347	-1803	-549	27	-1.217314	-5.200807	-16.44504	0	9.53	4002	50	32	11	17	0.3936338	0.1026934	4
604398	-746	-1607	-600	-2.626739	-5.290088	-16.37528	0	9.53	4003	-68	-89	-6	17	0.4165249	0.1059018	4
604561	296	942	252	-1.87121	-4.8353	-16.23121	0	9.53	4003	-16	85	-2	17	0.4951833	0.1332527	4
604616	-404	-215	420	-2.12903	-5.818327	-16.27663	0	9.53	4002	43	-87	8	16	0.5480101	0.1490138	4
604737	332	-747	-297	-2.294883	-5.500687	-15.66059	0	8.62	4002	-32	-162	-18	16	0.5723919	0.1559396	4
604830	-1663	1823	817	-1.715609	-6.635022	-15.98669	0	8.62	4003	47	56	-1	16	0.5813358	0.158798	4
604947	171	199	421	-0.2475723	-6.486318	-17.05722	0	8.62	4003	11	-78	13	16	0.5470372	0.1597223	4
605005	-164	-897	-840	-1.363586	-5.531559	-16.91961	0	8.62	4002	-45	34	11	16	0.5170029	0.1604523	4
605111	389	-271	-1132	-0.07470837	-6.60359	-15.77668	0	8.62	4003	-10	79	-22	16	0.4640562	0.1570017	4
605245	984	1199	-569	-0.4961351	-7.026124	-15.30156	0	8.62	4004	11	-100	-35	17	0.3829874	0.1408423	4
605322	495	-1076	987	0.3271489	-8.544513	-15.45173	0	8.62	4003	77	-83	-15	17	0.3421531	0.132477	4
605425	241	-774	946	0.7992715	-5.068563	-16.34441	0	8.62	4003	-23	92	16	18	0.2837021	0.1308358	4
605514	1832	1690	820	4.144797	-6.842231	-17.09408	0	8.62	4003	-184	-157	6	18	0.2442357	0.1385353	4
605589	1436	3220	565	5.760544	-10.36212	-17.54725	0	9.07	4004	-37	102	33	18	0.229013	0.1435259	4
605746	114	938	-599	2.207137	-12.67409	-17.55766	0	9.07	4003	-93	-75	29	18	0.2169085	0.1628516	4
605838	-956	-257	-380	1.470634	-12.57783	-17.6867	0	9.07	4003	0	107	29	19	0.2502427	0.1719331	4
605920	-1374	-1975	1014	-0.3736177	-8.77764	-17.85963	0	9.07	4003	60	34	30	19	0.2986269	0.1764469	4
606006	-965	-1791	-933	-0.5342704	-7.703332	-17.52082	0	9.07	4004	-116	174	40	18	0.3444379	0.1861838	4
606087	-993	1349	115	0.1157274	-8.169766	-17.38936	0	9.07	4002	20	117	22	18	0.4336357	0.2041086	4
606191	-35	262	372	1.848237	-8.153748	-16.94874	0	9.07	4003	-52	147	20	18	0.5068294	0.2160311	4
606365	596	148	213	1.270594	-7.537977	-15.66965	0	9.07	4003	-71	-54	-21	17	0.5968029	0.2179973	4
606467	-272	647	-143	2.98108	-10.94627	-15.45865	0	9.07	4003	208	-146	-18	17	0.7054588	0.2484365	4
606522	-2041	69	509	1.827712	-8.873829	-15.75766	0	8.85	4004	51	28	-15	17	0.634913	0.2578882	4
606587	1460	333	-233	0.5905767	-9.104209	-15.63371	0	8.85	4003	-3	-183	-24	17	0.720982	0.297886	4
606690	-35	-758	188	0.9065086	-9.260036	-15.75329	0	8.85	4004	48	-222	-14	16	0.8247187	0.3476653	4
606786	871	494	-328	0.5577526	-7.651772	-15.55024	0	8.85	4003	-7	23	-21	16	0.9028524	0.3852571	4
606886	398	16	-391	0.2322051	-9.107722	-15.39636	0	8.85	4002	-19	-35	-34	15	0.9758928	0.4124926	4
607045	488	-1137	-531	1.924552	-4.886039	-15.8621	0	8.85	4002	33	-51	-10	14	1.048846	0.4437816	4
607095	972	-1071	-257	1.977769	-4.805649	-16.06832	0	8.85	4002	-71	12	-6	14	1.074597	0.4508013	4
607206	374	-946	567	1.009763	-6.218365	-16.91182	0	8.85	4002	0	-189	17	13	0.9944988	0.4517548	4
607310	305	-1208	-973	-0.9096011	-7.718952	-17.59531	0	8.85	4003	0	-261	27	13	1.014352	0.4413399	4
607466	-1679	661	-777	-1.8765	-7.361582	-16.58844	0	8.51	4002	57	140	1	12	0.9906456	0.4252181	4
607591	-1516	3811	-848	-3.591836	-9.111722	-15.60314	0	8.51	4002	-26	103	-44	12	0.929334	0.4230963	4
607623	-1882	2908	-316	-4.559054	-11.29834	-14.9763	0	8.51	4004	80	32	-46	12	0.9083963	0.4270927	4
607688	-4049	1807	-1938	-7.625963	-11.94591	-13.55228	0	8.51	4003	126	0	-100	12	0.8408551	0.4316251	4
607788	-4102	1670	-820	-12.51263	-9.559353	-11.35388	0	8.51	4004	83	25	-169	12	0.6627297	0.425137	4
607902	-2724	521	-7965	5.148827	6.194853	1.94269	0	8.51	4004	133	84	-400	13	0.5264307	0.4072087	4
608081	-6731	1329	1231	-10.15193	4.548239	6.270484	0	8.51	4003	225	-41	-321	14	0.3632036	0.3615863	4
608184	-4356	-1138	819	-25.79413	-2.277069	3.872424	0	8.51	4002	0	0	0	0	0.3066873	0.3125414	4
608271	2360	-102	-286	-34.1474	-1.552897	4.128364	0	8.51	4003	0	0	0	0	0.2628273	0.285087	4
608398	10482	-233	214	-29.64995	-1.87543	4.336648	0	9.3	4003	0	0	0	0	0.2293924	0.2359137	4
608542	-3055	-1678	-345	-1.006377	-4.833362	4.497274	0	9.3	4002	0	0	0	0	0.1852046	0.1738401	4
608632	378	790	-69	-1.934981	-2.63893	4.515435	0	9.3	4003	0	0	0	0	0.1611339	0.1212881	4
608686	-146	-20	-1	-1.347741	-3.018668	4.496116	0	9.3	4003	0	0	0	0	0.1546588	0.1108399	4
608814	-1	-68	16	-1.152489	-2.946524	4.475391	0	9.3	4003	0	0	0	0	0.1307943	0.04896018	1
608879	-48	-45	9	-1.008592	-2.834402	4.460534	0	9.3	4003	0	0	0	0	0.1242562	0.02077031	1
608983	-37	-42	3	-0.9096126	-2.750324	4.444271	0	9.3	4003	0	0	0	0	0.1167025	-0.01622923	1
609087	-34	-37	10	-0.8436356	-2.72047	4.43027	0	9.3	4003	0	0	0	0	0.1111959	-0.0502508	1
609190	-30	-36	9	-0.800918	-2.68663	4.415966	0	9.3	4004	0	0	0	0	0.1071816	-0.08136442	1
609293	-45	-35	7	-0.778519	-2.685489	4.400926	0	9.41	4002	0	0	0	0	0.1042552	-0.1050907	1
609425	-34	-39	8	-0.7519471	-2.673866	4.383318	0	9.41	4002	0	0	0	0	0.1021218	-0.1209576	1
609507	-49	-39	10	-0.7361522	-2.668596	4.368707	0	9.41	4004	0	0	0	0	0.1005666	-0.140914	1
609600	-46	-42	7	-0.7429462	-2.64919	4.360026	0	9.41	4003	0	0	0	0	0.09943285	-0.1521625	1
609761	-35	-39	7	-0.7355603	-2.650118	4.335694	0	9.41	4004	0	0	0	0	0.09838401	-0.1653299	1
609813	-37	-39	7	-0.7099016	-2.652133	4.327258	0	9.41	4003	0	0	0	0	0.09800382	-0.1746354	1
609937	-46	-41	11	-0.6998647	-2.637536	4.312523	0	9.41	4003	0	0	0	0	0.09756458	-0.1864956	1
610064	-29	-37	6	-0.6970369	-2.654506	4.299318	0	9.41	4003	0	0	0	0	0.09715823	-0.1957211	1
610136	-30	-37	7	-0.6923848	-2.65699	4.28807	0	9.41	4004	0	0	0	0	0.09701094	-0.2031364	1
610211	-38	-33	11	-0.6951661	-2.655236	4.280487	0	9.41	4004	0	0	0	0	0.09684077	-0.2200575	1
610350	-39	-42	8	-0.6976045	-2.644014	4.263858	0	9.41	4002	0	0	0	0	0.09671671	-0.2230972	1
610473	-28	-39	10	-0.6616924	-2.63208	4.240323	0	9.41	4002	0	0	0	0	0.09658005	-0.2353607	1
610523	-33	-30	11	-0.6731822	-2.623935	4.230174	0	9.41	4003	0	0	0	0	0.09654261	-0.2348245	1
610599	-32	-28	7	-0.6877768	-2.636557	4.220819	0	9.41	4004	0	0	0	0	0.09651229	-0.233153	1
610761	-40	-38	13	-0.6953272	-2.669217	4.198565	0	9.41	4002	0	0	0	0	0.09645934	-0.2160157	1
610830	-37	-35	15	-0.6998601	-2.682995	4.189456	0	9.41	4002	0	0	0	0	0.09644484	-0.2093176	1
610908	-37	-35	10	-0.6974161	-2.695004	4.180837	0	9.41	4002	0	0	0	0	0.09642808	-0.2063112	1
611049	-41	-28	8	-0.6892657	-2.672305	4.161458	0	9.41	4002	0	0	0	0	0.09641258	-0.2099316	1
611160	-36	-37	8	-0.6859381	-2.664005	4.143116	0	9.41	4004	0	0	0	0	0.09640456	-0.2092488	1
611221	-40	-35	13	-0.704146	-2.657166	4.13425	0	9.41	4003	0	0	0	0	0.09640047	-0.2135189	1
611291	-43	-34	8	-0.6934396	-2.659058	4.126668	0	9.41	4002	0	0	0	0	0.09639715	-0.2213471	1
611444	-43	-33	6	-0.6901278	-2.666127	4.109121	0	9.41	4004	0	0	0	0	0.09639229	-0.2266233	1
