time(ms)	gyro_x(deg/s)	gyro_y(deg/s)	gyro_z(deg/s)	orientation_roll(deg)	orientation_pitch(deg)	orientation_yaw(deg)	throttle	battery(V)	loop_time(uS)	pid_output_roll	pid_output_pitch	pid_output_yaw	pid_output_throttle	ultrasonic_alt	baro_alt	flight_mode
31202	1232	-6838	-1611	1.667004	2.68035	-8.287542	0	11.74	4004	-76	-127	-32	12	0.2316397	0.3918638	4
31337	-582	2681	692	1.371031	1.50769	-8.290235	0	11.74	4002	11	115	-4	11	0.2894269	0.3950893	4
31427	1891	-790	-396	3.208314	-3.149175	-8.978765	0	11.74	4003	-37	-179	1	9	0.360239	0.4200951	4
31521	-462	1598	-646	3.707459	-3.222216	-9.231115	0	11.74	4002	79	-3	12	5	0.4269768	0.4301013	4
31586	2746	4460	-55	5.083625	-7.583944	-8.916658	0	11.74	4003	24	-36	-10	2	0.5019333	0.445136	4
31690	3371	2346	-386	6.452665	-13.78713	-8.812464	0	11.74	4003	-10	-95	0	0	0.6473517	0.4732689	4
31834	-3243	1880	58	5.092459	-16.39047	-9.05265	0	11.74	4004	98	-40	15	-8	0.8096339	0.4952969	4
31938	1528	3703	678	3.790672	-17.96185	-8.817666	0	11.74	4003	-125	27	7	-13	0.9031993	0.5122792	4
32071	-4151	1112	284	-0.1283974	-19.57401	-8.952488	0	11.74	4003	24	-40	-2	-17	0.9599667	0.5322614	4
32142	-1140	-1734	507	-4.69768	-14.05466	-8.272202	0	12.25	4002	-57	-17	-6	-20	1.052823	0.5694359	4
32216	-1555	-2932	919	-4.748827	-10.75873	-8.534276	0	12.25	4003	36	-56	10	-23	1.076955	0.5753463	4
32301	-2722	-3762	407	-6.712422	-5.907181	-8.982819	0	12.25	4004	22	-14	13	-20	1.03822	0.6018787	4
32448	1347	45	-15	-3.523672	-3.343803	-9.085794	0	12.25	4002	-9	-60	-4	-26	1.140347	0.6222799	4
32542	-481	-581	-429	-3.300598	-9.671369	-8.661644	0	12.25	4004	99	-20	-16	-30	1.183419	0.6297962	4
32608	2244	-1192	-33	-1.171191	-10.96606	-8.382913	0	12.25	4003	6	-106	-10	-30	1.179952	0.634317	4
32706	1098	-301	422	2.074208	-11.04482	-8.674004	0	12.25	4003	-4	-93	2	-31	1.17797	0.6386744	4
32842	20	-786	405	-0.3487303	-9.74838	-8.618766	0	12.25	4003	23	-72	-19	-32	1.173434	0.64779	4
32915	-500	1337	87	0.2512789	-9.675047	-8.612241	0	12.25	4002	34	-5	-2	-32	1.1533	0.6593102	4
33091	-2780	-5307	-185	-5.068519	-2.408485	-8.704513	0	11.91	4003	86	-121	-9	-30	0.961675	0.6680807	4
33191	957	3528	323	-2.18507	-4.868911	-8.987293	0	11.91	4002	5	20	0	-24	0.8655879	0.6684982	4
33317	506	-1824	-379	-2.311999	-7.591311	-8.886259	0	11.91	4004	-20	-85	-2	-19	0.7612407	0.6632098	4
33419	5057	6059	-350	4.013361	-9.518007	-7.977164	0	11.91	4002	-49	135	-22	-14	0.634977	0.6475745	4
33557	5998	1470	-1798	-0.1711654	-32.59474	-3.489502	0	11.91	4004	-114	22	-154	-7	0.4547313	0.6050186	4
33632	-840	-7395	-190	2.358216	-21.47916	-3.129597	0	11.91	4002	152	-196	-123	-4	0.3520345	0.5745774	4
33741	4394	-2566	3631	2.72723	-8.32448	-5.883404	0	11.91	4004	-154	113	-2	-1	0.3018639	0.566277	4
33841	-149	-2823	2605	5.677031	-3.952623	-10.51188	0	11.91	4003	70	-14	74	0	0.2961244	0.560302	4
33976	1208	-669	-1092	3.40164	-6.68455	-10.87928	0	12.02	4002	72	-48	9	-3	0.3543409	0.5348976	4
34085	-2309	-3191	-1455	4.248163	-4.380856	-8.723409	0	12.02	4003	-3	-135	-26	-6	0.4666903	0.5176222	4
34140	-3108	-388	563	2.236401	-4.459703	-8.464396	0	12.02	4003	83	-28	-2	-5	0.4449762	0.516486	4
34228	-2000	2342	740	1.481973	-7.6295	-8.716523	0	12.02	4003	0	24	6	-8	0.5389232	0.517336	4
34366	101	2537	-229	-0.7134123	-12.91942	-9.009345	0	12.02	4004	-33	-25	-17	-14	0.6642048	0.5162843	4
34429	-1464	-1182	422	0.9302565	-12.70031	-9.237205	0	12.02	4003	34	-44	16	-18	0.797178	0.5158804	4
34533	436	-790	-508	0.0530875	-10.1097	-9.035522	0	12.02	4002	55	-110	-8	-22	0.8632551	0.5208446	4
34637	-1363	28	-143	-1.293384	-11.04924	-9.215418	0	12.02	4004	48	-81	3	-22	0.8778062	0.5285642	4
34793	-166	513	-631	-3.506089	-6.91088	-9.00351	0	12.02	4004	-30	-2	0	-31	1.038901	0.5341697	4
34855	-333	758	141	-2.970566	-9.278074	-9.005104	0	11.68	4003	-44	-50	7	-31	1.017012	0.5367798	4
34971	29	402	-383	-1.014272	-8.451646	-8.865369	0	11.68	4003	49	-25	-4	-31	1.00932	0.5401081	4
35085	-227	-171	-34	-1.142989	-6.571628	-8.893003	0	11.68	4004	-73	-83	-3	-34	1.062011	0.5404397	4
35150	-2288	1179	380	-1.365553	-6.052578	-9.067487	0	11.68	4004	59	21	13	-35	1.063103	0.5399255	4
35252	-390	948	36	-3.073399	-6.571199	-9.16111	0	11.68	4003	-36	15	20	-36	1.081755	0.5446228	4
35351	-1218	765	42	0.3264878	-7.475287	-9.467767	0	11.68	4002	1	46	21	-38	1.110958	0.5520747	4
35491	117	-3	445	1.202327	-8.133177	-9.487638	0	11.68	4002	43	-148	10	-39	1.083977	0.5694826	4
35601	-226	-1833	914	2.670452	-5.612765	-9.723639	0	11.68	4004	11	-137	16	-38	1.032977	0.5740345	4
35648	-772	-82	1025	1.831986	-3.595701	-10.07075	0	11.68	4004	27	69	41	-36	0.9812692	0.5769717	4
35777	-526	-1951	-271	2.263749	-4.776358	-10.22948	0	11.68	4004	-36	-109	33	-32	0.8609461	0.5772333	4
35864	682	-670	-185	1.943714	-3.666404	-9.718614	0	10.77	4003	-29	9	20	-31	0.8399552	0.5705656	4
35942	-99	1026	-649	1.707707	-5.005642	-9.152775	0	10.77	4004	57	15	0	-31	0.8302547	0.5641958	4
36080	-1621	-974	-16	2.34689	-10.90933	-9.113935	0	10.77	4003	88	-6	19	-30	0.7978666	0.5407207	4
36145	-673	633	129	1.931701	-10.35713	-8.994584	0	10.77	4003	47	-32	-10	-31	0.7980897	0.523	4
36273	702	1229	139	1.200454	-12.54125	-8.58714	0	10.77	4003	4	-1	-4	-31	0.7924341	0.5128496	4
36387	1317	1431	785	1.388919	-12.13735	-8.610668	0	10.77	4004	-66	14	3	-31	0.7937073	0.4979127	4
36448	-860	124	324	0.08621025	-11.746	-9.064992	0	10.77	4004	-29	-39	5	-31	0.7770879	0.4959462	4
36613	199	-1063	-217	-0.3127339	-6.919323	-8.864777	0	10.77	4004	13	-2	-8	-30	0.7329516	0.499819	4
36662	155	-1985	-57	-0.9584417	-4.243105	-8.605897	0	10.77	4004	12	-70	-7	-29	0.7124957	0.4990071	4
36768	1094	-2099	229	-1.527925	-2.132609	-8.937183	0	11.29	4004	-23	-12	3	-28	0.6777083	0.4972235	4
36893	684	-2626	-788	0.1294603	-1.327667	-9.188298	0	11.29	4003	-65	-102	-8	-25	0.5781106	0.5034539	4
36995	-1120	2848	-231	2.302499	-3.991456	-8.495143	0	11.29	4004	-10	67	-19	-22	0.475286	0.5184101	4
37076	-1376	-1184	-1077	0.8687359	-5.862475	-7.021493	0	11.29	4004	-106	100	-40	-19	0.4244096	0.5243265	4
37170	-35	-416	-1822	0.4869213	-6.651402	-5.574422	0	11.29	4002	-23	-103	-98	-16	0.3641974	0.5180789	4
37264	-1688	2041	2619	-0.5201438	-8.775272	-5.696029	0	11.29	4004	12	-41	-65	-14	0.31337	0.5015396	4
37407	1541	-1403	956	-3.345941	-9.384455	-8.608172	0	11.29	4003	-58	-136	-16	-14	0.3424973	0.4649937	4
37461	-1033	-1194	-465	-1.234141	-8.306399	-9.135688	0	11.29	4003	42	-136	4	-15	0.3611381	0.4515252	4
37570	1263	-116	-14	-1.840494	-8.700444	-8.916308	0	11.29	4004	-40	1	-6	-19	0.4292069	0.43535	4
37700	-1162	-28	-140	0.4660332	-7.693024	-8.5154	0	11.11	4002	84	-10	-6	-25	0.6085178	0.412336	4
37764	-281	-483	-346	-0.1687859	-6.698841	-8.561153	0	11.11	4003	28	10	-11	-27	0.706657	0.4127685	4
37894	-194	-222	360	-1.379488	-5.107399	-8.791104	0	11.11	4004	14	-82	7	-30	0.7643636	0.4202579	4
37967	1157	129	-262	-2.879242	-5.828754	-8.660157	0	11.11	4003	-56	-50	-13	-33	0.819769	0.4271085	4
38072	-450	-1317	111	-3.920799	-5.224205	-8.58457	0	11.11	4003	-4	-70	1	-35	0.8781029	0.4418622	4
38180	-204	-49	83	-3.604889	-3.657546	-8.514584	0	11.11	4003	-2	22	-11	-39	1.000164	0.4533681	4
38276	-196	-446	476	-3.199059	-4.890751	-8.866651	0	11.11	4003	13	-79	11	-48	1.126531	0.4736809	4
38387	207	747	-150	-2.991691	-5.27586	-8.900491	0	11.11	4004	42	-65	6	-45	1.020896	0.49358	4
38481	2025	-57	236	-1.762532	-6.969788	-8.782375	0	11.11	4003	-69	-2	-5	-46	1.042333	0.5138997	4
38617	-520	-648	-72	-2.018901	-4.520786	-8.787811	0	11.29	4002	-10	-48	0	-50	1.098796	0.5320808	4
38688	53	74	-272	-1.923129	-3.057034	-8.570858	0	11.29	4002	-21	-16	-13	-49	1.066896	0.5315895	4
38843	-205	297	301	-2.59363	-2.647439	-8.832268	0	11.29	4003	-38	-40	0	-49	1.050508	0.5256479	4
38991	938	-124	-532	-2.131162	-5.525734	-8.749928	0	11.29	4004	-56	-73	-9	-54	1.139006	0.4941851	4
39087	44	548	413	-1.812987	-5.961189	-8.649751	0	11.29	4003	-39	0	-1	-50	1.013267	0.4746718	4
39191	591	487	228	-0.4678542	-7.268519	-8.819138	0	11.29	4004	-57	39	3	-50	1.027484	0.4637066	4
39295	-1119	702	-70	1.78769	-7.545561	-8.722929	0	11.29	4003	30	-7	-11	-51	1.020477	0.4513807	4
39455	490	-355	251	4.618033	-8.971263	-8.427404	0	11.29	4003	47	3	-11	-50	0.9694569	0.4461763	4
39496	161	150	-575	5.434422	-9.348659	-8.258411	0	11.29	4004	-45	-52	-24	-50	0.9402344	0.4404134	4
39598	-1903	464	48	0.7104207	-9.377891	-8.38446	0	11.63	4003	70	-72	-17	-48	0.8814687	0.4206234	4
39750	-1760	325	966	0.816869	-7.740768	-8.752813	0	11.63	4002	49	56	12	-45	0.784346	0.3937533	4
39822	1883	1168	-1227	2.707175	-12.35931	-8.007766	0	11.63	4002	-1	86	-23	-43	0.7242122	0.3814338	4
39936	-1976	-1448	-565	1.22653	-10.97617	-7.136337	0	11.63	4002	43	-62	-40	-41	0.6684242	0.3657538	4
40040	897	-451	873	2.193944	-8.688986	-7.091794	0	11.63	4002	45	-108	-28	-39	0.6363264	0.3566738	4
40130	-2301	-951	156	0.401548	-8.61513	-7.734526	0	11.63	4003	-113	-39	-26	-38	0.6001195	0.3503386	4
40205	-1417	-1306	1020	2.782229	-6.666539	-8.507321	0	11.63	4003	6	29	1	-38	0.6030769	0.3506465	4
40367	354	352	834	6.128011	-7.068632	-9.233274	0	11.63	4002	37	70	24	-39	0.6315957	0.3653958	4
40410	-1721	-545	-454	3.223714	-8.891583	-9.480875	0	11.11	4003	77	-44	13	-40	0.6459198	0.3751618	4
40525	-466	-126	305	1.217695	-5.946311	-8.730586	0	11.11	4003	-20	72	1	-42	0.6884023	0.3966365	4
40598	-822	-1257	-1743	2.718574	-6.566937	-8.237965	0	11.11	4003	-18	34	-13	-44	0.7191623	0.4102122	4
40708	-2188	-1036	-794	-1.399112	-6.610023	-7.79743	0	11.11	4002	-85	-95	-30	-47	0.7894642	0.4295312	4
40804	-1987	-857	513	-0.9447541	-7.625011	-8.157843	0	11.11	4004	86	-39	-8	-51	0.8709564	0.4516703	4
40972	2257	2824	150	2.599478	-10.90285	-8.945204	0	11.11	4004	-90	147	14	-52	0.9338272	0.497668	4
41064	-578	-329	-427	2.019422	-12.49217	-8.920845	0	11.11	4003	-58	-60	0	-57	1.001034	0.5221648	4
41113	-2154	114	946	3.065339	-10.81176	-8.972263	0	11.11	4004	59	71	17	-58	1.03587	0.5420141	4
41244	1571	78	994	6.201167	-10.65711	-8.888248	0	11.11	4002	0	1	16	-60	1.053156	0.5631216	4
41389	1701	852	460	1.74747	-9.084701	-8.52785	0	11.91	4003	19	34	-4	-64	1.105064	0.6035442	4
41514	109	-558	127	-0.4165025	-7.522343	-8.372622	0	11.91	4004	-27	-50	-14	-62	1.05552	0.6480994	4
41566	2	-488	260	-0.6771597	-6.31187	-8.500751	0	11.91	4002	-9	-29	-4	-64	1.098168	0.6778058	4
41645	-372	-1153	316	-1.262477	-5.833734	-8.7865	0	11.91	4003	23	-25	0	-66	1.139443	0.7001439	4
41776	383	-409	-188	-0.884367	-7.326986	-8.721848	0	11.91	4003	-9	-98	-1	-70	1.195495	0.7614971	4
41832	-519	63	592	-0.5658901	-6.430861	-8.659636	0	11.91	4002	40	-62	4	-71	1.196706	0.7987412	4
41924	-291	-73	-336	-2.552763	-7.451762	-8.597315	0	11.91	4003	29	-72	-16	-71	1.174315	0.8498772	4
42035	-151	1429	40	-2.435771	-7.028287	-8.470091	0	11.91	4003	4	54	-6	-73	1.193774	0.8790722	4
42132	1311	322	-51	-0.7835364	-7.805341	-8.485559	0	11.91	4003	-55	-56	-4	-70	1.106698	0.905162	4
42224	-604	-185	512	-0.8585358	-6.188411	-8.988847	0	11.91	4003	-41	-15	10	-71	1.138453	0.9222308	4
42382	-328	57	-30	-2.517329	-6.17354	-9.076961	0	11.4	4003	-9	-15	6	-73	1.098305	0.963246	4
42438	368	-72	-35	-2.364582	-6.889156	-8.927925	0	11.4	4002	-53	-63	1	-72	1.087224	0.9681241	4
42545	-372	1004	70	-2.495536	-6.860746	-9.080284	0	11.4	4002	-4	0	7	0	1.052928	0.9909272	3
42642	1730	139	780	-0.7030906	-7.916185	-9.138037	0	11.4	4004	-24	-66	-5	0	1.040496	0.9943521	3
42726	-931	372	268	2.64518	-8.18545	-9.009257	0	11.4	4003	124	-97	-5	0	1.026133	0.9939407	3
42830	1193	-5880	-739	2.089539	-6.334885	-8.911805	0	11.4	4002	-1	27	-2	0	1.012846	0.9938447	3
42934	-117	-2478	-592	2.622189	-1.615427	-8.772504	0	11.4	4003	-42	8	-19	0	1.005977	0.9952281	3
43123	544	1108	564	2.537715	-4.325946	-8.828126	0	11.4	4004	0	-159	-15	0	0.998409	1.023136	3
43206	303	-130	264	3.060585	-6.423925	-8.687518	0	11.4	4002	-35	51	-1	0	0.9954519	1.037422	3
43308	560	-418	558	1.331545	-6.908117	-8.530292	0	11.51	4003	-41	82	5	0	0.9932961	1.051997	3
43333	560	-418	558	1.331545	-6.908117	-8.530292	0	11.51	4003	26	-44	-6	0	0.9927163	1.063705	3
43535	687	4972	994	2.569997	-8.013844	-9.397992	0	11.51	4004	-20	47	32	0	0.9905789	1.113114	3
43612	827	3480	-662	-0.8245469	-10.27778	-9.564028	0	11.51	4004	29	-43	-4	0	0.9897437	1.142068	3
43740	282	4118	99	1.353329	-16.00043	-8.759501	0	11.51	4002	-49	-20	0	0	0.9889711	1.174549	3
43776	-1204	3965	386	0.844789	-15.76884	-8.789749	0	11.51	4002	4	3	1	0	0.9888237	1.189502	3
43868	1158	1965	-220	0.2061941	-16.7463	-8.525714	0	11.51	4002	92	-117	-7	0	0.9885716	1.204121	3
43938	1496	5200	895	2.510875	-17.32168	-8.900052	0	11.51	4004	-53	107	13	0	0.9882804	1.232892	3
44045	690	992	-252	3.193306	-15.87336	-8.902879	0	11.51	4002	-40	-33	-8	0	0.988068	1.274572	3
44140	573	574	242	3.150614	-13.92198	-8.621257	0	10.94	4003	-3	-6	-9	0	0.9879596	1.298753	3
44314	-2404	109	-539	0.9506711	-11.65165	-8.455744	0	10.94	4002	7	22	-15	0	0.9877428	1.373856	3
44390	1079	-872	-287	-0.7050651	-9.210598	-8.275817	0	10.94	4004	-79	-124	-11	0	0.9876961	1.402804	3
44448	-2057	1307	35	-1.074007	-7.389575	-8.598145	0	10.94	4003	44	0	-5	0	0.9876583	1.427544	3
44563	-1043	1139	-1035	-4.888873	-10.90767	-8.228589	0	10.94	4003	-19	-123	-30	0	0.9876028	1.473217	3
44675	-373	269	403	-3.274404	-10.74012	-8.163161	0	10.94	4004	-22	-22	-16	0	0.9875741	1.526599	3
44757	808	-1723	144	-1.074375	-7.922966	-8.021279	0	10.94	4002	-54	-49	-17	0	0.9875594	1.556	3
44883	-151	-2677	-479	-1.271909	-7.505804	-8.357934	0	10.94	4003	34	2	-16	0	0.987538	1.600707	3
44949	-2229	-6389	256	-0.8686522	-4.007483	-8.49916	0	10.94	4004	-25	2	0	0	0.9875302	1.62879	3
45070	-2188	-1074	220	-2.82419	0.693337	-8.606013	0	11.29	4004	-29	3	-17	0	0.9875187	1.683887	3
45177	-669	-2318	-424	-3.524481	-2.524523	-8.555512	0	11.29	4003	-12	-167	-11	0	0.9875128	1.729167	3
45348	765	-1450	-253	-2.865628	-4.578336	-8.921449	0	11.29	4002	-21	-95	-5	0	0.9875074	1.793962	3
45397	980	-1198	-31	-2.018797	-3.781021	-8.949045	0	11.29	4003	-52	-85	-2	0	0.9875054	1.824776	3
45508	164	-204	-589	-0.9169009	-3.47189	-8.832977	0	11.29	4003	1	-63	-6	0	0.9875032	1.85926	3
45606	322	-199	-30	-0.100999	-4.344682	-8.625714	0	11.29	4004	-49	16	-7	0	0.9875015	1.888998	3
45691	-139	-73	93	1.085037	-5.8634	-8.260596	0	11.29	4002	-35	36	-12	0	0.9875003	1.919584	3
45875	884	-958	272	0.7489666	-5.390777	-8.390607	0	11.29	4002	-52	-55	-16	0	0.9874987	1.954029	3
45982	818	-1054	58	-0.3465961	-4.46442	-8.820351	0	11.34	4004	-60	-34	6	0	0.9874982	1.967102	3
46109	605	588	506	1.149659	-5.930887	-8.900673	0	11.34	4002	-37	-33	8	0	0.9874978	1.987776	3
46193	896	-93	-284	-0.13524	-5.74739	-8.689106	0	11.34	4004	9	-89	-10	0	0.9874977	1.995307	3
46277	213	508	-18	0.5095466	-6.01431	-8.797735	0	11.34	4003	30	-2	2	0	0.9874975	2.001232	3
46415	206	115	275	-0.6434568	-6.178267	-8.893695	0	11.34	4003	6	-60	4	0	0.9874973	2.006124	3
46514	-59	2834	-62	-1.208476	-7.239701	-9.018906	0	11.34	4004	-24	-1	3	0	0.9874972	2.003607	3
46607	640	-784	-822	-2.076604	-6.969223	-8.228708	0	11.34	4003	-31	-43	-19	0	0.9874972	1.997347	3
46671	-707	793	-279	-2.203346	-7.139309	-7.902179	0	11.34	4003	40	-41	-28	0	0.9874972	1.990334	3
46769	845	-104	299	-2.139918	-7.096277	-7.809505	0	11.34	4002	34	-84	-25	0	0.9874972	1.969656	3
46966	291	-808	-233	-0.9290304	-5.464498	-8.728468	0	10.72	4003	-3	-53	-5	0	0.9874972	1.930377	3
47069	-637	-384	-326	0.7702141	-3.479507	-8.682902	0	10.72	4003	22	-81	-14	0	0.9874972	1.908843	3
47165	-303	-580	-4	0.593546	-2.030445	-8.634735	0	10.72	4004	-18	-23	-4	0	0.9874972	1.884687	3
47305	390	-124	74	-0.228723	-2.652943	-8.886675	0	10.72	4002	-7	-46	0	0	0.9874972	1.835985	3
47369	-12	-209	132	-0.467713	-2.983094	-9.069958	0	10.72	4003	-36	-19	11	0	0.9874972	1.807554	3
47566	-533	241	-172	-1.403884	-3.822935	-9.135981	0	10.72	4003	41	-35	7	0	0.9874972	1.708791	3
47632	-672	-315	641	-1.644953	-3.922853	-8.878886	0	10.72	4003	13	-49	2	0	0.9874972	1.685494	3
47700	-1370	1452	673	-1.055891	-5.533431	-9.069267	0	10.72	4003	43	-7	8	0	0.9874972	1.650429	3
47787	-1551	-995	94	-2.800964	-6.177947	-8.978488	0	10.72	4003	29	-102	2	0	0.9874972	1.603351	3
47855	-535	-839	-540	-2.698997	-4.908071	-8.820091	0	10.32	4003	5	-9	7	0	0.9874972	1.53879	3
47986	628	703	146	-1.271365	-6.293345	-8.631895	0	10.32	4003	-14	1	-4	0	0.9874972	1.485959	3
48167	755	812	-220	-2.624466	-5.605607	-8.444276	0	10.32	4003	-14	-12	-12	0	0.9874972	1.369633	3
48307	-643	934	86	-1.072552	-2.858117	-8.78887	0	10.32	4004	-27	2	3	0	0.9874972	1.309446	3
48438	-1426	-875	118	-3.916875	-3.343898	-8.880342	0	10.32	4004	22	-13	1	0	0.9874972	1.243521	3
48500	-1739	1532	-8	-4.218825	-3.549135	-8.661421	0	10.32	4004	5	66	-6	0	0.9874972	1.207064	3
48582	-1697	-377	170	-6.625711	-5.568599	-8.648459	0	10.32	4004	26	-13	-7	0	0.9874972	1.179607	3
48676	-720	1564	-27	-5.486234	-4.767272	-8.967075	0	10.32	4002	-85	-24	8	0	0.9874972	1.109087	3
48803	884	-190	-395	-5.01144	-7.997106	-8.945779	0	10.83	4003	-50	-105	1	0	0.9874972	1.02947	3
48866	563	111	243	-2.876246	-6.94909	-9.076182	0	10.83	4002	-24	-36	10	0	0.9874972	1.004276	3
48961	-514	643	26	-3.09634	-7.372663	-9.216703	0	10.83	4002	-46	18	7	0	0.9874972	0.9488283	3
49065	-2	760	1	-1.55487	-7.975766	-8.733212	0	10.83	4002	67	42	-1	0	0.9874972	0.8865862	3
49213	4345	-930	196	2.457232	-5.808372	-8.458361	0	10.83	4004	-66	-39	-2	0	0.9874972	0.8161783	3
49264	781	-1498	361	3.808272	-4.232463	-8.788486	0	10.83	4002	-48	-95	0	0	0.9874972	0.76961	3
49358	-1663	-674	761	-0.03206985	-3.926747	-9.117928	0	10.83	4002	0	0	0	0	0.9874972	0.6992124	3
49480	2047	-6212	-4411	0.4151678	-3.311905	-9.983937	0	10.83	4004	0	0	0	0	0.9874972	0.6400344	3
49590	-1907	789	1531	-1.334267	-0.4424135	-7.199547	0	10.83	4004	0	0	0	0	0.9874972	0.5685408	3
49759	-56	-50	-43	-2.507694	4.409617	-7.429168	0	11.97	4004	0	0	0	0	0.9874972	0.4614297	3
49809	-149	-324	-215	-2.315754	3.898247	-7.455218	0	11.97	4003	0	0	0	0	0.9874972	0.4231071	3
49868	-41	-225	62	-2.001372	2.851733	-7.488103	0	11.97	4004	0	0	0	0	0.9874972	0.3756934	3
49986	-56	-90	-4	-1.288024	1.457265	-7.517203	0	11.97	4002	0	0	0	0	0.9874972	0.3255508	3
50064	-44	-110	-3	-1.114353	1.093397	-7.533593	0	11.97	4003	0	0	0	0	0.9874972	0.3019934	3
50208	-80	-103	-28	-0.9772825	0.613551	-7.574432	0	11.97	4002	0	0	0	0	0.9874972	0.2664973	1
50296	-84	-113	38	-0.8518601	0.3881617	-7.602245	0	11.97	4002	0	0	0	0	0.9874972	0.2511066	1
50376	-69	-67	-6	-0.7989096	0.3070832	-7.612762	0	11.97	4004	0	0	0	0	0.9874972	0.2212945	1
50447	-107	-83	36	-0.8211367	0.1669885	-7.635443	0	11.97	4004	0	0	0	0	0.9874972	0.2091165	1
50550	-80	-85	17	-0.7889319	0.186486	-7.654881	0	12.02	4003	0	0	0	0	0.9874972	0.1779394	1
50652	-79	-82	11	-0.8202111	0.1487575	-7.676463	0	12.02	4002	0	0	0	0	0.9874972	0.1602164	1
50797	-78	-82	6	-0.7695442	0.1256467	-7.706174	0	12.02	4003	0	0	0	0	0.9874972	0.1417845	1
50881	-81	-80	5	-0.7834682	0.1321014	-7.718097	0	12.02	4004	0	0	0	0	0.9874972	0.1326649	1
50959	-81	-64	2	-0.7988506	0.1114017	-7.734297	0	12.02	4004	0	0	0	0	0.9874972	0.1150842	1
51120	-90	-77	33	-0.7850679	0.1074609	-7.760524	0	12.02	4004	0	0	0	0	0.9874972	0.0966042	1
51182	-68	-82	11	-0.7739083	0.1159662	-7.772872	0	12.02	4004	0	0	0	0	0.9874972	0.08882717	1
51263	-75	-72	7	-0.8137007	0.1001011	-7.7939	0	12.02	4003	0	0	0	0	0.9874972	0.07473858	1
51420	-82	-72	15	-0.7612214	0.1080971	-7.823123	0	12.02	4004	0	0	0	0	0.9874972	0.06271607	1
51515	-80	-65	11	-0.7480167	0.09663751	-7.848679	0	12.02	4003	0	0	0	0	0.9874972	0.0666867	1
51626	-82	-73	10	-0.7338331	0.09931652	-7.866284	0	12.02	4002	0	0	0	0	0.9874972	0.06564739	1
51724	-79	-74	17	-0.7254632	0.1175355	-7.887009	0	12.02	4004	0	0	0	0	0.9874972	0.05473721	1
51776	-80	-74	15	-0.7414342	0.1161437	-7.899174	0	12.02	4002	0	0	0	0	0.9874972	0.04882715	1
51908	-77	-75	12	-0.7286797	0.1332053	-7.924972	0	12.02	4002	0	0	0	0	0.9874972	0.03806315	1
51981	-70	-67	12	-0.7305694	0.1194237	-7.935731	0	12.02	4003	0	0	0	0	0.9874972	0.0307357	1
52064	-74	-69	13	-0.7347014	0.1160159	-7.948449	0	12.02	4003	0	0	0	0	0.9874972	0.01639106	1
52166	-55	-77	12	-0.7310951	0.1201133	-7.96948	0	12.02	4002	0	0	0	0	0.9874972	0.008708611	1
52343	-63	-70	6	-0.7236722	0.08283883	-8.003901	0	12.02	4002	0	0	0	0	0.9874972	0.00436369	1
52377	-88	-67	11	-0.7290775	0.1139024	-8.015635	0	12.08	4003	0	0	0	0	0.9874972	0.001091321	1
52457	-78	-73	13	-0.7187721	0.1088447	-8.028778	0	12.08	4002	0	0	0	0	0.9874972	-0.001899706	1
52558	-86	-71	12	-0.7117864	0.1106198	-8.047483	0	12.08	4003	0	0	0	0	0.9874972	-0.008218023	1
52660	-82	-72	13	-0.7236428	0.1093431	-8.066616	0	12.08	4003	0	0	0	0	0.9874972	-0.01423664	1
52765	-73	-71	16	-0.724354	0.1034262	-8.087278	0	12.08	4004	0	0	0	0	0.9874972	-0.01746573	1
52860	-74	-65	10	-0.7138387	0.09435166	-8.107882	0	12.08	4003	0	0	0	0	0.9874972	-0.02806792	1
53005	-72	-66	16	-0.7068644	0.06822895	-8.134355	0	12.08	4002	0	0	0	0	0.9874972	-0.03679337	1
53071	-83	-68	10	-0.7110781	0.08494206	-8.146581	0	12.08	4002	0	0	0	0	0.9874972	-0.03434012	1
53287	-68	-70	11	-0.6963461	0.08294734	-8.191268	0	12.08	4004	0	0	0	0	0.9874972	-0.02371456	1
53348	-77	-63	16	-0.7050169	0.09742119	-8.207772	0	12.14	4003	0	0	0	0	0.9874972	-0.01344684	1
53439	-72	-74	15	-0.6935982	0.09393151	-8.226662	0	12.14	4004	0	0	0	0	0.9874972	-0.007081	1
53531	-75	-79	11	-0.701378	0.07162205	-8.244143	0	12.14	4002	0	0	0	0	0.9874972	-0.001755601	1
53628	-77	-64	11	-0.7108636	0.06956971	-8.262178	0	12.14	4002	0	0	0	0	0.9874972	-0.004580956	1
53782	-85	-68	12	-0.711995	0.0688907	-8.28565	0	12.14	4003	0	0	0	0	0.9874972	-0.002606879	1
53881	-74	-63	1	-0.7196522	0.05708249	-8.302217	0	12.14	4003	0	0	0	0	0.9874972	-0.0007303432	1
53968	-73	-64	10	-0.7226854	0.05694136	-8.319761	0	12.14	4003	0	0	0	0	0.9874972	-0.003307915	1
54023	-75	-73	11	-0.7011048	0.05996756	-8.330091	0	12.14	4002	0	0	0	0	0.9874972	-0.01034359	1
54135	-76	-60	13	-0.7298739	0.06162269	-8.348003	0	12.14	4003	0	0	0	0	0.9874972	-0.01395114	1
54217	-76	-71	7	-0.7432257	0.08170761	-8.364385	0	12.14	4002	0	0	0	0	0.9874972	-0.009705073	1
54325	-82	-64	13	-0.7279205	0.06919879	-8.381929	0	12.14	4004	0	0	0	0	0.9874972	-0.003958036	1
54449	-75	-70	15	-0.7397388	0.0868213	-8.403876	0	12.14	4004	0	0	0	0	0.9874972	-8.75125E-05	1
54597	-62	-64	10	-0.7208554	0.07729936	-8.422278	0	12.14	4003	0	0	0	0	0.9874972	0.009264093	1
54669	-70	-69	15	-0.720731	0.06968764	-8.434872	0	12.14	4004	0	0	0	0	0.9874972	0.01208124	1
54847	-64	-70	11	-0.7137393	0.05640009	-8.461525	0	12.14	4002	0	0	0	0	0.9874972	0.01747715	1
55003	-65	-63	12	-0.7089278	0.0682324	-8.49209	0	12.14	4003	0	0	0	0	0.9874972	0.03177033	1
55036	-65	-63	12	-0.7089278	0.0682324	-8.49209	0	12.14	4003	0	0	0	0	0.9874972	0.03177033	1
55182	-68	-65	8	-0.7196921	0.0700484	-8.522355	0	12.14	4004	0	0	0	0	0.9874972	0.03672147	1
55251	-70	-71	9	-0.7181645	0.06977482	-8.532198	0	12.14	4002	0	0	0	0	0.9874972	0.04134873	1
55353	-74	-62	12	-0.7161881	0.0643946	-8.551211	0	12.14	4002	0	0	0	0	0.9874972	0.03939335	1
55390	-64	-61	7	-0.7221531	0.0613962	-8.556408	0	12.14	4003	0	0	0	0	0.9874972	0.03833427	1
55525	-64	-63	9	-0.6943616	0.07174969	-8.578596	0	12.14	4002	0	0	0	0	0.9874972	0.02540937	1
55620	-75	-63	14	-0.6814581	0.06961507	-8.594676	0	12.14	4002	0	0	0	0	0.9874972	0.01830408	1
55758	-63	-64	7	-0.6752664	0.05428989	-8.617416	0	12.14	4003	0	0	0	0	0.9874972	0.0186489	1
55822	-68	-61	8	-0.6817644	0.05384607	-8.628056	0	12.14	4003	0	0	0	0	0.9874972	0.01874746	1
55926	-74	-69	9	-0.6780857	0.05613193	-8.647252	0	12.14	4003	0	0	0	0	0.9874972	0.01864075	1
56029	-68	-61	10	-0.6882985	0.06575489	-8.658011	0	12.14	4002	0	0	0	0	0.9874972	0.01755395	1
56144	-61	-60	13	-0.7000589	0.05685367	-8.678188	0	12.14	4002	0	0	0	0	0.9874972	0.00981618	1
56214	-68	-59	4	-0.7140145	0.04530593	-8.688888	0	12.14	4002	0	0	0	0	0.9874972	0.004287208	1
56328	-66	-62	4	-0.6950381	0.06461833	-8.708389	0	12.14	4002	0	0	0	0	0.9874972	0.002234988	1
56360	-76	-59	8	-0.690948	0.06210481	-8.712485	0	12.14	4003	0	0	0	0	0.9874972	0.002528961	1
56435	-60	-73	9	-0.6996855	0.06602526	-8.722512	0	12.14	4003	0	0	0	0	0.9874972	0.006500396	1
56589	-80	-69	6	-0.6824234	0.06787044	-8.745746	0	12.14	4002	0	0	0	0	0.9874972	0.01303913	1
56644	-78	-54	13	-0.6879954	0.06228399	-8.756504	0	12.14	4004	0	0	0	0	0.9874972	0.0207225	1
56767	-68	-65	11	-0.6716981	0.05764775	-8.777292	0	12.14	4003	0	0	0	0	0.9874972	0.02211106	1
56845	-69	-70	9	-0.6795667	0.04979672	-8.788663	0	12.14	4003	0	0	0	0	0.9874972	0.01586572	1
56961	-68	-61	10	-0.6921734	0.03916086	-8.807736	0	12.14	4002	0	0	0	0	0.9874972	0.0144795	1
57042	-64	-60	7	-0.6766154	0.03114391	-8.817333	0	12.14	4004	0	0	0	0	0.9874972	0.01739115	1
57177	-70	-63	10	-0.699744	0.05068108	-8.836287	0	12.14	4003	0	0	0	0	0.9874972	0.01768216	1
57364	-65	-64	10	-0.6922148	0.04260033	-8.86337	0	12.14	4004	0	0	0	0	0.9874972	0.01220483	1
57450	-63	-55	7	-0.6973432	0.03954569	-8.87792	0	12.14	4004	0	0	0	0	0.9874972	0.01030526	1
57544	-56	-62	8	-0.6962335	0.03857658	-8.891617	0	12.14	4003	0	0	0	0	0.9874972	0.01015871	1
57736	-69	-62	11	-0.6687151	0.009652019	-8.913623	0	12.14	4004	0	0	0	0	0.9874972	0.007176235	1
57821	-69	-70	15	-0.6730931	0.01296628	-8.932392	0	12.14	4002	0	0	0	0	0.9874972	0.008829137	1
57909	-77	-60	12	-0.6782031	0.02322381	-8.948711	0	12.14	4002	0	0	0	0	0.9874972	0.004153507	1
58001	-63	-63	9	-0.6882896	0.0131128	-8.964788	0	12.14	4004	0	0	0	0	0.9874972	-0.006482823	1
58060	-70	-67	14	-0.6613304	0.004662616	-8.973105	0	12.14	4003	0	0	0	0	0.9874972	-0.01339454	1
58142	-64	-60	11	-0.6566146	0.02829561	-8.983683	0	12.14	4002	0	0	0	0	0.9874972	-0.01920761	1
58257	-59	-59	8	-0.6848735	0.02268939	-9.003614	0	12.14	4002	0	0	0	0	0.9874972	-0.03094556	1
58352	-53	-67	12	-0.681945	0.02165167	-9.01841	0	12.14	4009	0	0	0	0	0.9874972	-0.03917688	1
58427	-78	-60	9	-0.6936522	0.02577254	-9.026906	0	12.14	4003	0	0	0	0	0.9874972	-0.03947565	1
58565	-69	-61	7	-0.7001925	0.00932011	-9.04384	0	12.14	4003	0	0	0	0	0.9874972	-0.03903285	1
58688	-71	-59	13	-0.6919629	0.02859329	-9.06542	0	12.25	4003	0	0	0	0	0.9874972	-0.04110727	1
58731	-70	-67	10	-0.687982	0.02200177	-9.070312	0	12.25	4004	0	0	0	0	0.9874972	-0.04195748	1
58803	-50	-62	9	-0.6886573	0.01937835	-9.079114	0	12.25	4002	0	0	0	0	0.9874972	-0.0434206	1
58984	-66	-62	11	-0.6606011	0.04097291	-9.100816	0	12.25	4003	0	0	0	0	0.9874972	-0.0434412	1
59122	-70	-61	5	-0.6570954	0.03032212	-9.121782	0	12.25	4002	0	0	0	0	0.9874972	-0.04816254	1
59273	-56	-61	5	-0.6796885	0.03206047	-9.14697	0	12.25	4003	0	0	0	0	0.9874972	-0.05948157	1
59309	-73	-62	11	-0.6707708	0.02653704	-9.152226	0	12.25	4002	0	0	0	0	0.9874972	-0.05948157	1
59423	-59	-60	10	-0.653498	0.03019554	-9.175277	0	12.25	4002	0	0	0	0	0.9874972	-0.07064354	1
59523	-47	-52	10	-0.6678191	0.03135407	-9.188177	0	12.25	4004	0	0	0	0	0.9874972	-0.08064524	1
59606	-53	-55	7	-0.6718788	0.04276823	-9.197469	0	12.19	4004	0	0	0	0	0.9874972	-0.09223168	1
59709	-56	-62	8	-0.6752942	0.03742016	-9.209026	0	12.19	4004	0	0	0	0	0.9874972	-0.099839	1
59811	-49	-67	10	-0.6839753	0.02578115	-9.223823	0	12.19	4004	0	0	0	0	0.9874972	-0.09959695	1
59947	-60	-52	7	-0.664049	0.02698496	-9.243814	0	12.19	4003	0	0	0	0	0.9874972	-0.103147	1
60003	-66	-52	10	-0.6641685	0.01678057	-9.252802	0	12.19	4003	0	0	0	0	0.9874972	-0.1034204	1
60155	-55	-61	1	-0.6764364	0.01308701	-9.27261	0	12.19	4002	0	0	0	0	0.9874972	-0.09567455	1
60208	-75	-56	10	-0.665232	0.004655482	-9.282022	0	12.19	4003	0	0	0	0	0.9874972	-0.09258831	1
60337	-66	-60	6	-0.6758696	0.005250261	-9.299388	0	12.19	4004	0	0	0	0	0.9874972	-0.08857816	1
60446	-51	-60	9	-0.6561614	0.0108305	-9.313694	0	12.19	4004	0	0	0	0	0.9874972	-0.08376356	1
60515	-71	-58	11	-0.6564203	0.01106684	-9.324087	0	12.19	4003	0	0	0	0	0.9874972	-0.08157667	1
60607	-52	-61	6	-0.6763944	0.00120444	-9.338456	0	12.19	4003	0	0	0	0	0.9874972	-0.08099523	1
60821	-77	-60	8	-0.6598533	0.01299029	-9.364376	0	12.19	4003	0	0	0	0	0.9874972	-0.0833264	1
60939	-48	-60	4	-0.6595355	0.01128106	-9.38302	0	12.19	4002	0	0	0	0	0.9874972	-0.07262582	1
61028	-48	-55	9	-0.6377559	0.01714	-9.393291	0	12.19	4003	0	0	0	0	0.9874972	-0.05984234	1
61146	-63	-52	8	-0.6298772	0.01497478	-9.414383	0	12.19	4003	0	0	0	0	0.9874972	-0.04989284	1
61215	-41	-55	7	-0.6360865	0.01644972	-9.422758	0	12.19	4003	0	0	0	0	0.9874972	-0.04791695	1
61393	-64	-56	7	-0.6344098	0.007940139	-9.444644	0	12.19	4004	0	0	0	0	0.9874972	-0.03740021	1
61427	-64	-56	7	-0.6344098	0.007940139	-9.444644	0	12.19	4004	0	0	0	0	0.9874972	-0.03740021	1
61550	-69	-61	7	-0.642842	0.01341913	-9.46256	0	12.19	4002	0	0	0	0	0.9874972	-0.03658804	1
61719	-57	-57	8	-0.6526034	9.617467E-05	-9.48457	0	12.19	4004	0	0	0	0	0.9874972	-0.04462077	1
61746	-55	-58	9	-0.638526	0.004566604	-9.489217	0	12.19	4004	0	0	0	0	0.9874972	-0.04663956	1
61945	-51	-52	7	-0.6485488	-0.02153875	-9.514709	0	12.19	4003	0	0	0	0	0.9874972	-0.04193686	1
62124	-67	-46	10	-0.6477786	-0.01254902	-9.535861	0	12.19	4003	0	0	0	0	0.9874972	-0.0325804	1
62183	-72	-51	7	-0.650178	-0.00985973	-9.543624	0	12.19	4003	0	0	0	0	0.9874972	-0.0297493	1
62267	-60	-50	8	-0.6511645	-0.01472992	-9.55897	0	12.19	4003	0	0	0	0	0.9874972	-0.02452154	1
