time(ms)	gyro_x(deg/s)	gyro_y(deg/s)	gyro_z(deg/s)	orientation_roll(deg)	orientation_pitch(deg)	orientation_yaw(deg)	throttle	battery(V)	loop_time(uS)	pid_output_roll	pid_output_pitch	pid_output_yaw	pid_output_throttle	ultrasonic_alt	baro_alt	flight_mode
489256	-237	-787	247	-1.506978	-9.787327	1.770704	0	10.83	4003	71	-188	44	-11	0.5040072	0.4098115	4
489286	-586	-731	204	-0.9799317	-9.538951	1.645564	0	10.83	4004	-45	154	45	-11	0.4771305	0.3971853	4
489357	1978	642	363	2.350579	-6.900671	1.958088	0	10.83	4003	-155	179	27	-11	0.4553604	0.3902159	4
489488	3185	1689	-497	3.032084	-9.367343	3.343656	0	10.83	4002	-172	85	-11	-10	0.396653	0.3735957	4
489577	-11	-621	-163	2.845752	-9.842698	3.672113	0	10.83	4002	-4	-151	-5	-10	0.3422362	0.3603567	4
489690	1998	1959	10	4.141967	-9.811121	3.643686	0	10.72	4002	-122	-110	-3	-9	0.2649204	0.3499264	4
489821	-2092	-427	573	3.136381	-12.03396	2.984872	0	10.72	4002	-24	-107	12	-8	0.2148745	0.3414487	4
489895	311	-1595	-714	1.994159	-9.343905	2.669705	0	10.72	4004	-42	195	14	-8	0.2093053	0.3394047	4
490071	-382	-1006	-790	2.312582	-8.969525	3.145705	0	10.72	4004	-58	25	14	-7	0.1973798	0.3356744	4
490091	-382	-1006	-790	2.312582	-8.969525	3.145705	0	10.72	4004	32	-120	-14	-6	0.202132	0.3348035	4
490184	-1582	-77	-233	2.150875	-7.421921	3.447649	0	10.72	4003	-30	137	-8	-6	0.1972243	0.3313555	4
490287	-897	44	-73	1.863033	-7.944472	3.43562	0	10.72	4004	144	-44	7	-6	0.233198	0.3254817	4
490388	-1237	188	819	1.301366	-8.918729	2.641423	0	10.72	4003	116	-20	25	-5	0.2780885	0.3225702	4
490563	1225	-468	-1260	2.21694	-7.205174	3.308876	0	10.72	4003	96	-116	-14	-5	0.3552689	0.3396224	4
490672	-42	-1762	502	3.094826	-7.479094	3.584156	0	10.83	4002	107	-136	-6	-5	0.4284323	0.3513647	4
490760	318	1167	-245	2.170833	-8.512839	3.698069	0	10.83	4004	96	30	-14	-6	0.4752848	0.3614649	4
490811	-712	1470	949	2.983172	-8.570582	3.484465	0	10.83	4003	-77	-41	-5	-6	0.5149296	0.3725549	4
490930	547	-406	-14	1.211828	-8.416372	3.107019	0	10.83	4004	-48	78	3	-6	0.5685524	0.3988109	4
491091	-267	-962	-665	-0.1064996	-7.094059	3.202744	0	10.83	4003	-53	60	7	-6	0.5605359	0.4464241	4
491184	-113	-742	-66	-1.135154	-5.550715	3.033133	0	10.83	4004	18	4	8	-7	0.5657764	0.4577072	4
491284	854	-129	74	0.1479291	-2.542148	2.69044	0	10.83	4002	-37	161	16	-7	0.5765694	0.4848476	4
491335	482	881	-1029	1.519811	-4.841857	2.82442	0	10.83	4003	15	-132	2	-7	0.5717688	0.4921784	4
491389	-1451	2263	510	0.5911742	-7.392784	3.155649	0	10.83	4004	6	-130	4	-7	0.5627365	0.5011014	4
491511	1584	-87	-442	0.8198949	-8.004824	3.787236	0	10.83	4003	1	-62	-18	-7	0.5378333	0.5108922	4
491654	892	398	-637	-0.1547436	-7.79319	3.721268	0	10.6	4002	-46	-120	-13	-6	0.4502762	0.5153185	4
491743	138	-1102	-23	0.9390387	-7.573194	3.240896	0	10.6	4003	24	-93	0	-6	0.4102775	0.5134734	4
491901	-1241	1689	-1602	0.1646049	-7.684247	2.962626	0	10.6	4002	-57	-32	-2	-5	0.3203104	0.4983839	4
491977	226	2718	1153	0.3525349	-18.76054	2.556302	0	10.6	4003	-58	7	52	-4	0.2447173	0.4862564	4
492035	554	-3923	490	0.4336504	-15.70837	1.33926	0	10.6	4002	-122	-251	54	-4	0.2348916	0.4797553	4
492192	-791	-264	-616	2.593809	-5.784994	1.976682	0	10.6	4003	-146	-108	26	-3	0.1976559	0.4594412	4
492291	-669	-1461	-522	1.48213	-5.517795	3.246262	0	10.6	4003	-4	184	-4	-2	0.2147354	0.4458118	4
492395	-662	-1664	-723	-1.181815	-4.526809	3.758907	0	10.6	4003	-127	-37	-19	-2	0.2681787	0.4312886	4
492493	-195	-1142	-672	-0.2344165	-4.849673	4.307391	0	9.81	4003	46	-208	-27	-2	0.3331656	0.4287305	4
492651	-524	-1552	62	1.232154	-4.732468	4.596633	0	9.81	4003	0	-36	4	-2	0.4122405	0.4289679	4
492755	825	1266	46	0.2808242	-6.059725	2.813991	0	9.81	4003	-86	195	13	-3	0.4761764	0.4251213	4
492809	-467	725	-356	-0.284339	-6.280067	2.569869	0	9.81	4002	-7	68	26	-3	0.5246453	0.4231325	4
492902	-84	-53	-1327	-1.510354	-7.8024	2.927639	0	9.81	4004	-35	-136	-6	-3	0.6007201	0.4243402	4
493049	-957	-382	1177	-2.055209	-6.165805	3.351552	0	9.81	4002	41	83	13	-4	0.6688202	0.4446382	4
493115	-90	-59	371	-2.098838	-4.7989	2.762237	0	9.81	4004	-73	73	14	-4	0.7120514	0.4582623	4
493253	928	1425	-1294	-0.2482424	-7.631252	2.432374	0	9.81	4003	-69	11	10	-5	0.759183	0.484094	4
493373	389	170	-1165	-1.41264	-8.487812	3.485199	0	9.81	4003	-7	50	-20	-6	0.7162573	0.5178053	4
493407	444	3162	-395	-0.4266533	-12.20751	3.975771	0	10.04	4003	55	-131	-18	-6	0.7260255	0.5221959	4
493547	-1079	-410	83	0.07487435	-11.13839	3.848025	0	10.04	4003	12	11	-15	-7	0.7555153	0.5295756	4
493678	265	606	405	1.012464	-7.116107	3.260048	0	10.04	4002	12	-10	2	-7	0.733888	0.5295326	4
493737	-952	421	418	-0.8201813	-5.830372	2.847789	0	10.04	4003	24	-18	16	-7	0.7145576	0.5279603	4
493813	639	-494	-164	-1.180808	-7.066287	2.888689	0	10.04	4002	29	-165	17	-8	0.6655703	0.5227287	4
493931	1118	1074	-834	-0.2811539	-6.259376	3.562734	0	10.04	4002	-192	105	-16	-7	0.5715526	0.4969922	4
494040	346	-396	715	0.3635836	-7.945082	4.3908	0	10.04	4003	79	-67	-21	-7	0.4839886	0.4726746	4
494167	-1913	-3836	1844	-1.332061	-2.903301	4.072439	0	10.04	4002	-27	-80	-31	-6	0.4124843	0.4536331	4
494221	-4767	-12784	1985	-3.835766	4.599844	2.590734	0	10.04	4004	-400	-62	25	-6	0.3636103	0.4332764	4
494377	902	3438	-267	1.617253	2.385025	3.310001	0	10.21	4003	-21	115	-5	-5	0.2823615	0.3839291	4
494478	-143	1018	-473	0.8891046	-3.626433	3.963548	0	10.21	4002	-18	-70	-21	-4	0.264262	0.366603	4
494514	-489	83	-21	0.3493295	-4.923601	3.976326	0	10.21	4003	59	47	-6	-4	0.2621202	0.3585794	4
494638	-158	31	282	0.5817857	-5.297374	3.379185	0	10.21	4003	88	-22	11	-4	0.2625368	0.3420404	4
494715	-3	1989	290	1.957081	-6.057435	3.293404	0	10.21	4003	-2	93	0	-3	0.2739798	0.3425389	4
494829	707	-692	-152	1.102832	-6.576583	3.216875	0	10.21	4004	27	-71	-3	0	0.3492634	0.35568	3
495043	-81	5	633	2.178547	-5.530814	3.970705	0	10.21	4003	72	-51	-3	0	0.4165614	0.3695516	3
495178	-491	-170	-116	-0.6206543	-3.719935	3.637499	0	10.21	4002	101	-28	-6	0	0.4428111	0.3771903	3
495289	-332	545	-588	-1.535992	-7.586756	3.83297	0	9.92	4004	-29	-45	-22	0	0.4563828	0.3852851	3
495423	-508	697	554	3.984541	-9.291478	3.891147	0	9.92	4003	-44	-62	-12	0	0.4689379	0.3987005	3
495474	-751	2756	1418	1.992894	-9.046712	3.490593	0	9.92	4003	46	-293	-11	0	0.473489	0.4000103	3
495524	412	1400	341	2.158804	-8.515874	3.270894	0	9.92	4004	-178	163	1	0	0.4754292	0.4003828	3
495602	511	-447	320	2.025195	-6.400835	3.182105	0	9.92	4002	-16	81	0	0	0.4814343	0.4091767	3
495679	-936	-1561	31	5.49796	-6.167274	3.801697	0	9.92	4003	7	97	-7	0	0.4836111	0.4133963	3
495832	124	-501	-265	-0.5506307	-2.77964	3.543211	0	9.92	4003	-81	-15	-9	0	0.4874113	0.4487171	3
495940	-1442	1740	794	0.1717328	-4.211225	3.176222	0	9.92	4002	-33	30	6	0	0.4892958	0.4799932	3
496029	-395	-1002	60	-0.7425724	-4.782147	3.054423	0	9.92	4002	89	-107	7	0	0.4899789	0.5055389	3
496096	291	413	-501	0.5715886	-3.45869	3.292073	0	9.92	4003	-37	120	-8	0	0.4905322	0.5312853	3
496206	67	-462	-73	-1.071827	-4.457035	3.584602	0	10.38	4004	43	-83	-9	0	0.4911714	0.5670988	3
496291	-901	-1113	-171	-0.6793048	-2.70551	3.639948	0	10.38	4004	6	36	-10	0	0.4916374	0.587219	3
496427	657	361	86	-2.652544	-0.792685	2.99515	0	10.38	4002	-26	1	3	0	0.4920685	0.6265466	3
496477	1509	859	-82	-1.548955	-3.806443	2.904215	0	10.38	4004	58	-190	6	0	0.4921508	0.6391102	3
496592	850	3524	443	-0.5780103	-7.674325	2.93907	0	10.38	4003	-71	49	6	0	0.4924053	0.656904	3
496754	342	2372	619	0.7504392	-13.31789	3.468332	0	10.38	4002	81	55	-2	0	0.4926042	0.6790074	3
496811	1041	1770	-425	0.6537119	-12.96016	3.421134	0	10.38	4002	-63	92	-8	0	0.4926587	0.6905541	3
496927	-485	-233	495	0.1887212	-12.53819	3.218999	0	10.38	4003	78	15	2	0	0.4927386	0.7061465	3
497017	-664	2022	109	-1.26995	-9.172685	3.383417	0	10.38	4004	-47	121	-1	0	0.4927675	0.7057889	3
497114	-1190	2081	-210	-0.8905244	-8.982696	3.26927	0	9.92	4003	-17	84	-1	0	0.492801	0.697859	3
497248	950	424	676	0.9973527	-10.01046	3.604998	0	9.92	4002	73	-53	3	0	0.4928319	0.6796633	3
497332	293	-2116	337	1.317425	-8.61652	3.905073	0	9.92	4002	31	-90	-12	0	0.4928479	0.6666058	3
497474	-810	-5586	690	0.0758023	0.7176581	4.053917	0	9.92	4003	30	-139	-16	0	0.4928627	0.6528349	3
497561	-195	-2179	945	0.5459899	2.606842	3.745522	0	9.92	4002	48	34	1	0	0.4928704	0.6420966	3
497742	-646	133	-6	-1.915991	-0.620285	3.318711	0	9.92	4002	0	0	0	0	0.4928788	0.6337097	3
497844	-840	12147	-949	-4.964876	-8.813909	3.959484	0	9.92	4003	0	0	0	0	0.492883	0.6038151	3
497908	-1812	12507	-483	-6.415245	-13.62196	4.587481	0	9.92	4002	0	0	0	0	0.4928845	0.5714687	3
498017	4294	789	-5831	-2.688112	-27.54045	9.567958	0	10.89	4004	0	0	0	0	0.4928863	0.5203011	3
498113	-714	-11210	-498	-3.450222	-22.94749	13.2343	0	10.89	4004	0	0	0	0	0.4928876	0.4707167	3
498173	-31	-21632	-1281	-2.607819	-9.420037	14.12401	0	10.89	4004	0	0	0	0	0.4928882	0.4389271	3
498314	157	-77	-355	-2.981251	1.647056	12.46708	0	10.89	4004	0	0	0	0	0.4928892	0.378902	3
498400	-44	-68	24	-2.263096	1.304367	12.45498	0	10.89	4004	0	0	0	0	0.4928897	0.3423938	3
498454	-39	-36	-24	-1.746013	0.9805151	12.45125	0	10.89	4004	0	0	0	0	0.4928898	0.3343318	3
498556	-46	-50	-20	-1.263826	0.6644083	12.43467	0	10.89	4002	0	0	0	0	0.4928901	0.3008443	3
498719	-40	-36	-5	-0.8042612	0.379835	12.41554	0	10.89	4002	0	0	0	0	0.4928905	0.2733078	3
498778	-40	-22	-4	-0.7496119	0.3512025	12.40882	0	10.89	4004	0	0	0	0	0.4928906	0.2687407	3
498869	-50	-42	37	-0.6304541	0.2427258	12.39561	0	11.06	4003	0	0	0	0	0.4928907	0.2642437	1
498961	-22	-45	-25	-0.556495	0.1742082	12.38858	0	11.06	4004	0	0	0	0	0.4928908	0.2660718	1
499089	-64	-45	-16	-0.5048207	0.1453772	12.36823	0	11.06	4004	0	0	0	0	0.4928908	0.2597698	1
499156	-58	-37	30	-0.5105231	0.1286015	12.36101	0	11.06	4002	0	0	0	0	0.4928908	0.2545355	1
499300	-61	-38	-1	-0.4274466	0.09241123	12.34304	0	11.06	4003	0	0	0	0	0.4928908	0.2338518	1
499366	-47	-36	-13	-0.4432202	0.1025592	12.33839	0	11.06	4002	0	0	0	0	0.4928908	0.2264458	1
499480	-44	-36	10	-0.4262236	0.1052755	12.32079	0	11.06	4002	0	0	0	0	0.4928908	0.2164196	1
499568	-35	-35	8	-0.4050362	0.1151752	12.31314	0	11.06	4002	0	0	0	0	0.4928908	0.2011597	1
499705	-47	-41	1	-0.4230804	0.1031004	12.29872	0	11.06	4004	0	0	0	0	0.4928908	0.1929917	1
499786	-44	-44	5	-0.4210176	0.09808028	12.28979	0	11	4002	0	0	0	0	0.4928908	0.1948589	1
499901	-44	-44	7	-0.4102407	0.1045426	12.27977	0	11	4002	0	0	0	0	0.4928908	0.1980428	1
500008	-35	-43	0	-0.4121698	0.1024549	12.27054	0	11	4003	0	0	0	0	0.4928908	0.1998037	1
500087	-32	-45	8	-0.4089067	0.1129603	12.261	0	11	4002	0	0	0	0	0.4928908	0.1966408	1
500175	-40	-41	5	-0.4045041	0.1121254	12.25446	0	11	4003	0	0	0	0	0.4928908	0.1943974	1
500293	-34	-40	2	-0.4290585	0.09876966	12.23979	0	11	4003	0	0	0	0	0.4928908	0.2039028	1
500389	-37	-33	10	-0.4216242	0.09766158	12.23049	0	11	4003	0	0	0	0	0.4928908	0.2098648	1
500489	-40	-42	7	-0.4231432	0.1032192	12.21784	0	11	4003	0	0	0	0	0.4928908	0.2112985	1
500583	-35	-42	1	-0.4154242	0.08833798	12.20439	0	11	4002	0	0	0	0	0.4928908	0.2097542	1
500681	-39	-37	5	-0.4305632	0.08924179	12.19583	0	11	4002	0	0	0	0	0.4928908	0.2095205	1
500866	-27	-35	5	-0.4193243	0.09354513	12.18	0	11	4003	0	0	0	0	0.4928908	0.2124644	1
500936	-45	-39	4	-0.4119975	0.09934407	12.16881	0	11	4003	0	0	0	0	0.4928908	0.2075183	1
501060	-31	-39	3	-0.4116616	0.09328464	12.16013	0	11	4003	0	0	0	0	0.4928908	0.2011599	1
501149	-41	-38	5	-0.4087514	0.0911792	12.15157	0	11	4003	0	0	0	0	0.4928908	0.1943517	1
501224	-41	-30	8	-0.4323464	0.1071057	12.1421	0	11	4003	0	0	0	0	0.4928908	0.1879987	1
501407	-47	-34	9	-0.4065202	0.07923527	12.1292	0	11	4002	0	0	0	0	0.4928908	0.1787286	1
501481	-38	-34	5	-0.4279914	0.07539862	12.12449	0	11	4003	0	0	0	0	0.4928908	0.1780961	1
501563	-20	-33	6	-0.4273348	0.07991413	12.11557	0	11	4004	0	0	0	0	0.4928908	0.1798492	1
501726	-32	-38	3	-0.417335	0.07020495	12.10365	0	11	4003	0	0	0	0	0.4928908	0.200184	1
501834	-39	-35	4	-0.3952117	0.07477763	12.09075	0	11	4003	0	0	0	0	0.4928908	0.2108279	1
501911	-41	-33	6	-0.3876114	0.04965441	12.08543	0	11	4004	0	0	0	0	0.4928908	0.2130015	1
502028	-49	-32	8	-0.4191298	0.05897088	12.0732	0	11	4004	0	0	0	0	0.4928908	0.2185222	1
502096	-31	-38	-2	-0.4116085	0.07350846	12.06832	0	11	4004	0	0	0	0	0.4928908	0.2189999	1
502244	-42	-43	4	-0.389439	0.06517425	12.05377	0	11	4002	0	0	0	0	0.4928908	0.2128253	1
502285	-28	-31	11	-0.3898005	0.0815429	12.04992	0	11	4003	0	0	0	0	0.4928908	0.2124623	1
502438	-33	-29	7	-0.3779913	0.09364099	12.03732	0	11	4003	0	0	0	0	0.4928908	0.2167425	1
502490	-35	-36	6	-0.389199	0.07973325	12.02693	0	11.06	4003	0	0	0	0	0.4928908	0.2168577	1
502556	-44	-36	6	-0.3857943	0.08040258	12.02002	0	11.06	4003	0	0	0	0	0.4928908	0.217442	1
502634	-35	-32	4	-0.3980095	0.08675545	12.0103	0	11.06	4003	0	0	0	0	0.4928908	0.216667	1
502806	-37	-31	6	-0.3933753	0.08469671	11.99795	0	11.06	4004	0	0	0	0	0.4928908	0.204081	1
502877	-28	-35	2	-0.3865573	0.07687861	11.99392	0	11.06	4003	0	0	0	0	0.4928908	0.2061962	1
503040	-36	-44	1	-0.3835338	0.08026779	11.98065	0	11.06	4002	0	0	0	0	0.4928908	0.2087772	1
503140	-14	-32	4	-0.3900562	0.06938882	11.97729	0	11.06	4002	0	0	0	0	0.4928908	0.2141553	1
503207	-39	-36	6	-0.3732775	0.06959961	11.96629	0	11.06	4003	0	0	0	0	0.4928908	0.2163648	1
503329	-40	-35	4	-0.3936397	0.06982321	11.95901	0	11.06	4003	0	0	0	0	0.4928908	0.2158498	1
503416	-35	-37	5	-0.3801388	0.06721704	11.95137	0	11.06	4004	0	0	0	0	0.4928908	0.2155952	1
503502	-47	-44	2	-0.3707199	0.07887712	11.94238	0	11.06	4002	0	0	0	0	0.4928908	0.2207142	1
503649	-39	-34	8	-0.3865143	0.07000723	11.93101	0	11.06	4004	0	0	0	0	0.4928908	0.2270524	1
503743	-39	-29	2	-0.3845192	0.07420447	11.92423	0	11.06	4004	0	0	0	0	0.4928908	0.2287007	1
503792	-32	-32	4	-0.389096	0.06945737	11.91928	0	11.06	4004	0	0	0	0	0.4928908	0.2284619	1
503923	-26	-35	2	-0.3829737	0.0792452	11.90822	0	11.06	4004	0	0	0	0	0.4928908	0.2175525	1
504045	-30	-35	3	-0.3920359	0.06676339	11.90113	0	11.06	4003	0	0	0	0	0.4928908	0.1998027	1
504154	-32	-34	0	-0.3945636	0.0836935	11.89349	0	11.06	4002	0	0	0	0	0.4928908	0.1871118	1
504184	-37	-40	1	-0.3722636	0.06417507	11.89031	0	11.06	4002	0	0	0	0	0.4928908	0.1859678	1
504261	-45	-32	6	-0.3807042	0.06697853	11.88335	0	11.06	4003	0	0	0	0	0.4928908	0.1858238	1
504406	-31	-36	5	-0.3819289	0.0767501	11.87357	0	11.06	4002	0	0	0	0	0.4928908	0.1951702	1
504514	-39	-30	5	-0.3672868	0.06555443	11.86544	0	11.06	4004	0	0	0	0	0.4928908	0.2070208	1
504566	-21	-30	7	-0.360189	0.06414487	11.86214	0	11.06	4004	0	0	0	0	0.4928908	0.2156412	1
504675	-37	-38	2	-0.3901498	0.06206779	11.85438	0	11.06	4004	0	0	0	0	0.4928908	0.2233747	1
504767	-38	-28	7	-0.400286	0.04479035	11.85102	0	11.06	4003	0	0	0	0	0.4928908	0.2216772	1
504900	-30	-27	3	-0.4077288	0.06533533	11.8435	0	11.06	4002	0	0	0	0	0.4928908	0.2170104	1
504997	-37	-26	3	-0.3833123	0.05238588	11.83567	0	11.06	4004	0	0	0	0	0.4928908	0.2130863	1
505088	-23	-25	3	-0.384592	0.03988441	11.82901	0	11.06	4003	0	0	0	0	0.4928908	0.2061898	1
505163	-39	-32	2	-0.3859215	0.05761452	11.82443	0	11.06	4003	0	0	0	0	0.4928908	0.1969998	1
505270	-28	-28	0	-0.3769663	0.07302507	11.81905	0	11.11	4003	0	0	0	0	0.4928908	0.1823152	1
505368	-30	-29	-1	-0.3666234	0.05241732	11.81123	0	11.11	4003	0	0	0	0	0.4928908	0.1760333	1
505472	-17	-33	1	-0.3529195	0.05507237	11.80603	0	11.11	4002	0	0	0	0	0.4928908	0.1732561	1
505597	-25	-33	0	-0.3593967	0.04796238	11.79772	0	11.11	4003	0	0	0	0	0.4928908	0.1704284	1
505675	-28	-30	0	-0.3738971	0.03662348	11.79375	0	11.11	4003	0	0	0	0	0.4928908	0.169618	1
505832	-37	-34	4	-0.3680611	0.07691895	11.78244	0	11.11	4004	0	0	0	0	0.4928908	0.1628002	1
505917	-26	-33	3	-0.3878744	0.08243536	11.77872	0	11.11	4002	0	0	0	0	0.4928908	0.1650471	1
506030	-24	-35	5	-0.389589	0.07828403	11.76827	0	11.11	4003	0	0	0	0	0.4928908	0.1853337	1
506082	-37	-30	6	-0.3815435	0.06617398	11.76197	0	11.11	4002	0	0	0	0	0.4928908	0.1895032	1
506185	-38	-29	-2	-0.3897477	0.03816569	11.75519	0	11	4002	0	0	0	0	0.4928908	0.2009577	1
506288	-34	-35	3	-0.4143427	0.02722962	11.75036	0	11	4004	0	0	0	0	0.4928908	0.2029885	1
506409	-34	-21	6	-0.3944579	0.02265464	11.74345	0	11	4004	0	0	0	0	0.4928908	0.1985828	1
506491	-23	-31	7	-0.4044844	0.007378276	11.73593	0	11	4003	0	0	0	0	0.4928908	0.1913014	1
506619	-24	-30	1	-0.4036601	0.03587569	11.72921	0	11	4003	0	0	0	0	0.4928908	0.1806809	1
506753	-39	-29	6	-0.3907036	0.0195836	11.7223	0	11	4002	0	0	0	0	0.4928908	0.1837952	1
506843	-31	-28	7	-0.3911779	0.02584919	11.71558	0	11	4003	0	0	0	0	0.4928908	0.1846087	1
506901	-38	-36	4	-0.3870994	0.04191622	11.70959	0	11	4004	0	0	0	0	0.4928908	0.1829325	1
507049	-33	-33	5	-0.3904647	0.05102498	11.69926	0	11.11	4002	0	0	0	0	0.4928908	0.1774862	1
507129	-24	-36	0	-0.3908208	0.0421568	11.69205	0	11.11	4003	0	0	0	0	0.4928908	0.1763845	1
507185	-33	-38	9	-0.394455	0.0567879	11.6885	0	11.11	4003	0	0	0	0	0.4928908	0.1731112	1
507359	-27	-31	1	-0.3783467	0.01253075	11.67542	0	11.11	4004	0	0	0	0	0.4928908	0.1783265	1
507438	-38	-36	4	-0.3959672	0.01249065	11.66821	0	11.11	4003	0	0	0	0	0.4928908	0.1804044	1
507483	-29	-29	5	-0.371341	0.008186726	11.66283	0	11.11	4004	0	0	0	0	0.4928908	0.1807227	1
507576	-38	-33	1	-0.4020386	0.009029211	11.65819	0	11.11	4003	0	0	0	0	0.4928908	0.1806778	1
507694	-19	-29	8	-0.3440152	-0.01941327	11.64914	0	11.11	4002	0	0	0	0	0.4928908	0.1807691	1
507845	-22	-35	8	-0.3501273	-0.004026901	11.63856	0	11.11	4002	0	0	0	0	0.4928908	0.1732219	1
507932	-39	-26	2	-0.3746999	0.06649597	11.63098	0	11	4004	0	0	0	0	0.4928908	0.1690816	1
508025	-25	-30	0	-0.3766098	0.06979132	11.6264	0	11	4004	0	0	0	0	0.4928908	0.1630606	1
508078	-41	-28	0	-0.3675733	0.07004394	11.62506	0	11	4002	0	0	0	0	0.4928908	0.1613536	1
508210	-22	-29	2	-0.320769	0.08534808	11.61999	0	11	4004	0	0	0	0	0.4928908	0.1566775	1
508369	-25	-31	4	-0.3506256	0.07164225	11.61199	0	11	4003	0	0	0	0	0.4928908	0.1481002	1
508416	-32	-25	5	-0.3532946	0.01787618	11.60759	0	11	4003	0	0	0	0	0.4928908	0.1540096	1
508516	-41	-34	3	-0.3701247	0.02898074	11.6016	0	11	4002	0	0	0	0	0.4928908	0.161414	1
508568	-32	-25	5	-0.3700553	0.0199963	11.59983	0	11	4003	0	0	0	0	0.4928908	0.1654746	1
508675	-18	-18	2	-0.370338	0.03320059	11.59518	0	11	4004	0	0	0	0	0.4928908	0.1669329	1
508769	-17	-23	6	-0.4002077	0.02356686	11.59066	0	11	4004	0	0	0	0	0.4928908	0.1699768	1
508905	-25	-28	0	-0.3297243	0.05974531	11.58137	0	11.06	4002	0	0	0	0	0.4928908	0.1807658	1
508979	-25	-30	6	-0.3784063	0.006430816	11.57721	0	11.06	4003	0	0	0	0	0.4928908	0.1785535	1
509066	-34	-27	8	-0.3724888	0.04738176	11.56994	0	11.06	4002	0	0	0	0	0.4928908	0.1781658	1
509182	-24	-26	5	-0.4070861	0.02011709	11.56157	0	11.06	4003	0	0	0	0	0.4928908	0.1836958	1
509287	-34	-22	2	-0.3809087	0.05538325	11.5582	0	11.06	4003	0	0	0	0	0.4928908	0.1846642	1
509420	-13	-27	4	-0.3576323	0.07487226	11.54928	0	11.06	4003	0	0	0	0	0.4928908	0.1868626	1
509534	-33	-20	0	-0.318157	0.04062496	11.54537	0	11.06	4004	0	0	0	0	0.4928908	0.1877287	1
509563	-32	-19	1	-0.3340752	0.02842189	11.54482	0	11.06	4004	0	0	0	0	0.4928908	0.185117	1
509644	-23	-21	1	-0.3446909	0.03818693	11.54122	0	11.06	4004	0	0	0	0	0.4928908	0.1827121	1
509865	-36	-26	5	-0.3168975	0.01208569	11.53138	0	11.06	4004	0	0	0	0	0.4928908	0.1657322	1
510002	-33	-26	2	-0.3503718	-0.0200917	11.52527	0	11.06	4003	0	0	0	0	0.4928908	0.1564452	1
510132	-24	-22	1	-0.3602493	-0.01313858	11.518	0	11.06	4003	0	0	0	0	0.4928908	0.146488	1
510160	-27	-15	5	-0.3610844	-0.005908417	11.51733	0	11.06	4003	0	0	0	0	0.4928908	0.142875	1
510313	-22	-20	-1	-0.3474178	-0.00760481	11.50902	0	11.06	4002	0	0	0	0	0.4928908	0.1358365	1
510392	-25	-24	4	-0.3482826	-0.005966377	11.50364	0	11.06	4004	0	0	0	0	0.4928908	0.1339625	1
510524	-21	-27	2	-0.3347434	-0.01294564	11.49949	0	11.06	4003	0	0	0	0	0.4928908	0.1304013	1
510560	-28	-24	9	-0.3377558	-0.01028441	11.49674	0	11.06	4004	0	0	0	0	0.4928908	0.1294165	1
510613	-25	-27	4	-0.340763	-0.01920637	11.49252	0	11.11	4002	0	0	0	0	0.4928908	0.1303219	1
510789	-22	-20	5	-0.3398843	0.002466351	11.48384	0	11.11	4002	0	0	0	0	0.4928908	0.1406665	1
510872	-30	-23	9	-0.3487855	0.004454021	11.47669	0	11.11	4004	0	0	0	0	0.4928908	0.1486272	1
510975	-29	-31	0	-0.3505149	-0.0228703	11.47156	0	11.11	4003	0	0	0	0	0.4928908	0.1663191	1
511108	-29	-25	-3	-0.3607125	0.007390117	11.46856	0	11.11	4004	0	0	0	0	0.4928908	0.1747937	1
511230	-19	-33	-1	-0.3512001	0.01141396	11.46459	0	11.11	4004	0	0	0	0	0.4928908	0.1685991	1
511333	-25	-24	1	-0.36274	0.01615331	11.46191	0	11.11	4004	0	0	0	0	0.4928908	0.1644243	1
511460	-15	-18	-2	-0.3616753	0.01386095	11.45525	0	11.11	4004	0	0	0	0	0.4928908	0.1561426	1
511496	-19	-23	0	-0.3470073	0.01197405	11.45311	0	11	4003	0	0	0	0	0.4928908	0.1549699	1
511574	-29	-21	0	-0.3219282	0.01296803	11.45183	0	11	4003	0	0	0	0	0.4928908	0.1521096	1
511700	-22	-22	-4	-0.3392432	0.02089632	11.444	0	11	4004	0	0	0	0	0.4928908	0.1508133	1
511784	-22	-24	2	-0.325599	0.004637705	11.44248	0	11	4004	0	0	0	0	0.4928908	0.1539651	1
511875	-25	-29	0	-0.3251616	0.01648153	11.43746	0	11	4002	0	0	0	0	0.4928908	0.1559017	1
511989	-15	-20	1	-0.329983	0.02093698	11.43141	0	11	4002	0	0	0	0	0.4928908	0.1672198	1
512134	-22	-21	11	-0.3258501	0.005974039	11.42634	0	11	4003	0	0	0	0	0.4928908	0.1834401	1
512230	-10	-20	4	-0.3357665	0.01460497	11.4231	0	11	4004	0	0	0	0	0.4928908	0.1889625	1
512266	-23	-16	1	-0.3201357	0.008730754	11.42121	0	11	4002	0	0	0	0	0.4928908	0.1932716	1
512371	-26	-13	2	-0.3243093	0.0005805672	11.41724	0	11	4003	0	0	0	0	0.4928908	0.1979411	1
512501	-22	-22	0	-0.3253577	-0.008865363	11.41266	0	11.06	4004	0	0	0	0	0.4928908	0.2057929	1
512572	-22	-20	1	-0.314588	-0.009181474	11.41119	0	11.06	4002	0	0	0	0	0.4928908	0.2080753	1
512718	-26	-28	3	-0.3237759	4.807017E-05	11.40649	0	11.06	4002	0	0	0	0	0.4928908	0.2153343	1
512816	-8	-26	0	-0.3131831	0.01482056	11.4038	0	11.06	4002	0	0	0	0	0.4928908	0.2086378	1
512895	-21	-23	5	-0.3094021	0.0220002	11.39824	0	11.06	4002	0	0	0	0	0.4928908	0.1991208	1
512999	-26	-23	0	-0.3385812	0.003597727	11.39561	0	11.06	4004	0	0	0	0	0.4928908	0.1898505	1
513078	-20	-25	0	-0.3214475	0.01739102	11.3939	0	11.06	4002	0	0	0	0	0.4928908	0.1825618	1
513195	-25	-18	4	-0.3258336	0.02737687	11.39152	0	11.06	4004	0	0	0	0	0.4928908	0.1658638	1
513297	-11	-18	4	-0.3372969	0.01476924	11.38828	0	11.06	4003	0	0	0	0	0.4928908	0.1546029	1
513428	-25	-17	6	-0.3116695	0.02096683	11.38529	0	11.06	4003	0	0	0	0	0.4928908	0.1411328	1
513488	-15	-19	4	-0.2962467	0.001216585	11.38273	0	11.06	4003	0	0	0	0	0.4928908	0.1390301	1
513612	-24	-22	0	-0.3123238	0.01440722	11.37937	0	11.06	4003	0	0	0	0	0.4928908	0.13541	1
513709	-30	-20	4	-0.313934	0.009613495	11.37876	0	11.06	4003	0	0	0	0	0.4928908	0.1316617	1
513888	-15	-15	1	-0.312126	-0.009303732	11.37424	0	11.06	4002	0	0	0	0	0.4928908	0.1272194	1
513967	-8	-22	1	-0.3060817	-0.01122363	11.37246	0	11.06	4003	0	0	0	0	0.4928908	0.1266377	1
514048	-17	-18	-3	-0.3167182	-0.005330558	11.37222	0	11.06	4004	0	0	0	0	0.4928908	0.1239551	1
514129	-13	-17	0	-0.304666	-0.01231899	11.37326	0	11.06	4004	0	0	0	0	0.4928908	0.1248085	1
514177	-20	-21	0	-0.2983763	-0.008091348	11.3743	0	11.06	4004	0	0	0	0	0.4928908	0.1288729	1
514265	-20	-15	6	-0.3099264	-0.0155301	11.37301	0	11.11	4003	0	0	0	0	0.4928908	0.1297505	1
514443	-27	-21	-1	-0.2999244	-0.006519612	11.36329	0	11.11	4003	0	0	0	0	0.4928908	0.1355331	1
514487	-26	-20	3	-0.3136879	0.007831307	11.35967	0	11.11	4003	0	0	0	0	0.4928908	0.1355331	1
514623	-6	-18	0	-0.3145174	-0.006007228	11.35631	0	11.11	4003	0	0	0	0	0.4928908	0.1509934	1
514687	-9	-15	-2	-0.3082211	-0.003640583	11.35613	0	11.11	4003	0	0	0	0	0.4928908	0.1565071	1
514748	-15	-25	0	-0.2966377	0.004139363	11.35558	0	11.11	4002	0	0	0	0	0.4928908	0.1605435	1
514899	-19	-18	-2	-0.3078291	0.006207425	11.35057	0	11.11	4003	0	0	0	0	0.4928908	0.1709338	1
514964	-15	-19	-3	-0.30233	-0.0135421	11.34923	0	11.11	4003	0	0	0	0	0.4928908	0.180999	1
515109	-18	-22	0	-0.3025152	-0.01627465	11.34507	0	11.11	4003	0	0	0	0	0.4928908	0.1893726	1
515160	-26	-28	0	-0.3008269	-0.01732537	11.34483	0	11.06	4004	0	0	0	0	0.4928908	0.1997957	1
515292	-13	-11	3	-0.2797238	-0.01424866	11.34037	0	11.06	4002	0	0	0	0	0.4928908	0.2041614	1
515367	-25	-13	3	-0.3029047	-0.004208018	11.33805	0	11.06	4002	0	0	0	0	0.4928908	0.2034164	1
515471	-20	-22	-4	-0.3098542	-0.01274855	11.33756	0	11.06	4003	0	0	0	0	0.4928908	0.1905375	1
515564	-29	-20	2	-0.3077044	-0.02181732	11.33439	0	11.06	4002	0	0	0	0	0.4928908	0.1731136	1
515665	-21	-12	4	-0.3314979	-0.00580571	11.33072	0	11.06	4003	0	0	0	0	0.4928908	0.1667539	1
515753	-20	-17	0	-0.3311285	-0.01141403	11.32693	0	11.06	4003	0	0	0	0	0.4928908	0.1505743	1
515862	-18	-15	4	-0.3286303	-0.02541077	11.32479	0	11.06	4004	0	0	0	0	0.4928908	0.1368431	1
515948	-17	-15	2	-0.3282469	-0.02604023	11.32296	0	11.06	4002	0	0	0	0	0.4928908	0.1288506	1
516092	-14	-22	3	-0.3017403	-0.03888175	11.31899	0	11.06	4003	0	0	0	0	0.4928908	0.1220596	1
516154	-23	-18	7	-0.3082775	-0.03678555	11.31612	0	11.06	4003	0	0	0	0	0.4928908	0.1181913	1
516257	-17	-7	4	-0.3309067	-0.03041894	11.31276	0	11.06	4004	0	0	0	0	0.4928908	0.1125821	1
516354	-17	-17	2	-0.3171958	-0.0285419	11.31031	0	11.06	4003	0	0	0	0	0.4928908	0.1020784	1
516496	-7	-15	0	-0.3083189	-0.005976536	11.30322	0	11.06	4004	0	0	0	0	0.4928908	0.09761953	3
516550	-7	-15	1	-0.3040091	-0.007641836	11.30084	0	11.06	4004	0	0	0	0	0.4928908	0.1010007	3
516653	-27	-17	1	-0.3134734	-0.008022615	11.29827	0	11.06	4004	0	0	0	0	0.4928908	0.104884	3
516782	-10	-16	5	-0.3174038	-0.01849091	11.29173	0	11.06	4004	0	0	0	0	0.4928908	0.112276	3
516858	-13	-14	4	-0.317799	-0.002489579	11.2885	0	11.06	4004	0	0	0	0	0.4928908	0.1196876	3
516956	-12	-12	9	-0.315767	-0.0170917	11.28538	0	11.06	4003	0	0	0	0	0.4928908	0.1251855	3
517096	-5	-20	1	-0.3176054	-0.03602305	11.27823	0	11.06	4004	1	0	0	0	0.4928908	0.1214976	3
517171	-19	-16	1	-0.2825454	-0.04241319	11.27432	0	11.06	4003	0	0	0	0	0.4928908	0.1215965	3
517270	-17	-20	-253	-0.287216	-0.04806498	11.2751	0	11.06	4002	4	6	4	0	0.4928908	0.126007	3
517363	-33	-36	27	-0.2880653	-0.02362735	11.26012	0	11.06	4003	4	-3	0	0	0.4928908	0.124769	3
517471	64	-10	-32	-0.346594	0.03821266	11.24893	0	11.06	4004	-8	6	0	0	0.4928908	0.1204311	3
517571	14	-60	-117	-0.3894666	-0.1088353	11.25045	0	11.06	4004	-1	8	1	0	0.4928908	0.1241505	3
517675	-31	-128	-140	-0.3306317	-0.0359024	11.23522	0	11.06	4004	2	10	1	0	0.4928908	0.1379901	3
517795	-187	-16	221	-0.2627903	-0.1558847	11.2085	0	11.06	4003	38	-4	2	0	0.4928908	0.1510286	3
517940	208	-44	43	-0.2426122	-0.06038831	11.21682	0	10.94	4004	-21	-1	0	0	0.4928908	0.1645412	3
518080	67	-55	14	-0.1232098	-0.125663	11.21699	0	10.94	4004	-17	-19	0	0	0.4928908	0.1839388	3
518264	156	-44	166	-0.3172044	0.008886556	11.21625	0	10.94	4004	22	-7	3	0	0.4928908	0.1914126	3
518341	-65	-198	116	-0.217873	-0.1562315	11.22047	0	10.94	4004	-11	37	0	0	0.4928908	0.2083275	3
518438	69	-59	-97	-0.2594252	-0.03276309	11.22573	0	10.94	4003	35	10	0	0	0.4928908	0.223492	3
518524	-29	67	-227	-0.3276824	-0.02819002	11.22414	0	10.94	4003	-20	25	0	0	0.4928908	0.2384002	3
518564	84	5	200	-0.3737422	0.1603739	11.23069	0	10.94	4003	-41	-35	0	0	0.4928908	0.2407375	3
518699	0	3	362	-0.348878	-0.04915274	11.17488	0	10.94	4004	-20	-24	-6	0	0.4928908	0.2548135	3
518763	170	128	-375	-0.2910429	-0.1653176	11.21053	0	10.94	4003	-7	-35	1	0	0.4928908	0.2656473	3
518928	-6	-783	-132	-0.1454812	-0.549965	11.09182	0	10.83	4003	-49	6	-10	0	0.4928908	0.2827028	3
518970	470	-1498	-405	-0.348171	-0.5866544	11.07612	0	10.83	4003	8	-63	11	0	0.4928908	0.2848221	3
519174	850	974	689	2.714195	-3.262062	9.481032	0	10.83	4003	-73	-127	16	0	0.4928908	0.3034559	3
519314	-1295	1556	-808	2.802415	-7.634968	9.471355	0	10.83	4003	30	-91	9	0	0.4928908	0.3219573	3
519374	-2685	2707	518	1.935201	-9.061391	9.266424	0	10.83	4002	-47	-16	24	0	0.4928908	0.3335663	3
519471	-159	1629	333	-0.2853608	-11.95692	9.060078	0	10.83	4003	-21	-146	7	0	0.4928908	0.3491243	3
519570	-905	-1946	189	0.4419489	-9.462378	9.381976	0	10.83	4002	46	-120	-39	0	0.4928908	0.3627213	3
519670	-1479	-3490	640	-0.2975669	-5.909896	8.830962	0	10.83	4004	-6	78	-48	0	0.4928908	0.3776341	3
519782	264	-83	1797	1.325385	-6.825839	5.410359	0	10.04	4004	-72	11	-9	0	0.4928908	0.3979785	3
