time(ms)	gyro_x(deg/s)	gyro_y(deg/s)	gyro_z(deg/s)	orientation_roll(deg)	orientation_pitch(deg)	orientation_yaw(deg)	throttle	battery(V)	loop_time(uS)	pid_output_roll	pid_output_pitch	pid_output_yaw	pid_output_throttle	ultrasonic_alt	baro_alt	flight_mode	p_gain_altitude	i_gain_altitude	d_gain_altitude
62031	-40	0	4	-1.01852	0.4199249	-29.55033	0	11.8	4003	0	0	0	0	0.9343317	0.1743017	1	8	0.001	500
62245	-41	6	4	-1.00779	0.4199321	-29.56261	0	11.8	4002	0	0	0	0	0.9343317	0.175347	1	8	0.001	500
62324	-45	0	6	-1.002827	0.4138551	-29.57899	0	11.8	4004	0	0	0	0	0.9343317	0.1830169	1	8	0.001	500
62379	-41	3	7	-1.001243	0.4096522	-29.58376	0	11.8	4002	0	0	0	0	0.9343317	0.1829612	1	8	0.001	500
62430	-41	2	8	-1.002337	0.4111724	-29.58937	0	11.8	4002	0	0	0	0	0.9343317	0.1881168	1	8	0.001	500
62619	-42	-2	6	-0.9896989	0.4038234	-29.61026	0	11.8	4004	0	0	0	0	0.9343317	0.2017592	1	8	0.001	500
62717	-42	-1	3	-0.9932385	0.4077485	-29.61992	0	11.8	4004	0	0	0	0	0.9343317	0.2053566	1	8	0.001	500
62798	-36	0	6	-0.9918471	0.4097804	-29.62804	0	11.8	4002	0	0	0	0	0.9343317	0.2151868	1	8	0.001	500
62870	-40	-11	5	-0.9871453	0.4095022	-29.63947	0	11.8	4003	0	0	0	0	0.9343317	0.2159811	1	8	0.001	500
63076	-40	4	5	-0.9919054	0.4084595	-29.66073	0	11.8	4003	0	0	0	0	0.9343317	0.2143508	1	8	0.001	500
63139	-43	-1	6	-0.9893516	0.4076871	-29.6658	0	11.8	4004	0	0	0	0	0.9343317	0.21358	1	8	0.001	500
63218	-50	0	8	-0.9945828	0.4071327	-29.67301	0	11.8	4004	0	0	0	0	0.9343317	0.2077398	1	8	0.001	500
63382	-52	0	1	-0.993045	0.4116929	-29.68669	0	11.8	4004	0	0	0	0	0.9343317	0.1889989	1	8	0.001	500
63536	-36	-3	8	-0.987062	0.4128558	-29.70458	0	11.8	4003	0	0	0	0	0.9343317	0.1719235	1	8	0.001	500
63629	-46	2	5	-0.9819036	0.4098029	-29.71295	0	11.8	4003	0	0	0	0	0.9343317	0.1697464	1	8	0.001	500
63776	-46	2	8	-0.9902765	0.4141361	-29.72462	0	11.8	4004	0	0	0	0	0.9343317	0.1699634	1	8	0.001	500
63884	-35	0	8	-0.9900185	0.4126182	-29.73989	0	11.8	4003	0	0	0	0	0.9343317	0.1657874	1	8	0.001	500
63918	-36	0	2	-0.9875064	0.4146816	-29.74276	0	11.8	4003	0	0	0	0	0.9343317	0.16351	1	8	0.001	500
64008	-47	-2	6	-0.9881561	0.4080032	-29.75247	0	11.8	4003	0	0	0	0	0.9343317	0.1611533	1	8	0.001	500
64113	-34	0	4	-0.9893084	0.408424	-29.76041	0	11.8	4003	0	0	0	0	0.9343317	0.161389	1	8	0.001	500
64240	-40	-2	9	-0.9777145	0.4079752	-29.77232	0	11.8	4002	0	0	0	0	0.9343317	0.1585757	1	8	0.001	500
64367	-33	-5	4	-0.9730414	0.409263	-29.78442	0	11.85	4004	0	0	0	0	0.9343317	0.1475365	1	8	0.001	500
64509	-35	4	10	-0.9761382	0.4061023	-29.79651	0	11.85	4003	0	0	0	0	0.9343317	0.1331153	1	8	0.001	500
64555	-40	2	1	-0.9754289	0.4066905	-29.80164	0	11.85	4002	0	0	0	0	0.9343317	0.1279574	1	8	0.001	500
64623	-40	2	1	-0.9754289	0.4066905	-29.80164	0	11.85	4002	0	0	0	0	0.9343317	0.1201273	1	8	0.001	500
64713	-33	5	5	-0.9712768	0.4046415	-29.81458	0	11.85	4004	0	0	0	0	0.9343317	0.1176394	1	8	0.001	500
64821	-40	-1	9	-0.9632221	0.402241	-29.82369	0	11.85	4004	0	0	0	0	0.9343317	0.1187885	1	8	0.001	500
65022	-41	0	8	-0.9535758	0.4056337	-29.84323	0	11.85	4002	0	0	0	0	0.9343317	0.1076094	1	8	0.001	500
65114	-38	2	7	-0.953985	0.4039241	-29.85246	0	11.85	4004	0	0	0	0	0.9343317	0.09764821	1	8	0.001	500
65215	-39	7	8	-0.9552859	0.405156	-29.86333	0	11.8	4003	0	0	0	0	0.9343317	0.08728299	1	8	0.001	500
65376	-40	8	7	-0.9622394	0.4061175	-29.87627	0	11.8	4003	0	0	0	0	0.9343317	0.09067864	1	8	0.001	500
65468	-33	5	4	-0.9570469	0.4021156	-29.88519	0	11.8	4003	0	0	0	0	0.9343317	0.08842539	1	8	0.001	500
65528	-39	-2	12	-0.9526707	0.397563	-29.89289	0	11.8	4003	0	0	0	0	0.9343317	0.08079358	1	8	0.001	500
65633	-30	5	3	-0.95161	0.3954004	-29.90291	0	11.8	4004	0	0	0	0	0.9343317	0.07242882	1	8	0.001	500
65749	-26	6	7	-0.943521	0.3967834	-29.91341	0	11.8	4003	0	0	0	0	0.9343317	0.07039043	1	8	0.001	500
65859	-31	-3	5	-0.9426658	0.4001941	-29.92337	0	11.8	4003	0	0	0	0	0.9343317	0.07255661	1	8	0.001	500
65988	-29	0	5	-0.9430422	0.4011478	-29.93467	0	11.8	4002	0	0	0	0	0.9343317	0.07701345	1	8	0.001	500
66093	-41	1	11	-0.9445942	0.4073111	-29.94867	0	11.85	4004	0	0	0	0	0.9343317	0.08565006	1	8	0.001	500
66145	-34	2	6	-0.9466418	0.4075291	-29.95496	0	11.85	4004	0	0	0	0	0.9343317	0.08776852	1	8	0.001	500
66191	-36	6	0	-0.9438667	0.4065768	-29.96144	0	11.85	4003	0	0	0	0	0.9343317	0.08772885	1	8	0.001	500
66294	-38	-1	7	-0.944359	0.4061033	-29.97005	0	11.85	4002	0	0	0	0	0.9343317	0.07962984	1	8	0.001	500
66398	-41	5	6	-0.9448888	0.4050793	-29.97731	0	11.85	4003	0	0	0	0	0.9343317	0.07378496	1	8	0.001	500
66534	-30	-8	1	-0.9418277	0.4138944	-29.9844	0	11.85	4003	0	0	0	0	0.9343317	0.08217277	1	8	0.001	500
66731	-29	-2	6	-0.9310616	0.4095331	-29.99734	0	11.85	4004	0	0	0	0	0.9343317	0.07910901	1	8	0.001	500
66905	-40	6	2	-0.9258694	0.4009057	-30.01114	0	11.85	4003	0	0	0	0	0.9343317	0.07368334	1	8	0.001	500
66967	-33	0	9	-0.9233598	0.4019019	-30.01432	0	11.85	4004	0	0	0	0	0.9343317	0.07024036	1	8	0.001	500
67068	-25	7	5	-0.9161437	0.4032812	-30.02329	0	11.85	4004	0	0	0	0	0.9343317	0.06538168	1	8	0.001	500
67158	-30	0	5	-0.9139899	0.4049313	-30.0272	0	11.85	4003	0	0	0	0	0.9343317	0.07319988	1	8	0.001	500
67233	-34	2	5	-0.9115446	0.4039789	-30.03428	0	11.85	4004	0	0	0	0	0.9343317	0.08331338	1	8	0.001	500
67394	-24	2	2	-0.9109169	0.4030163	-30.04527	0	11.85	4003	0	0	0	0	0.9343317	0.09778618	1	8	0.001	500
67538	-26	3	5	-0.9105195	0.3902277	-30.05577	0	11.85	4003	0	0	0	0	0.9343317	0.1095515	1	8	0.001	500
67650	-35	6	6	-0.9139512	0.3883785	-30.06194	0	11.85	4004	0	0	0	0	0.9343317	0.1148459	1	8	0.001	500
67759	-32	2	1	-0.9152094	0.3873302	-30.06817	0	11.85	4003	0	0	0	0	0.9343317	0.1164468	1	8	0.001	500
67798	-24	5	10	-0.9132183	0.3900691	-30.07183	0	11.85	4004	0	0	0	0	0.9343317	0.118321	1	8	0.001	500
67871	-27	2	2	-0.9025081	0.3903126	-30.07891	0	11.91	4004	0	0	0	0	0.9343317	0.1196164	1	8	0.001	500
67975	-28	3	5	-0.9034008	0.3929863	-30.08454	0	11.91	4003	0	0	0	0	0.9343317	0.1174968	1	8	0.001	500
68125	-34	3	6	-0.9045897	0.3984379	-30.09221	0	11.91	4002	0	0	0	0	0.9343317	0.1150432	1	8	0.001	500
68225	-23	0	3	-0.9157492	0.3988183	-30.09751	0	11.91	4002	0	0	0	0	0.9343317	0.1150432	1	15	0.001	500
68308	-29	0	5	-0.9163612	0.3958095	-30.10123	0	11.91	4003	0	0	0	0	0.9343317	0.1032393	1	15	0.001	500
68446	-28	0	7	-0.9099245	0.4015077	-30.11112	0	11.91	4002	0	0	0	0	0.9343317	0.1060464	1	15	0.001	500
68523	-32	-1	1	-0.9074088	0.4059153	-30.11729	0	11.91	4002	0	0	0	0	0.9343317	0.1035398	1	15	0.001	500
68617	-22	5	9	-0.8970696	0.4067924	-30.12236	0	11.91	4002	0	0	0	0	0.9343317	0.09321617	1	15	0.001	500
68697	-29	1	6	-0.8938398	0.4027708	-30.12889	0	11.91	4002	0	0	0	0	0.9343317	0.08919135	1	15	0.001	500
68791	-25	2	3	-0.8867799	0.4027624	-30.13402	0	11.91	4009	0	0	0	0	0.9343317	0.09050661	1	15	0.001	500
68898	-33	-5	5	-0.8771238	0.400544	-30.14135	0	11.8	4003	0	0	0	0	0.9343317	0.08312922	1	15	0.001	500
69035	-27	3	5	-0.8696493	0.3984102	-30.151	0	11.8	4003	0	0	0	0	0.9343317	0.07250581	1	15	0.001	500
69125	-32	0	10	-0.8712395	0.3990506	-30.15582	0	11.8	4002	0	0	0	0	0.9343317	0.07555674	1	15	0.001	500
69242	-25	0	3	-0.872052	0.3922395	-30.16315	0	11.8	4003	0	0	0	0	0.9343317	0.07471938	1	15	0.001	500
69293	-34	-2	10	-0.8709518	0.3907501	-30.16864	0	11.8	4004	0	0	0	0	0.9343317	0.07737561	1	15	0.001	500
69388	-25	4	8	-0.865898	0.3897913	-30.17176	0	11.8	4003	0	0	0	0	0.9343317	0.07868663	1	15	0.001	500
69500	-29	-2	3	-0.8629869	0.3905131	-30.18201	0	11.8	4004	0	0	0	0	0.9343317	0.07720229	1	15	0.001	500
69615	-31	4	5	-0.8567919	0.3915716	-30.18751	0	11.8	4003	0	0	0	0	0.9343317	0.0781552	1	15	0.001	500
69710	-39	2	8	-0.8567816	0.3914489	-30.19417	0	11.91	4004	0	0	0	0	0.9343317	0.08453141	1	15	0.001	500
69794	-33	0	2	-0.8541505	0.3912809	-30.1996	0	11.91	4002	0	0	0	0	0.9343317	0.09697431	1	15	0.001	500
69898	-31	1	9	-0.8449514	0.3906548	-30.20772	0	11.91	4004	0	0	0	0	0.9343317	0.1028558	1	15	0.001	500
70054	-33	-3	7	-0.8446184	0.3918815	-30.21529	0	11.91	4003	0	0	0	0	0.9343317	0.1109667	1	15	0.001	500
70160	-29	2	2	-0.8416494	0.3910291	-30.21877	0	11.91	4003	0	0	0	0	0.9343317	0.1151179	1	15	0.001	500
70222	-27	4	5	-0.8503787	0.3917722	-30.22457	0	11.91	4004	0	0	0	0	0.9343317	0.1207634	1	15	0.001	500
70352	-37	1	3	-0.8442963	0.3864098	-30.2347	0	11.91	4004	0	0	0	0	0.9343317	0.1203332	1	15	0.001	500
70400	-29	-4	0	-0.8462512	0.388624	-30.23629	0	11.91	4004	0	0	0	0	0.9343317	0.1144826	1	15	0.001	500
70512	-22	0	4	-0.8412501	0.3795281	-30.24557	0	11.91	4002	0	0	0	0	0.9343317	0.1012426	1	15	0.001	500
70564	-30	0	4	-0.8421279	0.3811852	-30.24679	0	11.91	4002	0	0	0	0	0.9343317	0.09433907	1	15	0.001	500
70664	-24	3	7	-0.8351844	0.3776311	-30.25198	0	11.85	4004	0	0	0	0	0.9343317	0.08777522	1	15	0.001	500
70782	-36	-1	7	-0.8355949	0.3736904	-30.25863	0	11.85	4003	0	0	0	0	0.9343317	0.08434015	1	15	0.001	500
70899	-21	-2	1	-0.8341671	0.3831978	-30.26516	0	11.85	4002	0	0	0	0	0.9343317	0.08889457	1	15	0.001	500
70980	-22	0	2	-0.8323692	0.3842579	-30.27206	0	11.85	4002	0	0	0	0	0.9343317	0.09733923	1	15	0.001	500
71099	-24	3	3	-0.8410747	0.3869621	-30.27865	0	11.85	4003	0	0	0	0	0.9343317	0.1126107	1	15	0.001	500
71175	-23	8	3	-0.8380069	0.3871234	-30.28073	0	11.85	4004	0	0	0	0	0.9343317	0.1173002	1	15	0.001	500
71343	-35	-4	6	-0.8321037	0.3828818	-30.29044	0	11.85	4003	0	0	0	0	0.9343317	0.1389163	1	15	0.001	500
71425	-26	0	-1	-0.8240912	0.3874429	-30.29691	0	11.85	4004	0	0	0	0	0.9343317	0.1457145	1	15	0.001	500
71587	-34	2	5	-0.8108267	0.3922649	-30.30277	0	11.85	4002	0	0	0	0	0.9343317	0.162598	1	15	0.001	500
71712	-20	-1	2	-0.8093551	0.3907823	-30.31003	0	11.85	4003	0	0	0	0	0.9343317	0.1844157	1	15	0.001	500
71766	-24	10	5	-0.8075062	0.3922588	-30.31229	0	11.85	4002	0	0	0	0	0.9343317	0.1962246	1	15	0.001	500
71924	-33	5	0	-0.8021702	0.39127	-30.32444	0	11.85	4002	0	0	0	0	0.9343317	0.2447772	1	15	0.001	500
72010	-22	1	3	-0.7957366	0.3880301	-30.32804	0	11.85	4004	0	0	0	0	0.9343317	0.2595076	1	15	0.001	500
72203	-25	3	7	-0.7918257	0.3810889	-30.33628	0	11.85	4002	0	0	0	0	0.9343317	0.2724224	1	15	0.001	500
72294	-16	6	0	-0.7867962	0.3821675	-30.33933	0	11.85	4002	0	0	0	0	0.9343317	0.2764426	1	15	0.001	500
72484	-17	0	0	-0.7634653	0.3781123	-30.34892	0	11.85	4003	0	0	0	0	0.9343317	0.2764015	1	15	0.001	500
72608	-31	-3	0	-0.7585228	0.3824876	-30.35264	0	11.85	4003	0	0	0	0	0.9343317	0.2780584	1	15	0.001	500
72738	-11	3	4	-0.7564052	0.38764	-30.35863	0	11.85	4002	0	0	0	0	0.9343317	0.2757112	1	15	0.001	500
72821	-25	7	4	-0.7475957	0.3815073	-30.36204	0	11.85	4002	0	0	0	0	0.9343317	0.2708873	1	15	0.001	500
72863	-19	0	7	-0.749325	0.3840037	-30.36382	0	11.85	4003	0	0	0	0	0.9343317	0.2680008	1	15	0.001	500
73033	-20	2	1	-0.7437091	0.3839031	-30.36858	0	11.85	4003	0	0	0	0	0.9343317	0.2593567	1	15	0.001	500
73085	-25	0	6	-0.7448063	0.383027	-30.37004	0	11.85	4004	0	0	0	0	0.9343317	0.2601562	1	15	0.001	500
73234	-20	6	0	-0.7515836	0.3807314	-30.37346	0	11.85	4004	0	0	0	0	0.9343317	0.2660363	1	15	0.001	500
73300	-16	0	1	-0.7472651	0.383262	-30.3792	0	11.85	4002	0	0	0	0	0.9343317	0.2606147	1	15	0.001	500
73484	-17	-2	1	-0.7376503	0.3830101	-30.3842	0	11.91	4004	0	0	0	0	0.9343317	0.2608587	1	15	0.001	500
73563	-17	1	2	-0.7420199	0.3870554	-30.38957	0	11.91	4002	0	0	0	0	0.9343317	0.2587182	1	15	0.001	500
73659	-24	3	0	-0.7429035	0.3849834	-30.39287	0	11.91	4004	0	0	0	0	0.9343317	0.2471425	1	15	0.001	500
73741	-14	-2	3	-0.7439258	0.3839366	-30.39702	0	11.91	4004	0	0	0	0	0.9343317	0.2431781	1	15	0.001	500
73887	-12	0	3	-0.7409911	0.3786803	-30.40288	0	11.91	4002	0	0	0	0	0.9343317	0.2498466	1	15	0.001	500
74062	-27	-4	-1	-0.73197	0.3883711	-30.40972	0	11.91	4004	0	0	0	0	0.9343317	0.2393582	1	15	0.001	500
74191	-17	0	4	-0.7337735	0.3902207	-30.41594	0	11.91	4004	0	0	0	0	0.9343317	0.2217714	1	15	0.001	500
74317	-36	-3	-2	-0.7247548	0.3913958	-30.42174	0	11.85	4004	0	0	0	0	0.9343317	0.2131189	1	15	0.001	500
74384	-16	0	5	-0.7271758	0.3830537	-30.42321	0	11.85	4003	0	0	0	0	0.9343317	0.2106497	1	15	0.001	500
74478	-16	6	1	-0.7243166	0.3812089	-30.42705	0	11.85	4002	0	0	0	0	0.9343317	0.218739	1	15	0.001	500
74575	-24	1	0	-0.7269449	0.3743386	-30.43096	0	11.85	4003	0	0	0	0	0.9343317	0.2319645	1	15	0.001	500
74691	-4	1	4	-0.7244702	0.3824332	-30.43664	0	11.85	4003	0	0	0	0	0.9343317	0.2322333	1	15	0.001	500
74801	-16	2	3	-0.7329283	0.3874622	-30.44543	0	11.85	4004	0	0	0	0	0.9343317	0.2269457	1	15	0.001	500
74873	-28	0	0	-0.730153	0.3839973	-30.4472	0	11.85	4004	0	0	0	0	0.9343317	0.2244369	1	15	0.001	500
74958	-18	0	-2	-0.7270227	0.3801757	-30.45123	0	11.85	4003	0	0	0	0	0.9343317	0.2213577	1	15	0.001	500
75104	-28	-2	1	-0.7314753	0.3800011	-30.45336	0	11.85	4003	0	0	0	0	0.9343317	0.2230683	1	15	0.001	500
75253	-19	-1	0	-0.7292917	0.376483	-30.4569	0	11.8	4002	0	0	0	0	0.9343317	0.2420666	1	15	0.001	500
75349	-12	5	0	-0.7252491	0.3759831	-30.46221	0	11.8	4003	0	0	0	0	0.9343317	0.2470284	1	15	0.001	500
75421	-19	4	2	-0.7242324	0.3790473	-30.46691	0	11.8	4004	0	0	0	0	0.9343317	0.246986	1	15	0.001	500
75574	-16	0	6	-0.7181891	0.3752157	-30.47296	0	11.8	4003	0	0	0	0	0.9343317	0.2449252	1	15	0.001	500
75692	-9	-2	0	-0.7119507	0.3772633	-30.47869	0	11.8	4003	0	0	0	0	0.9343317	0.227745	1	15	0.001	500
75907	-18	6	5	-0.7093517	0.3794826	-30.4903	0	11.8	4004	0	0	0	0	0.9343317	0.2171739	1	15	0.001	500
75954	-14	1	-2	-0.7097656	0.3809711	-30.49127	0	11.8	4004	0	0	0	0	0.9343317	0.2131817	1	15	0.001	500
76051	-6	9	2	-0.7081333	0.3794545	-30.49164	0	11.8	4003	0	0	0	0	0.9343317	0.209841	1	15	0.001	500
76204	-17	-2	2	-0.7011802	0.3776873	-30.49933	0	11.91	4003	0	0	0	0	0.9343317	0.1846721	1	15	0.001	500
76310	-18	0	3	-0.6919979	0.3739501	-30.50311	0	11.91	4003	0	0	0	0	0.9343317	0.1574598	1	15	0.001	500
76347	-17	0	0	-0.6914293	0.3732385	-30.50299	0	11.91	4004	0	0	0	0	0.9343317	0.1574598	1	15	0.001	500
76507	-11	0	2	-0.6840597	0.3671443	-30.50845	0	11.91	4004	0	0	0	0	0.9343317	0.1452314	1	15	0.001	1200
76660	-10	-1	6	-0.6805027	0.368677	-30.5134	0	11.91	4003	0	0	0	0	0.9343317	0.1392845	1	15	0.001	1200
76806	-8	6	1	-0.6666965	0.3654403	-30.51547	0	11.91	4002	0	0	0	0	0.9343317	0.1380543	1	15	0.001	1200
76845	-8	-5	3	-0.6689815	0.3669541	-30.51578	0	11.91	4003	0	0	0	0	0.9343317	0.1338184	1	15	0.001	1200
76978	-13	0	6	-0.6775404	0.3620391	-30.52139	0	11.91	4002	0	0	0	0	0.9343317	0.1139968	1	15	0.001	1200
77102	-11	0	1	-0.679178	0.3591214	-30.52505	0	11.91	4002	0	0	0	0	0.9343317	0.1019451	1	15	0.001	1200
77163	-18	-1	-3	-0.6792709	0.357652	-30.52383	0	11.91	4003	0	0	0	0	0.9343317	0.1016339	1	15	0.001	1200
77265	-7	0	0	-0.6681561	0.3608105	-30.52554	0	11.91	4003	0	0	0	0	0.9343317	0.1127709	1	15	0.001	1200
77344	-14	-1	-1	-0.6631506	0.3639161	-30.52609	0	11.91	4004	0	0	0	0	0.9343317	0.1229971	1	15	0.001	1200
77473	-23	-5	5	-0.6581027	0.3686287	-30.53122	0	11.91	4003	0	0	0	0	0.9343317	0.1313889	1	15	0.001	1200
77580	-12	0	4	-0.6651036	0.3620116	-30.53445	0	11.91	4009	0	0	0	0	0.9343317	0.1363979	1	15	0.001	1200
77734	-10	4	0	-0.6565009	0.367896	-30.53647	0	11.91	4004	0	0	0	0	0.9343317	0.1578297	1	15	0.001	1200
77812	-13	1	2	-0.658824	0.3677883	-30.53793	0	11.91	4002	0	0	0	0	0.9343317	0.1714224	3	15	0.001	1200
77867	-14	1	0	-0.6554292	0.367908	-30.5386	0	11.85	4003	0	0	0	0	0.9343317	0.180315	3	15	0.001	1200
78038	1	0	5	-0.6514977	0.3741097	-30.54276	0	11.85	4003	0	0	0	0	0.9343317	0.1983198	3	15	0.001	1200
78121	-9	0	2	-0.646543	0.3704575	-30.54697	0	11.85	4004	0	0	0	0	0.9343317	0.2048256	3	15	0.001	1200
78170	-12	9	-1	-0.6432022	0.3686587	-30.54758	0	11.85	4004	0	0	0	0	0.9343317	0.2053238	3	15	0.001	1200
78317	-21	-1	1	-0.6441218	0.3768901	-30.54965	0	11.85	4003	1	0	0	0	0.9343317	0.2086017	3	15	0.001	1200
78371	-10	0	2	-0.6475931	0.3797448	-30.54965	0	11.85	4004	2	-2	0	0	0.9343317	0.2121159	3	15	0.001	1200
78459	0	25	-27	-0.6493609	0.3731194	-30.55639	0	11.85	4003	4	6	3	0	0.9343317	0.2156112	3	15	0.001	1200
78607	-60	8	-7	-0.6661222	0.3953033	-30.54753	0	11.85	4002	15	-11	0	0	0.9343317	0.2215923	3	15	0.001	1200
78712	-14	25	-30	-0.6812436	0.3925453	-30.5408	0	11.85	4003	7	-10	-2	0	0.9343317	0.231402	3	15	0.001	1200
78759	-86	-24	24	-0.68787	0.3738269	-30.55164	0	11.74	4004	9	-3	0	0	0.9343317	0.2359438	3	15	0.001	1200
78875	-178	-56	52	-0.7232952	0.3860547	-30.55794	0	11.74	4003	40	-16	1	0	0.9343317	0.2436545	3	15	0.001	1200
78992	-131	-83	106	-0.6876235	0.3772205	-30.55934	0	11.74	4004	41	-24	0	0	0.9343317	0.2564933	3	15	0.001	1200
79113	10	-55	109	-0.6331886	0.3673591	-30.56375	0	11.74	4002	10	-19	0	0	0.9343317	0.2691647	3	15	0.001	1200
79211	10	-4	8	-0.608731	0.3319758	-30.56686	0	11.74	4002	3	-27	2	0	0.9343317	0.2764538	3	15	0.001	1200
79281	-42	12	-87	-0.6252479	0.3268614	-30.56124	0	11.74	4002	9	7	0	0	0.9343317	0.2809076	3	15	0.001	1200
79478	-149	44	-78	-0.6358574	0.3276713	-30.56913	0	11.74	4002	3	-24	1	0	0.9343317	0.3026145	3	15	0.001	1200
79641	21	36	91	-0.6912929	0.3607422	-30.57701	0	11.74	4003	8	-8	0	0	0.9343317	0.3045826	3	15	0.001	1200
79753	111	-4	16	-0.6799737	0.3398634	-30.58288	0	11.8	4003	-11	15	0	0	0.9343317	0.2990426	3	15	0.001	1200
79821	72	10	-5	-0.645945	0.3610494	-30.58221	0	11.8	4004	0	7	0	0	0.9343317	0.297815	3	15	0.001	1200
79955	-106	30	-51	-0.6234569	0.3506578	-30.59082	0	11.8	4002	-1	-20	2	0	0.9343317	0.2953421	3	15	0.001	1200
80052	144	-12	-112	-0.6217911	0.3241367	-30.58875	0	11.8	4003	-14	6	0	0	0.9343317	0.2914122	3	15	0.001	1200
80078	144	-12	-112	-0.6217911	0.3241367	-30.58875	0	11.8	4003	-64	11	1	0	0.9343317	0.2896811	3	15	0.001	1200
80184	37	-27	56	-0.6354758	0.3589758	-30.59425	0	11.8	4003	-16	25	0	0	0.9343317	0.291682	3	15	0.001	1200
80373	-166	-30	211	-0.760049	0.3703771	-30.61321	0	11.8	4003	-29	2	0	0	0.9343317	0.284657	3	15	0.001	1200
80406	-32	73	328	-0.7508124	0.3708563	-30.63274	0	11.8	4007	7	8	-1	0	0.9343317	0.285184	3	15	0.001	1200
80565	58	-464	145	-0.611771	0.4510812	-31.34455	0	11.8	4003	7	-21	17	0	0.9343317	0.2960838	3	15	0.001	1200
80730	1728	2467	814	1.612226	0.3130302	-31.34127	0	11.4	4011	18	159	22	0	0.9343317	0.3060602	3	15	0.001	1200
80827	-217	5326	26	1.439541	-7.40583	-31.53659	0	11.4	4002	-73	-11	38	0	0.9343317	0.3321771	3	15	0.001	1200
80926	-535	60	-536	0.5188796	-10.40971	-30.90152	0	11.4	4004	94	-119	1	0	0.9343317	0.3644792	3	15	0.001	1200
80995	-305	265	648	-0.1269328	-10.08055	-31.13904	0	11.4	4003	-47	-320	0	0	0.9343317	0.3854699	3	15	0.001	1200
81089	658	2594	-944	0.5325474	-11.21981	-30.77438	0	11.4	4004	13	-165	-6	0	0.9343317	0.3995944	3	15	0.001	1200
81233	-2163	2483	397	-3.300218	-15.73777	-30.84529	0	11.4	4004	0	-271	-31	0	0.9343317	0.4581958	3	15	0.001	1200
81304	1117	656	239	-2.974805	-16.67735	-30.13698	0	11.4	4002	6	-20	-10	0	0.9343317	0.4742101	3	15	0.001	1200
81441	-590	-4077	-61	-2.093521	-10.47191	-30.47131	0	11.4	4002	38	-136	-6	0	0.9343317	0.5190352	3	15	0.001	1200
81538	453	-2201	-491	-2.035344	-6.476181	-31.04836	0	12.14	4002	6	61	23	0	0.9343317	0.5534226	3	15	0.001	1200
81594	842	-471	1012	-1.486492	-5.036936	-31.24362	0	12.14	4003	-66	213	27	0	0.9343317	0.5929496	3	15	0.001	1200
81701	20	-4017	83	0.5201074	0.3444061	-30.87915	0	12.14	4003	-20	119	23	0	0.9343317	0.6528088	3	15	0.001	1200
81838	750	-1050	-593	-0.65355	4.018526	-31.43148	0	12.14	4003	22	79	32	0	0.9343317	0.7403285	3	15	0.001	1200
81931	-265	-368	-1151	0.01500629	2.831274	-31.55443	0	12.14	4004	26	-199	7	0	0.9343317	0.7760904	3	15	0.001	1200
82028	207	1833	772	0.3715033	0.8612725	-30.92225	0	12.14	4003	36	172	15	0	0.9343317	0.8279511	3	15	0.001	1200
82179	-145	-1648	-838	-1.106745	0.5160125	-30.97249	0	12.14	4003	71	-222	-1	0	0.9343317	0.8881109	3	15	0.001	1200
82280	1003	2633	767	-0.4455225	-2.670279	-31.87438	0	12.14	4002	111	-101	26	0	0.9343317	0.930213	3	15	0.001	1200
82360	3753	2717	-157	4.15215	-6.422378	-31.03849	0	12.14	4004	-112	191	8	0	0.9343317	0.9466214	3	15	0.001	1200
82445	814	2277	624	7.107821	-9.456201	-29.75645	0	10.21	4003	36	98	-28	0	0.9343317	0.9668634	3	15	0.001	1200
82503	-459	1561	432	6.394164	-10.20622	-29.69771	0	10.21	4004	64	-62	-16	0	0.9343317	0.9756287	3	15	0.001	1200
82606	853	-1462	-649	5.902493	-9.486962	-29.61365	0	10.21	4004	-36	97	-25	0	0.9343317	0.9936148	3	15	0.001	1200
82757	-769	-606	1394	3.962411	-8.349717	-30.74615	0	10.21	4003	-80	126	23	0	0.9343317	1.013974	3	15	0.001	1200
82845	23	-2851	-711	2.221702	-7.323262	-31.21868	0	10.21	4003	-5	-283	6	0	0.9343317	1.037668	3	15	0.001	1200
82946	-1327	-1385	-456	2.142255	-5.725689	-30.72274	0	10.21	4003	42	-169	-5	0	0.9343317	1.054765	3	15	0.001	1200
83022	-1032	-1032	-1590	-0.01892431	-4.985368	-30.15585	0	10.21	4003	-145	-67	-12	0	0.9343317	1.060624	3	15	0.001	1200
83114	-929	-1670	-115	-2.229139	-5.957968	-30.73358	0	10.21	4008	102	-176	-6	0	0.9343317	1.074436	3	15	0.001	1200
83228	413	-2785	-1042	-1.775846	-3.607135	-30.90198	0	10.21	4003	-6	-322	-2	0	0.9343317	1.088736	3	15	0.001	1200
83354	-652	958	1289	-1.609201	-1.956547	-31.43215	0	11.11	4003	17	-238	22	0	0.9343317	1.106968	3	15	0.001	1200
83410	-466	-998	-565	-1.868219	-2.233166	-31.44456	0	11.11	4002	-14	-162	30	0	0.9343317	1.113026	3	15	0.001	1200
83539	1184	-247	411	-0.8561378	-5.038538	-31.17581	0	11.11	4004	-17	-149	25	0	0.9343317	1.117125	3	15	0.001	1200
83637	779	1009	-1348	0.4165678	-7.097744	-30.55701	0	11.11	4003	-7	68	-1	0	0.9343317	1.103305	3	15	0.001	1200
83713	-312	2574	567	0.1476831	-8.936085	-30.62583	0	11.11	4002	-105	169	17	0	0.9343317	1.084894	3	15	0.001	1200
83834	-628	1697	1282	0.2215267	-9.830192	-30.96695	0	11.11	4004	-14	115	23	0	0.9343317	1.043941	3	15	0.001	1200
83915	-414	2007	475	0.2981992	-10.58706	-31.25732	0	11.11	4002	-70	-17	30	0	0.9343317	1.031317	3	15	0.001	1200
84110	-144	-1769	429	1.514658	-12.93997	-30.44982	0	11.11	4002	15	104	-7	0	0.9343317	0.9526091	3	15	0.001	1200
84185	-1627	-2983	52	0.478201	-9.866286	-30.70661	0	11.11	4002	13	-34	12	0	0.9343317	0.927443	3	15	0.001	1200
84263	1391	1608	1370	0.5610002	-8.990089	-31.04794	0	11.17	4004	9	-73	9	0	0.9343317	0.8995503	3	15	0.001	1200
84359	-1796	-2775	-1535	1.248981	-6.914546	-30.92078	0	11.17	4004	-36	139	19	0	0.9343317	0.865156	3	15	0.001	1200
84406	-1002	354	766	0.7988282	-6.040725	-30.89435	0	11.17	4003	94	85	8	0	0.9343317	0.8590286	3	15	0.001	1200
84499	570	724	-1291	0.07101028	-8.475716	-31.22565	0	11.17	4003	-22	300	16	0	0.9343317	0.8376557	5	15	0.001	1200
84655	-2679	396	1101	-1.972354	-9.314741	-31.66951	0	11.17	4004	39	-137	35	80	0.9446611	0.8184952	5	15	0.001	1200
84745	1740	-160	-361	0.01966674	-8.056189	-30.84129	0	11.17	4002	-93	114	27	85	0.9581668	0.7871972	5	15	0.001	1200
84827	-334	-1315	-226	-0.7673953	-5.239862	-29.84899	0	11.17	4004	47	-100	-13	82	0.9595035	0.7800413	5	15	0.001	1200
85019	471	475	681	0.1591462	-3.347363	-30.21713	0	11.17	4002	-58	114	12	42	0.9677478	0.7616773	5	15	0.001	1200
85115	164	421	1656	1.128817	-2.182194	-30.66526	0	11.17	4003	2	47	-2	41	0.9943044	0.7533104	5	15	0.001	1200
85287	-259	3304	398	0.5908579	-3.117243	-31.28211	0	11.51	4004	71	-25	16	35	1.063072	0.7535343	5	15	0.001	1200
85324	-185	4561	-155	0.313152	-6.517828	-31.34992	0	11.51	4003	19	114	25	67	0.985935	0.7610251	5	15	0.001	1200
85433	239	3289	483	0.4104564	-10.85435	-31.03748	0	11.51	4003	-36	239	38	34	1.001062	0.7830082	5	15	0.001	1200
85624	-1524	1384	1168	2.158564	-11.67347	-30.28981	0	11.51	4004	11	-296	-15	33	0.9950466	0.8319172	5	15	0.001	1200
85689	-1514	1022	-184	0.4857676	-11.26985	-30.49459	0	11.51	4004	8	-271	5	28	0.9835759	0.8603669	5	15	0.001	1200
85817	323	-937	-98	0.7815655	-9.65213	-30.72433	0	11.51	4003	49	53	-1	27	1.037808	0.9067026	5	15	0.001	1200
85921	383	-501	-911	0.03702428	-7.457329	-30.76415	0	11.51	4003	-31	75	14	19	1.0014	0.9473665	5	15	0.001	1200
85974	416	1286	-994	0.5322833	-8.061932	-30.14298	0	11.51	4005	-58	149	9	38	0.9948659	1.007139	5	15	0.001	1200
86085	-1217	4044	1374	-0.6494166	-10.26418	-30.4026	0	11.51	4004	4	261	22	33	1.006192	1.061817	5	15	0.001	1200
86211	1117	-423	-1032	-0.47777	-13.22119	-30.72659	0	11.11	4002	-12	-390	17	18	1.109529	1.139134	5	15	0.001	1200
86257	1403	3261	597	0.6890886	-13.84426	-31.14933	0	11.11	4003	25	-32	15	17	1.108885	1.153518	5	15	0.001	1200
86372	1339	-1060	-323	2.774139	-14.06561	-31.11855	0	11.11	4003	-48	75	10	7	1.113604	1.259294	5	15	0.001	1200
86498	813	509	-396	2.457593	-7.466666	-29.68804	0	11.11	4002	-131	78	-5	7	1.013633	1.353844	5	15	0.001	1200
86554	-59	484	72	2.432455	-8.236613	-29.61151	0	11.11	4002	-8	-10	-21	1	1.041664	1.412385	5	15	0.001	1200
86689	86	-923	-546	1.656645	-4.806466	-29.46745	0	11.11	4003	-46	96	-10	-6	1.0876	1.615559	5	15	0.001	1200
86855	-293	4692	1897	1.816455	-10.46221	-30.40986	0	11.11	4003	-74	265	37	-13	1.135388	1.744971	5	15	0.001	1200
86965	850	-1926	-1049	2.1748	-13.85436	-30.9114	0	11.11	4002	10	-220	14	-6	1.196682	1.926907	5	15	0.001	1200
87109	-1371	-2100	79	1.361308	-8.781536	-29.4932	0	11.17	4003	-136	87	-8	-14	1.105255	2.021385	5	15	0.001	1200
87160	-1371	-2100	79	1.361308	-8.781536	-29.4932	0	11.17	4003	-87	97	-13	-15	1.100888	2.057682	5	15	0.001	1200
87214	-1533	585	-324	-0.5665017	-6.974857	-29.28312	0	11.17	4004	40	234	-19	-30	1.127048	2.115637	5	15	0.001	1200
87390	-149	-2797	5	-1.388923	-5.955948	-30.03624	0	11.17	4003	58	-235	-11	-35	1.158058	2.216101	5	15	0.001	1200
87436	-810	-1361	769	-2.343866	-2.152923	-30.20876	0	11.17	4004	-66	49	12	-19	1.162668	2.273689	5	15	0.001	1200
87513	-693	-696	250	-3.125855	-2.554781	-30.46959	0	11.17	4003	66	-199	-1	-20	1.160448	2.373861	5	15	0.001	1200
87649	707	1235	1248	-1.646938	-4.26824	-30.63119	0	11.17	4003	-21	-208	16	-17	1.156552	2.560057	5	15	0.001	1200
87800	158	-983	164	-0.2615231	-5.044564	-29.74074	0	11.17	4002	-25	146	-3	-35	1.126821	2.648231	5	15	0.001	1200
87885	-119	-1623	-180	-0.1185652	-4.442542	-29.49371	0	11.17	4004	15	-110	-7	-24	1.108119	2.712986	5	15	0.001	1200
87960	-354	-2344	18	-1.284069	-3.327374	-29.90297	0	11.51	4003	6	-87	-3	-41	0.9736766	2.776803	5	15	0.001	1200
88085	164	1145	978	-1.383668	-2.20486	-30.45561	0	11.51	4003	22	235	18	-25	1.089708	2.869924	5	15	0.001	1200
88198	3166	-993	226	1.111236	-3.739796	-30.399	0	11.51	4004	-43	-167	8	-24	1.101793	2.943801	5	15	0.001	1200
88217	3444	153	573	2.816459	-3.252194	-30.24659	0	11.51	4003	-43	-167	8	-24	1.101793	2.943801	5	15	0.001	1200
88391	523	2812	635	4.234904	-5.498423	-29.49006	0	11.51	4003	-60	94	-20	-30	1.237749	3.021415	5	15	0.001	1200
88440	119	2087	588	4.269636	-6.402143	-29.50039	0	11.51	4004	22	-130	-20	-14	1.264894	3.027838	5	15	0.001	1200
88592	-534	-460	-348	2.649719	-12.48107	-29.69335	0	11.51	4002	73	-341	-14	-24	1.229782	3.058702	5	15	0.001	1200
88668	-500	-3669	-124	1.797248	-9.730725	-29.62253	0	11.51	4003	99	-400	-24	-9	1.088389	3.078717	5	15	0.001	1200
88743	384	-3805	-1011	1.224207	-5.337399	-29.33112	0	11.51	4002	-55	-246	-21	-5	1.08499	3.072636	5	15	0.001	1200
88867	-560	373	1790	0.2452723	-3.234862	-30.48301	0	10.89	4004	20	103	30	-2	1.119435	3.052848	5	15	0.001	1200
88900	-533	-1118	-208	-0.04245266	-3.073388	-30.69929	0	10.89	4004	-68	-240	7	-1	1.106619	3.046821	5	15	0.001	1200
88977	-1279	-367	-819	-0.1620677	-3.327345	-31.08299	0	10.89	4003	18	11	9	-2	1.119791	3.030708	5	15	0.001	1200
89078	-2146	2657	-88	-2.566321	-6.402852	-31.62893	0	10.89	4003	119	-152	35	-3	1.154637	3.012665	5	15	0.001	1200
89202	-717	-718	-325	-4.892751	-8.432899	-31.1928	0	10.89	4003	5	36	0	1	1.013803	2.968954	5	15	0.001	1200
89357	1388	2138	328	-5.298482	-7.236915	-30.69373	0	10.89	4003	-61	-139	1	2	1.026591	2.92669	5	15	0.001	1200
89408	1079	783	136	-3.014699	-9.058931	-30.89746	0	10.89	4002	41	-337	6	0	1.048164	2.910427	5	15	0.001	1200
89475	112	4312	1280	-2.448419	-10.17784	-31.03042	0	10.89	4003	92	-33	16	-2	1.069514	2.903582	5	15	0.001	1200
89568	-328	1887	-557	-2.061009	-14.03808	-31.79849	0	10.89	4003	0	-76	44	-2	1.090295	2.895095	5	15	0.001	1200
89678	340	1897	531	-0.7786683	-14.13455	-32.07501	0	10.89	4004	27	205	51	-5	1.003598	2.884869	5	15	0.001	1200
89845	-1002	774	596	0.4855464	-13.2929	-31.23847	0	11.4	4004	-34	-86	37	0	0.9928921	2.851817	5	15	0.001	1200
89934	1225	462	-787	0.1383166	-13.49125	-31.0389	0	11.4	4003	-44	-174	21	0	1.076688	2.836755	5	15	0.001	1200
90011	-1143	-4081	289	0.3488497	-12.67546	-30.62101	0	11.4	4003	-6	107	24	0	1.121578	2.8236	5	15	0.001	1200
90101	864	-2444	-289	0.4847412	-7.761225	-29.70268	0	11.4	4002	-3	24	4	2	1.138984	2.809853	5	15	0.001	1200
90201	-1061	-2343	-997	-0.2439421	-6.129329	-29.61608	0	11.4	4004	75	-221	-27	3	1.106111	2.786862	5	15	0.001	1200
90364	-84	-2620	237	0.2826525	-3.794665	-29.63279	0	11.4	4005	13	-130	-12	1	1.123901	2.748222	5	15	0.001	1200
90439	358	-193	993	0.04227566	-2.17132	-29.79081	0	11.4	4004	-92	107	5	2	1.03485	2.733103	5	15	0.001	1200
90500	760	4177	1038	0.7109524	-4.070522	-29.53172	0	11.4	4002	51	160	-18	0	1.041982	2.724636	5	15	0.001	1200
90574	416	3785	-770	1.006108	-6.165863	-29.54502	0	11.4	4003	53	-69	-13	1	1.067916	2.711467	5	15	0.001	1200
90687	1263	1902	-3	2.074882	-13.29576	-29.65661	0	10.94	4003	-23	-160	-14	0	1.144211	2.69408	5	15	0.001	1200
90829	-1068	331	-186	2.013016	-14.53416	-29.56766	0	10.94	4003	90	-83	-6	0	1.239312	2.680838	5	15	0.001	1200
90959	-371	-1440	-354	0.7386209	-14.75508	-30.06894	0	10.94	4004	72	-117	-6	4	1.246469	2.661283	5	15	0.001	1200
91011	-342	-1250	-94	0.6752294	-14.55608	-30.12121	0	10.94	4004	93	-150	-6	4	1.284006	2.645314	5	15	0.001	1200
91125	-28	-1714	-163	0.9905451	-11.97241	-29.38441	0	10.94	4003	-4	-57	-9	11	1.199747	2.611782	5	15	0.001	1200
91178	93	-1997	-1093	0.7320129	-10.30564	-28.85152	0	10.94	4002	-40	37	-48	5	1.214537	2.600789	5	15	0.001	1200
91295	-2134	-3398	-449	0.1168655	-6.54899	-29.56303	0	10.94	4004	58	-242	-10	5	1.239828	2.586007	5	15	0.001	1200
91462	733	-2759	-1182	0.3758834	-3.714915	-30.58201	0	10.94	4004	91	21	8	5	1.164497	2.546602	5	15	0.001	1200
91534	-864	-567	-550	0.1838772	-2.672112	-30.5964	0	10.94	4003	-27	-265	-4	7	1.249868	2.528104	5	15	0.001	1200
91679	284	130	-868	-1.133901	-4.944417	-31.24605	0	11.29	4004	52	-244	14	16	1.217928	2.483405	5	15	0.001	1200
91839	12	-421	-337	-0.686172	-5.476662	-30.89283	0	11.29	4004	-19	-28	27	12	1.215713	2.430825	5	15	0.001	1200
91941	210	-717	125	-1.382658	-5.792356	-30.8447	0	11.29	4004	-58	9	22	11	1.065998	2.38177	5	15	0.001	1200
92019	-377	221	-1444	-1.52191	-5.412703	-30.91308	0	11.29	4003	-48	89	34	13	1.098969	2.355453	5	15	0.001	1200
92084	641	1935	851	-1.649748	-6.202796	-30.95043	0	11.29	4002	-4	167	34	12	1.123017	2.33017	5	15	0.001	1200
92194	2357	2331	-226	0.8083752	-9.013116	-30.90824	0	11.29	4002	-64	121	26	18	1.068166	2.297169	5	15	0.001	1200
92289	161	-1548	-1244	1.409389	-10.27123	-30.46146	0	11.29	4003	66	-100	-4	17	1.034035	2.274888	5	15	0.001	1200
92459	-439	2969	623	2.745455	-10.98707	-30.29471	0	11.29	4004	-9	341	5	13	1.143394	2.227382	5	15	0.001	1200
92533	0	2882	179	2.81928	-12.60306	-30.51305	0	9.98	4002	92	-355	7	14	1.029899	2.18791	5	15	0.001	1200
92636	-981	-3153	-1514	2.001124	-10.70757	-30.72054	0	9.98	4003	25	-330	0	14	1.030067	2.167461	5	15	0.001	1200
92681	802	-276	-168	1.403102	-9.106584	-30.75012	0	9.98	4004	25	99	5	12	1.042102	2.153145	5	15	0.001	1200
92842	-67	-1456	-637	1.906859	-7.496627	-29.85291	0	9.98	4003	15	-118	-25	13	1.068385	2.117126	5	15	0.001	1200
92897	-467	-229	1667	1.044477	-6.153951	-29.71538	0	9.98	4003	34	-336	-19	23	1.078628	2.100189	5	15	0.001	1200
92977	1024	-488	1201	1.113307	-5.43442	-29.97234	0	9.98	4003	-69	15	17	11	1.091898	2.088751	5	15	0.001	1200
93145	129	-140	675	0.1888428	-5.483485	-30.73056	0	9.98	4004	110	-257	6	10	1.110218	2.056318	5	15	0.001	1200
93170	129	-140	675	0.1888428	-5.483485	-30.73056	0	9.98	4004	74	54	12	10	1.11465	2.051173	5	15	0.001	1200
93275	182	-1555	-1488	1.034456	-3.652155	-30.7137	0	9.98	4004	-72	186	19	12	1.116302	2.041	5	15	0.001	1200
93375	142	-349	999	1.339945	-3.153202	-30.6851	0	9.98	4003	91	148	14	10	1.106166	2.030893	5	15	0.001	1200
93527	-1005	1216	897	0.2858789	-3.340595	-30.37992	0	11.17	4002	-12	108	25	3	1.02942	2.035639	5	15	0.001	1200
93572	-1001	-512	-469	-0.1683887	-4.102711	-30.73475	0	11.17	4003	-59	-303	3	3	1.093185	2.047187	5	15	0.001	1200
93665	-568	1667	1285	0.4598307	-5.350115	-31.02077	0	11.17	4002	-30	-200	33	4	1.178289	2.053447	5	15	0.001	1200
