time(ms)	gyro_x(deg/s)	gyro_y(deg/s)	gyro_z(deg/s)	orientation_roll(deg)	orientation_pitch(deg)	orientation_yaw(deg)	throttle	battery(V)	loop_time(uS)	pid_output_roll	pid_output_pitch	pid_output_yaw	pid_output_throttle	ultrasonic_alt	baro_alt	flight_mode	p_gain_altitude	i_gain_altitude	d_gain_altitude
124633	1693	-3173	-469	-0.5175833	-5.774427	-31.59218	0	10.26	4004	43	-244	31	80	0.8240849	1.132732	5	15	0.001	1200
124730	-759	-2940	-643	0.9035794	-3.088644	-32.09174	0	10.26	4004	-93	-137	55	79	0.7055149	1.089335	5	15	0.001	1200
124841	-415	629	165	0.6882256	-1.266829	-32.30531	0	10.26	4004	-88	5	68	77	0.6027331	1.06286	5	15	0.001	1200
124935	422	-454	-706	0.0229469	-1.32244	-31.70947	0	10.26	4004	-80	44	40	44	0.5286931	1.042021	5	15	0.001	1200
125042	-431	-76	-541	0.4690558	-1.529074	-30.90451	0	10.26	4004	-23	130	22	50	0.4679857	1.001777	5	15	0.001	1200
125129	671	-2030	943	-0.06602857	-1.390507	-30.43634	0	10.26	4003	-13	-400	7	51	0.4076219	0.9725108	5	15	0.001	1200
125194	239	-2137	-914	0.3334826	0.2426806	-30.4586	0	10.26	4004	-43	108	19	48	0.3871323	0.9464501	5	15	0.001	1200
125319	-703	-1062	-1129	-0.6016297	-0.003547103	-30.89834	0	10.26	4003	-64	-321	16	50	0.3823389	0.8973059	5	15	0.001	1200
125443	561	-434	650	-0.2531783	0.08717709	-31.13482	0	10.49	4003	73	-81	13	79	0.4059684	0.8777126	5	15	0.001	1200
125530	-623	787	364	-0.9288747	0.3515105	-30.83392	0	10.49	4004	-22	40	-1	46	0.4619674	0.8549687	5	15	0.001	1200
125630	87	731	525	-0.8986048	-0.8540398	-30.27655	0	10.49	4004	-58	170	8	43	0.5109854	0.8461347	5	15	0.001	1200
125749	-395	412	-841	-1.034298	-1.745536	-29.69277	0	10.49	4004	-69	0	0	45	0.5966173	0.838104	5	15	0.001	1200
125826	-410	2101	1731	-0.6550919	-2.755103	-29.71066	0	10.49	4002	-44	-193	-18	43	0.6936947	0.8295249	5	15	0.001	1200
126089	280	615	234	-1.009587	-6.568362	-30.68419	0	10.49	4004	-15	56	18	62	0.8614093	0.8433506	5	15	0.001	1200
126208	-484	2228	662	0.01770804	-6.607355	-30.43596	0	10.49	4002	-81	13	14	33	0.9582382	0.8818747	5	15	0.001	1200
126245	543	3346	514	-0.09729216	-7.991712	-30.48486	0	10.49	4003	-69	185	12	26	0.9656917	0.9005737	5	15	0.001	1200
126306	543	3346	514	-0.09729216	-7.991712	-30.48486	0	10.49	4003	34	92	0	26	1.001315	0.9348943	5	15	0.001	1200
126411	-38	304	986	0.0008382565	-9.93537	-30.08735	0	10.55	4004	123	-53	-15	24	0.9456846	0.971343	5	15	0.001	1200
126531	518	942	1116	0.3717003	-9.632558	-30.23504	0	10.55	4002	103	148	-2	15	1.133621	1.055672	5	15	0.001	1200
126650	335	-1469	-985	1.458365	-10.80462	-29.70886	0	10.55	4002	48	29	-16	24	1.1659	1.136791	5	15	0.001	1200
126757	-415	675	784	2.05784	-9.901799	-29.41035	0	10.55	4003	-142	90	-15	13	1.150327	1.196035	5	15	0.001	1200
126854	880	-931	-238	1.437555	-9.507925	-29.12889	0	10.55	4004	-43	-128	-17	10	1.177216	1.264037	5	15	0.001	1200
126914	880	-931	-238	1.437555	-9.507925	-29.12889	0	10.55	4004	-40	207	-4	11	1.193505	1.294576	5	15	0.001	1200
127042	1221	958	315	2.334706	-11.46595	-30.19608	0	10.55	4003	79	-189	-6	7	1.25943	1.368618	5	15	0.001	1200
127160	-865	-2426	-389	1.80341	-10.09118	-30.03137	0	10.55	4002	147	-6	-10	12	1.236918	1.474476	5	15	0.001	1200
127288	258	-1609	-800	-0.272537	-6.922654	-29.98648	0	10.83	4003	-76	179	-3	-6	1.24062	1.551339	5	15	0.001	1200
127345	544	-1767	-712	0.1299828	-6.516872	-29.81282	0	10.83	4002	85	-86	-20	-1	1.280571	1.578042	5	15	0.001	1200
127516	-58	-2431	588	-0.172208	-3.101042	-30.12268	0	10.83	4003	-58	-83	8	2	1.293102	1.657629	5	15	0.001	1200
127581	1971	866	228	1.373327	-3.080494	-30.04219	0	10.83	4003	-38	-204	-15	0	1.344393	1.687268	5	15	0.001	1200
127648	-1316	-562	154	1.965395	-3.870667	-30.47639	0	10.83	4003	58	-196	3	1	1.314511	1.705915	5	15	0.001	1200
127715	-1263	-2047	0	0.9065129	-3.478717	-30.71663	0	10.83	4003	54	-262	8	0	1.171595	1.735765	5	15	0.001	1200
127819	584	-2318	-7	0.7513877	-2.434326	-30.72093	0	10.83	4002	-43	197	1	7	1.277562	1.779771	5	15	0.001	1200
127923	-202	-97	-1543	1.121828	-2.144895	-29.97234	0	10.83	4003	32	-177	-19	7	1.248909	1.79247	5	15	0.001	1200
128036	-779	1990	952	0.3843318	-3.582955	-30.27435	0	10.83	4003	-117	278	7	14	1.207439	1.807255	5	15	0.001	1200
128151	-329	210	469	0.2207064	-4.484606	-30.26842	0	10.83	4004	-83	138	5	10	1.096994	1.811979	5	15	0.001	1200
128231	-569	1024	556	-0.05960954	-3.928321	-29.94442	0	10.6	4002	-21	137	9	12	1.176616	1.809922	5	15	0.001	1200
128358	1070	-262	188	-0.6326929	-6.242064	-30.31202	0	10.6	4003	-12	-117	2	12	1.162845	1.806829	5	15	0.001	1200
128446	58	-1011	-907	0.9755509	-5.284137	-30.01127	0	10.6	4004	91	-113	-16	12	1.061863	1.797064	5	15	0.001	1200
128578	373	1519	-348	0.7746128	-7.30479	-29.72295	0	10.6	4004	-30	-1	-3	14	1.122488	1.785637	5	15	0.001	1200
128757	-725	1353	144	2.151663	-10.12238	-28.66304	0	10.6	4003	1	38	-44	11	1.182292	1.766429	5	15	0.001	1200
128885	69	-2760	-219	0.3947529	-7.873371	-27.70609	0	10.6	4005	61	-36	-70	12	1.143831	1.759747	5	15	0.001	1200
128982	307	1011	774	1.851102	-7.300275	-28.28168	0	10.6	4004	-130	-1	-41	13	1.161326	1.752064	5	15	0.001	1200
129071	98	1919	1169	1.615603	-9.186327	-29.26548	0	10.77	4003	10	-181	-12	13	1.17017	1.744413	5	15	0.001	1200
129164	537	1698	-417	1.875432	-12.28121	-30.04969	0	10.77	4003	-100	221	4	28	1.186485	1.731155	5	15	0.001	1200
129255	-333	920	-807	2.107864	-13.92122	-29.83313	0	10.77	4002	18	5	6	16	1.220292	1.723488	5	15	0.001	1200
129372	-180	2189	-21	0.6690713	-18.86173	-30.29181	0	10.77	4002	-23	-64	14	16	1.139655	1.70267	5	15	0.001	1200
129438	481	-566	-1072	0.7667901	-19.35516	-30.21653	0	10.77	4004	23	-268	-11	18	1.13779	1.688612	5	15	0.001	1200
129545	-1559	-27	-445	0.3268731	-17.69704	-29.97443	0	10.77	4003	-74	181	10	22	1.258389	1.656224	5	15	0.001	1200
129660	-360	-3276	-1619	-1.002394	-17.68257	-29.7144	0	10.77	4003	-16	234	-10	41	1.274915	1.618198	5	15	0.001	1200
129757	-1156	-5397	41	-1.620892	-12.40427	-29.5217	0	10.77	4004	17	-77	-8	24	1.237376	1.586442	5	15	0.001	1200
129892	817	-1777	-1073	0.003502999	-5.457253	-29.22979	0	10.77	4003	61	-187	-28	23	1.23705	1.561134	5	15	0.001	1200
129949	-5	-2225	-1370	0.2052394	-5.572396	-29.20387	0	10.77	4003	63	-318	-26	46	1.209251	1.536468	5	15	0.001	1200
130081	-1197	-2287	-487	-0.04029002	-4.144096	-29.58443	0	10.49	4002	-14	-224	-20	41	1.226777	1.474595	5	15	0.001	1200
130144	628	-703	-457	-0.4672543	-3.131982	-30.10748	0	10.49	4003	-73	15	-4	37	1.215403	1.453253	5	15	0.001	1200
130305	-1951	4406	1713	-1.583813	-7.148767	-31.7691	0	10.49	4002	26	314	57	71	1.183598	1.370369	5	15	0.001	1200
130396	-1378	592	998	-3.535058	-8.755758	-31.69002	0	10.49	4008	36	66	24	44	1.146163	1.328958	5	15	0.001	1200
130439	-1224	-276	-70	-4.490689	-7.977126	-31.25338	0	10.49	4004	36	66	24	44	1.138494	1.305099	5	15	0.001	1200
130619	695	-1421	-55	-3.200822	-8.277228	-30.3362	0	10.49	4002	140	-343	10	48	1.070277	1.20374	5	15	0.001	1200
130658	-2600	292	550	-4.037007	-8.249866	-31.17071	0	10.49	4004	-4	-228	40	41	1.058329	1.183065	5	15	0.001	1200
130761	2522	-353	424	-1.818442	-7.872486	-31.8677	0	10.49	4002	4	-233	36	41	0.9285579	1.141057	5	15	0.001	1200
130917	812	1810	609	-0.9911079	-6.051619	-31.31442	0	10.09	4002	-35	228	23	76	0.8783613	1.095691	5	15	0.001	1200
131020	-55	-15	-1886	-0.4658246	-9.120993	-30.85821	0	10.09	4004	-22	165	4	78	0.8372657	1.065614	5	15	0.001	1200
131077	938	-1804	-1557	-0.07669889	-8.451663	-30.12523	0	10.09	4004	-112	-219	-10	45	0.8135143	1.037301	5	15	0.001	1200
131133	-108	1139	-405	0.2178525	-8.275072	-29.82564	0	10.09	4004	-15	146	-13	40	0.7975323	1.018764	5	15	0.001	1200
131280	86	2237	-256	3.034733	-11.53339	-29.33428	0	10.09	4002	-73	201	-9	41	0.7691265	0.9838745	5	15	0.001	1200
131338	-543	311	665	2.76948	-12.16911	-29.77683	0	10.09	4002	88	222	-26	43	0.7652729	0.9779164	5	15	0.001	1200
131473	-1708	425	1349	1.757771	-10.40256	-31.12573	0	10.09	4002	88	-62	5	41	0.7406003	0.9403284	5	15	0.001	1200
131558	697	-847	693	0.4169058	-7.183921	-31.28733	0	10.09	4004	162	-101	20	78	0.7256644	0.9269122	5	15	0.001	1200
131654	51	-130	-697	0.9488285	-7.14037	-31.21524	0	10.09	4004	89	232	12	74	0.7473844	0.9103049	5	15	0.001	1200
131751	-2118	-280	-915	-1.798886	-6.53559	-30.9385	0	10.09	4002	-77	-56	-3	38	0.7531824	0.9077796	5	15	0.001	1200
131839	692	680	66	-1.760392	-6.335753	-29.66354	0	11.34	4003	-97	-55	-5	41	0.7863719	0.8967547	5	15	0.001	1200
131959	-599	339	-343	-1.63389	-6.098062	-29.60032	0	11.34	4003	-31	-113	13	46	0.8110389	0.888627	5	15	0.001	1200
132103	-1335	-1889	-672	-0.4066489	-8.063803	-30.82258	0	11.34	4003	-19	-397	9	37	0.9044595	0.8765172	5	15	0.001	1200
132144	987	-46	1118	-0.2174434	-7.471616	-30.98502	0	11.34	4003	56	-43	10	38	0.9221958	0.8776392	5	15	0.001	1200
132249	-19	-971	-339	0.2083557	-7.052053	-30.80524	0	11.34	4004	27	55	12	68	0.9849404	0.8849144	5	15	0.001	1200
132430	-196	216	758	-0.7418862	-7.009567	-30.44775	0	11.34	4002	-92	122	15	58	1.090347	0.9109576	5	15	0.001	1200
132493	-358	-1015	-674	-0.9559222	-6.29583	-30.37475	0	11.34	4004	-23	0	19	32	1.120118	0.9317587	5	15	0.001	1200
132555	1177	799	608	-0.2607807	-5.706005	-30.28969	0	11.34	4004	12	78	6	26	1.120402	0.9616112	5	15	0.001	1200
132714	-76	938	-45	0.5447217	-7.925004	-30.27158	0	11.34	4003	95	-26	-13	23	1.054082	1.019036	5	15	0.001	1200
132826	1549	53	-1826	1.243416	-8.891951	-29.7381	0	11.29	4003	-123	78	0	18	1.12729	1.091289	5	15	0.001	1200
132846	1549	53	-1826	1.243416	-8.891951	-29.7381	0	11.29	4003	-123	78	0	18	1.12729	1.091289	5	15	0.001	1200
132947	-1119	-470	193	2.051375	-9.820003	-29.48129	0	11.29	4004	-17	119	-9	11	1.124039	1.181846	5	15	0.001	1200
133035	-1348	-125	-262	1.044653	-9.384405	-29.57684	0	11.29	4003	50	-319	-26	14	1.130465	1.238255	5	15	0.001	1200
133157	-553	-15	-469	-0.01254741	-10.39595	-29.52711	0	11.29	4004	74	-142	-24	9	1.02571	1.341004	5	15	0.001	1200
133325	-391	-1599	-543	0.3662175	-7.455468	-29.92807	0	11.29	4003	95	-149	-11	13	1.091333	1.404348	5	15	0.001	1200
133381	-674	-1157	270	-0.9540113	-6.686083	-30.29515	0	11.29	4003	-17	-188	0	13	1.111804	1.435557	5	15	0.001	1200
133489	52	-385	-388	-1.996643	-6.638464	-30.28798	0	11.29	4003	-6	106	5	1	1.137367	1.502233	5	15	0.001	1200
133544	910	-2580	-1374	-1.024471	-6.048848	-29.92991	0	11.29	4004	40	-5	-11	0	1.1748	1.539083	5	15	0.001	1200
133630	910	-2267	-953	0.3283064	-4.485363	-29.35917	0	11.29	4003	-25	-254	-23	2	1.220153	1.561852	5	15	0.001	1200
133808	-1052	-1844	-301	-1.821501	0.1949159	-29.72136	0	11.11	4004	3	55	-10	3	1.230818	1.635362	5	15	0.001	1200
133947	-1566	-16	-325	-3.511406	-3.083131	-30.75318	0	11.11	4002	-97	158	28	5	1.225058	1.683024	5	15	0.001	1200
134052	350	-227	-1210	-3.521016	-4.578384	-30.05733	0	11.11	4003	-15	156	-4	19	1.227326	1.699696	5	15	0.001	1200
134148	1557	2376	578	-2.568695	-5.927353	-29.81451	0	11.11	4003	-129	99	-2	17	1.273969	1.69574	5	15	0.001	1200
134284	-2574	1030	-58	-1.175449	-8.824022	-30.45615	0	11.11	4004	152	5	6	18	1.137186	1.668793	5	15	0.001	1200
134335	-1484	-648	-1053	-2.106682	-9.331554	-30.52338	0	11.11	4004	-27	78	-9	21	1.201862	1.662845	5	15	0.001	1200
134530	782	2643	1037	-0.9914453	-11.91973	-29.12777	0	11.11	4002	-112	60	-10	24	1.207074	1.596388	5	15	0.001	1200
134584	507	-631	465	-0.7179509	-12.61695	-29.54928	0	10.89	4003	-112	60	-10	24	1.159815	1.578852	5	15	0.001	1200
134646	1067	-983	756	-0.1411216	-11.54304	-29.70581	0	10.89	4004	-77	77	4	26	1.195633	1.551423	5	15	0.001	1200
134801	-726	40	322	-0.2089557	-11.64802	-30.2332	0	10.89	4003	-35	-130	2	39	1.100779	1.504483	5	15	0.001	1200
134897	-402	-1243	-1569	-1.616767	-10.36076	-30.1442	0	10.89	4003	-28	3	4	64	1.105458	1.459725	5	15	0.001	1200
134992	-641	106	-337	-3.334506	-7.876078	-29.63449	0	10.89	4003	-39	175	-4	40	1.12805	1.430138	5	15	0.001	1200
135054	-1403	-288	-612	-3.413405	-8.240622	-29.52253	0	10.89	4003	44	161	-5	39	1.192469	1.376448	5	15	0.001	1200
135208	254	955	-631	-4.843505	-9.861429	-30.80127	0	10.89	4003	-85	80	14	43	1.164643	1.324803	5	15	0.001	1200
135320	-363	-422	534	-4.137973	-9.480659	-30.02744	0	10.89	4004	-32	32	0	69	1.15419	1.286092	5	15	0.001	1200
135372	-2164	-44	-1097	-5.650507	-8.472802	-29.65185	0	10.89	4004	62	-259	-21	71	1.170277	1.277879	5	15	0.001	1200
135478	385	708	430	-6.02641	-8.744555	-29.62574	0	10.89	4004	-53	260	-6	68	1.209514	1.244186	5	15	0.001	1200
135601	21	3529	1991	-4.692262	-10.55899	-30.2315	0	10.15	4004	-102	400	19	34	1.181603	1.228773	5	15	0.001	1200
135670	-397	-1091	-641	-4.443568	-11.88218	-30.45555	0	10.15	4004	68	-57	-2	30	1.141073	1.222203	5	15	0.001	1200
135765	884	-1827	-747	-3.032338	-7.048054	-29.79133	0	10.15	4003	-93	-84	-8	33	1.156528	1.224886	5	15	0.001	1200
135883	-421	-2693	-887	-2.427745	-5.758148	-29.62093	0	10.15	4004	-95	-27	-12	32	1.145671	1.225633	5	15	0.001	1200
135997	562	-3791	107	-1.962795	-2.444782	-29.3148	0	10.15	4003	-60	319	-29	28	1.148118	1.228528	5	15	0.001	1200
136156	-88	108	-293	0.8805261	-1.404418	-29.50473	0	10.15	4003	66	-15	-17	56	1.168624	1.230726	5	15	0.001	1200
136242	1265	1901	756	1.665058	-2.029709	-29.8732	0	10.15	4002	4	77	9	32	1.166719	1.22965	5	15	0.001	1200
136292	-352	-346	-431	1.757628	-3.058009	-30.53787	0	10.15	4002	30	-78	-1	35	1.138597	1.226525	5	15	0.001	1200
136477	-168	-438	-936	1.918596	0.4970307	-30.09882	0	10.09	4002	118	-70	-16	33	1.07441	1.222083	5	15	0.001	1200
136494	-168	-438	-936	1.918596	0.4970307	-30.09882	0	10.09	4002	57	231	6	35	1.07441	1.222083	5	15	0.001	1200
136587	-81	2569	230	1.498531	-7.30643	-30.47056	0	10.09	4002	-48	279	14	34	1.137946	1.214028	5	15	0.001	1200
136735	-168	-1354	-829	-0.9742207	-5.624746	-29.15335	0	10.09	4002	40	143	-28	73	1.199196	1.170048	5	15	0.001	1200
136794	4	-837	198	-1.070083	-5.561745	-29.24335	0	10.09	4003	93	-336	-33	41	1.199196	1.170048	5	15	0.001	1200
136934	-185	2041	2150	-0.6020507	-5.501258	-30.25809	0	10.09	4002	-105	180	16	0	1.209503	1.120148	3	15	0.001	1200
137135	1163	-135	-1415	0.4186353	-7.634521	-30.81534	0	10.09	4004	-75	234	1	0	1.209459	1.056237	3	15	0.001	1200
137247	2664	3975	403	3.215516	-8.988462	-29.88186	0	10.09	4004	24	189	-3	0	1.209448	1.033497	3	15	0.001	1200
137290	-307	2796	591	3.823252	-11.73184	-29.88472	0	10.09	4003	-19	90	0	0	1.209442	1.020413	3	15	0.001	1200
137401	1563	-1009	-79	5.241775	-11.64051	-29.8288	0	10.49	4004	-123	172	-7	0	1.209436	1.004151	3	15	0.001	1200
137505	-1409	-2775	269	5.389352	-9.026139	-29.90534	0	10.49	4002	49	-75	-2	0	1.209431	0.9894603	3	15	0.001	1200
137597	-1285	-2606	-429	2.355349	-3.574269	-29.90948	0	10.49	4003	8	-85	-8	0	1.209428	0.9734112	3	15	0.001	1200
137733	-330	3976	-538	1.869265	-8.423661	-29.8357	0	10.49	4003	29	-54	-2	0	1.209425	0.9356267	3	15	0.001	1200
137798	511	4072	-25	2.049596	-13.44687	-30.01515	0	10.49	4003	-48	53	0	0	1.209424	0.9206474	3	15	0.001	1200
137912	-453	-985	-164	0.8457057	-13.61303	-29.89535	0	10.49	4004	-90	-106	-8	0	1.209422	0.8824162	3	15	0.001	1200
138045	-3710	16	13	-5.993619	-10.32219	-29.71762	0	10.49	4003	-1	-28	-6	0	1.20942	0.833601	3	15	0.001	1200
138107	-3233	-1516	-137	-9.272459	-9.340446	-29.90069	0	10.49	4004	45	-68	-5	0	1.20942	0.8089854	3	15	0.001	1200
138212	-590	-2320	-762	-10.79285	-5.08638	-29.97182	0	10.49	4003	7	-71	-3	0	1.209419	0.7699891	3	15	0.001	1200
138329	2010	554	57	-8.236543	-4.675949	-30.24721	0	10.83	4003	18	-308	14	0	1.209419	0.7159405	3	15	0.001	1200
138419	3814	828	649	-4.303668	-4.884549	-30.39443	0	10.83	4003	30	19	3	0	1.209419	0.6907223	3	15	0.001	1200
138602	-1055	3252	-1440	-0.9188735	-8.35912	-30.2455	0	10.83	4003	35	259	13	0	1.209419	0.6069821	3	15	0.001	1200
138666	1392	3670	-833	-1.02543	-12.38016	-29.67455	0	10.83	4003	-4	-95	-7	0	1.209419	0.5773472	3	15	0.001	1200
138801	-2276	-4164	-721	-4.126731	0.3464172	-28.67293	0	10.83	4004	32	24	-25	0	1.209419	0.5340451	3	15	0.001	1200
138914	2345	8690	-129	-2.244607	-5.43636	-28.16647	0	10.83	4004	0	0	0	0	1.209419	0.4903291	3	15	0.001	1200
138988	528	-2848	18	-0.7696655	-8.162628	-26.4371	0	10.83	4004	0	0	0	0	1.209419	0.4821272	3	15	0.001	1200
139066	684	-1269	1064	-1.379218	0.7550565	-28.97355	0	10.83	4004	0	0	0	0	1.209419	0.4597895	1	15	0.001	1200
139181	-168	-46	90	-1.353368	1.265111	-28.83383	0	11.29	4003	0	0	0	0	1.209419	0.4086803	1	15	0.001	1200
139253	-79	48	143	-1.423541	1.152645	-28.87101	0	11.29	4004	0	0	0	0	1.209419	0.3988881	1	15	0.001	1200
139345	-56	-39	-203	-1.435123	1.11112	-28.87687	0	11.29	4003	0	0	0	0	1.209419	0.3776068	1	15	0.001	1200
139468	-44	-8	-30	-1.495454	1.021267	-28.91618	0	11.29	4004	0	0	0	0	1.209419	0.3581307	1	15	0.001	1200
139593	-75	-4	28	-1.544476	0.952479	-28.9355	0	11.29	4002	0	0	0	0	1.209419	0.3440417	1	15	0.001	1200
139656	-42	-6	21	-1.563717	0.9254721	-28.94803	0	11.29	4003	0	0	0	0	1.209419	0.3295784	1	15	0.001	1200
139773	-19	0	-52	-1.55971	0.8700826	-28.96711	0	11.29	4002	0	0	0	0	1.209419	0.3154312	1	15	0.001	1200
139892	-62	2	-21	-1.586631	0.8192919	-28.9967	0	11.29	4003	0	0	0	0	1.209419	0.3097803	1	15	0.001	1200
140027	-50	7	-15	-1.647306	0.7864141	-29.02355	0	11.29	4002	0	0	0	0	1.209419	0.3051999	1	15	0.001	1200
140139	-71	20	18	-1.669844	0.7583876	-29.04348	0	11.34	4002	0	0	0	0	1.209419	0.3036707	1	15	0.001	1200
140197	-60	2	23	-1.674835	0.7375724	-29.05589	0	11.34	4004	0	0	0	0	1.209419	0.3004599	1	15	0.001	1200
140272	-67	5	17	-1.682135	0.716491	-29.07203	0	11.34	4003	0	0	0	0	1.209419	0.2929502	1	15	0.001	1200
140377	-58	15	12	-1.698125	0.6989288	-29.08951	0	11.34	4003	0	0	0	0	1.209419	0.2827032	1	15	0.001	1200
140494	-65	0	11	-1.700283	0.6865862	-29.11403	0	11.34	4003	0	0	0	0	1.209419	0.2821398	1	15	0.001	1200
140636	-64	3	35	-1.710317	0.66641	-29.1446	0	11.34	4002	0	0	0	0	1.209419	0.2745037	1	15	0.001	1200
140731	-54	-13	-18	-1.719209	0.6658291	-29.16226	0	11.34	4003	0	0	0	0	1.209419	0.271044	1	15	0.001	1200
140888	-57	-5	18	-1.714113	0.6512696	-29.18538	0	11.34	4002	0	0	0	0	1.209419	0.2739532	1	15	0.001	1200
141052	-52	2	20	-1.700337	0.6351628	-29.21424	0	11.4	4003	0	0	0	0	1.209419	0.2755968	1	15	0.001	1200
141136	-54	1	2	-1.698877	0.6271529	-29.22438	0	11.4	4003	0	0	0	0	1.209419	0.2708623	1	15	0.001	1200
141297	-54	3	12	-1.700477	0.6150035	-29.25557	0	11.4	4002	0	0	0	0	1.209419	0.2465339	1	15	0.001	1200
141519	-60	0	3	-1.692968	0.5987637	-29.2939	0	11.4	4002	0	0	0	0	1.209419	0.2162927	1	15	0.001	1200
141707	-47	-1	13	-1.696674	0.5868619	-29.3208	0	11.4	4004	0	0	0	0	1.209419	0.2241324	1	15	0.001	1200
141873	-65	6	11	-1.688319	0.5835233	-29.34678	0	11.4	4003	0	0	0	0	1.209419	0.226899	1	15	0.001	1200
141954	-48	6	7	-1.691913	0.5746233	-29.36941	0	11.4	4004	0	0	0	0	1.209419	0.2208423	1	15	0.001	1200
142020	-57	-3	7	-1.693937	0.5756414	-29.37889	0	11.4	4003	0	0	0	0	1.209419	0.2168847	1	15	0.001	1200
142196	-61	3	7	-1.68735	0.573386	-29.4056	0	11.4	4003	0	0	0	0	1.209419	0.2166256	1	15	0.001	1200
142324	-47	2	9	-1.681482	0.5787587	-29.42902	0	11.4	4003	0	0	0	0	1.209419	0.2215227	1	15	0.001	1200
142365	-57	5	7	-1.671133	0.5756617	-29.4388	0	11.4	4004	0	0	0	0	1.209419	0.2215651	1	15	0.001	1200
142507	-56	0	11	-1.671791	0.5772336	-29.45897	0	11.4	4004	0	0	0	0	1.209419	0.2154829	1	15	0.001	1200
142556	-62	-2	8	-1.671244	0.5809675	-29.46294	0	11.4	4002	0	0	0	0	1.209419	0.2216663	1	15	0.001	1200
142698	-54	2	7	-1.665882	0.5798567	-29.4822	0	11.4	4004	0	0	0	0	1.209419	0.2232683	1	15	0.001	1200
142850	-57	3	13	-1.661745	0.5811133	-29.50653	0	11.4	4003	0	0	0	0	1.209419	0.2285276	1	15	0.001	1200
142902	-53	0	9	-1.659198	0.5749992	-29.51759	0	11.4	4004	0	0	0	0	1.209419	0.2318425	1	15	0.001	1200
142988	-60	2	16	-1.661699	0.5716902	-29.52818	0	11.4	4002	0	0	0	0	1.209419	0.2405078	1	15	0.001	1200
143044	-51	1	12	-1.66811	0.5725289	-29.54567	0	11.4	4002	0	0	0	0	1.209419	0.245257	1	15	0.001	1200
143190	-47	3	7	-1.661508	0.5673972	-29.56713	0	11.4	4003	0	0	0	0	1.209419	0.250148	1	15	0.001	1200
143286	-48	-2	16	-1.662848	0.5617976	-29.5815	0	11.4	4004	0	0	0	0	1.209419	0.2432477	1	15	0.001	1200
143475	-49	3	14	-1.663561	0.5639808	-29.60662	0	11.4	4003	0	0	0	0	1.209419	0.215718	1	15	0.001	1200
143635	-51	0	11	-1.658157	0.5545791	-29.63321	0	11.4	4003	0	0	0	0	1.209419	0.198254	1	15	0.001	1200
143709	-55	5	8	-1.654273	0.5605829	-29.64818	0	11.46	4002	0	0	0	0	1.209419	0.1960379	1	15	0.001	1200
143788	-57	2	13	-1.652595	0.5639488	-29.65925	0	11.46	4003	0	0	0	0	1.209419	0.1894298	1	15	0.001	1200
143901	-54	-6	14	-1.643253	0.5648959	-29.67776	0	11.46	4004	0	0	0	0	1.209419	0.1872112	1	15	0.001	1200
143988	-53	2	6	-1.643417	0.5667094	-29.68749	0	11.46	4002	0	0	0	0	1.209419	0.1931249	1	15	0.001	1200
144117	-44	0	14	-1.639521	0.5689521	-29.70368	0	11.46	4003	0	0	0	0	1.209419	0.2021754	1	15	0.001	1200
144190	-50	0	3	-1.631402	0.5677987	-29.71823	0	11.46	4002	0	0	0	0	1.209419	0.2183429	1	15	0.001	1200
144256	-48	0	11	-1.628899	0.5689349	-29.72831	0	11.46	4004	0	0	0	0	1.209419	0.2230348	1	15	0.001	1200
144337	-53	3	11	-1.625946	0.5660924	-29.74072	0	11.46	4002	0	0	0	0	1.209419	0.2252366	1	15	0.001	1200
144433	-54	-2	9	-1.623528	0.5638522	-29.75515	0	11.46	4003	0	0	0	0	1.209419	0.2370956	1	15	0.001	1200
144600	-52	1	10	-1.627883	0.5646139	-29.78045	0	11.46	4002	0	0	0	0	1.209419	0.2510118	1	15	0.001	1200
144713	-56	5	11	-1.627543	0.5664564	-29.80057	0	11.46	4003	0	0	0	0	1.209419	0.2566292	1	15	0.001	1200
144828	-54	2	9	-1.627612	0.5697423	-29.81641	0	11.46	4003	0	0	0	0	1.209419	0.2683415	1	15	0.001	1200
144977	-54	3	7	-1.631891	0.567786	-29.84043	0	11.46	4004	0	0	0	0	1.209419	0.2733716	1	15	0.001	1200
145088	-53	3	7	-1.627465	0.5686814	-29.85485	0	11.46	4003	0	0	0	0	1.209419	0.2705627	1	15	0.001	1200
145281	-48	3	13	-1.618308	0.5640496	-29.88113	0	11.46	4003	0	0	0	0	1.209419	0.2664089	1	15	0.001	1200
145372	-52	-3	7	-1.617919	0.5636085	-29.89445	0	11.46	4002	0	0	0	0	1.209419	0.2678701	1	15	0.001	1200
145425	-55	2	9	-1.61713	0.566296	-29.89897	0	11.46	4004	0	0	0	0	1.209419	0.2695259	1	15	0.001	1200
145521	-51	4	6	-1.615633	0.5576873	-29.91315	0	11.46	4004	0	0	0	0	1.209419	0.2693692	1	15	0.001	1200
145627	-38	6	10	-1.604995	0.5563451	-29.92618	0	11.46	4004	0	0	0	0	1.209419	0.2649775	1	15	0.001	1200
145711	-46	5	8	-1.605713	0.5504719	-29.94072	0	11.46	4003	0	0	0	0	1.209419	0.2645763	1	15	0.001	1200
145837	-53	-2	9	-1.594685	0.5483101	-29.95086	0	11.46	4003	0	0	0	0	1.209419	0.2592404	1	15	0.001	1200
145975	-49	-6	5	-1.606231	0.545411	-29.96755	0	11.46	4003	0	0	0	0	1.209419	0.251272	1	15	0.001	1200
146048	-48	3	9	-1.602235	0.5473732	-29.9761	0	11.46	4003	0	0	0	0	1.209419	0.2525979	1	15	0.001	1200
146117	-50	0	10	-1.603069	0.56152	-29.98918	0	11.46	4004	0	0	0	0	1.209419	0.2544455	1	15	0.001	1200
146248	-51	10	7	-1.599714	0.5709312	-30.0047	0	11.46	4003	0	0	0	0	1.209419	0.2607771	1	15	0.001	1200
146323	-45	-4	6	-1.596697	0.5684352	-30.0113	0	11.46	4004	0	0	0	0	1.209419	0.2677107	1	15	0.001	1200
146427	-46	3	5	-1.597044	0.5695548	-30.02315	0	11.46	4003	0	0	0	0	1.209419	0.2730713	1	15	0.001	1200
146602	-49	9	8	-1.60922	0.5701159	-30.04655	0	11.46	4003	0	0	0	0	1.209419	0.272372	1	15	0.001	1200
146683	-47	5	8	-1.609547	0.5647905	-30.05449	0	11.46	4003	0	0	0	0	1.209419	0.269515	1	15	0.001	1200
146753	-48	3	5	-1.625787	0.5686815	-30.06139	0	11.46	4002	0	0	0	0	1.209419	0.2673502	1	15	0.01	1200
146920	-41	-6	1	-1.618519	0.561352	-30.08113	0	11.46	4003	0	0	0	0	1.209419	0.2718658	1	15	0.01	1200
146964	-50	2	5	-1.617644	0.5615586	-30.08412	0	11.46	4004	0	0	0	0	1.209419	0.2723921	1	15	0.01	1200
147099	-41	1	2	-1.618856	0.5535256	-30.10147	0	11.46	4003	0	0	0	0	1.209419	0.2771046	1	15	0.01	1200
147171	-49	-4	9	-1.599818	0.5522555	-30.11467	0	11.46	4003	0	0	0	0	1.209419	0.2769093	1	15	0.01	1200
147256	-54	6	13	-1.585334	0.5464532	-30.12763	0	11.46	4004	0	0	0	0	1.209419	0.2713525	1	15	0.01	1200
147317	-54	-1	8	-1.591199	0.5505813	-30.13625	0	11.46	4002	0	0	0	0	1.209419	0.2640148	1	15	0.01	1200
147465	-40	3	10	-1.582329	0.5557287	-30.14852	0	11.34	4004	0	0	0	0	1.209419	0.258515	1	15	0.01	1200
147562	-53	1	5	-1.572438	0.5630522	-30.16446	0	11.34	4002	0	0	0	0	1.209419	0.258672	1	15	0.01	1200
147598	-47	0	8	-1.575297	0.5586869	-30.17265	0	11.34	4003	0	0	0	0	1.209419	0.2557141	1	15	0.01	1200
147788	-56	-3	5	-1.57469	0.5678915	-30.19324	0	11.34	4004	0	0	0	0	1.209419	0.2440883	1	15	0.01	1200
147838	-49	3	11	-1.578913	0.5643075	-30.20302	0	11.34	4002	0	0	0	0	1.209419	0.2432406	1	15	0.01	1200
147992	-40	-1	11	-1.569564	0.5542653	-30.2189	0	11.34	4004	0	0	0	0	1.209419	0.245241	1	15	0.01	1200
148063	-45	5	11	-1.571081	0.5558103	-30.22819	0	11.34	4002	0	0	0	0	1.209419	0.2531296	1	15	0.01	1200
148134	-37	2	5	-1.568264	0.5525452	-30.23851	0	11.34	4004	0	0	0	0	1.209419	0.2558899	1	15	0.01	1200
148195	-52	1	10	-1.562507	0.5478212	-30.24707	0	11.34	4003	0	0	0	0	1.209419	0.2567068	1	15	0.01	1200
148357	-45	2	11	-1.559291	0.5513732	-30.26595	0	11.4	4004	0	0	0	0	1.209419	0.257281	1	15	0.01	1200
148382	-48	7	8	-1.559243	0.5539292	-30.26999	0	11.4	4004	0	0	0	0	1.209419	0.2581574	1	15	0.01	1200
148492	-51	10	9	-1.562432	0.553323	-30.28324	0	11.4	4003	0	0	0	0	1.209419	0.267326	1	15	0.01	1200
148593	-53	2	11	-1.565996	0.5554691	-30.2998	0	11.4	4003	0	0	0	0	1.209419	0.2733134	1	15	0.01	1200
148708	-36	-3	5	-1.563559	0.5580422	-30.31252	0	11.4	4003	0	0	0	0	1.209419	0.2853284	1	15	0.01	1200
148820	-50	1	8	-1.562801	0.5518672	-30.32523	0	11.4	4003	0	0	0	0	1.209419	0.2873941	1	15	0.01	1200
148883	-46	3	10	-1.568561	0.5512326	-30.33494	0	11.4	4003	0	0	0	0	1.209419	0.2897052	1	15	0.01	1200
148983	-53	-4	5	-1.567747	0.5497238	-30.34992	0	11.4	4003	0	0	0	0	1.209419	0.2967147	1	15	0.01	1200
149072	-52	-2	9	-1.570744	0.5417036	-30.36049	0	11.4	4003	0	0	0	0	1.209419	0.2983288	1	15	0.01	1200
149221	-46	-2	7	-1.568081	0.5454631	-30.37625	0	11.46	4003	0	0	0	0	1.209419	0.3016571	1	15	0.01	1200
149280	-40	-3	10	-1.561896	0.5498257	-30.38395	0	11.46	4002	0	0	0	0	1.209419	0.2986538	1	15	0.01	1200
149412	-45	-2	14	-1.558777	0.5478769	-30.39672	0	11.46	4003	0	0	0	0	1.209419	0.2929936	1	15	0.01	1200
149546	-51	0	6	-1.553907	0.5456651	-30.41395	0	11.46	4002	0	0	0	0	1.209419	0.2844724	1	15	0.01	1200
149717	-48	2	6	-1.544937	0.5475246	-30.43638	0	11.46	4004	0	0	0	0	1.209419	0.2810472	1	15	0.01	1200
149809	-37	1	8	-1.538004	0.5439948	-30.44909	0	11.46	4002	0	0	0	0	1.209419	0.2733995	1	15	0.01	1200
149981	-46	3	11	-1.523675	0.5438156	-30.47279	0	11.46	4003	0	0	0	0	1.209419	0.254931	1	15	0.01	1200
150057	-52	1	9	-1.526355	0.549778	-30.48488	0	11.46	4003	0	0	0	0	1.209419	0.2521625	1	15	0.01	1200
150134	-47	2	11	-1.523106	0.5462061	-30.49882	0	11.46	4004	0	0	0	0	1.209419	0.2386584	1	15	0.01	1200
150184	-46	0	6	-1.528847	0.5494775	-30.50205	0	11.46	4004	0	0	0	0	1.209419	0.2300792	1	15	0.01	1200
150242	-38	0	5	-1.528794	0.5467521	-30.50852	0	11.46	4003	0	0	0	0	1.209419	0.2277714	1	15	0.01	1200
150368	-49	0	8	-1.541033	0.5473608	-30.52056	0	11.46	4003	0	0	0	0	1.209419	0.2174828	1	15	0.01	1200
150520	-40	0	12	-1.535362	0.5485952	-30.53363	0	11.46	4003	0	0	0	0	1.209419	0.1989791	1	15	0.01	1400
150555	-40	1	5	-1.548588	0.5534236	-30.5456	0	11.46	4003	0	0	0	0	1.209419	0.197281	1	15	0.01	1400
150736	-48	3	8	-1.54171	0.5519687	-30.56778	0	11.46	4002	0	0	0	0	1.209419	0.2079399	1	15	0.01	1400
150778	-43	0	13	-1.538092	0.5514511	-30.57267	0	11.46	4003	0	0	0	0	1.209419	0.210557	1	15	0.01	1400
150941	-41	-2	10	-1.535383	0.5442924	-30.59272	0	11.46	4004	0	0	0	0	1.209419	0.2152359	1	15	0.01	1400
151052	-44	-1	3	-1.530496	0.546161	-30.60439	0	11.46	4003	0	0	0	0	1.209419	0.2365054	1	15	0.01	1400
151166	-43	2	4	-1.530545	0.5405439	-30.62008	0	11.46	4003	0	0	0	0	1.209419	0.2427449	1	15	0.01	1400
151239	-45	0	8	-1.529252	0.5452549	-30.62808	0	11.46	4002	0	0	0	0	1.209419	0.2451441	1	15	0.01	1400
151358	-45	-1	2	-1.519606	0.5475038	-30.63804	0	11.46	4002	0	0	0	0	1.209419	0.2493306	1	15	0.01	1400
151532	-43	-2	3	-1.5179	0.5553241	-30.6574	0	11.46	4002	0	0	0	0	1.209419	0.2601775	1	15	0.01	1400
151592	-47	1	6	-1.518164	0.5532907	-30.667	0	11.46	4002	0	0	0	0	1.209419	0.2599185	1	15	0.01	1400
151716	-43	2	9	-1.513337	0.5529216	-30.68086	0	11.46	4002	0	0	0	0	1.209419	0.2699505	1	15	0.01	1400
151851	-43	7	8	-1.498094	0.5497564	-30.69436	0	11.46	4003	0	0	0	0	1.209419	0.2808385	1	15	0.01	1400
151950	-34	5	8	-1.48861	0.5465763	-30.70504	0	11.46	4003	0	0	0	0	1.209419	0.2885554	1	15	0.01	1400
152042	-30	0	11	-1.486188	0.5471557	-30.71262	0	11.46	4003	0	0	0	0	1.209419	0.2918089	1	15	0.01	1400
152168	-48	10	8	-1.482612	0.5496483	-30.72679	0	11.46	4003	0	0	0	0	1.209419	0.2894617	1	15	0.01	1400
152306	-38	1	3	-1.484131	0.5450841	-30.73748	0	11.46	4002	0	0	0	0	1.209419	0.2926909	1	15	0.01	1400
152410	-39	7	5	-1.490713	0.5403028	-30.75354	0	11.46	4003	0	0	0	0	1.209419	0.3045908	1	15	0.01	1400
152488	-41	0	9	-1.483976	0.5355833	-30.76038	0	11.46	4003	0	0	0	0	1.209419	0.3100059	1	15	0.01	1400
152609	-39	-3	10	-1.489509	0.5354084	-30.7732	0	11.46	4002	0	0	0	0	1.209419	0.3173586	1	15	0.01	1400
152703	-40	3	7	-1.485416	0.5403362	-30.78512	0	11.46	4004	0	0	0	0	1.209419	0.3200873	1	15	0.01	1400
152764	-31	1	5	-1.480527	0.5404127	-30.79226	0	11.46	4003	0	0	0	0	1.209419	0.3177854	1	15	0.01	1400
152866	-46	4	11	-1.477393	0.5344498	-30.80258	0	11.46	4002	0	0	0	0	1.209419	0.3168871	1	15	0.01	1400
152945	-39	2	5	-1.476501	0.5377821	-30.809	0	11.46	4010	0	0	0	0	1.209419	0.3199432	1	15	0.01	1400
153057	-41	-4	7	-1.478622	0.5366132	-30.81773	0	11.46	4002	0	0	0	0	1.209419	0.31649	3	15	0.01	1400
153179	-47	-2	3	-1.480296	0.535827	-30.83081	0	11.46	4004	0	0	0	0	1.209419	0.3083322	3	15	0.01	1400
153266	-36	0	7	-1.477705	0.5332612	-30.84076	0	11.46	4002	0	0	0	0	1.209419	0.2994521	3	15	0.01	1400
153339	-35	-5	5	-1.475644	0.5366502	-30.84815	0	11.46	4003	0	0	0	0	1.209419	0.2954677	3	15	0.01	1400
153444	-42	1	1	-1.46777	0.5346077	-30.85566	0	11.46	4003	0	0	0	0	1.209419	0.2834812	3	15	0.01	1400
153562	-45	0	9	-1.467844	0.5318838	-30.86623	0	11.46	4004	0	0	0	0	1.209419	0.2860589	3	15	0.01	1400
153735	-46	-6	6	-1.461071	0.5337372	-30.88357	0	11.46	4004	5	-1	0	0	1.209419	0.2978161	3	15	0.01	1400
153807	-43	1	40	-1.459538	0.5360535	-30.8876	0	11.46	4004	4	-5	0	0	1.209419	0.2958855	3	15	0.01	1400
153899	-52	0	-43	-1.448852	0.5433084	-30.89647	0	11.46	4003	7	-5	0	0	1.209419	0.2920394	3	15	0.01	1400
153976	-33	7	-33	-1.448372	0.5354597	-30.90521	0	11.46	4003	7	0	1	0	1.209419	0.2870669	3	15	0.01	1400
154079	-35	13	77	-1.434089	0.5325214	-30.91574	0	11.46	4004	17	2	1	0	1.209419	0.2864861	3	15	0.01	1400
154190	155	89	142	-1.43002	0.5156461	-30.93477	0	11.46	4002	24	8	0	0	1.209419	0.2814741	3	15	0.01	1400
154244	83	-51	95	-1.422636	0.5413006	-30.93587	0	11.46	4004	-36	-22	2	0	1.209419	0.2794706	3	15	0.01	1400
154354	-84	91	72	-1.475792	0.5289731	-30.94736	0	11.46	4003	12	-14	2	0	1.209419	0.2734464	3	15	0.01	1400
154449	-54	-214	453	-1.498197	0.5380358	-30.94752	0	11.46	4004	-26	-24	-1	0	1.209419	0.2780888	3	15	0.01	1400
154592	9	-133	120	-1.42755	0.6060842	-30.95888	0	11.46	4003	-19	-7	0	0	1.209419	0.2805766	3	15	0.01	1400
154662	73	-248	-1176	-0.7257999	-0.3783994	-30.79159	0	9.87	4002	69	-193	-16	0	1.209419	0.2929348	3	15	0.01	1400
154841	-703	6618	1294	-3.494712	-11.40053	-30.88624	0	9.87	4004	25	199	12	0	1.209419	0.3530591	3	15	0.01	1400
154896	753	4174	-541	-2.644587	-17.86012	-30.94129	0	9.87	4003	22	-92	-10	0	1.209419	0.3589279	3	15	0.01	1400
154985	779	-4473	-707	-1.152887	-16.42533	-30.81183	0	9.87	4004	-64	-124	-8	0	1.209419	0.3789218	3	15	0.01	1400
155042	895	-5743	-513	-0.6521937	-12.82123	-30.61931	0	9.87	4003	-33	-39	-4	0	1.209419	0.3956737	3	15	0.01	1400
155230	1079	23	-267	0.5802763	-3.898561	-30.88938	0	9.87	4002	-65	-116	-6	0	1.209419	0.4415686	3	15	0.01	1400
155313	516	2676	1106	1.926814	-5.81177	-30.44489	0	9.87	4002	-1	-211	-32	0	1.209419	0.4759099	3	15	0.01	1400
155382	-395	-1766	-1047	1.278523	-7.244346	-30.76064	0	9.87	4004	-68	-276	-6	0	1.209419	0.4941609	3	15	0.01	1400
155510	-847	-1632	969	0.04620714	-3.541232	-32.12579	0	9.87	4003	-32	76	43	0	1.209419	0.5286245	3	15	0.01	1400
155571	-612	-671	-686	-0.7441925	-2.847777	-32.79204	0	10.66	4003	21	70	42	0	1.209419	0.5529901	3	15	0.01	1400
155689	-104	571	102	-0.5895786	-2.626449	-32.463	0	10.66	4002	-6	78	22	0	1.209419	0.5872074	3	15	0.01	1400
155766	194	-496	-202	-0.9763119	-3.421671	-32.00918	0	10.66	4004	-65	266	-1	0	1.209419	0.6492501	3	15	0.01	1400
155828	448	-74	-1944	-1.697589	-4.884514	-31.11211	0	10.66	4003	42	-9	-10	0	1.209419	0.7061914	3	15	0.01	1400
155927	578	-1900	-523	-2.08056	-4.763507	-30.24712	0	10.66	4004	-8	-202	-23	0	1.209419	0.7516593	3	15	0.01	1400
156053	-663	-1891	-817	-2.006058	-3.213008	-31.48723	0	10.66	4004	42	216	12	0	1.209419	0.8174528	3	15	0.01	1400
