time(ms)	gyro_x(deg/s)	gyro_y(deg/s)	gyro_z(deg/s)	orientation_roll(deg)	orientation_pitch(deg)	orientation_yaw(deg)	throttle	battery(V)	loop_time(uS)	pid_output_roll	pid_output_pitch	pid_output_yaw	pid_output_throttle	ultrasonic_alt	baro_alt	flight_mode	p_gain_altitude	i_gain_altitude	d_gain_altitude
156287	-210	-1829	-917	-0.1955471	-5.21215	-32.0903	0	10.66	4003	0	-400	17	0	1.209419	0.9306369	3	15	0.01	1400
156422	-247	-1039	-160	1.051296	-2.566622	-32.49759	0	10.66	4003	19	-95	36	0	1.209419	0.961597	3	15	0.01	1400
156490	541	781	331	0.8722256	-2.068317	-32.33927	0	10.66	4004	-67	195	33	0	1.209419	0.9681579	3	15	0.01	1400
156604	-1058	629	469	0.5363523	-2.396976	-31.33223	0	10.66	4002	-35	93	19	0	1.209419	0.977703	3	15	0.01	1400
156715	-557	1781	582	-0.8243721	-2.716566	-31.1865	0	10.66	4002	6	-265	-1	0	1.209419	0.9799078	3	15	0.01	1400
156738	-557	1781	582	-0.8243721	-2.716566	-31.1865	0	10.66	4002	-45	71	34	0	1.209419	0.9815298	3	15	0.01	1400
156891	2875	-1751	-1238	0.1685676	-3.342632	-31.19123	0	10.66	4003	-117	-42	-1	0	1.209419	0.9852565	3	15	0.01	1400
156968	143	-292	524	2.387664	-2.312692	-30.70328	0	10.66	4003	-69	175	-3	0	1.209419	0.9882014	3	15	0.01	1400
157043	900	531	246	2.019941	-2.100834	-30.2355	0	10.66	4002	-63	-30	-12	0	1.209419	0.9926116	3	15	0.01	1400
157234	680	5320	1436	0.4797869	-6.964776	-31.07416	0	10.66	4003	-41	-69	7	0	1.209419	0.9966464	3	15	0.01	1400
157270	717	4254	-21	0.7252887	-8.882163	-31.10826	0	10.66	4003	-80	167	-3	0	1.209419	0.9986488	3	15	0.01	1400
157445	-1127	4679	1487	1.351535	-15.70353	-31.67799	0	10.72	4002	85	186	16	0	1.209419	1.014728	3	15	0.01	1400
157472	-1127	4679	1487	1.351535	-15.70353	-31.67799	0	10.72	4002	85	186	16	0	1.209419	1.022537	3	15	0.01	1400
157559	718	-730	-74	0.5778309	-15.25624	-31.07192	0	10.72	4003	-33	58	-4	0	1.209419	1.036687	3	15	0.01	1400
157717	-544	920	500	-0.1519772	-6.149437	-30.45633	0	10.72	4004	28	-348	-12	0	1.209419	1.078795	3	15	0.01	1400
157832	1047	653	-194	2.035929	-8.384208	-30.30505	0	10.72	4002	-57	-47	-12	0	1.209419	1.109874	3	15	0.01	1400
157966	-557	830	-834	1.802153	-10.16671	-30.34419	0	10.72	4003	82	-173	-12	0	1.209419	1.155678	3	15	0.01	1400
158022	-851	887	-513	0.8165045	-11.59556	-30.74932	0	10.72	4002	62	-161	-9	0	1.209419	1.174392	3	15	0.01	1400
158073	59	-412	438	0.1584826	-10.55704	-30.812	0	10.72	4003	-8	-38	-7	0	1.209419	1.188544	3	15	0.01	1400
158243	-987	1081	76	0.885359	-11.85485	-30.9566	0	10.72	4004	38	-94	-3	0	1.209419	1.26176	3	15	0.01	1400
158327	274	451	532	0.9216338	-12.86752	-31.14236	0	11.23	4004	6	-166	2	0	1.209419	1.289092	3	15	0.01	1400
158448	-81	-2909	-1466	0.4197156	-9.856902	-30.11988	0	11.23	4002	8	-356	-25	0	1.209419	1.338289	3	15	0.01	1400
158504	-1370	-456	-694	-0.2658442	-8.779383	-30.34475	0	11.23	4003	-77	-148	-6	0	1.209419	1.338289	3	15	0.01	1400
158566	652	758	-72	-0.1448928	-9.037976	-30.53725	0	11.23	4004	-49	-57	-15	0	1.209419	1.382915	3	15	0.01	1400
158695	-1124	-740	999	-1.109263	-3.969746	-31.67107	0	11.23	4003	101	-17	17	0	1.209419	1.42101	3	15	0.01	1400
158834	886	368	-1110	0.515719	-4.330431	-31.11815	0	11.23	4003	35	217	5	0	1.209419	1.44749	3	15	0.01	1400
158905	238	-1244	98	0.8108823	-3.577693	-30.80232	0	11.23	4002	-87	57	-2	0	1.209419	1.462848	3	15	0.01	1400
159015	963	2364	409	1.828528	-5.3763	-30.30369	0	11.23	4003	18	-251	-11	0	1.209419	1.468076	3	15	0.01	1400
159151	-111	-3189	-1228	0.3019357	-5.71641	-30.96511	0	11.23	4003	-124	107	9	0	1.209419	1.477463	3	15	0.01	1400
159218	1455	437	794	1.530312	-5.47927	-31.25283	0	11.23	4003	-29	1	22	0	1.209419	1.480905	3	15	0.01	1400
159360	-338	741	-978	2.895606	-8.445178	-30.71375	0	10.66	4004	-146	221	7	0	1.209419	1.48004	3	15	0.01	1400
159409	-833	-1214	-1850	2.310494	-8.455986	-30.24961	0	10.66	4004	100	-331	-41	23	1.209419	1.479737	5	15	0.01	1400
159560	1480	3267	271	-0.3569651	-5.094121	-30.05682	0	10.66	4002	-41	-114	-7	26	1.20954	1.472316	5	15	0.01	1400
159741	565	589	421	1.322305	-9.646058	-31.43836	0	10.66	4003	-26	-135	23	24	1.149266	1.473675	5	15	0.01	1400
159825	-858	898	56	0.7057509	-9.988358	-31.16067	0	10.66	4002	67	-223	-2	26	1.201165	1.474671	5	15	0.01	1400
159892	-440	423	17	0.05269557	-10.47944	-31.39595	0	10.66	4003	14	-134	20	23	1.214138	1.476505	5	15	0.01	1400
159960	-668	790	-63	0.6581861	-11.00995	-31.57381	0	10.66	4003	138	126	6	22	1.163304	1.478066	5	15	0.01	1400
160050	-408	-1111	603	0.2734818	-9.747106	-31.80201	0	10.66	4004	25	-9	19	21	1.135984	1.485085	5	15	0.01	1400
160170	-551	-1859	-395	0.5815872	-5.183298	-31.33998	0	10.89	4004	-59	152	14	40	1.1664	1.490944	5	15	0.01	1400
160286	221	-1192	-886	-0.03255558	-3.44774	-31.15109	0	10.89	4002	-45	-171	6	10	1.188851	1.509109	5	15	0.01	1400
160343	221	-1192	-886	-0.03255558	-3.44774	-31.15109	0	10.89	4002	-45	-171	6	10	1.201131	1.520435	5	15	0.01	1400
160490	322	-2268	-1504	-0.05714676	-4.747997	-30.96024	0	10.89	4004	-67	82	1	10	1.07015	1.542168	5	15	0.01	1400
160569	-326	128	645	-0.6985878	-3.168944	-30.47955	0	10.89	4003	-26	-343	-20	7	1.057563	1.54598	5	15	0.01	1400
160734	746	4252	449	1.576496	-9.639893	-31.28333	0	10.89	4003	49	32	6	12	1.070506	1.578986	5	15	0.01	1400
160796	-717	3035	-255	0.8650788	-12.75551	-31.2702	0	10.89	4004	-87	357	15	10	1.094316	1.586511	5	15	0.01	1400
160878	1071	1197	479	1.592576	-14.69398	-30.72151	0	10.89	4002	-39	-112	3	9	1.11217	1.596531	5	15	0.01	1400
161027	-797	1781	774	0.6502518	-15.84124	-31.15877	0	10.89	4004	69	250	4	12	1.060379	1.60692	5	15	0.01	1400
161152	380	-988	-369	1.722134	-12.32121	-30.86873	0	10.55	4002	-69	148	18	10	1.062636	1.615782	5	15	0.01	1400
161184	513	-2444	-797	1.662199	-11.43531	-30.81487	0	10.55	4008	22	-34	-16	10	1.051109	1.618548	5	15	0.01	1400
161246	-20	831	915	1.597021	-10.38142	-30.84116	0	10.55	4004	-14	154	0	9	0.9689441	1.627888	5	15	0.01	1400
161362	-935	-3573	-1711	-0.5560068	-8.208956	-31.00199	0	10.55	4004	-80	261	11	14	1.027414	1.64732	5	15	0.01	1400
161483	102	1564	971	0.1433308	-6.770897	-31.16195	0	10.55	4003	-34	40	-9	14	1.078882	1.664694	5	15	0.01	1400
161601	424	-2556	-507	-0.09248795	-7.038563	-31.25975	0	10.55	4004	36	-323	-1	6	1.179472	1.687849	5	15	0.01	1400
161654	874	-1880	552	0.1842185	-6.252056	-31.25809	0	10.55	4004	60	-204	-24	9	1.215147	1.697088	5	15	0.01	1400
161762	-233	-294	-561	0.3108153	-4.505577	-30.52339	0	10.55	4002	96	67	-20	7	1.244153	1.711214	5	15	0.01	1400
161898	550	534	65	0.9104587	-6.110929	-30.78075	0	10.55	4002	67	-153	-20	3	1.311123	1.743774	5	15	0.01	1400
162023	1213	2587	1416	2.083567	-8.311579	-30.73373	0	11.06	4004	-73	207	6	0	1.330058	1.780886	5	15	0.01	1400
162159	-40	-55	-241	3.174181	-10.96136	-30.35178	0	11.06	4004	-109	216	-10	0	1.267003	1.84149	5	15	0.01	1400
162206	312	-1975	-1474	3.190909	-10.8073	-30.10114	0	11.06	4003	61	-248	-37	0	1.140303	1.849834	5	15	0.01	1400
162322	-854	-2258	98	2.485126	-8.52346	-30.00682	0	11.06	4003	21	37	-17	0	1.141372	1.894574	5	15	0.01	1400
162380	-1273	-2812	-166	1.552386	-6.149598	-30.21643	0	11.06	4004	0	94	-15	2	1.18278	1.905657	5	15	0.01	1400
162504	1038	620	1050	0.9394301	-2.792077	-30.7268	0	11.06	4004	1	45	-10	6	1.293869	1.922011	5	15	0.01	1400
162644	-736	-1932	196	1.990728	-5.409558	-30.74504	0	11.06	4003	-31	-116	11	14	1.232748	1.922305	5	15	0.01	1400
162748	-330	-22	893	1.08796	-4.985819	-30.84098	0	11.06	4004	113	21	-11	24	1.255349	1.912323	5	15	0.01	1400
162768	-330	-22	893	1.08796	-4.985819	-30.84098	0	11.06	4004	-43	-7	23	14	1.255349	1.912323	5	15	0.01	1400
162898	80	553	-241	-0.5244368	-7.909436	-31.61655	0	11.17	4003	-20	215	12	15	1.166815	1.894071	5	15	0.01	1400
163028	-613	312	-423	0.3692002	-9.325257	-31.21516	0	11.17	4002	114	-122	-19	8	1.210533	1.889484	5	15	0.01	1400
163128	-68	177	650	0.08497565	-8.33602	-30.91539	0	11.17	4002	-25	-266	-39	9	1.291658	1.895947	5	15	0.01	1400
163168	-368	-1019	-612	0.4882942	-6.772882	-30.09098	0	11.17	4004	-130	190	-6	15	1.291658	1.895947	5	15	0.01	1400
163280	-851	91	-411	0.1190935	-9.139073	-30.61248	0	11.17	4004	28	137	-10	12	1.233989	1.896357	5	15	0.01	1400
163450	2397	-760	-1699	-0.02157258	-7.909135	-30.43957	0	11.17	4004	-113	-48	-21	26	1.179225	1.881993	5	15	0.01	1400
163495	-2171	1986	-520	1.106685	-9.943371	-30.67585	0	11.17	4004	179	-134	-16	17	1.198061	1.871393	5	15	0.01	1400
163625	892	123	709	-0.8426153	-10.5397	-30.98642	0	11.17	4004	-50	216	4	16	1.208483	1.850717	5	15	0.01	1400
163648	892	123	709	-0.8426153	-10.5397	-30.98642	0	11.17	4004	-13	-309	-17	17	1.088552	1.841956	5	15	0.01	1400
163765	-325	164	-156	-0.1205013	-12.26392	-30.29773	0	11.17	4003	20	-213	-27	23	1.180704	1.815713	5	15	0.01	1400
163852	866	800	44	0.3990449	-12.24597	-29.91303	0	11	4004	-113	-17	-21	36	1.187072	1.79375	5	15	0.01	1400
163979	-1090	1696	1136	-0.6903036	-13.35894	-30.57233	0	11	4002	67	-142	-11	21	1.161923	1.759446	5	15	0.01	1400
164119	481	548	788	-0.5583341	-12.12311	-30.84041	0	11	4002	-103	-36	8	28	1.111586	1.74316	5	15	0.01	1400
164165	481	548	788	-0.5583341	-12.12311	-30.84041	0	11	4002	101	204	-2	15	1.116905	1.732407	5	15	0.01	1400
164323	548	-2083	-1236	-0.1852531	-10.32452	-31.39342	0	11	4004	21	-318	-6	14	1.113374	1.720474	5	15	0.01	1400
164378	846	137	-930	0.5334304	-9.485371	-30.97089	0	11	4003	-17	90	7	10	0.9978385	1.725305	5	15	0.01	1400
164459	-943	1235	-1739	0.1972456	-10.86543	-30.81986	0	11	4004	42	-259	-24	8	1.022984	1.734684	5	15	0.01	1400
164636	-1167	-755	-583	0.5741996	-14.21296	-31.06228	0	11	4002	87	-243	-9	11	1.01514	1.760524	5	15	0.01	1400
164705	185	-764	782	0.2363277	-12.91713	-31.19871	0	11	4003	-77	172	13	16	1.174154	1.775396	5	15	0.01	1400
164802	-487	-1482	617	0.003841176	-8.106386	-30.92822	0	9.58	4004	-2	-51	12	11	1.180398	1.77837	5	15	0.01	1400
164859	154	-2687	-1059	-0.1532816	-7.415766	-30.71972	0	9.58	4004	84	34	-14	13	1.222798	1.779355	5	15	0.01	1400
164979	10	-1519	36	0.3673247	-6.001842	-30.92396	0	9.58	4004	-34	-109	5	13	1.261434	1.774582	5	15	0.01	1400
165060	702	-550	348	0.4056115	-5.233169	-30.95403	0	9.58	4003	-1	118	10	23	1.242445	1.773458	5	15	0.01	1400
165164	54	-876	-450	0.5481522	-3.899412	-30.899	0	9.58	4003	-69	227	23	17	1.17201	1.782819	5	15	0.01	1400
165267	68	186	-1202	0.9825606	-5.676692	-31.69579	0	9.58	4002	-36	-132	4	13	1.180085	1.780613	5	15	0.01	1400
165414	-316	1097	978	1.333433	-6.067919	-31.39552	0	9.58	4003	-12	-66	11	15	1.135072	1.771513	5	15	0.01	1400
165493	191	1660	693	0.309099	-6.692986	-31.18216	0	9.58	4004	33	36	10	16	1.151866	1.76847	5	15	0.01	1400
165577	39	-2060	-929	0.7865455	-6.960248	-30.93389	0	9.58	4003	24	-341	1	13	1.153091	1.76621	5	15	0.01	1400
165704	-853	2534	1242	0.6260588	-6.42276	-30.8086	0	10.6	4003	107	176	5	24	1.15951	1.761282	5	15	0.01	1400
165842	16	433	148	-0.4141387	-10.3016	-32.07214	0	10.6	4002	-26	206	17	13	1.248255	1.767052	5	15	0.01	1400
165933	-402	-3712	-1783	-0.740953	-8.051089	-31.11004	0	10.6	4004	-40	138	6	13	1.255101	1.766465	5	15	0.01	1400
166045	-565	-599	-94	-1.046897	-5.168055	-30.22448	0	10.6	4002	-24	298	-3	10	1.214313	1.771008	5	15	0.01	1400
166196	733	-435	-1130	-0.4347204	-8.16173	-30.33566	0	10.6	4002	53	-294	-29	11	1.156607	1.782381	5	15	0.01	1400
166311	366	537	501	-0.2992522	-7.565907	-30.41276	0	10.6	4009	4	-400	-15	12	1.126264	1.798502	5	15	0.01	1400
166364	-71	-615	-809	-0.0407391	-7.37002	-30.38282	0	10.6	4004	74	-300	-29	21	1.149884	1.801624	5	15	0.01	1400
166520	1279	3039	1417	1.259224	-9.666001	-30.59853	0	10.6	4003	-105	278	9	7	1.192692	1.822542	5	15	0.01	1400
166585	361	3228	1568	1.916869	-13.30877	-30.86096	0	9.81	4002	12	-263	-8	0	1.166935	1.843705	5	15	0.01	1400
166660	431	502	-942	1.705645	-14.82817	-30.7374	0	9.81	4004	-65	-29	-2	-3	1.165279	1.87434	5	15	0.01	1400
166858	19	404	919	1.199597	-13.3112	-30.10568	0	9.81	4003	-49	-43	-7	-1	1.223595	1.967346	5	15	0.01	1400
166932	-124	614	148	0.4926329	-13.13237	-30.35193	0	9.81	4004	-24	-118	-7	-2	1.261489	2.008765	5	15	0.01	1400
167052	-732	-1893	-662	0.7282427	-12.81926	-29.95677	0	9.81	4003	56	-146	-25	0	1.222595	2.032275	5	15	0.01	1400
167099	-1128	-2366	-195	-1.440519	-9.576339	-30.38706	0	9.81	4003	40	-127	-19	0	1.165864	2.059103	5	15	0.01	1400
167159	-1020	-2072	437	-1.732972	-9.128018	-30.71357	0	9.81	4003	104	-259	-1	2	1.181534	2.076789	5	15	0.01	1400
167256	-1257	-651	420	-3.032733	-9.557475	-31.42186	0	9.81	4004	-30	37	16	4	1.245311	2.093975	5	15	0.01	1400
167409	827	-119	-640	-3.287293	-7.148181	-31.10909	0	9.81	4004	1	-93	-15	2	1.1952	2.11818	5	15	0.01	1400
167525	-211	-550	245	-2.3865	-6.95306	-30.73369	0	10.55	4004	33	-137	-29	4	1.231753	2.135973	5	15	0.01	1400
167548	-211	-550	245	-2.3865	-6.95306	-30.73369	0	10.55	4004	36	-239	1	7	1.235968	2.139831	5	15	0.01	1400
167643	1034	3001	687	-2.153526	-9.132247	-30.8696	0	10.55	4002	49	114	-3	6	1.190955	2.14799	5	15	0.01	1400
167764	-47	-3210	-622	-0.3965066	-8.579865	-30.70869	0	10.55	4002	14	-213	-12	7	1.192648	2.151771	5	15	0.01	1400
167879	222	-1052	-620	0.124599	-7.257247	-30.39566	0	10.55	4004	55	96	-30	9	1.269603	2.150596	5	15	0.01	1400
167964	727	1741	1213	0.003353289	-7.676548	-30.58173	0	10.55	4003	-68	237	-3	10	1.215089	2.146277	5	15	0.01	1400
168055	-487	-46	-146	0.9342344	-8.244456	-30.98092	0	10.55	4004	47	-230	-9	11	1.185207	2.141422	5	15	0.01	1400
168162	1179	1120	-504	2.109238	-9.686617	-31.66402	0	10.55	4003	-70	129	30	15	1.125965	2.137283	5	15	0.01	1400
168293	-141	1204	-726	3.137372	-12.11975	-31.99634	0	10.55	4003	26	117	12	19	1.038426	2.126313	5	15	0.01	1400
168394	301	-92	-209	0.4797737	-11.45739	-30.82598	0	10.32	4003	-81	-187	-13	9	1.129661	2.120349	5	15	0.01	1400
168435	301	-92	-209	0.4797737	-11.45739	-30.82598	0	10.32	4003	-74	68	2	14	1.136539	2.119983	5	15	0.01	1400
168586	9	336	-479	-0.2201707	-10.58073	-30.25544	0	10.32	4004	53	18	-31	10	1.199015	2.118081	5	15	0.01	1400
168637	873	1266	1211	0.4520233	-10.5709	-30.3463	0	10.32	4003	-24	28	-1	11	1.242487	2.114864	5	15	0.01	1400
168742	-127	1264	604	0.4878505	-11.51064	-30.87759	0	10.32	4003	140	-244	-9	14	1.226949	2.107423	5	15	0.01	1400
168991	571	1278	108	0.3990366	-16.31504	-30.71256	0	10.32	4003	-85	346	-12	36	1.186372	2.03508	5	15	0.01	1400
169089	-986	-2803	-147	-0.813383	-15.60683	-30.22198	0	10.32	4002	84	0	-26	21	1.139462	2.012462	5	15	0.01	1400
169167	1257	-1916	1078	-0.7056477	-11.1937	-30.06781	0	10.32	4003	-54	92	-12	22	1.165484	1.968608	5	15	0.01	1400
169288	-1247	567	553	-0.8826944	-8.005914	-31.38239	0	10.72	4004	-23	-199	37	25	1.1588	1.932075	5	15	0.01	1400
169341	319	-145	-677	-0.6677616	-7.704396	-31.8008	0	10.72	4003	46	-105	8	22	1.180418	1.899963	5	15	0.01	1400
169468	-81	-1437	13	-0.1643766	-3.540056	-31.32914	0	10.72	4003	42	50	-5	36	1.053805	1.859951	5	15	0.01	1400
169586	1336	-138	1234	-0.5129852	-4.184014	-31.48616	0	10.72	4003	-19	-246	8	43	1.063283	1.819871	5	15	0.01	1400
169664	-130	-276	708	0.3831702	-3.257622	-31.45554	0	10.72	4003	-5	230	12	27	1.104389	1.774413	5	15	0.01	1400
169777	-512	-1502	-516	0.06910229	-0.9402212	-30.66962	0	10.72	4004	93	-138	-16	21	1.131649	1.739357	5	15	0.01	1400
169904	-296	2904	1821	-0.1899877	-2.687416	-31.39417	0	10.72	4004	-73	235	28	27	1.029215	1.711852	5	15	0.01	1400
170022	1030	129	-841	-0.08137342	-5.721081	-31.6972	0	10.72	4002	-36	-100	31	48	1.070509	1.658819	5	15	0.01	1400
170115	610	1408	-560	1.0371	-6.543277	-31.42039	0	10.66	4004	-51	-143	3	32	1.082136	1.648807	5	15	0.01	1400
170150	610	1408	-560	1.0371	-6.543277	-31.42039	0	10.66	4004	-51	-143	3	32	1.102018	1.616031	5	15	0.01	1400
170249	-2052	2585	1862	0.8678215	-8.218348	-31.19258	0	10.66	4003	43	-232	-9	33	1.019852	1.549763	5	15	0.01	1400
170370	1112	-346	260	1.116464	-9.330482	-31.27649	0	10.66	4003	-79	104	27	34	0.9974195	1.508974	5	15	0.01	1400
170514	-708	-759	233	-0.4562399	-8.163056	-31.35159	0	10.66	4003	-16	-91	16	37	1.102388	1.463483	5	15	0.01	1400
170586	-214	429	-54	-1.332836	-6.994477	-30.85625	0	10.66	4004	-44	103	8	36	1.128329	1.440542	5	15	0.01	1400
170664	769	2016	1419	-0.6229931	-6.930259	-30.66955	0	10.66	4002	27	42	-5	36	1.29443	1.410516	5	15	0.01	1400
170835	-160	355	631	-0.2836111	-9.848527	-31.05242	0	10.66	4003	-112	137	8	28	1.166664	1.410825	5	15	0.01	1400
170854	-160	355	631	-0.2836111	-9.848527	-31.05242	0	10.66	4003	35	-57	-8	50	1.16257	1.411358	5	15	0.01	1400
171004	310	1763	540	-0.07312094	-11.32777	-31.96992	0	10.66	4002	-8	-74	26	26	1.128149	1.429695	5	15	0.01	1400
171139	-433	-587	-1735	0.5109183	-13.05034	-30.51134	0	10.38	4004	10	31	-14	28	1.213236	1.441198	5	15	0.01	1400
171173	-433	-587	-1735	0.5109183	-13.05034	-30.51134	0	10.38	4004	-65	47	-16	50	1.24983	1.441379	5	15	0.01	1400
171255	-1197	255	-23	0.1035382	-13.01114	-30.13788	0	10.38	4004	-18	34	-24	47	1.241574	1.445308	5	15	0.01	1400
171365	-392	-1579	-305	-0.9291622	-11.30688	-29.8347	0	10.38	4003	-8	278	-35	22	1.142913	1.460816	5	15	0.01	1400
171482	27	1068	-275	-0.3234234	-11.9074	-30.58096	0	10.38	4004	36	-241	-9	18	1.142325	1.487108	5	15	0.01	1400
171602	-24	76	-1099	-0.1672863	-12.76378	-30.75275	0	10.38	4003	-47	-86	13	7	1.151182	1.528685	5	15	0.01	1400
171654	55	1183	990	-0.6973245	-7.660945	-30.716	0	10.38	4003	29	-283	-25	5	1.171488	1.566088	5	15	0.01	1400
171771	921	355	936	-0.8935648	-9.229114	-31.2124	0	10.38	4004	-102	171	13	1	1.306632	1.617832	5	15	0.01	1400
171835	-86	-1948	-903	-0.6764548	-7.584023	-31.11746	0	10.38	4003	-8	-198	-12	1	1.175969	1.642702	5	15	0.01	1400
172003	-861	-1062	-797	-0.01520546	-5.910616	-31.04099	0	10.15	4002	-52	1	16	-3	1.21868	1.737865	5	15	0.01	1400
172078	1051	-586	774	-1.019831	-5.304637	-30.9929	0	10.15	4002	-59	-85	15	-2	1.12217	1.770804	5	15	0.01	1400
172167	1285	-1321	-1003	-0.6628033	-4.438236	-30.76775	0	10.15	4002	-31	-84	0	1	1.165532	1.801341	5	15	0.01	1400
172238	-399	-1565	660	0.1757544	-3.819231	-30.71351	0	10.15	4004	33	-154	1	0	1.294891	1.852158	5	15	0.01	1400
172357	692	-892	-958	0.6986396	-3.728113	-30.53107	0	10.15	4003	52	-187	-26	0	1.357756	1.882709	5	15	0.01	1400
172441	-45	-1295	-250	1.073711	-3.476392	-30.40996	0	10.15	4004	46	-77	-20	-4	1.362548	1.913406	5	15	0.01	1400
172579	-456	-1750	-510	0.3586275	-2.201425	-30.56842	0	10.15	4003	13	-29	-14	1	1.368871	1.976429	5	15	0.01	1400
172664	-438	-1898	-697	0.6729583	-1.865631	-30.43331	0	10.15	4004	119	-183	-23	7	1.381875	1.981443	5	15	0.01	1400
172730	-444	-1164	123	0.5004296	-1.987638	-30.39535	0	10.15	4004	-143	192	-7	5	1.354321	2.001223	5	15	0.01	1400
172855	235	1648	795	-0.8775128	-3.466985	-30.64056	0	10.6	4002	-56	75	2	11	1.241736	2.025491	5	15	0.01	1400
172932	848	-2474	-1493	-0.2933028	-4.385731	-30.44491	0	10.6	4004	-53	148	-23	10	1.213243	2.028227	5	15	0.01	1400
173126	181	964	879	-0.517669	-3.36965	-30.37075	0	10.6	4004	48	113	-9	28	1.076565	2.018473	5	15	0.01	1400
173210	676	2177	1109	-0.9358578	-4.853992	-30.85312	0	10.6	4003	-62	222	9	34	1.091561	1.992252	5	15	0.01	1400
173240	1062	511	-655	0.1116226	-5.598033	-30.7219	0	10.6	4002	39	-97	-19	23	1.089215	1.985124	5	15	0.01	1400
173448	-411	-26	-310	-0.3861585	-5.24199	-30.39792	0	10.6	4003	-49	-229	-9	22	1.13701	1.926188	5	15	0.01	1400
173525	-17	-727	-712	0.1455617	-5.34686	-30.04943	0	10.6	4004	153	-197	-38	20	1.181072	1.909909	5	15	0.01	1400
173592	-601	351	1359	-0.257493	-5.443169	-30.40029	0	10.6	4003	-22	50	-1	23	1.212882	1.893192	5	15	0.01	1400
173752	1303	2966	1251	0.1947043	-4.803783	-29.79773	0	11.06	4004	14	-290	-32	17	1.154922	1.868442	5	15	0.01	1400
173868	497	2461	940	1.756045	-9.361606	-29.1818	0	11.06	4003	-99	-54	-57	26	1.128977	1.860479	5	15	0.01	1400
174041	-1954	-2604	551	0.6570948	-3.737015	-29.72105	0	11.06	4002	-42	93	-26	13	1.066517	1.857234	5	15	0.01	1400
174083	-877	-2648	285	0.1756	-2.545627	-30.17636	0	11.06	4003	128	-185	-28	14	1.067019	1.856925	5	15	0.01	1400
174176	1649	2469	240	0.8401623	-2.568719	-30.67908	0	11.06	4003	20	178	-9	16	1.084323	1.851342	5	15	0.01	1400
174241	370	1918	145	2.428704	-5.885478	-30.16348	0	11.06	4004	-29	96	-23	19	1.144391	1.847212	5	15	0.01	1400
174383	-1498	-3116	89	1.397519	-4.267891	-30.02776	0	11.06	4002	-8	-13	-18	19	1.221609	1.819749	5	15	0.01	1400
174445	-412	1308	1362	0.4213952	-2.03799	-30.7087	0	11.06	4002	-19	311	11	35	1.25836	1.815732	5	15	0.01	1400
174563	-673	971	-285	-0.7957449	-6.308081	-31.73462	0	11.06	4002	-51	-193	20	18	1.314237	1.796731	5	15	0.01	1400
174650	930	-1363	-1699	1.112971	-7.744569	-31.44787	0	11.06	4003	4	-67	-10	15	1.294565	1.798426	5	15	0.01	1400
174757	-1494	295	-386	-0.4022452	-7.268864	-31.52854	0	10.43	4002	97	-90	7	13	1.277119	1.806345	5	15	0.01	1400
174873	1828	2597	574	-0.1529076	-8.116262	-30.72377	0	10.43	4004	-4	154	4	13	1.247064	1.812604	5	15	0.01	1400
174961	1029	8569	794	1.410395	-13.04709	-30.79847	0	10.43	4002	-121	264	4	15	1.250473	1.826578	5	15	0.01	1400
175097	-1658	3892	-335	0.6985206	-24.83293	-30.64856	0	10.43	4003	75	-66	-16	11	1.14575	1.858474	5	15	0.01	1400
175255	234	4096	-166	-0.2108294	-27.95965	-30.27164	0	10.43	4004	32	-56	-16	18	1.113623	1.874163	5	15	0.01	1400
175282	-196	3452	484	0.4345803	-30.05283	-30.52916	0	10.43	4004	99	-115	-7	14	1.113976	1.875437	5	15	0.01	1400
175435	640	3756	-72	1.129821	-32.12092	-31.21412	0	10.43	4003	47	-42	5	20	1.130904	1.862377	5	15	0.01	1400
175489	1230	4588	-97	1.561704	-33.37636	-31.2341	0	10.43	4003	-101	76	9	24	1.161495	1.847559	5	15	0.01	1400
175564	779	2997	-302	2.529315	-35.34161	-30.73668	0	10.43	4003	-31	99	10	19	1.161463	1.837937	5	15	0.01	1400
175703	-1130	895	-1793	1.299371	-35.79971	-30.67615	0	10.6	4002	-11	-144	7	25	1.123339	1.816262	5	15	0.01	1400
175773	460	4819	608	1.013172	-36.33357	-30.09067	0	10.6	4003	-92	130	10	28	1.003008	1.7939	5	15	0.01	1400
175977	-915	-11697	36	-0.1049596	-25.10288	-29.60622	0	10.6	4003	-184	90	-22	28	1.008217	1.725602	5	15	0.01	1400
176027	-1597	-14142	-565	-0.9358461	-17.20536	-29.10049	0	10.6	4002	-74	79	-28	29	1.017277	1.701466	5	15	0.01	1400
176107	-7438	-12753	573	-9.390252	7.783981	-29.20519	0	10.6	4003	149	-7	-10	23	1.001647	1.688629	5	15	0.01	1400
176178	-7438	-12753	573	-9.390252	7.783981	-29.20519	0	10.6	4003	-400	400	123	8	0.8632097	1.693449	5	15	0.01	1400
176330	-17652	1318	3621	-34.00348	3.759224	-41.61639	0	10.6	4002	0	0	0	0	0.562636	1.717834	5	15	0.01	1400
176420	-21590	-1440	3600	-61.49195	-1.381648	-47.3138	0	10.6	4003	0	0	0	0	0.4937944	1.700645	5	15	0.01	1400
176482	-21982	-4615	7190	-79.66924	-7.352482	-52.94623	0	10.6	4003	0	0	0	0	0.4390905	1.663951	5	15	0.01	1400
176586	1315	4323	-32744	-81.61687	2.43883	-44.55837	0	11.11	4002	0	0	0	0	0.5098326	1.611858	3	15	0.01	1400
176694	-5344	17292	5064	-62.08995	38.08881	3.655422	0	11.11	4003	0	0	0	0	0.6040504	1.518732	3	15	0.01	1400
176872	6734	13492	15729	-25.67001	-53.49895	-46.48994	0	11.11	4004	0	0	0	0	0.7078405	1.322015	3	15	0.01	1400
176920	7654	11386	17339	-9.635975	-59.02639	-55.48649	0	11.11	4003	0	0	0	0	0.7362758	1.270662	3	15	0.01	1400
177040	3114	-5211	4995	23.15654	-40.1975	-78.88103	0	11.11	4003	0	0	0	0	0.7691275	1.179852	3	15	0.01	1400
177142	3648	-2788	465	25.96618	-21.67528	-80.69982	0	11.11	4003	0	0	0	0	0.7930764	1.107373	1	15	0.01	1400
177241	2730	-273	211	29.47485	-15.67732	-82.53358	0	11.11	4004	0	0	0	0	0.8105352	1.035124	1	15	0.01	1400
177292	2191	-538	731	29.85769	-11.81387	-82.73778	0	11.11	4004	0	0	0	0	0.8194585	0.9840573	1	15	0.01	1400
177412	2871	-704	501	30.629	-6.697002	-83.73354	0	11.11	4004	0	0	0	0	0.832541	0.9185333	1	15	0.01	1400
177485	2850	-701	1106	31.75717	-1.827829	-85.28362	0	11.23	4002	0	0	0	0	0.8393049	0.8666857	1	15	0.01	1400
177590	-966	39	-764	27.09796	0.6211404	-85.90823	0	11.23	4002	0	0	0	0	0.8442357	0.8373353	1	15	0.01	1400
177690	-67	33	160	23.37191	2.51	-85.91544	0	11.23	4002	0	0	0	0	0.8478303	0.8129524	1	15	0.01	1400
177894	-148	18	-47	16.80475	5.490511	-85.95913	0	11.23	4003	0	0	0	0	0.8517902	0.7932048	1	15	0.01	1400
177940	14	-16	60	14.99411	6.312055	-85.94053	0	11.23	4003	0	0	0	0	0.852875	0.7964475	1	15	0.01	1400
178020	-90	11	-16	13.36598	7.084266	-85.97948	0	11.23	4002	0	0	0	0	0.8537537	0.7972108	1	15	0.01	1400
178132	-25	-12	22	11.16318	8.102248	-85.99496	0	11.23	4003	0	0	0	0	0.855042	0.7930385	1	15	0.01	1400
178212	-58	0	0	9.833047	8.707941	-85.99801	0	11.23	4003	0	0	0	0	0.855509	0.7865928	1	15	0.01	1400
178304	-59	0	1	8.077344	9.521166	-86.0223	0	11.23	4002	0	0	0	0	0.8558873	0.7800286	1	15	0.01	1400
178446	-50	6	8	6.070911	10.44218	-86.04623	0	11.23	4003	0	0	0	0	0.8565477	0.762807	1	15	0.01	1400
178509	-49	-4	11	5.194677	10.84309	-86.05843	0	11.23	4003	0	0	0	0	0.8566429	0.7617258	1	15	0.01	1400
178649	-50	-1	9	3.657226	11.54517	-86.08389	0	11.23	4002	0	0	0	0	0.8569376	0.7529157	1	15	0.01	1400
178742	-44	1	7	2.672074	11.99407	-86.1003	0	11.23	4002	0	0	0	0	0.85709	0.7397985	1	15	0.01	1400
178810	-53	-2	15	1.815526	12.39396	-86.12069	0	11.23	4004	0	0	0	0	0.8572011	0.7202888	1	15	0.01	1400
178919	-49	-2	10	1.064845	12.73322	-86.13912	0	11.23	4004	0	0	0	0	0.857282	0.6991547	1	15	0.01	1400
179090	-46	-3	10	0.02279109	13.20504	-86.16738	0	11.23	4004	0	0	0	0	0.8573713	0.6731799	1	15	0.01	1400
179143	-44	-2	13	-0.1567034	13.28771	-86.17269	0	11.23	4003	0	0	0	0	0.8573958	0.662937	1	15	0.01	1400
179218	-41	-2	11	-0.6586701	13.50705	-86.18844	0	11.23	4003	0	0	0	0	0.8574156	0.6620389	1	15	0.01	1400
179346	-42	1	9	-1.094574	13.70393	-86.20614	0	11.29	4003	0	0	0	0	0.8574446	0.6628645	1	15	0.01	1400
179447	-47	8	11	-1.476357	13.87653	-86.22256	0	11.29	4004	0	0	0	0	0.8574596	0.6555987	1	15	0.01	1400
179520	-50	3	15	-1.704128	13.97991	-86.23312	0	11.29	4004	0	0	0	0	0.8574673	0.6456364	1	15	0.01	1400
179681	-46	0	9	-2.196218	14.19479	-86.26199	0	11.29	4003	0	0	0	0	0.8574785	0.6327648	1	15	0.01	1400
179749	-50	0	10	-2.363487	14.26877	-86.27547	0	11.29	4004	0	0	0	0	0.8574826	0.6341122	1	15	0.01	1400
179884	-50	-4	7	-2.587235	14.3669	-86.29067	0	11.29	4004	0	0	0	0	0.8574896	0.6338357	1	15	0.01	1400
179922	-50	1	11	-2.779995	14.45581	-86.30813	0	11.29	4003	0	0	0	0	0.8574907	0.6327801	1	15	0.01	1400
180070	-49	-1	6	-3.005172	14.55441	-86.32998	0	11.29	4002	0	0	0	0	0.8574939	0.625517	1	15	0.01	1400
180244	-46	0	13	-3.230632	14.64751	-86.35714	0	11.29	4003	0	0	0	0	0.8574967	0.6096727	1	15	0.01	1400
180385	-46	2	8	-3.380301	14.7154	-86.3763	0	11.29	4003	0	0	0	0	0.8574978	0.6067177	1	15	0.01	1400
180430	-45	6	12	-3.412058	14.73049	-86.38174	0	11.29	4003	0	0	0	0	0.8574982	0.6184176	1	15	0.01	1400
180540	-44	3	9	-3.532131	14.78052	-86.40487	0	11.29	4002	0	0	0	0	0.8574987	0.6358539	1	15	0.01	1400
180645	-43	0	19	-3.61017	14.81734	-86.4197	0	11.29	4004	0	0	0	0	0.8574991	0.6462559	1	15	0.01	1400
180849	-42	0	5	-3.734146	14.86903	-86.44582	0	11.29	4004	0	0	0	0	0.8574994	0.673284	1	15	0.01	1400
180902	-42	-5	10	-3.768232	14.88249	-86.45644	0	11.29	4003	0	0	0	0	0.8574995	0.6781721	1	15	0.01	1400
181013	-48	1	13	-3.812081	14.90425	-86.47298	0	11.29	4003	0	0	0	0	0.8574997	0.7025002	1	15	0.01	1400
181117	-45	6	10	-3.868939	14.91533	-86.48678	0	11.29	4003	0	0	0	0	0.8574997	0.7235066	1	15	0.01	1400
181184	-43	2	7	-3.894161	14.93327	-86.501	0	11.29	4003	0	0	0	0	0.8574997	0.7334312	1	15	0.01	1400
181331	-45	0	10	-3.932379	14.9469	-86.51894	0	11.29	4003	0	0	0	0	0.8574997	0.7461337	1	15	0.01	1400
181364	-50	3	11	-3.942818	14.95122	-86.52407	0	11.29	4002	0	0	0	0	0.8574997	0.7452237	1	15	0.01	1400
181432	-43	6	10	-3.956686	14.95334	-86.5342	0	11.29	4002	0	0	0	0	0.8574997	0.7394977	1	15	0.01	1400
181565	-40	6	12	-3.988688	14.96421	-86.55837	0	11.29	4002	0	0	0	0	0.8574997	0.7266791	1	15	0.01	1400
181665	-46	0	0	-4.007672	14.97511	-86.57583	0	11.29	4003	0	0	0	0	0.8574997	0.722478	1	15	0.01	1400
181716	-46	0	0	-4.007672	14.97511	-86.57583	0	11.29	4003	0	0	0	0	0.8574997	0.7217308	1	15	0.01	1400
181833	-43	-9	18	-4.020083	14.98931	-86.60452	0	11.29	4003	0	0	0	0	0.8574997	0.7185929	1	15	0.01	1400
181915	-47	1	6	-4.036081	14.98822	-86.61098	0	11.29	4004	0	0	0	0	0.8574997	0.711641	1	15	0.01	1400
181998	-44	-2	5	-4.045261	14.98906	-86.62637	0	11.29	4002	0	0	0	0	0.8574997	0.7012915	1	15	0.01	1400
182138	-40	-1	0	-4.050495	14.99541	-86.63876	0	11.34	4003	0	0	0	0	0.8574997	0.6872067	1	15	0.01	1400
182221	-32	-2	5	-4.062788	14.99924	-86.652	0	11.34	4004	0	0	0	0	0.8574997	0.6795258	1	15	0.01	1400
182307	-395	497	710	-3.356564	15.59094	-86.8187	0	11.34	4002	0	0	0	0	0.8574997	0.6721392	1	15	0.01	1400
182484	-11205	3878	-259	-14.82421	11.29581	-81.71802	0	11.34	4004	0	0	0	0	0.8574997	0.6632807	1	15	0.01	1400
182560	-4628	6633	-2922	-20.50127	7.278857	-80.55802	0	11.34	4003	0	0	0	0	0.8574997	0.6562473	1	15	0.01	1400
182635	-2861	12451	-4450	-19.72511	0.1932164	-76.75699	0	11.34	4002	0	0	0	0	0.8574997	0.6526729	1	15	0.01	1400
182726	1750	13732	-7348	-17.17095	-7.446682	-69.95425	0	11.34	4003	0	0	0	0	0.8574997	0.6539578	1	15	0.01	1400
182816	-1712	14908	2148	-5.994738	-20.75514	-64.18554	0	11.34	4002	0	0	0	0	0.8574997	0.6579297	1	15	0.01	1400
182948	-6978	8704	4366	-1.364478	-29.33638	-75.31871	0	11.34	4003	0	0	0	0	0.8574997	0.6621637	1	15	0.01	1400
183016	-6841	10316	2240	-6.430018	-33.72562	-80.83885	0	11.29	4004	0	0	0	0	0.8574997	0.6953453	1	15	0.01	1400
183133	-6751	3883	-2479	-17.2234	-32.32881	-81.54381	0	11.29	4003	0	0	0	0	0.8574997	0.7327196	1	15	0.01	1400
183262	-2415	1858	-3203	-23.17057	-23.25644	-75.91344	0	11.29	4004	0	0	0	0	0.8574997	0.7894495	1	15	0.01	1400
183327	-2708	-622	-3342	-23.29446	-15.48834	-72.40265	0	11.29	4003	0	0	0	0	0.8574997	0.8248153	1	15	0.01	1400
183466	-2767	-1465	-4124	-27.77514	2.098092	-63.88365	0	11.29	4003	0	0	0	0	0.8574997	0.8967463	1	15	0.01	1400
183567	-3046	673	-4014	-24.65118	11.27655	-57.61689	0	11.29	4002	0	0	0	0	0.8574997	0.9503213	1	15	0.01	1400
183608	-2921	-1571	-4459	-24.55985	18.27852	-52.90115	0	11.29	4004	0	0	0	0	0.8574997	0.9742649	1	15	0.01	1400
183724	-1924	-782	-4171	-20.81377	27.08313	-46.2594	0	11.29	4004	0	0	0	0	0.8574997	1.006776	1	15	0.01	1400
183830	92	3764	-4965	-13.78484	29.85251	-38.3254	0	11.29	4004	0	0	0	0	0.8574997	1.066871	1	15	0.01	1400
183943	-2300	3643	-3193	-8.06934	29.81007	-31.54076	0	11.34	4003	0	0	0	0	0.8574997	1.109356	1	15	0.01	1400
184022	500	3822	-2145	-7.7079	24.87287	-27.09016	0	11.34	4003	0	0	0	0	0.8574997	1.122887	1	15	0.01	1400
184128	-1251	5816	192	-8.912024	17.09828	-24.86193	0	11.34	4003	0	0	0	0	0.8574997	1.150944	1	15	0.01	1400
184276	-1472	3239	6845	-8.509005	10.97816	-31.72939	0	11.34	4003	0	0	0	0	0.8574997	1.166234	1	15	0.01	1400
184362	-1049	2636	7656	-9.761936	4.734625	-44.76483	0	11.34	4004	0	0	0	0	0.8574997	1.166138	1	15	0.01	1400
184501	-377	-483	2997	-9.136651	0.1090124	-56.10517	0	11.34	4004	0	0	0	0	0.8574997	1.136027	1	15	0.01	1400
184568	-827	579	2920	-8.518885	0.0720033	-59.15043	0	11.34	4004	0	0	0	0	0.8574997	1.110472	1	15	0.01	1400
184662	-1806	-337	1854	-9.333339	-0.7967091	-63.49329	0	11.34	4002	0	0	0	0	0.8574997	1.061977	1	15	0.01	1400
184755	655	361	976	-9.093931	0.1596857	-65.12118	0	11.34	4003	0	0	0	0	0.8574997	1.03321	1	15	0.01	1400
184846	154	776	2214	-7.882565	-0.6368335	-66.92616	0	11.34	4004	0	0	0	0	0.8574997	0.9969927	1	15	0.01	1400
184926	-425	-1188	1446	-8.120223	-0.4798403	-70.55506	0	11.34	4003	0	0	0	0	0.8574997	0.9842718	1	15	0.01	1400
185030	974	794	726	-7.021386	-0.2871531	-72.12172	0	11.34	4002	0	0	0	0	0.8574997	0.9596452	1	15	0.01	1400
185212	-156	-211	130	-3.539387	-2.086186	-70.80224	0	11.34	4004	0	0	0	0	0.8574997	0.9112894	1	15	0.01	1400
185284	-56	-8	30	-3.377664	-1.78045	-70.71177	0	11.34	4002	0	0	0	0	0.8574997	0.9009671	1	15	0.01	1400
185370	-55	-21	0	-3.057349	-1.500451	-70.67117	0	11.34	4003	0	0	0	0	0.8574997	0.8756291	1	15	0.01	1400
185464	-71	38	182	-2.876756	-1.324065	-70.72613	0	11.34	4004	0	0	0	0	0.8574997	0.8618267	1	15	0.01	1400
185547	-30	4	0	-2.634762	-1.108681	-70.74415	0	11.34	4002	0	0	0	0	0.8574997	0.8451021	1	15	0.01	1400
185640	-308	-216	268	-2.461715	-1.036054	-70.74249	0	11.34	4004	0	0	0	0	0.8574997	0.8294017	1	15	0.01	1400
185721	-14	4	-14	-2.378512	-0.8573954	-70.73667	0	11.34	4004	0	0	0	0	0.8574997	0.8110004	1	15	0.01	1400
185851	-53	4	9	-2.116869	-0.6197755	-70.76048	0	11.4	4003	0	0	0	0	0.8574997	0.789763	1	15	0.01	1400
185922	-24	41	-30	-2.018892	-0.5444219	-70.75736	0	11.4	4004	0	0	0	0	0.8574997	0.7787096	1	15	0.01	1400
186035	-59	-8	7	-1.906252	-0.4191974	-70.78554	0	11.4	4003	0	0	0	0	0.8574997	0.7716752	1	15	0.01	1400
186211	-32	-6	-10	-1.685198	-0.2305628	-70.80817	0	11.4	4002	0	0	0	0	0.8574997	0.7871417	1	15	0.01	1400
186262	-43	-5	30	-1.621295	-0.1959859	-70.82339	0	11.4	4003	0	0	0	0	0.8574997	0.7932736	1	15	0.01	1400
186351	-32	-4	1	-1.541551	-0.09874437	-70.83494	0	11.4	4002	0	0	0	0	0.8574997	0.7914302	1	15	0.01	1400
186423	-31	-4	6	-1.49886	-0.06633657	-70.84361	0	11.4	4004	0	0	0	0	0.8574997	0.7884034	1	15	0.01	1400
186568	-36	0	10	-1.419694	0.01581029	-70.86015	0	11.4	4003	0	0	0	0	0.8574997	0.7801498	1	15	0.01	1400
186650	-31	0	0	-1.381569	0.04410907	-70.86845	0	11.4	4003	0	0	0	0	0.8574997	0.7565665	1	15	0.01	1400
186771	-42	3	9	-1.320538	0.1085616	-70.8823	0	11.34	4003	0	0	0	0	0.8574997	0.7304414	1	15	0.01	1400
