time(ms)	gyro_x(deg/s)	gyro_y(deg/s)	gyro_z(deg/s)	orientation_roll(deg)	orientation_pitch(deg)	orientation_yaw(deg)	throttle	battery(V)	loop_time(uS)	pid_output_roll	pid_output_pitch	pid_output_yaw	pid_output_throttle	ultrasonic_alt	baro_alt	flight_mode	p_gain_altitude	i_gain_altitude	d_gain_altitude
9	52	0	-4	0.6624538	-0.09029847	0.8521833	0	12.59	4003	0	0	0	0	0.02	-0.02185812	1	290	0	3500
119	52	0	-8	0.659775	-0.09114049	0.8593974	0	12.59	4002	0	0	0	0	0.02	-0.02169338	1	290	0	3500
219	50	-5	-5	0.6652258	-0.09665768	0.8649609	0	12.59	4002	0	0	0	0	0.02	-0.01885727	1	290	0	3500
320	62	1	-5	0.6649255	-0.09811845	0.8707073	0	12.59	4003	0	0	0	0	0.02	-0.01752269	1	290	0	3500
529	51	-1	-1	0.6687233	-0.09938613	0.8814678	0	12.59	4004	0	0	0	0	0.02	-0.02725089	1	290	0	3500
568	56	-3	-8	0.6693454	-0.09862087	0.88642	0	12.59	4003	0	0	0	0	0.02	-0.02620805	1	290	0	3500
626	57	-2	-3	0.6786237	-0.09494089	0.8902108	0	12.59	4003	0	0	0	0	0.02	-0.02816498	1	290	0	3500
733	56	-2	-2	0.6829457	-0.0923131	0.8952851	0	12.59	4002	0	0	0	0	0.02	-0.02988463	1	290	0	3500
836	59	-3	-6	0.6860187	-0.09052218	0.9019496	0	12.59	4003	0	0	0	0	0.02	-0.03180598	1	290	0	3500
947	44	-3	-7	0.6884912	-0.0882911	0.9078188	0	12.59	4003	0	0	0	0	0.02	-0.03754297	1	290	0	3500
1047	46	1	-7	0.6949885	-0.08811413	0.9149107	0	12.59	4003	0	0	0	0	0.02	-0.0430057	1	290	0	3500
1176	62	-11	-8	0.7026034	-0.08938104	0.9217582	0	12.59	4004	0	0	0	0	0.02	-0.04129984	1	290	0	3500
1277	58	0	-5	0.7023376	-0.09049281	0.9289109	0	12.59	4003	0	0	0	0	0.02	-0.04567505	1	290	0	3500
1351	55	0	-3	0.7099907	-0.09811146	0.9335572	0	12.59	4002	0	0	0	0	0.02	-0.04678571	1	290	0	3500
1450	54	1	-5	0.7058969	-0.09623848	0.9378365	0	12.59	4002	0	0	0	0	0.02	-0.04047744	1	290	0	3500
1614	47	-8	-3	0.7090482	-0.1016257	0.9472511	0	12.53	4003	0	0	0	0	0.02	-0.04472815	1	290	0	3500
1702	59	-1	-3	0.7165131	-0.1015931	0.9535485	0	12.53	4004	0	0	0	0	0.02	-0.04955685	1	290	0	3500
1767	55	-3	-3	0.7239752	-0.1070154	0.9570946	0	12.53	4003	0	0	0	0	0.02	-0.05100555	1	290	0	3500
1856	57	-4	0	0.7236739	-0.1062265	0.9595398	0	12.53	4002	0	0	0	0	0.02	-0.0518409	1	290	0	3500
1959	53	-5	-7	0.7186706	-0.1038207	0.9690772	0	12.53	4003	0	0	0	0	0.02	-0.0514127	1	290	0	3500
2133	47	-5	-3	0.7093121	-0.0993789	0.9762303	0	12.53	4004	0	0	0	0	0.02	-0.05001578	1	290	0	3500
2224	64	-2	-7	0.7209715	-0.09879287	0.9837503	0	12.53	4003	0	0	0	0	0.02	-0.04947091	1	290	0	3500
2275	54	0	-4	0.7194256	-0.1014355	0.9858288	0	12.53	4002	0	0	0	0	0.02	-0.0492734	1	290	0	3500
2369	53	-5	-4	0.7179705	-0.1052135	0.9921257	0	12.53	4003	0	0	0	0	0.02	-0.04662699	1	290	0	3500
2531	49	-1	-2	0.717906	-0.1088948	1.003437	0	12.53	4003	0	0	0	0	0.02	-0.04668261	1	290	0	3500
2626	59	-4	-3	0.7265775	-0.1131561	1.006433	0	12.53	4002	0	0	0	0	0.02	-0.04817345	1	290	0	3500
2812	54	-3	-5	0.7320331	-0.114096	1.017927	0	12.53	4003	0	0	0	0	0.02	-0.05685604	1	290	0	3500
2918	67	-4	-2	0.7271178	-0.1132927	1.023918	0	12.53	4003	0	0	0	0	0.02	-0.06226844	1	290	0	3500
3045	57	-3	-8	0.7319998	-0.1126586	1.033577	0	12.53	4003	0	0	0	0	0.02	-0.07303791	1	290	0	3500
3097	57	-3	-8	0.7319998	-0.1126586	1.033577	0	12.53	4003	0	0	0	0	0.02	-0.07580021	1	290	0	3500
3201	55	-8	0	0.7349914	-0.1175622	1.042505	0	12.53	4004	0	0	0	0	0.02	-0.08667789	1	290	0	3500
3317	51	2	-6	0.7358252	-0.1175012	1.051186	0	12.53	4003	0	0	0	0	0.02	-0.09806497	1	290	0	3500
3412	49	-5	-5	0.7335272	-0.116166	1.055589	0	12.53	4003	0	0	0	0	0.02	-0.1012791	1	290	0	3500
3521	59	-6	-5	0.7400563	-0.1131544	1.060235	0	12.48	4003	0	0	0	0	0.02	-0.1036453	1	290	0	3500
3625	62	-5	-10	0.7413076	-0.11177	1.06586	0	12.48	4002	0	0	0	0	0.02	-0.1067559	1	290	0	3500
3683	63	-4	-3	0.7403581	-0.1120477	1.068733	0	12.48	4003	0	0	0	0	0.02	-0.108446	1	290	0	3500
3899	64	-3	-6	0.7483962	-0.1060143	1.079616	0	12.48	4003	0	0	0	0	0.02	-0.122659	1	290	0	3500
4069	55	-1	-7	0.7475186	-0.1049847	1.0927	0	12.48	4003	0	0	0	0	0.02	-0.1097239	1	290	0	3500
4148	58	-3	-6	0.7497121	-0.1045832	1.097408	0	12.48	4003	0	0	0	0	0.02	-0.10502	1	290	0	3500
4258	64	-5	-1	0.7495819	-0.1026404	1.10499	0	12.48	4004	0	0	0	0	0.02	-0.09595732	1	290	0	3500
4337	61	4	-7	0.7549061	-0.1033052	1.110492	0	12.53	4002	0	0	0	0	0.02	-0.08519273	1	290	0	3500
4387	71	-10	-6	0.759059	-0.1043354	1.114038	0	12.53	4002	0	0	0	0	0.02	-0.07825647	1	290	0	3500
4464	50	-9	-2	0.7630212	-0.1032828	1.115444	0	12.53	4002	0	0	0	0	0.02	-0.07367042	1	290	0	3500
4577	53	-7	-6	0.7571626	-0.1075843	1.124187	0	12.53	4003	0	0	0	0	0.02	-0.06759702	1	290	0	3500
4675	62	-1	-4	0.7593067	-0.1116513	1.13134	0	12.53	4003	0	0	0	0	0.02	-0.06475706	1	290	0	3500
4786	62	-2	-6	0.7587265	-0.1171109	1.136659	0	12.53	4003	0	0	0	0	0.02	-0.05730235	1	290	0	3500
4901	61	-4	-3	0.7646825	-0.1171795	1.144057	0	12.53	4003	0	0	0	0	0.02	-0.04760974	1	290	0	3500
4957	54	-3	-6	0.768063	-0.1128042	1.151148	0	12.53	4004	0	0	0	0	0.02	-0.03762925	1	290	0	3500
5107	59	-6	-2	0.7701812	-0.1100666	1.15928	0	12.53	4003	0	0	0	0	0.02	-0.02202672	1	290	0	3500
5160	72	1	-2	0.7723579	-0.1143795	1.163315	0	12.53	4003	0	0	0	0	0.02	-0.01646132	1	290	0	3500
5327	58	-4	0	0.7772592	-0.1165751	1.170774	0	12.59	4004	0	0	0	0	0.02	-0.009524704	1	290	0	3500
5397	60	-1	-2	0.7805712	-0.1144909	1.174931	0	12.59	4003	0	0	0	0	0.02	-0.008412551	1	290	0	3500
5461	65	1	-6	0.7777701	-0.1111278	1.179089	0	12.59	4003	0	0	0	0	0.02	-0.007127662	1	290	0	3500
5591	55	-2	-2	0.7769194	-0.1068868	1.185753	0	12.59	4002	0	0	0	0	0.02	-0.008020654	1	290	0	3500
5669	57	-1	-3	0.7812933	-0.1108271	1.189055	0	12.59	4003	0	0	0	0	0.02	-0.01028902	1	290	0	3500
5808	60	-1	-1	0.78211	-0.1145879	1.198837	0	12.59	4002	0	0	0	0	0.02	-0.02066639	1	290	0	3500
5904	63	-2	-5	0.7733803	-0.1199022	1.204034	0	12.59	4002	0	0	0	0	0.02	-0.02138332	1	290	0	3500
6010	69	0	-4	0.7870237	-0.1180285	1.212898	0	12.59	4003	0	0	0	0	0.02	-0.0231854	1	290	0	3500
6086	53	-5	-4	0.7827796	-0.1157561	1.219257	0	12.59	4003	0	0	0	0	0.02	-0.02770229	1	290	0	3500
6230	62	0	-5	0.7803309	-0.1194164	1.227756	0	12.48	4004	0	0	0	0	0.02	-0.02466896	1	290	0	3500
6314	68	-8	-3	0.7808114	-0.1173209	1.236254	0	12.48	4004	0	0	0	0	0.02	-0.02213333	1	290	0	3500
6362	51	2	-7	0.7824236	-0.1172654	1.237905	0	12.48	4004	0	0	0	0	0.02	-0.02726774	1	290	0	3500
6467	63	0	-4	0.7787732	-0.1087747	1.244446	0	12.48	4002	0	0	0	0	0.02	-0.02941804	1	290	0	3500
6625	63	0	-3	0.7841161	-0.12205	1.254657	0	12.48	4004	0	0	0	0	0.02	-0.03451028	1	290	0	3500
6687	65	-6	-3	0.7876275	-0.1199821	1.259242	0	12.48	4004	0	0	0	0	0.02	-0.03521914	1	290	0	3500
6866	53	-1	-1	0.7810495	-0.1270113	1.271652	0	12.48	4004	0	0	0	0	0.02	-0.04610156	1	290	0	3500
6931	62	0	-4	0.7818418	-0.1257449	1.274587	0	12.48	4003	0	0	0	0	0.02	-0.05356687	1	290	0	3500
7008	60	-2	-5	0.7818201	-0.1195247	1.282046	0	12.48	4003	0	0	0	0	0.02	-0.06280144	1	290	0	3500
7077	67	-6	-9	0.7764455	-0.1155936	1.288465	0	12.48	4004	0	0	0	0	0.02	-0.06616335	1	290	0	3500
7179	65	-4	-3	0.7898203	-0.1135331	1.295067	0	12.53	4004	0	0	0	0	0.02	-0.05896161	1	290	0	3500
7278	57	-3	-5	0.7917483	-0.1200224	1.302648	0	12.53	4003	0	0	0	0	0.02	-0.04600337	1	290	0	3500
7481	54	0	-6	0.7954019	-0.1102868	1.318849	0	12.53	4003	0	0	0	0	0.02	-0.02495096	1	290	0	3500
7567	67	-1	-3	0.7944336	-0.1102687	1.324106	0	12.53	4004	0	0	0	0	0.02	-0.02090101	1	290	0	3500
7619	60	-5	-6	0.800995	-0.111169	1.328631	0	12.53	4004	0	0	0	0	0.02	-0.02072101	1	290	0	3500
7746	68	-3	-7	0.8043197	-0.1111923	1.338657	0	12.53	4002	0	0	0	0	0.02	-0.01609495	1	290	0	3500
7906	67	-5	-9	0.8109022	-0.1116262	1.348867	0	12.53	4002	0	0	0	0	0.02	-0.004897346	1	290	0	3500
8016	59	-5	-5	0.8113903	-0.1169731	1.360851	0	12.53	4002	0	0	0	0	0.02	0.003737482	1	290	0	3500
8066	67	-6	-6	0.8132699	-0.1158611	1.363663	0	12.53	4004	0	0	0	0	0.02	0.01031552	1	290	0	3500
8208	67	-7	-4	0.8216122	-0.1209673	1.373812	0	12.53	4004	0	0	0	0	0.02	0.021394	1	290	0	3500
8286	66	-3	-1	0.8218575	-0.1275404	1.383716	0	12.53	4002	0	0	0	0	0.02	0.0278872	1	290	0	3500
8381	66	3	-6	0.8240944	-0.1289993	1.388852	0	12.53	4002	0	0	0	0	0.02	0.0297943	1	290	0	3500
8530	60	-3	-5	0.8258347	-0.1225854	1.404014	0	12.53	4004	0	0	0	0	0.02	0.02252181	1	290	0	3500
8600	60	-4	-6	0.8266186	-0.1246533	1.40811	0	12.53	4004	0	0	0	0	0.02	0.01571173	1	290	0	3500
8730	68	0	0	0.8378136	-0.1278519	1.417403	0	12.53	4004	0	0	0	0	0.02	0.008972	1	290	0	3500
8837	65	-6	-7	0.8444676	-0.1328907	1.424495	0	12.53	4002	0	0	0	0	0.02	0.01191287	1	290	0	3500
8919	64	-3	-7	0.8418332	-0.132524	1.42902	0	12.53	4004	0	0	0	0	0.02	0.01541336	1	290	0	3500
9020	55	-1	-6	0.8356124	-0.132976	1.440697	0	12.48	4004	0	0	0	0	0.02	0.02118379	1	290	0	3500
9076	61	1	-2	0.8329412	-0.1335974	1.442898	0	12.48	4002	0	0	0	0	0.02	0.02413528	1	290	0	3500
9216	57	0	-6	0.8365281	-0.12869	1.452558	0	12.48	4003	0	0	0	0	0.02	0.02872249	1	290	0	3500
9295	62	-6	-3	0.833828	-0.1243027	1.460995	0	12.48	4004	0	0	0	0	0.02	0.02933467	1	290	0	3500
9363	64	-3	-5	0.8273918	-0.1221649	1.466191	0	12.48	4002	0	0	0	0	0.02	0.0289216	1	290	0	3500
9457	69	1	-9	0.835271	-0.1234218	1.472733	0	12.48	4003	0	0	0	0	0.02	0.02628653	1	290	0	3500
9560	65	-1	-9	0.8432522	-0.1169239	1.483065	0	12.48	4004	0	0	0	0	0.02	0.02188712	1	290	0	3500
9746	63	-7	-1	0.8453122	-0.1108434	1.49572	0	12.48	4003	0	0	0	0	0.02	0.01144838	1	290	0	3500
9848	63	-5	-3	0.8463514	-0.1163705	1.502506	0	12.48	4004	0	0	0	0	0.02	0.003386945	1	290	0	3500
9895	79	-5	-11	0.8505012	-0.1181408	1.507642	0	12.48	4004	0	0	0	0	0.02	-0.001709881	1	290	0	3500
10014	64	-3	-9	0.8487663	-0.1227985	1.515711	0	12.48	4003	0	0	0	0	0.02	-0.001259893	1	290	0	3500
10107	67	0	-5	0.8539793	-0.1236076	1.523049	0	12.48	4003	0	0	0	0	0.02	0.001434812	1	290	0	3500
10199	73	-2	-6	0.8640443	-0.1243765	1.5269	0	12.48	4003	0	0	0	0	0.02	-0.001626759	1	290	0	3500
10274	70	-4	-4	0.87071	-0.1272937	1.534358	0	12.48	4003	0	0	0	0	0.02	-0.006799082	1	290	0	3500
10404	71	-2	4	0.8760503	-0.1305966	1.544018	0	12.48	4004	0	0	0	0	0.02	-0.01212758	1	290	0	3500
10631	66	-8	-7	0.8897889	-0.1347001	1.562358	0	12.48	4003	0	0	0	0	0.02	-0.006918804	1	290	0	3500
10739	68	-1	-5	0.8908482	-0.1325846	1.57055	0	12.48	4002	0	0	0	0	0.02	-0.00351429	1	290	0	3500
10775	68	-6	-6	0.8973259	-0.1332658	1.572873	0	12.48	4003	0	0	0	0	0.02	-0.002102617	1	290	0	3500
10890	73	-1	-4	0.9018845	-0.1349424	1.580454	0	12.48	4003	0	0	0	0	0.02	-0.0009359203	1	290	0	3500
10973	65	-4	-7	0.8947225	-0.1325491	1.588953	0	12.48	4003	0	0	0	0	0.02	-0.0009043105	1	290	0	3500
11098	67	-1	-7	0.8945051	-0.1317332	1.598062	0	12.48	4003	0	0	0	0	0.02	0.001860655	1	290	0	3500
11223	73	-5	-4	0.892862	-0.1333386	1.609617	0	12.48	4003	0	0	0	0	0.02	0.003690635	1	290	0	3500
11316	71	-2	-3	0.9004321	-0.1343852	1.618665	0	12.48	4002	0	0	0	0	0.02	0.002571283	1	290	0	3500
11483	72	0	-5	0.9016485	-0.1326848	1.630953	0	12.48	4002	0	0	0	0	0.02	0.001454496	1	290	0	3500
11517	70	0	-8	0.8998775	-0.1320029	1.63505	0	12.48	4003	0	0	0	0	0.02	0.00272079	1	290	0	3500
11639	75	-4	-2	0.8976044	-0.1293838	1.647399	0	12.48	4003	0	0	0	0	0.02	0.003117382	1	290	0	3500
11768	67	-5	-6	0.8994616	-0.1325418	1.660299	0	12.48	4003	0	0	0	0	0.02	-0.0011252	1	290	0	3500
11931	62	-6	-5	0.9048525	-0.1260083	1.672588	0	12.48	4004	0	0	0	0	0.02	-0.01033989	1	290	0	3500
12024	67	0	-4	0.9036857	-0.1243057	1.679558	0	12.48	4002	0	0	0	0	0.02	-0.009129677	1	290	0	3500
12146	67	2	-4	0.9005367	-0.1224313	1.690318	0	12.48	4003	0	0	0	0	0.02	6.936002E-05	1	290	0	3500
12212	67	-3	-3	0.9002244	-0.1246816	1.692275	0	12.48	4004	0	0	0	0	0.02	0.002029503	1	290	0	3500
12335	66	1	-9	0.8963808	-0.1315836	1.702119	0	12.48	4003	0	0	0	0	0.02	0.001198826	1	290	0	3500
12564	72	1	-10	0.8965924	-0.1280423	1.719359	0	12.48	4003	0	0	0	0	0.02	-0.02730673	1	290	0	3500
12644	70	-4	-12	0.8924372	-0.1292131	1.727796	0	12.48	4003	0	0	0	0	0.02	-0.03618331	1	290	0	3500
12802	64	-9	-10	0.9010349	-0.1334367	1.741735	0	12.48	4003	0	0	0	0	0.02	-0.0461444	1	290	0	3500
12871	67	-8	-8	0.8982375	-0.1346546	1.75164	0	12.48	4003	0	0	0	0	0.02	-0.05442237	1	290	0	3500
12957	73	1	-5	0.9011575	-0.1346699	1.762401	0	12.48	4002	0	0	0	0	0.02	-0.05612339	1	290	0	3500
13092	72	-8	-3	0.895951	-0.12151	1.773406	0	12.48	4003	0	0	0	0	0.02	-0.05949932	1	290	0	3500
13130	63	-6	-12	0.8971953	-0.1173693	1.777013	0	12.48	4003	0	0	0	0	0.02	-0.06243454	1	290	0	3500
13240	76	-8	-6	0.8979399	-0.1233881	1.789546	0	12.48	4004	0	0	0	0	0.02	-0.05418865	1	290	0	3500
13372	75	0	-1	0.9000131	-0.1297155	1.798472	0	12.48	4002	0	0	0	0	0.02	-0.03501787	1	290	0	3500
13498	70	-4	-5	0.8969314	-0.1335735	1.814184	0	12.48	4003	0	0	0	0	0.02	-0.02875528	1	290	0	3500
13556	71	0	-4	0.8990157	-0.1386711	1.82042	0	12.48	4004	0	0	0	0	0.02	-0.02897516	1	290	0	3500
13763	81	-1	-1	0.9145678	-0.1450015	1.84414	0	12.48	4004	0	0	0	0	0.02	-0.03629746	1	290	0	3500
13871	70	-5	-8	0.9141346	-0.1430849	1.855023	0	12.48	4003	0	0	0	0	0.02	-0.03438098	1	290	0	3500
13928	68	-6	-4	0.919371	-0.1422734	1.860403	0	12.48	4004	0	0	0	0	0.02	-0.03058718	1	290	0	3500
14168	73	-1	-7	0.93419	-0.1448813	1.88125	0	12.48	4002	0	0	0	0	0.02	-0.01939433	1	290	0	3500
14211	83	-9	-8	0.9310848	-0.1430336	1.88394	0	12.48	4004	0	0	0	0	0.02	-0.01538476	1	290	0	3500
14310	66	-5	-4	0.9360839	-0.1454307	1.891949	0	12.48	4004	0	0	0	0	0.02	-0.01431283	1	290	0	3500
14479	81	0	-5	0.9376823	-0.1301503	1.907478	0	12.59	4004	0	0	0	0	0.02	-0.01888863	1	290	0	3500
14679	70	-5	-1	0.937822	-0.125948	1.925391	0	12.59	4002	0	0	0	0	0.02	-0.02798942	1	290	0	3500
14744	75	0	-7	0.9367431	-0.1312781	1.932605	0	12.59	4002	0	0	0	0	0.02	-0.03310664	1	290	0	3500
14883	71	-2	-4	0.9335454	-0.1390583	1.941226	0	12.59	4004	0	0	0	0	0.02	-0.0376496	1	290	0	3500
14911	72	-6	-9	0.9344167	-0.1325295	1.945078	0	12.59	4003	0	0	0	0	0.02	-0.03789254	1	290	0	3500
15030	72	-1	-6	0.9324947	-0.1322488	1.958589	0	12.59	4002	0	0	0	0	0.02	-0.04366586	1	290	0	3500
15150	74	-9	-5	0.9374149	-0.1324166	1.96617	0	12.59	4003	0	0	0	0	0.02	-0.04198684	1	290	0	3500
15217	72	-2	-7	0.9371701	-0.1299384	1.977603	0	12.59	4003	0	0	0	0	0.02	-0.04309631	1	290	0	3500
15314	76	0	-10	0.9408797	-0.1331584	1.987935	0	12.59	4003	0	0	0	0	0.02	-0.04317002	1	290	0	3500
15440	77	-9	-8	0.9410389	-0.130797	1.997839	0	12.53	4002	0	0	0	0	0.02	-0.04117465	1	290	0	3500
15520	78	-2	-4	0.9402075	-0.129961	2.003647	0	12.53	4002	0	0	0	0	0.02	-0.04145347	1	290	0	3500
15660	74	-1	-7	0.9481414	-0.1296736	2.017525	0	12.53	4003	0	0	0	0	0.02	-0.03668679	1	290	0	3500
15728	63	-3	-2	0.9517637	-0.1297431	2.026756	0	12.53	4003	0	0	0	0	0.02	-0.03502798	1	290	0	3500
15828	76	-3	-5	0.9474673	-0.1339634	2.034949	0	12.53	4003	0	0	0	0	0.02	-0.02910562	1	290	0	3500
15943	73	-1	-3	0.9535774	-0.1320543	2.047604	0	12.53	4002	0	0	0	0	0.02	-0.02109487	1	290	0	3500
16046	71	-2	-6	0.9590333	-0.1301107	2.057569	0	12.53	4004	0	0	0	0	0.02	-0.01014061	1	290	0	3500
16115	84	-1	-7	0.9629177	-0.1291214	2.063927	0	12.53	4003	0	0	0	0	0.02	-0.007163237	1	290	0	3500
16257	72	-5	-8	0.9657552	-0.1276528	2.079028	0	12.53	4002	0	0	0	0	0.02	-0.008978559	1	290	0	3500
16440	75	-2	-7	0.9659315	-0.138147	2.094375	0	12.53	4005	0	0	0	0	0.02	-0.01558609	1	290	0	3500
16528	75	-1	-5	0.9721664	-0.1411203	2.103425	0	12.53	4004	0	0	0	0	0.02	-0.02133334	1	290	0	3500
16646	76	-3	0	0.9715352	-0.1417763	2.113818	0	12.53	4004	0	0	0	0	0.02	-0.03375274	1	290	0	3500
16724	84	-1	-4	0.9709944	-0.1421012	2.119748	0	12.53	4002	0	0	0	0	0.02	-0.03519772	1	290	0	3500
16829	64	-5	-7	0.9635701	-0.1405234	2.12849	0	12.53	4003	0	0	0	0	0.02	-0.03793615	1	290	0	3500
16936	72	0	-2	0.9666045	-0.1437604	2.137599	0	12.53	4002	0	0	0	0	0.02	-0.04279729	1	290	0	3500
17062	82	-5	-1	0.9678845	-0.1535087	2.14677	0	12.53	4002	0	0	0	0	0.02	-0.05226564	1	290	0	3500
17144	79	-4	-6	0.96895	-0.1483673	2.151967	0	12.53	4002	0	0	0	0	0.02	-0.06644677	1	290	0	3500
17252	79	-6	-4	0.9686343	-0.1476271	2.161993	0	12.53	4002	0	0	0	0	0.02	-0.07642411	1	290	0	3500
17459	80	-2	-6	0.9683527	-0.1607795	2.181433	0	12.53	4002	0	0	0	0	0.02	-0.07003682	1	290	0	3500
17650	67	0	-1	0.9823501	-0.1598551	2.196288	0	12.53	4004	0	0	0	0	0.02	-0.05817334	1	290	0	3500
17762	74	-3	-6	0.9856732	-0.1598117	2.206009	0	12.53	4004	0	0	0	0	0.02	-0.05246769	1	290	0	3500
17829	70	0	-3	0.9883026	-0.1617865	2.213957	0	12.53	4003	0	0	0	0	0.02	-0.04362144	1	290	0	3500
18054	75	-4	-6	0.9948245	-0.1547756	2.230463	0	12.53	4002	0	0	0	0	0.02	-0.0306066	1	290	0	3500
18154	70	4	-10	1.001397	-0.1541757	2.241529	0	12.48	4004	0	0	0	0	0.02	-0.02883598	1	290	0	3500
18335	85	-4	-5	1.002264	-0.1513118	2.25553	0	12.48	4004	0	0	0	0	0.02	-0.04732481	1	290	0	3500
18499	92	-3	-9	1.01842	-0.1504527	2.27167	0	12.48	4003	0	0	0	0	0.02	-0.06322353	1	290	0	3500
18552	85	-5	-6	1.020616	-0.1510921	2.274543	0	12.48	4002	0	0	0	0	0.02	-0.07201788	1	290	0	3500
18633	79	-10	-3	1.012889	-0.152882	2.283592	0	12.48	4002	0	0	0	0	0.02	-0.07796022	1	290	0	3500
18882	91	-5	-1	1.017823	-0.1516377	2.304867	0	12.48	4003	0	0	0	0	0.02	-0.1180518	1	290	0	3500
18953	74	-6	0	1.017769	-0.1533697	2.31043	0	12.48	4004	0	0	0	0	0.02	-0.1249594	1	290	0	3500
19143	81	-7	-4	1.01722	-0.1481071	2.330849	0	12.53	4003	0	0	0	0	0.02	-0.127377	1	290	0	3500
19263	82	-9	-1	1.015128	-0.1471131	2.338919	0	12.53	4003	0	0	0	0	0.02	-0.1315382	1	290	0	3500
19349	79	3	-3	1.025674	-0.1461612	2.348272	0	12.53	4003	0	0	0	0	0.02	-0.130335	1	290	0	3500
19438	83	-2	-10	1.025248	-0.1492939	2.35457	0	12.53	4003	0	0	0	0	0.02	-0.1324193	1	290	0	3500
19540	82	-2	-4	1.027324	-0.1469278	2.363803	0	12.53	4003	0	0	0	0	0.02	-0.1359419	1	290	0	3500
19646	81	-3	-4	1.032229	-0.1521302	2.377131	0	12.53	4003	0	0	0	0	0.02	-0.1418753	1	290	0	3500
19741	82	-7	-10	1.03448	-0.1513956	2.384467	0	12.53	4002	0	0	0	0	0.02	-0.1425617	1	290	0	3500
19893	90	-8	-6	1.032583	-0.1462753	2.40452	0	12.53	4003	0	0	0	0	0.02	-0.1371374	1	290	0	3500
20008	76	-9	-4	1.036539	-0.1499918	2.414424	0	12.53	4003	0	0	0	0	0.02	-0.1346311	1	290	0	3500
20048	85	-2	-4	1.042478	-0.1503839	2.417542	0	12.53	4004	0	0	0	0	0.02	-0.1288594	1	290	0	3500
20145	85	-4	-9	1.043346	-0.1517867	2.433316	0	12.53	4003	0	0	0	0	0.02	-0.1224998	1	290	0	3500
20312	83	-2	-10	1.049624	-0.1589444	2.451045	0	12.53	4003	0	0	0	0	0.02	-0.115301	1	290	0	3500
20354	85	-5	-8	1.04849	-0.1570619	2.455263	0	12.53	4004	0	0	0	0	0.02	-0.1146601	1	290	0	3500
20459	75	-5	-5	1.046958	-0.1604246	2.465841	0	12.53	4003	0	0	0	0	0.02	-0.1107558	1	290	0	3500
20555	73	-5	-7	1.043678	-0.1547415	2.475562	0	12.53	4002	0	0	0	0	0.02	-0.108776	1	290	0	3500
20723	88	-6	-3	1.046842	-0.1533392	2.491763	0	12.53	4004	0	0	0	0	0.02	-0.1102511	1	290	0	3500
20776	81	-1	-7	1.052174	-0.1542833	2.494576	0	12.53	4003	0	0	0	0	0.02	-0.1069577	1	290	0	3500
20901	80	-3	-8	1.044569	-0.1545031	2.507476	0	12.53	4002	0	0	0	0	0.02	-0.1060885	1	290	0	3500
21008	80	-2	-7	1.048291	-0.1550949	2.516769	0	12.53	4003	0	0	0	0	0.02	-0.1155888	1	290	0	3500
21072	72	-7	-7	1.051842	-0.1602379	2.524043	0	12.53	4004	0	0	0	0	0.02	-0.1166001	1	290	0	3500
21216	89	-4	-3	1.047925	-0.1645171	2.536515	0	12.53	4003	0	0	0	0	0.02	-0.1147863	1	290	0	3500
21280	79	-6	-8	1.05145	-0.1653642	2.544463	0	12.53	4004	0	0	0	0	0.02	-0.1101227	1	290	0	3500
21410	85	-4	-6	1.039532	-0.1603748	2.560052	0	12.53	4003	0	0	0	0	0.02	-0.09721589	1	290	0	3500
21481	89	-3	-7	1.045368	-0.1646384	2.566471	0	12.53	4003	0	0	0	0	0.02	-0.09166844	1	290	0	3500
21623	74	-7	-9	1.043724	-0.1587289	2.578025	0	12.53	4004	0	0	0	0	0.02	-0.07642349	1	290	0	3500
21716	84	3	-13	1.054968	-0.159059	2.592148	0	12.53	4003	0	0	0	0	0.02	-0.06766325	1	290	0	3500
21806	82	0	-1	1.053492	-0.1600108	2.596672	0	12.53	4003	0	0	0	0	0.02	-0.06531218	1	290	0	3500
21911	92	-8	-5	1.05848	-0.1584637	2.611223	0	12.53	4003	0	0	0	0	0.02	-0.0690833	1	290	0	3500
21991	82	-5	-4	1.059269	-0.1559989	2.617826	0	12.53	4003	0	0	0	0	0.02	-0.0683198	1	290	0	3500
22172	83	-5	0	1.067508	-0.1525159	2.636045	0	12.53	4004	0	0	0	0	0.02	-0.05436601	1	290	0	3500
22243	81	-5	-8	1.069517	-0.1533926	2.644115	0	12.53	4004	0	0	0	0	0.02	-0.03828063	1	290	0	3500
22329	85	-6	-4	1.06998	-0.1528285	2.654876	0	12.53	4003	0	0	0	0	0.02	-0.02415228	1	290	0	3500
22454	86	-5	-4	1.064169	-0.1557191	2.667775	0	12.53	4004	0	0	0	0	0.02	-0.003034241	1	290	0	3500
22532	82	3	-9	1.065419	-0.1527902	2.673216	0	12.53	4003	0	0	0	0	0.02	0.0063279	1	290	0	3500
22620	89	1	-9	1.073397	-0.1606337	2.681652	0	12.53	4003	0	0	0	0	0.02	0.00461342	1	290	0	3500
22753	74	-2	-7	1.075679	-0.1601666	2.696752	0	12.53	4002	0	0	0	0	0.02	-0.007177479	1	290	0	3500
22828	87	-2	-12	1.075693	-0.1530635	2.703967	0	12.53	4003	0	0	0	0	0.02	-0.007641455	1	290	0	3500
22940	85	-4	-4	1.075183	-0.1580526	2.715582	0	12.53	4003	0	0	0	0	0.02	-0.01253257	1	290	0	3500
23012	79	0	-7	1.076235	-0.1546191	2.724998	0	12.53	4002	0	0	0	0	0.02	-0.01348948	1	290	0	3500
23147	90	0	-7	1.086236	-0.1591384	2.740159	0	12.53	4002	0	0	0	0	0.02	-0.01935496	1	290	0	3500
23284	90	-4	-9	1.093917	-0.1577468	2.754097	0	12.53	4004	0	0	0	0	0.02	-0.02122402	1	290	0	3500
23343	77	-3	-3	1.099786	-0.1575798	2.761127	0	12.53	4004	0	0	0	0	0.02	-0.01993603	1	290	0	3500
23474	81	-2	-1	1.10239	-0.1613741	2.773415	0	12.53	4003	0	0	0	0	0.02	-0.02489298	1	290	0	3500
23585	83	-2	-3	1.134671	-0.155377	2.785743	0	12.53	4004	0	0	0	0	0.02	-0.02977771	1	290	0	3500
23672	84	-5	-9	1.13182	-0.1531915	2.791796	0	12.53	4003	0	0	0	0	0.02	-0.03117823	1	290	0	3500
23837	81	0	-7	1.15824	-0.152092	2.810494	0	12.53	4004	0	0	0	0	0.02	-0.03015341	1	20	0.001	120
23909	82	-3	-5	1.148035	-0.1496636	2.817648	0	12.53	4003	0	0	0	0	0.02	-0.03107144	1	20	0.001	120
23991	80	0	-6	1.142964	-0.1559302	2.82908	0	12.53	4003	0	0	0	0	0.02	-0.03511106	1	20	0.001	120
24125	94	1	-5	1.134527	-0.1567306	2.841735	0	12.53	4002	0	0	0	0	0.02	-0.03749608	1	20	0.001	120
24156	82	1	-13	1.133679	-0.1586245	2.845586	0	12.53	4003	0	0	0	0	0.02	-0.03715895	1	20	0.001	120
24300	80	-7	-11	1.124789	-0.1528881	2.861848	0	12.53	4003	0	0	0	0	0.02	-0.0358187	1	20	0.001	120
24396	88	-3	-7	1.127554	-0.1558171	2.871997	0	12.53	4002	0	0	0	0	0.02	-0.03966889	1	20	0.001	120
24559	90	-10	-8	1.130579	-0.1585924	2.887954	0	12.53	4004	0	0	0	0	0.02	-0.03860581	1	20	0.001	120
24678	88	1	-6	1.12288	-0.1640684	2.899142	0	12.53	4003	0	0	0	0	0.02	-0.02483962	1	20	0.001	120
24811	83	-2	-6	1.126413	-0.1608796	2.913815	0	12.53	4002	0	0	0	0	0.02	-0.01924502	1	20	0.001	120
24881	85	-6	-2	1.121603	-0.160791	2.924881	0	12.53	4003	0	0	0	0	0.02	-0.01911137	1	20	0.001	120
25008	87	0	-7	1.116324	-0.1611515	2.937842	0	12.53	4002	0	0	0	0	0.02	-0.01712298	1	20	0.001	120
25040	96	-6	-5	1.116726	-0.1600677	2.940593	0	12.53	4004	0	0	0	0	0.02	-0.01740287	1	20	0.001	120
25118	80	-3	-8	1.115634	-0.1616607	2.947808	0	12.53	4004	0	0	0	0	0.02	-0.0213538	1	20	0.001	120
25242	81	-7	-7	1.119377	-0.1633392	2.96187	0	12.53	4002	0	0	0	0	0.02	-0.02806819	1	20	0.001	120
25369	87	-2	-10	1.124399	-0.1645092	2.970674	0	12.53	4004	0	0	0	0	0.02	-0.03953975	1	20	0.001	120
25480	93	-2	-9	1.13942	-0.1636899	2.984857	0	12.53	4003	0	0	0	0	0.02	-0.04337834	1	20	0.001	120
25599	94	-6	-8	1.14099	-0.1640636	3.002037	0	12.53	4004	0	0	0	0	0.02	-0.04022683	1	20	0.001	120
25648	85	-4	-7	1.143065	-0.1623482	3.005828	0	12.53	4004	0	0	0	0	0.02	-0.04254453	1	20	0.001	120
25752	85	-4	-2	1.135427	-0.1667487	3.020256	0	12.53	4004	0	0	0	0	0.02	-0.04709883	1	20	0.001	120
25812	85	-2	-6	1.134624	-0.1667858	3.024169	0	12.53	4003	0	0	0	0	0.02	-0.04357827	1	20	0.001	120
25924	87	-5	-9	1.136379	-0.1667932	3.038108	0	12.53	4004	0	0	0	0	0.02	-0.0407867	1	20	0.001	120
26009	84	-9	-7	1.136904	-0.1690201	3.043427	0	12.53	4004	0	0	0	0	0.02	-0.04133812	1	20	0.001	120
26168	96	-9	-11	1.144089	-0.1652936	3.062928	0	12.53	4003	0	0	0	0	0.02	-0.04620424	1	20	0.001	120
26291	97	-2	-8	1.155391	-0.1612275	3.075889	0	12.53	4002	0	0	0	0	0.02	-0.04622324	1	20	0.001	120
26322	86	-5	-7	1.157088	-0.1554082	3.084938	0	12.53	4004	0	0	0	0	0.02	-0.04538143	1	20	0.001	120
26460	89	-7	-7	1.156233	-0.1626074	3.10181	0	12.59	4003	0	0	0	0	0.02	-0.04192859	3	20	0.001	120
26529	85	-6	-3	1.157894	-0.1653796	3.105845	0	12.59	4003	0	0	0	0	0.02	-0.04567356	3	20	0.001	120
26680	81	-9	-4	1.164828	-0.1634429	3.128222	0	12.59	4002	0	0	0	0	0.02	-0.0383773	3	20	0.001	120
26769	93	-6	-8	1.166837	-0.1608509	3.135558	0	12.59	4002	0	0	0	0	0.02	-0.03329211	3	20	0.001	120
26815	82	0	-10	1.164034	-0.1578125	3.141732	0	12.59	4003	0	0	0	0	0.02	-0.03369464	3	20	0.001	120
26918	93	-6	-10	1.166666	-0.1606382	3.152492	0	12.59	4003	0	0	0	0	0.02	-0.0342046	3	20	0.001	120
27002	90	-5	-7	1.163903	-0.1566639	3.16093	0	12.59	4004	0	0	0	0	0.02	-0.02971728	3	20	0.001	120
27113	97	0	-8	1.168846	-0.1635427	3.177252	0	12.59	4003	0	0	0	0	0.02	-0.02726314	3	20	0.001	120
27240	84	-2	-6	1.166683	-0.1656946	3.189358	0	12.59	4003	0	0	0	0	0.02	-0.0285791	3	20	0.001	120
27339	90	0	-6	1.162055	-0.1725958	3.204886	0	12.53	4003	0	0	0	0	0.02	-0.02171157	3	20	0.001	120
27503	90	-5	-7	1.171841	-0.1795447	3.222554	0	12.53	4003	0	0	0	0	0.02	-0.00758855	3	20	0.001	120
27548	90	-4	-5	1.168408	-0.1805262	3.226038	0	12.53	4003	0	0	0	0	0.02	-0.003794339	3	20	0.001	120
27609	95	2	-9	1.172853	-0.1833064	3.234659	0	12.53	4002	-5	0	0	0	0.02	-0.001426299	3	20	0.001	120
27727	88	-19	-21	1.166399	-0.1779867	3.251288	0	12.53	4004	-5	0	0	0	0.02	-0.00308118	3	20	0.001	120
27823	67	-26	-17	1.174047	-0.175438	3.260024	0	12.53	4004	-4	-6	0	0	0.02	-2.545652E-05	3	20	0.001	120
27927	76	53	59	1.158848	-0.1767005	3.252511	0	12.53	4003	4	-7	-1	0	0.02	0.00220299	3	20	0.001	120
28084	159	-6	53	1.198007	-0.1954586	3.298605	0	12.53	4004	0	0	0	0	0.02	0.001254944	3	20	0.001	120
28149	113	-42	-37	1.204214	-0.2094053	3.282413	0	12.53	4003	0	0	0	0	0.02	0.002031913	3	20	0.001	120
28233	73	-26	4	1.195286	-0.2167501	3.297391	0	12.53	4004	0	0	0	0	0.02	0.007948525	3	20	0.001	120
28323	81	0	-31	1.189758	-0.2128985	3.30204	0	12.53	4003	-5	0	0	0	0.02	0.007178981	3	20	0.001	120
28515	84	-38	0	1.204237	-0.2135665	3.325394	0	12.53	4003	-3	2	0	0	0.02	0.00815309	3	20	0.001	120
28560	86	58	57	1.18818	-0.2217854	3.334441	0	12.53	4004	0	-4	0	0	0.02	0.008074781	3	20	0.001	120
28665	109	2	-63	1.190271	-0.213109	3.349046	0	12.53	4004	-16	5	-1	0	0.02	0.002952751	3	20	0.001	120
28711	36	-58	-54	1.186175	-0.2022478	3.371369	0	12.53	4002	5	-14	0	0	0.02	-0.0001827953	3	20	0.001	120
28839	104	11	32	1.15774	-0.1814403	3.356502	0	12.53	4003	-19	-4	1	0	0.02	-0.01635534	3	20	0.001	120
28908	154	88	-110	1.163721	-0.2028977	3.355345	0	12.53	4003	-50	2	0	0	0.02	-0.02521584	3	20	0.001	120
29012	141	141	-18	1.163025	-0.1446827	3.341158	0	12.53	4004	48	19	0	0	0.02	-0.03110737	3	20	0.001	120
29122	83	-39	14	1.167791	-0.12684	3.342761	0	12.59	4003	5	-28	1	0	0.02	-0.03394883	3	20	0.001	120
29220	123	-39	139	1.14183	-0.1132205	3.340863	0	12.59	4002	-21	16	-2	0	0.02	-0.02703593	3	20	0.001	120
29343	63	-130	69	1.152358	-0.1231891	3.350757	0	12.59	4003	-38	5	0	0	0.02	-0.006202819	3	20	0.001	120
29447	112	-38	117	1.127187	-0.1138052	3.375395	0	12.59	4003	-44	6	-1	0	0.02	0.009407597	3	20	0.001	120
29522	81	-43	131	1.091172	-0.1123172	3.397233	0	12.59	4002	-22	-18	0	0	0.02	0.02707474	3	20	0.001	120
29619	-1	-47	-28	1.022603	-0.09870043	3.418933	0	12.59	4002	2	-19	-1	0	0.02	0.03499474	3	20	0.001	120
29722	5	-21	-134	1.020762	-0.0708557	3.424335	0	12.59	4003	-3	-23	-2	0	0.02	0.03397474	3	20	0.001	120
29898	121	82	-176	1.006824	-0.1338318	3.441128	0	12.59	4003	-7	2	-5	0	0.02	0.03330503	3	20	0.001	120
29975	162	101	-182	1.008527	-0.1579034	3.447057	0	12.59	4003	-1	-13	-5	0	0.02	0.03120921	3	20	0.001	120
30061	198	51	-30	1.032008	-0.1569522	3.453596	0	12.36	4003	-5	-15	-4	0	0.02	0.03308498	3	20	0.001	120
30179	142	-67	42	1.044658	-0.1641548	3.451031	0	12.36	4003	-23	-14	-4	0	0.02	0.04609783	3	20	0.001	120
30305	196	3	16	0.9956238	-0.1502637	3.464747	0	12.36	4003	-14	-13	-3	0	0.02	0.06003594	3	20	0.001	120
30338	188	-56	-1	0.9757256	-0.1456098	3.475022	0	12.36	4003	4	-22	-5	0	0.02	0.0624964	3	20	0.001	120
30414	64	-33	-173	0.9821011	-0.1301289	3.483528	0	12.36	4003	-7	8	-3	0	0.02	0.06611098	3	20	0.001	120
30562	-86	-41	185	0.9959174	-0.1514284	3.48677	0	12.36	4003	-38	1	-4	0	0.02	0.08292024	3	20	0.001	120
30622	178	-40	68	0.9830905	-0.151593	3.480592	0	12.36	4002	-30	0	-5	0	0.02	0.0908198	3	20	0.001	120
30747	33	-80	-77	0.9823027	-0.1247136	3.513974	0	12.36	4002	-5	-20	-3	0	0.02	0.1030385	3	20	0.001	120
30822	163	26	97	0.9987634	-0.1546845	3.517999	0	12.36	4004	-47	22	-6	0	0.02	0.1106101	3	20	0.001	120
30927	186	96	88	1.016989	-0.1487118	3.521057	0	12.36	4003	-30	-2	-5	0	0.02	0.1163632	3	20	0.001	120
31032	133	63	218	0.9859217	-0.1627982	3.523741	0	12.48	4004	-47	27	-4	0	0.02	0.1182037	3	20	0.001	120
31137	154	-7	109	0.9847243	-0.1414352	3.548316	0	12.48	4002	-64	-8	-5	0	0.02	0.1214266	3	20	0.001	120
31242	85	-76	-123	0.9573441	-0.1827875	3.564104	0	12.48	4003	-27	-3	-5	0	0.02	0.124248	3	20	0.001	120
31361	-2	25	-65	0.9452068	-0.1829699	3.575897	0	12.48	4003	-22	-2	-6	0	0.02	0.1204986	3	20	0.001	120
31478	133	16	21	0.9344369	-0.1792013	3.560006	0	12.48	4003	-41	-15	-6	0	0.02	0.1199579	3	20	0.001	120
31554	150	10	175	0.8907977	-0.1790829	3.539292	0	12.48	4002	4	-36	-5	0	0.02	0.1208627	3	20	0.001	120
31649	37	-49	22	0.8223583	-0.0568972	3.565097	0	12.48	4003	-29	-2	-8	0	0.02	0.1233062	3	20	0.001	120
31831	-1571	-1631	-1036	-1.393948	1.720453	3.700893	0	12.48	4003	-2	-75	-17	0	0.02	0.1322867	3	20	0.001	120
31912	-1273	1727	393	-3.562926	0.1438048	3.034766	0	12.31	4004	-25	40	36	0	0.02	0.1305798	3	20	0.001	120
