time(ms)	gyro_x(deg/s)	gyro_y(deg/s)	gyro_z(deg/s)	orientation_roll(deg)	orientation_pitch(deg)	orientation_yaw(deg)	throttle	battery(V)	loop_time(uS)	pid_output_roll	pid_output_pitch	pid_output_yaw	pid_output_throttle	ultrasonic_alt	baro_alt	flight_mode	p_gain_altitude	i_gain_altitude	d_gain_altitude
314023	-12	0	-2	-0.3311712	-0.132871	-16.39138	0	11.23	4004	0	0	0	0	1.03483	0.3909363	1	10	1E-05	500
314172	-6	0	0	-0.3208366	-0.1290348	-16.39681	0	11.23	4002	0	0	0	0	1.03483	0.3918695	1	10	1E-05	500
314231	-14	-3	0	-0.3245863	-0.1331214	-16.39944	0	11.23	4004	0	0	0	0	1.03483	0.3973295	1	10	1E-05	500
314348	-20	-5	4	-0.3324988	-0.1386255	-16.40212	0	11.23	4003	0	0	0	0	1.03483	0.39883	1	10	1E-05	500
314452	-13	0	5	-0.3283966	-0.1315844	-16.40493	0	11.17	4003	0	0	0	0	1.03483	0.3954217	1	10	1E-05	500
314527	-11	1	2	-0.3249555	-0.1126907	-16.40749	0	11.17	4004	0	0	0	0	1.03483	0.3960459	1	10	1E-05	500
314659	-16	-3	7	-0.3200674	-0.1126782	-16.40993	0	11.17	4004	0	0	0	0	1.03483	0.4104563	1	10	1E-05	500
314727	-15	-2	2	-0.319532	-0.1205613	-16.4117	0	11.17	4004	0	0	0	0	1.03483	0.4169016	1	10	1E-05	500
314822	-15	-1	6	-0.3141806	-0.1284317	-16.41402	0	11.17	4004	0	0	0	0	1.03483	0.4199769	1	10	1E-05	500
314982	-12	-2	1	-0.3193964	-0.1389743	-16.4197	0	11.17	4003	0	0	0	0	1.03483	0.4289671	1	10	1E-05	500
315048	-15	4	3	-0.3155843	-0.1404668	-16.4219	0	11.17	4004	0	0	0	0	1.03483	0.4340127	1	10	1E-05	500
315138	-14	-5	1	-0.3134484	-0.1285867	-16.42232	0	11.17	4003	0	0	0	0	1.03483	0.4325406	1	10	1E-05	500
315233	-14	-1	5	-0.3007387	-0.1180771	-16.42739	0	11.17	4002	0	0	0	0	1.03483	0.4232846	1	10	1E-05	500
315347	-8	-2	0	-0.3018523	-0.1130645	-16.43056	0	11.23	4004	0	0	0	0	1.03483	0.4053132	1	10	1E-05	500
315485	-11	1	6	-0.3079283	-0.1117936	-16.43514	0	11.23	4002	0	0	0	0	1.03483	0.3939387	1	10	1E-05	500
315555	-8	-4	0	-0.3094902	-0.1111175	-16.43563	0	11.23	4002	0	0	0	0	1.03483	0.3966764	1	10	1E-05	500
315636	-10	0	2	-0.3066638	-0.1041292	-16.43819	0	11.23	4004	0	0	0	0	1.03483	0.4009161	1	10	1E-05	500
315764	-9	-1	0	-0.3058818	-0.1026972	-16.44021	0	11.23	4003	0	0	0	0	1.03483	0.4186148	1	10	1E-05	500
315845	-7	-4	0	-0.3052277	-0.1076636	-16.44131	0	11.23	4002	0	0	0	0	1.03483	0.420049	1	10	1E-05	500
315961	-9	-2	0	-0.3133482	-0.121373	-16.44259	0	11.23	4003	0	0	0	0	1.03483	0.4215523	1	10	1E-05	500
316134	-12	2	-1	-0.3160225	-0.1269851	-16.44765	0	11.23	4003	0	0	0	0	1.03483	0.4086208	1	10	1E-05	500
316214	-7	0	3	-0.3036895	-0.1301514	-16.45211	0	11.17	4003	0	0	0	0	1.03483	0.4111975	1	10	1E-05	500
316287	-6	-2	0	-0.3034172	-0.127677	-16.45327	0	11.17	4002	0	0	0	0	1.03483	0.4198621	1	10	1E-05	500
316329	-12	2	0	-0.3009996	-0.1223763	-16.4551	0	11.17	4004	0	0	0	0	1.03483	0.4211425	1	10	1E-05	500
316426	-10	0	-1	-0.3009777	-0.1223292	-16.4565	0	11.17	4002	0	0	0	0	1.03483	0.417336	1	10	1E-05	500
316544	-13	-2	1	-0.2996058	-0.1203955	-16.45626	0	11.17	4003	0	0	0	0	1.03483	0.4118618	1	10	1E-05	500
316708	-13	0	1	-0.3063283	-0.1254863	-16.45853	0	11.17	4003	0	0	0	0	1.03483	0.4120366	1	10	1E-05	500
316775	-15	0	1	-0.3060839	-0.1218165	-16.46011	0	11.17	4002	0	0	0	0	1.03483	0.4087898	1	10	1E-05	500
316897	-13	-2	-1	-0.3059636	-0.1182001	-16.46133	0	11.17	4002	0	0	0	0	1.03483	0.4071091	1	10	1E-05	30
316908	-13	-2	-1	-0.3059636	-0.1182001	-16.46133	0	11.17	4002	0	0	0	0	1.03483	0.4039385	1	10	1E-05	30
317034	-15	-3	1	-0.310156	-0.1299436	-16.464	0	11.17	4003	0	0	0	0	1.03483	0.3999527	1	10	1E-05	30
317128	-10	0	0	-0.3073469	-0.1337278	-16.46461	0	11.23	4003	0	0	0	0	1.03483	0.3927782	1	10	1E-05	30
317271	-18	-3	2	-0.3084543	-0.132851	-16.46394	0	11.23	4003	0	0	0	0	1.03483	0.3771617	1	10	1E-05	30
317444	-13	-5	-1	-0.3060828	-0.1293951	-16.46314	0	11.23	4003	0	0	0	0	1.03483	0.375859	1	10	1E-05	30
317569	-4	3	-2	-0.2965111	-0.1151423	-16.46534	0	11.23	4004	0	0	0	0	1.03483	0.3962783	1	10	1E-05	30
317708	-4	-6	1	-0.2877378	-0.1107958	-16.46693	0	11.23	4003	0	0	0	0	1.03483	0.3978218	1	10	1E-05	30
317889	-6	2	0	-0.295518	-0.1210414	-16.46925	0	11.23	4003	0	0	0	0	1.03483	0.3978935	1	10	1E-05	30
317933	-15	4	0	-0.2964242	-0.1230852	-16.46925	0	11.23	4003	0	0	0	0	1.03483	0.3978935	1	10	1E-05	30
317998	-10	-2	0	-0.289546	-0.1211869	-16.47035	0	11.29	4002	0	0	0	0	1.03483	0.396813	1	10	1E-05	30
318111	-8	-5	0	-0.2865421	-0.1225041	-16.47193	0	11.29	4003	0	0	0	0	1.03483	0.4034224	1	10	1E-05	30
318203	-4	-2	-3	-0.2788044	-0.1231548	-16.47291	0	11.29	4004	0	0	0	0	1.03483	0.4009854	1	10	1E-05	30
318301	-6	-3	-1	-0.2738777	-0.1252131	-16.47419	0	11.29	4002	0	0	0	0	1.03483	0.3886584	1	10	1E-05	30
318437	-7	3	3	-0.2692716	-0.1295612	-16.47578	0	11.29	4004	0	0	0	0	1.03483	0.3756314	1	10	1E-05	30
318496	-8	-3	-1	-0.2668933	-0.1297218	-16.47553	0	11.29	4003	0	0	0	0	1.03483	0.3733417	1	10	1E-05	30
318614	-2	-6	2	-0.2698717	-0.1221884	-16.47816	0	11.29	4004	0	0	0	0	1.03483	0.3681394	1	10	1E-05	30
318724	-8	-1	-1	-0.2681418	-0.1280697	-16.47901	0	11.29	4002	0	0	0	0	1.03483	0.367126	3	10	1E-05	30
318809	-6	1	-1	-0.270667	-0.1344911	-16.47981	0	11.29	4004	0	0	0	0	1.03483	0.3619749	3	10	1E-05	30
318937	-8	2	-1	-0.2680691	-0.1288848	-16.48109	0	11.23	4003	0	0	0	0	1.03483	0.3622769	3	10	1E-05	30
319028	-13	3	3	-0.2630804	-0.120303	-16.47956	0	11.23	4002	0	0	0	0	1.03483	0.3590155	3	10	1E-05	30
319160	-1	0	1	-0.2639572	-0.1176233	-16.47944	0	11.23	4004	1	1	0	0	1.03483	0.3544665	3	10	1E-05	30
319212	7	110	63	-0.2563233	-0.1289994	-16.47479	0	11.23	4003	0	0	0	0	1.03483	0.3534346	3	10	1E-05	30
319393	19	-12	-32	-0.2430511	-0.1265534	-16.474	0	11.23	4002	4	-9	1	0	1.03483	0.3406342	3	10	1E-05	30
319446	115	-11	-194	-0.2453914	-0.1024931	-16.47663	0	11.23	4004	7	18	-1	0	1.03483	0.3384323	3	10	1E-05	30
319530	-107	85	20	-0.2379687	-0.1325779	-16.46777	0	11.23	4002	11	14	-3	0	1.03483	0.339674	3	10	1E-05	30
319694	-81	-124	68	-0.2906148	-0.08981414	-16.49767	0	11.23	4002	11	-7	2	0	1.03483	0.3505062	3	10	1E-05	30
319749	81	12	-185	-0.2687742	-0.08741021	-16.514	0	11.23	4004	-9	3	1	0	1.03483	0.3525816	3	10	1E-05	30
319855	-145	-132	86	-0.3559948	0.0101218	-16.73774	0	10.26	4003	12	-21	6	0	1.03483	0.3701729	3	10	1E-05	30
319897	4	-59	-514	-0.4045974	0.01232348	-16.74667	0	10.26	4003	12	-21	6	0	1.03483	0.3701729	3	10	1E-05	30
320037	-500	2101	-441	0.5482894	-4.816109	-16.95939	0	10.26	4003	14	-78	10	0	1.03483	0.3909796	3	10	1E-05	30
320110	-651	3919	-114	-0.02526319	-8.253351	-17.02161	0	10.26	4004	11	-1	8	0	1.03483	0.4067376	3	10	1E-05	30
320202	-904	-122	-1975	-0.903923	-11.1994	-16.61342	0	10.26	4003	76	-207	-8	0	1.03483	0.4393399	3	10	1E-05	30
320332	1726	3488	-884	-0.05219876	-16.02032	-16.03401	0	10.26	4003	-60	-25	-9	0	1.03483	0.4966631	3	10	1E-05	30
320412	535	-2976	-2145	1.159252	-16.24364	-15.09648	0	10.26	4003	-207	154	-17	0	1.03483	0.5279129	3	10	1E-05	30
320515	-2574	-1180	-1779	1.501469	-15.32666	-14.06048	0	10.26	4004	181	-162	-77	0	1.03483	0.5737199	3	10	1E-05	30
320686	796	-2377	1102	1.863963	-10.58762	-14.60107	0	10.26	4003	9	61	-36	0	1.03483	0.6695195	3	10	1E-05	30
320721	365	-1167	1300	3.499415	-8.530879	-15.43332	0	10.89	4004	30	-53	-28	0	1.03483	0.6852303	3	10	1E-05	30
320890	-1775	-3138	480	1.670188	-4.464323	-17.16363	0	10.89	4002	-85	-9	22	0	1.03483	0.7903422	3	10	1E-05	30
321001	-1376	-3261	135	-2.853874	2.994769	-17.34393	0	10.89	4003	0	0	32	0	1.03483	0.8547282	3	10	1E-05	30
321033	357	-1305	285	-2.764848	3.957103	-16.96428	0	10.89	4004	-98	0	21	0	1.03483	0.8670889	3	10	1E-05	30
321135	-716	523	-707	-1.409963	-0.5310673	-15.28599	0	10.89	4003	-22	-127	-41	0	1.03483	0.9416112	3	10	1E-05	30
321267	-2042	-261	107	-4.625039	-2.366525	-16.17868	0	10.89	4004	31	-158	-2	0	1.03483	0.9920594	3	10	1E-05	30
321348	1818	-601	-157	-3.409965	-2.931133	-16.9173	0	10.89	4004	45	-113	0	0	1.03483	1.01869	3	10	1E-05	30
321419	2402	4325	1216	-0.3848914	-5.843015	-16.95948	0	10.89	4002	-168	185	15	0	1.03483	1.050943	3	10	1E-05	30
321523	784	612	-416	0.5433125	-9.739987	-16.19053	0	10.89	4003	-140	119	-13	0	1.03483	1.092789	3	10	1E-05	30
321669	-1867	-2088	-415	0.1393877	-7.388453	-15.37868	0	10.6	4004	136	-105	-30	0	1.03483	1.143122	3	10	1E-05	30
321753	1685	213	725	0.04972026	-6.240294	-15.65448	0	10.6	4003	-38	-137	-19	0	1.03483	1.186943	3	10	1E-05	30
321860	2269	1651	645	1.830129	-8.503345	-15.50466	0	10.6	4004	101	-234	-37	0	1.03483	1.210591	3	10	1E-05	30
321945	1180	-3965	-1694	3.971779	-8.690634	-14.58827	0	10.6	4004	122	-269	-66	0	1.03483	1.227546	3	10	1E-05	30
322053	290	-362	-1090	3.607097	-6.782298	-13.75718	0	10.6	4002	-126	-108	-73	0	1.03483	1.248959	3	10	1E-05	30
322219	-179	675	1027	1.774921	-8.272964	-14.54865	0	10.6	4004	-119	75	-35	0	1.03483	1.26786	3	10	1E-05	30
322276	402	-2138	1150	1.774116	-5.995695	-14.81147	0	10.6	4003	-66	81	-28	0	1.03483	1.269237	3	10	1E-05	30
322336	-474	-714	1366	1.890808	-3.858878	-15.71289	0	10.6	4003	-74	101	-5	0	1.03483	1.267864	3	10	1E-05	30
322432	-131	1937	-1031	1.536886	-8.110288	-16.40137	0	10.6	4004	39	-222	-23	0	1.03483	1.261659	3	10	1E-05	30
322490	-129	1935	-543	1.391651	-13.1077	-15.85503	0	10.6	4004	-114	103	-15	0	1.03483	1.257601	3	10	1E-05	30
322594	-763	433	-528	1.122457	-14.13891	-14.99521	0	10.49	4003	-14	-94	-34	0	1.03483	1.255536	3	10	1E-05	30
322752	-1069	-231	1044	-1.21446	-11.83594	-15.79796	0	10.49	4003	31	11	0	0	1.03483	1.242596	3	10	1E-05	30
322902	447	849	-591	-2.614276	-11.31051	-17.2425	0	10.49	4003	18	-142	7	0	1.03483	1.179255	3	10	1E-05	30
322950	-532	1381	-504	-1.553434	-12.65157	-16.94308	0	10.49	4004	26	-9	-2	0	1.03483	1.170591	3	10	1E-05	30
323033	-588	53	65	-2.467511	-12.84283	-16.21302	0	10.49	4002	-28	68	-6	0	1.03483	1.140503	3	10	1E-05	30
323099	61	-570	-662	-2.631624	-12.50396	-15.89267	0	10.49	4003	192	-213	-27	0	1.03483	1.120684	3	10	1E-05	30
323252	-248	720	1570	0.9087697	-13.58348	-15.09094	0	10.49	4004	-26	-66	-43	0	1.03483	1.082802	3	10	1E-05	30
323359	-1694	-3374	676	-1.82513	-9.36774	-15.38727	0	10.49	4003	49	-89	-36	0	1.03483	1.048877	3	10	1E-05	30
323465	-68	-1065	-771	0.01905174	-6.673913	-16.0945	0	10.38	4003	-22	147	0	0	1.03483	1.004996	3	10	1E-05	30
323530	1111	2271	820	0.4878182	-7.094924	-16.21761	0	10.38	4004	72	-259	-24	0	1.03483	0.9808478	3	10	1E-05	30
323635	2932	3819	-969	2.874127	-11.98914	-15.68199	0	10.38	4003	3	-52	-8	0	1.03483	0.953185	3	10	1E-05	30
323730	1430	2631	-912	6.420044	-16.1898	-14.58116	0	10.38	4002	-24	195	-56	0	1.03483	0.9398348	3	10	1E-05	30
323806	-336	2150	531	6.167742	-17.93561	-15.33961	0	10.38	4003	36	-27	-19	0	1.03483	0.9327368	3	10	1E-05	30
323921	821	-277	-651	5.380243	-17.61097	-16.10531	0	10.38	4003	-84	70	6	0	1.03483	0.9112322	3	10	1E-05	30
324056	-883	1269	1015	1.5773	-17.34785	-16.2322	0	10.38	4004	-11	147	-14	0	1.03483	0.911824	3	10	1E-05	30
324115	-942	-717	-1564	1.243623	-16.67451	-15.30446	0	10.38	4003	131	-287	-46	0	1.03483	0.9167514	3	10	1E-05	30
324244	-743	231	478	-0.1959022	-16.81378	-15.79086	0	10.38	4003	117	-241	-30	0	1.03483	0.9237637	3	10	1E-05	30
324303	-129	79	1401	-0.6184596	-15.48173	-15.8598	0	10.38	4004	31	-189	-13	0	1.03483	0.9313657	3	10	1E-05	30
324405	1149	724	-1987	-0.5434439	-14.64757	-15.50767	0	9.7	4003	-210	-9	-44	0	1.03483	0.9579425	3	10	1E-05	30
324519	-2791	-2284	122	-0.4455765	-15.96712	-15.16391	0	9.7	4004	27	63	-34	0	1.03483	0.9877861	3	10	1E-05	30
324654	-287	-101	1521	-1.931366	-12.96607	-15.92149	0	9.7	4003	-190	400	-20	0	1.03483	1.03739	3	10	1E-05	30
324703	1035	-1340	-1411	-1.476367	-11.97013	-15.41439	0	9.7	4002	-33	-18	-24	0	1.03483	1.0473	3	10	1E-05	30
324877	157	-1776	-552	-2.848426	-5.614161	-15.58588	0	9.7	4004	-172	238	-1	0	1.03483	1.146806	3	10	1E-05	30
324951	147	954	489	-2.350666	-5.798759	-15.72914	0	9.7	4003	-41	278	-10	0	1.03483	1.19139	3	10	1E-05	30
325062	1677	-2727	-1761	-2.443321	-5.247458	-14.81632	0	9.7	4004	-97	255	-41	0	1.03483	1.264463	3	10	1E-05	30
325166	-1706	-3892	-552	-2.261919	-2.867156	-14.91173	0	9.7	4002	225	-266	-44	0	1.03483	1.35221	3	10	1E-05	30
325214	-1706	-3892	-552	-2.261919	-2.867156	-14.91173	0	9.7	4002	-109	58	-27	0	1.03483	1.384633	3	10	1E-05	30
325287	72	-1711	287	-2.514154	-0.9800118	-15.46272	0	9.7	4002	22	-198	-21	0	1.03483	1.43816	3	10	1E-05	30
325400	873	-978	622	-2.150236	0.6490021	-16.33078	0	10.21	4002	-136	117	4	0	1.03483	1.526889	3	10	1E-05	30
325522	-39	-1223	24	0.6864569	-0.5336027	-16.29569	0	10.21	4003	15	-45	-2	0	1.03483	1.587766	3	10	1E-05	30
325650	157	389	743	-1.542513	1.120032	-16.44632	0	10.21	4004	-38	13	16	0	1.03483	1.650672	3	10	1E-05	30
325792	1621	5312	-509	1.004503	-9.387211	-14.97631	0	10.21	4002	71	-268	-56	0	1.03483	1.714838	3	10	1E-05	30
325888	1417	2192	-1349	1.854146	-16.92957	-13.44642	0	10.21	4002	-120	161	-68	0	1.03483	1.750826	3	10	1E-05	30
326076	-1774	-3271	1824	-0.8732911	-11.19213	-15.85608	0	10.21	4003	-46	80	14	0	1.03483	1.807529	3	10	1E-05	30
326133	675	-1865	874	-1.258572	-7.942432	-16.68179	0	10.21	4002	-131	248	5	0	1.03483	1.833279	3	10	1E-05	30
326186	67	-1014	-1884	1.345336	-7.609906	-15.74179	0	10.43	4002	138	-192	-41	0	1.03483	1.839888	3	10	1E-05	30
326349	-783	-1073	491	-1.124894	-4.969157	-13.96549	0	10.43	4003	-38	1	-52	0	1.03483	1.886183	3	10	1E-05	30
326471	-405	-1246	544	-1.963366	-2.853595	-15.80161	0	10.43	4002	61	-128	1	0	1.03483	1.895617	3	10	1E-05	30
326522	1184	638	117	-2.018413	-2.458713	-16.46302	0	10.43	4004	9	-25	8	0	1.03483	1.892794	3	10	1E-05	30
326609	-519	1834	596	-1.13293	-5.27668	-17.10879	0	10.43	4003	30	-91	17	0	1.03483	1.879533	3	10	1E-05	30
326678	-338	1680	552	-2.04865	-6.232396	-17.07771	0	10.43	4002	-21	-67	14	0	1.03483	1.866427	3	10	1E-05	30
326780	422	2364	-214	-2.398934	-9.317625	-16.686	0	10.43	4003	-68	64	2	0	1.03483	1.847512	3	10	1E-05	30
326938	35	704	-294	-2.556182	-11.38106	-16.34231	0	10.43	4004	3	9	-10	0	1.03483	1.81022	3	10	1E-05	30
327017	-129	951	288	-2.470002	-12.3314	-16.45118	0	10.43	4004	11	64	-5	0	1.03483	1.779163	3	10	1E-05	30
327086	15	307	-539	-2.639976	-12.22218	-16.45724	0	10.43	4002	22	-83	-4	0	1.03483	1.753641	3	10	1E-05	30
327187	206	710	-222	-1.947958	-11.57162	-16.28128	0	10.38	4002	16	-51	-2	0	1.03483	1.720644	3	10	1E-05	30
327287	-178	1033	-300	-2.562149	-11.69681	-16.47927	0	10.38	4003	-38	39	-3	0	1.03483	1.687177	3	10	1E-05	30
327451	-747	423	569	-1.775923	-11.65548	-16.33325	0	10.38	4002	85	-132	-6	0	1.03483	1.636293	3	10	1E-05	30
327502	-144	804	-185	-1.404584	-12.06733	-16.16309	0	10.38	4002	20	-91	-25	0	1.03483	1.604675	3	10	1E-05	30
327618	182	3024	-1255	0.4777586	-15.11714	-15.36602	0	10.38	4004	-55	-111	-50	0	1.03483	1.554669	3	10	1E-05	30
327693	1178	2006	-292	1.210651	-15.61476	-13.9616	0	10.38	4003	63	-248	-71	0	1.03483	1.520406	3	10	1E-05	30
327806	-42	1914	688	1.318354	-16.72656	-14.23006	0	10.38	4002	0	8	-45	0	1.03483	1.465869	3	10	1E-05	30
327947	1220	420	39	1.109715	-15.37911	-15.74088	0	10.38	4004	-28	-228	-27	0	1.03483	1.373156	3	10	1E-05	30
328044	-1240	-775	-40	1.981648	-14.36148	-16.07603	0	10.38	4002	-223	283	9	0	1.03483	1.327281	3	10	1E-05	30
328110	-313	-1231	-501	1.821699	-13.45881	-16.36868	0	11.06	4002	-23	98	-15	0	1.03483	1.309684	3	10	1E-05	30
328230	-3133	-993	895	-1.917751	-8.360945	-16.56205	0	11.06	4002	-136	192	9	0	1.03483	1.268164	3	10	1E-05	30
328305	-1420	-939	-1665	-6.219038	-6.721072	-15.74414	0	11.06	4002	-146	197	-9	0	1.03483	1.254055	3	10	1E-05	30
328407	-1401	-1461	-1163	-7.163074	-6.633851	-15.73487	0	11.06	4003	136	-202	-24	0	1.03483	1.230335	3	10	1E-05	30
328515	559	809	1133	-5.983138	-4.984255	-16.28317	0	11.06	4004	-82	-112	-4	0	1.03483	1.222273	3	10	1E-05	30
328601	907	721	1044	-5.161455	-6.000339	-16.14973	0	11.06	4002	-4	101	-20	0	1.03483	1.220903	3	10	1E-05	30
328836	1198	-1590	-775	-1.943476	-4.986555	-15.20307	0	11.06	4004	24	-65	-41	0	1.03483	1.211305	3	10	1E-05	30
328907	-406	-1540	-1426	-0.801336	-5.922093	-15.21875	0	11.06	4003	-23	-202	-40	0	1.03483	1.205621	3	10	1E-05	30
329022	-273	-1076	1639	0.5873547	-4.510885	-14.99501	0	10.89	4003	-6	26	-17	0	1.03483	1.200966	3	10	1E-05	30
329143	1040	1450	296	-0.79768	-4.062995	-16.52431	0	10.89	4002	141	-363	-10	0	1.03483	1.204462	3	10	1E-05	30
329312	645	1249	520	-1.535804	-5.317055	-15.34991	0	10.89	4004	156	-213	-44	0	1.03483	1.190957	3	10	1E-05	30
329364	492	542	-1145	-0.9519456	-5.8927	-14.8539	0	10.89	4002	-40	-114	-56	0	1.03483	1.191183	3	10	1E-05	30
329463	1159	2176	1008	2.44539	-8.807163	-13.99393	0	10.89	4002	-15	-103	-57	0	1.03483	1.192996	3	10	1E-05	30
329540	-1789	-1797	988	2.247391	-9.074542	-14.71576	0	10.89	4003	84	-28	-23	0	1.03483	1.198347	3	10	1E-05	30
329621	-82	-1837	343	0.8903987	-6.233295	-16.16574	0	10.89	4002	-6	-154	19	0	1.03483	1.194981	3	10	1E-05	30
329756	807	-37	-1425	1.150522	-7.067514	-16.61827	0	10.89	4002	-70	-5	8	0	1.03483	1.189174	3	10	1E-05	30
329873	-1872	400	112	0.6709046	-7.281244	-15.80857	0	10.89	4003	65	-83	-17	0	1.03483	1.18414	3	10	1E-05	30
329970	1023	1920	292	-1.381961	-7.772278	-15.5619	0	10.94	4004	-126	113	-23	0	1.03483	1.172581	3	10	1E-05	30
330031	755	2303	435	-0.5038054	-9.39986	-15.30989	0	10.94	4004	-96	139	-28	0	1.03483	1.162457	3	10	1E-05	30
330139	214	1187	126	-1.080425	-11.38955	-15.91739	0	10.94	4004	-21	-44	-13	0	1.03483	1.13831	3	10	1E-05	30
330227	254	536	-22	-1.631575	-11.15882	-16.52399	0	10.94	4003	-63	86	7	0	1.03483	1.131355	3	10	1E-05	30
330330	-23	-693	-805	-0.5331072	-12.26093	-15.53572	0	10.94	4004	-130	298	-20	0	1.03483	1.126686	3	10	1E-05	30
330533	1227	-1265	-382	-2.256088	-10.23605	-14.70368	0	10.94	4003	63	-177	-66	0	1.03483	1.093217	3	10	1E-05	30
330563	1055	66	749	-1.720917	-9.526114	-14.60239	0	10.94	4003	-129	161	-40	0	1.03483	1.088906	3	10	1E-05	30
330633	961	2390	871	-0.5036832	-9.996817	-14.7197	0	10.94	4004	-21	123	-32	0	1.03483	1.081819	3	10	1E-05	30
330733	543	-1005	-261	0.527074	-11.7591	-15.32186	0	10.94	4003	150	-154	-34	0	1.03483	1.075301	3	10	1E-05	30
330856	-1034	632	890	-0.3911096	-10.74811	-15.58505	0	10.66	4003	6	22	-34	0	1.03483	1.070553	3	10	1E-05	30
330957	-70	313	766	-0.8950912	-11.01196	-15.77718	0	10.66	4002	33	-105	-10	0	1.03483	1.059477	3	10	1E-05	30
331057	-168	-1370	-121	-1.266849	-10.18103	-16.02573	0	10.66	4004	-66	-156	-9	0	1.03483	1.045766	3	10	1E-05	30
331173	-1334	-93	-274	-1.004623	-10.62915	-16.66192	0	10.66	4002	192	-187	-5	0	1.03483	1.03311	3	10	1E-05	30
331251	-87	-2374	-1485	-0.5280887	-12.2948	-15.87497	0	10.66	4004	101	-73	-28	0	1.03483	1.026683	3	10	1E-05	30
331387	1070	2983	916	-0.5808511	-11.46262	-14.46456	0	10.66	4004	-94	312	-49	7	1.002383	1.022545	4	10	1E-05	30
331457	1831	1142	-347	1.34383	-13.08982	-14.09019	0	10.66	4004	-42	-166	-57	8	0.946897	1.026251	4	10	1E-05	30
331566	513	2416	1744	2.745794	-13.54697	-14.96531	0	10.66	4002	-66	124	-16	9	0.9590586	1.035299	4	10	1E-05	30
331660	1686	1227	785	3.021777	-14.36579	-16.42727	0	10.66	4003	-175	143	6	7	1.040515	1.038465	4	10	1E-05	30
331800	-621	-476	778	5.098832	-12.83151	-15.78141	0	10.43	4003	-114	182	-8	8	1.011271	1.035657	4	10	1E-05	30
331865	-19	-948	-1502	3.897673	-10.61216	-15.04028	0	10.43	4004	-67	-69	-34	8	0.9801956	1.034296	4	10	1E-05	30
332022	-2266	-2682	409	4.429745	-8.114485	-14.92091	0	10.43	4004	-9	-14	-28	7	1.015744	1.041233	4	10	1E-05	30
332064	-2929	-4231	58	2.755656	-6.591718	-15.2202	0	10.43	4003	197	-148	-29	7	1.039769	1.051036	4	10	1E-05	30
332183	-1130	-524	332	2.289471	-6.910636	-16.33388	0	10.43	4003	-30	-91	-13	8	0.9713184	1.07819	4	10	1E-05	30
332277	428	-1087	-408	2.252837	-6.615462	-16.25529	0	10.43	4003	58	-77	-21	8	0.9410344	1.112852	4	10	1E-05	30
332386	-1048	-1505	263	0.09306195	-4.83839	-15.1209	0	10.43	4003	-53	59	-25	8	1.00134	1.161497	4	10	1E-05	30
332457	1226	3986	1254	-0.9764069	-7.441867	-15.11898	0	10.43	4002	95	-233	-48	7	1.021128	1.186186	4	10	1E-05	30
332604	-610	2733	1455	-0.7598655	-12.58527	-16.27913	0	10.43	4004	40	109	-19	7	1.066778	1.228514	4	10	1E-05	30
332663	-364	2848	-244	-1.350485	-13.61182	-16.46558	0	10.43	4002	3	62	-14	7	0.9545464	1.252476	4	10	1E-05	30
332767	-1458	983	-1086	-1.886992	-15.05255	-16.41667	0	10.09	4003	-157	243	18	10	0.7447892	1.296735	4	10	1E-05	30
332862	0	-244	-1154	-2.55918	-15.45691	-15.95694	0	10.09	4004	26	-199	-21	13	0.5836033	1.329593	4	10	1E-05	30
333050	2305	3635	1784	0.6562139	-13.663	-15.89081	0	10.09	4004	-4	-87	-23	16	0.4487356	1.399512	4	10	1E-05	30
333206	2119	979	-43	5.173445	-17.85979	-16.2648	0	10.09	4003	17	-14	-2	15	0.5265195	1.500714	4	10	1E-05	30
333337	2027	3504	921	8.434317	-18.42906	-16.34437	0	10.09	4004	129	-180	-16	14	0.6267218	1.609142	4	10	1E-05	30
333447	-202	-49	-1684	9.819584	-20.1541	-15.83065	0	10.09	4003	50	136	-7	15	0.5173926	1.694277	4	10	1E-05	30
333559	-644	256	706	9.480731	-18.72179	-14.89436	0	10.09	4004	-158	367	-37	14	0.6240432	1.862453	4	10	1E-05	30
333607	-1837	-3089	-1621	8.053984	-17.96486	-14.53274	0	10.09	4003	-78	-183	-56	12	0.7497321	1.913288	4	10	1E-05	30
333695	-4108	-3774	258	4.122622	-12.23079	-13.86857	0	9.47	4002	-196	202	-66	10	0.849194	1.969372	4	10	1E-05	30
333765	-1899	-1277	-1334	-0.0474669	-9.825409	-13.54965	0	9.47	4002	-95	-44	-76	11	0.7863778	2.141045	4	10	1E-05	30
333891	-1394	-345	1037	-1.280858	-9.52883	-13.935	0	9.47	4004	-164	160	-57	10	0.7947379	2.364112	4	10	1E-05	30
333997	111	-5220	-432	-5.024243	-3.687657	-14.2806	0	9.47	4004	-43	-168	-35	12	0.750098	2.429548	4	10	1E-05	30
334124	574	-848	708	-2.707907	-0.5608071	-16.19408	0	9.47	4004	-52	99	2	11	0.7608462	2.602427	4	10	1E-05	30
334260	-561	-826	-1424	-2.011384	-2.170626	-16.03597	0	9.47	4003	168	24	-13	9	0.9302201	2.823538	4	10	1E-05	30
334341	375	3492	1162	-1.112061	-6.669746	-15.9659	0	9.47	4003	84	56	-1	8	1.020659	3.028167	4	10	1E-05	30
334430	-494	2144	-1776	-1.911428	-9.710192	-16.49111	0	9.47	4004	-120	23	-30	8	0.9545013	3.06354	4	10	1E-05	30
334490	300	3373	177	-0.37856	-11.99051	-15.507	0	9.47	4002	152	-148	-31	11	0.7895037	3.229413	4	10	1E-05	30
334647	1005	2507	-405	0.1759133	-16.34274	-15.15928	0	10.38	4004	-122	121	-26	13	0.6455188	3.333319	4	10	1E-05	30
334711	-798	473	-523	0.9073449	-19.1541	-15.40908	0	10.38	4004	256	-400	-32	12	0.7181196	3.496828	4	10	1E-05	30
334777	-621	1763	153	1.107113	-20.52465	-15.47099	0	10.38	4002	-203	206	-12	13	0.641839	3.549498	4	10	1E-05	30
334881	-858	-3163	-543	-0.2030712	-20.25617	-15.63598	0	10.38	4003	60	-52	-41	12	0.7600428	3.772192	4	10	1E-05	30
334990	848	194	170	-0.3876681	-17.17773	-15.31834	0	10.38	4004	3	-6	-39	10	0.8873814	3.957287	4	10	1E-05	30
335247	502	1015	96	0.1515822	-13.74436	-15.45235	0	10.38	4003	-55	-110	-23	11	0.8163067	4.47792	4	10	1E-05	30
335373	650	2155	898	1.477917	-17.05758	-15.14466	0	10.38	4002	-97	26	-23	9	0.9104484	4.684368	4	10	1E-05	30
335408	650	2155	898	1.477917	-17.05758	-15.14466	0	10.38	4002	172	-379	-55	9	0.9510253	4.861374	4	10	1E-05	30
335529	-304	1979	418	4.648557	-21.3001	-13.35714	0	9.53	4002	-154	264	-66	7	1.036811	5.067036	4	10	1E-05	30
335584	-1919	153	113	3.856938	-21.4418	-13.33673	0	9.53	4002	93	60	-79	6	1.042928	5.226007	4	10	1E-05	30
335722	-1373	-3891	176	1.060771	-16.97309	-13.98913	0	9.53	4004	141	-149	-61	0	0.9714919	5.545047	3	10	1E-05	30
335817	1387	717	-430	2.699443	-17.45352	-13.90431	0	9.53	4003	8	0	-72	0	0.9455974	5.598927	3	10	1E-05	30
336034	-1152	-6755	1709	0.8155564	-6.018428	-15.08345	0	9.53	4002	25	34	-12	0	0.893872	5.971807	3	10	1E-05	30
336173	1332	-4116	446	0.526073	2.762311	-16.4402	0	9.53	4004	23	-171	6	0	0.8698473	6.455503	3	10	1E-05	30
336224	-1580	-4056	747	-0.3793963	5.581789	-16.64538	0	9.53	4003	-80	65	9	0	0.8663831	6.469453	3	10	1E-05	30
336348	84	-3961	-296	-1.664716	9.457844	-16.17297	0	9.53	4003	55	33	-26	0	0.8556609	6.556402	3	10	1E-05	30
336447	-1156	-3918	-1393	-2.277979	10.97284	-16.22199	0	10.66	4003	85	-242	-11	0	0.8501174	6.75185	3	10	1E-05	30
336582	620	2368	-615	-0.2387671	5.17387	-15.59177	0	10.66	4002	-7	-110	-26	0	0.844989	6.853033	3	10	1E-05	30
336658	648	1031	634	-0.9643933	1.127813	-15.89727	0	10.66	4004	55	-123	-15	0	0.8431301	6.888216	3	10	1E-05	30
336781	2198	608	676	1.007045	-1.079679	-16.74401	0	10.66	4002	-12	-92	24	0	0.8404046	6.99702	3	10	1E-05	30
336886	1095	61	-260	3.453294	-2.194733	-17.14923	0	10.66	4004	17	-70	9	0	0.8389955	7.077643	3	10	1E-05	30
336912	1095	61	-260	3.453294	-2.472191	-17.00001	0	10.66	4004	12	-69	7	0	0.8386165	7.091389	3	10	1E-05	30
337067	1246	301	-574	4.022318	-4.630595	-16.2925	0	10.66	4004	-11	-60	-5	0	0.8372194	7.175098	3	10	1E-05	30
337166	41	-444	880	3.256855	-3.909326	-16.60296	0	10.66	4005	-35	-95	6	0	0.8366735	7.204933	3	10	1E-05	30
337267	368	86	448	2.04156	-4.162903	-16.9691	0	10.66	4005	-44	-56	20	0	0.8362755	7.21725	3	10	1E-05	30
337345	277	-402	61	1.271382	-4.383782	-17.05788	0	10.66	4004	-22	-86	13	0	0.8360721	7.214039	3	10	1E-05	30
337457	534	-460	483	0.9471397	-2.742089	-17.23542	0	10.66	4003	-31	-25	18	0	0.8357739	7.187951	3	10	1E-05	30
337512	546	1009	-59	0.837614	-2.722492	-17.27944	0	10.66	4004	-36	-31	20	0	0.835717	7.176114	3	10	1E-05	30
337683	-1383	-1110	-755	-1.14192	-1.874942	-16.04191	0	10.66	4004	38	-42	-34	0	0.8354771	7.093235	3	10	1E-05	30
337755	-1902	390	552	-2.708174	-0.7286355	-15.46948	0	10.66	4002	16	-46	-26	0	0.8354253	7.045475	3	10	1E-05	30
337839	-1578	1035	1193	-5.59061	-1.796278	-16.26539	0	10.66	4003	-3	-11	18	0	0.8353834	6.99443	3	10	1E-05	30
337909	1108	251	1558	-6.048687	-2.357527	-17.83628	0	10.66	4003	-72	-32	50	0	0.8353351	6.916752	3	10	1E-05	30
338014	885	-2481	-704	-3.479039	-0.2990984	-18.54532	0	10.66	4002	12	-80	56	0	0.8352998	6.841712	3	10	1E-05	30
338148	1594	3236	-1786	-1.255035	-2.576208	-16.22917	0	10.66	4004	-35	28	-10	0	0.8352741	6.770518	3	10	1E-05	30
338245	-2136	-1618	122	-2.182274	-3.543833	-14.25581	0	10.6	4004	63	-63	-63	0	0.8352554	6.724087	3	10	1E-05	30
338326	384	-1866	48	-3.449298	-1.255085	-14.19503	0	10.6	4004	-9	-44	-51	0	0.8352458	6.689227	3	10	1E-05	30
338429	1085	792	1302	-0.3526739	-0.7792442	-16.44459	0	10.6	4003	3	-33	20	0	0.8352347	6.64011	3	10	1E-05	30
338518	-1482	1715	-402	-0.001971595	-4.983216	-17.9077	0	10.6	4003	53	53	38	0	0.8352267	6.577035	3	10	1E-05	30
338666	-78	4853	-1083	0.3922907	-12.04235	-17.07103	0	10.6	4004	15	114	7	0	0.8352178	6.339971	3	10	1E-05	30
338778	-2668	7341	-950	-2.360425	-23.37688	-13.38682	0	10.6	4002	205	30	-91	0	0.8352134	5.89509	3	10	1E-05	30
338820	-689	-1874	-263	-4.55191	-24.565	-13.50422	0	10.6	4002	-123	157	-54	0	0.8352126	5.742316	3	10	1E-05	30
338978	-2810	-409	1257	-7.918665	-18.0142	-16.12337	0	10.6	4003	-23	102	24	0	0.83521	5.129004	3	10	1E-05	30
339104	-440	4987	251	-5.037194	-25.4479	-18.76525	0	10.6	4002	-57	245	36	0	0.8352082	4.483421	3	10	1E-05	30
339139	-666	3279	-1719	-5.647519	-25.97216	-17.95545	0	10.6	4003	-154	260	12	0	0.8352076	4.302464	3	10	1E-05	30
339237	-3125	-1075	-1591	-9.927321	-23.21263	-14.46575	0	10.38	4004	122	-127	-102	0	0.8352069	3.841871	3	10	1E-05	30
339312	-4659	1379	-261	-13.43115	-21.31912	-12.28644	0	10.38	4002	-40	271	-100	0	0.8352065	3.629752	3	10	1E-05	30
339448	-445	-402	2830	-13.00243	-19.18868	-15.1503	0	10.38	4002	45	-315	-37	0	0.835206	3.181827	3	10	1E-05	30
339536	2959	-2251	981	-9.744855	-16.86357	-17.31075	0	10.38	4004	-152	136	60	0	0.8352057	2.994689	3	10	1E-05	30
339621	2092	-1523	247	-2.822913	-14.52585	-18.43758	0	10.38	4002	1	-59	43	0	0.8352056	2.836663	3	10	1E-05	30
339733	-66	-3178	-600	-1.740841	-7.995059	-17.41139	0	10.38	4002	89	-153	-4	0	0.8352054	2.628451	3	10	1E-05	30
339827	764	-1065	-322	0.4435507	-3.950121	-16.0029	0	10.38	4004	-98	143	0	0	0.8352053	2.559967	3	10	1E-05	30
339942	329	672	548	1.094284	-5.876627	-15.50522	0	10.38	4003	-23	-1	-13	0	0.8352052	2.384097	3	10	1E-05	30
340037	-3668	-6410	784	-5.387323	1.425285	-16.50154	0	10.38	4004	-12	90	6	0	0.8352052	2.290932	3	10	1E-05	30
340123	-1470	-3318	-604	-7.338187	5.587396	-16.99266	0	10.66	4002	119	-269	-2	0	0.8352052	2.25869	3	10	1E-05	30
340227	-1936	-739	-1525	-7.0548	3.858714	-16.73264	0	10.66	4003	113	-210	-22	0	0.8352052	2.164009	3	10	1E-05	30
340337	-285	-781	298	-7.696719	2.755992	-15.15219	0	10.66	4003	-129	11	-30	0	0.8352052	2.078128	3	10	1E-05	30
340523	636	-1225	389	-7.835134	4.680585	-16.66398	0	10.66	4004	-57	-22	6	0	0.8352052	1.934922	3	10	1E-05	30
340576	908	59	-65	-6.246688	4.121806	-17.48908	0	10.66	4003	193	-31	30	0	0.8352052	1.844541	3	10	1E-05	30
340683	2905	2200	-61	0.2971954	-0.5791414	-17.0279	0	10.66	4002	-79	298	8	0	0.8352052	1.781199	3	10	1E-05	30
340728	2339	3801	817	1.910937	-2.472399	-16.81894	0	10.66	4004	-119	285	10	0	0.8352052	1.7658	3	10	1E-05	30
340849	2273	-74	-24	-0.1275597	-2.15211	-16.15881	0	10.66	4004	-87	-12	2	0	0.8352052	1.667015	3	10	1E-05	30
340959	-1838	108	-482	0.4745803	-2.199403	-16.6788	0	10.66	4004	117	-127	-10	0	0.8352052	1.610569	3	10	1E-05	30
341037	1788	-1752	-778	-0.2479023	-2.236597	-15.94376	0	10.49	4002	-137	-67	-25	0	0.8352052	1.562327	3	10	1E-05	30
341148	2267	986	-75	4.312863	-2.439135	-15.99948	0	10.49	4003	-4	-86	0	0	0.8352052	1.490398	3	10	1E-05	30
341280	1714	4230	1106	7.29988	-10.91898	-17.60525	0	10.49	4002	29	-8	38	0	0.8352052	1.418234	3	10	1E-05	30
341388	3679	4107	-409	9.334044	-15.10102	-17.64288	0	10.49	4003	-21	-36	23	0	0.8352052	1.378241	3	10	1E-05	30
341452	2124	4385	-523	11.04677	-18.70436	-17.09123	0	10.49	4004	60	-17	8	0	0.8352052	1.331449	3	10	1E-05	30
341546	430	1737	-407	9.605166	-21.98997	-16.21241	0	10.49	4004	-127	90	-10	0	0.8352052	1.277047	3	10	1E-05	30
341679	2670	685	273	9.923759	-19.9399	-15.74856	0	10.49	4003	87	-200	-33	0	0.8352052	1.160525	3	10	1E-05	30
341744	2417	200	-254	12.10357	-17.71762	-15.54118	0	10.49	4003	-48	-121	-32	0	0.8352052	1.109094	3	10	1E-05	30
341844	-3068	-4623	432	10.76106	-15.02081	-15.96376	0	10.49	4003	-56	-37	-19	0	0.8352052	1.018174	3	10	1E-05	30
341969	-1366	-460	814	5.903599	-7.661273	-15.24671	0	10.26	4010	-60	158	-15	0	0.8352052	0.953578	3	10	1E-05	30
342084	-1816	2714	-455	-4.27378	-8.609567	-14.94367	0	10.26	4004	-96	-13	-51	0	0.8352052	0.9073551	3	10	1E-05	30
342169	-2941	-1126	-69	-6.270645	-8.564397	-14.2287	0	10.26	4002	-5	-71	-57	0	0.8352052	0.8652968	3	10	1E-05	30
342295	-850	-2737	1291	-13.49009	-1.18348	-15.4121	0	10.26	4003	-96	-58	-9	0	0.8352052	0.8381901	3	10	1E-05	30
342460	374	1399	106	-5.302896	-6.600835	-16.84079	0	10.26	4003	-35	-76	0	0	0.8352052	0.819556	3	10	1E-05	30
342558	-277	-3442	-118	-5.571788	-3.24988	-16.59311	0	10.26	4002	29	-78	0	0	0.8352052	0.8065989	3	10	1E-05	30
342663	-1131	-853	85	-6.650142	1.009939	-16.45631	0	10.26	4002	-7	-19	1	0	0.8352052	0.7958655	3	10	1E-05	30
342790	-1864	-1233	-941	-8.618876	0.4743581	-16.47574	0	10.26	4004	90	-142	1	0	0.8352052	0.7747927	3	10	1E-05	30
342866	-1769	1507	1020	-9.868261	-0.2353551	-16.57686	0	9.75	4004	75	-236	-2	0	0.8352052	0.7670092	3	10	1E-05	30
342970	892	522	368	-10.16303	-1.526552	-16.84473	0	9.75	4003	58	190	14	0	0.8352052	0.7543991	3	10	1E-05	30
343074	743	847	-706	-7.358873	-4.038171	-17.44777	0	9.75	4004	74	-72	24	0	0.8352052	0.7376587	3	10	1E-05	30
343172	23386	-1098	-1822	-3.303338	-3.527826	-17.42899	0	9.75	4003	0	0	0	0	0.8352052	0.7219371	3	10	1E-05	30
343346	341	144	944	0.2128504	-2.190395	-22.10051	0	9.75	4004	0	0	0	0	0.8352052	0.6766694	3	10	1E-05	30
343399	-182	7	218	0.2511604	-2.013525	-22.1252	0	9.75	4003	0	0	0	0	0.8352052	0.6683686	3	10	1E-05	30
343481	-43	-38	40	0.1682633	-1.678194	-22.14337	0	9.75	4003	0	0	0	0	0.8352052	0.6177365	1	10	1E-05	30
343577	-2	29	89	0.07160877	-1.511185	-22.16091	0	9.75	4003	0	0	0	0	0.8352052	0.5895783	1	10	1E-05	30
343682	-25	5	-28	0.01572591	-1.295871	-22.17765	0	9.75	4002	0	0	0	0	0.8352052	0.5497496	1	10	1E-05	30
343857	-19	-17	9	-0.09364689	-1.016115	-22.1895	0	10.94	4003	0	0	0	0	0.8352052	0.5192466	1	10	1E-05	30
343902	-1	4	-10	-0.1265528	-0.8727987	-22.19781	0	10.94	4003	0	0	0	0	0.8352052	0.5159649	1	10	1E-05	30
343980	-60	-32	35	-0.1693605	-0.8043149	-22.20308	0	10.94	4003	0	0	0	0	0.8352052	0.503055	1	10	1E-05	30
344122	-4	23	-53	-0.229566	-0.6347665	-22.21909	0	10.94	4002	0	0	0	0	0.8352052	0.4825268	1	10	1E-05	30
344281	-30	-6	-6	-0.3051576	-0.4780403	-22.23883	0	10.94	4003	0	0	0	0	0.8352052	0.4769351	1	10	1E-05	30
344315	-54	14	5	-0.3109314	-0.452396	-22.24244	0	10.94	4004	0	0	0	0	0.8352052	0.4755032	1	10	1E-05	30
344437	-22	-4	-10	-0.3491333	-0.3387301	-22.25572	0	10.94	4002	0	0	0	0	0.8352052	0.4635762	1	10	1E-05	30
344508	-23	2	28	-0.3685078	-0.2974707	-22.2641	0	10.94	4004	0	0	0	0	0.8352052	0.4578687	1	10	1E-05	30
344596	-46	9	-15	-0.3945267	-0.2219569	-22.27382	0	10.94	4002	0	0	0	0	0.8352052	0.4539567	1	10	1E-05	30
344713	-20	-16	18	-0.4147372	-0.1729877	-22.28335	0	11	4002	0	0	0	0	0.8352052	0.4477789	1	10	1E-05	30
344800	-41	-4	15	-0.4256796	-0.1429551	-22.28537	0	11	4002	0	0	0	0	0.8352052	0.4389911	1	10	1E-05	30
344929	-47	3	-2	-0.4458755	-0.0797101	-22.2987	0	11	4003	0	0	0	0	0.8352052	0.4385614	1	10	1E-05	30
