time(ms)	gyro_x(deg/s)	gyro_y(deg/s)	gyro_z(deg/s)	orientation_roll(deg)	orientation_pitch(deg)	orientation_yaw(deg)	throttle	battery(V)	loop_time(uS)	pid_output_roll	pid_output_pitch	pid_output_yaw	pid_output_throttle	ultrasonic_alt	baro_alt	flight_mode	p_gain_altitude	i_gain_altitude	d_gain_altitude
156994	-71	6	-20	-0.9763412	-0.4473933	-5.07122	0	11.63	4004	0	0	0	0	1.253664	0.2220413	1	20	1E-05	200
157069	-68	10	37	-0.9664807	-0.3498788	-5.087668	0	11.63	4004	0	0	0	0	1.253664	0.2310194	1	20	1E-05	200
157175	-82	1	-8	-0.9539923	-0.2719817	-5.105824	0	11.63	4004	0	0	0	0	1.253664	0.2499502	1	20	1E-05	200
157353	-76	6	-2	-0.9394635	-0.1456044	-5.129486	0	11.63	4002	0	0	0	0	1.253664	0.261297	1	20	1E-05	200
157428	-72	-2	5	-0.9321637	-0.1088423	-5.140858	0	11.63	4002	0	0	0	0	1.253664	0.2617652	1	20	1E-05	200
157574	-71	1	0	-0.9202335	-0.05002879	-5.160972	0	11.63	4003	0	0	0	0	1.253664	0.2623353	1	20	1E-05	200
157636	-70	5	13	-0.9067649	-0.01183485	-5.174299	0	11.63	4004	0	0	0	0	1.253664	0.261854	1	20	1E-05	200
157789	-73	-6	11	-0.9043503	0.03470743	-5.196859	0	11.63	4002	0	0	0	0	1.253664	0.2478339	1	20	1E-05	200
157843	-73	-4	12	-0.910201	0.05075433	-5.210063	0	11.63	4002	0	0	0	0	1.253664	0.2465559	1	20	1E-05	200
158058	-72	3	14	-0.8966478	0.1053271	-5.240691	0	11.63	4003	0	0	0	0	1.253664	0.2586842	1	20	1E-05	200
158174	-71	4	7	-0.8903251	0.1357128	-5.262396	0	11.63	4003	0	0	0	0	1.253664	0.2602266	1	20	1E-05	200
158195	-76	9	10	-0.8900139	0.1400724	-5.267287	0	11.63	4002	0	0	0	0	1.253664	0.2610258	1	20	1E-05	200
158290	-81	1	5	-0.886149	0.1660683	-5.280922	0	11.63	4004	0	0	0	0	1.253664	0.259865	1	20	1E-05	200
158539	-77	1	10	-0.8798705	0.1842723	-5.310698	0	11.63	4002	0	0	0	0	1.253664	0.24847	1	20	1E-05	200
158656	-67	0	8	-0.8720774	0.1999744	-5.328367	0	11.63	4004	0	0	0	0	1.253664	0.249794	1	20	1E-05	200
158722	-72	0	6	-0.8689218	0.2038569	-5.337416	0	11.63	4003	0	0	0	0	1.253664	0.2507096	1	20	1E-05	200
158885	-71	0	9	-0.8612657	0.2211598	-5.361321	0	11.63	4004	0	0	0	0	1.253664	0.2526632	1	20	1E-05	200
158942	-71	2	6	-0.8618866	0.2244184	-5.365907	0	11.63	4004	0	0	0	0	1.253664	0.2603456	1	20	1E-05	200
159085	-74	6	6	-0.8556832	0.2322213	-5.390055	0	11.63	4004	0	0	0	0	1.253664	0.2696325	1	20	1E-05	200
159133	-74	-4	7	-0.8522515	0.2338411	-5.394272	0	11.63	4004	0	0	0	0	1.253664	0.2682305	1	20	1E-05	200
159207	-72	6	3	-0.8491124	0.2361452	-5.40271	0	11.63	4002	0	0	0	0	1.253664	0.2693718	1	20	1E-05	200
159321	-71	9	12	-0.8372215	0.2423195	-5.421601	0	11.63	4002	0	0	0	0	1.253664	0.2762041	1	20	1E-05	200
159455	-69	0	7	-0.8354317	0.2512884	-5.437006	0	11.63	4002	0	0	0	0	1.253664	0.2807452	1	20	1E-05	200
159517	-69	4	10	-0.8349815	0.2532578	-5.446116	0	11.63	4003	0	0	0	0	1.253664	0.2808119	1	20	1E-05	200
159626	-72	0	7	-0.8330195	0.2553073	-5.457122	0	11.63	4003	0	0	0	0	1.253664	0.2792854	1	20	1E-05	200
159725	-72	7	10	-0.8286819	0.2569382	-5.476319	0	11.68	4004	0	0	0	0	1.253664	0.2759307	1	20	1E-05	200
159874	-72	7	10	-0.8286819	0.2569382	-5.476319	0	11.68	4004	0	0	0	0	1.253664	0.2759307	1	20	1E-05	200
159985	-72	7	10	-0.8286819	0.2569382	-5.476319	0	11.68	4004	0	0	0	0	1.253664	0.2759307	1	20	1E-05	200
160102	-72	7	10	-0.8286819	0.2569382	-5.476319	0	11.68	4004	0	0	0	0	1.253664	0.2759307	1	20	1E-05	200
160198	-72	7	10	-0.8286819	0.2569382	-5.476319	0	11.68	4004	0	0	0	0	1.253664	0.2759307	1	20	1E-05	200
160272	-72	7	10	-0.8286819	0.2569382	-5.476319	0	11.68	4004	0	0	0	0	1.253664	0.2759307	1	20	1E-05	200
160374	-72	7	10	-0.8286819	0.2569382	-5.476319	0	11.68	4004	0	0	0	0	1.253664	0.2759307	1	20	1E-05	200
160403	-72	7	10	-0.8286819	0.2569382	-5.476319	0	11.68	4004	0	0	0	0	1.253664	0.2759307	1	20	1E-05	200
160510	-72	7	10	-0.8286819	0.2569382	-5.476319	0	11.68	4004	0	0	0	0	1.253664	0.2759307	1	20	1E-05	200
160660	-72	7	10	-0.8286819	0.2569382	-5.476319	0	11.68	4004	0	0	0	0	1.253664	0.2759307	1	20	1E-05	200
160768	-72	7	10	-0.8286819	0.2569382	-5.476319	0	11.68	4004	0	0	0	0	1.253664	0.2759307	1	20	1E-05	200
160878	-72	7	10	-0.8286819	0.2569382	-5.476319	0	11.68	4004	0	0	0	0	1.253664	0.2759307	1	20	1E-05	200
160906	-72	7	10	-0.8286819	0.2569382	-5.476319	0	11.68	4004	0	0	0	0	1.253664	0.2759307	1	20	1E-05	200
161002	-72	7	10	-0.8286819	0.2569382	-5.476319	0	11.68	4004	0	0	0	0	1.253664	0.2759307	1	20	1E-05	200
161154	-72	7	10	-0.8286819	0.2569382	-5.476319	0	11.68	4004	0	0	0	0	1.253664	0.2759307	1	20	1E-05	200
161264	-72	7	10	-0.8286819	0.2569382	-5.476319	0	11.68	4004	0	0	0	0	1.253664	0.2759307	1	20	1E-05	200
161309	-72	7	10	-0.8286819	0.2569382	-5.476319	0	11.68	4004	0	0	0	0	1.253664	0.2759307	1	20	1E-05	200
161425	-72	7	10	-0.8286819	0.2569382	-5.476319	0	11.68	4004	0	0	0	0	1.253664	0.2759307	1	20	1E-05	200
161564	-72	7	10	-0.8286819	0.2569382	-5.476319	0	11.74	4004	0	0	0	0	1.253664	0.2759307	1	20	1E-05	200
161692	-72	7	10	-0.8286819	0.2569382	-5.476319	0	11.74	4004	0	0	0	0	1.253664	0.2759307	1	20	1E-05	200
161734	-72	7	10	-0.8286819	0.2569382	-5.476319	0	11.74	4004	0	0	0	0	1.253664	0.2759307	1	20	1E-05	200
161797	-72	7	10	-0.8286819	0.2569382	-5.476319	0	11.74	4004	0	0	0	0	1.253664	0.2759307	1	20	1E-05	200
161984	-72	7	10	-0.8286819	0.2569382	-5.476319	0	11.74	4004	0	0	0	0	1.253664	0.2759307	1	20	1E-05	200
162010	-72	7	10	-0.8286819	0.2569382	-5.476319	0	11.74	4004	0	0	0	0	1.253664	0.2759307	1	20	1E-05	200
162105	-72	7	10	-0.8286819	0.2569382	-5.476319	0	11.74	4004	0	0	0	0	1.253664	0.2759307	1	20	1E-05	200
162205	-72	7	10	-0.8286819	0.2569382	-5.476319	0	11.74	4004	0	0	0	0	1.253664	0.2759307	1	20	1E-05	200
162366	-72	7	10	-0.8286819	0.2569382	-5.476319	0	11.74	4004	0	0	0	0	1.253664	0.2759307	1	20	1E-05	200
162435	-72	7	10	-0.8286819	0.2569382	-5.476319	0	11.74	4004	0	0	0	0	1.253664	0.2759307	1	20	1E-05	200
162552	-72	7	10	-0.8286819	0.2569382	-5.476319	0	11.68	4004	0	0	0	0	1.253664	0.2759307	1	20	1E-05	200
162621	-72	7	10	-0.8286819	0.2569382	-5.476319	0	11.68	4004	0	0	0	0	1.253664	0.2759307	1	20	1E-05	200
162753	-72	7	10	-0.8286819	0.2569382	-5.476319	0	11.68	4004	0	0	0	0	1.253664	0.2759307	1	20	1E-05	200
162842	-72	7	10	-0.8286819	0.2569382	-5.476319	0	11.68	4004	0	0	0	0	1.253664	0.2759307	1	20	1E-05	200
162917	-72	7	10	-0.8286819	0.2569382	-5.476319	0	11.68	4004	0	0	0	0	1.253664	0.2759307	1	20	1E-05	200
163031	-72	7	10	-0.8286819	0.2569382	-5.476319	0	11.68	4004	0	0	0	0	1.253664	0.2759307	1	20	1E-05	200
163104	-72	7	10	-0.8286819	0.2569382	-5.476319	0	11.68	4004	0	0	0	0	1.253664	0.2759307	1	20	1E-05	200
163213	-72	7	10	-0.8286819	0.2569382	-5.476319	0	11.68	4004	0	0	0	0	1.253664	0.2759307	1	20	1E-05	200
163299	-72	7	10	-0.8286819	0.2569382	-5.476319	0	11.68	4004	0	0	0	0	1.253664	0.2759307	1	20	1E-05	200
163424	-72	7	10	-0.8286819	0.2569382	-5.476319	0	11.68	4004	0	0	0	0	1.253664	0.2759307	1	20	1E-05	200
163557	-72	7	10	-0.8286819	0.2569382	-5.476319	0	11.68	4004	0	0	0	0	1.253664	0.2759307	1	20	1E-05	200
163636	-72	7	10	-0.8286819	0.2569382	-5.476319	0	11.68	4004	0	0	0	0	1.253664	0.2759307	1	20	1E-05	200
163716	-72	7	10	-0.8286819	0.2569382	-5.476319	0	11.68	4004	0	0	0	0	1.253664	0.2759307	1	20	1E-05	200
163810	-72	7	10	-0.8286819	0.2569382	-5.476319	0	11.68	4004	0	0	0	0	1.253664	0.2759307	1	20	1E-05	200
163920	-72	7	10	-0.8286819	0.2569382	-5.476319	0	11.68	4004	0	0	0	0	1.253664	0.2759307	1	20	1E-05	200
164083	-72	7	10	-0.8286819	0.2569382	-5.476319	0	11.68	4004	0	0	0	0	1.253664	0.2759307	1	20	1E-05	200
164160	-72	7	10	-0.8286819	0.2569382	-5.476319	0	11.68	4004	0	0	0	0	1.253664	0.2759307	1	20	1E-05	200
164301	-72	7	10	-0.8286819	0.2569382	-5.476319	0	11.8	4004	0	0	0	0	1.253664	0.2759307	1	20	1E-05	200
164416	-72	7	10	-0.8286819	0.2569382	-5.476319	0	11.8	4004	0	0	0	0	1.253664	0.2759307	1	20	1E-05	200
164508	-72	7	10	-0.8286819	0.2569382	-5.476319	0	11.8	4004	0	0	0	0	1.253664	0.2759307	1	20	1E-05	200
164587	-72	7	10	-0.8286819	0.2569382	-5.476319	0	11.8	4004	0	0	0	0	1.253664	0.2759307	1	20	1E-05	200
164717	-72	7	10	-0.8286819	0.2569382	-5.476319	0	11.8	4004	0	0	0	0	1.253664	0.2759307	1	20	1E-05	200
164831	-72	7	10	-0.8286819	0.2569382	-5.476319	0	11.8	4004	0	0	0	0	1.253664	0.2759307	1	20	1E-05	200
164950	-72	7	10	-0.8286819	0.2569382	-5.476319	0	11.8	4004	0	0	0	0	1.253664	0.2759307	1	20	1E-05	200
165010	-72	7	10	-0.8286819	0.2569382	-5.476319	0	11.8	4004	0	0	0	0	1.253664	0.2759307	1	20	1E-05	200
165169	-72	7	10	-0.8286819	0.2569382	-5.476319	0	11.8	4004	0	0	0	0	1.253664	0.2759307	1	20	1E-05	200
165251	-72	7	10	-0.8286819	0.2569382	-5.476319	0	11.8	4004	0	0	0	0	1.253664	0.2759307	1	20	1E-05	200
165291	-72	7	10	-0.8286819	0.2569382	-5.476319	0	11.8	4004	0	0	0	0	1.253664	0.2759307	1	20	1E-05	200
165448	-72	7	10	-0.8286819	0.2569382	-5.476319	0	11.8	4004	0	0	0	0	1.253664	0.2759307	1	20	1E-05	200
165502	-72	7	10	-0.8286819	0.2569382	-5.476319	0	11.8	4004	0	0	0	0	1.253664	0.2759307	1	20	1E-05	200
165629	-72	7	10	-0.8286819	0.2569382	-5.476319	0	11.8	4004	0	0	0	0	1.253664	0.2759307	1	20	1E-05	200
165707	-72	7	10	-0.8286819	0.2569382	-5.476319	0	11.8	4004	0	0	0	0	1.253664	0.2759307	1	20	1E-05	200
165818	-72	7	10	-0.8286819	0.2569382	-5.476319	0	11.8	4004	0	0	0	0	1.253664	0.2759307	1	20	1E-05	200
165918	-72	7	10	-0.8286819	0.2569382	-5.476319	0	11.8	4004	0	0	0	0	1.253664	0.2759307	1	20	1E-05	200
166018	-72	7	10	-0.8286819	0.2569382	-5.476319	0	11.8	4004	0	0	0	0	1.253664	0.2759307	1	20	1E-05	200
166124	-72	7	10	-0.8286819	0.2569382	-5.476319	0	11.68	4004	0	0	0	0	1.253664	0.2759307	1	20	1E-05	200
166196	-72	7	10	-0.8286819	0.2569382	-5.476319	0	11.68	4004	0	0	0	0	1.253664	0.2759307	1	20	1E-05	200
166321	-72	7	10	-0.8286819	0.2569382	-5.476319	0	11.68	4004	0	0	0	0	1.253664	0.2759307	1	20	1E-05	200
166441	-72	7	10	-0.8286819	0.2569382	-5.476319	0	11.68	4004	0	0	0	0	1.253664	0.2759307	1	20	1E-05	200
166510	-72	7	10	-0.8286819	0.2569382	-5.476319	0	11.68	4004	0	0	0	0	1.253664	0.2759307	1	20	1E-05	200
166628	-72	7	10	-0.8286819	0.2569382	-5.476319	0	11.68	4004	0	0	0	0	1.253664	0.2759307	1	20	1E-05	200
166706	-72	7	10	-0.8286819	0.2569382	-5.476319	0	11.68	4004	0	0	0	0	1.253664	0.2759307	1	20	1E-05	200
166862	-72	7	10	-0.8286819	0.2569382	-5.476319	0	11.68	4004	0	0	0	0	1.253664	0.2759307	1	20	1E-05	200
166928	-72	7	10	-0.8286819	0.2569382	-5.476319	0	11.68	4004	0	0	0	0	1.253664	0.2759307	1	20	1E-05	200
166993	-72	7	10	-0.8286819	0.2569382	-5.476319	0	11.74	4004	0	0	0	0	1.253664	0.2759307	1	20	1E-05	200
167111	-72	7	10	-0.8286819	0.2569382	-5.476319	0	11.74	4004	0	0	0	0	1.253664	0.2759307	1	20	1E-05	200
167251	-72	7	10	-0.8286819	0.2569382	-5.476319	0	11.74	4004	0	0	0	0	1.253664	0.2759307	1	20	1E-05	200
167338	-72	7	10	-0.8286819	0.2569382	-5.476319	0	11.74	4004	0	0	0	0	1.253664	0.2759307	1	20	1E-05	200
167398	-72	7	10	-0.8286819	0.2569382	-5.476319	0	11.74	4004	0	0	0	0	1.253664	0.2759307	1	20	1E-05	200
167526	-72	7	10	-0.8286819	0.2569382	-5.476319	0	11.74	4004	0	0	0	0	1.253664	0.2759307	1	20	1E-05	200
167628	-72	7	10	-0.8286819	0.2569382	-5.476319	0	11.74	4004	0	0	0	0	1.253664	0.2759307	1	20	1E-05	200
167815	-72	7	10	-0.8286819	0.2569382	-5.476319	0	11.74	4004	0	0	0	0	1.253664	0.2759307	1	20	1E-05	200
168017	12	2	1	0.4076174	-0.4058577	-0.1375652	0	11.74	4004	0	0	0	0	1.253664	0.2466522	1	20	1E-05	200
168130	9	-3	2	0.3434752	-0.3161966	-0.1345086	0	11.74	4004	0	0	0	0	1.253664	0.06618983	1	20	1E-05	200
168223	13	0	0	0.3138432	-0.2767742	-0.1317576	0	11.74	4004	0	0	0	0	1.253664	0.04638672	1	20	1E-05	200
168353	6	3	3	0.2820501	-0.2413745	-0.1301682	0	11.74	4004	0	0	0	0	1.253664	0.03537049	1	20	1E-05	200
168505	10	5	-4	0.237331	-0.1803008	-0.1277838	0	11.74	4004	0	0	0	0	1.253664	0.02941194	1	20	1E-05	200
168569	4	-3	-1	0.2294693	-0.1606125	-0.124055	0	11.74	4002	0	0	0	0	1.253664	0.02706676	1	20	1E-05	200
168627	1	4	0	0.2123744	-0.1460902	-0.1225264	0	11.74	4003	0	0	0	0	1.253664	0.01958639	1	20	1E-05	200
168759	7	1	1	0.1949009	-0.1285851	-0.1214871	0	11.74	4004	0	0	0	0	1.253664	0.007717248	1	20	1E-05	200
168833	5	-4	-1	0.1809078	-0.1086925	-0.1178802	0	11.74	4002	0	0	0	0	1.253664	0.002716841	1	20	1E-05	200
168953	6	0	2	0.1645132	-0.0888665	-0.115129	0	11.68	4002	0	0	0	0	1.253664	0.002582812	1	20	1E-05	200
169111	3	-2	-6	0.148167	-0.06504703	-0.1096267	0	11.68	4003	0	0	0	0	1.253664	0.0160689	1	20	1E-05	200
169184	3	0	0	0.1363575	-0.05106575	-0.1078538	0	11.68	4003	0	0	0	0	1.253664	0.0145526	1	20	1E-05	200
169235	9	4	-3	0.1288787	-0.04626595	-0.1053469	0	11.68	4004	0	0	0	0	1.253664	0.009393342	1	20	1E-05	200
169316	7	0	-3	0.1217639	-0.04018633	-0.1034517	0	11.68	4003	0	0	0	0	1.253664	0.003521916	1	20	1E-05	200
169410	15	2	-1	0.1177163	-0.03971769	-0.1027183	0	11.68	4002	0	0	0	0	1.253664	0.003521916	1	20	1E-05	200
169515	13	0	-3	0.113289	-0.03740273	-0.1000371	0	11.68	4004	0	0	0	0	1.253664	-0.008883364	1	20	1E-05	200
169611	11	-5	-1	0.1154809	-0.03557189	-0.09924219	0	11.68	4002	0	0	0	0	1.253664	-0.01439555	1	20	1E-05	900
169694	8	1	-2	0.1067179	-0.03397296	-0.09769075	0	11.68	4002	0	0	0	0	1.253664	-0.02166396	1	20	1E-05	900
169789	4	-2	2	0.09993809	-0.03201879	-0.09683499	0	11.74	4002	0	0	0	0	1.253664	-0.03379086	1	20	1E-05	900
170015	14	-3	-3	0.1026811	-0.01695661	-0.08900905	0	11.74	4004	0	0	0	0	1.253664	-0.04573208	1	20	1E-05	900
170139	6	-5	-3	0.1005923	-0.01586449	-0.08466689	0	11.74	4004	0	0	0	0	1.253664	-0.04163032	1	20	1E-05	900
170269	4	1	-5	0.1047503	-0.02061265	-0.07947067	0	11.74	4003	0	0	0	0	1.253664	-0.03752268	1	20	1E-05	900
170375	7	3	-1	0.1069379	-0.008263598	-0.07568019	0	11.74	4004	0	0	0	0	1.253664	-0.02973549	1	20	1E-05	900
170456	9	-1	0	0.1061005	-0.01086241	-0.07335684	0	11.74	4002	0	0	0	0	1.253664	-0.02740559	1	20	1E-05	900
170519	11	1	-4	0.1048264	-0.008031103	-0.0708501	0	11.74	4002	0	0	0	0	1.253664	-0.02129004	1	20	1E-05	900
170638	13	-1	-4	0.1059099	-0.003744252	-0.06730426	0	11.74	4003	0	0	0	0	1.253664	-0.0068004	1	20	1E-05	900
170744	11	0	-5	0.1085377	0.004037864	-0.06112961	0	11.74	4003	0	0	0	0	1.253664	0.008949136	1	20	1E-05	900
170832	3	-8	-4	0.1101855	0.004173293	-0.05733908	0	11.74	4002	0	0	0	0	1.253664	0.02369348	1	20	1E-05	900
170916	13	-2	-2	0.1160575	0.005712203	-0.05464934	0	11.74	4003	0	0	0	0	1.253664	0.04194894	1	20	1E-05	900
170965	17	-3	-4	0.119007	0.008365744	-0.05397681	0	11.74	4003	0	0	0	0	1.253664	0.05354692	1	20	1E-05	900
171117	10	1	-2	0.1201381	0.003292387	-0.05018592	0	11.74	4002	0	0	0	0	1.253664	0.06391947	1	20	1E-05	900
171224	12	4	-4	0.1227321	0.002076527	-0.04566199	0	11.74	4003	0	0	0	0	1.253664	0.06220196	1	20	1E-05	900
171309	8	-3	-2	0.12645	-0.0009850503	-0.03973187	0	11.74	4003	0	0	0	0	1.253664	0.0601607	1	20	1E-05	900
171369	14	4	1	0.1305135	-0.003180327	-0.03789786	0	11.74	4003	0	0	0	0	1.253664	0.05658517	1	20	1E-05	900
171480	8	-3	-2	0.132675	-0.006712639	-0.03325063	0	11.74	4003	0	0	0	0	1.253664	0.04588194	1	20	1E-05	900
171549	12	4	0	0.136261	-0.007944391	-0.03074408	0	11.74	4004	0	0	0	0	1.253664	0.04202295	1	20	1E-05	900
171654	17	-1	-6	0.1325213	-0.01282636	-0.02732	0	11.74	4003	0	0	0	0	1.253664	0.04765337	1	20	1E-05	900
171701	12	-6	-3	0.1320413	-0.01238393	-0.02573052	0	11.74	4003	0	0	0	0	1.253664	0.04786484	1	20	1E-05	900
171800	9	3	-2	0.1350802	-0.02084934	-0.02230684	0	11.74	4002	0	0	0	0	1.253664	0.04686536	1	20	1E-05	900
171905	10	0	-2	0.1384543	-0.01889503	-0.02102278	0	11.74	4004	0	0	0	0	1.253664	0.04255754	1	20	1E-05	900
172009	15	-2	2	0.1413542	-0.01451433	-0.01790502	0	11.74	4003	0	0	0	0	1.253664	0.041873	1	20	1E-05	900
172133	14	0	-2	0.1444536	-0.01628711	-0.01576547	0	11.74	4004	0	0	0	0	1.253664	0.03233353	1	20	1E-05	900
172216	15	-5	-3	0.1424157	-0.02142989	-0.01344241	0	11.74	4003	0	0	0	0	1.253664	0.02326567	1	20	1E-05	900
172307	15	4	-3	0.1405886	-0.02010764	-0.01014076	0	11.74	4004	0	0	0	0	1.253664	0.01913339	1	20	1E-05	900
172416	12	-3	-3	0.1424499	-0.02190517	-0.005371983	0	11.74	4003	0	0	0	0	1.253664	0.02082149	1	20	1E-05	900
172540	12	2	1	0.1396916	-0.02400512	0.001047224	0	11.74	4002	0	0	0	0	1.253664	0.02149445	1	20	1E-05	900
172637	9	-1	0	0.1480834	-0.03193887	0.002269926	0	11.74	4003	0	0	0	0	1.253664	0.02507017	1	20	1E-05	900
172809	17	-3	0	0.1501458	-0.02907522	0.00771124	0	11.74	4004	0	0	0	0	1.253664	0.02832645	1	20	1E-05	900
172857	17	-1	-2	0.1579698	-0.02788916	0.009300811	0	11.74	4003	0	0	0	0	1.253664	0.02715854	1	20	1E-05	900
172950	12	4	0	0.1552415	-0.03067856	0.01449718	0	11.74	4003	0	0	0	0	1.253664	0.01823495	1	20	1E-05	900
173017	18	0	-2	0.1575244	-0.02777119	0.0152919	0	11.74	4002	0	0	0	0	1.253664	0.01614321	1	20	1E-05	900
173151	12	2	0	0.1712157	-0.02526941	0.02097738	0	11.74	4003	0	0	0	0	1.253664	0.01812584	1	20	1E-05	900
173219	12	-1	-2	0.169271	-0.02537697	0.02342283	0	11.74	4004	0	0	0	0	1.253664	0.01434129	1	20	1E-05	900
173346	19	4	-3	0.1803804	-0.02591599	0.0273968	0	11.74	4002	0	0	0	0	1.253664	-0.001216643	1	20	1E-05	900
173421	14	-1	-3	0.1835436	-0.02149393	0.03057583	0	11.74	4003	0	0	0	0	1.253664	-0.007841971	1	20	1E-05	900
173555	15	2	-2	0.1835179	-0.02425691	0.03442726	0	11.74	4003	0	0	0	0	1.253664	-0.01765823	1	20	1E-05	900
173656	18	-4	-8	0.1813057	-0.02273062	0.0386455	0	11.74	4003	0	0	0	0	1.253664	-0.02298641	1	20	1E-05	900
173728	12	-3	0	0.189459	-0.01590933	0.04567757	0	11.74	4003	0	0	0	0	1.253664	-0.0275349	1	20	1E-05	900
173840	25	1	1	0.1905591	-0.01075596	0.05007959	0	11.74	4004	0	0	0	0	1.253664	-0.03310991	1	20	1E-05	900
173973	12	-4	-2	0.1973981	-0.009458829	0.05686576	0	11.74	4002	0	0	0	0	1.253664	-0.02949705	1	20	1E-05	900
174076	22	-7	-3	0.1914081	-0.008581722	0.06138964	0	11.74	4003	0	0	0	0	1.253664	-0.02947749	1	20	1E-05	900
174140	27	-3	-3	0.1946597	-0.0138976	0.0640794	0	11.74	4003	0	0	0	0	1.253664	-0.03143317	1	20	1E-05	900
174309	13	1	-4	0.1898906	-0.01361026	0.07147615	0	11.8	4003	0	0	0	0	1.253664	-0.02762699	1	20	1E-05	900
174454	12	3	-4	0.1968278	-0.01204531	0.07960765	0	11.8	4004	0	0	0	0	1.253664	-0.02337407	1	20	1E-05	900
174521	13	-1	-4	0.1978059	-0.01087212	0.08370426	0	11.8	4006	0	0	0	0	1.253664	-0.02144489	1	20	1E-05	900
174598	17	-2	-4	0.2014298	-0.01134041	0.08596629	0	11.8	4003	0	0	0	0	1.253664	-0.02339371	1	20	1E-05	900
174719	19	-3	-1	0.210252	-0.00803147	0.09379193	0	11.8	4002	0	0	0	0	1.253664	-0.02217081	3	20	1E-05	900
174811	19	0	-1	0.2128431	-0.0106232	0.09550402	0	11.8	4002	0	0	0	0	1.253664	-0.01613104	3	20	1E-05	900
174907	25	-2	-3	0.2139338	-0.01264549	0.09923349	0	11.8	4003	0	0	0	0	1.253664	-0.01559403	3	20	1E-05	900
175139	21	3	-3	0.2158343	-0.01095523	0.1087103	0	11.8	4004	0	0	0	0	1.253664	-0.03262579	3	20	1E-05	900
175239	19	-2	-5	0.2102108	-0.01130525	0.1129284	0	11.8	4002	0	0	0	0	1.253664	-0.04142514	3	20	1E-05	900
175317	18	2	-2	0.2159025	-0.01229579	0.1153127	0	11.8	4004	0	0	0	0	1.253664	-0.0459637	3	20	1E-05	900
175438	24	-1	-1	0.2111497	-0.01441166	0.1196531	0	11.8	4004	0	0	0	0	1.253664	-0.05584247	3	20	1E-05	900
175501	17	0	-1	0.2179286	-0.01415414	0.1205702	0	11.8	4003	0	0	0	0	1.253664	-0.05696239	3	20	1E-05	900
175631	17	2	0	0.218533	-0.008773544	0.1261339	0	11.8	4002	0	0	0	0	1.253664	-0.06484845	3	20	1E-05	900
175709	20	-6	-1	0.2165249	-0.02277685	0.1299243	0	11.8	4004	0	0	0	0	1.253664	-0.07119735	3	20	1E-05	900
175885	10	-8	-2	0.209855	-0.02112324	0.1390344	0	11.8	4004	0	0	0	0	1.253664	-0.07485972	3	20	1E-05	900
175938	19	-4	0	0.2103074	-0.01867995	0.140013	0	11.8	4003	0	0	0	0	1.253664	-0.07363559	3	20	1E-05	900
176082	19	-37	-6	0.2121248	-0.02510298	0.1372643	0	11.8	4003	1	4	0	0	1.253664	-0.06710319	3	20	1E-05	900
176155	-6	19	-88	0.2073004	-0.008436265	0.1437385	0	11.74	4002	-4	-2	0	0	1.253664	-0.06685103	3	20	1E-05	900
176221	44	-7	10	0.21962	0.007515156	0.1467284	0	11.74	4003	-5	1	0	0	1.253664	-0.06750143	3	20	1E-05	900
176338	51	-26	-163	0.2271626	-0.003524577	0.1530212	0	11.74	4003	-3	-4	0	0	1.253664	-0.06096288	3	20	1E-05	900
176433	146	105	-93	0.2218224	0.006420544	0.1453378	0	11.74	4002	1	20	1	0	1.253664	-0.05044666	3	20	1E-05	900
176532	134	-32	113	0.1995341	-0.0282225	0.149435	0	11.74	4003	6	-2	0	0	1.253664	-0.04438195	3	20	1E-05	900
176631	194	19	88	0.2554989	-0.03107401	0.1565442	0	11.74	4004	-23	-12	0	0	1.253664	-0.0368033	3	20	1E-05	900
176765	-125	-98	-93	0.2367171	-0.05639347	0.1596605	0	11.74	4003	22	4	0	0	1.253664	-0.01573776	3	20	1E-05	900
176870	84	-64	26	0.2548659	-0.05846051	0.1592355	0	11.74	4003	-9	13	-1	0	1.253664	-0.005502063	3	20	1E-05	900
176943	-33	-91	58	0.2495079	-0.02207809	0.1575277	0	11.74	4003	18	-23	0	0	1.253664	-0.005309872	3	20	1E-05	900
177032	73	74	-58	0.2289061	-0.0183133	0.1605959	0	11.63	4002	26	-12	-2	0	1.253664	-0.008975082	3	20	1E-05	900
177128	132	3	50	0.2708112	-0.0493515	0.164998	0	11.63	4004	-10	-12	-1	0	1.253664	-0.009177482	3	20	1E-05	900
177236	-22	-75	19	0.215112	-0.02779189	0.1652441	0	11.63	4002	21	-6	-4	0	1.253664	-0.01188908	3	20	1E-05	900
177333	111	33	10	0.2163684	-0.03146001	0.1683675	0	11.63	4003	-1	38	-2	0	1.253664	-0.01666135	3	20	1E-05	900
177449	-21	69	-128	0.2011789	-0.03129467	0.1807857	0	11.63	4003	-3	-12	-5	0	1.253664	-0.02148662	3	20	1E-05	900
177549	-84	-10	-72	0.09026663	0.01356018	0.1787115	0	11.63	4004	27	5	-4	0	1.253664	-0.01683798	3	20	1E-05	900
177676	-159	-18	-355	0.1516283	0.06697843	0.1358574	0	11.63	4002	-4	-27	0	0	1.253664	-0.009376266	3	20	1E-05	900
177796	-458	-1487	9	0.09654985	0.7255064	-0.5383315	0	11.63	4003	-3	-34	7	0	1.253664	-0.008804352	3	20	1E-05	900
177898	43	2766	-146	-0.7007497	-0.4758711	-0.2864054	0	11.63	4002	47	91	-2	0	1.253664	0.0002733614	3	20	1E-05	900
177930	-1925	3072	1421	-0.7387857	-1.957507	-0.4079814	0	11.46	4003	-67	75	21	0	1.253664	0.004813591	3	20	1E-05	900
178054	-1573	4372	-257	-4.043462	-6.174021	-0.8775123	0	11.46	4004	-24	75	1	0	1.253664	0.03877343	3	20	1E-05	900
178139	-693	2529	-2367	-5.532423	-12.64847	0.3067656	0	11.46	4004	63	-205	-32	0	1.253664	0.05277641	3	20	1E-05	900
178279	714	-2327	-516	-4.285383	-13.89649	2.209834	0	11.46	4003	-11	-140	-55	0	1.253664	0.092043	3	20	1E-05	900
178382	107	-3945	1166	-3.513334	-7.390759	1.290938	0	11.46	4004	20	-88	-18	0	1.253664	0.1318123	3	20	1E-05	900
178426	1098	-1909	452	-2.651504	-2.481592	0.1912868	0	11.46	4004	23	-90	-7	0	1.253664	0.1576872	3	20	1E-05	900
178527	1134	145	-554	-1.251496	-2.438188	-0.08936799	0	11.46	4003	-119	36	6	0	1.253664	0.1840393	3	20	1E-05	900
178676	225	1257	-151	-0.191048	-3.521184	0.7599382	0	11.46	4002	-38	117	-26	0	1.253664	0.2330409	3	20	1E-05	900
178877	-337	-1091	-507	0.03250062	-5.040132	-0.05510999	0	11.57	4002	-34	-185	0	0	1.253664	0.2839109	3	20	1E-05	900
178983	1143	568	896	0.346048	-4.545904	0.1704659	0	11.57	4004	-4	67	-22	0	1.253664	0.3036269	3	20	1E-05	900
179018	-886	-2586	-786	0.859747	-4.209074	0.1846464	0	11.57	4003	50	-373	-22	0	1.253664	0.3140444	3	20	1E-05	900
179120	-1213	-238	1831	-1.056149	-3.213477	-0.6518451	0	11.57	4004	-59	96	37	0	1.253664	0.3370123	3	20	1E-05	900
179247	1385	322	123	-1.18332	-4.503812	-0.87594	0	11.57	4004	8	114	2	0	1.253664	0.3581909	3	20	1E-05	900
179352	-334	-559	-401	-0.9450094	-3.637359	0.4921082	0	11.57	4002	59	58	-30	0	1.253664	0.3657059	3	20	1E-05	900
179436	-763	-664	448	-1.724167	-2.472583	0.6187797	0	11.57	4003	0	-129	-15	0	1.253664	0.3715211	3	20	1E-05	900
179522	1452	-1607	449	-1.773916	0.3782442	-0.180863	0	11.57	4004	-38	-120	4	0	1.253664	0.3802294	3	20	1E-05	900
179622	364	1183	-231	-0.09157709	-0.6422666	-0.5318111	0	11.57	4003	1	-83	3	0	1.253664	0.399404	3	20	1E-05	900
179796	-522	-1571	488	-0.8242064	-2.128102	-0.4852585	0	11.34	4002	-62	-175	7	0	1.253664	0.4233014	3	20	1E-05	900
179849	495	-468	992	-0.8837681	-1.741289	-0.5094449	0	11.34	4003	-60	15	18	0	1.253664	0.4288851	3	20	1E-05	900
179952	-1	749	44	-0.2689196	-2.730021	-0.4058295	0	11.34	4004	176	-142	-12	0	1.253664	0.4256215	3	20	1E-05	900
180035	798	251	-1609	-0.0492905	-5.295022	0.5417954	0	11.34	4002	-103	175	-11	0	1.253664	0.4234872	3	20	1E-05	900
180161	886	-254	-1165	0.9644724	-8.561541	1.234531	0	11.34	4003	104	-170	-61	0	1.253664	0.4211361	3	20	1E-05	900
180235	-1240	-4715	-857	0.08293067	-4.795744	1.333706	0	11.34	4002	101	61	-32	0	1.253664	0.4179981	3	20	1E-05	900
180356	614	-980	-436	0.826312	-2.742034	1.05257	0	11.34	4004	116	8	-18	0	1.253664	0.4124046	3	20	1E-05	900
180444	-842	2393	2074	-0.254625	-3.04762	0.1336709	0	11.34	4003	-128	400	4	0	1.253664	0.4163432	3	20	1E-05	900
180576	1436	-267	476	1.995309	-5.007984	1.241263	0	11.34	4003	-58	128	-40	0	1.253664	0.4195885	3	20	1E-05	900
180676	-2498	3973	990	2.200536	-5.881224	1.480381	0	11.34	4003	102	-15	-39	0	1.253664	0.4185553	3	20	1E-05	900
180813	1524	2007	-262	0.09705403	-12.18672	0.6352334	0	11.34	4004	-173	-91	-19	0	1.253664	0.4271607	3	20	1E-05	900
180924	-656	4314	504	1.367048	-19.99208	-0.261696	0	11.34	4002	35	-47	7	0	1.253664	0.4307383	3	20	1E-05	900
180943	-143	4286	341	1.194867	-21.27036	-0.3873299	0	11.34	4002	-57	39	4	0	1.253664	0.4311919	3	20	1E-05	900
181047	1240	2976	-932	1.686072	-24.1252	-0.2938788	0	11.34	4004	-26	-218	-10	0	1.253664	0.4369596	3	20	1E-05	900
181192	-1724	1885	185	0.6887511	-27.90345	0.2002485	0	11.34	4004	-41	-52	-8	0	1.253664	0.4592345	3	20	1E-05	900
181349	-30	546	-737	-2.575855	-27.00126	-0.05094543	0	11.34	4002	-10	-150	-5	0	1.253664	0.485743	3	20	1E-05	900
181416	159	2560	188	-1.611223	-26.70292	-0.1458265	0	11.34	4003	35	-14	-2	0	1.253664	0.500365	3	20	1E-05	900
181510	-145	2984	-669	-2.372676	-29.63003	0.1122796	0	11.34	4003	85	-104	-8	0	1.253664	0.5238732	3	20	1E-05	900
181567	636	155	-724	-2.464451	-29.28633	0.8742721	0	11.34	4004	-50	-99	-32	0	1.253664	0.5423415	3	20	1E-05	900
181659	331	-3411	3	-1.856246	-26.16419	1.184789	0	11.46	4003	29	-77	-35	0	1.253664	0.5622881	3	20	1E-05	900
181820	348	-1857	781	-0.9838116	-10.84346	-1.014428	0	11.46	4003	-51	-235	13	0	1.253664	0.6106824	3	20	1E-05	900
181880	296	-2919	967	-0.5956777	-7.664109	-1.14312	0	11.46	4002	-71	-142	15	0	1.253664	0.6279382	3	20	1E-05	900
181977	1665	-1042	-677	0.33222	-6.121284	-0.7085273	0	11.46	4004	-117	22	21	0	1.253664	0.6528464	3	20	1E-05	900
182122	729	-1978	-578	0.6168388	-3.591008	-0.2418028	0	11.46	4003	-69	55	4	0	1.253664	0.7041222	3	20	1E-05	900
182182	-1595	-1139	-433	-0.3712626	-2.467045	-0.2493115	0	11.46	4002	85	80	11	0	1.253664	0.7337137	3	20	1E-05	900
182255	1208	-1008	-348	-0.6454951	-2.904048	-0.3205719	0	11.46	4003	-118	-78	1	0	1.253664	0.7625751	3	20	1E-05	900
182358	-665	-633	921	2.098505	-0.6672019	-0.008992158	0	11.46	4003	-101	144	5	0	1.253664	0.8021685	3	20	1E-05	900
182549	413	-250	1293	0.9401833	-0.1029989	0.04078174	0	10.89	4002	-41	257	8	0	1.253664	0.8444619	3	20	1E-05	900
182603	255	-2906	-1129	1.244912	0.06711733	0.1506007	0	10.89	4004	67	-136	-21	0	1.253664	0.8494368	3	20	1E-05	900
182731	399	-1424	558	0.4155822	1.586938	0.1970738	0	10.89	4003	-144	67	5	0	1.253664	0.8427202	3	20	1E-05	900
182848	-782	-75	201	-0.6337803	1.579623	-0.2771795	0	10.89	4004	60	59	6	0	1.253664	0.8271218	3	20	1E-05	900
182882	-782	-75	201	-0.6337803	1.579623	-0.2771795	0	10.89	4004	60	59	6	0	1.253664	0.8245066	3	20	1E-05	900
182952	400	-739	-195	-1.174011	0.569331	-0.610514	0	10.89	4003	-15	-188	13	0	1.253664	0.8187135	3	20	1E-05	900
183050	1082	1101	662	-1.096028	-0.3831832	-0.4972894	0	10.89	4002	-69	-222	-2	0	1.253664	0.8219076	3	20	1E-05	900
183170	96	-674	-1091	-1.339198	-1.324526	-0.03084185	0	10.89	4003	85	-136	-18	0	1.253664	0.8259953	3	20	1E-05	900
183266	364	1526	846	-1.26934	-2.025891	-0.507202	0	10.89	4002	-78	150	15	0	1.253664	0.8263546	3	20	1E-05	900
183444	304	-1818	-969	-2.144371	-4.369616	-0.2772135	0	10.89	4004	-27	6	-13	0	1.253664	0.8304957	3	20	1E-05	900
183485	97	1430	1193	-1.903321	-4.730806	-0.2827226	0	10.72	4002	-86	272	10	0	1.253664	0.8295469	3	20	1E-05	900
183550	765	2454	908	-1.694178	-5.658579	-0.06906141	0	10.72	4004	0	-172	-9	0	1.253664	0.8280284	3	20	1E-05	900
183663	-857	-307	-424	-0.6747913	-7.333772	0.2591617	0	10.72	4003	-1	-209	-2	0	1.253664	0.8026236	3	20	1E-05	900
183756	214	-1354	1625	-1.139492	-4.989007	-0.2127828	0	10.72	4002	-53	35	15	0	1.253664	0.7906233	3	20	1E-05	900
183865	-1166	357	60	-1.326168	-5.303552	-0.3259228	0	10.72	4003	-114	52	10	0	1.253664	0.7758961	3	20	1E-05	900
183985	621	-1519	-1115	-0.4585761	-6.427203	-0.1476258	0	10.72	4004	-19	-148	-8	0	1.253664	0.7574221	3	20	1E-05	900
184098	-6	525	-1128	-0.4781126	-3.599509	0.2406158	0	10.72	4002	-9	-20	-31	0	1.253664	0.7485662	3	20	1E-05	900
184157	845	-687	-1021	-0.6572083	-4.760346	0.7917374	0	10.72	4003	76	-309	-30	0	1.253664	0.7406878	3	20	1E-05	900
184254	930	-1722	388	0.6152298	-3.07012	1.650744	0	10.72	4003	-4	-61	-48	0	1.253664	0.7342296	3	20	1E-05	900
184399	236	-130	882	-1.11499	-1.174642	-0.368199	0	11.63	4002	45	-143	6	0	1.253664	0.7310225	3	20	1E-05	900
184519	128	-112	-367	-1.426441	-1.703749	-0.9185444	0	11.63	4003	-11	-81	12	0	1.253664	0.7383906	3	20	1E-05	900
184568	665	85	-130	-1.07519	-1.726548	-0.5017563	0	11.63	4003	5	-136	0	0	1.253664	0.7385664	3	20	1E-05	900
184703	41	1162	219	-0.2519059	-3.058383	0.265204	0	11.63	4002	-41	52	-13	4	1.268914	0.7300515	4	20	1E-05	900
184770	94	60	-864	-0.516081	-3.420826	0.5685954	0	11.63	4002	35	-55	-23	4	1.262367	0.7222195	4	20	1E-05	900
184933	242	-327	107	-2.566494	-0.04487102	0.6869024	0	11.63	4004	-49	-35	-19	7	1.126313	0.691465	4	20	1E-05	900
184997	-125	360	413	-2.49191	-0.2257595	0.3914786	0	11.63	4003	15	-29	-19	7	1.143862	0.6624612	4	20	1E-05	900
185085	-1389	2647	537	-3.477406	-1.9444	-0.01287346	0	11.63	4002	-8	-14	3	7	1.151868	0.6072717	4	20	1E-05	900
185162	-1468	4529	-736	-6.70556	-8.280001	0.0207633	0	11.63	4003	-8	-91	-21	13	1.051273	0.5596269	4	20	1E-05	900
185262	-1620	2897	-485	-9.151847	-14.99157	1.172047	0	11.63	4003	72	-74	-34	13	1.102031	0.5037795	4	20	1E-05	900
185377	4034	-8252	-1531	-0.6818	-7.653027	3.884681	0	11.17	4002	-400	-400	-127	18	0.8594312	0.4344842	4	20	1E-05	900
185535	-1254	1129	992	-0.228163	-4.326863	3.478996	0	11.17	4005	86	-193	-77	18	0.9303015	0.3720978	4	20	1E-05	900
185619	-424	66	546	1.355339	-7.636326	1.619979	0	11.17	4002	111	-99	-40	15	1.030296	0.3351723	4	20	1E-05	900
185671	-1110	-1276	940	1.285863	-7.403739	0.9340993	0	11.17	4002	54	-50	-15	14	1.03787	0.3143915	4	20	1E-05	900
185789	-123	-74	692	0.6706466	-6.812502	-0.01576749	0	11.17	4002	-60	53	2	14	1.053398	0.2943236	4	20	1E-05	900
185983	-242	113	517	1.530754	-7.380314	2.150637	0	11.17	4002	-98	-38	-61	13	1.092585	0.3000114	4	20	1E-05	900
186003	-242	113	517	1.530754	-7.380314	2.150637	0	11.17	4002	-47	58	-49	13	1.11377	0.3050247	4	20	1E-05	900
186107	370	-44	508	0.2325328	-7.268611	1.693868	0	11.17	4002	-20	-34	-43	6	1.212008	0.3120425	4	20	1E-05	900
186294	-209	-366	440	-0.4838039	-4.279276	0.5464361	0	11.51	4003	-19	-38	-13	14	1.052204	0.3218486	4	20	1E-05	900
186402	87	-1768	361	-0.01935116	-2.347162	-0.0555908	0	11.51	4003	-8	-70	-4	15	1.011459	0.3193817	4	20	1E-05	900
186478	-687	-347	-79	-0.4618126	-1.448537	-0.2515267	0	11.51	4003	-3	-13	-16	14	1.067754	0.3181568	4	20	1E-05	900
186624	-885	2776	262	-1.181269	-9.051948	-0.001214947	0	11.51	4003	23	-45	-3	7	1.104498	0.3173561	4	20	1E-05	900
186691	-415	1618	202	-2.002109	-10.90126	-0.1340384	0	11.51	4003	2	-43	0	7	1.112311	0.316904	4	20	1E-05	900
186879	237	-2824	-168	-1.731984	-8.929226	0.1064729	0	11.51	4002	19	-8	-19	7	1.1304	0.2884294	4	20	1E-05	900
186947	705	-196	276	-0.3511046	-6.169657	0.297641	0	11.51	4004	42	-79	-12	6	1.173733	0.2529554	4	20	1E-05	900
187030	80	-871	526	1.48222	-6.013014	0.3864917	0	11.51	4004	-16	-18	-18	6	1.203974	0.2384249	4	20	1E-05	900
187075	-1407	-2776	652	1.326575	-4.527925	0.4371529	0	11.51	4004	24	-92	-16	5	1.216866	0.221626	4	20	1E-05	900
187251	398	326	796	2.096128	3.732077	-0.8967841	0	10.89	4002	-27	-9	12	13	1.080671	0.1561684	4	20	1E-05	900
187331	-368	-302	350	1.580419	3.285285	-0.9610457	0	10.89	4003	0	-5	17	16	0.9817528	0.1289765	4	20	1E-05	900
187385	291	2059	-34	1.136796	1.725316	-0.8717892	0	10.89	4003	-68	108	23	16	0.9935972	0.1153625	4	20	1E-05	900
187486	-778	1188	-1076	-0.1757244	-6.009409	0.6425239	0	10.89	4004	21	106	-19	17	0.9451516	0.08702138	4	20	1E-05	900
187590	-61	-168	500	-1.616935	-4.933144	0.9051108	0	10.89	4004	-43	89	-27	16	0.9916705	0.07078128	4	20	1E-05	900
187697	1286	1173	268	-1.416563	-4.915767	0.07296085	0	10.89	4004	-57	147	-5	15	1.044638	0.06371527	4	20	1E-05	900
187788	972	2376	169	0.2474747	-6.841633	-0.2819355	0	10.89	4002	32	-142	3	14	1.062261	0.05950832	4	20	1E-05	900
187905	-1378	-697	-102	-1.523792	-8.283772	-0.3582624	0	10.89	4003	16	-80	0	7	1.135541	0.05707172	4	20	1E-05	900
