time(ms)	gyro_x(deg/s)	gyro_y(deg/s)	gyro_z(deg/s)	orientation_roll(deg)	orientation_pitch(deg)	orientation_yaw(deg)	throttle	battery(V)	loop_time(uS)	pid_output_roll	pid_output_pitch	pid_output_yaw	pid_output_throttle	ultrasonic_alt	baro_alt	flight_mode	p_gain_altitude	i_gain_altitude	d_gain_altitude
32096	-967	1661	-228	-1.902943	-4.825499	2.65581	0	12.31	4003	107	-10	-2	0	0.02	0.1372476	3	20	0.001	120
32190	-2323	2681	226	-2.782747	-7.425441	3.386384	0	12.31	4003	125	-11	-17	0	0.02	0.1635725	3	20	0.001	120
32310	2088	1164	341	0.2742907	-10.52074	3.831559	0	12.31	4003	58	123	-18	0	0.02	0.1979047	3	20	0.001	120
32450	244	19	-74	2.018291	-11.06342	3.280332	0	12.31	4003	13	-56	-22	0	0.02	0.2448178	3	20	0.001	120
32500	1598	-292	981	3.154422	-9.859877	3.33097	0	12.31	4004	-25	145	9	0	0.02	0.266242	3	20	0.001	120
32612	836	561	-398	3.168983	-8.039376	2.946995	0	12.31	4003	157	-150	-2	0	0.02	0.319452	3	20	0.001	120
32664	93	2156	860	3.356156	-8.4221	2.792074	0	12.31	4003	-78	213	24	0	0.02	0.3419134	3	20	0.001	120
32798	-763	-285	-860	1.757818	-10.9987	3.565429	0	12.31	4004	33	28	-10	0	0.02	0.4252502	3	20	0.001	120
32876	-496	-890	527	0.7731189	-9.807894	3.693293	0	12.19	4004	2	-128	-2	0	0.02	0.4687817	3	20	0.001	120
32986	66	-2418	146	-0.5385665	-6.172762	3.645038	0	12.19	4002	-36	-165	-6	0	0.02	0.5345643	3	20	0.001	120
33125	344	-461	571	-0.6705369	-3.266435	3.168587	0	12.19	4003	-2	-78	8	0	0.02	0.5998893	3	20	0.001	120
33238	892	-302	-1026	-0.9283928	-2.717132	3.191749	0	12.19	4004	-17	-144	3	0	0.02	0.6436676	3	20	0.001	120
33329	-877	217	678	-1.416577	-3.547958	3.113229	0	12.19	4004	40	-82	9	0	0.02	0.6810151	3	20	0.001	120
33393	-263	-1642	139	-2.494889	-3.178744	3.332055	0	12.19	4003	24	-151	1	0	0.02	0.7055053	3	20	0.001	120
33527	3163	189	584	0.5880452	-2.33164	3.576895	0	12.19	4004	-33	-145	0	0	0.02	0.7373079	3	20	0.001	120
33653	402	-402	-744	3.50876	-2.294203	2.900048	0	12.19	4004	12	-255	4	0	0.02	0.7670016	3	20	0.001	120
33731	-1932	589	-174	2.631096	-4.098227	2.670515	0	12.19	4002	106	25	2	0	0.02	0.7866531	3	20	0.001	120
33788	689	-1879	-1040	2.087432	-3.841992	3.241538	0	11.68	4005	-148	-185	11	0	0.02	0.7946053	3	20	0.001	120
33923	176	-2168	-1270	1.039275	-3.710092	3.200969	0	11.68	4003	45	41	-4	0	0.02	0.7963609	3	20	0.001	120
34025	-1976	63	-692	-0.05862039	-3.945225	3.165362	0	11.68	4004	131	-147	-7	0	0.02	0.7839394	3	20	0.001	120
34125	659	-869	-60	-1.265655	-4.17519	3.313139	0	11.68	4003	-12	-129	-6	0	0.02	0.774714	3	20	0.001	120
34205	61	68	238	-0.541672	-3.792634	3.489319	0	11.68	4002	30	-237	-16	0	0.02	0.7646851	3	20	0.001	120
34350	31	825	-300	-1.736359	-4.705046	3.549027	0	11.68	4003	11	97	-11	0	0.02	0.7405879	3	20	0.001	120
34401	-335	-637	-451	-1.81045	-5.994657	3.506903	0	11.68	4002	83	-184	-14	0	0.02	0.7344837	3	20	0.001	120
34600	-2318	221	557	-3.043281	-7.843306	3.904174	0	11.68	4002	79	-87	-3	0	0.02	0.7243067	3	20	0.001	120
34674	-1283	-2765	-20	-5.307691	-5.820673	3.230387	0	11.68	4004	25	50	1	0	0.02	0.7287514	3	20	0.001	120
34813	124	-130	351	-1.916193	-2.741864	3.456034	0	12.14	4003	-55	55	-4	0	0.02	0.7374007	3	20	0.001	120
34878	69	-1059	-179	-2.522668	-2.234447	3.579053	0	12.14	4003	4	12	0	0	0.02	0.7374883	3	20	0.001	120
34957	567	-46	27	-2.024362	-2.177982	3.65658	0	12.14	4003	39	-138	-3	0	0.02	0.7321922	3	20	0.001	120
34997	143	83	-83	-1.888548	-2.373316	3.584452	0	12.14	4003	-78	37	-8	0	0.02	0.7252619	3	20	0.001	120
35134	4	2	744	-2.085983	-0.1360296	3.498071	0	12.14	4003	-76	-30	3	0	0.02	0.7158523	3	20	0.001	120
35271	397	-589	-671	-1.049916	-2.694352	3.63633	0	12.14	4003	-48	92	-12	0	0.02	0.7056069	3	20	0.001	120
35311	-214	-643	6	-1.137822	-2.318281	3.787768	0	12.14	4004	-59	109	-10	0	0.02	0.7026963	3	20	0.001	120
35424	218	-1109	231	-1.397205	-1.601756	4.327739	0	12.14	4002	-76	8	-26	0	0.02	0.6991834	3	20	0.001	120
35518	-1002	195	243	-1.769792	-1.47792	4.069641	0	12.14	4004	94	-18	-16	0	0.02	0.6935014	3	20	0.001	120
35638	186	-867	975	-1.825715	-1.541975	3.68751	0	11.74	4004	-78	-29	0	0	0.02	0.6790938	3	20	0.001	120
35771	-1846	-1295	-78	-1.065003	-3.914916	4.670065	0	11.74	4004	14	-57	-23	0	0.02	0.666048	3	20	0.001	120
35832	0	2399	-682	-1.238687	-5.686432	4.396088	0	11.74	4004	-80	132	-13	0	0.02	0.6625378	3	20	0.001	120
35927	-525	4611	-11	-1.226319	-11.50569	3.663493	0	11.74	4003	96	-189	-1	0	0.02	0.6508743	3	20	0.001	120
36029	-133	272	-486	-0.8307258	-15.41462	2.867666	0	11.74	4004	-46	-73	25	0	0.02	0.6307245	3	20	0.001	120
36137	279	-1043	-1290	-1.605879	-14.65387	3.518796	0	11.74	4002	-61	47	-3	0	0.02	0.6164569	3	20	0.001	120
36248	1313	-1381	-1340	0.06507617	-15.32753	4.380098	0	11.74	4004	-113	257	-19	0	0.02	0.5936503	3	20	0.001	120
36363	-856	1708	749	-0.3778547	-16.39569	3.640501	0	11.74	4004	62	141	0	0	0.02	0.5801057	3	20	0.001	120
36472	1340	-1497	27	1.145224	-15.70991	3.283742	0	11.74	4004	-44	-155	-3	0	0.02	0.5616547	3	20	0.001	120
36576	-21	-2419	-1363	0.2120756	-9.986198	3.734389	0	11.4	4002	-110	-77	-12	0	0.02	0.5472778	3	20	0.001	120
36669	289	-2179	-511	1.944362	-6.850803	3.632621	0	11.4	4004	46	-35	-17	0	0.02	0.5507306	3	20	0.001	120
36758	273	-1074	274	1.060737	-5.336594	3.215629	0	11.4	4002	120	-226	-6	0	0.02	0.5591967	3	20	0.001	120
36839	-213	556	1084	0.3615097	-4.202298	3.355332	0	11.4	4004	-12	134	11	0	0.02	0.5668817	3	20	0.001	120
36952	902	555	498	0.8598661	-4.722742	3.006718	0	11.4	4002	24	-181	8	0	0.02	0.5806289	3	20	0.001	120
37067	2768	3304	760	2.792683	-6.391953	3.151617	0	11.4	4003	-153	280	14	0	0.02	0.6084044	3	20	0.001	120
37154	722	1068	277	3.773406	-10.35086	3.304176	0	11.4	4004	-125	83	0	0	0.02	0.6308812	3	20	0.001	120
37261	2397	992	977	7.119618	-9.341143	3.575275	0	11.4	4004	-18	98	10	0	0.02	0.6518124	3	20	0.001	120
37361	374	960	-413	7.161885	-11.47277	2.959877	0	11.4	4003	107	-61	5	0	0.02	0.6700292	3	20	0.001	120
37466	1772	1051	-153	7.674921	-12.48682	3.178253	0	11.4	4002	35	-124	-1	0	0.02	0.6781561	3	20	0.001	120
37578	-1995	-300	134	6.201483	-12.21498	3.529768	0	11.4	4004	80	-9	-8	0	0.02	0.6993303	3	20	0.001	120
37698	-307	1345	49	1.278007	-11.01857	3.661588	0	11.4	4003	-8	-126	-11	0	0.02	0.7051401	3	20	0.001	120
37784	-846	-117	199	0.3085414	-11.72579	3.450348	0	11.4	4008	35	-97	-5	0	0.02	0.7029085	3	20	0.001	120
37895	-63	839	395	-0.6266284	-9.611953	3.751297	0	11.4	4003	-33	143	-9	0	0.02	0.699478	3	20	0.001	120
38021	-188	-1230	58	-0.2898085	-8.484143	4.308222	0	11.4	4002	37	-54	-27	0	0.02	0.686103	3	20	0.001	120
38150	-509	-2478	-230	-0.5202489	-5.843037	4.220343	0	11.4	4003	94	-108	-27	0	0.02	0.6745012	3	20	0.001	120
38207	-85	-1604	337	-0.8531447	-3.885697	4.08388	0	11.4	4003	-30	22	-12	0	0.02	0.6660002	3	20	0.001	120
38308	-1764	48	700	-1.836713	-3.216645	3.43799	0	11.4	4004	10	18	6	0	0.02	0.6450377	3	20	0.001	120
38415	-2793	101	-878	-4.548848	-3.346775	2.998285	0	11.4	4003	12	-131	12	0	0.02	0.6170308	3	20	0.001	120
38590	-990	2494	1044	-3.969284	-8.718699	3.084924	0	11.46	4004	-42	239	17	0	0.02	0.5693762	3	20	0.001	120
38645	-572	-1275	-551	-5.24203	-9.5403	3.00581	0	11.46	4004	-25	-40	12	0	0.02	0.5567887	3	20	0.001	120
38760	576	224	1009	-3.075876	-8.28555	3.308021	0	11.46	4003	2	-299	-10	0	0.02	0.5255505	3	20	0.001	120
38875	-720	437	1849	-1.187995	-8.248826	3.175225	0	11.46	4010	-83	222	21	0	0.02	0.4992793	3	20	0.001	120
38913	-4	-2325	-1058	-1.600985	-7.505428	3.136384	0	11.46	4003	-64	-159	5	0	0.02	0.4813966	3	20	0.001	120
38940	-2147	-721	-514	-2.473719	-6.316282	2.576354	0	11.46	4003	13	-140	7	0	0.02	0.4570446	3	20	0.001	120
39063	1238	-907	121	-0.2943783	-5.18598	2.62789	0	11.46	4003	32	41	11	0	0.02	0.4240234	3	20	0.001	120
39117	-369	-529	-1184	0.01666812	-5.411379	3.125241	0	11.46	4003	-53	155	8	0	0.02	0.407004	3	20	0.001	120
39220	-352	300	712	0.1430094	-3.598796	3.682562	0	11.46	4003	36	-113	-21	0	0.02	0.3884479	3	20	0.001	120
39445	-1906	-443	-361	-3.193773	-4.614665	3.551572	0	10.94	4004	115	-288	-25	0	0.02	0.3912038	3	20	0.001	120
39568	-1207	-1152	-112	0.04290735	-2.248825	3.510248	0	10.94	4002	-69	-281	-7	0	0.02	0.4029824	3	20	0.001	120
39630	1330	1213	79	0.0900993	-3.034727	2.980015	0	10.94	4003	46	-129	3	0	0.02	0.4164374	3	20	0.001	120
39749	-1269	453	43	2.74657	-5.164782	2.694939	0	10.94	4004	88	-65	-7	0	0.02	0.4393212	3	20	0.001	120
39855	-725	1405	55	1.964066	-6.871285	3.133628	0	10.94	4002	-51	51	16	0	0.02	0.4637935	3	20	0.001	120
40008	-569	-836	-24	-0.3406134	-9.234068	3.307583	0	10.94	4003	11	-27	8	0	0.02	0.4996229	3	20	0.001	120
40079	-116	-105	-1567	-0.2177988	-10.31289	3.636912	0	10.94	4003	8	209	4	0	0.02	0.5223247	3	20	0.001	120
40139	830	1230	-901	0.5045989	-12.02852	3.822282	0	10.94	4004	-7	60	-21	0	0.02	0.5477086	3	20	0.001	120
40223	95	1946	-274	0.5300836	-13.54865	4.129562	0	12.02	4004	115	83	-37	0	0.02	0.5637235	3	20	0.001	120
40389	1491	-1023	588	4.06023	-12.05513	4.394265	0	12.02	4004	-26	14	-1	0	0.02	0.6350027	3	20	0.001	120
40435	1681	-2771	519	5.213407	-7.84482	3.255741	0	12.02	4004	42	-107	4	0	0.02	0.6666026	3	20	0.001	120
40566	1383	-1121	-301	7.834467	-3.643787	2.842886	0	12.02	4003	-83	-40	11	0	0.02	0.713568	3	20	0.001	120
40636	-1183	-1194	57	6.933005	-2.704157	2.950246	0	12.02	4003	-1	-63	5	0	0.02	0.7375028	3	20	0.001	120
40740	-1413	-823	-491	3.622463	-1.552822	3.353404	0	12.02	4002	53	-1	-3	0	0.02	0.7711585	3	20	0.001	120
40861	-710	713	158	0.6146472	-3.731474	3.212644	0	12.02	4004	-54	-65	1	0	0.02	0.7934434	3	20	0.001	120
40979	-46	517	-42	-0.8591555	-5.330154	2.899126	0	12.02	4003	-40	2	13	0	0.02	0.8175134	3	20	0.001	120
41045	201	-134	-156	-0.9943273	-5.024503	3.022153	0	12.02	4004	35	-92	6	0	0.02	0.8288018	3	20	0.001	120
41157	-245	3369	791	-0.263538	-6.693081	2.935523	0	10.94	4002	-83	31	12	0	0.02	0.8384085	3	20	0.001	120
41306	-487	251	163	-0.3286986	-10.95853	3.304389	0	10.94	4002	68	-2	-9	0	0.02	0.8503723	3	20	0.001	120
41384	-111	-732	-953	-1.082692	-10.11805	3.668925	0	10.94	4003	-72	122	0	0	0.02	0.8539668	3	20	0.001	120
41438	1285	938	160	-0.426091	-10.0106	3.765296	0	10.94	4003	-109	250	6	0	0.02	0.8571854	3	20	0.001	120
41541	-488	1400	-837	0.2616723	-13.03348	3.541281	0	10.94	4004	-24	-218	-14	0	0.02	0.8581245	3	20	0.001	120
41640	-1318	1007	1051	0.0422275	-13.3004	3.782876	0	10.94	4002	47	67	-16	0	0.02	0.84816	3	20	0.001	120
41760	-963	-4873	-279	-0.8151127	-11.42174	3.569293	0	10.94	4003	50	-334	-16	0	0.02	0.8208638	3	20	0.001	120
41860	-415	-503	375	-0.8531891	-7.137663	3.419205	0	10.94	4003	-95	180	9	0	0.02	0.7937852	3	20	0.001	120
41948	-2446	-4542	-871	-2.505026	-4.536383	3.472477	0	10.94	4004	-92	18	4	0	0.02	0.7549117	3	20	0.001	120
42041	1328	1215	973	-2.909783	-2.887047	3.458054	0	10.94	4004	-15	60	4	0	0.02	0.7381448	3	20	0.001	120
42146	-117	-1770	-1196	-0.7795717	-4.871154	3.460149	0	11.34	4004	69	-301	-11	0	0.02	0.7284887	3	20	0.001	120
42258	-1338	-218	86	-1.433307	-3.415537	3.837763	0	11.34	4003	28	-8	-29	0	0.02	0.726813	3	20	0.001	120
42356	1729	1041	1004	0.5666506	-4.61914	3.772517	0	11.34	4002	-66	-95	-17	0	0.02	0.7213581	3	20	0.001	120
42461	-490	-1403	-420	2.575049	-5.773702	4.184681	0	11.34	4003	199	-238	-13	0	0.02	0.7147493	3	20	0.001	120
42567	-877	416	1287	2.376554	-5.86591	4.276329	0	11.34	4003	-49	33	-8	0	0.02	0.7100733	3	20	0.001	120
42698	102	212	1229	1.590846	-5.577978	3.921151	0	11.34	4002	-13	-255	-25	0	0.02	0.7082523	3	20	0.001	120
42779	-1935	-748	-744	0.5534918	-6.170603	3.74989	0	11.34	4003	81	-117	-21	0	0.02	0.7068734	3	20	0.001	120
42926	650	-2542	-1102	-0.3949272	-3.727582	3.087	0	11.34	4004	3	-287	-4	0	0.02	0.7000611	3	20	0.001	120
43011	-441	258	-654	0.6165848	-4.856682	3.438365	0	11.74	4003	0	89	2	0	0.02	0.7044472	3	20	0.001	120
43205	619	-1425	-984	1.605127	-4.020039	4.668454	0	11.74	4004	-40	-98	-37	0	0.02	0.7151033	3	20	0.001	120
43282	-1239	-1991	662	-1.172068	-1.269824	3.72442	0	11.74	4002	-7	23	-2	0	0.02	0.7296326	3	20	0.001	120
43436	499	-781	874	-1.146262	1.401615	2.659065	0	11.74	4003	-46	29	27	0	0.02	0.7452617	3	20	0.001	120
43554	542	2595	649	-0.9735903	-1.619298	2.249039	0	11.74	4004	-85	233	25	0	0.02	0.7518727	3	20	0.001	120
43674	-417	-435	-867	0.3245453	-4.852426	4.183959	0	11.74	4003	43	60	-38	0	0.02	0.7617191	3	20	0.001	120
43779	-212	1687	1129	1.376981	-5.660611	4.844196	0	11.74	4003	-27	107	-18	0	0.02	0.7678712	3	20	0.001	120
43824	1675	2216	263	1.068463	-7.046971	4.659821	0	11.74	4008	-23	187	-38	0	0.02	0.7670507	3	20	0.001	120
43918	-1238	-892	-14	2.326602	-7.610552	4.021352	0	11.34	4002	49	118	-10	0	0.02	0.7642691	3	20	0.001	120
44075	-260	2828	-35	0.6094943	-6.416819	3.280401	0	11.34	4004	-45	-110	10	0	0.02	0.7641362	3	20	0.001	120
44120	-234	2439	1195	-0.07152479	-9.691063	1.989637	0	11.34	4003	-118	137	48	0	0.02	0.7647265	3	20	0.001	120
44186	1246	3052	-186	0.2935488	-11.27694	2.275444	0	11.34	4002	-4	-248	12	0	0.02	0.7651569	3	20	0.001	120
44349	-85	2363	-1111	-0.6321763	-15.86979	3.43488	0	11.34	4004	26	-97	0	0	0.02	0.7618211	3	20	0.001	120
44395	1020	4162	549	0.2368971	-18.30268	3.777517	0	11.34	4003	-75	115	3	0	0.02	0.7609267	3	20	0.001	120
44543	554	-104	-254	1.396054	-20.32183	4.005745	0	11.34	4004	54	-213	-21	0	0.02	0.7624263	3	20	0.001	120
44603	1307	3043	773	2.540922	-21.40157	3.614183	0	11.34	4002	17	57	-2	0	0.02	0.7661066	3	20	0.001	120
44746	438	-1715	-370	2.438722	-19.7326	3.438682	0	11.34	4004	57	-96	-3	0	0.02	0.7745784	3	20	0.001	120
44804	1583	289	560	4.195096	-17.4946	3.47544	0	11.34	4004	16	-12	-1	0	0.02	0.7853814	3	20	0.001	120
44938	770	-976	-130	5.354876	-14.77929	3.267149	0	12.14	4003	34	-97	0	0	0.02	0.7984111	3	20	0.001	120
45021	204	887	239	4.959534	-12.65231	3.024796	0	12.14	4003	-36	31	10	0	0.02	0.8009475	3	20	0.001	120
45145	-935	-178	-206	2.982005	-11.81097	3.135198	0	12.14	4004	24	-21	0	0	0.02	0.8234152	3	20	0.001	120
45215	-393	222	-261	1.539895	-11.27426	3.196641	0	12.14	4004	-30	-45	0	0	0.02	0.8317716	3	20	0.001	120
45383	-104	1139	317	0.121561	-11.80756	3.364144	0	12.14	4004	-32	-58	0	0	0.02	0.8190611	3	20	0.001	120
45468	166	1232	305	-0.1020559	-13.26753	3.230076	0	12.14	4002	52	-34	-1	0	0.02	0.8056618	3	20	0.001	120
45570	480	2158	1012	-1.152108	-14.28619	3.204449	0	12.14	4004	-64	59	1	0	0.02	0.7867526	3	20	0.001	120
45648	168	3667	312	0.2010919	-18.15101	3.519691	0	12.14	4003	-107	68	7	0	0.02	0.7675561	3	20	0.001	120
45756	-1118	-1940	-520	-0.5648893	-18.03974	4.030941	0	12.14	4003	-142	68	-2	0	0.02	0.7469249	3	20	0.001	120
45828	-1598	-6070	-1001	-2.333572	-12.139	4.977622	0	11.29	4002	-79	142	-35	0	0.02	0.7345895	3	20	0.001	120
45920	-1269	-2515	1741	-4.06235	-7.033852	4.067558	0	11.29	4002	-65	29	14	0	0.02	0.7204956	3	20	0.001	120
46078	-1815	-2173	305	-5.77073	1.158794	1.967734	0	11.29	4003	-11	-267	36	0	0.02	0.7066957	3	20	0.001	120
46127	537	326	-365	-6.159822	1.529837	1.993607	0	11.29	4002	-186	-35	30	0	0.02	0.701485	3	20	0.001	120
46230	40	40	-1308	-3.840329	-1.123617	2.540086	0	11.29	4002	-163	64	27	0	0.02	0.6946109	3	20	0.001	120
46334	1073	-749	353	-2.729181	-2.292716	2.470135	0	11.29	4003	-49	-135	1	0	0.02	0.6901752	3	20	0.001	120
46447	-10	-1185	-1034	-1.087762	-1.598515	2.823358	0	11.29	4003	26	-78	13	0	0.02	0.6856987	3	20	0.001	120
46591	-923	-726	-1630	1.261571	-2.204348	3.722692	0	11.29	4004	51	-261	-21	0	0.02	0.6669249	3	20	0.001	120
46645	-279	-1189	-1108	0.5323355	-2.571388	3.502903	0	11.29	4002	-1	56	5	0	0.02	0.6573046	3	20	0.001	120
46731	953	152	1671	1.292498	-1.37258	3.094061	0	11.4	4004	-71	311	16	0	0.02	0.6549201	3	20	0.001	120
46910	743	1694	1056	-0.3338434	-3.386186	3.621212	0	11.4	4004	-78	-51	-5	0	0.02	0.6590443	3	20	0.001	120
46955	1293	1471	1370	0.9545297	-4.798262	3.621947	0	11.4	4004	76	158	0	0	0.02	0.660324	3	20	0.001	120
47056	113	-948	-24	2.356843	-5.878462	3.588699	0	11.4	4003	-57	91	1	0	0.02	0.6634243	3	20	0.001	120
47136	-2084	-1066	-17	1.798278	-5.179025	3.206687	0	11.4	4003	139	-121	-7	0	0.02	0.6632474	3	20	0.001	120
47240	-777	735	544	0.8882996	-5.619005	2.236091	0	11.4	4002	89	85	18	0	0.02	0.6667129	3	20	0.001	120
47344	2619	-1362	-1333	2.823074	-6.163227	3.078523	0	11.4	4003	-90	-89	-8	0	0.02	0.672386	3	20	0.001	120
47503	-1981	-1232	-591	4.738847	-5.528414	4.608593	0	11.4	4003	68	137	-31	0	0.02	0.6866068	3	20	0.001	120
47568	113	-25	-229	4.074208	-6.025257	4.523555	0	11.4	4004	76	108	-32	0	0.02	0.7032262	3	20	0.001	120
47672	1129	-1400	-1167	4.494906	-7.616887	4.033425	0	10.72	4003	-50	90	-25	0	0.02	0.7257081	3	20	0.001	120
47763	-1958	566	690	3.577195	-7.882766	3.635856	0	10.72	4004	98	202	-12	0	0.02	0.7486416	3	20	0.001	120
47876	-612	-2029	-219	2.241254	-6.05402	3.447569	0	10.72	4003	-56	-54	-4	0	0.02	0.7626934	3	20	0.001	120
48032	-1616	-2098	-700	-3.156005	-3.141505	3.391962	0	10.72	4002	-50	-40	10	0	0.02	0.7977123	3	20	0.001	120
48078	-393	-80	1186	-3.358321	-3.025729	3.150149	0	10.72	4002	-23	180	21	0	0.02	0.8039155	3	20	0.001	120
48236	1023	362	211	-2.295807	-3.559899	3.042513	0	10.72	4004	-129	254	25	0	0.02	0.8379796	3	20	0.001	120
48268	102	1004	491	-1.306131	-3.876999	3.134854	0	10.72	4004	-44	-11	-26	0	0.02	0.8420268	3	20	0.001	120
48405	1756	1200	461	0.9490355	-5.435363	4.005976	0	10.72	4002	-101	275	0	0	0.02	0.8800397	3	20	0.001	120
48478	-328	-63	752	1.605768	-5.494022	3.949568	0	10.72	4003	144	-57	-14	0	0.02	0.8932037	3	20	0.001	120
48582	234	44	479	2.270592	-5.66536	4.374306	0	10.72	4003	-24	90	-20	0	0.02	0.9317793	3	20	0.001	120
48691	-285	-133	194	1.267485	-5.677114	3.90675	0	11.46	4004	-19	-94	-11	0	0.02	0.964551	3	20	0.001	120
48830	19	1362	224	-0.4547617	-6.635303	2.807952	0	11.46	4003	-10	0	15	0	0.02	1.016423	3	20	0.001	120
48895	310	1565	397	-0.7357171	-7.744673	2.67322	0	11.46	4004	22	-25	18	0	0.02	1.049373	3	20	0.001	120
49055	735	602	-455	-1.398185	-8.218682	3.300589	0	11.46	4004	-29	3	-5	0	0.02	1.109347	3	20	0.001	120
49105	1437	1044	349	-1.372454	-8.460155	3.392122	0	11.46	4004	-20	-75	-11	0	0.02	1.136565	3	20	0.001	120
49207	1292	1581	392	1.382183	-9.35085	3.309233	0	11.46	4004	-3	55	2	0	0.02	1.17672	3	20	0.001	120
49386	890	744	-445	5.041849	-14.26287	3.579562	0	11.46	4002	78	-101	-7	0	0.02	1.22713	3	20	0.001	120
49523	-473	-2227	259	2.657697	-10.64216	3.561722	0	11.46	4002	-17	73	0	0	0.02	1.231828	3	20	0.001	120
49736	-862	-1585	89	1.088318	-8.868252	3.550264	0	11.85	4002	-31	-153	-11	0	0.02	1.210223	3	20	0.001	120
49830	-486	-634	411	-0.4076168	-7.104452	3.208437	0	11.85	4003	-181	168	11	0	0.02	1.203706	3	20	0.001	120
49935	2119	4305	551	1.346214	-10.62555	3.43599	0	11.85	4004	-141	-3	-10	0	0.02	1.184221	3	20	0.001	120
50065	-804	-1109	594	-0.1385301	-12.11372	3.553395	0	11.85	4002	47	-23	-4	0	0.02	1.134718	3	20	0.001	120
50134	509	706	1313	-0.2598672	-11.37036	3.497315	0	11.85	4003	-95	272	10	0	0.02	1.116184	3	20	0.001	120
50247	-1622	2369	469	1.589492	-16.23871	3.740587	0	11.85	4004	82	-3	-20	0	0.02	1.071385	3	20	0.001	120
50344	-217	-1701	194	-0.7224762	-14.56079	3.755253	0	11.85	4004	69	-211	-29	0	0.02	1.040523	3	20	0.001	120
50462	-814	-127	217	-0.7236097	-14.15164	3.236054	0	11.85	4002	127	64	-1	0	0.02	1.003603	3	20	0.001	120
50548	70	747	1386	-0.4617831	-12.28458	3.089441	0	11.06	4004	101	6	-9	0	0.02	0.9583737	3	20	0.001	120
50670	462	-2745	-1886	-0.5064694	-11.27901	3.075093	0	11.06	4002	-67	-266	-9	0	0.02	0.9291626	3	20	0.001	120
50753	-371	2222	939	-0.3140728	-10.58814	3.275428	0	11.06	4004	81	103	-1	0	0.02	0.8976907	3	20	0.001	120
50910	529	-1155	34	-0.4067598	-8.53088	4.037727	0	11.06	4003	38	-135	-29	0	0.02	0.8572971	3	20	0.001	120
51015	-523	-751	215	0.9855621	-7.065282	4.071157	0	11.06	4004	-55	139	-13	0	0.02	0.8320587	3	20	0.001	120
51067	518	704	776	0.9954886	-7.057403	3.893679	0	11.06	4003	-69	48	0	0	0.02	0.8135325	3	20	0.001	120
51206	36	-496	540	1.487317	-6.95527	3.827184	0	11.06	4003	-154	196	8	0	0.02	0.8013541	3	20	0.001	120
51284	1735	-2105	121	1.420012	-5.42141	3.689751	0	11.06	4002	-63	-123	-11	0	0.02	0.7960215	3	20	0.001	120
51423	-1447	-209	-867	2.440331	-6.086518	3.690418	0	11.06	4004	61	-178	-5	0	0.02	0.7832778	3	20	0.001	120
51558	-495	-814	-442	1.497502	-5.639086	4.477244	0	11.46	4003	-27	127	-32	0	0.02	0.747112	3	20	0.001	120
51606	-201	-779	-923	0.8252681	-5.294651	4.870098	0	11.46	4003	-63	-78	-41	0	0.02	0.7329551	3	20	0.001	120
51691	276	-35	28	0.8807606	-4.713039	4.685433	0	11.46	4008	4	-112	-36	0	0.02	0.714761	3	20	0.001	120
51775	660	974	1725	0.806513	-4.844196	4.149093	0	11.46	4003	-174	205	3	0	0.02	0.7039762	3	20	0.001	120
51921	1679	98	770	2.810246	-2.976767	3.903308	0	11.46	4003	-140	251	-3	0	0.02	0.6757763	3	20	0.001	120
51977	-621	1375	1420	3.22598	-3.133075	3.651212	0	11.46	4002	-141	214	10	0	0.02	0.6666585	3	20	0.001	120
52154	-375	-1586	-1060	1.796114	-4.085008	3.388376	0	11.46	4004	-9	-6	-7	0	0.02	0.6591104	4	20	0.001	120
52263	1010	974	-732	2.130115	-3.760962	3.568175	0	11.46	4004	67	-231	-15	43	0.2855793	0.6646782	4	20	0.001	120
52320	-382	266	1133	2.03105	-3.340066	3.256763	0	11.46	4004	34	-154	7	36	0.4124919	0.6744843	4	20	0.001	120
52406	-1609	-599	-292	1.68778	-3.109136	3.425649	0	11.34	4004	35	-161	-7	36	0.3783037	0.6808535	4	20	0.001	120
52546	602	2716	353	1.160789	-5.512174	3.61334	0	11.34	4003	-52	-33	5	33	0.4546074	0.6957049	4	20	0.001	120
52628	-257	3612	1287	1.09533	-8.482918	3.602656	0	11.34	4003	-22	178	13	29	0.6225427	0.7024472	4	20	0.001	120
52725	771	3610	888	0.2539028	-11.29903	3.598092	0	11.34	4004	-33	90	-4	28	0.6273692	0.7079938	4	20	0.001	120
52832	2058	5056	1445	3.170883	-16.55205	3.285136	0	11.34	4003	68	-5	10	29	0.6412786	0.7339527	4	20	0.001	120
52948	1616	1767	1002	5.27439	-18.29195	2.974395	0	11.34	4002	17	102	11	26	0.6576685	0.760569	4	20	0.001	120
52997	460	3528	1461	6.319638	-18.03329	2.797351	0	11.34	4004	-85	-334	-2	27	0.6734032	0.7734318	4	20	0.001	120
53097	-696	689	-64	5.198541	-20.69751	2.988977	0	11.34	4004	14	12	-6	25	0.7643042	0.8192819	4	20	0.001	120
53207	-506	-4194	-1091	3.344437	-18.31165	3.657549	0	11.34	4003	6	86	-6	21	0.8824203	0.865628	4	20	0.001	120
53340	-766	253	647	0.5599194	-11.42154	3.1308	0	11.74	4004	27	-53	11	23	0.8184298	0.9414664	4	20	0.001	120
53418	27	738	-370	1.92888	-13.20622	2.40232	0	11.74	4002	-167	72	37	20	0.8931738	0.9942095	4	20	0.001	120
53497	-794	-690	319	1.39858	-12.96928	2.191209	0	11.74	4004	17	152	19	19	0.9026883	1.051192	4	20	0.001	120
53602	-43	-3197	-1367	3.113615	-8.843237	3.312219	0	11.74	4003	174	-152	-8	17	0.9968559	1.259969	4	20	0.001	120
53776	-242	-2183	-1835	4.574889	-5.682044	4.550797	0	11.74	4003	-80	313	-22	17	0.9492493	1.391579	4	20	0.001	120
53857	-584	-1216	409	3.808434	-5.138667	4.555694	0	11.74	4002	2	-319	-22	18	0.9454374	1.452447	4	20	0.001	120
53953	-2355	902	1051	0.2877028	-4.075643	3.587634	0	11.74	4003	112	-60	-15	18	0.9180741	1.642721	4	20	0.001	120
54091	-336	-1124	-826	-0.07130852	-10.33928	3.025635	0	11.74	4002	-47	-63	20	16	1.008438	1.753931	4	20	0.001	120
54150	-1592	-3962	-1690	-1.538972	-8.72248	3.798188	0	11.74	4002	-13	-130	-28	15	1.019206	1.791715	4	20	0.001	120
54259	356	1102	-307	-2.055623	-6.378746	4.399453	0	11.11	4002	-3	-121	-27	14	1.069167	1.981831	4	20	0.001	120
54382	-61	-1383	-949	-0.6939467	-9.693887	3.050462	0	11.11	4004	14	143	15	18	0.8715395	2.186671	4	20	0.001	120
54502	1251	171	-429	0.2977519	-10.26742	3.234867	0	11.11	4004	25	22	11	14	0.963264	2.291073	4	20	0.001	120
54534	991	903	-698	1.328712	-10.6483	3.34951	0	11.11	4002	40	-164	-9	17	0.8743121	2.41786	4	20	0.001	120
54684	3516	-794	-471	4.307354	-10.83382	3.837308	0	11.11	4004	-53	379	-11	19	0.8634911	2.493448	4	20	0.001	120
54829	1112	2005	1085	7.193971	-11.95553	4.422931	0	11.11	4003	22	162	-48	20	0.8749206	2.863945	4	20	0.001	120
54974	-2974	-5328	68	3.558613	-7.525602	4.970555	0	11.11	4003	-12	-157	-41	20	0.8870743	3.070238	4	20	0.001	120
55022	-2039	-4547	45	2.307985	-5.483284	4.79808	0	11.11	4004	116	-119	-57	20	0.8886102	3.21329	4	20	0.001	120
55172	192	54	1268	2.265839	-4.323012	3.594078	0	11.74	4004	-139	98	14	29	0.5506302	3.466239	4	20	0.001	120
55331	612	1733	155	2.754667	-4.725294	3.614284	0	11.74	4004	182	-161	-38	33	0.5473052	3.701808	4	20	0.001	120
55393	-841	18	54	1.082958	-5.139935	4.77601	0	11.74	4002	25	-73	-31	28	0.6906373	3.868644	4	20	0.001	120
55493	-37	-1734	-2050	-0.3213025	-5.640963	4.714369	0	11.74	4003	-68	-302	-54	22	0.8707641	3.938185	4	20	0.001	120
55525	1030	383	155	0.1477494	-5.355695	4.999034	0	11.74	4003	-124	-88	-54	20	0.9215051	4.060996	4	20	0.001	120
55623	-1238	-2320	17	1.636204	-4.537758	4.665533	0	11.74	4002	167	-232	-37	24	0.7616038	4.111598	4	20	0.001	120
55729	-1333	1342	1882	0.6331	-4.298878	3.496162	0	11.74	4003	-40	249	17	24	0.7922743	4.445234	4	20	0.001	120
55917	-1182	-2957	-84	1.940916	-1.908891	4.265473	0	11.74	4004	35	-115	-26	0	0.9011551	4.672935	3	20	0.001	120
55989	-1303	-2208	492	0.2113484	0.7486991	3.892078	0	11.74	4003	16	-85	-5	0	0.9309851	4.730291	3	20	0.001	120
56095	23	-625	947	-0.9959766	2.763108	3.023447	0	11.8	4002	-10	-46	0	0	0.9747188	4.934457	3	20	0.001	120
56129	-31	-425	548	-1.179881	2.809965	2.926607	0	11.8	4004	33	-46	1	0	0.9830624	4.953409	3	20	0.001	120
56235	-197	-981	-436	-2.213619	3.331573	3.117755	0	11.8	4003	-8	-67	-3	0	1.003412	5.037657	3	20	0.001	120
56373	58	330	294	-2.110884	3.230382	3.506632	0	11.8	4003	2	-192	-8	0	1.022238	5.232748	3	20	0.001	120
56430	-260	896	-150	-2.791946	2.796933	3.373925	0	11.8	4003	37	-71	-6	0	1.029063	5.282138	3	20	0.001	120
56549	7	4698	-179	-2.945827	-2.694849	3.148683	0	11.8	4003	-30	5	12	0	1.036947	5.351312	3	20	0.001	120
56686	-583	2570	29	-5.406159	-9.424837	3.084699	0	11.8	4004	-22	-78	4	0	1.04424	5.444072	3	20	0.001	120
56808	-245	4289	349	-5.941808	-14.95928	3.14063	0	11.8	4004	34	-18	0	0	1.049025	5.50882	3	20	0.001	120
56874	-162	3085	-576	-6.51028	-18.35829	3.487943	0	11.8	4002	3	-41	-8	0	1.052165	5.561899	3	20	0.001	120
56932	-647	2737	-332	-6.922489	-19.56301	3.839111	0	11.8	4002	4	-46	-16	0	1.052764	5.573787	3	20	0.001	120
57107	460	-805	224	-5.9804	-19.68752	3.750061	0	11.51	4002	-44	-70	-2	0	1.054972	5.582108	3	20	0.001	120
57170	2075	-3780	274	-3.540257	-12.50829	3.545703	0	11.51	4004	0	-88	-5	0	1.055576	5.579507	3	20	0.001	120
57269	422	-2041	925	-3.231711	-7.106719	2.732625	0	11.51	4004	47	-87	14	0	1.056275	5.562406	3	20	0.001	120
57323	2500	-1927	427	-2.657864	-5.662796	2.529498	0	11.51	4002	-57	-16	30	0	1.056632	5.545997	3	20	0.001	120
57470	-1543	228	192	0.3816227	-5.477901	2.610766	0	11.51	4003	86	-28	2	0	1.057045	5.526153	3	20	0.001	120
57581	1059	-1289	-1777	-4.063233	-4.552049	4.646003	0	11.51	4002	21	-88	-51	0	1.0575	5.450387	3	20	0.001	120
57729	-1067	-2452	1002	-5.378546	1.302048	3.069103	0	11.51	4002	-23	-69	40	0	1.057725	5.362462	3	20	0.001	120
57877	2425	-3028	-1854	-2.999874	8.348474	1.847847	0	11.51	4003	0	-81	15	0	1.057901	4.881897	3	20	0.001	120
57959	-2234	646	-1947	-2.438505	12.09041	4.994885	0	11.74	4002	132	-75	-54	0	1.057949	4.713679	3	20	0.001	120
58026	1325	1491	1009	-2.602465	8.799031	6.088299	0	11.74	4003	64	-115	-80	0	1.057988	4.676164	3	20	0.001	120
58113	-2561	-1269	2347	-2.227892	8.429862	4.374035	0	11.74	4003	163	-146	22	0	1.058034	4.35503	3	20	0.001	120
58291	545	774	-193	2.380711	-4.416327	2.62006	0	11.74	4004	-97	194	5	0	1.058083	3.99233	3	20	0.001	120
58338	-6983	-7694	-973	-1.682721	1.70468	4.358371	0	11.74	4003	89	-350	-33	0	1.05809	3.864581	3	20	0.001	120
58421	976	2812	543	-4.325253	3.306819	4.438342	0	11.74	4004	-133	24	-36	0	1.058103	3.698762	3	20	0.001	120
58542	-35	1989	1358	-2.505994	-4.487551	3.655015	0	11.74	4004	-1	252	-2	0	1.058121	3.341319	3	20	0.001	120
58644	-1098	374	102	-2.050566	-3.72241	2.589841	0	11.74	4002	156	-35	9	0	1.05813	3.009576	3	20	0.001	120
58738	1080	1292	-425	-1.553969	-5.069742	2.453005	0	11.74	4002	-48	-85	38	0	1.058137	2.7165	3	20	0.001	120
58848	731	5991	-6	-0.5161781	-12.87791	2.104806	0	11.11	4003	-16	-117	28	0	1.058142	2.381028	3	20	0.001	120
58955	-252	3730	-93	-0.648465	-17.42055	2.293745	0	11.11	4003	-56	32	29	0	1.058145	2.204066	3	20	0.001	120
59062	-391	720	-2069	-1.104309	-21.03681	2.704314	0	11.11	4004	-2	118	37	0	1.058149	1.896218	3	20	0.001	120
59131	-453	1811	-2160	-1.972208	-23.28271	3.738171	0	11.11	4002	29	90	3	0	1.05815	1.848229	3	20	0.001	120
59242	385	-3007	-879	-2.034953	-22.01144	5.703098	0	11.11	4003	74	-17	-59	0	1.058152	1.727635	3	20	0.001	120
59331	-1525	-8326	212	-1.858516	-12.35851	5.929357	0	11.11	4004	59	73	-53	0	1.058152	1.570674	3	20	0.001	120
59483	2451	-134	1289	-0.07615011	-2.439215	4.815454	0	11.11	4004	-228	350	-8	0	1.058153	1.484048	3	20	0.001	120
59579	2324	1741	388	2.250923	-2.053521	4.973352	0	11.11	4002	-83	10	-35	0	1.058154	1.43643	3	20	0.001	120
59641	-322	-1631	-1403	3.006101	-3.227153	5.268199	0	11.11	4003	9	-182	-41	0	1.058154	1.419393	3	20	0.001	120
59745	-585	1126	1402	0.7744201	-0.775844	4.780379	0	11.74	4003	-9	-151	-11	0	1.058154	1.389068	3	20	0.001	120
59882	-345	-1963	-521	0.5138873	-3.484666	4.846261	0	11.74	4004	62	-76	-21	0	1.058154	1.360143	3	20	0.001	120
59986	648	-3373	177	0.3794968	1.621286	4.834579	0	11.74	4003	-13	-70	-29	0	1.058154	1.348772	3	20	0.001	120
60064	21	-1422	-149	0.09440427	3.520348	4.680144	0	11.74	4002	28	-41	-12	0	1.058154	1.346066	3	20	0.001	120
60171	-495	-705	725	-1.149043	3.878546	4.489964	0	11.74	4002	-41	-65	-18	0	1.058154	1.349154	3	20	0.001	120
60258	64	-1059	-624	-1.19091	4.600372	4.506393	0	11.74	4002	25	-56	-2	0	1.058154	1.350873	3	20	0.001	120
60417	3099	2140	-340	-0.1230955	1.999671	4.146921	0	11.74	4002	-48	32	-1	0	1.058154	1.355933	3	20	0.001	120
60551	3180	3184	598	4.677019	-2.909985	3.549443	0	11.74	4004	16	-37	31	0	1.058154	1.340089	3	20	0.001	120
60596	1915	1926	502	6.542758	-6.071599	2.601334	0	11.74	4002	-39	-68	37	0	1.058154	1.332503	3	20	0.001	120
60648	1204	909	238	8.106791	-7.307399	2.577814	0	11.17	4004	46	-144	31	0	1.058154	1.318026	3	20	0.001	120
60755	-311	93	-712	8.286674	-8.383703	2.838618	0	11.17	4003	-139	37	29	0	1.058154	1.285691	3	20	0.001	120
60901	-2254	-1940	-4	3.462498	-5.578533	3.138241	0	11.17	4004	-30	63	20	0	1.058154	1.232817	3	20	0.001	120
60978	-3001	-145	995	0.573586	-4.822884	3.28947	0	11.17	4003	-157	193	28	0	1.058154	1.169423	3	20	0.001	120
61044	-2965	2055	-45	-2.958516	-5.597454	3.557698	0	11.17	4003	-98	-61	3	0	1.058154	1.156447	3	20	0.001	120
61196	-1174	1547	514	-7.186491	-5.580834	3.971918	0	11.17	4002	-6	74	5	0	1.058154	1.071769	3	20	0.001	120
61247	-1758	-1059	-1680	-7.665837	-5.977116	4.417589	0	11.17	4003	36	-297	-28	0	1.058154	1.048582	3	20	0.001	120
61434	-3828	3994	1707	-13.83853	-6.923327	5.364546	0	11.17	4002	-30	342	-24	0	1.058154	0.9506525	3	20	0.001	120
61467	-3199	-1502	-369	-15.9083	-8.290533	5.187658	0	11.17	4003	-12	40	-39	0	1.058154	0.9430439	3	20	0.001	120
61580	1181	235	-846	-16.07835	-6.277345	5.833086	0	11.17	4004	-184	340	-20	0	1.058154	0.9133012	3	20	0.001	120
61756	5923	4893	2438	0.7751598	-14.76164	2.852801	0	10.38	4004	12	154	50	0	1.058154	0.853843	3	20	0.001	120
61793	5016	2746	-444	3.568635	-16.68975	2.389933	0	10.38	4003	69	-273	33	0	1.058154	0.8394637	3	20	0.001	120
61893	4436	3931	796	10.08229	-20.51526	2.376348	0	10.38	4004	-40	341	32	0	1.058154	0.8138304	3	20	0.001	120
61948	3217	3682	-989	12.85022	-23.40634	3.370663	0	10.38	4003	-11	-5	-7	0	1.058154	0.8004715	3	20	0.001	120
62053	-1315	-1547	-1704	12.74458	-24.98649	4.860299	0	10.38	4002	74	-20	-35	0	1.058154	0.7835767	3	20	0.001	120
62159	-1485	-3076	49	6.670106	-19.36104	5.487527	0	10.38	4002	-66	-140	-39	0	1.058154	0.7423638	3	20	0.001	120
62362	351	-7404	562	3.722551	3.289789	4.355615	0	10.38	4003	-19	-144	15	0	1.058154	0.690932	3	20	0.001	120
62394	2716	-3907	437	4.825249	8.284892	4.060119	0	10.38	4004	23	-26	25	0	1.058154	0.6676064	3	20	0.001	120
62477	-31430	-32763	-4179	2.40426	5.97681	4.251124	0	10.38	4004	-8	29	38	0	1.058154	0.6295246	3	20	0.001	120
62600	339	7214	-1032	6.154437	9.533901	6.660808	0	10.72	4002	0	0	0	0	1.058154	0.5856975	3	20	0.001	120
62662	654	9725	-91	5.177492	-0.01154292	7.081359	0	10.72	4004	0	0	0	0	1.058154	0.5625378	3	20	0.001	120
62765	-16043	10101	-10573	3.23313	-17.86174	8.345502	0	10.72	4003	0	0	0	0	1.058154	0.5351416	3	20	0.001	120
62884	-5710	14170	-2345	-3.542578	-35.97381	9.863072	0	10.72	4004	0	0	0	0	1.058154	0.4889132	3	20	0.001	120
63054	-2449	17345	-5039	-6.538727	-69.78438	8.97172	0	10.72	4004	0	0	0	0	1.058154	0.4325261	3	20	0.001	120
