time(ms)	gyro_x(deg/s)	gyro_y(deg/s)	gyro_z(deg/s)	orientation_roll(deg)	orientation_pitch(deg)	orientation_yaw(deg)	throttle	battery(V)	loop_time(uS)	pid_output_roll	pid_output_pitch	pid_output_yaw	pid_output_throttle	ultrasonic_alt	baro_alt	flight_mode	p_gain_altitude	i_gain_altitude	d_gain_altitude
63267	12668	-32763	-2683	6.614309	-122.5912	5.941509	0	10.72	4003	0	0	0	0	1.058154	0.3287548	3	20	0.001	120
63330	-2955	13187	-7847	-1.810325	-120.6727	13.60972	0	10.72	4004	0	0	0	0	1.058154	0.2917346	3	20	0.001	120
63442	-271	3887	2769	-11.51818	-111.8567	22.59895	0	11.97	4003	0	0	0	0	1.058154	0.2590966	3	20	0.001	120
63482	-6201	-769	3659	-13.05683	-106.725	21.17552	0	11.97	4003	0	0	0	0	1.058154	0.2379803	3	20	0.001	120
63599	2495	-2828	2454	-5.101953	-84.61492	15.52587	0	11.97	4002	0	0	0	0	1.058154	0.1802188	3	20	0.001	120
63751	276	-329	388	-8.060143	-65.85164	15.62068	0	11.97	4004	0	0	0	0	1.058154	0.1374493	3	20	0.001	120
63800	68	-86	69	-8.358368	-62.48372	15.47811	0	11.97	4002	0	0	0	0	1.058154	0.1210498	3	20	0.001	120
63987	-2	3	1	-10.69418	-47.93974	15.55441	0	11.97	4002	0	0	0	0	1.058154	0.06429517	3	20	0.001	120
64007	20	-27	39	-11.04588	-45.37833	15.53503	0	11.97	4003	0	0	0	0	1.058154	0.06429517	3	20	0.001	120
64102	7	-9	17	-12.09316	-38.39317	15.53221	0	11.97	4003	0	0	0	0	1.058154	0.04743363	3	20	0.001	120
64224	8	-2	4	-13.00693	-32.29378	15.52751	0	11.97	4003	0	0	0	0	1.058154	0.005531823	3	20	0.001	120
64296	1	-4	3	-14.05087	-25.34421	15.52182	0	11.97	4003	0	0	0	0	1.058154	-0.007181779	3	20	0.001	120
64452	10	-1	3	-14.91379	-19.54435	15.51547	0	11.97	4003	0	0	0	0	1.058154	-0.01888298	3	20	0.001	120
64505	6	0	3	-15.10646	-18.24803	15.51358	0	11.97	4004	0	0	0	0	1.058154	-0.02675236	3	20	0.001	120
64610	5	-8	1	-15.7963	-13.62445	15.50502	0	11.97	4003	0	0	0	0	1.058154	-0.03638372	3	20	0.001	120
64713	2	-11	2	-16.09415	-11.60935	15.5008	0	11.97	4002	0	0	0	0	1.058154	-0.03848495	3	20	0.001	120
64818	12	-1	4	-16.50185	-8.905745	15.49543	0	11.97	4002	0	0	0	0	1.058154	-0.03673884	1	20	0.001	120
64951	2	-1	3	-16.96041	-5.820578	15.48656	0	11.97	4004	0	0	0	0	1.058154	-0.04345323	1	20	0.001	120
65048	10	-5	2	-17.25113	-3.850125	15.48192	0	11.97	4003	0	0	0	0	1.058154	-0.04569541	1	20	0.001	120
65133	9	0	-3	-17.5021	-2.125841	15.47501	0	11.97	4004	0	0	0	0	1.058154	-0.05133733	1	20	0.001	120
65246	17	-2	5	-17.72573	-0.6206813	15.46896	0	11.97	4004	0	0	0	0	1.058154	-0.06074902	1	20	0.001	120
65359	9	-1	5	-17.9171	0.6951299	15.46315	0	12.02	4002	0	0	0	0	1.058154	-0.07010646	1	20	0.001	120
65445	8	-1	9	-18.08142	1.840015	15.45618	0	12.02	4003	0	0	0	0	1.058154	-0.07371163	1	20	0.001	120
65551	9	2	4	-18.23058	2.845495	15.45056	0	12.02	4003	0	0	0	0	1.058154	-0.06744377	1	20	0.001	120
65716	3	0	0	-18.4413	4.244689	15.4439	0	12.02	4002	0	0	0	0	1.058154	-0.07669009	1	20	0.001	120
65808	13	-5	5	-18.50904	4.723397	15.43907	0	12.02	4002	0	0	0	0	1.058154	-0.08170574	1	20	0.001	120
65834	15	0	1	-18.5392	4.947982	15.43803	0	12.02	4002	0	0	0	0	1.058154	-0.08427653	1	20	0.001	120
65973	12	-4	4	-18.65538	5.740277	15.43119	0	12.02	4002	0	0	0	0	1.058154	-0.08656462	1	20	0.001	120
66039	14	1	4	-18.72786	6.244261	15.42813	0	12.02	4002	0	0	0	0	1.058154	-0.08766631	1	20	0.001	120
66172	11	-8	4	-18.80401	6.825793	15.42319	0	12.02	4003	0	0	0	0	1.058154	-0.08723588	1	20	0.001	120
66354	15	-5	2	-18.88894	7.305731	15.4213	0	12.08	4004	0	0	0	0	1.058154	-0.08272118	1	20	0.001	120
66416	10	-4	3	-18.90297	7.515733	15.41965	0	12.08	4004	0	0	0	0	1.058154	-0.08572965	1	20	0.001	120
66483	15	0	3	-18.9412	7.797397	15.41726	0	12.08	4003	0	0	0	0	1.058154	-0.08658845	1	20	0.001	120
66552	12	3	0	-18.9681	7.964667	15.41531	0	12.08	4003	0	0	0	0	1.058154	-0.08485328	1	20	0.001	120
66659	16	-5	0	-18.99974	8.189148	15.41311	0	12.08	4004	0	0	0	0	1.058154	-0.08637676	1	20	0.001	120
66808	13	-9	1	-19.02981	8.447713	15.41183	0	12.08	4004	0	0	0	0	1.058154	-0.08963002	1	20	0.001	120
66858	21	-10	1	-19.04259	8.560397	15.41	0	12.08	4002	0	0	0	0	1.058154	-0.08847331	1	20	0.001	120
66976	7	-5	3	-19.07253	8.756452	15.40627	0	12.08	4004	0	0	0	0	1.058154	-0.09221047	1	20	0.001	120
67079	16	-6	2	-19.08394	8.879486	15.40438	0	12.08	4003	0	0	0	0	1.058154	-0.09489356	1	20	0.001	120
67255	17	-1	2	-19.10266	9.053119	15.40059	0	12.02	4002	0	0	0	0	1.058154	-0.08386214	1	20	0.001	120
67300	10	-1	1	-19.10797	9.115988	15.40041	0	12.02	4002	0	0	0	0	1.058154	-0.07959369	1	20	0.001	120
67363	15	-3	0	-19.11051	9.142403	15.40035	0	12.02	4004	0	0	0	0	1.058154	-0.0788798	1	20	0.001	120
67459	9	-6	3	-19.1209	9.215434	15.39809	0	12.02	4004	0	0	0	0	1.058154	-0.07472137	1	20	0.001	120
67606	8	-2	7	-19.13015	9.29984	15.39607	0	12.02	4003	0	0	0	0	1.058154	-0.06964166	1	20	0.001	120
67738	13	0	2	-19.13824	9.376842	15.39308	0	12.02	4003	0	0	0	0	1.058154	-0.0637911	1	20	0.001	120
67794	-508	-1056	1751	-19.78094	10.40193	14.55608	0	12.02	4004	0	0	0	0	1.058154	-0.06024202	1	20	0.001	120
67932	5047	4452	-3933	-12.74893	7.163681	17.87326	0	12.02	4003	0	0	0	0	1.058154	-0.06253885	1	20	0.001	120
68034	9490	1784	-6161	-2.744614	7.271936	25.19928	0	12.02	4003	0	0	0	0	1.058154	-0.06524689	1	20	0.001	120
68099	9955	-3575	-7969	5.534782	8.681676	33.33129	0	12.08	4002	0	0	0	0	1.058154	-0.06445877	1	20	0.001	120
68184	4705	1330	-4911	16.67983	15.35161	48.25928	0	12.08	4004	0	0	0	0	1.058154	-0.05964256	1	20	0.001	120
68259	2405	1996	-2611	16.6823	13.85608	52.09815	0	12.08	4003	0	0	0	0	1.058154	-0.05439713	1	20	0.001	120
68360	1439	2905	-2996	14.46714	13.41766	54.84521	0	12.08	4003	0	0	0	0	1.058154	-0.02952577	1	20	0.001	120
68473	4506	5784	-40	14.41825	7.151035	61.17686	0	12.08	4004	0	0	0	0	1.058154	0.007409726	1	20	0.001	120
68598	1186	6987	5510	13.3487	3.942762	56.21476	0	12.08	4002	0	0	0	0	1.058154	0.0631966	1	20	0.001	120
68667	-1609	4464	7219	8.915734	3.039561	49.03688	0	12.08	4003	0	0	0	0	1.058154	0.09748323	1	20	0.001	120
68852	-958	-944	-5018	-11.52413	6.945633	40.09128	0	12.08	4003	0	0	0	0	1.058154	0.2161206	1	20	0.001	120
68930	-2034	-5115	-8022	-16.36296	19.05555	52.26308	0	12.08	4004	0	0	0	0	1.058154	0.2509326	1	20	0.001	120
69022	-1896	-6131	-5003	-19.51289	32.44223	62.82037	0	12.14	4002	0	0	0	0	1.058154	0.2960937	1	20	0.001	120
69065	610	-5555	-4502	-18.87391	36.7506	65.37935	0	12.14	4003	0	0	0	0	1.058154	0.31734	1	20	0.001	120
69207	3947	7621	-11936	-2.175726	36.84006	83.56515	0	12.14	4002	0	0	0	0	1.058154	0.3622426	1	20	0.001	120
69269	4419	11048	-13434	10.49978	28.77164	97.65038	0	12.14	4003	0	0	0	0	1.058154	0.3843853	1	20	0.001	120
69374	1307	8410	-13925	22.64536	10.68941	120.7199	0	12.14	4003	0	0	0	0	1.058154	0.406894	1	20	0.001	120
69482	-1628	9098	-11690	24.58065	-6.838085	143.0693	0	12.14	4003	0	0	0	0	1.058154	0.4338735	1	20	0.001	120
69584	-1284	9005	-3753	17.84055	-19.83013	156.7242	0	12.14	4003	0	0	0	0	1.058154	0.4670228	1	20	0.001	120
69766	406	-973	108	21.96452	-20.49101	156.1896	0	12.14	4003	0	0	0	0	1.058154	0.4944211	1	20	0.001	120
69868	-295	493	-1916	23.78803	-18.597	156.972	0	12.14	4002	0	0	0	0	1.058154	0.5126184	1	20	0.001	120
69938	-1004	1198	-1241	24.06141	-17.96745	158.8707	0	12.14	4003	0	0	0	0	1.058154	0.5227088	1	20	0.001	120
70013	-512	931	-863	24.4373	-17.69905	160.0166	0	12.14	4003	0	0	0	0	1.058154	0.5321553	1	20	0.001	120
70163	-830	946	-695	33.55454	-14.08297	158.053	0	12.14	4002	0	0	0	0	1.058154	0.5496734	1	20	0.001	120
70190	-830	946	-695	33.55454	-14.08297	158.053	0	12.14	4002	0	0	0	0	1.058154	0.5543852	1	20	0.001	120
70347	-2240	-1975	-416	31.12849	-8.770161	160.1743	0	12.14	4004	0	0	0	0	1.058154	0.5708595	1	20	0.001	120
70397	-3250	-2109	-1774	30.12597	-7.408383	160.7917	0	12.14	4004	0	0	0	0	1.058154	0.5749055	1	20	0.001	120
70533	-9727	-32	-6851	15.76917	-5.745919	172.7963	0	12.14	4002	0	0	0	0	1.058154	0.5910021	1	20	0.001	120
70621	-4471	1300	-3054	4.39333	-9.803241	180.6682	0	12.14	4004	0	0	0	0	1.058154	0.5966262	1	20	0.001	120
70731	-3041	-3326	-2669	-0.4773948	-7.250613	183.6897	0	12.14	4003	0	0	0	0	1.058154	0.6011612	1	20	0.001	120
70863	-107	-3902	-1712	-3.061305	-0.1070067	187.9206	0	12.14	4003	0	0	0	0	1.058154	0.6002355	1	20	0.001	120
71058	-365	-1651	305	2.304223	14.81415	189.7118	0	12.08	4003	0	0	0	0	1.058154	0.5975325	1	20	0.001	120
71127	-199	57	-541	1.306494	15.26666	190.3562	0	12.08	4003	0	0	0	0	1.058154	0.5949289	1	20	0.001	120
71232	806	-365	-192	3.004097	16.68995	189.4478	0	12.08	4003	0	0	0	0	1.058154	0.5988306	1	20	0.001	120
71339	-1036	-352	-611	2.984497	17.38616	190.7298	0	12.08	4004	0	0	0	0	1.058154	0.5991294	1	20	0.001	120
71385	-1426	595	-817	2.575711	17.55818	191.1686	0	12.08	4003	0	0	0	0	1.058154	0.5983831	1	20	0.001	120
71489	-1642	2121	-521	1.349627	16.13851	191.8787	0	12.08	4003	0	0	0	0	1.058154	0.5950995	1	20	0.001	120
71606	211	1006	10	-0.01235633	11.43946	192.4718	0	12.08	4004	0	0	0	0	1.058154	0.5885441	1	20	0.001	120
71696	120	-363	-53	0.2219568	10.52918	192.749	0	12.08	4004	0	0	0	0	1.058154	0.5875227	1	20	0.001	120
71789	81	494	-40	0.7828741	11.24363	192.4492	0	12.08	4002	0	0	0	0	1.058154	0.5865214	1	20	0.001	120
71936	189	-235	646	0.8641247	10.82792	193.5378	0	12.08	4002	0	0	0	0	1.058154	0.5925962	1	20	0.001	120
72007	380	-156	124	2.549117	12.24976	192.8803	0	12.08	4003	0	0	0	0	1.058154	0.5928507	1	20	0.001	120
72130	96	-446	-222	2.46287	11.89283	192.8364	0	12.08	4003	0	0	0	0	1.058154	0.6019347	1	20	0.001	120
72222	1211	-1115	766	3.485084	13.56689	191.7115	0	12.08	4004	0	0	0	0	1.058154	0.6035404	1	20	0.001	120
72307	955	-1012	629	4.593225	14.86229	190.9195	0	12.08	4003	0	0	0	0	1.058154	0.6057985	1	20	0.001	120
72435	-49	-746	-274	5.015215	16.43611	190.6298	0	12.08	4002	0	0	0	0	1.058154	0.6088222	1	20	0.001	120
72502	-1234	399	-1018	4.583027	16.65469	191.3253	0	12.08	4004	0	0	0	0	1.058154	0.6121668	1	20	0.001	120
72623	-2953	3488	-157	1.915542	14.04125	192.7776	0	12.08	4004	0	0	0	0	1.058154	0.6227997	1	20	0.001	120
72705	-4901	4890	-240	-1.921757	9.593438	192.8654	0	12.08	4004	0	0	0	0	1.058154	0.6263617	1	20	0.001	120
72860	1864	-203	1460	-10.27601	0.5029007	193.2019	0	12.14	4003	0	0	0	0	1.058154	0.6162462	1	20	0.001	120
72933	6775	-2748	1819	-5.851262	1.77962	191.1949	0	12.14	4002	0	0	0	0	1.058154	0.60932	1	20	0.001	120
73041	8613	-3084	1223	7.542175	6.747535	188.0409	0	12.14	4003	0	0	0	0	1.058154	0.5988433	1	20	0.001	120
73116	4488	-1304	-1500	21.38715	9.636487	188.9859	0	12.14	4002	0	0	0	0	1.058154	0.5880401	1	20	0.001	120
73220	4200	-607	-1402	24.01987	9.793745	189.8021	0	12.14	4004	0	0	0	0	1.058154	0.5834298	1	20	0.001	120
73322	2727	1132	1452	35.62739	8.487076	189.407	0	12.14	4003	0	0	0	0	1.058154	0.5845338	1	20	0.001	120
73418	2129	1327	2506	37.94186	8.281283	187.0985	0	12.14	4002	0	0	0	0	1.058154	0.5843763	1	20	0.001	120
73523	2725	347	-124	42.82968	7.895037	184.7053	0	12.14	4002	0	0	0	0	1.058154	0.583613	1	20	0.001	120
73628	4905	2677	-1320	48.82682	4.160023	185.0699	0	12.14	4002	0	0	0	0	1.058154	0.5760214	1	20	0.001	120
73853	-2194	663	-1566	51.29161	-12.85082	197.1343	0	12.14	4002	0	0	0	0	1.058154	0.5428349	1	20	0.001	120
73976	-3005	1570	-2242	43.56824	-16.90864	201.0696	0	12.14	4003	0	0	0	0	1.058154	0.5251815	1	20	0.001	120
74024	-3421	1222	-2702	41.62422	-18.05867	202.4667	0	12.14	4003	0	0	0	0	1.058154	0.5157601	1	20	0.001	120
74181	-6764	1122	-2446	28.27674	-23.61287	207.058	0	12.14	4002	0	0	0	0	1.058154	0.4854587	1	20	0.001	120
74291	-5201	-2381	-2087	7.195642	-19.5794	214.636	0	12.14	4002	0	0	0	0	1.058154	0.4505115	1	20	0.001	120
74326	-3531	-544	-671	4.652715	-18.80235	215.3523	0	12.14	4004	0	0	0	0	1.058154	0.4357267	1	20	0.001	120
74481	-1553	-5026	-596	0.2444467	-13.4246	214.8217	0	12.14	4003	0	0	0	0	1.058154	0.3870586	1	20	0.001	120
74549	-212	-5905	-2974	-1.074568	-6.282646	216.836	0	12.14	4003	0	0	0	0	1.058154	0.3721486	1	20	0.001	120
74735	-437	739	-3512	-1.411123	-0.9714082	226.9886	0	12.14	4003	0	0	0	0	1.058154	0.2988778	1	20	0.001	120
74774	289	1170	-1829	-1.625432	-2.716859	230.0011	0	12.14	4004	0	0	0	0	1.058154	0.2840163	1	20	0.001	120
74837	288	819	579	0.3204455	-2.777054	230.7141	0	12.14	4002	0	0	0	0	1.058154	0.2692304	1	20	0.001	120
74994	22	2	-17	0.3099025	-2.683051	230.5319	0	12.14	4004	0	0	0	0	1.058154	0.2340339	1	20	0.001	120
75053	28	-1	7	0.3110417	-2.4653	230.532	0	12.14	4003	0	0	0	0	1.058154	0.2162016	1	20	0.001	120
75148	31	-3	-2	0.3161101	-2.179352	230.5331	0	12.14	4004	0	0	0	0	1.058154	0.194859	1	20	0.001	120
75282	23	-2	-4	0.3092993	-1.925601	230.5315	0	12.14	4003	0	0	0	0	1.058154	0.1651753	1	20	0.001	120
75357	27	4	0	0.3138292	-1.703857	230.5316	0	12.14	4002	0	0	0	0	1.058154	0.1503993	1	20	0.001	120
75469	29	-5	0	0.3136908	-1.511241	230.5305	0	12.14	4003	0	0	0	0	1.058154	0.1309096	1	20	0.001	120
75555	30	-3	2	0.3098474	-1.397565	230.5301	0	12.19	4004	0	0	0	0	1.058154	0.1165984	1	20	0.001	120
75683	27	1	2	0.3044365	-1.195985	230.5285	0	12.19	4002	0	0	0	0	1.058154	0.1019571	1	20	0.001	120
75786	32	-4	-4	0.3046103	-1.070084	230.5282	0	12.19	4002	0	0	0	0	1.058154	0.08097339	1	20	0.001	120
75865	31	-3	1	0.305541	-0.9568587	230.5285	0	12.19	4003	0	0	0	0	1.058154	0.06203107	1	20	0.001	120
76019	29	0	5	0.3072339	-0.8088386	230.5248	0	12.19	4004	0	0	0	0	1.058154	0.05182871	1	20	0.001	120
76113	33	4	-4	0.3018816	-0.7250397	230.5254	0	12.19	4004	0	0	0	0	1.058154	0.04448292	1	20	0.001	120
76208	28	-1	1	0.3016177	-0.6778479	230.5256	0	12.19	4002	0	0	0	0	1.058154	0.03247047	1	20	0.001	120
76278	24	-3	0	0.3036116	-0.6144038	230.5256	0	12.19	4003	0	0	0	0	1.058154	0.02381445	1	20	0.001	120
76423	31	1	4	0.29871	-0.5458509	230.5235	0	12.19	4003	0	0	0	0	1.058154	0.008068107	1	20	0.001	120
76543	27	0	5	0.3038813	-0.5033733	230.5223	0	12.14	4003	0	0	0	0	1.058154	-0.004715938	1	20	0.001	120
76671	34	0	-3	0.2915405	-0.4488033	230.523	0	12.14	4004	0	0	0	0	1.058154	-0.01981805	1	20	0.001	120
76757	33	-1	-1	0.2946624	-0.4285364	230.5217	0	12.14	4002	0	0	0	0	1.058154	-0.02774575	1	20	0.001	120
76806	29	0	0	0.2967591	-0.4132577	230.5221	0	12.14	4002	0	0	0	0	1.058154	-0.02981432	1	20	0.001	120
76876	26	-2	-2	0.2974375	-0.3904136	230.521	0	12.14	4003	0	0	0	0	1.058154	-0.04214771	1	20	0.001	120
77020	33	-3	0	0.3009966	-0.3568038	230.5215	0	12.14	4002	0	0	0	0	1.058154	-0.05213599	1	20	0.001	120
77083	31	0	1	0.3043602	-0.3414241	230.5218	0	12.14	4003	0	0	0	0	1.058154	-0.06328206	1	20	0.001	120
77174	34	1	-1	0.3048295	-0.3187653	230.5224	0	12.14	4004	0	0	0	0	1.058154	-0.07635351	1	20	0.001	120
77306	36	0	0	0.3199008	-0.2950242	230.5212	0	12.14	4004	0	0	0	0	1.058154	-0.09864943	1	20	0.001	120
77363	34	2	0	0.3231327	-0.285567	230.5212	0	12.14	4002	0	0	0	0	1.058154	-0.09874897	1	20	0.001	120
77471	34	-1	0	0.3311308	-0.2755763	230.5219	0	12.14	4004	0	0	0	0	1.058154	-0.09756504	1	20	0.001	120
77579	31	-3	-4	0.3358175	-0.263658	230.523	0	12.14	4002	0	0	0	0	1.058154	-0.09920551	1	20	0.001	120
77659	33	-2	1	0.3420494	-0.2527685	230.5254	0	12.14	4003	0	0	0	0	1.058154	-0.1026497	1	20	0.001	120
77763	34	-4	2	0.3499687	-0.2429542	230.5265	0	12.14	4004	0	0	0	0	1.058154	-0.1100171	1	20	0.001	120
77919	32	-4	-3	0.3522591	-0.2356055	230.5282	0	12.14	4004	0	0	0	0	1.058154	-0.115916	1	20	0.001	120
78084	28	0	0	0.3587787	-0.2248414	230.5309	0	12.14	4004	0	0	0	0	1.058154	-0.1117314	1	20	0.001	120
78187	36	-3	1	0.3564341	-0.2166429	230.5326	0	12.14	4003	0	0	0	0	1.058154	-0.1093637	1	20	0.001	120
78299	38	-3	3	0.3613895	-0.2102613	230.5336	0	12.14	4002	0	0	0	0	1.058154	-0.1088819	1	20	0.001	120
78367	34	1	1	0.3614681	-0.2140147	230.5327	0	12.14	4003	0	0	0	0	1.058154	-0.1053469	1	20	0.001	120
78467	34	0	-1	0.3626979	-0.2140108	230.5329	0	12.14	4004	0	0	0	0	1.058154	-0.09937306	1	20	0.001	120
78588	37	-3	1	0.3714016	-0.2150343	230.5357	0	12.14	4004	0	0	0	0	1.058154	-0.09092394	1	20	0.001	120
78721	37	-2	-6	0.3763475	-0.2013224	230.5353	0	12.14	4004	0	0	0	0	1.058154	-0.09299752	1	20	0.001	120
78826	38	-4	-7	0.3834789	-0.2013017	230.537	0	12.14	4003	0	0	0	0	1.058154	-0.09829129	1	20	0.001	120
78872	38	0	-1	0.3887312	-0.2010755	230.5378	0	12.14	4003	0	0	0	0	1.058154	-0.1044412	1	20	0.001	120
78969	38	-8	0	0.3931695	-0.1975095	230.5377	0	12.14	4002	0	0	0	0	1.058154	-0.1056836	1	20	0.001	120
79079	33	-4	0	0.3955919	-0.1924334	230.5389	0	12.14	4003	0	0	0	0	1.058154	-0.1070234	1	20	0.001	120
79212	32	-7	2	0.39497	-0.1964812	230.5413	0	12.14	4002	0	0	0	0	1.058154	-0.1031938	1	20	0.001	120
79305	41	5	0	0.3922666	-0.197241	230.5426	0	12.14	4002	0	0	0	0	1.058154	-0.09893415	1	20	0.001	120
79416	37	0	0	0.404001	-0.2008335	230.5411	0	12.14	4002	0	0	0	0	1.058154	-0.0908746	1	20	0.001	120
79512	33	-1	0	0.4126058	-0.2016584	230.5409	0	12.14	4004	0	0	0	0	1.058154	-0.08274883	1	20	0.001	120
79579	38	-9	-2	0.416473	-0.1944974	230.5434	0	12.14	4003	0	0	0	0	1.058154	-0.07533137	1	20	0.001	120
79702	36	-8	1	0.4183489	-0.1920262	230.5437	0	12.14	4003	0	0	0	0	1.058154	-0.06775059	1	20	0.001	120
79822	37	-1	-3	0.4192624	-0.1906678	230.5431	0	12.14	4003	0	0	0	0	1.058154	-0.06484497	1	20	0.001	120
79883	40	-5	-1	0.4186585	-0.1866339	230.545	0	12.14	4004	0	0	0	0	1.058154	-0.06716084	1	20	0.001	120
79962	36	-2	0	0.417384	-0.1858089	230.5452	0	12.14	4004	0	0	0	0	1.058154	-0.07022972	1	20	0.001	120
80060	36	0	-1	0.4069064	-0.1858353	230.5478	0	12.19	4002	0	0	0	0	1.058154	-0.07888699	1	20	0.001	120
80082	37	0	1	0.4047387	-0.1829154	230.5486	0	12.19	4002	0	0	0	0	1.058154	-0.07967862	1	20	0.001	120
80172	41	-8	0	0.4086722	-0.1824876	230.551	0	12.19	4003	0	0	0	0	1.058154	-0.07854961	1	20	0.001	120
80339	36	-7	-1	0.407443	-0.1791788	230.5516	0	12.19	4003	0	0	0	0	1.058154	-0.08091938	1	20	0.001	120
80392	37	3	0	0.4120572	-0.1811357	230.5519	0	12.19	4004	0	0	0	0	1.058154	-0.08019882	1	20	0.001	120
80514	42	1	-5	0.4051583	-0.1865975	230.5539	0	12.19	4003	0	0	0	0	1.058154	-0.08445805	1	20	0.001	120
80581	34	-4	-1	0.4080305	-0.1865743	230.5551	0	12.19	4002	0	0	0	0	1.058154	-0.09147932	1	20	0.001	120
80803	46	4	-2	0.4059912	-0.1871442	230.5574	0	12.19	4003	0	0	0	0	1.058154	-0.09432888	1	20	0.001	120
80875	39	5	-1	0.4174424	-0.1852869	230.5583	0	12.19	4004	0	0	0	0	1.058154	-0.09547538	1	20	0.001	120
80938	34	-4	0	0.4197398	-0.1842481	230.5578	0	12.19	4004	0	0	0	0	1.058154	-0.09320331	1	20	0.001	120
81041	38	0	-5	0.4146594	-0.1851415	230.5594	0	12.19	4003	0	0	0	0	1.058154	-0.09054288	1	20	0.001	120
81238	27	-1	0	0.4178003	-0.1965009	230.5614	0	12.19	4002	0	0	0	0	1.058154	-0.09333769	1	20	0.001	120
81283	37	0	-2	0.414665	-0.1963786	230.5624	0	12.19	4004	0	0	0	0	1.058154	-0.09342281	1	20	0.001	120
81340	42	-2	-3	0.4155549	-0.1984096	230.5644	0	12.19	4002	0	0	0	0	1.058154	-0.09151717	1	20	0.001	120
81546	36	-3	0	0.4159788	-0.1963341	230.5644	0	12.19	4004	0	0	0	0	1.058154	-0.08976296	1	20	0.001	120
81589	42	-4	0	0.4205767	-0.1961693	230.565	0	12.19	4003	0	0	0	0	1.058154	-0.09064873	1	20	0.001	120
81642	36	-8	1	0.4213031	-0.1943702	230.5665	0	12.19	4003	0	0	0	0	1.058154	-0.09245855	1	20	0.001	120
81740	38	-3	-2	0.4243054	-0.1976332	230.5677	0	12.19	4004	0	0	0	0	1.058154	-0.0895706	1	20	0.001	120
81933	43	-6	0	0.429839	-0.1942575	230.5693	0	12.14	4010	0	0	0	0	1.058154	-0.08284998	1	20	0.001	120
82021	39	2	-6	0.4322811	-0.2005949	230.571	0	12.14	4004	0	0	0	0	1.058154	-0.08008426	1	20	0.001	120
82064	40	5	-1	0.4342591	-0.2019821	230.5714	0	12.14	4003	0	0	0	0	1.058154	-0.0819791	1	20	0.001	120
82167	41	-1	1	0.4329064	-0.2078515	230.5738	0	12.14	4003	0	0	0	0	1.058154	-0.08804385	1	20	0.001	120
82297	42	-6	0	0.4307137	-0.2095845	230.574	0	12.14	4003	0	0	0	0	1.058154	-0.09016393	1	20	0.001	120
82338	34	-2	-1	0.4349229	-0.2063677	230.575	0	12.14	4002	0	0	0	0	1.058154	-0.09101967	1	20	0.001	120
82424	40	-5	3	0.4364449	-0.205803	230.5758	0	12.14	4004	0	0	0	0	1.058154	-0.09542955	1	20	0.001	120
82570	44	0	1	0.4345432	-0.2078585	230.5771	0	12.14	4002	0	0	0	0	1.058154	-0.09935176	1	20	0.001	120
82665	40	0	-4	0.4391506	-0.2024681	230.5778	0	12.14	4003	0	0	0	0	1.058154	-0.09626673	1	20	0.001	120
82760	37	-6	-2	0.4398119	-0.2042124	230.5795	0	12.14	4004	0	0	0	0	1.058154	-0.09377612	1	20	0.001	120
82821	34	1	-1	0.4400764	-0.2030236	230.5813	0	12.14	4003	0	0	0	0	1.058154	-0.09179156	1	20	0.001	120
82924	45	-1	0	0.434853	-0.2073369	230.582	0	12.14	4003	0	0	0	0	1.058154	-0.08968446	1	20	0.001	120
83027	35	-2	2	0.4369984	-0.2035974	230.582	0	12.14	4004	0	0	0	0	1.058154	-0.09136473	1	20	0.001	120
83166	49	0	0	0.4397659	-0.2051642	230.5834	0	12.14	4004	0	0	0	0	1.058154	-0.08911347	1	20	0.001	120
83260	36	-3	-6	0.446983	-0.2066476	230.5873	0	12.14	4003	0	0	0	0	1.058154	-0.09156293	1	20	0.001	120
83303	40	0	1	0.4468558	-0.2073425	230.5886	0	12.14	4003	0	0	0	0	1.058154	-0.09315737	1	20	0.001	120
83428	43	-2	0	0.4535841	-0.2111462	230.5889	0	12.14	4004	0	0	0	0	1.058154	-0.1021406	1	20	0.001	120
83546	42	-8	3	0.460619	-0.2124286	230.5915	0	12.14	4004	0	0	0	0	1.058154	-0.1075566	1	20	0.001	120
83610	43	1	-2	0.4610029	-0.2113131	230.5929	0	12.14	4004	0	0	0	0	1.058154	-0.1083182	1	20	0.001	120
83713	45	-4	2	0.4671511	-0.2100999	230.5962	0	12.14	4003	0	0	0	0	1.058154	-0.1059508	1	20	0.001	120
83853	39	-6	0	0.4643921	-0.2052679	230.5991	0	12.14	4003	0	0	0	0	1.058154	-0.1067949	1	20	0.001	120
83956	43	-3	-9	0.4678811	-0.2023209	230.6011	0	12.14	4002	0	0	0	0	1.058154	-0.1053511	1	20	0.001	120
84013	42	-2	-3	0.4690399	-0.2001021	230.6024	0	12.14	4003	0	0	0	0	1.058154	-0.1058526	1	20	0.001	120
84154	45	2	0	0.4750309	-0.2055666	230.6054	0	12.14	4004	0	0	0	0	1.058154	-0.1106763	1	20	0.001	120
84230	45	1	0	0.4794306	-0.2122888	230.6085	0	12.14	4004	0	0	0	0	1.058154	-0.1127792	1	20	0.001	120
84332	47	-6	-1	0.4909477	-0.207314	230.6108	0	12.14	4004	0	0	0	0	1.058154	-0.1111617	1	20	0.001	120
84435	44	-7	1	0.490957	-0.2084536	230.6143	0	12.14	4003	0	0	0	0	1.058154	-0.1086334	1	20	0.001	120
84608	42	-3	1	0.4948412	-0.2116721	230.6183	0	12.14	4003	0	0	0	0	1.058154	-0.09989384	1	20	0.001	120
84724	43	-9	-1	0.4972283	-0.2147412	230.6218	0	12.14	4003	0	0	0	0	1.058154	-0.09665363	1	20	0.001	120
84905	41	-3	-2	0.5035442	-0.213569	230.6286	0	12.14	4003	0	0	0	0	1.058154	-0.0878612	1	20	0.001	120
85034	48	-3	-1	0.5090238	-0.2082781	230.6317	0	12.14	4004	0	0	0	0	1.058154	-0.08627985	1	20	0.001	120
85143	44	-7	-1	0.5079401	-0.2115632	230.6338	0	12.14	4003	0	0	0	0	1.058154	-0.0835689	1	20	0.001	120
85229	50	-8	-5	0.5025678	-0.2106513	230.6365	0	12.14	4002	0	0	0	0	1.058154	-0.08144281	1	20	0.001	120
85298	45	1	-5	0.5009833	-0.2100469	230.6388	0	12.14	4003	0	0	0	0	1.058154	-0.08140577	1	20	0.001	120
85411	45	-7	-2	0.5099266	-0.2135652	230.6416	0	12.14	4002	0	0	0	0	1.058154	-0.07774046	1	20	0.001	120
85490	47	0	-2	0.5162785	-0.2100207	230.6435	0	12.14	4002	0	0	0	0	1.058154	-0.08324806	1	20	0.001	120
85605	46	-4	-1	0.5234779	-0.2043244	230.646	0	12.14	4003	0	0	0	0	1.058154	-0.09422346	1	20	0.001	120
85708	48	1	-5	0.5281658	-0.2113274	230.6478	0	12.14	4003	0	0	0	0	1.058154	-0.1073542	1	20	0.001	120
85802	51	0	-3	0.5343758	-0.2039209	230.6508	0	12.14	4003	0	0	0	0	1.058154	-0.119466	1	20	0.001	120
85910	44	-6	-5	0.5419975	-0.201542	230.6537	0	12.14	4002	0	0	0	0	1.058154	-0.1415708	1	20	0.001	120
86025	52	-4	-5	0.5388685	-0.2096382	230.6597	0	12.14	4003	0	0	0	0	1.058154	-0.1517866	1	20	0.001	120
86181	46	-2	0	0.5503083	-0.2102299	230.6631	0	12.14	4002	0	0	0	0	1.058154	-0.1729551	1	20	0.001	120
86231	42	-3	-2	0.5494097	-0.2100096	230.6645	0	12.14	4004	0	0	0	0	1.058154	-0.1745493	1	20	0.001	120
86311	48	0	1	0.5484871	-0.2098349	230.6639	0	12.14	4003	0	0	0	0	1.058154	-0.1751292	1	20	0.001	120
86452	47	0	-1	0.5420806	-0.2094766	230.6683	0	12.19	4003	0	0	0	0	1.058154	-0.1830343	1	20	0.001	120
86517	47	-6	-4	0.5419763	-0.2090459	230.6693	0	12.19	4004	0	0	0	0	1.058154	-0.1814044	1	20	0.001	120
86620	47	-1	0	0.5411574	-0.2138453	230.6717	0	12.19	4003	0	0	0	0	1.058154	-0.1843666	1	20	0.001	120
86781	46	-3	2	0.5433504	-0.2145856	230.6734	0	12.19	4003	0	0	0	0	1.058154	-0.1880607	1	20	0.001	120
86849	49	-1	-4	0.5396028	-0.207859	230.6753	0	12.19	4003	0	0	0	0	1.058154	-0.1839278	1	20	0.001	120
86973	48	-4	0	0.5423562	-0.2040777	230.6786	0	12.19	4004	0	0	0	0	1.058154	-0.1797926	1	20	0.001	120
87044	49	-8	-3	0.5451593	-0.2059707	230.6805	0	12.19	4003	0	0	0	0	1.058154	-0.1756042	1	20	0.001	120
87140	52	-11	-4	0.5434632	-0.2011745	230.6814	0	12.19	4003	0	0	0	0	1.058154	-0.1767337	1	20	0.001	120
87245	47	0	0	0.5487981	-0.2059313	230.6863	0	12.19	4004	0	0	0	0	1.058154	-0.1800286	1	20	0.001	120
87394	52	0	-1	0.5502639	-0.2040629	230.6894	0	12.08	4004	0	0	0	0	1.058154	-0.1824906	1	20	0.001	120
87535	48	2	-1	0.5582381	-0.2046883	230.6919	0	12.08	4004	0	0	0	0	1.058154	-0.1871769	1	20	0.001	120
87630	47	-4	-1	0.5540271	-0.2035153	230.6947	0	12.08	4003	0	0	0	0	1.058154	-0.1929286	1	20	0.001	120
87718	46	-5	-2	0.5648836	-0.200474	230.6979	0	12.08	4002	0	0	0	0	1.058154	-0.1930239	1	20	0.001	120
87783	48	0	-1	0.5686371	-0.206507	230.6995	0	12.08	4003	0	0	0	0	1.058154	-0.2007079	1	20	0.001	120
87849	50	0	-2	0.5698857	-0.2087254	230.7038	0	12.08	4004	0	0	0	0	1.058154	-0.202467	1	20	0.001	120
87907	48	-1	0	0.5720756	-0.2056547	230.7049	0	12.08	4002	0	0	0	0	1.058154	-0.2054452	1	20	0.001	120
88016	46	0	0	0.573551	-0.2093968	230.7066	0	12.08	4002	0	0	0	0	1.058154	-0.2049837	1	20	0.001	120
88260	49	-5	1	0.5711121	-0.2134673	230.7151	0	12.19	4004	0	0	0	0	1.058154	-0.184443	1	20	0.001	120
88386	53	-5	-4	0.5748506	-0.210097	230.7195	0	12.19	4003	0	0	0	0	1.058154	-0.183754	1	20	0.001	120
88516	50	-4	-1	0.5840359	-0.2100262	230.722	0	12.19	4003	0	0	0	0	1.058154	-0.1832929	1	20	0.001	120
88630	53	-2	-1	0.5986912	-0.2179546	230.7266	0	12.19	4003	0	0	0	0	1.058154	-0.186232	1	20	0.001	120
88802	47	-3	-2	0.5998041	-0.2144545	230.7355	0	12.19	4003	0	0	0	0	1.058154	-0.1972444	1	20	0.001	120
88911	48	-6	-7	0.5932553	-0.2176872	230.7395	0	12.19	4004	0	0	0	0	1.058154	-0.1888506	1	20	0.001	120
89098	49	4	-4	0.5941458	-0.2111459	230.7482	0	12.19	4003	0	0	0	0	1.058154	-0.1804332	1	20	0.001	120
89202	57	-6	-4	0.600255	-0.212142	230.7528	0	12.19	4004	0	0	0	0	1.058154	-0.1782642	1	20	0.001	120
89373	49	-2	0	0.6045272	-0.2153314	230.7615	0	12.19	4004	0	0	0	0	1.058154	-0.1602803	1	20	0.001	120
89457	60	-1	0	0.6090072	-0.2104966	230.7651	0	12.19	4002	0	0	0	0	1.058154	-0.1572567	1	20	0.001	120
89506	55	-2	3	0.6147833	-0.2127745	230.7678	0	12.19	4004	0	0	0	0	1.058154	-0.1580956	1	20	0.001	120
89699	57	-5	-4	0.6151509	-0.2017474	230.7721	0	12.19	4002	0	0	0	0	1.058154	-0.1621633	1	20	0.001	120
89827	51	-1	-2	0.6164488	-0.2095532	230.78	0	12.19	4002	0	0	0	0	1.058154	-0.1734772	1	20	0.001	120
89877	50	-3	2	0.6209005	-0.2103984	230.783	0	12.19	4003	0	0	0	0	1.058154	-0.1751697	1	20	0.001	120
90054	60	-6	-3	0.6226446	-0.2091925	230.7915	0	12.19	4003	0	0	0	0	1.058154	-0.1836599	1	20	0.001	120
90139	56	-2	-2	0.6250321	-0.2158959	230.7944	0	12.19	4004	0	0	0	0	1.058154	-0.1866086	1	20	0.001	120
90182	54	-6	-2	0.6211873	-0.2186729	230.7953	0	12.19	4002	0	0	0	0	1.058154	-0.1869879	1	20	0.001	120
90335	54	1	1	0.6282369	-0.2254808	230.7966	0	12.19	4002	0	0	0	0	1.058154	-0.186722	1	20	0.001	120
90421	60	-2	1	0.6619711	-0.2217273	230.8005	0	12.19	4003	0	0	0	0	1.058154	-0.1869718	1	20	0.001	120
90518	53	-2	-3	0.6563908	-0.2184762	230.8046	0	12.19	4004	0	0	0	0	1.058154	-0.1862374	1	20	1E-05	120
90614	52	-8	-6	0.6854777	-0.2095074	230.8081	0	12.19	4003	0	0	0	0	1.058154	-0.1856423	1	20	1E-05	120
90666	49	-9	-3	0.686402	-0.2075007	230.8097	0	12.19	4004	0	0	0	0	1.058154	-0.1852596	1	20	1E-05	120
90794	56	2	-5	0.6754849	-0.2192483	230.8126	0	12.19	4003	0	0	0	0	1.058154	-0.1906375	1	20	1E-05	120
90864	58	-8	-1	0.6765631	-0.2200454	230.8147	0	12.19	4002	0	0	0	0	1.058154	-0.1905634	1	20	1E-05	120
90989	54	-2	-6	0.6737842	-0.2173943	230.821	0	12.19	4003	0	0	0	0	1.058154	-0.182491	1	20	1E-05	120
91117	57	-2	-6	0.6715199	-0.220637	230.8269	0	12.19	4003	0	0	0	0	1.058154	-0.179039	1	20	1E-05	120
91256	55	-5	-2	0.669231	-0.222018	230.8321	0	12.19	4003	0	0	0	0	1.058154	-0.185217	1	20	1E-05	120
91333	61	-4	0	0.6701745	-0.2252638	230.8346	0	12.19	4004	0	0	0	0	1.058154	-0.1882264	1	20	1E-05	120
91419	58	-3	3	0.6731144	-0.2262601	230.8382	0	12.19	4004	0	0	0	0	1.058154	-0.1916389	1	20	1E-05	120
91496	54	-5	3	0.6765565	-0.2315327	230.8399	0	12.19	4003	0	0	0	0	1.058154	-0.1908311	1	20	1E-05	120
91553	55	-2	2	0.680351	-0.2317831	230.8417	0	12.19	4003	0	0	0	0	1.058154	-0.186739	1	20	1E-05	120
91636	54	0	-3	0.6821542	-0.231732	230.844	0	12.19	4004	0	0	0	0	1.058154	-0.1846182	1	20	1E-05	120
91764	55	0	-8	0.6831452	-0.2281519	230.8493	0	12.14	4003	0	0	0	0	1.058154	-0.175891	1	20	1E-05	120
91820	60	3	0	0.6840966	-0.232058	230.8503	0	12.14	4003	0	0	0	0	1.058154	-0.1700449	1	20	1E-05	120
91956	58	-4	-4	0.6843423	-0.2273901	230.8556	0	12.14	4004	0	0	0	0	1.058154	-0.1563054	1	20	1E-05	120
92047	55	0	0	0.6831374	-0.224267	230.8609	0	12.14	4002	0	0	0	0	1.058154	-0.1546029	1	20	1E-05	120
92178	60	1	-2	0.6780154	-0.2254225	230.8627	0	12.14	4002	0	0	0	0	1.058154	-0.1435389	1	20	1E-05	120
92313	55	-4	-6	0.6833313	-0.2207905	230.8692	0	12.14	4002	0	0	0	0	1.058154	-0.1308019	1	20	1E-05	120
92386	59	0	0	0.6814147	-0.2222354	230.8718	0	12.14	4003	0	0	0	0	1.058154	-0.1238492	1	20	1E-05	120
92457	52	-4	-2	0.6818168	-0.2205712	230.8761	0	12.14	4003	0	0	0	0	1.058154	-0.1195928	1	20	1E-05	120
92523	57	-5	-2	0.682271	-0.2159852	230.877	0	12.14	4004	0	0	0	0	1.058154	-0.1160619	1	20	1E-05	120
92604	63	4	1	0.6815816	-0.2167377	230.8799	0	12.14	4003	0	0	0	0	1.058154	-0.1109123	1	20	1E-05	120
92787	56	-3	0	0.6876794	-0.2177351	230.8867	0	12.14	4004	0	0	0	0	1.058154	-0.1039019	1	20	1E-05	120
92826	58	0	0	0.6860837	-0.2149049	230.8872	0	12.14	4002	0	0	0	0	1.058154	-0.1048451	1	20	1E-05	120
92885	60	-4	-7	0.6860836	-0.215896	230.8892	0	12.14	4004	0	0	0	0	1.058154	-0.1085128	1	20	1E-05	120
92984	59	-2	0	0.6888359	-0.2210316	230.8936	0	12.14	4003	0	0	0	0	1.058154	-0.1142995	1	20	1E-05	120
93124	64	2	-3	0.694975	-0.229122	230.8987	0	12.14	4004	0	0	0	0	1.058154	-0.1186096	1	20	1E-05	120
93191	57	-11	0	0.7001439	-0.2363888	230.9013	0	12.14	4003	0	0	0	0	1.058154	-0.1234581	1	20	1E-05	120
93357	61	-5	-4	0.700437	-0.235112	230.9063	0	12.14	4003	0	0	0	0	1.058154	-0.1334099	1	20	1E-05	120
93467	62	-3	-4	0.7037821	-0.2308204	230.9094	0	12.14	4002	0	0	0	0	1.058154	-0.145819	1	20	1E-05	120
93514	51	0	0	0.7051052	-0.2261497	230.9126	0	12.14	4003	0	0	0	0	1.058154	-0.1465858	1	20	1E-05	120
93682	60	-8	-2	0.7067379	-0.2176955	230.9192	0	12.19	4004	0	0	0	0	1.058154	-0.1491484	1	20	1E-05	120
93778	64	-2	-1	0.7085124	-0.2160991	230.9245	0	12.19	4002	0	0	0	0	1.058154	-0.1502711	1	20	1E-05	120
93875	66	-5	-1	0.711521	-0.2148309	230.9278	0	12.19	4002	0	0	0	0	1.058154	-0.1513909	1	20	1E-05	120
93995	61	-2	-2	0.7192765	-0.2170584	230.9326	0	12.19	4002	0	0	0	0	1.058154	-0.1609121	1	20	1E-05	120
94096	65	-1	-2	0.7295492	-0.2124782	230.9388	0	12.19	4003	0	0	0	0	1.058154	-0.1629058	1	20	1E-05	120
94167	67	-5	-6	0.7303498	-0.2129752	230.9404	0	12.19	4002	0	0	0	0	1.058154	-0.1612727	1	20	1E-05	120
