time(ms)	gyro_x(deg/s)	gyro_y(deg/s)	gyro_z(deg/s)	orientation_roll(deg)	orientation_pitch(deg)	orientation_yaw(deg)	throttle	battery(V)	loop_time(uS)	pid_output_roll	pid_output_pitch	pid_output_yaw	pid_output_throttle	ultrasonic_alt	baro_alt	flight_mode	p_gain_altitude	i_gain_altitude	d_gain_altitude
375121	-800	-950	17	-0.9833742	-2.858566	-22.65379	0	9.92	4003	-22	150	-1	0	1.119892	2.877541	3	4	1E-05	900
375289	-146	717	931	-2.603764	-2.145824	-22.3239	0	9.92	4003	-50	204	3	0	1.119893	2.790336	3	4	1E-05	900
375414	754	2525	1043	-0.9504053	-7.171772	-23.18183	0	9.92	4003	11	157	12	0	1.119894	2.726626	3	4	1E-05	900
375465	341	-2326	-847	-0.5669108	-8.682602	-22.83412	0	9.92	4002	249	-349	-4	0	1.119894	2.67664	3	4	1E-05	900
375523	733	1110	475	0.1113271	-8.119485	-22.13252	0	9.92	4003	-249	355	-8	0	1.119894	2.613663	3	4	1E-05	900
375664	-1190	-2469	60	1.073883	-7.837872	-21.36144	0	9.92	4002	58	-185	-30	0	1.119895	2.502631	3	4	1E-05	900
375755	-2335	-3952	-126	-0.9649119	-4.258879	-21.67058	0	9.92	4004	190	-136	-46	0	1.119895	2.443546	3	4	1E-05	900
375880	1954	4303	1950	-0.2506771	-5.992735	-22.53898	0	9.92	4003	-51	-75	1	0	1.119895	2.343601	3	4	1E-05	900
375985	2358	926	237	2.76267	-9.397449	-22.97374	0	10.38	4003	138	-123	-7	0	1.119895	2.243092	3	4	1E-05	900
376095	2052	5016	587	4.218254	-12.23948	-21.96573	0	10.38	4003	-59	170	-18	0	1.119895	2.176044	3	4	1E-05	900
376131	1077	3238	20	4.798295	-14.48586	-21.95339	0	10.38	4003	31	126	-30	0	1.119895	2.144605	3	4	1E-05	900
376246	479	530	731	5.759084	-15.75249	-21.22556	0	10.38	4002	-109	-34	-34	0	1.119895	2.063083	3	4	1E-05	900
376353	676	-1553	321	3.670658	-12.65225	-22.03167	0	10.38	4004	-72	93	-13	0	1.119895	1.984214	3	4	1E-05	900
376492	-963	-128	299	5.030518	-13.09619	-22.56879	0	10.38	4004	31	-91	-9	0	1.119895	1.907972	3	4	1E-05	900
376647	-577	1187	996	3.384482	-11.66344	-21.96704	0	10.38	4003	29	-4	-10	0	1.119895	1.821141	3	4	1E-05	900
376758	191	-131	-776	1.596745	-12.04407	-22.25657	0	10.38	4002	118	-82	-31	0	1.119895	1.738317	3	4	1E-05	900
376916	2939	3539	-913	3.487959	-14.91577	-20.07944	0	10.83	4004	0	0	0	0	1.119895	1.671758	1	4	1E-05	900
376953	3062	4466	-550	4.274879	-16.22187	-19.55343	0	10.83	4003	0	0	0	0	1.119895	1.659697	1	4	1E-05	900
377047	2938	6105	-858	7.313177	-22.15063	-18.26388	0	10.83	4004	0	0	0	0	1.119895	1.602055	1	4	1E-05	900
377181	2391	8192	-506	8.669579	-29.46123	-17.26707	0	10.83	4010	0	0	0	0	1.119895	1.541629	1	4	1E-05	900
377255	4473	7994	-761	11.20549	-35.47508	-16.64468	0	10.83	4002	0	0	0	0	1.119895	1.50435	1	4	1E-05	900
377387	6386	6859	-733	16.8867	-45.63628	-15.29301	0	10.83	4002	0	0	0	0	1.119895	1.421985	1	4	1E-05	900
377573	32564	-15093	-21515	11.71882	-45.42508	10.26075	0	10.83	4003	0	0	0	0	1.119895	1.330808	1	4	1E-05	900
377672	32564	10078	-20826	34.25264	-52.11747	42.86812	0	10.83	4004	0	0	0	0	1.119895	1.159004	1	4	1E-05	900
377822	32564	-7223	-18383	39.65358	-95.96679	88.86002	0	10.89	4002	0	0	0	0	1.119895	1.05855	1	4	1E-05	900
377877	-14670	-6696	-10226	13.84598	-89.32996	104.3597	0	10.89	4003	0	0	0	0	1.119895	0.9108165	1	4	1E-05	900
377982	-2037	3194	-3423	-6.46121	-84.206	115.4568	0	10.89	4002	0	0	0	0	1.119895	0.8354129	1	4	1E-05	900
378186	8810	3135	4907	31.93155	-71.26388	106.4494	0	10.89	4002	0	0	0	0	1.119895	0.6696966	1	4	1E-05	900
378278	7496	950	5614	56.13092	-58.3699	96.4715	0	10.89	4004	0	0	0	0	1.119895	0.6099967	1	4	1E-05	900
378378	454	-132	343	59.29839	-42.30808	93.7012	0	10.89	4002	0	0	0	0	1.119895	0.5700979	1	4	1E-05	900
378481	-1809	459	-483	51.91586	-36.78931	94.20788	0	10.89	4002	0	0	0	0	1.119895	0.5244012	1	4	1E-05	900
378603	-146	17	-197	45.86303	-31.83485	94.80247	0	10.89	4003	0	0	0	0	1.119895	0.4732431	1	4	1E-05	900
378713	15	-11	-2	42.33038	-24.86344	94.75845	0	10.89	4004	0	0	0	0	1.119895	0.445594	1	4	1E-05	900
378844	14	-14	8	39.82939	-20.49145	94.7942	0	10.89	4003	0	0	0	0	1.119895	0.4060409	1	4	1E-05	900
378999	-15	0	1	36.48819	-14.34421	94.79469	0	10.89	4002	0	0	0	0	1.119895	0.3809563	1	4	1E-05	900
379030	-8	-6	1	35.90304	-13.27496	94.79523	0	10.89	4002	0	0	0	0	1.119895	0.3770095	1	4	1E-05	900
379114	-15	-3	-3	34.81112	-11.27683	94.79603	0	10.89	4003	0	0	0	0	1.119895	0.3612005	1	4	1E-05	900
379208	-15	-7	-4	33.34228	-8.599713	94.80054	0	10.89	4004	0	0	0	0	1.119895	0.3485987	1	4	1E-05	900
379318	-11	-5	-3	32.06009	-6.259516	94.80384	0	10.89	4003	0	0	0	0	1.119895	0.3402545	1	4	1E-05	900
379418	-9	-2	0	30.94767	-4.220986	94.80787	0	10.89	4005	0	0	0	0	1.119895	0.3366512	1	4	1E-05	900
379514	-16	0	0	29.98405	-2.435847	94.80927	0	10.89	4004	0	0	0	0	1.119895	0.3371559	1	4	1E-05	900
379624	-12	-8	-3	29.14103	-0.8783453	94.81342	0	10.89	4004	0	0	0	0	1.119895	0.3449478	1	4	1E-05	900
379728	-13	-1	-1	28.39989	0.4786473	94.81568	0	11	4004	0	0	0	0	1.119895	0.3413035	1	4	1E-05	900
379804	-9	-2	-1	27.55449	2.019511	94.82008	0	11	4002	0	0	0	0	1.119895	0.3340938	1	4	1E-05	900
379909	-17	-9	1	27.01725	3.006889	94.82148	0	11	4002	0	0	0	0	1.119895	0.3290378	1	4	1E-05	900
380045	-9	-4	-1	26.406	4.128905	94.82557	0	11	4004	0	0	0	0	1.119895	0.3251571	1	4	1E-05	900
380187	-11	-2	-2	25.90117	5.071254	94.82954	0	11	4002	0	0	0	0	1.119895	0.3170999	1	4	1E-05	900
380244	-9	-2	0	25.68258	5.479692	94.8307	0	11	4002	0	0	0	0	1.119895	0.3164784	1	4	1E-05	900
380315	-9	0	-4	25.47641	5.850293	94.83155	0	11	4003	0	0	0	0	1.119895	0.3155006	1	4	1E-05	900
380494	-17	-6	-1	25.05499	6.644529	94.83576	0	11	4002	0	0	0	0	1.119895	0.3134883	1	4	1E-05	900
380520	-9	-6	0	24.98288	6.783446	94.83619	0	11	4004	0	0	0	0	1.119895	0.316547	1	4	1E-05	900
380689	-7	-3	0	24.71782	7.279157	94.83961	0	10.94	4004	0	0	0	0	1.119895	0.3331979	1	4	1E-05	900
380737	-7	-1	-1	24.60336	7.495879	94.84156	0	10.94	4002	0	0	0	0	1.119895	0.3345994	1	4	1E-05	900
380849	-14	-3	1	24.4489	7.781992	94.84309	0	10.94	4003	0	0	0	0	1.119895	0.328943	1	4	1E-05	900
380932	-6	-6	-4	24.31578	8.034374	94.84565	0	10.94	4004	0	0	0	0	1.119895	0.3237079	1	4	1E-05	900
381037	-4	-3	0	24.20107	8.258594	94.84815	0	10.94	4003	0	0	0	0	1.119895	0.313124	1	4	1E-05	900
381141	-11	0	-3	24.09852	8.445434	94.84876	0	10.94	4002	0	0	0	0	1.119895	0.304968	1	4	1E-05	900
381326	-8	-5	-2	23.95834	8.719821	94.85267	0	10.94	4003	0	0	0	0	1.119895	0.2927086	1	4	1E-05	900
381375	-12	-1	1	23.93625	8.767519	94.85291	0	10.94	4004	0	0	0	0	1.119895	0.2881172	1	4	1E-05	900
381494	-13	3	-5	23.85286	8.931702	94.85633	0	10.94	4002	0	0	0	0	1.119895	0.2877572	1	4	1E-05	900
381623	-2	-1	0	23.7819	9.069973	94.85932	0	10.94	4002	0	0	0	0	1.119895	0.2825825	1	4	1E-05	900
381696	-9	0	-1	23.75472	9.129387	94.86152	0	10.94	4004	0	0	0	0	1.119895	0.2827038	1	4	1E-05	900
381743	-10	2	-4	23.73835	9.157417	94.86164	0	10.94	4002	0	0	0	0	1.119895	0.2828079	1	4	1E-05	900
381962	-11	-7	-4	23.66837	9.310903	94.86842	0	10.94	4003	0	0	0	0	1.119895	0.2828686	1	4	1E-05	900
382055	-11	-6	-7	23.64776	9.369977	94.87251	0	10.94	4003	0	0	0	0	1.119895	0.2776284	1	4	1E-05	900
382207	-6	-4	0	23.61599	9.430025	94.87598	0	10.94	4004	0	0	0	0	1.119895	0.2703993	1	4	1E-05	900
382363	-10	6	-3	23.58795	9.491264	94.87928	0	10.94	4002	0	0	0	0	1.119895	0.2748119	1	4	1E-05	900
382395	-4	-2	-3	23.58055	9.499422	94.88044	0	10.94	4003	0	0	0	0	1.119895	0.2758229	1	4	1E-05	900
382501	-14	-7	-2	23.56962	9.528008	94.8849	0	11	4004	0	0	0	0	1.119895	0.2729262	1	4	1E-05	900
382584	-17	2	-2	23.55976	9.555838	94.88667	0	11	4002	0	0	0	0	1.119895	0.26174	1	4	1E-05	900
382676	-3	2	-4	23.55684	9.566017	94.88746	0	11	4002	0	0	0	0	1.119895	0.248588	1	4	1E-05	900
382793	-5	0	-3	23.54517	9.585148	94.88911	0	11	4002	0	0	0	0	1.119895	0.240739	1	4	1E-05	900
382897	-6	-4	-5	23.53667	9.606562	94.89246	0	11	4002	0	0	0	0	1.119895	0.2314821	1	4	1E-05	900
383001	-3	-3	2	23.53346	9.621145	94.89558	0	11	4003	0	0	0	0	1.119895	0.2299044	1	4	1E-05	900
383171	-8	-4	0	23.52826	9.640181	94.90229	0	11	4004	0	0	0	0	1.119895	0.2294433	1	4	1E-05	900
383217	-1	0	-2	23.52648	9.642594	94.90491	0	11	4003	0	0	0	0	1.119895	0.226561	1	4	1E-05	900
383271	-14	0	-2	23.52138	9.647836	94.90516	0	11	4004	0	0	0	0	1.119895	0.2207813	1	4	1E-05	900
383391	-8	0	0	23.51625	9.657557	94.90968	0	10.94	4002	0	0	0	0	1.119895	0.2144144	1	4	1E-05	900
383536	-3	2	-4	23.52081	9.665699	94.91151	0	10.94	4002	0	0	0	0	1.119895	0.2106549	1	4	1E-05	900
383638	-9	-1	0	23.51551	9.67192	94.91334	0	10.94	4003	0	0	0	0	1.119895	0.2084554	1	4	1E-05	900
383686	-10	-2	-1	23.51622	9.672326	94.91486	0	10.94	4004	0	0	0	0	1.119895	0.2065203	1	4	1E-05	900
383783	-11	-8	-4	23.51852	9.675838	94.91975	0	10.94	4003	0	0	0	0	1.119895	0.2111407	1	4	1E-05	900
383887	-9	-2	-3	23.52001	9.678157	94.9253	0	10.94	4004	0	0	0	0	1.119895	0.2176956	1	4	1E-05	900
383996	-3	-11	-5	23.52484	9.681526	94.92829	0	10.94	4003	0	0	0	0	1.119895	0.2232815	1	4	1E-05	900
384095	-13	2	-2	23.52986	9.682826	94.93098	0	10.94	4004	0	0	0	0	1.119895	0.2368651	1	4	1E-05	900
384214	-6	1	0	23.53132	9.686233	94.93415	0	10.94	4004	0	0	0	0	1.119895	0.2459655	1	4	1E-05	900
384295	-7	-2	-2	23.53266	9.685801	94.9383	0	10.94	4004	0	0	0	0	1.119895	0.2460633	1	4	1E-05	900
384399	0	-3	-5	23.53773	9.681543	94.9427	0	10.94	4004	0	0	0	0	1.119895	0.2451536	1	4	1E-05	900
384493	-6	2	-4	23.54264	9.682623	94.94605	0	10.94	4004	0	0	0	0	1.119895	0.2473457	1	4	1E-05	900
384606	-7	-4	-1	23.54707	9.683866	94.94941	0	10.94	4004	0	0	0	0	1.119895	0.2483034	1	4	1E-05	900
384813	0	0	-1	23.56795	9.691792	94.95972	0	10.94	4002	0	0	0	0	1.119895	0.2461377	1	4	1E-05	900
384987	-6	0	-3	23.57553	9.69018	94.96583	0	10.94	4003	0	0	0	0	1.119895	0.2430201	1	4	1E-05	900
385069	1	-2	-3	23.5787	9.688264	94.96973	0	10.94	4003	0	0	0	0	1.119895	0.2447462	1	4	1E-05	900
385114	-13	0	-3	23.57844	9.688925	94.9715	0	10.94	4002	0	0	0	0	1.119895	0.2455273	1	4	1E-05	900
385268	1	0	-1	23.58674	9.688584	94.98078	0	11	4003	0	0	0	0	1.119895	0.2549105	1	4	1E-05	900
385360	-6	-3	0	23.59082	9.685561	94.98682	0	11	4002	0	0	0	0	1.119895	0.2570735	1	4	1E-05	900
385453	-4	0	-6	23.59526	9.679524	94.99024	0	11	4004	0	0	0	0	1.119895	0.2512807	1	4	1E-05	900
385566	2	0	-4	23.61195	9.671333	94.99287	0	11	4003	0	0	0	0	1.119895	0.2551029	1	4	1E-05	900
385728	-6	1	-5	23.61856	9.666177	95.00007	0	11	4003	0	0	0	0	1.119895	0.2738241	1	4	1E-05	900
385870	-4	0	-5	23.61367	9.665606	95.00568	0	11	4004	0	0	0	0	1.119895	0.2923631	1	4	1E-05	900
385979	-948	-292	-825	23.34237	9.714665	95.65614	0	11	4002	0	0	0	0	1.119895	0.3036749	1	4	1E-05	900
386025	-2274	981	527	22.24286	9.143882	95.68568	0	11	4003	0	0	0	0	1.119895	0.3126705	1	4	1E-05	900
386164	-2339	11287	1724	17.82923	-2.686054	91.90859	0	11	4002	0	0	0	0	1.119895	0.3354329	1	4	1E-05	900
386239	1001	9570	-312	20.49181	-13.41262	89.89053	0	11.06	4005	0	0	0	0	1.119895	0.3517886	1	4	1E-05	900
386315	474	7304	-2787	22.13247	-18.92101	91.74301	0	11.06	4003	0	0	0	0	1.119895	0.3661987	1	4	1E-05	900
386477	-39	2044	547	24.17434	-18.21124	97.02336	0	11.06	4002	0	0	0	0	1.119895	0.3947062	1	4	1E-05	900
386547	-4	144	1742	24.94203	-13.50749	95.02819	0	11.06	4002	0	0	0	0	1.119895	0.41531	1	4	1E-05	900
386618	-1970	1015	1119	24.3943	-7.590715	94.16766	0	11.06	4002	0	0	0	0	1.119895	0.4334513	1	4	1E-05	900
386831	-7187	14242	5818	12.64513	-10.65783	65.44888	0	11.06	4003	0	0	0	0	1.119895	0.5080072	1	4	1E-05	900
386900	-5199	13057	-2152	7.569772	-18.4635	63.29982	0	11.06	4004	0	0	0	0	1.119895	0.5623786	1	4	1E-05	900
386961	-2099	14846	-9261	0.8185932	-27.33816	70.47166	0	11.06	4003	0	0	0	0	1.119895	0.5893533	1	4	1E-05	900
387057	-9486	3851	-5550	-11.96985	-31.30149	82.01056	0	11.06	4004	0	0	0	0	1.119895	0.6547129	1	4	1E-05	900
387090	-10931	802	-5640	-25.53053	-24.16058	88.11834	0	11	4002	0	0	0	0	1.119895	0.6794094	1	4	1E-05	900
387227	-7474	6280	-4162	-39.86053	-19.58374	98.94923	0	11	4004	0	0	0	0	1.119895	0.7604437	1	4	1E-05	900
387336	-11401	6238	-3106	-56.34566	-22.67901	102.4165	0	11	4002	0	0	0	0	1.119895	0.7996843	1	4	1E-05	900
387457	-9225	5939	-5306	-71.60624	-18.03571	109.5434	0	11	4004	0	0	0	0	1.119895	0.8588483	1	4	1E-05	900
387498	-7014	4885	-5610	-79.51753	-12.6124	115.7404	0	11	4003	0	0	0	0	1.119895	0.8747782	1	4	1E-05	900
387620	-2796	4772	-1837	-85.03503	-8.042109	121.6883	0	11	4002	0	0	0	0	1.119895	0.9043548	1	4	1E-05	900
387703	-2243	5654	3704	-86.69208	-18.10823	119.3712	0	11	4002	0	0	0	0	1.119895	0.9365466	1	4	1E-05	900
387814	159	6322	-1250	-85.11826	-29.83359	117.443	0	11	4002	0	0	0	0	1.119895	0.9561706	1	4	1E-05	900
387919	1616	3877	-1599	-82.49204	-29.94642	119.5861	0	11	4004	0	0	0	0	1.119895	0.9688022	1	4	1E-05	900
388020	1963	4888	-2984	-79.40233	-23.80072	126.6128	0	11	4003	0	0	0	0	1.119895	0.9740805	1	4	1E-05	900
388156	-1839	1484	-817	-77.42229	-19.19995	128.5981	0	11	4003	0	0	0	0	1.119895	0.9743919	1	4	1E-05	900
388262	-1553	2360	-1143	-77.9088	-19.88288	129.8172	0	11	4002	0	0	0	0	1.119895	0.9777675	1	4	1E-05	900
388392	-1871	-658	1277	-77.19821	-21.50062	129.1346	0	11	4003	0	0	0	0	1.119895	0.972342	1	4	1E-05	900
388549	-1226	-2799	-50	-79.01567	-14.66966	128.7897	0	11	4003	0	0	0	0	1.119895	0.9661647	1	4	1E-05	900
388673	1196	-346	-4	-75.82406	-8.189533	128.0083	0	11	4004	0	0	0	0	1.119895	0.9657724	1	4	1E-05	900
388714	870	-352	2392	-73.47292	-9.647977	126.4086	0	11	4003	0	0	0	0	1.119895	0.9658279	1	4	1E-05	900
388789	1322	-958	1808	-70.43951	-12.03534	123.1774	0	11	4002	0	0	0	0	1.119895	0.965892	1	4	1E-05	900
388912	-937	3814	3427	-67.15916	-17.52525	119.0722	0	11.06	4003	0	0	0	0	1.119895	0.973669	1	4	1E-05	900
389054	1550	-1568	-2693	-65.68131	-14.89771	121.7062	0	11.06	4003	0	0	0	0	1.119895	0.9684243	1	4	1E-05	900
389142	-229	612	-708	-63.19595	-11.00144	123.509	0	11.06	4002	0	0	0	0	1.119895	0.964421	1	4	1E-05	900
389204	-442	564	1386	-63.28645	-10.71678	122.8117	0	11.06	4003	0	0	0	0	1.119895	0.9637266	1	4	1E-05	900
389291	-879	852	230	-63.89015	-12.89327	121.8533	0	11.06	4002	0	0	0	0	1.119895	0.9658493	1	4	1E-05	900
389391	-1038	384	511	-64.77342	-14.1299	121.7225	0	11.06	4002	0	0	0	0	1.119895	0.9721479	1	4	1E-05	900
389602	-48	-903	-917	-64.17212	-11.57278	121.4419	0	11.06	4004	0	0	0	0	1.119895	0.9699275	1	4	1E-05	900
389634	-1996	-2509	-188	-64.88217	-9.988915	121.7439	0	11.06	4003	0	0	0	0	1.119895	0.9689279	1	4	1E-05	900
389707	-4758	-2497	1014	-72.44656	-2.682685	120.9708	0	11.06	4004	0	0	0	0	1.119895	0.9633755	1	4	1E-05	900
389884	-2664	-1798	3142	-80.39063	-8.063082	114.625	0	11.06	4004	0	0	0	0	1.119895	0.9416143	1	4	1E-05	900
389951	-457	-1496	1027	-81.28131	-9.354749	112.2468	0	11.06	4004	0	0	0	0	1.119895	0.932893	1	4	1E-05	900
390006	330	-287	1253	-80.88599	-9.495773	111.4193	0	11.06	4003	0	0	0	0	1.119895	0.9311094	1	4	1E-05	900
390114	72	854	2204	-78.87346	-15.50878	107.5967	0	11.06	4003	0	0	0	0	1.119895	0.9267685	1	4	1E-05	900
390232	284	-1362	-988	-81.03564	-15.85395	108.4968	0	11.06	4003	0	0	0	0	1.119895	0.9314462	1	4	1E-05	900
390325	2760	-303	2685	-74.43096	-17.19056	106.7907	0	11.06	4003	0	0	0	0	1.119895	0.9342349	1	4	1E-05	900
390423	7214	477	4065	-63.07196	-23.69004	100.6341	0	11.06	4002	0	0	0	0	1.119895	0.9337373	1	4	1E-05	900
390623	9545	-3317	-6138	-30.21735	-9.056028	105.5745	0	11.06	4003	0	0	0	0	1.119895	0.92644	1	4	1E-05	900
390668	9246	-971	-6667	-25.41679	-5.717213	109.1315	0	11.06	4004	0	0	0	0	1.119895	0.9206397	1	4	1E-05	900
390812	5975	-1180	-3479	-6.728477	0.7486101	121.5636	0	11.06	4004	0	0	0	0	1.119895	0.9024363	1	4	1E-05	900
390885	1195	-394	271	-1.394479	1.983276	124.1478	0	11.06	4004	0	0	0	0	1.119895	0.8868377	1	4	1E-05	900
390966	886	-1240	2240	-0.3391219	3.434985	121.715	0	11.06	4004	0	0	0	0	1.119895	0.855774	1	4	1E-05	900
391072	1089	-1958	590	1.617897	3.912615	119.2301	0	11.06	4003	0	0	0	0	1.119895	0.8192776	1	4	1E-05	900
391125	204	-1556	-1016	2.088148	4.839864	119.1316	0	11.06	4003	0	0	0	0	1.119895	0.7926205	1	4	1E-05	900
391225	-551	-709	-2487	1.20102	2.015347	122.7783	0	11.06	4002	0	0	0	0	1.119895	0.7531978	1	4	1E-05	900
391292	-32	14	39	1.178808	1.697014	123.1961	0	11.06	4003	0	0	0	0	1.119895	0.7209857	1	4	1E-05	900
391410	14	0	3	1.105267	1.435924	123.1878	0	11.06	4003	0	0	0	0	1.119895	0.6601925	1	4	1E-05	900
391564	8	1	9	1.002914	0.9698756	123.1857	0	11.06	4002	0	0	0	0	1.119895	0.6196612	1	4	1E-05	900
391616	5	-3	0	0.9888892	0.9030764	123.1869	0	11.06	4003	0	0	0	0	1.119895	0.6020859	1	4	1E-05	900
391697	4	-1	-3	0.9533864	0.7265556	123.1889	0	11.11	4003	0	0	0	0	1.119895	0.591642	1	4	1E-05	900
391828	6	0	0	0.9208875	0.5648894	123.1915	0	11.11	4003	0	0	0	0	1.119895	0.5642844	1	4	1E-05	900
391930	7	1	7	0.89603	0.4232023	123.1927	0	11.11	4004	0	0	0	0	1.119895	0.5498047	1	4	1E-05	900
392065	5	-2	-1	0.8604571	0.2694004	123.1944	0	11.11	4003	0	0	0	0	1.119895	0.5309876	1	4	1E-05	900
392181	4	-6	0	0.8242819	0.1364383	123.1949	0	11.11	4004	0	0	0	0	1.119895	0.5062056	1	4	1E-05	900
392224	6	1	-4	0.8208262	0.1072823	123.1969	0	11.11	4003	0	0	0	0	1.119895	0.4902941	1	4	1E-05	900
392291	15	0	-3	0.8067344	0.05229377	123.199	0	11.11	4002	0	0	0	0	1.119895	0.4821616	1	4	1E-05	900
392443	4	-6	3	0.797464	-0.06292344	123.2039	0	11.11	4002	0	0	0	0	1.119895	0.4659166	1	4	1E-05	900
392544	8	0	-3	0.7911948	-0.120017	123.2067	0	11.06	4002	0	0	0	0	1.119895	0.4612426	1	4	1E-05	900
392586	3	-1	1	0.7879501	-0.1421957	123.2074	0	11.06	4004	0	0	0	0	1.119895	0.4600226	1	4	1E-05	900
392689	17	-7	1	0.7799996	-0.1921424	123.2085	0	11.06	4004	0	0	0	0	1.119895	0.449778	1	4	1E-05	900
392829	8	1	-1	0.7785053	-0.2606346	123.2122	0	11.06	4004	0	0	0	0	1.119895	0.433015	1	4	1E-05	900
392893	3	-6	-3	0.7706903	-0.2841069	123.2133	0	11.06	4004	0	0	0	0	1.119895	0.4282455	1	4	1E-05	900
393006	16	0	-2	0.7635078	-0.3147992	123.2164	0	11.06	4002	0	0	0	0	1.119895	0.4278429	1	4	1E-05	900
393119	10	0	-7	0.7483183	-0.3523771	123.2227	0	11.06	4002	0	0	0	0	1.119895	0.4237771	1	4	1E-05	900
393192	11	-2	1	0.7428631	-0.3675785	123.2234	0	11.06	4002	0	0	0	0	1.119895	0.4209787	1	4	1E-05	900
393313	11	-2	-1	0.7407762	-0.390125	123.2269	0	11.06	4003	0	0	0	0	1.119895	0.4165105	1	4	1E-05	900
393381	7	-6	-2	0.7408484	-0.3998016	123.2285	0	11.06	4003	0	0	0	0	1.119895	0.4176928	1	4	1E-05	900
393573	11	0	-3	0.7423439	-0.4356765	123.2356	0	11.06	4002	0	0	0	0	1.119895	0.4194646	1	4	1E-05	900
393620	4	1	0	0.7404254	-0.4395855	123.2366	0	11.06	4003	0	0	0	0	1.119895	0.4198276	1	4	1E-05	900
393730	12	-3	0	0.742305	-0.4522518	123.2378	0	11.06	4003	0	0	0	0	1.119895	0.4237074	1	4	1E-05	900
393780	8	-5	-4	0.7407485	-0.4541016	123.2394	0	11.06	4004	0	0	0	0	1.119895	0.4229205	1	4	1E-05	900
393919	8	-2	-6	0.7450874	-0.4687343	123.2435	0	11.06	4003	0	0	0	0	1.119895	0.4237178	1	4	1E-05	900
393984	13	4	1	0.7513189	-0.4735426	123.2447	0	11.06	4002	0	0	0	0	1.119895	0.4253398	1	4	1E-05	900
394163	17	-3	-3	0.7490715	-0.4842416	123.2511	0	11.06	4003	0	0	0	0	1.119895	0.4244915	1	4	1E-05	900
394234	15	1	-1	0.742896	-0.492499	123.2542	0	11.06	4004	0	0	0	0	1.119895	0.4232356	1	4	1E-05	900
394301	11	-1	-4	0.7468134	-0.5036101	123.2576	0	11.06	4004	0	0	0	0	1.119895	0.4216285	1	4	1E-05	900
394384	6	-6	-5	0.7463247	-0.5119596	123.2604	0	11.06	4004	0	0	0	0	1.119895	0.4241129	1	4	1E-05	900
394474	5	-2	-2	0.7465361	-0.5152887	123.2634	0	11.06	4004	0	0	0	0	1.119895	0.4297367	1	4	1E-05	900
394560	12	-7	0	0.7518948	-0.5169614	123.267	0	11.06	4002	0	0	0	0	1.119895	0.4354076	1	4	1E-05	900
394671	9	0	-4	0.7516807	-0.5246013	123.2693	0	11.06	4004	0	0	0	0	1.119895	0.4485337	1	4	1E-05	900
394764	15	-6	-3	0.7593041	-0.5247394	123.2731	0	11.06	4002	0	0	0	0	1.119895	0.4563405	1	4	1E-05	900
394999	16	1	-1	0.7699211	-0.5333626	123.2785	0	11.06	4003	0	0	0	0	1.119895	0.4746749	1	4	1E-05	900
395091	17	-4	-2	0.7778274	-0.5302674	123.2821	0	11.06	4003	0	0	0	0	1.119895	0.4737605	1	4	1E-05	900
395172	9	0	-2	0.7737983	-0.5361212	123.2867	0	11.06	4002	0	0	0	0	1.119895	0.471582	1	4	1E-05	900
395278	11	1	0	0.7676585	-0.5396959	123.289	0	11.06	4002	0	0	0	0	1.119895	0.4820962	1	4	1E-05	900
395364	12	0	-5	0.7690889	-0.5447956	123.292	0	11.06	4002	0	0	0	0	1.119895	0.4862266	1	4	1E-05	900
395517	14	-6	0	0.7687145	-0.5439366	123.2965	0	11.06	4003	0	0	0	0	1.119895	0.495732	1	4	1E-05	900
395613	7	0	-2	0.7719576	-0.5490656	123.2992	0	11.06	4004	0	0	0	0	1.119895	0.5058749	1	4	1E-05	900
395658	7	1	0	0.7710748	-0.5490754	123.3002	0	11.06	4002	0	0	0	0	1.119895	0.5077437	1	4	1E-05	900
395762	20	-2	0	0.7787421	-0.5493491	123.3014	0	11.06	4003	0	0	0	0	1.119895	0.5143797	1	4	1E-05	900
395930	12	-1	-2	0.7778339	-0.5487334	123.3078	0	11.06	4002	0	0	0	0	1.119895	0.5158979	3	4	1E-05	900
396024	12	1	-2	0.7840718	-0.5510205	123.3108	0	11.06	4003	0	0	0	0	1.119895	0.511847	3	4	1E-05	900
396131	21	-4	-3	0.7857947	-0.5519493	123.3145	0	11.06	4004	0	0	0	0	1.119895	0.5006988	3	4	1E-05	900
396225	15	0	-8	0.7898704	-0.5503334	123.3164	0	10.94	4002	0	0	0	0	1.119895	0.4894091	3	4	1E-05	900
396285	15	-2	-1	0.7909257	-0.5449865	123.3218	0	10.94	4002	0	0	0	0	1.119895	0.4803522	3	4	1E-05	900
396381	14	4	-4	0.7888379	-0.5455491	123.3248	0	10.94	4010	0	0	0	0	1.119895	0.4753827	3	4	1E-05	900
396482	18	4	-4	0.794248	-0.5453945	123.3284	0	10.94	4003	-18	8	0	0	1.119895	0.475262	3	4	1E-05	900
396608	23	1	-9	0.7989435	-0.5545195	123.3294	0	10.94	4002	-5	5	1	0	1.119895	0.4745785	3	4	1E-05	900
396716	11	22	-46	0.8060182	-0.5622432	123.3388	0	10.94	4002	-2	-2	1	0	1.119895	0.4765868	3	4	1E-05	900
396792	27	-13	-23	0.8335889	-0.5471048	123.3439	0	10.94	4003	-5	8	0	0	1.119895	0.4861554	3	4	1E-05	900
396872	-29	0	-54	0.8078932	-0.5341483	123.3369	0	10.94	4003	-8	5	0	0	1.119895	0.4963954	3	4	1E-05	900
396976	50	94	92	0.8203664	-0.5427965	123.3399	0	10.94	4004	-12	20	-1	0	1.119895	0.502569	3	4	1E-05	900
397098	6	40	-29	0.7971737	-0.515614	123.3475	0	10.94	4003	-12	-4	0	0	1.119895	0.5067855	3	4	1E-05	900
397216	82	-22	39	0.8080727	-0.5006335	123.3503	0	10.94	4004	-7	-18	0	0	1.119895	0.5153124	3	4	1E-05	900
397300	25	4	-26	0.80673	-0.503472	123.3576	0	10.94	4004	-10	-15	0	0	1.119895	0.5284178	3	4	1E-05	900
397381	-24	16	-5	0.8237751	-0.5606832	123.3522	0	10.94	4004	4	18	-1	0	1.119895	0.5355724	3	4	1E-05	900
397518	-3	-12	61	0.7689914	-0.5838212	123.3354	0	10.94	4003	25	-6	0	0	1.119895	0.554575	3	4	1E-05	900
397568	-109	-218	685	0.7164005	-0.5056688	123.3085	0	10.94	4002	-39	-11	-3	0	1.119895	0.5599078	3	4	1E-05	900
397743	-98	2429	-78	-0.08031462	-2.012209	123.365	0	10.94	4003	-8	125	-4	0	1.119895	0.5733114	3	4	1E-05	900
397775	205	1439	-2484	-0.2473499	-4.033809	123.6193	0	10.94	4003	-80	-90	-25	0	1.119895	0.5753059	3	4	1E-05	900
397886	-1068	2113	-1045	0.0621913	-12.30152	123.7416	0	10.94	4003	-20	-111	-19	0	1.119895	0.5839189	3	4	1E-05	900
397991	369	-1826	238	-0.1699977	-13.54395	123.776	0	11	4003	49	-196	6	0	1.119895	0.5960296	3	4	1E-05	900
398095	98	-1788	-427	-0.2852787	-7.256902	123.9575	0	11	4004	-58	-52	-23	0	1.119895	0.6203115	3	4	1E-05	900
398175	1443	-1878	93	0.831377	-5.573072	124.3922	0	11	4003	-95	19	-16	0	1.119895	0.639522	3	4	1E-05	900
398265	-281	-986	1603	-0.6804247	-2.295666	124.6463	0	11	4002	-91	137	-28	0	1.119895	0.6613622	3	4	1E-05	900
398385	566	3985	-892	-2.137078	-3.320247	124.2792	0	11	4002	-130	147	-17	0	1.119895	0.7063036	3	4	1E-05	900
398462	989	4139	873	-1.149016	-11.61313	123.7415	0	11	4002	-9	-147	-7	0	1.119895	0.7332685	3	4	1E-05	900
398541	1025	3566	930	-0.7344797	-14.82404	124.1056	0	11	4003	-78	119	-15	0	1.119895	0.760011	3	4	1E-05	900
398648	281	-3101	286	-0.4306542	-13.98938	124.5199	0	11	4002	42	-55	-26	0	1.119895	0.8062682	3	4	1E-05	900
398743	678	-1277	1055	-0.757272	-7.975446	124.092	0	11	4003	-152	198	0	0	1.119895	0.8465571	3	4	1E-05	900
398892	-3358	-1359	340	-2.958833	-8.629527	123.8901	0	10.32	4004	-68	138	-7	0	1.119895	0.913599	3	4	1E-05	900
398954	-2965	-2290	712	-4.815217	-7.404038	124.1383	0	10.32	4003	-77	103	-13	0	1.119895	0.9456351	3	4	1E-05	900
399044	-140	1757	1534	-7.293388	-5.230304	124.3046	0	10.32	4004	-160	255	-3	0	1.119895	0.9720606	3	4	1E-05	900
399146	1079	-1051	144	-5.408158	-7.737339	124.364	0	10.32	4002	67	-148	-30	0	1.119895	1.008125	3	4	1E-05	900
399277	1123	-878	1097	-3.178478	-2.353418	124.4168	0	10.32	4003	-77	108	-20	0	1.119895	1.044734	3	4	1E-05	900
399384	639	1162	575	-0.7016345	-4.814579	124.3159	0	10.32	4003	19	-155	-19	0	1.119895	1.08589	3	4	1E-05	900
399444	-620	-724	-67	-1.202592	-5.656041	124.1202	0	10.32	4003	-112	29	-18	0	1.119895	1.098153	3	4	1E-05	900
399584	325	-3184	-1237	-2.418315	-0.8219036	124.0268	0	10.32	4002	-99	-97	-9	0	1.119895	1.129999	3	4	1E-05	900
399700	0	2849	273	-0.02866265	-5.218374	123.72	0	10.32	4002	97	-204	-7	0	1.119895	1.177035	3	4	1E-05	900
399745	274	1629	75	-0.4330246	-7.696302	124.2535	0	10.32	4002	-18	230	-17	0	1.119895	1.184522	3	4	1E-05	900
399860	-38	-949	-426	-0.1654754	-8.687754	124.835	0	10.38	4003	57	-247	-37	0	1.119895	1.211743	3	4	1E-05	900
400011	59	4252	1144	-0.4579608	-11.03228	124.9961	0	10.38	4003	-79	-96	-16	0	1.119895	1.250234	3	4	1E-05	900
400129	-1407	-2999	1261	-4.132195	-11.14624	123.5705	0	10.38	4002	-2	103	10	0	1.119895	1.264011	3	4	1E-05	900
400219	2370	-347	-467	-1.90096	-8.01135	123.8953	0	10.38	4004	-14	-246	-21	0	1.119895	1.280738	3	4	1E-05	900
400268	1537	1975	1288	-0.7792215	-8.150796	123.991	0	10.38	4003	-118	148	-12	0	1.119895	1.28499	3	4	1E-05	900
400530	-315	-2694	-163	-0.1394751	-4.786539	124.3656	0	10.38	4003	82	-117	-16	0	1.119895	1.334089	3	4	1E-05	900
400640	-135	456	-488	0.09398008	-5.252096	123.4726	0	10.38	4004	-113	151	2	0	1.119895	1.350405	3	4	1E-05	900
400688	-2442	696	-225	-0.8561949	-6.100473	123.614	0	10.38	4003	-24	27	-7	0	1.119895	1.366341	3	4	1E-05	900
400795	-3586	-1240	230	-7.024366	-4.72059	124.2817	0	10.55	4004	-9	-2	-22	0	1.119895	1.385985	3	4	1E-05	900
400906	67	2495	552	-9.187114	-4.939321	124.6818	0	10.55	4002	-30	21	-17	0	1.119895	1.406685	3	4	1E-05	900
401017	-2297	1406	324	-10.51606	-8.933146	124.4797	0	10.55	4003	-34	41	-21	0	1.119895	1.42039	3	4	1E-05	900
401081	487	1807	675	-11.05645	-10.21666	124.3355	0	10.55	4003	-73	-88	-14	0	1.119895	1.42573	3	4	1E-05	900
401227	1410	1352	-1229	-7.684675	-13.45162	124.7416	0	10.55	4003	-26	-86	-46	0	1.119895	1.44714	3	4	1E-05	900
401316	53	-143	316	-4.891275	-13.91251	124.7334	0	10.55	4003	-70	135	-33	0	1.119895	1.452327	3	4	1E-05	900
401372	1972	524	707	-3.780168	-12.40052	124.8738	0	10.55	4003	-113	135	-26	0	1.119895	1.455839	3	4	1E-05	900
401458	2007	2090	326	-1.769461	-12.33584	124.9564	0	10.55	4003	-55	61	-29	0	1.119895	1.463759	3	4	1E-05	900
401576	-1457	-2075	433	-2.167917	-11.21546	124.775	0	10.55	4004	0	-34	-34	0	1.119895	1.466826	3	4	1E-05	900
401664	1109	1137	808	-2.559358	-9.288415	124.478	0	10.55	4004	-137	155	-10	0	1.119895	1.46403	3	4	1E-05	900
401852	688	-949	-96	-0.322605	-15.69798	124.4925	0	9.98	4004	-45	38	-4	0	1.119895	1.461231	3	4	1E-05	900
401884	618	-2805	-1791	-0.4012542	-14.83306	124.844	0	9.98	4003	102	-337	-26	0	1.119895	1.462191	3	4	1E-05	900
402049	2493	2020	371	1.437914	-13.99202	124.6574	0	9.98	4003	-43	-215	-27	0	1.119895	1.460385	3	4	1E-05	900
402113	-119	-1755	-181	3.822322	-14.50081	124.7048	0	9.98	4003	48	-45	-40	0	1.119895	1.455252	3	4	1E-05	900
402174	366	1109	228	1.927165	-12.71809	124.9562	0	9.98	4002	-59	231	-32	0	1.119895	1.451482	3	4	1E-05	900
402348	1019	2141	-163	1.487739	-15.2757	124.5222	0	9.98	4003	-22	52	-14	0	1.119895	1.458973	3	4	1E-05	900
402398	-441	-608	-1508	2.085982	-15.90304	124.4447	0	9.98	4002	220	-297	-39	0	1.119895	1.464445	3	4	1E-05	900
402470	-587	381	-1099	1.813867	-16.0139	124.5802	0	9.98	4003	26	-171	-50	0	1.119895	1.471289	3	4	1E-05	900
402670	469	1427	1272	1.374674	-11.67611	124.944	0	10.15	4004	-109	140	-22	0	1.119895	1.508467	3	4	1E-05	900
402742	-881	317	903	-0.319983	-12.16614	124.3223	0	10.15	4004	-44	-67	-11	0	1.119895	1.537835	3	4	1E-05	900
402793	1053	-30	-775	-0.07031673	-12.13979	124.4903	0	10.15	4004	3	-31	-39	0	1.119895	1.554294	3	4	1E-05	900
402870	-177	-405	-834	0.5626609	-12.75454	124.6722	0	10.15	4004	21	-126	-21	0	1.119895	1.588176	3	4	1E-05	900
402959	-1347	-277	502	-1.609933	-13.61237	123.8962	0	10.15	4003	75	-108	-3	0	1.119895	1.603262	3	4	1E-05	900
403100	299	-891	-1512	-1.017379	-11.03665	123.7683	0	10.15	4002	57	-209	-28	0	1.119895	1.649733	3	4	1E-05	900
403165	762	100	-1032	-1.0547	-10.79454	123.9945	0	10.15	4004	56	-187	-24	0	1.119895	1.6763	3	4	1E-05	900
403284	-393	-322	-60	-0.7547227	-11.98623	124.912	0	10.15	4002	-53	119	-29	0	1.119895	1.733938	3	4	1E-05	900
403377	-905	-4793	444	-2.510417	-8.062057	124.6125	0	10.15	4003	6	-119	-11	0	1.119895	1.759267	3	4	1E-05	900
403486	1376	1440	1121	-1.588554	-6.657901	124.4933	0	10.15	4004	31	-227	-51	0	1.119895	1.828052	3	4	1E-05	900
403573	-626	-1389	-1038	-1.628354	-8.763326	123.9144	0	10.04	4003	10	390	-8	0	1.119895	1.850026	3	4	1E-05	900
403666	1506	-61	1808	-1.124076	-8.785236	123.8541	0	10.04	4002	-90	-134	4	0	1.119895	1.909849	3	4	1E-05	900
403780	-5	2368	422	0.2755509	-8.065655	123.5732	0	10.04	4004	19	138	-2	0	1.119895	1.95536	3	4	1E-05	900
403927	-654	664	-973	0.6184376	-11.1611	124.1862	0	10.04	4004	106	-223	-43	0	1.119895	2.021379	3	4	1E-05	900
403976	1150	1476	386	0.8524594	-12.222	124.7982	0	10.04	4003	-115	89	-13	0	1.119895	2.03706	3	4	1E-05	900
404183	-254	1608	1024	0.4768116	-11.51929	125.239	0	10.04	4003	-102	217	-36	0	1.119895	2.089106	3	4	1E-05	900
404279	-2519	-1768	262	-2.001957	-11.73536	123.6116	0	10.04	4002	-20	-18	5	0	1.119895	2.111789	3	4	1E-05	900
404365	425	-1263	330	-2.960732	-9.444602	123.1021	0	10.04	4004	-87	140	10	0	1.119895	2.142216	3	4	1E-05	900
404485	-810	99	-1721	-2.799698	-10.13415	123.6885	0	10.21	4002	54	-91	-19	0	1.119895	2.167661	3	4	1E-05	900
404578	-1793	255	-839	-3.981898	-12.14599	124.4704	0	10.21	4003	28	-85	-38	0	1.119895	2.196135	3	4	1E-05	900
404686	564	75	968	-6.123358	-9.960456	124.2711	0	10.21	4003	-186	210	-2	0	1.119895	2.21079	3	4	1E-05	900
404836	-734	-533	-318	-4.06434	-12.81729	124.1271	0	10.21	4004	51	20	-21	0	1.119895	2.244862	3	4	1E-05	900
404867	-705	-1925	58	-4.4179	-11.67602	124.0853	0	10.21	4003	-16	47	-15	0	1.119895	2.249238	3	4	1E-05	900
404949	247	-1166	539	-4.921843	-8.964719	124.0777	0	10.21	4003	-118	210	-4	0	1.119895	2.262463	3	4	1E-05	900
405083	-573	-738	-379	-3.692626	-9.178216	124.4803	0	10.21	4003	25	-234	-35	0	1.119895	2.279451	3	4	1E-05	900
405163	-467	-1002	621	-4.040019	-7.492586	124.6869	0	10.21	4003	33	-33	-23	0	1.119895	2.285771	3	4	1E-05	900
405253	1274	1178	841	-3.965124	-7.027468	124.325	0	10.21	4003	-143	256	-9	0	1.119895	2.294085	3	4	1E-05	900
405375	1020	1246	1015	-2.576714	-11.10251	124.0972	0	10.66	4003	65	-237	-17	0	1.119895	2.307017	5	4	1E-05	900
405442	1	1700	811	-2.487356	-11.92708	124.0862	0	10.66	4003	-108	185	-5	0	1.126998	2.310399	5	4	1E-05	900
405583	-378	-92	-73	-3.358651	-13.20251	124.5149	0	10.66	4003	48	-250	-33	0	1.136297	2.308829	5	4	1E-05	900
405702	2470	2843	1337	-2.421506	-11.11857	125.1278	0	10.66	4002	-168	314	-30	0	1.170997	2.301713	5	4	1E-05	900
405777	77	1769	-187	-1.301364	-13.27728	125.1911	0	10.66	4004	-29	-22	-40	3	1.101202	2.289371	5	4	1E-05	900
405874	1085	-279	-66	-1.27876	-12.87913	124.796	0	10.66	4002	44	-52	-32	0	1.107111	2.275409	5	4	1E-05	900
405978	-693	-2576	114	-0.5273043	-10.00941	124.0176	0	10.66	4003	64	-120	-1	0	1.193347	2.255478	5	4	1E-05	900
406072	760	-1336	312	-1.124117	-7.326607	123.8814	0	10.66	4003	-83	75	-1	1	1.230313	2.241423	5	4	1E-05	900
406189	-436	-481	-1169	-0.9191608	-7.118556	124.1321	0	10.66	4003	-30	-63	-27	1	1.258752	2.21842	5	4	1E-05	900
