time(ms)	gyro_x(deg/s)	gyro_y(deg/s)	gyro_z(deg/s)	orientation_roll(deg)	orientation_pitch(deg)	orientation_yaw(deg)	throttle	battery(V)	loop_time(uS)	pid_output_roll	pid_output_pitch	pid_output_yaw	pid_output_throttle	ultrasonic_alt	baro_alt	flight_mode	p_gain_altitude	i_gain_altitude	d_gain_altitude
345174	-26	1	-1	-0.4665756	0.01191149	-22.32138	0	11	4002	0	0	0	0	0.8352052	0.430878	1	10	1E-05	30
345264	-24	-4	7	-0.4746608	0.03353726	-22.32749	0	11	4002	0	0	0	0	0.8352052	0.4283575	1	10	1E-05	30
345339	-29	-5	3	-0.4715483	0.05827978	-22.33373	0	11	4003	0	0	0	0	0.8352052	0.4277563	1	10	1E-05	30
345430	-21	3	2	-0.4721548	0.06580454	-22.33733	0	11	4003	0	0	0	0	0.8352052	0.4275763	1	10	1E-05	30
345556	-26	-3	5	-0.4781964	0.09017562	-22.34924	0	11	4002	0	0	0	0	0.8352052	0.4202712	1	10	1E-05	30
345604	-28	0	8	-0.4767524	0.09865187	-22.35467	0	11.06	4003	0	0	0	0	0.8352052	0.4118478	1	10	1E-05	30
345682	-31	4	3	-0.4721346	0.1051979	-22.35882	0	11.06	4002	0	0	0	0	0.8352052	0.4071294	1	10	1E-05	30
345784	-24	1	0	-0.4755023	0.1212584	-22.36456	0	11.06	4002	0	0	0	0	0.8352052	0.4030465	1	10	1E-05	30
345922	-26	-1	5	-0.4685712	0.1286507	-22.37335	0	11.06	4002	0	0	0	0	0.8352052	0.4052262	1	10	1E-05	30
345990	-25	6	5	-0.4680707	0.1341982	-22.37701	0	11.06	4004	0	0	0	0	0.8352052	0.403402	1	10	1E-05	30
346140	-25	-1	5	-0.4581124	0.1459227	-22.38531	0	11.06	4002	0	0	0	0	0.8352052	0.4074081	1	10	1E-05	30
346289	-20	-11	2	-0.4626659	0.1645907	-22.3982	0	11.06	4003	0	0	0	0	0.8352052	0.4015231	1	10	1E-05	30
346335	-20	-3	-2	-0.4618856	0.1663148	-22.40033	0	11.06	4003	0	0	0	0	0.8352052	0.4025625	1	10	1E-05	30
346425	-21	-1	11	-0.4580153	0.1689036	-22.40601	0	11.06	4004	0	0	0	0	0.8352052	0.4105667	1	10	1E-05	30
346477	-25	-1	4	-0.4585909	0.1732786	-22.40809	0	11.06	4003	0	0	0	0	0.8352052	0.4195912	1	10	1E-05	30
346582	-16	5	7	-0.4618564	0.1690528	-22.41566	0	11.06	4002	0	0	0	0	0.8352052	0.4284735	1	10	1E-05	30
346729	-28	-3	7	-0.4680277	0.1784927	-22.42847	0	11.06	4002	0	0	0	0	0.8352052	0.4347283	1	10	1E-05	30
346802	-17	-5	4	-0.4676831	0.1807752	-22.43439	0	11.06	4004	0	0	0	0	0.8352052	0.440566	1	10	1E-05	30
346961	-31	-1	6	-0.4673297	0.1754355	-22.44379	0	11.06	4002	0	0	0	0	0.8352052	0.4554679	1	10	1E-05	30
347057	-18	1	2	-0.4618556	0.1790209	-22.44855	0	11.06	4003	0	0	0	0	0.8352052	0.4619519	1	10	1E-05	30
347092	-16	3	5	-0.4590633	0.1816318	-22.45026	0	11.06	4004	0	0	0	0	0.8352052	0.4649777	1	10	1E-05	30
347202	-22	-3	4	-0.4534853	0.1899614	-22.45606	0	11.06	4002	0	0	0	0	0.8352052	0.4642715	1	10	1E-05	30
347406	-18	5	4	-0.4377525	0.1957473	-22.46619	0	11.06	4003	0	0	0	0	0.8352052	0.4614693	1	10	1E-05	30
347484	-24	4	4	-0.4406027	0.1822944	-22.47004	0	11.06	4004	0	0	0	0	0.8352052	0.4719251	1	10	1E-05	30
347551	-29	-4	-4	-0.4435357	0.1909219	-22.4715	0	11.06	4002	0	0	0	0	0.8352052	0.479014	1	10	1E-05	30
347615	-18	0	3	-0.4368515	0.2031598	-22.47388	0	11.06	4002	0	0	0	0	0.8352052	0.4808561	1	10	1E-05	30
347806	-24	-4	0	-0.4513316	0.205713	-22.48487	0	11.06	4004	0	0	0	0	0.8352052	0.4717932	1	10	1E-05	30
347956	-16	3	0	-0.4349197	0.2108747	-22.49323	0	11.06	4003	0	0	0	0	0.8352052	0.4606203	1	10	1E-05	30
348130	-16	-3	9	-0.4380268	0.2043022	-22.50142	0	11.06	4002	0	0	0	0	0.8352052	0.4485523	1	10	1E-05	30
348281	-19	2	2	-0.4408438	0.203402	-22.5077	0	11.06	4003	0	0	0	0	0.8352052	0.4377401	1	10	1E-05	30
348336	-20	-1	3	-0.4335882	0.1974416	-22.50978	0	11.06	4004	0	0	0	0	0.8352052	0.4357303	1	10	1E-05	30
348397	-20	-4	0	-0.4373533	0.1923688	-22.51448	0	11.11	4004	0	0	0	0	0.8352052	0.4330838	1	10	1E-05	30
348498	-20	-1	2	-0.4271421	0.2060463	-22.5182	0	11.11	4003	0	0	0	0	0.8352052	0.43527	1	10	1E-05	30
348647	-15	0	6	-0.424622	0.2168342	-22.5215	0	11.11	4004	0	0	0	0	0.8352052	0.4426458	1	10	1E-05	30
348800	-20	1	3	-0.4255417	0.2070271	-22.52516	0	11.11	4002	0	0	0	0	0.8352052	0.4596453	1	10	1E-05	30
348886	-18	-1	3	-0.4154379	0.2008819	-22.5273	0	11.11	4003	0	0	0	0	0.8352052	0.4659883	1	10	1E-05	30
348933	-18	0	1	-0.4063795	0.2018615	-22.5298	0	11.11	4002	0	0	0	0	0.8352052	0.4695479	1	10	1E-05	30
349068	-23	9	5	-0.3982182	0.2145878	-22.53267	0	11.11	4003	0	0	0	0	0.8352052	0.4708957	1	10	1E-05	30
349159	-21	1	0	-0.4010137	0.219298	-22.5334	0	11.11	4003	0	0	0	0	0.8352052	0.4644081	1	10	1E-05	30
349211	-18	1	5	-0.4026902	0.2223957	-22.53639	0	11.11	4002	0	0	0	0	0.8352052	0.462883	1	10	1E-05	30
349314	-18	-5	4	-0.4057793	0.2234065	-22.53932	0	11.11	4003	0	0	0	0	0.8352052	0.4631886	1	10	1E-05	30
349406	-17	0	-2	-0.4039978	0.2287516	-22.54353	0	11.11	4002	0	0	0	0	0.8352052	0.4591824	1	10	1E-05	30
349509	-14	-8	3	-0.4016696	0.2314715	-22.54426	0	11.11	4004	0	0	0	0	0.8352052	0.4486088	1	10	1E-05	30
349723	-15	-3	1	-0.3919317	0.2171839	-22.54988	0	11.11	4002	0	0	0	0	0.8352052	0.4269977	1	10	1E-05	30
349849	-16	-1	6	-0.3856274	0.2254373	-22.55342	0	11.11	4002	0	0	0	0	0.8352052	0.4218657	1	10	1E-05	30
349984	-17	-1	-1	-0.3831749	0.2144924	-22.55696	0	11.11	4004	0	0	0	0	0.8352052	0.4183103	1	10	1E-05	30
350091	-18	-2	1	-0.3778054	0.2076566	-22.55995	0	11.11	4002	0	0	0	0	0.8352052	0.42602	1	10	1E-05	30
350261	-15	0	1	-0.3794335	0.2048233	-22.56203	0	11.11	4004	0	0	0	0	0.8352052	0.4467346	1	10	1E-05	30
350368	-14	3	-2	-0.377021	0.2123025	-22.56557	0	11.11	4004	0	0	0	0	0.8352052	0.4520546	1	10	1E-05	30
350418	-16	1	4	-0.3797998	0.2123533	-22.56606	0	11.11	4004	0	0	0	0	0.8352052	0.4592491	1	10	1E-05	30
350665	-12	-4	4	-0.3888917	0.1962602	-22.57484	0	11.11	4002	0	0	0	0	0.8352052	0.4880047	1	10	1E-05	30
350753	-11	0	0	-0.3860462	0.1937337	-22.57704	0	11.11	4002	0	0	0	0	0.8352052	0.4855585	1	10	1E-05	30
350995	-18	-2	5	-0.3662126	0.1816644	-22.58315	0	11.11	4004	0	0	0	0	0.8352052	0.468583	1	10	1E-05	30
351109	-15	0	1	-0.3750248	0.186763	-22.58528	0	11.11	4004	0	0	0	0	0.8352052	0.4647148	1	10	1E-05	30
351193	-13	0	0	-0.3771602	0.1874432	-22.58705	0	11.11	4002	0	0	0	0	0.8352052	0.4629633	1	10	1E-05	30
351252	-21	0	0	-0.3803226	0.1847885	-22.59053	0	11.11	4002	0	0	0	0	0.8352052	0.4635007	1	10	1E-05	30
351367	-14	3	0	-0.3802541	0.186016	-22.58931	0	11.11	4003	0	0	0	0	0.8352052	0.4729516	1	10	1E-05	30
351462	-10	0	3	-0.3701471	0.1742268	-22.59102	0	11.11	4003	0	0	0	0	0.8352052	0.4737496	1	10	1E-05	30
351629	-13	-1	3	-0.3678027	0.1805622	-22.59627	0	11.11	4003	0	0	0	0	0.8352052	0.4855967	1	10	1E-05	30
351685	-20	0	1	-0.3601582	0.1740029	-22.59718	0	11.11	4003	0	0	0	0	0.8352052	0.4953868	1	10	1E-05	30
351937	-12	0	3	-0.3507834	0.1685725	-22.60512	0	11.11	4003	0	0	0	0	0.8352052	0.5085617	1	10	1E-05	30
351992	-6	-1	-6	-0.3532357	0.1565541	-22.60433	0	11.11	4003	0	0	0	0	0.8352052	0.5090254	1	10	1E-05	30
352040	-12	2	0	-0.3483957	0.1541557	-22.60536	0	11.11	4002	0	0	0	0	0.8352052	0.5043399	1	10	1E-05	30
352170	-11	3	1	-0.350468	0.1490527	-22.60823	0	11.06	4003	0	0	0	0	0.8352052	0.4947065	1	10	1E-05	30
352312	-11	-2	5	-0.3410322	0.1482844	-22.61116	0	11.06	4002	0	0	0	0	0.8352052	0.4996901	1	10	1E-05	30
352395	-14	-3	0	-0.3436127	0.1472556	-22.61367	0	11.06	4004	0	0	0	0	0.8352052	0.5030103	1	10	1E-05	30
352491	-7	0	3	-0.3335133	0.1591124	-22.61513	0	11.06	4004	0	0	0	0	0.8352052	0.5018818	1	10	1E-05	30
352566	-12	-1	9	-0.3366619	0.1518442	-22.61904	0	11.06	4002	0	0	0	0	0.8352052	0.5061483	1	10	1E-05	30
352696	-8	2	0	-0.3318714	0.1421942	-22.62325	0	11.06	4003	0	0	0	0	0.8352052	0.5045796	1	10	1E-05	30
352748	-10	4	3	-0.3289329	0.1440136	-22.62337	0	11.06	4009	0	0	0	0	0.8352052	0.5034471	1	10	1E-05	30
352809	-18	-3	2	-0.3305497	0.1430334	-22.6249	0	11.06	4004	0	0	0	0	0.8352052	0.5016788	1	10	1E-05	30
352937	-14	-4	0	-0.3234963	0.1464333	-22.62789	0	11.06	4004	0	0	0	0	0.8352052	0.4944447	1	10	1E-05	30
353014	-9	-5	1	-0.3208497	0.149296	-22.63008	0	11.11	4002	0	0	0	0	0.8352052	0.4881191	1	10	1E-05	30
353160	-5	-5	0	-0.3214675	0.1462195	-22.6324	0	11.11	4002	0	0	0	0	0.8352052	0.4806222	1	10	1E-05	30
353232	-9	0	1	-0.3163263	0.1468967	-22.63515	0	11.11	4002	0	0	0	0	0.8352052	0.4743854	1	10	1E-05	30
353349	-18	0	3	-0.3088075	0.1525867	-22.63564	0	11.11	4003	0	0	0	0	0.8352052	0.466147	1	10	1E-05	30
353455	-9	-3	-2	-0.3109552	0.1504438	-22.63759	0	11.11	4004	0	0	0	0	0.8352052	0.4616697	1	10	1E-05	30
353607	-11	1	-3	-0.2995789	0.1624201	-22.63723	0	11.11	4003	0	0	0	0	0.8352052	0.4591185	1	10	1E-05	30
353666	-7	0	0	-0.3081669	0.1648476	-22.63869	0	11.11	4003	0	0	0	0	0.8352052	0.4545534	1	10	1E-05	30
353706	-11	1	1	-0.3049488	0.163141	-22.639	0	11.11	4004	0	0	0	0	0.8352052	0.4515321	1	10	1E-05	30
353881	-18	-5	0	-0.3014559	0.1717782	-22.6404	0	11.11	4003	0	0	0	0	0.8352052	0.4566925	1	10	1E-05	30
353930	-10	-7	0	-0.3024487	0.1754886	-22.64272	0	11.11	4002	0	0	0	0	0.8352052	0.4585525	1	10	1E-05	30
354019	-7	-5	0	-0.2951009	0.179598	-22.64461	0	11.11	4009	0	0	0	0	0.8352052	0.4689606	1	10	1E-05	30
354193	-7	-4	-3	-0.2840594	0.1816903	-22.6473	0	11.11	4004	0	0	0	0	0.8352052	0.4669349	1	10	1E-05	30
354348	-5	-11	0	-0.2772933	0.1795994	-22.64925	0	11.11	4004	0	0	0	0	0.8352052	0.4655792	1	10	1E-05	30
354406	-5	-1	2	-0.2787251	0.1779278	-22.65316	0	11.11	4004	0	0	0	0	0.8352052	0.4649406	1	10	1E-05	30
354585	-6	0	2	-0.2709473	0.1725355	-22.65566	0	11.11	4004	0	0	0	0	0.8352052	0.4521369	1	10	1E-05	30
354681	-11	0	3	-0.2640577	0.1726126	-22.65676	0	11.11	4003	0	0	0	0	0.8352052	0.437162	1	10	1E-05	30
354768	-11	4	0	-0.2638555	0.1711721	-22.65889	0	11.11	4002	0	0	0	0	0.8352052	0.4273022	1	10	1E-05	30
354905	-9	-5	1	-0.2585093	0.1760821	-22.65944	0	11.11	4003	0	0	0	0	0.8352052	0.4136272	1	10	1E-05	30
354971	-13	0	3	-0.2654203	0.1738183	-22.6606	0	11.11	4002	0	0	0	0	0.8352052	0.4077034	1	10	1E-05	30
355067	0	3	1	-0.261258	0.1752328	-22.66085	0	11.11	4003	0	0	0	0	0.8352052	0.400353	1	10	1E-05	30
355227	-8	-9	7	-0.2582203	0.1823499	-22.6639	0	11.11	4002	0	0	0	0	0.8352052	0.3956088	1	10	1E-05	30
355269	-8	-9	7	-0.2582203	0.1823499	-22.6639	0	11.11	4002	0	0	0	0	0.8352052	0.3960262	1	10	1E-05	30
355413	-5	-5	0	-0.2573275	0.1722342	-22.66616	0	11.11	4003	0	0	0	0	0.8352052	0.3960007	1	10	1E-05	30
355499	-5	-5	4	-0.255952	0.1734219	-22.66805	0	11.11	4003	0	0	0	0	0.8352052	0.3949109	1	10	1E-05	30
355575	-4	1	2	-0.2638178	0.171523	-22.66891	0	11.11	4003	0	0	0	0	0.8352052	0.3873726	1	10	1E-05	30
355743	-7	-2	4	-0.2630406	0.1699649	-22.67287	0	11.17	4003	0	0	0	0	0.8352052	0.384674	1	10	1E-05	30
355860	-4	5	-4	-0.2568202	0.1669857	-22.67495	0	11.17	4004	0	0	0	0	0.8352052	0.3782687	1	10	1E-05	30
355970	-8	1	3	-0.2530902	0.1723312	-22.6758	0	11.17	4003	0	0	0	0	0.8352052	0.3852568	1	10	1E-05	30
356000	-7	-1	2	-0.2530902	0.1723312	-22.6758	0	11.17	4003	0	0	0	0	0.8352052	0.3884717	1	10	1E-05	30
356072	-3	-6	-2	-0.248881	0.1789019	-22.67727	0	11.17	4002	0	0	0	0	0.8352052	0.3943247	1	10	1E-05	30
356192	-3	1	-3	-0.2400239	0.177266	-22.68001	0	11.17	4003	0	0	0	0	0.8352052	0.4075753	1	10	1E-05	30
356340	-6	3	1	-0.2434891	0.1751247	-22.68166	0	11.17	4004	0	0	0	0	0.8352052	0.4223815	1	10	1E-05	30
356446	-5	3	0	-0.2437821	0.1683663	-22.68374	0	11.17	4003	0	0	0	0	0.8352052	0.4268605	1	10	1E-05	30
356532	-10	0	-5	-0.2375083	0.1674891	-22.68398	0	11.17	4004	0	0	0	0	0.8352052	0.4347817	1	10	1E-05	30
356639	-9	0	-3	-0.2354563	0.1641103	-22.68386	0	11.17	4004	0	0	0	0	0.8352052	0.4433012	1	10	1E-05	30
356746	-4	0	3	-0.228302	0.1694703	-22.68429	0	11.17	4002	0	0	0	0	0.8352052	0.4350129	1	10	1E-05	30
356840	0	0	3	-0.2286495	0.171376	-22.68416	0	11.17	4002	0	0	0	0	0.8352052	0.4323312	1	10	1E-05	30
356937	-7	-3	0	-0.2163893	0.1742882	-22.6863	0	11.17	4003	0	0	0	0	0.8352052	0.427862	1	10	1E-05	30
356983	-3	-1	0	-0.213889	0.1732342	-22.68569	0	11.17	4004	0	0	0	0	0.8352052	0.4237835	1	10	1E-05	30
357080	-3	1	0	-0.2172743	0.1759826	-22.68557	0	11.17	4004	0	0	0	0	0.8352052	0.415885	1	10	1E-05	30
357229	-1	1	1	-0.2146371	0.172494	-22.68685	0	11.17	4002	0	0	0	0	0.8352052	0.4197011	1	10	1E-05	30
357284	-4	3	-2	-0.209493	0.1711773	-22.68715	0	11.17	4003	0	0	0	0	0.8352052	0.4268455	1	10	1E-05	30
357388	0	0	0	-0.2137681	0.1742488	-22.6888	0	11.17	4003	0	0	0	0	0.8352052	0.4357276	1	10	1E-05	30
357506	-7	1	0	-0.2108742	0.1730792	-22.68954	0	11.17	4003	0	0	0	0	0.8352052	0.4554623	1	10	1E-05	30
357612	-5	4	0	-0.208236	0.1697748	-22.69015	0	11.11	4004	0	0	0	0	0.8352052	0.4688642	1	10	1E-05	30
357679	0	-2	0	-0.2056722	0.1688473	-22.69106	0	11.11	4003	0	0	0	0	0.8352052	0.472318	1	10	1E-05	30
357792	3	-3	-1	-0.1998503	0.1681174	-22.69228	0	11.11	4002	0	0	0	0	0.8352052	0.4748881	1	10	1E-05	30
357933	1	-2	0	-0.192245	0.1636306	-22.69185	0	11.11	4004	0	0	0	0	0.8352052	0.4772768	1	10	1E-05	30
358047	1	1	2	-0.1917492	0.1591523	-22.69668	0	11.11	4003	0	0	0	0	0.8352052	0.4727566	1	10	1E-05	30
358108	-1	-1	-1	-0.1886952	0.1579068	-22.69729	0	11.11	4003	0	0	0	0	0.8352052	0.4675075	1	10	1E-05	30
358181	-2	3	-1	-0.1834526	0.1681044	-22.69918	0	11.11	4003	0	0	0	0	0.8352052	0.4604352	1	10	1E-05	30
358329	0	1	0	-0.1795431	0.1683745	-22.70113	0	11.11	4004	0	0	0	0	0.8352052	0.4528061	1	10	1E-05	30
358390	-4	-1	-1	-0.178895	0.1668154	-22.70052	0	11.11	4004	0	0	0	0	0.8352052	0.4515576	1	10	1E-05	30
358494	0	2	-2	-0.1770518	0.1621333	-22.70131	0	11.17	4003	0	0	0	0	0.8352052	0.4435567	1	10	1E-05	30
358600	-3	-1	5	-0.1771869	0.1508181	-22.70345	0	11.17	4002	0	0	0	0	0.8352052	0.433667	1	10	1E-05	30
358716	-2	0	0	-0.1761157	0.1583526	-22.70602	0	11.17	4003	0	0	0	0	0.8352052	0.4306457	1	10	1E-05	30
358805	0	-1	-2	-0.1808407	0.1573225	-22.7062	0	11.17	4004	0	0	0	0	0.8352052	0.41627	1	10	1E-05	30
358922	-3	1	-4	-0.1801062	0.1584843	-22.70473	0	11.17	4003	0	0	0	0	0.8352052	0.4039106	1	10	1E-05	30
359147	-5	3	4	-0.1639366	0.1525836	-22.70754	0	11.17	4003	0	0	0	0	0.8352052	0.3759924	1	10	1E-05	30
359317	-2	-5	0	-0.1674369	0.1543688	-22.70693	0	11.17	4003	0	0	0	0	0.8352052	0.3610353	1	10	1E-05	30
359452	3	-2	0	-0.1642948	0.1569366	-22.70614	0	11.17	4003	0	0	0	0	0.8352052	0.3497109	1	10	1E-05	30
359565	8	4	-1	-0.1604491	0.1606226	-22.70504	0	11.17	4003	0	0	0	0	0.8352052	0.3427161	1	10	1E-05	30
359628	1	4	-2	-0.1611907	0.1620457	-22.70443	0	11.17	4003	0	0	0	0	0.8352052	0.3424502	1	10	1E-05	30
359710	-5	-1	0	-0.1582514	0.1578447	-22.70406	0	11.17	4002	0	0	0	0	0.8352052	0.3466636	1	10	1E-05	30
359826	-1	-1	1	-0.161682	0.1577446	-22.70638	0	11.17	4004	0	0	0	0	0.8352052	0.3517217	1	10	1E-05	30
359905	3	-3	3	-0.161563	0.1630996	-22.70748	0	11.17	4002	0	0	0	0	0.8352052	0.3575639	1	10	1E-05	30
360026	0	-3	1	-0.1584902	0.1654571	-22.7062	0	11.17	4004	0	0	0	0	0.8352052	0.3870817	1	10	1E-05	30
360107	0	0	3	-0.1592738	0.1669959	-22.70559	0	11.17	4004	0	0	0	0	0.8352052	0.4023269	1	10	1E-05	30
360295	2	-1	2	-0.1543655	0.1620317	-22.70535	0	11.11	4003	0	0	0	0	0.8352052	0.418696	1	10	1E-05	30
360396	0	-1	0	-0.147889	0.1663468	-22.70596	0	11.11	4003	0	0	0	0	0.8352052	0.432287	1	10	1E-05	30
360457	2	-2	-3	-0.1430228	0.1617447	-22.70632	0	11.11	4002	0	0	0	0	0.8352052	0.4346552	1	10	1E-05	30
360556	-2	4	0	-0.140945	0.1671291	-22.70657	0	11.11	4003	0	0	0	0	0.8352052	0.4329283	1	10	1E-05	30
360604	5	-4	-1	-0.142982	0.1701075	-22.70657	0	11.11	4003	0	0	0	0	0.8352052	0.4308376	1	10	1E-05	30
360725	8	0	0	-0.1488804	0.1711868	-22.70626	0	11.11	4004	0	0	0	0	0.8352052	0.4250241	1	10	1E-05	30
360937	-2	-4	1	-0.1439761	0.1679552	-22.70449	0	11.11	4002	0	0	0	0	0.8352052	0.4166925	1	10	1E-05	30
361063	-1	0	0	-0.1394759	0.168197	-22.70425	0	11.11	4003	0	0	0	0	0.8352052	0.4173763	1	10	1E-05	30
361153	1	-3	-2	-0.1374461	0.1650112	-22.70327	0	11.11	4004	0	0	0	0	0.8352052	0.4261891	1	10	1E-05	30
361278	14	-1	2	-0.1309946	0.169449	-22.70492	0	11.17	4004	0	0	0	0	0.8352052	0.4199342	1	10	1E-05	30
361354	-1	-6	2	-0.1268227	0.1635734	-22.70577	0	11.17	4003	0	0	0	0	0.8352052	0.4165789	1	10	1E-05	30
361491	5	-7	1	-0.1335268	0.1640037	-22.7062	0	11.17	4002	0	0	0	0	0.8352052	0.4081254	1	10	1E-05	30
361552	0	1	-1	-0.1396738	0.161104	-22.70589	0	11.17	4003	0	0	0	0	0.8352052	0.3989958	1	10	1E-05	30
361657	-1	-7	-1	-0.1379301	0.1604489	-22.70473	0	11.17	4002	0	0	0	0	0.8352052	0.3851216	1	10	1E-05	30
361716	9	-1	-2	-0.142786	0.1614049	-22.70681	0	11.17	4002	0	0	0	0	0.8352052	0.3747105	1	10	1E-05	30
361871	3	0	0	-0.1413825	0.1655129	-22.70766	0	11.17	4003	0	0	0	0	0.8352052	0.370565	1	10	1E-05	30
361939	6	2	3	-0.1347146	0.1608114	-22.70736	0	11.17	4003	0	0	0	0	0.8352052	0.3671175	1	10	1E-05	30
362086	0	-1	2	-0.1367201	0.1590545	-22.70815	0	11.17	4002	0	0	0	0	0.8352052	0.359351	1	10	1E-05	30
362113	0	-1	2	-0.1367201	0.1590545	-22.70815	0	11.17	4002	0	0	0	0	0.8352052	0.359351	1	4	1E-05	900
362191	0	0	2	-0.1366675	0.1619655	-22.70819	0	11.11	4002	0	0	0	0	0.8352052	0.3624133	1	4	1E-05	900
362311	3	-2	0	-0.1340233	0.1585741	-22.70922	0	11.11	4004	0	0	0	0	0.8352052	0.3639271	1	4	1E-05	900
362411	5	-2	4	-0.1280872	0.1623813	-22.7091	0	11.11	4003	0	0	0	0	0.8352052	0.3796459	1	4	1E-05	900
362542	5	-2	0	-0.1217288	0.1603125	-22.70807	0	11.11	4004	0	0	0	0	0.8352052	0.3857576	1	4	1E-05	900
362587	5	1	3	-0.1226369	0.1606987	-22.7088	0	11.11	4004	0	0	0	0	0.8352052	0.3910257	1	4	1E-05	900
362683	0	1	0	-0.1147668	0.1585394	-22.70941	0	11.11	4003	0	0	0	0	0.8352052	0.3985732	1	4	1E-05	900
362787	-2	1	3	-0.1117439	0.1511188	-22.70904	0	11.11	4003	0	0	0	0	0.8352052	0.404196	1	4	1E-05	900
362905	11	2	0	-0.1109162	0.1420701	-22.70819	0	11.11	4002	0	0	0	0	0.8352052	0.4076426	1	4	1E-05	900
363088	4	-1	0	-0.1100396	0.1411327	-22.7077	0	11.17	4004	0	0	0	0	0.8352052	0.4209066	1	4	1E-05	900
363119	8	-5	2	-0.1112414	0.143396	-22.70855	0	11.17	4002	0	0	0	0	0.8352052	0.4208969	1	4	1E-05	900
363196	12	-4	3	-0.1065842	0.1464418	-22.70953	0	11.17	4003	0	0	0	0	0.8352052	0.4186302	1	4	1E-05	900
363352	6	0	0	-0.09904084	0.1488938	-22.70794	0	11.17	4003	0	0	0	0	0.8352052	0.4131316	1	4	1E-05	900
363407	13	-4	3	-0.09678982	0.151743	-22.70843	0	11.17	4004	0	0	0	0	0.8352052	0.4124071	1	4	1E-05	900
363518	4	-5	0	-0.09372824	0.1541328	-22.70849	0	11.17	4003	0	0	0	0	0.8352052	0.407999	1	4	1E-05	900
363613	9	0	-3	-0.08301363	0.1489243	-22.70654	0	11.17	4002	0	0	0	0	0.8352052	0.3992415	3	4	1E-05	900
363716	5	0	0	-0.08115818	0.1533412	-22.70636	0	11.17	4004	0	0	0	0	0.8352052	0.3988095	3	4	1E-05	900
363827	7	-4	-2	-0.08455739	0.1544366	-22.70587	0	11.17	4004	0	0	0	0	0.8352052	0.4091197	3	4	1E-05	900
363946	12	-1	-2	-0.08513904	0.1525022	-22.70428	0	11.17	4002	0	0	0	0	0.8352052	0.4234691	3	4	1E-05	900
364085	8	-1	0	-0.07833185	0.1491134	-22.70227	0	11.11	4003	0	0	0	0	0.8352052	0.4250506	3	4	1E-05	900
364181	5	61	113	-0.07561819	0.1655539	-22.70465	0	11.11	4002	-3	-9	-1	0	0.8352052	0.4255469	3	4	1E-05	900
364262	50	12	-66	-0.07236078	0.1582326	-22.70477	0	11.11	4004	0	0	2	0	0.8352052	0.4282793	3	4	1E-05	900
364348	204	86	-44	-0.05283768	0.1583936	-22.68844	0	11.11	4004	-14	16	-1	0	0.8352052	0.430079	3	4	1E-05	900
364425	-51	-54	176	-0.0567369	0.1347927	-22.71283	0	11.11	4002	4	-2	0	0	0.8352052	0.4327849	3	4	1E-05	900
364546	169	-191	-177	-0.04197415	0.08628969	-22.69333	0	11.11	4002	27	5	5	0	0.8352052	0.4432698	3	4	1E-05	900
364649	1553	-199	653	0.5946569	0.03218661	-22.65417	0	11.11	4003	-61	48	3	0	0.8352052	0.4655066	3	4	1E-05	900
364794	2341	3783	-1271	1.968722	-4.482654	-23.8166	0	11.11	4002	-3	34	39	0	0.8352052	0.4926844	3	4	1E-05	900
364879	775	9489	1949	4.789173	-12.33494	-24.57296	0	11.11	4002	56	339	49	0	0.8352052	0.5177119	3	4	1E-05	900
364984	-2555	443	-509	-1.674907	-18.12589	-23.45795	0	10.89	4003	82	-248	14	0	0.8352052	0.5658343	3	4	1E-05	900
365035	-1637	-2624	-2610	-3.215744	-17.26393	-22.39635	0	10.89	4002	-3	-258	-38	0	0.8352052	0.5760383	3	4	1E-05	900
365131	1987	1221	-49	-2.527251	-15.75004	-20.31928	0	10.89	4002	-94	277	-55	0	0.8352052	0.6189211	3	4	1E-05	900
365259	513	-2231	2119	-0.2121428	-8.972173	-21.33878	0	10.89	4003	-5	-242	-25	0	0.8352052	0.7013106	3	4	1E-05	900
365387	-208	646	1980	-0.6433019	-5.509444	-22.76594	0	10.89	4003	95	135	18	0	0.8352052	0.8050959	3	4	1E-05	900
365500	3897	-765	306	4.570609	-4.530488	-22.77493	0	10.89	4003	46	-286	-2	0	0.8352052	0.8738722	3	4	1E-05	900
365550	1436	-973	7	5.549572	-3.872487	-22.56541	0	10.89	4002	74	-93	-50	0	0.8352052	0.8910962	3	4	1E-05	900
365619	-294	-1280	-873	3.975149	-4.168705	-21.02181	0	10.89	4002	-2	-131	-51	0	0.8352052	1.001177	3	4	1E-05	900
365750	-1439	-1998	1113	0.86431	-2.902092	-22.02805	0	10.89	4004	-88	11	-3	0	0.8352052	1.079656	3	4	1E-05	900
365865	676	-2475	-622	0.8932731	-0.1937108	-22.77694	0	10.26	4003	-8	-191	-5	0	0.8352052	1.152464	3	4	1E-05	900
365959	-3687	1682	-608	-0.4810934	-3.661135	-23.21552	0	10.26	4002	140	-89	2	0	0.8352052	1.223212	3	4	1E-05	900
366070	-2498	-1167	-1676	-4.739754	-7.143045	-22.27482	0	10.26	4002	2	-195	-28	0	0.8352052	1.26784	3	4	1E-05	900
366145	-2207	-1726	-746	-7.45292	-7.098424	-21.90319	0	10.26	4003	80	-117	-28	0	0.8352052	1.314456	3	4	1E-05	900
366226	2827	-561	934	-6.789931	-5.857158	-21.90647	0	10.26	4004	-195	142	-7	0	0.8352052	1.349049	3	4	1E-05	900
366387	-1679	-1209	391	-3.977259	-3.310347	-22.17594	0	10.26	4004	89	-360	-26	0	0.8352052	1.427565	3	4	1E-05	900
366459	1222	2709	-155	-3.596793	-5.861404	-21.81599	0	10.26	4003	68	-64	-40	0	0.8352052	1.442852	3	4	1E-05	900
366555	2360	4455	533	-0.998037	-12.4673	-21.61303	0	10.26	4003	-64	-11	-19	0	0.8352052	1.488998	3	4	1E-05	900
366632	6	507	522	0.6048365	-15.77628	-21.77985	0	10.26	4002	21	-85	-20	0	0.8352052	1.507189	3	4	1E-05	900
366736	2514	1424	-1251	4.03434	-17.6875	-21.63545	0	10.83	4003	-101	213	-22	0	0.8352052	1.528864	3	4	1E-05	900
366848	-572	17	0	5.365714	-19.09687	-21.44582	0	10.83	4002	8	-26	-28	0	0.8352052	1.558832	3	4	1E-05	900
366957	1101	-2165	703	3.531446	-13.48726	-21.8077	0	10.83	4002	-32	-16	-18	0	0.8352052	1.58401	3	4	1E-05	900
367035	-36	-428	104	3.954722	-10.14638	-22.39172	0	10.83	4002	-31	32	-13	0	0.8352052	1.596517	3	4	1E-05	900
367128	-481	-2492	-630	3.218743	-8.806083	-22.20196	0	10.83	4003	100	-219	-26	0	0.8352052	1.626989	3	4	1E-05	900
367241	-597	-1818	-25	3.200564	-5.826598	-21.80751	0	10.83	4003	-62	-20	-19	0	0.8352052	1.641024	3	4	1E-05	900
367496	183	2	-257	1.832572	-6.983365	-22.17766	0	10.83	4003	-2	-7	0	0	0.8352052	1.627494	3	4	1E-05	900
367587	-95	-704	-587	1.874769	-7.844373	-21.90992	0	10.83	4003	38	27	-27	0	0.8352052	1.604889	3	4	1E-05	900
367653	102	-1322	-370	1.640208	-6.392434	-22.36566	0	9.47	4003	-152	92	8	0	0.8352052	1.596596	3	4	1E-05	900
367787	-198	1444	508	1.313604	-7.288133	-22.30707	0	9.47	4003	-136	147	11	0	0.8352052	1.573063	3	4	1E-05	900
367893	-445	1074	-749	-1.539656	-10.17108	-22.26387	0	9.47	4002	-16	-201	-12	0	0.8352052	1.553407	3	4	1E-05	900
367960	-467	3828	496	-1.269862	-13.73646	-22.86565	0	9.47	4003	153	-217	-12	0	0.8352052	1.53387	3	4	1E-05	900
368136	-527	3072	-717	0.3583805	-19.49421	-21.17746	0	9.47	4003	4	42	-36	0	0.8352052	1.513174	3	4	1E-05	900
368260	-534	-883	-1123	-2.164944	-22.93728	-18.57529	0	9.47	4004	33	9	-121	0	0.8352052	1.507563	3	4	1E-05	900
368328	-941	-2506	415	-2.3362	-20.07122	-18.34732	0	9.47	4003	137	-251	-98	0	0.8352052	1.508772	3	4	1E-05	900
368450	-9	149	1057	1.170398	-19.46822	-20.99518	0	9.47	4004	-98	295	-42	4	0.8352052	1.511614	4	4	1E-05	900
368483	-261	-785	968	1.543537	-19.13743	-21.80075	0	9.47	4002	41	-141	-8	3	0.8849401	1.509771	4	4	1E-05	900
368604	-246	-693	552	1.939641	-17.23491	-22.83981	0	9.47	4002	108	-25	4	3	0.932713	1.511112	4	4	1E-05	900
368681	-203	-1200	255	-0.586206	-15.67903	-23.00519	0	9.47	4004	139	-88	-7	3	0.8551185	1.511054	4	4	1E-05	900
368811	906	57	-987	0.2504614	-13.2103	-21.9099	0	9.47	4003	50	101	-15	4	0.8401625	1.514535	4	4	1E-05	900
368842	906	57	-987	0.2504614	-13.2103	-21.9099	0	9.47	4003	-65	127	4	3	0.9135143	1.519937	4	4	1E-05	900
368946	-2519	-3833	-1093	-2.462404	-11.78024	-22.44004	0	9.47	4004	64	-284	-7	4	0.8450724	1.539047	4	4	1E-05	900
369047	364	-4162	-226	-2.282568	-6.802785	-22.63665	0	9.47	4003	153	-70	-9	4	0.88841	1.562346	4	4	1E-05	900
369159	434	-3404	-829	-1.06052	1.869395	-22.94075	0	9.47	4003	-91	205	26	3	1.033778	1.598222	4	4	1E-05	900
369260	1632	2482	-702	0.9971309	-2.266206	-22.57785	0	9.47	4002	-61	-21	4	2	1.086924	1.653807	4	4	1E-05	900
369324	-292	2429	225	1.366465	-5.719155	-22.45994	0	9.47	4004	-40	-10	8	2	1.110752	1.687113	4	4	1E-05	900
369343	-838	1644	-556	-0.1371597	-8.493616	-22.57006	0	9.47	4003	42	11	-13	1	1.129022	1.704687	4	4	1E-05	900
369426	-1036	-175	-893	-0.2009189	-10.76016	-22.38179	0	10.55	4002	156	-291	-13	1	1.202766	1.754265	4	4	1E-05	900
369515	1069	1284	550	-0.9748552	-12.40651	-22.40608	0	10.55	4003	-136	178	0	1	1.222416	1.797741	4	4	1E-05	900
369555	1300	-967	225	1.740902	-11.68671	-21.66829	0	10.55	4002	-94	183	-21	1	1.12923	1.834471	4	4	1E-05	900
369616	-113	-875	-858	2.148575	-9.940106	-21.15743	0	10.55	4003	-18	132	-23	1	1.113525	1.887427	4	4	1E-05	900
369697	-990	-1576	-717	1.402949	-10.61799	-20.93933	0	10.55	4004	-51	15	-39	3	0.9588535	1.951068	4	4	1E-05	900
369762	-446	-3150	-4	0.1315595	-6.350636	-20.91508	0	10.55	4004	12	-158	-52	4	0.903709	2.001488	4	4	1E-05	900
369887	-28	-1852	-778	-0.2454173	-3.662426	-22.22858	0	10.55	4004	-80	96	-11	3	1.03096	2.0626	4	4	1E-05	900
370006	-1985	-601	98	-4.358432	-2.304785	-23.32437	0	10.55	4003	131	-76	13	2	1.057303	2.132985	4	4	1E-05	900
370038	-582	3954	1111	-4.877685	-4.527139	-23.43231	0	10.89	4003	9	-180	9	2	1.101324	2.160642	4	4	1E-05	900
370088	-247	1165	-1251	-5.449904	-8.033262	-22.96994	0	10.89	4003	-58	14	14	3	1.014187	2.190156	4	4	1E-05	900
370119	984	-504	-250	-4.375009	-9.563705	-21.89126	0	10.89	4004	-77	0	-19	3	1.024626	2.213052	4	4	1E-05	900
370291	-819	1768	-695	-3.87742	-15.03052	-21.48814	0	10.89	4004	-9	13	-19	1	1.158995	2.288905	4	4	1E-05	900
370336	1589	2172	-78	-2.768984	-15.99376	-21.51102	0	10.89	4004	-122	206	-17	1	1.164047	2.352112	4	4	1E-05	900
370369	-298	1249	-393	-0.1779324	-18.16216	-21.71551	0	10.89	4003	89	-82	-31	1	1.155075	2.399957	4	4	1E-05	900
370460	909	-1017	-755	-0.1365105	-17.81773	-20.95531	0	10.89	4004	-3	21	-49	1	1.110516	2.45394	4	4	1E-05	900
370521	2057	-287	-1222	2.677626	-18.87249	-21.197	0	10.89	4002	35	89	-36	2	1.056312	2.501539	4	4	1E-05	900
370591	-12	-594	132	4.339076	-19.0488	-21.0358	0	10.89	4003	-225	247	-38	2	1.059353	2.597877	4	4	1E-05	900
370692	-1430	-1481	211	1.397676	-11.26028	-20.34889	0	10.49	4003	107	-238	-72	3	0.8397355	2.677039	4	4	1E-05	900
370722	664	2803	1279	0.6065758	-11.91296	-21.17843	0	10.49	4003	-188	139	-18	3	0.939432	2.720146	4	4	1E-05	900
370753	-525	-483	785	1.070944	-13.66521	-22.51349	0	10.49	4004	67	-172	0	3	0.9997398	2.77858	4	4	1E-05	900
370835	185	860	527	-0.002303213	-11.06107	-22.82674	0	10.49	4003	-107	211	18	2	1.060586	2.858216	4	4	1E-05	900
370943	-509	2931	-817	0.1499646	-17.62176	-22.19729	0	10.49	4003	-172	320	-3	2	1.009296	2.970872	4	4	1E-05	900
371038	-829	944	-699	0.4004864	-24.06183	-21.7411	0	10.49	4004	102	-111	-27	1	1.155046	3.061425	4	4	1E-05	900
371070	-103	77	-2093	0.008444851	-25.6725	-21.05863	0	10.49	4003	68	-222	-66	1	1.174531	3.138355	4	4	1E-05	900
371111	568	1091	910	-0.9530529	-25.66698	-20.96582	0	10.49	4002	-123	75	-33	1	1.142123	3.185909	4	4	1E-05	900
371196	1543	-644	214	1.262104	-23.48188	-21.35447	0	10.21	4003	111	-286	-45	1	1.096687	3.248254	4	4	1E-05	900
371280	-1093	-4094	800	1.959643	-18.46451	-22.09019	0	10.21	4003	88	-128	-11	2	1.023037	3.312067	4	4	1E-05	900
371331	-958	-4772	-741	0.1105054	-12.9621	-22.21839	0	10.21	4002	15	112	-9	2	1.05682	3.363121	4	4	1E-05	900
371389	-593	-2820	-1867	0.2939848	-9.451654	-21.26798	0	10.21	4003	105	-346	-51	1	1.107653	3.46915	4	4	1E-05	900
371526	196	-3376	-267	-0.6221287	-5.399624	-20.70628	0	10.21	4002	57	-228	-49	2	0.9856908	3.607752	4	4	1E-05	900
371622	2683	1768	1131	2.418072	-6.904833	-22.25734	0	10.21	4004	18	-71	-18	2	1.053889	3.825577	4	4	1E-05	900
371668	116	-314	-201	6.394279	-10.70189	-22.49576	0	10.21	4003	168	-320	-17	2	1.050873	3.905301	4	4	1E-05	900
371744	637	-1060	-1510	5.173277	-12.69838	-21.9065	0	10.89	4004	-59	180	-18	3	0.8776302	3.954475	4	4	1E-05	900
371800	1062	-395	-1336	5.842822	-12.47101	-21.70872	0	10.89	4004	-91	282	-17	5	0.6478794	4.023895	4	4	1E-05	900
371860	1123	540	749	7.033694	-12.97344	-21.83236	0	10.89	4002	-96	138	-10	5	0.7003177	4.071603	4	4	1E-05	900
371907	-2134	-2063	335	8.736759	-14.50118	-21.57992	0	10.89	4003	-68	114	-27	4	0.7938715	4.216371	4	4	1E-05	900
371977	52	-2071	-579	3.087244	-8.151578	-21.95134	0	10.89	4002	29	-333	-19	3	1.005955	4.356933	4	4	1E-05	900
372018	307	528	170	3.656634	-9.27389	-22.05838	0	10.89	4002	-84	6	-12	2	1.033991	4.408451	4	4	1E-05	900
372037	-1515	-2495	-892	2.961891	-8.472865	-21.63363	0	10.89	4004	6	85	-21	2	1.053338	4.460411	4	4	1E-05	900
372073	398	171	0	2.28121	-7.729403	-21.12484	0	10.89	4004	-115	30	-30	0	1.071375	4.530906	3	4	1E-05	900
372143	-217	-197	1111	2.401305	-8.651156	-21.59574	0	10.89	4003	-112	119	-10	0	1.080594	4.568151	3	4	1E-05	900
372229	-1690	-2977	370	1.749597	-6.072114	-22.37896	0	10.72	4004	-3	-90	-6	0	1.094109	4.656286	3	4	1E-05	900
372355	-1081	-1927	128	-2.538552	-0.7004777	-23.11361	0	10.72	4002	28	-119	12	0	1.102977	4.706078	3	4	1E-05	900
372439	-2007	89	-83	-4.917507	-0.3447436	-22.72981	0	10.72	4004	-2	-37	1	0	1.107562	4.738409	3	4	1E-05	900
372486	-2007	89	-83	-4.917507	-0.3447436	-22.72981	0	10.72	4004	3	-83	6	0	1.109905	4.755311	3	4	1E-05	900
372620	-363	2641	121	-9.134706	-4.479456	-22.58994	0	10.72	4003	0	-78	-5	0	1.112612	4.769817	3	4	1E-05	900
372732	965	2858	228	-7.166904	-8.569604	-22.84317	0	10.72	4003	-20	-70	1	0	1.115117	4.775096	3	4	1E-05	900
372789	963	2762	682	-5.447762	-10.97878	-22.86372	0	10.72	4003	-16	-66	-3	0	1.115595	4.775302	3	4	1E-05	900
372909	239	1520	-288	-3.77878	-13.2015	-22.39156	0	10.72	4003	-36	-73	-10	0	1.11676	4.765652	3	4	1E-05	900
372999	212	2035	-447	-3.213167	-14.41476	-22.44433	0	10.72	4003	1	-98	9	0	1.11761	4.755735	3	4	1E-05	900
373124	540	944	122	-3.531972	-16.27973	-22.27619	0	10.72	4003	-21	-55	-16	0	1.118546	4.726737	3	4	1E-05	900
373221	307	25	730	-2.873882	-15.2866	-21.92982	0	11.11	4004	-100	-61	-29	0	1.118802	4.708848	3	4	1E-05	900
373319	-2030	2493	-446	-4.631174	-16.11188	-21.5279	0	11.11	4004	58	-46	-54	0	1.119098	4.671535	3	4	1E-05	900
373458	-419	-2632	-1442	-6.614165	-17.41246	-19.61497	0	11.11	4004	186	-400	-83	0	1.119372	4.616173	3	4	1E-05	900
373548	3252	2820	3007	1.068597	-18.47994	-19.49868	0	11.11	4003	-224	368	-45	0	1.119514	4.567218	3	4	1E-05	900
373599	-1360	-1014	3700	1.268262	-16.94562	-21.63004	0	11.11	4004	5	89	-42	0	1.119586	4.522666	3	4	1E-05	900
373709	-802	-6663	916	-2.050202	-6.808237	-23.99924	0	11.11	4004	41	-294	38	0	1.11967	4.447306	3	4	1E-05	900
373805	-3643	-8673	-1348	-3.872416	0.3775777	-24.54314	0	11.11	4003	4	-288	44	0	1.119731	4.261543	3	4	1E-05	900
373949	-3517	1164	-1520	-11.33402	6.793571	-22.96874	0	11.11	4003	-87	83	2	0	1.119787	4.170774	3	4	1E-05	900
374007	221	2323	-512	-11.5027	1.949203	-22.33373	0	11.11	4002	-88	-13	-3	0	1.119808	4.115064	3	4	1E-05	900
374096	2178	2386	-777	-8.051723	-2.044896	-21.95736	0	10.09	4002	78	-65	-43	0	1.119831	3.926984	3	4	1E-05	900
374201	790	7063	1260	-5.601166	-11.68639	-21.62456	0	10.09	4003	-135	186	-21	0	1.119848	3.846297	3	4	1E-05	900
374355	2218	3474	-735	-2.721226	-21.12646	-21.07066	0	10.09	4003	-223	400	-39	0	1.119864	3.658923	3	4	1E-05	900
374454	-2625	-1678	-169	-2.641395	-22.21698	-20.98002	0	10.09	4004	-92	141	-30	0	1.119875	3.554165	3	4	1E-05	900
374518	798	-226	671	-2.842412	-21.21639	-21.05369	0	10.09	4002	191	-162	-59	0	1.119877	3.510888	3	4	1E-05	900
374656	1476	-2239	818	0.795005	-15.51341	-21.09309	0	10.09	4002	-50	132	-33	0	1.119884	3.310842	3	4	1E-05	900
374702	284	-2711	1465	1.37375	-10.86244	-21.03958	0	10.09	4002	42	-246	-63	0	1.119885	3.276788	3	4	1E-05	900
374865	-1254	-1193	1974	-0.472715	-4.878641	-22.30336	0	10.09	4004	12	30	-6	0	1.119889	3.163612	3	4	1E-05	900
374902	194	-1186	708	-0.8312303	-4.269072	-22.73324	0	10.09	4004	-181	137	15	0	1.11989	3.120386	3	4	1E-05	900
