time(ms)	gyro_x(deg/s)	gyro_y(deg/s)	gyro_z(deg/s)	orientation_roll(deg)	orientation_pitch(deg)	orientation_yaw(deg)	throttle	battery(V)	loop_time(uS)	pid_output_roll	pid_output_pitch	pid_output_yaw	pid_output_throttle	ultrasonic_alt	baro_alt	flight_mode	p_gain_altitude	i_gain_altitude	d_gain_altitude
317951	-64	0	12	-0.1654569	0.143324	1.770985	0	11.46	4003	0	0	0	0	0.8087943	0.2720339	1	400	0	600
318072	-57	-5	12	-0.1712483	0.1368746	1.754845	0	11.46	4004	0	0	0	0	0.8087943	0.2701556	1	400	0	600
318174	-58	2	9	-0.1834098	0.1305953	1.739194	0	11.46	4004	0	0	0	0	0.8087943	0.2623438	1	400	0	600
318355	-64	2	9	-0.1892737	0.1124852	1.709419	0	11.46	4003	0	0	0	0	0.8087943	0.2552441	1	400	0	600
318490	-60	-2	7	-0.1890291	0.09848412	1.686493	0	11.46	4004	0	0	0	0	0.8087943	0.2653846	1	400	0	600
318544	-57	1	8	-0.1878753	0.09744096	1.680624	0	11.46	4003	0	0	0	0	0.8087943	0.265736	1	400	0	600
318786	-56	-2	11	-0.1939803	0.09200576	1.643699	0	11.46	4004	0	0	0	0	0.8087943	0.2692899	1	400	0	600
318926	-59	-3	13	-0.1935624	0.08708452	1.622669	0	11.46	4002	0	0	0	0	0.8087943	0.2753493	1	400	0	600
319010	-58	0	8	-0.1964125	0.08268552	1.612705	0	11.46	4002	0	0	0	0	0.8087943	0.2842383	1	400	0	600
319095	-60	4	14	-0.1929304	0.07287689	1.597727	0	11.46	4003	0	0	0	0	0.8087943	0.2863818	1	400	0	600
349108	3	1	0	0.1644749	-0.0116547	0.3388151	0	11.57	4004	0	0	0	0	0.8087943	-0.09027094	1	400	0	1200
349286	15	-2	0	0.1670746	-0.02169979	0.3418715	0	11.57	4003	0	0	0	0	0.8087943	-0.08025876	1	400	0	1200
349341	10	-6	5	0.1619191	-0.02235337	0.3427884	0	11.57	4003	0	0	0	0	0.8087943	-0.07954309	1	400	0	1200
349455	17	-3	-4	0.158811	-0.02069785	0.3436444	0	11.57	4004	0	0	0	0	0.8087943	-0.07300165	1	400	0	1200
349537	22	-5	-4	0.1607885	-0.02547921	0.3459675	0	11.57	4004	0	0	0	0	0.8087943	-0.06680282	1	400	0	1200
349599	14	0	-3	0.1664016	-0.02927303	0.3499413	0	11.57	4002	0	0	0	0	0.8087943	-0.06073249	1	400	0	1200
349722	18	2	-1	0.1648466	-0.02835531	0.3517143	0	11.57	4004	0	0	0	0	0.8087943	-0.05173554	1	400	0	1200
349839	7	0	0	0.1689726	-0.02634943	0.3536094	0	11.57	4002	0	0	0	0	0.8087943	-0.03478215	1	400	0	1200
349923	7	-1	0	0.1705534	-0.02698636	0.3548323	0	11.57	4003	0	0	0	0	0.8087943	-0.02517755	1	400	0	1200
350012	12	3	-2	0.1718903	-0.02447401	0.3583776	0	11.57	4004	0	0	0	0	0.8087943	-0.016599	1	400	0	1200
350164	18	5	0	0.18834	-0.02545111	0.3618621	0	11.57	4003	0	0	0	0	0.8087943	-0.0103434	1	400	0	1200
350229	14	11	-4	0.1920178	-0.03999503	0.3679759	0	11.57	4002	0	0	0	0	0.8087943	-0.008641681	3	400	0	1200
350277	13	6	-4	0.1939453	-0.04116081	0.3698099	0	11.57	4003	0	0	0	0	0.8087943	-0.008497468	3	400	0	1200
350344	25	-4	-1	0.1991443	-0.03610667	0.3721335	0	11.57	4004	0	0	0	0	0.8087943	-0.005574934	3	400	0	1200
350431	14	0	0	0.2017373	-0.0401642	0.3732339	0	11.57	4002	0	0	0	0	0.8087943	-0.00784943	3	400	0	1200
350541	25	6	-7	0.2021349	-0.04489498	0.376352	0	11.57	4003	-1	0	0	0	0.8087943	-0.01482978	3	400	0	1200
350700	-9	19	-148	0.1983995	-0.0340449	0.3842951	0	11.57	4002	4	-6	0	0	0.8087943	-0.01905959	3	400	0	1200
350797	2	-51	-85	0.197678	-0.04400421	0.3762837	0	11.57	4002	0	-5	0	0	0.8087943	-0.03126525	3	400	0	1200
350912	39	-6	18	0.1890362	-0.02790795	0.3680329	0	11.57	4002	13	-3	1	0	0.8087943	-0.04292152	3	400	0	1200
351020	0	30	91	0.2078197	-0.03617821	0.3825761	0	11.57	4003	-18	9	-1	0	0.8087943	-0.04982933	3	400	0	1200
351038	109	30	-75	0.2437824	-0.04194221	0.3883162	0	11.57	4003	-32	11	-2	0	0.8087943	-0.04982933	3	400	0	1200
351142	148	-7	99	0.2567616	-0.05958956	0.3849007	0	11.57	4003	-7	0	0	0	0.8087943	-0.05669576	3	400	0	1200
351292	-126	22	50	0.2713602	-0.04306311	0.3784779	0	11.57	4004	7	0	0	0	0.8087943	-0.0673456	3	400	0	1200
351345	-66	46	30	0.2735884	-0.05464864	0.3859345	0	11.57	4002	3	-13	0	0	0.8087943	-0.06931715	3	400	0	1200
351438	-174	59	-36	0.3147081	-0.06510983	0.3987931	0	10.94	4002	-21	-6	0	0	0.8087943	-0.07289738	3	400	0	1200
351600	-68	-27	-44	0.3938175	-0.09046461	0.4053853	0	10.94	4004	-17	-4	0	0	0.8087943	-0.06446997	3	400	0	1200
351634	-102	-89	90	0.3502958	-0.05353693	0.4261163	0	10.94	4003	-52	1	-4	0	0.8087943	-0.06072653	3	400	0	1200
351776	260	-411	93	0.3363604	-0.06850789	0.5023378	0	10.94	4004	-58	-3	-4	0	0.8087943	-0.03080616	3	400	0	1200
351878	438	1917	773	1.192925	-0.6230735	0.8034133	0	10.94	4003	-169	192	-2	0	0.8087943	-0.007268006	3	400	0	1200
351946	-576	2067	409	0.4153588	-2.123961	1.384308	0	10.94	4003	16	46	-41	0	0.8087943	0.02137989	3	400	0	1200
352083	1024	6991	857	0.9509057	-9.782912	1.692191	0	10.94	4002	-33	176	-62	0	0.8087943	0.05793768	3	400	0	1200
352188	204	3396	1067	2.792804	-14.71018	3.159737	0	10.94	4003	-185	400	-61	0	0.8087943	0.09037407	3	400	0	1200
352258	-1041	871	-1139	2.051934	-15.65715	4.017501	0	10.94	4002	-93	51	-95	0	0.8087943	0.1378943	3	400	0	1200
352413	-2036	1252	-128	-0.1565889	-16.45392	4.707206	0	11.17	4004	136	-272	-128	0	0.8087943	0.1983261	3	400	0	1200
352512	-2999	-2250	2078	-3.352664	-14.44939	2.643626	0	11.17	4002	56	-94	-27	0	0.8087943	0.25975	3	400	0	1200
352583	-1789	-1390	1654	-5.991681	-10.24671	-0.08761637	0	11.17	4005	-34	-105	12	0	0.8087943	0.3028158	3	400	0	1200
352713	-982	499	-397	-8.163218	-9.238551	-1.094729	0	11.17	4004	30	-143	39	0	0.8087943	0.3879356	3	400	0	1200
352768	1910	3643	181	-6.894721	-10.7826	-0.450473	0	11.17	4003	-126	363	0	0	0.8087943	0.4028399	3	400	0	1200
352905	478	-2684	-1605	-2.656604	-13.51295	1.905505	0	11.17	4004	-143	88	-35	0	0.8087943	0.4931626	3	400	0	1200
352971	-120	-1164	-667	-2.955338	-11.37484	2.493627	0	11.17	4003	124	141	-59	0	0.8087943	0.5448043	3	400	0	1200
353086	2512	-1656	1165	-1.962924	-8.408785	3.082589	0	11.17	4002	-79	-81	-54	0	0.8087943	0.6215612	3	400	0	1200
353208	1741	-60	1209	1.602248	-8.205204	2.309515	0	11.17	4003	-25	43	-33	0	0.8087943	0.7149605	3	400	0	1200
353343	2441	-3859	426	4.136293	-0.4218131	-0.3573865	0	11.06	4003	38	-140	26	0	0.8087943	0.8116771	3	400	0	1200
353409	1525	-1534	174	5.931854	1.239324	-0.7116918	0	11.06	4002	8	-69	23	0	0.8087943	0.8529067	3	400	0	1200
353543	-374	-1462	180	5.109764	1.862126	0.09676472	0	11.06	4003	-31	-41	0	0	0.8087943	0.9151042	3	400	0	1200
353679	-799	-261	-1005	2.882859	0.2569719	0.5361055	0	11.06	4004	205	-165	-9	0	0.8087943	0.9660928	3	400	0	1200
353743	620	1199	671	2.447539	-1.209983	0.7562253	0	11.06	4003	-171	221	0	0	0.8087943	0.9778488	3	400	0	1200
353850	-1332	-331	-823	2.382204	-4.482957	0.9448743	0	11.06	4004	17	-213	-28	0	0.8087943	1.01984	3	400	0	1200
353965	980	732	208	0.4607329	-6.634301	0.2158568	0	11.06	4004	171	-303	-21	0	0.8087943	1.036128	3	400	0	1200
354004	-364	-2731	-1242	0.9441647	-6.395493	0.3940238	0	11.06	4004	18	-305	-17	0	0.8087943	1.038777	3	400	0	1200
354122	-1147	-1112	-594	0.4879913	-5.046422	0.9351106	0	11.06	4004	-67	-58	-23	0	0.8087943	1.040248	3	400	0	1200
354211	1160	405	-177	0.4093877	-4.5006	1.603552	0	10.49	4003	-19	-147	-61	0	0.8087943	1.036059	3	400	0	1200
354308	-1179	582	860	0.4298832	-6.091647	1.203305	0	10.49	4002	0	251	-29	0	0.8087943	1.030486	3	400	0	1200
354391	1137	1063	973	0.961474	-7.273934	1.296242	0	10.49	4004	8	83	-43	0	0.8087943	1.023956	3	400	0	1200
354464	-302	-545	638	0.2589008	-6.799161	0.7070403	0	10.49	4002	-243	233	-15	0	0.8087943	1.014801	3	400	0	1200
354574	-430	550	1053	-0.1970334	-5.796703	1.221612	0	10.49	4003	-4	43	-30	0	0.8087943	1.004599	3	400	0	1200
354721	-1062	-1277	-528	0.009726516	-6.460042	0.5435156	0	10.49	4002	149	-138	-27	0	0.8087943	0.9947109	3	400	0	1200
354781	-462	422	1220	0.2028438	-6.620538	0.458901	0	10.49	4004	-167	280	-3	0	0.8087943	0.9869626	3	400	0	1200
354874	-1946	-4136	-912	-1.772551	-2.965932	1.560386	0	10.49	4004	229	-370	-57	0	0.8087943	0.9756585	3	400	0	1200
355008	1204	3227	1875	-2.759896	-1.47	2.530785	0	10.49	4003	-75	200	-53	0	0.8087943	0.9647475	3	400	0	1200
355114	548	817	36	-0.6909742	-6.663943	1.279784	0	10.72	4003	92	-208	-27	0	0.8087943	0.9568143	3	400	0	1200
355234	2878	3654	-1216	2.630206	-11.91539	0.142544	0	10.72	4004	-203	248	15	0	0.8087943	0.9575406	3	400	0	1200
355379	-491	-1762	-1791	3.983037	-16.9584	0.6742083	0	10.72	4004	210	-372	-42	0	0.8087943	0.9741007	3	400	0	1200
355425	-37	-1409	-2208	3.771789	-15.31175	1.772316	0	10.72	4002	-121	63	-30	0	0.8087943	0.9789622	3	400	0	1200
355527	-192	14	-1712	5.098092	-15.99416	2.665747	0	10.72	4004	126	15	-70	0	0.8087943	0.989039	3	400	0	1200
355579	110	3251	1897	5.181456	-16.55396	2.547705	0	10.72	4002	-201	299	-43	0	0.8087943	0.9950931	3	400	0	1200
355706	-508	1227	1279	3.773045	-18.06642	1.711846	0	10.72	4002	-83	145	-31	0	0.8087943	1.004391	3	400	0	1200
355816	-429	622	964	3.315316	-16.96418	1.208511	0	10.72	4004	-128	220	-15	0	0.8087943	1.00792	3	400	0	1200
355904	377	953	87	2.637096	-16.97004	1.057381	0	10.72	4004	38	-294	-32	0	0.8087943	1.014048	3	400	0	1200
356016	2141	5065	615	4.527539	-19.84558	2.39623	0	11.34	4003	-183	400	-51	0	0.8087943	1.027386	3	400	0	1200
356084	-485	1904	-270	4.690563	-21.98223	2.633902	0	11.34	4002	-104	233	-58	0	0.8087943	1.04442	3	400	0	1200
356194	-836	-3747	1572	2.325874	-14.25611	1.12932	0	11.34	4003	1	4	-3	0	0.8087943	1.084728	3	400	0	1200
356300	385	464	966	2.560267	-11.45048	-0.6079425	0	11.34	4004	-46	50	26	0	0.8087943	1.126215	3	400	0	1200
356399	102	-414	-594	3.104845	-11.25152	-0.792635	0	11.34	4003	40	-91	13	0	0.8087943	1.164077	3	400	0	1200
356511	-1317	-2790	-279	0.7047802	-7.402292	-0.1474349	0	11.34	4004	36	-114	-6	0	0.8087943	1.207535	3	400	0	1200
356662	-28	-33	382	-1.416693	-3.792593	0.0274852	0	11.34	4004	52	-131	-4	0	0.8087943	1.249277	3	400	0	1200
356784	708	69	-706	-0.511529	-5.410326	-0.4899981	0	11.34	4003	-69	-70	19	0	0.8087943	1.295266	3	400	0	1200
356855	1487	1216	-26	1.305126	-6.466939	-0.4175647	0	11.34	4003	21	-17	0	0	0.8087943	1.308694	3	400	0	1200
356988	-798	-545	-1730	0.8001853	-7.773349	0.5147763	0	10.89	4003	104	-399	-31	0	0.8087943	1.319427	3	400	0	1200
357099	11	3340	1388	0.0244096	-11.2165	0.3709455	0	10.89	4003	-237	400	8	0	0.8087943	1.325233	3	400	0	1200
357295	1435	1276	311	-0.07037251	-11.22593	0.2604603	0	10.89	4002	54	22	-16	0	0.8087943	1.32477	3	400	0	1200
357420	-1939	-1037	-749	-0.395008	-8.870648	1.798267	0	10.89	4004	-74	-84	-42	0	0.8087943	1.3273	3	400	0	1200
357494	-907	-302	442	-0.9782742	-8.851624	1.789731	0	10.89	4004	97	62	-31	0	0.8087943	1.328086	3	400	0	1200
357635	-2150	-889	1115	0.2144283	-5.80139	1.69633	0	10.89	4002	54	-114	-43	0	0.8087943	1.320281	3	400	0	1200
357749	583	-2343	-108	-0.7834452	-4.909376	1.642383	0	10.89	4003	0	-54	-31	0	0.8087943	1.313611	3	400	0	1200
357851	1513	486	1545	1.529715	-5.666813	1.164379	0	10.83	4004	-65	149	-12	48	0.875542	1.303342	4	400	0	1200
357900	-111	155	358	0.8193447	-5.117706	0.7764866	0	10.83	4002	98	-400	-22	24	0.9896808	1.29668	4	400	0	1200
357999	750	-1734	-15	2.00592	-4.343991	0.56466	0	10.83	4002	-153	272	0	-16	1.054621	1.286724	4	400	0	1200
358222	-817	-247	-1164	-0.2527923	-10.07959	1.208963	0	10.83	4003	163	-145	-43	-96	1.243728	1.27994	4	400	0	1200
358366	858	1389	40	0.8842035	-12.69203	3.247564	0	10.83	4004	-49	54	-79	-88	1.256512	1.277331	4	400	0	1200
358462	-944	-1881	1124	0.6641366	-11.40806	1.897434	0	10.83	4003	19	-64	-15	-120	1.361307	1.272944	4	400	0	1200
358589	-170	-2416	235	-0.7488705	-5.391551	-1.064068	0	10.83	4003	9	-58	44	-128	1.314574	1.264139	4	400	0	1200
358621	315	-1834	581	-0.7205443	-4.204705	-1.371414	0	10.83	4004	-39	-28	38	-120	1.308037	1.261137	4	400	0	1200
358693	0	-712	-233	-0.5122029	-2.403098	-1.137841	0	10.83	4004	2	-105	16	-120	1.296859	1.251561	4	400	0	1200
358854	387	280	-338	-3.717425	-1.737506	0.3199317	0	11.11	4002	-12	-51	-13	-128	1.328058	1.235655	4	400	0	1200
358935	560	53	-95	-3.318308	-1.501685	0.2536578	0	11.11	4003	-25	-67	-7	-192	1.471178	1.230637	4	400	0	1200
359040	-233	1687	94	-3.152114	-1.871537	0.04755218	0	11.11	4002	-6	-27	3	-216	1.553762	1.211436	4	400	0	1200
359100	-1116	3383	831	-4.307588	-3.723531	-0.3688686	0	11.11	4003	36	22	9	-224	1.406661	1.196606	4	400	0	1200
359194	1564	1856	-193	-4.44809	-6.318978	-0.3157405	0	11.11	4002	-35	32	9	-160	1.405355	1.138751	4	400	0	1200
359298	823	-1365	-678	0.0249421	-6.446334	0.00404992	0	11.11	4002	-10	-130	4	-168	1.415557	1.082291	4	400	0	1200
359417	-739	-1339	-36	-0.71424	-3.632022	0.1113511	0	11.11	4004	104	19	4	-224	1.403571	1.021002	4	400	0	1200
359522	32487	10533	16496	8.295386	-21.58143	-15.23179	0	11.11	4002	400	-165	400	-56	1.141486	0.9551748	4	400	0	1200
359637	-22679	13334	20642	-21.61349	-26.29288	-44.17931	0	11.11	4004	400	400	400	-56	1.149671	0.8984406	4	400	0	1200
359701	32487	32369	21409	14.0147	-68.36861	-78.87564	0	10.6	4004	-400	400	400	-56	1.121465	0.8540452	4	400	0	1200
359813	9017	13442	5249	11.8448	-8.242261	-96.96289	0	10.6	4003	-256	-400	400	-56	1.146294	0.7617558	4	400	0	1200
359910	9135	9202	5007	12.90628	-14.47237	-100.9216	0	10.6	4002	0	0	0	0	1.171766	0.6841493	4	400	0	1200
360020	-549	-6924	-1594	21.82745	0.1079573	-103.008	0	10.6	4003	0	0	0	0	1.325136	0.6002653	4	400	0	1200
360113	979	-8675	-6278	21.75216	15.56854	-96.44684	0	10.6	4003	0	0	0	0	1.050106	0.4039506	4	400	0	1200
360221	-264	194	-666	22.60591	16.69246	-94.72659	0	10.6	4004	0	0	0	0	0.7655271	0.3332535	4	400	0	1200
360274	17	141	218	22.30786	16.65379	-94.35294	0	10.6	4003	0	0	0	0	0.620077	0.2809166	1	400	0	1200
360407	4	-11	-1	21.74073	16.95693	-94.40223	0	10.6	4002	0	0	0	0	0.4068325	0.1831585	1	400	0	1200
360478	-26	-5	-5	21.4783	17.0372	-94.41012	0	10.6	4003	0	0	0	0	0.3295344	0.1464654	1	400	0	1200
360585	-15	-3	0	21.14675	17.14683	-94.41476	0	11.34	4002	0	0	0	0	0.2402305	0.1004568	1	400	0	1200
360668	-20	-1	4	20.94983	17.20974	-94.41592	0	11.34	4003	0	0	0	0	0.1751281	0.06037182	1	400	0	1200
360811	-16	-2	-5	20.52968	17.34637	-94.42062	0	11.34	4002	0	0	0	0	0.1149015	0.01453118	1	400	0	1200
360908	-18	0	0	20.31983	17.41303	-94.42464	0	11.34	4004	0	0	0	0	0.08376321	-0.005618748	1	400	0	1200
360998	-9	-2	6	20.20619	17.45015	-94.42635	0	11.34	4003	0	0	0	0	0.0678482	-0.01856909	1	400	0	1200
361129	-16	-3	1	19.98999	17.51863	-94.42977	0	11.34	4003	0	0	0	0	0.0445152	-0.03211525	1	400	0	1200
361233	-7	-1	0	19.8554	17.5579	-94.43032	0	11.34	4002	0	0	0	0	0.03245158	-0.03872564	1	400	0	1200
361290	-4	0	-1	19.77474	17.57984	-94.4327	0	11.34	4002	0	0	0	0	0.02628578	-0.04271802	1	400	0	1200
361381	-15	-4	0	19.70307	17.60427	-94.43447	0	11.34	4004	0	0	0	0	0.02	-0.06052937	1	400	0	1200
361547	-11	-1	4	19.54168	17.64482	-94.43716	0	11.34	4007	0	0	0	0	0.02	-0.08014897	1	400	0	1200
361722	-12	-4	0	19.42266	17.67707	-94.43972	0	11.34	4004	0	0	0	0	0.02	-0.101182	1	400	0	1200
361796	-10	-2	1	19.36532	17.69687	-94.4396	0	11.34	4003	0	0	0	0	0.02	-0.1108248	1	400	0	1200
361954	-8	5	0	19.28846	17.72267	-94.44216	0	11.34	4002	0	0	0	0	0.02	-0.1143339	1	400	0	1200
362126	-8	-1	0	19.22304	17.74254	-94.44143	0	11.34	4003	0	0	0	0	0.02	-0.1266199	1	400	0	1200
362294	-18	-2	-27	19.18289	17.751	-94.43703	0	11.34	4004	0	0	0	0	0.02	-0.1414025	1	400	0	1200
466258	-48	7	4	-1.057248	-0.0786304	4.241522	0	11.34	4004	0	0	0	0	1.30683	0.0290823	1	160	0	2000
466292	-50	7	9	-1.056389	-0.08092872	4.237914	0	11.34	4004	0	0	0	0	1.30683	0.02998816	1	160	0	2000
466397	-51	-4	10	-1.052617	-0.07882063	4.226544	0	11.34	4003	0	0	0	0	1.30683	0.03342823	1	160	0	2000
466618	-49	2	0	-1.061651	-0.07579464	4.204046	0	11.34	4003	0	0	0	0	1.30683	0.04445224	1	160	0	2000
466730	-52	3	5	-1.061837	-0.07952407	4.190351	0	11.4	4002	0	0	0	0	1.30683	0.04515099	1	160	0	2000
466792	-44	0	11	-1.064376	-0.07984307	4.186193	0	11.4	4002	0	0	0	0	1.30683	0.04867875	1	160	0	2000
466929	-48	2	2	-1.062174	-0.07998825	4.173111	0	11.4	4004	0	0	0	0	1.30683	0.05211126	1	160	0	2000
467006	-56	4	8	-1.063223	-0.07442993	4.164675	0	11.4	4003	0	0	0	0	1.30683	0.05216231	1	160	0	2000
467105	-45	6	5	-1.060711	-0.0807875	4.156666	0	11.4	4003	0	0	0	0	1.30683	0.04389768	1	160	0	2000
467359	-49	5	10	-1.060176	-0.07578119	4.131785	0	11.4	4003	0	0	0	0	1.30683	0.03108153	1	160	0	2000
467453	-40	1	7	-1.042833	-0.07788317	4.097426	0	11.4	4004	0	0	0	0	1.30683	0.02141506	1	160	0	2000
467564	-55	-2	9	-1.044859	-0.07361211	4.083611	0	11.4	4004	0	0	0	0	1.30683	0.01856542	1	160	0	2000
467716	-46	8	1	-1.043306	-0.07497387	4.06802	0	11.4	4003	0	0	0	0	1.30683	0.03009626	1	160	0	2000
467869	-39	-5	5	-1.040833	-0.06851444	4.049129	0	11.4	4002	0	0	0	0	1.30683	0.02793977	1	160	0	2000
467953	-43	0	8	-1.034905	-0.06897696	4.038918	0	11.4	4004	0	0	0	0	1.30683	0.02522649	1	160	0	2000
468038	-48	0	6	-1.032676	-0.07892817	4.026753	0	11.4	4002	0	0	0	0	1.30683	0.028066	1	160	0	2000
468070	-53	-1	13	-1.034051	-0.0788589	4.022963	0	11.4	4003	0	0	0	0	1.30683	0.02996247	1	160	0	2000
468185	-46	0	8	-1.028078	-0.07644088	4.010429	0	11.4	4003	0	0	0	0	1.30683	0.02918881	1	160	0	2000
468277	-48	5	13	-1.024862	-0.0789246	3.997958	0	11.4	4002	0	0	0	0	1.30683	0.02943633	1	160	0	2000
468409	-51	6	9	-1.020175	-0.07482047	3.985302	0	11.4	4003	0	0	0	0	1.30683	0.0292199	1	160	0	2000
468495	-40	5	8	-1.02041	-0.07215706	3.978394	0	11.4	4003	0	0	0	0	1.30683	0.02487487	1	160	0	2000
468609	-50	4	11	-1.010013	-0.07202062	3.962988	0	11.4	4002	0	0	0	0	1.30683	0.02746309	1	160	0	2000
468729	-43	0	6	-1.013037	-0.08110061	3.946909	0	11.4	4002	0	0	0	0	1.30683	0.0303773	1	160	0	2000
468772	-53	2	8	-1.012277	-0.08141601	3.944036	0	11.4	4002	0	0	0	0	1.30683	0.02989633	1	160	0	2000
468956	-39	6	6	-1.014155	-0.09403405	3.926428	0	11.4	4004	0	0	0	0	1.30683	0.02935481	1	160	0	2000
469003	-46	2	9	-1.008026	-0.1023772	3.919826	0	11.4	4003	0	0	0	0	1.30683	0.02804653	1	160	0	2000
469102	-42	4	0	-1.003934	-0.1053119	3.909861	0	11.4	4003	0	0	0	0	1.30683	0.02213544	1	160	0	2000
469187	-54	-1	5	-1.007926	-0.1045711	3.900873	0	11.4	4004	0	0	0	0	1.30683	0.02075989	1	160	0	2000
469333	-40	4	4	-0.9972624	-0.1068658	3.886751	0	11.46	4002	0	0	0	0	1.30683	0.02144091	1	160	0	2000
469380	-51	9	5	-0.9985911	-0.1059197	3.884489	0	11.46	4004	0	0	0	0	1.30683	0.02106399	1	160	0	2000
469439	-49	-5	6	-0.9964298	-0.1066672	3.874768	0	11.46	4004	0	0	0	0	1.30683	0.02064033	1	160	0	2000
469628	-49	5	5	-0.9822716	-0.1027181	3.856061	0	11.46	4004	0	0	0	0	1.30683	0.02240133	1	160	0	2000
469733	-46	-1	6	-0.9806352	-0.09864839	3.844691	0	11.46	4003	0	0	0	0	1.30683	0.02466893	1	160	0	2000
469774	-41	-5	3	-0.979422	-0.101087	3.842674	0	11.46	4004	0	0	0	0	1.30683	0.02449329	1	160	0	2000
469857	-41	3	4	-0.9781246	-0.09497605	3.833625	0	11.46	4003	0	0	0	0	1.30683	0.02267374	1	160	0	2000
469985	-47	2	3	-0.9776422	-0.09574242	3.822131	0	11.46	4003	0	0	0	0	1.30683	0.02094112	1	160	0	2000
470080	-29	-2	0	-0.9737514	-0.08857771	3.815835	0	11.46	4004	0	0	0	0	1.30683	0.0181685	1	160	0	2000
470136	-48	-3	5	-0.9714995	-0.09091568	3.809354	0	11.4	4004	0	0	0	0	1.30683	0.01989155	1	160	0	2000
470260	-43	3	2	-0.9688516	-0.09184436	3.798777	0	11.4	4002	0	0	0	0	1.30683	0.01901357	3	160	0	2000
470328	-35	11	4	-0.9686252	-0.08961907	3.792602	0	11.4	4003	0	0	0	0	1.30683	0.01603003	3	160	0	2000
470433	-45	1	5	-0.9698039	-0.08943948	3.784715	0	11.4	4003	0	0	0	0	1.30683	0.009353621	3	160	0	2000
470550	-38	0	2	-0.9703757	-0.09246537	3.775911	0	11.4	4003	0	0	0	0	1.30683	0.01261645	3	160	0	2000
470654	-42	-3	7	-0.9719831	-0.08517763	3.768025	0	11.4	4003	0	0	0	0	1.30683	0.01694868	3	160	0	2000
470785	-46	5	2	-0.9687076	-0.08509928	3.757937	0	11.4	4003	0	0	0	0	1.30683	0.02202423	3	160	0	2000
470856	-43	-1	6	-0.9703653	-0.08234799	3.751762	0	11.4	4004	0	0	0	0	1.30683	0.02924329	3	160	0	2000
470997	-44	2	3	-0.9692696	-0.08493142	3.74308	0	11.4	4002	0	0	0	0	1.30683	0.0319848	3	160	0	2000
471083	-48	3	5	-0.9635666	-0.08524559	3.735622	0	11.4	4004	0	0	0	0	1.30683	0.032438	3	160	0	2000
471146	-45	4	3	-0.9669619	-0.08338851	3.728468	0	11.4	4003	0	0	0	0	1.30683	0.03600568	3	160	0	2000
471288	-44	8	2	-0.9588801	-0.08517405	3.715385	0	11.4	4003	0	0	0	0	1.30683	0.0347384	3	160	0	2000
471397	-44	0	6	-0.9635724	-0.08675498	3.706398	0	11.4	4009	3	0	0	0	1.30683	0.03666109	3	160	0	2000
471457	-39	2	-1	-0.9563622	-0.08420438	3.699246	0	11.4	4003	3	0	0	0	1.30683	0.03825786	3	160	0	2000
471606	-47	26	-37	-0.962016	-0.08837949	3.694169	0	11.4	4004	6	0	1	0	1.30683	0.03987506	3	160	0	2000
471692	-24	19	-324	-0.9789249	-0.0687371	3.696913	0	11.4	4002	5	1	-4	0	1.30683	0.04667214	3	160	0	2000
471795	-50	7	-70	-0.9372612	-0.08574536	3.684564	0	11.4	4004	1	-9	1	0	1.30683	0.05132927	3	160	0	2000
471859	-15	-27	-49	-0.9528854	-0.08717284	3.659675	0	11.4	4003	5	0	1	0	1.30683	0.06299897	3	160	0	2000
471987	-108	-10	3	-0.9287368	-0.103265	3.660107	0	11.29	4003	10	-1	1	0	1.30683	0.07882704	3	160	0	2000
472064	61	71	-122	-0.8888426	-0.1001597	3.647574	0	11.29	4003	-43	9	0	0	1.30683	0.08736569	3	160	0	2000
472180	65	-34	-24	-0.9287779	-0.06273986	3.63931	0	11.29	4002	29	6	0	0	1.30683	0.09625323	3	160	0	2000
472268	-42	29	-127	-0.9623134	-0.04477969	3.617912	0	11.29	4003	16	-11	1	0	1.30683	0.1002721	3	160	0	2000
472444	-122	-21	435	-1.076301	0.04082373	3.755104	0	11.29	4003	20	0	-8	0	1.30683	0.1120288	3	160	0	2000
472503	-39	-207	595	-0.9878131	0.09020651	3.678941	0	11.29	4003	-29	-31	-11	0	1.30683	0.1177952	3	160	0	2000
472588	187	-2197	-425	-1.105313	1.281006	4.232973	0	11.29	4003	7	-23	-9	0	1.30683	0.1286678	3	160	0	2000
472636	626	-664	516	-0.3540402	2.528812	4.251312	0	11.29	4004	-39	-37	0	0	1.30683	0.1393088	3	160	0	2000
472837	368	5271	1689	-1.596719	-3.950362	2.552859	0	11.29	4004	-74	253	39	0	1.30683	0.1894872	3	160	0	2000
472871	-518	2163	466	-1.502875	-8.192669	2.031888	0	10.49	4003	59	-290	15	0	1.30683	0.1980916	3	160	0	2000
472938	-2630	2119	614	-2.591471	-9.30942	2.318997	0	10.49	4002	-106	-105	3	0	1.30683	0.2265322	3	160	0	2000
473037	-1996	2337	-353	-5.249269	-10.51393	3.00501	0	10.49	4002	105	48	-14	0	1.30683	0.2655193	3	160	0	2000
473141	-867	772	34	-4.913382	-11.75385	3.657215	0	10.49	4004	4	14	-21	0	1.30683	0.3174905	3	160	0	2000
473244	2053	1913	-276	-4.73888	-13.44693	4.02164	0	10.49	4004	-90	216	-39	0	1.30683	0.3568347	3	160	0	2000
473485	233	-2538	768	-0.4006655	-8.796057	2.22536	0	10.49	4003	24	-92	8	0	1.30683	0.4384531	3	160	0	2000
473600	147	-501	1557	-0.8554456	-2.71326	1.680075	0	10.49	4003	-39	111	25	0	1.30683	0.4959663	3	160	0	2000
473652	-1011	2032	-278	-1.625696	-4.084854	1.133026	0	10.49	4002	36	264	18	0	1.30683	0.5257455	3	160	0	2000
473752	1670	1415	953	-1.28337	-5.461324	1.231431	0	10.49	4004	-130	148	14	0	1.30683	0.5634267	3	160	0	2000
473920	1221	-1307	633	-5.514569	-1.806869	2.074181	0	11.06	4004	-33	82	-3	0	1.30683	0.623991	3	160	0	2000
473989	850	1217	1244	-4.600901	-1.719764	1.304236	0	11.06	4003	-124	198	4	0	1.30683	0.641505	3	160	0	2000
474059	797	9	-310	-3.89553	-3.447947	0.8112084	0	11.06	4003	-26	-28	-19	0	1.30683	0.6584275	3	160	0	2000
474168	798	-1715	-16	-2.931031	-3.782969	0.6260433	0	11.06	4003	3	-333	-15	0	1.30683	0.6798453	3	160	0	2000
474316	162	-75	1489	-2.46482	-0.9364207	-0.1540676	0	11.06	4004	-75	-15	1	0	1.30683	0.6896213	3	160	0	2000
474394	350	238	100	-2.583849	-1.427056	-0.8391769	0	11.06	4002	-16	14	-2	0	1.30683	0.6911576	3	160	0	2000
474464	-60	1572	1340	-2.209154	-2.906175	-1.282768	0	11.06	4003	-88	67	21	0	1.30683	0.694799	3	160	0	2000
474571	964	654	-481	-1.905916	-2.966211	-1.123969	0	11.06	4003	6	-94	-15	0	1.30683	0.6964753	3	160	0	2000
474721	314	2179	-95	-1.854518	-6.399269	-0.9539316	0	11.06	4004	-48	145	-34	0	1.30683	0.6806517	3	160	0	2000
474774	798	1842	-36	-1.315637	-7.655933	-0.4529926	0	10.32	4002	-82	92	-41	0	1.30683	0.6761294	3	160	0	2000
474883	95	760	320	-0.3842914	-8.882612	-0.6902867	0	10.32	4002	72	-61	-31	0	1.30683	0.6685989	3	160	0	2000
474978	-2445	-415	1630	-3.301277	-8.509558	-1.812422	0	10.32	4003	-101	159	18	0	1.30683	0.66607	3	160	0	2000
475135	-3266	-873	2005	-7.173106	-5.283732	-3.069283	0	10.32	4002	-4	-305	36	0	1.30683	0.6755649	3	160	0	2000
475186	-3199	-1864	76	-8.679524	-3.572055	-3.737671	0	10.32	4003	30	-153	37	0	1.30683	0.678872	3	160	0	2000
475290	918	189	-442	-10.28025	-5.033064	-4.126743	0	10.32	4003	137	3	43	0	1.30683	0.6913431	3	160	0	2000
475465	9	-582	-689	-5.592487	-4.634564	-1.182657	0	10.32	4004	16	39	-34	0	1.30683	0.7072244	3	160	0	2000
475571	447	-466	335	-3.727402	-3.92561	-0.9492286	0	10.32	4003	39	36	-38	0	1.30683	0.7030333	3	160	0	2000
475642	1004	1059	1773	-3.500638	-4.09585	-1.803439	0	10.32	4002	-94	76	-10	0	1.30683	0.7020653	3	160	0	2000
475700	2202	1693	551	-1.602258	-5.666969	-2.614589	0	10.72	4002	-13	113	-15	0	1.30683	0.7031354	3	160	0	2000
475778	-1215	-1461	129	-1.03293	-6.547004	-3.346878	0	10.72	4003	2	-135	3	0	1.30683	0.7009938	3	160	0	2000
475920	150	830	1191	-1.90477	-6.571071	-4.065382	0	10.72	4004	-90	-138	7	0	1.30683	0.7021967	3	160	0	2000
476007	768	-2612	-264	-2.002596	-5.059333	-4.038145	0	10.72	4004	-19	-179	14	0	1.30683	0.7094975	3	160	0	2000
476210	1464	-829	-1151	-3.092863	-2.645596	-3.351955	0	10.72	4003	-47	-87	-15	0	1.30683	0.7156709	3	160	0	2000
476321	-489	299	539	-3.113626	-3.556298	-3.855097	0	10.72	4007	93	128	-8	0	1.30683	0.7186465	3	160	0	2000
476411	1780	919	-806	-1.113957	-4.211296	-3.386919	0	10.72	4003	-18	-48	-20	0	1.30683	0.7201902	3	160	0	2000
476494	291	451	-867	-1.851898	-6.129454	-3.295573	0	10.72	4004	-74	5	-25	0	1.30683	0.7201523	3	160	0	2000
476623	1528	2973	711	-0.5187966	-8.972716	-3.229579	0	11.17	4004	-73	48	-12	0	1.30683	0.7240173	3	160	0	2000
476697	-150	1703	226	-0.01173954	-12.20511	-3.098992	0	11.17	4002	-14	247	-32	0	1.30683	0.731037	3	160	0	2000
476851	1468	-136	-852	-2.211692	-13.3344	-3.662989	0	11.17	4003	36	-37	-19	0	1.30683	0.7425932	3	160	0	2000
476903	997	1621	1355	-1.008823	-13.19073	-3.681684	0	11.17	4003	22	76	0	0	1.30683	0.743607	3	160	0	2000
477058	-738	-595	502	-1.918274	-11.01726	-4.571069	0	11.17	4004	-16	209	19	0	1.30683	0.7433918	3	160	0	2000
477220	1147	-1479	-853	-2.57513	-5.216356	-4.054533	0	11.17	4002	-23	4	-20	0	1.30683	0.7487917	3	160	0	2000
477407	-1	1168	-936	-4.262761	-5.842468	-4.550213	0	11.17	4008	-67	-3	16	0	1.30683	0.784221	3	160	0	2000
477426	1365	2274	309	-2.970491	-6.703596	-4.434245	0	11.17	4004	0	47	-8	0	1.30683	0.784221	3	160	0	2000
477549	77	-1869	-1076	-0.05587438	-6.485066	-4.010403	0	10.72	4004	91	-227	-19	-54	1.388299	0.8132093	4	160	0	2000
477728	-1877	-927	382	-2.737321	-3.375178	-3.961064	0	10.72	4004	18	-52	2	-76	1.480317	0.831333	4	160	0	2000
477835	-1796	-1176	-794	-6.693816	-1.115029	-4.27841	0	10.72	4003	13	-160	2	-80	1.498154	0.8410155	4	160	0	2000
477946	-1424	3069	262	-9.295715	-4.558095	-3.988261	0	10.72	4003	33	-9	-9	-80	1.483006	0.8357165	4	160	0	2000
478137	1938	-590	-361	-7.357681	-8.540204	-3.666638	0	10.72	4002	52	-74	-3	-57	1.357046	0.7906804	4	160	0	2000
478245	1460	-1258	635	-5.097634	-4.708521	-3.933421	0	10.72	4003	-1	-105	5	-48	1.2605	0.7354543	4	160	0	2000
478320	400	-602	238	-3.130001	-2.522958	-4.839576	0	10.72	4003	31	-87	28	-35	1.248181	0.7024409	4	160	0	2000
478436	-8158	20304	-1359	-6.042694	-5.502167	-5.306567	0	9.92	4002	-132	-89	-7	-38	1.241614	0.6521593	4	160	0	2000
478471	2012	7186	-209	-7.913671	-16.5506	-4.502728	0	9.92	4004	-82	69	1	-28	1.171435	0.6082438	4	160	0	2000
478599	-343	-4895	-445	-3.248194	-8.413065	-3.873561	0	9.92	4003	22	-84	-15	-25	1.164874	0.5131589	4	160	0	2000
478673	-17	-1683	301	-2.587173	-6.121913	-4.733261	0	9.92	4003	-2	193	36	-28	1.056007	0.4917293	4	160	0	2000
478771	-163	-3403	-448	-1.299172	-4.286184	-5.771676	0	9.92	4003	-111	87	54	-6	1.039951	0.4792637	4	160	0	2000
478869	-213	-365	843	-0.7521913	-3.124857	-6.667761	0	9.92	4004	104	33	69	-6	1.064252	0.4870042	4	160	0	2000
478888	1085	-3015	-159	0.6496292	1.156573	-6.404709	0	9.92	4004	-48	-111	64	-16	1.059621	0.5021213	4	160	0	2000
479034	-15	150	-1029	0.7441048	0.7473076	-5.522299	0	9.92	4004	107	-63	27	-3	1.032176	0.5434826	4	160	0	2000
479068	-261	-1693	-1941	0.3950926	0.5231596	-5.105499	0	9.92	4002	-90	155	35	-6	1.027845	0.5555477	4	160	0	2000
479087	92	508	-89	0.2712966	0.05630635	-5.011232	0	9.92	4004	-125	-24	31	-3	0.9183958	0.5826177	4	160	0	2000
479189	548	-195	-1150	0.2910816	-2.677191	-5.004011	0	10.66	4010	-35	-235	14	9	0.9328284	0.6009364	4	160	0	2000
479329	-2326	1294	275	-0.703878	-4.372852	-4.365507	0	10.66	4002	-48	219	5	0	0.9929354	0.6279435	4	160	0	2000
479378	-165	1843	-1116	-2.416445	-5.919858	-3.650163	0	10.66	4003	-81	-45	-19	-3	1.039346	0.6409338	4	160	0	2000
479515	-1584	-1499	-697	-4.35048	-6.376545	-3.404301	0	10.66	4002	54	-13	-21	-12	1.098744	0.6661811	4	160	0	2000
479664	-657	-217	-639	-7.373558	-5.035298	-4.549018	0	10.66	4003	97	-142	4	-32	1.226415	0.7082203	4	160	0	2000
479695	-1326	-1045	-80	-7.660319	-4.997883	-4.68539	0	10.66	4003	90	-57	19	-38	1.245707	0.720593	4	160	0	2000
479772	1546	-347	-951	-7.673602	-4.442173	-4.538678	0	10.66	4003	-70	-52	13	-41	1.258949	0.7313055	4	160	0	2000
479893	1281	3451	-1300	-4.492603	-8.434659	-4.330095	0	10.66	4004	-44	-28	-15	-44	1.296482	0.7545556	4	160	0	2000
479979	3237	590	-516	-0.1350658	-11.57276	-3.34951	0	10.66	4003	3	-20	-22	-44	1.287153	0.7626261	4	160	0	2000
480077	56	-3215	112	2.033192	-8.153987	-3.305142	0	11.23	4002	-36	-29	-19	-41	1.25721	0.7748922	4	160	0	2000
480227	-514	-917	50	-0.2887257	-2.393091	-4.425052	0	11.23	4002	53	-90	2	-44	1.291149	0.7909555	4	160	0	2000
480282	-414	228	156	-0.2081423	-2.441305	-4.490469	0	11.23	4002	-150	148	16	-25	1.16396	0.7952449	4	160	0	2000
480390	-2787	335	166	-1.720658	-4.063835	-4.228445	0	11.23	4004	21	-95	5	-25	1.167253	0.7983155	4	160	0	2000
480476	-1441	723	-52	-6.804985	-5.029292	-4.139947	0	11.23	4004	31	-199	-4	-32	1.213444	0.7957966	4	160	0	2000
480657	-1221	347	580	-8.353218	-9.303704	-5.18506	0	11.23	4004	-51	-4	28	-22	1.179142	0.7663443	4	160	0	2000
480717	1722	1476	-1043	-7.848262	-8.799875	-4.629483	0	11.23	4003	49	97	0	-28	1.172443	0.7458165	4	160	0	2000
480780	-842	-194	-458	-6.871141	-9.259561	-4.194292	0	11.23	4003	72	-28	-4	-25	1.05605	0.7238159	4	160	0	2000
480956	-5734	1836	1227	-4.238236	-11.11274	-4.760064	0	11.06	4003	111	39	33	6	0.9960659	0.632707	4	160	0	2000
481077	2512	-3467	-368	-6.164673	-7.416212	-4.446975	0	11.06	4004	-9	-68	-5	-12	1.124164	0.5936584	4	160	0	2000
481097	2512	-3467	-368	-6.164673	-7.416212	-4.446975	0	11.06	4004	-27	-85	13	-19	1.165789	0.5864032	4	160	0	2000
481219	1218	-260	-244	-2.7026	-5.158145	-4.009433	0	11.06	4002	32	-230	-7	-25	1.16023	0.5616298	4	160	0	2000
481304	1793	-183	-1993	-1.239436	-5.998335	-3.177696	0	11.06	4003	-30	-185	-43	-22	1.133862	0.5533937	4	160	0	2000
481455	606	-414	763	-1.505924	-2.286982	-3.311433	0	11.06	4004	-119	126	-6	-19	1.122392	0.5560409	4	160	0	2000
481571	-269	285	398	-1.316123	-1.893145	-4.750945	0	11.06	4002	73	-64	14	-28	1.208812	0.5871456	4	160	0	2000
481611	-113	1017	-169	-1.258029	-2.845613	-5.038579	0	11.06	4002	104	-102	19	0	1.227634	0.5989743	3	160	0	2000
481713	135	-1766	-509	-1.083721	-3.532682	-4.643822	0	11.06	4003	160	-150	7	0	1.273543	0.6259309	3	160	0	2000
481881	19	-328	-137	-1.238569	-3.795856	-3.850355	0	11.06	4003	-33	23	-1	0	1.324116	0.6600098	3	160	0	2000
481927	-56	125	261	-1.209597	-3.378488	-3.538796	0	10.72	4003	-21	-207	-18	0	1.331408	0.6690133	3	160	0	2000
482006	587	1245	749	-1.257749	-2.132493	-3.482884	0	10.72	4003	-87	257	-31	0	1.349194	0.6856809	3	160	0	2000
482113	-2565	450	911	-2.84048	-2.049699	-3.293071	0	10.72	4008	-116	305	-12	0	1.36216	0.7094269	3	160	0	2000
482219	-441	-685	-267	-6.062476	-1.739894	-3.686715	0	10.72	4003	0	-83	-2	0	1.371612	0.726782	3	160	0	2000
482362	-450	-16	31	-8.221343	-2.233299	-4.449912	0	10.72	4002	49	-189	4	0	1.382025	0.7467451	3	160	0	2000
482413	295	-996	-176	-8.173635	-3.461327	-4.756302	0	10.72	4004	-5	-206	5	0	1.383526	0.7513368	3	160	0	2000
482523	2343	-2235	-2025	-4.472512	-2.092716	-3.764977	0	10.72	4003	108	-296	-31	0	1.387188	0.7658153	3	160	0	2000
482668	-470	1740	109	0.08349267	-4.8819	-2.808985	0	10.72	4013	24	-103	-31	0	1.390576	0.7865938	3	160	0	2000
482803	944	370	346	-1.118027	-5.163352	-3.267793	0	10.72	4003	14	-94	-9	0	1.392798	0.8158741	3	160	0	2000
482968	284	1080	-49	-1.696275	-7.500531	-4.629354	0	11	4003	6	-53	9	0	1.394535	0.8548738	3	160	0	2000
483074	358	1673	-643	-1.692124	-8.106266	-4.44657	0	11	4004	7	-78	0	0	1.395396	0.8961856	3	160	0	2000
483115	259	1419	-16	-1.671624	-8.84622	-4.022903	0	11	4003	-22	-25	-4	0	1.39556	0.9072603	3	160	0	2000
