time(ms)	gyro_x(deg/s)	gyro_y(deg/s)	gyro_z(deg/s)	orientation_roll(deg)	orientation_pitch(deg)	orientation_yaw(deg)	throttle	battery(V)	loop_time(uS)	pid_output_roll	pid_output_pitch	pid_output_yaw	pid_output_throttle	ultrasonic_alt	baro_alt	flight_mode	p_gain_altitude	i_gain_altitude	d_gain_altitude
546920	-136	-1797	542	0.529494	-0.0200361	-14.18969	0	10.89	4003	-78	59	19	0	1.155225	0.7772207	3	170	0	1800
547030	884	230	-947	0.06090809	-0.868784	-13.8044	0	10.89	4004	40	-255	-15	0	1.155225	0.788682	3	170	0	1800
547075	-185	1642	-537	0.3252768	-2.29594	-13.72893	0	10.89	4004	93	-233	-15	0	1.155225	0.7915758	3	170	0	1800
547226	1220	2702	-162	-0.6764066	-9.786087	-13.08648	0	10.43	4003	-30	-147	-19	0	1.155225	0.7848853	3	170	0	1800
547282	354	2935	234	0.451846	-12.76703	-12.75867	0	10.43	4002	-38	7	-42	0	1.155225	0.7770725	3	170	0	1800
547409	-960	1168	-119	0.8019222	-14.99188	-12.73122	0	10.43	4002	-58	35	-10	0	1.155225	0.7429969	3	170	0	1800
547507	-152	-870	-990	0.5217455	-15.56389	-12.41131	0	10.43	4002	14	-111	-28	0	1.155225	0.7221118	3	170	0	1800
547700	-1679	640	962	-2.820273	-12.20615	-11.36962	0	10.43	4004	87	-54	-73	0	1.155225	0.6739649	3	170	0	1800
547794	1702	2596	1863	-1.181365	-14.67822	-12.76659	0	10.43	4004	-180	193	-13	0	1.155225	0.6573482	3	170	0	1800
547926	-607	-1837	405	0.4636579	-13.54865	-14.36645	0	10.43	4003	-116	204	11	0	1.155225	0.6446063	3	170	0	1800
547989	-580	-937	-651	0.6596195	-11.13486	-14.34511	0	10.43	4003	130	-90	-2	0	1.155225	0.6401057	3	170	0	1800
548139	-407	1904	305	-1.247412	-10.54191	-13.78669	0	10.49	4003	-97	162	6	0	1.155225	0.6247503	3	170	0	1800
548210	-394	999	1056	-1.264661	-11.48626	-13.64571	0	10.49	4004	-146	43	0	-27	1.155225	0.6193756	4	170	0	1800
548369	-354	-1085	-761	-4.222174	-9.373435	-13.83007	0	10.49	4003	82	-165	-5	-23	1.148276	0.6099942	4	170	0	1800
548426	-836	364	-603	-3.623418	-9.610638	-14.02142	0	10.49	4003	66	-70	-4	-30	1.197431	0.6080815	4	170	0	1800
548504	-3360	-2566	-31	-5.327142	-8.934909	-14.16357	0	10.49	4004	72	-139	8	-13	1.080125	0.606185	4	170	0	1800
548633	-120	880	629	-10.3302	-5.205949	-13.69805	0	10.49	4004	32	-122	-13	-17	1.109696	0.5965376	4	170	0	1800
548731	3171	2482	-1103	-8.113556	-8.459678	-13.9293	0	10.49	4004	-23	-181	0	-20	1.127509	0.5862999	4	170	0	1800
548893	3633	-91	-727	-1.900376	-11.42485	-13.48823	0	10.49	4004	53	-156	-30	-27	1.143935	0.5714242	4	170	0	1800
549001	-1177	-2747	-819	2.026352	-11.83855	-11.89691	0	10.49	4003	97	-241	-59	-20	1.124568	0.562422	4	170	0	1800
549033	-220	-1184	282	1.519823	-10.95322	-11.68477	0	10.21	4002	-3	-37	-52	-20	1.12122	0.5618063	4	170	0	1800
549125	-1734	-2289	642	-0.06614789	-8.909372	-12.21811	0	10.21	4002	10	37	-25	-23	1.141271	0.5565946	4	170	0	1800
549215	381	-730	825	-0.3146287	-6.40456	-13.93207	0	10.21	4003	16	-114	11	-27	1.159954	0.5506891	4	170	0	1800
549320	-72	-1268	886	-1.144711	-3.586458	-15.20356	0	10.21	4004	-86	128	38	-20	1.104759	0.5424386	4	170	0	1800
549441	367	-1139	-1861	-0.3995428	-3.160442	-14.40809	0	10.21	4002	-86	-126	-9	-10	1.058241	0.5249572	4	170	0	1800
549547	-249	1357	281	-0.5771968	-5.035328	-13.36533	0	10.21	4002	31	-187	-13	-20	1.119557	0.503643	4	170	0	1800
549624	1561	2174	-333	-0.9127929	-7.394589	-13.05302	0	10.21	4003	-96	-38	-25	-20	1.146043	0.488516	4	170	0	1800
549812	-485	-1817	624	-1.003247	-7.505638	-12.47853	0	10.21	4002	10	-62	-33	-6	0.9922698	0.458976	4	170	0	1800
549890	-1631	78	742	-4.604749	-10.15705	-13.16951	0	10.21	4003	148	-212	-14	17	0.9038945	0.4380296	4	170	0	1800
550010	1560	-1421	-104	-4.381531	-7.432962	-12.4232	0	10.94	4004	19	89	-47	6	0.9774309	0.3990876	4	170	0	1800
550076	3483	1197	-636	-1.709832	-7.083945	-12.3089	0	10.94	4004	-163	186	-33	0	1.02392	0.3731	4	170	0	1800
550127	4893	3770	-124	0.5355443	-8.141101	-11.93074	0	10.94	4003	-85	82	-55	-10	1.044665	0.3638644	4	170	0	1800
550232	-2334	-899	357	2.564544	-10.68696	-11.98408	0	10.94	4004	149	-164	-42	-34	1.197364	0.3175672	4	170	0	1800
550357	1091	1753	604	0.1338968	-7.295752	-12.70877	0	10.94	4002	-38	195	-14	0	1.029503	0.2898522	4	170	0	1800
550452	566	1221	1270	-0.6572402	-9.444303	-14.0062	0	10.94	4004	-154	173	14	-13	1.08402	0.2776338	4	170	0	1800
550600	-3246	-1978	-501	-0.9908047	-8.271337	-12.83903	0	10.94	4002	166	-138	-31	-17	1.104938	0.2564266	4	170	0	1800
550700	1240	1483	700	-2.710011	-6.78438	-12.29052	0	10.94	4003	-204	256	-31	-20	1.102256	0.2465948	4	170	0	1800
550797	-1081	1981	428	-3.361356	-9.286458	-12.79222	0	10.94	4002	85	-231	-35	-10	1.054605	0.2391987	4	170	0	1800
550853	1581	3590	-287	-3.398063	-12.3735	-12.48263	0	10.94	4004	-44	70	-58	-6	1.037488	0.2325826	4	170	0	1800
551017	-635	29	1038	-3.710985	-12.84677	-13.5095	0	9.64	4004	0	69	-2	-10	0.9547588	0.2242941	4	170	0	1800
551079	107	313	260	-3.885155	-11.98335	-13.94005	0	9.64	4002	-86	146	13	3	1.003926	0.2233661	4	170	0	1800
551217	-1018	1022	-19	-3.789826	-13.22962	-13.70191	0	9.64	4004	-30	-59	-19	-13	1.069202	0.2196744	4	170	0	1800
551275	-1176	-768	408	-5.038351	-12.18492	-13.2396	0	9.64	4004	-42	55	-12	-13	1.084792	0.2213974	4	170	0	1800
551375	358	1515	36	-5.408003	-11.58622	-13.24108	0	9.64	4003	8	106	-12	-13	1.096402	0.2294049	4	170	0	1800
551484	638	-156	270	-4.907998	-13.80707	-13.6909	0	9.64	4003	161	-138	-17	0	1.012208	0.2456743	4	170	0	1800
551565	1232	900	824	-3.609722	-13.07311	-13.56371	0	9.64	4003	-115	118	4	-6	1.044399	0.2556232	4	170	0	1800
551675	211	-282	381	-3.416096	-12.85189	-13.56802	0	9.64	4002	-66	69	-1	-13	1.09388	0.2775132	4	170	0	1800
551814	-1761	-198	-1271	-5.779845	-12.31901	-12.61074	0	10.55	4003	81	-218	-57	-20	1.111554	0.3176895	4	170	0	1800
551960	1676	1257	-829	-3.454305	-12.81596	-11.21902	0	10.55	4004	-17	-157	-68	-13	1.074922	0.3500228	4	170	0	1800
552025	-774	-11	190	-2.041708	-13.68017	-11.51567	0	10.55	4002	57	-62	-50	-20	1.121526	0.3646376	4	170	0	1800
552145	-235	-3043	1594	-2.331891	-7.971522	-14.0233	0	10.55	4002	31	-103	8	-10	1.099143	0.388978	4	170	0	1800
552178	-235	-3043	1594	-2.331891	-7.971522	-14.0233	0	10.55	4002	10	-51	25	-17	1.12979	0.3949612	4	170	0	1800
552268	1293	-487	551	-1.869955	-4.312297	-15.17265	0	10.55	4003	-101	52	20	-34	1.176136	0.4015366	4	170	0	1800
552365	675	1391	-570	-1.190027	-5.637543	-14.41763	0	10.55	4004	-94	90	4	-34	1.208434	0.4166462	4	170	0	1800
552466	-110	950	318	-1.082357	-5.541286	-13.3655	0	10.55	4004	54	0	-15	-37	1.218547	0.429485	4	170	0	1800
552603	-769	1341	389	-1.997789	-7.195119	-13.59793	0	10.55	4003	42	-102	0	-47	1.280769	0.433711	4	170	0	1800
552661	326	1886	408	-2.978107	-8.493601	-13.93791	0	10.55	4004	-9	-87	0	-51	1.309483	0.4385611	4	170	0	1800
552825	-221	1236	468	-1.685766	-10.85034	-14.29046	0	10.89	4002	44	-98	8	0	1.187772	0.4138649	4	170	0	1800
552893	563	2077	-328	-1.416201	-12.46045	-14.21675	0	10.89	4004	33	-139	5	0	1.13623	0.4016869	3	170	0	1800
553029	1383	1924	-907	-0.6937672	-15.61167	-13.40453	0	10.89	4003	70	-208	-15	0	1.076682	0.3662466	3	170	0	1800
553081	2131	1823	322	0.4908944	-18.7494	-13.63967	0	10.89	4002	-63	-135	-4	0	1.046247	0.3390001	3	170	0	1800
553189	-1512	-3368	245	0.7241971	-15.32369	-15.80005	0	10.89	4003	-82	-30	76	0	1.011084	0.3120077	3	170	0	1800
553321	850	3234	-956	-0.05341341	-15.15799	-16.47015	0	10.89	4004	-16	180	68	0	0.9785553	0.3152487	3	170	0	1800
553439	-2327	-254	-745	-1.229069	-16.7903	-14.64439	0	10.89	4003	-79	161	4	0	0.9617372	0.3322802	3	170	0	1800
553490	-4013	-3934	-1037	-3.311501	-15.35332	-14.00565	0	10.89	4004	-38	-35	-7	0	0.9531414	0.3493983	3	170	0	1800
553636	-741	-3378	-163	-9.94146	-4.776392	-12.7577	0	10.89	4002	86	-305	-30	0	0.940539	0.3819987	3	170	0	1800
553708	247	-1569	445	-9.37672	-2.623155	-12.93778	0	10.72	4002	-165	228	-10	0	0.9359708	0.4012256	3	170	0	1800
553874	1945	-2146	478	-8.127857	2.76104	-12.885	0	10.72	4003	-175	211	-9	0	0.9268457	0.4683102	3	170	0	1800
553936	1184	-1662	831	-4.949679	4.925357	-13.40471	0	10.72	4003	-90	221	-4	0	0.9248793	0.4960645	3	170	0	1800
554042	367	-5482	520	-3.45161	10.39655	-13.481	0	10.72	4004	-12	-56	-14	0	0.9226074	0.5273343	3	170	0	1800
554091	70	-5955	-369	-3.311869	13.04694	-13.5497	0	10.72	4002	5	-96	-13	0	0.9219963	0.542856	3	170	0	1800
554214	538	-3831	-533	-3.116181	19.14408	-13.70632	0	10.72	4002	-19	1	-1	0	0.9201047	0.578724	3	170	0	1800
554331	-301	-1280	338	-3.322631	20.76685	-13.8982	0	10.72	4004	-78	52	4	0	0.9191268	0.6032467	3	170	0	1800
554415	-333	4284	-392	-3.37751	13.39065	-14.23545	0	10.72	4004	-142	136	20	0	0.9184139	0.6202464	3	170	0	1800
554516	-664	4857	-1069	-2.445795	5.227735	-14.1192	0	10.72	4003	84	-173	19	0	0.9178941	0.6237431	3	170	0	1800
554673	-2042	3330	-522	-2.174739	-13.04844	-14.46924	0	10.04	4002	36	39	6	0	0.9174133	0.6240976	3	170	0	1800
554747	-696	2640	8	-3.443398	-14.58854	-14.10015	0	10.04	4003	67	-226	-9	0	0.917239	0.6245822	3	170	0	1800
554801	680	890	-969	-3.096164	-14.88283	-13.75883	0	10.04	4004	-46	-88	-5	0	0.9170376	0.6246789	3	170	0	1800
554905	1201	2128	602	-1.292395	-18.31101	-13.85181	0	10.04	4003	64	-283	-13	0	0.9168908	0.6222767	3	170	0	1800
555051	846	-1716	107	-0.4742848	-11.59735	-13.35771	0	10.04	4004	91	-330	-11	0	0.916755	0.6338261	3	170	0	1800
555112	1054	1724	1307	0.3617913	-9.878854	-13.5288	0	10.04	4002	0	-240	-7	0	0.9167058	0.6401454	3	170	0	1800
555253	502	780	-1281	1.018788	-14.52719	-13.59993	0	10.04	4003	-92	175	-2	0	0.9166336	0.6557112	3	170	0	1800
555374	-2657	-2194	580	0.1424413	-13.61816	-13.81508	0	10.04	4002	2	9	9	0	0.9165963	0.6833059	3	170	0	1800
555423	787	90	-426	-1.598351	-11.67324	-13.6568	0	10.04	4002	24	83	-13	0	0.9165772	0.6964753	3	170	0	1800
555523	161	3232	1023	-0.7888826	-12.59554	-13.85863	0	10.04	4003	-64	170	13	0	0.9165552	0.7226796	3	170	0	1800
555648	574	1147	66	-1.334317	-15.58706	-13.8552	0	10.83	4004	-17	-77	-7	0	0.9165392	0.7592136	3	170	0	1800
555733	145	14	-293	-1.076688	-14.10081	-13.72601	0	10.83	4003	36	-88	-1	0	0.9165275	0.7862473	3	170	0	1800
555836	-42	245	-470	-1.703352	-12.49875	-14.00156	0	10.83	4003	35	-66	11	0	0.9165189	0.8096101	3	170	0	1800
555986	-488	-434	172	-1.88936	-11.16554	-13.79855	0	10.83	4002	-47	-26	-3	0	0.9165111	0.8516589	3	170	0	1800
556070	-354	-1525	348	-2.655011	-8.86937	-13.83976	0	10.83	4003	-10	-77	4	0	0.9165082	0.8724101	3	170	0	1800
556136	-1010	-2128	462	-3.749388	-6.044711	-14.03068	0	10.83	4002	-21	-24	6	0	0.9165049	0.8968899	3	170	0	1800
556289	-468	134	-1595	-7.052471	-3.214597	-13.16663	0	10.83	4004	13	26	-37	0	0.9165018	0.9294304	3	170	0	1800
556350	1165	908	-123	-5.862947	-4.408487	-12.76086	0	10.83	4003	-49	-47	-23	0	0.9165007	0.9395772	3	170	0	1800
556494	1221	2128	-108	-2.328856	-11.12248	-12.81868	0	10.77	4004	23	-85	-24	0	0.9164988	0.938967	3	170	0	1800
556593	-139	-256	580	-1.686511	-11.48991	-13.75953	0	10.77	4002	-39	36	1	0	0.916498	0.9370643	3	170	0	1800
556647	-139	-256	580	-1.686511	-11.48991	-13.75953	0	10.77	4002	-47	58	11	0	0.9164978	0.9353746	3	170	0	1800
556774	-937	-1366	-462	-2.003654	-9.354228	-14.53935	0	10.77	4004	-39	-61	11	0	0.9164971	0.9300405	3	170	0	1800
556845	-60	138	226	-2.838991	-7.937215	-14.39737	0	10.77	4003	-118	106	9	0	0.9164969	0.9275547	3	170	0	1800
556943	-1040	11	-66	-2.799319	-8.140982	-14.07773	0	10.77	4004	-5	-33	0	0	0.9164967	0.9194548	3	170	0	1800
557047	-1581	-1170	651	-6.054343	-5.351636	-13.9555	0	10.77	4003	-32	146	5	0	0.9164965	0.9029599	3	170	0	1800
557141	-1288	-2099	-200	-7.478257	-3.419956	-14.06822	0	10.77	4003	-90	49	6	0	0.9164963	0.8791595	3	170	0	1800
557247	667	1518	-145	-6.512155	-4.096803	-14.02754	0	10.77	4002	-170	329	9	0	0.9164963	0.8533309	3	170	0	1800
557355	-1477	-2145	-372	-7.76865	-3.920797	-14.03588	0	10.77	4003	-22	28	0	0	0.9164963	0.8258387	3	170	0	1800
557453	-530	-2984	459	-8.488148	-1.053814	-14.19148	0	10.38	4004	27	-198	12	0	0.9164963	0.7930706	3	170	0	1800
557557	2150	1573	-282	-5.918474	-0.7248552	-14.42277	0	10.38	4004	2	161	8	0	0.9164963	0.7523557	3	170	0	1800
557667	675	-1129	-709	-3.457439	-3.954097	-14.82704	0	10.38	4003	53	-221	5	0	0.9164963	0.7276033	3	170	0	1800
557772	1894	935	-167	-0.5720875	-3.759806	-13.53507	0	10.38	4004	124	-23	-23	0	0.9164963	0.7036193	3	170	0	1800
557874	-1513	-1053	-670	-1.502122	-4.856775	-12.89393	0	10.38	4003	71	-151	-30	0	0.9164963	0.67615	3	170	0	1800
557973	-79	-674	244	-2.352491	-4.130857	-13.05368	0	10.38	4002	8	-91	-17	0	0.9164963	0.6504313	3	170	0	1800
558077	643	1216	374	-1.10243	-5.020468	-13.48805	0	10.38	4004	30	-92	-16	0	0.9164963	0.6178832	3	170	0	1800
558185	-1760	1590	361	-2.443812	-9.711595	-14.05876	0	10.38	4005	6	30	6	0	0.9164963	0.5839137	3	170	0	1800
558284	2476	1227	-265	-2.074323	-8.135852	-13.30437	0	10.38	4004	-53	155	-22	0	0.9164963	0.5396446	3	170	0	1800
558465	-996	2429	1465	-1.334001	-11.75439	-12.11334	0	9.81	4004	-99	207	-25	0	0.9164963	0.4744684	3	170	0	1800
558517	-2370	1672	-148	-2.127102	-12.78288	-12.36173	0	9.81	4003	-143	152	-9	0	0.9164963	0.4388041	3	170	0	1800
558592	329	-1285	-120	0.03589582	-13.40527	-13.30324	0	9.81	4003	-75	112	-5	0	0.9164963	0.4135318	3	170	0	1800
558695	-1238	2604	637	0.2355126	-14.02983	-13.21134	0	9.81	4002	-52	102	-12	0	0.9164963	0.3824073	3	170	0	1800
558789	-2109	2613	-185	-2.0746	-16.41346	-13.46586	0	9.81	4003	40	77	-24	0	0.9164963	0.3442239	3	170	0	1800
558893	1605	262	-381	-1.83612	-18.76455	-12.60279	0	9.81	4003	-85	-57	-43	0	0.9164963	0.2920266	3	170	0	1800
558997	441	2348	338	1.386004	-19.25151	-11.55345	0	9.81	4003	6	154	-56	0	0.9164963	0.2564695	3	170	0	1800
559101	386	-927	282	1.944488	-19.00553	-11.52336	0	9.81	4003	33	-48	-47	0	0.9164963	0.2254883	3	170	0	1800
559205	-1012	-5473	925	1.442689	-11.47412	-12.88476	0	9.81	4004	0	0	0	0	0.9164963	0.1872428	3	170	0	1800
559306	-1507	1689	-153	-0.9131169	-7.390196	-13.6572	0	11	4003	0	0	0	0	0.9164963	0.1633309	3	170	0	1800
559411	205	231	118	-0.2142922	-4.652317	-15.03014	0	11	4004	0	0	0	0	0.9164963	0.1250042	3	170	0	1800
559516	-134	50	105	-0.5134066	-4.005874	-15.03996	0	11	4004	0	0	0	0	0.9164963	0.09658347	1	170	0	1800
559620	-51	-35	69	-0.6739131	-3.549479	-15.06711	0	11	4002	0	0	0	0	0.9164963	0.06752726	1	170	0	1800
559725	-103	33	55	-0.7909871	-3.136712	-15.10234	0	11	4003	0	0	0	0	0.9164963	0.03713965	1	170	0	1800
559830	-90	-20	127	-0.9425662	-2.659473	-15.13774	0	11	4004	0	0	0	0	0.9164963	0.00794572	1	170	0	1800
559942	-89	22	7	-1.053365	-2.346277	-15.14709	0	11	4003	0	0	0	0	0.9164963	0.0004662825	1	170	0	1800
560038	-66	3	-3	-1.142261	-2.077387	-15.16611	0	11	4003	0	0	0	0	0.9164963	-0.01845385	1	170	0	1800
560149	-89	-29	11	-1.212654	-1.850316	-15.19093	0	11	4003	0	0	0	0	0.9164963	-0.03304113	1	170	0	1800
560247	-53	20	5	-1.262634	-1.653448	-15.21441	0	11.06	4003	0	0	0	0	0.9164963	-0.04497412	1	170	0	1800
560351	-96	40	46	-1.307346	-1.473913	-15.24186	0	11.06	4003	0	0	0	0	0.9164963	-0.05877038	1	170	0	1800
560474	-119	-14	-31	-1.364402	-1.2805	-15.26778	0	11.06	4009	0	0	0	0	0.9164963	-0.06250323	1	170	0	1800
560553	-117	-24	58	-1.387679	-1.193215	-15.2849	0	11.06	4002	0	0	0	0	0.9164963	-0.06763103	1	170	0	1800
560655	-99	6	9	-1.42783	-1.072196	-15.30611	0	11.06	4003	0	0	0	0	0.9164963	-0.07871143	1	170	0	1800
560766	-94	11	-9	-1.460762	-0.9620658	-15.32537	0	11.06	4003	0	0	0	0	0.9164963	-0.08433608	1	170	0	1800
560863	-76	-6	-9	-1.488246	-0.8688223	-15.34811	0	11.06	4002	0	0	0	0	0.9164963	-0.0876629	1	170	0	1800
560967	-80	-1	24	-1.504267	-0.7850136	-15.36993	0	11.06	4002	0	0	0	0	0.9164963	-0.0899934	1	170	0	1800
561077	-84	1	31	-1.526568	-0.7163058	-15.39163	0	11.06	4003	0	0	0	0	0.9164963	-0.09117169	1	170	0	1800
561175	-82	3	14	-1.546134	-0.6603913	-15.41162	0	11.06	4003	0	0	0	0	0.9164963	-0.09470941	1	170	0	1800
561279	-79	6	13	-1.557674	-0.6102017	-15.43449	0	11.06	4004	0	0	0	0	0.9164963	-0.1004956	1	170	0	1800
561384	-85	2	20	-1.564439	-0.566366	-15.45692	0	11.06	4004	0	0	0	0	0.9164963	-0.1067462	1	170	0	1800
561495	-85	0	4	-1.583276	-0.5191845	-15.47618	0	11.06	4002	0	0	0	0	0.9164963	-0.1098458	1	170	0	1800
561686	-86	-1	13	-1.599494	-0.44909	-15.51976	0	11.06	4004	0	0	0	0	0.9164963	-0.1089388	1	170	0	1800
561727	-85	7	15	-1.599798	-0.4399209	-15.52765	0	11.06	4004	0	0	0	0	0.9164963	-0.1081084	1	170	0	1800
561867	-90	9	16	-1.604304	-0.4126561	-15.55601	0	11.06	4003	0	0	0	0	0.9164963	-0.09691688	1	170	0	1800
561935	-92	7	15	-1.607062	-0.4010035	-15.56879	0	11.06	4003	0	0	0	0	0.9164963	-0.08940468	1	170	0	1800
562101	-72	1	16	-1.618305	-0.3632942	-15.60205	0	11.06	4004	0	0	0	0	0.9164963	-0.08155333	1	170	0	1800
562164	-74	-1	15	-1.6214	-0.3419068	-15.62277	0	11.11	4003	0	0	0	0	0.9164963	-0.08036051	1	170	0	1800
562304	-79	1	13	-1.619144	-0.3317788	-15.64997	0	11.11	4003	0	0	0	0	0.9164963	-0.0898012	1	170	0	1800
562424	-75	3	14	-1.612928	-0.322552	-15.67503	0	11.11	4004	0	0	0	0	0.9164963	-0.08954788	1	170	0	1800
562498	-76	4	16	-1.616678	-0.3200045	-15.68873	0	11.11	4004	0	0	0	0	0.9164963	-0.08892509	1	170	0	1800
562662	-83	1	9	-1.610269	-0.3047618	-15.71954	0	11.11	4003	0	0	0	0	0.9164963	-0.08810329	1	170	0	1800
562783	-86	3	10	-1.606438	-0.2909254	-15.74283	0	11.11	4002	0	0	0	0	0.9164963	-0.08398102	1	170	0	1800
562813	-84	4	15	-1.607472	-0.2911457	-15.75047	0	11.11	4002	0	0	0	0	0.9164963	-0.08516575	1	170	0	1800
562961	-86	2	14	-1.605669	-0.2816781	-15.77822	0	11.11	4003	0	0	0	0	0.9164963	-0.08774418	1	170	0	1800
563010	-69	1	12	-1.60512	-0.2784198	-15.79118	0	11.23	4004	0	0	0	0	0.9164963	-0.08769473	1	170	0	1800
563101	-70	3	13	-1.595484	-0.2790313	-15.81055	0	11.23	4003	0	0	0	0	0.9164963	-0.08776794	1	170	0	1800
563171	-71	3	13	-1.591189	-0.2799792	-15.82254	0	11.23	4002	0	0	0	0	0.9164963	-0.08731178	1	170	0	1800
563266	-82	4	15	-1.596069	-0.2796909	-15.84143	0	11.23	4004	0	0	0	0	0.9164963	-0.09056154	1	170	0	1800
563398	-78	4	11	-1.592102	-0.2715273	-15.86435	0	11.23	4003	0	0	0	0	0.9164963	-0.0926274	1	170	0	1800
563520	-86	4	8	-1.59919	-0.2638848	-15.88617	0	11.23	4004	0	0	0	0	0.9164963	-0.09984256	1	170	0	1800
563594	-73	-2	11	-1.606984	-0.2670648	-15.89974	0	11.23	4004	0	0	0	0	0.9164963	-0.1036226	1	170	0	1800
563680	-80	0	11	-1.611869	-0.2613375	-15.92285	0	11.23	4004	0	0	0	0	0.9164963	-0.1134873	1	170	0	1800
563803	-73	2	12	-1.613567	-0.2587706	-15.94663	0	11.23	4004	0	0	0	0	0.9164963	-0.128644	1	170	0	1800
563944	-82	6	13	-1.600518	-0.2541813	-15.97231	0	11.11	4003	0	0	0	0	0.9164963	-0.1408303	1	170	0	1800
564001	-85	11	14	-1.602535	-0.2554374	-15.97848	0	11.11	4002	0	0	0	0	0.9164963	-0.1447461	1	170	0	1800
564084	-81	2	10	-1.607828	-0.258744	-15.99731	0	11.11	4003	0	0	0	0	0.9164963	-0.1458622	1	170	0	1800
564198	-71	7	12	-1.608134	-0.2596589	-16.01498	0	11.11	4003	0	0	0	0	0.9164963	-0.1479155	1	170	0	1800
564427	-76	8	6	-1.609172	-0.26306	-16.05778	0	11.11	4003	0	0	0	0	0.9164963	-0.14544	1	170	0	1800
564546	-82	5	11	-1.607802	-0.2708094	-16.08249	0	11.11	4004	0	0	0	0	0.9164963	-0.1398862	1	170	0	1800
564630	-72	0	8	-1.609052	-0.2715419	-16.09441	0	11.11	4003	0	0	0	0	0.9164963	-0.1346983	1	170	0	1800
564747	-76	2	13	-1.596873	-0.2672689	-16.11349	0	11.11	4003	0	0	0	0	0.9164963	-0.1305296	1	170	0	1800
564802	-75	-1	9	-1.596307	-0.2606686	-16.1311	0	11.11	4002	0	0	0	0	0.9164963	-0.1230898	1	170	0	1800
564967	-74	4	18	-1.590484	-0.2590978	-16.15911	0	11.11	4003	0	0	0	0	0.9164963	-0.1096468	1	170	0	1800
565174	-78	5	9	-1.590359	-0.2577041	-16.189	0	11.11	4004	0	0	0	0	0.9164963	-0.1048457	1	170	0	1800
565300	-79	0	9	-1.586398	-0.2559335	-16.20942	0	11.11	4003	0	0	0	0	0.9164963	-0.1083101	1	170	0	1800
565374	-87	2	8	-1.589494	-0.2622499	-16.22263	0	11.11	4003	0	0	0	0	0.9164963	-0.1075905	1	170	0	1800
565527	-69	4	14	-1.612218	-0.2618951	-16.24357	0	11.11	4003	0	0	0	0	0.9164963	-0.1077615	1	170	0	1800
565649	-68	-4	12	-1.597806	-0.2656859	-16.26087	0	11.11	4003	0	0	0	0	0.9164963	-0.1071768	1	170	0	1800
565677	-68	-4	12	-1.597806	-0.2656859	-16.26087	0	11.11	4003	0	0	0	0	0.9164963	-0.1071384	1	220	0	1800
565756	-80	-1	11	-1.62125	-0.2660781	-16.28426	0	11.11	4002	0	0	0	0	0.9164963	-0.1122522	1	220	0	1800
565910	-77	1	12	-1.610038	-0.2658792	-16.30772	0	11.11	4003	0	0	0	0	0.9164963	-0.1228626	1	220	0	1800
565960	-73	-2	9	-1.60387	-0.2633165	-16.31984	0	11.11	4004	0	0	0	0	0.9164963	-0.1328227	1	220	0	1800
566081	-77	10	11	-1.595282	-0.2645967	-16.33518	0	11.11	4003	0	0	0	0	0.9164963	-0.1483981	1	220	0	1800
566206	-81	2	6	-1.58801	-0.2614119	-16.35712	0	11.11	4004	0	0	0	0	0.9164963	-0.1609105	1	220	0	1800
566344	-84	1	8	-1.583292	-0.2681508	-16.37961	0	11.11	4003	0	0	0	0	0.9164963	-0.1704347	1	220	0	1800
566412	-85	4	10	-1.582219	-0.268189	-16.3949	0	11.11	4003	0	0	0	0	0.9164963	-0.1740171	1	220	0	1800
566516	-76	8	14	-1.576287	-0.2601485	-16.41067	0	11.11	4003	0	0	0	0	0.9164963	-0.1754463	1	220	0	1800
566582	-79	6	8	-1.579403	-0.2614313	-16.42002	0	11.11	4003	0	0	0	0	0.9164963	-0.175498	1	220	0	1800
566684	-78	-2	9	-1.565524	-0.2521779	-16.44477	0	11.11	4004	0	0	0	0	0.9164963	-0.1787356	1	220	0	1800
566766	-78	8	17	-1.560933	-0.2518435	-16.45033	0	11.11	4004	0	0	0	0	0.9164963	-0.1857037	1	220	0	1800
566841	-72	5	6	-1.561778	-0.2536803	-16.47247	0	11.11	4003	0	0	0	0	0.9164963	-0.1865993	1	220	0	1800
566899	-77	6	12	-1.558101	-0.2541035	-16.47766	0	11.11	4003	0	0	0	0	0.9164963	-0.1872569	1	220	0	1800
567010	-79	5	7	-1.556427	-0.2575398	-16.49949	0	11.11	4002	0	0	0	0	0.9164963	-0.1883065	1	220	0	1800
567143	-77	6	10	-1.543825	-0.2552695	-16.52015	0	11.11	4002	0	0	0	0	0.9164963	-0.1830167	1	220	0	1800
567224	-81	7	6	-1.542209	-0.2513022	-16.53316	0	11.11	4004	0	0	0	0	0.9164963	-0.1816969	1	220	0	1800
567277	-89	1	12	-1.547494	-0.2503006	-16.53891	0	11.11	4003	0	0	0	0	0.9164963	-0.1842543	1	220	0	1800
567373	-76	2	13	-1.544098	-0.2523287	-16.55474	0	11.11	4004	0	0	0	0	0.9164963	-0.1811674	1	220	0	1800
567473	-78	1	5	-1.540334	-0.2479274	-16.56917	0	11.23	4004	0	0	0	0	0.9164963	-0.1811123	1	220	0	1800
567576	-71	14	18	-1.533051	-0.2523659	-16.58579	0	11.23	4002	0	0	0	0	0.9164963	-0.1846803	1	220	0	1800
567670	-77	7	11	-1.528729	-0.2540556	-16.60334	0	11.23	4004	0	0	0	0	0.9164963	-0.1856955	1	220	0	1800
567775	-80	4	8	-1.527628	-0.2578872	-16.61929	0	11.23	4003	0	0	0	0	0.9164963	-0.1720905	1	220	0	1800
567884	-62	2	9	-1.530837	-0.2643674	-16.63885	0	11.23	4002	0	0	0	0	0.9164963	-0.1598144	1	220	0	1800
567981	-68	5	12	-1.523581	-0.2638045	-16.65738	0	11.23	4003	0	0	0	0	0.9164963	-0.1482112	1	220	0	1800
568085	-70	2	10	-1.521291	-0.260998	-16.67358	0	11.23	4003	0	0	0	0	0.8363029	-0.1307109	4	220	0	1800
568189	-72	2	8	-1.522045	-0.2640136	-16.69138	0	11.23	4002	0	0	0	0	0.6407111	-0.1189016	4	220	0	1800
568293	-76	3	7	-1.519127	-0.2676767	-16.70654	0	11.23	4004	0	0	0	0	0.4973015	-0.1115484	4	220	0	1800
568539	-65	2	7	-1.511772	-0.2623777	-16.74272	0	11.17	4004	0	0	0	0	0.2930799	-0.0932952	3	220	0	1800
568615	-76	3	6	-1.512949	-0.2610371	-16.75238	0	11.17	4004	0	0	0	0	0.2572716	-0.08647911	1	220	0	1800
568707	-69	3	8	-1.5188	-0.264476	-16.76815	0	11.17	4002	0	0	0	0	0.2159016	-0.08461866	1	220	0	1800
568811	-75	0	10	-1.518228	-0.2589283	-16.7824	0	11.17	4004	0	0	0	0	0.1857429	-0.09165356	1	220	0	1800
568914	-71	10	11	-1.522569	-0.2638192	-16.79799	0	11.17	4002	0	0	0	0	0.1637573	-0.09388933	1	220	0	1800
569022	-69	7	9	-1.521761	-0.2621767	-16.81076	0	11.17	4003	0	0	0	0	0.1477297	-0.09382717	1	220	0	1800
569163	-82	0	17	-1.527653	-0.2669438	-16.82915	0	11.17	4002	0	0	0	0	0.1329026	-0.1003449	1	220	0	1800
569222	-81	3	10	-1.526179	-0.266672	-16.83955	0	11.17	4004	0	0	0	0	0.1275279	-0.1006522	1	220	0	1800
569314	-74	4	7	-1.528407	-0.2632194	-16.84914	0	11.17	4004	0	0	0	0	0.1213185	-0.1023824	3	220	0	1800
569418	-75	3	13	-1.531533	-0.2590624	-16.86289	0	11.17	4002	0	0	0	0	0.1155742	-0.1079917	3	220	0	1800
569522	-66	0	9	-1.520348	-0.2601116	-16.87713	0	11.17	4002	0	0	0	0	0.1126042	-0.1129395	3	220	0	1800
569626	-83	1	12	-1.52254	-0.2586021	-16.89896	0	11.17	4010	0	0	0	0	0.1110863	-0.1139763	3	220	0	1800
569730	-74	7	14	-1.527103	-0.2530813	-16.91632	0	11.17	4004	0	0	0	0	0.1093326	-0.1146207	3	220	0	1800
569837	-70	3	8	-1.511496	-0.2504736	-16.93057	0	11.17	4003	6	1	0	0	0.1077102	-0.1181293	3	220	0	1800
569979	-75	25	39	-1.509911	-0.2554822	-16.95441	0	11.17	4002	9	-2	0	0	0.1066457	-0.1270802	3	220	0	1800
570040	-64	7	-9	-1.51213	-0.2657935	-16.96597	0	11.17	4004	8	2	1	0	0.1064427	-0.1299816	3	220	0	1800
570144	-114	-25	-38	-1.510081	-0.2643576	-16.98658	0	11.17	4004	10	12	3	0	0.1059474	-0.1331599	3	220	0	1800
570302	-130	-20	47	-1.523422	-0.2577744	-17.01758	0	10.77	4003	-1	5	2	0	0.1054017	-0.1190101	3	220	0	1800
570351	155	-100	32	-1.491123	-0.2577497	-17.0204	0	10.77	4002	-12	-32	3	0	0.1053231	-0.1177755	3	220	0	1800
570449	-103	-146	4	-1.515602	-0.2845532	-17.04608	0	10.77	4003	-18	-8	4	0	0.1051312	-0.1077156	3	220	0	1800
570553	-218	27	115	-1.572771	-0.2368773	-17.08448	0	10.77	4004	20	11	4	0	0.1049913	-0.09334934	3	220	0	1800
570661	-185	68	68	-1.553293	-0.2593803	-17.09474	0	10.77	4002	35	-5	2	0	0.1048619	-0.08034624	3	220	0	1800
570759	19	122	-138	-1.606441	-0.2490064	-17.13326	0	10.77	4002	20	-16	5	0	0.104795	-0.07228308	3	220	0	1800
570863	-119	-93	55	-1.663326	-0.2128512	-17.17968	0	10.77	4004	23	12	7	0	0.1047462	-0.06980643	3	220	0	1800
570986	-75	3	120	-1.633326	-0.1117408	-17.16231	0	10.77	4004	16	0	0	0	0.1047106	-0.06082758	3	220	0	1800
571055	-64	-555	-95	-1.759178	-0.1934067	-17.12561	0	10.77	4003	44	-12	2	0	0.1046847	-0.04901737	3	220	0	1800
571159	792	-2972	-585	-1.203753	1.8558	-16.63466	0	10.77	4004	93	-140	-13	0	0.1046658	-0.03515982	3	220	0	1800
571263	-274	1579	7	0.3660788	1.019938	-16.74913	0	9.92	4003	-22	-130	-18	0	0.104652	-0.02110915	3	220	0	1800
571366	-1080	1415	313	-0.3505922	-2.359219	-16.48628	0	9.92	4004	139	-190	-13	0	0.104642	0.008165588	3	220	0	1800
571467	-1910	4236	-252	-2.586354	-6.180972	-16.21809	0	9.92	4002	-145	175	-12	0	0.1046347	0.0407107	3	220	0	1800
571571	-1962	2935	-424	-6.025229	-12.5088	-15.94123	0	9.92	4004	-156	261	-21	0	0.1046294	0.07768549	3	220	0	1800
571675	-1680	864	-1259	-8.036405	-16.46799	-15.04084	0	9.92	4004	-16	-182	-58	0	0.1046255	0.127102	3	220	0	1800
571778	627	131	150	-8.510647	-16.92331	-15.21612	0	9.92	4003	66	-251	-36	0	0.1046226	0.155171	3	220	0	1800
571879	1038	-348	-296	-4.533792	-18.01946	-16.781	0	9.92	4003	191	-335	-6	0	0.1046206	0.1994217	3	220	0	1800
571983	1438	-1274	-792	-1.16287	-17.75215	-16.38426	0	9.92	4004	127	-312	-12	0	0.1046191	0.2439246	3	220	0	1800
572086	1065	-155	-535	1.286875	-17.40466	-15.19862	0	9.92	4004	96	-258	-51	0	0.104618	0.2880562	3	220	0	1800
572190	875	637	-200	2.690971	-18.00069	-14.821	0	10.66	4003	16	-8	-54	0	0.1046172	0.3577237	3	220	0	1800
572292	-1081	-2757	1122	2.064069	-14.73457	-15.57089	0	10.66	4002	20	-83	-17	0	0.1046166	0.4197415	3	220	0	1800
572396	276	-2741	1025	1.059157	-7.421172	-17.76549	0	10.66	4003	-41	-56	36	0	0.104616	0.4878243	3	220	0	1800
572499	-968	-967	-859	2.107975	-5.4916	-17.72981	0	10.66	4003	82	-255	11	0	0.1046158	0.550007	3	220	0	1800
572603	-850	2107	-101	1.981025	-6.326335	-16.83991	0	10.66	4004	53	-66	-24	0	0.1046156	0.59596	3	220	0	1800
572697	-1488	-1609	-1173	0.8554299	-7.872894	-16.16491	0	10.66	4004	-138	42	-4	0	0.1046154	0.6252252	3	220	0	1800
572808	-246	-1901	-453	-1.006568	-6.043276	-16.27264	0	10.66	4004	-52	-51	-42	0	0.1046153	0.6742363	3	220	0	1800
572905	99	-684	73	-0.773069	-4.808154	-15.94967	0	10.66	4003	42	-62	-13	0	0.1046152	0.695278	3	220	0	1800
573007	-1144	-5408	-401	-3.118466	-1.225262	-16.28986	0	10.66	4003	11	-151	-22	0	0.1046152	0.7282483	3	220	0	1800
573106	1285	2032	1361	-1.768485	0.9517307	-16.83909	0	9.98	4004	-45	128	-8	0	0.1046151	0.7436694	3	220	0	1800
573209	786	1252	-284	-2.084495	-1.590894	-16.64422	0	9.98	4002	-100	21	-40	0	0.1046151	0.7566329	3	220	0	1800
573318	982	879	314	0.2584175	-3.548166	-16.10913	0	9.98	4002	-110	193	-17	0	0.1046151	0.7752779	3	220	0	1800
573461	-283	-532	-618	-0.7739595	-3.531118	-15.64432	0	9.98	4003	74	-103	-53	0	0.104615	0.7967026	3	220	0	1800
573517	-1173	1123	310	-0.2912336	-5.457862	-15.82058	0	9.98	4002	44	138	-22	0	0.104615	0.8007945	3	220	0	1800
573621	-696	406	1084	-2.541374	-5.348469	-16.40181	0	9.98	4003	-155	137	0	0	0.104615	0.8117482	3	220	0	1800
573739	546	2130	865	-1.990787	-6.899002	-16.57449	0	9.98	4003	-18	48	-19	0	0.104615	0.8154684	3	220	0	1800
573837	-1214	150	-147	-1.752811	-9.471397	-16.84426	0	9.98	4003	207	-267	1	0	0.104615	0.8150027	3	220	0	1800
573969	-1233	1708	998	-3.804549	-11.27429	-16.9255	0	9.98	4003	-208	92	7	0	0.104615	0.8135826	3	220	0	1800
574096	445	1701	559	-7.100922	-9.73256	-16.39237	0	10.26	4004	-113	154	-4	0	0.104615	0.8077847	3	220	0	1800
574159	-984	544	-196	-7.201866	-11.51332	-16.52451	0	10.26	4003	34	30	-13	0	0.104615	0.8008192	3	220	0	1800
574205	393	-66	-409	-7.184548	-12.97253	-16.49751	0	10.26	4003	154	-282	-13	0	0.104615	0.795409	3	220	0	1800
574320	1444	1375	-945	-4.331146	-15.33111	-15.63512	0	10.26	4003	49	-241	-44	0	0.104615	0.777702	3	220	0	1800
574404	-75	1337	337	-3.487262	-17.85839	-15.35381	0	10.26	4003	4	-142	-41	0	0.104615	0.7719694	3	220	0	1800
574588	2850	2889	-763	-0.973002	-17.70438	-15.93405	0	10.26	4003	74	-197	-30	158	0.3440619	0.765923	4	220	0	1800
574611	1098	342	-475	0.3577812	-17.99746	-15.87306	0	10.26	4004	-144	101	-34	145	0.4175636	0.7647015	4	220	0	1800
574715	-1200	-2932	67	0.4658498	-14.40205	-15.73032	0	10.26	4004	-63	-105	-30	101	0.5223687	0.7754435	4	220	0	1800
574818	81	-366	343	-0.2448063	-11.22077	-16.28311	0	10.26	4004	-26	121	-13	114	0.5376006	0.7933531	4	220	0	1800
574935	1340	-2161	-375	2.792627	-9.119506	-15.92599	0	10.72	4002	-161	28	-22	83	0.6757722	0.8216372	4	220	0	1800
575022	-1857	-3908	496	2.559956	-4.991377	-16.26022	0	10.72	4002	31	16	-16	52	0.6867794	0.8541024	4	220	0	1800
575126	-133	-1330	355	0.365586	0.8349336	-17.7249	0	10.72	4004	-65	160	41	48	0.7767326	0.8974075	4	220	0	1800
575233	-519	-323	-542	-0.6908981	-1.736771	-17.8633	0	10.72	4002	-32	63	25	26	0.8844162	0.9232858	4	220	0	1800
575334	1229	-415	-1678	-0.3271212	-2.914	-16.2595	0	10.72	4004	-7	-156	-30	4	0.9802997	0.9679207	4	220	0	1800
575439	339	-116	-153	0.5188683	-4.360514	-15.5332	0	10.72	4002	26	-111	-32	-17	1.077248	1.027913	4	220	0	1800
575534	-667	-2737	688	-0.8283268	-3.123823	-15.94026	0	10.72	4002	-9	-29	-21	-17	1.070029	1.075934	4	220	0	1800
575638	-268	-2351	51	-1.543497	0.8130722	-16.73177	0	10.72	4002	-30	-88	-5	-26	1.136712	1.119866	4	220	0	1800
575742	-60	1752	101	-0.9159439	0.4245713	-17.09723	0	10.72	4004	-59	69	3	-8	1.052001	1.154347	4	220	0	1800
575836	-91	2587	-304	-1.380463	-2.727084	-17.14266	0	10.72	4003	5	-68	4	-26	1.14391	1.187105	4	220	0	1800
575939	582	2687	-676	-1.135834	-6.871715	-16.83096	0	10.32	4002	29	-66	-7	-22	1.107218	1.196621	4	220	0	1800
576046	-1124	37	-194	-2.582243	-8.486973	-16.70307	0	10.32	4004	7	-29	-7	-35	1.15196	1.210552	4	220	0	1800
576147	427	-1825	416	-3.538047	-5.4061	-16.64871	0	10.32	4002	-25	-60	-9	-39	1.185944	1.21978	4	220	0	1800
576250	524	2257	303	-2.860533	-4.877866	-17.04014	0	10.32	4006	29	-51	1	-17	1.088656	1.217612	4	220	0	1800
576354	-238	491	-776	-1.903154	-7.756042	-17.18183	0	10.32	4002	51	-72	6	-26	1.11679	1.198041	4	220	0	1800
576458	481	1169	-69	-2.639815	-7.863483	-17.1108	0	10.32	4004	-15	13	4	-30	1.154896	1.178784	4	220	0	1800
576562	282	1476	-68	-2.129347	-8.497659	-17.07992	0	10.32	4002	19	-7	-4	-39	1.187312	1.15972	4	220	0	1800
576666	109	-1125	-426	-2.509268	-7.392885	-16.97009	0	10.32	4002	-9	-42	10	-44	1.213962	1.136993	4	220	0	1800
576770	148	-1186	-25	-2.346987	-4.289115	-16.68318	0	10.32	4004	5	-58	-12	-52	1.228399	1.100875	4	220	0	1800
576874	-483	-376	828	-2.631653	-2.942626	-16.87189	0	10.94	4002	-64	-12	4	-48	1.217389	1.075334	4	220	0	1800
576978	-774	-34	270	-4.17005	-2.492782	-17.32368	0	10.94	4002	-3	0	20	-48	1.214573	1.019071	4	220	0	1800
577083	209	357	-533	-4.676388	-2.624412	-17.09113	0	10.94	4004	21	-8	0	-44	1.21192	0.9570266	4	220	0	1800
577188	236	25	114	-4.405962	-2.528518	-17.00547	0	10.94	4003	65	-32	1	-52	1.241488	0.9063594	4	220	0	1800
577293	956	-79	-531	-3.192231	-2.400466	-17.08014	0	10.94	4003	-51	-71	-3	-30	1.132254	0.7949495	4	220	0	1800
577398	-6621	1183	11165	-2.188723	-0.1353958	-17.46885	0	10.94	4003	72	-83	2	-30	1.152701	0.622565	4	220	0	1800
577493	2550	-4694	-6673	5.00854	9.655713	-12.95043	0	10.94	4002	92	-140	-205	8	0.8813109	0.5619677	4	220	0	1800
577598	-751	4080	-283	2.117247	3.957092	-8.187878	0	10.94	4002	-92	51	-199	17	0.942342	0.4983793	4	220	0	1800
577703	45	3390	4307	1.265363	-3.111908	-12.14483	0	10.94	4004	-55	90	-65	4	0.9943629	0.423468	4	220	0	1800
577810	-1883	-2355	1595	0.05097492	-3.519258	-16.65371	0	10.26	4004	76	-64	14	8	0.925038	0.3814525	4	220	0	1800
