time(ms)	gyro_x(deg/s)	gyro_y(deg/s)	gyro_z(deg/s)	orientation_roll(deg)	orientation_pitch(deg)	orientation_yaw(deg)	throttle	battery(V)	loop_time(uS)	pid_output_roll	pid_output_pitch	pid_output_yaw	pid_output_throttle	ultrasonic_alt	baro_alt	flight_mode	p_gain_altitude	i_gain_altitude	d_gain_altitude
175290	-2408	-916	767	-5.06523	1.728667	0.2558134	0	11.57	4003	22	-43	-13	0	1.378873	0.6484054	3	210	0	1800
175415	-768	1680	-419	-8.468586	-0.6049095	0.4922007	0	11.57	4003	-41	130	-13	0	1.380048	0.6692479	3	210	0	1800
175528	497	-839	-993	-7.74507	-1.663481	0.05221514	0	11.57	4008	53	-153	-7	0	1.380819	0.6799043	3	210	0	1800
175583	1035	-388	-1117	-6.124842	-2.160121	0.02357051	0	11.57	4003	112	-268	-19	0	1.380966	0.6847073	3	210	0	1800
175691	2093	1213	-1712	-2.949782	-7.480643	0.9000955	0	11.57	4003	-136	381	-11	0	1.381422	0.7019117	3	210	0	1800
175785	4049	3444	-1216	0.7756464	-9.89893	1.667059	0	11.57	4002	-111	-120	-56	0	1.381657	0.7101374	3	210	0	1800
175938	750	-569	-735	5.359888	-16.08201	2.001979	0	9.87	4004	70	25	-61	0	1.381875	0.699346	3	210	0	1800
176048	-2066	-827	2026	2.900914	-13.01661	0.7861908	0	9.87	4004	-20	318	-12	0	1.381987	0.6894766	3	210	0	1800
176180	959	2289	-825	2.372743	-11.96097	0.1017737	0	9.87	4002	-28	-257	-8	0	1.382091	0.6695214	3	210	0	1800
176214	460	4066	766	2.632144	-13.39465	0.03002825	0	9.87	4004	27	-131	-18	0	1.382111	0.6675489	3	210	0	1800
176348	763	-146	-1149	1.499146	-14.81024	0.2610638	0	9.87	4003	35	-44	-25	0	1.382173	0.6637993	3	210	0	1800
176456	-616	1277	257	3.573689	-15.08918	0.2586055	0	9.87	4002	22	80	-5	0	1.382205	0.6564062	3	210	0	1800
176551	-650	-1201	37	2.302553	-14.0095	-0.1002247	0	9.87	4003	3	-90	-1	0	1.382228	0.6487035	3	210	0	1800
176707	228	-3396	214	2.922647	-5.656144	0.1429023	0	9.87	4003	17	-10	0	0	1.382249	0.637691	3	210	0	1800
176796	-674	-233	-322	1.312474	-3.103271	0.1569136	0	10.89	4004	-95	121	-6	0	1.38226	0.612875	3	210	0	1800
176928	7711	-3062	2106	-0.5658901	-1.843367	0.5907052	0	10.89	4004	-400	400	25	0	1.382272	0.5677171	3	210	0	1800
177016	-299	49	617	2.441088	-0.2430757	0.1087136	0	10.89	4003	0	0	0	0	1.382277	0.5380815	3	210	0	1800
177147	-5118	2905	854	-5.732237	-3.821629	-1.807652	0	10.89	4002	0	0	0	0	1.382281	0.500024	1	210	0	1800
177201	17637	-12772	105	-5.778115	-1.865989	-2.159056	0	10.89	4002	0	0	0	0	1.382282	0.4801913	1	210	0	1800
177362	-500	425	1539	-1.679787	-0.7820392	-3.479771	0	10.89	4009	0	0	0	0	1.382285	0.4388569	1	210	0	1800
177479	-57	24	-64	-1.601692	-0.7081693	-3.522431	0	10.89	4004	0	0	0	0	1.382287	0.3745008	1	210	0	1800
177574	0	-44	-83	-1.510467	-0.658088	-3.540588	0	10.89	4003	0	0	0	0	1.382288	0.3311622	1	210	0	1800
177649	-52	-76	78	-1.445933	-0.5564927	-3.553735	0	10.89	4002	0	0	0	0	1.382288	0.3051099	1	210	0	1800
177713	-41	-19	18	-1.365788	-0.5071956	-3.554593	0	11.63	4003	0	0	0	0	1.382288	0.2799414	1	210	0	1800
177817	-41	-13	45	-1.272758	-0.4401153	-3.573666	0	11.63	4002	0	0	0	0	1.382289	0.2419243	1	210	0	1800
177920	-39	-23	31	-1.198845	-0.3653487	-3.588215	0	11.63	4002	0	0	0	0	1.382289	0.2054896	1	210	0	1800
178026	-46	-10	-13	-1.117893	-0.3113576	-3.595798	0	11.63	4002	0	0	0	0	1.382289	0.1787716	1	210	0	1800
178175	-39	-6	-18	-1.045608	-0.2378762	-3.615726	0	11.63	4003	0	0	0	0	1.382289	0.1456595	1	210	0	1800
178271	-24	10	46	-0.989581	-0.1955918	-3.627894	0	11.63	4003	0	0	0	0	1.382289	0.1227715	1	210	0	1800
178379	-45	5	-5	-0.9351623	-0.1641153	-3.638529	0	11.63	4002	0	0	0	0	1.382289	0.1007369	1	210	0	1800
178490	-55	-15	12	-0.8858523	-0.1322838	-3.654181	0	11.63	4002	0	0	0	0	1.382289	0.08912464	1	210	0	1800
178589	-30	10	0	-0.8458399	-0.09983524	-3.665004	0	11.63	4004	0	0	0	0	1.382289	0.08453195	1	210	0	1800
178684	-60	7	24	-0.7966853	-0.06920614	-3.677782	0	11.74	4003	0	0	0	0	1.382289	0.08480319	1	210	0	1800
178735	-43	-4	9	-0.7904942	-0.06436579	-3.67925	0	11.74	4003	0	0	0	0	1.382289	0.08503564	1	210	0	1800
178891	-33	0	10	-0.7589882	-0.03207906	-3.695879	0	11.74	4004	0	0	0	0	1.382289	0.08657744	1	210	0	1800
178942	-50	0	-13	-0.7370111	-0.02523123	-3.70236	0	11.74	4004	0	0	0	0	1.382289	0.08671629	1	210	0	1800
179059	-38	0	20	-0.7132198	-0.01345101	-3.714832	0	11.74	4003	0	0	0	0	1.382289	0.0876283	1	210	0	1800
179152	-41	-2	-3	-0.6897364	-0.004328416	-3.723148	0	11.74	4003	0	0	0	0	1.382289	0.08922686	1	210	0	1800
179274	-36	-5	6	-0.6723896	0.0127766	-3.737577	0	11.74	4002	0	0	0	0	1.382289	0.0970754	1	210	0	1800
179465	-35	6	8	-0.6482022	0.03112288	-3.752434	0	11.74	4004	0	0	0	0	1.382289	0.1121772	1	210	0	1800
179517	-34	-1	7	-0.6384907	0.03060799	-3.760138	0	11.74	4004	0	0	0	0	1.382289	0.1147844	1	210	0	1800
179592	-36	4	7	-0.6273985	0.03146031	-3.766312	0	11.68	4002	0	0	0	0	1.382289	0.1132186	1	210	0	1800
179678	-41	-1	8	-0.6162312	0.03601205	-3.772976	0	11.68	4003	0	0	0	0	1.382289	0.1090775	1	210	0	1800
179772	-38	2	8	-0.5979358	0.04734446	-3.786731	0	11.68	4003	0	0	0	0	1.382289	0.1126463	1	210	0	1800
179898	-37	2	3	-0.5807064	0.04761162	-3.796757	0	11.68	4002	0	0	0	0	1.382289	0.1185007	1	210	0	1800
179962	-42	3	6	-0.5738792	0.04874492	-3.80018	0	11.68	4002	0	0	0	0	1.382289	0.1208296	1	210	0	1800
180070	-34	0	8	-0.5719137	0.04796211	-3.812652	0	11.68	4004	0	0	0	0	1.382289	0.1221597	1	210	0	1800
180171	-32	-2	4	-0.5579292	0.04641682	-3.817298	0	11.68	4004	0	0	0	0	1.382289	0.1208968	1	210	0	1800
180391	-26	0	2	-0.5500575	0.04936758	-3.839124	0	11.68	4003	0	0	0	0	1.382289	0.1099998	1	210	0	1800
180486	-32	4	2	-0.5432898	0.05227711	-3.845482	0	11.68	4004	0	0	0	0	1.382289	0.1060931	1	210	0	1800
180603	-30	7	4	-0.53802	0.05086828	-3.857037	0	11.74	4003	0	0	0	0	1.382289	0.1042379	1	210	0	1800
180753	-35	3	4	-0.53241	0.04643502	-3.869693	0	11.74	4004	0	0	0	0	1.382289	0.1053572	1	210	0	1800
180830	-38	3	7	-0.5334181	0.04656878	-3.876051	0	11.74	4003	0	0	0	0	1.382289	0.104994	1	210	0	1800
180945	-34	-1	3	-0.5338352	0.04633829	-3.887116	0	11.74	4003	0	0	0	0	1.382289	0.1088384	1	210	0	1800
181048	-30	2	2	-0.5332074	0.04466956	-3.894635	0	11.74	4004	0	0	0	0	1.382289	0.1050592	1	210	0	1800
181130	-37	6	7	-0.5287654	0.03943689	-3.90191	0	11.74	4004	0	0	0	0	1.382289	0.1041571	1	210	0	1800
181240	-34	0	6	-0.5290337	0.04661233	-3.91053	0	11.74	4003	0	0	0	0	1.382289	0.1053237	1	210	0	1800
181310	-31	0	4	-0.5258015	0.04881884	-3.915238	0	11.74	4003	0	0	0	0	1.382289	0.1054908	1	210	0	1800
181399	-37	3	6	-0.5189356	0.04693164	-3.923308	0	11.74	4003	0	0	0	0	1.382289	0.1071604	1	210	0	1800
181506	-39	0	3	-0.5120428	0.04944594	-3.932112	0	11.68	4003	0	0	0	0	1.382289	0.1115078	1	210	0	1800
181586	-33	3	3	-0.5072473	0.05029853	-3.938041	0	11.68	4003	0	0	0	0	1.382289	0.1102088	1	210	0	1800
181691	-42	0	7	-0.5114165	0.05215383	-3.94501	0	11.68	4003	0	0	0	0	1.382289	0.1111531	1	210	0	1800
181931	-31	0	10	-0.501253	0.05207969	-3.965796	0	11.68	4004	0	0	0	0	1.382289	0.1133315	1	210	0	1800
182031	-27	-3	-2	-0.4941038	0.05464428	-3.973499	0	11.68	4003	0	0	0	0	1.382289	0.1280928	1	210	0	1800
182105	-25	0	4	-0.4861659	0.05656399	-3.978696	0	11.68	4004	0	0	0	0	1.382289	0.1350394	1	210	0	1800
182245	-30	1	4	-0.4797071	0.05897401	-3.987683	0	11.68	4004	0	0	0	0	1.382289	0.1395281	1	210	0	1800
182308	-35	1	4	-0.4775724	0.05971049	-3.991168	0	11.68	4003	0	0	0	0	1.382289	0.1377877	1	210	0	1800
182507	-36	1	4	-0.4836589	0.06594642	-4.007124	0	11.74	4003	0	0	0	0	1.382289	0.1342421	1	210	0	1800
182577	-29	-2	0	-0.4815696	0.06350181	-4.011832	0	11.74	4003	0	0	0	0	1.382289	0.1264492	1	210	0	1800
182708	-35	-3	4	-0.4823477	0.06660542	-4.021187	0	11.74	4003	0	0	0	0	1.382289	0.1220189	1	210	0	1800
182795	-29	0	5	-0.4747761	0.06377695	-4.026201	0	11.74	4004	0	0	0	0	1.382289	0.1185364	1	210	0	1800
182866	-32	1	4	-0.4724277	0.06075775	-4.03042	0	11.74	4003	0	0	0	0	1.382289	0.1119734	1	210	0	1800
182959	-34	0	4	-0.4688579	0.05631997	-4.035677	0	11.74	4003	0	0	0	0	1.382289	0.1049194	1	210	0	1800
183116	-29	-4	2	-0.471269	0.05076211	-4.044847	0	11.74	4003	0	0	0	0	1.382289	0.09671162	1	210	0	1800
183227	-24	2	3	-0.4626275	0.05513006	-4.051448	0	11.74	4003	0	0	0	0	1.382289	0.09993795	1	210	0	1800
183319	-30	-3	0	-0.4555418	0.06063032	-4.058052	0	11.74	4003	0	0	0	0	1.382289	0.1019285	1	210	0	1800
183430	-36	0	5	-0.4515873	0.06349007	-4.064593	0	11.74	4002	0	0	0	0	1.382289	0.09717435	1	210	0	1800
183580	-27	4	2	-0.4500905	0.0610384	-4.072418	0	11.74	4003	0	0	0	0	1.382289	0.08877105	1	210	0	1800
183697	-27	-8	1	-0.4469138	0.06194618	-4.080671	0	11.74	4002	0	0	0	0	1.382289	0.0787487	1	210	0	1800
183850	-27	-1	1	-0.4516225	0.05888801	-4.087089	0	11.74	4004	0	0	0	0	1.382289	0.0770814	1	210	0	1800
183991	-24	4	3	-0.434705	0.05792093	-4.095096	0	11.74	4003	0	0	0	0	1.382289	0.09315611	1	210	0	1800
184184	-27	2	3	-0.4293786	0.05981226	-4.103837	0	11.68	4002	0	0	0	0	1.382289	0.1028088	1	210	0	1800
184284	-37	0	4	-0.4318565	0.06015679	-4.111663	0	11.68	4003	0	0	0	0	1.382289	0.1081955	1	210	0	1800
184354	-33	0	0	-0.4328777	0.05942689	-4.116248	0	11.68	4002	0	0	0	0	1.382289	0.1136733	1	210	0	1800
184453	-28	6	3	-0.4287011	0.05739035	-4.124685	0	11.68	4003	0	0	0	0	1.382289	0.1259585	1	210	0	1800
184479	-28	6	3	-0.4287011	0.05739035	-4.124685	0	11.68	4003	0	0	0	0	1.382289	0.1296132	1	210	0	1800
184559	-35	1	5	-0.4247091	0.05965135	-4.130125	0	11.68	4004	0	0	0	0	1.382289	0.1340358	1	210	0	1800
184712	-25	-1	0	-0.4237959	0.05792512	-4.140334	0	11.68	4003	0	0	0	0	1.382289	0.1327474	1	210	0	1800
184831	-33	-3	5	-0.4201894	0.05675479	-4.146631	0	11.68	4003	0	0	0	0	1.382289	0.1316987	1	210	0	1800
184925	-31	-6	-2	-0.4212288	0.06232893	-4.15256	0	11.68	4003	0	0	0	0	1.382289	0.1317303	1	210	0	1800
185071	-27	7	5	-0.4261966	0.05725345	-4.161179	0	11.74	4003	0	0	0	0	1.382289	0.1222364	1	210	0	1800
185186	-31	-2	3	-0.4305824	0.05490713	-4.166803	0	11.74	4004	0	0	0	0	1.382289	0.1200171	1	210	0	1800
209400	-16	13	2	-6.193536	-33.20094	33.34673	0	11.68	4002	0	0	0	0	1.644683	-0.00527745	1	400	0	0
209443	-17	-2	0	-6.194914	-33.18178	33.34765	0	11.68	4003	0	0	0	0	1.644683	-0.004475411	1	400	0	0
209534	-24	-2	0	-6.198103	-33.13812	33.3438	0	11.68	4003	0	0	0	0	1.644684	-0.005227153	1	400	0	0
209639	-19	2	-1	-6.187572	-33.1062	33.34124	0	11.68	4002	0	0	0	0	1.644684	-0.006283782	1	400	0	0
209834	-35	-17	0	-6.196938	-33.04663	33.34363	0	11.68	4002	0	0	0	0	1.644684	-0.01317023	1	400	0	0
209884	2	30	-15	-6.193629	-33.0495	33.3517	0	11.68	4005	0	0	0	0	1.644684	-0.01335833	1	400	0	0
209964	-35	-15	10	-6.194912	-33.02904	33.35427	0	11.74	4003	0	0	0	0	1.644684	-0.01182521	1	400	0	0
210099	-37	-14	2	-6.206728	-33.01416	33.3618	0	11.74	4004	0	0	0	0	1.644684	-0.005563397	1	400	0	0
210164	-47	-23	4	-6.20605	-32.98968	33.35209	0	11.74	4004	0	0	0	0	1.644684	-0.001960285	1	400	0	0
210269	-23	-5	1	-6.199802	-32.96805	33.35093	0	11.74	4003	0	0	0	0	1.644684	0.002594105	1	400	0	0
298098	-26	0	5	-0.1302057	-0.1485732	18.31405	0	11.68	4004	0	0	0	0	1.294826	0.2384172	1	400	0	600
298130	-24	-2	5	-0.1307142	-0.1501311	18.31179	0	11.63	4003	0	0	0	0	1.294826	0.2376126	1	400	0	600
298317	-21	1	6	-0.1249464	-0.1479122	18.30104	0	11.63	4002	0	0	0	0	1.294826	0.2298814	1	400	0	600
298401	-14	-5	10	-0.1194169	-0.1478218	18.29677	0	11.63	4003	0	0	0	0	1.294826	0.23716	1	400	0	600
298442	-35	0	-4	-0.1233079	-0.1500645	18.29286	0	11.63	4003	0	0	0	0	1.294826	0.2404525	1	400	0	600
298501	-21	-4	8	-0.1156842	-0.1518778	18.28767	0	11.63	4002	0	0	0	0	1.294826	0.2478577	1	400	0	600
298566	-18	0	3	-0.1067807	-0.1520581	18.28492	0	11.63	4004	0	0	0	0	1.294826	0.2570946	1	400	0	600
298711	-25	5	0	-0.105365	-0.1482503	18.28071	0	11.63	4002	0	0	0	0	1.294826	0.2430807	1	400	0	600
298827	-19	7	5	-0.09999523	-0.1475256	18.27455	0	11.63	4002	0	0	0	0	1.294826	0.2413228	1	400	0	600
298858	-21	0	-2	-0.09319544	-0.1499498	18.27015	0	11.63	4003	0	0	0	0	1.294826	0.2415944	1	400	0	600
298932	-19	0	3	-0.09697178	-0.1532698	18.26655	0	11.63	4002	0	0	0	0	1.294826	0.2419068	1	400	0	600
299026	-24	3	0	-0.08866031	-0.1583668	18.26155	0	11.63	4004	0	0	0	0	1.294826	0.2400104	1	400	0	600
299105	-26	-2	0	-0.08486781	-0.1602515	18.25636	0	11.63	4002	0	0	0	0	1.294826	0.2397949	1	400	0	600
299208	-19	-1	5	-0.07919227	-0.1575576	18.25221	0	11.63	4004	0	0	0	0	1.294826	0.2274103	1	400	0	600
299367	-26	5	4	-0.07102405	-0.1553855	18.24476	0	11.63	4004	0	0	0	0	1.294826	0.208845	3	400	0	600
299494	-32	-3	4	-0.07093013	-0.1447169	18.23853	0	11.63	4003	0	0	0	0	1.294826	0.2056833	3	400	0	600
299525	-31	7	1	-0.06839153	-0.144427	18.23707	0	11.63	4002	0	0	0	0	1.294826	0.2069567	3	400	0	600
299663	-19	-6	3	-0.0710576	-0.1440966	18.23426	0	11.63	4003	0	0	0	0	1.294826	0.2133669	3	400	0	600
299754	-20	4	4	-0.06939466	-0.1476657	18.23127	0	11.63	4003	0	0	0	0	1.294826	0.2251675	3	400	0	600
299818	-18	-5	1	-0.06242199	-0.1476904	18.22767	0	11.63	4002	0	0	0	0	1.294826	0.2321609	3	400	0	600
299898	-23	3	3	-0.06204569	-0.1461577	18.22413	0	11.63	4002	0	0	0	0	1.294826	0.2398996	3	400	0	600
299952	-22	1	7	-0.06309296	-0.1569586	18.22126	0	11.63	4004	0	0	0	0	1.294826	0.2398562	3	400	0	600
300071	-17	9	-3	-0.06594666	-0.1528441	18.21338	0	11.63	4002	0	0	0	0	1.294826	0.249002	3	400	0	600
300177	-21	-2	5	-0.06561991	-0.1535643	18.20942	0	11.63	4003	0	0	0	0	1.294826	0.2504693	3	400	0	600
300268	-29	1	0	-0.0666239	-0.1483726	18.20289	0	11.63	4003	0	0	0	0	1.294826	0.2476047	3	400	0	600
300367	-42	-22	18	-0.05769513	-0.1428759	18.19904	0	11.63	4004	0	1	0	0	1.294826	0.2442047	3	400	0	600
300508	-36	-42	120	-0.03289007	-0.1563213	18.17239	0	11.63	4002	11	-3	0	0	1.294826	0.2326573	3	400	0	600
300583	-46	-92	-71	-0.05647708	-0.113116	18.1812	0	11.63	4002	-6	13	2	0	1.294826	0.2282166	3	400	0	600
300664	-1	92	87	-0.07944947	-0.08936661	18.15766	0	11.57	4002	0	0	0	0	1.294826	0.2272217	3	400	0	600
300762	117	52	44	-0.05981905	-0.1078494	18.16854	0	11.57	4003	0	0	0	0	1.294826	0.2298513	3	400	0	600
300953	-26	-41	152	-0.05304439	-0.09412745	18.13442	0	11.57	4004	0	-7	0	0	1.294826	0.2403641	3	400	0	600
301023	98	5	104	-0.08952313	-0.08742609	18.12984	0	11.57	4003	22	3	1	0	1.294826	0.2441649	3	400	0	600
301144	-192	0	47	-0.04416387	-0.08902831	18.13027	0	11.57	4004	4	8	1	0	1.294826	0.2595829	3	400	0	600
301202	-84	47	9	-0.02131556	-0.1002113	18.12923	0	11.57	4002	17	-27	3	0	1.294826	0.2711094	3	400	0	600
301301	21	-116	-78	-0.03331408	-0.1349813	18.12929	0	11.57	4003	1	-20	0	0	1.294826	0.2849406	3	400	0	600
301379	15	65	40	-0.02940753	-0.136881	18.13327	0	11.57	4004	17	8	1	0	1.294826	0.2910948	3	400	0	600
301472	-173	-57	28	-0.09249257	-0.1248505	18.11842	0	11.57	4002	25	20	0	0	1.294826	0.3021354	3	400	0	600
301609	-126	-42	-201	-0.1881276	-0.0215031	18.0749	0	11.57	4002	-33	-3	5	0	1.294826	0.3154666	3	400	0	600
301704	-410	45	210	-0.2631089	0.08965241	18.05357	0	11.57	4003	13	-5	0	0	1.294826	0.3233931	3	400	0	600
301776	193	-327	-52	-0.1639389	0.3987322	18.07153	0	11.57	4004	-7	24	6	0	1.294826	0.3323915	3	400	0	600
301878	989	-1956	-1302	0.3928419	1.910126	18.1014	0	11.57	4004	-118	-186	5	0	1.294826	0.3584821	3	400	0	600
301956	-582	1993	-176	0.8480695	-0.2600568	17.4841	0	11.57	4004	-16	-130	34	0	1.294826	0.3683344	3	400	0	600
302069	-366	2211	-908	1.278553	-4.124142	17.65961	0	11.57	4003	120	-298	4	0	1.294826	0.3866653	3	400	0	600
302175	-1939	2485	893	-0.9383599	-7.037966	18.71538	0	11.57	4003	4	-110	-29	0	1.294826	0.4168275	3	400	0	600
302289	-1218	371	1052	-4.736983	-6.2934	18.49879	0	11.57	4002	-86	75	4	0	1.294826	0.4415298	3	400	0	600
302371	-1262	2040	1452	-5.263116	-6.587104	18.05938	0	11.57	4004	-46	131	18	0	1.294826	0.4728325	3	400	0	600
302525	167	231	470	-5.313554	-8.032693	18.35133	0	11.34	4002	-18	57	-9	0	1.294826	0.519744	3	400	0	600
302575	158	2489	1125	-4.999879	-8.562018	18.1669	0	11.34	4002	6	280	-19	0	1.294826	0.5452487	3	400	0	600
302722	2356	-2260	227	1.009666	-14.62489	18.70958	0	11.34	4003	104	-396	-46	0	1.294826	0.5868775	3	400	0	600
302788	1096	-435	1058	3.712651	-12.96995	18.70627	0	11.34	4003	-49	218	-47	0	1.294826	0.6161669	3	400	0	600
302905	-360	-3016	758	1.386007	-8.260468	17.4991	0	11.34	4003	122	-64	-89	0	1.294826	0.6601508	3	400	0	600
302976	-2765	-1304	665	0.4077837	-7.692287	16.4418	0	11.34	4002	79	-400	-96	0	1.294826	0.6991985	3	400	0	600
303099	1153	1743	3374	0.2281649	-7.575322	12.41569	0	11.34	4003	172	-316	-92	0	1.294826	0.7832997	3	400	0	600
303176	924	141	679	1.814289	-9.856857	10.00341	0	11.34	4003	144	-26	-54	0	1.294826	0.8212893	3	400	0	600
303337	942	-1362	842	4.906121	-6.467273	5.026175	0	11.23	4003	-98	-199	-13	0	1.294826	0.9020572	3	400	0	600
303403	39	-1813	581	4.871425	-5.316843	3.55607	0	11.23	4004	32	-144	21	0	1.294826	0.9558033	3	400	0	600
303500	3749	-1480	425	8.59685	-2.390449	2.851258	0	11.23	4003	-126	-61	20	0	1.294826	0.9941754	3	400	0	600
303610	-1275	-2039	-27	7.147544	0.7525159	3.475306	0	11.23	4002	63	-81	-2	0	1.294826	1.028327	3	400	0	600
303676	-503	-1360	-197	5.20172	2.240431	3.557976	0	11.23	4003	-72	-68	-14	0	1.294826	1.063676	3	400	0	600
303788	-334	505	498	2.274954	2.38321	2.980973	0	11.23	4002	-13	12	9	0	1.294826	1.087593	3	400	0	600
303857	248	4717	56	3.08572	-2.302195	3.393232	0	11.23	4003	61	-326	-12	0	1.294826	1.113323	3	400	0	600
303926	-1564	558	-547	2.995001	-6.364821	3.371966	0	11.23	4003	-134	-41	-14	0	1.294826	1.12441	3	400	0	600
303996	-41	-896	290	2.116995	-5.604664	3.46912	0	11.23	4002	31	-31	-11	0	1.294826	1.134068	3	400	0	600
304135	-1530	2311	652	0.645174	-6.435239	2.808375	0	10.72	4003	-34	245	3	0	1.294826	1.142568	3	400	0	600
304167	-215	2975	1517	-0.1259646	-7.460971	2.603059	0	10.72	4002	148	-167	-10	0	1.294826	1.142928	3	400	0	600
304317	-1583	-4727	-1095	-2.150115	-4.835898	2.595002	0	10.72	4002	137	-400	-16	0	1.294826	1.148041	3	400	0	600
304408	2313	1599	998	-0.4800391	-3.854587	2.929125	0	10.72	4004	31	123	-13	0	1.294826	1.155723	3	400	0	600
304458	-93	1887	712	1.786493	-6.047085	2.914416	0	10.72	4003	-203	234	0	0	1.294826	1.170307	3	400	0	600
304557	1067	1217	653	2.273657	-6.226861	3.569491	0	10.72	4004	-65	279	-11	0	1.294826	1.20039	3	400	0	600
304680	1709	-633	-532	4.604987	-7.870486	3.227489	0	10.72	4004	-256	178	-5	0	1.294826	1.233611	3	400	0	600
304808	-1036	2923	247	3.020406	-6.115316	3.820956	0	10.72	4003	-107	90	-19	0	1.294826	1.281904	3	400	0	600
304925	676	2402	-147	2.537849	-12.21404	2.736165	0	10.72	4004	21	-46	-2	0	1.294826	1.31488	3	400	0	600
304985	-311	-2135	226	2.562495	-11.36025	2.570596	0	10.72	4003	16	-82	-5	0	1.294826	1.339744	3	400	0	600
305111	1622	-2373	-511	2.195483	-5.393221	2.695471	0	10.72	4002	59	-68	-13	0	1.294826	1.411416	3	400	0	600
305241	401	-1693	-284	1.029524	-3.089699	2.375942	0	10.72	4003	49	-146	-13	0	1.294826	1.47468	3	400	0	600
305300	1604	-1327	-551	1.658829	-2.345405	2.512942	0	10.72	4002	4	-27	-6	0	1.294826	1.494443	3	400	0	600
305388	-1058	-638	-151	1.280735	-1.559027	2.294924	0	10.72	4003	35	-144	-6	0	1.294826	1.517481	3	400	0	600
305450	167	-853	117	1.115609	-1.041413	2.420332	0	10.72	4004	-29	22	-2	0	1.294826	1.531684	3	400	0	600
305591	2530	4205	397	2.822161	-4.363765	2.457099	0	10.72	4007	-141	140	8	0	1.294826	1.555804	3	400	0	600
305698	-1343	2314	708	3.148157	-9.698023	2.538737	0	10.72	4004	16	2	-9	0	1.294826	1.570475	3	400	0	600
305760	-438	335	105	2.350971	-10.64064	2.384775	0	10.72	4003	74	-131	-5	0	1.294826	1.577594	3	400	0	600
305864	1077	1563	191	2.473292	-10.69309	2.113431	0	10.72	4003	-49	-13	1	0	1.294826	1.581831	3	400	0	600
305968	-342	1406	-335	2.910941	-12.27764	2.6394	0	11.23	4002	74	-122	-17	0	1.294826	1.578596	3	400	0	600
306075	-608	-405	562	1.868765	-11.81578	2.660456	0	11.23	4004	59	-28	-11	0	1.294826	1.564549	3	400	0	600
306177	-865	-2325	28	1.335443	-9.444161	2.437342	0	11.23	4002	62	5	-6	0	1.294826	1.554636	3	400	0	600
306340	-1400	-599	440	2.563399	-8.695211	2.799644	0	11.23	4002	-59	-32	-23	0	1.294826	1.538809	3	400	0	600
306456	-1683	427	-789	1.216581	-6.780525	4.307246	0	11.23	4003	44	-304	-64	0	1.294826	1.518588	3	400	0	600
306485	-1805	547	-250	0.77227	-7.125304	4.323822	0	11.23	4004	-99	167	-45	0	1.294826	1.514807	3	400	0	600
306574	66	-2586	-572	1.315344	-7.089146	4.102849	0	11.23	4002	119	-161	-48	0	1.294826	1.499504	3	400	0	600
306738	1326	2748	-779	2.739167	-13.20617	3.131224	0	11.23	4002	-21	343	-17	0	1.294826	1.468974	3	400	0	600
306834	234	1020	305	3.328361	-14.34657	3.244911	0	11.23	4002	9	-70	-40	0	1.294826	1.441523	3	400	0	600
306885	-707	437	917	3.151165	-14.28653	3.177879	0	11.23	4004	-61	190	-16	0	1.294826	1.435759	3	400	0	600
307014	-43	-450	-671	1.968132	-10.49805	4.470014	0	11.06	4004	60	-45	-66	0	1.294826	1.401773	3	400	0	600
307107	-1630	36	1677	1.589143	-9.478276	3.64061	0	11.06	4003	-186	135	-25	0	1.294826	1.365553	3	400	0	600
307183	-1317	-2091	-774	0.2455506	-8.797931	3.293524	0	11.06	4003	101	-368	-32	0	1.294826	1.351825	3	400	0	600
307358	-45	575	267	-0.1733809	-11.57448	2.960687	0	11.06	4003	-88	-79	-9	0	1.294826	1.323869	3	400	0	600
307409	-367	-1643	-323	-0.6094937	-10.06512	2.773911	0	11.06	4004	101	-82	-22	0	1.294826	1.313164	3	400	0	600
307523	-163	390	653	0.9878672	-9.267102	2.692453	0	11.06	4002	74	21	-2	0	1.294826	1.296409	3	400	0	600
307573	-412	1542	410	0.2408519	-10.52273	2.212994	0	11.06	4003	-97	9	3	0	1.294826	1.293973	3	400	0	600
307701	69	-546	-1479	-0.6246163	-9.828554	2.55669	0	11.06	4004	-24	182	-8	0	1.294826	1.301968	3	400	0	600
307783	271	2471	687	-0.5414814	-12.20112	2.481398	0	11.06	4006	-52	67	0	0	1.294826	1.309266	3	400	0	600
307917	-309	-89	-1232	-0.6681193	-12.31492	3.180475	0	10.49	4003	162	-57	-30	0	1.294826	1.329387	3	400	0	600
307984	-601	1703	220	-0.03708682	-14.44373	3.005205	0	10.49	4003	-7	159	-17	0	1.294826	1.340912	3	400	0	600
308225	554	276	1000	1.323868	-8.914952	2.911632	0	10.49	4002	-175	221	1	0	1.294826	1.367502	3	400	0	600
308364	-1181	-525	-1446	2.338753	-8.539034	2.540758	0	10.49	4003	84	-130	-31	0	1.294826	1.391194	3	400	0	600
308480	-1498	-2454	229	0.7805822	-6.688894	2.45905	0	10.49	4004	163	28	-10	-120	1.279185	1.409251	4	400	0	600
308545	442	-1230	-2562	-0.2531238	-5.447038	3.59544	0	10.49	4003	9	-231	-62	-104	1.252439	1.422246	4	400	0	600
308645	573	-2083	-48	1.008814	-4.823057	4.584398	0	10.49	4004	-84	-54	-56	-112	1.278891	1.44225	4	400	0	600
308715	-397	-2694	1688	1.263845	-0.6190282	3.303251	0	10.49	4003	10	-111	-7	-120	1.301013	1.454933	4	400	0	600
308785	-296	-2101	708	0.1374388	1.582065	1.966103	0	11.23	4002	14	-69	32	-128	1.318932	1.461746	4	400	0	600
308924	-456	-1171	61	-1.436087	2.76562	0.991416	0	11.23	4003	8	-86	26	-128	1.312726	1.474702	4	400	0	600
308978	-182	-1080	-28	-1.769807	3.092072	1.240902	0	11.23	4004	15	-118	15	-120	1.297073	1.484247	4	400	0	600
309092	594	1952	-443	-1.876246	1.272805	2.106712	0	11.23	4003	29	-138	8	-120	1.291723	1.500543	4	400	0	600
309221	2067	3552	-444	-0.399224	-2.331845	2.283096	0	11.23	4004	63	-52	-9	-72	1.176474	1.50283	4	400	0	600
309286	-822	224	-736	-1.968501	-4.931677	2.903075	0	11.23	4003	46	-36	-23	-88	1.228118	1.46757	4	400	0	600
309410	-309	231	751	-2.143016	-2.68604	3.337639	0	11.23	4002	-1	-58	-22	-80	1.189866	1.410436	4	400	0	600
309474	-2558	12668	-5048	-5.458227	-8.163796	3.388765	0	11.23	4004	230	-78	35	-64	1.140859	1.355501	4	400	0	600
309595	4472	-759	-116	-0.1703038	-16.64356	8.110554	0	11.23	4004	-62	134	-140	-48	1.110558	1.148232	4	400	0	600
309725	1298	-1993	2121	0.4812218	-7.190982	3.291516	0	11.06	4003	-155	183	-16	-48	1.120493	1.089265	4	400	0	600
309795	2316	-958	1148	3.727574	-5.328001	1.463847	0	11.06	4002	-55	-65	20	-48	1.136672	1.060676	4	400	0	600
309876	-353	-2231	158	3.839014	-3.631591	0.6740534	0	11.06	4004	0	-107	33	-64	1.154167	1.033312	4	400	0	600
310069	-2189	-1282	-270	-0.03929912	-0.04022732	2.363481	0	11.06	4003	73	-102	-10	-104	1.260153	0.9786028	4	400	0	600
310135	-2411	-3261	-134	-2.486851	2.240587	2.796726	0	11.06	4004	-35	-136	-16	-104	1.271315	0.9451378	4	400	0	600
310218	-1105	-2590	92	-5.779786	7.201204	2.649745	0	11.06	4003	22	-29	2	-64	1.170329	0.9099962	4	400	0	600
310317	1041	1330	666	-4.428212	5.220995	1.665104	0	11.06	4003	-29	-29	4	-80	1.207118	0.8843867	4	400	0	600
310430	-2192	3729	180	-4.075185	1.147308	2.069612	0	11.06	4003	-256	400	67	-8	1.020443	0.8658832	4	400	0	600
310473	2934	12435	-2087	-2.598346	-8.232423	1.695447	0	11.06	4002	-3	174	-3	24	0.9362005	0.8572816	4	400	0	600
310628	-1054	-6066	488	-2.276422	-13.41871	1.905787	0	11	4003	-43	-162	9	8	1.015087	0.8164715	4	400	0	600
310712	3715	-2363	1039	1.800841	-4.638554	1.814986	0	11	4003	-65	104	21	-16	1.048285	0.8047916	4	400	0	600
310815	2904	-317	839	6.482051	-3.591123	1.544152	0	11	4003	-21	209	33	16	0.9926038	0.7708611	4	400	0	600
310899	1492	-966	-1523	8.477901	-3.313082	2.262553	0	11	4002	122	-222	-23	-24	1.052698	0.7633291	4	400	0	600
311045	-2343	-288	311	7.177002	-5.020092	3.131419	0	11	4003	-29	80	-19	-56	1.157277	0.7622139	4	400	0	600
311080	-2343	-288	311	7.177002	-5.020092	3.153369	0	11	4003	-75	-63	-25	-64	1.179435	0.7638941	4	400	0	600
311236	-2469	-780	697	3.910384	-1.946373	2.215817	0	11	4004	58	-66	9	-72	1.179232	0.7776924	4	400	0	600
311335	-3599	147	1105	-2.986623	-0.6736555	1.373752	0	11	4004	94	-40	16	-96	1.263169	0.7799964	4	400	0	600
311409	1535	1951	223	-3.161992	-2.461658	1.439094	0	11	4003	-44	36	17	-56	1.135325	0.7814583	4	400	0	600
311483	1425	342	183	-1.290188	-3.672809	1.703499	0	10.49	4002	14	-21	14	-32	1.089017	0.7830484	4	400	0	600
311605	-392	-2243	-613	-0.399363	0.9190852	2.540376	0	10.49	4004	9	-41	-3	-64	1.197765	0.7828629	4	400	0	600
311676	-5594	1958	-2089	-0.4136414	3.227496	2.55251	0	10.49	4002	-33	-45	0	-88	1.207289	0.7788749	4	400	0	600
311812	-1025	-1506	602	0.4588114	7.204897	-0.6276478	0	10.49	4003	66	-248	61	-56	1.114681	0.7587305	4	400	0	600
311904	-1375	-1767	-1200	-1.581575	7.537485	-1.147907	0	10.49	4004	6	-136	88	-40	1.099163	0.7444034	4	400	0	600
311986	-377	-4846	-488	-3.387362	11.73468	-0.09378933	0	10.49	4004	109	-233	39	-48	1.087588	0.722744	4	400	0	600
312087	901	-2483	192	-2.369953	21.70154	0.8644193	0	10.49	4003	8	-178	17	-16	0.9968317	0.7057254	4	400	0	600
312210	1054	5456	3959	0.08234058	25.16138	-1.985732	0	10.49	4003	138	36	147	64	0.8399481	0.6744317	4	400	0	600
312292	-2257	8609	-3393	-4.442852	2.401488	-2.241789	0	10.49	4004	62	29	114	0	0.8315054	0.6492252	3	400	0	600
312393	1569	3295	-1499	-3.554731	-4.784231	3.304538	0	9.87	4003	-35	379	-59	0	0.8253506	0.6243916	3	400	0	600
312517	1889	2968	139	-1.572206	-8.870051	6.261521	0	9.87	4003	106	-134	-116	0	0.8196567	0.5999765	3	400	0	600
312615	-885	-2260	770	0.4842495	-9.198707	4.772622	0	9.87	4004	-18	-39	-54	0	0.8167129	0.5807723	3	400	0	600
312685	160	1	2315	0.9063526	-7.441052	3.259861	0	9.87	4002	-97	180	-17	0	0.8152083	0.5717042	3	400	0	600
312806	1285	2210	662	2.536607	-8.934978	1.597143	0	9.87	4004	-8	139	36	0	0.8130024	0.5751215	3	400	0	600
312909	-1431	3511	484	2.350579	-12.43214	2.062986	0	9.87	4003	141	172	-13	0	0.8118619	0.5822949	3	400	0	600
313039	317	1906	452	1.28144	-15.73983	3.213237	0	9.87	4003	-162	254	-14	0	0.8108069	0.6002703	3	400	0	600
313109	-347	-1114	307	0.3579428	-13.92974	3.34943	0	9.87	4002	-165	-14	-28	0	0.8104244	0.6124598	3	400	0	600
313264	434	2336	862	1.399791	-13.2324	4.187123	0	11	4003	-54	-152	-50	0	0.8097567	0.6356966	3	400	0	600
313364	413	-496	499	1.300271	-11.65272	4.570056	0	11	4003	-8	79	-56	0	0.8094958	0.653917	3	400	0	600
313456	348	-2580	708	1.689861	-8.800236	3.902256	0	11	4003	-40	63	-28	0	0.8093055	0.6786827	3	400	0	600
313557	-602	-4718	239	0.04635615	-1.949832	2.173328	0	11	4003	-91	-92	7	0	0.8092084	0.6949987	3	400	0	600
313653	767	-1705	532	0.3754171	3.499529	1.404483	0	11	4002	-201	65	20	0	0.8090961	0.7179799	3	400	0	600
313756	1487	1381	-181	2.655102	2.514503	2.677993	0	11	4004	-202	155	-24	0	0.8090142	0.7403107	3	400	0	600
313862	-2413	-121	570	1.810789	1.582918	3.404936	0	11	4004	20	-84	-24	0	0.8089545	0.7657171	3	400	0	600
313965	123	183	-340	-0.6974812	1.006423	2.811022	0	11	4003	7	-93	-12	0	0.8089111	0.7842647	3	400	0	600
314115	165	-784	-741	-1.698848	-0.3729342	2.659641	0	11	4004	75	-161	-22	0	0.8088632	0.8188969	3	400	0	600
314173	-1683	2408	119	-1.870019	-1.330746	3.18749	0	11	4003	-34	34	-32	0	0.80885	0.828027	3	400	0	600
314261	-904	1327	-266	-5.026525	-4.754597	3.621927	0	11.34	4003	-20	-93	-38	0	0.8088394	0.8309939	3	400	0	600
314372	-135	-41	372	-1.931067	-5.419865	3.794649	0	11.34	4003	33	-41	-38	0	0.8088237	0.8324214	3	400	0	600
314485	2377	2055	1671	-0.6498625	-5.52947	3.459347	0	11.34	4003	-96	153	-17	0	0.8088135	0.824392	3	400	0	600
314635	2319	100	36	4.207751	-7.693779	2.653055	0	11.34	4003	-149	198	12	0	0.8088068	0.7930492	3	400	0	600
314693	783	-776	1041	5.751545	-7.529557	2.323214	0	11.34	4004	-105	317	16	0	0.8088043	0.7736562	3	400	0	600
314794	421	4651	683	5.672552	-7.852091	2.627672	0	11.34	4004	148	-53	-29	0	0.8088024	0.7539665	3	400	0	600
314880	-1114	3550	-213	5.951908	-14.49668	3.135064	0	11.34	4006	-53	186	-16	0	0.8088001	0.7301801	3	400	0	600
315010	2271	3239	394	5.219973	-17.44425	4.005196	0	11.34	4003	-213	84	-44	0	0.808798	0.6967305	3	400	0	600
315086	-158	266	433	6.701123	-18.44889	3.842253	0	11.34	4003	32	-52	-37	0	0.8087972	0.6893466	3	400	0	600
315203	200	-1812	459	4.994884	-13.87138	2.478024	0	10.38	4004	-53	-40	4	0	0.8087963	0.666056	3	400	0	600
315328	-1474	1144	14	3.591918	-12.29204	1.595282	0	10.38	4004	30	-73	15	0	0.8087955	0.6319446	3	400	0	600
315452	-575	521	-175	0.4646685	-12.28292	2.193947	0	10.38	4002	-15	-108	-6	0	0.808795	0.6142682	3	400	0	600
315542	-2000	4585	868	0.2443667	-14.4261	2.139553	0	10.38	4002	66	113	7	0	0.8087947	0.6073253	3	400	0	600
315598	-1217	1362	129	-1.632346	-16.65455	1.851662	0	10.38	4002	-48	-168	2	0	0.8087946	0.5983379	3	400	0	600
315751	-5957	-32755	1508	0.5497603	-1.642593	2.413236	0	10.38	4003	0	0	0	0	0.8087943	0.5687392	3	400	0	600
315823	-118	13059	-3292	-0.1335776	-4.111968	2.623459	0	10.38	4004	0	0	0	0	0.8087943	0.563179	3	400	0	600
315933	-2265	-15367	1887	0.5589241	-3.393684	1.866242	0	10.38	4002	0	0	0	0	0.8087943	0.5198122	3	400	0	600
316041	331	-510	240	1.024211	1.274337	2.070674	0	10.38	4004	0	0	0	0	0.8087943	0.4950734	1	400	0	600
316103	-60	-46	-11	0.9089897	1.263846	2.086881	0	11.29	4004	0	0	0	0	0.8087943	0.4890719	1	400	0	600
316245	-31	-5	49	0.7412044	1.052281	2.063832	0	11.29	4004	0	0	0	0	0.8087943	0.4526712	1	400	0	600
316311	-90	7	2	0.6404188	0.9625052	2.046835	0	11.29	4004	0	0	0	0	0.8087943	0.426271	1	400	0	600
316472	-92	5	29	0.4544812	0.8060182	2.013757	0	11.29	4003	0	0	0	0	0.8087943	0.393879	1	400	0	600
316601	-94	-4	-9	0.340542	0.6484517	1.992972	0	11.29	4003	0	0	0	0	0.8087943	0.3599974	1	400	0	600
316658	-43	-11	-51	0.3045733	0.6314109	1.986737	0	11.29	4002	0	0	0	0	0.8087943	0.3537884	1	400	0	600
316737	-64	7	67	0.2258561	0.5389329	1.965403	0	11.29	4003	0	0	0	0	0.8087943	0.3398174	1	400	0	600
316833	-86	0	-25	0.1701848	0.4828586	1.953175	0	11.29	4004	0	0	0	0	0.8087943	0.3171429	1	400	0	600
316955	-65	9	39	0.1020123	0.4352216	1.932021	0	11.29	4004	0	0	0	0	0.8087943	0.3021549	1	400	0	600
317043	-37	23	0	0.05752536	0.3779154	1.91515	0	11.46	4002	0	0	0	0	0.8087943	0.2919252	1	400	0	600
317165	-65	-5	50	0.003235918	0.3348586	1.892282	0	11.46	4004	0	0	0	0	0.8087943	0.2845141	1	400	0	600
317221	-65	14	25	-0.02092331	0.3068898	1.882072	0	11.46	4004	0	0	0	0	0.8087943	0.280477	1	400	0	600
317318	-52	11	11	-0.05625407	0.2768678	1.867156	0	11.46	4003	0	0	0	0	0.8087943	0.2779059	1	400	0	600
317427	-67	0	-12	-0.08179851	0.2462962	1.849914	0	11.46	4004	0	0	0	0	0.8087943	0.2764394	1	400	0	600
317543	-59	-10	-17	-0.1061385	0.2225252	1.832122	0	11.46	4002	0	0	0	0	0.8087943	0.278583	1	400	0	600
317651	-67	-6	26	-0.122336	0.2041545	1.815798	0	11.46	4004	0	0	0	0	0.8087943	0.2793961	1	400	0	600
317747	-59	0	1	-0.1329523	0.1799903	1.801736	0	11.46	4002	0	0	0	0	0.8087943	0.2756721	1	400	0	600
