time(ms)	gyro_x(deg/s)	gyro_y(deg/s)	gyro_z(deg/s)	orientation_roll(deg)	orientation_pitch(deg)	orientation_yaw(deg)	throttle	battery(V)	loop_time(uS)	pid_output_roll	pid_output_pitch	pid_output_yaw	pid_output_throttle	ultrasonic_alt	baro_alt	flight_mode	p_gain_altitude	i_gain_altitude	d_gain_altitude
483416	380	3244	-205	-1.274513	-20.29941	-4.630219	0	11	4004	-21	148	7	0	1.396575	0.9025114	3	160	0	2000
483493	-1288	49	-110	-2.089019	-20.38979	-4.181096	0	11	4003	136	29	5	0	1.396663	0.8920694	3	160	0	2000
483608	2032	-4112	-88	-1.100504	-14.11634	-4.082708	0	11	4004	33	-121	3	0	1.396765	0.8808591	3	160	0	2000
483682	780	-4348	43	0.02029254	-8.502207	-4.289396	0	11	4002	-17	-81	0	0	1.396839	0.8565748	3	160	0	2000
483790	-88	-865	40	0.2433132	-4.092339	-4.22615	0	10.43	4004	37	-162	-3	0	1.396893	0.8300719	3	160	0	2000
483937	782	3919	874	0.3190995	-6.691587	-4.016125	0	10.43	4004	-6	136	5	0	1.396943	0.7986984	3	160	0	2000
484028	-2469	686	-342	-1.782174	-8.583449	-3.948379	0	10.43	4003	-26	203	-6	0	1.396969	0.7670934	3	160	0	2000
484151	-525	4087	-247	-3.189708	-11.09949	-4.026654	0	10.43	4003	-28	156	-10	0	1.396993	0.7406169	3	160	0	2000
484314	2826	-25527	683	-2.080806	-5.923851	-2.888799	0	10.43	4004	60	-400	-69	0	1.397009	0.695695	3	160	0	2000
484420	-2904	6459	767	-7.105704	5.365972	-2.731549	0	10.43	4002	0	0	0	0	1.397017	0.6537955	3	160	0	2000
484497	-1022	11794	15	-8.57374	-5.058203	-2.651489	0	10.43	4002	0	0	0	0	1.397023	0.629434	3	160	0	2000
484643	299	-1175	1219	-1.902885	-0.6535928	-0.4848128	0	11.29	4002	0	0	0	0	1.397029	0.556855	1	160	0	2000
484834	-61	24	-33	-2.08636	0.2122322	-1.323525	0	11.29	4002	0	0	0	0	1.397033	0.4720251	1	160	0	2000
484915	-76	-16	-61	-2.00885	0.2335349	-1.342903	0	11.29	4004	0	0	0	0	1.397035	0.4203828	1	160	0	2000
485090	-74	27	-30	-1.922	0.1944176	-1.389199	0	11.29	4003	0	0	0	0	1.397036	0.3787704	1	160	0	2000
485127	-53	27	-8	-1.909868	0.1906639	-1.396781	0	11.29	4002	0	0	0	0	1.397037	0.3719105	1	160	0	2000
485254	-110	-4	1	-1.881941	0.2080509	-1.4194	0	11.29	4004	0	0	0	0	1.397037	0.3280148	1	160	0	2000
485332	-29	28	-12	-1.850561	0.2063463	-1.435905	0	11.29	4003	0	0	0	0	1.397038	0.3085484	1	160	0	2000
485420	-89	-23	11	-1.825507	0.1912224	-1.451373	0	11.29	4003	0	0	0	0	1.397038	0.2907414	1	160	0	2000
485521	-62	3	6	-1.776576	0.1774695	-1.470205	0	11.29	4003	0	0	0	0	1.397038	0.2627752	1	160	0	2000
485640	-79	9	13	-1.746524	0.1784411	-1.506519	0	11.23	4004	0	0	0	0	1.397038	0.2146331	1	160	0	2000
485732	-72	-11	19	-1.725107	0.1858586	-1.520885	0	11.23	4003	0	0	0	0	1.397038	0.1914281	1	160	0	2000
485829	-81	-2	15	-1.702583	0.178529	-1.542283	0	11.23	4002	0	0	0	0	1.397038	0.1772412	1	160	0	2000
485953	-85	-1	16	-1.685272	0.1800288	-1.564417	0	11.23	4004	0	0	0	0	1.397038	0.1563369	1	160	0	2000
486027	-82	0	10	-1.645354	0.1670109	-1.584834	0	11.23	4003	0	0	0	0	1.397038	0.1508589	1	160	0	2000
486174	-79	-5	21	-1.630451	0.1668398	-1.610327	0	11.23	4003	0	0	0	0	1.397038	0.1524608	1	160	0	2000
486236	-72	28	25	-1.621836	0.15879	-1.620781	0	11.23	4003	0	0	0	0	1.397038	0.1594379	1	160	0	2000
486341	-75	8	38	-1.608837	0.1617616	-1.640709	0	11.23	4003	0	0	0	0	1.397038	0.1689413	1	160	0	2000
486445	-86	8	11	-1.598168	0.1554573	-1.660577	0	11.23	4004	0	0	0	0	1.397038	0.1766167	1	160	0	2000
486580	-77	2	6	-1.585971	0.148828	-1.681975	0	11.23	4003	0	0	0	0	1.397038	0.2104142	1	160	0	2000
486644	-72	5	12	-1.575664	0.1486406	-1.695425	0	11.23	4002	0	0	0	0	1.397038	0.2207125	1	160	0	2000
486764	-71	6	16	-1.564559	0.1514771	-1.718107	0	11.23	4003	0	0	0	0	1.397038	0.2228242	1	160	0	2000
486842	-79	1	14	-1.561383	0.1506885	-1.730944	0	11.23	4002	0	0	0	0	1.397038	0.2263279	1	160	0	2000
487003	-81	-2	10	-1.550709	0.1414253	-1.761636	0	11.23	4004	0	0	0	0	1.397038	0.2278083	1	160	0	2000
487101	-93	0	12	-1.539069	0.1415992	-1.780528	0	11.23	4002	0	0	0	0	1.397038	0.2218834	1	160	0	2000
487170	-85	-7	8	-1.532583	0.1402456	-1.791838	0	11.23	4004	0	0	0	0	1.397038	0.2193373	1	160	0	2000
487297	-75	-3	10	-1.530959	0.1386563	-1.813236	0	11.23	4003	0	0	0	0	1.397038	0.223144	1	160	0	2000
487369	-74	2	9	-1.528179	0.137266	-1.825097	0	11.23	4003	0	0	0	0	1.397038	0.2216122	1	160	0	2000
487450	-75	1	7	-1.522511	0.1384282	-1.841604	0	11.29	4004	0	0	0	0	1.397038	0.2203372	1	160	0	2000
487549	-77	-1	5	-1.520352	0.1410834	-1.85267	0	11.29	4003	0	0	0	0	1.397038	0.2234437	1	160	0	2000
487697	-82	3	9	-1.50675	0.1439093	-1.878226	0	11.29	4003	0	0	0	0	1.397038	0.2216399	1	160	0	2000
487792	-82	-2	14	-1.504886	0.1439349	-1.89675	0	11.29	4003	0	0	0	0	1.397038	0.2146665	1	160	0	2000
487909	-67	7	16	-1.49897	0.1478707	-1.913379	0	11.29	4002	0	0	0	0	1.397038	0.2100723	1	160	0	2000
487963	-69	16	9	-1.496224	0.1428317	-1.922978	0	11.29	4003	0	0	0	0	1.397038	0.2104765	1	160	0	2000
488112	-74	7	10	-1.484498	0.1395764	-1.944376	0	11.29	4004	0	0	0	0	1.397038	0.2073395	1	160	0	2000
488149	-65	3	18	-1.478679	0.1394539	-1.955808	0	11.29	4003	0	0	0	0	1.397038	0.2066616	1	160	0	2000
488244	-71	9	8	-1.475609	0.1371093	-1.967117	0	11.29	4002	0	0	0	0	1.397038	0.2045615	1	160	0	2000
488375	-80	-1	10	-1.475289	0.1426958	-1.993651	0	11.34	4002	0	0	0	0	1.397038	0.2030565	1	160	0	2000
488451	-70	-1	11	-1.479692	0.1398171	-2.004411	0	11.34	4003	0	0	0	0	1.397038	0.2042348	1	160	0	2000
488592	-87	1	8	-1.473576	0.1444915	-2.031801	0	11.34	4002	0	0	0	0	1.397038	0.2009604	1	160	0	2000
488701	-74	1	10	-1.46697	0.1384301	-2.048553	0	11.34	4004	0	0	0	0	1.397038	0.1916073	1	160	0	2000
488768	-67	4	10	-1.466149	0.1343461	-2.059924	0	11.34	4003	0	0	0	0	1.397038	0.1930031	1	160	0	2000
488878	-78	-3	9	-1.470667	0.1320259	-2.075392	0	11.34	4003	0	0	0	0	1.397038	0.2024962	1	160	0	2000
488971	-75	4	10	-1.463623	0.1305722	-2.090494	0	11.34	4003	0	0	0	0	1.397038	0.2026406	1	160	0	2000
489072	-77	6	7	-1.460183	0.1268299	-2.105839	0	11.34	4003	0	0	0	0	1.397038	0.1976081	1	160	0	2000
489221	-72	5	10	-1.458395	0.1325447	-2.131456	0	11.34	4003	0	0	0	0	1.397038	0.1807037	1	160	0	2000
489315	-74	-2	10	-1.45275	0.1359452	-2.14674	0	11.29	4002	0	0	0	0	1.397038	0.17149	1	160	0	2000
489361	-82	7	9	-1.450485	0.1356965	-2.150775	0	11.29	4003	0	0	0	0	1.397038	0.1634891	1	160	0	2000
489466	-77	-3	10	-1.456343	0.1346125	-2.17199	0	11.29	4002	0	0	0	0	1.397038	0.1574922	1	160	0	2000
489659	-71	3	7	-1.456652	0.1215254	-2.199135	0	11.29	4003	0	0	0	0	1.397038	0.1463393	1	160	0	2000
489693	-76	3	10	-1.459048	0.123146	-2.20372	0	11.29	4003	0	0	0	0	1.397038	0.1440916	1	160	0	2000
489928	-76	8	7	-1.447906	0.1245261	-2.236796	0	11.29	4002	0	0	0	0	1.397038	0.1450808	1	160	0	2000
490068	-59	0	11	-1.437736	0.1178458	-2.259295	0	11.29	4002	0	0	0	0	1.397038	0.1369241	1	160	0	2000
490154	-60	0	9	-1.435302	0.1138253	-2.275987	0	11.29	4004	0	0	0	0	1.397038	0.135334	1	160	0	2000
490202	-68	3	9	-1.435915	0.1158944	-2.2821	0	11.29	4003	0	0	0	0	1.397038	0.1391679	1	160	0	2000
490274	-81	5	14	-1.426749	0.1184577	-2.293226	0	11.29	4004	0	0	0	0	1.397038	0.1459905	1	160	0	2000
490360	-70	2	7	-1.426008	0.1181248	-2.310284	0	11.29	4004	0	0	0	0	1.397038	0.1462063	1	160	0	2000
490476	-70	5	13	-1.433978	0.1143049	-2.326301	0	11.29	4002	0	0	0	0	1.397038	0.1336795	1	160	0	2000
490565	-66	-2	7	-1.436973	0.1150828	-2.341647	0	11.29	4004	0	0	0	0	1.397038	0.133601	1	160	0	2000
490716	-79	8	10	-1.433208	0.115233	-2.366225	0	11.29	4004	0	0	0	0	1.397038	0.1291555	1	160	0	2000
490787	-70	1	7	-1.433923	0.1189194	-2.375581	0	11.29	4003	0	0	0	0	1.397038	0.1256018	1	160	0	2000
490924	-75	5	6	-1.457587	0.1168914	-2.396878	0	11.29	4002	0	0	0	0	1.397038	0.1241283	1	160	0	2000
491080	-64	7	8	-1.453698	0.1240163	-2.415342	0	11.29	4004	0	0	0	0	1.397038	0.1331242	1	160	0	2000
491237	-71	3	11	-1.449338	0.1277418	-2.426163	0	11.34	4003	0	0	0	0	1.397038	0.1421217	1	160	0	1700
491308	-73	4	9	-1.468119	0.121838	-2.449535	0	11.34	4003	0	0	0	0	1.397038	0.1585547	1	160	0	1700
491410	-81	4	7	-1.459338	0.1232985	-2.465431	0	11.34	4004	0	0	0	0	1.397038	0.1749595	1	160	0	1700
491531	-64	3	10	-1.456898	0.1214904	-2.484812	0	11.34	4003	0	0	0	0	1.397038	0.1789243	1	160	0	1700
491569	-67	5	8	-1.45312	0.1234378	-2.490193	0	11.34	4003	0	0	0	0	1.397038	0.1793186	1	160	0	1700
491653	-74	-1	14	-1.446378	0.1266306	-2.506212	0	11.34	4003	0	0	0	0	1.397038	0.1798968	1	160	0	1700
491762	-70	3	10	-1.442876	0.1224746	-2.521558	0	11.34	4004	0	0	0	0	1.397038	0.1770095	1	160	0	1700
491927	-71	-1	8	-1.431331	0.1225368	-2.545952	0	11.34	4003	0	0	0	0	1.397038	0.1718249	1	160	0	1700
491977	-70	-2	9	-1.425987	0.1263242	-2.556282	0	11.29	4004	0	0	0	0	1.397038	0.1698737	1	160	0	1700
492076	-72	0	13	-1.426051	0.1215556	-2.571751	0	11.29	4003	0	0	0	0	1.397038	0.1714786	1	160	0	1700
492178	-71	-1	11	-1.419228	0.1281151	-2.585139	0	11.29	4004	0	0	0	0	1.397038	0.1849156	1	160	0	1700
492284	-68	-3	10	-1.413972	0.1310083	-2.599935	0	11.29	4004	0	0	0	0	1.397038	0.19934	1	160	0	1700
492337	-68	5	7	-1.410851	0.1371107	-2.613874	0	11.29	4003	0	0	0	0	1.397038	0.2061421	1	160	0	1700
492468	-66	0	5	-1.402633	0.1332843	-2.63301	0	11.29	4003	0	0	0	0	1.397038	0.2108514	1	160	0	1700
492553	-77	5	13	-1.411276	0.1331034	-2.644504	0	11.29	4004	0	0	0	0	1.397038	0.2028361	1	160	0	1700
492641	-72	0	5	-1.409979	0.1307929	-2.657709	0	11.29	4002	0	0	0	0	1.397038	0.1970847	1	160	0	1700
492729	-62	2	9	-1.406751	0.1236007	-2.672318	0	11.29	4003	0	0	0	0	1.397038	0.1959782	1	160	0	1700
492808	-67	2	1	-1.4015	0.123653	-2.679899	0	11.29	4004	0	0	0	0	1.397038	0.199397	1	160	0	1700
492952	-66	2	6	-1.393541	0.1246515	-2.697263	0	11.29	4002	0	0	0	0	1.397038	0.1970077	1	160	0	1700
493034	-66	0	8	-1.394401	0.1248512	-2.711324	0	11.29	4002	0	0	0	0	1.397038	0.2015983	1	160	0	1700
493103	-68	-7	10	-1.394389	0.1240847	-2.721227	0	11.29	4002	0	0	0	0	1.397038	0.2081401	1	160	0	1700
493218	-69	0	9	-1.397543	0.1256137	-2.735778	0	11.29	4003	0	0	0	0	1.397038	0.2156186	1	160	0	1700
493319	-72	3	6	-1.399673	0.1294947	-2.750511	0	11.29	4004	0	0	0	0	1.397038	0.2178192	1	160	0	1700
493412	-64	3	5	-1.399196	0.1351762	-2.762312	0	11.29	4002	0	0	0	0	1.397038	0.2187203	1	160	0	1700
493515	-76	7	13	-1.395413	0.139258	-2.777963	0	11.29	4002	0	0	0	0	1.397038	0.213659	1	160	0	1700
493619	-64	4	5	-1.392648	0.1365283	-2.789947	0	11.29	4004	0	0	0	0	1.397038	0.2142211	1	160	0	1700
493735	-71	0	9	-1.393806	0.1319322	-2.806331	0	11.29	4003	0	0	0	0	1.397038	0.2131436	1	160	0	1700
493859	-66	2	12	-1.391292	0.1324047	-2.825773	0	11.34	4002	0	0	0	0	1.397038	0.2131277	1	160	0	1700
493993	-71	4	12	-1.39156	0.1304759	-2.844298	0	11.34	4003	0	0	0	0	1.397038	0.2217829	3	160	0	1700
494049	-74	5	7	-1.392268	0.1335168	-2.854141	0	11.34	4003	0	0	0	0	1.397038	0.2225399	3	160	0	1700
494135	-73	5	0	-1.389231	0.1344214	-2.862824	0	11.34	4003	0	0	0	0	1.397038	0.2222286	3	160	0	1700
494225	-61	0	15	-1.381088	0.1354536	-2.876886	0	11.34	4004	0	0	0	0	1.397038	0.2217992	3	160	0	1700
494415	-65	-1	-72	-1.364235	0.1241411	-2.905559	0	11.34	4004	6	1	0	0	1.397038	0.2107975	3	160	0	1700
494491	-60	51	52	-1.362471	0.1202543	-2.916259	0	11.34	4004	6	1	0	0	1.397038	0.2096523	3	160	0	1700
494540	-83	5	-68	-1.35194	0.1096555	-2.913815	0	11.34	4002	14	-8	0	0	1.397038	0.2077596	3	160	0	1700
494602	-64	52	140	-1.367778	0.1153612	-2.932892	0	11.34	4004	5	0	1	0	1.397038	0.2041358	3	160	0	1700
494707	-74	81	-146	-1.369732	0.1125352	-2.939189	0	11.29	4003	4	-9	1	0	1.397038	0.2009131	3	160	0	1700
494907	-6	116	-7	-1.315784	0.1221658	-2.988159	0	11.29	4003	10	1	3	0	1.397038	0.2026419	3	160	0	1700
494942	-133	-107	41	-1.287913	0.1218958	-2.996474	0	11.29	4003	20	-18	4	0	1.397038	0.2002983	3	160	0	1700
495070	-105	65	-15	-1.352136	0.1087545	-3.018179	0	11.29	4003	2	29	2	0	1.397038	0.196371	3	160	0	1700
495117	42	6	-31	-1.319743	0.1086502	-3.012803	0	11.29	4004	27	-19	4	0	1.397038	0.1967704	3	160	0	1700
495294	-146	-91	-14	-1.34692	0.1216761	-3.047831	0	11.29	4004	11	-11	3	0	1.397038	0.1996289	3	160	0	1700
495392	19	5	-87	-1.309273	0.08148082	-3.054253	0	11.29	4002	2	-18	2	0	1.397038	0.2033265	3	160	0	1700
495415	-73	17	74	-1.29655	0.06665242	-3.056016	0	11.29	4002	-15	7	4	0	1.397038	0.2045176	3	160	0	1700
495605	-171	-56	104	-1.38636	0.1031177	-3.10358	0	11.29	4003	17	-26	7	0	1.397038	0.2120031	3	160	0	1700
495686	-139	57	197	-1.447538	0.1677576	-3.110547	0	11.23	4002	49	-5	7	0	1.397038	0.2180846	3	160	0	1700
495735	-210	-26	-65	-1.462654	0.2531782	-3.143931	0	11.23	4004	46	14	7	0	1.397038	0.2225575	3	160	0	1700
495828	-177	-449	-135	-1.674397	0.2438069	-3.129841	0	11.23	4004	62	6	3	0	1.397038	0.2323939	3	160	0	1700
495933	2328	-275	64	-1.092212	0.884248	-3.046815	0	11.23	4003	-74	-134	4	0	1.397038	0.2479833	3	160	0	1700
496072	-221	1432	428	0.17822	-0.589298	-3.231164	0	11.23	4003	-17	3	2	0	1.397038	0.2867662	3	160	0	1700
496182	-950	3823	-483	-0.7631667	-8.769235	-2.983686	0	11.23	4002	-150	31	10	0	1.397038	0.3126737	3	160	0	1700
496250	-2501	1584	-1160	-2.228818	-10.04576	-2.681468	0	11.23	4004	-5	-92	-24	0	1.397038	0.3248937	3	160	0	1700
496371	-2191	172	-529	-8.439294	-11.71459	-1.58777	0	11.23	4002	64	-123	-42	0	1.397038	0.3609113	3	160	0	1700
496457	-1568	-442	310	-10.35217	-11.16837	-1.835936	0	11.23	4003	67	-226	-23	0	1.397038	0.3763007	3	160	0	1700
496577	2561	3227	1030	-9.548277	-14.24358	-1.824945	0	10.55	4002	66	-156	-48	0	1.397038	0.4100319	3	160	0	1700
496702	3181	324	924	-3.4804	-18.36738	-2.387681	0	10.55	4003	-49	20	4	0	1.397038	0.4675503	3	160	0	1700
496816	-741	-2501	-785	2.778271	-17.83311	-2.389091	0	10.55	4004	158	-248	-13	0	1.397038	0.5100436	3	160	0	1700
496849	-416	-2826	-500	2.389799	-16.41484	-2.120223	0	10.55	4003	173	-248	-26	0	1.397038	0.5354745	3	160	0	1700
496928	-799	-3547	-1162	2.223922	-13.55131	-1.320014	0	10.55	4003	138	-181	-45	0	1.397038	0.5750685	3	160	0	1700
497158	-1521	-3357	431	-1.465868	-9.128423	-2.77243	0	10.55	4004	-55	0	-4	0	1.397038	0.7039862	3	160	0	1700
497245	523	-2611	712	-3.232745	-2.822661	-2.954325	0	10.55	4002	-27	-6	6	0	1.397038	0.754967	3	160	0	1700
497342	1277	1064	690	-2.115782	-3.138594	-2.764195	0	10.55	4004	-109	168	3	0	1.397038	0.8117715	3	160	0	1700
497454	-767	-3371	-317	-2.193608	-3.006461	-2.788916	0	10.55	4003	0	-24	0	0	1.397038	0.8445274	3	160	0	1700
497547	805	-284	1052	-2.203309	-0.851855	-2.982119	0	10.72	4002	-148	279	8	0	1.397038	0.8765032	3	160	0	1700
497660	-361	-899	-857	-0.9067544	-2.455281	-1.836056	0	10.72	4004	83	62	-28	0	1.397038	0.9025286	3	160	0	1700
497785	940	581	-66	-0.9271112	-4.056392	-2.036387	0	10.72	4003	12	159	-27	0	1.397038	0.9220967	3	160	0	1700
497865	-227	123	414	-0.6675124	-6.70294	-2.326971	0	10.72	4004	0	-22	-6	0	1.397038	0.9291205	3	160	0	1700
498025	1047	1670	733	-0.1806241	-6.400036	-1.823615	0	10.72	4002	-135	400	-32	0	1.397038	0.9546026	3	160	0	1700
498131	-441	-1238	-65	1.06477	-8.328592	-1.335114	0	10.72	4003	86	-74	-42	0	1.397038	0.9720358	3	160	0	1700
498173	-791	-1524	-49	0.8652244	-7.473734	-1.502732	0	10.72	4002	-124	140	-14	0	1.397038	0.9741902	3	160	0	1700
498283	-223	-3017	-707	-0.4219717	-3.494583	-2.127774	0	10.72	4004	-84	128	5	0	1.397038	0.9774746	3	160	0	1700
498338	663	1071	56	-0.7185138	-4.73514	-2.655192	0	10.72	4002	-73	73	6	0	1.397038	0.9758546	3	160	0	1700
498477	-1233	-3475	-1489	-3.153146	-4.765059	-2.238583	0	10.94	4004	1	-170	-18	0	1.397038	0.966145	3	160	0	1700
498541	-641	-703	-171	-3.496958	-3.527029	-1.822292	0	10.94	4004	91	-44	-36	0	1.397038	0.9546857	3	160	0	1700
498641	1319	1368	-683	-2.288215	-5.186054	-1.469148	0	10.94	4003	-22	-246	-57	0	1.397038	0.9375255	3	160	0	1700
498777	-394	-362	-471	-0.05332652	-6.756252	-0.972458	0	10.94	4004	13	-208	-58	0	1.397038	0.9081935	3	160	0	1700
498876	2658	568	-1211	0.5969546	-5.553464	-0.1771637	0	10.94	4003	-317	400	-59	0	1.397038	0.8864263	3	160	0	1700
498954	1435	4370	-453	3.795961	-8.873665	0.8898428	0	10.94	4002	-144	275	-97	0	1.397038	0.8721865	3	160	0	1700
499127	-2586	-848	1883	-4.43906	-8.200941	-1.02616	0	10.94	4003	139	-251	-49	0	1.397038	0.8256485	3	160	0	1700
499202	-1783	512	1756	-5.597868	-8.204975	-1.714965	0	10.94	4002	35	-284	3	0	1.397038	0.8050968	3	160	0	1700
499267	-1662	3116	543	-7.10146	-12.61675	-3.111603	0	10.94	4004	-141	271	21	0	1.397038	0.7662256	3	160	0	1700
499376	-885	966	-139	-9.484191	-14.03677	-2.556509	0	10.26	4002	-88	166	-8	0	1.397038	0.7343194	3	160	0	1700
499453	-1464	506	-577	-10.47942	-13.37749	-1.938311	0	10.26	4002	82	-156	-48	0	1.397038	0.7177055	3	160	0	1700
499556	-1500	2304	453	-10.28737	-16.81525	-1.259573	0	10.26	4003	28	34	-41	0	1.397038	0.6785572	3	160	0	1700
499660	-1843	-2787	-205	-11.14577	-16.15553	-1.675246	0	10.26	4003	147	-313	-31	0	1.397038	0.6505314	3	160	0	1700
499829	1246	-283	414	-4.578039	-14.9227	-2.71138	0	10.26	4004	108	-182	4	0	1.397038	0.6242187	3	160	0	1700
499875	-388	-3378	-379	-3.966785	-12.83128	-3.340462	0	10.26	4003	104	-103	10	0	1.397038	0.6170777	3	160	0	1700
499948	1024	-2348	-1526	-3.475486	-10.78844	-3.31202	0	10.26	4003	-30	-299	-9	0	1.397038	0.6134744	3	160	0	1700
500057	701	3449	779	-2.624149	-11.34955	-2.956072	0	10.26	4002	-151	239	0	0	1.397038	0.615427	3	160	0	1700
500172	918	2197	-1214	-2.374816	-14.07427	-1.559564	0	10.26	4003	158	-48	-55	0	1.397038	0.6294175	3	160	0	1700
500281	-707	1126	223	-0.4500829	-18.58772	-0.1390093	0	10.83	4003	20	-91	-58	0	1.397038	0.6364545	3	160	0	1700
500401	401	-3608	589	-1.326994	-14.99368	-1.186847	0	10.83	4004	44	-165	-37	0	1.397038	0.6508964	3	160	0	1700
500497	-1766	-3691	19	-2.32319	-9.49081	-2.379512	0	10.83	4003	143	-275	-15	0	1.397038	0.6859711	3	160	0	1700
500612	1109	-497	-1090	-1.410039	-5.745811	-2.365635	0	10.83	4010	-120	178	0	0	1.397038	0.7220923	3	160	0	1700
500667	-165	222	-418	-1.190512	-6.486166	-2.431495	0	10.83	4002	104	-220	-21	0	1.397038	0.7358622	3	160	0	1700
500748	293	-751	-368	-0.5413916	-7.996241	-1.627749	0	10.83	4002	-31	182	-30	0	1.397038	0.753772	3	160	0	1700
500858	-328	-226	-140	-0.4061312	-9.726245	-1.423923	0	10.83	4003	75	-63	-35	0	1.397038	0.7774677	3	160	0	1700
500933	1466	-1578	-296	0.3601663	-9.235449	-1.533491	0	10.83	4004	124	-190	-36	0	1.397038	0.803276	3	160	0	1700
501041	1343	2817	764	4.154115	-11.09677	-2.036518	0	10.83	4004	-139	104	-8	0	1.397038	0.8196148	3	160	0	1700
501156	-412	-223	311	2.660941	-12.31757	-3.011007	0	10.15	4003	-44	164	7	0	1.397038	0.8292877	3	160	0	1700
501294	53	-3733	-451	1.841189	-8.90169	-2.78372	0	10.15	4004	159	-373	-9	0	1.397038	0.8413603	3	160	0	1700
501400	-1220	872	858	0.378556	-8.211748	-2.504638	0	10.15	4003	-152	252	6	-64	1.402046	0.8485534	3	160	0	1700
501517	520	-158	580	0.7464826	-5.745564	-2.608096	0	10.15	4004	-15	27	-1	-64	1.390936	0.8519322	4	160	0	1700
501581	-1900	-2127	59	-1.035351	-4.013696	-2.765066	0	10.15	4004	14	-56	-6	-60	1.357295	0.856167	4	160	0	1700
501671	242	-2151	144	-2.175869	-1.287161	-2.81417	0	10.15	4002	-62	72	7	-64	1.425976	0.865853	4	160	0	1700
501795	-1485	2233	-192	-2.261532	-2.019444	-3.349022	0	10.15	4004	22	-107	18	-64	1.402518	0.8756542	4	160	0	1700
501864	882	5242	329	-2.849639	-6.526968	-3.580024	0	10.15	4002	-70	79	24	-64	1.382022	0.8798025	4	160	0	1700
501975	-246	4726	-330	-1.643618	-14.8049	-3.145222	0	10.15	4003	-3	27	3	-57	1.357198	0.8827404	4	160	0	1700
502079	-200	2472	491	-2.254057	-19.75306	-2.515318	0	10.55	4003	30	-88	-18	-51	1.293992	0.8789467	4	160	0	1700
502228	451	-4760	595	-3.112999	-13.11065	-2.978916	0	10.55	4007	-45	-80	0	-38	1.225238	0.8522753	4	160	0	1700
502304	947	-2162	-393	-2.222812	-9.053621	-3.248394	0	10.55	4003	-16	7	7	-19	1.110596	0.8362545	4	160	0	1700
502423	571	-3492	-329	-1.11974	-6.276031	-2.599927	0	10.55	4004	-89	179	-15	0	1.032264	0.7782069	4	160	0	1700
502500	3110	-1744	1556	-4.073332	-6.483851	-2.469507	0	10.55	4003	-90	197	8	-9	1.005085	0.7395417	4	160	0	1700
502720	57	-2398	-1889	2.01302	-5.122151	-2.925283	0	10.55	4004	131	-249	-23	0	1.033059	0.6305743	4	160	0	1700
502809	-1563	-1116	-849	1.862323	-3.928312	-1.260056	0	10.55	4004	121	-58	-53	-12	1.071963	0.6129001	4	160	0	1700
502902	-3131	-425	940	-1.377939	-4.021552	-1.303311	0	10.55	4002	-54	56	-41	-16	1.114047	0.6021042	4	160	0	1700
502982	-2464	-1346	149	-4.641007	-3.713465	-1.949759	0	10.55	4003	92	-213	-25	-19	1.138749	0.5989205	4	160	0	1700
503102	393	3838	51	-4.479622	-8.069084	-2.652487	0	10.6	4002	83	181	-28	-12	1.06179	0.5914985	4	160	0	1700
503196	-858	4419	392	-4.866048	-17.26365	-1.339406	0	10.6	4002	-149	259	-32	-3	1.01926	0.5943379	4	160	0	1700
503281	-1474	1132	338	-6.764186	-17.76282	-1.156719	0	10.6	4002	-191	144	-41	-3	1.016043	0.599484	4	160	0	1700
503427	37	1823	934	-5.434895	-18.42783	-0.7515026	0	10.6	4003	-65	34	-40	0	0.8998637	0.601362	4	160	0	1700
503489	-2632	-1319	952	-6.789121	-17.77557	-1.25099	0	10.6	4003	0	-117	-27	12	0.9214552	0.6015939	4	160	0	1700
503593	-1038	-4264	-923	-9.749719	-12.10241	-1.86651	0	10.6	4004	188	-139	-25	12	0.9413261	0.6107333	4	160	0	1700
503744	900	-1576	-655	-4.257039	-8.069008	-2.435572	0	10.6	4003	176	-211	-20	6	0.9491484	0.6825519	4	160	0	1700
503797	1638	-340	-1185	-2.70979	-8.188801	-2.229616	0	10.6	4003	-117	-38	-23	9	0.9377884	0.7025257	4	160	0	1700
503947	-464	-842	-323	-0.4111672	-3.851622	-1.538126	0	10.89	4002	87	-27	-47	6	0.9635121	0.7479521	4	160	0	1700
504002	-1450	443	1257	-1.63844	-3.711294	-1.716291	0	10.89	4004	29	-166	-29	22	0.9426838	0.7730294	4	160	0	1700
504130	365	-1790	-817	-3.108769	-3.312167	-2.105382	0	10.89	4004	-51	-122	-12	-16	1.118433	0.831881	4	160	0	1700
504211	-1839	-216	-442	-2.229842	-4.279514	-2.164564	0	10.89	4002	11	-159	-30	-22	1.151279	0.8557228	4	160	0	1700
504299	-1537	-1015	211	-5.12019	-3.895847	-1.751063	0	10.89	4004	24	13	-31	-32	1.19689	0.919772	4	160	0	1700
504408	620	1302	331	-5.775895	-3.783073	-1.742498	0	10.89	4003	-44	115	-33	-38	1.230722	0.9673257	4	160	0	1700
504535	-863	-2580	447	-4.562832	-4.577838	-2.210506	0	10.89	4002	38	-138	-16	-41	1.286492	1.032855	4	160	0	1700
504656	-479	-2552	555	-5.903238	0.06678312	-2.59055	0	10.89	4003	1	-136	-12	-54	1.346913	1.100942	4	160	0	1700
504760	-128	-1016	633	-5.265491	1.980145	-2.999163	0	10.89	4002	33	-81	12	-57	1.3622	1.148009	4	160	0	1700
504817	757	-801	94	-5.184263	2.555728	-3.286088	0	10.89	4002	25	-11	11	-57	1.343859	1.179054	4	160	0	1700
504939	878	-263	-585	-4.082235	2.980934	-3.353205	0	10.49	4004	27	-122	6	-57	1.350835	1.214289	4	160	0	1700
505020	1237	3222	373	-3.163514	-0.6421676	-3.2212	0	10.49	4003	-45	-8	6	0	1.283564	1.257437	3	160	0	1700
505179	-76	741	374	-2.095328	-4.36848	-2.480811	0	10.49	4003	25	93	-7	0	1.239428	1.278379	3	160	0	1700
505299	1504	2198	-668	-2.630798	-9.028735	-2.360113	0	10.49	4003	-249	318	-6	0	1.21047	1.291726	3	160	0	1700
505468	-1614	-2494	1227	-2.716942	-8.01669	-2.16351	0	10.49	4003	41	107	-30	0	1.187846	1.29448	3	160	0	1700
505572	7073	5637	843	1.775449	-5.584589	-2.003644	0	10.49	4004	-26	-109	-16	0	1.179006	1.281513	3	160	0	1700
505641	4910	5985	-219	4.542551	-8.404963	-2.158448	0	10.49	4004	16	-53	-13	0	1.174487	1.275468	3	160	0	1700
505756	2234	1796	526	8.565758	-14.39447	-3.288554	0	10.49	4002	-100	76	14	0	1.169267	1.260464	3	160	0	1700
505853	608	-1313	-415	9.100744	-13.87778	-3.205956	0	10.83	4004	49	-80	-5	0	1.165461	1.247082	3	160	0	1700
506045	-1642	-2956	-108	5.432662	-12.94089	-1.50347	0	10.83	4002	-106	172	-30	0	1.160664	1.213615	3	160	0	1700
506177	-2197	-107	1051	2.261886	-5.937615	-2.947055	0	10.83	4004	24	58	17	0	1.158793	1.194654	3	160	0	1700
506246	-3253	-478	-238	-4.150784	-6.279279	-3.77939	0	10.83	4004	28	43	32	0	1.158115	1.189864	3	160	0	1700
506351	-2099	-1562	-433	-6.093225	-5.373914	-3.452477	0	10.83	4004	98	-193	8	0	1.157332	1.190432	3	160	0	1700
506492	-1847	1618	-669	-7.719714	-8.898987	-1.866812	0	10.83	4002	-72	43	-26	0	1.156607	1.195217	3	160	0	1700
506556	-2979	843	-502	-9.0505	-9.199495	-1.58551	0	10.83	4004	36	-109	-38	0	1.156344	1.202948	3	160	0	1700
506688	-2850	-581	535	-15.48298	-6.48916	-2.270683	0	10.83	4003	-35	-48	-8	0	1.156041	1.210183	3	160	0	1700
506763	-1096	397	584	-16.52614	-6.099524	-2.904842	0	10.83	4002	39	-85	12	0	1.155819	1.216234	3	160	0	1700
506908	-4	2435	-211	-16.3184	-9.302265	-3.288591	0	10.94	4002	-58	124	9	0	1.155615	1.217456	3	160	0	1700
506976	-167	1320	-479	-15.22758	-11.08669	-3.045119	0	10.94	4002	-53	82	1	0	1.15554	1.211555	3	160	0	1700
507099	3002	5312	-1201	-12.58603	-15.3985	-2.632907	0	10.94	4003	18	-70	-23	0	1.155455	1.206765	3	160	0	1700
507178	1569	4258	-576	-9.529768	-20.44262	-2.588496	0	10.94	4003	-8	-65	-7	0	1.155411	1.199515	3	160	0	1700
507368	-559	-4122	-1538	-1.82381	-20.91042	-1.586882	0	10.94	4003	-151	376	-30	0	1.155313	1.152137	3	160	0	1700
507437	315	-5309	-1224	-1.946065	-16.20787	-1.109576	0	10.94	4003	-26	-90	-42	0	1.155296	1.131116	3	160	0	1700
507567	1915	-5303	630	-0.7777268	-4.629094	-1.990844	0	10.94	4002	47	-313	-20	0	1.155271	1.099971	3	160	0	1700
507622	3473	-5959	-251	0.3758636	-1.740644	-1.667171	0	10.94	4002	1	12	-34	0	1.155262	1.088587	3	160	0	1700
507704	3088	592	1770	5.112109	1.666622	-2.24457	0	10.49	4003	77	21	-14	0	1.155255	1.080289	3	160	0	1700
507804	1411	-1078	-808	7.895444	-0.6578115	-3.118136	0	10.49	4004	-52	47	0	0	1.155247	1.073048	3	160	0	1700
507875	-1697	-2088	-645	7.759251	-1.226259	-3.345747	0	10.49	4002	-207	322	12	0	1.155242	1.074418	3	160	0	1700
507992	-1642	-4424	-1182	3.996487	0.05240294	-2.456475	0	10.49	4002	78	-234	-27	0	1.155237	1.075225	3	160	0	1700
508116	-2323	-3477	1035	0.6293707	7.97712	-2.676929	0	10.49	4003	48	4	-31	0	1.155233	1.062227	3	160	0	1700
508185	41	-1306	782	-1.278023	9.195394	-3.174711	0	10.49	4004	77	-37	-8	0	1.155231	1.046743	3	160	0	1700
508329	-117	1789	-845	0.6003239	5.376634	-3.106026	0	10.49	4002	-151	76	18	0	1.155229	0.9957752	3	160	0	1700
508394	333	4519	-555	0.2270136	1.260761	-2.415385	0	10.49	4004	-40	147	-11	0	1.155228	0.9773902	3	160	0	1700
508556	710	4057	-1142	0.6599624	-11.11206	-1.495795	0	10.49	4004	77	-47	-55	0	1.155226	0.8868487	3	160	0	1700
508635	-2417	951	552	-0.7597477	-15.11794	-1.562453	0	10.26	4003	14	-186	-34	0	1.155226	0.8370302	3	160	0	1700
508708	-2599	551	130	-2.583205	-15.50424	-2.310483	0	10.26	4003	114	-89	-12	0	1.155225	0.8005986	3	160	0	1700
508842	-3526	-808	646	-6.596005	-13.70959	-2.996387	0	10.26	4004	-77	-30	13	0	1.155225	0.7318522	3	160	0	1700
508953	-3155	-3417	-1198	-11.21638	-9.572799	-1.937108	0	10.26	4002	224	-339	-36	0	1.155225	0.689288	3	160	0	1700
508991	-2445	38	-992	-12.25925	-9.244448	-1.751435	0	10.26	4002	-96	194	-45	0	1.155225	0.6697689	3	160	0	1700
509101	341	2002	-375	-12.44789	-12.45656	-0.906076	0	10.26	4002	-164	268	-37	0	1.155225	0.6210511	3	160	0	1700
509222	2379	2905	-426	-8.002089	-16.91965	-1.231769	0	10.26	4002	-120	149	-40	0	1.155225	0.5900949	3	160	0	1700
509300	1412	-1110	533	-5.107395	-16.32817	-1.14032	0	10.26	4002	-16	282	-43	0	1.155225	0.5681621	3	160	0	1700
509426	3584	482	-1202	0.2891854	-16.00607	-0.7850173	0	10.26	4004	76	-128	-69	0	1.155225	0.5387624	3	160	0	1700
509498	-99	-2578	81	1.85605	-14.29385	-0.4754246	0	10.26	4004	24	-19	-53	0	1.155225	0.5200689	3	160	0	1700
509602	801	-4825	709	1.440775	-8.056399	-1.416504	0	10.26	4003	95	-248	-23	0	1.155225	0.5115207	3	160	0	1700
509714	201	1766	665	3.640657	-5.150732	-3.325468	0	10.26	4004	-78	148	19	0	1.155225	0.5072039	3	160	0	1700
509814	579	685	-333	3.340549	-6.744105	-3.254754	0	10.26	4002	-55	133	8	0	1.155225	0.4941927	3	160	0	1700
509944	1736	1473	-140	2.544626	-8.350339	-1.630495	0	10.26	4004	-103	173	-45	0	1.155225	0.4844335	3	160	0	1700
510102	297	2034	35	5.53934	-13.8348	-0.1656904	0	10.26	4003	63	10	-66	0	1.155225	0.4763743	3	160	0	1700
510151	505	906	1301	5.649161	-13.53917	-0.6957467	0	10.26	4004	106	-219	-36	0	1.155225	0.4769194	3	160	0	1700
510224	-1925	-429	928	4.457099	-11.79468	-1.793172	0	10.26	4004	-37	-78	-14	0	1.155225	0.4684541	3	160	0	1700
510382	-4556	-3991	-344	-9.832094	-2.540444	-3.161904	0	10.26	4003	11	-52	11	0	1.155225	0.446843	3	160	0	1700
510435	-2332	-2642	-152	-11.24925	-0.691288	-3.079918	0	10.26	4004	-70	-66	-1	0	1.155225	0.4407793	3	160	0	1700
510616	-3647	1583	-876	-16.72931	0.3315371	-2.171647	0	10.26	4004	80	-214	-42	0	1.155225	0.43474	3	160	0	1700
510648	12837	18113	2687	-15.33991	-3.914619	-2.65096	0	10.26	4004	-400	285	33	0	1.155225	0.4331568	3	160	0	1700
510722	-6967	-6742	-986	0.008034852	-13.88454	-4.148573	0	10.26	4004	254	-53	35	0	1.155225	0.4228842	3	160	0	1700
510875	194	2540	-184	-13.62757	-5.875644	-4.051197	0	10.26	4003	0	0	0	0	1.155225	0.3994801	3	160	0	1700
510934	15483	2199	4058	-1.79107	-6.147064	-6.328769	0	10.26	4003	0	0	0	0	1.155225	0.387481	3	160	0	1700
511041	17	776	970	0.1655464	-6.416398	-8.96398	0	10.26	4002	0	0	0	0	1.155225	0.3426809	3	160	0	1700
511193	25	204	157	-0.4113438	-5.539866	-9.198659	0	10.26	4003	0	0	0	0	1.155225	0.302535	1	160	0	1700
511341	126	214	-189	-0.8017304	-4.359366	-9.207565	0	10.26	4003	0	0	0	0	1.155225	0.2646963	1	160	0	1700
511396	-283	-188	-126	-0.8481374	-4.068574	-9.239043	0	10.26	4003	0	0	0	0	1.155225	0.2494108	1	160	0	1700
511466	16	240	69	-1.004383	-3.647303	-9.251153	0	11.06	4004	0	0	0	0	1.155225	0.2372121	1	160	0	1700
511535	-162	-124	14	-1.033721	-3.368043	-9.270597	0	11.06	4003	0	0	0	0	1.155225	0.2282306	1	160	0	1700
511663	-195	-122	16	-1.189019	-2.772499	-9.304713	0	11.06	4002	0	0	0	0	1.155225	0.1998264	1	160	0	1700
511802	-113	0	-37	-1.33458	-2.269775	-9.344814	0	11.06	4003	0	0	0	0	1.155225	0.1756658	1	160	0	1700
511847	-138	-52	25	-1.347995	-2.182336	-9.349216	0	11.06	4002	0	0	0	0	1.155225	0.1696083	1	160	0	1700
511984	-70	-6	-19	-1.403949	-1.804298	-9.387117	0	11.06	4004	0	0	0	0	1.155225	0.1448233	1	160	0	1700
512057	-95	20	18	-1.446229	-1.644265	-9.411207	0	11.06	4002	0	0	0	0	1.155225	0.1359901	1	160	0	1700
512145	-114	9	-4	-1.506673	-1.414505	-9.438842	0	11.06	4003	0	0	0	0	1.155225	0.1295003	1	160	0	1700
512249	-97	-9	17	-1.531231	-1.286324	-9.457611	0	11.06	4002	0	0	0	0	1.155225	0.1248259	1	160	0	1700
512450	-115	-2	25	-1.58802	-0.9248385	-9.509392	0	11.06	4003	0	0	0	0	1.155225	0.1302657	1	160	0	1700
512508	-85	0	21	-1.601302	-0.8358011	-9.523086	0	11.06	4004	0	0	0	0	1.155225	0.1311435	1	160	0	1700
512595	-113	-14	11	-1.625458	-0.7241207	-9.547359	0	11.06	4004	0	0	0	0	1.155225	0.1324991	1	160	0	1700
512640	-101	-6	13	-1.63236	-0.6928167	-9.556588	0	11.06	4002	0	0	0	0	1.155225	0.1318794	1	160	0	1700
512789	-92	-3	14	-1.661863	-0.5399041	-9.592592	0	11.06	4002	0	0	0	0	1.155225	0.1322093	1	160	0	1700
512848	-100	8	10	-1.674401	-0.4866025	-9.607078	0	11.06	4003	0	0	0	0	1.155225	0.1295878	1	160	0	1700
512952	-96	7	13	-1.685955	-0.4275981	-9.628843	0	11.06	4003	0	0	0	0	1.155225	0.1220662	1	160	0	1700
513143	-95	5	13	-1.684154	-0.3356694	-9.661728	0	11.06	4003	0	0	0	0	1.155225	0.1198852	1	160	0	1700
513174	-90	1	12	-1.685703	-0.3151355	-9.669123	0	11.06	4003	0	0	0	0	1.155225	0.1203965	1	160	0	1700
513259	-103	5	13	-1.688406	-0.279101	-9.682265	0	11.06	4003	0	0	0	0	1.155225	0.1132882	1	160	0	1700
513415	-100	5	16	-1.693999	-0.2123573	-9.714113	0	11.11	4002	0	0	0	0	1.155225	0.09197871	1	160	0	1700
513593	-93	6	11	-1.695474	-0.1507352	-9.753605	0	11.11	4003	0	0	0	0	1.155225	0.08798712	1	160	0	1700
513744	-94	6	15	-1.702292	-0.119087	-9.780382	0	11.11	4004	0	0	0	0	1.155225	0.08372138	1	160	0	1700
513830	-85	1	12	-1.704068	-0.09890047	-9.797989	0	11.11	4003	0	0	0	0	1.155225	0.08895649	1	160	0	1700
513885	-91	3	14	-1.700522	-0.08104034	-9.810582	0	11.11	4002	0	0	0	0	1.155225	0.09448743	1	160	0	1700
513992	-89	5	11	-1.70246	-0.06897585	-9.829411	0	11.11	4004	0	0	0	0	1.155225	0.1029879	1	160	0	1700
514075	-87	3	14	-1.708172	-0.04797031	-9.854718	0	11.11	4003	0	0	0	0	1.155225	0.1068941	1	160	0	1700
514220	-92	2	6	-1.696116	-0.03134637	-9.882225	0	11.17	4003	0	0	0	0	1.155225	0.1051454	1	160	0	1700
514302	-102	3	10	-1.702505	-0.02643906	-9.903254	0	11.17	4003	0	0	0	0	1.155225	0.09970213	1	160	0	1700
514364	-88	0	15	-1.704889	-0.02502027	-9.908695	0	11.17	4002	0	0	0	0	1.155225	0.09830578	1	160	0	1700
514496	-98	0	7	-1.702677	-0.01229411	-9.934737	0	11.17	4004	0	0	0	0	1.155225	0.09932753	1	160	0	1700
