time(ms)	gyro_x(deg/s)	gyro_y(deg/s)	gyro_z(deg/s)	orientation_roll(deg)	orientation_pitch(deg)	orientation_yaw(deg)	throttle	battery(V)	loop_time(uS)	pid_output_roll	pid_output_pitch	pid_output_yaw	pid_output_throttle	ultrasonic_alt	baro_alt	flight_mode	p_gain_altitude	i_gain_altitude	d_gain_altitude
31915	-525	-222	225	0.4445636	-2.372354	0.3210875	0	11.74	4002	42	43	-3	0	1.029686	1.006726	3	80	0	0
31945	-417	-141	-96	0.4963246	-1.857759	0.1229335	0	11.74	4003	24	30	0	0	1.029686	1.00636	4	80	0	0
32039	994	-683	-701	0.5210126	-1.114351	0.1755991	0	11.74	4003	-23	-40	-11	-6	1.072764	1.005442	4	80	0	0
32215	175	662	370	-0.01944852	-0.7651115	0.1991953	0	11.74	4003	29	95	-6	-14	1.185553	1.00898	4	80	0	0
32291	54	1344	-48	0.7229619	-1.340308	0.1263837	0	11.74	4002	19	58	-1	-6	1.079303	1.004869	4	80	0	0
32385	1797	2481	-297	0.8125994	-3.0638	0.2942518	0	10.43	4003	-22	-15	8	-6	1.07144	0.9987826	4	80	0	0
32468	2443	4038	511	3.786452	-7.770923	0.4868706	0	10.43	4003	-74	-86	-11	-4	1.066895	0.9914409	4	80	0	0
32563	-829	-1604	-536	4.128609	-10.47704	0.9156691	0	10.43	4004	-45	130	-15	-6	1.076314	0.9798316	4	80	0	0
32675	497	-1916	-187	3.546096	-7.603038	0.7389072	0	10.43	4002	90	-38	-24	-8	1.115731	0.9762882	4	80	0	0
32773	-1256	-1368	97	3.385255	-5.659989	0.3342105	0	10.43	4002	-83	4	-1	-12	1.1822	0.9649758	4	80	0	0
32875	-887	-1328	482	1.504978	-2.125046	0.05066396	0	10.43	4004	-9	-17	3	-14	1.186154	0.9550387	4	80	0	0
32965	-575	1383	60	2.579484	-2.426246	0.6812233	0	10.43	4003	109	-93	-18	-11	1.140709	0.9329654	4	80	0	0
33106	-398	512	4	1.644709	-4.111107	0.1448661	0	10.43	4004	77	17	0	-16	1.226964	0.9097852	4	80	0	0
33176	-983	304	64	3.088077	-5.021634	0.2529369	0	10.43	4002	221	-65	-2	-20	1.245012	0.8992952	4	80	0	0
33316	-51	586	-511	0.932032	-6.152021	0.09984379	0	11.34	4003	36	-80	-4	-19	1.229418	0.8843621	4	80	0	0
33386	-695	736	-668	1.623457	-6.366319	0.1101363	0	11.34	4004	-117	17	4	-19	1.227486	0.8814119	4	80	0	0
33508	1050	1204	5	0.03786787	-6.39838	0.1166523	0	11.34	4004	-107	-17	-2	-17	1.214197	0.8718717	4	80	0	0
33578	230	665	933	1.228487	-7.698173	0.272677	0	11.34	4003	-1	-50	-1	-16	1.212981	0.8698373	4	80	0	0
33768	277	-1021	-69	-0.3753233	-5.031985	0.007064532	0	11.34	4003	108	-62	-6	-9	1.139358	0.8583833	4	80	0	0
33887	-391	120	-396	-0.02091061	-6.312645	0.07218731	0	11.34	4003	115	-39	-6	-14	1.176767	0.8465315	4	80	0	0
33964	-449	-1075	270	-0.2615515	-5.046944	0.2051283	0	11.34	4003	-23	17	-2	-17	1.238082	0.8368216	4	80	0	0
34030	1265	-221	35	0.0571917	-3.713974	0.3708229	0	11.34	4002	-67	-50	-2	-19	1.22332	0.8049516	4	80	0	0
34081	1561	1010	481	0.8254024	-4.165059	0.4801612	0	11.34	4004	-15	-108	-4	-17	1.207867	0.7978741	4	80	0	0
34193	-993	227	-118	0.9493361	-4.774621	0.3262256	0	11.85	4002	-125	63	-4	-14	1.184398	0.7627474	4	80	0	0
34366	877	3654	285	3.559728	-7.066538	0.8166811	0	11.85	4003	-62	76	-16	-19	1.215527	0.7143052	4	80	0	0
34470	-1121	-2175	-215	2.083851	-6.841912	0.7731913	0	11.85	4004	-32	-13	-18	-17	1.190645	0.6929737	4	80	0	0
34532	312	1323	-223	1.325335	-5.300592	0.4770928	0	11.85	4007	-146	70	-9	-20	1.2542	0.6626626	4	80	0	0
34599	-910	951	320	0.9131681	-6.571	0.3074501	0	11.85	4004	-53	-47	2	-17	1.205807	0.6471907	4	80	0	0
34704	-1113	-1279	-377	-0.4097264	-5.263741	0.2255315	0	11.85	4002	32	-65	-1	-12	1.155146	0.6102502	4	80	0	0
34809	113	-392	-90	-0.7010221	-3.997463	0.282527	0	11.85	4002	-106	183	-12	-11	1.135935	0.5821652	4	80	0	0
34918	306	1258	-27	0.9594893	-4.645534	0.4672981	0	11.85	4002	142	-86	-5	-8	1.07686	0.5381437	4	80	0	0
35048	387	-634	604	-0.4778868	-1.940284	-0.1713537	0	11.85	4002	-87	47	17	1	0.9884188	0.5095649	4	80	0	0
35114	1108	-1046	-221	-0.06629337	-1.864892	-0.2051183	0	11.85	4003	2	95	0	3	0.9095594	0.4875572	4	80	0	0
35230	-885	940	512	-0.4250343	-1.444818	-0.4514988	0	10.89	4003	28	79	14	17	0.7826993	0.4538125	4	80	0	0
35345	3465	995	494	-0.6515391	-2.100581	-0.6575174	0	10.89	4003	-388	77	11	28	0.6375141	0.4212545	4	80	0	0
35428	-2943	-2769	-992	0.2000412	-2.41297	-0.6736914	0	10.89	4002	-32	-9	23	19	0.7992856	0.388786	4	80	0	0
35566	-1618	1203	405	-0.6919467	-1.975852	0.1325575	0	10.89	4002	-146	161	5	33	0.5403666	0.3567961	4	80	0	0
35641	1513	-714	370	1.01687	-2.162132	0.477095	0	10.89	4003	-76	142	-15	38	0.5003939	0.3439573	4	80	0	0
35743	-1193	-378	-7	0.2029622	-0.7436061	0.3770323	0	10.89	4004	-25	82	6	41	0.4926397	0.3296836	4	80	0	0
35884	-842	110	-192	0.9866491	-1.270866	-0.0216531	0	10.89	4004	90	-317	11	38	0.5167826	0.3227097	4	80	0	0
35951	-442	2167	145	-0.7678242	-1.988628	-0.5920498	0	10.89	4004	13	-22	9	33	0.5770222	0.3246617	4	80	0	0
36055	2300	50	258	2.454135	-3.518533	0.006965518	0	10.89	4004	-31	54	-16	24	0.7479747	0.3572948	4	80	0	0
36146	763	-1056	-159	5.246691	-2.968447	0.93012	0	11.57	4002	167	-71	-23	12	0.832977	0.3836433	4	80	0	0
36266	534	995	1405	4.676075	-1.887686	0.003149949	0	11.57	4003	-139	289	11	6	0.9341746	0.4384065	4	80	0	0
36448	-982	963	-690	7.512513	-8.059768	0.3866298	0	11.57	4003	4	-86	-17	8	0.8972328	0.5328967	4	80	0	0
36522	-872	-496	1105	6.898574	-6.933871	0.3763865	0	11.57	4002	-117	87	6	4	0.978415	0.5741702	4	80	0	0
36623	-253	-1778	-783	4.78577	-5.738555	0.6941803	0	11.57	4003	-31	-255	-13	-1	1.039605	0.6465902	4	80	0	0
36672	-116	3712	758	4.492615	-7.617997	0.51435	0	11.57	4003	-165	192	6	-4	1.050892	0.6627878	4	80	0	0
36756	605	1553	142	4.442131	-12.18802	0.7174074	0	11.57	4004	43	104	-25	-6	1.09596	0.7704	4	80	0	0
36844	-971	-90	1043	3.536492	-11.97602	0.8945341	0	11.57	4003	-55	-67	-8	-9	1.13029	0.8278067	4	80	0	0
36978	88	-937	545	1.900607	-10.17322	0.4541531	0	11.57	4004	-40	-163	0	-3	1.042869	0.9503288	4	80	0	0
37059	-841	-852	369	1.270338	-9.322674	-0.2213151	0	11.29	4003	84	-56	0	0	1.052085	1.009143	3	80	0	0
37190	309	-1608	-563	0.5371775	-8.297065	0.246204	0	11.29	4004	-85	-90	-10	0	1.064199	1.107024	3	80	0	0
37310	-707	-1386	-289	-0.9537087	-4.834475	0.3662938	0	11.29	4004	-37	-88	-5	0	1.070462	1.182264	3	80	0	0
37396	869	-745	-305	-0.6159331	-3.697653	0.259492	0	11.29	4003	-100	-113	8	0	1.075028	1.28569	3	80	0	0
37480	-1535	-777	428	-0.91843	-2.349568	-0.3000863	0	11.29	4003	36	11	0	0	1.077361	1.324973	3	80	0	0
37597	504	-1818	146	-2.751781	0.5038387	-0.3345074	0	11.29	4002	-4	-94	26	0	1.080783	1.442137	3	80	0	0
37669	-325	-529	-1240	-2.500067	1.242621	-0.3210883	0	11.29	4002	75	1	8	0	1.082552	1.540168	3	80	0	0
37764	609	-1681	-306	-2.863412	2.087795	-0.4524564	0	11.29	4003	8	-62	12	0	1.083456	1.578735	3	80	0	0
37905	856	-3936	571	-0.3969488	8.961255	-0.2878278	0	11.29	4002	31	-1	6	0	1.084781	1.676102	3	80	0	0
37968	-765	-1795	747	-0.8697348	10.55094	-0.3286381	0	11.91	4004	51	-72	16	0	1.085262	1.71832	3	80	0	0
38070	1456	-1161	349	-1.563522	11.1734	-0.1394032	0	11.91	4004	56	20	-2	0	1.085817	1.767069	3	80	0	0
38222	-306	3793	-646	-0.8689899	5.610004	-0.2109253	0	11.91	4002	-25	-46	0	0	1.086428	1.808795	3	80	0	0
38266	-228	3089	-902	-1.49527	1.709971	-0.04858461	0	11.91	4004	102	50	-6	0	1.086516	1.813247	3	80	0	0
38371	370	3478	-781	-0.8470328	-1.602344	0.1830145	0	11.91	4003	-161	59	-4	0	1.086731	1.812259	3	80	0	0
38487	70	4806	-931	-0.3780795	-10.6584	0.5502988	0	11.91	4004	193	-221	-6	0	1.08693	1.799476	3	80	0	0
38607	-952	4547	1913	-0.6107779	-15.30847	0.322776	0	11.91	4004	45	-105	10	0	1.087033	1.779183	3	80	0	0
38843	1648	-635	-821	4.806746	-15.00896	1.219537	0	11.91	4002	124	-78	-29	0	1.087163	1.721466	3	80	0	0
39000	1113	-1791	588	2.096618	-5.449828	1.000095	0	11.34	4004	-151	-42	-6	0	1.087223	1.638667	3	80	0	0
39096	-486	-1080	204	3.775698	-2.773432	-0.383616	0	11.34	4003	18	-60	32	0	1.087247	1.611008	3	80	0	0
39242	4	-99	-537	2.443047	-1.078844	-0.04784004	0	11.34	4002	6	-74	0	0	1.087268	1.551614	3	80	0	0
39310	-2553	-1130	-443	0.8350491	0.3855449	0.5344395	0	11.34	4002	48	-74	0	0	1.08728	1.499933	3	80	0	0
39410	-2396	-41	-970	-3.425619	1.441535	0.3868914	0	11.34	4002	68	-71	-2	0	1.087288	1.453455	3	80	0	0
39550	180	759	-287	-2.04566	0.6089868	-0.1949113	0	11.34	4002	26	-53	17	0	1.087296	1.378429	3	80	0	0
39706	303	1676	-268	-1.649084	-3.942418	-0.7396387	0	11.34	4003	57	95	12	0	1.087301	1.320101	3	80	0	0
39751	1640	2533	686	-1.027013	-5.327722	-0.8201814	0	11.34	4003	-109	202	35	0	1.087302	1.281153	3	80	0	0
39810	1185	1329	-258	0.6990336	-6.663428	-0.5247483	0	10.66	4003	-17	57	1	0	1.087304	1.248032	3	80	0	0
39913	-410	-1585	42	-0.4666536	-6.467279	-1.423514	0	10.66	4003	0	0	59	0	1.087305	1.197269	3	80	0	0
40062	-667	-1183	-1606	0.02461885	-2.859668	-1.386681	0	10.66	4004	46	-29	34	0	1.087307	1.11668	3	80	0	0
40126	-1544	4528	-407	-0.3291549	-6.970359	-0.520205	0	10.66	4003	-149	131	20	0	1.087308	1.061796	3	80	0	0
40200	-586	1254	-438	-0.9740598	-9.844786	-0.4992961	0	10.66	4003	9	-79	16	0	1.087308	1.025708	3	80	0	0
40313	3789	1210	-1172	1.25035	-9.797254	0.08413377	0	10.66	4002	-164	218	-3	0	1.087309	0.9613614	3	80	0	0
40386	2027	2680	451	4.086579	-12.12417	-0.05961855	0	10.66	4003	-76	29	6	0	1.087309	0.9213591	3	80	0	0
40646	208	1195	-1092	6.490933	-12.96605	-0.4348224	0	10.66	4002	40	-118	5	0	1.087309	0.8092228	3	80	0	0
40728	1163	-528	-28	5.756503	-13.22884	-0.4261006	0	11.63	4003	-98	-98	14	0	1.087309	0.7587138	3	80	0	0
40812	-1236	639	-676	5.444767	-12.89006	-0.2541888	0	11.63	4004	48	-18	-7	0	1.087309	0.7303759	3	80	0	0
40968	-5365	840	1039	-4.069944	-13.38984	-1.265656	0	11.63	4004	45	-107	45	0	1.087309	0.6619834	3	80	0	0
41024	-4675	-963	125	-6.375058	-12.69495	-1.392383	0	11.63	4003	-55	51	37	0	1.087309	0.6267414	3	80	0	0
41101	-2503	-2650	766	-9.402133	-9.736703	-1.409776	0	11.63	4002	0	0	0	0	1.087309	0.5972397	3	80	0	0
41257	-143	1648	2595	0.1915681	-2.61254	0.3333196	0	11.63	4002	0	0	0	0	1.087309	0.5056952	3	80	0	0
41365	-53	97	2	1.034076	1.178522	-0.830355	0	11.63	4002	0	0	0	0	1.087309	0.4290311	3	80	0	0
41408	11	37	-20	0.972896	1.155686	-0.8370187	0	11.63	4003	0	0	0	0	1.087309	0.3844716	3	80	0	0
41561	-61	-48	80	0.7219144	1.02879	-0.8781539	0	11.63	4004	0	0	0	0	1.087309	0.3249219	1	80	0	0
41619	-88	-30	-29	0.5982991	0.9731963	-0.8797345	0	11.97	4004	0	0	0	0	1.087309	0.2816454	1	80	0	0
41733	-50	-21	-12	0.4820905	0.9237356	-0.8937921	0	11.97	4003	0	0	0	0	1.087309	0.2193657	1	80	0	0
41775	-46	-22	20	0.4385465	0.9158956	-0.8961762	0	11.97	4004	0	0	0	0	1.087309	0.2051373	1	80	0	0
41887	-45	8	36	0.3174767	0.8475084	-0.9135986	0	11.97	4003	0	0	0	0	1.087309	0.1832223	1	80	0	0
41964	-5	14	-15	0.2594135	0.7981148	-0.9187927	0	11.97	4004	0	0	0	0	1.087309	0.1705643	1	80	0	0
42074	8	16	9	0.1821318	0.7797258	-0.9320589	0	11.97	4002	0	0	0	0	1.087309	0.1621182	1	80	0	0
42187	-51	-11	8	0.1230163	0.72027	-0.9481382	0	11.97	4003	0	0	0	0	1.087309	0.1452941	1	80	0	0
42317	-32	20	3	0.0347637	0.6779679	-0.9651934	0	11.97	4004	0	0	0	0	1.087309	0.1380467	1	80	0	0
42431	-30	10	20	-0.002818082	0.6552511	-0.9812104	0	11.97	4004	0	0	0	0	1.087309	0.1260663	1	80	0	0
42484	-58	1	-14	-0.03002334	0.6408858	-0.9879984	0	11.97	4003	0	0	0	0	1.087309	0.1231255	1	80	0	0
42592	0	-21	16	-0.06589209	0.617934	-1.000532	0	12.02	4002	0	0	0	0	1.087309	0.1119606	1	80	0	0
42743	-2	-3	-37	-0.1093595	0.5789626	-1.019116	0	12.02	4003	0	0	0	0	1.087309	0.09624845	1	80	0	0
42857	-30	-5	49	-0.1378166	0.5600926	-1.032805	0	12.02	4003	0	0	0	0	1.087309	0.09419294	1	80	0	0
42911	-20	1	31	-0.1498121	0.5480847	-1.036837	0	12.02	4002	0	0	0	0	1.087309	0.09364235	1	80	0	0
43066	-18	-2	15	-0.1613899	0.5374147	-1.05915	0	12.02	4004	0	0	0	0	1.087309	0.0957828	1	80	0	0
43224	-24	0	1	-0.1763353	0.5280043	-1.073151	0	12.02	4004	0	0	0	0	1.087309	0.09307605	1	80	0	0
43358	-25	0	5	-0.1881959	0.5101793	-1.089231	0	12.02	4003	0	0	0	0	1.087309	0.08039534	1	80	0	0
43488	-23	1	8	-0.1990294	0.5013541	-1.102927	0	12.02	4004	0	0	0	0	1.087309	0.06826936	1	80	0	0
43532	-17	-4	0	-0.2003119	0.4923781	-1.109285	0	12.02	4003	0	0	0	0	1.087309	0.06831865	1	80	0	0
43640	-26	1	4	-0.1995143	0.4847263	-1.118089	0	12.02	4003	0	0	0	0	1.087309	0.06873721	1	80	0	0
43793	-20	0	7	-0.2055146	0.481797	-1.129521	0	12.02	4003	0	0	0	0	1.087309	0.06613296	1	80	0	0
43844	-24	-1	3	-0.2099057	0.4758252	-1.136247	0	12.02	4002	0	0	0	0	1.087309	0.06623292	1	80	0	0
66510	24	4	0	0.3252698	-0.02529235	1.421531	0	12.25	4003	0	0	0	0	0.04798563	-0.0469406	1	140	0	0
66533	24	4	0	0.3252698	-0.02529235	1.421531	0	12.25	4003	0	0	0	0	0.04792047	-0.04731124	1	140	0	0
66632	22	-2	-3	0.3166311	-0.02634448	1.424894	0	12.25	4003	0	0	0	0	0.04780903	-0.04681047	1	140	0	0
66755	26	0	-3	0.3159436	-0.02506129	1.430213	0	12.25	4003	0	0	0	0	0.04764567	-0.0361795	1	140	0	0
66877	22	2	-6	0.3107516	-0.03016417	1.435899	0	12.25	4003	0	0	0	0	0.04756121	-0.02956048	1	140	0	0
66998	23	0	-4	0.3089794	-0.03242926	1.441768	0	12.25	4003	0	0	0	0	0.04748307	-0.01942665	1	140	0	0
67126	26	0	-4	0.304497	-0.03360644	1.44507	0	12.25	4003	0	0	0	0	0.04743181	-0.01939744	1	140	0	0
67155	28	0	-4	0.3062966	-0.03468901	1.446538	0	12.25	4004	0	0	0	0	0.04742203	-0.02017254	1	140	0	0
67266	33	0	0	0.3129415	-0.03932119	1.451245	0	12.19	4002	0	0	0	0	0.04739817	-0.01836432	1	140	0	0
67351	26	2	-4	0.3145733	-0.04058074	1.45473	0	12.19	4003	0	0	0	0	0.04738078	-0.01835952	1	140	0	0
67466	28	1	-1	0.3208448	-0.04775045	1.460782	0	12.19	4003	0	0	0	0	0.04736811	-0.02301911	3	140	0	0
67536	26	-6	-3	0.3266695	-0.04850391	1.461698	0	12.19	4003	0	0	0	0	0.04736163	-0.02654728	3	140	0	0
67688	23	-1	-1	0.3240041	-0.05708735	1.467629	0	12.19	4002	0	0	0	0	0.04735031	-0.03002056	3	140	0	0
67789	24	-1	0	0.3234403	-0.05378978	1.47087	0	12.19	4004	0	0	0	0	0.04734589	-0.03005191	3	140	0	0
67840	26	0	-7	0.3260151	-0.05231201	1.473254	0	12.19	4003	0	0	0	0	0.04734363	-0.03089736	3	140	0	0
68005	24	0	-2	0.3361208	-0.05786865	1.480286	0	12.19	4002	0	0	0	0	0.04734032	-0.02746353	3	140	0	0
68080	25	-3	-6	0.3407804	-0.05408247	1.482426	0	12.19	4004	0	0	0	0	0.0473386	-0.02280958	3	140	0	0
68159	32	2	0	0.3471798	-0.05753303	1.488907	0	12.19	4004	-2	0	0	0	0.04733773	-0.01844626	3	140	0	0
68266	30	-3	-2	0.3516391	-0.05672024	1.494103	0	12.08	4003	-2	0	0	0	0.04733672	-0.01189896	3	140	0	0
68369	36	11	-129	0.3563849	-0.06654183	1.501071	0	12.08	4003	-2	-1	0	0	0.04733598	-0.01190909	3	140	0	0
68501	45	-13	152	0.3574251	-0.06967161	1.494646	0	12.08	4004	-5	3	-1	0	0.0473353	-0.01393599	3	140	0	0
68551	25	-4	-111	0.3615218	-0.06921758	1.509996	0	12.08	4004	-4	-9	0	0	0.04733517	-0.01628873	3	140	0	0
68699	58	-22	-109	0.3883065	-0.0623103	1.518123	0	12.08	4004	-2	-7	0	0	0.04733477	-0.02348694	3	140	0	0
68759	-44	2	-42	0.3649818	-0.04993215	1.523749	0	12.08	4004	10	-1	-1	0	0.04733456	-0.0223186	3	140	0	0
68903	-29	-21	3	0.3512847	-0.05554169	1.532551	0	12.08	4004	-14	-23	-1	0	0.04733437	-0.01256971	3	140	0	0
69001	74	46	-69	0.3688629	-0.09260481	1.54405	0	12.08	4003	-1	7	-3	0	0.04733427	0.000243386	3	140	0	0
69061	-58	-40	-123	0.371883	-0.08927532	1.556094	0	12.08	4004	0	0	0	0	0.04733422	0.002439697	3	140	0	0
69183	75	20	131	0.3278172	-0.1038053	1.549501	0	12.25	4003	0	0	0	0	0.04733414	0.006430109	3	140	0	0
69294	-3	-5	13	0.3455448	-0.1137049	1.561544	0	12.25	4002	-6	0	0	0	0.0473341	0.01421986	3	140	0	0
69460	32	9	-43	0.3483739	-0.1077274	1.571385	0	12.25	4003	-5	8	0	0	0.04733406	0.02188925	3	140	0	0
69505	-29	76	38	0.3141797	-0.08304401	1.575114	0	12.25	4004	16	11	0	0	0.04733405	0.02140528	3	140	0	0
69616	8	-63	-49	0.3739573	-0.0913828	1.57718	0	12.25	4003	-11	17	0	0	0.04733404	0.01914938	3	140	0	0
69694	-47	-74	-106	0.3425445	-0.1023307	1.590451	0	12.25	4003	-1	-8	0	0	0.04733403	0.01953409	3	140	0	0
69801	424	-36	152	0.3906028	-0.09566122	1.592576	0	12.25	4002	-40	3	-1	0	0.04733402	0.02293561	3	140	0	0
69913	228	4	156	0.3912455	-0.08702994	1.596916	0	12.25	4002	-2	13	-2	0	0.04733402	0.03196541	3	140	0	0
70016	-38	-17	145	0.3861534	-0.09544957	1.602665	0	12.25	4003	8	-2	-1	0	0.04733402	0.04756074	3	140	0	0
70117	108	-78	-55	0.3517926	-0.0734909	1.614221	0	12.02	4003	-28	15	-1	0	0.04733402	0.07584319	3	140	0	0
70199	143	-6	100	0.3529593	-0.06554365	1.619104	0	12.02	4004	29	-25	-1	0	0.04733402	0.1077107	3	140	0	0
70299	-70	42	-60	0.3464045	-0.09815783	1.64056	0	12.02	4003	-8	24	-2	0	0.04733402	0.1315148	3	140	0	0
70399	-2	-47	145	0.3651456	-0.09637709	1.651056	0	12.02	4003	-9	-32	0	0	0.04733402	0.1443213	3	140	0	0
70491	161	5	-877	0.4396627	0.04996607	1.716023	0	12.02	4004	11	-23	-4	0	0.04733402	0.1537634	3	140	0	0
70626	-820	8	-390	-0.247174	0.7120678	2.012613	0	12.02	4003	-3	25	-9	0	0.04733402	0.1731223	3	140	0	0
70668	-1110	1683	557	-0.808312	0.1476629	1.938504	0	12.02	4004	-29	66	-8	0	0.04733402	0.1875507	3	140	0	0
70778	-37	1442	-314	-1.520895	-3.874133	1.56935	0	12.02	4002	-22	-17	8	0	0.04733402	0.21358	3	140	0	0
70957	182	2537	371	-1.11977	-9.932273	1.580232	0	10.72	4003	85	-181	-18	0	0.04733402	0.254463	3	140	0	0
71043	-881	553	-14	-0.7688552	-10.03616	2.106578	0	10.72	4003	112	-62	-14	0	0.04733402	0.2754854	3	140	0	0
71078	-625	307	-1005	-0.4105172	-9.92086	2.284428	0	10.72	4003	-68	-19	-35	0	0.04733402	0.2977808	3	140	0	0
71183	-329	313	1129	1.234545	-10.04554	2.282393	0	10.72	4004	1	-66	-7	0	0.04733402	0.3274514	3	140	0	0
71305	-646	-1017	-227	0.5974268	-7.895215	1.65547	0	10.72	4002	-12	287	1	0	0.04733402	0.3628462	3	140	0	0
71432	-123	-2099	-1101	1.190307	-6.167876	2.027837	0	10.72	4003	102	-108	-30	0	0.04733402	0.4277067	3	140	0	0
71505	99	2623	269	0.0619273	-7.301252	2.358357	0	10.72	4002	-11	94	-34	0	0.04733402	0.4575108	3	140	0	0
71636	-219	-217	-325	1.775003	-9.555951	2.696834	0	10.72	4002	-119	57	-33	0	0.04733402	0.5112525	3	140	0	0
71704	-591	-1550	146	0.8975832	-7.278285	2.900747	0	10.72	4004	-80	194	-36	0	0.04733402	0.5485312	3	140	0	0
71808	-355	644	425	3.712538	-8.288799	2.608527	0	10.72	4004	32	-62	-19	0	0.04733402	0.6173306	3	140	0	0
71992	6	9	759	1.214779	-4.086086	1.387901	0	11.63	4004	41	17	7	0	0.04733402	0.7474521	3	140	0	0
72041	2564	60	111	2.71036	-4.774676	1.221136	0	11.63	4003	-83	-58	5	0	0.04733402	0.7758506	3	140	0	0
72105	1916	470	-819	5.775311	-5.356875	1.502101	0	11.63	4003	-29	-114	12	0	0.04733402	0.8128963	3	140	0	0
72210	-305	222	-754	6.157913	-5.969811	1.936159	0	11.63	4004	143	-98	-6	0	0.04733402	0.8595363	3	140	0	0
72324	-101	-1153	600	5.906802	-5.704882	2.381763	0	11.63	4003	102	3	-23	0	0.04733402	0.9025531	3	140	0	0
72418	975	-1221	-73	5.074726	-4.765409	2.350099	0	11.63	4004	-112	-84	-18	0	0.04733402	0.9370797	3	140	0	0
72523	1121	-1005	-511	5.654219	-3.516146	2.279548	0	11.63	4003	-120	-113	-6	0	0.04733402	0.9707254	3	140	0	0
72681	966	-1484	271	4.612712	-0.9908391	1.356236	0	11.63	4002	-64	-130	10	0	0.04733402	1.009851	3	140	0	0
72731	1171	-1978	829	5.213248	-0.2912127	1.226426	0	11.63	4004	-68	11	12	0	0.04733402	1.022222	3	140	0	0
72836	180	1215	-838	5.358397	0.2088405	1.526126	0	11.63	4002	-102	85	-14	0	0.04733402	1.034288	3	140	0	0
72944	-316	1335	914	4.52381	-2.189174	2.555898	0	11.85	4004	-120	103	-15	0	0.04733402	1.040675	3	140	0	0
73051	-949	-1079	-154	1.718112	-3.940445	1.764242	0	11.85	4003	-1	-234	-4	0	0.04733402	1.043038	3	140	0	0
73147	-490	2003	1072	1.81906	-3.769519	1.547994	0	11.85	4004	-99	-107	2	0	0.04733402	1.043867	3	140	0	0
73241	147	-817	1070	1.096722	-4.389442	0.9996901	0	11.85	4002	-10	-269	13	0	0.04733402	1.040662	3	140	0	0
73402	374	959	-1417	0.8763239	-4.794496	1.402948	0	11.85	4004	-22	-109	-7	0	0.04733402	1.02451	3	140	0	0
73485	292	-972	-644	-0.6042897	-3.894652	1.958594	0	11.85	4003	-7	65	-23	0	0.04733402	1.008343	3	140	0	0
73552	-2270	312	-610	-1.688415	-4.942451	1.339936	0	11.85	4004	63	101	2	0	0.04733402	0.9987439	3	140	0	0
73657	-305	212	1471	-2.155936	-3.801888	1.352685	0	11.85	4004	-164	-152	7	0	0.04733402	0.972925	3	140	0	0
73816	-80	-362	585	-0.519096	-5.438244	1.753708	0	11	4004	-133	-88	5	0	0.04733402	0.9268169	3	140	0	0
73866	-778	-3264	-2081	-1.363379	-4.75009	2.165155	0	11	4004	-41	-17	-14	0	0.04733402	0.9181206	3	140	0	0
73997	2067	2709	646	0.500246	-7.604323	1.56746	0	11	4002	-48	225	12	0	0.04733402	0.907447	3	140	0	0
74074	1923	2683	744	2.453813	-9.836546	1.186569	0	11	4002	-39	167	4	0	0.04733402	0.8963773	3	140	0	0
74178	1601	72	224	4.756739	-10.58547	1.927324	0	11	4003	-37	172	-18	0	0.04733402	0.8906926	3	140	0	0
74324	-578	-468	680	3.545054	-10.6166	2.627092	0	11	4003	-114	106	-22	0	0.04733402	0.8758326	3	140	0	0
74388	582	-2044	-438	3.442222	-9.028303	2.6609	0	11	4004	31	-146	-25	0	0.04733402	0.8541148	3	140	0	0
74536	-1022	-268	756	2.357383	-7.631077	2.365869	0	11	4002	68	91	-17	0	0.04733402	0.8324806	3	140	0	0
74621	258	-1314	-114	-0.4449793	-7.023159	1.189006	0	11	4004	-21	59	13	0	0.04733402	0.8250875	3	140	0	0
74715	-793	-2802	-1654	0.8783906	-7.633148	2.409771	0	11	4003	219	-83	-27	0	0.04733402	0.8195601	3	140	0	0
74824	-62	-92	471	0.005828082	-7.222178	2.916187	0	11.74	4003	16	-107	-23	0	0.04733402	0.8119187	3	140	0	0
74890	-143	-1935	-216	-0.06959637	-6.100031	2.274099	0	11.74	4002	-60	102	-25	0	0.04733402	0.8080615	3	140	0	0
75095	-1164	114	-410	1.486691	-5.169685	1.909456	0	11.74	4002	132	-124	-12	0	0.04733402	0.81717	3	140	0	0
75197	-286	-1176	602	0.5515335	-4.935949	1.822061	0	11.74	4004	36	-156	4	0	0.04733402	0.8283711	3	140	0	0
75310	-518	1789	-1039	0.1893453	-8.553831	1.282207	0	11.74	4002	145	-51	0	0	0.04733402	0.8347659	3	140	0	0
75416	490	641	-22	1.67734	-10.76623	2.019997	0	11.74	4002	-45	21	-12	0	0.04733402	0.8367073	3	140	0	0
75557	-421	318	53	0.3079531	-9.944448	2.085186	0	11.74	4003	-128	100	-9	0	0.04733402	0.8343834	3	140	0	0
75629	762	1696	-290	1.196134	-10.41428	1.944339	0	11.74	4002	-21	42	-5	0	0.04733402	0.8356414	3	140	0	0
75744	-575	1176	-181	2.135356	-12.64162	1.416467	0	11.57	4004	80	-109	1	0	0.04733402	0.8301327	3	140	0	0
75844	-172	17	87	1.857198	-12.63108	1.748131	0	11.57	4004	37	-150	-16	0	0.04733402	0.8220919	3	140	0	0
75977	-1638	-366	-118	2.472418	-12.32161	1.641947	0	11.57	4004	181	-102	-8	0	0.04733402	0.8191348	3	140	0	0
76019	384	1957	-587	1.860186	-12.71081	1.746602	0	11.57	4003	-15	-196	-4	0	0.04733402	0.8172956	3	140	0	0
76095	448	-508	-178	2.450247	-12.84255	2.027065	0	11.57	4004	-104	-105	-9	0	0.04733402	0.8186805	3	140	0	0
76212	-568	1610	1163	0.683009	-12.25102	1.985739	0	11.57	4003	49	162	2	0	0.04733402	0.8269799	3	140	0	0
76414	-636	-1091	743	-0.4531745	-9.096355	1.912295	0	11.57	4002	-30	-127	0	0	0.04733402	0.8175853	3	140	0	0
76536	443	1571	608	0.1492745	-6.64502	1.827415	0	11.57	4003	-48	108	-8	0	0.04733402	0.8035686	3	140	0	0
76593	-352	1400	102	-0.02174906	-7.261039	1.688817	0	11	4004	-67	129	22	0	0.04733402	0.7982886	3	140	0	0
76740	-319	-41	-232	-0.9812413	-6.097552	0.7976525	0	11	4003	97	-12	9	0	0.04733402	0.7896127	3	140	0	0
76811	-1449	2096	1111	-1.295636	-6.917933	0.5175521	0	11	4002	52	272	21	134	0.159495	0.7893197	4	140	0	0
76997	673	1087	643	-1.250012	-9.28682	1.233083	0	11	4002	-14	35	14	84	0.4868576	0.8117661	4	140	0	0
77031	673	1087	643	-1.250012	-9.28682	1.233083	0	11	4002	157	199	7	61	0.6047817	0.8224033	4	140	0	0
77140	3988	-3324	218	2.163528	-5.2372	1.383145	0	11	4002	145	-43	-19	44	0.7463644	0.8519452	4	140	0	0
77214	5104	1001	-255	12.91007	-5.299634	2.095851	0	11	4003	113	-46	-16	28	0.8564371	0.8718882	4	140	0	0
77318	2556	-1383	446	15.5584	-5.744346	2.602793	0	11	4002	-28	-75	-13	2	1.025528	0.9004943	4	140	0	0
77423	-2167	-33	-60	11.77762	-5.294628	1.99201	0	11	4003	-73	66	-1	8	0.9598685	0.9381295	4	140	0	0
77579	-4091	-958	-899	6.175804	-5.52614	1.860054	0	10.55	4004	-6	-212	-1	-2	1.027994	1.001719	4	140	0	0
77668	-3018	768	1552	-0.3750554	-4.438635	1.424035	0	10.55	4004	45	28	18	2	0.9884965	1.036131	4	140	0	0
77735	-624	-794	-295	-1.902041	-4.284241	1.13977	0	10.55	4003	-6	-289	13	2	0.9790044	1.061398	4	140	0	0
77881	-136	1685	593	-2.626252	-3.61868	1.375022	0	10.55	4004	19	105	12	-5	1.040751	1.16063	4	140	0	0
77949	464	-1526	-1123	-3.005186	-3.620475	1.512649	0	10.55	4003	-23	-136	-13	-8	1.069605	1.203262	4	140	0	0
78099	785	-899	-460	-2.115593	-2.579958	1.265029	0	10.55	4002	-109	-130	10	-8	1.069148	1.285592	4	140	0	0
78196	-1350	170	-1029	-1.661904	-3.986757	1.030329	0	10.55	4004	89	-343	-1	2	0.985672	1.366526	4	140	0	0
78256	3143	1550	-489	-0.4459061	-4.968848	1.609198	0	10.55	4002	-75	47	-20	0	1.022905	1.425861	4	140	0	0
78424	-1225	732	1497	-0.303143	-4.950309	1.707281	0	10.55	4004	58	54	-10	-28	1.204519	1.602866	4	140	0	0
78503	-77	1250	-937	2.673581	-9.161351	2.047593	0	11.74	4004	25	-114	-22	-28	1.203365	1.664994	4	140	0	0
78589	-512	-637	-566	2.502282	-9.796382	2.351084	0	11.74	4004	-2	-70	-17	-14	1.103865	1.723732	4	140	0	0
78646	-249	-368	333	2.160694	-9.298239	2.30005	0	11.74	4002	-88	-26	-6	-16	1.139496	1.765433	4	140	0	0
78751	-1068	1790	1039	1.399184	-9.285219	1.629333	0	11.74	4003	-57	189	15	-25	1.188004	1.845067	4	140	0	0
78855	358	-166	-1212	2.297652	-10.76154	1.326549	0	11.74	4003	57	-231	-17	-30	1.216837	1.904926	4	140	0	0
78956	-191	1751	-686	4.432606	-11.49857	2.267368	0	11.74	4004	-58	146	-26	0	1.270171	2.136301	3	140	0	0
79056	-49	-1247	722	3.745303	-10.94819	2.835955	0	11.74	4003	-112	23	-33	0	1.30009	2.19191	3	140	0	0
79282	-503	-488	1019	-0.008403392	-5.176662	1.288415	0	11.74	4004	-19	-95	15	0	1.337802	2.349777	3	140	0	0
79370	1317	1068	-371	1.295332	-5.447517	1.343733	0	11.74	4003	-55	58	-4	0	1.349393	2.413518	3	140	0	0
79473	-1076	11	-877	0.8997055	-5.948406	1.762713	0	10.89	4004	-24	-86	1	0	1.357844	2.47785	3	140	0	0
79566	-1551	171	36	0.3712507	-5.661244	2.105972	0	10.89	4002	123	39	-22	0	1.364004	2.557423	3	140	0	0
79708	2462	632	-99	-0.06671795	-6.500675	2.159703	0	10.89	4002	-9	-2	-18	0	1.369703	2.622393	3	140	0	0
79774	2694	-196	-308	2.769273	-6.542782	2.184601	0	10.89	4004	22	-40	-10	0	1.371768	2.655687	3	140	0	0
79879	-1034	-721	402	2.765394	-5.252676	1.819417	0	10.89	4004	-28	-12	-18	0	1.374155	2.712012	3	140	0	0
79994	1882	-529	-572	3.087473	-3.788047	2.234138	0	10.89	4004	-138	-46	-22	0	1.376363	2.755952	3	140	0	0
80095	816	-1206	612	7.439166	-2.466069	2.056309	0	10.89	4003	-49	-82	-19	0	1.377504	2.777275	3	140	0	0
80190	-1881	-271	161	8.020288	-1.787007	2.390114	0	10.89	4002	119	6	-25	0	1.378336	2.796212	3	140	0	0
80324	-486	-754	-435	3.831994	-1.487599	2.413439	0	10.89	4004	4	35	-29	0	1.379106	2.807012	3	140	0	0
80430	-418	214	444	5.632797	-3.082193	2.646057	0	11.17	4002	151	-47	-18	0	1.379504	2.808531	3	140	0	0
80539	-2141	9	-602	1.567684	-2.291038	2.6284	0	11.17	4003	-89	117	-35	0	1.379794	2.80531	3	140	0	0
80639	434	139	911	2.188274	-3.810689	2.798593	0	11.17	4003	-19	-62	-22	0	1.380006	2.789385	3	140	0	0
80721	-521	-1878	1084	1.445786	-1.96062	2.085727	0	11.17	4002	92	-99	-8	0	1.380114	2.772836	3	140	0	0
80804	670	-601	-165	1.851318	-0.564489	1.835543	0	11.17	4002	-18	-13	-4	0	1.380239	2.745676	3	140	0	0
80912	-935	-548	-173	0.869615	-0.5411593	1.409433	0	11.17	4004	85	-98	11	0	1.38033	2.707593	3	140	0	0
81088	1396	501	-129	1.471723	-0.5235758	1.071219	0	11.17	4002	-5	0	12	0	1.38043	2.590654	3	140	0	0
81133	9	1288	360	2.089231	-2.456596	0.8591921	0	11.17	4004	9	-60	24	0	1.380445	2.574891	3	140	0	0
81221	467	-498	604	0.9582509	-3.05781	1.150044	0	11.17	4003	-103	22	6	0	1.38048	2.513116	3	140	0	0
81382	636	784	141	0.4586081	-3.408259	1.249875	0	11.57	4003	-44	-35	5	0	1.380519	2.372253	4	140	0	0
81441	-275	-253	1050	0.0778468	-3.892901	1.092974	0	11.57	4003	-45	5	13	-53	1.380464	2.211953	4	140	0	0
81537	-312	-2389	284	-0.6454964	-2.282747	1.03395	0	11.57	4003	47	-24	14	-50	1.342994	2.144904	4	140	0	0
81618	-275	25	-1373	-1.001576	0.08501112	1.342578	0	11.57	4004	39	-42	24	-44	1.194326	2.087181	4	140	0	0
81721	-615	351	-695	-1.515722	-0.07315753	1.680233	0	11.57	4003	-19	-34	-14	-30	1.231972	1.886644	4	140	0	0
81824	452	5574	-801	-0.7950705	-4.660583	1.816492	0	11.57	4004	-16	-30	0	-36	1.28535	1.701015	4	140	0	0
81955	-90	823	-1388	-2.951924	-12.26792	1.367799	0	11.57	4002	38	-60	13	-39	1.287694	1.616222	4	140	0	0
82028	1375	-2452	26	-1.88792	-10.44753	1.104025	0	11.57	4004	-86	-148	17	-44	1.259277	1.42064	4	140	0	0
82162	977	2802	3312	3.278278	-4.013223	-1.411542	0	11.57	4003	-259	-225	67	-19	1.032327	1.235633	4	140	0	0
82246	-3407	4896	-799	0.7345939	-9.770683	-3.361003	0	11.34	4003	7	-216	117	19	0.7733881	1.160388	4	140	0	0
82335	-319	-368	-1530	-3.342638	-12.98924	-1.515846	0	11.34	4004	55	-84	64	36	0.7151408	1.00664	4	140	0	0
82440	157	-790	-1496	-2.35842	-8.918639	2.295247	0	11.34	4003	40	-92	-44	42	0.6986141	0.9198766	4	140	0	0
82544	-25	1568	-939	-2.678658	-9.813171	3.138918	0	11.34	4004	10	-26	-25	36	0.7676774	0.8385504	4	140	0	0
82659	865	974	586	-1.726824	-10.97164	2.191349	0	11.34	4004	-43	-90	-8	16	0.9268012	0.7929733	4	140	0	0
82769	1281	-802	-815	-0.3374777	-10.93789	1.836747	0	11.34	4002	39	-56	-25	-8	1.053492	0.760681	4	140	0	0
82859	3735	290	601	4.623634	-10.26082	2.166117	0	11.34	4004	-100	-111	-20	-14	1.108297	0.7559968	4	140	0	0
82953	1192	-2285	-223	6.475127	-8.745512	2.402893	0	11.34	4004	-34	109	-22	-2	1.021132	0.7571194	4	140	0	0
83121	524	-559	611	7.774414	-7.317203	2.323549	0	11.34	4002	-14	-84	3	-19	1.172732	0.7801316	4	140	0	0
83152	-1369	-2170	524	3.507718	-5.002859	1.799395	0	10.94	4004	28	-28	-11	-25	1.193447	0.7860345	4	140	0	0
83253	-410	-2162	-313	2.446885	-1.534764	1.581634	0	10.94	4002	-6	-69	0	-30	1.228871	0.8037572	4	140	0	0
83363	-487	-1306	-412	1.499463	0.6188173	1.433874	0	10.94	4003	15	-19	5	-36	1.254103	0.8380327	4	140	0	0
83458	-403	-629	-331	0.3184325	0.9843565	1.704348	0	10.94	4004	2	-144	-5	0	1.272234	0.859354	3	140	0	0
83636	-345	-979	-564	1.481413	-0.7956221	2.233681	0	10.94	4002	-87	-16	-23	0	1.351857	0.9106489	3	140	0	0
83684	-643	-220	-64	1.412414	-0.5255783	2.160109	0	10.94	4003	73	-139	-17	0	1.373671	0.9248263	3	140	0	0
83884	-2154	1442	285	-5.210012	-3.012953	1.813345	0	10.94	4003	21	-85	-11	0	1.411754	0.9372229	3	140	0	0
84001	-597	4546	-90	-6.995922	-10.03144	2.13483	0	10.94	4003	-70	280	7	0	1.430639	0.9298941	3	140	0	0
84123	312	-439	-714	-5.731939	-12.34982	2.085037	0	10.38	4002	103	-190	-30	0	1.440403	0.9183168	3	140	0	0
84214	172	-448	-1151	-4.903022	-10.42562	2.984488	0	10.38	4003	-17	-24	-60	0	1.447521	0.8909207	3	140	0	0
84283	1510	2711	-304	-3.6217	-11.17471	3.686376	0	10.38	4003	-20	161	-57	0	1.451159	0.872989	3	140	0	0
84368	1083	1351	-1050	-1.797208	-14.46873	3.702652	0	10.38	4002	-8	-83	-64	0	1.455362	0.8539953	3	140	0	0
84479	-1415	-2500	-87	-0.06701763	-13.39274	4.022978	0	10.38	4002	-10	228	-60	0	1.458426	0.8384764	3	140	0	0
84654	413	-2374	-190	-1.556172	-10.30497	2.217221	0	10.38	4004	-63	-345	-6	0	1.461801	0.8192441	3	140	0	0
84795	98	-1152	987	-1.381127	-3.273169	-0.2554021	0	10.38	4003	26	-18	49	0	1.463794	0.7971888	3	140	0	0
84942	-970	2558	-988	-3.39652	-3.427122	1.03262	0	10.38	4004	-5	196	26	0	1.464782	0.7796558	3	140	0	0
85049	1104	1726	-1964	-2.72884	-7.069227	2.078466	0	10.72	4004	-59	229	5	0	1.465294	0.7548629	3	140	0	0
85123	286	3356	-325	-1.68381	-10.58597	2.546674	0	10.72	4004	5	-75	-30	0	1.465555	0.7325909	3	140	0	0
85202	1588	2642	-564	-1.405576	-13.11021	3.494194	0	10.72	4004	-61	132	-53	0	1.465856	0.709236	3	140	0	0
85332	-543	-3419	935	-0.2601502	-9.981692	3.299878	0	10.72	4008	75	-118	-20	0	1.466136	0.6910874	3	140	0	0
85412	1194	-901	1162	0.6063371	-6.356053	1.607821	0	10.72	4003	-144	55	8	0	1.466237	0.6848643	3	140	0	0
85536	-272	-1402	455	1.444567	-4.896574	0.9024398	0	10.72	4003	-26	-90	16	0	1.466354	0.6820607	3	140	0	0
85643	-568	-2303	-428	0.3975624	-1.565063	1.557521	0	10.72	4003	-42	80	-12	0	1.466462	0.6707271	3	140	0	0
85794	-1087	2438	582	-4.894821	-3.753851	2.731492	0	10.72	4003	124	-349	-35	0	1.466533	0.6559455	3	140	0	0
