time(ms)	gyro_x(deg/s)	gyro_y(deg/s)	gyro_z(deg/s)	orientation_roll(deg)	orientation_pitch(deg)	orientation_yaw(deg)	throttle	battery(V)	loop_time(uS)	pid_output_roll	pid_output_pitch	pid_output_yaw	pid_output_throttle	ultrasonic_alt	baro_alt	flight_mode	p_gain_altitude	i_gain_altitude	d_gain_altitude
514644	-90	2	12	-1.706375	-0.001958756	-9.969524	0	11.17	4004	0	0	0	0	1.155225	0.09629254	1	160	0	1700
514735	-89	9	10	-1.708352	-0.001786612	-9.97955	0	11.17	4004	0	0	0	0	1.155225	0.0931636	1	160	0	1700
514906	-91	5	9	-1.705068	0.01132328	-10.01005	0	11.17	4004	0	0	0	0	1.155225	0.1043492	1	160	0	1700
514937	-88	-3	12	-1.704888	0.01281056	-10.01543	0	11.17	4003	0	0	0	0	1.155225	0.1047585	1	160	0	1700
515019	-102	-3	15	-1.71188	0.02443098	-10.03585	0	11.17	4002	0	0	0	0	1.155225	0.1034005	1	160	0	1700
515169	-96	11	16	-1.705882	0.02791195	-10.06929	0	11.23	4002	0	0	0	0	1.155225	0.1046061	1	160	0	1700
515232	-89	2	5	-1.709176	0.02855788	-10.07632	0	11.23	4002	0	0	0	0	1.155225	0.1066419	1	160	0	1700
515349	-87	7	11	-1.704932	0.02664358	-10.10389	0	11.23	4003	0	0	0	0	1.155225	0.1068956	1	160	0	1700
515480	-95	0	10	-1.696872	0.03216484	-10.13048	0	11.23	4004	0	0	0	0	1.155225	0.1196621	1	160	0	1700
515540	-97	1	11	-1.695342	0.03781532	-10.14406	0	11.23	4002	0	0	0	0	1.155225	0.122831	1	160	0	1700
515706	-95	3	19	-1.69142	0.04189033	-10.17694	0	11.23	4004	0	0	0	0	1.155225	0.1305255	1	160	0	1700
515734	-88	-3	8	-1.691406	0.04371605	-10.18373	0	11.23	4002	0	0	0	0	1.155225	0.1323137	1	160	0	1700
515890	-93	5	15	-1.686016	0.04805576	-10.21014	0	11.23	4002	0	0	0	0	1.155225	0.142198	1	160	0	1700
516030	-86	5	16	-1.686404	0.04732321	-10.23648	0	11.17	4002	0	0	0	0	1.155225	0.1398622	1	160	0	1700
516124	-96	17	9	-1.688244	0.04985255	-10.25519	0	11.17	4004	0	0	0	0	1.155225	0.1330834	1	160	0	1700
516173	-92	-1	12	-1.683129	0.05306219	-10.26864	0	11.17	4002	0	0	0	0	1.155225	0.1351855	1	160	0	1700
516259	-91	1	13	-1.682479	0.05437759	-10.28178	0	11.17	4002	0	0	0	0	1.155225	0.1412478	1	160	0	1700
516345	-95	2	12	-1.679006	0.0520783	-10.30122	0	11.17	4004	0	0	0	0	1.155225	0.1438355	1	160	0	1700
516494	-91	0	9	-1.67555	0.05101995	-10.3253	0	11.17	4003	0	0	0	0	1.155225	0.1567369	1	160	0	1700
516602	-83	0	14	-1.665594	0.04777168	-10.34316	0	11.17	4004	0	0	0	0	1.155225	0.1587038	1	160	0	1700
516682	-87	2	12	-1.673043	0.04359583	-10.36253	0	11.17	4004	0	0	0	0	1.155225	0.1517819	1	160	0	1700
516797	-79	3	11	-1.666534	0.03585054	-10.38117	0	11.17	4002	0	0	0	0	1.155225	0.1460171	1	160	0	1700
516881	-89	8	14	-1.662554	0.03390587	-10.39371	0	11.17	4002	0	0	0	0	1.155225	0.1427868	1	160	0	1700
517022	-81	-5	9	-1.66473	0.02944092	-10.4236	0	11.23	4006	0	0	0	0	1.155225	0.1328858	1	160	0	1700
517060	-91	11	11	-1.660546	0.03018257	-10.4376	0	11.23	4002	0	0	0	0	1.155225	0.1311366	1	160	0	1700
517205	-83	10	15	-1.652994	0.02912739	-10.46285	0	11.23	4002	0	0	0	0	1.155225	0.1249961	1	160	0	1700
517278	-93	3	8	-1.652871	0.03184778	-10.47519	0	11.23	4004	0	0	0	0	1.155225	0.1246388	1	160	0	1700
517421	-87	-1	17	-1.653034	0.03373301	-10.50111	0	11.23	4004	0	0	0	0	1.155225	0.1201335	1	160	0	1700
517523	-81	5	13	-1.648921	0.03694566	-10.52006	0	11.23	4003	0	0	0	0	1.155225	0.1142493	1	160	0	1700
517616	-77	3	12	-1.647489	0.03433554	-10.53834	0	11.23	4002	0	0	0	0	1.155225	0.1145768	1	160	0	1700
517642	-80	2	14	-1.643114	0.03262438	-10.54501	0	11.23	4002	0	0	0	0	1.155225	0.1153146	1	160	0	1700
517849	-85	-3	15	-1.627267	0.03378879	-10.58273	0	11.23	4004	0	0	0	0	1.155225	0.1250198	1	160	0	1700
518009	-91	11	8	-1.630176	0.03105186	-10.61048	0	11.23	4004	0	0	0	0	1.155225	0.1523242	1	160	0	1700
518052	-85	0	10	-1.625095	0.02971159	-10.61501	0	11.23	4002	0	0	0	0	1.155225	0.1566941	1	160	0	1700
518274	-80	7	11	-1.623431	0.03625995	-10.64881	0	11.23	4002	0	0	0	0	1.155225	0.1641661	1	160	0	1700
518366	-91	2	5	-1.625092	0.04011633	-10.6644	0	11.23	4002	0	0	0	0	1.155225	0.1622679	1	160	0	1700
518471	-78	7	5	-1.613953	0.04375166	-10.68225	0	11.23	4004	0	0	0	0	1.155225	0.1605474	1	160	0	1700
518566	-84	0	13	-1.61431	0.04161054	-10.69247	0	11.23	4003	0	0	0	0	1.155225	0.1604671	1	160	0	1700
518748	-86	-17	10	-1.615036	0.04371462	-10.72444	0	11.23	4002	0	0	0	0	1.155225	0.1531257	1	160	0	1700
518801	-79	0	8	-1.613559	0.04578483	-10.72976	0	11.23	4004	0	0	0	0	1.155225	0.1492631	1	160	0	1700
518976	-78	2	6	-1.61127	0.05099091	-10.75501	0	11.23	4003	0	0	0	0	1.155225	0.1476505	1	160	0	1700
519074	-86	7	10	-1.611295	0.05057261	-10.77408	0	11.23	4004	0	0	0	0	1.155225	0.1463467	1	160	0	1700
519213	-89	6	13	-1.61651	0.0468168	-10.79603	0	11.23	4003	0	0	0	0	1.155225	0.154287	1	160	0	1700
519315	-89	-8	16	-1.618695	0.04372416	-10.81217	0	11.23	4004	0	0	0	0	1.155225	0.1764417	1	160	0	1700
519405	-75	4	16	-1.608891	0.04203591	-10.82996	0	11.23	4003	0	0	0	0	1.155225	0.1861183	1	160	0	1700
519555	-94	9	12	-1.606283	0.03403512	-10.85545	0	11.23	4003	0	0	0	0	1.155225	0.2031537	1	160	0	1700
519601	-87	1	12	-1.60461	0.03525213	-10.86126	0	11.23	4002	0	0	0	0	1.155225	0.2015972	1	160	0	1700
519671	-83	4	15	-1.604273	0.03571513	-10.87208	0	11.23	4002	0	0	0	0	1.155225	0.1994122	1	160	0	1700
519768	-91	-1	5	-1.600238	0.03564281	-10.88938	0	11.23	4004	0	0	0	0	1.155225	0.1886269	1	160	0	1700
519869	-86	9	7	-1.595333	0.04023953	-10.9027	0	11.23	4002	0	0	0	0	1.155225	0.1792401	1	160	0	1700
519992	-85	2	3	-1.584717	0.0336301	-10.92288	0	11.23	4003	0	0	0	0	1.155225	0.1661473	1	160	0	1700
520080	-90	11	7	-1.586066	0.03263537	-10.93688	0	11.23	4004	0	0	0	0	1.155225	0.1566726	1	160	0	1700
520157	-81	4	10	-1.587494	0.03362267	-10.94856	0	11.23	4003	0	0	0	0	1.155225	0.1530325	1	160	0	1700
520299	-90	0	4	-1.585551	0.03417072	-10.96952	0	11.23	4002	0	0	0	0	1.155225	0.1462712	1	160	0	1700
520368	-80	3	12	-1.583112	0.0340586	-10.97973	0	11.23	4003	0	0	0	0	1.155225	0.1437881	1	160	0	1700
520468	-82	7	11	-1.581048	0.03320726	-10.99006	0	11.23	4004	0	0	0	0	1.155225	0.1453749	1	160	0	1700
520589	-90	0	8	-1.572678	0.03633193	-11.01373	0	11.23	4003	0	0	0	0	1.155225	0.1376149	1	160	0	1700
520704	-88	3	9	-1.572923	0.04173694	-11.03457	0	11.23	4002	0	0	0	0	1.155225	0.133496	1	160	0	1700
520784	-83	1	14	-1.5662	0.04323587	-11.04521	0	11.23	4002	0	0	0	0	1.155225	0.134518	1	160	0	1700
520852	-90	8	6	-1.571459	0.03861385	-11.05297	0	11.23	4003	0	0	0	0	1.155225	0.132489	1	160	0	1700
520949	-74	11	16	-1.570518	0.04045849	-11.06844	0	11.23	4003	0	0	0	0	1.155225	0.1254779	1	160	0	1700
521053	-85	7	4	-1.563711	0.03185852	-11.08941	0	11.23	4004	0	0	0	0	1.155225	0.1172963	1	160	0	1700
521233	-84	1	13	-1.563447	0.02933012	-11.11411	0	11.23	4004	0	0	0	0	1.155225	0.1031975	1	160	0	1700
521298	-88	3	8	-1.554628	0.03551592	-11.12438	0	11.23	4004	0	0	0	0	1.155225	0.09726196	1	160	0	1700
521348	-84	4	2	-1.551289	0.03231925	-11.12994	0	11.23	4003	0	0	0	0	1.155225	0.09442512	1	160	0	1700
521450	-93	5	3	-1.550109	0.03235988	-11.14388	0	11.23	4002	0	0	0	0	1.155225	0.1030364	1	160	0	1700
521555	-81	4	8	-1.552016	0.03233604	-11.16583	0	11.23	4003	0	0	0	0	1.155225	0.1096781	1	160	0	1700
521676	-80	-5	9	-1.551791	0.02681142	-11.18099	0	11.23	4003	0	0	0	0	1.155225	0.1057967	1	160	0	1700
521755	-84	0	11	-1.565086	0.02205438	-11.1964	0	11.23	4004	0	0	0	0	1.155225	0.1030938	1	160	0	1700
521897	-83	1	12	-1.561883	0.02528626	-11.21376	0	11.23	4004	0	0	0	0	1.155225	0.1063304	1	160	0	1700
521951	-85	-5	8	-1.562773	0.02748679	-11.21731	0	11.23	4003	0	0	0	0	1.155225	0.1055183	1	160	0	1700
522061	-77	1	5	-1.549559	0.02016041	-11.23687	0	11.23	4002	0	0	0	0	1.155225	0.1098871	1	160	0	1700
522183	-84	7	14	-1.543794	0.01950514	-11.25258	0	11.23	4004	0	0	0	0	1.155225	0.1054384	1	160	0	1700
522262	-83	-1	11	-1.542383	0.02472446	-11.26193	0	11.23	4003	0	0	0	0	1.155225	0.1026303	1	160	0	1700
522379	-86	1	6	-1.534399	0.0220376	-11.28681	0	11.23	4002	0	0	0	0	1.155225	0.1036418	1	160	0	1700
522455	-84	6	9	-1.533474	0.0251285	-11.29586	0	11.29	4002	0	0	0	0	1.155225	0.1075791	1	160	0	1700
522590	-78	6	9	-1.525871	0.02103272	-11.31524	0	11.29	4004	0	0	0	0	1.155225	0.1027398	1	160	0	1700
522703	-81	3	3	-1.514839	0.02256928	-11.32991	0	11.29	4004	0	0	0	0	1.155225	0.09081048	1	160	0	1700
522755	-86	1	6	-1.515749	0.02374724	-11.33774	0	11.29	4003	0	0	0	0	1.155225	0.08351233	1	160	0	1700
522923	-83	6	4	-1.512434	0.02943605	-11.35962	0	11.29	4003	0	0	0	0	1.155225	0.07050418	1	160	0	1700
523015	-79	2	10	-1.518364	0.03264781	-11.37552	0	11.29	4003	0	0	0	0	1.155225	0.06506108	1	160	0	1700
523133	-72	0	9	-1.51639	0.03013358	-11.38591	0	11.29	4003	0	0	0	0	1.155225	0.06439013	1	160	0	1700
523179	-80	3	10	-1.513708	0.02699023	-11.39153	0	11.29	4002	0	0	0	0	1.155225	0.06824288	1	160	0	1700
523349	-71	6	9	-1.510671	0.0275257	-11.41574	0	11.34	4002	0	0	0	0	1.155225	0.07399891	1	160	0	1700
523430	-72	8	10	-1.51025	0.02797583	-11.42992	0	11.34	4003	0	0	0	0	1.155225	0.07400884	1	160	0	1700
523564	-79	4	8	-1.502883	0.03067981	-11.44802	0	11.34	4004	0	0	0	0	1.155225	0.06964328	1	160	0	1700
523701	-72	1	11	-1.492351	0.03269129	-11.46337	0	11.34	4004	0	0	0	0	1.155225	0.06915583	1	160	0	1700
523892	-80	5	5	-1.50485	0.02454903	-11.48709	0	11.34	4004	0	0	0	0	1.155225	0.08616493	1	160	0	1700
524006	-83	2	7	-1.506189	0.02850701	-11.50299	0	11.34	4003	0	0	0	0	1.155225	0.1125832	1	160	0	1700
524146	-76	3	6	-1.501768	0.02911143	-11.52341	0	11.34	4003	0	0	0	0	1.155225	0.1302786	1	160	0	1700
524211	-75	3	7	-1.502029	0.02557771	-11.52811	0	11.34	4004	0	0	0	0	1.155225	0.1353813	1	160	0	1700
524348	-78	1	13	-1.497715	0.02940685	-11.55055	0	11.29	4002	0	0	0	0	1.155225	0.1333672	1	160	0	1700
524446	-75	7	6	-1.491834	0.02208827	-11.56308	0	11.29	4003	0	0	0	0	1.155225	0.1304056	1	160	0	1700
524585	-75	8	10	-1.485775	0.02026597	-11.58008	0	11.29	4002	0	0	0	0	1.155225	0.131405	1	160	0	1700
524675	-69	15	11	-1.479356	0.01518668	-11.59212	0	11.29	4002	0	0	0	0	1.155225	0.1276443	1	160	0	1700
524734	-78	1	9	-1.474672	0.01189913	-11.60215	0	11.29	4002	0	0	0	0	1.155225	0.1312849	1	160	0	1700
524867	-78	-1	7	-1.476603	0.007228366	-11.61468	0	11.29	4003	0	0	0	0	1.155225	0.1235454	1	160	0	1700
524970	-73	6	11	-1.479517	0.009676994	-11.62722	0	11.29	4003	0	0	0	0	1.155225	0.1069807	1	160	0	1700
525052	-82	0	6	-1.490359	0.00739874	-11.63914	0	11.29	4003	0	0	0	0	1.155225	0.1023099	1	160	0	1700
525138	-80	0	8	-1.484835	0.0116796	-11.64862	0	11.29	4004	0	0	0	0	1.155225	0.09776225	1	160	0	1700
525233	-75	5	5	-1.490372	0.01346301	-11.66219	0	11.23	4003	0	0	0	0	1.155225	0.09532441	1	160	0	1700
525346	-81	-2	5	-1.480187	0.009169461	-11.67417	0	11.23	4002	0	0	0	0	1.155225	0.08711143	1	160	0	1700
525440	-78	-2	11	-1.481823	0.006175593	-11.68438	0	11.23	4004	0	0	0	0	1.155225	0.07638887	1	160	0	1700
525550	-76	2	10	-1.479799	0.009522719	-11.69771	0	11.23	4003	0	0	0	0	1.155225	0.07240272	1	160	0	1700
525655	-66	0	10	-1.464617	0.01005627	-11.71715	0	11.23	4002	0	0	0	0	1.155225	0.06618202	1	160	0	1700
525802	-75	3	6	-1.466442	0.01481252	-11.74026	0	11.23	4003	0	0	0	0	1.155225	0.05909946	1	160	0	1700
525878	-77	0	10	-1.467983	0.0164815	-11.75022	0	11.23	4004	0	0	0	0	1.155225	0.05918017	1	160	0	1700
525950	-73	4	10	-1.471339	0.01614436	-11.76013	0	11.23	4003	0	0	0	0	1.155225	0.05674044	1	160	0	1700
526088	-74	1	8	-1.477662	0.02247704	-11.77993	0	11.34	4002	0	0	0	0	1.155225	0.05253085	1	160	0	1700
526157	-68	1	10	-1.474243	0.02471113	-11.79039	0	11.34	4003	0	0	0	0	1.155225	0.06348573	1	160	0	1700
526275	-79	16	14	-1.478583	0.01701745	-11.80812	0	11.34	4002	0	0	0	0	1.155225	0.06178079	1	160	0	1700
526364	-84	-2	5	-1.468839	0.01710645	-11.81851	0	11.34	4002	0	0	0	0	1.155225	0.05547053	1	160	0	1700
526531	-72	6	8	-1.467863	0.01747468	-11.83991	0	11.34	4002	0	0	0	0	1.155225	0.04973365	1	160	0	1700
526583	-73	6	6	-1.462542	0.01870086	-11.84755	0	11.34	4004	0	0	0	0	1.155225	0.04475349	1	160	0	1700
526715	-63	2	10	-1.448079	0.01638741	-11.86045	0	11.34	4002	0	0	0	0	1.155225	0.02739453	1	160	0	1700
526814	-74	3	8	-1.446656	0.01639616	-11.87983	0	11.34	4003	0	0	0	0	1.155225	0.01647545	1	160	0	1700
526871	-70	7	7	-1.452222	0.0163262	-11.88796	0	11.34	4003	0	0	0	0	1.155225	0.006229689	1	160	0	1700
527015	-74	1	4	-1.455515	0.01055109	-11.9016	0	11.29	4003	0	0	0	0	1.155225	-0.00910107	1	160	0	1700
527071	-68	4	5	-1.449811	0.01246332	-11.90924	0	11.29	4002	0	0	0	0	1.155225	-0.01651803	1	160	0	1700
527162	-75	-3	13	-1.445219	0.01850652	-11.92342	0	11.29	4002	0	0	0	0	1.155225	-0.02192212	1	160	0	1700
527295	-79	1	16	-1.437354	0.02155233	-11.94292	0	11.29	4002	0	0	0	0	1.155225	-0.02230641	1	160	0	1700
527369	-69	6	6	-1.440166	0.02052936	-11.9527	0	11.29	4004	0	0	0	0	1.155225	-0.02379107	1	160	0	1700
527486	-73	7	7	-1.446226	0.017815	-11.96671	0	11.29	4004	0	0	0	0	1.155225	-0.03051234	1	160	0	1700
527575	-68	5	4	-1.442766	0.01388051	-11.9812	0	11.29	4003	0	0	0	0	1.155225	-0.02961746	1	160	0	1700
527686	-72	9	11	-1.44747	0.01475191	-11.99477	0	11.29	4004	0	0	0	0	1.155225	-0.04012566	1	160	0	1700
527779	-68	2	9	-1.442665	0.01457409	-12.01397	0	11.29	4004	0	0	0	0	1.155225	-0.04478702	1	160	0	1700
527912	-70	-2	11	-1.445575	0.01176628	-12.03328	0	11.29	4003	0	0	0	0	1.155225	-0.0460039	1	160	0	1700
527973	-76	5	7	-1.441711	0.008290275	-12.04392	0	11.29	4002	0	0	0	0	1.155225	-0.04179502	1	160	0	1700
528108	-76	3	11	-1.437647	0.005381769	-12.05848	0	11.29	4003	0	0	0	0	1.155225	-0.04025152	1	160	0	1700
528181	-77	3	10	-1.436441	0.007196701	-12.07315	0	11.29	4003	0	0	0	0	1.155225	-0.03558081	1	160	0	1700
528280	-65	2	12	-1.428685	0.01182231	-12.08458	0	11.29	4003	0	0	0	0	1.155225	-0.03059865	1	160	0	1700
528426	-72	1	14	-1.425181	0.01457129	-12.10751	0	11.29	4003	0	0	0	0	1.155225	-0.009553946	1	160	0	1700
528481	-66	-5	1	-1.421054	0.01471111	-12.11173	0	11.29	4003	0	0	0	0	1.155225	-0.003680896	1	160	0	1700
528576	-73	5	9	-1.402419	0.01080612	-12.12664	0	11.29	4003	0	0	0	0	1.155225	-0.00368065	1	160	0	1700
528681	-62	0	4	-1.401044	0.00745743	-12.14131	0	11.29	4004	0	0	0	0	1.155225	-0.00433922	1	160	0	1700
528809	-66	11	8	-1.403288	0.003988966	-12.16032	0	11.29	4003	0	0	0	0	1.155225	-0.005004882	1	160	0	1700
528939	-72	0	6	-1.398776	-0.001011019	-12.18007	0	11.29	4002	0	0	0	0	1.155225	-0.01713526	1	160	0	1700
528993	-78	3	10	-1.400589	0.005060691	-12.18882	0	11.29	4002	0	0	0	0	1.155225	-0.02311711	1	160	0	1700
529092	-69	3	7	-1.395017	0.002199281	-12.19933	0	11.29	4002	0	0	0	0	1.155225	-0.02169258	1	160	0	1700
529272	-70	7	7	-1.383772	0.0001517071	-12.22305	0	11.29	4004	0	0	0	0	1.155225	-0.01992502	1	160	0	1700
529422	-75	6	6	-1.376355	0.01099364	-12.24934	0	11.29	4003	0	0	0	0	1.155225	-0.007557558	1	160	0	1700
529532	-65	-2	6	-1.376747	0.00412858	-12.26078	0	11.29	4003	0	0	0	0	1.155225	0.004011407	1	160	0	1700
529596	-73	2	9	-1.375961	0.002994037	-12.26897	0	11.29	4003	0	0	0	0	1.155225	-0.0007845164	1	160	0	1700
529740	-65	6	7	-1.36128	0.009424555	-12.28835	0	11.29	4002	0	0	0	0	1.155225	-0.007532391	1	160	0	1700
529875	-62	-2	12	-1.357383	0.01072616	-12.30082	0	11.23	4003	0	0	0	0	1.155225	0.002936735	1	160	0	1700
529937	-75	0	2	-1.355519	0.007196235	-12.31262	0	11.23	4004	0	0	0	0	1.155225	0.005668266	1	160	0	1700
529989	-71	4	7	-1.354981	0.00770411	-12.31757	0	11.23	4003	0	0	0	0	1.155225	0.01274241	1	160	0	1700
530121	-64	6	12	-1.353565	0.005899113	-12.33647	0	11.23	4003	0	0	0	0	1.155225	0.02092593	1	160	0	1700
530209	-67	-1	6	-1.350534	0.009161334	-12.34662	0	11.23	4002	0	0	0	0	1.155225	0.03254126	1	160	0	1700
530285	-59	8	9	-1.351303	0.01032797	-12.35695	0	11.23	4002	0	0	0	0	1.155225	0.03932749	1	160	0	1700
530426	-59	-1	9	-1.349749	0.007739192	-12.37297	0	11.23	4004	0	0	0	0	1.155225	0.0412267	1	160	0	1700
530490	-67	2	6	-1.346637	0.003136754	-12.38104	0	11.23	4004	0	0	0	0	1.155225	0.04039413	1	160	0	1700
530606	-70	-1	7	-1.349123	0.005785202	-12.39699	0	11.23	4003	0	0	0	0	1.155225	0.03408553	1	160	0	1700
530701	-57	8	10	-1.347376	0.004258793	-12.4091	0	11.29	4002	0	0	0	0	1.155225	0.02420417	1	160	0	1700
530822	-61	4	7	-1.345718	0.006777413	-12.42273	0	11.29	4003	0	0	0	0	1.155225	0.01764245	1	160	0	1700
530891	-72	0	8	-1.342646	0.008744616	-12.4327	0	11.29	4002	0	0	0	0	1.155225	0.01645472	1	160	0	1700
530996	-70	0	7	-1.340225	0.008311913	-12.44658	0	11.29	4004	0	0	0	0	1.155225	0.01255695	1	160	0	1700
531101	-58	3	8	-1.335723	0.007681124	-12.45764	0	11.29	4003	0	0	0	0	1.155225	0.006845267	1	160	0	1700
531297	-62	9	3	-1.320178	0.003685642	-12.47904	0	11.29	4003	0	0	0	0	1.155225	-0.007473373	1	160	0	1700
531329	-78	5	7	-1.319896	0.0005260569	-12.48809	0	11.29	4004	0	0	0	0	1.155225	-0.009135704	1	160	0	1700
531392	-76	2	9	-1.329091	-0.004565589	-12.49549	0	11.29	4003	0	0	0	0	1.155225	-0.01061121	1	160	0	1700
531492	-70	8	5	-1.327835	-0.005008546	-12.50319	0	11.29	4003	0	0	0	0	1.155225	-0.009233207	1	160	0	1700
531633	-64	5	9	-1.322416	-0.003049592	-12.52666	0	11.29	4003	0	0	0	0	1.155225	-0.008537616	1	160	0	1700
531706	-63	6	5	-1.314016	-0.006460793	-12.53388	0	11.29	4004	0	0	0	0	1.155225	-0.007851509	1	160	0	1700
531789	-63	4	17	-1.308507	-0.005907559	-12.54238	0	11.29	4004	0	0	0	0	1.155225	-0.007964836	1	160	0	1700
531922	-58	2	10	-1.300686	-0.001335962	-12.56396	0	11.29	4003	0	0	0	0	1.155225	-0.003330386	1	160	0	1700
532013	-62	6	6	-1.301192	-0.01016849	-12.57081	0	11.29	4002	0	0	0	0	1.155225	-0.003085896	1	160	0	1700
532182	-64	-1	9	-1.30355	-0.0002334886	-12.59153	0	11.29	4004	0	0	0	0	1.155225	0.00539142	1	160	0	1700
532232	-60	1	4	-1.304684	0.0006313784	-12.59966	0	11.29	4002	0	0	0	0	1.155225	0.006029646	1	160	0	1700
532337	-56	2	8	-1.303549	0.003171773	-12.61091	0	11.29	4003	0	0	0	0	1.155225	0.008350304	1	160	0	1700
532439	-56	10	8	-1.311613	0.004013225	-12.62234	0	11.29	4004	0	0	0	0	1.155225	0.01613091	1	160	0	1700
532488	-67	6	9	-1.305552	0.007008598	-12.63677	0	11.29	4003	0	0	0	0	1.155225	0.01721539	1	160	0	1700
532574	-60	-2	15	-1.304752	0.004512375	-12.64319	0	11.29	4004	0	0	0	0	1.155225	0.01797385	1	160	0	1700
532680	-63	0	9	-1.304847	0.004671089	-12.66618	0	11.29	4003	0	0	0	0	1.155225	0.02367469	1	160	0	1700
532791	-58	0	4	-1.300622	0.003851221	-12.67866	0	11.29	4004	0	0	0	0	1.155225	0.02859266	1	160	0	1700
532876	-64	9	5	-1.301844	0.005831423	-12.68636	0	11.29	4002	0	0	0	0	1.155225	0.03051536	1	160	0	1700
532987	-61	6	5	-1.302985	0.004419747	-12.70091	0	11.29	4003	0	0	0	0	1.155225	0.03539601	1	160	0	1700
533138	-71	8	4	-1.301104	-0.004989669	-12.72035	0	11.29	4003	0	0	0	0	1.155225	0.03046334	1	160	0	1700
533241	-63	11	13	-1.3007	-0.007258611	-12.73344	0	11.29	4002	0	0	0	0	1.155225	0.02575656	1	160	0	1700
533335	-59	5	7	-1.300052	-0.007462829	-12.74548	0	11.29	4004	0	0	0	0	1.155225	0.02577148	1	160	0	1700
533466	-77	3	7	-1.299473	-0.005036018	-12.76279	0	11.29	4002	0	0	0	0	1.155225	0.0283489	1	160	0	1700
533546	-59	4	5	-1.308635	-0.007937737	-12.77086	0	11.29	4002	0	0	0	0	1.155225	0.02808376	1	160	0	1700
533643	-59	-2	10	-1.310913	-0.006122155	-12.78351	0	11.29	4003	0	0	0	0	1.155225	0.03641891	1	160	0	1700
533752	-65	-17	7	-1.310008	-0.006230517	-12.7972	0	11.29	4004	0	0	0	0	1.155225	0.03358079	1	160	0	1700
533835	-63	8	13	-1.310173	-0.00795441	-12.81059	0	11.29	4003	0	0	0	0	1.155225	0.03933501	1	160	0	1700
533897	-70	0	7	-1.312143	-0.006496144	-12.81451	0	11.29	4003	0	0	0	0	1.155225	0.04167711	1	160	0	1700
534004	-56	-3	9	-1.313927	-0.01014788	-12.82985	0	11.29	4003	0	0	0	0	1.155225	0.0373383	1	160	0	1700
534090	-60	3	11	-1.313705	-0.009690428	-12.83835	0	11.29	4003	0	0	0	0	1.155225	0.03741997	1	160	0	1700
534195	-58	3	11	-1.313475	-0.006192487	-12.84838	0	11.29	4002	0	0	0	0	1.155225	0.03862877	1	160	0	1700
534307	-58	10	5	-1.30316	-0.01183434	-12.86434	0	11.29	4004	0	0	0	0	1.155225	0.0366303	1	160	0	1700
534382	-55	2	9	-1.301302	-0.0131479	-12.87308	0	11.34	4003	0	0	0	0	1.155225	0.03706982	1	160	0	1700
534521	-62	4	2	-1.292627	-0.01702648	-12.88781	0	11.34	4003	0	0	0	0	1.155225	0.03630353	1	160	0	1700
534584	-51	-1	9	-1.287832	-0.01686983	-12.89576	0	11.34	4002	0	0	0	0	1.155225	0.03241695	1	160	0	1700
534704	-58	3	8	-1.285869	-0.01843631	-12.90848	0	11.34	4002	0	0	0	0	1.155225	0.03099279	1	160	0	1700
534846	-58	6	6	-1.290382	-0.0175713	-12.92486	0	11.34	4003	0	0	0	0	1.155225	0.02651163	1	160	0	1700
534944	-55	6	14	-1.287568	-0.01487512	-12.93715	0	11.34	4004	0	0	0	0	1.155225	0.03004302	1	160	0	1700
535007	-56	3	1	-1.282922	-0.0142125	-12.94382	0	11.34	4003	0	0	0	0	1.155225	0.03710591	1	160	0	1700
535088	-50	-1	4	-1.277113	-0.009852518	-12.95549	0	11.34	4002	0	0	0	0	1.155225	0.04271995	1	160	0	1700
535220	-55	-2	3	-1.272953	0.001012556	-12.96674	0	11.34	4003	0	0	0	0	1.155225	0.06417165	1	160	0	1700
535350	-64	0	13	-1.26556	0.004842794	-12.98466	0	11.29	4003	0	0	0	0	1.155225	0.07034368	1	160	0	1700
535395	-55	2	7	-1.261682	0.004355928	-12.98906	0	11.29	4002	0	0	0	0	1.155225	0.07023009	1	160	0	1700
535540	-61	-1	11	-1.259066	-0.0007335531	-13.00918	0	11.29	4004	0	0	0	0	1.155225	0.06138567	1	160	0	1700
535596	-60	2	3	-1.255258	-0.001456231	-13.01309	0	11.29	4004	0	0	0	0	1.155225	0.05785604	1	160	0	1700
535862	-58	5	7	-1.251962	-0.0001290969	-13.04017	0	11.29	4003	0	0	0	0	1.155225	0.04279811	1	160	0	1700
536035	-49	4	10	-1.239352	0.003754477	-13.06035	0	11.29	4004	0	0	0	0	1.155225	0.03128403	1	160	0	1700
536140	-57	7	10	-1.244671	9.858398E-05	-13.07306	0	11.29	4002	0	0	0	0	1.155225	0.02146858	1	160	0	1700
536221	-64	0	2	-1.251124	-0.004978081	-13.08608	0	11.34	4003	0	0	0	0	1.155225	0.0257365	1	160	0	1700
536332	-54	-1	9	-1.245269	-0.0002366135	-13.09758	0	11.34	4003	0	0	0	0	1.155225	0.03036336	1	160	0	1700
536437	-54	2	6	-1.245755	-0.002208364	-13.10822	0	11.34	4002	0	0	0	0	1.155225	0.02798757	1	160	0	1700
536532	-58	1	11	-1.238979	-0.00677558	-13.11818	0	11.34	4004	0	0	0	0	1.155225	0.01467025	1	160	0	1700
536755	-54	6	4	-1.239966	-0.002939152	-13.14404	0	11.34	4003	0	0	0	0	1.155225	0.01072084	1	160	0	1700
536867	-51	0	9	-1.229615	0.002028207	-13.15737	0	11.34	4004	0	0	0	0	1.155225	-0.003340211	1	160	0	1700
537013	-61	1	7	-1.220148	0.008480489	-13.17112	0	11.34	4003	0	0	0	0	1.155225	-0.0106569	1	160	0	1700
537036	-52	4	5	-1.219947	0.006695025	-13.17461	0	11.34	4003	0	0	0	0	1.155225	-0.01063312	1	160	0	1700
537244	-58	0	11	-1.234724	0.002286034	-13.19527	0	11.29	4003	0	0	0	0	1.155225	-0.01200212	1	160	0	1700
537391	-56	0	5	-1.253336	-0.004955993	-13.21266	0	11.29	4003	0	0	0	0	1.155225	0.005981681	1	170	0	1800
537542	-48	2	8	-1.241984	-0.004722036	-13.22861	0	11.29	4002	0	0	0	0	1.155225	0.03272339	1	170	0	1800
537681	-53	2	9	-1.237869	-0.003538795	-13.25032	0	11.29	4004	0	0	0	0	1.155225	0.06610843	1	170	0	1800
537873	-49	16	8	-1.226639	-0.009735698	-13.27062	0	11.29	4003	0	0	0	0	1.155225	0.07619637	1	170	0	1800
537985	-57	5	6	-1.219688	-0.007517691	-13.28144	0	11.29	4004	0	0	0	0	1.155225	0.07864702	1	170	0	1800
538174	-53	7	6	-1.210204	-0.01714765	-13.30571	0	11.29	4003	0	0	0	0	1.155225	0.07786132	1	170	0	1800
538339	-67	3	5	-1.208044	-0.01682116	-13.32515	0	11.29	4004	0	0	0	0	1.155225	0.07376699	1	170	0	1800
538490	-64	6	7	-1.199693	-0.01537281	-13.34502	0	11.29	4003	0	0	0	0	1.155225	0.06203209	1	170	0	1800
538628	-60	-1	6	-1.204085	-0.01259174	-13.3611	0	11.29	4003	0	0	0	0	1.155225	0.06113865	1	170	0	1800
538786	-69	5	7	-1.207209	-0.01803708	-13.37663	0	11.29	4003	0	0	0	0	1.155225	0.06776357	1	170	0	1800
538909	-49	7	5	-1.200686	-0.02323707	-13.3902	0	11.29	4004	0	0	0	0	1.155225	0.07228928	1	170	0	1800
538993	-60	4	7	-1.197813	-0.0234263	-13.40439	0	11.23	4004	0	0	0	0	1.155225	0.08087645	1	170	0	1800
539075	-50	2	9	-1.192994	-0.02336587	-13.41508	0	11.23	4002	0	0	0	0	1.155225	0.08695688	1	170	0	1800
539187	-61	-2	10	-1.192016	-0.02638707	-13.42725	0	11.23	4004	0	0	0	0	1.155225	0.08651743	1	170	0	1800
539261	-49	7	7	-1.195696	-0.02507274	-13.43489	0	11.23	4002	0	0	0	0	1.155225	0.08709414	1	170	0	1800
539337	-57	1	13	-1.195153	-0.02336759	-13.44792	0	11.23	4003	0	0	0	0	1.155225	0.08350757	1	170	0	1800
539469	-58	12	7	-1.19349	-0.01838757	-13.46748	0	11.23	4004	0	0	0	0	1.155225	0.05398113	1	170	0	1800
539519	-50	-1	9	-1.188777	-0.01866502	-13.47592	0	11.23	4002	0	0	0	0	1.155225	0.03449179	1	170	0	1800
539581	-58	5	6	-1.18688	-0.01699487	-13.486	0	11.23	4003	0	0	0	0	1.155225	0.01247389	1	170	0	1800
539803	-58	-2	15	-1.174695	-0.02174343	-13.50862	0	11.23	4004	0	0	0	0	1.155225	-0.01504985	1	170	0	1800
539980	-50	-1	7	-1.176253	-0.02001418	-13.52769	0	11.34	4004	0	0	0	0	1.155225	-0.02652624	1	170	0	1800
540051	-53	7	10	-1.178391	-0.02651197	-13.53784	0	11.34	4003	0	0	0	0	1.155225	-0.02824218	1	170	0	1800
540134	-52	8	6	-1.178711	-0.02891468	-13.5439	0	11.34	4003	0	0	0	0	1.155225	-0.03052343	1	170	0	1800
540329	-57	4	8	-1.174248	-0.02046227	-13.5656	0	11.34	4004	0	0	0	0	1.155225	-0.04740103	1	170	0	1800
540473	-54	-4	4	-1.173444	-0.01721178	-13.57911	0	11.34	4004	0	0	0	0	1.155225	-0.05580541	1	170	0	1800
540641	-46	4	3	-1.16783	-0.01697225	-13.60032	0	11.34	4004	0	0	0	0	1.155225	-0.05324627	1	170	0	1800
540736	-52	4	6	-1.169072	-0.01617063	-13.60857	0	11.34	4004	0	0	0	0	1.155225	-0.05439115	1	170	0	1800
540871	-50	-1	8	-1.166743	-0.01146429	-13.62288	0	11.29	4003	0	0	0	0	1.155225	-0.05266859	1	170	0	1800
540961	-39	2	10	-1.157436	-0.009234664	-13.63229	0	11.29	4004	0	0	0	0	1.155225	-0.05204318	1	170	0	1800
541082	-47	0	4	-1.156152	-0.00381714	-13.64543	0	11.29	4003	0	0	0	0	1.155225	-0.05118128	1	170	0	1800
541269	-45	4	6	-1.146139	-0.0001678688	-13.6571	0	11.29	4003	0	0	0	0	1.155225	-0.05848172	1	170	0	1800
541307	-47	-1	6	-1.147592	-0.0008979838	-13.66065	0	11.29	4002	0	0	0	0	1.155225	-0.05603148	1	170	0	1800
541364	-51	7	8	-1.144752	-0.005213849	-13.66914	0	11.29	4004	0	0	0	0	1.155225	-0.05519823	3	170	0	1800
541516	-57	0	2	-1.135677	-0.0119131	-13.68846	0	11.29	4004	0	0	0	0	1.155225	-0.05331228	3	170	0	1800
541589	-59	5	1	-1.132126	-0.01109807	-13.69397	0	11.29	4003	0	0	0	0	1.155225	-0.05142025	3	170	0	1800
541719	-48	-3	5	-1.127158	-0.01061309	-13.70662	0	11.29	4004	0	0	0	0	1.155225	-0.05147877	3	170	0	1800
541815	-47	2	-2	-1.12677	-0.01544914	-13.71395	0	11.29	4003	0	0	0	0	1.155225	-0.0460399	3	170	0	1800
541922	-47	-1	2	-1.138188	-0.01843974	-13.72649	0	11.29	4003	0	0	0	0	1.155225	-0.04180834	3	170	0	1800
541973	-52	-1	6	-1.135537	-0.01871663	-13.72917	0	11.29	4003	0	0	0	0	1.155225	-0.0420907	3	170	0	1800
542112	-45	0	4	-1.137198	-0.01759378	-13.74281	0	11.29	4003	0	0	0	0	1.155225	-0.038655	3	170	0	1800
542181	-58	4	9	-1.14185	-0.02562154	-13.74746	0	11.29	4003	4	0	0	0	1.155225	-0.03868457	3	170	0	1800
542293	-55	2	0	-1.144343	-0.01816084	-13.75632	0	11.29	4004	5	1	0	0	1.155225	-0.05368077	3	170	0	1800
542378	-12	60	-21	-1.140933	-0.02149184	-13.77142	0	11.29	4003	11	-2	0	0	1.155225	-0.05765276	3	170	0	1800
542451	-36	25	61	-1.119039	-0.03536315	-13.78536	0	11.29	4003	7	-1	0	0	1.155225	-0.05931484	3	170	0	1800
542594	-102	-1	3	-1.06465	-0.08558838	-13.79342	0	11	4004	5	3	2	0	1.155225	-0.07610624	3	170	0	1800
542655	12	60	-12	-1.132178	0.03173766	-13.80186	0	11	4003	8	2	1	0	1.155225	-0.08460677	3	170	0	1800
542778	-109	-37	11	-1.12087	0.000776103	-13.80541	0	11	4003	0	6	1	0	1.155225	-0.08838416	3	170	0	1800
542872	71	122	20	-1.105513	-0.01091653	-13.8243	0	11	4004	0	5	2	0	1.155225	-0.09058705	3	170	0	1800
542966	-38	43	-61	-1.117322	-0.01219967	-13.82332	0	11	4004	0	0	0	0	1.155225	-0.09618852	3	170	0	1800
543118	-65	-56	-2	-1.116138	0.0127266	-13.8493	0	11	4002	0	0	0	0	1.155225	-0.0946207	3	170	0	1800
543231	-24	-6	-21	-1.119994	0.009400412	-13.84966	0	11	4004	0	0	0	0	1.155225	-0.09140295	3	170	0	1800
543304	-44	-16	24	-1.117507	0.009365685	-13.85829	0	11	4003	0	0	0	0	1.155225	-0.08852032	3	170	0	1800
543382	-53	-6	61	-1.126968	0.004682512	-13.86636	0	11	4003	0	0	0	0	1.155225	-0.08568174	3	170	0	1800
543528	-36	3	14	-1.121166	0.005526305	-13.88097	0	11.23	4003	0	0	0	0	1.155225	-0.08712627	3	170	0	1800
543578	-45	0	7	-1.123877	0.0005354518	-13.88678	0	11.23	4002	0	0	0	0	1.155225	-0.08776385	3	170	0	1800
543685	-45	-1	19	-1.13703	-0.00305596	-13.89436	0	11.23	4003	0	0	0	0	1.155225	-0.08775099	3	170	0	1800
543795	-33	-2	-31	-1.145941	0.0008808802	-13.90695	0	11.23	4002	0	0	0	0	1.155225	-0.09179547	3	170	0	1800
543890	-64	-37	-37	-1.143801	-0.007877669	-13.91759	0	11.23	4002	6	0	0	0	1.155225	-0.09241402	3	170	0	1800
543999	-28	-5	42	-1.153296	0.006681048	-13.9448	0	11.23	4002	5	-3	1	0	1.155225	-0.08662459	3	170	0	1800
544087	-100	-19	36	-1.153132	0.01877988	-13.95152	0	11.23	4003	0	4	1	0	1.155225	-0.0806132	3	170	0	1800
544182	-54	-4	-15	-1.1458	0.02941941	-13.96375	0	11.23	4004	1	-2	2	0	1.155225	-0.06368162	3	170	0	1800
544273	-127	-42	-93	-1.180879	0.06428377	-13.96649	0	11.23	4003	14	-2	3	0	1.155225	-0.03943663	3	170	0	1800
544397	-56	-52	0	-1.199843	0.06655796	-13.98832	0	11	4003	-3	0	2	0	1.155225	-0.02515695	3	170	0	1800
544518	-95	28	-143	-1.167668	0.04525783	-14.00886	0	11	4002	-14	-10	2	0	1.155225	-0.002792939	3	170	0	1800
544623	-35	-52	12	-1.193247	0.04301996	-14.011	0	11	4004	2	-18	1	0	1.155225	0.005185746	3	170	0	1800
544697	-110	31	-144	-1.174851	0.06037414	-14.01351	0	11	4003	22	11	1	0	1.155225	0.01040498	3	170	0	1800
544787	39	74	-2	-1.212708	0.07112492	-14.04015	0	11	4004	13	-1	6	0	1.155225	0.03068186	3	170	0	1800
544898	-177	53	-88	-1.225765	0.06740791	-14.06698	0	11	4002	-15	14	4	0	1.155225	0.0478357	3	170	0	1800
544990	-54	60	-58	-1.233929	0.1376354	-14.11774	0	11	4002	-11	-46	1	0	1.155225	0.05061182	3	170	0	1800
545137	-364	-454	-547	-1.330769	0.3263137	-14.08911	0	11	4003	55	-71	-2	0	1.155225	0.0662555	3	170	0	1800
545191	636	-241	586	-1.097034	0.8033621	-13.92388	0	11	4004	9	-80	-5	0	1.155225	0.07528035	3	170	0	1800
545283	157	3644	848	-0.9774734	-3.871264	-14.55008	0	10.55	4002	111	105	11	0	1.155225	0.08784885	3	170	0	1800
545362	1354	1650	-592	-0.02066808	-7.361053	-14.38774	0	10.55	4003	-159	-78	9	0	1.155225	0.1040368	3	170	0	1800
545481	1986	3399	-245	1.804413	-10.63545	-13.42332	0	10.55	4004	-132	269	-21	0	1.155225	0.1380692	3	170	0	1800
545600	-1070	452	244	0.451177	-13.09225	-13.06445	0	10.55	4003	10	-184	-17	0	1.155225	0.1663274	3	170	0	1800
545696	-1892	-794	603	-1.723271	-11.55613	-13.76153	0	10.55	4003	6	-51	-7	0	1.155225	0.2125562	3	170	0	1800
545766	-2787	-649	-302	-6.993736	-8.747169	-14.34278	0	10.55	4002	-36	35	24	0	1.155225	0.2507207	3	170	0	1800
545868	-293	3251	625	-8.914523	-9.314591	-13.74876	0	10.55	4004	-95	-25	3	0	1.155225	0.2888877	3	170	0	1800
545992	913	4316	102	-8.769119	-14.61619	-12.7917	0	10.55	4002	-69	300	-35	0	1.155225	0.3457033	3	170	0	1800
546052	3417	1767	-133	-5.932564	-16.47039	-12.02748	0	10.55	4003	-85	97	-66	0	1.155225	0.3547511	3	170	0	1800
546191	-546	-3688	623	-2.984729	-9.433899	-11.89772	0	10.55	4004	99	-243	-44	0	1.155225	0.4167116	3	170	0	1800
546359	-70	-2853	-185	-4.796094	-1.933663	-12.44438	0	10.89	4004	42	65	-47	0	1.155225	0.5020925	3	170	0	1800
546489	607	-333	550	-2.569187	-2.323903	-13.80346	0	10.89	4003	-34	-74	7	0	1.155225	0.5874474	3	170	0	1800
546616	1558	-2478	-1252	-1.274353	-1.274036	-13.61314	0	10.89	4004	103	-215	-24	0	1.155225	0.6633847	3	170	0	1800
546719	1126	12	-693	2.751529	-3.803655	-13.3221	0	10.89	4003	12	-25	-7	0	1.155225	0.7069126	3	170	0	1800
