time(ms)	gyro_x(deg/s)	gyro_y(deg/s)	gyro_z(deg/s)	orientation_roll(deg)	orientation_pitch(deg)	orientation_yaw(deg)	throttle	battery(V)	loop_time(uS)	pid_output_roll	pid_output_pitch	pid_output_yaw	pid_output_throttle	ultrasonic_alt	baro_alt	flight_mode	p_gain_altitude	i_gain_altitude	d_gain_altitude	compass_heading	latitude	longitude
91777	3915	632	-245	1.739225	-7.842122	-0.469096	0	10.09	4004	27	-71	5	5	0.02	1.699181	8	10	0.03	2000	-16.65915	40.92391	-91.39362
91848	-3281	-3533	237	2.020308	-3.792952	-0.7505918	0	10.09	4003	27	-71	5	5	0.02	1.661161	8	10	0.03	2000	-15.2485	40.92391	-91.39362
91921	-1130	-4825	-28	0.09943961	0.9855196	-0.3997699	0	10.09	4002	27	-71	5	5	0.02	1.627205	8	10	0.03	2000	-16.19809	40.92391	-91.39362
92103	864	125	-513	-0.1330451	1.301233	0.2826087	0	10.09	4003	27	-71	5	5	0.02	1.60765	8	10	0.03	2000	-15.79477	40.92391	-91.39362
92162	951	-97	680	0.005924453	0.8064357	0.5861205	0	10.09	4004	27	-27	5	5	0.02	1.60508	8	10	0.03	2000	-15.31555	40.92391	-91.39362
92324	1357	-2268	-954	0.0315476	-0.5153149	0.6628509	0	10.09	4002	-74	23	5	5	0.02	1.61245	8	10	0.03	2000	-17.71048	40.92392	-91.39362
92386	1691	-1244	-891	1.543812	0.8274543	0.1657711	0	10.09	4003	-74	23	5	5	0.02	1.614495	8	10	0.03	2000	-16.76297	40.92392	-91.39362
92467	719	-818	-674	2.52497	-0.4687533	0.2101641	0	10.09	4002	-74	23	5	5	0.02	1.621433	8	10	0.03	2000	-14.85168	40.92392	-91.39362
92533	2279	-230	-1837	3.279772	-0.7861566	0.5468284	0	10.09	4003	-74	23	5	5	0.02	1.643567	8	10	0.03	2000	-14.85168	40.92392	-91.39363
92638	2249	-891	2681	7.054307	-1.334318	1.122895	0	10.09	4004	-176	74	5	5	0.02	1.66831	8	10	0.03	2000	-16.34552	40.92392	-91.39363
92811	1174	-713	128	9.810814	-0.3433174	0.8138575	0	10.38	4003	-176	74	5	5	0.02	1.721743	8	10	0.03	2000	-6.422821	40.92392	-91.39363
92847	-162	-1258	275	9.707087	-0.2046919	0.7479967	0	10.38	4003	-89	30	5	5	0.02	1.730692	8	10	0.03	2000	-6.422821	40.92392	-91.39363
93006	849	181	-1185	7.217811	-0.7191139	0.6921957	0	10.38	4004	-105	36	5	5	0.02	1.790869	8	10	0.03	2000	1.806481	40.92392	-91.39363
93084	823	74	-982	7.721248	-0.3172028	0.8782834	0	10.38	4004	-88	30	5	5	0.02	1.820117	8	10	0.03	2000	7.139128	40.92392	-91.39363
93156	413	1964	1759	7.618323	-0.9030952	0.6416509	0	10.38	4003	-87	30	5	5	0.02	1.856061	8	10	0.03	2000	10.5098	40.92392	-91.39363
93307	-2433	-458	-631	1.183896	-6.724168	-0.298988	0	10.38	4003	0	-13	5	5	0.02	1.933114	8	10	0.03	2000	15.00346	40.92392	-91.39363
93405	732	-1839	691	0.2346411	-4.136616	0.001049682	0	10.38	4003	0	-13	5	5	0.02	1.987641	8	10	0.03	2000	15.60821	40.92392	-91.39363
93467	771	-1519	220	0.7259941	-3.104304	0.04780441	0	10.38	4003	0	-13	5	5	0.02	2.029091	8	10	0.03	2000	16.15516	40.92392	-91.39363
93582	1006	1395	-594	1.472486	-3.813279	0.10964	0	10.38	4003	0	-13	5	5	0.02	2.111169	8	10	0.03	2000	20.70247	40.92392	-91.39363
93670	-836	-412	1168	0.5465551	-3.908946	0.3498342	0	10.38	4004	0	-13	5	5	0.02	2.136287	8	10	0.03	2000	21.60215	40.92392	-91.39363
93771	287	2893	-1022	0.420185	-5.052559	0.1183589	0	10.66	4004	0	-13	5	5	0.02	2.166599	8	10	0.03	2000	21.69278	40.92392	-91.39363
93893	-2864	967	-281	-1.288078	-8.711469	0.01408563	0	10.66	4002	0	-64	5	5	0.02	2.249187	8	10	0.03	2000	17.82948	40.92392	-91.39363
93967	-4096	1755	63	-4.976799	-10.42155	-0.1766751	0	10.66	4004	0	-64	5	5	0.02	2.266355	8	10	0.03	2000	19.01939	40.92392	-91.39363
94071	-1651	2696	-69	-6.044544	-18.30715	0.2799704	0	10.66	4004	0	-64	5	5	0.02	2.296489	8	10	0.03	2000	10.03187	40.92391	-91.39363
94206	-928	-775	-952	-8.982419	-17.2081	0.2016556	0	10.66	4003	0	-115	5	5	0.02	2.346813	8	10	0.03	2000	7.098703	40.92391	-91.39363
94292	442	-2509	-408	-6.423148	-13.13029	0.1294083	0	10.66	4003	0	-115	5	5	0.02	2.377757	8	10	0.03	2000	3.23896	40.92391	-91.39363
94439	1485	1393	233	-4.651046	-11.53411	-0.1575825	0	10.66	4004	0	-115	5	5	0.02	2.416322	8	10	0.03	2000	2.327414	40.92391	-91.39363
94494	-534	-184	1272	-2.522231	-12.38323	-0.1800794	0	10.66	4002	0	-115	5	5	0.02	2.425875	8	10	0.03	2000	1.154978	40.92391	-91.39363
94581	128	-2381	-1092	-2.249578	-9.890881	-0.08953414	0	10.66	4002	0	-71	5	5	0.02	2.440226	8	10	0.03	2000	1.075336	40.92391	-91.39363
94684	-1703	1233	-556	-2.108821	-8.869642	-0.2031202	0	9.81	4004	101	-122	5	5	0.02	2.456946	8	10	0.03	2000	2.164828	40.92391	-91.39362
94855	-2246	-2029	114	-3.781625	-10.54634	0.7528279	0	9.81	4004	101	-78	5	5	0.02	2.477228	8	10	0.03	2000	-2.202087	40.92391	-91.39362
94959	-658	-2351	950	-6.364102	-6.276851	-0.07251779	0	9.81	4004	101	-78	5	5	0.02	2.484267	8	10	0.03	2000	-3.063843	40.92391	-91.39362
95026	-276	-2171	485	-6.128181	-5.355591	-0.1488445	0	9.81	4004	101	-129	5	5	0.02	2.489228	8	10	0.03	2000	-3.872498	40.9239	-91.39362
95090	-47	-225	1509	-5.157713	-4.243308	0.3518023	0	9.81	4004	101	-129	5	5	0.02	2.488141	8	10	0.03	2000	-3.395721	40.9239	-91.39362
95192	264	2624	-241	-5.535749	-6.665879	1.046302	0	9.81	4002	101	-128	5	5	0.02	2.481025	8	10	0.03	2000	-4.775604	40.9239	-91.39362
95296	-471	2	2297	-6.196931	-9.416446	0.3429096	0	9.81	4002	14	-85	5	5	0.02	2.47119	8	10	0.03	2000	-6.820282	40.9239	-91.39362
95445	-2489	-1271	800	-6.014745	-8.128064	-0.6057922	0	9.81	4003	115	-85	5	5	0.02	2.413078	8	10	0.03	2000	-7.46048	40.9239	-91.39362
95514	634	1119	456	-6.622101	-8.308694	-0.5822785	0	9.81	4004	115	-84	5	5	0.02	2.382434	8	10	0.03	2000	-9.217468	40.9239	-91.39362
95606	-985	-411	-584	-6.094319	-8.65237	0.4188686	0	10.49	4003	115	-84	5	5	0.02	2.363165	8	10	0.03	2000	-9.752258	40.9239	-91.39362
95710	294	463	62	-7.683869	-7.720943	0.9858452	0	10.49	4004	115	-40	5	5	0.02	2.311574	8	10	0.03	2000	-12.54956	40.9239	-91.39362
95814	632	1311	-547	-7.721275	-9.038588	0.6591215	0	10.49	4003	115	-40	5	5	0.02	2.287597	8	10	0.03	2000	-14.65259	40.9239	-91.39362
95920	-2	-2422	-1568	-7.486684	-8.390972	0.6959851	0	10.49	4003	115	-40	5	5	0.02	2.248842	8	10	0.03	2000	-15.67844	40.9239	-91.39362
96022	755	-806	390	-4.972106	-6.177405	0.6514432	0	10.49	4002	28	10	5	5	0.02	2.223083	8	10	0.03	2000	-15.72839	40.92391	-91.39362
96129	1499	-1989	980	0.6853902	-5.558702	0.271008	0	10.49	4003	27	10	5	5	0.02	2.176771	8	10	0.03	2000	-17.1636	40.92391	-91.39362
96232	1472	-765	-156	0.5489448	-3.196177	-0.2259453	0	10.49	4003	-74	10	5	5	0.02	2.157484	8	10	0.03	2000	-14.8692	40.92391	-91.39362
96341	472	-1422	1748	1.778742	-2.493101	-0.1148801	0	10.49	4003	-74	60	5	5	0.02	2.146608	8	10	0.03	2000	-13.76956	40.92391	-91.39362
96432	1476	-303	809	1.979858	-1.547742	0.05530926	0	10.49	4002	-74	60	5	5	0.02	2.145134	8	10	0.03	2000	-13.29868	40.92391	-91.39362
96537	1909	-786	-1510	3.296858	-1.035441	0.6659611	0	9.87	4002	-74	60	5	5	0.02	2.144139	8	10	0.03	2000	-10.98123	40.92391	-91.39362
96630	-545	-544	-507	3.497369	-0.8178086	0.2859383	0	9.87	4002	-74	16	5	5	0.02	2.142654	8	10	0.03	2000	-9.753235	40.92391	-91.39362
96863	-1588	-790	2561	3.011284	-0.7970735	-0.5951084	0	9.87	4004	13	16	5	5	0.02	2.119841	8	10	0.03	2000	-5.335327	40.92391	-91.39363
96979	1447	962	1102	1.361449	-0.3944851	-0.7386656	0	9.87	4002	-88	-26	5	5	0.02	2.100278	8	10	0.03	2000	-4.073456	40.92391	-91.39363
97091	421	2860	-452	4.272014	-8.31041	-0.3110222	0	9.87	4003	-88	-27	5	5	0.02	2.09637	8	10	0.03	2000	-0.3296509	40.92391	-91.39363
97186	138	224	-598	4.809077	-10.25429	-0.03269399	0	9.87	4004	-88	-27	5	5	0.02	2.098059	8	10	0.03	2000	3.362491	40.92391	-91.39363
97233	779	-1580	-336	4.444348	-7.078682	-0.4643163	0	9.87	4003	-87	-77	5	5	0.02	2.108356	8	10	0.03	2000	4.857686	40.92391	-91.39363
97398	1650	1105	-526	7.057701	-8.256293	-0.8854041	0	9.87	4003	-88	-78	5	5	0.02	2.14513	8	10	0.03	2000	8.354148	40.92391	-91.39363
97479	138	-643	-2067	6.140895	-7.939137	-0.8125834	0	10.26	4004	-88	-78	5	5	0.02	2.175715	8	10	0.03	2000	13.7633	40.92391	-91.39363
97538	2808	1451	-3475	6.786939	-8.28594	0.1970891	0	10.26	4002	0	-78	5	5	0.02	2.18911	8	10	0.03	2000	14.56038	40.92391	-91.39363
97656	-2349	192	-1532	5.137729	-11.51882	1.601119	0	10.26	4003	0	-128	5	5	0.02	2.215255	8	10	0.03	2000	18.24812	40.9239	-91.39363
97745	-3477	728	-81	1.229849	-11.42484	0.9379168	0	10.26	4003	0	-128	5	5	0.02	2.236792	8	10	0.03	2000	18.24812	40.9239	-91.39363
97890	-3232	-1129	1568	-4.68875	-9.165085	-0.6850789	0	10.26	4003	0	-128	5	5	0.02	2.251366	8	10	0.03	2000	16.0617	40.9239	-91.39363
97948	-1462	133	1070	-5.594606	-8.526786	-0.6518453	0	10.26	4003	0	-84	5	5	0.02	2.26656	8	10	0.03	2000	15.82272	40.9239	-91.39363
98124	-1779	-1799	-98	-2.761937	-8.912785	1.068771	0	10.26	4003	0	-85	5	5	0.02	2.309968	8	10	0.03	2000	12.08159	40.9239	-91.39363
98173	-827	-1498	1544	-3.434079	-7.707805	1.021023	0	10.26	4003	0	-84	5	5	0.02	2.328057	8	10	0.03	2000	12.08159	40.9239	-91.39363
98256	1582	2267	369	-1.927619	-7.857668	0.73664	0	10.26	4004	0	-92	5	5	0.02	2.34674	8	10	0.03	2000	11.16021	40.9239	-91.39363
98386	-1751	140	735	-0.4857845	-10.21802	-0.06901407	0	10.38	4003	101	-142	5	5	0.02	2.383907	8	10	0.03	2000	9.431805	40.9239	-91.39362
98465	-2738	197	-1705	-3.075257	-10.02271	-0.7410306	0	10.38	4002	101	-142	5	5	0.02	2.393806	8	10	0.03	2000	10.09245	40.9239	-91.39362
98614	-201	2098	-1210	-3.41075	-12.532	0.5770283	0	10.38	4003	101	-142	5	5	0.02	2.407732	8	10	0.03	2000	4.145022	40.9239	-91.39362
98661	-1695	1095	-626	-3.506398	-13.31406	0.9952377	0	10.38	4002	101	-142	5	5	0.02	2.418037	8	10	0.03	2000	4.145022	40.9239	-91.39362
98771	-1124	-1180	1477	-7.072617	-9.826888	0.3537069	0	10.38	4004	101	-142	5	5	0.02	2.436463	8	10	0.03	2000	1.479466	40.9239	-91.39362
98909	1694	3300	155	-5.395652	-11.16125	-0.3509827	0	10.38	4003	101	-98	5	5	0.02	2.456688	8	10	0.03	2000	0.1037508	40.9239	-91.39362
99004	-4290	-976	-476	-7.529595	-11.63222	-0.3307455	0	10.38	4003	116	-54	5	5	0.02	2.465636	8	10	0.03	2000	-0.8881531	40.9239	-91.39362
99061	573	-191	2185	-9.293863	-9.369658	0.5573381	0	10.38	4003	138	-65	5	5	0.02	2.472725	8	10	0.03	2000	-2.971436	40.9239	-91.39362
99230	1036	-995	47	-9.233307	-6.646577	0.2268464	0	10.38	4004	115	-54	5	5	0.02	2.485471	8	10	0.03	2000	-8.29953	40.9239	-91.39362
99283	656	-283	682	-8.668654	-6.250378	0.1366309	0	9.64	4003	115	-54	5	5	0.02	2.474792	8	10	0.03	2000	-8.29953	40.9239	-91.39362
99357	-513	900	1979	-7.658157	-6.70898	0.2204303	0	9.64	4002	115	-54	5	5	0.02	2.453378	8	10	0.03	2000	-8.904816	40.9239	-91.39362
99507	-63	878	1825	-7.418934	-7.9075	0.8587106	0	9.64	4004	115	-54	5	5	0.02	2.389332	8	10	0.03	2000	-11.50882	40.9239	-91.39362
99617	2020	-1059	-862	-7.017323	-6.795703	1.23103	0	9.64	4003	27	-54	5	5	0.02	2.303612	8	10	0.03	2000	-14.81308	40.9239	-91.39362
99716	1665	-149	86	-4.224788	-6.462952	0.6633657	0	9.64	4003	27	-3	5	5	0.02	2.274633	8	10	0.03	2000	-14.7645	40.9239	-91.39362
99793	-478	-153	1983	-3.412258	-4.931309	0.9988798	0	9.64	4002	32	-4	5	5	0.02	2.233624	8	10	0.03	2000	-14.80399	40.9239	-91.39362
99868	1392	-702	217	-3.106162	-4.806714	1.278993	0	9.64	4004	27	-3	5	5	0.02	2.187562	8	10	0.03	2000	-15.18951	40.9239	-91.39362
99985	111	-1369	2360	-3.36401	-2.407351	0.3060565	0	9.64	4003	27	-3	5	5	0.02	2.136564	8	10	0.03	2000	-14.04822	40.9239	-91.39362
100059	2274	430	-208	-2.354806	-1.668045	0.1539079	0	9.64	4003	27	47	5	5	0.02	2.105954	8	10	0.03	2000	-15.24948	40.9239	-91.39362
100244	-62	436	1439	-1.004762	-2.211763	1.16346	0	9.36	4004	27	47	5	5	0.02	2.050642	8	10	0.03	2000	-15.01364	40.9239	-91.39362
100280	294	-137	-486	-1.6075	-2.336343	1.023053	0	9.36	4004	32	4	5	5	0.02	2.040255	8	10	0.03	2000	-15.01364	40.9239	-91.39362
100371	955	1115	2410	-0.6783959	-5.076149	1.018826	0	9.36	4003	27	3	5	5	0.02	2.027291	8	10	0.03	2000	-15.08365	40.92391	-91.39362
100474	1556	-2872	80	0.5221954	-4.112731	1.074542	0	9.36	4003	-74	54	5	5	0.02	2.013356	8	10	0.03	2000	-15.0654	40.92391	-91.39362
100596	994	-407	714	1.356297	0.2225813	0.2784612	0	9.36	4003	-74	53	5	5	0.02	2.013098	8	10	0.03	2000	-13.11792	40.92391	-91.39362
100666	-759	-891	1340	1.668894	0.07918539	0.4116064	0	9.36	4011	-74	10	5	5	0.02	2.01203	8	10	0.03	2000	-12.1091	40.92391	-91.39362
100805	1857	-586	-1813	2.091721	-1.539897	0.1436787	0	9.36	4003	-176	10	5	5	0.02	2.015376	8	10	0.03	2000	-13.18988	40.92391	-91.39363
100889	3060	698	-20	4.436511	-1.712998	0.1753082	0	9.36	4002	-176	10	5	5	0.02	2.024512	8	10	0.03	2000	-11.84607	40.92391	-91.39363
101013	1843	-914	-231	8.431613	-3.016937	1.17001	0	9.36	4004	-89	-33	5	5	0.02	2.055124	8	10	0.03	2000	-1.224976	40.92391	-91.39363
101106	-359	1348	644	8.319263	-2.622362	0.8509106	0	9.36	4003	-88	-34	5	5	0.02	2.071141	8	10	0.03	2000	2.681942	40.92391	-91.39363
101179	-271	1779	935	4.898933	-5.558655	-0.2222449	0	10.66	4002	-88	-34	5	5	0.02	2.093549	8	10	0.03	2000	10.18733	40.92391	-91.39363
101274	1722	2686	1539	5.812825	-7.750656	-0.2600015	0	10.66	4003	-88	-34	5	5	0.02	2.112066	8	10	0.03	2000	12.3854	40.92391	-91.39363
101457	235	4160	146	6.344446	-13.03454	-0.2433476	0	10.66	4002	-101	-84	5	5	0.02	2.147151	8	10	0.03	2000	17.85281	40.9239	-91.39364
101535	1857	1347	280	6.971205	-15.1809	-0.2746661	0	10.66	4003	-101	-84	5	5	0.02	2.154724	8	10	0.03	2000	18.48754	40.9239	-91.39364
101635	776	-978	-970	7.559749	-12.8524	-0.04676916	0	10.66	4002	-101	-84	5	5	0.02	2.167717	8	10	0.03	2000	18.70012	40.9239	-91.39364
101683	-1030	-1494	1591	6.706755	-11.01187	-0.0177125	0	10.66	4003	-101	-84	5	5	0.02	2.170372	8	10	0.03	2000	20.59326	40.9239	-91.39364
101763	728	-32	806	5.796025	-8.673559	0.08870645	0	10.66	4003	-101	-84	5	5	0.02	2.177206	8	10	0.03	2000	21.13464	40.9239	-91.39364
101881	1363	2044	-1317	6.482202	-9.178361	0.4671748	0	10.66	4003	-101	-135	5	5	0.02	2.194224	8	10	0.03	2000	22.21728	40.9239	-91.39364
101995	-3300	376	-416	2.26332	-11.30033	0.4340157	0	10.66	4002	-13	-91	5	5	0.02	2.229307	8	10	0.03	2000	23.41582	40.9239	-91.39364
102152	-177	1814	-399	1.421575	-8.860136	0.02807173	0	10.38	4003	-13	-91	5	5	0.02	2.288244	8	10	0.03	2000	22.9416	40.9239	-91.39364
102258	-1890	81	244	1.030325	-10.23074	-0.1494831	0	10.38	4003	87	-91	5	5	0.02	2.306818	8	10	0.03	2000	22.52058	40.9239	-91.39363
102291	-5389	-1573	761	-0.9294285	-9.514491	-0.290724	0	10.38	4004	88	-91	5	5	0.02	2.322852	8	10	0.03	2000	22.63067	40.9239	-91.39363
102448	-2482	73	-2330	-11.50795	-7.451034	0.2416787	0	10.38	4003	88	-142	5	5	0.02	2.39301	8	10	0.03	2000	19.89771	40.9239	-91.39363
102493	-1456	2489	-724	-13.07663	-9.494667	0.6846801	0	10.38	4003	88	-98	5	5	0.02	2.412015	8	10	0.03	2000	16.46707	40.9239	-91.39363
102640	-1169	-1743	233	-13.13746	-12.07211	1.147161	0	10.38	4004	88	-47	5	5	0.02	2.468071	8	10	0.03	2000	9.389602	40.9239	-91.39363
102729	-2016	-1743	1914	-14.77434	-7.830688	-0.01486067	0	10.38	4004	88	-47	5	5	0.02	2.485931	8	10	0.03	2000	6.32004	40.9239	-91.39363
102786	-2318	-850	370	-14.83731	-8.012417	-0.294919	0	10.38	4009	189	-47	5	5	0.02	2.493259	8	10	0.03	2000	6.32004	40.9239	-91.39362
102879	-2218	-2074	241	-18.4698	-9.14201	-0.7272558	0	10.38	4003	0	0	5	5	0.02	2.49376	3	10	0.03	2000	0.2537766	40.9239	-91.39362
102980	1375	-3034	1134	-17.19061	-5.251328	-0.7294639	0	9.3	4003	0	0	5	5	0.02	2.478658	3	10	0.03	2000	-1.782196	40.9239	-91.39362
103081	3133	736	1016	-9.017044	-5.392101	0.1790128	0	9.3	4003	0	0	5	5	0.02	2.431382	3	10	0.03	2000	-6.370514	40.9239	-91.39362
103265	1603	-659	55	-3.637021	-0.7539963	-0.7656193	0	9.3	4002	0	0	5	5	0.02	2.326432	3	10	0.03	2000	-6.809662	40.9239	-91.39362
103340	1247	-518	1955	-1.569548	-0.3554355	-1.112047	0	9.3	4004	0	0	5	5	0.02	2.248378	3	10	0.03	2000	-8.536133	40.9239	-91.39362
103413	-181	547	629	-1.143245	-0.03334545	-1.522971	0	9.3	4003	0	0	5	5	0.02	2.185928	3	10	0.03	2000	-8.536133	40.9239	-91.39362
103471	-936	245	930	-1.639684	-0.4050943	-1.784612	0	9.3	4004	0	0	5	5	0.02	2.049475	3	10	0.03	2000	-7.016479	40.9239	-91.39362
103569	471	905	-1071	-1.420322	-0.4222075	-1.674957	0	9.3	4003	0	0	5	5	0.02	1.986106	3	10	0.03	2000	-4.36441	40.9239	-91.39362
103680	66	3460	332	-0.7937636	-3.779889	-1.220424	0	9.3	4003	0	0	5	5	0.02	1.774674	3	10	0.03	2000	-7.174561	40.9239	-91.39362
103769	-1017	-1788	1	-0.5151933	-5.8576	0.2042859	0	9.3	4003	0	0	5	5	0.02	1.722529	3	10	0.03	2000	-6.684662	40.9239	-91.39362
103884	1625	11	2616	0.1477317	-3.984411	-0.4207955	0	9.81	4004	0	0	5	5	0.02	1.641478	3	10	0.03	2000	-5.875732	40.9239	-91.39362
103975	2050	1034	-1137	1.518069	-4.554573	-1.134047	0	9.81	4003	0	0	5	5	0.02	1.452575	3	10	0.03	2000	-4.504791	40.9239	-91.39362
104087	-176	-327	-419	4.387026	-5.498629	-1.116015	0	9.81	4003	0	0	5	5	0.02	1.391007	3	10	0.03	2000	-1.503937	40.9239	-91.39362
104176	-2310	-1177	-214	1.288657	-4.424823	-0.9627826	0	9.81	4002	0	0	5	5	0.02	1.321799	3	10	0.03	2000	-1.804688	40.9239	-91.39362
104278	1878	209	-1316	1.026511	-3.160653	-0.856792	0	9.81	4004	0	0	5	5	0.02	1.256179	3	10	0.03	2000	-0.9949951	40.9239	-91.39362
104426	-1404	66	1237	0.7710899	-0.2979521	0.4056737	0	9.81	4002	0	0	5	5	0.02	1.156628	3	10	0.03	2000	-0.2957153	40.9239	-91.39363
104485	297	-88	-588	-0.2282671	-1.184778	0.3176239	0	9.81	4003	0	0	5	5	0.02	1.131742	3	10	0.03	2000	-0.6141663	40.9239	-91.39363
104603	1003	816	2216	1.262729	-1.736173	-0.3908865	0	9.81	4004	0	0	5	5	0.02	1.068144	3	10	0.03	2000	-1.798096	40.9239	-91.39363
104682	590	760	2092	1.656339	-3.517361	-0.7611359	0	9.81	4003	0	0	5	5	0.02	1.031761	3	10	0.03	2000	-0.9816589	40.9239	-91.39363
104869	-943	-529	290	0.5975716	-2.730351	-0.7850652	0	9.81	4004	0	0	5	5	0.02	0.9927084	3	10	0.03	2000	4.483744	40.9239	-91.39363
104902	1220	192	-1287	0.6370988	-2.552472	-0.7014463	0	9.81	4003	0	0	5	5	0.02	0.9795625	3	10	0.03	2000	3.157568	40.9239	-91.39363
105031	-1462	-1229	-1398	-0.1967282	-1.159898	0.08761355	0	9.81	4003	0	0	5	5	0.02	0.9642411	3	10	0.03	2000	5.090628	40.9239	-91.39363
105088	-2848	-1469	1770	-0.7430595	-0.9992326	-0.2626962	0	9.81	4003	0	0	5	5	0.02	0.9652566	3	10	0.03	2000	3.916423	40.9239	-91.39363
105191	-925	-679	-216	-2.353511	-0.6320245	0.02623501	0	9.81	4002	0	0	5	5	0.02	0.9701259	3	10	0.03	2000	4.57044	40.9239	-91.39363
105355	3086	812	-1504	-0.5549041	-1.490119	-0.9976289	0	9.81	4002	0	0	5	5	0.02	1.032243	3	10	0.03	2000	3.953955	40.9239	-91.39364
105447	6668	2726	-48	6.979723	-5.376976	-0.5754297	0	9.81	4003	0	0	5	5	0.02	1.062848	3	10	0.03	2000	4.537539	40.9239	-91.39364
105566	8944	4165	-783	21.02892	-10.74743	0.1022173	0	9.81	4003	0	0	5	5	0.02	1.138321	3	10	0.03	2000	11.48075	40.9239	-91.39364
105624	9205	4087	-563	24.88377	-11.92003	0.2807454	0	9.81	4004	0	0	5	5	0.02	1.180678	3	10	0.03	2000	17.5012	40.9239	-91.39364
105721	10031	4958	203	35.6403	-17.35149	0.7203646	0	10.94	4003	0	0	5	5	0.02	1.207897	3	10	0.03	2000	24.58721	40.9239	-91.39364
105797	10119	5241	-243	45.92293	-21.7864	1.051953	0	10.94	4004	0	0	5	5	0.02	1.264996	3	10	0.03	2000	40.55949	40.9239	-91.39364
105958	-528	-3251	6952	60.04122	-25.3335	0.2391257	0	10.94	4004	0	0	5	5	0.02	1.31119	3	10	0.03	2000	46.37562	40.9239	-91.39364
106020	18351	1410	18008	76.73605	14.75603	-25.748	0	10.94	4004	0	0	5	5	0.02	1.319051	3	10	0.03	2000	48.26551	40.9239	-91.39364
106099	32580	16217	9736	102.5218	5.696469	-37.9966	0	10.94	4002	0	0	5	5	0.02	1.312749	3	10	0.03	2000	81.05418	40.9239	-91.39364
106201	11390	-16044	-12826	122.2192	2.976996	-26.75152	0	10.94	4003	0	0	5	5	0.02	1.25953	3	10	0.03	2000	88.47356	40.9239	-91.39364
106385	-756	2596	3955	120.6625	-2.472275	-22.48999	0	10.94	4003	0	0	5	5	0.02	1.14	3	10	0.03	2000	84.75454	40.9239	-91.39364
106421	-110	-844	8330	113.6686	4.066208	-25.94674	0	10.94	4004	0	0	5	5	0.02	1.105864	3	10	0.03	2000	84.75454	40.9239	-91.39364
106496	-5973	-5183	3020	87.40919	27.67392	-36.92646	0	10.94	4004	0	0	5	5	0.02	1.053365	3	10	0.03	2000	87.11508	40.9239	-91.39364
106596	-4734	238	2750	67.16264	34.83261	-41.53405	0	10.94	4003	0	0	5	5	0.02	0.9813587	3	10	0.03	2000	88.15808	40.9239	-91.39364
106698	-9712	3163	1588	52.23971	32.65843	-43.82504	0	11.06	4004	0	0	5	5	0.02	0.9173491	3	10	0.03	2000	92.00468	40.92391	-91.39364
106802	-15351	3021	-624	20.67735	21.62627	-43.88143	0	11.06	4004	0	0	5	5	0.02	0.8604013	3	10	0.03	2000	97.62897	40.92391	-91.39364
106959	-10400	409	677	-13.27927	14.3476	-43.70272	0	11.06	4002	0	0	5	5	0.02	0.7532507	3	10	0.03	2000	88.64768	40.92391	-91.39364
107026	-3615	-917	2541	-14.98391	10.93547	-46.01591	0	11.06	4004	0	0	5	5	0.02	0.7441881	3	10	0.03	2000	83.04021	40.92391	-91.39364
107134	-6032	2515	12175	-11.24489	7.545975	-56.43594	0	11.06	4002	0	0	5	5	0.02	0.7117917	3	10	0.03	2000	90.30708	40.92391	-91.39364
107266	-4030	-780	161	1.47963	9.733164	-53.5527	0	11.06	4003	0	0	5	5	0.02	0.6967689	3	10	0.03	2000	88.89014	40.92391	-91.39363
107356	-3253	-1578	-2007	2.435701	12.00049	-50.42435	0	11.06	4002	0	0	5	5	0.02	0.6933349	3	10	0.03	2000	83.69419	40.92391	-91.39364
107413	-2590	-1302	-1476	4.251981	13.00491	-49.4396	0	11.06	4004	0	0	5	5	0.02	0.6889263	3	10	0.03	2000	83.69419	40.92391	-91.39364
107563	-8545	2593	4288	6.707324	12.42687	-50.79716	0	11.06	4003	0	0	5	5	0.02	0.6833694	3	10	0.03	2000	75.18846	40.92391	-91.39364
107626	-9746	685	6128	3.9934	11.40713	-53.77389	0	11.06	4003	0	0	5	5	0.02	0.679654	3	10	0.03	2000	75.18846	40.92391	-91.39364
107755	-199	364	5289	-4.669837	13.51976	-71.58663	0	11.06	4003	0	0	5	5	0.02	0.6842595	3	10	0.03	2000	97.87558	40.92391	-91.39364
107848	15625	-14862	-6237	12.16264	24.35684	-70.0584	0	11.06	4003	0	0	5	5	0.02	0.6939126	3	10	0.03	2000	97.87558	40.92391	-91.39364
107901	14293	-2533	-10146	35.92511	32.94566	-64.62769	0	11.06	4003	0	0	5	5	0.02	0.7035033	3	10	0.03	2000	97.57506	40.9239	-91.39364
108048	899	-4468	2382	42.93706	32.25975	-59.44241	0	11.06	4004	0	0	5	5	0.02	0.7181835	3	10	0.03	2000	75.45049	40.9239	-91.39364
108156	-5427	-211	929	43.70787	29.96716	-53.13578	0	11.06	4003	0	0	5	5	0.02	0.7165508	3	10	0.03	2000	69.16332	40.92391	-91.39364
108204	-2718	-5883	2956	39.95191	34.83891	-55.85421	0	11.06	4002	0	0	5	5	0.02	0.7143408	3	10	0.03	2000	66.28788	40.92391	-91.39364
108287	-6095	-5969	1035	35.11653	42.05515	-57.78827	0	11.06	4003	0	0	5	5	0.02	0.7004175	3	10	0.03	2000	65.15231	40.92391	-91.39364
108391	-6106	-5687	-2379	27.27845	48.79128	-57.3042	0	11.06	4002	0	0	5	5	0.02	0.6958564	3	10	0.03	2000	59.37093	40.92391	-91.39364
108506	-3079	-4221	-5094	31.45101	50.10662	-50.71101	0	11.06	4003	0	0	5	5	0.02	0.6948575	3	10	0.03	2000	51.62535	40.92392	-91.39364
108612	-766	-1354	-6906	43.35949	41.72198	-40.01971	0	11.06	4002	0	0	5	5	0.02	0.6934423	3	10	0.03	2000	29.22443	40.92392	-91.39364
108697	-1828	-1910	-5549	49.79032	34.00748	-33.00975	0	11.06	4004	0	0	5	5	0.02	0.6893852	3	10	0.03	2000	18.00773	40.92392	-91.39364
108801	-7879	-1037	1089	44.8121	27.04447	-28.93517	0	11.06	4002	0	0	5	5	0.02	0.6827437	3	10	0.03	2000	6.276667	40.92392	-91.39364
108894	-6637	-3936	2132	37.49059	29.39436	-31.10049	0	11.06	4004	0	0	5	5	0.02	0.6764131	3	10	0.03	2000	6.270106	40.92392	-91.39364
109007	-9093	823	419	23.25913	29.02387	-33.97581	0	11.06	4003	0	0	5	5	0.02	0.6633604	3	10	0.03	2000	1.27593	40.92393	-91.39364
109099	-4318	2058	2855	15.67897	25.08728	-36.76859	0	11.06	4004	0	0	5	5	0.02	0.6567315	3	10	0.03	2000	-2.038361	40.92393	-91.39364
109234	-4608	2723	8418	7.822261	19.81248	-48.80249	0	11.06	4003	0	0	5	5	0.02	0.6480691	3	10	0.03	2000	-1.656555	40.92393	-91.39364
109293	-6167	476	9383	-0.407787	16.39442	-59.30406	0	11.06	4003	0	0	5	5	0.02	0.6343546	3	10	0.03	2000	4.134862	40.92393	-91.39364
109427	-5987	1275	5198	-15.19403	4.25947	-75.91852	0	11.11	4004	0	0	5	5	0.02	0.6083528	3	10	0.03	2000	15.72195	40.92393	-91.39364
109498	-2918	973	3674	-19.03053	-0.15606	-80.57212	0	11.11	4004	0	0	5	5	0.02	0.5971212	3	10	0.03	2000	16.56673	40.92393	-91.39364
109685	-331	-2108	2105	-17.22278	-5.098402	-88.52928	0	11.11	4003	0	0	5	5	0.02	0.5467612	3	10	0.03	2000	16.55164	40.92393	-91.39364
109751	2033	-402	1890	-14.87297	-4.306592	-90.73099	0	11.11	4004	0	0	5	5	0.02	0.5266832	3	10	0.03	2000	16.93272	40.92393	-91.39364
109806	1197	-441	1750	-12.31072	-4.417907	-92.80951	0	11.11	4004	0	0	5	5	0.02	0.5109803	3	10	0.03	2000	18.3373	40.92393	-91.39364
109917	555	-773	1479	-10.84412	-3.34897	-96.08521	0	11.11	4003	0	0	5	5	0.02	0.4699392	3	10	0.03	2000	19.72158	40.92393	-91.39365
110008	-89	943	-4251	-9.6559	-3.413392	-93.36738	0	11.11	4004	0	0	5	5	0.02	0.4156123	3	10	0.03	2000	19.45857	40.92393	-91.39365
110105	-217	229	101	-5.862185	-3.918747	-90.39074	0	11.11	4004	0	0	5	5	0.02	0.3975899	3	10	0.03	2000	15.22531	40.92393	-91.39365
110207	41	203	-36	-5.371609	-3.783401	-90.35522	0	11.11	4003	0	0	5	5	0.02	0.3407376	3	10	0.03	2000	14.0817	40.92393	-91.39365
110324	-106	-186	-78	-4.55319	-3.326542	-90.34678	0	11.11	4004	0	0	5	5	0.02	0.2938205	3	10	0.03	2000	12.86626	40.92393	-91.39365
110412	-77	29	-6	-4.275558	-2.884626	-90.33595	0	11.11	4002	0	0	5	5	0.02	0.2756904	3	10	0.03	2000	11.60108	40.92393	-91.39365
110601	-75	5	8	-3.463531	-2.138652	-90.35817	0	11.11	4004	0	0	5	5	0.02	0.1813163	3	10	0.03	2000	9.681648	40.92393	-91.39365
110657	-82	1	9	-3.243351	-1.937189	-90.36494	0	11.11	4004	0	0	5	5	0.02	0.170137	3	10	0.03	2000	9.43891	40.92393	-91.39365
110746	-73	-3	7	-2.944525	-1.661369	-90.38142	0	11.11	4002	0	0	5	5	0.02	0.1097786	3	10	0.03	2000	9.032464	40.92393	-91.39365
110821	-73	0	9	-2.769958	-1.498173	-90.38997	0	11.11	4004	0	0	5	5	0.02	0.08813858	3	10	0.03	2000	8.703471	40.92393	-91.39365
110917	-74	0	8	-2.527976	-1.272804	-90.40297	0	11.11	4003	0	0	5	5	0.02	0.06855702	3	10	0.03	2000	7.899639	40.92393	-91.39365
111082	-78	3	14	-2.195274	-0.9644974	-90.42616	0	11.11	4002	0	0	5	5	0.02	0.01736806	3	10	0.03	2000	7.601865	40.92393	-91.39365
111187	-75	0	7	-2.029557	-0.8176816	-90.44057	0	11.11	4002	0	0	5	5	0.02	0.0006746038	3	10	0.03	2000	7.382015	40.92393	-91.39365
111283	-74	7	3	-1.878684	-0.6817626	-90.45338	0	11.17	4003	0	0	5	5	0.02	-0.02140419	3	10	0.03	2000	6.997584	40.92393	-91.39365
111324	-79	1	7	-1.83607	-0.6429127	-90.45723	0	11.17	4004	0	0	5	5	0.02	-0.02440255	3	10	0.03	2000	6.997584	40.92393	-91.39365
111516	-80	5	9	-1.608743	-0.4323174	-90.48311	0	11.17	4003	0	0	5	5	0.02	-0.03958342	1	10	0.03	2000	6.565943	40.92393	-91.39365
111572	-75	5	6	-1.551069	-0.3734961	-90.49232	0	11.17	4003	0	0	5	5	0.02	-0.04112167	1	10	0.03	2000	6.450136	40.92393	-91.39365
111634	-72	-3	15	-1.495058	-0.3206548	-90.50117	0	11.17	4004	0	0	5	5	0.02	-0.04631955	1	10	0.03	2000	6.350036	40.92393	-91.39365
111728	-69	-1	9	-1.438296	-0.2787765	-90.51216	0	11.17	4003	0	0	5	5	0.02	-0.05459348	1	10	0.03	2000	6.226687	40.92393	-91.39365
111952	-70	5	7	-1.272081	-0.138418	-90.54073	0	11.17	4003	0	0	5	5	0.02	-0.06467657	1	10	0.03	2000	5.987321	40.92393	-91.39365
112034	-72	7	11	-1.234657	-0.1078434	-90.54811	0	11.17	4004	0	0	5	5	0.02	-0.07163659	1	10	0.03	2000	6.137995	40.92392	-91.39365
112262	-79	1	7	-1.137055	-0.01541269	-90.58034	0	11.11	4004	0	0	5	5	0.02	-0.08577729	1	10	0.03	2000	5.744136	40.92392	-91.39365
112376	-77	5	11	-1.113176	0.009849458	-90.58864	0	11.11	4003	0	0	5	5	0.02	-0.0866726	1	10	0.03	2000	5.727595	40.92392	-91.39365
112472	-77	4	11	-1.072721	0.04326805	-90.60933	0	11.11	4003	0	0	5	5	0.02	-0.07990528	1	10	0.03	2000	5.64954	40.92392	-91.39365
112569	-74	5	10	-1.035433	0.06856533	-90.62758	0	11.11	4002	0	0	5	5	0.02	-0.05736046	1	10	0.03	2000	5.575685	40.92392	-91.39365
112624	-76	-1	9	-1.015326	0.08744252	-90.63649	0	11.11	4002	0	0	5	5	0.02	-0.05410511	1	10	0.03	2000	5.541481	40.92392	-91.39365
112782	-75	7	1	-0.9902203	0.1094511	-90.65083	0	11.11	4003	0	0	5	5	0.02	-0.04196407	1	10	0.03	2000	5.486429	40.92392	-91.39365
112892	-81	1	7	-0.9698537	0.1233973	-90.66505	0	11.11	4004	0	0	5	5	0.02	-0.05084996	1	10	0.03	2000	5.495294	40.92392	-91.39365
112984	-79	0	6	-0.9578803	0.1374957	-90.6772	0	11.11	4003	0	0	5	5	0.02	-0.05599719	1	10	0.03	2000	5.428336	40.92392	-91.39365
113070	-76	2	8	-0.951997	0.1492783	-90.68898	0	11.11	4002	0	0	5	5	0.02	-0.07021509	1	10	0.03	2000	5.213572	40.92392	-91.39365
113118	-75	4	11	-0.9463522	0.1590789	-90.69844	0	11.23	4003	0	0	5	5	0.02	-0.0733647	1	10	0.03	2000	5.396073	40.92392	-91.39365
113218	-72	5	6	-0.9353088	0.164242	-90.70564	0	11.23	4004	0	0	5	5	0.02	-0.07798234	1	10	0.03	2000	5.611917	40.92392	-91.39364
113370	-77	6	6	-0.9091492	0.1796748	-90.72408	0	11.23	4004	0	0	5	5	0.02	-0.0873596	1	10	0.03	2000	5.346683	40.92392	-91.39364
113422	-77	-5	7	-0.9019324	0.1878981	-90.73354	0	11.23	4009	0	0	5	5	0.02	-0.09147874	1	10	0.03	2000	5.336555	40.92391	-91.39364
113558	-80	-3	8	-0.8930523	0.1963059	-90.7527	0	11.23	4004	0	0	5	5	0.02	-0.1009569	1	10	0.03	2000	5.527773	40.92391	-91.39364
113624	-75	7	5	-0.8886105	0.1979048	-90.76015	0	11.23	4003	0	0	5	5	0.02	-0.1041743	1	10	0.03	2000	5.323921	40.92391	-91.39364
113727	-76	7	5	-0.8815602	0.2027921	-90.77211	0	11.23	4003	0	0	5	5	0.02	-0.1037953	1	10	0.03	2000	5.305258	40.92391	-91.39364
113831	-69	0	11	-0.8810207	0.2090309	-90.77901	0	11.23	4008	0	0	5	5	0.02	-0.1030777	1	10	0.03	2000	5.300432	40.92391	-91.39364
113964	-72	3	4	-0.8717377	0.2164257	-90.79927	0	11.23	4004	0	0	5	5	0.02	-0.1104065	1	10	0.03	2000	5.300506	40.92391	-91.39364
114028	-74	-4	6	-0.8651769	0.2219656	-90.80684	0	11.17	4002	0	0	5	5	0.02	-0.1081573	1	10	0.03	2000	5.277439	40.92391	-91.39364
114241	-72	0	7	-0.8509687	0.2189534	-90.82698	0	11.17	4003	0	0	5	5	0.02	-0.09994091	1	10	0.03	2000	5.264565	40.92391	-91.39364
114355	-68	4	7	-0.8464435	0.2188254	-90.83772	0	11.17	4003	0	0	5	5	0.02	-0.1048726	1	10	0.03	2000	5.271245	40.92391	-91.39364
114474	-74	5	10	-0.8391141	0.2197373	-90.85274	0	11.17	4004	0	0	5	5	0.02	-0.1182221	1	10	0.03	2000	5.2616	40.92391	-91.39364
114594	-71	2	7	-0.8314622	0.2227626	-90.8658	0	11.17	4002	0	0	5	5	0.02	-0.1201756	1	10	0.03	2000	5.472752	40.92391	-91.39364
114676	-74	5	4	-0.8325643	0.220228	-90.87837	0	11.17	4004	0	0	5	5	0.02	-0.1118194	1	10	0.03	2000	5.243542	40.92391	-91.39364
114735	-76	0	4	-0.8288827	0.2229899	-90.88441	0	11.17	4003	0	0	5	5	0.02	-0.1018998	1	10	0.03	2000	5.243542	40.92391	-91.39364
114832	-70	1	7	-0.8286416	0.2204014	-90.89333	0	11.17	4003	0	0	5	5	0.02	-0.0940078	1	10	0.03	2000	5.224497	40.92391	-91.39364
114952	-73	3	6	-0.823902	0.2223071	-90.90816	0	11.23	4004	0	0	5	5	0.02	-0.08156233	1	10	0.03	2000	5.212361	40.92391	-91.39364
115015	-69	0	10	-0.8234538	0.2245197	-90.91505	0	11.23	4003	0	0	5	5	0.02	-0.0748287	1	10	0.03	2000	5.230893	40.92391	-91.39364
115218	-74	-3	10	-0.8248267	0.2203602	-90.93361	0	11.23	4003	0	0	5	5	0.02	-0.06551928	1	10	0.03	2000	5.218562	40.92391	-91.39364
115248	-64	-1	2	-0.8271819	0.2210262	-90.9366	0	11.23	4003	0	0	5	5	0.02	-0.06500319	1	10	0.03	2000	5.218562	40.92391	-91.39364
115321	-77	4	5	-0.8244652	0.2199876	-90.93983	0	11.23	4003	0	0	5	5	0.02	-0.06205501	1	10	0.03	2000	5.215564	40.92391	-91.39364
115448	-70	-3	8	-0.8244449	0.2256097	-90.9529	0	11.23	4004	0	0	5	5	0.02	-0.06183992	1	10	0.03	2000	5.232352	40.92391	-91.39364
115522	-68	2	0	-0.8196115	0.229304	-90.96175	0	11.23	4002	0	0	5	5	0.02	-0.06569877	1	10	0.03	2000	5.226043	40.92391	-91.39364
115622	-80	1	7	-0.8136319	0.227009	-90.9695	0	11.23	4003	0	0	5	5	0.02	-0.07690581	1	10	0.03	2000	5.205177	40.9239	-91.39364
115752	-66	4	0	-0.8103822	0.2317234	-90.985	0	11.23	4002	0	0	5	5	0.02	-0.08765191	1	10	0.03	2000	5.231809	40.9239	-91.39364
115833	-67	1	4	-0.8055569	0.2323798	-90.99043	0	11.23	4003	0	0	5	5	0.02	-0.09474505	1	10	0.03	2000	5.188167	40.9239	-91.39364
115942	-71	-3	6	-0.7919475	0.2325912	-91.00594	0	11.23	4003	0	0	5	5	0.02	-0.1015984	1	10	0.03	2000	5.188288	40.9239	-91.39364
116018	-68	1	3	-0.7892609	0.2367839	-91.01131	0	11.23	4004	0	0	5	5	0.02	-0.1111309	1	10	0.03	2000	5.16069	40.9239	-91.39364
116192	-67	7	6	-0.7918992	0.2368435	-91.02699	0	11.23	4003	0	0	5	5	0.02	-0.1149625	1	10	0.03	2000	5.160423	40.9239	-91.39364
116232	-69	5	5	-0.7940131	0.2322064	-91.03554	0	11.23	4003	0	0	5	5	0.02	-0.1131044	1	10	0.03	2000	5.187128	40.9239	-91.39364
116339	-73	0	4	-0.787959	0.2327283	-91.04427	0	11.23	4003	0	0	5	5	0.02	-0.1146017	1	10	0.03	2000	5.161673	40.9239	-91.39364
116412	-70	0	2	-0.7802655	0.2355607	-91.05098	0	11.23	4002	0	0	5	5	0.02	-0.1205042	1	10	0.03	2000	5.147415	40.9239	-91.39364
116554	-67	7	5	-0.7767676	0.2404274	-91.06081	0	11.23	4002	0	0	5	5	0.02	-0.1301658	1	10	0.03	2000	5.365196	40.9239	-91.39363
116661	-66	-2	0	-0.7684836	0.2371667	-91.07173	0	11.23	4004	0	0	5	5	0.02	-0.1311706	1	10	0.03	2000	5.167767	40.9239	-91.39363
116749	-73	2	8	-0.7690545	0.2405201	-91.07814	0	11.17	4003	0	0	5	5	0.02	-0.1363388	1	10	0.03	2000	5.144251	40.9239	-91.39363
116784	-62	7	0	-0.7686908	0.2357993	-91.08327	0	11.17	4002	0	0	5	5	0.02	-0.1395366	1	10	0.03	2000	5.147548	40.9239	-91.39363
116920	-72	4	5	-0.7704103	0.2341606	-91.09743	0	11.17	4002	0	0	5	5	0.02	-0.1335491	1	10	0.03	2000	5.357071	40.9239	-91.39363
116940	-72	2	6	-0.7692381	0.2321151	-91.09938	0	11.17	4004	0	0	5	5	0.02	-0.1282573	1	10	0.03	2000	5.357071	40.9239	-91.39363
117038	-71	6	4	-0.7684658	0.2373483	-91.11024	0	11.17	4002	0	0	5	5	0.02	-0.1205907	1	10	0.03	2000	5.129389	40.9239	-91.39364
117091	-73	-1	1	-0.7649723	0.2359815	-91.11629	0	11.17	4002	0	0	5	5	0.02	-0.1089853	1	10	0.03	2000	5.14579	40.9239	-91.39363
117171	-69	0	10	-0.7636479	0.237318	-91.12556	0	11.17	4004	0	0	5	5	0.02	-0.1085921	1	10	0.03	2000	5.123639	40.9239	-91.39363
117314	-67	2	5	-0.7692693	0.2328776	-91.13509	0	11.17	4003	0	0	5	5	0.02	-0.118713	1	10	0.03	2000	5.123466	40.9239	-91.39363
117433	-67	-2	1	-0.7672824	0.233449	-91.14919	0	11.17	4004	0	0	5	5	0.02	-0.1358401	1	10	0.03	2000	5.14653	40.9239	-91.39363
117488	-73	-1	6	-0.768732	0.2346394	-91.1584	0	11.23	4004	0	0	5	5	0.02	-0.1394737	1	10	0.03	2000	5.128983	40.92391	-91.39363
117619	-68	0	6	-0.7682412	0.2368419	-91.16695	0	11.23	4002	0	0	5	5	0.02	-0.1646804	1	10	0.03	2000	5.110445	40.92391	-91.39363
117681	-68	1	6	-0.765229	0.2373362	-91.17384	0	11.23	4004	0	0	5	5	0.02	-0.1723797	1	10	0.03	2000	5.126183	40.92391	-91.39363
117748	-78	0	0	-0.7660468	0.2340089	-91.17818	0	11.23	4003	0	0	5	5	0.02	-0.1764166	1	10	0.03	2000	5.144662	40.92391	-91.39363
117849	-64	0	12	-0.7604404	0.2344978	-91.18874	0	11.23	4003	0	0	5	5	0.02	-0.1907005	1	10	0.03	2000	5.320919	40.92391	-91.39363
117952	-66	-4	9	-0.7594174	0.2341444	-91.19881	0	11.23	4004	0	0	5	5	0.02	-0.1931934	1	10	0.03	2000	5.322954	40.92391	-91.39363
118054	-74	7	5	-0.7549319	0.2364333	-91.20747	0	11.23	4003	0	0	5	5	0.02	-0.20113	1	10	0.03	2000	5.338082	40.92391	-91.39363
118115	-69	5	1	-0.7574272	0.2375825	-91.20985	0	11.23	4002	0	0	5	5	0.02	-0.2066809	1	10	0.03	2000	5.129389	40.92391	-91.39363
118285	-58	-1	7	-0.7509377	0.2355263	-91.22499	0	11.23	4002	0	0	5	5	0.02	-0.2075511	1	10	0.03	2000	5.305651	40.92391	-91.39363
118337	-70	3	7	-0.7448774	0.2333082	-91.22957	0	11.23	4002	0	0	5	5	0.02	-0.207171	1	10	0.03	2000	5.120603	40.92391	-91.39363
118419	-66	-4	8	-0.7434841	0.230461	-91.2397	0	11.23	4002	0	0	5	5	0.02	-0.207902	1	10	0.03	2000	5.092695	40.92391	-91.39363
118519	-66	3	10	-0.7372416	0.2366236	-91.24544	0	11.23	4002	0	0	5	5	0.02	-0.2044648	1	10	0.03	2000	5.106457	40.92391	-91.39363
118622	-65	5	4	-0.7420044	0.2336555	-91.25789	0	11.23	4004	0	0	5	5	0.02	-0.1993517	1	10	0.03	2000	5.09898	40.92391	-91.39363
118719	-68	6	8	-0.7392675	0.2298279	-91.26436	0	11.23	4003	0	0	5	5	0.02	-0.1950135	1	10	0.03	2000	5.303102	40.92391	-91.39363
118840	-68	3	5	-0.7383588	0.2348634	-91.27473	0	11.23	4004	0	0	5	5	0.02	-0.1864337	1	10	0.03	2000	5.097405	40.92391	-91.39363
118940	-63	4	3	-0.7360047	0.2331161	-91.28108	0	11.23	4003	0	0	5	5	0.02	-0.1785437	1	10	0.03	2000	5.097405	40.92391	-91.39363
119020	-65	-2	6	-0.7382478	0.2315429	-91.28474	0	11.23	4002	0	0	5	5	0.02	-0.1766928	1	10	0.03	2000	5.079646	40.92391	-91.39363
119163	-64	-2	9	-0.7403518	0.2287109	-91.29726	0	11.23	4004	0	0	5	5	0.02	-0.139981	1	10	0.03	2000	5.102656	40.92391	-91.39363
119429	-74	1	9	-0.7358442	0.2340273	-91.31868	0	11.23	4002	0	0	5	5	0.02	-0.1259789	1	10	0.03	2000	5.061916	40.92391	-91.39363
119654	-67	-7	4	-0.7370421	0.2294452	-91.33784	0	11.23	4003	0	0	5	5	0.02	-0.1208072	1	10	0.03	2000	5.098289	40.92391	-91.39363
119835	-66	5	6	-0.7302565	0.236526	-91.35524	0	11.23	4004	0	0	5	5	0.02	-0.112811	1	10	0.03	2000	5.111333	40.92391	-91.39363
119979	-69	4	4	-0.7328776	0.2294948	-91.37172	0	11.23	4003	0	0	5	5	0.02	-0.09705361	1	10	0.03	2000	5.11065	40.92391	-91.39363
120005	-59	6	10	-0.7345722	0.2277439	-91.37453	0	11.23	4003	0	0	5	5	0.02	-0.08971179	1	10	0.03	2000	5.098393	40.92391	-91.39363
120091	-69	1	5	-0.7306297	0.2198609	-91.38063	0	11.23	4004	0	0	5	5	0.02	-0.08022513	1	10	0.03	2000	5.069779	40.92391	-91.39363
120290	-69	-1	5	-0.7314441	0.2249617	-91.39461	0	11.17	4002	0	0	5	5	0.02	-0.0776466	1	10	0.03	2000	5.090118	40.92391	-91.39363
120341	-59	0	9	-0.7333721	0.2201418	-91.40096	0	11.17	4004	0	0	5	5	0.02	-0.07980105	1	10	0.03	2000	5.092961	40.9239	-91.39363
120394	-64	4	5	-0.7315788	0.2183906	-91.40248	0	11.17	4002	0	0	5	5	0.02	-0.08098274	1	10	0.03	2000	5.30242	40.9239	-91.39363
120506	-61	0	7	-0.7252771	0.2206161	-91.41267	0	11.17	4004	0	0	5	5	0.02	-0.08757461	1	10	0.03	2000	5.071619	40.9239	-91.39363
120640	-64	6	5	-0.7159613	0.2254824	-91.42433	0	11.17	4004	0	0	5	5	0.02	-0.09073964	1	10	0.03	2000	5.047162	40.9239	-91.39363
120716	-65	4	5	-0.7154427	0.2191776	-91.43141	0	11.17	4003	0	0	5	5	0.02	-0.0925421	1	10	0.03	2000	5.047507	40.9239	-91.39363
120768	-62	2	5	-0.720741	0.2194753	-91.43428	0	11.17	4003	0	0	5	5	0.02	-0.08998112	1	10	0.03	2000	5.047507	40.9239	-91.39363
120870	-64	-1	7	-0.7225623	0.224232	-91.44441	0	11.17	4003	0	0	5	5	0.02	-0.09190914	1	10	0.03	2000	5.284385	40.9239	-91.39363
120971	-65	-2	0	-0.7266242	0.2247692	-91.45265	0	11.17	4002	0	0	5	5	0.02	-0.09651596	1	10	0.03	2000	5.06983	40.9239	-91.39363
121107	-62	1	4	-0.7232971	0.2263369	-91.459	0	11.23	4002	0	0	5	5	0.02	-0.09755827	1	10	0.03	2000	5.089375	40.9239	-91.39363
121186	-61	-5	1	-0.7164127	0.2294105	-91.46931	0	11.23	4004	0	0	5	5	0.02	-0.1008837	1	10	0.03	2000	5.067632	40.9239	-91.39363
121256	-68	3	4	-0.7184333	0.2285085	-91.47169	0	11.23	4004	0	0	5	5	0.02	-0.1035195	1	10	0.03	2000	5.050801	40.9239	-91.39363
121359	-64	7	5	-0.7148392	0.2322827	-91.47792	0	11.23	4003	0	0	5	5	0.02	-0.1097566	1	10	0.03	2000	5.068813	40.9239	-91.39363
121491	-64	4	6	-0.7106184	0.2317028	-91.48866	0	11.23	4011	0	0	5	5	0.02	-0.1152772	1	10	0.03	2000	5.058641	40.9239	-91.39363
121581	-63	0	3	-0.7052453	0.2268676	-91.49171	0	11.23	4004	0	0	5	5	0.02	-0.1277783	1	10	0.03	2000	5.058205	40.9239	-91.39363
121708	-65	0	2	-0.7037185	0.2297418	-91.49812	0	11.23	4003	0	0	5	5	0.02	-0.1358634	1	10	0.03	2000	5.047217	40.9239	-91.39363
121780	-67	4	5	-0.7013621	0.2314431	-91.50661	0	11.23	4003	0	0	5	5	0.02	-0.1425936	1	10	0.03	2000	5.06007	40.9239	-91.39363
121868	-56	1	11	-0.701099	0.2304294	-91.51479	0	11.23	4002	0	0	5	5	0.02	-0.1451377	1	10	0.03	2000	5.02353	40.9239	-91.39363
121973	-61	5	5	-0.6985792	0.2354162	-91.52345	0	11.17	4003	0	0	5	5	0.02	-0.1478364	1	10	0.03	2000	5.058541	40.9239	-91.39363
122155	-67	-4	3	-0.6990114	0.2329652	-91.53212	0	11.17	4004	0	0	5	5	0.02	-0.1471428	1	10	0.03	2000	5.04102	40.9239	-91.39363
122206	-59	2	2	-0.6959473	0.2322661	-91.53755	0	11.17	4002	0	0	5	5	0.02	-0.1418751	1	10	0.03	2000	5.021585	40.9239	-91.39363
122346	-58	3	4	-0.6859967	0.234694	-91.54659	0	11.17	4003	0	0	5	5	0.02	-0.134694	1	10	0.03	2000	5.031501	40.9239	-91.39363
122435	-63	3	5	-0.676794	0.2368334	-91.55727	0	11.17	4004	0	0	5	5	0.02	-0.1367921	1	10	0.03	2000	5.007285	40.9239	-91.39363
