time(ms)	gyro_x(deg/s)	gyro_y(deg/s)	gyro_z(deg/s)	orientation_roll(deg)	orientation_pitch(deg)	orientation_yaw(deg)	throttle	battery(V)	loop_time(uS)	pid_output_roll	pid_output_pitch	pid_output_yaw	pid_output_throttle	ultrasonic_alt	baro_alt	flight_mode	p_gain_altitude	i_gain_altitude	d_gain_altitude	compass_heading	latitude	longitude
215311	-15	0	3	-0.07082703	0.1909418	-80.34727	0	11.17	4003	0	0	5	5	0.02	0.05172037	1	10	0.03	2000	1.791994	40.92397	-91.39362
215379	-13	1	-2	-0.07208311	0.1875545	-80.34642	0	11.17	4003	0	0	5	5	0.02	0.04770055	1	10	0.03	2000	1.545207	40.92397	-91.39362
215460	-5	0	-2	-0.06714703	0.1872329	-80.34599	0	11.17	4003	0	0	5	5	0.02	0.04655779	1	10	0.03	2000	1.549795	40.92397	-91.39362
215619	-18	0	2	-0.06932606	0.1874428	-80.34587	0	11.11	4003	0	0	5	5	0.02	0.04771841	1	10	0.03	2000	1.772156	40.92397	-91.39362
215711	-18	4	-1	-0.06145931	0.1932546	-80.34721	0	11.11	4003	0	0	5	5	0.02	0.05274345	1	10	0.03	2000	1.53171	40.92397	-91.39362
215760	-11	-1	-2	-0.06037856	0.1947759	-80.34819	0	11.11	4004	0	0	5	5	0.02	0.05404331	1	10	0.03	2000	1.754554	40.92397	-91.39362
215855	-11	-3	-8	-0.0609309	0.1916555	-80.3463	0	11.11	4004	0	0	5	5	0.02	0.05653374	1	10	0.03	2000	1.764759	40.92397	-91.39362
216001	-6	1	4	-0.05965896	0.1930155	-80.34282	0	11.11	4004	0	0	5	5	0.02	0.06812959	1	10	0.03	2000	1.753134	40.92397	-91.39362
216114	-9	2	-2	-0.05733363	0.1938681	-80.34154	0	11.11	4003	0	0	5	5	0.02	0.06452227	1	10	0.03	2000	1.522959	40.92397	-91.39362
216202	-10	-3	-7	-0.0523327	0.1900097	-80.33897	0	11.11	4003	0	0	5	5	0.02	0.06380653	1	10	0.03	2000	1.289484	40.92397	-91.39362
216267	-11	0	4	-0.05248644	0.1917795	-80.33995	0	11.11	4002	0	0	5	5	0.02	0.05841802	1	10	0.03	2000	1.747537	40.92397	-91.39362
216408	-11	2	0	-0.03908642	0.1921439	-80.338	0	11.11	4003	0	0	5	5	0.02	0.05401462	1	10	0.03	2000	1.730075	40.92397	-91.39362
216476	-9	6	-2	-0.03932444	0.1863553	-80.33611	0	11.11	4003	0	0	5	5	0.02	0.05578141	1	10	0.03	2000	1.729031	40.92397	-91.39362
216648	-7	4	3	-0.03464175	0.183746	-80.33543	0	11.11	4003	0	0	5	5	0.02	0.06390307	1	10	0.03	2000	1.730701	40.92397	-91.39362
216725	-5	-5	0	-0.03224183	0.1809993	-80.33629	0	11.11	4004	0	0	5	5	0.02	0.0639707	1	10	0.03	2000	1.725349	40.92397	-91.39362
216829	-10	3	-1	-0.02955013	0.1805939	-80.33495	0	11.11	4004	0	0	5	5	0.02	0.06371997	1	10	0.03	2000	1.713931	40.92397	-91.39362
216857	-13	-4	-5	-0.03121831	0.1829199	-80.33379	0	11.11	4003	0	0	5	5	0.02	0.06353719	1	10	0.03	2000	1.708692	40.92397	-91.39362
217036	-12	0	0	-0.02849748	0.1873398	-80.33336	0	11.11	4002	0	0	5	5	0.02	0.06003971	1	10	0.03	2000	1.469871	40.92397	-91.39362
217131	-6	0	2	-0.02134582	0.1866631	-80.33281	0	11.11	4002	0	0	5	5	0.02	0.05498476	1	10	0.03	2000	1.470711	40.92397	-91.39362
217189	-4	1	-2	-0.02153081	0.1847201	-80.33257	0	11.11	4003	0	0	5	5	0.02	0.05648175	1	10	0.03	2000	1.697064	40.92397	-91.39362
217343	-6	0	-2	-0.01327273	0.1762334	-80.32933	0	11.11	4002	0	0	5	5	0.02	0.06523108	1	10	0.03	2000	1.446647	40.92397	-91.39362
217392	-13	-1	-3	-0.01192177	0.1773895	-80.32945	0	11.11	4002	0	0	5	5	0.02	0.06467544	1	10	0.03	2000	1.679911	40.92397	-91.39362
217585	-10	3	-3	-0.01317716	0.1777795	-80.3261	0	11.11	4004	0	0	5	5	0.02	0.06718287	1	10	0.03	2000	1.684621	40.92397	-91.39362
217675	-7	1	-1	-0.009110835	0.176599	-80.32536	0	11.11	4004	0	0	5	5	0.02	0.06663672	1	10	0.03	2000	1.434764	40.92397	-91.39362
217779	-8	2	0	-0.004917148	0.1731851	-80.32494	0	11.11	4002	0	0	5	5	0.02	0.06621441	1	10	0.03	2000	1.667191	40.92397	-91.39362
217915	-7	-4	4	0.0004912826	0.1777442	-80.32469	0	11.11	4004	0	0	5	5	0.02	0.06881004	1	10	0.03	2000	1.429157	40.92397	-91.39362
217984	-8	-2	-5	-0.002424415	0.1783752	-80.32445	0	11.11	4003	0	0	5	5	0.02	0.07000534	1	10	0.03	2000	1.66328	40.92397	-91.39362
218136	-6	0	0	0.001668934	0.1758455	-80.32225	0	11.11	4002	0	0	5	5	0.02	0.06587908	1	10	0.03	2000	1.645948	40.92397	-91.39362
218253	-6	0	-3	0.00164269	0.1716518	-80.32018	0	11.11	4002	0	0	5	5	0.02	0.06562911	1	10	0.03	2000	1.648677	40.92397	-91.39362
218357	-10	-3	0	0.004207187	0.1672116	-80.31889	0	11.11	4003	0	0	5	5	0.02	0.06243395	1	10	0.03	2000	1.658311	40.92397	-91.39362
218497	-4	2	-2	0.001609026	0.1688361	-80.31883	0	11.11	4003	0	0	5	5	0.02	0.0601088	1	10	0.03	2000	1.649492	40.92397	-91.39362
218563	-12	3	4	0.003023171	0.1725325	-80.32201	0	11.11	4003	0	0	5	5	0.02	0.06290094	1	10	0.03	2000	1.649004	40.92397	-91.39362
218631	-6	-1	0	0.0007064227	0.1686762	-80.32323	0	11.11	4002	0	0	5	5	0.02	0.07133488	1	10	0.03	2000	1.647799	40.92397	-91.39362
218695	-5	2	0	0.0002590863	0.1679129	-80.3242	0	11.11	4004	0	0	5	5	0.02	0.07481773	1	10	0.03	2000	1.66078	40.92397	-91.39362
218796	-4	0	2	0.01374655	0.1690901	-80.32426	0	11.11	4003	0	0	5	5	0.02	0.07732087	1	10	0.03	2000	1.632204	40.92397	-91.39362
218923	-5	2	-5	0.01777431	0.174892	-80.32365	0	11.11	4008	0	0	5	5	0.02	0.07527414	1	10	0.03	2000	1.630438	40.92397	-91.39362
218995	-10	3	-3	0.02436207	0.165875	-80.3228	0	11.11	4003	0	0	5	5	0.02	0.07185482	1	10	0.03	2000	1.375515	40.92397	-91.39362
219097	-5	1	-4	0.03220657	0.1675505	-80.32347	0	11.11	4004	0	0	5	5	0.02	0.06950782	1	10	0.03	2000	1.605277	40.92397	-91.39362
219198	-7	-1	0	0.03560748	0.1661866	-80.32353	0	11.11	4002	0	0	5	5	0.02	0.07047904	1	10	0.03	2000	1.367104	40.92397	-91.39362
219406	-3	0	2	0.03168758	0.156239	-80.32109	0	11.11	4003	0	0	5	5	0.02	0.07049038	1	10	0.03	2000	1.597927	40.92397	-91.39362
219545	-5	-1	1	0.03631819	0.1571182	-80.3217	0	11.11	4003	0	0	5	5	0.02	0.06281351	1	10	0.03	2000	1.590423	40.92397	-91.39362
219610	-8	0	-6	0.03837556	0.1601743	-80.32072	0	11.11	4002	0	0	5	5	0.02	0.05547486	1	10	0.03	2000	1.590423	40.92397	-91.39362
219702	-7	-1	4	0.03318565	0.1543096	-80.32133	0	11.11	4002	0	0	5	5	0.02	0.05058933	1	10	0.03	2000	1.350472	40.92397	-91.39362
219806	-6	1	5	0.03818247	0.1559799	-80.3203	0	11.11	4003	0	0	5	5	0.02	0.0517941	1	10	0.03	2000	1.358818	40.92397	-91.39362
219911	1	3	3	0.03589166	0.1527678	-80.32188	0	11.11	4004	0	0	5	5	0.02	0.05287649	1	10	0.03	2000	1.358286	40.92397	-91.39362
220055	1	1	0	0.04058094	0.1558107	-80.32372	0	11.11	4004	0	0	5	5	0.02	0.05517858	1	10	0.03	2000	1.586697	40.92396	-91.39362
220199	0	2	1	0.04779867	0.1581013	-80.32433	0	11.11	4003	0	0	5	5	0.02	0.05604286	1	10	0.03	2000	1.34153	40.92396	-91.39362
220257	0	-3	1	0.04665947	0.1594897	-80.32365	0	11.11	4004	0	0	5	5	0.02	0.05945593	1	10	0.03	2000	1.34153	40.92396	-91.39362
220340	-5	-3	0	0.04198319	0.1648601	-80.32384	0	11.11	4004	0	0	5	5	0.02	0.06115773	1	10	0.03	2000	1.571896	40.92396	-91.39362
220426	-6	-2	0	0.04661084	0.168484	-80.32225	0	11.11	4002	0	0	5	5	0.02	0.06513122	1	10	0.03	2000	1.349287	40.92396	-91.39362
220523	-3	0	-1	0.04899508	0.1683391	-80.32213	0	11.11	4002	0	0	5	5	0.02	0.06782927	1	10	0.03	2000	1.342499	40.92396	-91.39362
220724	-6	1	3	0.05105036	0.1764652	-80.32152	0	11.11	4003	0	0	5	5	0.02	0.06319071	1	10	0.03	2000	1.330485	40.92396	-91.39362
220816	-4	-2	-1	0.05746026	0.1751911	-80.31981	0	11.11	4002	0	0	5	5	0.02	0.06069566	1	10	0.03	2000	1.554111	40.92396	-91.39362
220959	-1	4	2	0.05253781	0.1696691	-80.31743	0	11.11	4003	0	0	5	5	0.02	0.06053595	1	10	0.03	2000	1.56254	40.92396	-91.39362
221025	0	0	-4	0.05143113	0.1700739	-80.31645	0	11.11	4003	0	0	5	5	0.02	0.05802517	1	10	0.03	2000	1.561447	40.92396	-91.39362
221224	-6	-7	-3	0.05898753	0.1750063	-80.31407	0	11.11	4004	0	0	5	5	0.02	0.0480103	3	10	0.03	2000	1.550923	40.92396	-91.39362
221266	-6	3	1	0.05822089	0.1762248	-80.31279	0	11.11	4003	0	0	5	5	0.02	0.04359912	3	10	0.03	2000	1.315802	40.92396	-91.39362
221334	2	1	1	0.05447492	0.1824147	-80.31248	0	11.11	4004	0	0	5	5	0.02	0.04150109	3	10	0.03	2000	1.318974	40.92396	-91.39362
221423	-3	1	-1	0.05522655	0.1814813	-80.31322	0	11.11	4003	0	0	5	5	0.02	0.03937539	3	10	0.03	2000	1.558081	40.92396	-91.39362
221526	-6	4	-1	0.05738131	0.1777021	-80.31285	0	11.11	4003	0	0	5	5	0.02	0.04288226	3	10	0.03	2000	1.565891	40.92396	-91.39362
221698	-3	0	0	0.05182278	0.1689558	-80.31358	0	11.11	4002	0	0	5	5	0.02	0.04796383	3	10	0.03	2000	1.329611	40.92396	-91.39362
221744	-3	4	4	0.04945849	0.1705294	-80.31322	0	11.11	4003	0	0	5	5	0.02	0.04769511	3	10	0.03	2000	1.329611	40.92396	-91.39362
221905	0	-6	2	0.05791335	0.1766087	-80.31071	0	11.11	4002	0	0	5	5	0.02	0.04302367	3	10	0.03	2000	1.549782	40.92396	-91.39362
221951	-3	-5	-2	0.05102388	0.1791017	-80.30962	0	11.11	4002	0	0	5	5	0.02	0.03578506	3	10	0.03	2000	1.333439	40.92396	-91.39362
222055	-4	2	-2	0.04897839	0.179654	-80.30724	0	11.11	4003	0	0	5	5	0.02	0.02628388	3	10	0.03	2000	1.568822	40.92396	-91.39362
222136	-2	2	-4	0.04552313	0.1807457	-80.30449	0	11.11	4002	0	0	5	5	0.02	0.02267083	3	10	0.03	2000	1.569576	40.92396	-91.39362
222293	7	5	-1	0.06357107	0.1735365	-80.30444	0	11.11	4004	0	0	5	5	0.02	0.01916656	3	10	0.03	2000	1.337599	40.92396	-91.39362
222331	-5	-54	-226	0.05223505	0.1865135	-80.29684	0	11.11	4004	0	0	5	5	0.02	0.01819824	3	10	0.03	2000	0.3565608	40.92396	-91.39362
222435	0	-82	79	0.07471704	0.1681695	-80.29605	0	11.11	4003	0	0	5	5	0.02	0.01418278	3	10	0.03	2000	1.3212	40.92396	-91.39362
222548	-4	-88	-19	-0.04684404	0.3232976	-80.30112	0	11.11	4003	0	0	5	5	0.02	0.014155	3	10	0.03	2000	0.7398517	40.92396	-91.39362
222646	-66	-75	-161	-0.06651395	0.3349863	-80.30186	0	11.11	4002	0	0	5	5	0.02	0.02228773	3	10	0.03	2000	1.782284	40.92396	-91.39362
222745	-7	-92	58	-0.0959887	0.3631579	-80.31854	0	11.11	4002	0	0	5	5	0.02	0.02958976	3	10	0.03	2000	1.083322	40.92396	-91.39362
222873	-13	34	-88	-0.1387834	0.3650326	-80.30835	0	11.11	4004	0	0	5	5	0.02	0.03432594	3	10	0.03	2000	1.188177	40.92396	-91.39362
222948	-75	-130	57	-0.1204626	0.3931534	-80.31085	0	11.11	4004	0	0	5	5	0.02	0.03845954	3	10	0.03	2000	1.685524	40.92396	-91.39362
223031	-21	48	-100	-0.1199317	0.3952363	-80.30787	0	11.11	4003	0	0	5	5	0.02	0.0462661	3	10	0.03	2000	0.2444529	40.92396	-91.39362
223129	-81	46	-27	-0.1310648	0.406981	-80.3119	0	11.11	4002	0	0	5	5	0.02	0.0601939	3	10	0.03	2000	1.837522	40.92396	-91.39362
223252	63	15	50	-0.1200667	0.4127462	-80.30859	0	11.11	4003	0	0	5	5	0.02	0.06884203	3	10	0.03	2000	1.423849	40.92396	-91.39362
223386	-54	18	-98	-0.1397283	0.4398152	-80.30611	0	11.11	4004	0	0	5	5	0.02	0.08279329	3	10	0.03	2000	1.221711	40.92396	-91.39362
223460	-78	-60	-19	-0.1382938	0.4371039	-80.30598	0	11.11	4003	0	0	5	5	0.02	0.08587097	3	10	0.03	2000	1.19549	40.92396	-91.39362
223565	-52	-12	0	-0.1373819	0.4101417	-80.31695	0	11.11	4003	0	0	5	5	0.02	0.09298607	3	10	0.03	2000	1.18983	40.92396	-91.39362
223644	50	41	-36	-0.1228712	0.4009629	-80.31354	0	11.11	4002	0	0	5	5	0.02	0.1056731	3	10	0.03	2000	0.2435787	40.92396	-91.39362
223747	88	27	85	-0.1217845	0.4065049	-80.31788	0	11.11	4003	0	0	5	5	0.02	0.1325044	3	10	0.03	2000	1.908271	40.92396	-91.39362
223852	-21	-45	3	-0.1342849	0.407105	-80.3144	0	11.11	4003	0	0	5	5	0.02	0.1525066	3	10	0.03	2000	1.185323	40.92396	-91.39362
223953	-49	84	-134	-0.1422381	0.3850752	-80.31158	0	11.06	4004	0	0	5	5	0.02	0.1618347	3	10	0.03	2000	1.85866	40.92396	-91.39362
224088	-80	-39	91	-0.1604879	0.4086835	-80.3272	0	11.06	4002	0	0	5	5	0.02	0.1617726	3	10	0.03	2000	1.952307	40.92396	-91.39362
224177	-39	-68	53	-0.1427865	0.4263072	-80.31809	0	11.06	4002	0	0	5	5	0.02	0.1644145	3	10	0.03	2000	0.527653	40.92396	-91.39362
224327	33	78	-65	-0.2042581	0.3849185	-80.32025	0	11.06	4004	0	0	5	5	0.02	0.1664117	3	10	0.03	2000	1.504909	40.92396	-91.39362
224384	-94	26	-103	-0.1905508	0.3854173	-80.32207	0	11.06	4004	0	0	5	5	0.02	0.1674963	3	10	0.03	2000	1.056153	40.92396	-91.39362
224519	-165	-83	43	-0.1697427	0.3784846	-80.32751	0	11.06	4003	0	0	5	5	0.02082707	0.1686911	6	10	0.03	2000	2.009254	40.92396	-91.39362
224586	-103	-26	15	-0.1937686	0.4304217	-80.33179	0	11.06	4004	0	0	5	5	0.0243096	0.1695284	6	10	0.03	2000	0.8191494	40.92396	-91.39362
224749	4	-8	98	-0.2376736	0.4758054	-80.34241	0	11.06	4003	0	0	5	5	0.03554492	0.1686786	6	10	0.03	2000	2.111943	40.92396	-91.39362
224868	32	-52	35	-0.2663766	0.4661275	-80.34779	0	11.06	4004	0	0	5	5	0.03882756	0.1632253	6	10	0.03	2000	1.654298	40.92396	-91.39362
224967	-97	-79	103	-0.3092095	0.434709	-80.35489	0	11.06	4003	0	0	5	5	0.04318766	0.154273	6	10	0.03	2000	1.654298	40.92396	-91.39362
225016	23	-146	278	-0.2722752	0.4341409	-80.36689	0	11.06	4004	0	0	5	5	0.0455101	0.1462461	6	10	0.03	2000	1.195316	40.92396	-91.39362
225115	-78	-188	117	-0.3354683	0.3918752	-80.36983	0	11.06	4002	0	0	5	5	0.04677588	0.1380737	6	10	0.03	2000	1.477221	40.92396	-91.39362
225237	308	9	4	-0.3080129	0.3321606	-80.36257	0	11.06	4002	0	0	5	5	0.04824288	0.1241845	6	10	0.03	2000	2.488398	40.92396	-91.39362
225282	77	-90	304	-0.3365466	0.3213863	-80.38715	0	11.06	4003	0	0	5	5	0.04927973	0.1088328	6	10	0.03	2000	2.488398	40.92396	-91.39362
225413	187	152	-367	-0.4605398	0.171403	-80.37415	0	11.06	4003	0	0	5	5	0.04982089	0.09995559	6	10	0.03	2000	1.935786	40.92396	-91.39362
225477	-65	44	217	-0.4376394	0.1492498	-80.40276	0	11.06	4003	0	0	5	5	0.05039109	0.09858281	6	10	0.03	2000	2.12194	40.92396	-91.39362
225546	82	66	307	-0.4511107	0.1394827	-80.42038	0	11.06	4004	0	0	5	5	0.05065885	0.1058264	6	10	0.03	2000	1.836845	40.92396	-91.39362
225744	-15	155	-433	-0.469278	0.3602045	-80.40147	0	11.06	4004	0	0	5	5	0.0515117	0.1169074	6	10	0.03	2000	1.81228	40.92396	-91.39362
225860	68	23	-526	-0.5275	0.2550259	-80.4364	0	10.94	4003	0	0	5	5	0.05142192	0.1307953	6	10	0.03	2000	1.814323	40.92396	-91.39362
225984	425	92	-651	-0.67981	0.2049331	-80.44942	0	10.94	4003	0	0	5	5	0.05263449	0.1436436	6	10	0.03	2000	1.366406	40.92396	-91.39362
226083	185	64	-209	-0.6376348	0.2312174	-80.48238	0	10.94	4003	0	0	5	5	0.05325614	0.164186	6	10	0.03	2000	2.180786	40.92396	-91.39362
226144	157	-134	-139	-0.7718367	0.2148049	-80.46429	0	10.94	4004	0	0	5	5	0.05310849	0.1752375	6	10	0.03	2000	2.180786	40.92396	-91.39362
226247	218	149	-343	-0.8777185	0.09825222	-80.44849	0	10.94	4003	0	0	5	5	0.04779764	0.1812362	6	10	0.03	2000	3.228374	40.92396	-91.39362
226397	-236	-3	-557	-0.7997812	-0.03290538	-80.39214	0	10.94	4003	0	0	5	5	0.05004469	0.1852964	6	10	0.03	2000	2.474239	40.92396	-91.39362
226506	69	163	-74	-0.8788459	0.02084065	-80.25609	0	10.94	4004	0	0	5	5	0.0504413	0.1899407	6	10	0.03	2000	2.471772	40.92396	-91.39362
226629	-16	-202	-651	-0.9824334	0.142608	-79.93771	0	10.94	4002	0	0	5	5	0.05136533	0.2018992	6	10	0.03	2000	2.726862	40.92396	-91.39362
226647	-16	-202	-651	-0.9824334	0.142608	-79.93771	0	10.94	4002	0	0	5	5	0.0512023	0.202201	6	10	0.03	2000	2.726862	40.92395	-91.39362
226796	142	106	27	-1.126873	0.5914357	-79.42393	0	10.43	4002	0	0	5	5	0.05208133	0.2047858	6	10	0.03	2000	3.119744	40.92395	-91.39362
226845	149	217	-188	-1.053701	0.4965801	-79.48227	0	10.43	4004	0	0	5	5	0.0521554	0.2049146	6	10	0.03	2000	3.119744	40.92395	-91.39362
226980	327	-994	645	-0.2008157	1.942532	-79.85125	0	10.43	4009	0	0	5	5	0.05144174	0.2058985	6	10	0.03	2000	3.613024	40.92395	-91.39362
227073	531	-538	705	1.011899	2.377317	-80.18091	0	10.43	4004	0	0	5	5	0.05217765	0.2043205	6	10	0.03	2000	4.166105	40.92395	-91.39362
227195	122	2147	709	-0.1351485	1.22189	-81.00645	0	10.43	4003	0	0	5	5	0.05648019	0.2394151	6	10	0.03	2000	6.512733	40.92395	-91.39362
227238	1162	2073	-204	0.003253997	-1.005735	-80.75266	0	10.43	4003	0	0	5	5	0.05872117	0.2455391	6	10	0.03	2000	5.683476	40.92395	-91.39362
227367	955	139	-694	1.163157	-5.203776	-80.23591	0	10.43	4004	0	0	5	5	0.06872022	0.2807633	6	10	0.03	2000	7.11697	40.92395	-91.39362
227441	-605	-1611	111	1.001134	-4.199547	-80.3699	0	10.43	4004	0	0	5	5	0.07471017	0.293601	6	10	0.03	2000	7.239655	40.92395	-91.39362
227598	1256	1492	-1573	-0.1965196	-3.309502	-80.30836	0	9.53	4003	0	0	5	5	0.1111294	0.3097832	6	10	0.03	2000	10.00228	40.92395	-91.39362
227664	-129	113	-908	0.1945476	-4.719198	-80.00237	0	9.53	4003	0	0	5	5	0.1195368	0.3193649	6	10	0.03	2000	9.665016	40.92395	-91.39362
227777	1103	-47	-975	1.575047	-5.303152	-79.14293	0	9.53	4002	0	0	5	5	0.1974497	0.3404591	8	10	0.03	2000	8.036951	40.92395	-91.39362
227900	-3022	-6150	39	0.41291	-3.023858	-79.25179	0	9.53	4003	-52	182	5	5	0.1596774	0.3625383	8	10	0.03	2000	7.61011	40.92395	-91.39362
227954	3473	-1210	85	2.496961	4.087697	-79.18283	0	9.53	4004	-52	182	5	5	0.1047644	0.3952563	8	10	0.03	2000	12.88104	40.92395	-91.39362
228004	1366	-3842	399	3.598277	4.813828	-79.23969	0	9.53	4003	-52	182	5	5	0.09428794	0.4107312	8	10	0.03	2000	14.84175	40.92395	-91.39362
228090	-811	2367	1106	4.820552	6.609229	-79.9684	0	9.53	4002	-52	182	5	5	0.07637323	0.4339965	8	10	0.03	2000	18.76515	40.92395	-91.39362
228187	-80	1519	-217	3.056457	2.25862	-80.62274	0	9.53	4004	-52	182	5	5	0.05010848	0.4767203	8	10	0.03	2000	25.3485	40.92395	-91.39362
228337	-2686	843	883	1.243548	-0.9264979	-79.50481	0	9.53	4002	7	152	5	5	0.03287617	0.5207205	8	10	0.03	2000	23.40329	40.92395	-91.39361
228431	-1744	-774	274	-0.6443028	-1.937099	-79.42049	0	9.53	4004	59	-29	5	5	0.02396673	0.5553982	8	10	0.03	2000	21.81469	40.92395	-91.39361
228495	519	4773	-295	-0.3297624	-4.34314	-78.63703	0	10.26	4002	59	-29	5	5	0.02	0.5798941	8	10	0.03	2000	22.59084	40.92395	-91.39361
228620	-2024	4152	298	-5.376678	-12.53834	-78.80505	0	10.26	4003	59	-59	5	5	0.02	0.6344923	8	10	0.03	2000	16.21969	40.92394	-91.39361
228712	-809	1843	-37	-6.347915	-18.14859	-79.18535	0	10.26	4003	59	-59	5	5	0.02	0.6651797	8	10	0.03	2000	10.27952	40.92394	-91.39361
228805	-1075	-2599	31	-6.62526	-10.83463	-78.67042	0	10.26	4004	118	-59	5	5	0.02	0.7364116	8	10	0.03	2000	4.379325	40.92394	-91.3936
228875	-2025	-977	677	-6.936753	-10.06581	-78.81753	0	10.26	4003	67	-33	5	5	0.02	0.7832144	8	10	0.03	2000	2.537495	40.92394	-91.3936
228993	1162	1054	1020	-5.878564	-10.33052	-80.12998	0	10.26	4002	66	-33	5	5	0.02	0.8665718	8	10	0.03	2000	1.341372	40.92394	-91.3936
229080	-1078	-2831	791	-3.588577	-8.28554	-80.05914	0	10.26	4002	66	-33	5	5	0.02	0.9202594	8	10	0.03	2000	-2.655029	40.92394	-91.3936
229216	771	373	775	-2.973396	-6.278542	-79.14294	0	10.26	4002	125	-37	5	5	0.02	1.011603	8	10	0.03	2000	-2.963959	40.92394	-91.39359
229332	-2078	-2419	1076	-9.001883	-4.578244	-79.33316	0	10.26	4003	125	-66	5	5	0.02	1.238068	8	10	0.03	2000	-6.382904	40.92393	-91.39359
229383	79	-127	1650	-8.762608	-2.59228	-79.76574	0	10.26	4003	125	-66	5	5	0.02	1.254849	8	10	0.03	2000	-8.688751	40.92393	-91.39359
229516	673	725	262	-8.240273	-4.457739	-80.81168	0	10.26	4002	73	-66	5	5	0.02	1.394696	8	10	0.03	2000	-9.533966	40.92393	-91.39359
229566	-412	-323	-236	-7.258077	-4.791062	-80.50806	0	10.26	4002	73	-66	5	5	0.02	1.4126	8	10	0.03	2000	-12.44742	40.92393	-91.39359
229662	1081	443	-396	-5.07727	-5.305204	-79.55161	0	10.26	4002	73	-66	5	5	0.02	1.481936	8	10	0.03	2000	-13.61111	40.92393	-91.39359
229845	-1228	-92	475	-6.032592	-5.371034	-79.49355	0	10.26	4004	80	-70	5	5	0.02	1.624642	8	10	0.03	2000	-15.43076	40.92393	-91.39359
229871	-75	402	1157	-5.811402	-5.236368	-79.51094	0	10.26	4003	80	-70	5	5	0.02	1.667011	8	10	0.03	2000	-15.43076	40.92393	-91.39359
229969	-1129	140	-274	-5.780456	-4.954222	-79.85355	0	10.26	4003	80	-73	5	5	0.02	1.773968	8	10	0.03	2000	-15.95236	40.92393	-91.39359
230088	279	-254	108	-6.673896	-4.175537	-79.79774	0	10.26	4003	21	-73	5	5	0.02	1.945136	8	10	0.03	2000	-17.09683	40.92393	-91.39359
230243	415	916	-709	-4.307534	-5.017551	-79.54972	0	10.26	4003	21	-103	5	5	0.02	2.043591	8	10	0.03	2000	-18.85892	40.92392	-91.39359
230314	-108	1484	317	-3.933553	-6.349433	-79.38663	0	10.72	4002	21	-103	5	5	0.02	2.071175	8	10	0.03	2000	-18.16006	40.92392	-91.39359
230374	602	1766	963	-2.72416	-8.27385	-79.32889	0	10.72	4004	-30	-77	5	5	0.02	2.109348	8	10	0.03	2000	-19.8905	40.92392	-91.39359
230477	951	1285	120	-1.643303	-8.288138	-79.43901	0	10.72	4002	-30	-106	5	5	0.02	2.147133	8	10	0.03	2000	-17.14981	40.92392	-91.39359
230679	1928	-1447	-339	0.3176768	-7.080214	-80.01343	0	10.72	4003	-89	-81	5	5	0.02	2.254202	8	10	0.03	2000	-13.72479	40.92392	-91.3936
230715	1091	-904	-709	1.04416	-6.257031	-79.93214	0	10.72	4004	-38	-80	5	5	0.02	2.263695	8	10	0.03	2000	-13.72479	40.92392	-91.3936
230770	186	122	326	0.7834891	-5.926922	-80.17259	0	10.72	4002	-37	-80	5	5	0.02	2.30456	8	10	0.03	2000	-12.18573	40.92392	-91.3936
230935	966	-171	432	1.031957	-5.686184	-79.68269	0	10.72	4003	-37	-54	5	5	0.02	2.337598	8	10	0.03	2000	-10.02551	40.92392	-91.3936
230983	2075	209	-734	1.821031	-5.989767	-79.23075	0	10.72	4004	-37	-54	5	5	0.02	2.352573	8	10	0.03	2000	-10.1666	40.92392	-91.3936
231105	-2036	148	1541	2.654263	-7.724187	-79.04853	0	10.72	4002	-37	-58	5	5	0.02	2.37434	8	10	0.03	2000	-8.593567	40.92392	-91.3936
231195	1456	-193	-429	1.18247	-6.946166	-79.50414	0	10.32	4002	-97	-58	5	5	0.02	2.384412	8	10	0.03	2000	-7.591797	40.92392	-91.39361
231306	2725	1711	-1723	2.943963	-8.597899	-79.61407	0	10.32	4004	-44	-58	5	5	0.02	2.400753	8	10	0.03	2000	-6.324707	40.92392	-91.39361
231375	-1517	-922	1537	2.927918	-10.477	-79.76019	0	10.32	4004	-44	-58	5	5	0.02	2.406173	8	10	0.03	2000	-3.365234	40.92392	-91.39361
231514	150	747	1219	1.794401	-6.736948	-79.5384	0	10.32	4002	-44	-58	5	5	0.02	2.39377	8	10	0.03	2000	-2.782288	40.92392	-91.39362
231618	148	-1247	1600	2.977316	-6.827237	-79.22961	0	10.32	4003	-104	-58	5	5	0.02	2.380043	8	10	0.03	2000	0.1189144	40.92392	-91.39362
231678	-208	-1250	439	3.068326	-6.472816	-79.15218	0	10.32	4004	-104	-32	5	5	0.02	2.372445	8	10	0.03	2000	0.5385903	40.92392	-91.39362
231815	202	-1438	724	4.234472	-5.524681	-79.25623	0	10.32	4002	-104	-32	5	5	0.02	2.358434	8	10	0.03	2000	2.656354	40.92392	-91.39362
231887	-605	-605	-421	3.249305	-4.33765	-79.49877	0	10.32	4003	-52	-32	5	5	0.02	2.338307	8	10	0.03	2000	3.377665	40.92392	-91.39362
232028	34	-625	-436	3.443097	-4.638994	-79.53151	0	10.32	4004	-52	-32	5	5	0.02	2.299354	8	10	0.03	2000	5.823688	40.92392	-91.39362
232116	1901	-361	-1091	2.897464	-3.278918	-79.66257	0	9.64	4002	-52	-32	5	5	0.02	2.281836	8	10	0.03	2000	7.183194	40.92392	-91.39362
232169	1894	-83	1109	3.742447	-3.303244	-79.58055	0	9.64	4004	0	-32	5	5	0.02	2.269837	8	10	0.03	2000	8.835462	40.92392	-91.39362
232285	570	1508	1691	2.600564	-7.482215	-79.12624	0	9.64	4002	-59	-32	5	5	0.02	2.243422	8	10	0.03	2000	11.00739	40.92392	-91.39362
232413	1163	-995	-102	2.567154	-6.573781	-78.45465	0	9.64	4004	-59	-32	5	5	0.02	2.202072	8	10	0.03	2000	12.57726	40.92392	-91.39362
232514	147	-524	1421	2.736733	-6.809095	-79.27303	0	9.64	4003	-59	-2	5	5	0.02	2.164153	8	10	0.03	2000	15.10412	40.92392	-91.39362
232621	670	-769	1640	2.964289	-5.349825	-79.76622	0	9.64	4004	-59	-2	5	5	0.02	2.155556	8	10	0.03	2000	17.61378	40.92392	-91.39362
232679	1392	-1710	-846	3.300354	-4.886264	-79.62666	0	9.64	4003	-59	-2	5	5	0.02	2.150534	8	10	0.03	2000	17.61378	40.92392	-91.39362
232783	959	694	400	4.066405	-5.412655	-79.37462	0	9.64	4002	-59	-2	5	5	0.02	2.145376	8	10	0.03	2000	20.55405	40.92392	-91.39362
232929	-2012	-729	133	2.46619	-4.120955	-79.25897	0	9.64	4003	52	-2	5	5	0.02	2.148161	8	10	0.03	2000	23.79836	40.92392	-91.39362
233052	-1661	-583	1446	-1.417767	-3.640471	-80.5087	0	10.26	4004	52	-2	5	5	0.02	2.152956	8	10	0.03	2000	25.35066	40.92392	-91.39362
233099	-1943	-640	131	-1.92404	-3.647273	-80.63179	0	10.26	4004	52	-2	5	5	0.02	2.153932	8	10	0.03	2000	25.35066	40.92392	-91.39362
233267	433	-593	-881	-2.880395	-5.448028	-79.63683	0	10.26	4003	52	-28	5	5	0.02	2.173913	8	10	0.03	2000	26.2916	40.92392	-91.39362
233291	433	-593	-881	-2.880395	-5.448028	-79.63683	0	10.26	4003	52	-28	5	5	0.02	2.173913	8	10	0.03	2000	26.2916	40.92392	-91.39362
233416	233	-403	-493	-3.852958	-4.50065	-79.59535	0	10.26	4004	52	-28	5	5	0.02	2.188034	8	10	0.03	2000	26.99964	40.92392	-91.39362
233478	-1311	902	2230	-3.999059	-5.174431	-80.11781	0	10.26	4003	0	-28	5	5	0.02	2.188136	8	10	0.03	2000	29.10003	40.92392	-91.39362
233588	1457	365	550	-3.140267	-7.163869	-80.1976	0	10.26	4003	59	-28	5	5	0.02	2.190127	8	10	0.03	2000	29.15708	40.92392	-91.39361
233741	-1288	-1420	-1371	-2.682885	-6.832505	-78.11314	0	10.26	4002	118	-58	5	5	0.02	2.200209	8	10	0.03	2000	29.00063	40.92392	-91.3936
233843	-3182	1414	283	-5.219106	-6.946779	-78.69725	0	10.26	4003	118	-58	5	5	0.02	2.207399	8	10	0.03	2000	30.47704	40.92392	-91.3936
233884	-255	1348	1587	-6.259541	-10.40616	-80.16825	0	10.26	4002	118	-58	5	5	0.02	2.213455	8	10	0.03	2000	21.70031	40.92392	-91.3936
234003	-1952	-87	-30	-6.208451	-10.47765	-80.88388	0	10.43	4003	118	-58	5	5	0.02	2.229071	8	10	0.03	2000	16.54087	40.92392	-91.3936
234088	-2094	709	-494	-8.293017	-10.24312	-80.08589	0	10.43	4004	118	-58	5	5	0.02	2.228136	8	10	0.03	2000	16.2246	40.92392	-91.3936
234213	-697	1733	-1083	-10.27417	-13.43081	-79.05325	0	10.43	4002	66	-58	5	5	0.02	2.214119	8	10	0.03	2000	6.636754	40.92392	-91.3936
234294	-2156	2640	2562	-8.592617	-14.91051	-79.72507	0	10.43	4003	66	-58	5	5	0.02	2.201439	8	10	0.03	2000	-2.722137	40.92391	-91.39359
234403	663	3678	-1429	-8.868633	-17.42416	-80.02753	0	10.43	4003	74	-62	5	5	0.02	2.182986	8	10	0.03	2000	-6.007385	40.92391	-91.39359
234497	2238	722	-2370	-5.933673	-19.26462	-78.92295	0	10.43	4002	73	-61	5	5	0.02	2.170538	8	10	0.03	2000	-8.249176	40.92391	-91.39359
234598	-1788	-1995	-1311	-5.550741	-13.6411	-78.18663	0	10.43	4002	73	-62	5	5	0.02	2.140954	8	10	0.03	2000	-9.10495	40.92391	-91.39359
234705	-451	-1225	240	-5.878824	-11.39693	-78.66803	0	10.43	4004	132	-62	5	5	0.02	2.130814	8	10	0.03	2000	-12.2272	40.92391	-91.39359
234804	-306	690	-401	-7.247979	-8.676355	-79.63705	0	10.43	4003	133	-62	5	5	0.02	2.123453	8	10	0.03	2000	-13.48355	40.92391	-91.39359
234967	382	-1427	-1437	-7.976135	-8.260955	-79.24702	0	10.21	4004	80	-65	5	5	0.02	2.107522	8	10	0.03	2000	-14.27792	40.92391	-91.39359
234999	700	-819	-90	-7.302099	-7.651445	-79.2753	0	10.21	4003	80	-65	5	5	0.02	2.107522	8	10	0.03	2000	-15.491	40.92391	-91.39359
235174	-449	809	-986	-6.163005	-8.499249	-79.13434	0	10.21	4003	80	-65	5	5	0.02	2.078584	8	10	0.03	2000	-17.1362	40.92391	-91.39359
235217	152	1549	1476	-6.553837	-10.05568	-79.03	0	10.21	4003	80	-65	5	5	0.02	2.070011	8	10	0.03	2000	-19.59753	40.92391	-91.39359
235293	3032	305	-225	-3.993884	-10.62243	-78.83004	0	10.21	4004	28	-65	5	5	0.02	2.051519	8	10	0.03	2000	-19.52155	40.92391	-91.39359
235431	766	-408	1012	0.4794363	-9.276261	-79.24996	0	10.21	4003	28	-65	5	5	0.02	2.031261	8	10	0.03	2000	-16.21262	40.92391	-91.39359
235490	2306	-117	950	1.350989	-7.858644	-79.96775	0	10.21	4004	28	-39	5	5	0.02	2.022025	8	10	0.03	2000	-16.35611	40.92391	-91.39359
235581	1417	-59	82	2.735909	-7.415676	-79.94271	0	10.21	4004	28	-39	5	5	0.02	2.013758	8	10	0.03	2000	-15.02762	40.92391	-91.39359
235683	-1799	-452	-213	2.141549	-7.142837	-79.50342	0	10.21	4003	28	-39	5	5	0.02	2.002437	8	10	0.03	2000	-13.56155	40.92391	-91.39359
235785	1037	1246	681	0.4974048	-6.220605	-78.65454	0	9.36	4004	28	-39	5	5	0.02	1.98677	8	10	0.03	2000	-13.77203	40.92391	-91.39359
235887	-507	2262	717	0.02205244	-8.153833	-78.63157	0	9.36	4003	28	-39	5	5	0.02	1.970472	8	10	0.03	2000	-13.50854	40.92391	-91.39359
236046	3136	3437	-194	-1.803756	-13.02162	-79.42464	0	9.36	4004	28	-69	5	5	0.02	1.960066	8	10	0.03	2000	-11.71567	40.9239	-91.39359
236167	-434	1464	1405	-2.07879	-17.23413	-79.35813	0	9.36	4002	28	-69	5	5	0.02	1.95921	8	10	0.03	2000	-10.62415	40.9239	-91.39359
236217	860	-209	790	-1.899904	-16.82554	-79.07874	0	9.36	4004	28	-69	5	5	0.02	1.966769	8	10	0.03	2000	-10.66266	40.9239	-91.39359
236289	-1147	-3288	-655	-2.603029	-13.65131	-78.93326	0	9.36	4004	-30	-69	5	5	0.02	1.970191	8	10	0.03	2000	-9.559052	40.9239	-91.39359
236387	122	-208	462	-3.221596	-9.995977	-79.62164	0	9.36	4002	-30	-69	5	5	0.02	1.991953	8	10	0.03	2000	-7.881165	40.9239	-91.39359
236501	1784	-1661	1071	-1.753882	-9.420158	-80.64963	0	9.36	4004	-24	-32	5	5	0.02	2.031285	8	10	0.03	2000	-7.430115	40.92391	-91.39359
236578	860	-4219	-658	-0.9279096	-5.161747	-80.52681	0	9.36	4004	-30	-13	5	5	0.02	2.045788	8	10	0.03	2000	-7.870697	40.92391	-91.39359
236684	242	-932	-1094	0.1855445	-2.516898	-79.58025	0	10.26	4003	-30	-13	5	5	0.02	2.092433	8	10	0.03	2000	-5.365051	40.92391	-91.39359
236785	434	-706	-1131	0.6571555	-3.604824	-79.25452	0	10.26	4002	-36	-16	5	5	0.02	2.121563	8	10	0.03	2000	-6.502075	40.92391	-91.39359
236951	835	-425	396	-0.008918422	-3.505328	-79.75625	0	10.26	4002	21	-13	5	5	0.02	2.179677	8	10	0.03	2000	-3.064545	40.92391	-91.39359
236991	-1605	-602	2220	1.013024	-3.519093	-79.81805	0	10.26	4003	21	-13	5	5	0.02	2.185997	8	10	0.03	2000	-1.74292	40.92391	-91.3936
237113	2377	-135	722	0.8352033	-3.373376	-79.83511	0	10.26	4002	-37	16	5	5	0.02	2.218518	8	10	0.03	2000	-1.013855	40.92391	-91.3936
237246	-417	1074	1302	1.656727	-4.551262	-79.22076	0	10.26	4002	-37	-10	5	5	0.02	2.234821	8	10	0.03	2000	-0.2230835	40.92391	-91.3936
237357	459	2894	1342	1.717254	-7.251905	-79.1814	0	10.26	4002	-37	-10	5	5	0.02	2.24672	8	10	0.03	2000	1.737409	40.92391	-91.3936
237404	-372	2472	923	1.221398	-8.254079	-79.30342	0	10.26	4003	-37	19	5	5	0.02	2.247475	8	10	0.03	2000	2.533507	40.92392	-91.3936
237513	2598	1397	333	1.085163	-11.87972	-79.46388	0	10.26	4003	-37	19	5	5	0.02	2.235736	8	10	0.03	2000	4.027971	40.92392	-91.3936
237642	-101	196	-666	2.409399	-12.33882	-79.43665	0	10.55	4002	-37	19	5	5	0.02	2.213833	8	10	0.03	2000	5.513015	40.92392	-91.3936
237744	-433	668	626	-0.71986	-11.22351	-79.29633	0	10.55	4004	14	-6	5	5	0.02	2.185748	8	10	0.03	2000	5.988343	40.92392	-91.3936
237826	-1461	-580	2117	-1.548851	-11.09247	-79.34946	0	10.55	4003	14	-6	5	5	0.02	2.174527	8	10	0.03	2000	7.56215	40.92392	-91.3936
237971	-806	-974	-10	-5.110615	-8.705145	-79.2309	0	10.55	4004	14	23	5	5	0.02	2.144989	8	10	0.03	2000	6.349779	40.92392	-91.3936
238023	-1317	-1131	-1270	-6.082036	-8.144467	-79.24426	0	10.55	4002	14	-2	5	5	0.02	2.142293	8	10	0.03	2000	5.887532	40.92392	-91.3936
238113	950	556	1350	-5.681545	-7.950369	-79.49258	0	10.55	4003	14	-2	5	5	0.02	2.144552	8	10	0.03	2000	6.089265	40.92392	-91.3936
238184	-2026	-77	666	-5.439428	-8.301045	-79.7759	0	10.55	4003	14	-2	5	5	0.02	2.144601	8	10	0.03	2000	4.228917	40.92392	-91.3936
238320	1352	2254	558	-5.374611	-10.37488	-79.78481	0	10.55	4002	14	-2	5	5	0.02	2.155606	8	10	0.03	2000	3.091846	40.92392	-91.3936
238388	305	2338	1884	-4.791817	-11.15811	-79.77905	0	10.55	4002	14	-2	5	5	0.02	2.159219	8	10	0.03	2000	1.863183	40.92392	-91.3936
238489	813	481	-2099	-5.476378	-13.66623	-79.40965	0	10.55	4003	14	-2	5	5	0.02	2.188978	8	10	0.03	2000	-1.139893	40.92392	-91.3936
238611	1212	-1303	420	-4.86437	-10.48421	-79.92484	0	9.41	4002	14	-28	5	5	0.02	2.220705	8	10	0.03	2000	-1.766296	40.92392	-91.3936
238723	-178	-2109	-1412	-3.033316	-7.056812	-80.02966	0	9.41	4002	14	0	5	5	0.02	2.243107	8	10	0.03	2000	-1.41272	40.92392	-91.3936
238804	926	9	-1274	-3.767765	-7.410907	-80.17938	0	9.41	4004	14	0	5	5	0.02	2.259351	8	10	0.03	2000	-1.342133	40.92392	-91.3936
238870	2305	410	350	-1.328676	-8.030551	-79.74768	0	9.41	4004	14	0	5	5	0.02	2.271103	8	10	0.03	2000	-1.457153	40.92392	-91.3936
238981	-944	-1278	-193	-1.122297	-7.886051	-78.895	0	9.41	4004	14	0	5	5	0.02	2.286704	8	10	0.03	2000	-1.278503	40.92393	-91.3936
239124	-1028	-3024	140	-0.3665738	-5.68187	-78.90931	0	9.41	4004	14	30	5	5	0.02	2.313845	8	10	0.03	2000	-0.09796143	40.92393	-91.3936
239207	254	-1563	261	-1.158486	-2.361104	-79.47827	0	9.41	4003	14	30	5	5	0.02	2.328536	8	10	0.03	2000	1.537266	40.92393	-91.3936
239343	-1875	1075	1461	-2.601815	-1.411935	-80.8218	0	9.41	4004	14	4	5	5	0.02	2.361914	8	10	0.03	2000	3.200399	40.92393	-91.3936
239400	550	683	-1342	-3.659001	-3.267365	-80.77715	0	10.43	4003	14	4	5	5	0.02	2.364318	8	10	0.03	2000	4.443493	40.92393	-91.3936
239476	1752	862	445	-2.909002	-3.959855	-80.53478	0	10.43	4003	14	4	5	5	0.02	2.36756	8	10	0.03	2000	2.354479	40.92393	-91.3936
239651	475	247	1166	-3.209591	-1.360958	-79.56794	0	10.43	4002	14	8	5	5	0.02	2.373267	8	10	0.03	2000	4.944745	40.92393	-91.3936
239730	1087	1121	694	-2.524769	-2.16983	-79.61832	0	10.43	4004	14	8	5	5	0.02	2.376705	8	10	0.03	2000	6.240767	40.92393	-91.3936
239868	854	117	408	-1.944474	-1.949444	-79.2918	0	10.43	4003	14	8	5	5	0.02	2.374582	8	10	0.03	2000	9.42696	40.92393	-91.3936
239899	296	-178	1450	-1.66871	-1.986152	-79.27994	0	10.43	4004	14	8	5	5	0.02	2.37118	8	10	0.03	2000	9.42696	40.92393	-91.3936
239969	-469	-9	-1225	-2.272363	-3.016289	-79.86777	0	10.43	4002	14	-21	5	5	0.02	2.361867	8	10	0.03	2000	12.34825	40.92393	-91.3936
240166	-348	2088	1784	-2.1871	-4.043586	-79.81407	0	10.43	4003	14	-21	5	5	0.02	2.327265	8	10	0.03	2000	13.95921	40.92393	-91.3936
240182	-572	3308	-349	-2.738169	-5.402448	-79.67834	0	10.43	4004	14	-21	5	5	0.02	2.32302	8	10	0.03	2000	13.95921	40.92393	-91.3936
240389	440	1667	29	-3.660187	-13.44521	-79.63745	0	10.38	4004	14	-47	5	5	0.02	2.312832	8	10	0.03	2000	1.997676	40.92393	-91.3936
240489	231	2653	-148	-4.597071	-18.10054	-78.49201	0	10.38	4004	14	-47	5	5	0.02	2.29855	8	10	0.03	2000	-3.781372	40.92392	-91.3936
240636	763	1780	425	-4.462634	-17.69293	-79.01193	0	10.38	4003	14	-51	5	5	0.02	2.290675	8	10	0.03	2000	-5.281494	40.92392	-91.3936
240777	-414	1936	-1051	-3.937839	-18.1149	-80.45757	0	10.38	4004	73	-80	5	5	0.02	2.282966	8	10	0.03	2000	-5.835876	40.92392	-91.39359
240842	490	-1279	-1966	-4.515196	-19.34238	-80.07526	0	10.38	4002	73	-80	5	5	0.02	2.27394	8	10	0.03	2000	-5.630676	40.92392	-91.39359
240893	-846	-4055	-1178	-4.258121	-14.9609	-79.45416	0	10.38	4002	73	-81	5	5	0.02	2.266146	8	10	0.03	2000	-5.106171	40.92392	-91.39359
241027	-585	0	-418	-4.711161	-10.83839	-79.04755	0	10.38	4002	73	-110	5	5	0.02	2.256323	8	10	0.03	2000	-5.276184	40.92392	-91.39359
241066	1366	1495	483	-3.678849	-11.39544	-78.88753	0	10.38	4002	73	-110	5	5	0.02	2.253131	8	10	0.03	2000	-5.770905	40.92392	-91.39359
241234	2069	508	-105	-4.655355	-10.41228	-79.82372	0	10.77	4004	73	-84	5	5	0.02	2.251705	8	10	0.03	2000	-8.182526	40.92392	-91.39359
241335	-1414	475	-1661	-4.640126	-10.95774	-79.6312	0	10.77	4004	21	-58	5	5	0.02	2.254496	8	10	0.03	2000	-8.095245	40.92392	-91.39359
241356	-894	-1100	-585	-5.057838	-10.32701	-79.69713	0	10.77	4003	21	-58	5	5	0.02	2.256273	8	10	0.03	2000	-8.095245	40.92392	-91.39359
241456	-317	-525	-1129	-4.878982	-6.613803	-79.64711	0	10.77	4003	21	-88	5	5	0.02	2.260158	8	10	0.03	2000	-7.407898	40.92391	-91.39359
241556	-225	328	-1409	-4.305421	-7.871554	-79.72275	0	10.77	4004	21	-88	5	5	0.02	2.270998	8	10	0.03	2000	-9.051575	40.92391	-91.39359
241652	1363	1273	-462	-3.630974	-8.455979	-79.5968	0	10.77	4002	21	-62	5	5	0.02	2.29176	8	10	0.03	2000	-11.36664	40.92391	-91.39359
241808	2208	611	406	-2.219283	-7.04621	-78.99648	0	10.77	4002	21	-61	5	5	0.02	2.297594	8	10	0.03	2000	-9.617279	40.92391	-91.39359
241867	220	1740	-739	-1.600942	-7.738646	-78.6937	0	10.77	4004	21	-62	5	5	0.02	2.301625	8	10	0.03	2000	-10.457	40.92391	-91.39359
242014	1074	-1635	384	-1.603309	-7.198593	-79.96815	0	10.77	4004	-37	-36	5	5	0.02	2.304625	8	10	0.03	2000	-7.948578	40.92391	-91.3936
242086	827	341	2710	-0.2762992	-6.1778	-80.30511	0	10.77	4003	-37	-36	5	5	0.02	2.310462	8	10	0.03	2000	-8.921539	40.92391	-91.3936
242194	-102	182	-2489	0.9510735	-8.922361	-79.55249	0	10.09	4004	-37	-36	5	5	0.02	2.31727	8	10	0.03	2000	-6.78772	40.92391	-91.3936
242253	732	210	-442	0.7524371	-8.891348	-79.40105	0	10.09	4003	-37	-36	5	5	0.02	2.322996	8	10	0.03	2000	-6.78772	40.92391	-91.3936
242389	708	-502	-339	1.564911	-7.168211	-78.7187	0	10.09	4003	-37	-36	5	5	0.02	2.34765	8	10	0.03	2000	-6.745026	40.92391	-91.3936
242482	-912	-1916	41	0.03031229	-4.907253	-79.42215	0	10.09	4003	-45	-43	5	5	0.02	2.358606	8	10	0.03	2000	-3.007843	40.92391	-91.3936
242642	1094	548	-2150	-0.8173229	-5.381228	-79.59679	0	10.09	4003	14	-36	5	5	0.02	2.367058	8	10	0.03	2000	-0.1567383	40.92391	-91.3936
242787	-942	-16	1753	-0.9070745	-5.908192	-79.4327	0	10.09	4003	14	-36	5	5	0.02	2.358294	8	10	0.03	2000	1.637143	40.92391	-91.3936
242862	-852	109	1655	-2.054128	-6.055851	-79.84556	0	10.09	4003	14	-36	5	5	0.02	2.352627	8	10	0.03	2000	2.93511	40.92391	-91.3936
242927	264	-726	-153	-2.241201	-5.124228	-80.16093	0	10.09	4003	14	-36	5	5	0.02	2.344954	8	10	0.03	2000	2.846773	40.92391	-91.3936
243059	-483	166	-175	-1.132696	-5.108405	-79.50049	0	9.7	4003	14	-36	5	5	0.02	2.334628	8	10	0.03	2000	3.491467	40.92391	-91.3936
243184	1591	1099	221	-1.083479	-5.288228	-79.29349	0	9.7	4003	14	-36	5	5	0.02	2.326771	8	10	0.03	2000	4.50792	40.92391	-91.3936
243305	-1088	-1645	178	-2.253358	-3.795097	-80.08601	0	9.7	4002	14	-36	5	5	0.02	2.302437	8	10	0.03	2000	3.734959	40.92391	-91.3936
243339	-1088	-1645	178	-2.253358	-3.795097	-80.08601	0	9.7	4002	14	-65	5	5	0.02	2.302437	8	10	0.03	2000	3.734959	40.92391	-91.3936
243408	-460	-98	-979	-3.076054	-3.647555	-80.48307	0	9.7	4002	14	-65	5	5	0.02	2.2892	8	10	0.03	2000	4.272094	40.92391	-91.3936
243545	579	1793	370	-2.465211	-5.864859	-80.37966	0	9.7	4004	14	-65	5	5	0.02	2.274977	8	10	0.03	2000	4.070155	40.92391	-91.3936
243687	-904	-437	341	-1.160596	-6.586937	-79.17834	0	9.7	4003	14	-65	5	5	0.02	2.260878	8	10	0.03	2000	5.505341	40.92391	-91.3936
243743	294	-601	449	-1.396591	-6.215184	-79.29762	0	9.7	4003	14	-95	5	5	0.02	2.252153	8	10	0.03	2000	5.505341	40.9239	-91.3936
243851	37	472	-2019	-0.5419397	-9.267575	-79.51905	0	9.7	4004	14	-95	5	5	0.02	2.242525	8	10	0.03	2000	4.321039	40.9239	-91.3936
243966	-754	196	225	-0.4483405	-9.689885	-78.91325	0	9.58	4002	14	-69	5	5	0.02	2.242929	8	10	0.03	2000	4.641247	40.9239	-91.3936
244016	-1646	-1480	1266	-1.601969	-8.191735	-78.37762	0	9.58	4002	14	-69	5	5	0.02	2.24263	8	10	0.03	2000	6.190873	40.9239	-91.3936
244134	-204	821	-293	-2.238089	-8.113697	-79.51337	0	9.58	4003	14	-69	5	5	0.02	2.230325	8	10	0.03	2000	7.840826	40.9239	-91.3936
244188	1886	1370	-705	-1.782479	-8.90485	-80.02658	0	9.58	4003	14	-69	5	5	0.02	2.221014	8	10	0.03	2000	6.477406	40.9239	-91.3936
244297	602	597	374	0.3313517	-10.4584	-81.03501	0	9.58	4004	14	-98	5	5	0.02	2.205373	8	10	0.03	2000	11.70508	40.9239	-91.3936
244380	780	-211	-1433	-0.8831074	-9.589556	-79.44855	0	9.58	4003	14	-72	5	5	0.02	2.19638	8	10	0.03	2000	10.3315	40.9239	-91.3936
244491	-1072	233	478	-0.8501212	-9.066786	-79.0667	0	9.58	4003	14	-102	5	5	0.02	2.190356	8	10	0.03	2000	8.377928	40.9239	-91.3936
244587	883	96	-342	-3.377063	-7.273154	-79.9205	0	9.58	4003	14	-102	5	5	0.02	2.187223	8	10	0.03	2000	8.912706	40.9239	-91.3936
244750	-98	266	-320	-1.743678	-8.560122	-80.01216	0	9.58	4003	14	-102	5	5	0.02	2.173998	8	10	0.03	2000	8.069843	40.9239	-91.3936
244823	58	-42	89	-2.051464	-7.635148	-80.11752	0	9.19	4004	73	-132	5	5	0.02	2.165766	8	10	0.03	2000	9.905413	40.92389	-91.39359
244915	302	3274	-1058	-3.639194	-10.3178	-80.26213	0	9.19	4004	73	-106	5	5	0.02	2.159429	8	10	0.03	2000	8.040266	40.92389	-91.39359
244989	241	1840	678	-3.181481	-13.09078	-79.89293	0	9.19	4003	73	-106	5	5	0.02	2.153875	8	10	0.03	2000	4.836192	40.92389	-91.39359
245102	-863	-973	35	-2.412452	-12.85504	-78.76828	0	9.19	4004	73	-80	5	5	0.02	2.151406	8	10	0.03	2000	4.216209	40.92389	-91.39359
245194	-2326	-1289	-1211	-5.735134	-9.545838	-79.62111	0	9.19	4002	73	-109	5	5	0.02	2.152045	8	10	0.03	2000	4.764259	40.92389	-91.39359
245297	-760	-227	-1143	-6.900641	-8.886757	-80.40475	0	9.19	4004	73	-109	5	5	0.02	2.151507	8	10	0.03	2000	4.772773	40.92389	-91.39359
245400	1121	1769	1153	-5.683929	-8.298918	-80.37688	0	9.19	4003	133	-109	5	5	0.02	2.149753	8	10	0.03	2000	1.764141	40.92389	-91.39359
245537	-921	-1712	1525	-7.4405	-9.324615	-79.44012	0	9.19	4002	80	-113	5	5	0.02	2.146394	8	10	0.03	2000	-1.320557	40.92389	-91.39359
245637	221	2043	1464	-4.83396	-9.47712	-78.9873	0	9.19	4002	80	-113	5	5	0.02	2.146382	8	10	0.03	2000	-3.969543	40.92389	-91.39359
245707	-1346	177	70	-5.629497	-9.837083	-79.33812	0	9.19	4002	81	-113	5	5	0.02	2.146744	8	10	0.03	2000	-5.032227	40.92389	-91.39359
