time(ms)	gyro_x(deg/s)	gyro_y(deg/s)	gyro_z(deg/s)	orientation_roll(deg)	orientation_pitch(deg)	orientation_yaw(deg)	throttle	battery(V)	loop_time(uS)	pid_output_roll	pid_output_pitch	pid_output_yaw	pid_output_throttle	ultrasonic_alt	baro_alt	flight_mode	p_gain_altitude	i_gain_altitude	d_gain_altitude	compass_heading	latitude	longitude
245953	213	-827	-491	-6.268517	-7.515939	-80.47561	0	10.32	4002	80	-87	5	5	0.02	2.13878	8	10	0.03	2000	-7.167694	40.92389	-91.39359
246050	-669	1419	470	-5.998033	-8.68224	-79.53741	0	10.32	4003	28	-87	5	5	0.02	2.118154	8	10	0.03	2000	-7.711487	40.92389	-91.39359
246129	1002	1	-2097	-5.737909	-9.527766	-78.68983	0	10.32	4003	88	-87	5	5	0.02	2.104469	8	10	0.03	2000	-9.000122	40.92389	-91.39358
246227	-1535	-650	2316	-5.997225	-8.488409	-79.12156	0	10.32	4004	88	-61	5	5	0.02	2.081706	8	10	0.03	2000	-8.955292	40.92389	-91.39358
246388	1241	983	1111	-5.013497	-9.066442	-79.96404	0	10.32	4003	88	-91	5	5	0.02	2.008982	8	10	0.03	2000	-12.09137	40.92388	-91.39358
246455	-1799	-127	-281	-5.289173	-9.410089	-79.50613	0	10.32	4002	88	-91	5	5	0.02	2.001547	8	10	0.03	2000	-11.48779	40.92388	-91.39358
246532	520	-1169	-397	-6.050405	-8.407652	-78.79543	0	10.32	4004	87	-61	5	5	0.02	1.977306	8	10	0.03	2000	-11.06857	40.92389	-91.39358
246655	-1715	518	1461	-6.029821	-9.225142	-79.17467	0	10.32	4004	88	-61	5	5	0.02	1.93031	8	10	0.03	2000	-13.22894	40.92389	-91.39358
246736	-1037	-844	388	-6.743954	-9.136066	-79.59625	0	10.32	4002	88	-61	5	5	0.02	1.911366	8	10	0.03	2000	-14.00336	40.92389	-91.39358
246907	-88	-791	-321	-5.290261	-8.058094	-79.0955	0	10.32	4003	36	-61	5	5	0.02	1.87158	8	10	0.03	2000	-14.63943	40.92389	-91.39358
247009	-147	-1254	572	-5.013412	-6.737313	-79.1935	0	10.32	4003	36	-35	5	5	0.02	1.858178	8	10	0.03	2000	-14.73544	40.92389	-91.39358
247052	-354	-529	618	-5.250923	-6.218355	-79.39053	0	10.32	4003	35	-35	5	5	0.02	1.845423	8	10	0.03	2000	-13.44458	40.92389	-91.39358
247144	297	-1500	-549	-5.169422	-5.540071	-79.63449	0	10.32	4002	36	-61	5	5	0.02	1.834338	8	10	0.03	2000	-13.23578	40.92389	-91.39358
247257	-1461	540	13	-3.159737	-7.975684	-79.32513	0	10.32	4002	36	-61	5	5	0.02	1.822488	8	10	0.03	2000	-13.86118	40.92389	-91.39358
247339	907	-465	189	-3.7568	-6.932847	-79.23371	0	10.32	4003	43	-73	5	5	0.02	1.811834	8	10	0.03	2000	-14.72641	40.92389	-91.39358
247493	939	325	968	-1.927865	-7.830628	-79.34138	0	10.32	4003	-23	-61	5	5	0.02	1.801561	8	10	0.03	2000	-12.6843	40.92389	-91.39359
247549	-391	-1421	-871	-2.35137	-6.70106	-79.65765	0	10.32	4003	-23	-61	5	5	0.02	1.8012	8	10	0.03	2000	-12.69513	40.92389	-91.39359
247717	120	-1890	-110	-2.651606	-4.403554	-80.44671	0	9.75	4003	-23	-31	5	5	0.02	1.796102	8	10	0.03	2000	-11.89658	40.92389	-91.39359
247783	974	1246	-1010	-0.9112267	-4.8252	-80.07606	0	9.75	4004	-23	-31	5	5	0.02	1.796998	8	10	0.03	2000	-10.9183	40.92389	-91.39359
247929	-361	-1431	-1057	-1.530621	-5.570744	-79.22989	0	9.75	4003	-23	-31	5	5	0.02	1.80203	8	10	0.03	2000	-7.56131	40.92389	-91.39359
248001	570	-1256	-317	-0.9159279	-5.81772	-79.84115	0	9.75	4004	-23	-31	5	5	0.02	1.802142	8	10	0.03	2000	-6.865021	40.92389	-91.39359
248050	381	-1689	-185	-0.5804831	-5.356592	-79.94607	0	9.75	4002	28	-31	5	5	0.02	1.799387	8	10	0.03	2000	-6.940521	40.92389	-91.39359
248186	-1454	703	-1594	-0.6695937	-5.621616	-79.75752	0	9.75	4002	28	-31	5	5	0.02	1.789722	8	10	0.03	2000	-6.34613	40.92389	-91.39359
248255	-1318	-1630	96	-3.593488	-4.669246	-79.82976	0	9.75	4002	28	-57	5	5	0.02	1.784264	8	10	0.03	2000	-6.193512	40.92389	-91.39359
248367	781	1380	722	-2.996791	-6.655791	-80.1021	0	9.75	4004	-30	-57	5	5	0.02	1.77473	8	10	0.03	2000	-5.377686	40.92389	-91.39359
248560	774	-1483	150	-2.02529	-5.707471	-79.6447	0	9.81	4002	-30	-57	5	5	0.02	1.748661	8	10	0.03	2000	-3.151855	40.92389	-91.39359
248642	1910	1269	424	-0.1430586	-6.615188	-79.39352	0	9.81	4004	-30	-57	5	5	0.02	1.739791	8	10	0.03	2000	-5.890991	40.92389	-91.39359
248711	726	-5	-427	0.141246	-7.012252	-79.23972	0	9.81	4002	-30	-57	5	5	0.02	1.722874	8	10	0.03	2000	-1.948059	40.92389	-91.39359
248790	2362	929	744	2.44558	-7.19467	-78.7985	0	9.81	4003	-30	-57	5	5	0.02	1.711812	8	10	0.03	2000	-0.2648926	40.92389	-91.39359
248890	81	187	229	2.306475	-6.887231	-79.29288	0	9.81	4003	-89	-57	5	5	0.02	1.698898	8	10	0.03	2000	3.507182	40.92389	-91.3936
248991	296	1059	457	1.726857	-7.218773	-80.0179	0	9.81	4002	-37	-57	5	5	0.02	1.671385	8	10	0.03	2000	3.67136	40.92389	-91.3936
249047	259	716	199	1.689607	-7.95668	-80.13586	0	9.81	4003	-37	-57	5	5	0.02	1.662893	8	10	0.03	2000	4.924452	40.92389	-91.3936
249221	658	-732	-1832	2.363323	-9.140459	-78.70992	0	9.81	4003	-45	-68	5	5	0.02	1.636938	8	10	0.03	2000	6.928642	40.92389	-91.3936
249301	397	-308	-2109	1.896943	-8.911793	-78.17793	0	9.81	4003	-37	-57	5	5	0.02	1.625313	8	10	0.03	2000	9.06376	40.92389	-91.3936
249351	644	81	-165	1.857572	-8.697167	-78.5132	0	9.81	4002	-37	-57	5	5	0.02	1.621099	8	10	0.03	2000	11.04362	40.92389	-91.3936
249456	21	-46	43	2.755546	-7.380143	-79.9112	0	9.64	4003	-37	-57	5	5	0.02	1.612667	8	10	0.03	2000	13.31069	40.92389	-91.3936
249549	662	-448	-613	2.985964	-7.736096	-79.98074	0	9.64	4004	14	-57	5	5	0.02	1.599977	8	10	0.03	2000	15.26392	40.92389	-91.3936
249662	-956	-815	-721	0.124084	-4.015797	-79.94112	0	9.64	4003	14	-57	5	5	0.02	1.591464	8	10	0.03	2000	17.05789	40.92389	-91.3936
249762	-1029	50	-658	-0.7791072	-3.918595	-80.07092	0	9.64	4004	14	-57	5	5	0.02	1.587894	8	10	0.03	2000	18.29276	40.92389	-91.3936
249861	-1375	-244	353	-2.690258	-3.307676	-80.47878	0	9.64	4002	73	-57	5	5	0.02	1.588802	8	10	0.03	2000	18.14656	40.92389	-91.39359
249946	-349	853	-1008	-3.621135	-5.472446	-80.23435	0	9.64	4003	73	-87	5	5	0.02	1.591989	8	10	0.03	2000	19.61361	40.92389	-91.39359
250077	-243	494	-948	-3.266	-6.92696	-79.35928	0	9.64	4004	73	-87	5	5	0.02	1.599513	8	10	0.03	2000	15.08178	40.92389	-91.39359
250141	-2603	1055	852	-5.270927	-7.068267	-79.73063	0	9.64	4003	73	-87	5	5	0.02	1.599848	8	10	0.03	2000	15.18348	40.92389	-91.39359
250243	-1446	615	1561	-7.067319	-7.23909	-80.07836	0	9.64	4003	73	-87	5	5	0.02	1.592013	8	10	0.03	2000	13.56452	40.92389	-91.39359
250426	-983	1367	1424	-6.799561	-6.16614	-79.97059	0	10.43	4003	81	-116	5	5	0.02	1.585805	8	10	0.03	2000	9.162463	40.92388	-91.39359
250541	517	2386	1372	-5.415785	-9.460696	-79.27981	0	10.43	4002	80	-116	5	5	0.02	1.587939	8	10	0.03	2000	7.20267	40.92388	-91.39359
250568	-724	551	146	-5.202188	-9.756501	-79.17281	0	10.43	4004	80	-116	5	5	0.02	1.589788	8	10	0.03	2000	4.416726	40.92388	-91.39359
250648	-1072	-697	-1205	-7.245888	-8.049992	-79.59962	0	10.43	4003	80	-90	5	5	0.02	1.590866	8	10	0.03	2000	2.662457	40.92388	-91.39359
250777	189	2527	1037	-6.427713	-10.20187	-80.20801	0	10.43	4003	80	-120	5	5	0.02	1.595889	8	10	0.03	2000	2.324114	40.92387	-91.39359
250894	218	-807	-2576	-6.374338	-11.01753	-79.77698	0	10.43	4004	81	-120	5	5	0.02	1.584586	8	10	0.03	2000	0.52775	40.92387	-91.39358
250957	-2934	-347	-153	-6.611451	-10.45377	-79.63001	0	10.43	4003	140	-120	5	5	0.02	1.574762	8	10	0.03	2000	-1.228973	40.92387	-91.39358
251068	-7	-281	-501	-7.643398	-9.504744	-79.60529	0	10.43	4004	88	-94	5	5	0.02	1.549201	8	10	0.03	2000	-2.603516	40.92387	-91.39358
251162	-1261	1049	-663	-6.17727	-11.26417	-79.10763	0	10.43	4004	88	-124	5	5	0.02	1.514605	8	10	0.03	2000	-4.003387	40.92387	-91.39358
251322	-188	68	-854	-4.577714	-13.90861	-78.78084	0	9.7	4003	88	-124	5	5	0.02	1.464165	8	10	0.03	2000	-7.030426	40.92387	-91.39358
251370	-1119	-906	-1044	-4.841246	-13.57149	-78.91941	0	9.7	4003	88	-98	5	5	0.02	1.457991	8	10	0.03	2000	-8.716248	40.92387	-91.39358
251475	-681	-940	-536	-5.215225	-13.43078	-79.43462	0	9.7	4003	147	-98	5	5	0.02	1.42131	8	10	0.03	2000	-9.994904	40.92387	-91.39357
251603	-573	-131	469	-6.407023	-9.382831	-80.07397	0	9.7	4003	95	-98	5	5	0.02	1.396013	8	10	0.03	2000	-10.50308	40.92387	-91.39357
251670	300	1051	297	-6.378247	-8.919521	-79.83633	0	9.7	4002	95	-98	5	5	0.02	1.370211	8	10	0.03	2000	-12.05469	40.92387	-91.39357
251791	-1198	379	647	-7.703404	-10.38529	-79.55841	0	9.7	4003	95	-72	5	5	0.02	1.344273	8	10	0.03	2000	-11.31659	40.92387	-91.39357
251873	331	-1242	-326	-7.218498	-9.117988	-79.57692	0	9.7	4004	95	-72	5	5	0.02	1.330882	8	10	0.03	2000	-14.75458	40.92387	-91.39357
251964	967	1104	-989	-6.416974	-8.812471	-79.5884	0	9.7	4004	95	-72	5	5	0.02	1.31745	8	10	0.03	2000	-14.41718	40.92387	-91.39357
252058	439	1298	10	-5.234923	-9.642919	-78.99782	0	9.7	4003	95	-72	5	5	0.02	1.309852	8	10	0.03	2000	-16.09943	40.92387	-91.39357
252188	-111	154	1366	-6.208567	-9.471062	-78.18652	0	9.7	4002	43	-72	5	5	0.02	1.309401	8	10	0.03	2000	-16.23193	40.92387	-91.39357
252265	-1264	-770	230	-5.914533	-7.724924	-79.22286	0	10.26	4003	43	-72	5	5	0.02	1.316508	8	10	0.03	2000	-17.04742	40.92387	-91.39357
252369	1005	756	461	-6.132726	-7.572809	-80.52851	0	10.26	4004	43	-72	5	5	0.02	1.32122	8	10	0.03	2000	-17.09427	40.92387	-91.39357
252466	-850	-171	312	-6.140217	-8.698503	-80.49902	0	10.26	4002	43	-72	5	5	0.02	1.340174	8	10	0.03	2000	-17.64969	40.92387	-91.39357
252576	938	1218	1487	-5.411906	-8.309278	-79.84159	0	10.26	4003	43	-71	5	5	0.02	1.360832	8	10	0.03	2000	-17.57001	40.92387	-91.39357
252669	1283	774	-1314	-4.583683	-9.434311	-78.72882	0	10.26	4004	43	-72	5	5	0.02	1.378409	8	10	0.03	2000	-19.75504	40.92387	-91.39357
252805	-1412	-1495	323	-5.355376	-9.035154	-79.00022	0	10.26	4003	43	-42	5	5	0.02	1.423506	8	10	0.03	2000	-19.39844	40.92387	-91.39357
252872	-502	-1574	666	-6.177944	-6.674396	-80.14513	0	10.26	4002	43	-42	5	5	0.02	1.444045	8	10	0.03	2000	-19.75598	40.92387	-91.39357
253089	2217	1363	595	-1.302293	-5.643528	-80.05778	0	10.26	4004	-16	-42	5	5	0.02	1.5476	8	10	0.03	2000	-20.01056	40.92387	-91.39358
253219	-56	-2017	-532	-0.7779553	-5.353203	-79.35287	0	9.98	4002	-16	-12	5	5	0.02	1.630032	8	10	0.03	2000	-17.76904	40.92388	-91.39358
253291	-1422	-2858	-249	-2.283271	-3.027305	-79.30308	0	9.98	4004	-16	-12	5	5	0.02	1.663623	8	10	0.03	2000	-16.82867	40.92388	-91.39359
253442	1054	2077	708	0.8462238	-4.760396	-79.52322	0	9.98	4002	-75	-38	5	5	0.02	1.734741	8	10	0.03	2000	-15.98615	40.92388	-91.39359
253535	386	229	138	0.3848131	-6.028829	-80.09711	0	9.98	4002	-75	-9	5	5	0.02	1.752529	8	10	0.03	2000	-13.35382	40.92389	-91.39359
253672	-620	221	549	0.4939892	-2.694736	-80.25112	0	9.98	4003	-82	-9	5	5	0.02	1.78928	8	10	0.03	2000	-7.77948	40.92389	-91.39359
253762	3384	372	-1133	2.42246	-4.922573	-79.41305	0	9.98	4003	-82	-9	5	5	0.02	1.805507	8	10	0.03	2000	-6.612701	40.92389	-91.39359
253819	3258	556	-302	4.068119	-5.081011	-79.13558	0	9.98	4004	-82	-35	5	5	0.02	1.806031	8	10	0.03	2000	-6.025665	40.92389	-91.39359
253892	19	-1905	-737	4.267477	-4.167705	-78.84268	0	9.98	4002	-82	-5	5	5	0.02	1.806098	8	10	0.03	2000	-1.973236	40.92389	-91.39359
254041	130	724	51	2.616579	-3.208634	-80.19334	0	9.98	4003	-30	-5	5	5	0.02	1.789923	8	10	0.03	2000	4.417764	40.92389	-91.3936
254099	1619	-664	-1823	2.546426	-3.419635	-79.96099	0	9.64	4006	-89	-31	5	5	0.02	1.772761	8	10	0.03	2000	7.249265	40.92389	-91.3936
254232	586	1032	562	3.694647	-5.206163	-79.90847	0	9.64	4004	-89	-31	5	5	0.02	1.726406	8	10	0.03	2000	13.21798	40.92389	-91.3936
254329	74	102	-299	3.995861	-6.009962	-79.53839	0	9.64	4004	-38	-31	5	5	0.02	1.662621	8	10	0.03	2000	13.24956	40.92389	-91.3936
254463	177	-118	1237	2.06512	-7.168627	-79.37665	0	9.64	4003	-37	-31	5	5	0.02	1.586156	8	10	0.03	2000	17.12247	40.92389	-91.3936
254509	-670	-1668	-551	1.654632	-6.296498	-79.41489	0	9.64	4002	-37	-57	5	5	0.02	1.552233	8	10	0.03	2000	18.6394	40.92389	-91.3936
254638	14	668	1332	0.9827135	-6.240318	-78.6905	0	9.64	4002	-96	-57	5	5	0.02	1.453055	8	10	0.03	2000	20.73731	40.92389	-91.39361
254739	-2737	130	178	-0.6979441	-8.736279	-78.52965	0	9.64	4003	-44	-57	5	5	0.02	1.381616	8	10	0.03	2000	22.54628	40.92389	-91.39361
254810	-1967	-2563	-349	-2.857841	-7.354284	-78.4178	0	9.64	4004	-44	-57	5	5	0.02	1.347654	8	10	0.03	2000	20.13997	40.92389	-91.39361
254924	25	1749	-255	-4.991419	-6.002326	-79.13107	0	9.64	4002	-44	-57	5	5	0.02	1.225283	8	10	0.03	2000	23.62947	40.92389	-91.39361
255075	-956	1277	1076	-4.065096	-8.102903	-80.08621	0	9.81	4002	14	-87	5	5	0.02	1.172477	8	10	0.03	2000	17.07941	40.92389	-91.3936
255219	-1918	1642	-882	-6.366873	-10.77911	-78.85592	0	9.81	4004	14	-87	5	5	0.02	1.102139	8	10	0.03	2000	12.81894	40.92389	-91.3936
255337	-275	2996	377	-6.69453	-14.5587	-78.69032	0	9.81	4004	66	-116	5	5	0.02	1.029256	8	10	0.03	2000	11.52643	40.92388	-91.3936
255437	-37	2503	-1589	-9.049359	-19.04894	-78.43832	0	9.81	4003	66	-117	5	5	0.02	1.011553	8	10	0.03	2000	3.420863	40.92388	-91.3936
255551	-1108	1676	1421	-9.449306	-19.61602	-78.36666	0	9.81	4003	66	-116	5	5	0.02	0.9755248	8	10	0.03	2000	0.8833258	40.92388	-91.3936
255599	-490	658	-337	-9.801696	-18.75121	-78.66557	0	9.81	4003	14	-91	5	5	0.02	0.968274	8	10	0.03	2000	-3.319855	40.92388	-91.3936
255744	1871	-585	-1484	-9.133639	-17.17828	-79.48875	0	9.81	4003	14	-90	5	5	0.02	0.9518172	8	10	0.03	2000	-3.661469	40.92388	-91.3936
255859	225	-1469	299	-6.072237	-12.52839	-79.42312	0	9.81	4002	14	-91	5	5	0.02	0.944706	8	10	0.03	2000	-5.901581	40.92388	-91.3936
255987	1229	1606	311	-2.837434	-12.75395	-79.26946	0	9.92	4002	14	-94	5	5	0.02	0.9511804	8	10	0.03	2000	-6.161865	40.92387	-91.3936
256038	424	-228	711	-1.889336	-13.01385	-79.40755	0	9.92	4004	14	-94	5	5	0.02	0.9551184	8	10	0.03	2000	-6.236938	40.92387	-91.39359
256095	-1250	-486	848	-2.182412	-12.18941	-79.64623	0	9.92	4003	73	-94	5	5	0.02	0.9638608	8	10	0.03	2000	-6.236938	40.92387	-91.39359
256255	-186	452	-1048	-4.539913	-10.20988	-80.00471	0	9.92	4003	73	-94	5	5	0.02	1.000842	8	10	0.03	2000	-7.019104	40.92387	-91.39359
256355	-1727	-1264	893	-5.26565	-9.710882	-79.90998	0	9.92	4004	73	-94	5	5	0.02	1.013343	8	10	0.03	2000	-6.657593	40.92387	-91.39359
256455	68	1593	-591	-5.229799	-10.05932	-79.17609	0	9.92	4002	73	-94	5	5	0.02	1.059128	8	10	0.03	2000	-9.486877	40.92387	-91.39359
256519	-693	-743	88	-5.354641	-10.52914	-79.06248	0	9.92	4004	73	-68	5	5	0.02	1.087563	8	10	0.03	2000	-9.115387	40.92387	-91.39359
256618	-1757	-189	183	-4.893733	-10.10127	-79.32108	0	9.92	4002	73	-68	5	5	0.02	1.117578	8	10	0.03	2000	-8.428864	40.92387	-91.39359
256702	-30	-496	762	-5.505763	-8.73813	-79.8214	0	9.92	4003	21	-68	5	5	0.02	1.172992	8	10	0.03	2000	-9.323792	40.92387	-91.39359
256800	682	-223	-597	-4.923264	-8.889237	-79.77454	0	10.04	4002	21	-68	5	5	0.02	1.209357	8	10	0.03	2000	-10.11594	40.92387	-91.39359
256909	-1058	-478	-622	-3.518382	-9.756709	-79.74901	0	10.04	4002	21	-68	5	5	0.02	1.283528	8	10	0.03	2000	-10.40253	40.92387	-91.39359
257051	480	-57	367	-6.917767	-7.596701	-80.15753	0	10.04	4002	21	-38	5	5	0.02	1.365927	8	10	0.03	2000	-11.96558	40.92388	-91.39359
257108	-15	-370	-634	-6.742073	-7.167527	-79.93259	0	10.04	4002	21	-38	5	5	0.02	1.445548	8	10	0.03	2000	-11.56393	40.92388	-91.39359
257282	1119	-1501	-1907	-5.623381	-5.133011	-79.5359	0	10.04	4003	21	-38	5	5	0.02	1.529827	8	10	0.03	2000	-13.49658	40.92388	-91.39359
257328	770	-404	332	-4.094726	-4.322006	-79.63151	0	10.04	4002	21	-9	5	5	0.02	1.546823	8	10	0.03	2000	-12.47983	40.92389	-91.39359
257431	-604	-460	1321	-4.250229	-4.338318	-80.09096	0	10.04	4002	21	-9	5	5	0.02	1.643997	8	10	0.03	2000	-12.27451	40.92389	-91.39359
257536	297	-1817	501	-4.48034	-3.308798	-80.18781	0	10.04	4003	-37	20	5	5	0.02	1.71762	8	10	0.03	2000	-10.46796	40.92389	-91.3936
257666	1821	104	827	-1.437037	-1.832192	-79.85103	0	10.04	4002	-37	-5	5	5	0.02	1.80475	8	10	0.03	2000	-10.33517	40.92389	-91.3936
257738	-269	-369	-188	-1.356316	-2.329857	-79.88938	0	9.64	4002	-37	-5	5	5	0.02	1.833817	8	10	0.03	2000	-8.773956	40.92389	-91.3936
257846	404	504	1174	-0.04672721	-3.552922	-79.83855	0	9.64	4003	-37	-5	5	5	0.02	1.873647	8	10	0.03	2000	-8.812225	40.92389	-91.3936
257883	510	610	-1054	-0.2134686	-3.8313	-79.9937	0	9.64	4002	-37	23	5	5	0.02	1.880028	8	10	0.03	2000	-8.812225	40.92389	-91.3936
257989	1102	741	-411	0.003895461	-6.211234	-80.18964	0	9.64	4002	-37	-1	5	5	0.02	1.906222	8	10	0.03	2000	-6.854462	40.9239	-91.3936
258080	548	-304	-1127	1.258745	-7.579996	-79.77541	0	9.64	4002	-37	27	5	5	0.02	1.911957	8	10	0.03	2000	-2.000824	40.9239	-91.3936
258202	-1816	-1128	1076	-0.9162269	-6.214744	-79.68668	0	9.64	4004	14	1	5	5	0.02	1.895631	8	10	0.03	2000	0.06078243	40.9239	-91.3936
258266	599	-1213	-729	-2.661536	-4.941611	-79.57822	0	9.64	4002	-44	1	5	5	0.02	1.891427	8	10	0.03	2000	0.4660721	40.9239	-91.39361
258371	517	-152	628	-1.872106	-5.532906	-79.63986	0	9.64	4002	-44	1	5	5	0.02	1.852827	8	10	0.03	2000	0.2793117	40.9239	-91.39361
258514	-379	479	-162	-2.436387	-5.260486	-79.1502	0	9.64	4003	-44	-24	5	5	0.02	1.812937	8	10	0.03	2000	2.351059	40.9239	-91.39361
258558	-1116	-570	-1277	-3.015096	-5.079322	-78.77406	0	9.64	4003	-44	-24	5	5	0.02	1.798409	8	10	0.03	2000	2.351059	40.9239	-91.39361
258742	929	-637	218	-4.36496	-6.061319	-79.40964	0	8.96	4003	-44	-20	5	5	0.02	1.715515	8	10	0.03	2000	0.7182133	40.9239	-91.39361
258832	-313	-279	301	-2.889852	-5.959054	-79.96329	0	8.96	4003	-44	-20	5	5	0.02	1.704481	8	10	0.03	2000	0.9316629	40.9239	-91.39361
258982	-1060	8	1195	-3.814296	-5.246704	-78.90513	0	8.96	4003	7	-20	5	5	0.02	1.581	8	10	0.03	2000	1.889695	40.9239	-91.39361
259081	-894	1139	123	-5.00747	-6.36997	-78.54539	0	8.96	4003	0	0	5	5	0.02	1.548403	3	10	0.03	2000	0.05299639	40.9239	-91.39361
259174	489	-556	658	-4.892471	-6.430655	-78.85668	0	8.96	4003	0	0	5	5	0.02	1.528142	3	10	0.03	2000	0.1591061	40.9239	-91.39361
259276	-39	-1708	793	-4.001411	-3.34283	-80.36636	0	8.96	4003	0	0	5	5	0.02	1.46997	3	10	0.03	2000	2.645581	40.9239	-91.39361
259466	-166	1900	2313	-1.981413	-3.431242	-82.03964	0	8.96	4003	0	0	5	5	0.02	1.370069	3	10	0.03	2000	11.34634	40.9239	-91.39362
259486	-1420	1825	2031	-2.316792	-4.571576	-82.10467	0	8.96	4004	0	0	5	5	0.02	1.370069	3	10	0.03	2000	11.89832	40.9239	-91.39362
259581	1363	241	-806	-3.110744	-5.801323	-81.43522	0	9.41	4004	0	0	5	5	0.02	1.325454	3	10	0.03	2000	11.78702	40.9239	-91.39362
259709	158	2215	-513	-2.132568	-4.587597	-79.47618	0	9.41	4002	0	0	5	5	0.02	1.259031	3	10	0.03	2000	13.35995	40.9239	-91.39362
259818	546	3432	506	-1.326789	-9.60127	-79.41852	0	9.41	4002	0	0	5	5	0.02	1.214844	3	10	0.03	2000	13.16664	40.9239	-91.39362
259882	-170	1263	648	-0.3812929	-11.33356	-81.14582	0	9.41	4003	0	0	5	5	0.02	1.203829	3	10	0.03	2000	12.49291	40.9239	-91.39362
260005	-185	-1503	217	-0.6840864	-10.38865	-82.2848	0	9.41	4004	0	0	5	5	0.02	1.11618	3	10	0.03	2000	13.05818	40.9239	-91.39362
260181	-534	1430	866	-3.084505	-4.731776	-82.51685	0	9.41	4004	0	0	5	5	0.02	1.036536	3	10	0.03	2000	15.21483	40.9239	-91.39362
260228	270	1551	146	-3.129975	-5.097735	-82.83412	0	9.41	4003	0	0	5	5	0.02	1.019716	3	10	0.03	2000	16.81046	40.9239	-91.39362
260343	-561	1694	690	-2.5309	-6.943557	-84.28511	0	9.41	4004	0	0	5	5	0.02	0.9342819	3	10	0.03	2000	16.09078	40.9239	-91.39362
260418	-192	2171	1279	-3.472828	-8.659875	-85.12526	0	9.41	4003	0	0	5	5	0.02	0.8975656	3	10	0.03	2000	16.54576	40.9239	-91.39362
260568	-1341	-11954	5116	-7.521734	11.39285	-93.57454	0	10.6	4003	0	0	5	5	0.02	0.7505594	3	10	0.03	2000	24.98707	40.9239	-91.39362
260641	413	-10501	2846	-9.344893	26.76479	-100.0143	0	10.6	4004	0	0	5	5	0.02	0.5875073	3	10	0.03	2000	34.97133	40.9239	-91.39362
260688	10625	-3475	-6520	-5.981878	29.46988	-99.51726	0	10.6	4003	0	0	5	5	0.02	0.532813	3	10	0.03	2000	49.81043	40.9239	-91.39362
260825	-398	8081	284	-0.6358768	22.45683	-97.03365	0	10.6	4003	0	0	5	5	0.02	0.4627117	3	10	0.03	2000	34.5093	40.9239	-91.39362
260883	-282	17041	863	-0.7759378	5.112092	-97.17899	0	10.6	4004	0	0	5	5	0.02	0.4190214	3	10	0.03	2000	24.40696	40.9239	-91.39362
261020	-1130	2414	455	-0.7937366	-7.473194	-97.18228	0	10.6	4003	0	0	5	5	0.02	0.3485287	3	10	0.03	2000	14.59711	40.9239	-91.39362
261126	-122	38	3	-1.00904	-4.798836	-97.39074	0	10.6	4003	0	0	5	5	0.02	0.2970618	3	10	0.03	2000	14.40165	40.9239	-91.39362
261194	-92	0	-38	-1.060625	-4.523924	-97.39403	0	10.6	4004	0	0	5	5	0.02	0.2495779	3	10	0.03	2000	12.7189	40.9239	-91.39362
261326	-90	-7	18	-1.253556	-3.584261	-97.41872	0	10.6	4004	0	0	5	5	0.02	0.2080813	3	10	0.03	2000	14.69336	40.9239	-91.39362
261442	-88	5	-8	-1.375174	-2.93471	-97.43233	0	10.66	4003	0	0	5	5	0.02	0.1626615	3	10	0.03	2000	13.18518	40.9239	-91.39362
261508	-92	-10	23	-1.440862	-2.567628	-97.44809	0	10.66	4004	0	0	5	5	0.02	0.1529165	3	10	0.03	2000	13.5233	40.9239	-91.39362
261693	29	-517	-10	-1.670451	-2.064525	-97.50261	0	10.66	4003	0	0	5	5	0.02	0.09607593	3	10	0.03	2000	14.04135	40.9239	-91.39362
261760	-117	206	38	-1.602853	-1.399175	-97.51167	0	10.66	4003	0	0	5	5	0.02	0.08481802	3	10	0.03	2000	13.97236	40.9239	-91.39362
261818	-429	704	132	-1.748339	-1.788856	-97.54838	0	10.66	4003	0	0	5	5	0.02	0.08439095	3	10	0.03	2000	13.9921	40.9239	-91.39362
261900	-827	-202	-583	-3.800625	-2.811933	-97.17851	0	10.66	4004	0	0	5	5	0.02	0.0853578	3	10	0.03	2000	14.06874	40.9239	-91.39362
261996	1710	-302	-349	-3.458858	-1.501902	-96.68466	0	10.66	4004	0	0	5	5	0.02	0.09189352	3	10	0.03	2000	13.63969	40.9239	-91.39362
262141	1789	1831	-1027	0.5149909	-3.373765	-94.57124	0	10.66	4002	0	0	5	5	0.02	0.1028727	3	10	0.03	2000	13.28721	40.9239	-91.39362
262243	-1003	2238	-523	0.6614856	-4.649824	-93.52534	0	10.66	4003	0	0	5	5	0.02	0.1170606	3	10	0.03	2000	13.28721	40.9239	-91.39362
262318	-1350	-791	29	-1.678113	-5.247475	-92.94346	0	10.66	4003	0	0	5	5	0.02	0.135222	3	10	0.03	2000	12.96169	40.9239	-91.39362
262408	-3457	-3088	-1019	-5.483	-1.322297	-92.43088	0	10.72	4003	0	0	5	5	0.02	0.154526	3	10	0.03	2000	12.76959	40.9239	-91.39362
262557	-6137	-6345	-3209	-13.34873	9.019953	-87.6993	0	10.72	4003	0	0	5	5	0.02	0.2144309	3	10	0.03	2000	11.56574	40.9239	-91.39362
262708	-770	-121	-4785	-16.78618	17.3562	-79.30013	0	10.72	4004	0	0	5	5	0.02	0.2924537	3	10	0.03	2000	4.060687	40.9239	-91.39362
262804	857	3265	-3966	-11.8637	16.79528	-68.94115	0	10.72	4003	0	0	5	5	0.02	0.3311318	3	10	0.03	2000	-4.735657	40.9239	-91.39362
262891	314	6145	-3275	-10.11465	12.47106	-65.02012	0	10.72	4003	0	0	5	5	0.02	0.3824306	3	10	0.03	2000	-8.220642	40.9239	-91.39362
263005	793	4130	-4042	-6.312971	4.225471	-56.8894	0	10.72	4003	0	0	5	5	0.02	0.4546969	3	10	0.03	2000	-14.59885	40.9239	-91.39362
263093	945	1183	-4872	-3.335441	-2.072292	-50.5904	0	10.72	4003	0	0	5	5	0.02	0.4906272	3	10	0.03	2000	-17.367	40.9239	-91.39362
263204	2359	-69	-4606	-1.380675	0.51897	-42.07091	0	10.72	4004	0	0	5	5	0.02	0.5382223	3	10	0.03	2000	-26.82031	40.9239	-91.39362
263303	2852	-2049	-2840	5.084791	1.884411	-36.16341	0	10.66	4004	0	0	5	5	0.02	0.5801257	3	10	0.03	2000	-30.32498	40.9239	-91.39362
263434	745	-5259	-547	7.468417	8.960557	-32.84565	0	10.66	4003	0	0	5	5	0.02	0.664203	3	10	0.03	2000	-36.25998	40.9239	-91.39363
263490	-464	-3387	-452	7.732066	13.24547	-32.40755	0	10.66	4003	0	0	5	5	0.02	0.6760256	3	10	0.03	2000	-36.25998	40.9239	-91.39363
263611	1293	-45	-159	7.644403	13.91799	-30.96773	0	10.66	4002	0	0	5	5	0.02	0.7603757	3	10	0.03	2000	-43.08447	40.9239	-91.39363
263649	118	2183	292	7.424603	13.32012	-31.18909	0	10.66	4003	0	0	5	5	0.02	0.7713758	3	10	0.03	2000	-39.99481	40.9239	-91.39363
263822	-413	2378	1706	4.957131	10.6164	-32.95409	0	10.66	4003	0	0	5	5	0.02	0.8538918	3	10	0.03	2000	-33.59244	40.9239	-91.39363
263859	-712	1769	1830	4.560019	9.66995	-33.9492	0	10.66	4003	0	0	5	5	0.02	0.8603209	3	10	0.03	2000	-30.28766	40.9239	-91.39363
263960	-497	-791	1148	3.396827	9.360198	-35.94183	0	10.66	4002	0	0	5	5	0.02	0.8763592	3	10	0.03	2000	-28.80307	40.9239	-91.39363
264068	-1206	-2348	1965	2.824387	6.507109	-39.67205	0	10.66	4003	0	0	5	5	0.02	0.8947673	3	10	0.03	2000	-28.11908	40.9239	-91.39362
264166	393	134	1977	2.76518	7.602198	-41.86303	0	10.72	4004	0	0	5	5	0.02	0.9000579	3	10	0.03	2000	-28.95895	40.9239	-91.39362
264312	-478	-1170	1490	5.718681	7.481118	-46.58889	0	10.72	4004	0	0	5	5	0.02	0.9014965	3	10	0.03	2000	-25.09653	40.92391	-91.39362
264441	6	-3046	1659	5.534528	11.16659	-49.81921	0	10.72	4003	0	0	5	5	0.02	0.8956138	3	10	0.03	2000	-24.72516	40.92391	-91.39362
264517	1669	408	1888	4.51655	11.96513	-51.63898	0	10.72	4002	0	0	5	5	0.02	0.8894199	3	10	0.03	2000	-23.82852	40.92391	-91.39362
264629	276	2034	2978	5.288308	9.448213	-56.56492	0	10.72	4003	0	0	5	5	0.02	0.8744962	3	10	0.03	2000	-19.22229	40.92392	-91.39362
264763	-1307	1960	5137	2.232298	4.916091	-67.87621	0	10.72	4004	0	0	5	5	0.02	0.8630198	3	10	0.03	2000	-11.9856	40.92392	-91.39363
264796	-445	1988	4903	1.51908	3.510024	-70.659	0	10.72	4003	0	0	5	5	0.02	0.8607517	3	10	0.03	2000	-11.9856	40.92392	-91.39363
264943	378	-2229	1659	1.641792	2.005392	-76.22332	0	10.72	4004	0	0	5	5	0.02	0.8203562	3	10	0.03	2000	-5.04538	40.92392	-91.39363
265051	48	475	291	3.04145	1.120691	-78.79167	0	10.77	4003	0	0	5	5	0.02	0.7789106	3	10	0.03	2000	-1.508453	40.92392	-91.39363
265118	1305	2065	1434	3.68777	-0.9796368	-79.73846	0	10.77	4003	0	0	5	5	0.02	0.735743	3	10	0.03	2000	-1.03183	40.92392	-91.39363
265178	-623	3673	2724	3.888104	-4.552822	-82.10492	0	10.77	4003	0	0	5	5	0.02	0.7036251	3	10	0.03	2000	2.237691	40.92392	-91.39363
265262	-2320	1400	2044	1.708307	-7.001406	-84.9596	0	10.77	4003	0	0	5	5	0.02	0.6717141	3	10	0.03	2000	5.487737	40.92392	-91.39363
265356	-374	441	-517	-1.037512	-8.790188	-86.93882	0	10.77	4003	0	0	5	5	0.02	0.6349622	3	10	0.03	2000	6.466215	40.92392	-91.39363
265456	308	755	1181	-0.7334685	-8.889994	-86.77599	0	10.77	4004	0	0	5	5	0.02	0.6030606	3	10	0.03	2000	6.031409	40.92392	-91.39363
265605	160	309	-609	-0.6319413	-4.111712	-91.381	0	10.77	4004	0	0	5	5	0.02	0.5370296	3	10	0.03	2000	10.05394	40.92392	-91.39363
265701	-171	-104	-19	-0.6878465	-3.713985	-90.81467	0	10.77	4004	0	0	5	5	0.02	0.5106936	3	10	0.03	2000	9.539103	40.92392	-91.39363
265768	-1	278	-1475	-0.9245153	-3.085459	-90.41042	0	10.77	4002	0	0	5	5	0.02	0.5054246	3	10	0.03	2000	9.217193	40.92392	-91.39363
265909	96	85	-25	-1.30792	-2.119626	-88.97353	0	10.77	4003	0	0	5	5	0.02	0.476571	3	10	0.03	2000	8.475616	40.92392	-91.39363
265967	254	392	-91	-1.241736	-1.984173	-88.94577	0	10.77	4002	0	0	5	5	0.02	0.4718298	3	10	0.03	2000	7.896366	40.92392	-91.39363
266085	-88	-59	-1	-1.117379	-1.891855	-88.93063	0	10.77	4002	0	0	5	5	0.02	0.4477757	3	10	0.03	2000	8.015358	40.92392	-91.39363
266149	-83	-28	17	-1.192061	-1.495504	-88.93716	0	10.77	4004	0	0	5	5	0.02	0.4330196	3	10	0.03	2000	8.129889	40.92392	-91.39363
266297	-70	12	5	-1.24377	-1.120155	-88.9523	0	10.77	4003	0	0	5	5	0.02	0.4138229	3	10	0.03	2000	8.132912	40.92392	-91.39363
266428	-79	2	3	-1.279904	-0.8298738	-88.97134	0	10.77	4002	0	0	5	5	0.02	0.3848286	3	10	0.03	2000	7.863386	40.92392	-91.39364
266528	-78	-2	9	-1.316747	-0.5662631	-88.99088	0	10.77	4003	0	0	5	5	0.02	0.3632203	3	10	0.03	2000	8.122625	40.92392	-91.39364
266586	-83	3	13	-1.324804	-0.5061163	-88.99612	0	10.77	4003	0	0	5	5	0.02	0.3463083	3	10	0.03	2000	8.088446	40.92392	-91.39364
266692	-70	11	8	-1.341527	-0.3474436	-89.01071	0	10.77	4004	0	0	5	5	0.02	0.3353237	3	10	0.03	2000	8.08366	40.92392	-91.39364
266759	-76	-3	6	-1.356053	-0.2608566	-89.01706	0	10.77	4004	0	0	5	5	0.02	0.3253064	3	10	0.03	2000	7.699439	40.92391	-91.39364
266922	-78	1	6	-1.380687	-0.0619426	-89.0372	0	10.77	4004	0	0	5	5	0.02	0.2956338	3	10	0.03	2000	7.630311	40.92391	-91.39364
267024	-77	-1	7	-1.389487	0.0637192	-89.05295	0	10.77	4004	0	0	5	5	0.02	0.2847439	3	10	0.03	2000	7.873298	40.92391	-91.39364
267097	-73	-2	7	-1.391667	0.1194885	-89.06046	0	10.77	4003	0	0	5	5	0.02	0.260867	3	10	0.03	2000	7.827382	40.92391	-91.39364
267175	-76	-11	7	-1.394657	0.1681195	-89.06747	0	10.77	4003	0	0	5	5	0.02	0.2490932	3	10	0.03	2000	7.827382	40.92391	-91.39364
267225	-83	0	1	-1.393893	0.2152695	-89.07468	0	10.77	4003	0	0	5	5	0.02	0.2450303	3	10	0.03	2000	7.821562	40.92391	-91.39364
267337	-82	0	11	-1.403319	0.2974854	-89.08932	0	10.77	4004	0	0	5	5	0.02	0.2369596	3	10	0.03	2000	7.616863	40.92392	-91.39364
267418	-77	1	10	-1.412439	0.3414881	-89.103	0	10.77	4004	0	0	5	5	0.02	0.2335955	3	10	0.03	2000	7.810475	40.92392	-91.39364
267521	-77	4	10	-1.413357	0.3775048	-89.11465	0	10.77	4004	0	0	5	5	0.02	0.2218597	3	10	0.03	2000	7.835828	40.92391	-91.39364
267621	-73	-2	8	-1.415032	0.4298906	-89.12857	0	10.77	4003	0	0	5	5	0.02	0.2199403	3	10	0.03	2000	7.799663	40.92391	-91.39364
267804	-69	2	9	-1.411952	0.4708974	-89.14297	0	10.77	4004	0	0	5	5	0.02	0.2141618	3	10	0.03	2000	7.817105	40.92391	-91.39364
267827	-69	2	9	-1.411952	0.4708974	-89.14297	0	10.77	4004	0	0	5	5	0.02	0.2153268	3	10	0.03	2000	7.817105	40.92391	-91.39364
267933	-76	7	6	-1.414142	0.5086553	-89.15646	0	10.77	4004	0	0	5	5	0.02	0.2209188	3	10	0.03	2000	7.78551	40.92391	-91.39364
268066	-71	1	12	-1.417035	0.5477193	-89.17593	0	10.77	4003	0	0	5	5	0.02	0.2353771	3	10	0.03	2000	8.025417	40.92391	-91.39364
268204	-71	0	3	-1.419356	0.5711906	-89.19199	0	10.77	4003	0	0	5	5	0.02	0.2449232	3	10	0.03	2000	7.803495	40.92391	-91.39364
268247	-67	-1	9	-1.413405	0.5852391	-89.19955	0	10.77	4002	0	0	5	5	0.02	0.2584596	3	10	0.03	2000	7.575516	40.92391	-91.39364
268307	-70	4	6	-1.41099	0.5977616	-89.20847	0	10.77	4003	0	0	5	5	0.02	0.2632964	3	10	0.03	2000	7.784604	40.92391	-91.39364
268473	-72	-1	9	-1.41134	0.6183156	-89.22989	0	10.77	4004	0	0	5	5	0.02	0.2765809	3	10	0.03	2000	7.755042	40.92392	-91.39364
268536	-78	6	12	-1.415684	0.6252568	-89.23636	0	10.77	4003	0	0	5	5	0.02	0.2815802	3	10	0.03	2000	7.784083	40.92392	-91.39364
268603	-73	3	6	-1.416885	0.6284345	-89.24191	0	10.77	4003	0	0	5	5	0.02	0.2841354	3	10	0.03	2000	7.790206	40.92392	-91.39364
268765	-71	5	9	-1.412083	0.6428617	-89.26205	0	10.77	4004	0	0	5	5	0.02	0.2836619	3	10	0.03	2000	7.744839	40.92392	-91.39364
268825	-79	-2	6	-1.410861	0.6441202	-89.26578	0	10.77	4003	0	0	5	5	0.02	0.2797445	3	10	0.03	2000	7.529294	40.92392	-91.39364
268910	-75	1	3	-1.412559	0.6502618	-89.27457	0	10.77	4003	0	0	5	5	0.02	0.2749515	3	10	0.03	2000	7.960849	40.92392	-91.39364
269013	-71	4	4	-1.411402	0.650841	-89.29062	0	10.77	4003	0	0	5	5	0.02	0.2651119	3	10	0.03	2000	7.996988	40.92392	-91.39364
269116	-75	-6	1	-1.407768	0.6588486	-89.29691	0	10.77	4004	0	0	5	5	0.02	0.2581181	3	10	0.03	2000	7.993624	40.92392	-91.39364
269224	-73	-1	6	-1.409833	0.6662203	-89.31021	0	10.77	4003	0	0	5	5	0.02	0.245218	3	10	0.03	2000	7.951894	40.92392	-91.39364
269322	-76	4	6	-1.40661	0.6722158	-89.31955	0	10.77	4004	0	0	5	5	0.02	0.2437527	3	10	0.03	2000	7.568831	40.92392	-91.39364
269444	-74	5	5	-1.411416	0.6757225	-89.33237	0	10.77	4004	0	0	5	5	0.02	0.2366165	3	10	0.03	2000	7.738669	40.92392	-91.39364
269525	-65	3	7	-1.408156	0.6821234	-89.33701	0	10.77	4004	0	0	5	5	0.02	0.2316641	3	10	0.03	2000	7.515927	40.92392	-91.39364
269628	-74	-2	7	-1.407892	0.6846752	-89.34921	0	10.77	4004	0	0	5	5	0.02	0.2239967	3	10	0.03	2000	7.917007	40.92392	-91.39364
269766	-78	6	4	-1.401262	0.6834556	-89.36057	0	10.77	4003	0	0	5	5	0.02	0.2130368	3	10	0.03	2000	7.722098	40.92392	-91.39364
269823	-73	4	7	-1.3912	0.6890569	-89.3743	0	10.77	4003	0	0	5	5	0.02	0.2117008	3	10	0.03	2000	7.741498	40.92392	-91.39364
269929	-68	5	6	-1.38365	0.6937058	-89.38101	0	10.77	4003	0	0	5	5	0.02	0.2153835	3	10	0.03	2000	7.70417	40.92392	-91.39364
270063	-72	1	11	-1.381197	0.6954629	-89.39883	0	10.77	4002	0	0	5	5	0.02	0.2225564	3	10	0.03	2000	7.713396	40.92392	-91.39364
270128	-72	4	0	-1.382038	0.6938242	-89.40128	0	10.77	4004	0	0	5	5	0.02	0.2297015	3	10	0.03	2000	7.713396	40.92392	-91.39364
270259	-68	2	5	-1.380194	0.6992287	-89.41525	0	10.77	4002	0	0	5	5	0.02	0.2334419	1	10	0.03	2000	7.898162	40.92392	-91.39364
270359	-68	3	9	-1.381964	0.699532	-89.42618	0	10.77	4003	0	0	5	5	0.02	0.2331262	1	10	0.03	2000	7.714296	40.92392	-91.39364
270469	-73	2	7	-1.378959	0.7045077	-89.4346	0	10.77	4004	0	0	5	5	0.02	0.2296172	1	10	0.03	2000	7.929094	40.92392	-91.39364
270576	-72	-1	0	-1.379584	0.7024801	-89.44492	0	10.77	4003	0	0	5	5	0.02	0.2235047	1	10	0.03	2000	7.708432	40.92392	-91.39364
270644	-75	-3	8	-1.382113	0.6996954	-89.44833	0	10.77	4004	0	0	5	5	0.02	0.2252904	1	10	0.03	2000	7.464655	40.92392	-91.39364
270764	-73	0	6	-1.381207	0.70263	-89.45944	0	10.77	4003	0	0	5	5	0.02	0.2338223	1	10	0.03	2000	7.905391	40.92392	-91.39364
270887	-68	4	3	-1.376548	0.7101768	-89.47299	0	10.77	4004	0	0	5	5	0.02	0.2499565	1	10	0.03	2000	7.675288	40.92392	-91.39364
270951	-70	0	2	-1.375419	0.7130111	-89.47647	0	10.77	4003	0	0	5	5	0.02	0.2579988	1	10	0.03	2000	7.675288	40.92392	-91.39364
271055	-75	0	4	-1.377713	0.7116608	-89.48306	0	10.77	4003	0	0	5	5	0.02	0.2730367	1	10	0.03	2000	7.456649	40.92392	-91.39364
271225	-72	9	15	-1.37927	0.7127612	-89.50644	0	10.77	4003	0	0	5	5	0.02	0.2870253	1	10	0.03	2000	7.680915	40.92392	-91.39364
271250	-70	-2	2	-1.382332	0.7118446	-89.51035	0	10.77	4003	0	0	5	5	0.02	0.2877996	1	10	0.03	2000	7.680915	40.92392	-91.39364
271356	-74	1	11	-1.375593	0.7160813	-89.5192	0	10.77	4002	0	0	5	5	0.02	0.2871214	1	10	0.03	2000	7.948774	40.92392	-91.39364
271475	-72	2	4	-1.373025	0.7190217	-89.52957	0	10.89	4002	0	0	5	5	0.02	0.2877457	1	10	0.03	2000	7.908367	40.92392	-91.39364
271603	-69	0	5	-1.379471	0.7179987	-89.54227	0	10.89	4002	0	0	5	5	0.02	0.2905169	1	10	0.03	2000	7.681941	40.92392	-91.39364
271679	-71	0	8	-1.375299	0.7185038	-89.55203	0	10.89	4006	0	0	5	5	0.02	0.2916655	1	10	0.03	2000	7.496061	40.92392	-91.39364
271803	-68	-5	7	-1.371367	0.719892	-89.56088	0	10.89	4002	0	0	5	5	0.02	0.2908871	1	10	0.03	2000	7.477588	40.92392	-91.39364
271923	-81	-2	8	-1.3727	0.7275032	-89.57303	0	10.89	4003	0	0	5	5	0.02	0.2882777	1	10	0.03	2000	7.662171	40.92392	-91.39364
272019	-70	2	3	-1.370107	0.7263231	-89.58463	0	10.89	4003	0	0	5	5	0.02	0.2863233	1	10	0.03	2000	7.879206	40.92392	-91.39364
272075	-66	0	0	-1.373946	0.7230099	-89.58737	0	10.89	4003	0	0	5	5	0.02	0.2820344	1	10	0.03	2000	7.702454	40.92392	-91.39364
272220	-72	2	5	-1.372757	0.7237116	-89.60129	0	10.89	4005	0	0	5	5	0.02	0.2687473	1	10	0.03	2000	7.880845	40.92392	-91.39364
272298	-66	5	0	-1.374156	0.7198114	-89.60794	0	10.89	4004	0	0	5	5	0.02	0.263008	1	10	0.03	2000	7.888789	40.92392	-91.39364
272389	-72	0	14	-1.377145	0.7191053	-89.61411	0	10.77	4004	0	0	5	5	0.02	0.2546234	1	10	0.03	2000	7.674945	40.92392	-91.39364
272530	-71	2	8	-1.373274	0.7166678	-89.62949	0	10.77	4002	0	0	5	5	0.02	0.2364409	1	10	0.03	2000	7.699693	40.92392	-91.39364
272586	-73	2	7	-1.376945	0.7177863	-89.6329	0	10.77	4003	0	0	5	5	0.02	0.2294624	1	10	0.03	2000	7.701631	40.92392	-91.39364
272689	-66	4	3	-1.368242	0.726327	-89.64536	0	10.77	4003	0	0	5	5	0.02	0.2094702	1	10	0.03	2000	7.903637	40.92392	-91.39364
272814	-71	0	7	-1.366225	0.7254024	-89.65353	0	10.77	4003	0	0	5	5	0.02	0.1933945	1	10	0.03	2000	7.692339	40.92392	-91.39364
272907	-75	4	9	-1.373477	0.7254878	-89.66415	0	10.77	4002	0	0	5	5	0.02	0.1917004	1	10	0.03	2000	7.905666	40.92392	-91.39364
273005	-76	1	5	-1.372445	0.726844	-89.67673	0	10.77	4003	0	0	5	5	0.02	0.2038147	1	10	0.03	2000	7.880691	40.92392	-91.39364
273135	-75	-1	7	-1.373474	0.7335698	-89.68509	0	10.77	4003	0	0	5	5	0.02	0.2118763	1	10	0.03	2000	7.665095	40.92392	-91.39364
273183	-70	4	4	-1.374189	0.7321716	-89.68869	0	10.77	4002	0	0	5	5	0.02	0.2127906	1	10	0.03	2000	7.665095	40.92392	-91.39364
273376	-70	2	8	-1.36112	0.7245977	-89.70926	0	10.77	4003	0	0	5	5	0.02	0.2181898	1	10	0.03	2000	7.685445	40.92392	-91.39364
273421	-71	2	9	-1.363876	0.7208523	-89.71616	0	10.77	4003	0	0	5	5	0.02	0.2191892	1	10	0.03	2000	7.646999	40.92392	-91.39363
273564	-72	5	3	-1.37022	0.7170351	-89.72763	0	10.77	4003	0	0	5	5	0.02	0.2336051	1	10	0.03	2000	7.691779	40.92392	-91.39363
273591	-69	-4	5	-1.370781	0.7205397	-89.73123	0	10.77	4004	0	0	5	5	0.02	0.2360793	1	10	0.03	2000	7.691779	40.92392	-91.39363
273692	-74	0	4	-1.369021	0.723188	-89.73996	0	10.77	4004	0	0	5	5	0.02	0.2462142	1	10	0.03	2000	7.658656	40.92392	-91.39363
273816	-71	4	6	-1.358126	0.7267967	-89.75223	0	10.77	4003	0	0	5	5	0.02	0.2698298	1	10	0.03	2000	7.669769	40.92392	-91.39363
273899	-70	1	8	-1.359418	0.724095	-89.75919	0	10.77	4004	0	0	5	5	0.02	0.2813111	1	10	0.03	2000	7.670965	40.92392	-91.39363
274026	-75	0	10	-1.354383	0.7239501	-89.77426	0	10.77	4004	0	0	5	5	0.02	0.2940316	1	10	0.03	2000	7.458443	40.92393	-91.39363
274120	-71	2	5	-1.353589	0.7190108	-89.78268	0	10.77	4002	0	0	5	5	0.02	0.2919922	1	10	0.03	2000	7.669222	40.92393	-91.39363
274287	-69	0	6	-1.349365	0.714513	-89.79898	0	10.83	4004	0	0	5	5	0.02	0.2899686	1	10	0.03	2000	7.658206	40.92393	-91.39363
274318	-74	-2	4	-1.345255	0.7129545	-89.80215	0	10.83	4002	0	0	5	5	0.02	0.2884502	1	10	0.03	2000	7.441743	40.92393	-91.39363
274391	-73	2	2	-1.346053	0.7141923	-89.8071	0	10.83	4002	0	0	5	5	0.02	0.2824208	1	10	0.03	2000	7.653099	40.92393	-91.39363
274511	-68	6	0	-1.344584	0.7082798	-89.81552	0	10.83	4004	0	0	5	5	0.02	0.2817671	1	10	0.03	2000	7.62794	40.92392	-91.39363
274665	-72	-1	9	-1.334937	0.6984147	-89.83292	0	10.83	4003	0	0	5	5	0.02	0.27915	1	10	0.03	2000	7.617331	40.92393	-91.39363
274722	-70	2	3	-1.333703	0.6994503	-89.8356	0	10.83	4004	0	0	5	5	0.02	0.277161	1	10	0.03	2000	7.617331	40.92393	-91.39363
274794	-69	0	6	-1.32819	0.6987146	-89.84091	0	10.83	4003	0	0	5	5	0.02	0.2770595	1	10	0.03	2000	7.392809	40.92393	-91.39363
274893	-67	-2	4	-1.324317	0.7035606	-89.85165	0	10.83	4003	0	0	5	5	0.02	0.2730838	1	10	0.03	2000	7.602672	40.92393	-91.39363
274995	-58	0	9	-1.31998	0.7044176	-89.86093	0	10.83	4004	0	0	5	5	0.02	0.269022	1	10	0.03	2000	8.061611	40.92393	-91.39363
275148	-64	5	6	-1.319154	0.7013773	-89.87802	0	10.83	4003	0	0	5	5	0.02	0.2759687	1	10	0.03	2000	7.617652	40.92393	-91.39363
275254	-71	1	7	-1.318302	0.6967859	-89.89163	0	10.83	4004	0	0	5	5	0.02	0.2799132	1	10	0.03	2000	7.368183	40.92393	-91.39363
275366	-66	3	3	-1.317204	0.6941495	-89.89914	0	10.83	4004	0	0	5	5	0.02	0.2763236	1	10	0.03	2000	7.643014	40.92393	-91.39363
275439	-67	4	0	-1.316157	0.6899467	-89.90463	0	10.83	4003	0	0	5	5	0.02	0.2766915	1	10	0.03	2000	7.618814	40.92393	-91.39363
275533	-64	0	2	-1.304154	0.6959547	-89.91672	0	10.83	4003	0	0	5	5	0.02	0.279013	1	10	0.03	2000	7.377271	40.92393	-91.39363
275586	-63	-1	7	-1.30455	0.6932992	-89.9194	0	10.83	4004	0	0	5	5	0.02	0.2815886	1	10	0.03	2000	7.377271	40.92393	-91.39363
275682	-66	2	5	-1.305658	0.6982863	-89.92386	0	10.83	4003	0	0	5	5	0.02	0.282905	1	10	0.03	2000	7.813515	40.92393	-91.39363
275784	-67	2	6	-1.290477	0.7017237	-89.93832	0	10.83	4002	0	0	5	5	0.02	0.2820344	1	10	0.03	2000	7.544611	40.92393	-91.39363
275920	-65	0	8	-1.288246	0.7073889	-89.94687	0	10.83	4004	0	0	5	5	0.02	0.2741869	1	10	0.03	2000	7.751098	40.92393	-91.39363
275986	-61	4	3	-1.287733	0.7064261	-89.95688	0	10.83	4003	0	0	5	5	0.02	0.2723606	1	10	0.03	2000	7.291598	40.92393	-91.39363
276072	-67	-3	2	-1.285368	0.7028256	-89.96335	0	10.83	4003	0	0	5	5	0.02	0.2626484	1	10	0.03	2000	7.322965	40.92393	-91.39363
276267	-64	-3	2	-1.283915	0.7011338	-89.98001	0	10.83	4004	0	0	5	5	0.02	0.2382822	1	10	0.03	2000	7.568549	40.92393	-91.39363
276297	-66	-8	2	-1.278836	0.6962416	-89.98178	0	10.83	4004	0	0	5	5	0.02	0.2356747	1	10	0.03	2000	7.554434	40.92393	-91.39363
