time(ms)	gyro_x(deg/s)	gyro_y(deg/s)	gyro_z(deg/s)	orientation_roll(deg)	orientation_pitch(deg)	orientation_yaw(deg)	throttle	battery(V)	loop_time(uS)	pid_output_roll	pid_output_pitch	pid_output_yaw	pid_output_throttle	ultrasonic_alt	baro_alt	flight_mode	p_gain_altitude	i_gain_altitude	d_gain_altitude	compass_heading	latitude	longitude
87	15	2	2	0.1820497	-0.01813927	1.115058	0	11.51	4002	0	0	5	5	0.02	-0.5840124	1	10	0.03	2000	-0.55896	40.92395	-91.39362
190	15	0	-1	0.1785911	-0.02225352	1.12105	0	11.51	4003	0	0	5	5	0.02	-0.5903159	1	10	0.03	2000	-1.022156	40.92395	-91.39362
337	17	0	-6	0.175372	-0.0169616	1.126185	0	11.51	4004	0	0	5	5	0.02	-0.6014832	1	10	0.03	2000	-0.5466919	40.92395	-91.39362
398	10	-2	-3	0.1738426	-0.01631241	1.128264	0	11.51	4004	0	0	5	5	0.02	-0.6034759	1	10	0.03	2000	-0.5422668	40.92395	-91.39362
496	14	0	-2	0.1787062	-0.0210145	1.131199	0	11.46	4004	0	0	5	5	0.02	-0.6048985	1	10	0.03	2000	-0.5533752	40.92395	-91.39362
599	11	6	-1	0.1846236	-0.02288638	1.1323	0	11.46	4003	0	0	5	5	0.02	-0.602594	1	10	0.03	2000	-0.5617981	40.92395	-91.39362
805	6	-2	-2	0.1869711	-0.02756381	1.139086	0	11.46	4004	0	0	5	5	0.02	-0.597377	1	10	0.03	2000	-0.567627	40.92395	-91.39362
872	13	-2	-1	0.1863906	-0.03368941	1.140798	0	11.46	4003	0	0	5	5	0.02	-0.593658	1	10	0.03	2000	-0.567627	40.92395	-91.39362
966	13	5	-8	0.1851815	-0.03020667	1.145017	0	11.46	4004	0	0	5	5	0.02	-0.5902012	1	10	0.03	2000	-1.033752	40.92395	-91.39362
1005	10	3	-6	0.1818035	-0.02400507	1.146362	0	11.46	4004	0	0	5	5	0.02	-0.5889516	1	10	0.03	2000	-0.7909241	40.92395	-91.39362
1114	11	3	0	0.1818045	-0.02220549	1.147279	0	11.46	4004	0	0	5	5	0.02	-0.5832777	1	10	0.03	2000	-0.7909241	40.92395	-91.39362
1244	15	0	-1	0.1845093	-0.01457356	1.14997	0	11.46	4004	0	0	5	5	0.02	-0.5885069	1	10	0.03	2000	-0.7903137	40.92395	-91.39362
1306	16	-1	1	0.1833334	-0.01819171	1.151193	0	11.46	4004	0	0	5	5	0.02	-0.5946199	1	10	0.03	2000	-0.329071	40.92395	-91.39362
1413	12	0	-6	0.1850043	-0.02046617	1.155106	0	11.46	4003	0	0	5	5	0.02	-0.6026805	1	10	0.03	2000	-0.7948608	40.92395	-91.39362
1576	18	0	3	0.17904	-0.02642517	1.159447	0	11.46	4003	0	0	5	5	0.02	-0.6066589	1	10	0.03	2000	-0.5529785	40.92395	-91.39362
1639	16	4	-1	0.1791253	-0.02420088	1.160731	0	11.46	4002	0	0	5	5	0.02	-0.6072404	1	10	0.03	2000	-0.5509033	40.92395	-91.39362
1715	15	-3	-2	0.1798743	-0.02835147	1.160058	0	11.46	4003	0	0	5	5	0.02	-0.6105366	1	10	0.03	2000	-0.5527649	40.92395	-91.39362
1907	16	-2	-5	0.189803	-0.02343834	1.161709	0	11.46	4003	0	0	5	5	0.02	-0.602001	1	10	0.03	2000	-0.5636902	40.92395	-91.39362
1982	16	0	-3	0.1930041	-0.0224939	1.165561	0	11.46	4004	0	0	5	5	0.02	-0.5988798	1	10	0.03	2000	-0.5756226	40.92395	-91.39362
2053	15	1	-2	0.1899538	-0.01881464	1.168802	0	11.46	4004	0	0	5	5	0.02	-0.5986555	1	10	0.03	2000	-0.5718079	40.92395	-91.39362
2116	15	3	-6	0.1926216	-0.01800673	1.170086	0	11.46	4003	0	0	5	5	0.02	-0.6016403	1	10	0.03	2000	-0.5718079	40.92395	-91.39362
2233	17	0	1	0.1984691	-0.01716555	1.172592	0	11.46	4003	0	0	5	5	0.02	-0.6003578	1	10	0.03	2000	-0.5809326	40.92395	-91.39362
2322	16	0	0	0.2003911	-0.01904612	1.173631	0	11.46	4003	0	0	5	5	0.02	-0.6026736	1	10	0.03	2000	-0.8224182	40.92395	-91.39362
2433	19	6	-1	0.2070061	-0.02018025	1.179929	0	11.46	4002	0	0	5	5	0.02	-0.6166437	1	10	0.03	2000	-0.5962219	40.92395	-91.39362
2560	12	2	0	0.2075964	-0.02488946	1.184882	0	11.46	4002	0	0	5	5	0.02	-0.6249009	1	10	0.03	2000	-0.8323059	40.92395	-91.39362
2627	13	-2	-3	0.2095559	-0.02381158	1.185432	0	11.46	4002	0	0	5	5	0.02	-0.6363065	1	10	0.03	2000	-0.6058655	40.92395	-91.39362
2731	11	-1	0	0.2121962	-0.02433193	1.188611	0	11.46	4003	0	0	5	5	0.02	-0.6509929	1	10	0.03	2000	-0.8469238	40.92395	-91.39362
2869	13	0	2	0.2157668	-0.02694393	1.191974	0	11.46	4003	0	0	5	5	0.02	-0.6565727	1	10	0.03	2000	-0.8502197	40.92395	-91.39362
2940	10	-1	-4	0.2176939	-0.02756365	1.192708	0	11.46	4002	0	0	5	5	0.02	-0.6703953	1	10	0.03	2000	-0.6141357	40.92395	-91.39362
3040	16	1	0	0.2167235	-0.02356905	1.19497	0	11.46	4002	0	0	5	5	0.02	-0.6727825	1	10	0.03	2000	-0.6068726	40.92395	-91.39362
3145	16	0	-4	0.2207535	-0.01658903	1.1998	0	11.46	4004	0	0	5	5	0.02	-0.6739607	1	10	0.03	2000	-0.6273499	40.92395	-91.39362
3258	13	1	0	0.2136247	-0.01909127	1.202062	0	11.46	4002	0	0	5	5	0.02	-0.6835898	1	10	0.03	2000	-0.6084595	40.92395	-91.39362
3331	12	0	0	0.2122608	-0.0252315	1.206403	0	11.57	4002	0	0	5	5	0.02	-0.6861742	1	10	0.03	2000	-0.6083069	40.92395	-91.39362
3446	16	0	-5	0.2120997	-0.02291452	1.20897	0	11.57	4003	0	0	5	5	0.02	-0.6821719	1	10	0.03	2000	-0.6116638	40.92395	-91.39362
3599	17	-2	-2	0.2124958	-0.02932457	1.21056	0	11.57	4002	0	0	5	5	0.02	-0.6838623	1	10	0.03	2000	-0.6092224	40.92395	-91.39362
3641	16	5	-3	0.2145086	-0.03205259	1.210438	0	11.57	4002	0	0	5	5	0.02	-0.6809376	1	10	0.03	2000	-0.6092224	40.92395	-91.39362
3745	13	0	0	0.2151235	-0.02817903	1.212211	0	11.57	4004	0	0	5	5	0.02	-0.6770877	1	10	0.03	2000	-0.6125183	40.92395	-91.39362
3888	16	2	-6	0.2228349	-0.02834523	1.218141	0	11.57	4002	0	0	5	5	0.02	-0.6663781	1	10	0.03	2000	-0.8637695	40.92395	-91.39362
3967	10	3	-3	0.2154476	-0.03087262	1.218691	0	11.57	4004	0	0	5	5	0.02	-0.6637778	1	10	0.03	2000	-0.8507385	40.92395	-91.39362
4121	11	0	-2	0.2093171	-0.03312855	1.223521	0	11.57	4003	0	0	5	5	0.02	-0.6630695	1	10	0.03	2000	-0.6032104	40.92395	-91.39362
4177	13	-3	2	0.210922	-0.02827513	1.225784	0	11.57	4003	0	0	5	5	0.02	-0.6606179	1	10	0.03	2000	-0.8377991	40.92395	-91.39362
4254	16	0	0	0.2102922	-0.02524623	1.227558	0	11.51	4004	0	0	5	5	0.02	-0.6569594	1	10	0.03	2000	-0.8428955	40.92395	-91.39362
4354	7	7	-1	0.2088002	-0.02476915	1.230126	0	11.51	4004	0	0	5	5	0.02	-0.65618	1	10	0.03	2000	-0.8420715	40.92395	-91.39362
4493	13	2	-1	0.2025796	-0.02319807	1.235445	0	11.51	4004	0	0	5	5	0.02	-0.6642959	1	10	0.03	2000	-0.5944824	40.92395	-91.39362
4552	21	5	-1	0.2027705	-0.02504677	1.236056	0	11.51	4002	0	0	5	5	0.02	-0.6711811	1	10	0.03	2000	-0.3569031	40.92395	-91.39362
4673	12	4	0	0.1962768	-0.01963069	1.239786	0	11.51	4004	0	0	5	5	0.02	-0.6750598	1	10	0.03	2000	-0.5794983	40.92395	-91.39362
4745	8	0	-1	0.2002156	-0.01884407	1.241314	0	11.51	4003	0	0	5	5	0.02	-0.6761811	1	10	0.03	2000	-0.5848999	40.92395	-91.39362
4902	16	-8	-4	0.1884676	-0.01230088	1.247795	0	11.51	4003	0	0	5	5	0.02	-0.6711228	1	10	0.03	2000	-0.5713806	40.92395	-91.39362
4951	17	-5	0	0.1893702	-0.01334429	1.248712	0	11.51	4003	0	0	5	5	0.02	-0.6696802	1	10	0.03	2000	-0.3347778	40.92395	-91.39362
5092	12	0	-7	0.1928375	-0.01415827	1.251953	0	11.51	4003	0	0	5	5	0.02	-0.6664796	1	10	0.03	2000	-0.5788269	40.92395	-91.39362
5198	19	2	-1	0.1962578	-0.01388411	1.254337	0	11.57	4003	0	0	5	5	0.02	-0.6737539	1	10	0.03	2000	-0.5828552	40.92395	-91.39362
5251	17	0	-1	0.1960589	-0.01573414	1.257149	0	11.57	4004	0	0	5	5	0.02	-0.6741962	1	10	0.03	2000	-0.8107605	40.92395	-91.39362
5404	11	-9	-4	0.2038763	-0.01760157	1.260696	0	11.57	4002	0	0	5	5	0.02	-0.6716222	1	10	0.03	2000	-0.3522949	40.92395	-91.39362
5458	9	-2	-10	0.203581	-0.01796019	1.261857	0	11.57	4004	0	0	5	5	0.02	-0.6741839	1	10	0.03	2000	-1.062042	40.92395	-91.39362
5560	16	-2	-2	0.2043351	-0.01515894	1.267176	0	11.57	4003	0	0	5	5	0.02	-0.679676	1	10	0.03	2000	-0.829895	40.92395	-91.39362
5662	12	-6	-4	0.2059938	-0.01835989	1.269989	0	11.57	4002	0	0	5	5	0.02	-0.6905249	1	10	0.03	2000	-0.8304138	40.92395	-91.39362
5795	20	3	-1	0.2041134	-0.02136012	1.272434	0	11.57	4004	0	0	5	5	0.02	-0.6995854	1	10	0.03	2000	-0.5939636	40.92395	-91.39362
5901	12	1	0	0.2042234	-0.02010784	1.275797	0	11.57	4003	0	0	5	5	0.02	-0.696615	1	10	0.03	2000	-0.5976257	40.92395	-91.39362
5980	22	1	0	0.207178	-0.01743439	1.277754	0	11.57	4003	0	0	5	5	0.02	-0.6973682	1	10	0.03	2000	-0.5927124	40.92395	-91.39362
6051	15	-5	-4	0.2070737	-0.0178699	1.280505	0	11.46	4003	0	0	5	5	0.02	-0.6956157	1	10	0.03	2000	-0.8349915	40.92395	-91.39362
6163	13	0	0	0.2075558	-0.01644251	1.281728	0	11.46	4002	0	0	5	5	0.02	-0.6863094	1	10	0.03	2000	-0.8301392	40.92395	-91.39362
6318	17	-7	-7	0.2064465	-0.02081782	1.285825	0	11.46	4003	0	0	5	5	0.02	-0.6737348	1	10	0.03	2000	-0.5982666	40.92395	-91.39362
6378	17	0	0	0.2047022	-0.02054043	1.286987	0	11.46	4004	0	0	5	5	0.02	-0.6697089	1	10	0.03	2000	-0.5982666	40.92395	-91.39362
6443	11	3	-4	0.1994183	-0.01580642	1.291816	0	11.46	4004	0	0	5	5	0.02	-0.6682932	1	10	0.03	2000	-0.5852051	40.92395	-91.39362
6579	13	0	-4	0.1971002	-0.01610179	1.293162	0	11.46	4003	0	0	5	5	0.02	-0.6626838	1	10	0.03	2000	-0.3501587	40.92395	-91.39362
6653	11	0	4	0.1988041	-0.01875789	1.295913	0	11.46	4003	0	0	5	5	0.02	-0.6656675	1	10	0.03	2000	-0.8158264	40.92395	-91.39362
6748	13	-3	-2	0.2022001	-0.02248779	1.297686	0	11.46	4004	0	0	5	5	0.02	-0.6695719	1	10	0.03	2000	-0.82901	40.92395	-91.39362
6848	15	2	-4	0.201949	-0.02271653	1.299887	0	11.46	4003	0	0	5	5	0.02	-0.6715847	1	10	0.03	2000	-0.8264771	40.92395	-91.39362
6975	21	-2	-2	0.2068612	-0.01847113	1.306368	0	11.46	4002	0	0	5	5	0.02	-0.6668826	1	10	0.03	2000	-0.8405457	40.92395	-91.39362
7049	16	-4	-1	0.2079476	-0.01981307	1.305207	0	11.46	4002	0	0	5	5	0.02	-0.6551617	1	10	0.03	2000	-0.8360291	40.92395	-91.39362
7223	10	-1	-3	0.2094836	-0.01696264	1.309364	0	11.46	4003	0	0	5	5	0.02	-0.6454486	1	10	0.03	2000	-0.8417053	40.92395	-91.39362
7300	18	-1	4	0.2059584	-0.01697851	1.310098	0	11.46	4004	0	0	5	5	0.02	-0.6450218	1	10	0.03	2000	-0.6029358	40.92395	-91.39362
7364	14	0	-1	0.2059833	-0.01709403	1.31181	0	11.46	4004	0	0	5	5	0.02	-0.6487055	1	10	0.03	2000	-0.8323669	40.92395	-91.39362
7449	16	-1	1	0.2083191	-0.02010831	1.312788	0	11.46	4004	0	0	5	5	0.02	-0.6610065	1	10	0.03	2000	-0.5960999	40.92395	-91.39362
7612	13	-1	-3	0.2045605	-0.0216603	1.314438	0	11.46	4004	0	0	5	5	0.02	-0.6658964	1	10	0.03	2000	-0.5992432	40.92395	-91.39362
7707	15	2	1	0.2069088	-0.02079037	1.317496	0	11.46	4002	0	0	5	5	0.02	-0.6791748	1	10	0.03	2000	-0.367157	40.92395	-91.39362
7758	17	4	-2	0.208285	-0.02100956	1.317679	0	11.46	4003	0	0	5	5	0.02	-0.6835486	1	10	0.03	2000	-0.367157	40.92395	-91.39362
7904	13	2	-2	0.2117095	-0.02836142	1.321103	0	11.51	4004	0	0	5	5	0.02	-0.7068245	1	10	0.03	2000	-0.6146851	40.92395	-91.39362
7958	10	3	-2	0.2078223	-0.02863797	1.320431	0	11.51	4004	0	0	5	5	0.02	-0.7102105	1	10	0.03	2000	-0.6043701	40.92395	-91.39362
8117	18	4	-4	0.2035319	-0.02029677	1.324283	0	11.51	4003	0	0	5	5	0.02	-0.7212358	1	10	0.03	2000	-0.3638306	40.92395	-91.39362
8181	15	4	1	0.2077987	-0.0197297	1.324527	0	11.51	4004	0	0	5	5	0.02	-0.7214057	1	10	0.03	2000	-0.598999	40.92395	-91.39362
8250	16	0	1	0.2093735	-0.02197079	1.325322	0	11.51	4004	0	0	5	5	0.02	-0.7260401	1	10	0.03	2000	-0.3686829	40.92395	-91.39362
8381	21	0	1	0.2137332	-0.02264989	1.330397	0	11.51	4003	0	0	5	5	0.02	-0.7329018	1	10	0.03	2000	-0.6112976	40.92395	-91.39362
8453	13	4	2	0.2133359	-0.02185031	1.331436	0	11.51	4003	0	0	5	5	0.02	-0.7350109	1	10	0.03	2000	-0.8447876	40.92395	-91.39362
8614	12	-3	1	0.2130687	-0.02446079	1.335838	0	11.51	4003	0	0	5	5	0.02	-0.7405413	1	10	0.03	2000	-0.6087036	40.92395	-91.39362
8675	19	-6	-1	0.2123666	-0.02422278	1.337	0	11.51	4003	0	0	5	5	0.02	-0.7407635	1	10	0.03	2000	-0.3758545	40.92395	-91.39362
8800	10	-4	4	0.211157	-0.02292051	1.336695	0	11.51	4003	0	0	5	5	0.02	-0.7422708	1	10	0.03	2000	-0.3691101	40.92395	-91.39362
8861	16	-2	0	0.2153221	-0.02631002	1.341463	0	11.46	4003	0	0	5	5	0.02	-0.7398995	1	10	0.03	2000	-0.6086731	40.92395	-91.39362
8981	10	-1	-2	0.2113349	-0.02638419	1.344154	0	11.46	4003	0	0	5	5	0.02	-0.7343031	1	10	0.03	2000	-0.8437805	40.92395	-91.39362
9114	12	-2	-3	0.2027735	-0.02889227	1.346478	0	11.46	4004	0	0	5	5	0.02	-0.7264253	1	10	0.03	2000	-1.068604	40.92395	-91.39362
9246	15	3	0	0.2029486	-0.02505065	1.35033	0	11.46	4003	0	0	5	5	0.02	-0.7290868	1	10	0.03	2000	-0.5899658	40.92395	-91.39362
9342	18	-8	0	0.199579	-0.01738976	1.351981	0	11.46	4004	0	0	5	5	0.02	-0.7307298	1	10	0.03	2000	-0.5935364	40.92395	-91.39362
9365	10	-1	-1	0.203826	-0.01822044	1.35302	0	11.46	4002	0	0	5	5	0.02	-0.7307298	1	10	0.03	2000	-0.8228149	40.92395	-91.39362
9468	12	0	0	0.1985533	-0.02015446	1.355833	0	11.46	4003	0	0	5	5	0.02	-0.7368714	1	10	0.03	2000	-0.8175354	40.92395	-91.39362
9571	10	2	-1	0.1959092	-0.01883164	1.357055	0	11.46	4004	0	0	5	5	0.02	-0.7451261	1	10	0.03	2000	-0.581665	40.92395	-91.39362
9792	12	0	-2	0.1937957	-0.01095091	1.362986	0	11.46	4002	0	0	5	5	0.02	-0.7598222	3	10	0.03	2000	-0.8077087	40.92395	-91.39362
9870	11	-2	-3	0.1967244	-0.01406291	1.363047	0	11.46	4004	0	0	5	5	0.02	-0.7593214	3	10	0.03	2000	-1.045898	40.92395	-91.39362
9974	17	0	-1	0.1991155	-0.0188693	1.365555	0	11.46	4003	0	0	5	5	0.02	-0.7614729	3	10	0.03	2000	-0.5822144	40.92395	-91.39362
10075	20	-1	2	0.2008044	-0.02030501	1.368001	0	11.46	4004	0	0	5	5	0.02	-0.7625778	3	10	0.03	2000	-0.5841675	40.92395	-91.39362
10202	14	-6	-7	0.1924053	-0.01383261	1.373442	0	11.46	4003	0	0	5	5	0.02	-0.7678654	3	10	0.03	2000	-0.5670471	40.92395	-91.39362
10276	16	-3	5	0.1909287	-0.01579509	1.375949	0	11.46	4002	0	0	5	5	0.02	-0.7724933	3	10	0.03	2000	-0.5657349	40.92395	-91.39362
10397	8	0	-3	0.1917184	-0.01410018	1.37974	0	11.46	4004	0	0	5	5	0.02	-0.7750713	3	10	0.03	2000	-0.8065186	40.92395	-91.39362
10468	20	5	0	0.1894002	-0.02181309	1.382491	0	11.46	4004	0	0	5	5	0.02	-0.7742729	3	10	0.03	2000	-0.5665894	40.92395	-91.39362
10566	16	-1	-2	0.1828392	-0.02336993	1.383714	0	11.46	4002	0	0	5	5	0.02	-0.7772586	3	10	0.03	2000	-0.8032532	40.92395	-91.39362
10683	10	0	-2	0.182828	-0.02285326	1.385365	0	11.51	4010	0	0	5	5	0.02	-0.780258	3	10	0.03	2000	-0.5484314	40.92395	-91.39362
10794	10	2	0	0.182871	-0.02814493	1.389034	0	11.51	4004	0	0	5	5	0.02	-0.7761946	3	10	0.03	2000	-0.5620422	40.92395	-91.39362
10866	18	0	-5	0.1798161	-0.03020321	1.392458	0	11.51	4003	0	0	5	5	0.02	-0.7743651	3	10	0.03	2000	-0.5558777	40.92395	-91.39362
11060	18	0	-1	0.1756773	-0.02325442	1.400407	0	11.51	4003	0	0	5	5	0.02	-0.7811381	3	10	0.03	2000	-0.5463867	40.92395	-91.39362
11127	12	-4	-1	0.1781402	-0.02608383	1.403158	0	11.51	4002	0	0	5	5	0.02	-0.7839947	3	10	0.03	2000	-0.5449524	40.92395	-91.39362
11214	13	-3	4	0.1745833	-0.02751702	1.403892	0	11.51	4004	0	0	5	5	0.02	-0.7870083	3	10	0.03	2000	-0.5384521	40.92395	-91.39362
11264	6	1	2	0.1723999	-0.02633359	1.404014	0	11.51	4003	0	0	5	5	0.02	-0.7886003	3	10	0.03	2000	-0.5384521	40.92395	-91.39362
11365	14	-2	0	0.1795928	-0.02344245	1.406948	0	11.51	4003	0	0	5	5	0.02	-0.7926437	3	10	0.03	2000	-0.7866516	40.92395	-91.39362
11487	12	1	-2	0.1771851	-0.02537292	1.411351	0	11.51	4004	0	0	5	5	0.02	-0.7964978	3	10	0.03	2000	-0.5478516	40.92395	-91.39362
11551	19	-3	-2	0.1785901	-0.0250508	1.412268	0	11.51	4003	0	0	5	5	0.02	-0.7934321	3	10	0.03	2000	-0.5478516	40.92395	-91.39362
11660	22	3	1	0.1872011	-0.02862187	1.414714	0	11.51	4003	0	0	5	5	0.02	-0.7872312	3	10	0.03	2000	-0.5531616	40.92395	-91.39362
11749	15	0	-10	0.1950732	-0.02636598	1.416059	0	11.51	4003	0	0	5	5	0.02	-0.7788966	3	10	0.03	2000	-0.8027649	40.92395	-91.39362
11888	10	-1	-1	0.1973335	-0.03207911	1.418505	0	11.51	4002	0	0	5	5	0.02	-0.7770783	3	10	0.03	2000	-0.5812988	40.92395	-91.39362
11956	13	0	-1	0.2002998	-0.02989889	1.419788	0	11.51	4003	0	0	5	5	0.02	-0.7753093	3	10	0.03	2000	-0.8223267	40.92395	-91.39362
12106	17	-5	-2	0.2081042	-0.03224924	1.422846	0	11.51	4002	0	0	5	5	0.02	-0.7715221	3	10	0.03	2000	-0.5987244	40.92395	-91.39362
12162	13	-4	0	0.204042	-0.03561585	1.42413	0	11.51	4004	0	0	5	5	0.02	-0.7702397	3	10	0.03	2000	-0.8309631	40.92395	-91.39362
12263	0	0	50	0.2057539	-0.03189682	1.419606	0	11.51	4003	0	0	5	5	0.02	-0.7617186	3	10	0.03	2000	-0.5926819	40.92395	-91.39362
12453	7	1	-8	0.2040672	-0.03156969	1.426514	0	11.51	4004	0	0	5	5	0.02	-0.752991	3	10	0.03	2000	-0.1277161	40.92395	-91.39362
12487	15	-44	11	0.2161121	-0.04065296	1.426332	0	11.4	4002	0	0	5	5	0.02	-0.7528561	3	10	0.03	2000	-0.3438721	40.92395	-91.39362
12545	34	1	-35	0.2052061	-0.04623841	1.43856	0	11.4	4003	0	0	5	5	0.02	-0.7533636	3	10	0.03	2000	-0.3332214	40.92395	-91.39362
12646	-142	-163	27	0.1534672	0.001545792	1.421389	0	11.4	4003	0	0	5	5	0.02	-0.7555036	3	10	0.03	2000	-0.2871399	40.92395	-91.39362
12844	-12	-152	-31	0.003256516	0.2008668	1.424688	0	11.4	4002	0	0	5	5	0.02	-0.7477182	3	10	0.03	2000	-0.965271	40.92395	-91.39362
12937	20	83	-41	-0.03090337	0.2210712	1.423097	0	11.4	4003	0	0	5	5	0.02	-0.7377264	3	10	0.03	2000	-0.2135315	40.92395	-91.39362
13008	98	-6	-75	-0.02589142	0.2513013	1.426887	0	11.4	4004	0	0	5	5	0.02	-0.7285195	3	10	0.03	2000	-0.6721497	40.92395	-91.39362
13059	-16	-33	26	-0.04099037	0.2225268	1.414719	0	11.4	4002	0	0	5	5	0.02	-0.7187525	3	10	0.03	2000	-0.6594238	40.92395	-91.39362
13131	-31	-3	-59	-0.05503644	0.2266877	1.424446	0	11.4	4004	0	0	5	5	0.02	-0.7013706	3	10	0.03	2000	-0.1004944	40.92395	-91.39362
13232	-22	-68	-70	-0.06798253	0.238698	1.421761	0	11.4	4004	0	0	5	5	0.02	-0.6870832	3	10	0.03	2000	-0.1342773	40.92395	-91.39362
13335	34	-58	-124	-0.04855328	0.2278094	1.429032	0	11.4	4004	0	0	5	5	0.02	-0.6665545	3	10	0.03	2000	-0.8127441	40.92395	-91.39362
13434	25	77	98	-0.09243447	0.2483697	1.423093	0	11.46	4009	0	0	5	5	0.02	-0.6574873	3	10	0.03	2000	-0.5509644	40.92395	-91.39362
13535	-33	0	97	-0.1093508	0.2542439	1.421321	0	11.46	4002	0	0	5	5	0.02	-0.6486634	3	10	0.03	2000	-1.198303	40.92395	-91.39362
13681	20	34	115	-0.1375701	0.2404406	1.417522	0	11.46	4002	0	0	5	5	0.02	-0.6477974	3	10	0.03	2000	-0.9869995	40.92395	-91.39362
13831	14	36	99	-0.1544648	0.2520427	1.414396	0	11.46	4002	0	0	5	5	0.02	-0.6511792	3	10	0.03	2000	0.05447425	40.92395	-91.39362
13868	-17	-39	70	-0.132993	0.2530626	1.421729	0	11.46	4004	0	0	5	5	0.02	-0.6536791	3	10	0.03	2000	-0.6740112	40.92395	-91.39362
13938	4	13	-14	-0.1521033	0.273103	1.42454	0	11.46	4004	0	0	5	5	0.02	-0.6539809	3	10	0.03	2000	-0.2232666	40.92395	-91.39362
14038	7	-60	94	-0.2040914	0.2834952	1.423439	0	11.46	4004	0	0	5	5	0.02	-0.6540187	3	10	0.03	2000	-0.4127808	40.92395	-91.39362
14165	-18	-75	0	-0.230083	0.3122109	1.411516	0	11.46	4003	0	0	5	5	0.02	-0.6573436	3	10	0.03	2000	-0.3292236	40.92395	-91.39362
14269	57	-69	53	-0.2153012	0.2897588	1.41079	0	11.46	4004	0	0	5	5	0.02	-0.6619841	3	10	0.03	2000	-0.5458069	40.92395	-91.39362
14339	43	85	64	-0.2128368	0.2818724	1.408155	0	11.46	4003	0	0	5	5	0.02	-0.665437	3	10	0.03	2000	-0.3354492	40.92395	-91.39362
14471	5	-91	25	-0.2236678	0.3175396	1.403014	0	11.46	4002	0	0	5	5	0.02	-0.6677179	3	10	0.03	2000	0.1765172	40.92395	-91.39362
14570	25	-15	-18	-0.2264527	0.2842399	1.40601	0	11.46	4003	0	0	5	5	0.02	-0.6688257	3	10	0.03	2000	0.3955134	40.92395	-91.39362
14628	68	53	4	-0.2295789	0.282069	1.407659	0	11.46	4003	0	0	5	5	0.02	-0.6706916	3	10	0.03	2000	-0.03683472	40.92395	-91.39362
14743	-54	-57	-83	-0.2221711	0.2940425	1.399155	0	11.46	4003	0	0	5	5	0.02	-0.6726146	3	10	0.03	2000	-0.07946777	40.92395	-91.39362
14847	30	-109	46	-0.2193924	0.3045848	1.386986	0	11.46	4002	0	0	5	5	0.02	-0.6757379	3	10	0.03	2000	-0.1052246	40.92395	-91.39362
14937	17	-44	19	-0.2111042	0.3046359	1.390165	0	11.46	4003	0	0	5	5	0.02	-0.6764429	3	10	0.03	2000	0.4071481	40.92395	-91.39362
15081	-7	-54	-33	-0.2642452	0.3137869	1.380868	0	11.46	4003	0	0	5	5	0.02	-0.6767026	3	10	0.03	2000	0.2317148	40.92395	-91.39362
15149	11	25	-92	-0.2898908	0.3377607	1.373837	0	11.46	4003	0	0	5	5	0.02	-0.6760703	3	10	0.03	2000	0.01280802	40.92395	-91.39362
15300	-45	98	-44	-0.3003472	0.3641486	1.368826	0	11.51	4002	0	0	5	5	0.02	-0.6750011	3	10	0.03	2000	-0.2066956	40.92395	-91.39362
15359	-65	5	-96	-0.3279414	0.3622699	1.365951	0	11.51	4004	0	0	5	5	0.02	-0.6740727	3	10	0.03	2000	-0.4146118	40.92395	-91.39362
15455	-43	83	-57	-0.3581931	0.3732038	1.354697	0	11.51	4002	0	0	5	5	0.02	-0.6700364	3	10	0.03	2000	-0.3854675	40.92395	-91.39362
15559	20	14	19	-0.3230107	0.3701334	1.344978	0	11.51	4003	0	0	5	5	0.02	-0.6714704	3	10	0.03	2000	-0.3269348	40.92395	-91.39362
15621	-37	46	-13	-0.3258979	0.3706381	1.349198	0	11.51	4003	0	0	5	5	0.02	-0.6732374	3	10	0.03	2000	-0.3922119	40.92395	-91.39362
15754	14	19	53	-0.2774478	0.3611318	1.338989	0	11.51	4004	0	0	5	5	0.02	-0.6713952	3	10	0.03	2000	0.5142018	40.92395	-91.39362
15821	32	31	-44	-0.2303513	0.3261242	1.34364	0	11.51	4003	0	0	5	5	0.02	-0.6700438	3	10	0.03	2000	0.3792396	40.92395	-91.39362
15910	15	-19	86	-0.2423715	0.3186681	1.337278	0	11.51	4004	0	0	5	5	0.02	-0.668188	6	10	0.03	2000	0.1270939	40.92395	-91.39362
15976	389	550	149	-0.02589045	0.003320127	1.299601	0	11.51	4002	0	0	5	5	0.02617101	-0.6616812	6	10	0.03	2000	-0.6822205	40.92396	-91.39362
16105	-172	-404	-188	-0.1614746	0.1762182	1.303301	0	11.4	4003	0	0	5	5	0.03521833	-0.6452347	6	10	0.03	2000	-0.1714172	40.92396	-91.39362
16173	169	124	-36	-0.286294	0.4137684	1.281792	0	11.4	4003	0	0	5	5	0.03810684	-0.6428342	6	10	0.03	2000	-0.1013184	40.92396	-91.39362
16293	177	18	31	-0.3151069	0.3745352	1.282231	0	11.4	4002	0	0	5	5	0.04308372	-0.6445246	6	10	0.03	2000	0.09491538	40.92396	-91.39362
16367	-46	-218	288	-0.2986139	0.2136271	1.267558	0	11.4	4003	0	0	5	5	0.044934	-0.6474076	6	10	0.03	2000	-0.3833008	40.92396	-91.39362
16478	88	50	-308	-0.4426852	0.2450545	1.256841	0	11.4	4002	0	0	5	5	0.04558796	-0.6548398	6	10	0.03	2000	-0.1957397	40.92396	-91.39362
16596	-100	-155	32	-0.5194473	0.2056122	1.249738	0	11.4	4003	0	0	5	5	0.04748321	-0.659746	6	10	0.03	2000	0.3465937	40.92396	-91.39362
16681	104	-18	79	-0.4775213	0.2331037	1.225963	0	11.4	4002	0	0	5	5	0.0406223	-0.6594383	6	10	0.03	2000	0.01125404	40.92396	-91.39362
16793	156	39	405	-0.4479127	0.2401402	1.213366	0	11.4	4003	0	0	5	5	0.04207759	-0.6557768	6	10	0.03	2000	0.1149568	40.92396	-91.39362
16872	71	39	-158	-0.4184893	0.2318497	1.207672	0	11.4	4002	0	0	5	5	0.04411902	-0.6546225	6	10	0.03	2000	0.8214111	40.92396	-91.39362
17022	473	-93	-520	-0.7209576	0.1878709	1.22725	0	11.06	4003	0	0	5	5	0.04574244	-0.6524821	6	10	0.03	2000	0.8091654	40.92396	-91.39362
17073	513	157	-615	-0.6321516	0.2629437	1.198021	0	11.06	4004	0	0	5	5	0.0460731	-0.6523923	6	10	0.03	2000	0.05156322	40.92396	-91.39362
17176	-41	98	49	-0.6089907	0.2053666	1.173006	0	11.06	4004	0	0	5	5	0.04774821	-0.6493657	6	10	0.03	2000	0.07309053	40.92396	-91.39362
17288	-470	9	695	-0.7353845	0.1777695	1.159402	0	11.06	4004	0	0	5	5	0.04720549	-0.6458172	6	10	0.03	2000	0.4714616	40.92396	-91.39362
17380	-241	-218	602	-0.8664255	0.06232215	1.189862	0	11.06	4003	0	0	5	5	0.04670855	-0.6400152	6	10	0.03	2000	1.231879	40.92396	-91.39362
17520	-129	116	-95	-0.9051735	0.002899196	1.195405	0	11.06	4004	0	0	5	5	0.04344403	-0.6273786	6	10	0.03	2000	1.585098	40.92396	-91.39362
17585	-319	-90	118	-1.058317	-0.2201452	1.231033	0	11.06	4003	0	0	5	5	0.04335283	-0.62686	6	10	0.03	2000	1.021189	40.92396	-91.39362
17777	206	-96	-247	-1.059204	-0.6392965	1.473573	0	11.06	4004	0	0	5	5	0.04597366	-0.6171091	6	10	0.03	2000	1.300034	40.92396	-91.39362
17823	272	-93	-393	-1.011293	-0.7496189	1.539179	0	11.06	4004	0	0	5	5	0.04473322	-0.6124411	6	10	0.03	2000	1.300034	40.92396	-91.39362
17933	-145	-147	-667	-0.9849344	-0.8014191	2.048722	0	10.89	4004	0	0	5	5	0.04692528	-0.5948486	6	10	0.03	2000	1.194239	40.92396	-91.39362
18022	-24	187	25	-1.045952	-0.8392804	2.426941	0	10.89	4004	0	0	5	5	0.0485034	-0.5849046	6	10	0.03	2000	1.00707	40.92396	-91.39362
18170	323	-372	-1081	-1.109639	-0.9468858	3.435135	0	10.89	4002	0	0	5	5	0.04821333	-0.5610797	6	10	0.03	2000	-0.1425781	40.92396	-91.39362
18243	-273	-1520	694	-0.9093841	-0.2844991	4.084551	0	10.89	4002	0	0	5	5	0.0480737	-0.5512699	6	10	0.03	2000	-0.0569458	40.92396	-91.39362
18351	-185	-1528	1162	-0.6990159	1.619884	3.564075	0	10.89	4004	0	0	5	5	0.05019671	-0.5404035	6	10	0.03	2000	-0.1556091	40.92396	-91.39362
18400	516	202	1211	-1.015161	1.865557	2.27109	0	10.89	4003	0	0	5	5	0.05069934	-0.5372566	6	10	0.03	2000	1.141182	40.92396	-91.39362
18465	664	167	1454	-0.5585674	1.395327	0.916001	0	10.89	4004	0	0	5	5	0.05309146	-0.5318683	6	10	0.03	2000	2.905967	40.92396	-91.39362
18600	1422	1286	-1557	0.94311	-0.944339	0.3708222	0	10.89	4003	0	0	5	5	0.05734401	-0.530712	6	10	0.03	2000	6.623126	40.92396	-91.39362
18671	-351	-1040	-1045	1.165226	-2.492072	1.242725	0	10.89	4004	0	0	5	5	0.06647234	-0.5172282	6	10	0.03	2000	6.387561	40.92396	-91.39362
18800	-2466	406	-2381	-0.905471	-3.144919	2.212475	0	10.94	4003	0	0	5	5	0.07610378	-0.5164949	6	10	0.03	2000	8.064025	40.92396	-91.39362
18872	114	2288	-921	-3.948933	-5.715825	2.428725	0	10.94	4004	0	0	5	5	0.09427673	-0.5192144	6	10	0.03	2000	8.442628	40.92396	-91.39362
18983	663	1223	20	-3.298673	-7.793234	2.247912	0	10.94	4003	0	0	5	5	0.1361194	-0.5196809	6	10	0.03	2000	7.039029	40.92396	-91.39362
19077	-480	-815	-641	-2.65877	-7.433427	1.720588	0	10.94	4002	0	0	5	5	0.2093803	-0.5209605	8	10	0.03	2000	6.308564	40.92396	-91.39362
19273	1450	2121	-209	-0.9287851	-5.193197	2.593661	0	10.94	4003	0	0	5	5	0.123637	-0.5138596	8	10	0.03	2000	4.842288	40.92396	-91.39362
19335	-808	-114	2134	-0.4841886	-5.805616	2.299608	0	10.94	4003	0	0	5	5	0.09013136	-0.5028341	8	10	0.03	2000	4.87147	40.92396	-91.39362
19429	-2017	588	-749	-2.3831	-4.293076	2.836617	0	10.94	4003	0	0	5	5	0.06570577	-0.4880525	8	10	0.03	2000	4.448516	40.92396	-91.39362
19521	-2030	2584	-1839	-1.559089	-7.062988	3.373224	0	10.94	4002	0	0	5	5	0.04789951	-0.4599762	8	10	0.03	2000	3.349713	40.92396	-91.39362
19558	-94	2711	196	-2.06374	-8.64235	3.287178	0	10.94	4004	0	0	5	5	0.04310955	-0.4521156	8	10	0.03	2000	3.349713	40.92396	-91.39362
19664	-2951	-101	-1241	-2.0912	-11.91096	2.900201	0	10.94	4003	0	0	5	5	0.03142687	-0.4125131	8	10	0.03	2000	2.059068	40.92396	-91.39362
19804	-2579	1256	1733	-2.512724	-11.82184	3.869803	0	10.77	4002	0	0	5	5	0.02	-0.3199836	8	10	0.03	2000	1.613168	40.92396	-91.39362
19855	-2294	-1373	-117	-3.526804	-11.30434	3.219803	0	10.77	4004	0	0	5	5	0.02	-0.2848274	8	10	0.03	2000	1.613168	40.92396	-91.39362
19997	1639	-519	927	-3.134187	-5.574257	1.785938	0	10.77	4004	69	0	5	5	0.02	-0.1845706	8	10	0.03	2000	1.404279	40.92396	-91.39362
20072	-2138	-1738	681	-2.665967	-2.889474	2.128496	0	10.77	4003	69	0	5	5	0.02	-0.0001458891	8	10	0.03	2000	3.719009	40.92396	-91.39361
20199	-2761	-4554	1635	-10.11726	8.715546	1.970193	0	10.77	4004	69	0	5	5	0.02	0.2297538	8	10	0.03	2000	3.665174	40.92396	-91.39361
20257	625	-102	-201	-9.736267	9.21149	2.362417	0	10.77	4004	69	0	5	5	0.02	0.3981111	8	10	0.03	2000	2.662837	40.92396	-91.39361
20319	1810	3545	294	-7.721539	5.099893	2.458479	0	10.77	4004	69	0	5	5	0.02	0.4363456	8	10	0.03	2000	0.6959097	40.92396	-91.39361
20420	-1184	-304	23	-6.142112	-1.070021	2.750468	0	10.77	4002	69	34	5	5	0.02	0.7590981	8	10	0.03	2000	-3.401001	40.92397	-91.39361
20565	1021	249	-378	-7.256979	1.797076	2.25892	0	10.77	4003	69	69	5	5	0.02	0.9508853	8	10	0.03	2000	-4.215149	40.92397	-91.39361
20625	1574	396	457	-5.507278	0.3553137	2.544063	0	10.43	4003	69	69	5	5	0.02	0.9817791	8	10	0.03	2000	-6.335388	40.92397	-91.39361
20796	165	-1470	837	-4.330119	1.949836	2.526394	0	10.43	4002	13	69	5	5	0.02	1.221508	8	10	0.03	2000	-9.255981	40.92397	-91.39361
20868	1184	-1111	-498	-2.424579	2.143424	2.257942	0	10.43	4003	13	69	5	5	0.02	1.410734	8	10	0.03	2000	-10.70453	40.92397	-91.39361
20984	-1828	-609	-9	-3.287107	1.189852	1.415919	0	10.43	4003	13	41	5	5	0.02	1.626398	8	10	0.03	2000	-9.426239	40.92397	-91.39361
21054	709	-2397	47	-3.517714	3.671439	1.46829	0	10.43	4003	13	41	5	5	0.02	1.682746	8	10	0.03	2000	-11.30557	40.92397	-91.39361
21156	-347	1230	-277	-3.268355	1.068744	1.315697	0	10.43	4003	13	13	5	5	0.02	1.861767	8	10	0.03	2000	-16.60504	40.92397	-91.39361
21277	77	-1525	-1982	-2.791155	0.883622	1.919602	0	10.43	4003	13	13	5	5	0.02	1.985262	8	10	0.03	2000	-18.75308	40.92397	-91.39361
21312	-1594	274	779	-3.115152	0.5920432	1.909105	0	10.43	4004	13	13	5	5	0.02	2.027559	8	10	0.03	2000	-18.75308	40.92397	-91.39361
21388	-636	1633	1019	-4.002506	-1.299436	1.724804	0	10.43	4003	13	13	5	5	0.02	2.191468	8	10	0.03	2000	-22.18555	40.92397	-91.39361
21533	-664	-1713	-50	-1.854898	-0.1666943	1.958221	0	10.66	4003	13	13	5	5	0.02	2.289105	8	10	0.03	2000	-23.20993	40.92397	-91.39361
21629	153	907	-491	-2.501719	0.5700989	1.5742	0	10.66	4003	13	-21	5	5	0.02	2.340592	8	10	0.03	2000	-21.05298	40.92397	-91.39361
21695	2593	3026	-1787	-0.3735206	-3.638012	2.12914	0	10.66	4004	13	-21	5	5	0.02	2.438843	8	10	0.03	2000	-20.73917	40.92397	-91.39361
21825	-190	2627	-249	-0.6517269	-7.512088	2.298617	0	10.66	4004	13	-56	5	5	0.02	2.525477	8	10	0.03	2000	-17.716	40.92396	-91.39361
21947	-107	2602	495	0.822093	-11.86563	1.808619	0	10.66	4003	13	-56	5	5	0.02	2.624274	8	10	0.03	2000	-8.780548	40.92396	-91.39362
22039	2246	3265	-1422	1.325111	-14.35232	1.94808	0	10.66	4003	-56	-56	5	5	0.02	2.679108	8	10	0.03	2000	-8.780548	40.92396	-91.39362
22107	-569	2663	1392	2.343304	-16.73767	1.585392	0	10.66	4008	-56	-56	5	5	0.02	2.691808	8	10	0.03	2000	-3.281219	40.92395	-91.39362
22177	748	1916	-1291	1.24369	-17.40619	1.682141	0	10.66	4002	-56	-91	5	5	0.02	2.734635	8	10	0.03	2000	-0.9685669	40.92395	-91.39362
22333	-654	464	-924	1.746074	-16.06557	1.904388	0	10.66	4004	-56	-62	5	5	0.02	2.771531	8	10	0.03	2000	0.8412247	40.92395	-91.39362
22493	3141	4309	-2894	3.620757	-20.70043	2.821154	0	10.21	4002	-56	-69	5	5	0.02	2.757868	8	10	0.03	2000	2.081656	40.92395	-91.39362
22601	-1457	-4786	598	3.301792	-19.49597	2.48629	0	10.21	4004	0	-69	5	5	0.02	2.724857	8	10	0.03	2000	3.369321	40.92395	-91.39362
22672	-2099	-4865	-1025	1.172224	-13.21867	1.98642	0	10.21	4003	0	-104	5	5	0.02	2.717867	8	10	0.03	2000	4.608482	40.92395	-91.39362
22845	2371	1171	-114	0.716729	-11.02263	2.487067	0	10.21	4004	0	-76	5	5	0.02	2.667838	8	10	0.03	2000	4.830125	40.92395	-91.39362
22891	-1019	-2070	-1617	1.186522	-9.750621	2.951032	0	10.21	4002	0	-76	5	5	0.02	2.662969	8	10	0.03	2000	4.470233	40.92395	-91.39362
22979	910	-201	242	0.9587938	-8.232659	2.383256	0	10.21	4003	0	-48	5	5	0.02	2.613567	8	10	0.03	2000	5.359857	40.92395	-91.39362
23077	516	-74	710	1.476168	-8.07603	2.003662	0	10.21	4003	0	-83	5	5	0.02	2.581232	8	10	0.03	2000	5.906642	40.92394	-91.39362
23181	-176	899	-582	0.5239111	-8.3881	1.933226	0	10.21	4004	0	-83	5	5	0.02	2.520208	8	10	0.03	2000	9.4284	40.92394	-91.39362
23267	832	-424	291	-1.146254	-8.530005	2.502976	0	10.21	4002	0	-83	5	5	0.02	2.485473	8	10	0.03	2000	8.410898	40.92394	-91.39362
23408	-3059	-1004	-1545	-6.770072	-7.590802	3.023046	0	9.75	4003	0	-66	5	5	0.02	2.454248	8	10	0.03	2000	7.8493	40.92395	-91.39362
23473	-2254	-2885	885	-8.60053	-5.829543	3.236177	0	9.75	4004	0	-20	5	5	0.02	2.431836	8	10	0.03	2000	6.038431	40.92395	-91.39362
23627	-2842	-6068	1545	-10.70011	3.623016	2.316912	0	9.75	4004	0	-20	5	5	0.02	2.390603	8	10	0.03	2000	5.868416	40.92395	-91.39362
23677	967	-2625	-160	-8.02243	6.970559	2.524271	0	9.75	4008	0	-20	5	5	0.02	2.385671	8	10	0.03	2000	6.962932	40.92395	-91.39362
23779	-615	-2115	294	-7.328842	7.310641	2.4015	0	9.75	4003	0	42	5	5	0.02	2.353137	8	10	0.03	2000	6.508658	40.92395	-91.39362
23924	1632	428	-1245	-3.994826	4.12047	2.787599	0	9.75	4004	0	42	5	5	0.02	2.310828	8	10	0.03	2000	5.327483	40.92395	-91.39362
24031	-670	-1708	-134	-2.635547	2.485509	2.555699	0	9.75	4004	0	49	5	5	0.02	2.277483	8	10	0.03	2000	6.25746	40.92395	-91.39362
24171	308	-148	1248	-2.193849	2.039608	2.719377	0	9.75	4003	0	49	5	5	0.02	2.217139	8	10	0.03	2000	6.730834	40.92395	-91.39362
24226	-701	-727	1741	-2.161962	1.605145	2.42201	0	10.43	4004	0	49	5	5	0.02	2.170718	8	10	0.03	2000	6.730834	40.92395	-91.39362
24273	1170	875	880	-2.216029	0.6879216	1.732341	0	10.43	4003	0	49	5	5	0.02	2.159375	8	10	0.03	2000	8.223907	40.92395	-91.39362
24442	-3723	-3070	-1565	-4.950933	3.77105	1.858583	0	10.43	4002	83	67	5	5	0.02	2.088856	8	10	0.03	2000	11.45436	40.92396	-91.39361
24496	-796	-1136	-1751	-5.902572	4.711679	2.162246	0	10.43	4002	69	55	5	5	0.02	2.038421	8	10	0.03	2000	11.45436	40.92396	-91.39361
24568	1676	2179	136	-4.417598	3.456214	2.837015	0	10.43	4003	69	56	5	5	0.02	2.020075	8	10	0.03	2000	10.6325	40.92396	-91.39361
24727	-133	623	2521	-3.967671	0.9187719	2.190599	0	10.43	4002	69	-6	5	5	0.02	1.964984	8	10	0.03	2000	8.809528	40.92395	-91.39361
24823	660	2795	-1980	-3.419024	-2.287761	2.561243	0	10.43	4004	69	-6	5	5	0.02	1.934207	8	10	0.03	2000	3.72902	40.92395	-91.39361
24865	-380	3456	-1493	-3.48675	-3.770926	2.413792	0	10.43	4004	69	-6	5	5	0.02	1.928129	8	10	0.03	2000	3.72902	40.92395	-91.39361
24969	-867	2284	-1290	-4.355025	-10.36253	2.977318	0	10.43	4004	13	-34	5	5	0.02	1.915454	8	10	0.03	2000	2.825347	40.92395	-91.39361
25068	670	-397	1617	-3.372406	-10.9859	2.631957	0	10.43	4002	13	-69	5	5	0.02	1.901902	8	10	0.03	2000	1.191422	40.92395	-91.39361
25186	427	-10	719	-2.53091	-7.344085	2.065564	0	9.98	4004	13	-69	5	5	0.02	1.899423	8	10	0.03	2000	0.2410746	40.92395	-91.39361
25338	-1803	1887	-118	-1.768631	-9.058262	2.491526	0	9.98	4003	13	-41	5	5	0.02	1.897631	8	10	0.03	2000	0.3418418	40.92395	-91.39361
25375	-653	2852	-715	-2.269521	-10.17004	2.382355	0	9.98	4003	13	-41	5	5	0.02	1.89815	8	10	0.03	2000	0.3418418	40.92395	-91.39361
25479	-1075	-1854	749	-0.8032152	-10.08841	2.436084	0	9.98	4004	13	-76	5	5	0.02	1.900492	8	10	0.03	2000	-0.494812	40.92395	-91.39361
25623	-178	51	-714	-3.664049	-6.384994	1.75016	0	9.98	4003	13	-76	5	5	0.02	1.894422	8	10	0.03	2000	-0.1344299	40.92394	-91.39361
25741	775	2077	-1176	-2.767521	-9.180561	2.178114	0	9.98	4003	13	-83	5	5	0.02	1.89711	8	10	0.03	2000	0.7294022	40.92394	-91.39361
25853	-1359	-1942	45	-1.290346	-9.350081	3.353458	0	9.98	4004	13	-83	5	5	0.02	1.910986	8	10	0.03	2000	-0.7156677	40.92394	-91.39361
25874	-1359	-1942	45	-1.290346	-9.350081	3.353458	0	9.98	4004	13	-83	5	5	0.02	1.912318	8	10	0.03	2000	-0.7156677	40.92394	-91.39361
25979	306	-139	610	-1.484391	-7.253827	1.567486	0	9.98	4003	13	-117	5	5	0.02	1.926141	8	10	0.03	2000	-1.576813	40.92394	-91.39361
26111	-80	-253	-608	0.006764584	-6.587383	1.276317	0	9.75	4002	13	-90	5	5	0.02	1.949578	8	10	0.03	2000	-1.451843	40.92394	-91.39361
26271	-172	1199	-1051	0.1907358	-8.824918	2.647789	0	9.75	4003	13	-97	5	5	0.02	2.008714	8	10	0.03	2000	0.1275604	40.92393	-91.39361
26327	-1713	-808	-90	-1.297047	-8.768134	2.526897	0	9.75	4002	13	-96	5	5	0.02	2.01884	8	10	0.03	2000	-0.5210571	40.92393	-91.39361
26432	-323	128	-74	-2.142245	-5.716063	1.760344	0	9.75	4003	13	-96	5	5	0.02	2.08766	8	10	0.03	2000	-0.9237366	40.92393	-91.39361
26482	-575	748	-381	-2.163319	-6.399483	1.611118	0	9.75	4003	13	-96	5	5	0.02	2.110284	8	10	0.03	2000	-0.9237366	40.92393	-91.39361
26583	567	2925	-619	-0.4145534	-10.97298	1.678848	0	9.75	4003	13	-131	5	5	0.02	2.143661	8	10	0.03	2000	-0.721283	40.92393	-91.39361
26702	-713	-2609	-996	-1.663256	-8.790928	2.483479	0	9.75	4004	13	-103	5	5	0.02	2.209554	8	10	0.03	2000	-0.5853577	40.92393	-91.39361
26775	30	-1011	-980	-2.262679	-6.776381	2.211496	0	9.75	4004	13	-76	5	5	0.02	2.233619	8	10	0.03	2000	-0.2359009	40.92393	-91.39361
26881	81	2077	1720	-1.481832	-6.933098	1.311149	0	9.75	4002	13	-75	5	5	0.02	2.281154	8	10	0.03	2000	-1.223907	40.92393	-91.39361
26979	-96	-663	-1637	-1.790854	-10.04729	1.319398	0	10.15	4003	13	-110	5	5	0.02	2.305348	8	10	0.03	2000	0.4243768	40.92393	-91.39361
27088	1414	2183	-529	0.3618012	-10.69145	2.964672	0	10.15	4004	13	-110	5	5	0.02	2.346176	8	10	0.03	2000	-0.2355652	40.92393	-91.39361
27224	-1888	-1136	709	0.6361888	-12.23468	2.992535	0	10.15	4002	13	-82	5	5	0.02	2.393528	8	10	0.03	2000	0.2599201	40.92393	-91.39361
27276	-492	-1522	1527	-2.231808	-7.596224	1.653455	0	10.15	4003	13	-82	5	5	0.02	2.406514	8	10	0.03	2000	0.1137067	40.92393	-91.39361
27378	1363	858	1319	-1.808884	-7.194655	1.149308	0	10.15	4004	13	-82	5	5	0.02	2.425144	8	10	0.03	2000	1.832174	40.92393	-91.39361
27504	384	1530	-998	-1.629048	-10.12554	2.033768	0	10.15	4004	13	-82	5	5	0.02	2.429344	8	10	0.03	2000	2.026561	40.92393	-91.39361
27668	-32	-1322	-262	-1.526983	-7.818324	3.603289	0	10.15	4004	13	-54	5	5	0.02	2.42504	8	10	0.03	2000	0.6072705	40.92393	-91.39361
27702	680	311	659	-2.00663	-7.691396	3.134796	0	10.15	4002	13	-54	5	5	0.02	2.423953	8	10	0.03	2000	0.8982173	40.92393	-91.39361
27832	-641	-740	-1055	-0.6092891	-8.810137	2.59368	0	10.15	4002	13	-54	5	5	0.02	2.4203	8	10	0.03	2000	2.489725	40.92393	-91.39361
27934	-939	-1726	-124	-2.159585	-6.951608	1.956371	0	9.64	4004	13	-54	5	5	0.02	2.40831	8	10	0.03	2000	2.566872	40.92393	-91.39361
27988	1163	42	-2059	-2.23987	-5.469315	1.899873	0	9.64	4002	13	-54	5	5	0.02	2.405981	8	10	0.03	2000	3.402353	40.92393	-91.39361
28134	335	-527	-2285	-2.497218	-6.925937	2.483068	0	9.64	4004	13	-54	5	5	0.02	2.39175	8	10	0.03	2000	2.467026	40.92393	-91.39361
28190	1017	447	-1656	-1.45462	-7.287077	3.055096	0	9.64	4002	13	-54	5	5	0.02	2.391151	8	10	0.03	2000	3.026504	40.92393	-91.39361
28315	-562	-894	1310	-1.206839	-6.435837	2.675413	0	9.64	4003	13	-54	5	5	0.02	2.38756	8	10	0.03	2000	2.613537	40.92393	-91.39361
28393	-1305	-2175	-1563	-2.359915	-6.800237	2.642213	0	9.64	4002	83	-19	5	5	0.02	2.389537	8	10	0.03	2000	2.590017	40.92393	-91.3936
28485	-2248	-1428	-1122	-4.307987	-6.196101	2.471739	0	9.64	4004	83	-19	5	5	0.02	2.399758	8	10	0.03	2000	5.518958	40.92393	-91.3936
28592	-770	-1930	-640	-5.22217	-5.68668	2.327266	0	9.64	4003	83	-19	5	5	0.02	2.405672	8	10	0.03	2000	2.985534	40.92393	-91.3936
28676	-1089	850	817	-4.977355	-5.740732	2.215481	0	9.64	4003	83	-19	5	5	0.02	2.406866	8	10	0.03	2000	2.767105	40.92393	-91.3936
28779	-658	-1751	-715	-5.374681	-6.455367	2.662652	0	10.21	4004	83	15	5	5	0.02	2.404102	8	10	0.03	2000	0.3850255	40.92393	-91.3936
28882	-2338	-3137	-710	-6.129581	-3.775518	2.729455	0	10.21	4003	83	15	5	5	0.02	2.392339	8	10	0.03	2000	-0.2645569	40.92393	-91.3936
28984	1773	1775	1654	-4.886058	-3.907367	3.084022	0	10.21	4002	27	-12	5	5	0.02	2.381042	8	10	0.03	2000	0.2243585	40.92393	-91.3936
29087	-948	-557	1072	-4.919349	-5.68448	3.362196	0	10.21	4004	27	-12	5	5	0.02	2.375917	8	10	0.03	2000	-0.9529114	40.92393	-91.3936
29243	353	7	-63	-3.510599	-5.146228	2.406021	0	10.21	4004	27	-12	5	5	0.02	2.335342	8	10	0.03	2000	-1.38559	40.92394	-91.3936
29291	128	-298	1715	-2.94875	-4.239107	2.657995	0	10.21	4003	27	21	5	5	0.02	2.330668	8	10	0.03	2000	-3.640991	40.92394	-91.3936
29370	-50	-1414	1697	-2.759958	-2.409627	2.809084	0	10.21	4002	27	-6	5	5	0.02	2.315849	8	10	0.03	2000	-2.119934	40.92394	-91.3936
29509	-476	-177	93	-3.315725	-3.724598	2.924032	0	10.21	4002	27	-6	5	5	0.02	2.292762	8	10	0.03	2000	-2.381531	40.92394	-91.3936
29609	294	-891	-778	-3.31604	-3.274136	2.353708	0	10.21	4003	27	-6	5	5	0.02	2.282994	8	10	0.03	2000	-3.608978	40.92394	-91.3936
29656	1233	836	447	-2.960526	-3.011774	2.05519	0	10.21	4004	27	-5	5	5	0.02	2.276278	8	10	0.03	2000	-4.621033	40.92394	-91.3936
29756	-1023	-342	-1200	-3.237122	-3.2693	2.207092	0	10.32	4002	27	-6	5	5	0.02	2.258109	8	10	0.03	2000	-4.950195	40.92394	-91.3936
29905	785	-410	-1360	-3.154915	-3.540455	2.944793	0	10.32	4002	27	-33	5	5	0.02	2.252322	8	10	0.03	2000	-2.956238	40.92394	-91.3936
29970	178	196	-1062	-2.876039	-5.376099	3.566243	0	10.32	4003	27	-33	5	5	0.02	2.25058	8	10	0.03	2000	-0.6089783	40.92394	-91.3936
30088	-314	-1528	584	-2.422752	-3.949058	2.686383	0	10.32	4003	27	-34	5	5	0.02	2.255065	8	10	0.03	2000	0.6453506	40.92394	-91.3936
