time(ms)	gyro_x(deg/s)	gyro_y(deg/s)	gyro_z(deg/s)	orientation_roll(deg)	orientation_pitch(deg)	orientation_yaw(deg)	throttle	battery(V)	loop_time(uS)	pid_output_roll	pid_output_pitch	pid_output_yaw	pid_output_throttle	ultrasonic_alt	baro_alt	flight_mode	p_gain_altitude	i_gain_altitude	d_gain_altitude	compass_heading	latitude	longitude
30292	-353	-439	529	-3.714661	-3.384496	1.348922	0	10.32	4003	27	-34	5	5	0.02	2.26587	8	10	0.03	2000	-1.391632	40.92394	-91.3936
30376	688	-622	-431	-2.714472	-4.040044	2.124038	0	10.32	4004	27	-34	5	5	0.02	2.266229	8	10	0.03	2000	-3.569153	40.92394	-91.3936
30467	1781	1797	894	-1.744185	-5.802193	3.215314	0	10.32	4004	27	-34	5	5	0.02	2.259909	8	10	0.03	2000	-0.2875061	40.92394	-91.3936
30579	909	824	-143	0.3634523	-7.941389	4.1408	0	10.32	4002	-42	-69	5	5	0.02	2.248401	8	10	0.03	2000	3.388603	40.92393	-91.39361
30672	-646	-1358	-509	0.3443554	-7.572812	3.548559	0	9.7	4004	-42	-68	5	5	0.02	2.235941	8	10	0.03	2000	4.435458	40.92393	-91.39361
30803	-213	385	54	0.1841646	-6.017601	1.356057	0	9.7	4004	-42	-68	5	5	0.02	2.222201	8	10	0.03	2000	5.077242	40.92393	-91.39361
30879	225	815	-1225	1.207653	-7.895317	0.9519024	0	9.7	4002	-42	-103	5	5	0.02	2.217949	8	10	0.03	2000	8.162462	40.92393	-91.39361
30982	412	-198	-194	1.134729	-7.031611	1.487252	0	9.7	4002	-42	-103	5	5	0.02	2.205377	8	10	0.03	2000	8.829006	40.92393	-91.39361
31092	3203	1759	-1856	2.128508	-7.376448	2.900092	0	9.7	4002	-42	-103	5	5	0.02	2.200684	8	10	0.03	2000	9.710514	40.92393	-91.39361
31188	-2894	-1038	1928	1.998276	-8.434693	2.874716	0	9.7	4004	13	-110	5	5	0.02	2.203494	8	10	0.03	2000	13.01277	40.92393	-91.39361
31291	-1152	-612	1034	-0.3650806	-6.301937	2.106455	0	9.7	4003	13	-110	5	5	0.02	2.203978	8	10	0.03	2000	13.64874	40.92392	-91.39361
31396	-919	1392	-770	-0.882272	-9.165299	1.085792	0	9.7	4004	13	-145	5	5	0.02	2.202945	8	10	0.03	2000	14.9708	40.92392	-91.39361
31526	1036	2248	-1416	-0.445528	-11.97589	1.924018	0	10.04	4003	13	-180	5	5	0.02	2.203012	8	10	0.03	2000	13.14593	40.92392	-91.39361
31602	-2111	-1213	146	-0.7055829	-12.48052	3.276622	0	10.04	4002	13	-152	5	5	0.02	2.205831	8	10	0.03	2000	11.0686	40.92392	-91.39361
31815	1361	1748	-910	-0.92475	-11.31437	1.845259	0	10.04	4003	13	-158	5	5	0.02	2.216819	8	10	0.03	2000	10.4201	40.92392	-91.39361
31901	-444	1738	1008	-0.4349896	-12.76917	1.521437	0	10.04	4003	13	-158	5	5	0.02	2.23002	8	10	0.03	2000	9.45435	40.92392	-91.39361
32034	1141	774	120	-0.7220331	-10.41553	2.245379	0	10.04	4004	13	-130	5	5	0.02	2.239268	8	10	0.03	2000	7.33052	40.92391	-91.39361
32118	-1093	2445	-1759	-0.8172363	-12.73242	3.285477	0	10.04	4003	13	-173	5	5	0.02	2.246029	8	10	0.03	2000	6.701942	40.92391	-91.39361
32215	-799	-1677	-765	-1.936354	-12.19528	3.05632	0	10.04	4004	13	-207	5	5	0.02	2.250294	8	10	0.03	2000	6.880602	40.9239	-91.39361
32305	557	1816	1961	-1.544279	-10.70569	1.753926	0	10.04	4003	13	-207	5	5	0.02	2.252843	8	10	0.03	2000	6.447937	40.9239	-91.39361
32408	592	1592	698	-0.9425632	-12.81922	1.108578	0	10.04	4003	83	-178	5	5	0.02	2.261922	8	10	0.03	2000	6.174839	40.9239	-91.3936
32511	-567	1322	-1409	-1.951137	-13.23856	1.599991	0	9.53	4003	83	-179	5	5	0.02	2.262154	8	10	0.03	2000	7.24745	40.9239	-91.3936
32614	-2350	874	1517	-3.840654	-15.37901	2.160122	0	9.53	4003	83	-179	5	5	0.02	2.260353	8	10	0.03	2000	5.797017	40.9239	-91.3936
32720	211	979	843	-5.629052	-14.34354	2.898086	0	9.53	4003	83	-123	5	5	0.02	2.266237	8	10	0.03	2000	4.252871	40.9239	-91.3936
32842	-1293	-781	270	-5.403738	-13.36493	2.918879	0	9.53	4003	83	-130	5	5	0.02	2.275498	8	10	0.03	2000	2.273225	40.9239	-91.3936
33026	704	781	681	-5.606973	-11.65349	1.255142	0	9.53	4004	83	-130	5	5	0.02	2.274917	8	10	0.03	2000	2.186853	40.9239	-91.3936
33074	-418	178	650	-5.390064	-11.78413	1.447326	0	9.53	4003	27	-130	5	5	0.02	2.275887	8	10	0.03	2000	2.186853	40.9239	-91.3936
33189	-25	-456	-2461	-4.137179	-11.30109	2.501018	0	9.53	4004	27	-95	5	5	0.02	2.27711	8	10	0.03	2000	1.001459	40.9239	-91.3936
33289	-1165	-1561	19	-2.981434	-10.93957	2.736848	0	9.53	4002	96	-95	5	5	0.02	2.275478	8	10	0.03	2000	0.4809208	40.9239	-91.39359
33345	-448	1087	-821	-3.344621	-10.64026	2.732959	0	9.53	4004	96	-95	5	5	0.02	2.272466	8	10	0.03	2000	0.4809208	40.9239	-91.39359
33495	-2631	-51	452	-6.037406	-12.49994	2.832233	0	9.81	4004	115	-80	5	5	0.02	2.265333	8	10	0.03	2000	0.04957188	40.9239	-91.39359
33576	-1384	-3372	-860	-7.586915	-10.66379	2.179086	0	9.81	4003	96	-67	5	5	0.02	2.249692	8	10	0.03	2000	-0.938446	40.9239	-91.39359
33625	91	-2611	70	-7.682453	-9.328612	2.209611	0	9.81	4002	96	-67	5	5	0.02	2.248161	8	10	0.03	2000	-0.938446	40.9239	-91.39359
33781	-2055	-12	-1766	-6.494247	-10.1118	2.045305	0	9.81	4003	96	-95	5	5	0.02	2.240971	8	10	0.03	2000	-2.107483	40.9239	-91.39359
33824	-2013	-575	-1728	-7.461481	-10.80709	2.073607	0	9.81	4003	96	-95	5	5	0.02	2.23868	8	10	0.03	2000	-2.107483	40.9239	-91.39359
33993	714	-857	426	-7.61322	-7.848637	2.354601	0	9.81	4002	40	-25	5	5	0.02	2.223851	8	10	0.03	2000	-3.987823	40.92391	-91.39359
34105	359	-1298	-889	-4.168396	-8.185531	1.748699	0	9.81	4003	40	44	5	5	0.02	2.215184	8	10	0.03	2000	-4.931213	40.92392	-91.39359
34122	359	-1298	-889	-4.168396	-8.185531	1.748699	0	9.81	4003	40	44	5	5	0.02	2.21273	8	10	0.03	2000	-4.931213	40.92392	-91.39359
34222	522	-1448	147	-3.430606	-5.001149	1.805663	0	9.81	4002	40	78	5	5	0.02	2.203689	8	10	0.03	2000	-4.301086	40.92392	-91.39359
34320	-497	-2019	36	-4.422289	-3.154087	2.223534	0	9.81	4006	40	78	5	5	0.02	2.208263	8	10	0.03	2000	-3.562622	40.92392	-91.39359
34430	-327	-1495	1005	-4.490391	-2.416187	2.072691	0	9.81	4004	40	78	5	5	0.02	2.21625	8	10	0.03	2000	-4.408539	40.92393	-91.39359
34530	1123	-1721	142	-4.786811	1.024801	1.601581	0	9.81	4004	40	57	5	5	0.02	2.219239	8	10	0.03	2000	-4.352966	40.92393	-91.39359
34628	-198	-899	1453	-3.239811	1.459689	1.663763	0	9.81	4003	-28	92	5	5	0.02	2.213353	8	10	0.03	2000	-5.234802	40.92393	-91.3936
34817	738	-420	1882	0.5305082	1.175156	2.09954	0	9.81	4003	-28	71	5	5	0.02	2.169261	8	10	0.03	2000	-2.692902	40.92393	-91.3936
34887	-772	-993	744	0.6552991	1.121083	2.121229	0	9.81	4003	-28	43	5	5	0.02	2.150127	8	10	0.03	2000	-2.692902	40.92393	-91.3936
35001	242	664	-1652	0.01544987	-0.4936552	2.163797	0	9.81	4004	-28	112	5	5	0.02	2.115228	8	10	0.03	2000	-0.7142944	40.92394	-91.3936
35030	467	-1078	615	0.8045974	-1.698708	2.40486	0	9.81	4003	-28	112	5	5	0.02	2.115228	8	10	0.03	2000	2.639156	40.92394	-91.3936
35128	197	-1209	1819	0.7279631	0.5087972	3.073933	0	9.81	4002	-28	85	5	5	0.02	2.068351	8	10	0.03	2000	6.938725	40.92394	-91.3936
35231	550	310	171	0.6083953	-0.6165615	2.892527	0	9.81	4003	26	57	5	5	0.02	2.020393	8	10	0.03	2000	6.987907	40.92394	-91.3936
35358	-375	-187	-638	-0.2583482	-0.1692521	2.633319	0	10.04	4003	27	56	5	5	0.02	1.983722	8	10	0.03	2000	14.69783	40.92394	-91.39361
35535	2045	2163	1756	2.174996	-4.172538	2.790737	0	10.04	4004	-42	28	5	5	0.02	1.903502	8	10	0.03	2000	30.98687	40.92394	-91.39361
35713	-1120	4077	823	-2.1715	-9.14235	3.760184	0	10.04	4003	-42	-27	5	5	0.02	1.874993	8	10	0.03	2000	39.4372	40.92394	-91.39361
35780	169	1964	-1794	-2.419571	-10.84522	4.065115	0	10.04	4003	-42	-27	5	5	0.02	1.85052	8	10	0.03	2000	39.4372	40.92394	-91.39361
35834	959	2751	827	0.1840602	-14.01445	3.838094	0	10.04	4004	-42	-27	5	5	0.02	1.847402	8	10	0.03	2000	32.8046	40.92394	-91.39361
36059	-391	2240	1083	-3.310283	-16.76505	2.044385	0	10.04	4003	13	-27	5	5	0.02	1.817435	8	10	0.03	2000	22.76288	40.92394	-91.39361
36144	-41	-960	2009	-4.886325	-14.87897	1.977243	0	10.04	4004	13	-27	5	5	0.02	1.819948	8	10	0.03	2000	19.9791	40.92394	-91.39361
36248	-2025	358	199	-5.969275	-14.26116	2.146111	0	10.15	4002	13	-27	5	5	0.02	1.824464	8	10	0.03	2000	21.99994	40.92394	-91.39361
36351	-1750	-786	-88	-6.890062	-14.55373	2.92599	0	10.15	4003	13	-62	5	5	0.02	1.829056	8	10	0.03	2000	10.9103	40.92394	-91.39361
36508	-67	-91	1630	-5.438903	-13.76339	1.876517	0	10.15	4003	13	-62	5	5	0.02	1.86425	8	10	0.03	2000	10.61702	40.92394	-91.39361
36613	424	-915	2017	-4.091208	-8.503343	1.497824	0	10.15	4003	13	-96	5	5	0.02	1.88132	8	10	0.03	2000	9.514596	40.92393	-91.39361
36723	144	985	-758	-3.140773	-8.401511	2.307137	0	10.15	4003	13	-96	5	5	0.02	1.910276	8	10	0.03	2000	8.483999	40.92393	-91.39361
36776	12	1138	60	-2.911989	-8.50367	2.356681	0	10.15	4003	13	-96	5	5	0.02	1.925578	8	10	0.03	2000	8.483999	40.92393	-91.39361
36832	3	126	1167	-2.982379	-8.477531	2.259382	0	10.15	4002	13	-96	5	5	0.02	1.935881	8	10	0.03	2000	7.121059	40.92393	-91.39361
37005	-765	-988	117	-2.364502	-8.000067	1.883447	0	10.15	4003	13	-68	5	5	0.02	1.984325	8	10	0.03	2000	7.393784	40.92393	-91.39361
37075	601	-169	157	-1.224097	-7.04213	2.283426	0	10.15	4002	13	-68	5	5	0.02	2.004687	8	10	0.03	2000	6.903895	40.92393	-91.39361
37125	-630	-414	1073	-1.672486	-6.54494	2.113097	0	10.49	4003	13	-68	5	5	0.02	2.020129	8	10	0.03	2000	6.634871	40.92393	-91.39361
37276	292	38	-1365	-1.304418	-5.893661	1.62643	0	10.49	4002	13	-41	5	5	0.02	2.044481	8	10	0.03	2000	5.622613	40.92393	-91.39361
37332	-819	-953	-809	-1.019561	-6.014424	1.495713	0	10.49	4003	13	-40	5	5	0.02	2.053894	8	10	0.03	2000	7.131458	40.92393	-91.39361
37434	17	-95	933	-2.187109	-4.371922	1.674318	0	10.49	4002	13	-75	5	5	0.02	2.080441	8	10	0.03	2000	8.691194	40.92393	-91.39361
37545	-936	4417	-1929	-1.61684	-9.575254	2.511899	0	10.49	4002	13	-75	5	5	0.02	2.090988	8	10	0.03	2000	8.516776	40.92393	-91.39361
37642	-2078	484	797	-3.787545	-13.24839	2.988573	0	10.49	4004	13	-75	5	5	0.02	2.098699	8	10	0.03	2000	5.872143	40.92393	-91.39361
37741	671	-688	-1676	-5.725481	-10.51189	2.302031	0	10.49	4004	13	-75	5	5	0.02	2.102862	8	10	0.03	2000	4.777199	40.92393	-91.39361
37844	1037	1873	351	-3.466012	-10.92533	2.463803	0	10.49	4003	13	-75	5	5	0.02	2.105581	8	10	0.03	2000	5.85567	40.92393	-91.39361
38042	582	1776	-1746	-4.075778	-14.16423	2.718435	0	10.55	4003	13	-82	5	5	0.02	2.102438	8	10	0.03	2000	4.394582	40.92393	-91.39361
38095	-1970	-562	-218	-4.261041	-14.69753	2.746687	0	10.55	4002	13	-82	5	5	0.02	2.101287	8	10	0.03	2000	2.848818	40.92393	-91.39361
38200	-2427	-2645	657	-7.284342	-10.47493	2.410767	0	10.55	4003	0	0	5	5	0.02	2.095643	3	10	0.03	2000	1.833153	40.92393	-91.39361
38249	-1386	-2668	537	-9.872778	-7.088621	2.140572	0	10.55	4002	0	0	5	5	0.02	2.090615	3	10	0.03	2000	4.248858	40.92393	-91.39361
38386	1293	-780	561	-9.233059	-2.957483	1.445852	0	10.55	4004	0	0	5	5	0.02	2.074344	3	10	0.03	2000	4.350107	40.92393	-91.39361
38452	515	308	285	-7.368611	-2.50207	1.282396	0	10.55	4003	0	0	5	5	0.02	2.047895	3	10	0.03	2000	5.766439	40.92393	-91.39361
38586	-583	-591	-56	-4.936084	-3.972174	1.848066	0	10.55	4003	0	0	5	5	0.02	1.988972	3	10	0.03	2000	4.873225	40.92393	-91.39361
38699	1970	-871	270	-4.186223	-3.35562	2.104761	0	10.55	4004	0	0	5	5	0.02	1.933486	3	10	0.03	2000	4.990591	40.92393	-91.39361
38809	-519	-2678	1061	-3.389056	0.6468071	1.687813	0	10.55	4004	0	0	5	5	0.02	1.879514	3	10	0.03	2000	5.636254	40.92393	-91.39361
38849	-324	-1441	1702	-3.516132	1.604939	1.242114	0	10.55	4003	0	0	5	5	0.02	1.832572	3	10	0.03	2000	5.636254	40.92393	-91.39361
38980	-364	858	624	-2.939801	0.1647399	-0.1694292	0	9.98	4004	0	0	5	5	0.02	1.760644	3	10	0.03	2000	10.70335	40.92393	-91.39361
39066	908	106	-342	-1.873582	-1.578104	0.5964503	0	9.98	4003	0	0	5	5	0.02	1.702619	3	10	0.03	2000	10.48582	40.92393	-91.39361
39161	-665	-271	-231	-1.934555	-1.146892	1.138294	0	9.98	4004	0	0	5	5	0.02	1.504979	3	10	0.03	2000	9.734506	40.92393	-91.39361
39319	-1668	1412	633	-5.485898	-3.521106	1.308624	0	9.98	4004	0	0	5	5	0.02	1.411337	3	10	0.03	2000	9.397909	40.92393	-91.39361
39431	52	-2356	-1950	-6.512671	-2.036243	0.7089715	0	9.98	4003	0	0	5	5	0.02	1.18713	3	10	0.03	2000	6.991439	40.92393	-91.39362
39528	1206	1481	-28	-4.796317	-1.626349	1.10273	0	9.98	4003	0	0	5	5	0.02	1.142811	3	10	0.03	2000	7.846962	40.92393	-91.39362
39585	-86	-147	-67	-4.341635	-2.908076	1.539988	0	9.98	4004	0	0	5	5	0.02	1.072318	3	10	0.03	2000	7.725091	40.92393	-91.39362
39686	-192	-1891	219	-3.907813	-1.527988	1.28945	0	9.98	4003	0	0	5	5	0.02	1.000002	3	10	0.03	2000	7.004042	40.92393	-91.39362
39793	989	3062	394	-2.336542	-3.067802	0.5989558	0	9.98	4002	0	0	5	5	0.02	0.9221079	3	10	0.03	2000	9.250044	40.92393	-91.39362
39919	1328	22	-1886	-1.62139	-4.278313	1.011931	0	10.32	4003	0	0	5	5	0.02	0.826687	3	10	0.03	2000	9.258835	40.92393	-91.39362
40053	503	-384	-379	-0.6430669	-6.555933	1.142406	0	10.32	4003	0	0	5	5	0.02	0.6084002	3	10	0.03	2000	7.985426	40.92393	-91.39362
40124	-185	-1491	-283	-0.04727018	-5.019348	1.50334	0	10.32	4003	0	0	5	5	0.02	0.5602122	3	10	0.03	2000	9.179207	40.92393	-91.39362
40204	-1484	-1900	-482	-1.367601	-3.575693	1.119775	0	10.32	4002	0	0	5	5	0.02	0.5059117	3	10	0.03	2000	9.75777	40.92393	-91.39362
40249	961	-395	779	0.07637918	-3.214472	1.002049	0	10.32	4003	0	0	5	5	0.02	0.4460933	3	10	0.03	2000	11.51185	40.92393	-91.39362
40387	74	-657	-2058	-0.7835317	-1.331985	0.8591145	0	10.32	4004	0	0	5	5	0.02	0.3280903	3	10	0.03	2000	13.84154	40.92393	-91.39362
40515	-1122	2243	-1558	-1.519599	-2.756085	0.2946192	0	10.32	4004	0	0	5	5	0.02	0.235338	3	10	0.03	2000	15.67501	40.92393	-91.39362
40575	282	2139	-1056	-2.328295	-5.742013	0.6388706	0	10.32	4004	0	0	5	5	0.02	0.1779281	3	10	0.03	2000	16.49432	40.92393	-91.39362
40643	-399	-373	976	-1.837291	-6.452864	0.7818477	0	10.32	4003	0	0	5	5	0.02	0.1779281	3	10	0.03	2000	15.25287	40.92393	-91.39362
40746	206	-513	203	-2.016328	-5.013302	0.8910708	0	10.32	4004	0	0	5	5	0.02	0.04730104	3	10	0.03	2000	15.57899	40.92393	-91.39362
40844	624	236	-2442	-1.196295	-4.870394	2.253284	0	9.41	4003	0	0	5	5	0.02	-0.02763957	3	10	0.03	2000	13.5614	40.92393	-91.39362
40950	354	-1338	111	-0.6386492	-4.244898	2.251078	0	9.41	4003	0	0	5	5	0.02	-0.1015888	3	10	0.03	2000	13.73836	40.92393	-91.39362
41062	-1690	-750	1375	-2.828882	-2.210444	0.1621288	0	9.41	4002	0	0	5	5	0.02	-0.2081336	3	10	0.03	2000	16.7826	40.92393	-91.39362
41146	-850	711	-218	-3.99273	-2.14554	-0.4824595	0	9.41	4003	0	0	5	5	0.02	-0.2615436	3	10	0.03	2000	19.07085	40.92393	-91.39362
41251	-672	1613	40	-4.891992	-3.178463	-0.969365	0	9.41	4003	0	0	5	5	0.02	-0.3344668	3	10	0.03	2000	18.10556	40.92393	-91.39362
41348	-1682	583	73	-8.744615	-1.27488	-0.9850047	0	9.41	4002	0	0	5	5	0.02	-0.4036494	3	10	0.03	2000	14.73036	40.92393	-91.39362
41484	-848	-913	-79	-8.341458	-4.692036	-1.355656	0	9.41	4003	0	0	5	5	0.02	-0.521769	3	10	0.03	2000	16.80875	40.92393	-91.39362
41563	14	230	41	-8.30366	-3.985306	-1.371311	0	9.41	4002	0	0	5	5	0.02	-0.5474362	3	10	0.03	2000	16.09613	40.92393	-91.39362
41741	-183	-70	63	-7.57869	-3.335741	-1.438499	0	11.06	4003	0	0	5	5	0.02	-0.6324494	3	10	0.03	2000	14.95562	40.92393	-91.39362
41784	-124	4	100	-7.327714	-3.095061	-1.466071	0	11.06	4003	0	0	5	5	0.02	-0.6547743	3	10	0.03	2000	14.05722	40.92393	-91.39362
41900	-140	7	24	-6.917425	-2.666989	-1.505134	0	11.06	4003	0	0	5	5	0.02	-0.707523	3	10	0.03	2000	13.59865	40.92393	-91.39362
42009	-117	12	-20	-6.656684	-2.377142	-1.536625	0	11.06	4003	0	0	5	5	0.02	-0.7467076	3	10	0.03	2000	12.02084	40.92393	-91.39362
42071	-145	7	32	-6.521636	-2.22261	-1.558573	0	11.06	4004	0	0	5	5	0.02	-0.7686611	3	10	0.03	2000	12.55925	40.92393	-91.39362
42150	-128	-3	52	-6.371518	-2.072673	-1.582846	0	11.06	4003	0	0	5	5	0.02	-0.7851992	1	10	0.03	2000	12.55925	40.92393	-91.39362
42292	-132	9	-9	-6.054718	-1.747695	-1.637624	0	11.06	4003	0	0	5	5	0.02	-0.8109569	1	10	0.03	2000	11.51635	40.92393	-91.39362
42348	-135	20	20	-5.953459	-1.633257	-1.660796	0	11.06	4002	0	0	5	5	0.02	-0.824162	1	10	0.03	2000	11.31183	40.92393	-91.39362
42476	-144	4	54	-5.813319	-1.484428	-1.693197	0	11.06	4003	0	0	5	5	0.02	-0.8426738	1	10	0.03	2000	10.5044	40.92393	-91.39362
42590	-125	15	33	-5.64989	-1.310141	-1.732144	0	11.17	4003	0	0	5	5	0.02	-0.8603183	1	10	0.03	2000	10.56413	40.92393	-91.39362
42646	-143	-3	39	-5.610765	-1.278296	-1.743088	0	11.17	4003	0	0	5	5	0.02	-0.8727288	1	10	0.03	2000	10.63456	40.92393	-91.39362
42746	-126	-2	-1	-5.513666	-1.17716	-1.773655	0	11.17	4003	0	0	5	5	0.02	-0.8829781	1	10	0.03	2000	10.34771	40.92393	-91.39362
42978	-133	8	19	-5.324526	-0.9813174	-1.843477	0	11.17	4003	0	0	5	5	0.02	-0.8756704	1	10	0.03	2000	10.16697	40.92392	-91.39362
43102	-132	6	20	-5.249286	-0.9017614	-1.88658	0	11.17	4004	0	0	5	5	0.02	-0.8539477	1	10	0.03	2000	9.614735	40.92392	-91.39362
43212	-123	2	14	-5.198017	-0.8458331	-1.916537	0	11.17	4002	0	0	5	5	0.02	-0.8384827	1	10	0.03	2000	9.281599	40.92392	-91.39362
43256	-134	8	18	-5.152889	-0.8019947	-1.94515	0	11.17	4003	0	0	5	5	0.02	-0.8312665	1	10	0.03	2000	9.193081	40.92392	-91.39362
43335	-125	12	30	-5.133334	-0.7693437	-1.96502	0	11.17	4003	0	0	5	5	0.02	-0.8206869	1	10	0.03	2000	9.1098	40.92392	-91.39362
43433	-130	1	19	-5.100912	-0.7346331	-1.985625	0	11.17	4002	0	0	5	5	0.02	-0.8157529	1	10	0.03	2000	9.112026	40.92392	-91.39362
43559	-123	0	15	-5.042109	-0.6746354	-2.030868	0	11.17	4003	0	0	5	5	0.02	-0.8162074	1	10	0.03	2000	8.943069	40.92392	-91.39362
43663	-129	-1	19	-5.009073	-0.6432379	-2.059727	0	11.17	4003	0	0	5	5	0.02	-0.8252465	1	10	0.03	2000	9.163424	40.92392	-91.39362
43752	38	314	-57	-5.040268	-0.5265515	-2.056855	0	11.17	4003	0	0	5	5	0.02	-0.82963	1	10	0.03	2000	8.885417	40.92392	-91.39362
43883	-1846	133	264	-5.055592	-0.9931242	-2.320474	0	11.17	4002	0	0	5	5	0.02	-0.8262478	1	10	0.03	2000	9.070309	40.92393	-91.39362
43919	-1846	133	264	-5.055592	-0.9931242	-2.320474	0	11.17	4002	0	0	5	5	0.02	-0.8243977	1	10	0.03	2000	9.070309	40.92393	-91.39362
44029	-585	-1178	-1	-11.2509	0.9032416	-2.924288	0	11.17	4003	0	0	5	5	0.02	-0.8172663	1	10	0.03	2000	8.153265	40.92393	-91.39362
44186	530	-1253	-581	-7.334495	6.168839	-1.146654	0	11.17	4002	0	0	5	5	0.02	-0.8101557	1	10	0.03	2000	5.915301	40.92393	-91.39362
44239	-1631	-1624	656	-6.950436	7.966164	-1.176927	0	11.17	4002	0	0	5	5	0.02	-0.804632	1	10	0.03	2000	4.795641	40.92393	-91.39362
44328	66	-2161	2039	-7.117821	10.21768	-2.735914	0	11.17	4003	0	0	5	5	0.02	-0.8012167	1	10	0.03	2000	3.433386	40.92393	-91.39362
44432	570	-171	1647	-5.726864	11.89122	-5.083562	0	11.23	4003	0	0	5	5	0.02	-0.7933454	1	10	0.03	2000	3.431819	40.92393	-91.39362
44540	1993	-101	-796	-1.551349	13.07201	-5.666862	0	11.23	4003	0	0	5	5	0.02	-0.7655388	1	10	0.03	2000	2.654595	40.92393	-91.39362
44631	2849	369	-769	0.2090475	13.7806	-4.2017	0	11.23	4004	0	0	5	5	0.02	-0.7458118	1	10	0.03	2000	3.209786	40.92393	-91.39362
44807	651	1279	1414	3.037679	10.6557	-4.192378	0	11.23	4003	0	0	5	5	0.02	-0.7050819	1	10	0.03	2000	7.41145	40.92393	-91.39362
44888	820	845	1345	2.442838	8.599525	-5.796156	0	11.23	4003	0	0	5	5	0.02	-0.6681489	1	10	0.03	2000	11.02021	40.92393	-91.39362
44960	-1119	1252	550	1.214365	6.95185	-6.77803	0	11.23	4004	0	0	5	5	0.02	-0.652888	1	10	0.03	2000	14.48179	40.92393	-91.39362
45089	712	359	-566	-1.011737	3.850103	-6.108254	0	11.23	4003	0	0	5	5	0.02	-0.6467377	1	10	0.03	2000	17.98077	40.92392	-91.39362
45131	712	359	-566	-1.011737	3.850103	-6.108254	0	11.23	4003	0	0	5	5	0.02	-0.647606	1	10	0.03	2000	17.98077	40.92392	-91.39362
45230	-513	253	-319	-1.745205	3.076889	-4.789121	0	11.23	4004	0	0	5	5	0.02	-0.6530122	1	10	0.03	2000	17.75773	40.92392	-91.39362
45330	-3493	2443	-4	-4.244645	1.266248	-3.178274	0	11.23	4004	0	0	5	5	0.02	-0.6521448	1	10	0.03	2000	15.15913	40.92392	-91.39362
45439	-489	-523	-210	-3.786618	-0.4378831	-2.911259	0	11.23	4004	0	0	5	5	0.02	-0.6607163	1	10	0.03	2000	14.35	40.92392	-91.39362
45550	914	1368	-3297	-3.242072	-1.079364	-1.33512	0	11.23	4004	0	0	5	5	0.02	-0.6743744	1	10	0.03	2000	13.2015	40.92392	-91.39362
45739	-169	-310	739	-3.122061	-0.373478	-0.3153076	0	11.23	4002	0	0	5	5	0.02	-0.68879	1	10	0.03	2000	10.37064	40.92392	-91.39362
45835	-52	39	1	-3.162395	0.163952	-0.4026797	0	11.23	4004	0	0	5	5	0.02	-0.6964558	1	10	0.03	2000	10.87884	40.92392	-91.39362
45950	-117	6	21	-3.001828	0.2442767	-0.4481687	0	11.23	4003	0	0	5	5	0.02	-0.7162899	1	10	0.03	2000	10.29506	40.92392	-91.39362
46087	29	72	-71	-2.715177	0.1988579	-0.4008458	0	11.23	4003	0	0	5	5	0.02	-0.7397231	1	10	0.03	2000	10.10003	40.92392	-91.39362
46137	-43	196	77	-2.58753	0.2002948	-0.3891059	0	11.23	4003	0	0	5	5	0.02	-0.7522668	1	10	0.03	2000	9.74244	40.92392	-91.39362
46231	-160	-59	-3	-2.437663	0.1979721	-0.4248104	0	11.17	4003	0	0	5	5	0.02	-0.7696897	1	10	0.03	2000	9.559441	40.92392	-91.39362
46337	-138	-16	4	-2.381172	0.2340822	-0.4487145	0	11.17	4005	0	0	5	5	0.02	-0.7893612	1	10	0.03	2000	9.464136	40.92392	-91.39362
46435	-122	10	17	-2.293571	0.2876595	-0.4830757	0	11.17	4003	0	0	5	5	0.02	-0.8032055	1	10	0.03	2000	9.317569	40.92392	-91.39362
46529	-128	0	17	-2.2276	0.3195392	-0.5086942	0	11.17	4003	0	0	5	5	0.02	-0.8022524	1	10	0.03	2000	9.236415	40.92392	-91.39362
46689	-124	10	12	-2.138642	0.3653261	-0.5499017	0	11.17	4004	0	0	5	5	0.02	-0.8009956	1	10	0.03	2000	9.054636	40.92392	-91.39362
46752	-135	10	18	-2.108609	0.3841635	-0.5685482	0	11.17	4002	0	0	5	5	0.02	-0.8058527	1	10	0.03	2000	8.982947	40.92392	-91.39362
46825	-133	1	17	-2.079564	0.3913602	-0.5878071	0	11.17	4002	0	0	5	5	0.02	-0.8064808	1	10	0.03	2000	8.725606	40.92392	-91.39362
46987	-130	7	17	-2.03087	0.4168819	-0.6287069	0	11.17	4003	0	0	5	5	0.02	-0.8095859	1	10	0.03	2000	8.583598	40.92392	-91.39362
47050	-127	4	16	-2.020904	0.414296	-0.6368999	0	11.17	4004	0	0	5	5	0.02	-0.8132123	1	10	0.03	2000	8.583598	40.92392	-91.39362
47126	-129	5	14	-2.007265	0.4255041	-0.6545678	0	11.17	4003	0	0	5	5	0.02	-0.8151072	1	10	0.03	2000	8.772043	40.92392	-91.39362
47241	-127	1	14	-1.969651	0.4359205	-0.6861172	0	11.23	4002	0	0	5	5	0.02	-0.827121	1	10	0.03	2000	8.679329	40.92392	-91.39362
47330	-129	5	18	-1.936145	0.4482758	-0.7121631	0	11.23	4004	0	0	5	5	0.02	-0.8340403	1	10	0.03	2000	8.667861	40.92392	-91.39362
47433	-134	3	11	-1.908466	0.4546419	-0.7437127	0	11.23	4002	0	0	5	5	0.02	-0.8384318	1	10	0.03	2000	8.628947	40.92392	-91.39362
47595	-125	6	17	-1.887248	0.4667024	-0.7744045	0	11.23	4002	0	0	5	5	0.02	-0.8400895	1	10	0.03	2000	8.593783	40.92392	-91.39362
47642	-123	4	16	-1.874738	0.471512	-0.7901188	0	11.23	4003	0	0	5	5	0.02	-0.8401129	1	10	0.03	2000	8.538973	40.92392	-91.39362
47767	-124	-6	14	-1.857257	0.478343	-0.816347	0	11.23	4003	0	0	5	5	0.02	-0.8422564	1	10	0.03	2000	8.521643	40.92392	-91.39362
47833	-122	8	18	-1.850554	0.4798585	-0.8321813	0	11.23	4002	0	0	5	5	0.02	-0.8431931	1	10	0.03	2000	8.493961	40.92392	-91.39362
47967	-127	5	18	-1.836758	0.4901929	-0.8703309	0	11.23	4002	0	0	5	5	0.02	-0.850045	1	10	0.03	2000	8.450546	40.92392	-91.39362
48024	-122	7	9	-1.831195	0.4906228	-0.877484	0	11.23	4003	0	0	5	5	0.02	-0.8588661	1	10	0.03	2000	8.450546	40.92392	-91.39362
48139	-128	1	14	-1.827122	0.4900459	-0.9000441	0	11.23	4004	0	0	5	5	0.02	-0.8716232	1	10	0.03	2000	8.438399	40.92392	-91.39362
48218	-123	3	12	-1.820682	0.5005079	-0.9246212	0	11.23	4005	0	0	5	5	0.02	-0.8822824	1	10	0.03	2000	8.432977	40.92392	-91.39362
48400	-131	8	8	-1.802808	0.5082681	-0.9695577	0	11.23	4002	0	0	5	5	0.02	-0.89904	1	10	0.03	2000	8.401936	40.92392	-91.39362
48446	-126	2	14	-1.805684	0.5123796	-0.9765888	0	11.23	4004	0	0	5	5	0.02	-0.9077246	1	10	0.03	2000	8.401936	40.92392	-91.39362
48517	-126	7	11	-1.794572	0.5134891	-0.9915682	0	11.23	4004	0	0	5	5	0.02	-0.9191605	1	10	0.03	2000	8.432703	40.92392	-91.39362
48608	-126	5	16	-1.793387	0.5139531	-1.021158	0	11.23	4003	0	0	5	5	0.02	-0.9334657	1	10	0.03	2000	8.370731	40.92392	-91.39362
48714	-123	1	8	-1.792634	0.5154064	-1.037788	0	11.23	4002	0	0	5	5	0.02	-0.9482512	1	10	0.03	2000	8.344875	40.92392	-91.39362
48811	-128	2	8	-1.784101	0.5179823	-1.068727	0	11.23	4002	0	0	5	5	0.02	-0.9540301	1	10	0.03	2000	8.36482	40.92392	-91.39362
48921	-128	2	17	-1.782969	0.5181613	-1.092754	0	11.23	4004	0	0	5	5	0.02	-0.964434	1	10	0.03	2000	8.392304	40.92392	-91.39362
49016	-126	6	11	-1.787151	0.5180045	-1.115316	0	11.29	4007	0	0	5	5	0.02	-0.9728655	1	10	0.03	2000	8.143828	40.92392	-91.39362
49124	-128	2	21	-1.790609	0.5143718	-1.132618	0	11.29	4004	0	0	5	5	0.02	-0.9825754	1	10	0.03	2000	8.378196	40.92392	-91.39362
49214	-128	6	12	-1.789634	0.5269585	-1.163434	0	11.29	4003	0	0	5	5	0.02	-0.9867483	1	10	0.03	2000	8.409129	40.92392	-91.39362
49320	-132	3	5	-1.786158	0.5254101	-1.179759	0	11.29	4002	0	0	5	5	0.02	-0.9895755	1	10	0.03	2000	8.354559	40.92392	-91.39362
49419	-123	6	12	-1.784305	0.5235029	-1.210815	0	11.29	4003	0	0	5	5	0.02	-0.9861141	1	10	0.03	2000	8.327098	40.92392	-91.39362
49514	-125	2	12	-1.78032	0.5256547	-1.234477	0	11.29	4004	0	0	5	5	0.02	-0.9839031	1	10	0.03	2000	8.358766	40.92392	-91.39362
49616	-126	7	14	-1.780016	0.5233936	-1.248904	0	11.29	4002	0	0	5	5	0.02	-0.9794641	1	10	0.03	2000	8.355451	40.92392	-91.39362
49722	-125	5	10	-1.778436	0.5273883	-1.280452	0	11.29	4003	0	0	5	5	0.02	-0.9773358	1	10	0.03	2000	8.354401	40.92392	-91.39362
49913	-120	3	16	-1.775846	0.5327159	-1.312797	0	11.23	4003	0	0	5	5	0.02	-0.9732507	1	10	0.03	2000	8.346647	40.92392	-91.39362
49963	-117	7	17	-1.772628	0.5309726	-1.336338	0	11.23	4004	0	0	5	5	0.02	-0.9682336	1	10	0.03	2000	8.379307	40.92392	-91.39362
50013	-117	7	17	-1.772628	0.5309726	-1.336338	0	11.23	4004	0	0	5	5	0.02	-0.9653537	1	10	0.03	2000	8.379307	40.92392	-91.39362
50122	-124	5	12	-1.761121	0.5284489	-1.374487	0	11.23	4002	0	0	5	5	0.02	-0.9450576	1	10	0.03	2000	8.319495	40.92392	-91.39362
50215	-125	6	17	-1.753883	0.5308501	-1.397355	0	11.23	4002	0	0	5	5	0.02	-0.936142	1	10	0.03	2000	8.082413	40.92392	-91.39362
50391	-127	2	13	-1.754587	0.5366035	-1.435139	0	11.23	4004	0	0	5	5	0.02	-0.9106217	1	10	0.03	2000	8.312249	40.92392	-91.39362
50444	-123	5	15	-1.755035	0.5376742	-1.450792	0	11.23	4003	0	0	5	5	0.02	-0.9076203	1	10	0.03	2000	8.307513	40.92392	-91.39362
50586	-126	1	11	-1.756996	0.5319034	-1.473352	0	11.23	4003	0	0	5	5	0.02	-0.8994566	1	10	0.03	2000	8.314262	40.92392	-91.39362
50719	-121	1	13	-1.752485	0.5321152	-1.512236	0	11.23	4002	0	0	5	5	0.02	-0.891928	1	10	0.03	2000	8.276141	40.92392	-91.39362
50750	-125	-2	14	-1.750896	0.5315753	-1.519818	0	11.23	4004	0	0	5	5	0.02	-0.8894377	1	10	0.03	2000	8.307102	40.92392	-91.39362
50812	-128	8	17	-1.746894	0.5383615	-1.544089	0	11.29	4004	0	0	5	5	0.02	-0.8840701	1	10	0.03	2000	8.069292	40.92392	-91.39362
50903	-120	7	19	-1.746858	0.5383776	-1.559741	0	11.29	4003	0	0	5	5	0.02	-0.8751273	1	10	0.03	2000	8.332269	40.92392	-91.39362
51070	-128	0	13	-1.753737	0.5411971	-1.595387	0	11.29	4003	0	0	5	5	0.02	-0.866563	1	10	0.03	2000	8.306105	40.92392	-91.39362
51131	-128	9	18	-1.764236	0.5407409	-1.609755	0	11.29	4003	0	0	5	5	0.02	-0.8627087	1	10	0.03	2000	8.315679	40.92392	-91.39362
51225	-115	8	21	-1.760104	0.5337558	-1.630727	0	11.29	4003	0	0	5	5	0.02	-0.8526552	1	10	0.03	2000	8.356869	40.92392	-91.39362
51288	-123	6	15	-1.759368	0.5324931	-1.652556	0	11.29	4004	0	0	5	5	0.02	-0.8565733	1	10	0.03	2000	8.310437	40.92392	-91.39362
51384	-123	5	13	-1.757213	0.5300083	-1.666802	0	11.29	4004	0	0	5	5	0.02	-0.8637508	1	10	0.03	2000	8.117887	40.92392	-91.39362
51480	-131	-1	12	-1.758001	0.5341523	-1.6978	0	11.29	4004	0	0	5	5	0.02	-0.8712702	1	10	0.03	2000	8.351122	40.92392	-91.39362
51581	-127	3	14	-1.761614	0.5360876	-1.712778	0	11.29	4002	0	0	5	5	0.02	-0.8831396	1	10	0.03	2000	8.317117	40.92392	-91.39362
51716	-125	4	14	-1.766517	0.5450586	-1.749336	0	11.17	4002	0	0	5	5	0.02	-0.8936125	1	10	0.03	2000	8.096409	40.92392	-91.39362
51781	-119	1	13	-1.764945	0.5442858	-1.76358	0	11.17	4004	0	0	5	5	0.02	-0.9080699	1	10	0.03	2000	8.353828	40.92392	-91.39362
51884	-124	9	7	-1.769104	0.5384545	-1.778742	0	11.17	4004	0	0	5	5	0.02	-0.9186146	1	10	0.03	2000	8.352958	40.92392	-91.39362
51987	-114	4	16	-1.769884	0.5430799	-1.80864	0	11.17	4003	0	0	5	5	0.02	-0.9279897	1	10	0.03	2000	8.332819	40.92392	-91.39362
52090	-123	-3	14	-1.771574	0.5432612	-1.821174	0	11.17	4002	0	0	5	5	0.02	-0.9303948	1	10	0.03	2000	8.331889	40.92392	-91.39362
52189	-119	7	17	-1.768423	0.5465503	-1.848257	0	11.17	4003	0	0	5	5	0.02	-0.928448	1	10	0.03	2000	8.362386	40.92392	-91.39362
52287	-123	6	15	-1.761424	0.5494576	-1.863908	0	11.17	4003	0	0	5	5	0.02	-0.9230471	1	10	0.03	2000	8.323084	40.92392	-91.39362
52461	-124	8	10	-1.762853	0.5475173	-1.90799	0	11.17	4003	0	0	5	5	0.02	-0.9399463	1	10	0.03	2000	8.098366	40.92392	-91.39362
52491	-120	0	18	-1.763911	0.5488061	-1.914837	0	11.17	4003	0	0	5	5	0.02	-0.9442636	1	10	0.03	2000	8.098366	40.92392	-91.39362
52650	-123	1	14	-1.758448	0.5433065	-1.950053	0	11.29	4003	0	0	5	5	0.02	-0.9425038	1	10	0.03	2000	8.312757	40.92392	-91.39362
52738	-121	4	12	-1.755314	0.5360749	-1.971696	0	11.29	4004	0	0	5	5	0.02	-0.94143	1	10	0.03	2000	8.344458	40.92392	-91.39362
52778	-127	4	14	-1.758801	0.5349967	-1.979338	0	11.29	4002	0	0	5	5	0.02	-0.9411411	1	10	0.03	2000	8.344458	40.92392	-91.39362
52872	-117	0	9	-1.760811	0.5392541	-1.993521	0	11.29	4003	0	0	5	5	0.02	-0.9492803	1	10	0.03	2000	8.320844	40.92392	-91.39362
52971	-123	4	18	-1.753928	0.5406275	-2.01981	0	11.29	4003	0	0	5	5	0.02	-0.9492791	1	10	0.03	2000	8.338821	40.92392	-91.39362
53074	-126	3	16	-1.751944	0.5395256	-2.046346	0	11.29	4004	0	0	5	5	0.02	-0.9489202	1	10	0.03	2000	8.336084	40.92391	-91.39362
53170	-123	9	15	-1.750896	0.5377784	-2.053743	0	11.29	4003	0	0	5	5	0.02	-0.9506482	1	10	0.03	2000	8.300635	40.92391	-91.39362
53272	-112	1	19	-1.74936	0.5372288	-2.080034	0	11.29	4002	0	0	5	5	0.02	-0.9570801	1	10	0.03	2000	8.300012	40.92391	-91.39362
53375	-122	-3	3	-1.75434	0.5408067	-2.093483	0	11.29	4002	0	0	5	5	0.02	-0.9646925	1	10	0.03	2000	8.300012	40.92391	-91.39362
53513	-118	3	17	-1.751919	0.5430486	-2.128762	0	11.29	4002	0	0	5	5	0.02	-0.9650851	1	10	0.03	2000	8.079365	40.92391	-91.39362
53588	-122	8	12	-1.751456	0.5454966	-2.1427	0	11.29	4002	0	0	5	5	0.02	-0.9696913	1	10	0.03	2000	8.305492	40.92391	-91.39362
53678	-126	3	5	-1.752928	0.5464646	-2.161592	0	11.29	4003	0	0	5	5	0.02	-0.9773099	1	10	0.03	2000	8.308088	40.92391	-91.39362
53784	-124	5	15	-1.747686	0.5467094	-2.181523	0	11.29	4003	0	0	5	5	0.02	-0.9825693	1	10	0.03	2000	8.332579	40.92391	-91.39362
53929	-126	0	14	-1.744558	0.5403835	-2.214538	0	11.29	4004	0	0	5	5	0.02	-0.9882134	1	10	0.03	2000	8.33188	40.92391	-91.39362
53982	-128	8	16	-1.741053	0.5398293	-2.221692	0	11.29	4004	0	0	5	5	0.02	-0.9840908	1	10	0.03	2000	8.33188	40.92391	-91.39362
54120	-123	9	11	-1.736748	0.5343868	-2.255746	0	11.29	4003	0	0	5	5	0.02	-0.9724841	1	10	0.03	2000	8.312148	40.92391	-91.39362
54177	-117	8	9	-1.731031	0.5317078	-2.262349	0	11.29	4002	0	0	5	5	0.02	-0.9658846	1	10	0.03	2000	8.312148	40.92391	-91.39362
54330	-118	4	13	-1.729533	0.5283729	-2.29775	0	11.29	4004	0	0	5	5	0.02	-0.9599314	1	10	0.03	2000	8.27032	40.92391	-91.39362
54422	-124	5	16	-1.731827	0.5300407	-2.310957	0	11.29	4003	0	0	5	5	0.02	-0.9538639	1	10	0.03	2000	8.307096	40.92391	-91.39362
54477	-124	4	12	-1.734318	0.5259043	-2.331255	0	11.29	4002	0	0	5	5	0.02	-0.9450967	1	10	0.03	2000	8.279246	40.92391	-91.39362
54644	-122	4	10	-1.729214	0.5269312	-2.359688	0	11.29	4004	0	0	5	5	0.02	-0.9325479	1	10	0.03	2000	8.264456	40.92391	-91.39362
54716	-126	6	15	-1.725765	0.536166	-2.379068	0	11.29	4004	0	0	5	5	0.02	-0.9290966	1	10	0.03	2000	8.289726	40.92391	-91.39362
54785	-119	7	14	-1.720417	0.5339185	-2.392639	0	11.29	4003	0	0	5	5	0.02	-0.9210638	1	10	0.03	2000	8.289127	40.92391	-91.39362
54888	-125	4	8	-1.725711	0.5312058	-2.407617	0	11.29	4004	0	0	5	5	0.02	-0.9170821	1	10	0.03	2000	8.285299	40.92391	-91.39362
54989	-116	5	14	-1.724193	0.5366978	-2.434641	0	11.29	4003	0	0	5	5	0.02	-0.9194047	1	10	0.03	2000	8.02522	40.92391	-91.39362
55121	-119	6	12	-1.728612	0.5382473	-2.458976	0	11.29	4003	0	0	5	5	0.02	-0.9267362	1	10	0.03	2000	8.292122	40.92391	-91.39362
55220	-124	4	9	-1.727478	0.5385906	-2.478725	0	11.29	4004	0	0	5	5	0.02	-0.9283776	1	10	0.03	2000	8.291308	40.92391	-91.39362
55283	-118	1	13	-1.724113	0.5363904	-2.484289	0	11.29	4002	0	0	5	5	0.02	-0.9302425	1	10	0.03	2000	8.294724	40.92391	-91.39362
55429	-124	7	13	-1.72015	0.5339757	-2.520055	0	11.4	4002	0	0	5	5	0.02	-0.9256462	1	10	0.03	2000	8.221522	40.92391	-91.39362
55606	-123	3	9	-1.715663	0.5388723	-2.547507	0	11.4	4003	0	0	5	5	0.02	-0.9193283	1	10	0.03	2000	8.074965	40.92391	-91.39362
55710	-120	4	12	-1.714357	0.5431054	-2.571964	0	11.4	4004	0	0	5	5	0.02	-0.9166518	1	10	0.03	2000	8.238333	40.92391	-91.39362
55798	-121	3	11	-1.717784	0.5401733	-2.591284	0	11.4	4004	0	0	5	5	0.02	-0.9158291	1	10	0.03	2000	7.98963	40.92391	-91.39362
55890	-114	7	9	-1.721398	0.5360805	-2.611705	0	11.4	4002	0	0	5	5	0.02	-0.9146973	1	10	0.03	2000	8.251233	40.92391	-91.39362
55991	-117	1	15	-1.717728	0.5417679	-2.634388	0	11.4	4003	0	0	5	5	0.02	-0.9111412	1	10	0.03	2000	8.284504	40.92391	-91.39362
56159	-119	6	20	-1.720445	0.5475117	-2.66771	0	11.4	4002	0	0	5	5	0.02	-0.9094138	1	10	0.03	2000	8.27813	40.92391	-91.39362
56278	-120	3	12	-1.717758	0.5445389	-2.687643	0	11.34	4002	0	0	5	5	0.02	-0.9012367	1	10	0.03	2000	8.245913	40.92391	-91.39362
56303	-121	-1	14	-1.714157	0.5417472	-2.701888	0	11.34	4002	0	0	5	5	0.02	-0.8950779	1	10	0.03	2000	8.282336	40.92391	-91.39362
56401	-117	4	13	-1.713546	0.5414642	-2.715033	0	11.34	4002	0	0	5	5	0.02	-0.8875263	1	10	0.03	2000	8.241335	40.92391	-91.39362
56484	-123	7	8	-1.707355	0.5390694	-2.728299	0	11.34	4003	0	0	5	5	0.02	-0.8858117	1	10	0.03	2000	8.224915	40.92391	-91.39362
56681	-117	-2	14	-1.700388	0.5420714	-2.768955	0	11.34	4004	0	0	5	5	0.02	-0.8725206	1	10	0.03	2000	8.220375	40.92391	-91.39362
56755	-114	4	14	-1.706093	0.5380669	-2.796165	0	11.34	4004	0	0	5	5	0.02	-0.8683833	1	10	0.03	2000	8.253104	40.92391	-91.39362
56837	-120	2	8	-1.702	0.5390725	-2.809738	0	11.34	4004	0	0	5	5	0.02	-0.8746358	1	10	0.03	2000	8.253747	40.92391	-91.39362
56980	-117	5	7	-1.692413	0.5394525	-2.842632	0	11.34	4003	0	0	5	5	0.02	-0.8819349	1	10	0.03	2000	8.441001	40.92391	-91.39362
57114	-118	3	13	-1.691804	0.5435293	-2.862808	0	11.34	4003	0	0	5	5	0.02	-0.8818738	1	10	0.03	2000	8.207319	40.92391	-91.39362
57168	-121	0	11	-1.697174	0.5400959	-2.876931	0	11.34	4003	0	0	5	5	0.02	-0.8775181	1	10	0.03	2000	8.233455	40.92391	-91.39362
57275	-118	5	14	-1.698452	0.543964	-2.897228	0	11.34	4002	0	0	5	5	0.02	-0.8703631	1	10	0.03	2000	8.245216	40.92391	-91.39362
57388	-122	5	14	-1.700739	0.5419564	-2.922174	0	11.34	4004	0	0	5	5	0.02	-0.8690392	1	10	0.03	2000	8.217725	40.92391	-91.39362
57505	-111	-1	11	-1.697761	0.5470346	-2.94076	0	11.34	4004	0	0	5	5	0.02	-0.8697155	1	10	0.03	2000	8.215031	40.92391	-91.39362
57598	-121	7	9	-1.697917	0.5386455	-2.967844	0	11.34	4004	0	0	5	5	0.02	-0.8732319	1	10	0.03	2000	8.213992	40.92391	-91.39362
57699	-122	0	11	-1.697379	0.5402521	-2.988815	0	11.34	4004	0	0	5	5	0.02	-0.8875657	1	10	0.03	2000	8.215517	40.92391	-91.39362
57803	-119	2	14	-1.696113	0.5392525	-3.002632	0	11.34	4003	0	0	5	5	0.02	-0.8936698	1	10	0.03	2000	8.24364	40.92391	-91.39362
57856	-116	4	17	-1.696058	0.5427307	-3.021464	0	11.34	4003	0	0	5	5	0.02	-0.8959203	1	10	0.03	2000	8.47342	40.92391	-91.39362
58012	-117	10	9	-1.688606	0.5351415	-3.045857	0	11.34	4003	0	0	5	5	0.02	-0.8922482	1	10	0.03	2000	8.229311	40.92391	-91.39362
58068	-115	9	17	-1.678051	0.5295593	-3.064198	0	11.34	4003	0	0	5	5	0.02	-0.8954085	1	10	0.03	2000	8.191338	40.92391	-91.39362
58138	-114	3	14	-1.676644	0.5297335	-3.070313	0	11.34	4002	0	0	5	5	0.02	-0.9058393	1	10	0.03	2000	8.144719	40.92391	-91.39362
58251	-118	4	10	-1.675506	0.5258679	-3.097702	0	11.34	4002	0	0	5	5	0.02	-0.9227906	1	10	0.03	2000	8.177277	40.92391	-91.39362
58382	-119	3	12	-1.673851	0.5303921	-3.125887	0	11.34	4004	0	0	5	5	0.02	-0.9330021	1	10	0.03	2000	8.207016	40.92391	-91.39362
58447	-125	8	12	-1.673532	0.5359572	-3.146919	0	11.34	4004	0	0	5	5	0.02	-0.9403501	1	10	0.03	2000	8.203444	40.92391	-91.39362
58548	-120	6	15	-1.676763	0.5368022	-3.159453	0	11.34	4003	0	0	5	5	0.02	-0.9478517	1	10	0.03	2000	8.205684	40.92391	-91.39362
58644	-116	6	10	-1.670976	0.5400084	-3.179082	0	11.34	4004	0	0	5	5	0.02	-0.9512509	1	10	0.03	2000	8.174466	40.92391	-91.39362
58736	-119	7	11	-1.675712	0.5313869	-3.197119	0	11.34	4004	0	0	5	5	0.02	-0.9600468	1	10	0.03	2000	8.1622	40.92391	-91.39362
58862	-119	-2	11	-1.67426	0.5315462	-3.22445	0	11.34	4004	0	0	5	5	0.02	-0.962397	1	10	0.03	2000	8.177746	40.92391	-91.39362
59003	-108	5	7	-1.666624	0.5298	-3.257039	0	11.34	4002	0	0	5	5	0.02	-0.9612517	1	10	0.03	2000	8.172291	40.92391	-91.39362
59022	-108	5	7	-1.666624	0.5298	-3.257039	0	11.34	4002	0	0	5	5	0.02	-0.9624727	1	10	0.03	2000	8.172291	40.92391	-91.39362
59193	-118	1	10	-1.668654	0.5322459	-3.288403	0	11.34	4003	0	0	5	5	0.02	-0.9689719	1	10	0.03	2000	8.195483	40.92391	-91.39362
59305	-118	7	15	-1.673456	0.5396552	-3.315978	0	11.34	4003	0	0	5	5	0.02	-0.9710878	1	10	0.03	2000	8.167969	40.92391	-91.39362
59391	-117	4	11	-1.673125	0.5432809	-3.328329	0	11.34	4002	0	0	5	5	0.02	-0.9641515	1	10	0.03	2000	8.175612	40.92391	-91.39362
59420	-117	4	13	-1.669992	0.5461244	-3.334443	0	11.34	4006	0	0	5	5	0.02	-0.9623961	1	10	0.03	2000	8.164165	40.92391	-91.39362
59497	-117	3	11	-1.671613	0.5444892	-3.345754	0	11.34	4004	0	0	5	5	0.02	-0.9594974	1	10	0.03	2000	8.173261	40.92391	-91.39362
59597	-117	7	9	-1.705735	0.538279	-3.374135	0	11.34	4003	0	0	5	5	0.02	-0.9593571	1	10	0.03	2000	8.242917	40.92391	-91.39362
59699	-118	9	10	-1.707378	0.5347381	-3.381044	0	11.34	4003	0	0	5	5	0.02	-0.9588267	1	10	0.03	2000	8.219934	40.92391	-91.39362
59879	-119	2	7	-1.738034	0.5379693	-3.421961	0	11.29	4002	0	0	5	5	0.02	-0.9643312	1	10	0.03	2000	8.318168	40.92391	-91.39362
59985	-110	7	9	-1.732386	0.5374327	-3.447029	0	11.29	4004	0	0	5	5	0.02	-0.9627327	1	10	0.03	2000	8.277295	40.92391	-91.39362
60062	-116	3	8	-1.728449	0.5315798	-3.461335	0	11.29	4003	0	0	5	5	0.02	-0.9622136	1	10	0.03	2000	8.301519	40.92391	-91.39362
60220	-114	1	12	-1.714348	0.5319965	-3.496367	0	11.29	4002	0	0	5	5	0.02	-0.9586756	1	10	0.03	2000	8.249132	40.92391	-91.39362
60365	-116	2	15	-1.707407	0.5246977	-3.523514	0	11.29	4003	0	0	5	5	0.02	-0.9514912	1	10	0.03	2000	8.266128	40.92391	-91.39362
60417	-113	7	10	-1.699059	0.5265927	-3.530424	0	11.29	4004	0	0	5	5	0.02	-0.9573092	1	10	0.03	2000	8.293536	40.92391	-91.39362
60477	-111	4	16	-1.69551	0.5295901	-3.552129	0	11.29	4003	0	0	5	5	0.02	-0.9576237	1	10	0.03	2000	7.984284	40.92391	-91.39362
60609	-123	9	15	-1.682479	0.5348209	-3.583739	0	11.29	4004	0	0	5	5	0.02	-0.9599048	1	10	0.03	2000	8.202327	40.92391	-91.39362
60670	-114	-1	7	-1.67916	0.5361137	-3.589975	0	11.29	4003	0	0	5	5	0.02	-0.9643352	1	10	0.03	2000	8.180494	40.92391	-91.39362
60786	-118	7	12	-1.682084	0.530754	-3.611619	0	11.4	4003	0	0	5	5	0.02	-0.9722845	1	10	0.03	2000	8.212604	40.92391	-91.39362
60966	-118	6	16	-1.693113	0.5250155	-3.649218	0	11.4	4003	0	0	5	5	0.02	-0.976325	1	10	0.03	2000	8.245948	40.92391	-91.39362
