time(ms)	gyro_x(deg/s)	gyro_y(deg/s)	gyro_z(deg/s)	orientation_roll(deg)	orientation_pitch(deg)	orientation_yaw(deg)	throttle	battery(V)	loop_time(uS)	pid_output_roll	pid_output_pitch	pid_output_yaw	pid_output_throttle	ultrasonic_alt	baro_alt	flight_mode	p_gain_altitude	i_gain_altitude	d_gain_altitude	compass_heading	latitude	longitude
122675	-62	4	3	-0.6730419	0.2403731	-91.5735	0	11.17	4002	0	0	5	5	0.02	-0.1082059	1	10	0.03	2000	4.998817	40.9239	-91.39363
122854	-56	6	6	-0.6738669	0.2362156	-91.58174	0	11.17	4002	0	0	5	5	0.02	-0.09399371	1	10	0.03	2000	5.016896	40.9239	-91.39363
122936	-58	0	2	-0.6734486	0.2371545	-91.58852	0	11.23	4003	0	0	5	5	0.02	-0.07797581	1	10	0.03	2000	5.002474	40.9239	-91.39363
123001	-57	0	5	-0.6673374	0.2340768	-91.5948	0	11.23	4004	0	0	5	5	0.02	-0.07461434	1	10	0.03	2000	4.979896	40.9239	-91.39363
123081	-60	-1	4	-0.6674792	0.2330798	-91.59859	0	11.23	4004	0	0	5	5	0.02	-0.06380992	1	10	0.03	2000	5.197702	40.9239	-91.39363
123142	-60	4	5	-0.6666256	0.233239	-91.60378	0	11.23	4004	0	0	5	5	0.02	-0.06300221	1	10	0.03	2000	4.991182	40.9239	-91.39363
123351	-64	-6	1	-0.6703231	0.2349469	-91.61501	0	11.23	4002	0	0	5	5	0.02	-0.06632701	1	10	0.03	2000	5.202755	40.9239	-91.39363
123404	-62	3	0	-0.6736992	0.2335859	-91.61757	0	11.23	4003	0	0	5	5	0.02	-0.07078505	1	10	0.03	2000	5.202755	40.9239	-91.39363
123453	-61	0	5	-0.6722375	0.235923	-91.6227	0	11.23	4004	0	0	5	5	0.02	-0.07142787	1	10	0.03	2000	4.998182	40.9239	-91.39363
123636	-62	1	4	-0.6664907	0.2343284	-91.63112	0	11.23	4004	0	0	5	5	0.02	-0.07867701	1	10	0.03	2000	5.198495	40.9239	-91.39362
123697	-62	-2	1	-0.6723582	0.2342127	-91.63649	0	11.23	4002	0	0	5	5	0.02	-0.0844117	1	10	0.03	2000	4.981349	40.9239	-91.39362
123852	-61	-1	5	-0.6683807	0.2385066	-91.64607	0	11.23	4003	0	0	5	5	0.02	-0.08500117	1	10	0.03	2000	5.184128	40.9239	-91.39362
123933	-60	1	6	-0.6707553	0.2360443	-91.64833	0	11.23	4002	0	0	5	5	0.02	-0.08309845	1	10	0.03	2000	4.993998	40.9239	-91.39362
124002	-58	1	6	-0.6713582	0.2393273	-91.6534	0	11.23	4003	0	0	5	5	0.02	-0.08212595	1	10	0.03	2000	4.997145	40.9239	-91.39362
124116	-66	0	6	-0.6751534	0.2387647	-91.66231	0	11.23	4002	0	0	5	5	0.02	-0.07803278	1	10	0.03	2000	5.229818	40.9239	-91.39362
124210	-61	1	4	-0.6710104	0.2405305	-91.66615	0	11.23	4004	0	0	5	5	0.02	-0.0740469	1	10	0.03	2000	5.002038	40.9239	-91.39362
124328	-59	2	4	-0.6609522	0.2403797	-91.67598	0	11.23	4002	0	0	5	5	0.02	-0.07131039	1	10	0.03	2000	5.000526	40.9239	-91.39362
124363	-61	4	4	-0.6595107	0.2389734	-91.67879	0	11.23	4004	0	0	5	5	0.02	-0.07026634	1	10	0.03	2000	5.000526	40.9239	-91.39362
124471	-59	0	4	-0.6550161	0.2378464	-91.6852	0	11.23	4004	0	0	5	5	0.02	-0.07584932	1	10	0.03	2000	4.976943	40.9239	-91.39362
124536	-56	0	5	-0.6525891	0.2424111	-91.68782	0	11.23	4004	0	0	5	5	0.02	-0.07925857	1	10	0.03	2000	4.955638	40.9239	-91.39362
124635	-56	5	1	-0.6570859	0.2365761	-91.69673	0	11.23	4002	0	0	5	5	0.02	-0.08846298	1	10	0.03	2000	4.972737	40.9239	-91.39362
124752	-61	-1	5	-0.652467	0.2345066	-91.7018	0	11.23	4004	0	0	5	5	0.02	-0.1056169	1	10	0.03	2000	5.199364	40.9239	-91.39362
124837	-59	0	5	-0.6488098	0.2324992	-91.70699	0	11.23	4003	0	0	5	5	0.02	-0.1213639	1	10	0.03	2000	4.962061	40.9239	-91.39362
124933	-61	4	2	-0.6489944	0.2311153	-91.71181	0	11.23	4002	0	0	5	5	0.02	-0.1299835	1	10	0.03	2000	4.967175	40.9239	-91.39362
125090	-56	0	5	-0.6442495	0.2343681	-91.7234	0	11.23	4002	0	0	5	5	0.02	-0.1363053	1	10	0.03	2000	4.957665	40.9239	-91.39362
125235	-55	5	3	-0.6384499	0.2344972	-91.72987	0	11.23	4003	0	0	5	5	0.02	-0.11973	1	10	0.03	2000	4.951066	40.9239	-91.39362
125302	-61	5	5	-0.641224	0.2381699	-91.74147	0	11.23	4004	0	0	5	5	0.02	-0.1139238	1	10	0.03	2000	4.950357	40.9239	-91.39362
125339	-61	5	5	-0.641224	0.2381699	-91.74147	0	11.23	4004	0	0	5	5	0.02	-0.1123619	1	10	0.03	2000	4.950357	40.9239	-91.39362
125428	-55	-7	3	-0.6435359	0.2350547	-91.74843	0	11.23	4003	0	0	5	5	0.02	-0.1038266	1	10	0.03	2000	4.966817	40.9239	-91.39362
125534	-53	0	6	-0.6358308	0.2336682	-91.75618	0	11.23	4003	0	0	5	5	0.02	-0.09470791	1	10	0.03	2000	4.953168	40.9239	-91.39362
125650	-54	2	1	-0.6367334	0.2293687	-91.76186	0	11.23	4003	0	0	5	5	0.02	-0.07277706	1	10	0.03	2000	4.947709	40.9239	-91.39362
125734	-51	3	6	-0.6331769	0.2277726	-91.76619	0	11.23	4003	0	0	5	5	0.02	-0.0649964	1	10	0.03	2000	4.947709	40.9239	-91.39362
125900	-56	6	6	-0.6237412	0.226584	-91.77693	0	11.23	4004	0	0	5	5	0.02	-0.07138202	1	10	0.03	2000	4.93123	40.9239	-91.39362
125947	-59	2	5	-0.6205195	0.2249758	-91.78261	0	11.23	4003	0	0	5	5	0.02	-0.07325605	1	10	0.03	2000	5.130157	40.9239	-91.39362
126025	-61	2	5	-0.6214662	0.2214576	-91.78645	0	11.23	4004	0	0	5	5	0.02	-0.08204468	1	10	0.03	2000	4.920329	40.9239	-91.39362
126128	-58	3	2	-0.6219807	0.2275663	-91.79665	0	11.23	4003	0	0	5	5	0.02	-0.09986955	1	10	0.03	2000	4.921513	40.9239	-91.39362
126258	-57	3	5	-0.614504	0.2281166	-91.80318	0	11.23	4004	0	0	5	5	0.02	-0.1105032	1	10	0.03	2000	4.913948	40.9239	-91.39362
126364	-62	0	4	-0.6115092	0.221392	-91.81306	0	11.23	4002	0	0	5	5	0.02	-0.1249368	1	10	0.03	2000	5.122162	40.9239	-91.39362
126423	-60	-10	1	-0.6129317	0.2206171	-91.81538	0	11.23	4003	0	0	5	5	0.02	-0.1343777	1	10	0.03	2000	5.122162	40.9239	-91.39362
126513	-57	3	3	-0.6104326	0.2266583	-91.82265	0	11.23	4004	0	0	5	5	0.02	-0.1431666	1	10	0.03	2000	5.113284	40.9239	-91.39362
126617	-54	3	4	-0.6072422	0.2163907	-91.83138	0	11.23	4002	0	0	5	5	0.02	-0.1525071	1	10	0.03	2000	4.900282	40.9239	-91.39362
126742	-54	2	9	-0.6027447	0.2196404	-91.83919	0	11.23	4003	0	0	5	5	0.02	-0.1493392	1	10	0.03	2000	5.110815	40.9239	-91.39362
126878	-49	0	8	-0.598544	0.2148837	-91.84792	0	11.23	4002	0	0	5	5	0.02	-0.1456042	1	10	0.03	2000	4.910753	40.9239	-91.39362
126939	-54	3	1	-0.5977193	0.2139788	-91.85054	0	11.23	4003	0	0	5	5	0.02	-0.1450914	1	10	0.03	2000	4.865585	40.9239	-91.39362
127007	-63	-1	3	-0.5951895	0.2176426	-91.85664	0	11.23	4004	0	0	5	5	0.02	-0.1427501	1	10	0.03	2000	4.909607	40.9239	-91.39362
127151	-52	4	5	-0.5907407	0.215071	-91.86256	0	11.23	4003	0	0	5	5	0.02	-0.1308004	1	10	0.03	2000	4.880005	40.9239	-91.39362
127218	-56	1	3	-0.5864118	0.2142799	-91.86873	0	11.23	4003	0	0	5	5	0.02	-0.1291221	1	10	0.03	2000	4.854677	40.9239	-91.39362
127343	-51	-4	0	-0.5889918	0.2103116	-91.8744	0	11.23	4002	0	0	5	5	0.02	-0.1312847	1	10	0.03	2000	4.88765	40.9239	-91.39362
127498	-60	0	3	-0.5900838	0.2168798	-91.88435	0	11.23	4004	0	0	5	5	0.02	-0.1317319	1	10	0.03	2000	5.080721	40.9239	-91.39362
127605	-55	-3	1	-0.5842796	0.2184929	-91.88979	0	11.23	4003	0	0	5	5	0.02	-0.1306539	1	10	0.03	2000	4.874273	40.9239	-91.39362
127700	-53	1	3	-0.5818648	0.2167944	-91.894	0	11.23	4004	0	0	5	5	0.02	-0.1298117	1	10	0.03	2000	4.871078	40.9239	-91.39362
127858	-56	2	6	-0.5675943	0.2270593	-91.90108	0	11.23	4002	0	0	5	5	0.02	-0.1248201	1	10	0.03	2000	4.849076	40.9239	-91.39362
127984	-64	-1	3	-0.563593	0.2219118	-91.90639	0	11.23	4002	0	0	5	5	0.02	-0.1141141	1	10	0.03	2000	4.81694	40.9239	-91.39362
128030	-57	5	1	-0.5628542	0.2238085	-91.90846	0	11.23	4002	0	0	5	5	0.02	-0.1074047	1	10	0.03	2000	4.81694	40.9239	-91.39362
128108	-54	-5	4	-0.5663145	0.2204539	-91.91145	0	11.23	4004	0	0	5	5	0.02	-0.1016109	1	10	0.03	2000	4.836926	40.9239	-91.39362
128195	-48	1	4	-0.5550091	0.2249117	-91.91975	0	11.23	4004	0	0	5	5	0.02	-0.09625098	1	10	0.03	2000	4.829527	40.9239	-91.39362
128278	-49	-1	5	-0.5482004	0.2260396	-91.92409	0	11.23	4004	0	0	5	5	0.02	-0.09430809	1	10	0.03	2000	4.81758	40.9239	-91.39362
128442	-45	1	5	-0.5483313	0.2268701	-91.93312	0	11.23	4002	0	0	5	5	0.02	-0.08959073	1	10	0.03	2000	4.832809	40.9239	-91.39362
128539	-58	0	6	-0.5503097	0.2248779	-91.9388	0	11.23	4004	0	0	5	5	0.02	-0.08940334	1	10	0.03	2000	4.812868	40.9239	-91.39362
128579	-54	-1	8	-0.5537684	0.2243658	-91.93971	0	11.23	4004	0	0	5	5	0.02	-0.09014013	1	10	0.03	2000	4.812868	40.9239	-91.39362
128750	-46	-1	2	-0.55235	0.2262643	-91.94875	0	11.23	4003	0	0	5	5	0.02	-0.08959728	1	10	0.03	2000	4.817269	40.9239	-91.39362
128787	-61	4	7	-0.5505809	0.2242487	-91.95253	0	11.23	4003	0	0	5	5	0.02	-0.08553842	1	10	0.03	2000	4.817269	40.9239	-91.39362
128891	-52	-2	7	-0.5514273	0.2228043	-91.95857	0	11.23	4003	0	0	5	5	0.02	-0.08473362	1	10	0.03	2000	4.802396	40.9239	-91.39362
129108	-55	-4	2	-0.5398731	0.2206115	-91.96907	0	11.23	4004	0	0	5	5	0.02	-0.07845799	1	10	0.03	2000	5.011196	40.9239	-91.39362
129238	-54	1	0	-0.5381769	0.224193	-91.97713	0	11.23	4004	0	0	5	5	0.02	-0.07517461	1	10	0.03	2000	4.817255	40.9239	-91.39362
129427	-51	3	2	-0.5407341	0.226728	-91.98457	0	11.23	4003	0	0	5	5	0.02	-0.07377918	1	10	0.03	2000	4.800065	40.9239	-91.39362
129522	-50	-5	1	-0.5413947	0.2239995	-91.99129	0	11.23	4002	0	0	5	5	0.02	-0.06514339	1	10	0.03	2000	4.80189	40.9239	-91.39362
129611	-51	5	5	-0.5466175	0.2219054	-91.99428	0	11.23	4004	0	0	5	5	0.02	-0.0584373	1	10	0.03	2000	4.782305	40.9239	-91.39362
129755	-51	-1	0	-0.5432189	0.2184846	-92.0024	0	11.23	4004	0	0	5	5	0.02	-0.05468786	1	10	0.03	2000	4.824548	40.9239	-91.39362
129811	-43	1	6	-0.5421197	0.2179573	-92.0052	0	11.23	4004	0	0	5	5	0.02	-0.05663334	1	10	0.03	2000	4.824548	40.9239	-91.39362
129976	-47	-4	4	-0.5377963	0.2201002	-92.01289	0	11.23	4004	0	0	5	5	0.02	-0.06426534	1	10	0.03	2000	4.816576	40.9239	-91.39362
130017	-52	-1	3	-0.5366667	0.2171249	-92.01906	0	11.23	4004	0	0	5	5	0.02	-0.06874056	1	10	0.03	2000	4.797201	40.9239	-91.39362
130166	-55	0	3	-0.5316828	0.2202972	-92.02602	0	11.23	4004	0	0	5	5	0.02	-0.08097374	1	10	0.03	2000	4.807012	40.9239	-91.39362
130260	-55	5	3	-0.524468	0.2149196	-92.03297	0	11.23	4002	0	0	5	5	0.02	-0.08369616	1	10	0.03	2000	4.783834	40.9239	-91.39362
130311	-56	5	5	-0.5252439	0.2120606	-92.03542	0	11.23	4002	0	0	5	5	0.02	-0.08377556	1	10	0.03	2000	4.783834	40.9239	-91.39362
130414	-54	-2	3	-0.5277475	0.2143266	-92.03999	0	11.23	4004	0	0	5	5	0.02	-0.08480689	1	10	0.03	2000	4.966763	40.9239	-91.39362
130517	-42	-3	6	-0.5261355	0.2189224	-92.04854	0	11.23	4002	0	0	5	5	0.02	-0.07902667	1	10	0.03	2000	4.783425	40.9239	-91.39362
130619	-49	0	-1	-0.5258532	0.2233717	-92.05495	0	11.23	4004	0	0	5	5	0.02	-0.06780458	1	10	0.03	2000	4.776645	40.9239	-91.39362
130721	-49	0	6	-0.5236885	0.2230545	-92.05812	0	11.23	4002	0	0	5	5	0.02	-0.06561463	1	10	0.03	2000	4.760275	40.92391	-91.39362
130862	-52	4	3	-0.5251435	0.2124602	-92.06624	0	11.23	4003	0	0	5	5	0.02	-0.06971038	1	10	0.03	2000	4.984081	40.92391	-91.39362
130937	-43	-1	0	-0.5227253	0.2148147	-92.07051	0	11.23	4003	0	0	5	5	0.02	-0.07138909	1	10	0.03	2000	4.985411	40.92391	-91.39362
131024	-48	1	0	-0.5221915	0.2082195	-92.07729	0	11.23	4003	0	0	5	5	0.02	-0.06460018	1	10	0.03	2000	4.773456	40.92391	-91.39362
131126	-48	2	7	-0.5220234	0.209523	-92.08186	0	11.23	4006	0	0	5	5	0.02	-0.05507811	1	10	0.03	2000	4.772695	40.92391	-91.39362
131262	-47	5	1	-0.5174366	0.1969363	-92.08894	0	11.23	4004	0	0	5	5	0.02	-0.03973004	1	10	0.03	2000	4.769652	40.92391	-91.39362
131353	-49	0	1	-0.5184737	0.1978265	-92.097	0	11.23	4003	0	0	5	5	0.02	-0.03561663	1	10	0.03	2000	4.756361	40.92391	-91.39362
131460	-48	6	3	-0.5186521	0.1967715	-92.10158	0	11.23	4003	0	0	5	5	0.02	-0.02935676	1	10	0.03	2000	4.977884	40.92391	-91.39362
131540	-44	2	3	-0.5144453	0.1971815	-92.10817	0	11.23	4003	0	0	5	5	0.02	-0.01888457	1	10	0.03	2000	4.785316	40.92391	-91.39362
131672	-46	-2	5	-0.5057171	0.1953457	-92.11458	0	11.23	4003	0	0	5	5	0.02	-0.0122869	1	10	0.03	2000	4.775422	40.92391	-91.39362
131763	-48	-1	2	-0.5109669	0.1978638	-92.12086	0	11.23	4004	0	0	5	5	0.02	-0.009752758	1	10	0.03	2000	4.963213	40.92391	-91.39362
131907	-43	4	1	-0.5102395	0.2060085	-92.12923	0	11.23	4003	0	0	5	5	0.02	0.002094151	1	10	0.03	2000	4.965695	40.92391	-91.39362
132011	-42	0	1	-0.5020384	0.2040675	-92.1349	0	11.23	4003	0	0	5	5	0.02	0.01401105	1	10	0.03	2000	4.772766	40.92391	-91.39362
132099	-45	1	1	-0.5008514	0.2041663	-92.13826	0	11.23	4003	0	0	5	5	0.02	0.01209258	1	10	0.03	2000	4.743486	40.92391	-91.39362
132211	-48	3	0	-0.4983718	0.2043474	-92.13911	0	11.23	4004	0	0	5	5	0.02	0.006493859	1	10	0.03	2000	4.742789	40.92391	-91.39362
132315	-42	-3	-3	-0.5142882	0.2146214	-92.14796	0	11.23	4002	0	0	5	5	0.02	-0.003438493	1	10	0.03	2000	4.781028	40.92391	-91.39362
132388	-42	-3	-3	-0.5142882	0.2146214	-92.14796	0	11.23	4002	0	0	5	5	0.02	-0.003438493	1	10	0.03	2000	4.781028	40.92391	-91.39362
132564	-48	1	6	-0.5091903	0.2092614	-92.16101	0	11.23	4003	0	0	5	5	0.02	-0.02153756	1	10	0.03	2000	4.777926	40.92391	-91.39362
132601	-43	-1	1	-0.5086626	0.2110412	-92.16284	0	11.23	4003	0	0	5	5	0.02	-0.02311687	1	10	0.03	2000	4.777926	40.92391	-91.39362
132679	-46	2	0	-0.4980403	0.2109354	-92.16968	0	11.23	4003	0	0	5	5	0.02	-0.02374149	1	10	0.03	2000	4.720084	40.92391	-91.39362
132782	-48	4	0	-0.4972951	0.2076605	-92.17279	0	11.23	4003	0	0	5	5	0.02	-0.03205284	1	10	0.03	2000	4.754653	40.92391	-91.39362
133011	-52	0	4	-0.5031966	0.2100194	-92.18549	0	11.23	4004	0	0	5	5	0.02	-0.03337767	1	10	0.03	2000	4.743236	40.92391	-91.39362
133149	-38	2	5	-0.4966038	0.204663	-92.19232	0	11.23	4003	0	0	5	5	0.02	-0.02429296	1	10	0.03	2000	4.93232	40.92391	-91.39362
133224	-48	5	5	-0.4937691	0.2068313	-92.19775	0	11.23	4003	0	0	5	5	0.02	-0.02746022	1	10	0.03	2000	4.731158	40.92391	-91.39362
133357	-47	0	6	-0.4889476	0.2105436	-92.20526	0	11.23	4004	0	0	5	5	0.02	-0.03184695	1	10	0.03	2000	4.707274	40.92391	-91.39362
133390	-47	0	6	-0.4889476	0.2105436	-92.20526	0	11.23	4004	0	0	5	5	0.02	-0.03180898	1	10	0.03	2000	4.707274	40.92391	-91.39362
133484	-41	0	6	-0.4900637	0.2127404	-92.21143	0	11.23	4003	0	0	5	5	0.02	-0.02546284	1	10	0.03	2000	4.721482	40.92391	-91.39362
133577	-38	2	2	-0.48875	0.2090108	-92.21503	0	11.23	4003	0	0	5	5	0.02	-0.02494889	1	10	0.03	2000	4.705374	40.92391	-91.39362
133676	-44	7	3	-0.4830889	0.2109717	-92.22095	0	11.23	4004	0	0	5	5	0.02	-0.02771925	1	10	0.03	2000	4.923028	40.92391	-91.39362
133879	-46	2	1	-0.4773253	0.2112597	-92.22699	0	11.23	4003	0	0	5	5	0.02	-0.03249582	1	10	0.03	2000	4.68692	40.92391	-91.39362
133987	-45	0	1	-0.4715839	0.210418	-92.23175	0	11.23	4003	0	0	5	5	0.02	-0.03693427	1	10	0.03	2000	4.904573	40.92391	-91.39362
134070	-39	6	3	-0.4663299	0.2064356	-92.23578	0	11.23	4003	0	0	5	5	0.02	-0.04073711	1	10	0.03	2000	4.903057	40.92391	-91.39362
134171	-43	0	3	-0.4539685	0.2033133	-92.23944	0	11.23	4004	0	0	5	5	0.02	-0.05254719	1	10	0.03	2000	4.88029	40.92391	-91.39362
134270	-43	-1	-1	-0.4516237	0.2044312	-92.24347	0	11.23	4004	0	0	5	5	0.02	-0.06419896	1	10	0.03	2000	4.664174	40.92391	-91.39362
134399	-41	-1	4	-0.4457707	0.2082104	-92.25055	0	11.23	4004	0	0	5	5	0.02	-0.07561436	1	10	0.03	2000	4.655601	40.92391	-91.39362
134472	-44	-3	-1	-0.4360398	0.2163633	-92.25531	0	11.23	4004	0	0	5	5	0.02	-0.08431537	1	10	0.03	2000	4.647737	40.92391	-91.39362
134589	-41	1	2	-0.4366006	0.2096291	-92.2569	0	11.23	4002	0	0	5	5	0.02	-0.0929017	1	10	0.03	2000	4.64323	40.92391	-91.39362
134670	-45	1	1	-0.4289322	0.2070026	-92.26147	0	11.23	4004	0	0	5	5	0.02	-0.09681647	1	10	0.03	2000	4.859237	40.92391	-91.39362
134765	-45	-2	4	-0.4334368	0.2093932	-92.26471	0	11.29	4002	0	0	5	5	0.02	-0.1002764	1	10	0.03	2000	4.614239	40.92391	-91.39362
134928	-42	3	3	-0.434878	0.2134393	-92.27045	0	11.29	4003	0	0	5	5	0.02	-0.100204	1	10	0.03	2000	4.639356	40.92391	-91.39362
134991	-35	2	2	-0.4303172	0.2123331	-92.27142	0	11.29	4004	0	0	5	5	0.02	-0.1001345	1	10	0.03	2000	4.639854	40.92391	-91.39362
135066	-36	0	-2	-0.4246555	0.2098586	-92.27356	0	11.29	4002	0	0	5	5	0.02	-0.1000542	1	10	0.03	2000	4.649094	40.92391	-91.39362
135158	-43	5	2	-0.4198856	0.2118454	-92.27686	0	11.29	4003	0	0	5	5	0.02	-0.09980743	1	10	0.03	2000	4.635368	40.92391	-91.39362
135254	-40	2	3	-0.4199662	0.211213	-92.27826	0	11.29	4004	0	0	5	5	0.02	-0.100895	1	10	0.03	2000	4.600764	40.92391	-91.39362
135415	-44	2	0	-0.4121168	0.2070283	-92.28668	0	11.29	4002	0	0	5	5	0.02	-0.09811981	1	10	0.03	2000	4.602962	40.92391	-91.39362
135487	-32	0	0	-0.4101858	0.211208	-92.289	0	11.29	4003	0	0	5	5	0.02	-0.096362	1	10	0.03	2000	4.601451	40.92391	-91.39362
135552	-38	0	2	-0.4067829	0.2043967	-92.2923	0	11.29	4002	0	0	5	5	0.02	-0.09511944	1	10	0.03	2000	4.601451	40.92391	-91.39362
135653	-41	-3	3	-0.403371	0.2021406	-92.2959	0	11.29	4003	0	0	5	5	0.02	-0.09657851	1	10	0.03	2000	4.597924	40.92391	-91.39362
135867	-41	0	0	-0.4016217	0.1933752	-92.30438	0	11.29	4004	0	0	5	5	0.02	-0.09908219	1	10	0.03	2000	4.795803	40.92391	-91.39362
136023	-38	-1	-2	-0.4004166	0.1947875	-92.30695	0	11.29	4003	0	0	5	5	0.02	-0.1152858	1	10	0.03	2000	4.589698	40.92391	-91.39362
136140	-41	1	2	-0.4028335	0.1959053	-92.31097	0	11.29	4004	0	0	5	5	0.02	-0.1219923	1	10	0.03	2000	4.591068	40.92391	-91.39362
136209	-37	5	2	-0.400483	0.192213	-92.31329	0	11.29	4003	0	0	5	5	0.02	-0.121384	1	10	0.03	2000	4.605197	40.92391	-91.39362
136256	-40	1	-2	-0.4029735	0.1928163	-92.3136	0	11.29	4003	0	0	5	5	0.02	-0.121384	1	10	0.03	2000	4.605197	40.92391	-91.39362
136390	-38	6	2	-0.3981058	0.1901412	-92.31805	0	11.29	4002	0	0	5	5	0.02	-0.1308584	1	10	0.03	2000	4.606164	40.92391	-91.39362
136509	-33	0	2	-0.3888708	0.1892074	-92.32166	0	11.23	4004	0	0	5	5	0.02	-0.1319058	1	10	0.03	2000	4.791342	40.92391	-91.39362
136616	-41	-2	5	-0.3856287	0.1851081	-92.32513	0	11.23	4003	0	0	5	5	0.02	-0.1278811	1	10	0.03	2000	4.574562	40.92391	-91.39362
136668	-36	1	3	-0.3871444	0.1878337	-92.32831	0	11.23	4003	0	0	5	5	0.02	-0.127147	1	10	0.03	2000	4.550828	40.92391	-91.39362
136747	-40	0	2	-0.3900666	0.1889765	-92.33063	0	11.23	4004	0	0	5	5	0.02	-0.1253567	1	10	0.03	2000	4.593566	40.92391	-91.39362
136848	-42	10	2	-0.3832825	0.1877993	-92.33459	0	11.23	4002	0	0	5	5	0.02	-0.1295526	1	10	0.03	2000	4.570044	40.92391	-91.39362
136952	-38	0	4	-0.3814834	0.1853267	-92.33997	0	11.23	4004	0	0	5	5	0.02	-0.1339705	1	10	0.03	2000	4.560977	40.92391	-91.39362
137183	-34	-1	7	-0.3906345	0.1904642	-92.34766	0	11.23	4004	0	0	5	5	0.02	-0.1412592	1	10	0.03	2000	4.556469	40.92392	-91.39362
137351	-35	-1	0	-0.3867612	0.193685	-92.35443	0	11.23	4003	0	0	5	5	0.02	-0.137269	1	10	0.03	2000	4.58438	40.92392	-91.39362
137375	-44	0	-1	-0.3885907	0.2001677	-92.35553	0	11.23	4003	0	0	5	5	0.02	-0.1378586	1	10	0.03	2000	4.585155	40.92392	-91.39362
137460	-45	1	6	-0.3868072	0.2004864	-92.35706	0	11.23	4004	0	0	5	5	0.02	-0.140371	1	10	0.03	2000	4.585155	40.92392	-91.39362
137712	-44	-1	0	-0.4047311	0.2025019	-92.36542	0	11.23	4003	0	0	5	5	0.02	-0.14889	1	10	0.03	2000	4.596435	40.92392	-91.39362
137816	-36	8	-4	-0.42098	0.2013056	-92.36669	0	11.23	4002	0	0	5	5	0.02	-0.1470535	1	10	0.03	2000	4.596435	40.92392	-91.39362
138005	-38	2	-3	-0.4179211	0.1926152	-92.37878	0	11.23	4003	0	0	5	5	0.02	-0.1352385	1	10	0.03	2000	5.016262	40.92392	-91.39362
138117	-34	1	1	-0.4130837	0.1985674	-92.38519	0	11.23	4003	0	0	5	5	0.02	-0.1291082	1	10	0.03	2000	4.607854	40.92392	-91.39362
138237	-31	0	6	-0.401097	0.1980827	-92.38854	0	11.23	4003	0	0	5	5	0.02	-0.1207424	1	10	0.03	2000	4.60539	40.92392	-91.39362
138324	-38	0	0	-0.3962407	0.1934544	-92.39239	0	11.23	4002	0	0	5	5	0.02	-0.1193081	1	10	0.03	2000	4.996542	40.92392	-91.39362
138431	-38	1	4	-0.3888797	0.1926131	-92.39507	0	11.17	4003	0	0	5	5	0.02	-0.1150095	1	10	0.03	2000	4.560616	40.92392	-91.39362
138462	-33	-3	0	-0.38765	0.18779	-92.3969	0	11.17	4004	0	0	5	5	0.02	-0.1101929	1	10	0.03	2000	4.555355	40.92392	-91.39362
138550	-36	-2	2	-0.3833494	0.1869657	-92.40252	0	11.17	4002	0	0	5	5	0.02	-0.1038912	1	10	0.03	2000	4.547711	40.92392	-91.39362
138696	-33	-6	0	-0.38459	0.1900868	-92.40582	0	11.17	4004	0	0	5	5	0.02	-0.09818748	1	10	0.03	2000	4.774073	40.92392	-91.39362
138773	-32	2	7	-0.3791429	0.1872276	-92.41161	0	11.17	4003	0	0	5	5	0.02	-0.09615238	1	10	0.03	2000	4.571832	40.92392	-91.39362
138852	-38	0	0	-0.3807617	0.1909182	-92.41576	0	11.17	4003	0	0	5	5	0.02	-0.09640035	1	10	0.03	2000	4.558376	40.92392	-91.39362
139062	-37	0	0	-0.3721394	0.19185	-92.42016	0	11.17	4004	0	0	5	5	0.02	-0.08768889	1	10	0.03	2000	4.984425	40.92392	-91.39362
139148	-37	0	4	-0.3713052	0.2008443	-92.42425	0	11.17	4004	0	0	5	5	0.02	-0.08934242	1	10	0.03	2000	4.557614	40.92392	-91.39362
139268	-33	4	3	-0.3675471	0.1998841	-92.42467	0	11.23	4003	0	0	5	5	0.02	-0.09068458	1	10	0.03	2000	4.538474	40.92391	-91.39362
139348	-33	4	3	-0.3675471	0.1998841	-92.42467	0	11.23	4003	0	0	5	5	0.02	-0.09068458	1	10	0.03	2000	4.538474	40.92391	-91.39362
139568	-33	4	3	-0.3675471	0.1998841	-92.42467	0	11.23	4003	0	0	5	5	0.02	-0.09068458	1	10	0.03	2000	4.538474	40.92391	-91.39362
139762	-33	4	3	-0.3675471	0.1998841	-92.42467	0	11.23	4003	0	0	5	5	0.02	-0.09068458	1	10	0.03	2000	4.538474	40.92391	-91.39362
139836	-33	4	3	-0.3675471	0.1998841	-92.42467	0	11.23	4003	0	0	5	5	0.02	-0.09068458	1	10	0.03	2000	4.538474	40.92391	-91.39362
139900	-33	4	3	-0.3675471	0.1998841	-92.42467	0	11.23	4003	0	0	5	5	0.02	-0.09068458	1	10	0.03	2000	4.538474	40.92391	-91.39362
139966	-33	4	3	-0.3675471	0.1998841	-92.42467	0	11.23	4003	0	0	5	5	0.02	-0.09068458	1	10	0.03	2000	4.538474	40.92391	-91.39362
140092	-33	4	3	-0.3675471	0.1998841	-92.42467	0	11.23	4003	0	0	5	5	0.02	-0.09068458	1	10	0.03	2000	4.538474	40.92391	-91.39362
140136	-33	4	3	-0.3675471	0.1998841	-92.42467	0	11.23	4003	0	0	5	5	0.02	-0.09068458	1	10	0.03	2000	4.538474	40.92391	-91.39362
140277	-33	4	3	-0.3675471	0.1998841	-92.42467	0	11.29	4003	0	0	5	5	0.02	-0.09068458	1	10	0.03	2000	4.538474	40.92391	-91.39362
140345	-33	4	3	-0.3675471	0.1998841	-92.42467	0	11.29	4003	0	0	5	5	0.02	-0.09068458	1	10	0.03	2000	4.538474	40.92391	-91.39362
140472	-33	4	3	-0.3675471	0.1998841	-92.42467	0	11.29	4003	0	0	5	5	0.02	-0.09068458	1	10	0.03	2000	4.538474	40.92391	-91.39362
140550	-33	4	3	-0.3675471	0.1998841	-92.42467	0	11.29	4003	0	0	5	5	0.02	-0.09068458	1	10	0.03	2000	4.538474	40.92391	-91.39362
140720	-33	4	3	-0.3675471	0.1998841	-92.42467	0	11.29	4003	0	0	5	5	0.02	-0.09068458	1	10	0.03	2000	4.538474	40.92391	-91.39362
140758	-33	4	3	-0.3675471	0.1998841	-92.42467	0	11.29	4003	0	0	5	5	0.02	-0.09068458	1	10	0.03	2000	4.538474	40.92391	-91.39362
140846	-33	4	3	-0.3675471	0.1998841	-92.42467	0	11.29	4003	0	0	5	5	0.02	-0.09068458	1	10	0.03	2000	4.538474	40.92391	-91.39362
140956	-33	4	3	-0.3675471	0.1998841	-92.42467	0	11.29	4003	0	0	5	5	0.02	-0.09068458	1	10	0.03	2000	4.538474	40.92391	-91.39362
141048	-33	4	3	-0.3675471	0.1998841	-92.42467	0	11.29	4003	0	0	5	5	0.02	-0.09068458	1	10	0.03	2000	4.538474	40.92391	-91.39362
141211	-33	4	3	-0.3675471	0.1998841	-92.42467	0	11.29	4003	0	0	5	5	0.02	-0.09068458	1	10	0.03	2000	4.538474	40.92391	-91.39362
141273	-33	4	3	-0.3675471	0.1998841	-92.42467	0	11.29	4003	0	0	5	5	0.02	-0.09068458	1	10	0.03	2000	4.538474	40.92391	-91.39362
141338	-33	4	3	-0.3675471	0.1998841	-92.42467	0	11.29	4003	0	0	5	5	0.02	-0.09068458	1	10	0.03	2000	4.538474	40.92391	-91.39362
141443	-33	4	3	-0.3675471	0.1998841	-92.42467	0	11.29	4003	0	0	5	5	0.02	-0.09068458	1	10	0.03	2000	4.538474	40.92391	-91.39362
141525	-33	4	3	-0.3675471	0.1998841	-92.42467	0	11.29	4003	0	0	5	5	0.02	-0.09068458	1	10	0.03	2000	4.538474	40.92391	-91.39362
141690	-33	4	3	-0.3675471	0.1998841	-92.42467	0	11.29	4003	0	0	5	5	0.02	-0.09068458	1	10	0.03	2000	4.538474	40.92391	-91.39362
141739	-33	4	3	-0.3675471	0.1998841	-92.42467	0	11.29	4003	0	0	5	5	0.02	-0.09068458	1	10	0.03	2000	4.538474	40.92391	-91.39362
141828	-33	4	3	-0.3675471	0.1998841	-92.42467	0	11.29	4003	0	0	5	5	0.02	-0.09068458	1	10	0.03	2000	4.538474	40.92391	-91.39362
141949	-33	4	3	-0.3675471	0.1998841	-92.42467	0	11.29	4003	0	0	5	5	0.02	-0.09068458	1	10	0.03	2000	4.538474	40.92391	-91.39362
142095	-33	4	3	-0.3675471	0.1998841	-92.42467	0	11.23	4003	0	0	5	5	0.02	-0.09068458	1	10	0.03	2000	4.538474	40.92391	-91.39362
142193	-33	4	3	-0.3675471	0.1998841	-92.42467	0	11.23	4003	0	0	5	5	0.02	-0.09068458	1	10	0.03	2000	4.538474	40.92391	-91.39362
142283	-33	4	3	-0.3675471	0.1998841	-92.42467	0	11.23	4003	0	0	5	5	0.02	-0.09068458	1	10	0.03	2000	4.538474	40.92391	-91.39362
142402	-33	4	3	-0.3675471	0.1998841	-92.42467	0	11.23	4003	0	0	5	5	0.02	-0.09068458	1	10	0.03	2000	4.538474	40.92391	-91.39362
142468	-33	4	3	-0.3675471	0.1998841	-92.42467	0	11.23	4003	0	0	5	5	0.02	-0.09068458	1	10	0.03	2000	4.538474	40.92391	-91.39362
142622	-33	4	3	-0.3675471	0.1998841	-92.42467	0	11.23	4003	0	0	5	5	0.02	-0.09068458	1	10	0.03	2000	4.538474	40.92391	-91.39362
142769	-33	4	3	-0.3675471	0.1998841	-92.42467	0	11.23	4003	0	0	5	5	0.02	-0.09068458	1	10	0.03	2000	4.538474	40.92391	-91.39362
142885	-33	4	3	-0.3675471	0.1998841	-92.42467	0	11.23	4003	0	0	5	5	0.02	-0.09068458	1	10	0.03	2000	4.538474	40.92391	-91.39362
142928	-33	4	3	-0.3675471	0.1998841	-92.42467	0	11.23	4003	0	0	5	5	0.02	-0.09068458	1	10	0.03	2000	4.538474	40.92391	-91.39362
143039	-33	4	3	-0.3675471	0.1998841	-92.42467	0	11.23	4003	0	0	5	5	0.02	-0.09068458	1	10	0.03	2000	4.538474	40.92391	-91.39362
143116	-33	4	3	-0.3675471	0.1998841	-92.42467	0	11.23	4003	0	0	5	5	0.02	-0.09068458	1	10	0.03	2000	4.538474	40.92391	-91.39362
143182	-33	4	3	-0.3675471	0.1998841	-92.42467	0	11.23	4003	0	0	5	5	0.02	-0.09068458	1	10	0.03	2000	4.538474	40.92391	-91.39362
143290	-33	4	3	-0.3675471	0.1998841	-92.42467	0	11.23	4003	0	0	5	5	0.02	-0.09068458	1	10	0.03	2000	4.538474	40.92391	-91.39362
143493	-33	4	3	-0.3675471	0.1998841	-92.42467	0	11.23	4003	0	0	5	5	0.02	-0.09068458	1	10	0.03	2000	4.538474	40.92391	-91.39362
143564	-33	4	3	-0.3675471	0.1998841	-92.42467	0	11.23	4003	0	0	5	5	0.02	-0.09068458	1	10	0.03	2000	4.538474	40.92391	-91.39362
143604	-33	4	3	-0.3675471	0.1998841	-92.42467	0	11.23	4003	0	0	5	5	0.02	-0.09068458	1	10	0.03	2000	4.538474	40.92391	-91.39362
143671	-33	4	3	-0.3675471	0.1998841	-92.42467	0	11.23	4003	0	0	5	5	0.02	-0.09068458	1	10	0.03	2000	4.538474	40.92391	-91.39362
143767	-33	4	3	-0.3675471	0.1998841	-92.42467	0	11.29	4003	0	0	5	5	0.02	-0.09068458	1	10	0.03	2000	4.538474	40.92391	-91.39362
143885	-33	4	3	-0.3675471	0.1998841	-92.42467	0	11.29	4003	0	0	5	5	0.02	-0.09068458	1	10	0.03	2000	4.538474	40.92391	-91.39362
144063	-33	4	3	-0.3675471	0.1998841	-92.42467	0	11.29	4003	0	0	5	5	0.02	-0.09068458	1	10	0.03	2000	4.538474	40.92391	-91.39362
144095	-33	4	3	-0.3675471	0.1998841	-92.42467	0	11.29	4003	0	0	5	5	0.02	-0.09068458	1	10	0.03	2000	4.538474	40.92391	-91.39362
144225	-33	4	3	-0.3675471	0.1998841	-92.42467	0	11.29	4003	0	0	5	5	0.02	-0.09068458	1	10	0.03	2000	4.538474	40.92391	-91.39362
144291	-33	4	3	-0.3675471	0.1998841	-92.42467	0	11.29	4003	0	0	5	5	0.02	-0.09068458	1	10	0.03	2000	4.538474	40.92391	-91.39362
144378	-33	4	3	-0.3675471	0.1998841	-92.42467	0	11.29	4003	0	0	5	5	0.02	-0.09068458	1	10	0.03	2000	4.538474	40.92391	-91.39362
144473	-33	4	3	-0.3675471	0.1998841	-92.42467	0	11.29	4003	0	0	5	5	0.02	-0.09068458	1	10	0.03	2000	4.538474	40.92391	-91.39362
144558	-33	4	3	-0.3675471	0.1998841	-92.42467	0	11.29	4003	0	0	5	5	0.02	-0.09068458	1	10	0.03	2000	4.538474	40.92391	-91.39362
144653	-33	4	3	-0.3675471	0.1998841	-92.42467	0	11.29	4003	0	0	5	5	0.02	-0.09068458	1	10	0.03	2000	4.538474	40.92391	-91.39362
144755	-33	4	3	-0.3675471	0.1998841	-92.42467	0	11.29	4003	0	0	5	5	0.02	-0.09068458	1	10	0.03	2000	4.538474	40.92391	-91.39362
144855	-33	4	3	-0.3675471	0.1998841	-92.42467	0	11.29	4003	0	0	5	5	0.02	-0.09068458	1	10	0.03	2000	4.538474	40.92391	-91.39362
144956	-33	4	3	-0.3675471	0.1998841	-92.42467	0	11.29	4003	0	0	5	5	0.02	-0.09068458	1	10	0.03	2000	4.538474	40.92391	-91.39362
145073	-33	4	3	-0.3675471	0.1998841	-92.42467	0	11.29	4003	0	0	5	5	0.02	-0.09068458	1	10	0.03	2000	4.538474	40.92391	-91.39362
145153	-33	4	3	-0.3675471	0.1998841	-92.42467	0	11.29	4003	0	0	5	5	0.02	-0.09068458	1	10	0.03	2000	4.538474	40.92391	-91.39362
145291	-33	4	3	-0.3675471	0.1998841	-92.42467	0	11.29	4003	0	0	5	5	0.02	-0.09068458	1	10	0.03	2000	4.538474	40.92391	-91.39362
145373	-33	4	3	-0.3675471	0.1998841	-92.42467	0	11.29	4003	0	0	5	5	0.02	-0.09068458	1	10	0.03	2000	4.538474	40.92391	-91.39362
145443	-33	4	3	-0.3675471	0.1998841	-92.42467	0	11.29	4003	0	0	5	5	0.02	-0.09068458	1	10	0.03	2000	4.538474	40.92391	-91.39362
145568	-33	4	3	-0.3675471	0.1998841	-92.42467	0	11.29	4003	0	0	5	5	0.02	-0.09068458	1	10	0.03	2000	4.538474	40.92391	-91.39362
145690	-33	4	3	-0.3675471	0.1998841	-92.42467	0	11.23	4003	0	0	5	5	0.02	-0.09068458	1	10	0.03	2000	4.538474	40.92391	-91.39362
145727	-33	4	3	-0.3675471	0.1998841	-92.42467	0	11.23	4003	0	0	5	5	0.02	-0.09068458	1	10	0.03	2000	4.538474	40.92391	-91.39362
145876	-33	4	3	-0.3675471	0.1998841	-92.42467	0	11.23	4003	0	0	5	5	0.02	-0.09068458	1	10	0.03	2000	4.538474	40.92391	-91.39362
145977	-33	4	3	-0.3675471	0.1998841	-92.42467	0	11.23	4003	0	0	5	5	0.02	-0.09068458	1	10	0.03	2000	4.538474	40.92391	-91.39362
146057	-33	4	3	-0.3675471	0.1998841	-92.42467	0	11.23	4003	0	0	5	5	0.02	-0.09068458	1	10	0.03	2000	4.538474	40.92391	-91.39362
146165	-33	4	3	-0.3675471	0.1998841	-92.42467	0	11.23	4003	0	0	5	5	0.02	-0.09068458	1	10	0.03	2000	4.538474	40.92391	-91.39362
146232	-33	4	3	-0.3675471	0.1998841	-92.42467	0	11.23	4003	0	0	5	5	0.02	-0.09068458	1	10	0.03	2000	4.538474	40.92391	-91.39362
146358	-33	4	3	-0.3675471	0.1998841	-92.42467	0	11.23	4003	0	0	5	5	0.02	-0.09068458	1	10	0.03	2000	4.538474	40.92391	-91.39362
146448	-33	4	3	-0.3675471	0.1998841	-92.42467	0	11.23	4003	0	0	5	5	0.02	-0.09068458	1	10	0.03	2000	4.538474	40.92391	-91.39362
146519	-33	4	3	-0.3675471	0.1998841	-92.42467	0	11.23	4003	0	0	5	5	0.02	-0.09068458	1	10	0.03	2000	4.538474	40.92391	-91.39362
146697	-33	4	3	-0.3675471	0.1998841	-92.42467	0	11.23	4003	0	0	5	5	0.02	-0.09068458	1	10	0.03	2000	4.538474	40.92391	-91.39362
146785	-33	4	3	-0.3675471	0.1998841	-92.42467	0	11.23	4003	0	0	5	5	0.02	-0.09068458	1	10	0.03	2000	4.538474	40.92391	-91.39362
146813	-33	4	3	-0.3675471	0.1998841	-92.42467	0	11.23	4003	0	0	5	5	0.02	-0.09068458	1	10	0.03	2000	4.538474	40.92391	-91.39362
146968	-33	4	3	-0.3675471	0.1998841	-92.42467	0	11.23	4003	0	0	5	5	0.02	-0.09068458	1	10	0.03	2000	4.538474	40.92391	-91.39362
147014	-33	4	3	-0.3675471	0.1998841	-92.42467	0	11.23	4003	0	0	5	5	0.02	-0.09068458	1	10	0.03	2000	4.538474	40.92391	-91.39362
147153	-33	4	3	-0.3675471	0.1998841	-92.42467	0	11.23	4003	0	0	5	5	0.02	-0.09068458	1	10	0.03	2000	4.538474	40.92391	-91.39362
147257	-33	4	3	-0.3675471	0.1998841	-92.42467	0	11.23	4003	0	0	5	5	0.02	-0.09068458	1	10	0.03	2000	4.538474	40.92391	-91.39362
147328	-33	4	3	-0.3675471	0.1998841	-92.42467	0	11.23	4003	0	0	5	5	0.02	-0.08756778	1	10	0.03	2000	4.538474	40.92391	-91.39362
147464	6	-2	5	1.224946	-0.5506259	-0.2743133	0	11.29	4004	0	0	5	5	0.02	-0.06528269	1	10	0.03	2000	1.949037	40.92392	-91.39362
147523	10	2	5	1.133138	-0.5030559	-0.2765142	0	11.29	4004	0	0	5	5	0.02	-0.05161235	1	10	0.03	2000	2.131979	40.92392	-91.39362
147608	11	1	-3	1.045371	-0.4598169	-0.2771868	0	11.29	4004	0	0	5	5	0.02	-0.04024302	1	10	0.03	2000	2.281044	40.92392	-91.39362
147723	5	4	-5	0.926614	-0.410221	-0.2749244	0	11.29	4004	0	0	5	5	0.02	-0.02465197	1	10	0.03	2000	2.554247	40.92392	-91.39362
147911	10	0	0	0.7324701	-0.3245904	-0.2781037	0	11.29	4011	0	0	5	5	0.02	-0.02179375	1	10	0.03	2000	3.079175	40.92392	-91.39362
147961	10	-2	3	0.7051359	-0.3075699	-0.2789597	0	11.29	4003	0	0	5	5	0.02	-0.02249662	1	10	0.03	2000	3.079175	40.92392	-91.39362
148056	9	-4	-1	0.6018207	-0.2609834	-0.2793267	0	11.29	4002	0	0	5	5	0.02	-0.02300901	1	10	0.03	2000	3.046425	40.92392	-91.39362
148110	6	2	-4	0.5779922	-0.2536704	-0.2803048	0	11.29	4004	0	0	5	5	0.02	-0.02262838	1	10	0.03	2000	3.046425	40.92392	-91.39362
148236	14	-7	-4	0.5199924	-0.2218797	-0.2784096	0	11.29	4003	0	0	5	5	0.02	-0.01655964	1	10	0.03	2000	3.177798	40.92392	-91.39362
148312	12	-1	3	0.4652712	-0.1956639	-0.2788378	0	11.23	4003	0	0	5	5	0.02	-0.01639627	1	10	0.03	2000	3.254321	40.92392	-91.39362
148505	9	-5	-1	0.401501	-0.1548277	-0.2755975	0	11.23	4004	0	0	5	5	0.02	-0.01454218	1	10	0.03	2000	3.379158	40.92392	-91.39362
148574	11	-1	-2	0.3509849	-0.1255047	-0.2747415	0	11.23	4010	0	0	5	5	0.02	-0.01070806	1	10	0.03	2000	3.450673	40.92392	-91.39362
148651	8	6	2	0.3365124	-0.1118547	-0.2743136	0	11.23	4004	0	0	5	5	0.02	-0.002732747	1	10	0.03	2000	3.496914	40.92392	-91.39362
148805	13	1	0	0.2857046	-0.08999389	-0.2749864	0	11.23	4004	0	0	5	5	0.02	0.008391477	1	10	0.03	2000	3.562747	40.92392	-91.39362
148881	8	-1	2	0.2723786	-0.08587812	-0.2749864	0	11.23	4004	0	0	5	5	0.02	0.01663559	1	10	0.03	2000	3.572052	40.92392	-91.39362
149062	14	0	3	0.2371845	-0.0640539	-0.2727243	0	11.23	4002	0	0	5	5	0.02	0.03293443	1	10	0.03	2000	3.831613	40.92392	-91.39362
149106	12	-6	-1	0.2287917	-0.05747614	-0.2724185	0	11.23	4003	0	0	5	5	0.02	0.03579142	1	10	0.03	2000	3.846102	40.92392	-91.39362
149184	5	-3	-2	0.210195	-0.04454085	-0.2716848	0	11.23	4003	0	0	5	5	0.02	0.04182405	1	10	0.03	2000	3.886071	40.92392	-91.39362
149324	14	5	-2	0.194647	-0.04398752	-0.2693004	0	11.23	4003	0	0	5	5	0.02	0.04806574	1	10	0.03	2000	3.900931	40.92392	-91.39362
149470	12	-5	0	0.1892271	-0.0476984	-0.2685668	0	11.23	4004	0	0	5	5	0.02	0.0528195	1	10	0.03	2000	3.71369	40.92392	-91.39362
149502	18	-2	1	0.1837045	-0.04485048	-0.2688724	0	11.23	4003	0	0	5	5	0.02	0.05222777	1	10	0.03	2000	3.729311	40.92392	-91.39362
149577	11	-3	0	0.179609	-0.04109266	-0.2688724	0	11.23	4002	0	0	5	5	0.02	0.05208275	1	10	0.03	2000	3.738578	40.92392	-91.39362
149705	14	-3	-2	0.1725143	-0.03465709	-0.2699118	0	11.23	4003	0	0	5	5	0.02	0.05405299	1	10	0.03	2000	3.748062	40.92392	-91.39362
149794	9	-2	1	0.1718538	-0.03239893	-0.2702174	0	11.23	4004	0	0	5	5	0.02	0.05141796	1	10	0.03	2000	3.94085	40.92392	-91.39362
149874	11	0	1	0.1682097	-0.02557801	-0.270462	0	11.23	4002	0	0	5	5	0.02	0.04478745	1	10	0.03	2000	3.735159	40.92392	-91.39362
149989	16	1	-2	0.1599093	-0.0243499	-0.270951	0	11.23	4003	0	0	5	5	0.02	0.03166854	1	10	0.03	2000	3.758492	40.92392	-91.39362
150116	11	-7	-2	0.1559026	-0.02719337	-0.2725407	0	11.17	4004	0	0	5	5	0.02	0.02613783	1	10	0.03	2000	3.978345	40.92392	-91.39362
150173	12	-1	-2	0.1532697	-0.02476038	-0.2727242	0	11.17	4003	0	0	5	5	0.02	0.0182304	1	10	0.03	2000	3.978345	40.92392	-91.39362
150331	8	0	0	0.1421828	-0.02185761	-0.2735191	0	11.17	4002	0	0	5	5	0.02	0.000519818	1	10	0.03	2000	3.773676	40.92392	-91.39362
150373	8	-7	-2	0.1366956	-0.01873276	-0.2748032	0	11.17	4004	0	0	5	5	0.02	-0.004631171	1	10	0.03	2000	3.997681	40.92392	-91.39362
150542	2	2	0	0.1406002	-0.01654139	-0.27731	0	11.17	4002	0	0	5	5	0.02	-0.01416203	1	10	0.03	2000	3.786431	40.92392	-91.39362
150656	4	0	2	0.1348641	-0.01480132	-0.2775545	0	11.17	4004	0	0	5	5	0.02	-0.01413915	1	10	0.03	2000	4.0095	40.92392	-91.39362
150788	7	-8	0	0.1305405	-0.01355305	-0.2767596	0	11.17	4002	0	0	5	5	0.02	-0.01414824	1	10	0.03	2000	3.983726	40.92392	-91.39362
150914	6	-1	0	0.1302067	-0.00813168	-0.2792661	0	11.17	4002	0	0	5	5	0.02	-0.009306918	1	10	0.03	2000	4.015542	40.92392	-91.39362
151061	7	4	5	0.1297692	-0.009164279	-0.2793271	0	11.29	4002	0	0	5	5	0.02	-0.02327766	1	10	0.03	2000	3.795571	40.92392	-91.39362
151086	8	-3	-1	0.1328597	-0.009014845	-0.2801832	0	11.29	4003	0	0	5	5	0.02	-0.02327766	1	10	0.03	2000	3.82064	40.92392	-91.39362
151218	1	0	1	0.1339147	-0.008289861	-0.2796942	0	11.29	4003	0	0	5	5	0.02	-0.03582609	1	10	0.03	2000	3.810299	40.92392	-91.39362
151312	9	-3	-3	0.1308953	-0.01164475	-0.2794497	0	11.29	4002	0	0	5	5	0.02	-0.04093321	1	10	0.03	2000	3.810885	40.92392	-91.39362
151420	16	-3	3	0.1367321	-0.009743354	-0.2807949	0	11.29	4004	0	0	5	5	0.02	-0.0370889	1	10	0.03	2000	3.803146	40.92392	-91.39362
151460	9	-1	0	0.1361079	-0.008884888	-0.2807339	0	11.29	4002	0	0	5	5	0.02	-0.03791898	1	10	0.03	2000	3.786165	40.92392	-91.39362
151583	11	-2	0	0.1367489	-0.007195264	-0.2818958	0	11.29	4003	0	0	5	5	0.02	-0.04287083	1	10	0.03	2000	4.011945	40.92392	-91.39362
151676	16	3	4	0.1409608	-0.01372561	-0.2816514	0	11.29	4004	0	0	5	5	0.02	-0.03792903	1	10	0.03	2000	3.991412	40.92392	-91.39362
151760	11	1	-2	0.1381599	-0.01705039	-0.2817738	0	11.29	4002	0	0	5	5	0.02	-0.04109403	1	10	0.03	2000	3.780471	40.92392	-91.39362
151863	9	4	-4	0.1387303	-0.0160708	-0.2818349	0	11.29	4003	0	0	5	5	0.02	-0.04451024	1	10	0.03	2000	3.782942	40.92392	-91.39362
151966	16	-2	0	0.1417529	-0.009980909	-0.2811013	0	11.23	4004	0	0	5	5	0.02	-0.04772295	1	10	0.03	2000	3.972849	40.92392	-91.39362
152101	10	0	-2	0.1374709	-0.01119712	-0.2794506	0	11.23	4003	0	0	5	5	0.02	-0.04227759	1	10	0.03	2000	3.777849	40.92392	-91.39362
152212	7	1	-2	0.1358049	-0.01888363	-0.2796335	0	11.23	4002	0	0	5	5	0.02	-0.03427933	1	10	0.03	2000	3.778916	40.92392	-91.39362
152252	11	-2	1	0.1385409	-0.02266211	-0.2796946	0	11.23	4002	0	0	5	5	0.02	-0.03014407	1	10	0.03	2000	3.79896	40.92392	-91.39362
152347	11	-2	-2	0.1365848	-0.02391167	-0.2794502	0	11.23	4003	0	0	5	5	0.02	-0.0198102	1	10	0.03	2000	3.794744	40.92392	-91.39362
152457	8	-3	-1	0.1363718	-0.02393758	-0.280245	0	11.23	4002	0	0	5	5	0.02	-0.01669752	1	10	0.03	2000	3.7847	40.92392	-91.39362
152526	14	0	-4	0.1366363	-0.02351526	-0.2796946	0	11.23	4004	0	0	5	5	0.02	-0.0161143	1	10	0.03	2000	3.788421	40.92392	-91.39362
152621	10	1	1	0.1356009	-0.02846521	-0.2802452	0	11.23	4002	0	0	5	5	0.02	-0.01684991	1	10	0.03	2000	3.804285	40.92392	-91.39362
152720	16	1	4	0.1420659	-0.02892867	-0.2800619	0	11.23	4003	0	0	5	5	0.02	-0.0153445	1	10	0.03	2000	3.781581	40.92392	-91.39362
152828	13	0	0	0.1455675	-0.03124638	-0.2810402	0	11.17	4003	0	0	5	5	0.02	-0.01182934	1	10	0.03	2000	3.788938	40.92392	-91.39362
152917	12	5	0	0.1470449	-0.02102142	-0.2798173	0	11.17	4003	0	0	5	5	0.02	-0.0007165681	1	10	0.03	2000	3.775144	40.92392	-91.39362
153016	11	0	3	0.1492044	-0.02361394	-0.2803679	0	11.17	4002	0	0	5	5	0.02	0.01060622	1	10	0.03	2000	3.989055	40.92392	-91.39362
153137	11	-4	7	0.1486603	-0.02225086	-0.2829967	0	11.17	4004	0	0	5	5	0.02	0.02032905	1	10	0.03	2000	3.770891	40.92392	-91.39362
153205	16	1	-12	0.1518053	-0.02294232	-0.281101	0	11.17	4004	0	0	5	5	0.02	0.02713583	1	10	0.03	2000	3.767734	40.92392	-91.39362
153317	10	0	-4	0.1522892	-0.02259945	-0.2796949	0	11.17	4003	0	0	5	5	0.02	0.03381393	1	10	0.03	2000	3.986462	40.92392	-91.39362
153425	9	-2	2	0.146431	-0.02302653	-0.2798173	0	11.17	4003	0	0	5	5	0.02	0.03041668	1	10	0.03	2000	3.765376	40.92392	-91.39362
153497	18	1	-2	0.1462377	-0.02635454	-0.2785946	0	11.17	4003	0	0	5	5	0.02	0.0238446	1	10	0.03	2000	3.787519	40.92392	-91.39362
153601	6	-5	0	0.1466877	-0.02212955	-0.277249	0	11.17	4002	0	0	5	5	0.02	0.01327818	1	10	0.03	2000	3.784506	40.92392	-91.39362
153721	11	1	2	0.1464068	-0.01930908	-0.2774326	0	11.29	4004	0	0	5	5	0.02	-0.001720879	1	10	0.03	2000	3.782349	40.92392	-91.39362
