time(ms)	gyro_x(deg/s)	gyro_y(deg/s)	gyro_z(deg/s)	orientation_roll(deg)	orientation_pitch(deg)	orientation_yaw(deg)	throttle	battery(V)	loop_time(uS)	pid_output_roll	pid_output_pitch	pid_output_yaw	pid_output_throttle	ultrasonic_alt	baro_alt	flight_mode	p_gain_altitude	i_gain_altitude	d_gain_altitude	compass_heading	latitude	longitude
276455	-64	0	1	-1.278075	0.695387	-89.99655	0	10.83	4002	0	0	5	5	0.02	0.2229759	1	10	0.03	2000	7.555401	40.92393	-91.39363
276632	-62	-4	2	-1.272293	0.6942402	-90.0076	0	10.83	4004	0	0	5	5	0.02	0.2199055	1	10	0.03	2000	7.525376	40.92393	-91.39363
276746	-61	-2	2	-1.267726	0.6909818	-90.01956	0	10.83	4002	0	0	5	5	0.02	0.2187606	1	10	0.03	2000	7.762027	40.92393	-91.39363
276798	-65	1	3	-1.266362	0.6940775	-90.02243	0	10.83	4002	0	0	5	5	0.02	0.2229765	1	10	0.03	2000	7.502162	40.92393	-91.39363
276929	-64	0	0	-1.262599	0.6906912	-90.03452	0	10.83	4002	0	0	5	5	0.02	0.2304818	1	10	0.03	2000	7.718502	40.92393	-91.39363
277076	-67	-3	5	-1.260914	0.6968358	-90.04178	0	10.83	4003	0	0	5	5	0.02	0.2368214	1	10	0.03	2000	7.525364	40.92393	-91.39363
277165	-68	-3	8	-1.259996	0.6953087	-90.04715	0	10.83	4002	0	0	5	5	0.02	0.2396765	1	10	0.03	2000	7.734242	40.92393	-91.39363
277352	-63	3	7	-1.250071	0.6982621	-90.06247	0	10.83	4004	0	0	5	5	0.02	0.2364043	1	10	0.03	2000	7.482375	40.92393	-91.39363
277498	-62	-3	9	-1.242377	0.7023101	-90.07413	0	10.83	4002	0	0	5	5	0.02	0.2470448	1	10	0.03	2000	7.501336	40.92393	-91.39363
277690	-68	0	6	-1.246695	0.7042488	-90.08701	0	10.83	4003	0	0	5	5	0.02	0.2718649	1	10	0.03	2000	7.709614	40.92393	-91.39363
277752	-66	4	7	-1.243832	0.7055335	-90.09146	0	10.83	4003	0	0	5	5	0.02	0.2715905	1	10	0.03	2000	7.468586	40.92393	-91.39363
277789	-62	0	4	-1.240269	0.7108642	-90.09384	0	10.83	4003	0	0	5	5	0.02	0.2708547	1	10	0.03	2000	7.490447	40.92393	-91.39363
277884	-64	-4	4	-1.246641	0.710939	-90.10141	0	10.83	4003	0	0	5	5	0.02	0.2765669	1	10	0.03	2000	7.456441	40.92393	-91.39363
278072	-73	7	4	-1.254154	0.7097085	-90.11234	0	10.83	4004	0	0	5	5	0.02	0.2813086	1	10	0.03	2000	7.507204	40.92393	-91.39363
278172	-62	6	5	-1.248099	0.7027559	-90.12192	0	10.83	4003	0	0	5	5	0.02	0.292706	1	10	0.03	2000	7.229401	40.92393	-91.39363
278308	-62	1	8	-1.250841	0.7086328	-90.12863	0	10.83	4002	0	0	5	5	0.02	0.2968508	1	10	0.03	2000	7.505686	40.92393	-91.39363
278484	-64	0	6	-1.24372	0.713505	-90.14713	0	10.83	4003	0	0	5	5	0.02	0.2923755	1	10	0.03	2000	7.464586	40.92393	-91.39363
278503	-62	2	6	-1.241705	0.7118813	-90.15909	0	10.83	4002	0	0	5	5	0.02	0.2579647	1	10	0.03	2000	7.489621	40.92393	-91.39363
278525	-58	3	12	-1.237108	0.7031183	-90.17276	0	10.83	4003	0	0	5	5	0.02	0.2157997	1	10	0.03	2000	7.455751	40.92393	-91.39363
278571	-66	1	7	-1.234956	0.7073972	-90.17526	0	10.83	4004	0	0	5	5	0.02	0.2059909	1	10	0.03	2000	7.478969	40.92393	-91.39363
278745	-66	4	9	-1.246903	0.7010496	-90.18826	0	10.83	4002	0	0	5	5	0.02	0.1760734	1	10	0.03	2000	7.460244	40.92393	-91.39363
278821	-58	-1	3	-1.246621	0.6979747	-90.19138	0	10.83	4003	0	0	5	5	0.02	0.168259	1	10	0.03	2000	7.470353	40.92393	-91.39363
278952	-60	-2	2	-1.243098	0.6983935	-90.20401	0	10.83	4003	0	0	5	5	0.02	0.1548422	1	10	0.03	2000	7.494613	40.92393	-91.39363
279047	-63	-2	4	-1.237947	0.6984334	-90.21213	0	10.83	4003	0	0	5	5	0.02	0.1466095	1	10	0.03	2000	7.237867	40.92393	-91.39363
279107	-61	-1	5	-1.239323	0.701663	-90.21347	0	10.83	4002	0	0	5	5	0.02	0.1344156	1	10	0.03	2000	7.486577	40.92393	-91.39363
279178	-63	1	7	-1.238496	0.6992749	-90.22208	0	10.83	4004	0	0	5	5	0.02	0.1218644	1	10	0.03	2000	7.459522	40.92393	-91.39363
279293	-60	0	6	-1.230773	0.7033564	-90.23141	0	10.83	4003	0	0	5	5	0.02	0.1007686	1	10	0.03	2000	7.455974	40.92393	-91.39363
279373	-62	-1	7	-1.231886	0.7045443	-90.23404	0	10.77	4003	0	0	5	5	0.02	0.0897036	1	10	0.03	2000	7.444366	40.92393	-91.39363
279563	-59	2	5	-1.228426	0.7039906	-90.24893	0	10.77	4004	0	0	5	5	0.02	0.07166818	1	10	0.03	2000	7.656868	40.92393	-91.39363
279595	-62	-1	5	-1.230084	0.7064608	-90.25577	0	10.77	4003	0	0	5	5	0.02	0.07144435	1	10	0.03	2000	7.688697	40.92393	-91.39363
279733	-59	0	6	-1.231143	0.7046409	-90.26474	0	10.77	4004	0	0	5	5	0.02	0.06904128	1	10	0.03	2000	7.46872	40.92393	-91.39363
279829	-61	-1	0	-1.224758	0.7069381	-90.26987	0	10.77	4002	0	0	5	5	0.02	0.06881204	1	10	0.03	2000	7.433465	40.92393	-91.39363
279882	-61	0	1	-1.220819	0.7067582	-90.27298	0	10.77	4003	0	0	5	5	0.02	0.07172161	1	10	0.03	2000	7.653127	40.92393	-91.39363
279961	-62	-2	4	-1.217426	0.7064918	-90.27689	0	10.77	4004	0	0	5	5	0.02	0.07598732	1	10	0.03	2000	7.671383	40.92393	-91.39363
280120	-61	-1	5	-1.217583	0.7136089	-90.28378	0	10.77	4004	0	0	5	5	0.02	0.07565446	1	10	0.03	2000	7.450335	40.92393	-91.39363
280178	-57	7	7	-1.216168	0.7120064	-90.2919	0	10.77	4002	0	0	5	5	0.02	0.07576521	1	10	0.03	2000	7.386737	40.92393	-91.39363
280353	-55	1	5	-1.209655	0.7114886	-90.30142	0	10.89	4004	0	0	5	5	0.02	0.07643202	1	10	0.03	2000	7.385399	40.92393	-91.39363
280415	-52	2	5	-1.208318	0.7067196	-90.30722	0	10.89	4003	0	0	5	5	0.02	0.0740561	1	10	0.03	2000	7.441419	40.92393	-91.39363
280537	-63	0	2	-1.20442	0.7051755	-90.31277	0	10.89	4003	0	0	5	5	0.02	0.07148005	1	10	0.03	2000	7.42753	40.92393	-91.39363
280591	-60	0	10	-1.198008	0.70304	-90.32266	0	10.89	4003	0	0	5	5	0.02	0.07226349	1	10	0.03	2000	7.422821	40.92393	-91.39363
280686	-61	2	7	-1.194925	0.6934627	-90.32974	0	10.89	4003	0	0	5	5	0.02	0.07634568	1	10	0.03	2000	7.605617	40.92393	-91.39363
280760	-56	-2	8	-1.193069	0.6925617	-90.33566	0	10.89	4003	0	0	5	5	0.02	0.08074193	1	10	0.03	2000	7.633721	40.92393	-91.39363
280933	-57	0	0	-1.18422	0.6877979	-90.34744	0	10.89	4002	0	0	5	5	0.02	0.09326061	1	10	0.03	2000	7.408055	40.92393	-91.39363
280965	-65	6	3	-1.18589	0.6858162	-90.34982	0	10.89	4004	0	0	5	5	0.02	0.09242377	1	10	0.03	2000	7.408055	40.92393	-91.39363
281105	-56	2	8	-1.175522	0.6826871	-90.36325	0	10.89	4003	0	0	5	5	0.02	0.08695361	1	10	0.03	2000	7.385031	40.92393	-91.39363
281170	-60	0	5	-1.173608	0.6786084	-90.36575	0	10.89	4004	0	0	5	5	0.02	0.08134316	1	10	0.03	2000	7.385031	40.92393	-91.39363
281328	-58	-2	7	-1.174034	0.6745126	-90.37631	0	10.89	4002	0	0	5	5	0.02	0.0740931	1	10	0.03	2000	7.146812	40.92393	-91.39363
281407	-58	3	5	-1.169173	0.6794587	-90.38705	0	10.89	4003	0	0	5	5	0.02	0.07217339	1	10	0.03	2000	7.383864	40.92393	-91.39363
281537	-59	0	7	-1.171312	0.679163	-90.39517	0	10.89	4004	0	0	5	5	0.02	0.06766556	1	10	0.03	2000	7.570487	40.92393	-91.39363
281564	-59	0	3	-1.173389	0.6800121	-90.39737	0	10.89	4003	0	0	5	5	0.02	0.06766556	1	10	0.03	2000	7.378923	40.92393	-91.39363
281654	-62	0	4	-1.17263	0.6840199	-90.39938	0	10.89	4002	0	0	5	5	0.02	0.06833076	1	10	0.03	2000	7.378923	40.92393	-91.39363
281771	-62	0	4	-1.17263	0.6840199	-90.39938	0	10.89	4002	0	0	5	5	0.02	0.06833076	1	10	0.03	2000	7.378923	40.92393	-91.39363
281845	-62	0	4	-1.17263	0.6840199	-90.39938	0	10.89	4002	0	0	5	5	0.02	0.06833076	1	10	0.03	2000	7.378923	40.92393	-91.39363
282032	-62	0	4	-1.17263	0.6840199	-90.39938	0	10.83	4002	0	0	5	5	0.02	0.06833076	1	10	0.03	2000	7.378923	40.92393	-91.39363
282173	-62	0	4	-1.17263	0.6840199	-90.39938	0	10.83	4002	0	0	5	5	0.02	0.06833076	1	10	0.03	2000	7.378923	40.92393	-91.39363
282239	-62	0	4	-1.17263	0.6840199	-90.39938	0	10.83	4002	0	0	5	5	0.02	0.06833076	1	10	0.03	2000	7.378923	40.92393	-91.39363
282393	-62	0	4	-1.17263	0.6840199	-90.39938	0	10.83	4002	0	0	5	5	0.02	0.06833076	1	10	0.03	2000	7.378923	40.92393	-91.39363
282564	-62	0	4	-1.17263	0.6840199	-90.39938	0	10.83	4002	0	0	5	5	0.02	0.06833076	1	10	0.03	2000	7.378923	40.92393	-91.39363
282624	-62	0	4	-1.17263	0.6840199	-90.39938	0	10.83	4002	0	0	5	5	0.02	0.06833076	1	10	0.03	2000	7.378923	40.92393	-91.39363
282666	-62	0	4	-1.17263	0.6840199	-90.39938	0	10.83	4002	0	0	5	5	0.02	0.06833076	1	10	0.03	2000	7.378923	40.92393	-91.39363
282943	-62	0	4	-1.17263	0.6840199	-90.39938	0	10.77	4002	0	0	5	5	0.02	0.06833076	1	10	0.03	2000	7.378923	40.92393	-91.39363
283044	-62	0	4	-1.17263	0.6840199	-90.39938	0	10.77	4002	0	0	5	5	0.02	0.06833076	1	10	0.03	2000	7.378923	40.92393	-91.39363
283138	-62	0	4	-1.17263	0.6840199	-90.39938	0	10.77	4002	0	0	5	5	0.02	0.06833076	1	10	0.03	2000	7.378923	40.92393	-91.39363
283194	-62	0	4	-1.17263	0.6840199	-90.39938	0	10.77	4002	0	0	5	5	0.02	0.06833076	1	10	0.03	2000	7.378923	40.92393	-91.39363
283322	-62	0	4	-1.17263	0.6840199	-90.39938	0	10.77	4002	0	0	5	5	0.02	0.06833076	1	10	0.03	2000	7.378923	40.92393	-91.39363
283375	-62	0	4	-1.17263	0.6840199	-90.39938	0	10.77	4002	0	0	5	5	0.02	0.06833076	1	10	0.03	2000	7.378923	40.92393	-91.39363
283476	-62	0	4	-1.17263	0.6840199	-90.39938	0	10.77	4002	0	0	5	5	0.02	0.06833076	1	10	0.03	2000	7.378923	40.92393	-91.39363
283650	-62	0	4	-1.17263	0.6840199	-90.39938	0	10.77	4002	0	0	5	5	0.02	0.06833076	1	10	0.03	2000	7.378923	40.92393	-91.39363
283673	-62	0	4	-1.17263	0.6840199	-90.39938	0	10.77	4002	0	0	5	5	0.02	0.06833076	1	10	0.03	2000	7.378923	40.92393	-91.39363
283768	-62	0	4	-1.17263	0.6840199	-90.39938	0	10.77	4002	0	0	5	5	0.02	0.06833076	1	10	0.03	2000	7.378923	40.92393	-91.39363
283916	-62	0	4	-1.17263	0.6840199	-90.39938	0	10.83	4002	0	0	5	5	0.02	0.06833076	1	10	0.03	2000	7.378923	40.92393	-91.39363
283989	-62	0	4	-1.17263	0.6840199	-90.39938	0	10.83	4002	0	0	5	5	0.02	0.06833076	1	10	0.03	2000	7.378923	40.92393	-91.39363
284157	-62	0	4	-1.17263	0.6840199	-90.39938	0	10.83	4002	0	0	5	5	0.02	0.06833076	1	10	0.03	2000	7.378923	40.92393	-91.39363
284204	-62	0	4	-1.17263	0.6840199	-90.39938	0	10.83	4002	0	0	5	5	0.02	0.06833076	1	10	0.03	2000	7.378923	40.92393	-91.39363
284290	-62	0	4	-1.17263	0.6840199	-90.39938	0	10.83	4002	0	0	5	5	0.02	0.06833076	1	10	0.03	2000	7.378923	40.92393	-91.39363
284351	-62	0	4	-1.17263	0.6840199	-90.39938	0	10.83	4002	0	0	5	5	0.02	0.06833076	1	10	0.03	2000	7.378923	40.92393	-91.39363
284497	-62	0	4	-1.17263	0.6840199	-90.39938	0	10.83	4002	0	0	5	5	0.02	0.06833076	1	10	0.03	2000	7.378923	40.92393	-91.39363
284566	-62	0	4	-1.17263	0.6840199	-90.39938	0	10.83	4002	0	0	5	5	0.02	0.06833076	1	10	0.03	2000	7.378923	40.92393	-91.39363
284652	-62	0	4	-1.17263	0.6840199	-90.39938	0	10.83	4002	0	0	5	5	0.02	0.06833076	1	10	0.03	2000	7.378923	40.92393	-91.39363
284776	-62	0	4	-1.17263	0.6840199	-90.39938	0	10.83	4002	0	0	5	5	0.02	0.06833076	1	10	0.03	2000	7.378923	40.92393	-91.39363
284877	-62	0	4	-1.17263	0.6840199	-90.39938	0	10.83	4002	0	0	5	5	0.02	0.06833076	1	10	0.03	2000	7.378923	40.92393	-91.39363
284989	-62	0	4	-1.17263	0.6840199	-90.39938	0	10.83	4002	0	0	5	5	0.02	0.06833076	1	10	0.03	2000	7.378923	40.92393	-91.39363
285091	-62	0	4	-1.17263	0.6840199	-90.39938	0	10.83	4002	0	0	5	5	0.02	0.06833076	1	10	0.03	2000	7.378923	40.92393	-91.39363
285185	-62	0	4	-1.17263	0.6840199	-90.39938	0	10.83	4002	0	0	5	5	0.02	0.06833076	1	10	0.03	2000	7.378923	40.92393	-91.39363
285243	-62	0	4	-1.17263	0.6840199	-90.39938	0	10.83	4002	0	0	5	5	0.02	0.06833076	1	10	0.03	2000	7.378923	40.92393	-91.39363
285351	-62	0	4	-1.17263	0.6840199	-90.39938	0	10.83	4002	0	0	5	5	0.02	0.06833076	1	10	0.03	2000	7.378923	40.92393	-91.39363
285440	-62	0	4	-1.17263	0.6840199	-90.39938	0	10.83	4002	0	0	5	5	0.02	0.06833076	1	10	0.03	2000	7.378923	40.92393	-91.39363
285612	-62	0	4	-1.17263	0.6840199	-90.39938	0	10.83	4002	0	0	5	5	0.02	0.06833076	1	10	0.03	2000	7.378923	40.92393	-91.39363
285696	-62	0	4	-1.17263	0.6840199	-90.39938	0	10.77	4002	0	0	5	5	0.02	0.06833076	1	10	0.03	2000	7.378923	40.92393	-91.39363
285804	-62	0	4	-1.17263	0.6840199	-90.39938	0	10.77	4002	0	0	5	5	0.02	0.06833076	1	10	0.03	2000	7.378923	40.92393	-91.39363
285835	-62	0	4	-1.17263	0.6840199	-90.39938	0	10.77	4002	0	0	5	5	0.02	0.06833076	1	10	0.03	2000	7.378923	40.92393	-91.39363
285932	-62	0	4	-1.17263	0.6840199	-90.39938	0	10.77	4002	0	0	5	5	0.02	0.06833076	1	10	0.03	2000	7.378923	40.92393	-91.39363
286033	-62	0	4	-1.17263	0.6840199	-90.39938	0	10.77	4002	0	0	5	5	0.02	0.06833076	1	10	0.03	2000	7.378923	40.92393	-91.39363
286137	-62	0	4	-1.17263	0.6840199	-90.39938	0	10.77	4002	0	0	5	5	0.02	0.06833076	1	10	0.03	2000	7.378923	40.92393	-91.39363
286239	-62	0	4	-1.17263	0.6840199	-90.39938	0	10.77	4002	0	0	5	5	0.02	0.06833076	1	10	0.03	2000	7.378923	40.92393	-91.39363
286340	-62	0	4	-1.17263	0.6840199	-90.39938	0	10.77	4002	0	0	5	5	0.02	0.06833076	1	10	0.03	2000	7.378923	40.92393	-91.39363
286443	-62	0	4	-1.17263	0.6840199	-90.39938	0	10.77	4002	0	0	5	5	0.02	0.06833076	1	10	0.03	2000	7.378923	40.92393	-91.39363
286547	-62	0	4	-1.17263	0.6840199	-90.39938	0	10.77	4002	0	0	5	5	0.02	0.06833076	1	10	0.03	2000	7.378923	40.92393	-91.39363
286694	-62	0	4	-1.17263	0.6840199	-90.39938	0	10.83	4002	0	0	5	5	0.02	0.06833076	1	10	0.03	2000	7.378923	40.92393	-91.39363
286750	-62	0	4	-1.17263	0.6840199	-90.39938	0	10.83	4002	0	0	5	5	0.02	0.06833076	1	10	0.03	2000	7.378923	40.92393	-91.39363
286880	-62	0	4	-1.17263	0.6840199	-90.39938	0	10.83	4002	0	0	5	5	0.02	0.06833076	1	10	0.03	2000	7.378923	40.92393	-91.39363
287023	-62	0	4	-1.17263	0.6840199	-90.39938	0	10.83	4002	0	0	5	5	0.02	0.06833076	1	10	0.03	2000	7.378923	40.92393	-91.39363
287069	-62	0	4	-1.17263	0.6840199	-90.39938	0	10.83	4002	0	0	5	5	0.02	0.06833076	1	10	0.03	2000	7.378923	40.92393	-91.39363
287247	-62	0	4	-1.17263	0.6840199	-90.39938	0	10.83	4002	0	0	5	5	0.02	0.06833076	1	10	0.03	2000	7.378923	40.92393	-91.39363
287358	-62	0	4	-1.17263	0.6840199	-90.39938	0	10.83	4002	0	0	5	5	0.02	0.06833076	1	10	0.03	2000	7.378923	40.92393	-91.39363
287492	-62	0	4	-1.17263	0.6840199	-90.39938	0	10.83	4002	0	0	5	5	0.02	0.06833076	1	10	0.03	2000	7.378923	40.92393	-91.39363
287552	-62	0	4	-1.17263	0.6840199	-90.39938	0	10.83	4002	0	0	5	5	0.02	0.06833076	1	10	0.03	2000	7.378923	40.92393	-91.39363
287656	-62	0	4	-1.17263	0.6840199	-90.39938	0	10.83	4002	0	0	5	5	0.02	0.06833076	1	10	0.03	2000	7.378923	40.92393	-91.39363
287802	-62	0	4	-1.17263	0.6840199	-90.39938	0	10.83	4002	0	0	5	5	0.02	0.06833076	1	10	0.03	2000	7.378923	40.92393	-91.39363
287857	-62	0	4	-1.17263	0.6840199	-90.39938	0	10.83	4002	0	0	5	5	0.02	0.06833076	1	10	0.03	2000	7.378923	40.92393	-91.39363
287973	-62	0	4	-1.17263	0.6840199	-90.39938	0	10.83	4002	0	0	5	5	0.02	0.06833076	1	10	0.03	2000	7.378923	40.92393	-91.39363
288062	-62	0	4	-1.17263	0.6840199	-90.39938	0	10.83	4002	0	0	5	5	0.02	0.06833076	1	10	0.03	2000	7.378923	40.92393	-91.39363
288205	-62	0	4	-1.17263	0.6840199	-90.39938	0	10.83	4002	0	0	5	5	0.02	0.06833076	1	10	0.03	2000	7.378923	40.92393	-91.39363
288256	-62	0	4	-1.17263	0.6840199	-90.39938	0	10.83	4002	0	0	5	5	0.02	0.06833076	1	10	0.03	2000	7.378923	40.92393	-91.39363
288429	-62	0	4	-1.17263	0.6840199	-90.39938	0	10.89	4002	0	0	5	5	0.02	0.06833076	1	10	0.03	2000	7.378923	40.92393	-91.39363
288554	-62	0	4	-1.17263	0.6840199	-90.39938	0	10.89	4002	0	0	5	5	0.02	0.06833076	1	10	0.03	2000	7.378923	40.92393	-91.39363
288612	-62	0	4	-1.17263	0.6840199	-90.39938	0	10.89	4002	0	0	5	5	0.02	0.06833076	1	10	0.03	2000	7.378923	40.92393	-91.39363
288738	-62	0	4	-1.17263	0.6840199	-90.39938	0	10.89	4002	0	0	5	5	0.02	0.06833076	1	10	0.03	2000	7.378923	40.92393	-91.39363
288769	-62	0	4	-1.17263	0.6840199	-90.39938	0	10.89	4002	0	0	5	5	0.02	0.06833076	1	10	0.03	2000	7.378923	40.92393	-91.39363
288872	-62	0	4	-1.17263	0.6840199	-90.39938	0	10.89	4002	0	0	5	5	0.02	0.06833076	1	10	0.03	2000	7.378923	40.92393	-91.39363
289019	-62	0	4	-1.17263	0.6840199	-90.39938	0	10.89	4002	0	0	5	5	0.02	0.06833076	1	10	0.03	2000	7.378923	40.92393	-91.39363
289152	-62	0	4	-1.17263	0.6840199	-90.39938	0	10.89	4002	0	0	5	5	0.02	0.06833076	1	10	0.03	2000	7.378923	40.92393	-91.39363
289330	-62	0	4	-1.17263	0.6840199	-90.39938	0	10.83	4002	0	0	5	5	0.02	0.06833076	1	10	0.03	2000	7.378923	40.92393	-91.39363
289411	-62	0	4	-1.17263	0.6840199	-90.39938	0	10.83	4002	0	0	5	5	0.02	0.06833076	1	10	0.03	2000	7.378923	40.92393	-91.39363
289484	-62	0	4	-1.17263	0.6840199	-90.39938	0	10.83	4002	0	0	5	5	0.02	0.06833076	1	10	0.03	2000	7.378923	40.92393	-91.39363
289599	-62	0	4	-1.17263	0.6840199	-90.39938	0	10.83	4002	0	0	5	5	0.02	0.06833076	1	10	0.03	2000	7.378923	40.92393	-91.39363
289676	-62	0	4	-1.17263	0.6840199	-90.39938	0	10.83	4002	0	0	5	5	0.02	0.0701025	1	10	0.03	2000	7.378923	40.92393	-91.39363
289830	12	-5	0	0.8069012	0.3341369	-0.1354755	0	10.83	4010	0	0	5	5	0.02	0.04027873	1	10	0.03	2000	4.207269	40.92394	-91.39363
289920	10	1	2	0.7296069	0.2896355	-0.1366984	0	10.83	4003	0	0	5	5	0.02	0.02212003	1	10	0.03	2000	4.30555	40.92394	-91.39363
290006	8	-1	2	0.672125	0.2564678	-0.1359039	0	10.83	4003	0	0	5	5	0.02	0.006320122	1	10	0.03	2000	4.63317	40.92394	-91.39363
290120	9	-11	0	0.5820584	0.2102641	-0.1355981	0	10.83	4003	0	0	5	5	0.02	-0.004229652	1	10	0.03	2000	4.561366	40.92394	-91.39363
290210	4	0	-4	0.5504699	0.1893402	-0.1349254	0	10.77	4002	0	0	5	5	0.02	-0.01325371	1	10	0.03	2000	4.640039	40.92394	-91.39363
290312	5	3	0	0.4952702	0.1602924	-0.1336415	0	10.77	4003	0	0	5	5	0.02	-0.01371852	1	10	0.03	2000	4.709136	40.92394	-91.39363
290414	12	3	-1	0.4375881	0.130825	-0.132174	0	10.77	4002	0	0	5	5	0.02	-0.01893375	1	10	0.03	2000	5.293224	40.92394	-91.39363
290579	5	-4	3	0.3843031	0.1139431	-0.1327854	0	10.77	4003	0	0	5	5	0.02	-0.02340429	1	10	0.03	2000	4.920462	40.92394	-91.39363
290631	11	0	0	0.3737827	0.1091522	-0.1328467	0	10.77	4003	0	0	5	5	0.02	-0.02672863	1	10	0.03	2000	4.920462	40.92394	-91.39363
290739	16	-1	-2	0.3307833	0.08750565	-0.132663	0	10.77	4004	0	0	5	5	0.02	-0.03531924	1	10	0.03	2000	4.984661	40.92394	-91.39363
290824	6	-3	2	0.3159875	0.07722025	-0.1330298	0	10.77	4002	0	0	5	5	0.02	-0.04449498	1	10	0.03	2000	5.019939	40.92394	-91.39363
290921	14	1	2	0.2926962	0.05745218	-0.1319903	0	10.77	4003	0	0	5	5	0.02	-0.05193517	1	10	0.03	2000	5.093791	40.92394	-91.39363
291113	9	0	-2	0.2527826	0.03642214	-0.1306454	0	10.83	4003	0	0	5	5	0.02	-0.04233464	1	10	0.03	2000	4.914386	40.92394	-91.39363
291132	9	0	-2	0.2527826	0.03642214	-0.1306454	0	10.83	4003	0	0	5	5	0.02	-0.03796156	1	10	0.03	2000	4.914386	40.92394	-91.39363
291226	15	-4	-3	0.242956	0.02529334	-0.1318683	0	10.83	4002	0	0	5	5	0.02	-0.01525613	1	10	0.03	2000	5.382321	40.92394	-91.39363
291345	8	-6	4	0.223001	0.01690765	-0.1285055	0	10.83	4004	0	0	5	5	0.02	-0.001204202	1	10	0.03	2000	5.199031	40.92394	-91.39363
291501	1	0	3	0.2017553	0.009840587	-0.1266105	0	10.83	4003	0	0	5	5	0.02	0.02339716	1	10	0.03	2000	5.451491	40.92394	-91.39363
291619	8	-3	3	0.1895865	0.0004605259	-0.1273442	0	10.83	4003	0	0	5	5	0.02	0.02985365	1	10	0.03	2000	5.265529	40.92394	-91.39363
291668	13	-2	-3	0.1863697	2.140307E-05	-0.1266106	0	10.83	4003	0	0	5	5	0.02	0.03173002	1	10	0.03	2000	5.270787	40.92394	-91.39363
291770	4	2	4	0.1811398	-0.0001382666	-0.1255102	0	10.83	4003	0	0	5	5	0.02	0.02953573	1	10	0.03	2000	5.293246	40.92394	-91.39363
291868	10	2	3	0.179199	-0.006547041	-0.1267941	0	10.83	4003	0	0	5	5	0.02	0.026931	1	10	0.03	2000	5.078022	40.92394	-91.39363
292034	12	-1	6	0.1816528	-0.006967407	-0.1293005	0	10.77	4002	0	0	5	5	0.02	0.02294037	1	10	0.03	2000	5.279977	40.92394	-91.39363
292144	12	2	0	0.1728931	-0.01668229	-0.1285058	0	10.77	4003	0	0	5	5	0.02	0.02153269	1	10	0.03	2000	5.536135	40.92394	-91.39363
292262	9	0	-6	0.1776913	-0.01819595	-0.1286282	0	10.77	4003	0	0	5	5	0.02	0.0126732	1	10	0.03	2000	5.314036	40.92394	-91.39363
292370	11	4	2	0.1732711	-0.009844884	-0.1271607	0	10.77	4002	0	0	5	5	0.02	0.001032513	1	10	0.03	2000	5.294742	40.92395	-91.39363
292435	17	0	2	0.1717894	-0.01491935	-0.1269774	0	10.77	4004	0	0	5	5	0.02	-0.0131887	1	10	0.03	2000	5.073126	40.92395	-91.39363
292515	11	0	2	0.1732805	-0.0158148	-0.1282613	0	10.77	4003	0	0	5	5	0.02	-0.03118769	1	10	0.03	2000	5.296639	40.92395	-91.39363
292660	14	5	5	0.1731718	-0.01909704	-0.1267938	0	10.77	4003	0	0	5	5	0.02	-0.05360325	1	10	0.03	2000	5.298451	40.92395	-91.39363
292704	13	0	0	0.173331	-0.01693041	-0.1269162	0	10.77	4004	0	0	5	5	0.02	-0.05645025	1	10	0.03	2000	5.295803	40.92395	-91.39363
292805	15	1	-1	0.1746783	-0.01434723	-0.126977	0	10.77	4004	0	0	5	5	0.02	-0.07155588	1	10	0.03	2000	5.317432	40.92395	-91.39363
292940	12	-5	-1	0.1695944	-0.01148487	-0.1258157	0	10.77	4003	0	0	5	5	0.02	-0.07669345	1	10	0.03	2000	5.542736	40.92395	-91.39363
293048	8	0	0	0.1667178	-0.008277901	-0.125938	0	10.77	4004	0	0	5	5	0.02	-0.08023746	1	10	0.03	2000	5.299565	40.92395	-91.39363
293155	13	0	-1	0.1675361	-0.01026963	-0.1256324	0	10.77	4003	0	0	5	5	0.02	-0.07986084	1	10	0.03	2000	5.303237	40.92395	-91.39363
293215	14	5	0	0.1680851	-0.01178858	-0.1257543	0	10.77	4003	0	0	5	5	0.02	-0.07526484	1	10	0.03	2000	5.082247	40.92395	-91.39363
293343	7	0	4	0.1687201	-0.009712731	-0.123441	0	10.77	4003	0	0	5	5	0.02	-0.06760059	1	10	0.03	2000	5.321465	40.92395	-91.39363
293398	15	-2	-3	0.1659712	-0.01806027	-0.1242969	0	10.77	4003	0	0	5	5	0.02	-0.06536667	1	10	0.03	2000	5.322451	40.92395	-91.39363
293536	7	0	-2	0.1680857	-0.01659266	-0.1246026	0	10.77	4003	0	0	5	5	0.02	-0.05386603	1	10	0.03	2000	5.524639	40.92395	-91.39363
293645	13	-1	-5	0.1669443	-0.02136945	-0.123991	0	10.77	4004	0	0	5	5	0.02	-0.04708146	1	10	0.03	2000	5.081948	40.92395	-91.39363
293772	8	0	-4	0.1696642	-0.01398458	-0.1217901	0	10.77	4004	0	0	5	5	0.02	-0.0430009	1	10	0.03	2000	5.081771	40.92395	-91.39363
293867	11	-1	-1	0.1703245	-0.01776996	-0.120017	0	10.83	4003	0	0	5	5	0.02	-0.04384112	1	10	0.03	2000	5.321775	40.92395	-91.39363
293934	15	6	0	0.1701155	-0.01743466	-0.1187944	0	10.83	4004	0	0	5	5	0.02	-0.04139172	1	10	0.03	2000	5.316842	40.92395	-91.39363
293999	15	-1	0	0.168358	-0.01928872	-0.1188555	0	10.83	4003	0	0	5	5	0.02	-0.03951581	1	10	0.03	2000	5.540233	40.92395	-91.39363
294099	16	2	2	0.1629881	-0.02017025	-0.1178774	0	10.83	4003	0	0	5	5	0.02	-0.04114717	1	10	0.03	2000	5.33203	40.92395	-91.39363
294274	11	4	0	0.1683388	-0.02337805	-0.1156148	0	10.83	4003	0	0	5	5	0.02	-0.05354771	1	10	0.03	2000	5.329297	40.92395	-91.39363
294358	11	-2	-2	0.163781	-0.01987145	-0.1146366	0	10.83	4004	0	0	5	5	0.02	-0.05288049	1	10	0.03	2000	5.323283	40.92395	-91.39363
294399	9	0	0	0.1675453	-0.01890202	-0.1146365	0	10.83	4002	0	0	5	5	0.02	-0.05121325	1	10	0.03	2000	5.308893	40.92395	-91.39363
294560	14	-4	2	0.1740234	-0.01942314	-0.1134745	0	10.83	4003	0	0	5	5	0.02	-0.05411395	1	10	0.03	2000	5.540761	40.92394	-91.39362
294610	14	2	0	0.1780858	-0.02145871	-0.1131077	0	10.83	4002	0	0	5	5	0.02	-0.0545833	1	10	0.03	2000	5.290642	40.92394	-91.39362
294737	10	2	0	0.1702101	-0.02128598	-0.1107846	0	10.83	4002	0	0	5	5	0.02	-0.05907948	1	10	0.03	2000	5.541001	40.92394	-91.39362
294948	14	2	4	0.1662103	-0.02765135	-0.1091949	0	10.89	4004	0	0	5	5	0.02	-0.04658876	1	10	0.03	2000	5.314366	40.92394	-91.39362
295081	9	2	2	0.1781433	-0.03433099	-0.1054043	0	10.89	4002	0	0	5	5	0.02	-0.04550501	1	10	0.03	2000	5.512132	40.92394	-91.39362
295162	20	-1	-1	0.1737217	-0.0408995	-0.1044262	0	10.89	4004	0	0	5	5	0.02	-0.04713542	1	10	0.03	2000	5.294867	40.92394	-91.39362
295232	14	0	0	0.1760682	-0.03691898	-0.1021641	0	10.89	4003	0	0	5	5	0.02	-0.05229702	1	10	0.03	2000	5.539103	40.92394	-91.39362
295332	13	0	2	0.1793567	-0.03423827	-0.101675	0	10.89	4003	0	0	5	5	0.02	-0.06324333	1	10	0.03	2000	5.536273	40.92394	-91.39362
295442	9	3	0	0.1814054	-0.03875512	-0.1015528	0	10.89	4003	0	0	5	5	0.02	-0.07625222	1	10	0.03	2000	5.305091	40.92394	-91.39362
295493	12	1	-2	0.1788165	-0.03759622	-0.1006968	0	10.89	4003	0	0	5	5	0.02	-0.07740919	1	10	0.03	2000	5.486825	40.92394	-91.39362
295679	6	1	1	0.1764074	-0.04315139	-0.09849572	0	10.83	4004	0	0	5	5	0.02	-0.07054918	1	10	0.03	2000	5.305996	40.92394	-91.39362
295756	14	-3	-1	0.1727864	-0.04247962	-0.09818984	0	10.83	4003	0	0	5	5	0.02	-0.06791415	1	10	0.03	2000	5.562164	40.92394	-91.39362
295798	19	0	-3	0.1731773	-0.04852393	-0.09739502	0	10.83	4006	0	0	5	5	0.02	-0.06880105	1	10	0.03	2000	5.319096	40.92394	-91.39362
295869	10	-4	-1	0.1753648	-0.04785525	-0.09763965	0	10.83	4004	0	0	5	5	0.02	-0.06752223	1	10	0.03	2000	5.314281	40.92394	-91.39362
295985	15	1	2	0.1828085	-0.0396346	-0.09543896	0	10.83	4003	0	0	5	5	0.02	-0.06671672	1	10	0.03	2000	5.304087	40.92394	-91.39362
296080	11	1	-1	0.1801983	-0.04037766	-0.09458309	0	10.83	4003	0	0	5	5	0.02	-0.07202026	1	10	0.03	2000	5.309035	40.92394	-91.39362
296176	13	-3	2	0.1795163	-0.03945319	-0.09360476	0	10.83	4004	0	0	5	5	0.02	-0.07849214	1	10	0.03	2000	5.287335	40.92394	-91.39362
296306	14	-10	0	0.1839209	-0.03988017	-0.09060899	0	10.83	4004	0	0	5	5	0.02	-0.08685581	1	10	0.03	2000	5.281883	40.92394	-91.39362
296489	17	-2	2	0.1888225	-0.0370128	-0.08865274	0	10.83	4004	0	0	5	5	0.02	-0.09004953	1	10	0.03	2000	5.271545	40.92394	-91.39362
296632	14	0	0	0.1883936	-0.04217054	-0.08596256	0	10.77	4009	0	0	5	5	0.02	-0.07600954	1	10	0.03	2000	5.032264	40.92394	-91.39362
296703	13	0	0	0.1952537	-0.03964274	-0.08455625	0	10.77	4004	0	0	5	5	0.02	-0.07107428	1	10	0.03	2000	5.263595	40.92394	-91.39362
296829	12	-2	1	0.1962804	-0.04084566	-0.07966484	0	10.77	4002	0	0	5	5	0.02	-0.06929	1	10	0.03	2000	5.508991	40.92394	-91.39362
296904	17	5	-3	0.196062	-0.03777098	-0.0798482	0	10.77	4003	0	0	5	5	0.02	-0.06540879	1	10	0.03	2000	5.278604	40.92394	-91.39362
296969	14	2	-2	0.1983703	-0.03960885	-0.07599656	0	10.77	4004	0	0	5	5	0.02	-0.05950496	1	10	0.03	2000	5.260027	40.92394	-91.39362
297059	15	-5	3	0.1994539	-0.03612278	-0.07312305	0	10.77	4004	0	0	5	5	0.02	-0.05475352	1	10	0.03	2000	5.275138	40.92394	-91.39362
297096	14	2	4	0.2016661	-0.03605776	-0.0730008	0	10.77	4004	0	0	5	5	0.02	-0.05251303	1	10	0.03	2000	5.275138	40.92394	-91.39362
297292	15	-3	0	0.214976	-0.02885639	-0.0698214	0	10.77	4003	0	0	5	5	0.02	-0.04165276	1	10	0.03	2000	5.255669	40.92394	-91.39362
297356	17	0	0	0.2166918	-0.02398841	-0.06945457	0	10.77	4003	0	0	5	5	0.02	-0.0419731	1	10	0.03	2000	5.255669	40.92394	-91.39362
297452	15	-1	-4	0.2259906	-0.03042226	-0.06658151	0	10.89	4002	0	0	5	5	0.02	-0.04454187	1	10	0.03	2000	5.231918	40.92394	-91.39362
297599	16	0	-4	0.2334089	-0.03419848	-0.06217927	0	10.89	4003	0	0	5	5	0.02	-0.05338572	1	10	0.03	2000	5.223958	40.92394	-91.39362
297685	11	-2	-1	0.2380166	-0.03426575	-0.05961124	0	10.89	4004	0	0	5	5	0.02	-0.0580679	1	10	0.03	2000	4.988301	40.92394	-91.39362
297775	26	-1	-5	0.2353767	-0.03377507	-0.05582068	0	10.89	4003	0	0	5	5	0.02	-0.05778654	1	10	0.03	2000	5.212492	40.92394	-91.39362
297886	22	-3	-3	0.2356167	-0.04325103	-0.05184708	0	10.89	4003	0	0	5	5	0.02	-0.04888863	1	10	0.03	2000	5.436971	40.92394	-91.39362
297998	15	0	-6	0.2322179	-0.03725768	-0.04872848	0	10.89	4003	0	0	5	5	0.02	-0.04111476	1	10	0.03	2000	5.44273	40.92394	-91.39362
298153	17	2	0	0.2419233	-0.04095429	-0.04695497	0	10.89	4002	0	0	5	5	0.02	-0.03356681	1	10	0.03	2000	5.188157	40.92394	-91.39362
298349	21	4	-4	0.238161	-0.03499329	-0.04102466	0	10.83	4003	0	0	5	5	0.02	-0.02772905	1	10	0.03	2000	5.208677	40.92394	-91.39362
298381	21	4	-4	0.238161	-0.03499329	-0.04102466	0	10.83	4003	0	0	5	5	0.02	-0.02807619	1	10	0.03	2000	5.208677	40.92394	-91.39362
298492	20	2	-2	0.2375273	-0.03058079	-0.04090245	0	10.83	4002	0	0	5	5	0.02	-0.04105039	1	10	0.03	2000	5.434899	40.92394	-91.39362
298611	27	-6	-5	0.2394211	-0.04297852	-0.03851805	0	10.83	4002	0	0	5	5	0.02	-0.05027207	1	10	0.03	2000	5.199164	40.92394	-91.39362
298663	17	-1	-4	0.2458101	-0.03763263	-0.0363779	0	10.83	4003	0	0	5	5	0.02	-0.05132127	1	10	0.03	2000	5.201978	40.92394	-91.39362
298759	19	-6	-3	0.2460191	-0.03488439	-0.03362657	0	10.83	4004	0	0	5	5	0.02	-0.05038789	1	10	0.03	2000	5.177991	40.92394	-91.39362
298902	23	-3	2	0.2552953	-0.03118752	-0.03081395	0	10.83	4002	0	0	5	5	0.02	-0.05180959	1	10	0.03	2000	5.143715	40.92394	-91.39362
299002	20	0	0	0.2602396	-0.03716351	-0.02787914	0	10.83	4002	0	0	5	5	0.02	-0.04003996	1	10	0.03	2000	5.175297	40.92394	-91.39362
299072	21	-5	-2	0.2613338	-0.03962061	-0.02537214	0	10.83	4002	0	0	5	5	0.02	-0.03327749	1	10	0.03	2000	5.176189	40.92394	-91.39362
299153	22	0	0	0.2588287	-0.04392555	-0.02580014	0	10.83	4003	0	0	5	5	0.02	-0.03045334	1	10	0.03	2000	4.947154	40.92394	-91.39362
299318	20	3	0	0.2677334	-0.04147585	-0.02286519	0	10.83	4003	0	0	5	5	0.02	-0.0268893	1	10	0.03	2000	4.941329	40.92394	-91.39362
299449	13	-2	-2	0.2753776	-0.0471778	-0.02060287	0	10.83	4009	0	0	5	5	0.02	-0.03449356	1	10	0.03	2000	5.149382	40.92394	-91.39362
299502	19	2	-2	0.2739735	-0.04760816	-0.01919666	0	10.83	4002	0	0	5	5	0.02	-0.04017229	1	10	0.03	2000	5.149382	40.92394	-91.39362
299634	23	-2	1	0.2794236	-0.03980394	-0.01577294	0	10.83	4003	0	0	5	5	0.02	-0.05116295	1	10	0.03	2000	4.899712	40.92394	-91.39362
299684	20	-6	-2	0.2804502	-0.03929693	-0.01552834	0	10.83	4003	0	0	5	5	0.02	-0.05594292	1	10	0.03	2000	4.899712	40.92394	-91.39362
299745	26	-4	5	0.2825944	-0.03813615	-0.01369411	0	10.83	4002	0	0	5	5	0.02	-0.06023385	1	10	0.03	2000	5.363779	40.92394	-91.39362
299838	24	-3	-1	0.2800657	-0.03939704	-0.0115545	0	10.83	4004	0	0	5	5	0.02	-0.06234077	1	10	0.03	2000	5.341647	40.92394	-91.39362
299941	23	0	-1	0.2876754	-0.04392048	-0.008986502	0	10.83	4004	0	0	5	5	0.02	-0.04650304	1	10	0.03	2000	5.357111	40.92394	-91.39362
300043	22	-4	-6	0.291092	-0.03789854	-0.00635731	0	10.83	4003	0	0	5	5	0.02	-0.04380114	1	10	0.03	2000	5.130971	40.92394	-91.39362
300195	17	-6	-1	0.2980468	-0.03552262	-0.004767661	0	10.83	4003	0	0	5	5	0.02	-0.0347342	3	10	0.03	2000	5.310117	40.92394	-91.39362
300310	24	3	1	0.3000974	-0.03541525	-0.00244412	0	10.83	4003	0	0	5	5	0.02	-0.02638105	3	10	0.03	2000	5.108997	40.92394	-91.39362
300378	22	4	-8	0.3041318	-0.03746235	-0.001160318	0	10.83	4003	0	0	5	5	0.02	-0.02153493	3	10	0.03	2000	5.088647	40.92394	-91.39362
300509	21	2	0	0.3047208	-0.03640955	0.0004294067	0	10.83	4003	0	0	5	5	0.02	-0.01116173	3	10	0.03	2000	5.095566	40.92394	-91.39362
300536	23	-3	0	0.3047314	-0.03650998	0.001529773	0	10.83	4002	0	0	5	5	0.02	-0.008502787	3	10	0.03	2000	4.878745	40.92394	-91.39362
300651	23	-6	1	0.3073438	-0.03539422	0.002569071	0	10.83	4003	0	0	5	5	0.02	0.0003148389	3	10	0.03	2000	5.322878	40.92394	-91.39362
300719	24	1	0	0.3118207	-0.03901414	0.003547453	0	10.83	4004	0	0	5	5	0.02	0.01507516	3	10	0.03	2000	5.072401	40.92394	-91.39362
300866	26	-4	-4	0.3097203	-0.03713996	0.006604324	0	10.83	4003	0	0	5	5	0.02	0.02217664	3	10	0.03	2000	5.092708	40.92394	-91.39362
300970	23	8	1	0.309761	-0.04370345	0.00843898	0	10.83	4003	0	0	5	5	0.02	0.023909	3	10	0.03	2000	5.092708	40.92394	-91.39362
301075	28	-1	2	0.3145937	-0.04163526	0.01119011	0	10.83	4004	0	0	5	5	0.02	0.02325509	3	10	0.03	2000	5.092623	40.92394	-91.39362
301108	27	0	-1	0.315188	-0.04867697	0.01253487	0	10.83	4002	0	0	5	5	0.02	0.01336819	3	10	0.03	2000	5.307134	40.92394	-91.39362
301170	22	-5	3	0.320191	-0.04897049	0.01638657	0	10.83	4003	0	0	5	5	0.02	0.01073896	3	10	0.03	2000	5.079646	40.92394	-91.39362
301240	26	-2	-4	0.3201346	-0.0481922	0.01779304	0	10.83	4002	0	0	5	5	0.02	-0.003660167	3	10	0.03	2000	5.059047	40.92394	-91.39362
301373	29	-1	-2	0.3248088	-0.05315245	0.02103379	0	10.83	4004	0	0	5	5	0.02	-0.01971294	3	10	0.03	2000	4.829801	40.92394	-91.39362
301450	23	0	-2	0.321056	-0.05153141	0.02164478	0	10.83	4004	0	0	5	5	0.02	-0.02912471	3	10	0.03	2000	5.048321	40.92394	-91.39362
301550	20	-3	0	0.328463	-0.0476616	0.02354	0	10.83	4003	0	0	5	5	0.02	-0.03313653	3	10	0.03	2000	5.072075	40.92394	-91.39362
301673	24	-1	-4	0.3243211	-0.04260611	0.02916538	0	10.83	4004	0	0	5	5	0.02	-0.04115031	3	10	0.03	2000	5.059166	40.92394	-91.39362
301771	29	0	-3	0.3234322	-0.03991663	0.03240583	0	10.83	4003	0	0	5	5	0.02	-0.04628561	3	10	0.03	2000	4.842945	40.92394	-91.39362
301852	24	-6	0	0.3288217	-0.04593328	0.0376636	0	10.83	4003	0	0	5	5	0.02	-0.0468121	3	10	0.03	2000	5.288012	40.92394	-91.39362
301975	26	-2	0	0.3278651	-0.04296124	0.04041473	0	10.83	4004	0	0	5	5	0.02	-0.05677377	3	10	0.03	2000	5.064898	40.92394	-91.39362
302087	24	-2	-3	0.3306143	-0.04548799	0.04432771	0	10.83	4003	0	0	5	5	0.02	-0.05939505	3	10	0.03	2000	5.061399	40.92394	-91.39362
302180	28	-2	2	0.3312894	-0.04070475	0.04634513	0	10.83	4004	0	0	5	5	0.02	-0.06769057	3	10	0.03	2000	5.260104	40.92394	-91.39362
302231	28	-1	-6	0.3299486	-0.03901849	0.04726214	0	10.83	4003	0	0	5	5	0.02	-0.07049575	3	10	0.03	2000	5.260104	40.92394	-91.39362
302350	23	-1	-1	0.3347828	-0.04016726	0.05178593	0	10.83	4003	0	0	5	5	0.02	-0.07460843	3	10	0.03	2000	5.504708	40.92394	-91.39362
302494	19	5	1	0.3318195	-0.03261758	0.05612677	0	10.83	4003	0	0	5	5	0.02	-0.0808304	3	10	0.03	2000	5.033919	40.92394	-91.39362
302588	24	2	-7	0.3340715	-0.03586619	0.05936738	0	10.83	4003	0	0	5	5	0.02	-0.08253324	3	10	0.03	2000	5.253374	40.92394	-91.39362
302653	25	1	-1	0.3405924	-0.0382118	0.06291339	0	10.83	4004	0	0	5	5	0.02	-0.08653281	3	10	0.03	2000	5.020145	40.92394	-91.39362
302741	25	-6	-3	0.3405613	-0.03732156	0.0646864	0	10.77	4002	0	0	5	5	0.02	-0.09346306	3	10	0.03	2000	5.020145	40.92394	-91.39362
302853	27	-2	0	0.3442779	-0.03581043	0.06694859	0	10.77	4002	0	0	5	5	0.02	-0.1040105	3	10	0.03	2000	5.241832	40.92394	-91.39362
302935	28	0	-3	0.3428445	-0.03276038	0.06823232	0	10.77	4003	0	0	5	5	0.02	-0.1045055	3	10	0.03	2000	5.035256	40.92394	-91.39362
303087	21	1	0	0.3486399	-0.0372957	0.07514156	0	10.77	4003	0	0	5	5	0.02	-0.1031908	3	10	0.03	2000	5.03099	40.92394	-91.39362
303223	34	-6	0	0.3543754	-0.03754739	0.07838202	0	10.77	4003	0	0	5	5	0.02	-0.1053456	3	10	0.03	2000	5.230185	40.92394	-91.39362
303277	26	-1	1	0.3541256	-0.04159142	0.08107218	0	10.77	4002	0	0	5	5	0.02	-0.1071949	3	10	0.03	2000	5.01973	40.92394	-91.39362
303376	31	-3	0	0.3521772	-0.04468583	0.08302868	0	10.77	4004	0	0	5	5	0.02	-0.1065769	3	10	0.03	2000	5.025807	40.92394	-91.39362
303429	33	-1	4	0.3526528	-0.04370417	0.08394589	0	10.77	4004	0	0	5	5	0.02	-0.1081257	3	10	0.03	2000	5.025807	40.92394	-91.39362
303526	23	-1	-2	0.3550088	-0.04324346	0.08798107	0	10.77	4003	0	0	5	5	0.02	-0.1148159	3	10	0.03	2000	4.996008	40.92394	-91.39362
303626	32	2	-1	0.3546548	-0.0479492	0.08902068	0	10.77	4003	0	0	5	5	0.02	-0.1183234	3	10	0.03	2000	5.241253	40.92394	-91.39362
303729	23	1	0	0.3540902	-0.05180726	0.09323951	0	10.89	4004	0	0	5	5	0.02	-0.116403	3	10	0.03	2000	5.015478	40.92394	-91.39362
303830	29	0	-4	0.3516912	-0.05463312	0.09470757	0	10.89	4004	0	0	5	5	0.02	-0.1047459	3	10	0.03	2000	5.226554	40.92394	-91.39362
303959	32	0	-4	0.35062	-0.04605643	0.09904837	0	10.89	4004	0	0	5	5	0.02	-0.09352338	3	10	0.03	2000	5.004179	40.92394	-91.39362
304046	27	0	0	0.3551876	-0.04372891	0.1010046	0	10.89	4003	0	0	5	5	0.02	-0.07407495	3	10	0.03	2000	5.263716	40.92394	-91.39362
304142	29	0	-6	0.3558046	-0.04302942	0.1028997	0	10.89	4003	0	0	5	5	0.02	-0.05892003	3	10	0.03	2000	5.219479	40.92394	-91.39362
304246	27	1	-4	0.3569879	-0.04512123	0.1061408	0	10.89	4002	0	0	5	5	0.02	-0.03186507	3	10	0.03	2000	5.262824	40.92394	-91.39362
304399	29	2	-3	0.355319	-0.05016062	0.111276	0	10.89	4003	0	0	5	5	0.02	-0.01764704	3	10	0.03	2000	5.230759	40.92394	-91.39362
304489	23	3	-5	0.3620567	-0.05236888	0.1131715	0	10.89	4004	0	0	5	5	0.02	-0.01055059	3	10	0.03	2000	4.996863	40.92394	-91.39362
304590	25	0	-1	0.3639103	-0.05221011	0.1141496	0	10.77	4002	0	0	5	5	0.02	-0.008987186	3	10	0.03	2000	5.004696	40.92394	-91.39362
304635	33	0	-6	0.3701529	-0.05462957	0.117084	0	10.77	4003	0	0	5	5	0.02	-0.008933041	3	10	0.03	2000	4.980323	40.92394	-91.39362
304758	31	-7	-8	0.3732832	-0.05732352	0.1228308	0	10.77	4003	0	0	5	5	0.02	-0.008202471	3	10	0.03	2000	4.991728	40.92394	-91.39362
304826	29	1	0	0.3770618	-0.05675318	0.1244204	0	10.77	4002	0	0	5	5	0.02	-0.007118266	3	10	0.03	2000	4.996788	40.92394	-91.39362
304962	34	4	0	0.3786065	-0.05644115	0.1285164	0	10.77	4004	0	0	5	5	0.02	0.004739227	3	10	0.03	2000	4.985066	40.92394	-91.39362
305039	31	4	0	0.3780813	-0.05687595	0.1285779	0	10.77	4002	0	0	5	5	0.02	0.0130675	3	10	0.03	2000	4.762625	40.92394	-91.39362
305154	4	-6	-36	0.3677978	-0.05060859	0.1332849	0	10.77	4004	0	0	5	5	0.02	0.0352505	3	10	0.03	2000	4.76872	40.92394	-91.39362
305221	46	37	27	0.3768568	-0.07700709	0.1401923	0	10.77	4003	0	0	5	5	0.02	0.03749963	3	10	0.03	2000	4.76872	40.92394	-91.39362
305360	3	-31	36	0.4038172	-0.1068902	0.1387286	0	10.77	4003	0	0	5	5	0.02	0.04478786	3	10	0.03	2000	5.365973	40.92394	-91.39362
305420	35	1	90	0.412435	-0.1050021	0.1377455	0	10.77	4006	0	0	5	5	0.02	0.04753038	3	10	0.03	2000	4.453971	40.92394	-91.39362
305558	-106	-22	-2	0.310406	0.0304296	0.1261883	0	10.83	4003	0	0	5	5	0.02	0.04468177	3	10	0.03	2000	5.434775	40.92394	-91.39362
305696	-61	-36	50	0.231068	0.09074517	0.1168929	0	10.83	4003	0	0	5	5	0.02	0.05664795	3	10	0.03	2000	5.650565	40.92394	-91.39362
305756	103	73	-11	0.2154688	0.0726801	0.1129357	0	10.83	4003	0	0	5	5	0.02	0.05945636	3	10	0.03	2000	4.567625	40.92394	-91.39362
305885	141	140	4	0.2046828	0.04972874	0.1182688	0	10.83	4002	0	0	5	5	0.02	0.06620635	3	10	0.03	2000	5.321542	40.92394	-91.39362
305983	190	170	-95	0.2231145	0.02007777	0.1042077	0	10.83	4003	0	0	5	5	0.02	0.06535195	3	10	0.03	2000	4.919268	40.92394	-91.39362
306037	121	184	-19	0.1932874	-0.05352933	0.103348	0	10.83	4003	0	0	5	5	0.02	0.06726763	3	10	0.03	2000	5.045018	40.92394	-91.39362
306141	154	66	250	0.0918211	-0.1066082	0.1031979	0	10.83	4004	0	0	5	5	0.02	0.06765139	3	10	0.03	2000	5.917614	40.92394	-91.39362
306261	-38	38	-65	0.2044118	-0.13052	0.1118282	0	10.83	4002	0	0	5	5	0.02	0.07742736	3	10	0.03	2000	5.169216	40.92394	-91.39362
306331	-19	91	-41	0.1655176	-0.2073948	0.11451	0	10.83	4002	0	0	5	5	0.02	0.07859233	3	10	0.03	2000	5.248958	40.92394	-91.39362
306499	26	-86	-69	0.1652968	-0.04974429	0.1145741	0	10.66	4003	0	0	5	5	0.02	0.1074194	3	10	0.03	2000	4.973364	40.92394	-91.39362
306620	-59	-55	341	0.265108	-0.07368392	0.095384	0	10.66	4003	0	0	5	5	0.02	0.1248374	3	10	0.03	2000	4.875165	40.92394	-91.39362
306693	101	196	129	0.2365362	-0.0753594	0.1005585	0	10.66	4004	0	0	5	5	0.02	0.1289546	3	10	0.03	2000	5.640749	40.92394	-91.39362
306806	-85	-52	-60	0.2600424	-0.06210201	0.1053183	0	10.66	4003	0	0	5	5	0.02	0.1429471	3	10	0.03	2000	4.98346	40.92394	-91.39362
306850	130	128	-50	0.2745554	-0.002469658	0.1026972	0	10.66	4004	0	0	5	5	0.02	0.14606	3	10	0.03	2000	4.98346	40.92394	-91.39362
307053	-197	-113	95	0.2310503	-0.07514464	0.111686	0	10.66	4004	0	0	5	5	0.02777678	0.1617297	6	10	0.03	2000	5.01585	40.92394	-91.39362
307202	18	133	96	-0.000434378	-0.1956349	0.093606	0	10.66	4003	0	0	5	5	0.03391472	0.1695949	6	10	0.03	2000	5.082905	40.92394	-91.39362
307373	-129	-170	338	-0.2978044	-0.272441	0.07508969	0	10.32	4004	0	0	5	5	0.03611603	0.1841692	6	10	0.03	2000	5.963758	40.92394	-91.39362
307440	-138	-4	141	-0.3162892	-0.2171696	0.08877549	0	10.32	4002	0	0	5	5	0.03753057	0.1881054	6	10	0.03	2000	5.014894	40.92394	-91.39362
