time(ms)	gyro_x(deg/s)	gyro_y(deg/s)	gyro_z(deg/s)	orientation_roll(deg)	orientation_pitch(deg)	orientation_yaw(deg)	throttle	battery(V)	loop_time(uS)	pid_output_roll	pid_output_pitch	pid_output_yaw	pid_output_throttle	ultrasonic_alt	baro_alt	flight_mode	p_gain_altitude	i_gain_altitude	d_gain_altitude	compass_heading	latitude	longitude
184540	2225	-5021	-5267	-17.00315	-34.1167	-114.7678	0	11	4002	0	0	5	5	0.02	0.06141919	3	10	0.03	2000	-13.45056	40.92388	-91.39363
184634	-594	-4328	-2798	-21.91248	-24.70795	-108.8911	0	11	4004	0	0	5	5	0.02	0.1130651	3	10	0.03	2000	-18.97586	40.92388	-91.39363
184738	-2451	-2678	-9119	-32.28034	-17.13591	-99.56905	0	11.06	4003	0	0	5	5	0.02	0.1864266	3	10	0.03	2000	-17.70337	40.92388	-91.39363
184932	8343	2242	-4223	-34.03503	-8.519288	-70.85952	0	11.06	4002	0	0	5	5	0.02	0.2504779	3	10	0.03	2000	-38.78781	40.92389	-91.39363
185013	3128	1513	-6492	-24.83873	-13.93177	-63.18325	0	11.06	4003	0	0	5	5	0.02	0.2689964	3	10	0.03	2000	-50.98798	40.92389	-91.39363
185128	-5763	5805	320	-35.0899	-19.06839	-57.31099	0	11.06	4004	0	0	5	5	0.02	0.2777517	3	10	0.03	2000	-64.10233	40.92389	-91.39363
185144	-5763	5805	320	-35.0899	-19.06839	-57.31099	0	11.06	4004	0	0	5	5	0.02	0.2815146	3	10	0.03	2000	-64.10233	40.92389	-91.39363
185290	-6634	2746	4706	-54.87767	-33.21982	-62.52548	0	11.06	4004	0	0	5	5	0.02	0.2935914	3	10	0.03	2000	-74.40451	40.9239	-91.39363
185344	-6511	1713	6267	-57.56062	-36.52943	-65.57153	0	11.06	4004	0	0	5	5	0.02	0.3001924	3	10	0.03	2000	-76.47174	40.9239	-91.39363
185490	-176	4249	14950	-48.47492	-59.20096	-89.14959	0	11.06	4002	0	0	5	5	0.02	0.302923	3	10	0.03	2000	-62.64484	40.9239	-91.39363
185605	-6754	-7523	2650	-25.76154	-70.229	-117.7668	0	11.06	4002	0	0	5	5	0.02	0.2979994	3	10	0.03	2000	-39.89111	40.9239	-91.39362
185713	-6881	-1368	-12497	-48.80175	-47.3688	-106.335	0	11	4002	0	0	5	5	0.02	0.2877956	3	10	0.03	2000	-17.49219	40.9239	-91.39362
185760	-8776	4893	-13025	-58.15857	-42.02586	-99.22639	0	11	4003	0	0	5	5	0.02	0.2850576	3	10	0.03	2000	-17.49219	40.9239	-91.39362
185870	-4706	1488	-7782	-82.22585	-21.33565	-75.65189	0	11	4004	0	0	5	5	0.02	0.2902078	3	10	0.03	2000	-38.43451	40.92391	-91.39362
185987	726	725	-2093	-79.30663	-15.32097	-65.33855	0	11	4003	0	0	5	5	0.02	0.2908999	3	10	0.03	2000	-49.96286	40.92391	-91.39362
186067	-5963	-1266	-2896	-77.20853	-11.69946	-61.5577	0	11	4002	0	0	5	5	0.02	0.2938617	3	10	0.03	2000	-56.83508	40.92391	-91.39362
186136	-7509	-3557	-2453	-79.04743	-8.749484	-60.00397	0	11	4002	0	0	5	5	0.02	0.3019726	3	10	0.03	2000	-56.83508	40.92391	-91.39362
186263	4518	-2387	1519	-73.26249	-10.25442	-62.15472	0	11	4003	0	0	5	5	0.02	0.3180274	3	10	0.03	2000	-52.52991	40.92392	-91.39362
186339	1061	-909	1807	-65.95493	-11.78137	-64.9124	0	11	4004	0	0	5	5	0.02	0.326343	3	10	0.03	2000	-53.46838	40.92392	-91.39362
186469	9254	1670	3007	-54.62852	-10.79964	-65.27559	0	11	4002	0	0	5	5	0.02	0.3283762	3	10	0.03	2000	-49.42856	40.92392	-91.39362
186536	-296	-286	2789	-47.47582	-16.74393	-69.28082	0	11.06	4002	0	0	5	5	0.02	0.3271891	3	10	0.03	2000	-47.6561	40.92392	-91.39362
186670	-5366	-5963	-4560	-56.48002	-8.010235	-66.55382	0	11.06	4004	0	0	5	5	0.02	0.317119	3	10	0.03	2000	-43.07544	40.92392	-91.39362
186796	3461	5110	3089	-48.27735	-10.63695	-67.19017	0	11.06	4004	0	0	5	5	0.02	0.3130655	1	10	0.03	2000	-39.98309	40.92392	-91.39362
186846	111	1337	643	-44.88443	-17.96545	-69.27028	0	11.06	4002	0	0	5	5	0.02	0.3130631	1	10	0.03	2000	-41.32413	40.92392	-91.39362
186986	7257	-162	-937	-40.21048	-18.0288	-68.12077	0	11.06	4003	0	0	5	5	0.02	0.308686	1	10	0.03	2000	-43.66614	40.92393	-91.39362
187048	10673	1623	-1273	-35.48239	-18.5628	-67.43414	0	11.06	4002	0	0	5	5	0.02	0.3069604	1	10	0.03	2000	-43.93588	40.92393	-91.39362
187168	-1004	5936	2522	-22.83998	-27.25185	-65.97419	0	11.06	4003	0	0	5	5	0.02	0.3042622	1	10	0.03	2000	-47.09363	40.92393	-91.39362
187239	-5062	10835	7194	-25.88287	-38.34518	-71.44276	0	11.06	4004	0	0	5	5	0.02	0.3065074	1	10	0.03	2000	-47.63397	40.92393	-91.39362
187414	-2502	-4371	6283	-23.64989	-56.28927	-90.92253	0	11.06	4003	0	0	5	5	0.02	0.2964939	1	10	0.03	2000	-43.11862	40.92393	-91.39362
187531	4115	-991	4284	-18.15629	-52.80357	-99.9518	0	11.06	4003	0	0	5	5	0.02	0.2911138	1	10	0.03	2000	-24.01428	40.92393	-91.39362
187590	7453	1696	2152	-7.533576	-53.21084	-104.4021	0	11.06	4002	0	0	5	5	0.02	0.2900873	1	10	0.03	2000	-17.56055	40.92393	-91.39362
187712	7505	2048	-3056	-3.496701	-55.89994	-100.6256	0	11.06	4003	0	0	5	5	0.02	0.2799033	1	10	0.03	2000	-20.13385	40.92393	-91.39362
187800	3466	-1403	-2306	-1.933453	-52.47556	-98.63909	0	11.06	4003	0	0	5	5	0.02	0.2743446	1	10	0.03	2000	-23.55359	40.92393	-91.39362
187839	1711	-353	-2298	-4.158425	-51.30171	-97.30594	0	11.06	4002	0	0	5	5	0.02	0.2729237	1	10	0.03	2000	-27.72052	40.92393	-91.39362
187972	4429	-5237	-2316	-9.601301	-40.45795	-92.37523	0	11.06	4004	0	0	5	5	0.02	0.2560337	1	10	0.03	2000	-34.71765	40.92393	-91.39362
188113	2478	-945	-5079	-13.14864	-32.93753	-84.28181	0	11.06	4002	0	0	5	5	0.02	0.2495858	1	10	0.03	2000	-37.0704	40.92394	-91.39362
188232	3355	413	-5146	-19.14844	-28.95973	-72.77328	0	11.06	4003	0	0	5	5	0.02	0.2456936	1	10	0.03	2000	-48.72266	40.92394	-91.39362
188291	5792	-1572	-2726	-19.11353	-27.74367	-68.81722	0	11.06	4002	0	0	5	5	0.02	0.2452864	1	10	0.03	2000	-56.38974	40.92394	-91.39362
188372	5792	-2282	-300	-16.4476	-25.51864	-67.356	0	11.06	4002	0	0	5	5	0.02	0.241309	1	10	0.03	2000	-59.51041	40.92394	-91.39362
188443	3608	-2730	232	-13.30373	-21.50467	-67.19113	0	11.06	4003	0	0	5	5	0.02	0.2386217	1	10	0.03	2000	-58.15988	40.92395	-91.39362
188551	3616	63	3414	-10.85727	-20.5213	-69.05935	0	11.06	4003	0	0	5	5	0.02	0.2385201	1	10	0.03	2000	-57.50848	40.92395	-91.39362
188670	6279	-67	2178	-5.147216	-22.6495	-73.59123	0	11.06	4004	0	0	5	5	0.02	0.2281869	1	10	0.03	2000	-53.49066	40.92395	-91.39362
188739	2937	-1393	3787	0.4697376	-21.69851	-78.26553	0	11.06	4008	0	0	5	5	0.02	0.2216905	1	10	0.03	2000	-41.59686	40.92395	-91.39362
188858	3385	-3451	1120	1.093552	-15.88304	-83.32497	0	11.06	4002	0	0	5	5	0.02	0.1959922	1	10	0.03	2000	-34.66626	40.92395	-91.39362
188949	3733	-833	-280	3.950148	-14.14176	-83.28241	0	11.06	4003	0	0	5	5	0.02	0.1713428	1	10	0.03	2000	-29.51666	40.92395	-91.39362
189069	1012	-3058	-1963	4.015222	-8.518416	-80.60086	0	11.06	4003	0	0	5	5	0.02	0.1415488	1	10	0.03	2000	-26.66431	40.92395	-91.39362
189161	2841	-803	-647	4.356874	-5.062778	-79.12175	0	11.06	4003	0	0	5	5	0.02	0.1271293	1	10	0.03	2000	-25.46353	40.92395	-91.39362
189342	-735	-2822	310	9.591009	-3.365266	-82.67444	0	11.11	4003	0	0	5	5	0.02	0.08929296	1	10	0.03	2000	-14.98798	40.92395	-91.39362
189448	-451	-1281	210	7.563648	-2.593352	-79.39275	0	11.11	4004	0	0	5	5	0.02	0.07498255	1	10	0.03	2000	-14.08746	40.92395	-91.39362
189521	186	468	251	7.109858	-2.466862	-79.44254	0	11.11	4004	0	0	5	5	0.02	0.06349023	1	10	0.03	2000	-11.70291	40.92395	-91.39362
189579	112	287	-159	6.11008	-1.73796	-79.4276	0	11.11	4003	0	0	5	5	0.02	0.05515885	1	10	0.03	2000	-10.81631	40.92395	-91.39362
189675	-297	-260	-21	5.368533	-1.636263	-79.41225	0	11.11	4004	0	0	5	5	0.02	0.04783378	1	10	0.03	2000	-9.503723	40.92395	-91.39362
189737	77	176	23	4.92786	-1.60627	-79.41611	0	11.11	4004	0	0	5	5	0.02	0.0411033	1	10	0.03	2000	-8.195068	40.92395	-91.39362
189876	25	104	0	3.75739	-1.166566	-79.42674	0	11.11	4003	0	0	5	5	0.02	0.02535291	1	10	0.03	2000	-6.367371	40.92395	-91.39362
189932	-3	84	12	3.621648	-1.164998	-79.43327	0	11.11	4003	0	0	5	5	0.02	0.01270752	1	10	0.03	2000	-5.28714	40.92395	-91.39362
190067	-4	59	8	2.931549	-0.934688	-79.44511	0	11.11	4002	0	0	5	5	0.02	-0.0004198151	1	10	0.03	2000	-3.907318	40.92395	-91.39362
190134	-88	-50	-10	2.792097	-0.9110529	-79.4503	0	11.11	4004	0	0	5	5	0.02	-0.0096264	1	10	0.03	2000	-3.907318	40.92395	-91.39362
190242	-66	-6	9	2.227512	-0.6988589	-79.46098	0	11.06	4003	0	0	5	5	0.02	-0.02424724	1	10	0.03	2000	-2.783203	40.92395	-91.39362
190340	-43	17	2	1.87825	-0.580206	-79.47301	0	11.06	4002	0	0	5	5	0.02	-0.03331166	1	10	0.03	2000	-1.810577	40.92395	-91.39362
190502	-46	3	4	1.378089	-0.4345909	-79.48796	0	11.06	4005	0	0	5	5	0.02	-0.05982889	1	10	0.03	2000	-1.011322	40.92395	-91.39362
190554	-50	-1	4	1.293048	-0.4050447	-79.49242	0	11.06	4002	0	0	5	5	0.02	-0.06757651	1	10	0.03	2000	-1.011322	40.92395	-91.39362
190667	-58	-2	6	0.9737067	-0.3045598	-79.50475	0	11.06	4003	0	0	5	5	0.02	-0.07175583	1	10	0.03	2000	-0.3507996	40.92395	-91.39362
190776	-53	3	7	0.7793432	-0.2333046	-79.51366	0	11.06	4003	0	0	5	5	0.02	-0.08447661	1	10	0.03	2000	-0.04733276	40.92395	-91.39362
190852	-54	1	10	0.663969	-0.1962878	-79.52055	0	11.06	4004	0	0	5	5	0.02	-0.09306826	1	10	0.03	2000	0.178782	40.92395	-91.39362
190966	-56	2	8	0.4727603	-0.131408	-79.53502	0	11.06	4004	0	0	5	5	0.02	-0.1014221	1	10	0.03	2000	0.5522476	40.92395	-91.39362
191048	-50	-1	8	0.3835286	-0.09666075	-79.5396	0	11.06	4003	0	0	5	5	0.02	-0.1084409	1	10	0.03	2000	0.9593319	40.92395	-91.39362
191152	-53	3	0	0.2316548	-0.04285249	-79.55156	0	11.06	4004	0	0	5	5	0.02	-0.1130823	1	10	0.03	2000	1.115666	40.92395	-91.39362
191309	-51	0	6	0.1072018	0.001395507	-79.56401	0	11.06	4002	0	0	5	5	0.02	-0.1115779	1	10	0.03	2000	1.371534	40.92395	-91.39362
191366	-53	7	6	0.07667299	0.01154272	-79.56676	0	11.06	4004	0	0	5	5	0.02	-0.1117459	1	10	0.03	2000	1.487625	40.92395	-91.39362
191455	-54	-2	11	-0.02477132	0.04436031	-79.57561	0	11.06	4004	0	0	5	5	0.02	-0.1108987	1	10	0.03	2000	1.443369	40.92395	-91.39362
191581	-57	1	9	-0.08577127	0.06553454	-79.58287	0	11.06	4003	0	0	5	5	0.02	-0.1057972	1	10	0.03	2000	1.528704	40.92395	-91.39362
191659	-48	-1	7	-0.1229835	0.08103313	-79.58775	0	11.06	4004	0	0	5	5	0.02	-0.1000643	1	10	0.03	2000	1.849342	40.92395	-91.39362
191795	-52	2	8	-0.2037295	0.1100256	-79.60252	0	11.06	4003	0	0	5	5	0.02	-0.08888528	1	10	0.03	2000	1.969469	40.92395	-91.39362
191875	-48	-3	2	-0.2354588	0.120216	-79.60869	0	11.06	4002	0	0	5	5	0.02	-0.08590055	1	10	0.03	2000	2.031621	40.92395	-91.39362
191978	-59	-3	0	-0.2906633	0.1335723	-79.62352	0	11.06	4003	0	0	5	5	0.02	-0.08541816	1	10	0.03	2000	2.137386	40.92396	-91.39362
192060	-48	2	11	-0.3064138	0.141751	-79.62852	0	11.06	4003	0	0	5	5	0.02	-0.08711958	1	10	0.03	2000	2.18634	40.92396	-91.39362
192164	-55	4	8	-0.3206271	0.1531183	-79.63268	0	11.06	4004	0	0	5	5	0.02	-0.08997064	1	10	0.03	2000	1.979643	40.92396	-91.39362
192279	-45	0	3	-0.3544095	0.1653846	-79.64336	0	11.06	4004	0	0	5	5	0.02	-0.09911554	1	10	0.03	2000	2.031155	40.92396	-91.39362
192434	-54	1	5	-0.3826611	0.1744959	-79.65306	0	11.06	4004	0	0	5	5	0.02	-0.1082136	1	10	0.03	2000	2.332741	40.92396	-91.39362
192493	-45	7	5	-0.3982024	0.1793876	-79.66057	0	11.06	4003	0	0	5	5	0.02	-0.1109634	1	10	0.03	2000	2.363301	40.92396	-91.39362
192601	-52	3	7	-0.4159794	0.1830037	-79.66734	0	11.06	4002	0	0	5	5	0.02	-0.1275923	1	10	0.03	2000	2.137092	40.92396	-91.39362
192702	-48	-4	4	-0.4283167	0.1857934	-79.67497	0	11.06	4003	0	0	5	5	0.02	-0.1384031	1	10	0.03	2000	2.420839	40.92396	-91.39362
192795	-46	0	1	-0.4500375	0.1911292	-79.68651	0	11.06	4004	0	0	5	5	0.02	-0.1416839	1	10	0.03	2000	2.444559	40.92396	-91.39362
192963	-53	3	7	-0.4551248	0.1966864	-79.69939	0	11.06	4002	0	0	5	5	0.02	-0.1422388	1	10	0.03	2000	2.473464	40.92396	-91.39362
193040	-48	4	7	-0.4616184	0.195412	-79.70573	0	11.11	4003	0	0	5	5	0.02	-0.1424552	1	10	0.03	2000	2.229444	40.92396	-91.39362
193146	-58	6	3	-0.4685601	0.2029269	-79.71123	0	11.11	4003	0	0	5	5	0.02	-0.1407612	1	10	0.03	2000	2.494696	40.92396	-91.39362
193198	-47	0	4	-0.4757689	0.2045756	-79.71849	0	11.11	4003	0	0	5	5	0.02	-0.1382871	1	10	0.03	2000	2.481239	40.92396	-91.39362
193285	-52	0	4	-0.4857788	0.2122642	-79.72514	0	11.11	4004	0	0	5	5	0.02	-0.1303991	1	10	0.03	2000	2.5246	40.92396	-91.39362
193381	-41	6	6	-0.4884624	0.2152512	-79.72972	0	11.11	4003	0	0	5	5	0.02	-0.1242383	1	10	0.03	2000	2.287231	40.92396	-91.39362
193538	-50	-1	8	-0.4988121	0.2182915	-79.74516	0	11.11	4003	0	0	5	5	0.02	-0.1181546	1	10	0.03	2000	2.302205	40.92396	-91.39362
193617	-49	0	4	-0.4985483	0.2197576	-79.74944	0	11.11	4004	0	0	5	5	0.02	-0.1190338	1	10	0.03	2000	2.063834	40.92396	-91.39362
193668	-47	-5	9	-0.502534	0.2191786	-79.7545	0	11.11	4003	0	0	5	5	0.02	-0.1196281	1	10	0.03	2000	2.55415	40.92396	-91.39362
193776	-48	0	8	-0.5016572	0.2174952	-79.76549	0	11.11	4003	0	0	5	5	0.02	-0.1245144	1	10	0.03	2000	2.549376	40.92396	-91.39362
193873	-47	4	6	-0.5049157	0.2159185	-79.77171	0	11.11	4004	0	0	5	5	0.02	-0.1247544	1	10	0.03	2000	2.311026	40.92396	-91.39362
194018	-43	0	10	-0.4950888	0.2099935	-79.78166	0	11.11	4004	0	0	5	5	0.02	-0.12581	1	10	0.03	2000	2.544334	40.92397	-91.39362
194105	-49	0	6	-0.4925291	0.2157917	-79.78539	0	11.11	4002	0	0	5	5	0.02	-0.1246011	1	10	0.03	2000	2.52826	40.92397	-91.39362
194170	-46	0	-2	-0.487465	0.2204955	-79.78856	0	11.11	4003	0	0	5	5	0.02	-0.1153123	1	10	0.03	2000	2.530302	40.92397	-91.39362
194273	-44	6	4	-0.4901271	0.2250639	-79.79472	0	11.11	4003	0	0	5	5	0.02	-0.1091854	1	10	0.03	2000	2.288021	40.92397	-91.39362
194403	-45	-7	2	-0.4875406	0.2289687	-79.80315	0	11.11	4003	0	0	5	5	0.02	-0.09313256	1	10	0.03	2000	2.523437	40.92397	-91.39362
194491	-48	0	3	-0.4922568	0.2361431	-79.8098	0	11.11	4003	0	0	5	5	0.02	-0.08507296	1	10	0.03	2000	2.529788	40.92397	-91.39362
194594	-42	0	5	-0.4852073	0.2315025	-79.81487	0	11.11	4004	0	0	5	5	0.02	-0.07735576	1	10	0.03	2000	2.297542	40.92397	-91.39362
194693	-48	0	3	-0.4889471	0.2340566	-79.82109	0	11.11	4003	0	0	5	5	0.02	-0.07712127	1	10	0.03	2000	2.533462	40.92397	-91.39362
194799	-42	1	0	-0.4875194	0.2259431	-79.8289	0	11.11	4004	0	0	5	5	0.02	-0.07748115	1	10	0.03	2000	2.524996	40.92397	-91.39362
194877	-45	-1	2	-0.4888688	0.232158	-79.83287	0	11.06	4003	0	0	5	5	0.02	-0.07844801	1	10	0.03	2000	2.536133	40.92397	-91.39362
194980	-39	11	6	-0.4910329	0.2356856	-79.83678	0	11.06	4004	0	0	5	5	0.02	-0.08246594	1	10	0.03	2000	2.536133	40.92397	-91.39362
195081	-38	0	0	-0.4887125	0.2271594	-79.84074	0	11.06	4004	0	0	5	5	0.02	-0.08486874	1	10	0.03	2000	2.526443	40.92397	-91.39362
195180	-52	5	1	-0.4890905	0.2246763	-79.84819	0	11.06	4003	0	0	5	5	0.02	-0.08991443	1	10	0.03	2000	2.525367	40.92397	-91.39362
195282	-44	0	3	-0.4852542	0.2246773	-79.85204	0	11.06	4004	0	0	5	5	0.02	-0.09482618	1	10	0.03	2000	2.273983	40.92397	-91.39362
195457	-45	0	5	-0.4828022	0.223531	-79.86302	0	11.06	4004	0	0	5	5	0.02	-0.09574051	1	10	0.03	2000	2.282126	40.92397	-91.39362
195550	-50	1	7	-0.4762406	0.2244719	-79.87138	0	11.06	4002	0	0	5	5	0.02	-0.09551826	1	10	0.03	2000	2.041358	40.92397	-91.39362
195644	-48	1	7	-0.4748591	0.2233164	-79.8759	0	11.06	4003	0	0	5	5	0.02	-0.09703358	1	10	0.03	2000	2.265855	40.92396	-91.39362
195708	-46	-3	3	-0.4682401	0.2214943	-79.88152	0	11.06	4003	0	0	5	5	0.02	-0.09771879	1	10	0.03	2000	2.499797	40.92396	-91.39362
195785	-46	6	1	-0.4722663	0.2242166	-79.88438	0	11.11	4002	0	0	5	5	0.02	-0.1024444	1	10	0.03	2000	2.489732	40.92396	-91.39362
195889	-45	0	5	-0.4815199	0.2280239	-79.88939	0	11.11	4003	0	0	5	5	0.02	-0.1061151	1	10	0.03	2000	2.517073	40.92396	-91.39362
196027	-44	4	3	-0.4797827	0.2237431	-79.89696	0	11.11	4002	0	0	5	5	0.02	-0.103409	1	10	0.03	2000	2.507185	40.92396	-91.39362
196091	-45	4	2	-0.4731694	0.2194569	-79.90208	0	11.11	4003	0	0	5	5	0.02	-0.1005611	1	10	0.03	2000	2.491809	40.92396	-91.39362
196186	-41	0	4	-0.4750576	0.22045	-79.90581	0	11.11	4004	0	0	5	5	0.02	-0.09547238	1	10	0.03	2000	2.263898	40.92396	-91.39362
196303	-52	-4	4	-0.472378	0.2232981	-79.91161	0	11.11	4003	0	0	5	5	0.02	-0.09646729	1	10	0.03	2000	2.489324	40.92396	-91.39362
196405	-45	1	5	-0.4772847	0.2254605	-79.9185	0	11.11	4002	0	0	5	5	0.02	-0.1019164	1	10	0.03	2000	2.49457	40.92396	-91.39362
196487	-37	0	1	-0.4797232	0.2275711	-79.92088	0	11.11	4004	0	0	5	5	0.02	-0.09725171	1	10	0.03	2000	2.503455	40.92396	-91.39362
196631	-43	0	4	-0.4718474	0.2226389	-79.92839	0	11.11	4003	0	0	5	5	0.02	-0.08908327	1	10	0.03	2000	2.264265	40.92396	-91.39362
196692	-46	0	4	-0.4667681	0.2273701	-79.93193	0	11.11	4004	0	0	5	5	0.02	-0.08101892	1	10	0.03	2000	2.490493	40.92396	-91.39362
196845	-39	-2	2	-0.4695185	0.2337296	-79.9395	0	11.11	4002	0	0	5	5	0.02	-0.07225751	1	10	0.03	2000	2.490589	40.92396	-91.39362
196965	-39	4	3	-0.4718128	0.2282069	-79.94365	0	11.11	4003	0	0	5	5	0.02	-0.04743437	1	10	0.03	2000	2.481084	40.92396	-91.39362
197022	-44	3	4	-0.4646554	0.2256911	-79.94719	0	11.11	4002	0	0	5	5	0.02	-0.04271382	1	10	0.03	2000	2.483927	40.92396	-91.39362
197157	-42	2	2	-0.4535823	0.2231091	-79.9536	0	11.11	4003	0	0	5	5	0.02	-0.0275387	1	10	0.03	2000	2.460337	40.92396	-91.39362
197250	-40	0	2	-0.4476994	0.2221203	-79.95818	0	11.11	4003	0	0	5	5	0.02	-0.02857824	1	10	0.03	2000	2.228141	40.92396	-91.39362
197293	-45	-2	2	-0.4468964	0.22565	-79.95958	0	11.11	4002	0	0	5	5	0.02	-0.03234744	1	10	0.03	2000	2.450123	40.92397	-91.39362
197395	-45	0	-1	-0.4397804	0.2348725	-79.96605	0	11.11	4004	0	0	5	5	0.02	-0.03538502	1	10	0.03	2000	2.434493	40.92397	-91.39362
197498	-43	1	3	-0.4433133	0.2339149	-79.96983	0	11.11	4003	0	0	5	5	0.02	-0.03498283	1	10	0.03	2000	2.434493	40.92397	-91.39362
197615	-40	0	3	-0.4429557	0.2337013	-79.97453	0	11.11	4003	0	0	5	5	0.02	-0.03015049	1	10	0.03	2000	2.44433	40.92397	-91.39362
197702	-43	-1	1	-0.4391249	0.2372347	-79.97948	0	11.11	4003	0	0	5	5	0.02	-0.02765208	1	10	0.03	2000	2.435558	40.92397	-91.39362
197811	-44	-3	2	-0.4392306	0.2376648	-79.98051	0	11.11	4002	0	0	5	5	0.02	-0.03304218	1	10	0.03	2000	2.448668	40.92397	-91.39362
197935	-43	2	7	-0.4300728	0.2425903	-79.98729	0	11.11	4003	0	0	5	5	0.02	-0.03851036	1	10	0.03	2000	2.414901	40.92397	-91.39362
198114	-47	1	4	-0.4307839	0.2358651	-79.99547	0	11.11	4003	0	0	5	5	0.02	-0.04828809	1	10	0.03	2000	2.417294	40.92397	-91.39362
198155	-39	-3	5	-0.4272585	0.2333748	-80.00163	0	11.11	4004	0	0	5	5	0.02	-0.0477512	1	10	0.03	2000	2.427119	40.92397	-91.39362
198262	-43	-7	4	-0.4231115	0.2335252	-80.00627	0	11.11	4003	0	0	5	5	0.02	-0.04118738	1	10	0.03	2000	2.410333	40.92397	-91.39362
198386	-34	5	7	-0.4205493	0.2344939	-80.01488	0	11.11	4002	0	0	5	5	0.02	-0.03894132	1	10	0.03	2000	2.396739	40.92397	-91.39362
198419	-42	4	0	-0.4190072	0.231383	-80.01689	0	11.11	4002	0	0	5	5	0.02	-0.04105945	1	10	0.03	2000	2.396739	40.92397	-91.39362
198485	-39	-5	3	-0.416794	0.2307501	-80.01848	0	11.11	4003	0	0	5	5	0.02	-0.04350165	1	10	0.03	2000	2.16164	40.92397	-91.39362
198638	-37	3	6	-0.4204161	0.2244947	-80.02617	0	11.11	4004	0	0	5	5	0.02	-0.04916548	1	10	0.03	2000	2.40197	40.92397	-91.39362
198658	-37	2	3	-0.4171767	0.2239522	-80.03056	0	11.11	4004	0	0	5	5	0.02	-0.04647965	1	10	0.03	2000	2.40197	40.92397	-91.39362
198718	-45	-1	0	-0.4167134	0.2222668	-80.0349	0	11.11	4004	0	0	5	5	0.02	-0.04388666	1	10	0.03	2000	2.395467	40.92397	-91.39362
198817	-41	1	-1	-0.4109917	0.2193262	-80.03941	0	11.11	4004	0	0	5	5	0.02	-0.03404436	1	10	0.03	2000	2.158448	40.92397	-91.39362
198973	-38	2	5	-0.4056321	0.2232729	-80.04576	0	11.11	4003	0	0	5	5	0.02	-0.02944703	1	10	0.03	2000	2.141177	40.92397	-91.39362
199072	-35	0	6	-0.4052361	0.2207193	-80.04851	0	11.11	4004	0	0	5	5	0.02	-0.02450825	1	10	0.03	2000	2.37486	40.92397	-91.39362
199129	-41	0	-1	-0.4034057	0.2208692	-80.049	0	11.11	4005	0	0	5	5	0.02	-0.01724269	1	10	0.03	2000	2.37486	40.92397	-91.39362
199220	-39	1	3	-0.3998614	0.2244094	-80.05193	0	11.11	4003	0	0	5	5	0.02	-0.01003294	1	10	0.03	2000	2.135829	40.92397	-91.39362
199299	-37	0	2	-0.39454	0.2288869	-80.05351	0	11.11	4002	0	0	5	5	0.02	-0.001836241	1	10	0.03	2000	2.362544	40.92397	-91.39362
199488	-40	2	-1	-0.3881558	0.22853	-80.0601	0	11.11	4004	0	0	5	5	0.02	0.01743605	1	10	0.03	2000	2.109316	40.92397	-91.39362
199509	-40	2	-1	-0.3881558	0.22853	-80.0601	0	11.11	4004	0	0	5	5	0.02	0.0177813	1	10	0.03	2000	2.109316	40.92397	-91.39362
199694	-34	-7	0	-0.3850157	0.2292271	-80.06419	0	11.11	4003	0	0	5	5	0.02	0.008136041	1	10	0.03	2000	2.329234	40.92397	-91.39362
199752	-35	2	0	-0.3853033	0.2261732	-80.06627	0	11.11	4003	0	0	5	5	0.02	0.003740607	1	10	0.03	2000	2.330757	40.92397	-91.39362
199820	-34	5	4	-0.3861893	0.2272129	-80.06853	0	11.11	4003	0	0	5	5	0.02	-0.001074073	1	10	0.03	2000	1.864049	40.92397	-91.39362
199929	-37	0	3	-0.3883082	0.2260989	-80.07182	0	11.11	4003	0	0	5	5	0.02	-0.009983079	1	10	0.03	2000	2.111638	40.92397	-91.39362
199976	-36	3	1	-0.38568	0.2293755	-80.07365	0	11.11	4002	0	0	5	5	0.02	-0.01700222	1	10	0.03	2000	2.107955	40.92397	-91.39362
200076	-37	3	6	-0.3889368	0.2294368	-80.07664	0	11.11	4004	0	0	5	5	0.02	-0.02607068	1	10	0.03	2000	2.111784	40.92397	-91.39362
200253	-38	1	-1	-0.3771791	0.2281538	-80.0833	0	11.11	4002	0	0	5	5	0.02	-0.04133451	1	10	0.03	2000	2.098338	40.92397	-91.39362
200312	-38	-1	5	-0.3723105	0.2214224	-80.08611	0	11.11	4004	0	0	5	5	0.02	-0.04510113	1	10	0.03	2000	2.312697	40.92397	-91.39362
200444	-40	2	1	-0.3673575	0.2191257	-80.08965	0	11.11	4004	0	0	5	5	0.02	-0.05842099	1	10	0.03	2000	2.311417	40.92397	-91.39362
200502	-38	-3	1	-0.3678051	0.217919	-80.09062	0	11.11	4003	0	0	5	5	0.02	-0.06338827	1	10	0.03	2000	2.068758	40.92397	-91.39362
200676	-35	8	2	-0.3537714	0.2199387	-80.09886	0	11.11	4002	0	0	5	5	0.02	-0.08689837	1	10	0.03	2000	1.820615	40.92397	-91.39362
200757	-31	0	-1	-0.3581711	0.2210017	-80.1024	0	11.11	4004	0	0	5	5	0.02	-0.09465282	1	10	0.03	2000	2.046677	40.92397	-91.39362
200923	-27	3	4	-0.3550043	0.2237369	-80.10808	0	11.11	4002	0	0	5	5	0.02	-0.09117141	1	10	0.03	2000	2.298941	40.92397	-91.39362
200970	-37	0	-1	-0.3575713	0.2244883	-80.10899	0	11.11	4002	0	0	5	5	0.02	-0.09070486	1	10	0.03	2000	2.050902	40.92397	-91.39362
201048	-40	2	-1	-0.3516813	0.2221642	-80.11284	0	11.11	4004	0	0	5	5	0.02	-0.08748681	1	10	0.03	2000	2.295252	40.92397	-91.39362
201180	-36	5	3	-0.3511502	0.2218401	-80.11772	0	11.11	4004	0	0	5	5	0.02	-0.08252987	1	10	0.03	2000	2.051494	40.92397	-91.39362
201248	-37	0	4	-0.3527685	0.2238501	-80.11858	0	11.11	4004	0	0	5	5	0.02	-0.08059286	1	10	0.03	2000	2.051494	40.92397	-91.39362
201396	-35	-3	0	-0.3533169	0.2181557	-80.12334	0	11.11	4004	0	0	5	5	0.02	-0.06989949	1	10	0.03	2000	2.042996	40.92397	-91.39362
201439	-37	1	-1	-0.3521793	0.2139283	-80.12407	0	11.11	4003	0	0	5	5	0.02	-0.06893943	1	10	0.03	2000	2.280137	40.92397	-91.39362
201600	-40	0	2	-0.3489519	0.2171021	-80.12852	0	11.11	4003	0	0	5	5	0.02	-0.06063949	1	10	0.03	2000	2.033436	40.92397	-91.39362
201710	-39	-1	-1	-0.3476934	0.2121352	-80.13255	0	11.11	4002	0	0	5	5	0.02	-0.05679821	1	10	0.03	2000	2.03816	40.92397	-91.39362
201884	-39	-2	6	-0.3492591	0.221653	-80.1364	0	11.11	4002	0	0	5	5	0.02	-0.05284414	1	10	0.03	2000	2.274125	40.92397	-91.39362
202054	-32	2	2	-0.3552067	0.2237618	-80.14641	0	11.11	4002	0	0	5	5	0.02	-0.05051529	1	10	0.03	2000	2.284785	40.92397	-91.39362
202154	-38	-4	2	-0.3564775	0.2205944	-80.15025	0	11.11	4004	0	0	5	5	0.02	-0.04563386	1	10	0.03	2000	2.284224	40.92397	-91.39362
202316	-35	0	0	-0.3537669	0.2224972	-80.15868	0	11.11	4004	0	0	5	5	0.02	-0.01522844	1	10	0.03	2000	2.297534	40.92397	-91.39362
202430	-30	0	0	-0.3518846	0.2251507	-80.16148	0	11.11	4002	0	0	5	5	0.02	0.001352362	1	10	0.03	2000	2.278059	40.92397	-91.39362
202609	-36	5	7	-0.3475955	0.2191946	-80.16801	0	11.11	4003	0	0	5	5	0.02	0.02319174	1	10	0.03	2000	2.273913	40.92397	-91.39362
202700	-34	1	0	-0.3445766	0.225515	-80.17381	0	11.11	4002	0	0	5	5	0.02	0.03082871	1	10	0.03	2000	2.044319	40.92397	-91.39362
202812	-33	-2	6	-0.3406059	0.2215245	-80.17955	0	11.11	4007	0	0	5	5	0.02	0.03687811	1	10	0.03	2000	2.266201	40.92397	-91.39362
202908	-33	-1	0	-0.3439829	0.2230329	-80.18272	0	11.11	4004	0	0	5	5	0.02	0.04188483	1	10	0.03	2000	2.26628	40.92397	-91.39362
203037	-32	2	2	-0.3343901	0.2209943	-80.18675	0	11.11	4004	0	0	5	5	0.02	0.04082973	1	10	0.03	2000	2.267127	40.92397	-91.39362
203120	-41	-1	-2	-0.3381706	0.2198978	-80.19011	0	11.11	4003	0	0	5	5	0.02	0.03305205	1	10	0.03	2000	2.013423	40.92397	-91.39362
203193	-32	-4	2	-0.3378397	0.2235532	-80.19255	0	11.11	4009	0	0	5	5	0.02	0.02785519	1	10	0.03	2000	2.030843	40.92397	-91.39362
203436	-35	5	1	-0.3406273	0.2185251	-80.19969	0	11.11	4002	0	0	5	5	0.02	0.03103524	1	10	0.03	2000	2.027728	40.92397	-91.39362
203522	-29	-2	1	-0.3443272	0.2201945	-80.20372	0	11.11	4003	0	0	5	5	0.02	0.04180524	1	10	0.03	2000	2.023965	40.92397	-91.39362
203619	-31	6	4	-0.3419898	0.2184437	-80.20604	0	11.11	4003	0	0	5	5	0.02	0.0412013	1	10	0.03	2000	2.263425	40.92397	-91.39362
203740	-35	7	3	-0.3391627	0.2068553	-80.21098	0	11.11	4002	0	0	5	5	0.02	0.03457959	1	10	0.03	2000	2.269074	40.92397	-91.39362
203815	-35	1	5	-0.3407767	0.2039389	-80.21367	0	11.11	4004	0	0	5	5	0.02	0.02087842	1	10	0.03	2000	2.239259	40.92397	-91.39362
203967	-30	7	1	-0.3294937	0.2062035	-80.21861	0	11.11	4003	0	0	5	5	0.02	0.002766987	1	10	0.03	2000	2.012537	40.92397	-91.39362
204019	-32	-2	0	-0.3284736	0.2088868	-80.22008	0	11.11	4004	0	0	5	5	0.02	-0.00439683	1	10	0.03	2000	2.241297	40.92397	-91.39362
204148	-30	-1	2	-0.3218976	0.2133054	-80.22374	0	11.11	4004	0	0	5	5	0.02	-0.01851797	1	10	0.03	2000	1.997368	40.92397	-91.39362
204212	-30	-3	0	-0.3206928	0.2103268	-80.22606	0	11.11	4004	0	0	5	5	0.02	-0.0191594	1	10	0.03	2000	1.997368	40.92397	-91.39362
204396	-29	5	1	-0.3196937	0.2115937	-80.23289	0	11.11	4004	0	0	5	5	0.02	-0.02129054	1	10	0.03	2000	2.230219	40.92397	-91.39362
204454	-33	1	2	-0.3195285	0.2101368	-80.23412	0	11.11	4003	0	0	5	5	0.02	-0.02014921	1	10	0.03	2000	2.223516	40.92397	-91.39362
204519	-37	-2	4	-0.3162862	0.212498	-80.23698	0	11.11	4003	0	0	5	5	0.02	-0.0224741	1	10	0.03	2000	1.99097	40.92397	-91.39362
204622	-29	2	4	-0.3129252	0.2147	-80.24077	0	11.11	4004	0	0	5	5	0.02	-0.03320458	1	10	0.03	2000	1.980709	40.92397	-91.39362
204740	-34	0	0	-0.3112746	0.2192776	-80.24535	0	11.11	4003	0	0	5	5	0.02	-0.04713351	1	10	0.03	2000	2.212981	40.92397	-91.39362
204888	-33	-1	3	-0.3081232	0.2202022	-80.24803	0	11.06	4004	0	0	5	5	0.02	-0.07777759	1	10	0.03	2000	2.213459	40.92397	-91.39362
205006	-30	0	2	-0.3103267	0.2208198	-80.2542	0	11.06	4004	0	0	5	5	0.02	-0.08812315	1	10	0.03	2000	1.971872	40.92397	-91.39362
205040	-30	8	4	-0.3064061	0.2223066	-80.25633	0	11.06	4002	0	0	5	5	0.02	-0.0886515	1	10	0.03	2000	2.206104	40.92397	-91.39362
205107	-28	-1	1	-0.3051381	0.2253067	-80.25682	0	11.06	4003	0	0	5	5	0.02	-0.08956937	1	10	0.03	2000	2.206104	40.92397	-91.39362
205240	-27	0	3	-0.2965696	0.2272335	-80.25993	0	11.06	4003	0	0	5	5	0.02	-0.07650936	1	10	0.03	2000	2.190334	40.92397	-91.39362
205318	-32	0	-3	-0.2989171	0.226349	-80.26207	0	11.06	4003	0	0	5	5	0.02	-0.07026669	1	10	0.03	2000	1.945584	40.92397	-91.39362
205472	-27	1	2	-0.291127	0.2201376	-80.26286	0	11.06	4002	0	0	5	5	0.02	-0.04108891	1	10	0.03	2000	1.930453	40.92397	-91.39362
205618	-33	-5	0	-0.2853759	0.2257669	-80.26347	0	11.06	4004	0	0	5	5	0.02	-0.02440353	1	10	0.03	2000	2.178065	40.92397	-91.39362
205815	-24	1	6	-0.289584	0.2214515	-80.2672	0	11.11	4002	0	0	5	5	0.02	0.004178801	1	10	0.03	2000	2.168751	40.92397	-91.39362
205870	-35	3	2	-0.2902257	0.2191172	-80.26842	0	11.11	4003	0	0	5	5	0.02	0.01118894	1	10	0.03	2000	2.181096	40.92397	-91.39362
206013	-29	3	3	-0.2866503	0.2187124	-80.27037	0	11.11	4004	0	0	5	5	0.02	0.02814758	1	10	0.03	2000	1.926757	40.92397	-91.39362
206111	-25	0	2	-0.2813897	0.2202444	-80.27409	0	11.11	4002	0	0	5	5	0.02	0.0352125	1	10	0.03	2000	1.922201	40.92397	-91.39362
206244	-26	-3	-2	-0.2763558	0.223244	-80.27592	0	11.11	4003	0	0	5	5	0.02	0.05326095	1	10	0.03	2000	2.144628	40.92397	-91.39362
206383	-28	-3	3	-0.2662699	0.2217522	-80.27818	0	11.11	4003	0	0	5	5	0.02	0.06215683	1	10	0.03	2000	2.134059	40.92397	-91.39362
206476	-32	-2	3	-0.2727199	0.219529	-80.28008	0	11.11	4004	0	0	5	5	0.02	0.06985755	1	10	0.03	2000	1.900899	40.92398	-91.39362
206569	-33	0	1	-0.2703206	0.2208818	-80.28062	0	11.11	4004	0	0	5	5	0.02	0.07301737	1	10	0.03	2000	2.130779	40.92398	-91.39362
206660	-22	3	-1	-0.2582207	0.2124608	-80.28392	0	11.11	4002	0	0	5	5	0.02	0.07103208	1	10	0.03	2000	2.121581	40.92398	-91.39362
206800	-29	0	5	-0.2567406	0.2114373	-80.28539	0	11.11	4004	0	0	5	5	0.02	0.06859187	1	10	0.03	2000	2.108079	40.92398	-91.39362
206909	-27	1	-1	-0.2577263	0.2153218	-80.28587	0	11.11	4003	0	0	5	5	0.02	0.0646691	1	10	0.03	2000	2.107	40.92398	-91.39362
206948	-27	0	-3	-0.2549607	0.2136643	-80.28563	0	11.11	4003	0	0	5	5	0.02	0.06392887	1	10	0.03	2000	2.113132	40.92398	-91.39362
207051	-25	0	0	-0.2524619	0.2109383	-80.29088	0	11.11	4004	0	0	5	5	0.02	0.06161176	1	10	0.03	2000	2.114517	40.92398	-91.39362
207154	-37	7	0	-0.2504376	0.2108282	-80.29112	0	11.11	4003	0	0	5	5	0.02	0.04557131	1	10	0.03	2000	1.864118	40.92398	-91.39362
207290	-29	-3	-1	-0.2516374	0.2097278	-80.29582	0	11.11	4004	0	0	5	5	0.02	0.03468337	1	10	0.03	2000	2.098394	40.92398	-91.39362
207431	-31	-1	0	-0.2509004	0.2135277	-80.2971	0	11.11	4004	0	0	5	5	0.02	0.02639643	1	10	0.03	2000	1.872532	40.92398	-91.39362
207507	-25	-1	2	-0.2494876	0.2170545	-80.29979	0	11.11	4003	0	0	5	5	0.02	0.02146667	1	10	0.03	2000	2.105796	40.92398	-91.39362
207573	-24	3	0	-0.2491445	0.2147374	-80.30009	0	11.11	4004	0	0	5	5	0.02	0.01908459	1	10	0.03	2000	2.094044	40.92398	-91.39362
207756	-29	0	0	-0.2446785	0.2138014	-80.30168	0	11.11	4002	0	0	5	5	0.02	0.03284935	1	10	0.03	2000	1.844597	40.92398	-91.39362
207816	-33	-5	1	-0.2447115	0.2115052	-80.30272	0	11.11	4004	0	0	5	5	0.02	0.05397681	1	10	0.03	2000	1.854516	40.92398	-91.39362
207912	-32	-3	0	-0.2477973	0.2140604	-80.30284	0	11.11	4003	0	0	5	5	0.02	0.06529574	1	10	0.03	2000	1.854516	40.92398	-91.39362
207956	-27	-5	4	-0.2483956	0.2129001	-80.30418	0	11.11	4003	0	0	5	5	0.02	0.06733321	1	10	0.03	2000	2.094405	40.92398	-91.39362
208054	-24	1	-1	-0.2529195	0.2169365	-80.30486	0	11.11	4003	0	0	5	5	0.02	0.08058602	1	10	0.03	2000	1.863429	40.92398	-91.39362
208150	-24	6	1	-0.2503833	0.2155582	-80.30669	0	11.11	4004	0	0	5	5	0.02	0.08580639	1	10	0.03	2000	1.871137	40.92398	-91.39362
208264	-28	1	1	-0.2435611	0.2092378	-80.31194	0	11.11	4003	0	0	5	5	0.02	0.08723509	1	10	0.03	2000	2.090824	40.92398	-91.39362
208353	-26	-7	-1	-0.2415288	0.2091946	-80.31212	0	11.06	4002	0	0	5	5	0.02	0.08931606	1	10	0.03	2000	2.097433	40.92398	-91.39362
208456	-29	2	1	-0.2376571	0.2073139	-80.31273	0	11.06	4002	0	0	5	5	0.02	0.09386104	1	10	0.03	2000	2.0765	40.92398	-91.39362
208601	-25	6	1	-0.2347011	0.2062562	-80.31242	0	11.06	4004	0	0	5	5	0.02	0.09846411	1	10	0.03	2000	2.08108	40.92397	-91.39362
208739	-19	3	2	-0.2302414	0.2009845	-80.31377	0	11.06	4003	0	0	5	5	0.02	0.0923458	1	10	0.03	2000	2.07612	40.92397	-91.39362
208814	-31	1	0	-0.2263753	0.2006546	-80.31407	0	11.06	4004	0	0	5	5	0.02	0.0939057	1	10	0.03	2000	2.058789	40.92397	-91.39362
208901	-24	2	1	-0.22215	0.1995071	-80.31535	0	11.06	4004	0	0	5	5	0.02	0.09744334	1	10	0.03	2000	2.051762	40.92397	-91.39362
208996	-27	1	-1	-0.2142338	0.1963929	-80.31792	0	11.06	4003	0	0	5	5	0.02	0.1013299	1	10	0.03	2000	2.044811	40.92397	-91.39362
209077	-25	-1	7	-0.2103487	0.2014609	-80.31975	0	11.06	4004	0	0	5	5	0.02	0.1025616	1	10	0.03	2000	2.029578	40.92397	-91.39362
209119	-22	6	0	-0.2138259	0.1978454	-80.32109	0	11.06	4002	0	0	5	5	0.02	0.1044256	1	10	0.03	2000	2.033977	40.92397	-91.39362
209249	-28	-3	2	-0.2156718	0.19891	-80.32231	0	11.17	4004	0	0	5	5	0.02	0.1033932	1	10	0.03	2000	1.800433	40.92397	-91.39362
209402	-22	0	-2	-0.2160944	0.1989358	-80.32683	0	11.17	4004	0	0	5	5	0.02	0.1013014	1	10	0.03	2000	2.036634	40.92397	-91.39362
209435	-25	0	3	-0.2119	0.1982706	-80.32835	0	11.17	4003	0	0	5	5	0.02	0.0998917	1	10	0.03	2000	2.036634	40.92397	-91.39362
209561	-26	0	-2	-0.2145567	0.1991605	-80.32896	0	11.17	4002	0	0	5	5	0.02	0.09221493	1	10	0.03	2000	2.037153	40.92397	-91.39362
209656	-20	-3	7	-0.2099283	0.1972371	-80.32909	0	11.17	4004	0	0	5	5	0.02	0.09080119	1	10	0.03	2000	1.800029	40.92397	-91.39362
209720	-29	1	6	-0.2053666	0.1980636	-80.33214	0	11.17	4004	0	0	5	5	0.02	0.09229554	1	10	0.03	2000	1.800029	40.92397	-91.39362
209803	-27	4	-1	-0.2062035	0.2026187	-80.33519	0	11.17	4002	0	0	5	5	0.02	0.08874975	1	10	0.03	2000	2.019212	40.92397	-91.39362
209952	-30	0	-3	-0.1994482	0.2013146	-80.33684	0	11.17	4003	0	0	5	5	0.02	0.0847863	1	10	0.03	2000	1.772069	40.92397	-91.39362
210004	-25	4	1	-0.1974188	0.2012124	-80.33836	0	11.17	4002	0	0	5	5	0.02	0.08474661	1	10	0.03	2000	1.772069	40.92397	-91.39362
210114	-33	3	2	-0.1908062	0.1990491	-80.34019	0	11.17	4004	0	0	5	5	0.02	0.08781198	1	10	0.03	2000	2.009076	40.92397	-91.39362
210289	-17	9	4	-0.1827993	0.1972918	-80.33971	0	11.11	4003	0	0	5	5	0.02	0.08775563	1	10	0.03	2000	1.995629	40.92397	-91.39362
210321	-17	9	4	-0.1827993	0.1972918	-80.33971	0	11.11	4003	0	0	5	5	0.02	0.08708638	1	10	0.03	2000	1.995629	40.92397	-91.39362
210480	-12	4	2	-0.1713813	0.1959919	-80.34209	0	11.11	4003	0	0	5	5	0.02	0.08430672	1	10	0.03	2000	1.962821	40.92398	-91.39362
210556	-18	1	3	-0.1675937	0.1984827	-80.34203	0	11.11	4003	0	0	5	5	0.02	0.08226872	1	10	0.03	2000	1.716263	40.92398	-91.39362
210653	-18	1	3	-0.1680365	0.2011645	-80.34093	0	11.11	4004	0	0	5	5	0.02	0.0848346	1	10	0.03	2000	1.963573	40.92398	-91.39362
210703	-21	-4	3	-0.160926	0.1942085	-80.34221	0	11.11	4004	0	0	5	5	0.02	0.08641279	1	10	0.03	2000	1.94923	40.92398	-91.39362
210812	-22	0	0	-0.1563038	0.1942531	-80.34258	0	11.11	4003	0	0	5	5	0.02	0.09306804	1	10	0.03	2000	1.930442	40.92398	-91.39362
210901	-21	9	-4	-0.1534875	0.1905702	-80.34282	0	11.11	4003	0	0	5	5	0.02	0.1007886	1	10	0.03	2000	1.691077	40.92398	-91.39362
211055	-23	-1	2	-0.1606258	0.1913413	-80.34081	0	11.11	4003	0	0	5	5	0.02	0.1084628	1	10	0.03	2000	1.929846	40.92398	-91.39362
211124	-16	2	-2	-0.1626945	0.1941753	-80.33977	0	11.11	4003	0	0	5	5	0.02	0.1120522	1	10	0.03	2000	1.705383	40.92398	-91.39362
211188	-16	2	-2	-0.1626945	0.1941753	-80.33977	0	11.11	4003	0	0	5	5	0.02	0.1149986	1	10	0.03	2000	1.705383	40.92398	-91.39362
211315	-20	-1	3	-0.1665726	0.1991405	-80.34013	0	11.11	4003	0	0	5	5	0.02	0.1086684	1	10	0.03	2000	1.951051	40.92397	-91.39362
211388	-21	5	1	-0.162294	0.1991831	-80.3405	0	11.11	4002	0	0	5	5	0.02	0.1037529	1	10	0.03	2000	1.945003	40.92397	-91.39362
211549	-12	3	6	-0.1664646	0.1952501	-80.33977	0	11.11	4003	0	0	5	5	0.02	0.09698354	1	10	0.03	2000	1.722929	40.92397	-91.39362
211662	-19	-3	5	-0.164065	0.1946498	-80.34099	0	11.11	4003	0	0	5	5	0.02	0.08445956	1	10	0.03	2000	1.963321	40.92397	-91.39362
211681	-21	2	3	-0.1649854	0.1942728	-80.34093	0	11.11	4004	0	0	5	5	0.02	0.08445956	1	10	0.03	2000	1.948849	40.92397	-91.39362
211778	-25	4	0	-0.1670856	0.1905302	-80.3394	0	11.11	4004	0	0	5	5	0.02	0.08589751	1	10	0.03	2000	1.946935	40.92397	-91.39362
211911	-19	0	2	-0.1614964	0.191849	-80.34044	0	11.11	4002	0	0	5	5	0.02	0.08638589	1	10	0.03	2000	1.942425	40.92397	-91.39362
211973	-20	3	0	-0.1608279	0.1890361	-80.34093	0	11.17	4003	0	0	5	5	0.02	0.08539393	1	10	0.03	2000	1.942483	40.92397	-91.39362
212088	-19	-1	-3	-0.1622944	0.1906759	-80.34135	0	11.17	4003	0	0	5	5	0.02	0.08371599	1	10	0.03	2000	1.705831	40.92397	-91.39362
212222	-14	0	-1	-0.1544263	0.1890031	-80.34001	0	11.17	4004	0	0	5	5	0.02	0.08382908	1	10	0.03	2000	1.941864	40.92397	-91.39362
212344	-17	1	0	-0.1453292	0.1876734	-80.33983	0	11.17	4004	0	0	5	5	0.02	0.08357368	1	10	0.03	2000	1.6903	40.92397	-91.39362
212394	-17	0	2	-0.1503794	0.1848756	-80.34013	0	11.17	4004	0	0	5	5	0.02	0.08459715	1	10	0.03	2000	1.916843	40.92397	-91.39362
212479	-18	0	-1	-0.1458584	0.1897138	-80.34068	0	11.17	4004	0	0	5	5	0.02	0.08167822	1	10	0.03	2000	1.922064	40.92397	-91.39362
212597	-20	-1	4	-0.1415203	0.1920816	-80.34032	0	11.17	4004	0	0	5	5	0.02	0.06594869	1	10	0.03	2000	1.9111	40.92397	-91.39362
212685	-23	-1	5	-0.1396208	0.1885695	-80.34178	0	11.17	4003	0	0	5	5	0.02	0.04908862	1	10	0.03	2000	1.904364	40.92397	-91.39362
212827	-15	2	2	-0.1322153	0.1843453	-80.34123	0	11.17	4003	0	0	5	5	0.02	0.04287253	1	10	0.03	2000	1.902102	40.92397	-91.39362
212974	-20	2	-4	-0.1182217	0.1874184	-80.34081	0	11.11	4003	0	0	5	5	0.02	0.03931521	1	10	0.03	2000	1.874121	40.92397	-91.39362
213031	-16	1	1	-0.1183362	0.1847086	-80.34074	0	11.11	4003	0	0	5	5	0.02	0.03372999	1	10	0.03	2000	1.863499	40.92397	-91.39362
213147	-18	-1	-1	-0.1184057	0.1888724	-80.3405	0	11.11	4003	0	0	5	5	0.02	0.0293485	1	10	0.03	2000	1.876023	40.92397	-91.39362
213182	-18	-2	-5	-0.1139095	0.1880149	-80.33904	0	11.11	4003	0	0	5	5	0.02	0.02890164	1	10	0.03	2000	1.876023	40.92397	-91.39362
213324	-20	0	2	-0.1099291	0.1906721	-80.33739	0	11.11	4002	0	0	5	5	0.02	0.02800902	1	10	0.03	2000	1.621853	40.92397	-91.39362
213392	-18	-2	4	-0.1146327	0.1915541	-80.33873	0	11.11	4003	0	0	5	5	0.02	0.02677899	1	10	0.03	2000	1.623758	40.92397	-91.39362
213473	-11	1	-2	-0.1135678	0.1937441	-80.34123	0	11.11	4004	0	0	5	5	0.02	0.02145288	1	10	0.03	2000	1.857163	40.92397	-91.39362
213582	-17	0	3	-0.1106906	0.1957673	-80.34312	0	11.11	4002	0	0	5	5	0.02	0.02171177	1	10	0.03	2000	1.86082	40.92397	-91.39362
213700	-15	7	7	-0.1102627	0.1948614	-80.3438	0	11.11	4002	0	0	5	5	0.02	0.01983761	1	10	0.03	2000	1.86811	40.92397	-91.39362
213778	-9	0	0	-0.1049669	0.1940306	-80.34367	0	11.11	4002	0	0	5	5	0.02	0.0189658	1	10	0.03	2000	1.843911	40.92397	-91.39362
213871	-18	1	0	-0.1022297	0.1908037	-80.34508	0	11.11	4003	0	0	5	5	0.02	0.02085232	1	10	0.03	2000	1.85133	40.92397	-91.39362
214007	-12	4	-3	-0.09804447	0.1932616	-80.34508	0	11.11	4003	0	0	5	5	0.02	0.03441921	1	10	0.03	2000	1.828103	40.92397	-91.39362
214074	-19	0	0	-0.09406742	0.191697	-80.34459	0	11.11	4004	0	0	5	5	0.02	0.03793762	1	10	0.03	2000	1.588489	40.92397	-91.39362
214227	-11	3	0	-0.08937415	0.1918289	-80.34355	0	11.11	4003	0	0	5	5	0.02	0.04403335	1	10	0.03	2000	1.816887	40.92397	-91.39362
214325	-8	1	1	-0.09235664	0.1905195	-80.34349	0	11.11	4004	0	0	5	5	0.02	0.0467254	1	10	0.03	2000	1.818483	40.92397	-91.39362
214409	-17	0	0	-0.08926495	0.1910179	-80.34471	0	11.11	4003	0	0	5	5	0.02	0.04996736	1	10	0.03	2000	1.8179	40.92397	-91.39362
214479	-11	4	-2	-0.09261324	0.1948776	-80.3452	0	11.11	4004	0	0	5	5	0.02	0.05429239	1	10	0.03	2000	1.823426	40.92397	-91.39362
214631	-11	-3	4	-0.09471968	0.1924034	-80.34612	0	11.11	4003	0	0	5	5	0.02	0.06152884	1	10	0.03	2000	1.8301	40.92397	-91.39362
214737	-11	1	-3	-0.07979598	0.1892022	-80.34789	0	11.17	4002	0	0	5	5	0.02	0.07838383	1	10	0.03	2000	1.807386	40.92397	-91.39362
214833	-8	3	8	-0.07735201	0.1857318	-80.34904	0	11.17	4004	0	0	5	5	0.02	0.08803783	1	10	0.03	2000	1.561631	40.92397	-91.39362
214889	-19	3	2	-0.08226975	0.1862308	-80.34966	0	11.17	4004	0	0	5	5	0.02	0.08835041	1	10	0.03	2000	1.79807	40.92397	-91.39362
215029	-8	-2	0	-0.08169751	0.1908363	-80.34782	0	11.17	4003	0	0	5	5	0.02	0.07608633	1	10	0.03	2000	1.566385	40.92397	-91.39362
215096	-11	3	-1	-0.08465055	0.1929632	-80.34758	0	11.17	4010	0	0	5	5	0.02	0.06912217	1	10	0.03	2000	1.574076	40.92397	-91.39362
