time(ms)	gyro_x(deg/s)	gyro_y(deg/s)	gyro_z(deg/s)	orientation_roll(deg)	orientation_pitch(deg)	orientation_yaw(deg)	throttle	battery(V)	loop_time(uS)	pid_output_roll	pid_output_pitch	pid_output_yaw	pid_output_throttle	ultrasonic_alt	baro_alt	flight_mode	p_gain_altitude	i_gain_altitude	d_gain_altitude	compass_heading	latitude	longitude
153929	8	4	0	0.1453601	-0.02338572	-0.2792054	0	11.29	4004	0	0	5	5	0.02	-0.0225972	1	10	0.03	2000	3.568786	40.92392	-91.39362
154037	13	-1	2	0.1496008	-0.02093185	-0.2815288	0	11.29	4004	0	0	5	5	0.02	-0.02576314	3	10	0.03	2000	3.745516	40.92392	-91.39362
154155	8	0	0	0.151599	-0.01692394	-0.2823847	0	11.29	4002	0	0	5	5	0.02	-0.01949057	3	10	0.03	2000	3.958664	40.92392	-91.39362
154227	18	0	0	0.1509392	-0.0211134	-0.2817122	0	11.29	4004	0	0	5	5	0.02	-0.01141423	3	10	0.03	2000	3.778286	40.92392	-91.39362
154406	12	0	0	0.148224	-0.01720136	-0.280367	0	11.29	4003	0	0	5	5	0.02	-0.007184535	3	10	0.03	2000	3.772841	40.92392	-91.39362
154509	15	2	1	0.1531534	-0.02039544	-0.2794499	0	11.29	4003	0	0	5	5	0.02	-0.009238836	3	10	0.03	2000	3.970989	40.92392	-91.39362
154603	13	1	0	0.1581156	-0.01838206	-0.2792665	0	11.29	4002	0	0	5	5	0.02	-0.007861532	3	10	0.03	2000	3.752858	40.92392	-91.39362
154631	12	-3	0	0.1544898	-0.01994437	-0.2796334	0	11.29	4003	0	0	5	5	0.02	-0.007861532	3	10	0.03	2000	3.752858	40.92392	-91.39362
154736	17	-4	1	0.1540571	-0.01708348	-0.2793891	0	11.29	4003	0	0	5	5	0.02	-0.004419647	3	10	0.03	2000	3.769907	40.92392	-91.39362
154845	20	2	-1	0.1539712	-0.02082339	-0.278411	0	11.29	4002	0	0	5	5	0.02	0.0009195809	3	10	0.03	2000	3.783079	40.92392	-91.39362
154943	10	-2	0	0.1595665	-0.01624125	-0.2771884	0	11.29	4003	0	0	5	5	0.02	0.003974032	3	10	0.03	2000	3.945302	40.92392	-91.39362
155075	20	-3	-1	0.1607687	-0.02325273	-0.277433	0	11.29	4002	0	0	5	5	0.02	0.003362345	3	10	0.03	2000	3.766314	40.92392	-91.39362
155151	11	-4	-2	0.1602152	-0.02351452	-0.277494	0	11.29	4003	0	0	5	5	0.02	-0.001145534	3	10	0.03	2000	3.763039	40.92392	-91.39362
155276	17	0	-2	0.1634744	-0.02159558	-0.2762714	0	11.29	4002	0	0	5	5	0.02	-0.01063009	3	10	0.03	2000	3.757888	40.92392	-91.39362
155353	11	-3	2	0.1643061	-0.02221243	-0.2758437	0	11.29	4004	0	0	5	5	0.02	-0.01317606	3	10	0.03	2000	3.744904	40.92392	-91.39362
155445	14	4	-5	0.1671618	-0.01675879	-0.2721756	0	11.29	4003	0	0	5	5	0.02	-0.01578596	3	10	0.03	2000	3.760626	40.92392	-91.39362
155550	10	2	-1	0.1648975	-0.01631157	-0.2696079	0	11.29	4004	0	0	5	5	0.02	-0.01553046	3	10	0.03	2000	3.74092	40.92392	-91.39362
155668	7	1	49	0.1779612	-0.01918849	-0.2654506	0	11.29	4003	0	0	5	5	0.02	-0.01705519	3	10	0.03	2000	3.981225	40.92392	-91.39362
155755	-6	-2	10	0.1773778	-0.01667088	-0.2633129	0	11.29	4003	0	0	5	5	0.02	-0.02302528	3	10	0.03	2000	3.043495	40.92392	-91.39362
155845	38	-25	21	0.1761956	-0.01644232	-0.2590307	0	11.29	4003	0	0	5	5	0.02	-0.03715865	3	10	0.03	2000	4.403259	40.92393	-91.39362
155948	-22	-27	32	0.176231	-0.0404208	-0.2649048	0	11.29	4004	0	0	5	5	0.02	-0.04327285	3	10	0.03	2000	3.945494	40.92393	-91.39362
156051	-5	-20	88	0.1643715	-0.03151289	-0.2679096	0	11.29	4004	0	0	5	5	0.02	-0.04974799	3	10	0.03	2000	4.146923	40.92393	-91.39362
156182	5	20	30	0.1840205	-0.0502141	-0.2630191	0	11.29	4002	0	0	5	5	0.02	-0.05001901	3	10	0.03	2000	3.472434	40.92392	-91.39362
156307	30	-31	16	0.1838466	-0.01455049	-0.2592902	0	11.29	4004	0	0	5	5	0.02	-0.04470061	3	10	0.03	2000	3.829273	40.92392	-91.39362
156356	51	0	12	0.1749073	-0.0247579	-0.2562965	0	11.29	4004	0	0	5	5	0.02	-0.04289931	3	10	0.03	2000	3.27908	40.92392	-91.39362
156459	43	13	-6	0.1775041	-0.02140567	-0.2494496	0	11.17	4003	0	0	5	5	0.02	-0.03246207	3	10	0.03	2000	4.363745	40.92392	-91.39362
156556	-11	-28	-20	0.1731117	-0.01811556	-0.2467002	0	11.17	4004	0	0	5	5	0.02	-0.02591291	3	10	0.03	2000	3.478839	40.92392	-91.39362
156719	9	2	43	0.1759187	-0.01062724	-0.2518334	0	11.17	4003	0	0	5	5	0.02	-0.02904144	3	10	0.03	2000	3.656937	40.92392	-91.39362
156817	39	-12	20	0.1757189	-0.02759481	-0.2520778	0	11.17	4003	0	0	5	5	0.02	-0.02840191	3	10	0.03	2000	3.531963	40.92392	-91.39362
156859	41	72	-19	0.1719339	-0.01409496	-0.2521389	0	11.17	4004	0	0	5	5	0.02	-0.02669659	3	10	0.03	2000	4.21301	40.92392	-91.39362
156957	11	13	-21	0.161246	-0.005165003	-0.2573355	0	11.17	4002	0	0	5	5	0.02	-0.01905873	3	10	0.03	2000	3.972178	40.92392	-91.39362
157056	0	-2	42	0.1554547	-0.01423973	-0.2599668	0	11.17	4003	0	0	5	5	0.02	-0.01168978	3	10	0.03	2000	3.835367	40.92392	-91.39362
157179	28	33	-3	0.1537307	-0.01943624	-0.2557522	0	11.17	4004	0	0	5	5	0.02	0.0006037926	3	10	0.03	2000	3.782834	40.92392	-91.39362
157308	30	68	-26	0.1508788	-0.01582691	-0.2555653	0	11.17	4002	0	0	5	5	0.02	0.008476836	3	10	0.03	2000	3.503684	40.92392	-91.39362
157410	0	-5	-8	0.1428882	-0.01343577	-0.2558085	0	11.23	4003	0	0	5	5	0.02	0.01305496	3	10	0.03	2000	3.360257	40.92392	-91.39362
157452	-21	-7	44	0.1368243	-0.02309638	-0.2598426	0	11.23	4002	0	0	5	5	0.02	0.01821627	3	10	0.03	2000	3.360257	40.92392	-91.39362
157581	12	-13	0	0.1156288	-0.02929925	-0.2573334	0	11.23	4004	0	0	5	5	0.02	0.03080218	3	10	0.03	2000	3.554302	40.92392	-91.39362
157693	40	53	-41	0.1226615	-0.05378145	-0.2640627	0	11.23	4003	0	0	5	5	0.02	0.03867104	3	10	0.03	2000	2.902397	40.92393	-91.39362
157770	21	41	63	0.1239854	-0.05392125	-0.2613117	0	11.23	4003	0	0	5	5	0.02	0.04115553	3	10	0.03	2000	4.075999	40.92393	-91.39362
157907	49	22	61	0.1226019	-0.04533704	-0.2587386	0	11.23	4002	0	0	5	5	0.02	0.04410718	3	10	0.03	2000	3.5629	40.92393	-91.39362
158050	-3	19	44	0.1430752	-0.03907729	-0.2568974	0	11.23	4003	0	0	5	5	0.02	0.04826499	3	10	0.03	2000	4.328122	40.92393	-91.39362
158117	40	1	44	0.140359	-0.04650528	-0.2644213	0	11.23	4002	0	0	5	5	0.02	0.06125445	3	10	0.03	2000	4.023936	40.92393	-91.39362
158203	-1	-50	6	0.1430481	-0.03097245	-0.2627744	0	11.23	4004	0	0	5	5	0.02	0.07850934	3	10	0.03	2000	3.531731	40.92393	-91.39362
158245	4	-66	68	0.1467924	-0.04341694	-0.2681571	0	11.23	4003	0	0	5	5	0.02	0.08431987	3	10	0.03	2000	3.967643	40.92393	-91.39362
158349	-29	26	-110	0.09852385	-0.05839041	-0.264657	0	11	4004	0	0	5	5	0.02	0.0957227	3	10	0.03	2000	3.808509	40.92393	-91.39362
158508	27	10	81	0.09840719	-0.05820107	-0.2787708	0	11	4003	0	0	5	5	0.02852295	0.1105858	6	10	0.03	2000	3.406606	40.92393	-91.39362
158563	95	114	48	0.1213936	-0.05379758	-0.2758989	0	11	4003	0	0	5	5	0.03453038	0.1189859	6	10	0.03	2000	3.350536	40.92393	-91.39362
158651	-39	-177	128	0.1224722	-0.03847065	-0.2783986	0	11	4004	0	0	5	5	0.03735409	0.1240577	6	10	0.03	2000	3.8655	40.92393	-91.39362
158784	102	39	40	0.1086459	-0.008612938	-0.281156	0	11	4004	0	0	5	5	0.04096828	0.1304649	6	10	0.03	2000	3.748077	40.92393	-91.39362
158858	-22	-103	145	0.0567163	0.01107478	-0.2989523	0	11	4003	0	0	5	5	0.04325111	0.1326543	6	10	0.03	2000	4.274206	40.92393	-91.39362
158971	-14	155	-322	0.0319026	-0.0154426	-0.2896568	0	11	4003	0	0	5	5	0.04547301	0.1418265	6	10	0.03	2000	3.668503	40.92393	-91.39362
159049	14	0	121	0.1074342	-0.04094213	-0.2918064	0	11	4002	0	0	5	5	0.04041759	0.1475608	6	10	0.03	2000	3.925606	40.92393	-91.39362
159143	-159	-169	9	0.09529632	-0.1046556	-0.2962124	0	11	4003	0	0	5	5	0.04234225	0.1498783	6	10	0.03	2000	3.650915	40.92392	-91.39362
159260	-102	-9	340	-0.08545702	-0.2459216	-0.3106793	0	11.06	4003	0	0	5	5	0.04534038	0.1528099	6	10	0.03	2000	4.075875	40.92393	-91.39362
159430	30	-7	116	-0.07685205	-0.281485	-0.3231358	0	11.06	4003	0	0	5	5	0.04680463	0.1481696	6	10	0.03	2000	4.104482	40.92393	-91.39362
159477	366	-18	-151	-0.04289739	-0.2532089	-0.312179	0	11.06	4003	0	0	5	5	0.04702183	0.1468489	6	10	0.03	2000	4.104482	40.92393	-91.39362
159547	166	2	-265	-0.04772316	-0.3342383	-0.2989161	0	11.06	4002	0	0	5	5	0.04929692	0.1417102	6	10	0.03	2000	4.152534	40.92393	-91.39362
159678	-86	92	239	-0.3868484	-0.520493	-0.3057651	0	11.06	4003	0	0	5	5	0.04994953	0.1301399	6	10	0.03	2000	4.726604	40.92393	-91.39362
159796	-197	-21	105	-0.4046635	-0.5004259	-0.3113798	0	11.06	4004	0	0	5	5	0.05021724	0.1248968	6	10	0.03	2000	4.693789	40.92393	-91.39362
159909	111	100	-190	-0.4683823	-0.5509073	-0.3149226	0	11.06	4003	0	0	5	5	0.04268084	0.126065	6	10	0.03	2000	4.854096	40.92393	-91.39362
159955	-321	-65	353	-0.4730549	-0.5005236	-0.3306769	0	11.06	4003	0	0	5	5	0.04228866	0.1299485	6	10	0.03	2000	4.854096	40.92393	-91.39362
160108	140	58	-464	-0.4214686	-0.3601056	-0.3184391	0	11.17	4002	0	0	5	5	0.04579913	0.1342164	6	10	0.03	2000	4.123765	40.92393	-91.39362
160218	-190	-64	96	-0.4306991	-0.3004868	-0.3409858	0	11.17	4003	0	0	5	5	0.04742896	0.1373185	6	10	0.03	2000	4.157908	40.92393	-91.39362
160278	-108	254	-456	-0.5208575	-0.2911809	-0.3207017	0	11.17	4004	0	0	5	5	0.04824083	0.1437795	6	10	0.03	2000	5.165964	40.92393	-91.39362
160431	-6	-58	263	-0.4664271	-0.1309033	-0.3385095	0	11.17	4002	0	0	5	5	0.04938937	0.1487009	6	10	0.03	2000	4.222789	40.92393	-91.39362
160525	-75	-29	213	-0.42171	-0.1131263	-0.2768583	0	11.17	4003	0	0	5	5	0.05022667	0.1556853	6	10	0.03	2000	4.569149	40.92393	-91.39362
160559	211	-292	189	-0.4345433	-0.01249499	-0.3342178	0	11.17	4002	0	0	5	5	0.05065461	0.1596873	6	10	0.03	2000	4.569149	40.92393	-91.39362
160678	-215	-611	15	-0.2387964	1.017445	-0.1841066	0	11.17	4004	0	0	5	5	0.05087016	0.1687262	6	10	0.03	2000	4.596431	40.92393	-91.39362
160760	-207	-599	-564	-0.4970423	2.095496	0.1393149	0	11.17	4003	0	0	5	5	0.04544088	0.175833	6	10	0.03	2000	4.060838	40.92393	-91.39362
160864	-368	-1474	112	-0.8235604	3.198341	0.917031	0	11.17	4004	0	0	5	5	0.04275069	0.1989081	6	10	0.03	2000	4.653201	40.92393	-91.39362
160994	-688	687	1215	-2.145177	3.03261	1.218359	0	11.17	4002	0	0	5	5	0.04802985	0.2436083	6	10	0.03	2000	5.628653	40.92393	-91.39362
161056	137	533	758	-2.271054	2.472667	0.8513958	0	10.66	4003	0	0	5	5	0.04992477	0.2583646	6	10	0.03	2000	5.628653	40.92393	-91.39362
161191	-262	4163	1004	-3.010216	-4.782316	-0.9670696	0	10.66	4003	0	0	5	5	0.0491726	0.269857	6	10	0.03	2000	7.975782	40.92393	-91.39362
161322	-979	966	-1686	-1.939592	-6.525306	-0.5787045	0	10.66	4002	0	0	5	5	0.04743759	0.2790156	6	10	0.03	2000	5.210731	40.92393	-91.39362
161362	-774	-63	-2119	-2.735398	-7.244163	-0.2328089	0	10.66	4003	0	0	5	5	0.04677553	0.2804556	6	10	0.03	2000	5.210731	40.92393	-91.39362
161466	-113	-704	-85	-0.4109943	-5.557234	1.727537	0	10.66	4004	0	0	5	5	0.07725994	0.2847039	6	10	0.03	2000	5.813255	40.92393	-91.39362
161615	377	1246	-234	-0.08768092	-6.079514	1.682703	0	10.66	4003	0	0	5	5	0.1117057	0.2970127	6	10	0.03	2000	4.301112	40.92393	-91.39362
161714	-2	-1953	-138	-1.347058	-2.753428	0.3929624	0	10.66	4003	0	0	5	5	0.153923	0.3043769	6	10	0.03	2000	5.005556	40.92393	-91.39362
161844	487	1141	425	-0.6721216	-3.132646	0.3810062	0	10.66	4006	62	211	5	5	0.2099028	0.3098409	8	10	0.03	2000	5.784082	40.92393	-91.39362
161879	-341	-1859	-1173	-0.2342962	-2.940991	1.168522	0	10.66	4002	0	209	5	5	0.1889125	0.3144341	8	10	0.03	2000	5.100256	40.92393	-91.39362
161993	-25	-3253	1389	-0.188797	1.961287	2.357368	0	10.09	4004	0	210	5	5	0.111551	0.3438896	8	10	0.03	2000	3.779109	40.92393	-91.39362
162088	63	-1305	395	0.03974358	6.206617	1.500942	0	10.09	4002	0	240	5	5	0.09035628	0.3616374	8	10	0.03	2000	8.232552	40.92393	-91.39362
162177	1376	-2327	-752	0.04914451	8.64508	0.5876613	0	10.09	4002	0	240	5	5	0.06586973	0.3881235	8	10	0.03	2000	7.259685	40.92393	-91.39362
162300	1973	-1485	-727	-1.305398	13.15717	1.340767	0	10.09	4004	0	210	5	5	0.04801903	0.4054454	8	10	0.03	2000	5.433298	40.92393	-91.39362
162423	-108	3102	1539	-0.2992871	11.61238	1.11314	0	10.09	4003	0	210	5	5	0.03150529	0.4511316	8	10	0.03	2000	8.468315	40.92393	-91.39362
162548	-1633	5679	53	2.890459	-4.432046	2.197504	0	10.09	4002	0	0	5	5	0.02296735	0.4852746	8	10	0.03	2000	6.534985	40.92393	-91.39362
162658	-1571	1133	-1121	1.751118	-10.682	2.406864	0	10.09	4003	0	0	5	5	0.02	0.536664	8	10	0.03	2000	5.978445	40.92393	-91.39362
162685	-1806	2462	1218	1.091046	-11.29607	2.041301	0	10.09	4002	0	0	5	5	0.02	0.5593762	8	10	0.03	2000	5.978445	40.92393	-91.39362
162865	146	-3783	347	0.3477786	-12.93739	0.347251	0	10.09	4004	0	-71	5	5	0.02	0.6494673	8	10	0.03	2000	1.883539	40.92392	-91.39362
162967	552	355	-710	0.8493226	-7.894131	1.127003	0	10.04	4002	0	-71	5	5	0.02	0.6985719	8	10	0.03	2000	0.5407314	40.92392	-91.39362
162992	552	355	-710	0.8493226	-7.894131	1.127003	0	10.04	4002	0	-71	5	5	0.02	0.7265513	8	10	0.03	2000	0.5407314	40.92392	-91.39362
163158	-492	457	272	1.50805	-9.710359	1.427796	0	10.04	4004	0	-107	5	5	0.02	0.8396342	8	10	0.03	2000	0.2348145	40.92392	-91.39362
163197	-1591	1252	-117	0.9691302	-10.14431	1.157338	0	10.04	4004	0	-106	5	5	0.02	0.8569872	8	10	0.03	2000	-0.5758057	40.92391	-91.39362
163301	772	4943	941	1.244585	-15.4283	1.259742	0	10.04	4003	0	-142	5	5	0.02	0.9700788	8	10	0.03	2000	-0.8936768	40.92391	-91.39362
163434	-1587	-1520	391	0.4118612	-17.53965	1.027819	0	10.04	4003	71	-142	5	5	0.02	1.152737	8	10	0.03	2000	-1.196564	40.92391	-91.39361
163570	-1245	-944	-1245	-3.387733	-12.48112	0.1816646	0	10.04	4004	71	-82	5	5	0.02	1.24837	8	10	0.03	2000	-2.085022	40.92391	-91.39361
163670	-2218	62	791	-5.047315	-11.36462	-0.532922	0	10.04	4004	71	-88	5	5	0.02	1.42526	8	10	0.03	2000	-2.46402	40.92391	-91.39361
163706	-1097	-677	-29	-5.8939	-10.78065	-0.5615974	0	10.04	4002	71	-88	5	5	0.02	1.458771	8	10	0.03	2000	-2.489349	40.9239	-91.39361
163910	-685	1382	-237	-6.25239	-8.594049	-0.4117999	0	10.21	4004	71	-93	5	5	0.02	1.622824	8	10	0.03	2000	-3.482727	40.9239	-91.39361
163985	-1218	-958	-122	-4.624533	-8.873672	0.5304589	0	10.21	4002	71	-93	5	5	0.02	1.811581	8	10	0.03	2000	-4.533905	40.9239	-91.39361
164116	496	48	1036	-4.258233	-6.774858	0.7379729	0	10.21	4003	11	-93	5	5	0.02	1.902029	8	10	0.03	2000	-4.636688	40.9239	-91.39361
164261	133	342	-1369	-3.096789	-7.022789	-0.3191056	0	10.21	4004	11	-63	5	5	0.02	2.016722	8	10	0.03	2000	-5.066498	40.9239	-91.39361
164358	1850	-440	-308	-2.312361	-6.616348	-0.02421554	0	10.21	4002	11	-63	5	5	0.02	2.102959	8	10	0.03	2000	-3.921509	40.9239	-91.39361
164485	-1025	-836	-687	-2.529246	-5.496339	-0.01540997	0	10.21	4004	11	-33	5	5	0.02	2.245955	8	10	0.03	2000	-3.538635	40.9239	-91.39361
164568	-531	-1043	-121	-2.805233	-5.268431	0.1984253	0	10.21	4002	11	-33	5	5	0.02	2.305523	8	10	0.03	2000	-3.538635	40.9239	-91.39361
164697	-1364	-607	1068	-1.590695	-3.803972	0.9181889	0	10.21	4002	-60	-33	5	5	0.02	2.403582	8	10	0.03	2000	-3.99765	40.9239	-91.39362
164731	357	-1265	-366	-1.751866	-3.538663	0.9390925	0	10.21	4004	-60	-33	5	5	0.02	2.419144	8	10	0.03	2000	-3.99765	40.9239	-91.39362
164823	1247	-188	1090	-0.005167324	-2.512203	0.6319289	0	9.75	4003	-60	-33	5	5	0.02	2.459107	8	10	0.03	2000	-2.935822	40.9239	-91.39362
164905	1613	-480	-392	1.369785	-3.040918	0.2285777	0	9.75	4003	-59	-33	5	5	0.02	2.493196	8	10	0.03	2000	-1.750214	40.9239	-91.39362
165016	789	752	843	2.20356	-2.533372	-0.0001894571	0	9.75	4003	-60	-33	5	5	0.02	2.556205	8	10	0.03	2000	-0.6436462	40.9239	-91.39362
165107	1732	896	-1206	4.096707	-4.464188	0.9171938	0	9.75	4004	-60	-33	5	5	0.02	2.562731	8	10	0.03	2000	0.516406	40.9239	-91.39362
165291	970	-1559	520	2.70279	-4.294998	0.7232343	0	9.75	4002	-71	1	5	5	0.02	2.600025	8	10	0.03	2000	1.716136	40.92391	-91.39362
165325	930	134	-1714	5.915121	-4.272944	0.8906474	0	9.75	4004	-71	1	5	5	0.02	2.600364	8	10	0.03	2000	2.555964	40.92391	-91.39362
165498	-645	-2602	-884	4.622319	-2.857137	0.9773419	0	9.75	4003	-71	1	5	5	0.02	2.582181	8	10	0.03	2000	6.427091	40.92391	-91.39362
165650	1563	952	-299	5.124491	-4.466297	1.034964	0	9.75	4004	-71	2	5	5	0.02	2.556877	8	10	0.03	2000	6.729288	40.92391	-91.39362
165702	932	304	-939	5.505312	-5.433265	1.492331	0	10.21	4003	-71	2	5	5	0.02	2.55321	8	10	0.03	2000	10.37906	40.92391	-91.39362
165798	477	-1111	-839	5.16237	-4.779006	1.632113	0	10.21	4002	-71	1	5	5	0.02	2.527645	8	10	0.03	2000	10.71439	40.92391	-91.39362
165917	-2510	-341	2208	4.492901	-4.386296	0.6739844	0	10.21	4002	-11	-28	5	5	0.02	2.515964	8	10	0.03	2000	11.89721	40.92391	-91.39362
166005	420	65	277	1.722363	-5.217475	-0.2144378	0	10.21	4003	-11	-28	5	5	0.02	2.506994	8	10	0.03	2000	13.94193	40.92391	-91.39362
166129	-1182	-1404	-98	1.509077	-5.652495	0.03139718	0	10.21	4002	-11	7	5	5	0.02	2.483913	8	10	0.03	2000	14.3513	40.92391	-91.39362
166235	1143	-511	-167	1.604699	-4.924249	0.826752	0	10.21	4002	-11	7	5	5	0.02	2.471408	8	10	0.03	2000	14.80817	40.92391	-91.39362
166310	500	185	-654	1.378348	-5.627289	1.139528	0	10.21	4004	-11	7	5	5	0.02	2.458727	8	10	0.03	2000	14.80817	40.92391	-91.39362
166426	-882	-1358	649	2.356951	-6.654748	1.311997	0	10.21	4003	-11	7	5	5	0.02	2.446493	8	10	0.03	2000	17.12762	40.92391	-91.39362
166540	-1764	-1263	828	0.8577517	-4.98873	0.3392237	0	10.21	4002	-11	7	5	5	0.02	2.44029	8	10	0.03	2000	18.39019	40.92391	-91.39362
166602	146	-990	-1741	0.4823108	-4.67056	0.317948	0	10.66	4002	-11	7	5	5	0.02	2.438832	8	10	0.03	2000	18.39019	40.92391	-91.39362
166732	-1730	-1023	-874	1.886349	-5.71782	1.001568	0	10.66	4004	-11	-22	5	5	0.02	2.437638	8	10	0.03	2000	19.94816	40.92391	-91.39362
166852	-410	-2331	-1810	1.3187	-3.688879	0.957044	0	10.66	4004	59	13	5	5	0.02	2.427167	8	10	0.03	2000	20.03499	40.92392	-91.39362
166903	-1253	-2886	-2019	0.939718	-2.634479	0.7210692	0	10.66	4002	60	13	5	5	0.02	2.424426	8	10	0.03	2000	20.03499	40.92392	-91.39362
167027	-1346	427	-997	-0.2111792	-3.66941	0.1886404	0	10.66	4003	60	13	5	5	0.02	2.420335	8	10	0.03	2000	23.61701	40.92392	-91.39362
167101	-169	-1587	-2670	-1.349254	-2.660337	0.6358921	0	10.66	4003	60	13	5	5	0.02	2.420893	8	10	0.03	2000	18.15529	40.92392	-91.39362
167260	-2928	154	2536	-2.628786	-4.996108	1.269835	0	10.66	4003	131	-22	5	5	0.02	2.43159	8	10	0.03	2000	15.80337	40.92391	-91.39361
167302	-1397	-307	392	-3.995844	-5.322336	1.26917	0	10.66	4002	131	-22	5	5	0.02	2.44041	8	10	0.03	2000	13.76217	40.92391	-91.39361
167435	-1650	650	607	-3.972186	-7.056015	1.632001	0	10.66	4004	131	-22	5	5	0.02	2.462401	8	10	0.03	2000	6.41968	40.92391	-91.39361
167492	-1105	-1075	-1348	-4.414163	-6.245532	1.582771	0	10.66	4003	72	-52	5	5	0.02	2.465824	8	10	0.03	2000	6.41968	40.92391	-91.39361
167675	-1028	660	521	-6.31431	-5.479129	-0.1817183	0	10.32	4003	170	-62	5	5	0.02	2.458901	8	10	0.03	2000	-0.7459412	40.92391	-91.3936
167803	615	2401	-1557	-7.25349	-6.44606	0.6376631	0	10.32	4004	142	-88	5	5	0.02	2.447934	8	10	0.03	2000	-4.58667	40.92391	-91.3936
167950	-619	-577	1297	-6.49851	-6.669612	1.972544	0	10.32	4004	82	-93	5	5	0.02	2.430424	8	10	0.03	2000	-17.26962	40.9239	-91.3936
168017	-1005	244	-202	-5.809004	-7.406796	1.149928	0	10.32	4003	82	-93	5	5	0.02	2.416677	8	10	0.03	2000	-18.64612	40.9239	-91.3936
168101	-626	320	-1435	-7.271971	-6.645977	0.05959417	0	10.32	4003	82	-93	5	5	0.02	2.394986	8	10	0.03	2000	-18.57123	40.9239	-91.3936
168232	-1874	1120	1037	-7.760734	-8.36774	0.3204011	0	10.32	4004	93	-93	5	5	0.02	2.366133	8	10	0.03	2000	-22.6015	40.9239	-91.39359
168289	-644	415	1362	-8.024662	-8.691277	0.5235494	0	10.32	4002	93	-93	5	5	0.02	2.345031	8	10	0.03	2000	-22.6015	40.9239	-91.39359
168427	1337	1240	-384	-0.319434	-13.549	0.7019196	0	10.43	4002	93	-99	5	5	0.02	2.300787	8	10	0.03	2000	-24.98788	40.9239	-91.39359
168495	-82	1556	-836	-0.4710305	-14.82171	0.6909187	0	10.43	4002	93	-134	5	5	0.02	2.27979	8	10	0.03	2000	-23.85873	40.9239	-91.39359
168637	-3138	1111	613	-2.557962	-20.66892	0.7299011	0	10.43	4003	93	-104	5	5	0.02	2.251832	8	10	0.03	2000	-19.56152	40.92389	-91.3936
168668	1651	1155	-1674	-2.623945	-19.81172	0.5139355	0	10.43	4002	-37	-140	5	5	0.02	2.232885	8	10	0.03	2000	-20.2742	40.92389	-91.3936
168699	3446	2489	-2148	-1.09304	-20.26645	0.6557141	0	10.43	4004	-37	-140	5	5	0.02	2.229742	8	10	0.03	2000	-19.57257	40.92389	-91.3936
168887	-93	-1309	-79	-0.1927264	-14.16346	1.42959	0	10.43	4004	-37	-146	5	5	0.02	2.213932	8	10	0.03	2000	-17.23801	40.92389	-91.3936
168958	283	771	369	0.2713715	-13.49532	1.289314	0	10.43	4004	-37	-146	5	5	0.02	2.205871	8	10	0.03	2000	-17.871	40.92389	-91.3936
169064	2643	-903	1196	1.934491	-11.63668	0.8656595	0	10.43	4003	-37	-116	5	5	0.02	2.200994	8	10	0.03	2000	-16.35248	40.92389	-91.3936
169113	3471	753	161	8.31483	-10.64766	0.3118865	0	10.43	4002	-108	-116	5	5	0.02	2.201321	8	10	0.03	2000	-15.61975	40.92389	-91.39361
169241	584	-807	-149	10.60671	-10.19473	-0.009058021	0	10.32	4003	-48	-86	5	5	0.02	2.214004	8	10	0.03	2000	-9.565887	40.92389	-91.39361
169336	-332	433	-204	6.548094	-9.033195	0.2533869	0	10.32	4003	-48	-121	5	5	0.02	2.220338	8	10	0.03	2000	-8.055817	40.92389	-91.39361
169438	1194	1422	-1008	6.106575	-10.02651	0.8907856	0	10.32	4003	-48	-91	5	5	0.02	2.231378	8	10	0.03	2000	-6.46933	40.92389	-91.39361
169590	264	-725	1675	5.88719	-10.16253	1.375426	0	10.32	4004	-120	-91	5	5	0.02	2.250482	8	10	0.03	2000	-4.289307	40.92389	-91.39362
169665	-357	442	445	6.009351	-7.342233	0.2317172	0	10.32	4002	-119	-91	5	5	0.02	2.266702	8	10	0.03	2000	-1.709991	40.92389	-91.39362
169755	150	1007	2273	5.760612	-8.391288	-0.03802869	0	10.32	4003	-60	-91	5	5	0.02	2.288788	8	10	0.03	2000	-1.174774	40.92389	-91.39362
169897	1819	403	1	6.820579	-10.77674	0.7725077	0	10.32	4003	-60	-91	5	5	0.02	2.301713	8	10	0.03	2000	0.4395704	40.92389	-91.39362
170043	-4409	-1576	-464	4.324511	-8.828696	1.194083	0	10.32	4002	-60	-61	5	5	0.02	2.308254	8	10	0.03	2000	3.26001	40.92389	-91.39362
170090	-2586	-671	-721	-3.523293	-5.873265	0.7527322	0	10.32	4002	-60	-61	5	5	0.02	2.311285	8	10	0.03	2000	3.630054	40.92389	-91.39362
170253	1051	-183	1565	-1.18879	-7.821789	0.6388395	0	10.15	4004	0	-26	5	5	0.02	2.324312	8	10	0.03	2000	0.6001263	40.92389	-91.39362
170324	-135	-3467	-300	-1.636441	-4.424307	0.3342988	0	10.15	4003	0	-26	5	5	0.02	2.335617	8	10	0.03	2000	0.9241432	40.92389	-91.39362
170419	835	-4498	174	-1.883317	-0.224211	0.5890717	0	10.15	4003	-56	-20	5	5	0.02	2.347168	8	10	0.03	2000	1.860194	40.92389	-91.39362
170479	-3	1484	136	0.3407587	1.202132	0.6141059	0	10.15	4003	-71	-26	5	5	0.02	2.353444	8	10	0.03	2000	2.718012	40.92389	-91.39362
170623	-1505	-1778	-217	2.419751	-4.842166	0.4720415	0	10.15	4003	-71	9	5	5	0.02	2.365239	8	10	0.03	2000	3.021532	40.92389	-91.39362
170724	399	-2736	-1026	1.468124	-2.563899	1.002501	0	10.15	4004	-71	9	5	5	0.02	2.346455	8	10	0.03	2000	3.38803	40.92389	-91.39362
170771	-257	-741	-556	2.099586	-1.910304	0.9340462	0	10.15	4003	-71	9	5	5	0.02	2.336366	8	10	0.03	2000	4.199509	40.9239	-91.39362
170968	782	-937	-1744	4.845969	-3.688662	0.9394953	0	10.15	4003	-71	15	5	5	0.02	2.30064	8	10	0.03	2000	7.711045	40.9239	-91.39362
171046	1200	-412	-382	5.205969	-3.603452	0.9687827	0	9.7	4003	-11	15	5	5	0.02	2.282091	8	10	0.03	2000	9.606833	40.9239	-91.39362
171143	-1789	-757	1828	4.08428	-2.922286	1.007546	0	9.7	4004	60	50	5	5	0.02	2.266734	8	10	0.03	2000	10.63114	40.9239	-91.39362
171235	-3398	2084	-417	-4.004641	-5.785777	-0.06639194	0	9.7	4004	60	20	5	5	0.02	2.260291	8	10	0.03	2000	12.6063	40.9239	-91.39362
171346	330	115	-1810	-5.688576	-9.19918	0.09655164	0	9.7	4002	60	20	5	5	0.02	2.24053	8	10	0.03	2000	9.471522	40.9239	-91.39362
171389	295	-2093	-1219	-5.340036	-8.499965	0.451181	0	9.7	4002	60	-8	5	5	0.02	2.237326	8	10	0.03	2000	7.271596	40.9239	-91.39362
171491	645	115	-384	-4.535062	-6.032784	1.075417	0	9.7	4002	60	-9	5	5	0.02	2.222137	8	10	0.03	2000	5.482295	40.9239	-91.39362
171573	850	620	-452	-3.399661	-7.297282	0.644251	0	9.7	4004	60	-9	5	5	0.02	2.218758	8	10	0.03	2000	7.18639	40.9239	-91.39362
171678	-96	-752	652	-2.273622	-7.291982	0.4362359	0	9.7	4003	60	-9	5	5	0.02	2.217679	8	10	0.03	2000	3.826545	40.9239	-91.39362
171785	1289	1134	1356	-2.53017	-3.903011	0.4071735	0	9.7	4003	0	-39	5	5	0.02	2.220213	8	10	0.03	2000	3.632173	40.9239	-91.39362
171953	268	2551	2029	-2.026914	-9.071575	-0.1490323	0	9.7	4004	0	-39	5	5	0.02	2.216418	8	10	0.03	2000	0.4097291	40.9239	-91.39362
172042	218	548	1576	-0.2863582	-11.66206	0.4525678	0	10.72	4004	71	-39	5	5	0.02	2.209486	8	10	0.03	2000	-0.6108398	40.9239	-91.39361
172122	-1471	-2158	376	-0.680288	-9.50835	0.1498323	0	10.72	4003	71	-39	5	5	0.02	2.198003	8	10	0.03	2000	-2.002075	40.9239	-91.39361
172168	-1545	-3371	-1264	-3.153894	-5.512731	-0.1668681	0	10.72	4004	71	-39	5	5	0.02	2.196188	8	10	0.03	2000	0.4399337	40.9239	-91.39361
172317	-134	516	-1968	-2.702544	-6.308052	0.3466667	0	10.72	4002	71	-39	5	5	0.02	2.191397	8	10	0.03	2000	-4.980743	40.9239	-91.39361
172456	-345	-484	327	-4.88957	-5.387402	0.2980208	0	10.72	4004	71	-74	5	5	0.02	2.194211	8	10	0.03	2000	-6.028778	40.9239	-91.39361
172484	-383	559	1135	-5.078541	-5.456173	0.1252392	0	10.72	4004	71	-74	5	5	0.02	2.192851	8	10	0.03	2000	-6.028778	40.9239	-91.39361
172617	510	5238	-130	-3.415509	-12.04735	0.5590432	0	10.72	4003	71	-74	5	5	0.02	2.184107	8	10	0.03	2000	-9.942871	40.9239	-91.39361
172684	-672	-189	15	-4.502285	-15.05561	1.0935	0	10.72	4002	11	-74	5	5	0.02	2.177952	8	10	0.03	2000	-13.62665	40.9239	-91.39361
172855	617	744	341	-2.60833	-10.51233	0.09277805	0	10.72	4003	11	-74	5	5	0.02	2.168824	8	10	0.03	2000	-12.31812	40.9239	-91.39361
172926	970	280	-648	-1.613311	-10.28532	0.6478444	0	10.09	4004	11	-74	5	5	0.02	2.170813	8	10	0.03	2000	-12.69794	40.9239	-91.39361
172981	-249	-981	-1789	-1.558561	-10.24524	0.9355674	0	10.09	4004	11	-75	5	5	0.02	2.170191	8	10	0.03	2000	-12.4588	40.9239	-91.39361
173129	45	-2321	-1244	-1.505902	-8.636715	1.15528	0	10.09	4002	11	-80	5	5	0.02	2.168569	8	10	0.03	2000	-17.22336	40.92389	-91.39361
173261	-784	1253	637	-0.9307466	-7.858803	1.029533	0	10.09	4004	11	-80	5	5	0.02	2.172571	8	10	0.03	2000	-13.81027	40.92389	-91.39361
173363	-239	-209	66	-1.053939	-8.021712	0.9631228	0	10.09	4002	11	-80	5	5	0.02	2.174057	8	10	0.03	2000	-14.66498	40.92389	-91.39361
173462	-151	7	797	-1.171916	-7.273841	0.7936649	0	10.09	4003	11	-80	5	5	0.02	2.169785	8	10	0.03	2000	-15.79395	40.92389	-91.39361
173551	-30	677	-263	-0.8739462	-7.209079	0.6835026	0	10.09	4003	11	-80	5	5	0.02	2.167892	8	10	0.03	2000	-14.88785	40.92389	-91.39361
173616	-1085	-873	-49	-1.515618	-6.687232	0.7309424	0	10.09	4002	11	-80	5	5	0.02	2.16881	8	10	0.03	2000	-15.16061	40.92389	-91.39361
173686	-1274	-834	854	-1.736229	-6.777915	0.7248431	0	10.09	4003	8	-64	5	5	0.02	2.173788	8	10	0.03	2000	-15.16061	40.92389	-91.39361
173823	1497	1552	1211	-1.311431	-8.029733	0.5430745	0	10.09	4004	11	-50	5	5	0.02	2.178678	8	10	0.03	2000	-19.08682	40.92389	-91.39361
173886	-1262	1053	-40	-0.7102127	-9.339937	0.3859811	0	10.09	4002	11	-85	5	5	0.02	2.180218	8	10	0.03	2000	-15.98416	40.92389	-91.39361
174099	-510	-281	836	-1.214055	-6.3387	0.4959887	0	10.09	4003	11	-85	5	5	0.02	2.174352	8	10	0.03	2000	-15.54034	40.92389	-91.39361
174208	425	954	-1418	-1.631885	-6.878693	-0.1423723	0	10.09	4003	11	-86	5	5	0.02	2.1671	8	10	0.03	2000	-15.08276	40.92389	-91.39362
174308	2047	1854	1445	-0.1850607	-8.179477	-0.0126738	0	10.09	4003	-60	-86	5	5	0.02	2.142419	8	10	0.03	2000	-15.08276	40.92389	-91.39362
174447	382	363	-1310	2.336184	-8.818849	1.704447	0	10.09	4002	-60	-86	5	5	0.02	2.117319	8	10	0.03	2000	-14.75812	40.92389	-91.39362
174575	2642	1067	714	2.090453	-7.417927	1.323425	0	10.09	4003	-60	-91	5	5	0.02	2.069972	8	10	0.03	2000	-11.88089	40.92389	-91.39362
174680	122	1962	2240	4.187233	-10.24758	1.045177	0	10.09	4003	-60	-91	5	5	0.02	2.032685	8	10	0.03	2000	-10.86902	40.92389	-91.39362
174763	470	-872	-385	3.231757	-8.707861	0.9570493	0	10.38	4003	-60	-91	5	5	0.02	2.006857	8	10	0.03	2000	-9.280487	40.92389	-91.39362
174902	360	1026	656	3.197713	-8.922118	0.310902	0	10.38	4003	0	-91	5	5	0.02	1.967868	8	10	0.03	2000	-7.498077	40.92389	-91.39362
175024	2500	2402	-1748	3.075866	-9.513108	1.194921	0	10.38	4003	-71	-127	5	5	0.02	1.957372	8	10	0.03	2000	-5.543549	40.92388	-91.39362
175179	-931	-2301	1793	4.459002	-8.107279	1.916898	0	10.38	4004	-71	-97	5	5	0.02	1.946633	8	10	0.03	2000	-4.613251	40.92388	-91.39362
175235	702	-1339	1039	4.220663	-6.545254	1.542982	0	10.38	4004	-71	-97	5	5	0.02	1.948961	8	10	0.03	2000	-2.221558	40.92388	-91.39362
175318	736	747	-2041	4.765625	-6.118328	0.6684027	0	10.38	4003	-71	-97	5	5	0.02	1.951189	8	10	0.03	2000	-2.282715	40.92388	-91.39362
175384	2660	2173	-1435	6.013721	-8.684356	0.8683847	0	10.38	4003	-71	-97	5	5	0.02	1.958888	8	10	0.03	2000	-2.657745	40.92388	-91.39362
175490	-761	-977	16	6.15413	-8.795367	1.752397	0	10.38	4003	-71	-97	5	5	0.02	1.96158	8	10	0.03	2000	-0.05789185	40.92388	-91.39362
175588	-180	591	1737	5.626916	-7.845513	1.434357	0	10.38	4003	-142	-97	5	5	0.02	1.962409	8	10	0.03	2000	1.434468	40.92388	-91.39363
175723	-335	-373	26	4.604671	-6.507368	0.9045857	0	10.38	4004	-82	-67	5	5	0.02	1.956854	8	10	0.03	2000	3.522437	40.92388	-91.39363
175870	2783	255	-1637	5.438274	-7.840422	1.070334	0	10.38	4003	-82	-67	5	5	0.02	1.960514	8	10	0.03	2000	4.193686	40.92388	-91.39363
175948	563	375	700	6.620147	-8.119573	0.936819	0	10.38	4004	-82	-67	5	5	0.02	1.965004	8	10	0.03	2000	5.787999	40.92388	-91.39363
176014	688	781	900	6.369968	-8.518477	0.5847136	0	10.38	4003	-82	-67	5	5	0.02	1.966413	8	10	0.03	2000	7.468081	40.92389	-91.39363
176131	1669	1567	118	8.347668	-10.63945	0.8119899	0	10.38	4003	-23	-31	5	5	0.02	1.967853	8	10	0.03	2000	8.686679	40.92389	-91.39363
176182	-599	-496	-1162	7.87442	-10.85573	1.011709	0	10.38	4002	-22	-31	5	5	0.02	1.969898	8	10	0.03	2000	10.29537	40.92389	-91.39363
176294	-2704	-2094	-113	0.8638284	-5.544223	0.6449534	0	10.38	4004	48	4	5	5	0.02	1.97226	8	10	0.03	2000	11.8826	40.92389	-91.39362
176355	-930	455	81	-0.586872	-5.54679	0.5997874	0	10.38	4003	48	4	5	5	0.02	1.97434	8	10	0.03	2000	10.97674	40.92389	-91.39362
176459	-159	-707	-149	0.2950992	-6.755587	1.45679	0	10.38	4002	48	39	5	5	0.02	1.990695	8	10	0.03	2000	12.08916	40.92389	-91.39362
176580	-2283	-2458	1785	-0.9216815	-3.237471	0.8317257	0	10.43	4002	120	39	5	5	0.02	2.024741	8	10	0.03	2000	9.425337	40.92389	-91.39362
176702	88	-1305	-985	-4.771995	-0.699142	-0.1524563	0	10.43	4003	120	9	5	5	0.02	2.084688	8	10	0.03	2000	9.036976	40.92389	-91.39362
176776	-580	32	841	-3.536624	-1.30214	0.1513627	0	10.43	4003	119	45	5	5	0.02	2.118663	8	10	0.03	2000	9.036976	40.9239	-91.39362
176862	-671	-671	20	-4.889524	-1.171304	0.4244626	0	10.43	4003	60	15	5	5	0.02	2.155317	8	10	0.03	2000	5.970789	40.9239	-91.39362
176974	-521	-1261	-733	-4.260353	-2.245068	0.4562695	0	10.43	4004	131	15	5	5	0.02	2.17853	8	10	0.03	2000	3.492972	40.9239	-91.39361
177144	-313	18	-898	-7.68304	-0.2564979	0.5059792	0	10.43	4002	131	-14	5	5	0.02	2.204017	8	10	0.03	2000	-1.26947	40.9239	-91.39361
177207	60	2408	-447	-7.637699	-2.550806	0.2721161	0	10.43	4009	71	-14	5	5	0.02	2.201702	8	10	0.03	2000	-6.779816	40.9239	-91.39361
177275	1481	338	-2835	-4.627675	-6.894952	1.286883	0	10.43	4004	71	-14	5	5	0.02	2.187745	8	10	0.03	2000	-12.08774	40.9239	-91.39361
177425	-2271	-1999	392	-6.635027	-4.318986	1.275313	0	10.49	4003	142	-8	5	5	0.02	2.134271	8	10	0.03	2000	-14.60217	40.9239	-91.3936
177485	-2206	-1421	-621	-6.985636	-4.139426	0.9867305	0	10.49	4004	142	-9	5	5	0.02	2.083808	8	10	0.03	2000	-14.60217	40.9239	-91.3936
177534	-1474	-257	1511	-7.287577	-5.974596	0.6696634	0	10.49	4004	83	-9	5	5	0.02	2.038901	8	10	0.03	2000	-22.59277	40.9239	-91.3936
177693	989	518	507	-4.928238	-6.435528	1.559992	0	10.49	4002	82	-9	5	5	0.02	1.914252	8	10	0.03	2000	-31.52216	40.9239	-91.3936
177739	-131	-363	-1154	-4.519411	-5.933317	1.443027	0	10.49	4004	82	-9	5	5	0.02	1.894543	8	10	0.03	2000	-30.99683	40.9239	-91.3936
177889	104	2338	-360	-7.115648	-5.697795	-0.08953741	0	10.49	4002	153	-9	5	5	0.02	1.648586	8	10	0.03	2000	-36.28323	40.9239	-91.39359
178003	2410	2120	-289	-4.543365	-9.812593	-1.049117	0	10.49	4002	93	-39	5	5	0.02	1.589427	8	10	0.03	2000	-34.33838	40.9239	-91.39359
178070	1298	2327	-1321	-3.683594	-10.16639	-0.8301457	0	10.49	4003	93	-74	5	5	0.02	1.548917	8	10	0.03	2000	-30.97055	40.9239	-91.39359
178129	391	2854	-1818	-3.379328	-12.61127	-0.416159	0	10.49	4002	93	-74	5	5	0.02	1.486687	8	10	0.03	2000	-30.80807	40.9239	-91.39359
178252	3131	4952	714	1.102322	-17.74416	0.0800987	0	10.49	4002	93	-74	5	5	0.02	1.363001	8	10	0.03	2000	-24.83228	40.9239	-91.39359
178328	2075	80	-896	2.720055	-16.45242	0.9943865	0	9.36	4003	93	-74	5	5	0.02	1.305537	8	10	0.03	2000	-22.38263	40.9239	-91.39359
178483	2716	-130	1135	7.540236	-12.16192	0.9391312	0	9.36	4002	-37	-74	5	5	0.02	1.199057	8	10	0.03	2000	-18.61099	40.9239	-91.3936
178536	-88	-2342	-6	7.720985	-11.23292	0.8785244	0	9.36	4002	-37	-74	5	5	0.02	1.188457	8	10	0.03	2000	-18.61099	40.92389	-91.3936
178666	-111	2476	1742	5.863357	-9.595818	0.9841337	0	9.36	4002	-37	-80	5	5	0.02	1.150096	8	10	0.03	2000	-15.66965	40.92389	-91.3936
178787	-2365	-1994	1424	3.048594	-10.10488	0.9510244	0	9.36	4003	-37	-80	5	5	0.02	1.150869	8	10	0.03	2000	-13.31009	40.92389	-91.3936
178813	753	-1793	-312	2.701878	-9.170838	1.245615	0	9.36	4002	-37	-80	5	5	0.02	1.150869	8	10	0.03	2000	-13.31009	40.92389	-91.3936
179005	-395	807	-188	3.209699	-6.882928	0.641687	0	9.36	4005	-37	-80	5	5	0.02	1.17568	8	10	0.03	2000	-11.13022	40.92389	-91.3936
179041	-649	667	-99	2.889587	-7.019678	0.5969396	0	9.36	4003	21	-80	5	5	0.02	1.18512	8	10	0.03	2000	-10.12396	40.92389	-91.3936
179134	-976	-1111	507	1.091801	-5.988242	0.6937926	0	9.36	4004	22	-80	5	5	0.02	1.205126	8	10	0.03	2000	-9.603668	40.92389	-91.3936
179223	-432	226	-60	0.124418	-4.752856	0.7543673	0	10.21	4004	22	-50	5	5	0.02	1.216843	8	10	0.03	2000	-9.531799	40.92389	-91.3936
179338	1296	-602	-659	-1.503113	-5.609864	0.5311767	0	10.21	4003	-48	-50	5	5	0.02	1.24203	8	10	0.03	2000	-10.30869	40.92389	-91.39361
179494	2546	1986	-2566	1.860597	-7.894489	1.26502	0	10.21	4003	-48	-14	5	5	0.02	1.280413	8	10	0.03	2000	-10.37833	40.9239	-91.39361
179598	-508	-4365	-1346	2.253027	-7.101763	1.39933	0	10.21	4002	-48	-14	5	5	0.02	1.309308	8	10	0.03	2000	-7.192017	40.9239	-91.39361
179688	-46	-2638	1387	1.95873	-3.128594	1.081035	0	10.21	4003	-48	-14	5	5	0.02	1.337643	8	10	0.03	2000	-7.472961	40.9239	-91.39361
179757	123	2148	1241	2.166135	-4.895251	0.667325	0	10.21	4003	-48	-14	5	5	0.02	1.362531	8	10	0.03	2000	-5.795593	40.9239	-91.39361
179871	645	-366	-1553	4.642487	-7.943822	1.501991	0	10.21	4003	-48	-14	5	5	0.02	1.416421	8	10	0.03	2000	-6.639923	40.9239	-91.39361
179898	-1090	-1801	-281	3.976108	-6.900033	1.586435	0	10.21	4003	-48	-14	5	5	0.02	1.426527	8	10	0.03	2000	-6.437225	40.9239	-91.39361
180042	928	393	-568	-0.1809295	-3.173	1.104662	0	10.21	4002	11	-14	5	5	0.02	1.485375	8	10	0.03	2000	-3.974152	40.9239	-91.39361
180107	239	-123	231	0.143338	-3.211464	1.060152	0	10.21	4004	11	-44	5	5	0.02	1.519234	8	10	0.03	2000	-4.475586	40.9239	-91.39361
180291	-398	143	-901	-3.10266	-3.54921	0.227305	0	9.92	4004	11	-9	5	5	0.02	1.591948	8	10	0.03	2000	-4.335266	40.9239	-91.39361
180339	655	1822	-1144	-3.496182	-4.785744	0.4895678	0	9.92	4004	11	-9	5	5	0.02	1.607713	8	10	0.03	2000	-4.898224	40.9239	-91.39361
180459	-1740	1750	1651	-3.17481	-9.368801	0.2576143	0	9.92	4002	13	-11	5	5	0.02	1.658499	8	10	0.03	2000	-6.447632	40.9239	-91.39361
180497	-1445	-316	69	-3.684452	-9.306086	0.04256275	0	9.92	4003	11	-9	5	5	0.02	1.676602	8	10	0.03	2000	-6.834717	40.9239	-91.39361
180624	414	-1331	718	-2.201341	-4.139794	-0.07710441	0	9.92	4003	11	-9	5	5	0.02	1.714598	8	10	0.03	2000	-5.756226	40.9239	-91.39361
180698	-1917	-1775	-2080	-2.006151	-3.098873	0.007544652	0	9.92	4003	11	-9	5	5	0.02	1.744469	8	10	0.03	2000	-6.433105	40.9239	-91.39361
180811	1455	269	-631	-2.429549	-5.385479	0.290277	0	9.92	4004	0	0	5	5	0.02	1.793498	3	10	0.03	2000	-8.405396	40.9239	-91.39361
180883	3113	1622	-1185	0.8501221	-6.709384	1.499503	0	9.92	4004	0	0	5	5	0.02	1.810023	3	10	0.03	2000	-8.623077	40.9239	-91.3936
180979	661	-658	-84	2.732506	-7.408741	3.026199	0	9.92	4002	0	0	5	5	0.02	1.826101	3	10	0.03	2000	-8.181641	40.9239	-91.3936
181152	-264	-2071	1949	-0.8155661	-1.433033	0.142209	0	10.83	4003	0	0	5	5	0.02	1.831676	3	10	0.03	2000	-3.372681	40.9239	-91.3936
181251	774	1656	506	-1.14529	-1.583519	-0.5685033	0	10.83	4002	0	0	5	5	0.02	1.821011	3	10	0.03	2000	-2.869812	40.9239	-91.3936
181333	-3192	734	-521	-2.339498	-4.001806	0.08612705	0	10.83	4003	0	0	5	5	0.02	1.807621	3	10	0.03	2000	-1.86731	40.9239	-91.3936
181390	-4220	-372	-609	-5.815902	-4.999489	0.9262492	0	10.83	4004	0	0	5	5	0.02	1.801798	3	10	0.03	2000	-4.541687	40.9239	-91.3936
181569	-2924	397	-1155	-14.38577	-2.851943	0.5925072	0	10.83	4004	0	0	5	5	0.02	1.727948	3	10	0.03	2000	-11.67511	40.9239	-91.3936
181663	-1941	2136	174	-17.2927	-4.914636	0.0839643	0	10.83	4002	0	0	5	5	0.02	1.679877	3	10	0.03	2000	-22.81458	40.9239	-91.3936
181777	4429	-615	-1506	-11.54576	-10.12878	1.05168	0	10.83	4004	0	0	5	5	0.02	1.620101	3	10	0.03	2000	-29.01654	40.9239	-91.3936
181798	2233	-2175	-1799	-8.892297	-9.189532	1.258265	0	10.83	4004	0	0	5	5	0.02	1.620101	3	10	0.03	2000	-30.04004	40.9239	-91.3936
181920	2358	-314	298	-5.913481	-5.133325	0.9878814	0	10.49	4004	0	0	5	5	0.02	1.505162	3	10	0.03	2000	-29.92041	40.9239	-91.3936
182044	8261	-435	21	9.521411	-4.158756	-0.3565526	0	10.49	4003	0	0	5	5	0.02	1.37601	3	10	0.03	2000	-27.56946	40.9239	-91.3936
182096	8333	-404	306	13.45722	-3.948067	-0.5881888	0	10.49	4003	0	0	5	5	0.02	1.358684	3	10	0.03	2000	-22.55807	40.9239	-91.3936
182244	6836	963	1303	25.48707	-3.270871	-1.691436	0	10.49	4002	0	0	5	5	0.02	1.250298	3	10	0.03	2000	-10.39233	40.9239	-91.3936
182335	5313	1798	499	29.42003	-3.275305	-2.869217	0	10.49	4003	0	0	5	5	0.02	1.158509	3	10	0.03	2000	3.594576	40.9239	-91.3936
182460	-27639	-6004	8210	42.86642	30.53256	-23.3898	0	10.49	4002	0	0	5	5	0.02	0.9920953	3	10	0.03	2000	-80.73386	40.9239	-91.39361
182569	-22113	-2859	10157	-12.12764	37.6581	-37.61607	0	10.49	4003	0	0	5	5	0.02	0.7788665	3	10	0.03	2000	-73.27582	40.9239	-91.39361
182622	-18395	-3450	9665	-25.99617	36.22644	-42.55674	0	10.49	4003	0	0	5	5	0.02	0.7341704	3	10	0.03	2000	-65.45932	40.9239	-91.39361
182707	3489	10711	9029	-65.42799	16.22998	-65.12336	0	10.49	4003	0	0	5	5	0.02	0.6758574	3	10	0.03	2000	-50.32281	40.9239	-91.39361
182803	-3461	1846	-5785	-63.81578	23.65101	-60.62061	0	10.49	4003	0	0	5	5	0.02	0.6149477	3	10	0.03	2000	-43.10394	40.9239	-91.39361
182930	3041	-202	-1414	-57.03178	27.03985	-51.51571	0	10.89	4004	0	0	5	5	0.02	0.4936284	3	10	0.03	2000	-55.87793	40.9239	-91.39361
183006	470	381	-71	-52.27593	22.92121	-50.97944	0	10.89	4002	0	0	5	5	0.02	0.4354458	3	10	0.03	2000	-57.86218	40.9239	-91.39361
183141	-499	-119	1118	-53.67021	19.22352	-51.59801	0	10.89	4004	0	0	5	5	0.02	0.319685	3	10	0.03	2000	-58.33246	40.9239	-91.39362
183264	-1052	-315	1081	-55.09732	13.44057	-53.82538	0	10.89	4003	0	0	5	5	0.02	0.2217289	3	10	0.03	2000	-57.85037	40.92389	-91.39362
183317	-1240	-271	1377	-55.68886	10.55372	-55.21028	0	10.89	4003	0	0	5	5	0.02	0.194352	3	10	0.03	2000	-57.72348	40.92389	-91.39362
183425	-1153	713	1449	-57.00782	5.70068	-57.93549	0	10.89	4004	0	0	5	5	0.02	0.1430362	3	10	0.03	2000	-56.24683	40.92389	-91.39362
183531	-6312	1619	1937	-57.52529	1.122239	-58.88837	0	10.89	4002	0	0	5	5	0.02	0.06657836	3	10	0.03	2000	-57.34097	40.92389	-91.39362
183663	9493	-1769	831	-48.50011	-2.949278	-61.97274	0	10.89	4002	0	0	5	5	0.02	0.02819201	3	10	0.03	2000	-57.72617	40.92389	-91.39362
183770	12083	-1284	3276	-29.5157	-4.879732	-66.25469	0	10.89	4004	0	0	5	5	0.02	-0.009162875	3	10	0.03	2000	-54.88721	40.92389	-91.39362
183871	1447	-2170	2557	-19.9021	-5.880531	-69.53338	0	11	4003	0	0	5	5	0.02	-0.04009487	3	10	0.03	2000	-46.08917	40.92389	-91.39362
183923	-3893	-4201	5561	-24.21061	-5.968738	-74.05448	0	11	4003	0	0	5	5	0.02	-0.04598796	3	10	0.03	2000	-41.42746	40.92389	-91.39362
184062	-4126	4368	6402	-38.40561	-14.97702	-85.84353	0	11	4003	0	0	5	5	0.02	-0.07072962	3	10	0.03	2000	-31.88437	40.92388	-91.39363
184126	110	6303	9318	-37.94499	-27.52192	-94.47057	0	11	4004	0	0	5	5	0.02	-0.07086712	3	10	0.03	2000	-30.90161	40.92388	-91.39363
184229	3231	5839	10452	-30.66644	-40.58766	-105.8163	0	11	4002	0	0	5	5	0.02	-0.05679801	3	10	0.03	2000	-25.61609	40.92388	-91.39363
184345	3788	-1857	1357	-16.38797	-50.82139	-121.6422	0	11	4004	0	0	5	5	0.02	-0.02386924	3	10	0.03	2000	-14.18066	40.92388	-91.39363
