time(ms)	gyro_x(deg/s)	gyro_y(deg/s)	gyro_z(deg/s)	orientation_roll(deg)	orientation_pitch(deg)	orientation_yaw(deg)	throttle	battery(V)	loop_time(uS)	pid_output_roll	pid_output_pitch	pid_output_yaw	pid_output_throttle	ultrasonic_alt	baro_alt	flight_mode	p_gain_altitude	i_gain_altitude	d_gain_altitude
116246	262	-1614	-1093	-1.746561	-2.75932	-0.8101389	0	11.06	4003	-28	68	36	0	1.170993	0.4642065	3	4	0.03	1600
116422	49	-254	52	-0.5820404	-2.44965	1.001935	0	11.06	4004	63	-45	-31	0	1.170996	0.4642034	3	4	0.03	1600
116551	1437	343	-628	-1.269228	-4.584208	1.09529	0	11.06	4002	-58	-200	-15	0	1.170999	0.4679909	3	4	0.03	1600
116594	1478	-342	79	-0.485399	-4.817087	1.036239	0	11.06	4002	17	-95	-2	0	1.170999	0.4726982	3	4	0.03	1600
116668	215	-1520	122	-0.3943193	-3.184971	1.033135	0	10.72	4003	-18	-119	-3	0	1.171	0.4815904	3	4	0.03	1600
116762	650	-545	-1231	-0.06375433	-2.846138	1.313174	0	10.72	4003	37	-183	-23	0	1.171	0.4912412	3	4	0.03	1600
116935	296	-116	128	0.8077438	-4.987337	1.288787	0	10.72	4002	-152	149	-12	0	1.171001	0.5136797	3	4	0.03	1600
116990	-734	-32	371	0.7389097	-4.463115	1.335794	0	10.72	4003	32	60	-9	0	1.171001	0.5181753	3	4	0.03	1600
117070	715	-1421	-36	-0.2712506	-3.65863	1.082764	0	10.72	4004	-132	-32	-7	0	1.171001	0.5235849	3	4	0.03	1600
117196	-947	-1294	546	0.2568116	-2.933475	1.242024	0	10.72	4004	112	-108	0	0	1.171001	0.5428843	3	4	0.03	1600
117284	226	639	-250	-0.1254487	-3.411928	1.513096	0	10.72	4004	-7	34	-27	0	1.171001	0.5461342	3	4	0.03	1600
117375	-920	-1329	323	-0.5401174	-4.399395	1.640929	0	10.72	4002	-20	-33	-26	0	1.171001	0.551686	3	4	0.03	1600
117475	-569	-778	-240	-1.397034	-2.417386	1.55774	0	10.72	4003	-84	-12	-17	0	1.171001	0.5557604	3	4	0.03	1600
117573	-17	945	644	-2.235903	-3.329643	0.7014706	0	10.89	4003	72	-23	10	0	1.171001	0.5575801	3	4	0.03	1600
117678	-473	-1555	-144	-1.657253	-3.361161	0.2483609	0	10.89	4003	35	-101	13	0	1.171001	0.5614401	3	4	0.03	1600
117786	655	-1000	-85	-0.833843	-1.616586	0.9019193	0	10.89	4003	92	-89	-2	0	1.171001	0.5675393	3	4	0.03	1600
117886	556	513	-338	-0.9585927	-2.297462	1.17811	0	10.89	4002	39	13	-15	0	1.171001	0.5700423	3	4	0.03	1600
118090	-1177	2939	229	0.8293352	-7.347661	1.299636	0	10.89	4003	-3	147	-8	0	1.171001	0.5637118	3	4	0.03	1600
118137	443	1870	289	0.5632756	-9.160254	1.153651	0	10.89	4002	-50	13	-10	0	1.171001	0.5598423	3	4	0.03	1600
118224	-429	3217	696	0.3998441	-11.34156	0.6893485	0	10.89	4003	11	-10	5	0	1.171001	0.5534052	3	4	0.03	1600
118314	1410	694	-698	0.9902021	-13.16981	0.9269086	0	10.89	4003	-180	144	3	0	1.171001	0.5476511	3	4	0.03	1600
118406	-118	627	289	2.004519	-14.21354	1.226718	0	10.89	4002	20	73	-8	0	1.171001	0.5379575	3	4	0.03	1600
118608	104	-131	143	0.6150741	-10.99349	1.207081	0	10.49	4002	42	-158	-14	0	1.171001	0.4990139	3	4	0.03	1600
118695	-2441	-483	260	0.08605269	-10.17927	0.4343563	0	10.49	4002	-2	31	13	0	1.171001	0.4823566	3	4	0.03	1600
118792	-619	924	598	-2.022976	-8.701207	0.2147987	0	10.49	4002	31	-112	-1	0	1.171001	0.4661281	3	4	0.03	1600
118875	413	2236	-793	-2.912365	-10.11954	0.4249614	0	10.49	4003	-48	-145	-10	0	1.171001	0.4560622	3	4	0.03	1600
118924	-156	2457	-163	-3.031987	-12.15515	0.7391085	0	10.49	4003	0	-49	-7	0	1.171001	0.4472124	3	4	0.03	1600
119015	-1418	-642	-289	-3.88699	-14.04833	0.803318	0	10.49	4003	3	-142	-6	0	1.171001	0.430531	3	4	0.03	1600
119096	171	1029	459	-3.753999	-12.97289	0.9765763	0	10.49	4002	-107	117	-1	0	1.171001	0.4198728	3	4	0.03	1600
119236	-2079	2927	498	-5.387929	-16.11478	0.5340059	0	10.49	4003	3	201	10	0	1.171001	0.393107	3	4	0.03	1600
119308	313	1610	-375	-5.60914	-17.11604	0.7102656	0	10.49	4003	-78	79	-3	0	1.171001	0.3814487	3	4	0.03	1600
119392	-346	-729	-423	-5.428953	-16.36465	0.8895671	0	10.49	4002	-8	-120	-3	0	1.171001	0.3707478	3	4	0.03	1600
119523	-5174	-11200	-906	-0.6850581	-2.427886	-1.646579	0	11.29	4002	0	0	0	0	1.171001	0.3604512	3	4	0.03	1600
119598	1598	-1889	2977	0.05056906	-2.256763	-3.1291	0	11.29	4002	0	0	0	0	1.171001	0.347709	3	4	0.03	1600
119754	20	-90	28	1.106578	-4.476571	-5.325651	0	11.29	4002	0	0	0	0	1.171001	0.336803	3	4	0.03	1600
119848	-16	6	-62	0.9800181	-3.888786	-5.33953	0	11.29	4003	0	0	0	0	1.171001	0.3253078	3	4	0.03	1600
119936	-18	-29	80	0.7429487	-3.376626	-5.344233	0	11.29	4002	0	0	0	0	1.171001	0.312537	3	4	0.03	1600
120035	-32	-27	145	0.5843548	-2.916532	-5.353217	0	11.29	4002	0	0	0	0	1.171001	0.2908553	3	4	0.03	1600
120214	-58	-23	29	0.3319958	-2.278993	-5.35438	0	11.29	4003	0	0	0	0	1.171001	0.2498871	3	4	0.03	1600
120323	-27	-41	31	0.1824604	-1.845639	-5.363061	0	11.51	4002	0	0	0	0	1.171001	0.2205816	3	4	0.03	1600
120402	17	-58	-21	0.1252628	-1.67223	-5.367038	0	11.51	4004	0	0	0	0	1.171001	0.2105158	3	4	0.03	1600
120503	-47	-48	34	0.0382587	-1.421583	-5.380181	0	11.51	4002	0	0	0	0	1.171001	0.1963311	3	4	0.03	1600
120608	-35	-6	67	-0.0383422	-1.205355	-5.390759	0	11.51	4003	0	0	0	0	1.171001	0.1798229	3	4	0.03	1600
120769	-50	-40	37	-0.1512468	-0.9227163	-5.409343	0	11.51	4004	0	0	0	0	1.171001	0.1439004	3	4	0.03	1600
120839	-31	-25	-13	-0.1857378	-0.8214896	-5.416189	0	11.51	4004	0	0	0	0	1.171001	0.1339033	3	4	0.03	1600
120991	-38	-41	59	-0.2497787	-0.6575222	-5.431661	0	11.51	4003	0	0	0	0	1.171001	0.1129602	3	4	0.03	1600
121021	-17	-25	4	-0.2626667	-0.6172581	-5.433494	0	11.51	4002	0	0	0	0	1.171001	0.1053	3	4	0.03	1600
121115	-38	-30	-19	-0.2999868	-0.5108278	-5.441686	0	11.51	4004	0	0	0	0	1.171001	0.09597568	3	4	0.03	1600
121244	-28	-22	-2	-0.3535075	-0.3910788	-5.452569	0	11.63	4002	0	0	0	0	1.171001	0.08166443	3	4	0.03	1600
121316	-27	-25	7	-0.3778834	-0.315048	-5.462106	0	11.63	4004	0	0	0	0	1.171001	0.07558884	3	4	0.03	1600
121433	-30	-30	13	-0.3925232	-0.2505936	-5.467791	0	11.63	4004	0	0	0	0	1.171001	0.06463146	3	4	0.03	1600
121522	-29	-28	0	-0.4054171	-0.2000111	-5.475494	0	11.63	4003	0	0	0	0	1.171001	0.04247191	3	4	0.03	1600
121626	-30	-24	10	-0.4095224	-0.150825	-5.481304	0	11.63	4002	0	0	0	0	1.171001	0.02995327	3	4	0.03	1600
121730	-27	-28	3	-0.4169878	-0.1055709	-5.489435	0	11.63	4002	0	0	0	0	1.171001	0.02404877	3	4	0.03	1600
121838	-21	-30	3	-0.4225501	-0.07648943	-5.494143	0	11.63	4003	0	0	0	0	1.171001	0.01649358	3	4	0.03	1600
121961	-29	-23	2	-0.4302074	-0.05005069	-5.501356	0	11.63	4002	0	0	0	0	1.171001	0.02159215	3	4	0.03	1600
122040	-34	-28	7	-0.4297575	-0.02385622	-5.507348	0	11.63	4003	0	0	0	0	1.171001	0.02605009	3	4	0.03	1600
122124	-26	-27	2	-0.4264566	-0.009116969	-5.509915	0	11.63	4002	0	0	0	0	1.171001	0.03595558	3	4	0.03	1600
122231	-30	-14	11	-0.4262358	0.0127996	-5.51664	0	11.63	4002	0	0	0	0	1.171001	0.05498752	3	4	0.03	1600
122339	-28	-28	5	-0.4426857	0.03288572	-5.52465	0	11.63	4002	0	0	0	0	1.171001	0.05988583	3	4	0.03	1600
122452	-20	-37	4	-0.4595314	0.04107954	-5.53266	0	11.63	4003	0	0	0	0	1.171001	0.06180125	3	4	0.03	1600
122587	-26	-24	1	-0.4606663	0.05833538	-5.537245	0	11.63	4004	0	0	0	0	1.171001	0.06478601	3	4	0.03	1600
122638	-33	-24	3	-0.4639894	0.05885205	-5.53914	0	11.63	4004	0	0	0	0	1.171001	0.06461203	3	4	0.03	1600
122809	-34	-19	0	-0.4658403	0.07578815	-5.545803	0	11.63	4004	0	0	0	0	1.171001	0.05952838	3	4	0.03	1600
122873	-26	-29	2	-0.4646931	0.08264836	-5.548554	0	11.63	4002	0	0	0	0	1.171001	0.05884233	3	4	0.03	1600
122937	-25	-20	4	-0.4591027	0.08774565	-5.552162	0	11.63	4004	0	0	0	0	1.171001	0.05848153	3	4	0.03	1600
123043	-35	-25	4	-0.4544254	0.09467636	-5.558766	0	11.63	4003	0	0	0	0	1.171001	0.05870328	3	4	0.03	1600
123144	-29	-23	2	-0.4576811	0.09620831	-5.561212	0	11.63	4004	0	0	0	0	1.171001	0.04536419	3	4	0.03	1600
123254	-27	-23	4	-0.458737	0.09612564	-5.566226	0	11.63	4002	0	0	0	0	1.171001	0.03582462	3	4	0.03	1600
123446	-26	-26	0	-0.4553163	0.09637899	-5.576803	0	11.63	4003	0	0	0	0	1.171001	0.02595409	1	4	0.03	1600
123475	-12	-20	2	-0.4524127	0.09567928	-5.577597	0	11.63	4003	0	0	0	0	1.171001	0.02580955	1	4	0.03	1600
123562	-15	-21	-1	-0.4526829	0.1019517	-5.579003	0	11.63	4002	0	0	0	0	1.171001	0.02610962	1	4	0.03	1600
123659	-20	-24	0	-0.4543988	0.1035948	-5.58267	0	11.63	4004	0	0	0	0	1.171001	0.02371175	1	4	0.03	1600
123767	-10	-22	5	-0.4490059	0.09301107	-5.586888	0	11.63	4004	0	0	0	0	1.171001	0.01998385	1	4	0.03	1600
123863	-31	-23	4	-0.4474902	0.09654126	-5.59135	0	11.63	4002	0	0	0	0	1.171001	0.01398818	1	4	0.03	1600
123995	-23	-26	0	-0.4424567	0.1034153	-5.594957	0	11.63	4004	0	0	0	0	1.171001	0.008065332	1	4	0.03	1600
124116	-27	-22	5	-0.4314243	0.1027309	-5.59832	0	11.63	4003	0	0	0	0	1.171001	-0.004529615	1	4	0.03	1600
124246	-21	-20	4	-0.4259895	0.1037675	-5.604188	0	11.63	4003	0	0	0	0	1.171001	-0.0084146	1	4	0.03	1600
124341	-20	-23	0	-0.4197127	0.1023875	-5.608407	0	11.63	4003	0	0	0	0	1.171001	-0.005160841	1	4	0.03	1600
124409	-14	-21	-2	-0.4172438	0.1022892	-5.61073	0	11.63	4005	0	0	0	0	1.171001	0.008856449	1	4	0.03	1600
124470	-27	-18	0	-0.4087814	0.09987343	-5.61183	0	11.63	4003	0	0	0	0	1.171001	0.01484819	1	4	0.03	1600
124542	-25	-18	5	-0.4073398	0.09526383	-5.612563	0	11.63	4004	0	0	0	0	1.171001	0.01921616	1	4	0.03	1600
124688	-26	-23	-1	-0.4118558	0.100353	-5.615983	0	11.63	4003	0	0	0	0	1.171001	0.02955322	1	4	0.03	1600
124737	-23	-27	5	-0.4134234	0.09854098	-5.617023	0	11.63	4002	0	0	0	0	1.171001	0.03385153	1	4	0.03	1600
124840	-9	-27	0	-0.4081895	0.09674364	-5.620445	0	11.63	4003	0	0	0	0	1.171001	0.04015329	1	4	0.03	1600
124920	-13	-18	0	-0.4074205	0.09562553	-5.623318	0	11.68	4002	0	0	0	0	1.171001	0.04250735	1	4	0.03	1600
125026	-16	-11	-2	-0.4121671	0.1004304	-5.62454	0	11.68	4002	0	0	0	0	1.171001	0.04434999	1	4	0.03	1600
125135	-23	-15	4	-0.4056113	0.09789332	-5.626435	0	11.68	4004	0	0	0	0	1.171001	0.05441232	1	4	0.03	1600
125229	-22	-21	3	-0.4021277	0.08773471	-5.62888	0	11.68	4004	0	0	0	0	1.171001	0.06982866	1	4	0.03	1600
125336	-27	-22	-1	-0.3939463	0.08697991	-5.629919	0	11.68	4002	0	0	0	0	1.171001	0.08786651	1	4	0.03	1600
125433	-25	-18	0	-0.3929427	0.07830589	-5.633402	0	11.68	4003	0	0	0	0	1.171001	0.09227448	1	4	0.03	1600
125541	-31	-12	1	-0.3911278	0.07425105	-5.637069	0	11.68	4002	0	0	0	0	1.171001	0.09901632	1	4	0.03	1600
125636	-21	-20	6	-0.3963815	0.0711045	-5.640555	0	11.68	4002	0	0	0	0	1.171001	0.09739633	1	4	0.03	1600
125743	-20	-23	4	-0.4005761	0.06384584	-5.643123	0	11.68	4003	0	0	0	0	1.171001	0.08837378	1	4	0.03	1600
125900	-11	-18	2	-0.3867711	0.0637804	-5.643613	0	11.68	4002	0	0	0	0	1.171001	0.07926872	1	4	0.03	1600
125999	-22	-21	0	-0.3855256	0.06854501	-5.644712	0	11.68	4004	0	0	0	0	1.171001	0.06536485	1	4	0.03	1600
126034	-21	-21	0	-0.3855533	0.06912351	-5.644407	0	11.68	4002	0	0	0	0	1.171001	0.06304254	1	4	0.03	1600
126185	-27	-19	3	-0.375668	0.07093868	-5.644591	0	11.68	4002	0	0	0	0	1.171001	0.04911553	1	4	0.03	1600
126246	-29	-24	0	-0.367147	0.07046055	-5.646546	0	11.68	4003	0	0	0	0	1.171001	0.04963379	1	4	0.03	1600
126378	-19	-18	0	-0.3656835	0.06913168	-5.648319	0	11.68	4003	0	0	0	0	1.171001	0.05157307	1	4	0.03	1600
126507	-28	-22	-2	-0.3657446	0.0626038	-5.650458	0	11.68	4003	0	0	0	0	1.171001	0.05549384	1	4	0.03	1600
126580	-20	-20	-2	-0.3651267	0.06353244	-5.650458	0	11.68	4003	0	0	0	0	1.171001	0.05382559	1	4	0.03	1600
126633	-11	-18	1	-0.3616485	0.05424789	-5.651864	0	11.68	4004	0	0	0	0	1.171001	0.05054457	1	4	0.03	1600
126731	-15	-18	-3	-0.3554589	0.0491933	-5.651925	0	11.68	4002	0	0	0	0	1.171001	0.05046129	1	4	0.03	1600
126879	-22	-21	-4	-0.3486462	0.04767007	-5.653942	0	11.68	4004	0	0	0	0	1.171001	0.05645331	1	4	0.03	1600
126961	-7	-16	3	-0.349335	0.04608948	-5.655164	0	11.68	4002	0	0	0	0	1.171001	0.05758069	1	4	0.03	1600
127044	-31	-20	2	-0.3472798	0.05123026	-5.65608	0	11.68	4003	0	0	0	0	1.171001	0.06068842	1	4	0.03	1600
127138	-11	-18	7	-0.3452597	0.04631112	-5.65712	0	11.68	4004	0	0	0	0	1.171001	0.0673129	1	4	0.03	1600
127253	-14	-9	-4	-0.3446636	0.0408532	-5.659075	0	11.68	4004	0	0	0	0	1.171001	0.06393871	1	4	0.03	1600
127446	-14	-13	5	-0.3445837	0.02870385	-5.661153	0	11.68	4003	0	0	0	0	1.171001	0.04460452	1	4	0.03	1600
127544	-19	-18	4	-0.3481563	0.02453963	-5.66427	0	11.68	4004	0	0	0	0	1.171001	0.04448191	1	4	0.03	1600
127626	-21	-21	1	-0.3478839	0.022227	-5.665308	0	11.68	4002	0	0	0	0	1.171001	0.04005519	1	4	0.03	1600
127671	-13	-17	0	-0.3515937	0.02255315	-5.66647	0	11.68	4003	0	0	0	0	1.171001	0.03807989	1	4	0.03	1600
127725	-17	-16	3	-0.3564769	0.02500602	-5.667203	0	11.68	4002	0	0	0	0	1.171001	0.02937445	1	4	0.03	1600
127829	-22	-18	-2	-0.3629545	0.0201576	-5.671299	0	11.68	4004	0	0	0	0	1.171001	0.01501179	1	4	0.03	1600
127980	-17	-17	1	-0.3604575	0.01827112	-5.672827	0	11.68	4002	0	0	0	0	1.171001	0.007536602	1	4	0.03	1600
128117	-8	-14	4	-0.3657557	0.01283918	-5.673499	0	11.68	4003	0	0	0	0	1.171001	0.0009763122	1	4	0.03	1600
128185	-14	-16	0	-0.3583706	0.01618504	-5.674843	0	11.68	4002	0	0	0	0	1.171001	-0.00214399	1	4	0.03	1600
128330	-26	-13	1	-0.3506362	0.01999789	-5.677349	0	11.68	4002	0	0	0	0	1.171001	0.0007943583	1	4	0.03	1600
128501	-6	-10	-1	-0.3357668	0.02064404	-5.680344	0	11.68	4003	0	0	0	0	1.171001	0.0272359	1	4	0.03	1600
128547	-18	-17	1	-0.3316995	0.01715389	-5.681199	0	11.68	4002	0	0	0	0	1.171001	0.03227062	1	4	0.03	1600
128627	-12	-14	5	-0.3274279	0.01648978	-5.6834	0	11.68	4003	0	0	0	0	1.171001	0.03370677	1	4	0.03	1600
128765	-27	-17	0	-0.3213752	0.01513707	-5.683339	0	11.68	4004	0	0	0	0	1.171001	0.03566165	1	4	0.03	1600
128819	-19	-19	4	-0.3259959	0.01019532	-5.683278	0	11.68	4004	0	0	0	0	1.171001	0.03305683	1	4	0.03	1600
128931	-18	-13	5	-0.3238127	0.02019362	-5.683583	0	11.68	4002	0	0	0	0	1.171001	0.02866369	1	4	0.03	1600
129115	-13	-25	-2	-0.3322278	0.006635551	-5.684317	0	11.68	4004	0	0	0	0	1.171001	0.02037505	1	4	0.03	1600
129179	-14	-19	2	-0.3249671	-0.002377311	-5.685172	0	11.68	4002	0	0	0	0	1.171001	0.0264364	1	4	0.03	1600
129280	-3	-15	-1	-0.3160572	-0.006029874	-5.687861	0	11.68	4003	0	0	0	0	1.171001	0.03157288	1	4	0.03	1600
129384	-9	-12	1	-0.3057203	-0.01654139	-5.690367	0	11.68	4004	0	0	0	0	1.171001	0.03548073	1	4	0.03	1600
129501	-8	-9	0	-0.2732694	-0.0118958	-5.691956	0	11.68	4002	0	0	0	0	1.171001	0.02527212	1	4	0.03	1600
129621	-15	-16	-2	-0.28704	-0.03221228	-5.692262	0	11.68	4004	0	0	0	0	1.171001	0.008572808	1	4	0.03	1600
129815	-15	-19	-2	-0.2893187	-0.02655545	-5.691528	0	11.68	4002	0	0	0	0	1.171001	-0.01165972	1	4	0.03	1600
129867	-6	-14	7	-0.2908132	-0.02592106	-5.691344	0	11.68	4002	0	0	0	0	1.171001	-0.01408825	1	4	0.03	1600
129963	-16	-8	2	-0.2852233	-0.02824657	-5.693057	0	11.68	4003	0	0	0	0	1.171001	-0.01675212	1	4	0.03	1600
130059	-22	-11	2	-0.2770989	-0.0476486	-5.693423	0	11.68	4003	0	0	0	0	1.171001	-0.01735917	1	4	0.03	1600
130228	-14	-7	0	-0.2828023	-0.05379114	-5.695258	0	11.68	4004	0	0	0	0	1.171001	-0.0240318	1	4	0.03	1600
130260	-11	-8	-5	-0.2813857	-0.04840741	-5.693546	0	11.68	4004	0	0	0	0	1.171001	-0.02647329	1	4	0.03	1600
130362	-6	-14	0	-0.2764415	-0.0625332	-5.692079	0	11.63	4003	0	0	0	0	1.171001	-0.03231321	1	4	0.03	1600
130479	-9	-12	-2	-0.2552381	-0.05056262	-5.692445	0	11.63	4004	0	0	0	0	1.171001	-0.0342073	1	4	0.03	1600
130563	-18	-6	-2	-0.2562161	-0.05279183	-5.69104	0	11.63	4003	0	0	0	0	1.171001	-0.03306638	1	4	0.03	1600
130782	-16	-6	1	-0.242782	-0.05586511	-5.691468	0	11.63	4002	0	0	0	0	1.171001	-0.02803649	1	4	0.03	1600
130892	-10	-15	7	-0.2304093	-0.05705319	-5.69324	0	11.63	4003	0	0	0	0	1.171001	-0.03149303	1	4	0.03	1600
131007	-4	-5	-4	-0.2431792	-0.04461797	-5.692139	0	11.63	4003	0	0	0	0	1.171001	-0.02949249	1	4	0.03	1600
131141	-8	-10	-2	-0.2391347	-0.04367078	-5.691222	0	11.63	4003	0	0	0	0	1.171001	-0.03199086	1	4	0.03	1600
131237	-12	-8	0	-0.2356895	-0.02980824	-5.692628	0	11.63	4002	0	0	0	0	1.171001	-0.02977817	1	4	0.03	1600
131314	-4	-5	-1	-0.232881	-0.04200693	-5.692873	0	11.68	4003	0	0	0	0	1.171001	-0.02808231	1	4	0.03	1600
131376	-5	-7	0	-0.2302578	-0.04127011	-5.691711	0	11.68	4004	0	0	0	0	1.171001	-0.02550247	1	4	0.03	1600
131416	-10	-7	0	-0.2334955	-0.03894487	-5.690611	0	11.68	4003	0	0	0	0	1.171001	-0.02149333	1	4	0.03	1600
131582	-16	-5	0	-0.2519828	-0.06015538	-5.688962	0	11.68	4003	0	0	0	0	1.171001	-0.01497654	1	4	0.03	1600
131703	-7	-4	-4	-0.2495552	-0.06610273	-5.687922	0	11.68	4002	0	0	0	0	1.171001	-0.01943211	1	4	0.03	1600
131763	-10	-10	5	-0.2487737	-0.06914402	-5.687433	0	11.68	4003	0	0	0	0	1.171001	-0.02516581	1	4	0.03	1600
131868	-12	-11	0	-0.2514429	-0.07793097	-5.687555	0	11.68	4003	0	0	0	0	1.171001	-0.03161254	1	4	0.03	1600
132056	-17	-11	0	-0.2240049	-0.07128314	-5.68841	0	11.68	4003	0	0	0	0	1.171001	-0.04412182	1	4	0.03	1600
132144	0	-4	3	-0.2235084	-0.07953303	-5.688776	0	11.74	4002	0	0	0	0	1.171001	-0.05093235	1	4	0.03	1600
132222	-6	-8	0	-0.2229708	-0.08095758	-5.688654	0	11.74	4003	0	0	0	0	1.171001	-0.05223799	1	4	0.03	1600
132357	-3	-7	-1	-0.2169853	-0.08967537	-5.689327	0	11.74	4003	0	0	0	0	1.171001	-0.05971202	1	4	0.03	1600
132497	-3	-12	-1	-0.1964521	-0.08878405	-5.689754	0	11.74	4003	0	0	0	0	1.171001	-0.0779072	1	4	0.03	1600
132575	-19	-7	0	-0.2003065	-0.09103874	-5.688776	0	11.74	4002	0	0	0	0	1.171001	-0.0909128	1	4	0.03	1600
132652	3	-6	0	-0.1989565	-0.09305864	-5.688958	0	11.74	4003	0	0	0	0	1.171001	-0.103844	1	4	0.03	1600
132757	1	-9	-1	-0.1980661	-0.09360451	-5.690424	0	11.74	4002	0	0	0	0	1.171001	-0.1098782	1	4	0.03	1600
132856	-5	-10	-2	-0.2115548	-0.09931722	-5.689935	0	11.74	4002	0	0	0	0	1.171001	-0.110116	1	4	0.03	1600
132961	6	-7	1	-0.2120239	-0.1056029	-5.687796	0	11.74	4002	0	0	0	0	1.171001	-0.1054908	1	4	0.03	1600
133062	-22	-7	2	-0.2109116	-0.1131926	-5.687613	0	11.8	4003	0	0	0	0	1.171001	-0.09276362	1	4	0.03	1600
133287	-3	-5	-2	-0.1905313	-0.1210151	-5.686635	0	11.8	4004	0	0	0	0	1.171001	-0.08284297	1	4	0.03	1600
133470	5	-10	1	-0.1933973	-0.1277994	-5.686576	0	11.8	4004	0	0	0	0	1.171001	-0.08341997	1	4	0.03	1600
133600	-15	-8	1	-0.1955576	-0.1209529	-5.687493	0	11.8	4003	0	0	0	0	1.171001	-0.08942864	1	4	0.03	1600
133695	-1	-5	0	-0.1968589	-0.1225769	-5.686882	0	11.8	4002	0	0	0	0	1.171001	-0.08787037	1	4	0.03	1600
133757	0	0	3	-0.1965815	-0.1233426	-5.686699	0	11.8	4004	0	0	0	0	1.171001	-0.08764779	1	4	0.03	1600
133927	-15	1	3	-0.1964994	-0.1127726	-5.687129	0	11.68	4003	0	0	0	0	1.171001	-0.08238436	1	4	0.03	1600
134033	0	2	0	-0.1837397	-0.1153635	-5.687129	0	11.68	4004	0	0	0	0	1.171001	-0.08313034	1	4	0.03	1600
134117	-8	-9	0	-0.1870139	-0.1259663	-5.685906	0	11.68	4004	0	0	0	0	1.171001	-0.079466	1	4	0.03	1600
134178	-7	-10	0	-0.1827909	-0.1319417	-5.685783	0	11.68	4003	0	0	0	0	1.171001	-0.07711152	1	4	0.03	1600
134273	-1	-3	1	-0.1794777	-0.1295177	-5.685722	0	11.68	4003	0	0	0	0	1.171001	-0.06937804	1	4	0.03	1600
134466	-13	-2	2	-0.182312	-0.1492088	-5.682236	0	11.68	4004	0	0	0	0	1.171001	-0.06167068	1	4	0.03	1600
134514	6	-6	1	-0.1764023	-0.1448275	-5.681869	0	11.68	4004	0	0	0	0	1.171001	-0.06080971	1	4	0.03	1600
134561	-6	-7	-1	-0.1776973	-0.1382747	-5.681013	0	11.68	4003	0	0	0	0	1.171001	-0.05499361	1	4	0.03	1600
134729	-2	-1	-3	-0.1749666	-0.1422493	-5.677773	0	11.68	4003	0	0	0	0	1.171001	-0.04429106	1	4	0.03	1600
134777	11	-8	-1	-0.1676079	-0.1420007	-5.67704	0	11.68	4004	0	0	0	0	1.171001	-0.04255023	1	4	0.03	1600
134941	1	-2	1	-0.1718768	-0.1630654	-5.672271	0	11.63	4002	0	0	0	0	1.171001	-0.01943468	1	4	0.03	1600
135026	-8	-1	3	-0.1731828	-0.1709088	-5.670317	0	11.63	4002	0	0	0	0	1.171001	-0.01587467	1	4	0.03	1600
135094	-2	-4	-2	-0.1677373	-0.1686558	-5.666709	0	11.63	4002	0	0	0	0	1.171001	-0.01513123	1	4	0.03	1600
135249	-4	-1	0	-0.1701261	-0.1757656	-5.664691	0	11.63	4002	0	0	0	0	1.171001	-0.004200869	1	4	0.03	1600
135337	1	-3	-2	-0.1549115	-0.1764514	-5.663041	0	11.63	4003	0	0	0	0	1.171001	0.009412478	1	4	0.03	1600
135419	-1	1	-3	-0.154312	-0.1776824	-5.660107	0	11.63	4002	0	0	0	0	1.171001	0.0256584	1	4	0.03	1600
135480	2	-1	1	-0.1491865	-0.1782832	-5.660167	0	11.63	4002	0	0	0	0	1.171001	0.02690336	1	4	0.03	1600
135601	1	1	-6	-0.1396445	-0.1780784	-5.656744	0	11.63	4008	0	0	0	0	1.171001	0.03016135	1	4	0.03	1600
135638	1	1	-6	-0.1396445	-0.1780784	-5.656744	0	11.63	4008	0	0	0	0	1.171001	0.03015735	1	4	0.03	1600
135725	1	-1	-3	-0.1313456	-0.1832489	-5.65595	0	11.74	4002	0	0	0	0	1.171001	0.02372724	1	4	0.03	1600
135801	9	-5	-4	-0.1329526	-0.1829435	-5.65485	0	11.74	4008	0	0	0	0	1.171001	0.01848805	1	4	0.03	1600
135898	6	-2	3	-0.126657	-0.1761868	-5.650727	0	11.74	4003	0	0	0	0	1.171001	0.01215147	1	4	0.03	1600
136084	11	-3	0	-0.1284592	-0.1800745	-5.648589	0	11.74	4003	0	0	0	0	1.171001	0.008224683	1	10	0.01	1600
136185	-2	0	0	-0.1210218	-0.183039	-5.648221	0	11.74	4002	0	0	0	0	1.171001	-0.00794499	1	10	0.01	1600
136217	7	-3	-2	-0.1151881	-0.1917344	-5.647121	0	11.74	4004	0	0	0	0	1.171001	-0.01129909	1	10	0.01	1600
136434	5	5	0	-0.1110192	-0.187102	-5.644064	0	11.74	4003	0	0	0	0	1.171001	-0.03110875	1	10	0.01	1600
136545	0	-5	-2	-0.1102262	-0.1800534	-5.642963	0	11.74	4004	0	0	0	0	1.171001	-0.04603947	1	10	0.01	1600
136619	3	-6	2	-0.1021013	-0.1857018	-5.640397	0	11.68	4004	0	0	0	0	1.171001	-0.05191442	1	10	0.01	1600
136714	0	0	1	-0.1030772	-0.1847148	-5.638502	0	11.68	4003	0	0	0	0	1.171001	-0.05963396	1	10	0.01	1600
136896	-5	1	2	-0.09853607	-0.1905216	-5.635385	0	11.68	4002	0	0	0	0	1.171001	-0.07893829	1	10	0.01	1600
137013	8	3	-1	-0.09410878	-0.1959004	-5.633367	0	11.68	4002	0	0	0	0	1.171001	-0.08885732	1	10	0.01	1600
137049	5	2	-4	-0.09201099	-0.1909427	-5.632694	0	11.68	4003	0	0	0	0	1.171001	-0.09377735	1	10	0.01	1600
137203	11	7	-2	-0.09434491	-0.1938369	-5.631351	0	11.68	4004	0	0	0	0	1.171001	-0.1027035	1	10	0.01	1600
137267	-7	0	-3	-0.09029104	-0.1986682	-5.630495	0	11.68	4003	0	0	0	0	1.171001	-0.09936757	1	10	0.01	1600
137366	0	0	1	-0.09654369	-0.201922	-5.627439	0	11.68	4003	0	0	0	0	1.171001	-0.1031869	1	10	0.01	1600
137443	-1	-2	2	-0.08781151	-0.2066595	-5.627194	0	11.68	4002	0	0	0	0	1.171001	-0.1172636	1	10	0.01	1600
137557	-2	0	-3	-0.09252296	-0.2101743	-5.625176	0	11.74	4004	0	0	0	0	1.171001	-0.1209814	1	10	0.01	1600
137586	2	0	0	-0.09238122	-0.2119754	-5.62377	0	11.74	4002	0	0	0	0	1.171001	-0.121433	1	10	0.01	1600
137689	2	3	2	-0.09054209	-0.2101634	-5.623588	0	11.74	4004	0	0	0	0	1.171001	-0.1237609	1	10	0.01	1600
137792	18	1	3	-0.08851626	-0.2104779	-5.62322	0	11.74	4002	0	0	0	0	1.171001	-0.1294487	1	10	0.01	1600
137986	6	1	-6	-0.09614362	-0.2133776	-5.618879	0	11.74	4003	0	0	0	0	1.171001	-0.1245264	1	10	0.01	1600
138004	15	1	0	-0.09463409	-0.2145997	-5.618146	0	11.74	4002	0	0	0	0	1.171001	-0.1245264	1	10	0.01	1600
138109	7	1	0	-0.09312853	-0.2236414	-5.618268	0	11.74	4003	0	0	0	0	1.171001	-0.1167814	1	10	0.01	1600
138211	15	-3	-4	-0.08689491	-0.2189546	-5.617718	0	11.74	4003	0	0	0	0	1.171001	-0.1154094	1	10	0.01	1600
138386	1	1	-2	-0.08277671	-0.2322381	-5.614601	0	11.74	4002	0	0	0	0	1.171001	-0.1038042	1	10	0.01	1600
138491	12	2	2	-0.07481392	-0.2326151	-5.613806	0	11.74	4003	0	0	0	0	1.171001	-0.1019834	1	10	0.01	1600
138596	2	2	-2	-0.07736816	-0.2300965	-5.612462	0	11.74	4003	0	0	0	0	1.171001	-0.1033135	1	10	0.01	1600
138630	19	5	0	-0.07897728	-0.2295829	-5.611668	0	11.74	4004	0	0	0	0	1.171001	-0.1029507	1	10	0.01	1600
138723	1	9	3	-0.07938792	-0.2312969	-5.61069	0	11.74	4003	0	0	0	0	1.171001	-0.09658173	1	10	0.01	1600
138820	1	5	0	-0.07649636	-0.2365265	-5.609284	0	11.74	4003	0	0	0	0	1.171001	-0.09597429	1	10	0.01	1600
138922	10	-2	0	-0.07386266	-0.2393577	-5.609345	0	11.74	4002	0	0	0	0	1.171001	-0.09543948	1	10	0.01	1600
139015	9	1	0	-0.07677822	-0.2386834	-5.60794	0	11.74	4003	0	0	0	0	1.171001	-0.09642957	1	10	0.01	1600
139133	0	0	1	-0.07502814	-0.237506	-5.603172	0	11.74	4003	0	0	0	0	1.171001	-0.1009142	1	10	0.01	1600
139200	3	1	2	-0.06596293	-0.2405601	-5.603906	0	11.74	4004	0	0	0	0	1.171001	-0.1038067	1	10	0.01	1600
139309	13	2	-6	-0.06520808	-0.2453683	-5.599323	0	11.74	4004	0	0	0	0	1.171001	-0.1064956	1	10	0.01	1600
139411	2	0	-2	-0.06340377	-0.2471141	-5.596817	0	11.74	4004	0	0	0	0	1.171001	-0.1055039	1	10	0.01	1600
139609	12	4	-1	-0.05462679	-0.2502194	-5.591436	0	11.74	4004	0	0	0	0	1.171001	-0.09300247	1	10	0.01	1600
139662	11	8	0	-0.05017921	-0.2585675	-5.588871	0	11.74	4003	0	0	0	0	1.171001	-0.09153367	3	10	0.01	1600
139768	2	7	1	-0.0421903	-0.2683603	-5.588503	0	11.74	4002	0	0	0	0	1.171001	-0.09572674	3	10	0.01	1600
139809	14	0	-2	-0.03816718	-0.2654893	-5.587159	0	11.74	4003	0	0	0	0	1.171001	-0.09612264	3	10	0.01	1600
139906	-2	6	-3	-0.03731732	-0.2677254	-5.585325	0	11.74	4002	0	0	0	0	1.171001	-0.09841038	3	10	0.01	1600
140014	11	9	-1	-0.03258558	-0.2718788	-5.583674	0	11.74	4002	0	0	0	0	1.171001	-0.09732892	3	10	0.01	1600
140119	15	7	-3	-0.02674542	-0.2714334	-5.581718	0	11.74	4003	0	0	0	0	1.171001	-0.1001115	3	10	0.01	1600
140222	6	4	3	-0.0289805	-0.2762266	-5.580985	0	11.74	4002	0	0	0	0	1.171001	-0.1066754	3	10	0.01	1600
140380	10	6	-29	-0.009884294	-0.2754475	-5.574137	0	11.68	4003	0	3	0	0	1.171001	-0.1092969	3	10	0.01	1600
140454	-5	-22	-21	-0.0101139	-0.2988247	-5.572672	0	11.68	4002	0	0	0	0	1.171001	-0.1051899	3	10	0.01	1600
140564	20	76	71	0.008270322	-0.3084876	-5.574076	0	11.68	4004	7	-6	0	0	1.171001	-0.1013133	3	10	0.01	1600
140619	-1	40	-36	0.0120658	-0.3008623	-5.558669	0	11.68	4002	0	-2	-1	0	1.171001	-0.1000129	3	10	0.01	1600
140784	20	87	-93	0.02071726	-0.2950374	-5.551149	0	11.68	4003	1	-3	0	0	1.171001	-0.09077621	3	10	0.01	1600
140833	52	99	77	0.02246973	-0.2953387	-5.549255	0	11.68	4003	-26	10	-1	0	1.171001	-0.09083738	3	10	0.01	1600
140988	-13	19	-19	0.08040813	-0.314466	-5.541737	0	11.68	4003	-19	-10	0	0	1.171001	-0.07618129	3	10	0.01	1600
141068	20	95	64	0.04556744	-0.2775561	-5.554941	0	11.68	4002	-6	-26	0	0	1.171001	-0.06054467	3	10	0.01	1600
141143	-85	10	52	0.04130928	-0.274173	-5.545587	0	11.68	4003	4	5	0	0	1.171001	-0.0472661	3	10	0.01	1600
141237	64	23	-172	0.08226024	-0.2962263	-5.567648	0	11.74	4003	12	6	1	0	1.171001	-0.02329341	3	10	0.01	1600
141336	141	62	-66	0.02497636	-0.2817819	-5.572968	0	11.74	4002	21	-19	0	0	1.171001	-0.007584548	3	10	0.01	1600
141536	-55	-87	12	0.05641225	-0.2704988	-5.56288	0	11.74	4004	8	1	0	0	1.171001	-0.005396311	3	10	0.01	1600
141601	1	138	-17	0.08539896	-0.2616421	-5.57731	0	11.74	4004	-12	14	0	0	1.171001	-0.007286041	3	10	0.01	1600
141683	158	21	42	0.09070285	-0.2492412	-5.56392	0	11.74	4002	20	9	0	0	1.171001	-0.008307925	3	10	0.01	1600
141744	-102	53	-17	0.02628993	-0.2655499	-5.568996	0	11.74	4003	-22	0	1	0	1.171001	-0.01176759	3	10	0.01	1600
141829	-90	66	79	0.006844492	-0.2460984	-5.569973	0	11.74	4002	19	16	-1	0	1.171001	-0.0118968	3	10	0.01	1600
141943	-25	-55	144	0.02739577	-0.2349843	-5.563426	0	11.74	4004	-28	7	1	0	1.171001	-0.007230273	3	10	0.01	1600
142049	-50	-140	346	0.002817972	-0.3046886	-5.552704	0	11.74	4002	-37	-14	0	0	1.171001	-0.001387483	3	10	0.01	1600
142160	41	-137	85	0.06434574	-0.2467065	-5.587024	0	11.8	4003	-16	28	-5	0	1.171001	0.003604328	3	10	0.01	1600
142271	4	-68	-357	0.08480375	-0.1479905	-5.602942	0	11.8	4002	34	-22	0	0	1.171001	0.01006223	3	10	0.01	1600
142472	-883	1817	579	-0.8592753	0.9023368	-5.624024	0	11.8	4004	12	79	-13	0	1.171001	0.02848235	3	10	0.01	1600
142637	-973	1421	-428	-1.67934	-4.991494	-5.543431	0	11.8	4002	28	144	0	0	1.171001	0.05766656	3	10	0.01	1600
142677	-1925	378	-80	-2.549352	-6.108078	-5.722206	0	11.8	4003	27	-264	0	0	1.171001	0.07103224	3	10	0.01	1600
142792	-379	-622	-913	-1.763073	-8.488367	-4.825379	0	11.8	4003	-104	182	-12	0	1.171001	0.09525041	3	10	0.01	1600
142893	838	2197	655	0.4720451	-9.30398	-4.854964	0	11.8	4002	-132	46	-11	0	1.171001	0.145374	3	10	0.01	1600
142927	-398	1648	620	0.3249537	-10.36871	-5.194692	0	11.8	4003	-92	41	-7	0	1.171001	0.1637994	3	10	0.01	1600
143084	1304	1452	-916	0.02054593	-12.73853	-5.794942	0	10.94	4003	-92	41	-10	0	1.171001	0.2079674	3	10	0.01	1600
143161	-157	-585	-403	0.7421466	-12.77055	-5.38678	0	10.94	4004	-66	33	-19	0	1.171001	0.2367029	3	10	0.01	1600
143238	-312	603	83	0.1852249	-12.80798	-5.021183	0	10.94	4004	-119	-40	-17	0	1.171001	0.258707	3	10	0.01	1600
143335	16	-67	-66	0.06057695	-13.66247	-5.371976	0	10.94	4003	-103	34	-5	0	1.171001	0.2908809	3	10	0.01	1600
143437	-252	-1491	-225	-0.4588137	-11.88357	-5.598892	0	10.94	4003	-124	-37	-8	0	1.171001	0.3393325	3	10	0.01	1600
143598	275	-2176	-68	-1.064746	-7.573241	-5.186153	0	10.94	4003	22	-168	-11	0	1.171001	0.380637	3	10	0.01	1600
143649	-272	-2423	533	-1.045209	-5.601912	-5.209602	0	10.94	4002	-15	-245	-11	0	1.171001	0.3932069	3	10	0.01	1600
143759	466	1587	437	-1.390584	-5.41542	-5.575822	0	10.94	4002	-83	145	9	0	1.171001	0.417718	3	10	0.01	1600
143869	1022	-644	445	-0.7093844	-5.680291	-6.006124	0	10.94	4003	-74	107	16	0	1.171001	0.438983	3	10	0.01	1600
143952	286	-650	-932	-0.5077332	-4.706029	-6.158713	0	10.94	4002	-51	-186	16	0	1.171001	0.4490931	3	10	0.01	1600
144067	853	-768	-129	-1.747404	-3.680169	-6.48041	0	10.89	4003	-72	-83	29	0	1.171001	0.4494501	3	10	0.01	1600
144201	-464	-662	-767	-1.328144	-2.436646	-5.867509	0	10.89	4004	37	-20	-10	0	1.171001	0.4426552	3	10	0.01	1600
144279	507	564	1160	-0.9103181	-2.585639	-6.148751	0	10.89	4003	-40	100	19	0	1.171001	0.4480206	3	10	0.01	1600
144437	-148	-1386	-1438	0.5171764	-4.682033	-6.683316	0	10.89	4003	27	123	25	-1	1.078186	0.4528755	4	10	0.01	1600
144514	762	1572	-285	-0.3669491	-4.693265	-6.373771	0	10.89	4002	-112	67	21	0	0.9194707	0.4555689	4	10	0.01	1600
144667	362	-1182	-684	-1.760512	-6.072926	-6.039674	0	10.89	4003	42	-52	0	3	0.5957007	0.4699264	4	10	0.01	1600
144750	-2475	658	24	-2.379674	-5.39293	-7.029136	0	10.89	4004	-68	-147	44	5	0.5039585	0.4732635	4	10	0.01	1600
144896	2123	-602	-693	-0.8595684	-6.026451	-7.231225	0	11.11	4003	-64	-125	37	2	0.3828833	0.4468341	4	10	0.01	1600
144976	-1566	-745	-1200	-0.6247392	-5.293254	-6.660433	0	11.11	4002	-1	27	30	6	0.3519202	0.4160386	4	10	0.01	1600
145067	-439	-248	-2194	-3.210652	-5.020631	-5.354028	0	11.11	4002	-126	-49	-19	6	0.363253	0.3931539	4	10	0.01	1600
145145	-321	-10	-522	-3.90946	-5.74052	-4.650694	0	11.11	4004	-187	232	-3	2	0.4142781	0.3769418	4	10	0.01	1600
145252	687	694	1063	-3.444472	-7.916209	-5.519979	0	11.11	4002	-20	-39	16	6	0.4941656	0.3703175	4	10	0.01	1600
145446	1476	2034	557	-2.974254	-9.746037	-6.832204	0	11.11	4003	-88	-5	36	4	0.6504964	0.3752551	4	10	0.01	1600
145562	1148	-54	-1931	-1.812024	-14.5605	-5.291631	0	11.11	4003	7	174	-5	3	0.8036115	0.3953165	4	10	0.01	1600
145675	997	-1236	-519	-0.3827132	-12.58456	-4.356166	0	11.11	4004	18	53	-36	3	0.8600647	0.4141002	4	10	0.01	1600
145734	509	-1463	-39	-0.003941962	-11.72257	-4.457666	0	11.11	4003	63	-107	-22	2	0.8893405	0.4261976	4	10	0.01	1600
145833	1157	116	581	1.864131	-11.29583	-5.564914	0	10.83	4002	-155	80	8	1	1.002501	0.4573222	4	10	0.01	1600
145932	1266	-886	536	2.698832	-9.304211	-5.720922	0	10.83	4004	-49	-194	-9	1	1.038058	0.4933072	4	10	0.01	1600
146037	845	-2143	147	3.237683	-7.350927	-5.995268	0	10.83	4003	-7	-140	25	1	1.035416	0.5185936	4	10	0.01	1600
146141	-692	-1246	-734	1.503481	-5.62749	-7.28163	0	10.83	4002	84	49	26	0	1.030286	0.5363985	4	10	0.01	1600
146254	-1843	-89	200	0.8786032	-4.603171	-6.573873	0	10.83	4002	46	-116	16	0	1.063061	0.5750382	4	10	0.01	1600
146336	156	-2499	-918	-0.5521917	-3.980321	-6.009782	0	10.83	4002	114	49	12	0	1.012323	0.5932811	4	10	0.01	1600
146512	310	-506	-314	-1.143963	-2.041365	-5.420973	0	10.83	4002	47	116	-5	1	0.9703522	0.6422456	4	10	0.01	1600
146574	389	960	1019	-0.9824665	-2.182741	-5.793517	0	10.83	4002	-18	27	16	2	0.8851466	0.6637471	4	10	0.01	1600
146644	-104	-281	-246	-0.7276317	-2.243257	-5.890164	0	10.83	4002	73	-45	4	2	0.9053752	0.6825864	4	10	0.01	1600
146827	-1464	-1633	-899	-4.598051	-0.9491165	-6.373436	0	11.11	4003	-57	-89	22	1	0.9778917	0.7230519	4	10	0.01	1600
146874	930	1816	-17	-3.306512	-1.920068	-5.562665	0	11.11	4003	38	-105	-10	1	0.9958993	0.726994	4	10	0.01	1600
146981	-1517	-1526	74	-3.53028	-1.8344	-4.827775	0	11.11	4003	89	-12	-25	1	1.042804	0.7539466	4	10	0.01	1600
147049	-2613	-919	808	-4.730978	-1.867195	-5.461176	0	11.11	4004	185	-193	9	0	1.070355	0.7761992	4	10	0.01	1600
147304	-822	-601	280	-6.133505	-2.061117	-6.528881	0	11.11	4002	9	-104	32	0	1.037127	0.8536479	4	10	0.01	1600
147418	104	-225	-742	-6.667659	-1.942919	-5.898143	0	11.11	4002	31	35	-1	0	1.05692	0.8894837	4	10	0.01	1600
147503	1611	823	-1076	-5.195927	-2.924166	-5.324786	0	11.11	4005	48	64	-15	0	1.07302	0.912941	4	10	0.01	1600
