time(ms)	gyro_x(deg/s)	gyro_y(deg/s)	gyro_z(deg/s)	orientation_roll(deg)	orientation_pitch(deg)	orientation_yaw(deg)	throttle	battery(V)	loop_time(uS)	pid_output_roll	pid_output_pitch	pid_output_yaw	pid_output_throttle	ultrasonic_alt	baro_alt	flight_mode	p_gain_altitude	i_gain_altitude	d_gain_altitude
75	40	38	4	0.4562018	-0.5092555	0.3554022	0	12.42	4002	0	0	0	0	0.02	-0.07546999	1	4	0.03	1600
209	37	31	-4	0.4571513	-0.50659	0.3596816	0	12.42	4003	0	0	0	0	0.02	-0.07141888	1	4	0.03	1600
299	40	39	-3	0.4588424	-0.5041413	0.3612099	0	12.42	4002	0	0	0	0	0.02	-0.0751112	1	4	0.03	1600
380	37	41	-5	0.460227	-0.5128146	0.3662846	0	12.42	4003	0	0	0	0	0.02	-0.07494007	1	4	0.03	1600
482	24	33	-2	0.4584632	-0.5111312	0.3695859	0	12.42	4002	0	0	0	0	0.02	-0.075312	1	4	0.03	1600
604	36	36	-3	0.4589508	-0.5157599	0.3734375	0	12.42	4003	0	0	0	0	0.02	-0.08302575	1	4	0.03	1600
688	46	45	-2	0.457734	-0.5155198	0.3766165	0	12.42	4002	0	0	0	0	0.02	-0.08353325	1	4	0.03	1600
844	36	38	0	0.4666042	-0.5223091	0.3829741	0	12.48	4002	0	0	0	0	0.02	-0.08314951	1	4	0.03	1600
982	33	38	-4	0.4698647	-0.527815	0.3874984	0	12.48	4002	0	0	0	0	0.02	-0.078245	1	4	0.03	1600
1016	42	36	-3	0.4752587	-0.5278045	0.3888434	0	12.48	4003	0	0	0	0	0.02	-0.07869779	1	4	0.03	1600
1169	49	33	-4	0.4895603	-0.5258032	0.395996	0	12.48	4002	0	0	0	0	0.02	-0.08824785	1	4	0.03	1600
1277	40	35	-1	0.487981	-0.5247725	0.3991138	0	12.48	4002	0	0	0	0	0.02	-0.1055966	1	4	0.03	1600
1332	42	42	6	0.4857873	-0.525044	0.4024154	0	12.48	4003	0	0	0	0	0.02	-0.1145636	1	4	0.03	1600
1414	41	37	0	0.4869538	-0.5287694	0.4032713	0	12.48	4004	0	0	0	0	0.02	-0.1307167	1	4	0.03	1600
1526	42	34	-1	0.4925528	-0.5270281	0.4074281	0	12.48	4003	0	0	0	0	0.02	-0.1426613	1	4	0.03	1600
1693	37	36	-4	0.4929319	-0.5346932	0.4120134	0	12.48	4004	0	0	0	0	0.02	-0.1375537	1	4	0.03	1600
1785	37	36	-3	0.4865615	-0.5361273	0.4151926	0	12.48	4003	0	0	0	0	0.02	-0.1302296	1	4	0.03	1600
1811	39	41	0	0.4869869	-0.5349655	0.4157429	0	12.48	4003	0	0	0	0	0.02	-0.1302296	1	4	0.03	1600
1897	38	41	-3	0.4881459	-0.5395221	0.4172103	0	12.48	4003	0	0	0	0	0.02	-0.1291735	1	4	0.03	1600
2003	38	41	-3	0.4881459	-0.5395221	0.4172103	0	12.48	4003	0	0	0	0	0.02	-0.1291735	1	4	0.03	1600
2106	38	41	-3	0.4881459	-0.5395221	0.4172103	0	12.48	4003	0	0	0	0	0.02	-0.1291735	1	4	0.03	1600
2212	38	41	-3	0.4881459	-0.5395221	0.4172103	0	12.48	4003	0	0	0	0	0.02	-0.1291735	1	4	0.03	1600
2318	38	41	-3	0.4881459	-0.5395221	0.4172103	0	12.48	4003	0	0	0	0	0.02	-0.1291735	1	4	0.03	1600
2457	38	41	-3	0.4881459	-0.5395221	0.4172103	0	12.48	4003	0	0	0	0	0.02	-0.1291735	1	4	0.03	1600
2553	38	41	-3	0.4881459	-0.5395221	0.4172103	0	12.48	4003	0	0	0	0	0.02	-0.1291735	1	4	0.03	1600
2737	38	41	-3	0.4881459	-0.5395221	0.4172103	0	12.42	4003	0	0	0	0	0.02	-0.1291735	1	4	0.03	1600
2880	38	41	-3	0.4881459	-0.5395221	0.4172103	0	12.42	4003	0	0	0	0	0.02	-0.1291735	1	4	0.03	1600
3050	38	41	-3	0.4881459	-0.5395221	0.4172103	0	12.42	4003	0	0	0	0	0.02	-0.1291735	1	4	0.03	1600
3146	38	41	-3	0.4881459	-0.5395221	0.4172103	0	12.42	4003	0	0	0	0	0.02	-0.1291735	1	4	0.03	1600
3294	38	41	-3	0.4881459	-0.5395221	0.4172103	0	12.42	4003	0	0	0	0	0.02	-0.1291735	1	4	0.03	1600
3386	38	41	-3	0.4881459	-0.5395221	0.4172103	0	12.42	4003	0	0	0	0	0.02	-0.1291735	1	4	0.03	1600
3435	38	41	-3	0.4881459	-0.5395221	0.4172103	0	12.42	4003	0	0	0	0	0.02	-0.1291735	1	4	0.03	1600
3566	38	41	-3	0.4881459	-0.5395221	0.4172103	0	12.42	4003	0	0	0	0	0.02	-0.1291735	1	4	0.03	1600
3668	38	41	-3	0.4881459	-0.5395221	0.4172103	0	12.42	4003	0	0	0	0	0.02	-0.1291735	1	4	0.03	1600
3739	38	41	-3	0.4881459	-0.5395221	0.4172103	0	12.42	4003	0	0	0	0	0.02	-0.1291735	1	4	0.03	1600
3822	38	41	-3	0.4881459	-0.5395221	0.4172103	0	12.42	4003	0	0	0	0	0.02	-0.1291735	1	4	0.03	1600
3929	38	41	-3	0.4881459	-0.5395221	0.4172103	0	12.42	4003	0	0	0	0	0.02	-0.1291735	1	4	0.03	1600
4027	38	41	-3	0.4881459	-0.5395221	0.4172103	0	12.42	4003	0	0	0	0	0.02	-0.1291735	1	4	0.03	1600
4136	38	41	-3	0.4881459	-0.5395221	0.4172103	0	12.42	4003	0	0	0	0	0.02	-0.1291735	1	4	0.03	1600
4231	38	41	-3	0.4881459	-0.5395221	0.4172103	0	12.42	4003	0	0	0	0	0.02	-0.1291735	1	4	0.03	1600
4339	38	41	-3	0.4881459	-0.5395221	0.4172103	0	12.42	4003	0	0	0	0	0.02	-0.1291735	1	4	0.03	1600
4435	38	41	-3	0.4881459	-0.5395221	0.4172103	0	12.42	4003	0	0	0	0	0.02	-0.1291735	1	4	0.03	1600
4594	38	41	-3	0.4881459	-0.5395221	0.4172103	0	12.42	4003	0	0	0	0	0.02	-0.1291735	1	4	0.03	1600
4692	38	41	-3	0.4881459	-0.5395221	0.4172103	0	12.42	4003	0	0	0	0	0.02	-0.1291735	1	4	0.03	1600
4735	38	41	-3	0.4881459	-0.5395221	0.4172103	0	12.42	4003	0	0	0	0	0.02	-0.1291735	1	4	0.03	1600
4824	38	41	-3	0.4881459	-0.5395221	0.4172103	0	12.42	4003	0	0	0	0	0.02	-0.1291735	1	4	0.03	1600
4926	38	41	-3	0.4881459	-0.5395221	0.4172103	0	12.42	4003	0	0	0	0	0.02	-0.1291735	1	4	0.03	1600
5030	38	41	-3	0.4881459	-0.5395221	0.4172103	0	12.42	4003	0	0	0	0	0.02	-0.1291735	1	4	0.03	1600
5199	38	41	-3	0.4881459	-0.5395221	0.4172103	0	12.42	4003	0	0	0	0	0.02	-0.1291735	1	4	0.03	1600
5261	38	41	-3	0.4881459	-0.5395221	0.4172103	0	12.42	4003	0	0	0	0	0.02	-0.1291735	1	4	0.03	1600
5337	38	41	-3	0.4881459	-0.5395221	0.4172103	0	12.42	4003	0	0	0	0	0.02	-0.1291735	1	4	0.03	1600
5481	38	41	-3	0.4881459	-0.5395221	0.4172103	0	12.42	4003	0	0	0	0	0.02	-0.1291735	1	4	0.03	1600
5558	38	41	-3	0.4881459	-0.5395221	0.4172103	0	12.42	4003	0	0	0	0	0.02	-0.1291735	1	4	0.03	1600
5674	38	41	-3	0.4881459	-0.5395221	0.4172103	0	12.42	4003	0	0	0	0	0.02	-0.1291735	1	4	0.03	1600
5767	38	41	-3	0.4881459	-0.5395221	0.4172103	0	12.42	4003	0	0	0	0	0.02	-0.1291735	1	4	0.03	1600
5841	38	41	-3	0.4881459	-0.5395221	0.4172103	0	12.42	4003	0	0	0	0	0.02	-0.1291735	1	4	0.03	1600
5939	38	41	-3	0.4881459	-0.5395221	0.4172103	0	12.42	4003	0	0	0	0	0.02	-0.1291735	1	4	0.03	1600
6037	38	41	-3	0.4881459	-0.5395221	0.4172103	0	12.42	4003	0	0	0	0	0.02	-0.1291735	1	4	0.03	1600
6137	38	41	-3	0.4881459	-0.5395221	0.4172103	0	12.42	4003	0	0	0	0	0.02	-0.1291735	1	4	0.03	1600
6246	38	41	-3	0.4881459	-0.5395221	0.4172103	0	12.42	4003	0	0	0	0	0.02	-0.1291735	1	4	0.03	1600
6343	38	41	-3	0.4881459	-0.5395221	0.4172103	0	12.42	4003	0	0	0	0	0.02	-0.1291735	1	4	0.03	1600
6445	38	41	-3	0.4881459	-0.5395221	0.4172103	0	12.42	4003	0	0	0	0	0.02	-0.1291735	1	4	0.03	1600
6548	38	41	-3	0.4881459	-0.5395221	0.4172103	0	12.42	4003	0	0	0	0	0.02	-0.1291735	1	4	0.03	1600
6653	38	41	-3	0.4881459	-0.5395221	0.4172103	0	12.42	4003	0	0	0	0	0.02	-0.1291735	1	4	0.03	1600
6766	38	41	-3	0.4881459	-0.5395221	0.4172103	0	12.42	4003	0	0	0	0	0.02	-0.1291735	1	4	0.03	1600
6870	38	41	-3	0.4881459	-0.5395221	0.4172103	0	12.42	4003	0	0	0	0	0.02	-0.1291735	1	4	0.03	1600
6948	38	41	-3	0.4881459	-0.5395221	0.4172103	0	12.42	4003	0	0	0	0	0.02	-0.1291735	1	4	0.03	1600
7130	38	41	-3	0.4881459	-0.5395221	0.4172103	0	12.42	4003	0	0	0	0	0.02	-0.1291735	1	4	0.03	1600
7198	38	41	-3	0.4881459	-0.5395221	0.4172103	0	12.36	4003	0	0	0	0	0.02	-0.1291735	1	4	0.03	1600
7268	38	41	-3	0.4881459	-0.5395221	0.4172103	0	12.36	4003	0	0	0	0	0.02	-0.1291735	1	4	0.03	1600
7327	38	41	-3	0.4881459	-0.5395221	0.4172103	0	12.36	4003	0	0	0	0	0.02	-0.1291735	1	4	0.03	1600
7500	38	41	-3	0.4881459	-0.5395221	0.4172103	0	12.36	4003	0	0	0	0	0.02	-0.1291735	1	4	0.03	1600
7538	38	41	-3	0.4881459	-0.5395221	0.4172103	0	12.36	4003	0	0	0	0	0.02	-0.1291735	1	4	0.03	1600
7641	38	41	-3	0.4881459	-0.5395221	0.4172103	0	12.36	4003	0	0	0	0	0.02	-0.1291735	1	4	0.03	1600
7829	38	41	-3	0.4881459	-0.5395221	0.4172103	0	12.36	4003	0	0	0	0	0.02	-0.1291735	1	4	0.03	1600
7879	38	41	-3	0.4881459	-0.5395221	0.4172103	0	12.36	4003	0	0	0	0	0.02	-0.1291735	1	4	0.03	1600
7961	38	41	-3	0.4881459	-0.5395221	0.4172103	0	12.36	4003	0	0	0	0	0.02	-0.1291735	1	4	0.03	1600
8036	38	41	-3	0.4881459	-0.5395221	0.4172103	0	12.36	4003	0	0	0	0	0.02	-0.1291735	1	4	0.03	1600
8135	38	41	-3	0.4881459	-0.5395221	0.4172103	0	12.48	4003	0	0	0	0	0.02	-0.1291735	1	4	0.03	1600
8241	38	41	-3	0.4881459	-0.5395221	0.4172103	0	12.48	4003	0	0	0	0	0.02	-0.1291735	1	4	0.03	1600
8343	38	41	-3	0.4881459	-0.5395221	0.4172103	0	12.48	4003	0	0	0	0	0.02	-0.1291735	1	4	0.03	1600
8446	38	41	-3	0.4881459	-0.5395221	0.4172103	0	12.48	4003	0	0	0	0	0.02	-0.1291735	1	4	0.03	1600
8552	38	41	-3	0.4881459	-0.5395221	0.4172103	0	12.48	4003	0	0	0	0	0.02	-0.1291735	1	4	0.03	1600
8651	38	41	-3	0.4881459	-0.5395221	0.4172103	0	12.48	4003	0	0	0	0	0.02	-0.1291735	1	4	0.03	1600
8754	38	41	-3	0.4881459	-0.5395221	0.4172103	0	12.48	4003	0	0	0	0	0.02	-0.1291735	1	4	0.03	1600
8866	38	41	-3	0.4881459	-0.5395221	0.4172103	0	12.48	4003	0	0	0	0	0.02	-0.1291735	1	4	0.03	1600
8966	38	41	-3	0.4881459	-0.5395221	0.4172103	0	12.48	4003	0	0	0	0	0.02	-0.1291735	1	4	0.03	1600
9059	38	41	-3	0.4881459	-0.5395221	0.4172103	0	12.42	4003	0	0	0	0	0.02	-0.1291735	1	4	0.03	1600
9163	38	41	-3	0.4881459	-0.5395221	0.4172103	0	12.42	4003	0	0	0	0	0.02	-0.1291735	1	4	0.03	1600
9281	38	41	-3	0.4881459	-0.5395221	0.4172103	0	12.42	4003	0	0	0	0	0.02	-0.1291735	1	4	0.03	1600
9372	38	41	-3	0.4881459	-0.5395221	0.4172103	0	12.42	4003	0	0	0	0	0.02	-0.1291735	1	4	0.03	1600
9477	38	41	-3	0.4881459	-0.5395221	0.4172103	0	12.42	4003	0	0	0	0	0.02	-0.1291735	1	4	0.03	1600
9578	38	41	-3	0.4881459	-0.5395221	0.4172103	0	12.42	4003	0	0	0	0	0.02	-0.1291735	1	4	0.03	1600
9684	38	41	-3	0.4881459	-0.5395221	0.4172103	0	12.42	4003	0	0	0	0	0.02	-0.1291735	1	4	0.03	1600
9787	38	41	-3	0.4881459	-0.5395221	0.4172103	0	12.42	4003	0	0	0	0	0.02	-0.1291735	1	4	0.03	1600
9892	38	41	-3	0.4881459	-0.5395221	0.4172103	0	12.42	4003	0	0	0	0	0.02	-0.1291735	1	4	0.03	1600
9990	38	41	-3	0.4881459	-0.5395221	0.4172103	0	12.42	4003	0	0	0	0	0.02	-0.1291735	1	4	0.03	1600
10095	38	41	-3	0.4881459	-0.5395221	0.4172103	0	12.42	4003	0	0	0	0	0.02	-0.1291735	1	4	0.03	1600
10295	8	0	-3	1.469829	-1.132703	0.6891618	0	12.42	4002	0	0	0	0	0.02	-0.08408514	1	4	0.03	1600
10374	-3	3	0	1.288418	-0.9901702	0.6898954	0	12.42	4003	0	0	0	0	0.02	-0.05661752	1	4	0.03	1600
10411	1	-2	-5	1.174086	-0.9051336	0.6900176	0	12.42	4004	0	0	0	0	0.02	-0.0375642	1	4	0.03	1600
10565	-2	8	0	0.9839011	-0.7511541	0.6954589	0	12.42	4002	0	0	0	0	0.02	-0.01107925	1	4	0.03	1600
10654	13	-6	0	0.8660244	-0.6558186	0.696376	0	12.42	4003	0	0	0	0	0.02	0.004077742	1	4	0.03	1600
10715	-1	5	1	0.8361471	-0.6314671	0.6969874	0	12.42	4003	0	0	0	0	0.02	0.01669289	1	4	0.03	1600
10776	6	4	1	0.7686102	-0.58114	0.6977825	0	12.42	4004	0	0	0	0	0.02	0.02930139	1	4	0.03	1600
10884	1	8	-1	0.6796326	-0.5141063	0.6996167	0	12.42	4003	0	0	0	0	0.02	0.03965656	1	4	0.03	1600
11028	12	7	-2	0.5433266	-0.4178934	0.7017565	0	12.42	4004	0	0	0	0	0.02	0.07598085	1	4	0.03	1600
11090	5	0	2	0.5015144	-0.3846002	0.7035292	0	12.42	4004	0	0	0	0	0.02	0.07800099	1	4	0.03	1600
11244	8	-5	-4	0.4280699	-0.3303941	0.7045073	0	12.42	4002	0	0	0	0	0.02	0.07411797	1	4	0.03	1600
11299	9	2	0	0.3910291	-0.2998625	0.7060966	0	12.42	4004	0	0	0	0	0.02	0.07276879	1	4	0.03	1600
11397	10	2	-2	0.3492036	-0.263268	0.7089092	0	12.42	4004	0	0	0	0	0.02	0.07000934	1	4	0.03	1600
11506	0	4	-2	0.3154916	-0.2266734	0.7136168	0	12.42	4003	0	0	0	0	0.02	0.06193997	1	4	0.03	1600
11609	0	5	-2	0.2827395	-0.2018848	0.7150229	0	12.42	4003	0	0	0	0	0.02	0.04888365	1	4	0.03	1600
11712	3	3	0	0.2542797	-0.1770918	0.7167346	0	12.42	4004	0	0	0	0	0.02	0.03321145	1	4	0.03	1600
11819	4	4	1	0.2228938	-0.1593767	0.7193633	0	12.36	4003	0	0	0	0	0.02	0.01983892	3	4	0.03	1600
11908	11	7	-2	0.1983505	-0.1488323	0.7215032	0	12.36	4004	0	0	0	0	0.02	0.01486154	3	4	0.03	1600
12063	5	7	-4	0.1571374	-0.1247289	0.7281055	0	12.36	4002	0	0	0	0	0.02	0.0144367	3	4	0.03	1600
12213	3	3	-2	0.1377951	-0.1095926	0.7308567	0	12.36	4002	0	0	0	0	0.02	0.02240043	3	4	0.03	1600
12376	-6	6	0	0.1181329	-0.09895349	0.7350749	0	12.36	4002	0	0	0	0	0.02	0.03991126	3	4	0.03	1600
12428	20	4	-4	0.1180481	-0.09244645	0.7378872	0	12.36	4002	0	0	0	0	0.02	0.04302657	3	4	0.03	1600
12478	4	5	0	0.1145125	-0.09742082	0.7395378	0	12.36	4002	0	0	0	0	0.02	0.04203283	3	4	0.03	1600
12615	6	3	1	0.1109997	-0.09258756	0.7410055	0	12.36	4003	0	0	0	0	0.02	0.03478245	3	4	0.03	1600
12717	5	4	2	0.1004401	-0.08387545	0.7419838	0	12.36	4004	0	0	0	0	0.02	0.03363972	3	4	0.03	1600
12782	-2	2	0	0.09585429	-0.07593002	0.7436343	0	12.36	4003	0	0	0	0	0.02	0.03612067	3	4	0.03	1600
12885	5	7	0	0.09154989	-0.071978	0.7453463	0	12.36	4003	0	0	0	0	0.02	0.04114578	3	4	0.03	1600
13002	0	8	-1	0.08336718	-0.07408177	0.7479142	0	12.36	4003	0	0	0	0	0.02	0.04209955	3	4	0.03	1600
13137	6	6	-1	0.06742645	-0.07448287	0.7539668	0	12.36	4004	0	0	0	0	0.02	0.04812904	3	4	0.03	1600
13216	0	11	-1	0.05961446	-0.07315341	0.7565955	0	12.36	4004	0	0	0	0	0.02	0.04918357	3	4	0.03	1600
13303	6	2	-3	0.06069532	-0.07358471	0.7574514	0	12.36	4003	0	0	0	0	0.02	0.05905809	3	4	0.03	1600
13501	13	1	-1	0.05930126	-0.06177667	0.7593464	0	12.36	4003	0	0	0	0	0.02	0.0581051	3	4	0.03	1600
13608	7	0	-3	0.06031318	-0.06082527	0.7621587	0	12.36	4003	0	0	0	0	0.02	0.05240117	3	4	0.03	1600
13695	1	-1	-2	0.05684361	-0.06128498	0.7660103	0	12.48	4003	0	0	0	0	0.02	0.05229794	3	4	0.03	1600
13783	10	-2	1	0.04869547	-0.05981133	0.7671718	0	12.48	4002	0	0	0	0	0.02	0.05310718	3	4	0.03	1600
13910	7	9	-1	0.04836415	-0.06065357	0.7677834	0	12.48	4004	0	0	0	0	0.02	0.06348085	3	4	0.03	1600
14095	3	3	-3	0.04519928	-0.05776213	0.7704124	0	12.48	4004	0	0	0	0	0.02	0.06849169	3	4	0.03	1600
14225	7	9	-6	0.01072258	-0.06386849	0.7734079	0	12.48	4002	0	0	0	0	0.02	0.08328436	3	4	0.03	1600
14271	9	0	-2	0.04280015	-0.0611478	0.7738969	0	12.48	4002	0	0	0	0	0.02	0.08505632	3	4	0.03	1600
14370	8	8	1	0.04506481	-0.06081726	0.7756698	0	12.48	4003	0	0	0	0	0.02	0.08824063	3	4	0.03	1600
14538	15	-1	2	0.04321612	-0.05660951	0.7765257	0	12.36	4003	0	0	0	0	0.02	0.09141798	3	4	0.03	1600
14601	3	4	2	0.04888317	-0.0605462	0.7772591	0	12.36	4003	0	0	0	0	0.02	0.09549778	3	4	0.03	1600
14762	4	4	0	0.04658022	-0.05838165	0.7822112	0	12.36	4003	0	0	0	0	0.02	0.09328683	3	4	0.03	1600
14794	10	11	2	0.04837412	-0.05532958	0.7823946	0	12.36	4003	0	0	0	0	0.02	0.09216239	3	4	0.03	1600
14893	4	3	0	0.04794436	-0.05426634	0.7847176	0	12.36	4004	0	0	0	0	0.02	0.09404376	3	4	0.03	1600
14959	7	5	-5	0.04491924	-0.05042072	0.7888749	0	12.36	4003	0	0	0	0	0.02	0.1041579	3	4	0.03	1600
15066	2	7	3	0.04779354	-0.04827721	0.7912586	0	12.36	4004	0	0	0	0	0.02	0.1189791	3	4	0.03	1600
15225	-4	0	-3	0.04852886	-0.04743493	0.7948655	0	12.36	4003	0	0	0	0	0.02	0.1305651	3	4	0.03	1600
15397	-5	3	-1	0.05382587	-0.04461707	0.8000623	0	12.36	4003	1	0	0	0	0.02	0.1075054	3	4	0.03	1600
15480	6	7	-5	0.0529098	-0.04505642	0.8017138	0	12.42	4003	0	0	0	0	0.02	0.0952431	3	4	0.03	1600
15594	50	-69	-91	0.05812097	-0.04754286	0.7912614	0	12.42	4003	2	2	-1	0	0.02	0.0876838	3	4	0.03	1600
15673	-117	115	27	0.0264842	-0.1114816	0.7827559	0	12.42	4010	-4	9	-2	0	0.02	0.08081573	3	4	0.03	1600
15761	-191	259	-43	-0.1019636	-0.2789433	0.7767604	0	12.42	4002	9	3	1	0	0.02	0.07639716	3	4	0.03	1600
15869	83	-120	-83	-0.1135432	-0.3309996	0.8000606	0	12.42	4003	-6	9	-2	0	0.02	0.07711881	3	4	0.03	1600
16002	56	-5	36	0.1528985	0.006814162	0.8629795	0	12.42	4002	5	14	-1	0	0.02	0.08642355	3	4	0.03	1600
16063	174	-84	-182	0.09972122	-0.0881636	0.8590012	0	12.42	4003	-12	-13	-3	0	0.02	0.08993982	3	4	0.03	1600
16198	43	-5	6	0.1042274	0.02478359	0.898134	0	12.42	4002	8	-6	-1	0	0.02	0.09199331	3	4	0.03	1600
16324	46	-79	33	0.1150481	0.05384959	0.9038873	0	12.42	4002	2	-27	-1	0	0.02	0.09922714	3	4	0.03	1600
16431	49	22	80	0.1078371	0.07371578	0.8996654	0	12.25	4002	10	9	-2	0	0.02	0.1155456	3	4	0.03	1600
16497	66	21	-4	0.1452035	0.05744655	0.9071317	0	12.25	4003	-25	3	0	0	0.02	0.1198276	3	4	0.03	1600
16561	3	39	-148	0.1142434	0.044906	0.9192381	0	12.25	4003	-13	-7	-3	0	0.02	0.1234211	3	4	0.03	1600
16666	-39	30	-232	0.1284328	0.05748041	0.9255427	0	12.25	4002	-23	-13	-2	0	0.02	0.1320931	3	4	0.03	1600
16818	-35	-51	-184	0.04383024	0.07385661	0.9206451	0	12.25	4004	14	14	-2	0	0.02	0.1393698	3	4	0.03	1600
16964	35	100	-147	0.03734335	0.06440106	0.9267663	0	12.25	4003	10	13	-2	0	0.02	0.1333502	3	4	0.03	1600
17057	175	69	31	0.01053261	0.08309123	0.9307291	0	12.25	4004	5	12	-4	0	0.02	0.1357789	3	4	0.03	1600
17149	-161	18	-109	0.01340517	0.07161525	0.9423442	0	12.25	4004	-34	-9	-1	0	0.02	0.1324342	3	4	0.03	1600
17219	-49	-10	-40	0.02019884	0.1062748	0.947789	0	12.25	4002	0	-11	-2	0	0.02	0.127206	3	4	0.03	1600
17252	-38	8	-240	-0.003733323	0.09300951	0.9607393	0	12.31	4003	-40	-3	-1	0	0.02	0.124544	3	4	0.03	1600
17336	-91	-24	-182	0.01659929	0.1195299	0.9490585	0	12.31	4003	13	-30	-1	0	0.02	0.1214686	3	4	0.03	1600
17433	-46	-12	117	0.007144277	0.1371519	0.9341948	0	12.31	4003	0	2	-4	0	0.02	0.1210161	3	4	0.03	1600
17556	-41	-42	306	0.01608667	0.1747128	0.9307144	0	12.31	4003	25	-17	-3	0	0.02	0.1220699	3	4	0.03	1600
17662	79	53	-327	0.01566366	0.1747619	0.9573706	0	12.31	4003	-25	7	-2	0	0.02	0.1273648	3	4	0.03	1600
17792	85	-15	303	0.07910939	0.2371123	0.9394679	0	12.31	4003	12	-8	-3	0	0.02	0.1216925	3	4	0.03	1600
17904	-105	-46	200	0.171467	0.2375552	0.9636017	0	12.31	4009	-14	-16	-6	0	0.02	0.1108376	3	4	0.03	1600
17952	11	66	113	0.1673496	0.251218	0.9849331	0	12.31	4003	29	-47	-5	0	0.02	0.1052687	3	4	0.03	1600
18061	-373	-698	211	0.05111899	0.743233	1.209286	0	12.31	4004	22	-67	-12	0	0.02	0.1050697	3	4	0.03	1600
18146	-263	1120	-48	-1.116965	0.8481863	1.169195	0	12.31	4004	-29	-141	-1	0	0.02	0.113294	3	4	0.03	1600
18239	247	4708	251	-1.70935	-5.325391	0.9090081	0	11.51	4003	-117	42	8	0	0.02	0.1273653	3	4	0.03	1600
18386	717	3615	2345	-1.90172	-11.59948	0.7577225	0	11.51	4002	39	-282	-15	0	0.02	0.1404073	3	4	0.03	1600
18487	-149	-328	163	0.1618765	-9.509809	2.064703	0	11.51	4003	-24	-182	-43	0	0.02	0.1604226	3	4	0.03	1600
18661	-2699	2397	1529	-1.359588	-9.872223	0.4970295	0	11.51	4004	-114	-47	20	0	0.02	0.2193618	3	4	0.03	1600
18723	-2329	1068	854	-4.798901	-10.5961	0.01307876	0	11.51	4003	-58	72	31	0	0.02	0.2389541	3	4	0.03	1600
18933	-2132	-676	503	-7.847476	-7.542074	1.168817	0	11.51	4004	106	-43	-26	0	0.02	0.3359359	3	4	0.03	1600
19078	1613	-2911	1023	-7.540895	-2.936819	-0.3771921	0	12.14	4003	-63	-76	-3	0	0.02	0.4216664	3	4	0.03	1600
19190	1262	-1535	795	-4.275877	-0.2756851	-1.280465	0	12.14	4002	108	-42	19	0	0.02	0.5058081	3	4	0.03	1600
19289	1572	-92	122	-1.787095	-0.43175	-1.280383	0	12.14	4002	32	21	8	0	0.02	0.5425223	3	4	0.03	1600
19359	1816	1289	-305	0.8031985	-2.601859	-1.186532	0	12.14	4002	-20	-65	-2	0	0.02	0.5762731	3	4	0.03	1600
19428	-668	379	-49	-0.3614287	-3.55477	-1.185778	0	12.14	4003	-7	-126	-7	0	0.02	0.6040149	3	4	0.03	1600
19586	-960	753	-415	1.982967	-6.157654	-1.196295	0	12.14	4004	125	-38	0	0	0.02	0.6550662	3	4	0.03	1600
19643	219	-111	-467	1.584124	-6.678212	-1.424357	0	12.14	4002	-37	-160	-11	0	0.02	0.662492	3	4	0.03	1600
19736	-1360	-881	30	0.2602235	-6.919999	-1.745408	0	12.14	4002	24	-26	21	0	0.02	0.6705065	3	4	0.03	1600
19959	-126	-2322	-343	-1.334065	-5.04475	-0.6535101	0	12.14	4003	-12	-281	-19	0	0.02	0.6852525	3	4	0.03	1600
20077	1426	-433	-636	-2.408189	-5.071506	-2.045986	0	11.57	4004	-129	-159	9	0	0.02	0.685233	3	4	0.03	1600
20205	1872	-1142	15	-0.1111268	-5.634942	-2.825529	0	11.57	4004	-49	65	17	0	0.02	0.6843414	3	4	0.03	1600
20282	1557	-301	-68	0.9790844	-4.828115	-2.077291	0	11.57	4003	-6	14	-27	0	0.02	0.6744573	3	4	0.03	1600
20346	-366	811	-564	2.209798	-5.706073	-1.732257	0	11.57	4002	91	-114	-19	0	0.02	0.6647224	3	4	0.03	1600
20463	2375	-999	137	1.312086	-3.993346	-2.473933	0	11.57	4002	-65	136	-4	0	0.02	0.6512558	3	4	0.03	1600
20564	-1095	-334	1854	0.1058409	-4.363342	-3.876186	0	11.57	4003	34	-153	32	0	0.02	0.6401634	3	4	0.03	1600
20653	-11	-1024	-132	-0.2664167	-2.73411	-4.077318	0	11.57	4002	-14	-112	46	0	0.02	0.6344096	3	4	0.03	1600
20749	433	-1016	-1671	0.1013914	-3.259924	-3.993953	0	11.57	4003	65	61	22	0	0.02	0.6137655	3	4	0.03	1600
20984	214	-648	-1090	1.317878	-9.806236	-1.951276	0	12.08	4003	-13	-258	-29	0	0.02	0.5866652	3	4	0.03	1600
21084	641	-1033	-540	3.128126	-9.733171	-1.377712	0	12.08	4004	-37	-144	-38	0	0.02	0.5753719	3	4	0.03	1600
21161	-477	-3583	524	2.43083	-6.892103	-1.266279	0	12.08	4003	30	-166	-25	0	0.02	0.5640126	3	4	0.03	1600
21304	51	-145	1062	1.250718	-5.387589	-3.438924	0	12.08	4002	86	-63	40	0	0.02	0.5423146	3	4	0.03	1600
21423	-1693	1121	-1107	-0.6108907	-6.32332	-3.483974	0	12.08	4003	98	-15	2	0	0.02	0.4989607	3	4	0.03	1600
21510	-877	-339	-558	-3.090628	-7.705302	-2.477592	0	12.08	4002	-16	92	-20	0	0.02	0.4864684	3	4	0.03	1600
21589	-551	-3364	-765	-3.184656	-6.14779	-1.567996	0	12.08	4004	204	-177	-37	0	0.02	0.4626677	3	4	0.03	1600
21665	-934	1828	-276	-3.377652	-6.967262	-0.7578194	0	12.08	4003	75	28	-62	0	0.02	0.4400239	3	4	0.03	1600
21770	372	1091	-417	-3.066458	-9.326388	-0.7333077	0	12.08	4002	46	-103	-50	0	0.02	0.4175766	3	4	0.03	1600
21938	226	1516	133	-2.079689	-13.40172	-0.6713914	0	11.8	4002	-43	-81	-48	0	0.02	0.395632	3	4	0.03	1600
22041	153	-2928	127	-0.358062	-11.45325	-1.046183	0	11.8	4003	1	-74	-39	0	0.02	0.3899617	3	4	0.03	1600
22100	-1598	-3049	701	-0.6606585	-7.540155	-1.645328	0	11.8	4002	147	-95	-17	0	0.02	0.3793935	3	4	0.03	1600
22216	617	197	282	-1.848164	-6.908112	-2.349509	0	11.8	4002	115	-145	-1	0	0.02	0.3599329	3	4	0.03	1600
22312	-1338	-234	18	-0.4133883	-6.72947	-2.411509	0	11.8	4004	-32	31	-1	0	0.02	0.340335	3	4	0.03	1600
22382	-625	-115	431	-3.730454	-5.856189	-2.4979	0	11.8	4004	19	126	-2	0	0.02	0.3290414	3	4	0.03	1600
22503	447	-171	261	-2.459651	-6.05655	-2.008673	0	11.8	4003	8	44	-16	0	0.02	0.3127924	3	4	0.03	1600
22613	-325	-1411	852	-1.375745	-5.240026	-2.291482	0	11.8	4003	-61	-28	-9	0	0.02	0.2979763	3	4	0.03	1600
22721	-180	-1281	411	-2.184335	-2.140692	-2.789558	0	11.8	4003	-15	-152	0	14	0.08514986	0.2870668	4	4	0.03	1600
22830	111	2927	-705	-1.751196	-5.209242	-3.160333	0	11.51	4004	-177	256	18	14	0.1565735	0.2751713	4	4	0.03	1600
22919	1816	3008	-636	-0.9159963	-8.595325	-2.452506	0	11.51	4002	-160	-138	-18	14	0.2039151	0.2698995	4	4	0.03	1600
22998	-519	2961	-456	-0.866785	-12.75047	-1.318374	0	11.51	4004	-18	114	-36	14	0.2256367	0.2580646	4	4	0.03	1600
23099	515	2965	17	0.3494692	-16.94811	-1.646132	0	11.51	4002	16	-85	-20	14	0.2371331	0.2491438	4	4	0.03	1600
23213	1140	-1572	-1100	0.8420069	-16.69203	-2.35459	0	11.51	4003	-194	253	-5	15	0.2579334	0.2353538	4	4	0.03	1600
23310	515	1737	835	3.122984	-15.20931	-2.17355	0	11.51	4003	-98	236	3	15	0.2807106	0.2280752	4	4	0.03	1600
23539	-1984	2099	588	0.03236346	-15.35433	-2.624118	0	11.51	4004	-173	3	13	13	0.360165	0.2232685	4	4	0.03	1600
23683	-1193	-1461	-670	-2.888735	-15.93922	-2.917598	0	11.51	4002	218	-147	-1	8	0.4544941	0.2347312	4	4	0.03	1600
23721	-1240	-1593	-207	-2.689314	-15.22266	-2.856164	0	11.51	4002	182	-89	0	8	0.509614	0.2451737	4	4	0.03	1600
23880	-671	873	224	-2.60196	-13.25488	-2.896017	0	11.23	4004	-67	134	11	8	0.6147833	0.2747548	4	4	0.03	1600
23901	349	266	-167	-2.945068	-12.85645	-2.934215	0	11.23	4003	-37	161	0	8	0.6547083	0.2971281	4	4	0.03	1600
23993	-496	-1282	-1081	-2.79086	-12.30226	-2.656621	0	11.23	4003	85	-231	-18	8	0.7105944	0.3290346	4	4	0.03	1600
24104	71	-1904	-529	-1.462693	-11.44588	-1.600212	0	11.23	4002	185	-186	-38	8	0.7573773	0.3557416	4	4	0.03	1600
24201	-314	-1065	341	-1.819604	-10.24379	-1.67527	0	11.23	4003	-80	-24	-17	8	0.8150921	0.3849887	4	4	0.03	1600
24305	410	-1018	2	-2.10268	-9.794296	-2.531955	0	11.23	4002	-11	-139	0	8	0.8503906	0.3997618	4	4	0.03	1600
24496	121	983	836	-2.337722	-7.480988	-3.348875	0	11.23	4002	-40	96	23	8	0.9277012	0.4178314	4	4	0.03	1600
24576	61	-2280	-1078	-2.256253	-6.315524	-2.587529	0	11.23	4003	19	-101	-9	8	0.9353833	0.4182793	4	4	0.03	1600
24667	-890	58	-1475	-3.06407	-5.908037	-2.264788	0	11.57	4002	129	-46	-22	8	0.9638098	0.421418	4	4	0.03	1600
24726	453	-1018	-669	-3.230581	-6.676652	-2.173381	0	11.57	4003	69	-116	-19	8	0.9551461	0.4230588	4	4	0.03	1600
24802	-437	-1648	-202	-2.915519	-4.959704	-2.229437	0	11.57	4004	59	-40	-14	8	0.9957677	0.4283359	4	4	0.03	1600
24932	1277	891	211	-2.569853	-5.04905	-2.320932	0	11.57	4004	-91	-68	-9	8	1.01474	0.4468553	4	4	0.03	1600
25037	517	596	55	-1.397349	-6.383211	-2.009751	0	11.57	4003	-62	46	-16	8	1.026363	0.4712142	4	4	0.03	1600
25112	1546	1214	-102	-0.4600834	-8.862036	-1.991366	0	11.57	4003	-4	-223	-15	8	1.032013	0.4958478	4	4	0.03	1600
25210	1240	2390	354	1.57559	-11.74547	-2.387943	0	11.57	4003	-84	27	-2	8	1.024191	0.5166773	4	4	0.03	1600
25388	-411	-2523	-382	2.132741	-11.97471	-2.356036	0	11.57	4003	85	-211	-6	8	0.9755151	0.5310927	4	4	0.03	1600
25530	-615	326	-458	0.03284308	-10.41749	-2.27968	0	11.57	4004	48	123	-12	8	0.8419852	0.538241	4	4	0.03	1600
25753	-242	1763	932	-0.4040569	-11.14286	-2.656778	0	12.53	4002	-44	-22	9	9	0.7766188	0.5501102	4	4	0.03	1600
25902	705	-789	702	0.9305888	-10.97063	-4.010885	0	12.53	4004	-20	-196	30	9	0.7099765	0.5436043	4	4	0.03	1600
25967	-1167	-271	49	0.481332	-10.55373	-4.662606	0	12.53	4004	-47	75	55	10	0.6566875	0.5348274	4	4	0.03	1600
26031	1200	2111	714	0.5985011	-10.84569	-4.792947	0	12.53	4004	-30	111	53	10	0.5996937	0.5260419	4	4	0.03	1600
26141	-2281	225	-500	-1.106683	-11.01746	-4.844029	0	12.53	4003	-19	-111	62	11	0.507728	0.4942628	4	4	0.03	1600
26230	-944	601	253	-2.145977	-10.08784	-4.567716	0	12.53	4003	-123	-27	35	12	0.4015499	0.4591317	4	4	0.03	1600
26337	-1049	2536	-4873	-2.652406	-12.17136	-2.619348	0	12.53	4003	-256	400	-225	16	0.3261	0.4424117	4	4	0.03	1600
26579	-2292	-7659	1974	0.6890157	-26.5028	1.104329	0	11.23	4002	27	-101	-54	23	0.2386968	0.3750206	4	4	0.03	1600
26719	936	-4364	1009	1.156304	-14.37051	-2.741725	0	11.23	4004	19	-140	19	24	0.2372838	0.3441148	4	4	0.03	1600
26774	-386	-5330	482	1.598497	-9.280427	-3.427047	0	11.23	4003	74	-91	25	24	0.2556754	0.3370193	4	4	0.03	1600
26994	-3083	-3057	-491	-2.531465	0.9439647	-1.655046	0	11.23	4003	53	-215	-28	25	0.3026938	0.3004894	4	4	0.03	1600
27085	-3464	-592	-218	-7.921552	1.557793	-2.111253	0	11.23	4002	118	-106	-10	24	0.3215177	0.2932062	4	4	0.03	1600
27131	-2023	-345	737	-9.085105	0.9475753	-2.456747	0	11.23	4002	22	-98	6	21	0.3661351	0.2912122	4	4	0.03	1600
27270	-302	-1238	-402	-9.077715	-0.1115983	-3.5743	0	11.23	4003	41	-167	30	18	0.4060168	0.2844544	4	4	0.03	1600
27334	932	-861	-775	-8.953815	-0.1689294	-3.776537	0	11.23	4003	-118	16	29	18	0.4289507	0.2808931	4	4	0.03	1600
27435	-815	-1031	-484	-7.553678	-0.288341	-2.697588	0	11.23	4002	24	-205	-4	18	0.476627	0.2806524	4	4	0.03	1600
27597	239	-2273	-1633	-7.680269	1.457348	-2.299023	0	11.23	4004	-111	-51	-6	19	0.5227592	0.2908061	4	4	0.03	1600
27668	-915	-454	19	-6.94092	1.686865	-2.463352	0	11.23	4003	-29	100	0	19	0.5761116	0.2973903	4	4	0.03	1600
27853	-331	-443	-272	-6.999626	-0.7421049	-2.594094	0	11.23	4003	38	-74	-6	19	0.6537029	0.3064242	4	4	0.03	1600
27958	656	-1557	-93	-6.594247	0.5286456	-1.748332	0	11.23	4003	-58	2	-23	19	0.711835	0.3214016	4	4	0.03	1600
28049	1725	-414	351	-3.529267	0.3845768	-1.526617	0	11.23	4003	-28	-9	-34	19	0.7311696	0.32963	4	4	0.03	1600
28147	3008	-428	416	-1.189022	-0.08194672	-1.701698	0	11.23	4003	7	-125	-13	19	0.7645685	0.3414647	4	4	0.03	1600
28255	3798	294	161	3.300115	-0.2734669	-2.064327	0	11.23	4003	-116	-74	0	20	0.7537462	0.3450955	4	4	0.03	1600
28420	-2045	-731	-227	5.164575	-2.762402	-2.216927	0	11.85	4002	57	-197	-14	20	0.7040759	0.3451465	4	4	0.03	1600
28470	-244	-656	119	4.34866	-2.374999	-2.155801	0	11.85	4004	-82	-93	-3	20	0.6687734	0.3366318	4	4	0.03	1600
28654	-1884	4259	21	0.6460307	-11.19573	-1.802577	0	11.85	4003	89	-57	-35	21	0.581772	0.2973512	4	4	0.03	1600
28683	-2098	1509	-1597	-0.803279	-12.86514	-1.631165	0	11.85	4004	74	-152	-16	21	0.5657153	0.290608	4	4	0.03	1600
28813	1144	763	-672	-1.856999	-14.7441	-2.520769	0	11.85	4004	-15	112	-3	22	0.527947	0.2694581	4	4	0.03	1600
28889	54	-2230	-845	-0.9571087	-13.57615	-2.322644	0	11.85	4004	34	-179	-11	22	0.5497656	0.2659566	4	4	0.03	1600
28965	687	-570	-22	-0.8333906	-10.33477	-2.156528	0	11.85	4003	-95	117	-10	23	0.5727605	0.2569683	4	4	0.03	1600
29082	-500	77	40	0.5497987	-8.614501	-1.764292	0	11.85	4002	-60	118	-24	23	0.635346	0.2535328	4	4	0.03	1600
29177	-818	-819	-214	-0.4175103	-7.602807	-2.07952	0	11.85	4003	12	103	-14	23	0.7005342	0.2581395	4	4	0.03	1600
29330	-970	-936	56	-1.712732	-6.45795	-2.97068	0	11.91	4004	-50	52	8	23	0.812506	0.2837644	4	4	0.03	1600
29429	1020	13	110	-0.4780922	-5.469448	-2.432884	0	11.91	4004	42	-134	-7	23	0.8288823	0.3195512	4	4	0.03	1600
29486	245	1226	673	-0.1946764	-5.845678	-2.225501	0	11.91	4002	-145	154	-3	23	0.8336992	0.3278243	4	4	0.03	1600
29598	684	-1206	-200	-1.194876	-6.669407	-2.076327	0	11.91	4003	19	-346	-16	23	0.9025034	0.3697288	4	4	0.03	1600
29680	-371	-1617	-36	-0.5138936	-5.115766	-1.905361	0	11.91	4004	-29	-106	-18	22	0.955911	0.4125372	4	4	0.03	1600
29786	-657	398	383	-0.7293404	-5.126585	-2.104985	0	11.91	4002	34	21	-24	22	0.9935442	0.4447786	4	4	0.03	1600
29921	421	991	-562	-0.09295043	-8.237305	-1.650064	0	11.91	4004	-17	35	-31	22	1.050841	0.4948744	4	4	0.03	1600
30048	-325	778	82	0.7978517	-7.779172	-1.375127	0	11.91	4002	33	-74	-36	22	1.048971	0.5264486	4	4	0.03	1600
30118	-929	-733	1102	-0.2333874	-7.215887	-1.978315	0	11.91	4003	63	-84	2	22	1.068483	0.5468701	4	4	0.03	1600
30236	95	-207	24	-1.15945	-5.658875	-2.558622	0	11.29	4003	20	-43	8	22	0.9991956	0.5709239	4	4	0.03	1600
30285	406	210	-233	-1.115119	-5.436195	-2.622889	0	11.29	4002	-67	-45	-7	22	1.00727	0.5837971	4	4	0.03	1600
30390	-372	-1285	-700	-1.437002	-3.93145	-2.30057	0	11.29	4003	52	-80	-6	22	1.037512	0.6047329	4	4	0.03	1600
30577	568	-397	368	-2.57114	-1.0656	-2.295611	0	11.29	4004	-87	-68	-15	22	1.037926	0.6359875	4	4	0.03	1600
30682	199	1782	276	-2.600754	-2.082794	-2.313945	0	11.29	4004	-27	170	-2	22	1.064774	0.6552528	4	4	0.03	1600
30781	-682	-253	-487	-3.535778	-3.33973	-2.652223	0	11.29	4003	-102	-46	2	22	1.037185	0.6606564	4	4	0.03	1600
30849	-335	2008	1057	-2.333719	-5.507048	-2.432472	0	11.29	4003	-81	-29	-11	22	1.002101	0.6620088	4	4	0.03	1600
30906	-335	2008	1057	-2.333719	-5.507048	-2.432472	0	11.29	4003	10	0	-33	22	0.9660898	0.6581342	4	4	0.03	1600
30994	-1024	203	-272	-2.577463	-7.757969	-1.275206	0	11.29	4002	-13	-164	-23	22	0.9831939	0.6371545	4	4	0.03	1600
31043	148	-479	473	-2.183013	-7.493841	-1.315833	0	11.29	4003	-60	12	-24	22	1.01765	0.6326364	4	4	0.03	1600
31171	718	884	195	-1.987985	-6.737934	-2.048489	0	11.63	4003	-118	149	-11	22	1.103505	0.6059728	4	4	0.03	1600
31247	-992	-1304	250	-1.592989	-6.313488	-2.297825	0	11.63	4003	10	-52	2	21	1.142336	0.5915951	4	4	0.03	1600
31335	-1057	-1740	399	-2.612935	-4.677411	-2.236089	0	11.63	4004	-18	-28	-6	21	1.07019	0.5744084	4	4	0.03	1600
31418	-888	-948	842	-4.200539	-2.995883	-2.63985	0	11.63	4003	12	-114	2	21	1.136282	0.5460641	4	4	0.03	1600
31491	0	-622	-195	-4.328214	-2.461576	-2.474006	0	11.63	4004	10	-137	-6	21	1.144247	0.5367963	4	4	0.03	1600
31585	-679	624	-331	-4.507542	-3.198164	-2.338686	0	11.63	4005	-44	-10	-9	21	1.136718	0.526447	4	4	0.03	1600
31705	206	60	-93	-5.039479	-4.868104	-2.44143	0	11.63	4002	19	-111	-3	21	1.142663	0.5151942	4	4	0.03	1600
