time(ms)	gyro_x(deg/s)	gyro_y(deg/s)	gyro_z(deg/s)	orientation_roll(deg)	orientation_pitch(deg)	orientation_yaw(deg)	throttle	battery(V)	loop_time(uS)	pid_output_roll	pid_output_pitch	pid_output_yaw	pid_output_throttle	ultrasonic_alt	baro_alt	flight_mode	p_gain_altitude	i_gain_altitude	d_gain_altitude
179825	-30	-23	3	-0.4054611	0.1814644	0.9759712	0	11.57	4004	0	0	0	0	1.075649	-0.1481862	1	3	0.01	1600
179882	-11	-22	1	-0.4011882	0.180442	0.9727923	0	11.57	4002	0	0	0	0	1.075649	-0.1475457	1	3	0.01	1600
179982	-22	-24	5	-0.3946456	0.1840526	0.9689412	0	11.57	4003	0	0	0	0	1.075649	-0.1469433	1	3	0.01	1600
180126	-21	-23	6	-0.3896604	0.1790179	0.9666182	0	11.57	4003	0	0	0	0	1.075649	-0.1416948	1	3	0.01	1600
180263	-26	-22	1	-0.3767842	0.1760998	0.9629495	0	11.57	4004	0	0	0	0	1.075649	-0.1430115	1	3	0.01	1600
180335	-12	-26	3	-0.3699261	0.169205	0.961849	0	11.57	4004	0	0	0	0	1.075649	-0.1469608	3	3	0.01	1600
180440	-20	-19	4	-0.3690675	0.1671928	0.9599541	0	11.57	4002	0	0	0	0	1.075649	-0.1532867	3	3	0.01	1600
180488	-28	-24	0	-0.3732181	0.1656181	0.9597706	0	11.57	4003	0	0	0	0	1.075649	-0.1576153	3	3	0.01	1600
180571	-23	-17	0	-0.376473	0.160037	0.9576921	0	11.57	4003	0	0	0	0	1.075649	-0.1648271	3	3	0.01	1600
180671	-27	-31	3	-0.3739076	0.1624563	0.9542685	0	11.57	4003	0	0	0	0	1.075649	-0.1676717	3	3	0.01	1600
180776	-19	-25	2	-0.3786699	0.1637708	0.9530456	0	11.57	4006	0	0	0	0	1.075649	-0.1651025	3	3	0.01	1600
180882	-22	-26	1	-0.3662186	0.1571043	0.951578	0	11.57	4003	0	0	0	0	1.075649	-0.1590998	3	3	0.01	1600
180989	-31	-22	2	-0.3666972	0.151034	0.9482158	0	11.57	4004	0	0	0	0	1.075649	-0.1537221	3	3	0.01	1600
181089	-23	-17	2	-0.3689706	0.1555903	0.9477877	0	11.57	4002	0	0	0	0	1.075649	-0.1489361	3	3	0.01	1600
181192	-17	-21	3	-0.3633004	0.1571824	0.946626	0	11.57	4003	0	0	0	0	1.075649	-0.1478444	3	3	0.01	1600
181296	-16	-26	0	-0.3562385	0.153433	0.9457701	0	11.57	4004	0	0	0	0	1.075649	-0.1511233	3	3	0.01	1600
181512	-22	-17	0	-0.3461803	0.1408423	0.9430799	0	11.57	4004	0	0	0	0	1.075649	-0.1552657	3	3	0.01	1600
181618	-29	-13	6	-0.3425526	0.1375349	0.9414905	0	11.57	4002	0	0	0	0	1.075649	-0.1550048	3	3	0.01	1600
181714	-12	-17	1	-0.3353983	0.1311651	0.9419795	0	11.51	4002	0	0	0	0	1.075649	-0.1557713	3	3	0.01	1600
181889	-11	-27	-2	-0.3432461	0.1282463	0.9419792	0	11.51	4003	0	0	0	0	1.075649	-0.1618878	3	3	0.01	1600
181936	-19	-25	0	-0.3340751	0.1267947	0.9408787	0	11.51	4004	0	0	0	0	1.075649	-0.1620311	3	3	0.01	1600
182036	-16	-21	3	-0.329203	0.1240307	0.9395949	0	11.51	4002	0	0	0	0	1.075649	-0.1625593	3	3	0.01	1600
182128	-12	-23	-1	-0.3205684	0.1167436	0.9393505	0	11.51	4002	0	0	0	0	1.075649	-0.1675936	3	3	0.01	1600
182236	-18	-21	4	-0.3132181	0.1139295	0.9375774	0	11.51	4002	1	-1	0	0	1.075649	-0.175556	3	3	0.01	1600
182344	-13	-28	-15	-0.30859	0.1114625	0.9371504	0	11.51	4003	2	-4	0	0	1.075649	-0.1717885	3	3	0.01	1600
182489	-31	-38	-121	-0.3029121	0.1117677	0.9414281	0	11.51	4004	8	-8	2	0	1.075649	-0.1543894	3	3	0.01	1600
182533	-20	-20	-42	-0.3080794	0.111225	0.9361749	0	11.51	4004	0	-1	0	0	1.075649	-0.1491353	3	3	0.01	1600
182634	-72	-28	32	-0.2942875	0.08977526	0.935808	0	11.57	4004	1	0	0	0	1.075649	-0.1431564	3	3	0.01	1600
182735	1	-40	-10	-0.3120191	0.07573231	0.9356878	0	11.57	4003	19	-9	0	0	1.075649	-0.1343802	3	3	0.01	1600
182863	-10	21	-6	-0.2874098	0.06061323	0.9230944	0	11.57	4003	-7	-7	0	0	1.075649	-0.1234118	3	3	0.01	1600
182942	-2	-30	-22	-0.2774751	0.0557693	0.9170352	0	11.57	4002	0	3	0	0	1.075649	-0.1133381	3	3	0.01	1600
183046	1	-52	-16	-0.2723606	0.06662022	0.919422	0	11.57	4003	2	-3	0	0	1.075649	-0.1050308	3	3	0.01	1600
183223	-50	-60	-75	-0.2717733	0.1177394	0.9164931	0	11.57	4004	-25	-16	1	0	1.075649	-0.1033914	3	3	0.01	1600
183276	-39	41	-219	-0.2448542	0.1217543	0.9172221	0	11.57	4003	-40	-17	1	0	1.075649	-0.1037486	3	3	0.01	1600
183409	27	-91	-479	-0.2700385	0.1504573	0.9503171	0	11.57	4003	31	-55	-1	0	1.075649	-0.1044213	3	3	0.01	1600
183503	183	-179	721	-0.2637639	0.04609827	0.9197563	0	11.57	4004	2	24	3	0	1.075649	-0.09927867	3	3	0.01	1600
183536	620	222	-628	-0.2533233	-0.3441612	1.006055	0	11	4002	-72	-88	3	0	1.075649	-0.09528041	3	3	0.01	1600
183635	1244	1952	-121	0.3536771	-2.901075	1.002197	0	11	4004	20	-160	-8	0	1.075649	-0.08471289	3	3	0.01	1600
183736	-59	1481	336	1.166778	-5.401769	1.013775	0	11	4002	83	-153	0	0	1.075649	-0.06231574	3	3	0.01	1600
183873	-8	1004	-925	-0.5559354	-10.11815	1.045337	0	11	4004	43	-172	-17	0	1.075649	-0.03935984	3	3	0.01	1600
183942	429	3187	-251	-0.08522333	-12.23088	1.404942	0	11	4002	15	-128	-15	0	1.075649	-0.02585285	3	3	0.01	1600
184046	-182	1660	-26	-0.1347292	-15.5472	1.988886	0	11	4002	25	-9	-27	0	1.075649	-0.001698274	3	3	0.01	1600
184159	-524	-1282	741	-1.14363	-14.30051	1.075315	0	11	4004	7	-68	-3	0	1.075649	0.02783652	3	3	0.01	1600
184258	-869	-1923	-307	-1.976834	-11.78997	0.7009471	0	11	4002	-72	-12	4	0	1.075649	0.06358548	3	3	0.01	1600
184379	-537	-3756	-1178	-5.511682	-2.458031	1.178624	0	11	4002	56	-18	-3	0	1.075649	0.1197027	3	3	0.01	1600
184467	190	375	499	-5.415766	-1.187196	1.188097	0	10.66	4004	-51	50	5	0	1.075649	0.1400022	3	3	0.01	1600
184671	-485	49	-8	-3.390994	-2.471104	0.9153625	0	10.66	4002	16	-129	0	0	1.075649	0.1646367	3	3	0.01	1600
184735	370	238	481	-3.760821	-3.240407	0.7877406	0	10.66	4003	52	158	6	0	1.075649	0.1656821	3	3	0.01	1600
184800	1076	-1498	-500	-2.843564	-2.691147	0.6675825	0	10.66	4002	-1	-251	0	0	1.075649	0.1676025	3	3	0.01	1600
184864	710	-599	614	-1.958699	-1.553313	0.6550555	0	10.66	4004	-51	60	14	0	1.075649	0.1701168	3	3	0.01	1600
184987	1111	954	-802	-1.492291	-3.023992	0.3854843	0	10.66	4004	41	72	7	0	1.075649	0.1646345	3	3	0.01	1600
185056	709	-909	569	-0.955956	-3.598038	0.2103192	0	10.66	4004	-111	18	23	0	1.075649	0.1664552	3	3	0.01	1600
185158	-512	1313	540	-0.3525944	-3.246103	1.03669	0	10.66	4002	5	-10	5	0	1.075649	0.16967	3	3	0.01	1600
185264	1418	-788	338	-1.156032	-3.622534	0.7077512	0	10.66	4003	-92	-135	12	0	1.075649	0.1775002	3	3	0.01	1600
185521	331	-1806	-99	-2.340928	-1.618092	-0.5205097	0	10.89	4003	-68	-112	35	0	1.075649	0.1805381	3	3	0.01	1600
185624	-884	-723	25	-2.26735	-0.3295761	-0.3244593	0	10.89	4003	-54	-38	45	0	1.075649	0.1788564	3	3	0.01	1600
185673	729	851	-1223	-3.100543	-2.015705	-0.2766588	0	10.89	4003	-88	-209	12	0	1.075649	0.1769257	3	3	0.01	1600
185781	657	159	-2417	-3.218161	-5.111238	0.2781505	0	10.89	4004	-19	-195	-10	0	1.075649	0.1696362	3	3	0.01	1600
185953	1137	2849	351	-3.635405	-9.631103	1.078822	0	10.89	4003	-41	-37	4	0	1.075649	0.1554339	3	3	0.01	1600
186012	-233	229	172	-2.480471	-11.66527	0.7862775	0	10.89	4004	-55	-78	2	0	1.075649	0.1503701	3	3	0.01	1600
186081	1336	-1383	-590	-1.739798	-9.921304	0.7940314	0	10.89	4002	-51	78	0	0	1.075649	0.1455902	3	3	0.01	1600
186195	1226	-1184	-303	0.9525505	-7.164196	1.042408	0	10.89	4004	-13	125	-18	0	1.075649	0.1256804	3	3	0.01	1600
186317	-1096	-611	-6	0.1150501	-6.788592	1.389737	0	10.72	4002	129	-91	-11	0	1.075649	0.1141411	3	3	0.01	1600
186385	214	-795	394	0.179665	-6.690433	1.210876	0	10.72	4002	-32	129	1	0	1.075649	0.1103712	3	3	0.01	1600
186488	-1609	-1086	1446	-1.075281	-3.447659	0.1946997	0	10.72	4003	36	12	9	0	1.075649	0.1079571	3	3	0.01	1600
186613	-1212	-1368	895	-2.335781	-0.2971086	-0.4045921	0	10.72	4002	102	-96	38	0	1.075649	0.1203809	3	3	0.01	1600
186696	-899	2	-364	-4.168132	-0.1617831	-0.2003499	0	10.72	4003	-12	-87	24	0	1.075649	0.1259142	3	3	0.01	1600
186795	-1790	1826	-404	-4.703811	-1.652237	-0.131392	0	10.72	4002	44	144	26	0	1.075649	0.1386048	3	3	0.01	1600
186904	1316	3251	-144	-5.100389	-6.063421	-0.4257735	0	10.72	4004	54	59	21	0	1.075649	0.1516283	3	3	0.01	1600
187000	657	3557	-158	-3.592289	-9.983816	-0.2337956	0	10.72	4008	-6	228	23	0	1.075649	0.1717915	3	3	0.01	1600
187137	1901	-879	-564	-3.147571	-13.03014	1.069683	0	10.72	4002	-138	114	-10	0	1.075649	0.1877986	3	3	0.01	1600
187202	988	-2104	16	-1.057739	-11.59425	1.845105	0	10.72	4002	119	-158	-20	0	1.075649	0.1890608	3	3	0.01	1600
187311	-1213	-1875	168	-0.2367544	-6.475825	1.624344	0	10.72	4003	-103	53	-20	0	1.075649	0.1866522	3	3	0.01	1600
187408	-105	-1308	-7	-0.3987547	-4.281553	1.284853	0	10.72	4004	64	-71	0	0	1.075649	0.1800556	3	3	0.01	1600
187517	636	-329	-637	1.199323	-4.37643	0.9697582	0	10.72	4004	-130	247	8	0	1.075649	0.1737903	3	3	0.01	1600
187616	-1657	1414	630	1.985743	-4.26001	1.603072	0	10.72	4003	86	27	-12	0	1.075649	0.1653946	3	3	0.01	1600
187818	257	2150	-490	-0.4661452	-5.217649	1.762115	0	10.72	4004	4	100	-25	0	1.075649	0.1540338	3	3	0.01	1600
187850	-370	1373	602	-0.6180416	-6.713048	1.590515	0	10.72	4002	30	-18	-11	0	1.075649	0.1497456	3	3	0.01	1600
187934	93	1005	-740	-1.078968	-9.197096	1.688873	0	10.72	4002	-83	-252	-32	0	1.075649	0.1426438	3	3	0.01	1600
188069	-491	1708	-231	-2.626932	-12.83638	2.12964	0	10.72	4003	-19	56	-27	0	1.075649	0.1353894	3	3	0.01	1600
188131	1044	936	-396	-1.661597	-13.32352	2.308154	0	10.72	4002	32	40	-34	0	1.075649	0.1367135	3	3	0.01	1600
188273	-236	-2202	753	0.2603598	-13.73831	1.860579	0	10.55	4003	49	-6	-12	0	1.075649	0.1428179	3	3	0.01	1600
188378	48	-1184	1471	-0.1322336	-8.238258	1.207582	0	10.55	4003	45	133	12	0	1.075649	0.149499	3	3	0.01	1600
188437	-465	-912	56	-0.5995032	-7.148413	0.315652	0	10.55	4004	60	-79	17	0	1.075649	0.1534292	3	3	0.01	1600
188550	-515	-1873	-756	-0.6068761	-5.910732	-0.1724458	0	10.55	4002	27	-112	14	0	1.075649	0.1533092	3	3	0.01	1600
188649	66	-227	149	-0.4973793	-3.497766	0.6657814	0	10.55	4002	1	165	1	0	1.075649	0.1554742	3	3	0.01	1600
188823	-633	-1409	-306	-1.197372	-4.397606	0.8054686	0	10.55	4002	21	-116	4	0	1.075649	0.1745954	3	3	0.01	1600
188916	1041	-253	-439	-1.222794	-2.600809	1.154773	0	10.55	4003	1	123	-1	0	1.075649	0.2038976	3	3	0.01	1600
188991	359	91	-440	-0.5652538	-3.634475	1.112209	0	10.55	4004	5	-201	-26	0	1.075649	0.2251575	3	3	0.01	1600
189103	-1329	-580	-260	0.06838909	-4.368145	1.605987	0	10.66	4003	-157	217	-17	0	1.075649	0.2549536	3	3	0.01	1600
189135	-1279	-1213	-282	-0.5907694	-4.537494	1.653796	0	10.66	4002	26	-158	-20	0	1.075649	0.2605721	3	3	0.01	1600
189209	-12	-620	627	-1.840319	-3.295121	1.574007	0	10.66	4004	-2	-4	-18	0	1.075649	0.2860044	3	3	0.01	1600
189314	1095	1860	158	-0.738992	-4.502888	0.9426987	0	10.66	4003	-145	80	11	0	1.075649	0.3263207	3	3	0.01	1600
189419	-554	-766	844	0.06036676	-3.535786	1.422617	0	10.66	4003	-125	-145	-15	0	1.075649	0.3551627	3	3	0.01	1600
189513	-231	596	597	-1.231057	-3.264984	0.8980404	0	10.66	4004	-98	99	8	0	1.075649	0.3752828	3	3	0.01	1600
189614	1489	-1070	-230	-0.3788217	-2.439656	0.9353349	0	10.66	4004	-39	24	0	0	1.075649	0.3897575	3	3	0.01	1600
189721	8	-152	720	0.5112174	-1.504513	1.025639	0	10.66	4003	-36	-106	-4	0	1.075649	0.4103372	3	3	0.01	1600
189843	-178	-1350	-34	-0.02360571	-0.3994495	0.8729876	0	10.66	4003	-62	-53	-3	0	1.075649	0.4228662	3	3	0.01	1600
189928	-705	1527	32	-0.2820589	-0.7050354	0.6931817	0	10.66	4003	33	21	8	0	1.075649	0.4323014	3	3	0.01	1600
190024	1537	1486	-700	0.9670958	-6.167382	1.312062	0	10.83	4002	56	-125	-15	0	1.075649	0.4427178	3	3	0.01	1600
190159	-1109	-2	76	0.9076744	-7.505072	1.675326	0	10.83	4002	66	-15	-17	0	1.075649	0.4501311	3	3	0.01	1600
190269	-1092	320	479	-0.3169769	-7.313939	0.9948598	0	10.83	4002	121	71	-4	0	1.075649	0.4486213	3	3	0.01	1600
190390	-324	2476	1003	0.2654928	-9.8772	0.7176335	0	10.83	4002	-36	208	19	0	1.075649	0.4193042	3	3	0.01	1600
190563	-438	1013	273	-2.127817	-13.72075	0.4201038	0	10.83	4003	46	58	18	0	1.075649	0.3947105	3	3	0.01	1600
190734	-1650	-869	-2	-4.548851	-12.10304	0.7569785	0	10.83	4002	87	-241	0	0	1.075649	0.3709836	3	3	0.01	1600
190853	1550	704	-685	-3.533508	-11.59859	1.841993	0	10.83	4004	-19	23	-29	0	1.075649	0.3509364	3	3	0.01	1600
190921	-308	691	99	-2.599529	-11.86419	2.010885	0	10.55	4004	75	3	-26	0	1.075649	0.3420869	3	3	0.01	1600
191003	692	1140	434	-2.611116	-12.34866	1.816894	0	10.55	4004	-146	11	-19	0	1.075649	0.3392382	3	3	0.01	1600
191107	334	-438	395	-1.703145	-11.54556	1.235814	0	10.55	4002	4	-132	-1	0	1.075649	0.3397188	3	3	0.01	1600
191213	-502	1501	496	-1.344105	-11.80717	0.4585443	0	10.55	4004	10	47	19	0	1.075649	0.3436835	3	3	0.01	1600
191311	967	374	672	-1.392677	-11.90214	0.4926398	0	10.55	4003	24	-17	0	0	1.075649	0.3482807	3	3	0.01	1600
191421	370	-1013	-1672	-2.213693	-11.25392	0.9442782	0	10.55	4003	97	96	6	0	1.063657	0.3577401	4	3	0.01	1600
191496	-250	1449	-927	-1.778131	-12.58257	1.129587	0	10.55	4004	24	-162	-14	0	1.099042	0.3579681	4	3	0.01	1600
191608	-2126	-951	-133	-3.276968	-13.46886	1.464302	0	10.55	4004	106	109	-14	0	1.028392	0.354223	4	3	0.01	1600
191713	-1038	-907	781	-5.991362	-11.09669	0.5160016	0	10.55	4004	-7	39	20	0	1.080834	0.3500087	4	3	0.01	1600
191818	703	-2437	483	-5.727098	-7.155166	0.7044908	0	11.23	4003	92	-171	0	0	1.098798	0.3505632	4	3	0.01	1600
191904	450	-1076	-1563	-5.788323	-4.896205	1.256295	0	11.23	4004	-179	-38	-11	0	1.104566	0.3511814	4	3	0.01	1600
192011	894	-487	-530	-6.142727	-6.707354	1.689484	0	11.23	4004	-13	-136	-29	0	1.135745	0.3606707	4	3	0.01	1600
192104	210	-2046	53	-4.696175	-5.39099	1.657182	0	11.23	4003	-49	-135	-17	0	1.135911	0.37813	4	3	0.01	1600
192216	1109	475	-634	-4.492717	-6.423011	0.9429622	0	11.23	4002	-31	-144	-3	0	1.125715	0.4052769	4	3	0.01	1600
192342	1843	841	916	-2.90017	-7.251929	0.1584148	0	11.23	4002	-82	99	31	0	1.118429	0.4203184	4	3	0.01	1600
192493	141	-1053	-631	-0.07079487	-7.018302	0.8965681	0	11.23	4002	-126	191	11	0	1.079246	0.430481	4	3	0.01	1600
192528	-232	-235	218	-0.3706223	-6.680549	1.117996	0	11.23	4003	-81	-17	-1	0	1.074056	0.435214	4	3	0.01	1600
192658	532	-2596	817	-0.8072808	-2.174853	1.524804	0	11.23	4003	-60	-93	-7	0	1.058925	0.4471248	4	3	0.01	1600
192811	-733	89	1160	-1.59922	2.527004	0.6224551	0	10.66	4004	-7	173	19	0	1.018989	0.4584861	4	3	0.01	1600
192921	239	-349	518	-1.355672	2.208887	0.3867405	0	10.66	4003	58	-55	7	0	1.014359	0.4566822	4	3	0.01	1600
192999	-1306	480	367	-2.025223	1.625027	0.1669564	0	10.66	4003	-70	24	37	0	1.005019	0.4525178	4	3	0.01	1600
193086	379	1396	196	-2.17452	0.5475107	0.4476252	0	10.66	4002	-32	-25	-14	0	1.011894	0.4428583	4	3	0.01	1600
193261	-97	161	70	-2.111683	-3.241991	1.685484	0	10.66	4003	-24	-89	-14	0	0.9449599	0.4026672	4	3	0.01	1600
193303	18	-473	62	-2.024274	-3.173939	1.478729	0	10.66	4007	59	-94	-8	0	0.9985306	0.3925535	4	3	0.01	1600
193455	453	971	581	-1.514701	-2.807558	0.6297632	0	10.66	4004	-4	68	16	0	1.057736	0.3798077	4	3	0.01	1600
193498	-170	1723	292	-1.663112	-3.967479	0.2864676	0	10.66	4003	3	54	20	0	1.086384	0.377235	4	3	0.01	1600
193686	-872	1337	388	-1.724479	-8.433208	1.129261	0	11.06	4003	21	63	-5	0	1.14161	0.350049	4	3	0.01	1600
193743	-1414	1214	221	-2.404755	-9.60826	1.265559	0	11.06	4003	66	63	-7	0	1.161401	0.3436594	4	3	0.01	1600
193864	978	644	145	-1.897557	-12.94469	1.279943	0	11.06	4004	-41	-166	-6	0	1.132717	0.3351297	4	3	0.01	1600
193975	-562	-252	66	-1.686841	-11.72502	1.123515	0	11.06	4004	30	-46	-2	0	1.112901	0.3212479	4	3	0.01	1600
194028	-495	1252	1422	-2.351717	-11.63288	0.944477	0	11.06	4004	53	117	-7	0	1.098109	0.3093705	4	3	0.01	1600
194096	-1098	1432	409	-2.588383	-11.54177	0.7646562	0	11.06	4003	-23	-194	10	0	1.058086	0.2996212	4	3	0.01	1600
194278	-176	-637	-155	-4.793107	-10.31474	1.204448	0	11.06	4004	-43	157	-5	0	0.9803458	0.2904411	4	3	0.01	1600
194319	-860	-1321	-380	-4.885242	-9.528177	1.234573	0	11.06	4003	15	41	-13	0	0.9363051	0.2869628	4	3	0.01	1600
194384	-617	56	445	-5.357462	-8.79121	1.205256	0	11.06	4002	7	-59	0	0	0.8828818	0.2766602	4	3	0.01	1600
194498	-407	-1497	-528	-4.708255	-8.356462	1.165656	0	11.06	4003	122	-73	-10	0	0.7991312	0.2593903	4	3	0.01	1600
194608	-391	-1038	846	-5.514325	-5.106039	1.14443	0	11.29	4004	-73	90	3	0	0.6856515	0.240788	4	3	0.01	1600
194675	-1735	-1571	-194	-6.492472	-4.411747	0.8606161	0	11.29	4004	67	-231	0	0	0.6237411	0.2264415	4	3	0.01	1600
194796	-951	-1038	270	-7.314687	-4.153072	0.351326	0	11.29	4004	98	-119	20	1	0.5163355	0.196799	4	3	0.01	1600
194880	-528	908	493	-6.105133	-5.98964	-0.3068082	0	11.29	4004	-86	-51	43	1	0.4346901	0.1741239	4	3	0.01	1600
194997	-1032	-520	-450	-6.443954	-5.171138	-0.09168646	0	11.29	4003	92	-11	7	4	0.3391328	0.1420641	4	3	0.01	1600
195121	767	166	9	-5.211374	-3.347972	1.479931	0	11.29	4004	4	-208	-12	10	0.2843775	0.1157024	4	3	0.01	1600
195178	788	-1486	172	-4.130179	-2.311096	1.89357	0	11.29	4004	-22	-143	-31	11	0.2510046	0.09872746	4	3	0.01	1600
195337	-463	1134	1008	-4.041689	-2.053049	0.6053014	0	11.29	4002	0	33	24	12	0.21051	0.07176784	4	3	0.01	1600
195388	-1915	-183	170	-4.768949	-4.330743	-0.4148426	0	11.29	4004	111	-55	40	12	0.2380943	0.06491606	4	3	0.01	1600
195586	1081	1482	-1011	-4.691826	-6.683438	0.5166814	0	11.23	4002	-63	-88	-4	11	0.2862732	0.06811471	4	3	0.01	1600
195704	-599	1281	-118	-3.904471	-9.291598	1.104522	0	11.23	4002	-99	-58	-4	4	0.3914961	0.08624401	4	3	0.01	1600
195844	88	3827	1459	-2.37052	-12.59626	-0.5097647	0	11.23	4002	-85	-60	44	3	0.4194912	0.1047467	4	3	0.01	1600
195916	-316	2078	775	-2.506359	-15.0204	-1.286244	0	11.23	4002	-67	-172	49	3	0.4718223	0.122522	4	3	0.01	1600
196116	-145	-1889	-638	-3.832307	-12.75419	0.03942006	0	11.23	4004	-1	-53	21	3	0.641661	0.1760566	4	3	0.01	1600
196240	-123	797	688	-3.807312	-11.09773	0.1291801	0	11.23	4003	-30	-55	28	2	0.7643002	0.2007531	4	3	0.01	1600
196306	2195	-389	-47	-2.618086	-10.71685	-0.01019153	0	11.23	4003	45	-233	20	2	0.8292482	0.2137262	4	3	0.01	1600
196381	2460	709	543	0.7803898	-9.38102	0.224814	0	11.17	4002	-17	70	20	2	0.8881207	0.2184288	4	3	0.01	1600
196478	2063	-1935	-281	3.770052	-7.881856	0.6983889	0	11.17	4002	2	102	1	2	0.9358073	0.22577	4	3	0.01	1600
196627	626	-1871	-285	4.531665	-5.920072	0.6106517	0	11.17	4003	-41	-255	1	2	0.9800317	0.2436788	4	3	0.01	1600
196676	476	-1281	-53	4.570434	-5.224411	0.6699597	0	11.17	4002	44	-93	9	2	0.9628767	0.2536055	4	3	0.01	1600
196816	278	455	794	2.843838	-4.135773	0.5290472	0	11.17	4003	156	101	4	2	1.014603	0.292642	4	3	0.01	1600
196907	-1144	-155	415	1.892505	-4.90107	0.3754015	0	11.17	4003	-43	-70	21	2	1.06409	0.3284212	4	3	0.01	1600
197022	-1420	398	-907	-1.973956	-6.933757	0.2578681	0	11.17	4003	-45	-112	6	2	1.079067	0.3440202	4	3	0.01	1600
197095	-2037	-565	1047	-3.455151	-6.829963	-0.03897085	0	11.17	4003	-9	-107	36	1	0.9774899	0.3475512	4	3	0.01	1600
197150	-2133	-1788	-770	-5.756953	-5.595404	-0.09674601	0	11.17	4002	4	-166	17	2	0.9905299	0.3479475	4	3	0.01	1600
197283	-707	-761	405	-7.631306	-3.525451	0.1434242	0	10.43	4003	-14	-119	25	2	0.9961545	0.3398411	4	3	0.01	1600
197369	-887	-2590	-71	-7.60188	-1.020943	0.4256455	0	10.43	4002	-12	-162	11	2	1.014298	0.3341877	4	3	0.01	1600
197475	304	34	-157	-7.171308	0.403253	0.9517671	0	10.43	4002	24	171	-8	2	1.008672	0.3306014	4	3	0.01	1600
197632	28	-218	793	-6.266961	1.112852	0.7755312	0	10.43	4002	-10	-22	10	2	1.051938	0.3287513	4	3	0.01	1600
197681	-615	-512	-183	-6.252808	1.193878	0.432891	0	10.43	4003	30	153	4	2	1.062243	0.3228905	4	3	0.01	1600
197779	-86	-1093	34	-6.041093	0.4871199	-0.1385446	0	10.43	4004	-29	-142	19	2	1.045747	0.306184	4	3	0.01	1600
197875	985	873	647	-4.387192	0.2346356	0.07372393	0	10.43	4004	49	99	21	1	1.072413	0.2966688	4	3	0.01	1600
197967	-484	-1681	344	-4.228086	0.208542	0.3251586	0	10.43	4004	-30	-227	9	1	1.094234	0.2892945	4	3	0.01	1600
198098	500	1217	724	-3.509376	1.059244	0.4333082	0	10.43	4002	72	42	8	1	1.09883	0.2934903	4	3	0.01	1600
198182	-716	568	260	-3.004326	-1.415635	0.247313	0	10.43	4003	18	0	21	1	1.094122	0.2913585	4	3	0.01	1600
198292	-709	751	570	-3.116934	-1.591519	0.01985758	0	10.43	4003	74	112	31	2	0.9858976	0.2904806	4	3	0.01	1600
198360	-71	3	168	-3.677187	-2.304662	-0.3177262	0	10.43	4003	-92	-2	42	2	0.9921971	0.2866256	4	3	0.01	1600
198440	-45	-1110	-884	-3.585597	-2.743515	-0.2579399	0	10.43	4002	42	-168	18	2	0.9976907	0.2833253	4	3	0.01	1600
198565	186	-1389	-644	-1.932481	-1.269278	0.5136797	0	10.43	4003	83	87	10	2	0.9940485	0.2829482	4	3	0.01	1600
198669	467	-778	-15	-2.515463	-1.488468	1.00602	0	10.43	4003	-57	-59	0	2	0.8876581	0.2927219	4	3	0.01	1600
198740	-98	-1114	8	-2.133662	-0.2999077	1.268815	0	10.43	4004	-23	83	-6	2	0.8911821	0.3000187	4	3	0.01	1600
198832	198	981	-405	-3.525738	-0.8749661	0.6690223	0	10.43	4002	-8	163	6	2	0.9041167	0.3010414	4	3	0.01	1600
198933	2568	828	-493	-1.712726	-2.680938	0.8005828	0	10.43	4003	-47	-132	-2	2	0.9076142	0.2864184	4	3	0.01	1600
199037	-325	2793	-354	-0.2364189	-4.921834	2.121375	0	10.43	4002	-75	97	-37	2	0.893316	0.2551616	4	3	0.01	1600
199143	1162	1828	76	0.4883929	-8.884052	2.633086	0	10.72	4002	49	-74	-28	2	0.8554596	0.2302727	4	3	0.01	1600
199271	-30	-122	-417	0.158563	-10.89219	1.877633	0	10.72	4002	19	-191	-26	2	0.8126965	0.2168877	4	3	0.01	1600
199365	837	-482	290	0.2394194	-10.21242	1.918604	0	10.72	4003	36	-128	-14	2	0.7646047	0.2099421	4	3	0.01	1600
199451	180	79	554	0.2987728	-9.476027	1.299574	0	10.72	4004	0	30	-3	3	0.7355313	0.2057498	4	3	0.01	1600
199574	129	-172	-59	-0.1548564	-8.503117	1.48212	0	10.72	4004	-88	211	-32	3	0.6361821	0.1845601	4	3	0.01	1600
199655	-579	-1072	325	1.404342	-7.772381	2.638138	0	10.72	4003	39	-160	-42	3	0.5848439	0.1692963	4	3	0.01	1600
199789	-1047	-647	372	0.6390259	-7.640684	2.580032	0	10.72	4003	78	-126	-35	4	0.5144647	0.1411519	4	3	0.01	1600
199862	-478	-34	501	0.6148761	-6.555222	2.133102	0	10.72	4003	18	84	-22	4	0.47279	0.1221417	4	3	0.01	1600
199999	450	47	978	1.033386	-7.835016	1.414529	0	10.72	4004	71	-70	5	4	0.3551433	0.09039017	4	3	0.01	1600
200047	-872	-1382	-360	0.4538991	-7.305305	0.7508832	0	9.98	4004	-39	-123	3	12	0.3264204	0.07757132	4	3	0.01	1600
200164	-830	1423	1231	-0.1127476	-7.011051	0.1851868	0	9.98	4004	79	121	28	14	0.2661252	0.05917109	4	3	0.01	1600
200352	647	-1592	-213	-1.771067	-5.9847	0.05698495	0	9.98	4002	-153	-179	11	15	0.2404046	0.01550091	4	3	0.01	1600
200459	-462	-763	113	-2.506205	-3.764409	0.9052015	0	9.98	4004	66	154	0	14	0.2759892	0.003797589	4	3	0.01	1600
200545	-553	-1180	-554	-3.215425	-1.952111	1.160582	0	9.98	4004	29	46	-16	14	0.335081	-0.003880963	4	3	0.01	1600
200653	755	-187	1021	-2.56852	-0.01187705	0.8518116	0	9.98	4002	-81	94	12	6	0.4028519	-0.009880003	4	3	0.01	1600
200766	126	744	90	-1.132813	-0.6971579	1.241643	0	9.98	4004	29	-122	-8	6	0.5069132	-0.009724793	4	3	0.01	1600
200861	-673	669	297	-1.515134	-1.312714	1.261873	0	9.98	4003	-128	110	0	5	0.5943791	-0.00480268	4	3	0.01	1600
201013	-667	1391	-117	-0.4548179	-3.447552	1.357882	0	11	4003	59	178	-9	5	0.801906	0.03950773	4	3	0.01	1600
201060	110	-418	471	-0.7107602	-3.893116	0.9243092	0	11	4003	24	-175	4	5	0.8192647	0.04650331	4	3	0.01	1600
201153	1040	-1825	-15	0.09889705	-3.280035	0.6814367	0	11	4003	-13	-206	7	5	0.7951652	0.07765588	4	3	0.01	1600
201259	-224	-271	-47	-0.5253599	-2.325973	0.3958602	0	11	4003	-100	-13	11	5	0.8752683	0.1065748	4	3	0.01	1600
201364	931	-811	-1370	-0.213499	-3.131277	1.151001	0	11	4003	2	-223	-26	5	0.9592081	0.1371689	4	3	0.01	1600
201462	102	2419	-405	1.10124	-5.852575	1.840908	0	11	4004	-143	64	-24	4	0.9729968	0.1644964	4	3	0.01	1600
201633	1076	942	476	1.184051	-5.880436	1.197466	0	11	4003	-117	108	0	4	0.8646909	0.2427465	4	3	0.01	1600
201685	116	75	-17	1.472504	-5.837359	1.2278	0	11	4004	82	90	-4	5	0.9144179	0.2593495	4	3	0.01	1600
201762	-221	1922	409	0.0973784	-7.27538	0.7295857	0	11	4002	-10	-156	2	5	0.9672506	0.2832703	4	3	0.01	1600
201860	159	450	-690	-0.3573294	-8.13318	0.7418671	0	10.6	4004	-111	-68	1	4	1.035966	0.3110868	4	3	0.01	1600
202004	-1368	1654	-438	-1.874561	-8.54016	0.9188604	0	10.6	4004	-49	122	-2	4	1.049268	0.3336723	4	3	0.01	1600
202113	-1644	301	178	-4.596523	-6.646626	0.8475656	0	10.6	4004	-63	91	5	4	1.02745	0.3681333	4	3	0.01	1600
202275	-761	-807	247	-4.352948	-6.952455	1.156283	0	10.6	4003	64	-122	-2	4	0.9710296	0.4339793	4	3	0.01	1600
202389	865	-141	362	-4.631213	-5.998901	1.416295	0	10.6	4004	92	-154	-22	4	1.039258	0.4730178	4	3	0.01	1600
202471	-470	943	-147	-3.802171	-6.281338	1.888149	0	10.6	4003	63	39	-25	4	1.055296	0.5054294	4	3	0.01	1600
202557	-1778	-580	521	-4.526322	-6.722308	1.556649	0	10.6	4003	0	-64	-7	4	1.075128	0.5612032	4	3	0.01	1600
202665	918	1443	494	-4.77842	-7.341038	0.8681806	0	10.6	4004	-11	40	0	4	1.222177	0.61	4	3	0.01	1600
202830	-1552	-784	276	-5.530923	-7.402381	0.7636822	0	11.06	4004	26	-37	5	4	1.226046	0.6652609	4	3	0.01	1600
202924	1257	194	262	-5.347694	-7.296889	0.9275503	0	11.06	4003	23	-32	7	4	1.194016	0.7096349	4	3	0.01	1600
202993	-273	963	-122	-4.262836	-8.559106	1.09151	0	11.06	4003	-96	124	-8	4	1.174829	0.7203294	4	3	0.01	1600
203070	-1226	1227	693	-3.865454	-9.444779	1.093832	0	11.06	4002	31	118	6	4	1.173413	0.7790824	4	3	0.01	1600
203181	-933	-168	-46	-5.521935	-9.705976	0.4059898	0	11.06	4002	6	70	8	3	1.181299	0.8215509	4	3	0.01	1600
203348	779	-718	-328	-5.161222	-7.977408	1.363826	0	11.06	4003	-29	-125	-15	3	1.159931	0.8638829	4	3	0.01	1600
203431	3742	135	213	-0.9677939	-6.53479	1.957481	0	11.06	4003	-90	-170	-31	3	1.140422	0.8955352	4	3	0.01	1600
203465	2149	17	292	0.2100548	-6.715374	1.985674	0	11.06	4002	-86	4	-27	3	1.136414	0.909008	4	3	0.01	1600
203568	1588	-2123	466	1.159559	-7.096577	1.686577	0	11.06	4003	10	-118	-20	3	1.148744	0.9461324	4	3	0.01	1600
203671	381	-756	237	2.698196	-6.144155	0.92041	0	11.06	4004	21	-78	9	3	1.141657	0.9793757	4	3	0.01	1600
203772	404	-1435	-614	3.139609	-5.065499	0.9082344	0	10.38	4004	54	9	-6	3	1.02201	1.008377	4	3	0.01	1600
203908	-636	219	-248	1.807873	-4.176812	0.9428701	0	10.38	4004	94	48	-8	4	1.036291	1.05236	4	3	0.01	1600
203989	-1055	1729	148	0.8287548	-4.80289	0.6435277	0	10.38	4003	4	172	9	4	1.036014	1.07848	4	3	0.01	1600
204072	-82	-105	-254	0.04043307	-5.727077	0.4826096	0	10.38	4002	3	61	7	4	1.073913	1.103803	4	3	0.01	1600
204195	1050	426	42	1.417163	-4.078561	1.66527	0	10.38	4003	-74	158	-22	3	1.128363	1.151082	4	3	0.01	1600
204369	-1028	-863	-122	1.824411	-6.341361	1.866171	0	10.38	4002	41	-78	-15	3	1.16201	1.19578	4	3	0.01	1600
204435	-1565	-1748	951	1.165814	-5.607435	1.522862	0	10.38	4007	0	52	3	3	1.163419	1.229594	4	3	0.01	1600
204494	735	-523	-411	0.6976222	-3.961999	1.015529	0	10.38	4003	-50	-50	-7	3	1.163559	1.235675	4	3	0.01	1600
204572	1312	447	-186	1.61328	-4.319648	1.014814	0	10.38	4004	-67	-65	-5	3	1.161948	1.252981	4	3	0.01	1600
204662	91	437	-43	1.77199	-6.092084	1.323536	0	10.38	4002	-36	54	-10	0	1.197999	1.260126	4	3	0.01	1600
204785	-245	-1639	546	0.334372	-3.439174	1.31752	0	10.38	4002	-109	-26	-14	0	1.25194	1.260226	3	3	0.01	1600
204879	-410	-416	498	-0.1741145	-3.517329	1.117835	0	10.38	4003	62	0	0	0	1.279829	1.256973	3	3	0.01	1600
204986	107	-120	84	0.208581	-3.891805	0.853883	0	10.38	4004	90	-65	6	0	1.300159	1.256884	3	3	0.01	1600
205082	-652	-1922	2	0.9079022	-3.516351	1.170015	0	10.38	4004	52	-20	-8	0	1.310551	1.25148	3	3	0.01	1600
205168	-267	-4312	-386	-1.011914	2.230148	1.635939	0	10.38	4004	-29	9	-24	0	1.322556	1.242203	3	3	0.01	1600
205267	-556	-3245	564	-1.512296	5.419594	1.682628	0	10.38	4003	20	0	-7	0	1.331307	1.224567	3	3	0.01	1600
205369	-2851	-896	-160	-4.807047	6.744702	1.195115	0	10.38	4003	-9	-22	0	0	1.337687	1.202052	3	3	0.01	1600
205476	-3085	1694	60	-8.432496	5.524431	1.064476	0	10.38	4002	-13	66	-4	0	1.34359	1.155591	3	3	0.01	1600
205573	-2481	1975	-335	-12.98268	-0.08432737	0.8541338	0	9.53	4004	38	117	0	0	1.346641	1.114093	3	3	0.01	1600
205675	2982	5195	441	-10.54355	-5.726737	0.7333424	0	9.53	4004	-95	19	17	0	1.348866	1.05902	3	3	0.01	1600
205776	1193	4013	64	-6.050153	-12.76578	0.7533198	0	9.53	4004	12	-29	5	0	1.350487	1.031201	3	3	0.01	1600
205949	1666	2170	204	-2.789841	-18.60441	1.193869	0	9.53	4002	-48	125	-1	0	1.352274	0.9669798	3	3	0.01	1600
206001	1092	-4	151	-1.596096	-18.74401	1.068802	0	9.53	4003	-12	86	-3	0	1.352764	0.9388991	3	3	0.01	1600
206101	-334	-4387	-525	-2.668226	-11.86816	0.8645838	0	9.53	4002	-12	-96	3	0	1.353329	0.8955263	3	3	0.01	1600
206171	-462	-784	367	-2.73032	-8.333417	0.7651823	0	9.53	4004	28	179	11	0	1.353618	0.8662414	3	3	0.01	1600
206245	-405	-766	-265	-2.763844	-7.978987	0.2949312	0	9.53	4002	164	-248	10	0	1.353852	0.8367546	3	3	0.01	1600
206349	2662	-53	24	0.6065145	-7.855306	0.7964345	0	9.53	4003	-56	-206	5	0	1.354122	0.7962825	3	3	0.01	1600
206466	2884	2545	372	4.759272	-10.47769	0.9276059	0	10.49	4002	-58	-97	5	0	1.354373	0.7492169	3	3	0.01	1600
206557	2215	1524	154	7.423974	-11.9453	0.9584957	0	10.49	4004	-21	58	-2	0	1.354463	0.721724	3	3	0.01	1600
206650	2105	-14	19	9.920797	-12.14545	1.187123	0	10.49	4003	-72	-188	-12	0	1.354568	0.6678568	3	3	0.01	1600
206790	-4716	-2849	-763	3.909264	-9.385298	1.252061	0	10.49	4002	17	-8	-23	0	1.354683	0.5881906	3	3	0.01	1600
206891	-3286	-783	-149	-4.736763	-3.723115	1.362494	0	10.49	4004	-31	62	-14	0	1.354729	0.5413911	3	3	0.01	1600
206988	-2397	469	-146	-8.705312	-3.059784	0.9092773	0	10.49	4003	116	59	7	0	1.354761	0.4950532	3	3	0.01	1600
207053	1612	2262	115	-7.898106	-4.929737	0.401744	0	10.49	4002	-24	-3	26	0	1.354778	0.4635963	3	3	0.01	1600
207146	1081	3243	856	-5.005093	-8.037217	0.1979779	0	10.49	4003	134	4	30	0	1.354798	0.4305741	3	3	0.01	1600
207257	-116	548	-1315	-3.859513	-11.84632	0.5668244	0	10.49	4003	36	160	17	0	1.354812	0.3970284	3	3	0.01	1600
207453	-4140	-3988	-220	-5.44464	-5.952145	1.423581	0	11.06	4003	-43	-40	-18	0	1.354828	0.3512431	3	3	0.01	1600
207502	-2999	-1700	436	-8.642969	-2.567385	1.543941	0	11.06	4004	-57	17	-9	0	1.354832	0.3352192	3	3	0.01	1600
207553	-2123	-180	653	-9.580585	-2.246993	1.329577	0	11.06	4003	32	41	3	0	1.354835	0.3207833	3	3	0.01	1600
207660	2485	-1233	1045	-6.09189	-2.545981	0.7488582	0	11.06	4002	-45	-41	5	0	1.354839	0.3052974	3	3	0.01	1600
207759	-3926	3470	-1558	2.04078	1.46412	1.599755	0	11.06	4002	0	0	0	0	1.354842	0.2700071	3	3	0.01	1600
207859	2480	2380	849	0.4086289	0.1934338	1.132644	0	11.06	4003	0	0	0	0	1.354844	0.2369553	3	3	0.01	1600
207980	-288	-706	1021	0.1672911	-1.701613	0.2401658	0	11.06	4004	0	0	0	0	1.354846	0.1907718	3	3	0.01	1600
208101	-216	307	439	0.3676421	-3.653501	0.2289477	0	11.06	4003	0	0	0	0	1.354847	0.1415527	3	3	0.01	1600
208199	-68	-89	8	0.1749252	-3.115503	0.06026497	0	11.06	4004	0	0	0	0	1.354848	0.1097276	1	3	0.01	1600
208251	-52	-7	22	0.1118538	-2.828247	0.0580132	0	11.23	4002	0	0	0	0	1.354848	0.1008679	1	3	0.01	1600
208354	-45	-39	-87	0.03759256	-2.518008	0.04896937	0	11.23	4002	0	0	0	0	1.354849	0.07200646	1	3	0.01	1600
208498	-27	-43	-1	-0.1154644	-1.928389	0.02549467	0	11.23	4002	0	0	0	0	1.354849	0.03613658	1	3	0.01	1600
208559	-52	-57	1	-0.1396488	-1.816817	0.02353778	0	11.23	4002	0	0	0	0	1.354849	0.01531939	1	3	0.01	1600
208691	-55	-61	19	-0.257987	-1.364017	0.002626121	0	11.23	4002	0	0	0	0	1.354849	-0.01740943	1	3	0.01	1600
208796	-67	-51	2	-0.3192599	-1.124825	-0.00440394	0	11.23	4002	0	0	0	0	1.354849	-0.0406403	1	3	0.01	1600
208909	-37	-52	-8	-0.351697	-0.9238198	-0.01663133	0	11.23	4003	0	0	0	0	1.354849	-0.06781141	1	3	0.01	1600
208997	-62	-60	-46	-0.4003111	-0.7412409	-0.02513117	0	11.23	4002	0	0	0	0	1.354849	-0.076933	1	3	0.01	1600
209079	-66	-48	0	-0.4226851	-0.6396435	-0.03674934	0	11.23	4003	0	0	0	0	1.354849	-0.09245138	1	3	0.01	1600
209168	-70	-38	-6	-0.4655895	-0.4892924	-0.04922275	0	11.23	4003	0	0	0	0	1.354849	-0.09937085	1	3	0.01	1600
209272	-58	-59	35	-0.4845319	-0.3698271	-0.05784482	0	11.29	4003	0	0	0	0	1.354849	-0.1024475	1	3	0.01	1600
209424	-68	-47	6	-0.5201989	-0.1942471	-0.07600299	0	11.29	4002	0	0	0	0	1.354849	-0.1027934	1	3	0.01	1600
209509	-52	-44	17	-0.5417894	-0.14589	-0.08382717	0	11.29	4003	0	0	0	0	1.354849	-0.1006338	1	3	0.01	1600
209567	-51	-49	-3	-0.5491181	-0.09363589	-0.08975726	0	11.29	4003	0	0	0	0	1.354849	-0.1004881	1	3	0.01	1600
209667	-62	-51	12	-0.5606492	-0.01047002	-0.1082224	0	11.29	4003	0	0	0	0	1.354849	-0.1022998	1	3	0.01	1600
209903	-58	-60	1	-0.5871297	0.09103055	-0.1285786	0	11.29	4004	0	0	0	0	1.354849	-0.09336091	1	3	0.01	1600
210009	-65	-45	7	-0.6102901	0.1441997	-0.1413561	0	11.29	4002	0	0	0	0	1.354849	-0.09807842	1	3	0.01	1600
210116	-53	-53	6	-0.6179779	0.1766794	-0.1508312	0	11.29	4003	0	0	0	0	1.354849	-0.1076615	1	3	0.01	1600
210181	-52	-53	11	-0.6185948	0.1972508	-0.1581059	0	11.29	4003	0	0	0	0	1.354849	-0.1096836	1	3	0.01	1600
210281	-54	-49	6	-0.6202316	0.2291339	-0.1673995	0	11.29	4004	0	0	0	0	1.354849	-0.1085728	1	3	0.01	1600
210476	-62	-51	11	-0.6116481	0.254742	-0.1845787	0	11.29	4002	0	0	0	0	1.354849	-0.1157573	1	3	0.01	1600
246152	21	15	-1	0.2727408	-0.2064745	0.1749802	0	11.46	4003	0	0	0	0	1.354849	-0.05193113	1	10	0.01	2100
246294	15	11	0	0.2623056	-0.1988441	0.1780376	0	11.46	4002	0	0	0	0	1.354849	-0.04260041	1	10	0.01	2100
246359	13	21	-1	0.2495921	-0.1930761	0.178649	0	11.46	4003	0	0	0	0	1.354849	-0.04227017	1	10	0.01	2100
246463	17	14	-1	0.2362386	-0.1890082	0.1802998	0	11.46	4003	0	0	0	0	1.354849	-0.04522876	1	10	0.01	2100
