time(ms)	gyro_x(deg/s)	gyro_y(deg/s)	gyro_z(deg/s)	orientation_roll(deg)	orientation_pitch(deg)	orientation_yaw(deg)	throttle	battery(V)	loop_time(uS)	pid_output_roll	pid_output_pitch	pid_output_yaw	pid_output_throttle	ultrasonic_alt	baro_alt	flight_mode	p_gain_altitude	i_gain_altitude	d_gain_altitude
31968	173	2059	-266	-1.371735	-11.81791	-1.977621	0	11.63	4003	70	-15	-24	21	1.084464	0.4906332	4	4	0.03	1600
32018	2332	976	250	-1.10217	-13.81365	-2.235187	0	11.63	4004	-63	-96	-15	21	1.045642	0.4792066	4	4	0.03	1600
32105	1182	-1030	-147	0.5965158	-13.06293	-2.618217	0	11.63	4003	-18	-129	3	21	0.9935399	0.4633895	4	4	0.03	1600
32212	1379	-1987	-152	2.07831	-11.05296	-3.083494	0	11.63	4002	1	-270	17	21	0.9250712	0.4597172	4	4	0.03	1600
32324	-1120	1052	1466	2.827927	-10.87535	-4.017988	0	11.63	4002	106	-161	42	22	0.8638899	0.4523208	4	4	0.03	1600
32417	1255	-1781	-804	1.526803	-8.791565	-4.709096	0	11.63	4002	-125	-47	52	22	0.7720559	0.4505069	4	4	0.03	1600
32520	667	-358	756	2.928715	-6.834122	-5.045625	0	11.63	4003	15	33	59	22	0.6947497	0.4508075	4	4	0.03	1600
32619	-605	570	492	1.330288	-5.153787	-5.079875	0	11.63	4004	5	-2	50	23	0.5824467	0.4458275	4	4	0.03	1600
32765	-2105	-860	925	-0.1125703	-3.839417	-4.591008	0	11.63	4002	-94	-151	35	24	0.4939361	0.4264531	4	4	0.03	1600
32899	-551	-750	-1299	-4.381267	-2.09458	-3.49585	0	11.63	4003	-89	-188	13	25	0.465674	0.4121005	4	4	0.03	1600
32952	-204	60	-205	-4.364286	-2.492092	-2.982153	0	10.6	4004	102	-29	0	25	0.4358489	0.3997377	4	4	0.03	1600
33043	-1293	1225	704	-4.598495	-3.380033	-2.849445	0	10.6	4003	93	201	6	26	0.4010006	0.381267	4	4	0.03	1600
33143	388	-503	-540	-4.699755	-4.188897	-2.768265	0	10.6	4003	-36	-169	10	25	0.3923677	0.3681233	4	4	0.03	1600
33241	-842	-357	-152	-5.019157	-3.538981	-3.340904	0	10.6	4002	45	174	24	25	0.3988663	0.353702	4	4	0.03	1600
33345	170	-1736	247	-4.846818	-4.16438	-3.280699	0	10.6	4004	167	-223	7	27	0.4053088	0.3448816	4	4	0.03	1600
33504	-606	-93	1077	-3.583133	-2.24146	-2.832408	0	10.6	4003	-16	-272	0	28	0.4349134	0.3430869	4	4	0.03	1600
33623	822	-1206	-102	-2.913233	-2.11129	-2.949574	0	10.6	4002	9	-120	11	28	0.5224347	0.3484484	4	4	0.03	1600
33738	1785	1948	424	-0.5938256	-4.655618	-3.589756	0	10.6	4002	-48	-148	14	28	0.6071954	0.3573588	4	4	0.03	1600
33774	-181	518	-537	-0.2158548	-5.15463	-3.263899	0	10.6	4002	-142	97	18	28	0.6416584	0.3607343	4	4	0.03	1600
33900	-416	175	-201	-0.6456367	-5.055893	-2.227789	0	11.34	4003	16	80	-9	28	0.6661247	0.3788339	4	4	0.03	1600
34017	1101	2179	1056	-1.39975	-6.468639	-3.376851	0	11.34	4003	-12	-217	21	28	0.8066599	0.407131	4	4	0.03	1600
34094	810	208	-964	-0.8926591	-8.768675	-3.482649	0	11.34	4004	-19	-78	23	28	0.8831291	0.4237878	4	4	0.03	1600
34176	-4	-135	-535	-0.01867383	-8.641326	-3.080801	0	11.34	4004	13	-57	-12	28	0.9877237	0.4429193	4	4	0.03	1600
34254	-355	316	625	0.2030044	-7.802535	-2.796198	0	11.34	4002	42	69	11	27	1.042293	0.4511457	4	4	0.03	1600
34371	-175	-1240	-1506	-1.267426	-8.128651	-3.417192	0	11.34	4002	204	-206	16	27	1.023803	0.4711071	4	4	0.03	1600
34452	171	1061	93	-1.019483	-8.217813	-2.932078	0	11.34	4003	-59	171	6	27	1.079793	0.4850071	4	4	0.03	1600
34551	618	-425	-369	-1.243348	-8.143896	-1.900353	0	11.34	4003	55	-187	-17	27	1.13666	0.5104219	4	4	0.03	1600
34655	326	574	255	-1.684285	-9.313	-1.982302	0	11.34	4002	-8	-151	-16	27	1.136853	0.5405432	4	4	0.03	1600
34765	1412	725	-1150	-0.7173305	-11.34975	-2.268994	0	11.51	4003	-60	208	-14	26	1.159014	0.564365	4	4	0.03	1600
34942	-671	-628	307	-0.1618666	-9.706662	-2.817256	0	11.51	4002	-23	38	3	26	1.260175	0.604278	4	4	0.03	1600
35002	194	-637	-1352	-0.9606575	-8.704952	-2.846072	0	11.51	4002	-48	173	8	26	1.272884	0.6247497	4	4	0.03	1600
35066	625	655	184	-0.7377691	-10.08017	-2.839624	0	11.51	4002	61	-214	10	25	1.268293	0.6455306	4	4	0.03	1600
35276	-370	-1513	-553	-2.007503	-10.2226	-2.646441	0	11.51	4003	155	-126	-6	26	1.152553	0.695887	4	4	0.03	1600
35317	-69	-1440	-815	-1.595702	-9.62598	-2.490803	0	11.51	4003	88	-148	-10	26	1.109006	0.7121916	4	4	0.03	1600
35387	-2077	-1080	-284	-2.584123	-8.629609	-2.272748	0	11.51	4002	68	-14	-17	26	1.115098	0.7257452	4	4	0.03	1600
35477	-140	-220	-196	-3.983114	-9.055063	-2.48149	0	11.51	4003	-30	-152	-6	25	1.157262	0.7334846	4	4	0.03	1600
35575	-487	-3725	-307	-3.921892	-6.761661	-2.349043	0	11.51	4004	92	-112	-9	25	1.092758	0.7497137	4	4	0.03	1600
35722	-1282	-2366	-213	-3.840653	-0.3048511	-1.828668	0	10.94	4003	158	-122	-16	25	1.202716	0.7671117	4	4	0.03	1600
35781	-1276	-1931	683	-4.199847	-0.1686754	-1.990799	0	10.94	4004	119	-15	-4	25	1.197081	0.7718447	4	4	0.03	1600
35899	-848	-2187	-496	-5.848139	1.429442	-2.820924	0	10.94	4003	14	25	5	25	1.135357	0.7801079	4	4	0.03	1600
35989	-796	1251	920	-5.981926	1.754957	-2.825781	0	10.94	4004	24	109	15	25	1.145454	0.7833368	4	4	0.03	1600
36093	-665	-576	-701	-7.669988	-0.7316152	-2.668456	0	10.94	4004	21	-87	-7	25	1.143432	0.7820145	4	4	0.03	1600
36266	204	1	1073	-7.273263	1.454985	-2.505918	0	10.94	4004	8	151	9	25	1.044977	0.7533422	4	4	0.03	1600
36384	146	38	245	-5.396621	-1.230857	-2.402949	0	10.94	4003	136	-126	-15	25	1.082902	0.737196	4	4	0.03	1600
36413	-790	397	-292	-5.312353	-1.471374	-2.3295	0	10.94	4003	-40	-63	5	25	1.087391	0.7332295	4	4	0.03	1600
36548	-327	-945	729	-6.089386	-0.6551813	-2.56187	0	10.94	4002	-50	-116	7	25	1.102211	0.7097124	4	4	0.03	1600
36623	708	1764	-812	-5.766849	-2.508397	-2.906275	0	10.94	4003	-116	226	12	25	1.009411	0.6926352	4	4	0.03	1600
36753	-272	-793	295	-4.929614	-4.150228	-2.949035	0	10.72	4004	29	40	12	25	1.0844	0.6424527	4	4	0.03	1600
36810	-341	522	-330	-4.86183	-4.60518	-2.880672	0	10.72	4003	51	-114	-4	25	1.078963	0.6349458	4	4	0.03	1600
36918	69	3872	113	-4.555142	-8.019372	-2.810601	0	10.72	4002	-46	148	4	25	1.036132	0.5940264	4	4	0.03	1600
37044	-937	-1743	-421	-2.423543	-10.4393	-2.552617	0	10.72	4003	69	-49	0	25	0.9783601	0.5698774	4	4	0.03	1600
37146	116	-346	-196	-3.374078	-7.150255	-1.671094	0	10.72	4002	-8	99	-21	25	0.8885085	0.5471765	4	4	0.03	1600
37249	565	755	291	-2.554488	-8.51879	-1.983728	0	10.72	4002	-90	15	-13	26	0.7596484	0.5167187	4	4	0.03	1600
37370	-258	513	3	-2.401396	-7.608173	-1.845546	0	10.72	4002	56	58	-22	27	0.5678954	0.4760366	4	4	0.03	1600
37465	-3833	-4422	2188	-6.592415	-2.699839	-2.829553	0	10.72	4003	-52	-101	31	28	0.4725079	0.4530875	4	4	0.03	1600
37505	2042	-892	-478	-7.049479	-0.7428875	-3.092369	0	10.72	4002	-70	90	30	28	0.4000461	0.4263015	4	4	0.03	1600
37629	-579	1984	-817	-2.103911	-9.097766	-3.031621	0	10.43	4004	31	174	9	36	0.3113734	0.3855535	4	4	0.03	1600
37708	1216	2405	-579	-1.621742	-11.1509	-2.304762	0	10.43	4003	-6	122	-8	38	0.2923571	0.3737246	4	4	0.03	1600
37815	496	18	-734	-0.7716661	-10.92618	-0.9805537	0	10.43	4003	152	-131	-46	35	0.3495834	0.3563497	4	4	0.03	1600
37912	135	1072	88	1.193382	-12.78028	0.7761905	0	10.43	4004	-22	-46	-83	30	0.4403805	0.3526025	4	4	0.03	1600
38088	131	-489	2276	1.709188	-12.62449	-1.766971	0	10.43	4003	58	39	5	30	0.6780915	0.3702575	4	4	0.03	1600
38189	582	67	251	2.271475	-11.53036	-3.701478	0	10.43	4002	-53	33	27	30	0.8396839	0.4067555	4	4	0.03	1600
38237	1377	-575	-966	2.517941	-11.81815	-3.090615	0	10.43	4003	14	-94	6	29	0.8712037	0.4225115	4	4	0.03	1600
38365	-98	-910	-164	2.138206	-10.15202	-2.397605	0	10.43	4003	-86	80	-13	30	0.8566888	0.4677155	4	4	0.03	1600
38436	-923	1306	461	1.674649	-9.010834	-2.293147	0	10.43	4003	-15	70	0	0	0.8479146	0.4990531	3	4	0.03	1600
38537	-865	-3489	-97	-0.5860281	-7.722923	-2.912395	0	11.4	4003	150	-159	7	0	0.8377777	0.5436221	3	4	0.03	1600
38617	2062	-456	259	0.6865225	-5.432968	-2.29263	0	11.4	4004	-147	137	-13	0	0.8325967	0.5760956	3	4	0.03	1600
38849	-4070	-5778	390	-5.374867	-0.1025655	-2.1329	0	11.4	4002	75	-121	-3	0	0.8210734	0.6793616	3	4	0.03	1600
38992	-2631	-4517	601	-9.733152	10.79358	-2.659525	0	11.4	4002	29	-113	-2	0	0.8174403	0.7204618	3	4	0.03	1600
39129	1948	287	305	-9.859319	14.91946	-2.533266	0	11.4	4002	-67	-235	5	0	0.8150566	0.7701408	3	4	0.03	1600
39200	2421	3567	587	-6.108119	10.76708	-2.687394	0	11.4	4002	72	-48	-7	0	0.8138242	0.8085246	3	4	0.03	1600
39246	608	2018	-260	-4.951673	8.456469	-2.695899	0	11.4	4002	73	-273	-5	0	0.8131943	0.8240837	3	4	0.03	1600
39332	275	-969	-1175	-4.179235	6.74768	-2.722697	0	11.4	4004	-51	-16	-2	0	0.8126841	0.8426535	3	4	0.03	1600
39435	252	-99	617	-1.516017	6.68048	-1.940056	0	11.17	4002	61	-44	-37	0	0.8120946	0.8667319	3	4	0.03	1600
39569	-764	-2150	31	-1.863253	6.904376	-2.395982	0	11.17	4002	-22	62	5	0	0.8115494	0.8807336	3	4	0.03	1600
39628	-83	-3461	-1393	-2.1307	6.825819	-2.720167	0	11.17	4004	78	-212	10	0	0.8113517	0.8866054	3	4	0.03	1600
39773	29	-65	-638	-1.718848	5.313035	-2.570783	0	11.17	4004	-62	210	-1	0	0.8110619	0.8985463	3	4	0.03	1600
39857	-1082	-147	-144	-3.172472	4.467001	-2.516335	0	11.17	4002	-105	59	1	0	0.810912	0.909173	3	4	0.03	1600
39953	1884	2002	419	-1.202494	1.996486	-2.028554	0	11.17	4004	-105	113	-17	0	0.8108028	0.914297	3	4	0.03	1600
40020	374	3041	968	0.1079462	-0.2680176	-1.949476	0	11.17	4003	-61	230	-2	0	0.8107469	0.9131289	3	4	0.03	1600
40195	-286	2587	234	-1.573334	-7.075917	-2.878462	0	11.17	4003	198	-126	9	0	0.8106495	0.9105782	3	4	0.03	1600
40294	-700	-898	-826	-2.439628	-7.318955	-2.45006	0	11.17	4003	82	-136	-12	0	0.8106114	0.9098313	3	4	0.03	1600
40390	-143	1650	26	-2.219916	-7.970423	-2.223778	0	11.85	4003	44	-44	-6	0	0.8105837	0.9131184	3	4	0.03	1600
40467	-139	1310	-211	-2.751144	-8.690137	-2.494984	0	11.85	4004	12	-48	0	0	0.8105634	0.9147876	3	4	0.03	1600
40530	-597	882	152	-3.081038	-8.582782	-2.613412	0	11.85	4004	-26	-39	-8	0	0.8105531	0.91129	3	4	0.03	1600
40621	-1293	-72	448	-3.955992	-7.528383	-2.642307	0	11.85	4004	18	-30	0	0	0.8105447	0.9047707	3	4	0.03	1600
40851	-329	2272	-328	-4.226099	-8.263013	-2.618108	0	11.85	4003	-32	-56	3	0	0.8105261	0.8760766	3	4	0.03	1600
40976	132	3648	-717	-4.35196	-11.95814	-2.656351	0	11.85	4003	6	-58	-2	0	0.8105202	0.8488847	3	4	0.03	1600
41022	654	3222	-537	-3.394896	-14.18974	-2.518078	0	11.85	4003	77	-50	5	0	0.810519	0.840983	3	4	0.03	1600
41150	-794	2962	390	-1.852534	-17.33921	-2.54655	0	11.85	4003	15	-43	-5	0	0.8105156	0.8224869	3	4	0.03	1600
41274	509	1932	643	-1.157011	-18.79074	-2.302772	0	11.63	4003	-45	28	-12	0	0.8105138	0.8056279	3	4	0.03	1600
41383	-1027	107	112	-1.280714	-18.14114	-2.766129	0	11.63	4002	-71	-48	-4	0	0.8105121	0.7828602	3	4	0.03	1600
41459	1365	1092	-600	-1.666124	-14.47264	-2.163561	0	11.63	4006	50	-112	-24	0	0.8105115	0.7718264	3	4	0.03	1600
41559	-2041	-1785	669	-5.962022	-12.10099	-2.080185	0	11.63	4002	45	91	-26	0	0.8105107	0.729239	3	4	0.03	1600
41632	-797	-272	-204	-6.933753	-10.30521	-2.559577	0	11.63	4002	-4	59	-7	0	0.8105103	0.7054229	3	4	0.03	1600
41771	-523	-3993	-321	-6.275533	-5.436982	-1.897891	0	11.63	4002	14	281	-35	0	0.8105099	0.6635859	3	4	0.03	1600
41952	965	-1746	226	-7.247545	8.175028	-2.335378	0	11.63	4003	11	-127	-2	0	0.8105096	0.6128193	3	4	0.03	1600
42093	1427	-1085	-154	-2.30061	7.241104	-2.520407	0	11.63	4003	-18	-97	-13	0	0.8105093	0.590409	3	4	0.03	1600
42196	439	-307	1786	-1.878209	6.291588	-2.617089	0	11.46	4003	-49	-92	3	0	0.8105092	0.5715775	3	4	0.03	1600
42290	1453	-496	-196	-1.257455	6.055483	-3.694793	0	11.46	4003	-103	-110	29	0	0.8105092	0.5554791	3	4	0.03	1600
42411	-1030	-902	-335	-0.7906877	3.239885	-4.110271	0	11.46	4002	10	-115	27	0	0.8105092	0.540796	3	4	0.03	1600
42581	1211	1498	-542	-3.134122	-0.2577696	-4.239872	0	11.46	4003	26	5	30	0	0.8105092	0.5411119	3	4	0.03	1600
42664	377	2324	-658	-2.566792	-2.366347	-3.724333	0	11.46	4002	-4	-113	21	0	0.8105092	0.5491665	3	4	0.03	1600
42711	-174	1702	-815	-3.156935	-4.903982	-3.052475	0	11.46	4003	-134	67	13	0	0.8105092	0.5565857	3	4	0.03	1600
42876	-1037	-144	1513	-1.903643	-4.671669	-2.090248	0	11.46	4002	198	-53	7	0	0.8105092	0.5809221	3	4	0.03	1600
42936	-708	-1795	406	-2.659225	-4.246651	-3.062881	0	11.46	4003	-109	60	16	0	0.8105092	0.5996748	3	4	0.03	1600
43020	1910	-1870	1618	-0.5653203	-2.067351	-4.221721	0	11.46	4003	-78	97	67	0	0.8105092	0.6214536	3	4	0.03	1600
43133	-1096	-525	-532	-0.159362	-0.03734574	-5.685908	0	11	4003	15	-9	87	0	0.8105092	0.6297686	3	4	0.03	1600
43223	-855	-606	-659	-1.796123	-0.3153856	-5.124417	0	11	4002	55	-82	39	0	0.8105092	0.6254694	3	4	0.03	1600
43352	-32	-943	194	-1.322599	-0.09316421	-3.32164	0	11	4003	-118	89	11	0	0.8105092	0.6162499	3	4	0.03	1600
43458	-3600	-135	-969	-3.103024	0.3036844	-2.184229	0	11	4004	165	-69	-23	0	0.8105092	0.5904953	3	4	0.03	1600
43555	-368	859	680	-6.094844	-1.408882	-2.878586	0	11	4003	4	66	28	0	0.8105092	0.5618322	3	4	0.03	1600
43652	-26	628	1070	-7.815713	-3.720979	-4.45737	0	11	4007	56	120	42	0	0.8105092	0.5404528	3	4	0.03	1600
43742	882	-1695	-168	-5.304579	-1.792192	-4.25144	0	11	4002	-35	-32	41	0	0.8105092	0.5016944	3	4	0.03	1600
43823	827	454	-218	-3.149627	-2.032922	-3.446682	0	11	4003	-29	-111	18	0	0.8105092	0.4862387	3	4	0.03	1600
43955	1026	-2177	-1205	-3.162362	-3.247347	-1.546985	0	11	4004	111	-227	-44	0	0.8105092	0.4749061	3	4	0.03	1600
44019	-654	-1754	-611	-2.518365	-2.849973	-1.052171	0	10.94	4003	82	-202	-44	0	0.8105092	0.4643086	3	4	0.03	1600
44206	124	546	218	-1.701156	-4.733722	-3.055563	0	10.94	4004	38	-5	5	0	0.8105092	0.4441212	3	4	0.03	1600
44292	701	-2092	-1541	-0.4060492	-4.265812	-3.015949	0	10.94	4002	53	-135	-6	0	0.8105092	0.4365508	3	4	0.03	1600
44430	391	1065	1022	-1.51264	-2.508237	-3.301491	0	10.94	4003	-87	-109	19	0	0.8105092	0.4256315	3	4	0.03	1600
44578	655	-450	-977	-0.2938537	-2.853062	-3.44682	0	10.94	4004	82	34	0	0	0.8105092	0.4235871	3	4	0.03	1600
44615	2035	742	-821	0.3141278	-2.75921	-3.003333	0	10.94	4003	-83	83	-6	0	0.8105092	0.4253685	3	4	0.03	1600
44730	-993	-389	193	1.384098	-2.931819	-2.099465	0	10.94	4004	53	-75	-13	0	0.8105092	0.4287405	3	4	0.03	1600
44836	443	-1358	337	-0.4588254	-1.87683	-2.418865	0	10.94	4004	30	-107	-4	0	0.8105092	0.4352829	3	4	0.03	1600
44932	-260	-109	240	-0.1837184	-1.268934	-2.728079	0	11.74	4004	-16	15	7	0	0.8105092	0.4389427	3	4	0.03	1600
45013	-998	-560	0	-0.879213	-0.9839508	-2.842447	0	11.74	4004	-47	39	1	0	0.8105092	0.4356372	3	4	0.03	1600
45115	609	687	-457	-0.1583624	-1.913387	-2.49799	0	11.74	4003	-91	74	-11	0	0.8105092	0.4251858	3	4	0.03	1600
45221	-2243	1524	141	-0.363651	-5.01381	-1.83413	0	11.74	4003	113	-95	-20	0	0.8105092	0.4261555	3	4	0.03	1600
45351	-1502	188	620	-2.018446	-8.864475	-1.834007	0	11.74	4002	6	-10	-18	0	0.8105092	0.4271798	3	4	0.03	1600
45469	-3110	459	-79	-5.491938	-8.352309	-2.829387	0	11.74	4003	68	164	-2	0	0.8105092	0.4219441	3	4	0.03	1600
45566	-2090	389	-778	-7.310113	-10.42641	-2.6508	0	11.74	4003	130	-43	-19	0	0.8105092	0.4147092	3	4	0.03	1600
45613	-1269	200	-550	-7.972286	-10.82804	-2.30815	0	11.74	4003	3	-110	-11	0	0.8105092	0.4147092	3	4	0.03	1600
45716	50	-2058	-742	-9.049031	-8.390625	-1.466634	0	11.74	4003	-55	-32	-45	0	0.8105092	0.4114806	3	4	0.03	1600
45816	-2528	-350	306	-8.753936	-5.525291	-1.646471	0	11.74	4004	71	77	-20	0	0.8105092	0.4046777	3	4	0.03	1600
45932	-1725	-1128	259	-9.927619	-4.095311	-2.253769	0	11.57	4004	50	32	-7	0	0.8105092	0.3975115	3	4	0.03	1600
46072	-326	-1060	90	-10.71009	-2.166651	-2.825577	0	11.57	4004	-32	-68	2	0	0.8105092	0.404198	3	4	0.03	1600
46139	812	2436	429	-9.546658	-2.23302	-2.754502	0	11.57	4003	-103	69	8	0	0.8105092	0.4126748	3	4	0.03	1600
46247	1304	830	755	-4.810451	-6.489181	-3.003978	0	11.57	4002	-22	-181	12	0	0.8105092	0.4136286	3	4	0.03	1600
46329	697	1044	686	-4.246481	-7.132882	-3.383249	0	11.57	4004	-57	19	40	0	0.8105092	0.4123603	3	4	0.03	1600
46435	-1068	-411	-59	-3.53251	-7.20479	-4.150849	0	11.57	4003	75	30	34	0	0.8105092	0.4195056	3	4	0.03	1600
46640	151	1461	159	-0.3760843	-6.272689	-4.079682	0	11.57	4002	-134	-222	27	0	0.8105092	0.4502314	3	4	0.03	1600
46676	-605	2871	126	-1.074427	-7.309274	-4.063169	0	11.57	4004	-1	113	45	0	0.8105092	0.458217	3	4	0.03	1600
46765	-827	898	-793	-2.821826	-9.627158	-3.650156	0	11.57	4002	112	-244	18	0	0.8105092	0.4707302	3	4	0.03	1600
46841	1132	-1127	-323	-1.848307	-9.798951	-2.727374	0	11.68	4003	88	-39	-7	0	0.8105092	0.4748974	3	4	0.03	1600
47010	432	2009	101	-0.01660041	-9.223607	-2.216018	0	11.68	4002	114	53	-17	0	0.8105092	0.4837703	3	4	0.03	1600
47194	2101	-2059	765	-0.1771133	-3.398498	-3.381398	0	11.68	4002	-17	93	17	0	0.8105092	0.4728591	3	4	0.03	1600
47272	-1117	524	315	0.04211	-3.115641	-4.378278	0	11.68	4004	79	113	47	0	0.8105092	0.4638937	3	4	0.03	1600
47358	323	-683	-616	-0.2197929	-3.154774	-4.758518	0	11.68	4002	21	112	53	0	0.8105092	0.4589906	3	4	0.03	1600
47451	745	-1917	-1064	-0.2859906	-3.448148	-3.906723	0	11.68	4004	98	34	20	0	0.8105092	0.4522595	3	4	0.03	1600
47555	-333	-555	-952	-0.1263701	-2.959839	-2.336194	0	11.68	4002	66	96	-16	0	0.8105092	0.4457118	3	4	0.03	1600
47677	499	-648	-839	0.09849425	-2.807014	-1.786143	0	11.68	4002	10	-27	-22	0	0.8105092	0.4456366	3	4	0.03	1600
47775	-682	-450	408	0.02647106	-1.158961	-0.8676211	0	11.17	4004	15	-120	-43	0	0.8105092	0.4512326	3	4	0.03	1600
47860	-550	-690	1105	-0.8980932	-2.0196	-1.261712	0	11.17	4004	28	-99	-23	0	0.8105092	0.4460879	3	4	0.03	1600
47974	71	-272	49	-0.7122357	-2.298372	-1.993038	0	11.17	4003	-5	66	-14	0	0.8105092	0.4349185	3	4	0.03	1600
48064	1175	83	-961	0.1334439	-2.083667	-1.804216	0	11.17	4003	105	-95	-33	0	0.8105092	0.4239284	4	4	0.03	1600
48245	-1052	-811	-264	-0.4634285	-3.270753	-1.115737	0	11.17	4003	-7	129	-39	1	0.7052488	0.4013506	4	4	0.03	1600
48278	-24	-468	303	-0.6263972	-2.89601	-1.173255	0	11.17	4003	3	49	-40	1	0.6857312	0.398831	4	4	0.03	1600
48362	-1574	-33	888	0.126042	-3.081084	-1.819267	0	11.17	4003	-34	-73	-27	1	0.6753551	0.3920545	4	4	0.03	1600
48468	504	814	-10	-1.116646	-4.506238	-2.033671	0	11.17	4002	38	99	-14	2	0.6952789	0.3861876	4	4	0.03	1600
48672	-163	1392	-944	0.6569639	-9.384717	-1.430084	0	11.29	4003	-10	-20	-37	2	0.7132887	0.3787732	4	4	0.03	1600
48729	-920	489	-812	-1.866299	-9.575895	-1.178825	0	11.29	4004	5	-111	-46	2	0.7196938	0.375837	4	4	0.03	1600
48819	-899	1616	-85	-3.026655	-11.08758	-1.169486	0	11.29	4003	-134	59	-40	2	0.7323519	0.3778571	4	4	0.03	1600
48859	-1637	1558	628	-3.402006	-11.70779	-1.355693	0	11.29	4004	-13	-9	-28	2	0.7392415	0.3804434	4	4	0.03	1600
49026	-1561	-232	-280	-6.888066	-11.38177	-1.560063	0	11.29	4002	-56	-34	-32	3	0.7516958	0.3958566	4	4	0.03	1600
49066	-1189	-134	-264	-7.644951	-11.35992	-1.606672	0	11.29	4004	40	-199	-27	3	0.7442344	0.395685	4	4	0.03	1600
49164	-2306	-15	-276	-9.628934	-11.13499	-2.065686	0	11.29	4003	132	-32	-13	3	0.7128718	0.392422	4	4	0.03	1600
49350	-449	-445	430	-8.849358	-9.363676	-2.409528	0	11.29	4004	-50	24	0	4	0.6891972	0.3789568	4	4	0.03	1600
49409	161	-3251	-1186	-8.398928	-7.020623	-2.884855	0	11.29	4004	174	-90	6	4	0.6734703	0.3760857	4	4	0.03	1600
49505	-101	317	295	-6.933905	-5.914607	-3.50559	0	11.29	4002	-11	-3	35	4	0.6359666	0.374647	4	4	0.03	1600
49583	-1202	-991	-1024	-6.802227	-4.131452	-3.431747	0	11.46	4004	-17	-196	6	5	0.552316	0.3749067	4	4	0.03	1600
49688	-239	-1811	-705	-6.888811	-3.43698	-4.0546	0	11.46	4002	-96	39	48	6	0.523999	0.3784353	4	4	0.03	1600
49803	743	-1584	-1351	-5.469872	-0.2413726	-3.000931	0	11.46	4003	-110	-22	12	6	0.4800521	0.3804111	4	4	0.03	1600
49881	3	-528	1152	-3.704911	0.6045213	-2.46636	0	11.46	4002	-5	171	6	7	0.4564886	0.3765629	4	4	0.03	1600
49968	518	1264	926	-3.981421	-0.1576213	-2.697362	0	11.46	4003	-37	26	12	7	0.445949	0.3707832	4	4	0.03	1600
50037	894	-965	-188	-3.272634	-0.6474501	-2.920521	0	11.46	4003	-125	184	9	7	0.4554613	0.3714255	4	4	0.03	1600
50177	-130	160	788	-2.735224	-0.8689427	-2.647305	0	11.46	4003	-96	-144	6	8	0.4819057	0.3907601	4	4	0.03	1600
50281	724	150	-782	-3.838614	-2.095035	-2.728993	0	11.46	4004	28	33	-10	8	0.5035453	0.4083643	4	4	0.03	1600
50361	-463	1049	68	-3.353029	-3.48743	-2.714649	0	11.46	4003	9	46	-10	9	0.4598877	0.4286776	4	4	0.03	1600
50442	623	-1252	-106	-3.250323	-2.686455	-2.744299	0	11.17	4002	-35	-165	5	9	0.5187436	0.4710239	4	4	0.03	1600
50613	663	1820	149	-3.599196	-5.829464	-3.333659	0	11.17	4003	-113	41	19	9	0.5818847	0.5123404	4	4	0.03	1600
50701	-375	-13	387	-3.041803	-5.874725	-2.363245	0	11.17	4003	84	103	-4	9	0.6410945	0.5247293	4	4	0.03	1600
50772	-1692	-38	405	-3.964884	-5.375355	-2.602284	0	11.17	4003	94	-126	-8	9	0.6809596	0.5351601	4	4	0.03	1600
50842	91	333	783	-3.551984	-5.033355	-2.993511	0	11.17	4003	3	125	20	9	0.705965	0.5508453	4	4	0.03	1600
50975	-693	869	-298	-4.147342	-4.090055	-3.479486	0	11.17	4003	-44	-127	31	9	0.7880827	0.5742053	4	4	0.03	1600
51065	641	-266	-952	-4.115378	-5.816999	-3.023987	0	11.17	4003	-67	77	12	9	0.7402656	0.5858666	4	4	0.03	1600
51248	1954	1132	262	0.3819178	-6.942086	-1.962837	0	11.17	4003	-75	203	-10	9	0.88449	0.6138299	4	4	0.03	1600
51364	1614	1532	374	3.656566	-8.039227	-2.177653	0	11.34	4004	-168	81	-5	9	0.904713	0.6332026	4	4	0.03	1600
51452	433	-324	-356	4.563724	-8.65287	-2.307128	0	11.34	4002	121	-3	-16	9	1.000359	0.6884913	4	4	0.03	1600
51568	-1115	110	-295	3.41965	-8.433169	-2.221302	0	11.34	4002	-15	99	-17	9	1.032102	0.7254734	4	4	0.03	1600
51654	278	-963	-1275	3.004323	-10.10332	-1.863081	0	11.34	4003	103	-67	-33	9	1.063609	0.7617199	4	4	0.03	1600
51772	-2528	-862	525	1.190541	-8.104568	-2.374225	0	11.34	4003	23	-41	2	9	1.058364	0.8168954	4	4	0.03	1600
51859	-616	-3808	17	-1.787304	-3.057979	-2.661713	0	11.34	4002	-40	-5	2	9	1.049005	0.8319904	4	4	0.03	1600
52027	-473	-764	63	-2.212221	0.2982529	-2.775724	0	11.34	4002	-39	-1	8	9	1.013718	0.8415854	4	4	0.03	1600
52077	183	-372	427	-2.56415	0.4791878	-2.579966	0	11.34	4004	63	-192	-15	9	1.018046	0.8445243	4	4	0.03	1600
52163	546	422	-529	-3.661816	1.959172	-2.44532	0	11.34	4002	-70	-105	-4	9	1.027632	0.8471951	4	4	0.03	1600
52279	-7	-652	-1302	-3.711198	0.2761506	-2.734472	0	10.89	4002	9	-86	-19	9	1.041512	0.853959	4	4	0.03	1600
52358	-820	-505	-113	-4.253512	-0.05257526	-2.486207	0	10.89	4003	82	84	-5	9	1.034196	0.8576729	4	4	0.03	1600
52504	-990	-749	-545	-5.280055	-1.255046	-3.266401	0	10.89	4003	-35	22	13	9	1.010153	0.8624699	4	4	0.03	1600
52572	842	-101	-1177	-4.528807	-1.197431	-2.676741	0	10.89	4002	-56	124	6	9	0.9927526	0.8664601	4	4	0.03	1600
52654	-888	630	-281	-4.579501	-1.974239	-2.663471	0	10.89	4003	55	106	-10	9	0.9626988	0.8727475	4	4	0.03	1600
52760	-993	523	540	-4.901047	-3.192255	-2.915536	0	10.89	4003	33	15	4	9	0.9949811	0.8799868	4	4	0.03	1600
52876	-204	-10	653	-5.141747	-2.693409	-2.458884	0	10.89	4003	-68	112	2	9	1.057874	0.8867431	4	4	0.03	1600
52990	1061	1156	901	-5.379419	-4.077692	-2.993276	0	10.89	4003	-119	49	18	8	1.097422	0.8941515	4	4	0.03	1600
53073	-1404	-527	-671	-5.963537	-4.452492	-2.58603	0	10.89	4003	66	-53	-3	8	1.070345	0.900305	4	4	0.03	1600
53201	-2754	-844	213	-8.677223	-4.393755	-1.989186	0	10.43	4004	58	-69	-21	8	1.055942	0.9063365	4	4	0.03	1600
53319	-38	1174	150	-10.69165	-4.867424	-2.569227	0	10.43	4002	-154	296	-4	8	1.00491	0.916054	4	4	0.03	1600
53411	209	-2110	-1862	-10.10248	-4.207623	-1.581091	0	10.43	4004	-226	69	-42	9	0.9920081	0.9219107	4	4	0.03	1600
53471	-483	-2069	-1457	-8.507421	-2.714178	-1.146479	0	10.43	4003	-54	-211	-40	9	1.010637	0.9330489	4	4	0.03	1600
53574	472	-1009	864	-7.522864	-2.769024	-2.24335	0	10.43	4002	-44	-166	5	8	0.9749547	0.9726626	4	4	0.03	1600
53623	211	-1010	1193	-6.784191	-1.783864	-3.080191	0	10.43	4002	-52	-119	11	9	1.012725	0.9981104	4	4	0.03	1600
53822	1215	-797	-1302	-4.406929	-0.7710947	-3.906542	0	10.43	4002	-123	-171	22	8	1.050367	1.065799	4	4	0.03	1600
53925	-837	131	426	-3.210531	-0.03926855	-2.817009	0	10.43	4002	90	97	9	8	1.025591	1.116693	4	4	0.03	1600
54052	-188	1920	1033	-3.025446	-0.7179798	-2.782986	0	11.06	4002	84	185	8	8	1.053444	1.156949	4	4	0.03	1600
54150	661	-442	128	-2.439321	-3.275759	-3.767862	0	11.06	4003	-22	76	32	8	1.00616	1.210288	4	4	0.03	1600
54287	275	-690	15	-1.082958	-1.712209	-3.179302	0	11.06	4002	79	-107	1	8	1.049954	1.246647	4	4	0.03	1600
54426	-551	-439	-535	-0.8708305	-1.458453	-2.11929	0	11.06	4003	116	-97	-7	8	1.071851	1.293205	3	4	0.03	1600
54564	-950	-507	413	0.8093742	-2.233418	-1.98494	0	11.06	4003	41	21	-7	0	1.171298	1.342434	3	4	0.03	1600
54633	-1098	-1332	1186	-0.7888736	-1.094565	-2.648567	0	11.06	4004	-20	-68	-8	0	1.207346	1.357728	3	4	0.03	1600
54712	391	-485	239	-0.8893601	-0.8414962	-2.785153	0	11.06	4004	7	-30	6	0	1.236545	1.379903	3	4	0.03	1600
54816	530	169	-69	0.2675731	-1.390597	-2.833768	0	11.06	4003	-15	-13	0	0	1.270279	1.409109	3	4	0.03	1600
54933	-460	-362	158	-0.8706013	0.2064254	-2.72264	0	11.06	4003	52	-53	-1	0	1.301486	1.421561	3	4	0.03	1600
55017	-258	55	-1036	-1.787284	0.8066311	-2.483933	0	11.51	4002	0	-39	-13	0	1.317621	1.419856	3	4	0.03	1600
55144	459	536	-461	-1.284656	0.004901133	-2.428456	0	11.51	4002	-27	-71	-7	0	1.332547	1.409313	3	4	0.03	1600
55266	-481	42	959	-1.563043	-0.1340805	-2.531051	0	11.51	4003	-13	2	-4	0	1.34234	1.401362	3	4	0.03	1600
55347	-172	1372	385	-1.487381	-1.200496	-2.772747	0	11.51	4003	8	49	-3	0	1.34589	1.38998	3	4	0.03	1600
55422	589	2660	-30	-1.210524	-2.698114	-2.895396	0	11.51	4004	-106	326	2	0	1.348766	1.370946	3	4	0.03	1600
55552	-628	-130	-435	-0.5436773	-3.845997	-2.652383	0	11.51	4002	5	-33	16	0	1.352981	1.345194	3	4	0.03	1600
55655	69	138	1381	-0.3255941	-4.366642	-2.943022	0	11.51	4003	-12	-142	12	0	1.355161	1.318378	3	4	0.03	1600
55760	2601	4864	-252	2.080219	-6.257871	-2.369769	0	11.51	4003	-5	-5	-7	0	1.35675	1.285985	3	4	0.03	1600
55853	-2077	1464	278	2.258647	-11.21449	-1.397102	0	11.51	4002	9	55	-40	0	1.357908	1.246299	3	4	0.03	1600
55960	-507	-660	-171	-1.311142	-9.058846	-1.704656	0	11.06	4002	-24	-78	-17	0	1.358752	1.212337	3	4	0.03	1600
56057	-2049	656	258	-2.760945	-8.088244	-2.714023	0	11.06	4003	53	-42	2	0	1.359368	1.174543	3	4	0.03	1600
56131	-1852	364	-219	-4.757519	-8.070724	-2.928663	0	11.06	4002	62	-44	11	0	1.359683	1.14811	3	4	0.03	1600
56252	8	-1714	-684	-6.453017	-5.337736	-2.251712	0	11.06	4003	-69	-74	-19	0	1.360144	1.100999	3	4	0.03	1600
56350	3011	1264	-761	-3.054156	-5.191792	-1.01779	0	11.06	4002	5	7	-51	0	1.360382	1.053329	3	4	0.03	1600
56517	-438	-744	997	-1.877448	-4.937045	-2.510747	0	11.06	4002	-67	73	12	0	1.360645	1.009989	3	4	0.03	1600
56581	-1041	-29	748	-2.393436	-4.554721	-2.894407	0	11.06	4003	-36	36	20	0	1.360717	0.9897072	3	4	0.03	1600
56672	-1678	-1490	-457	-6.276955	-2.427087	-3.084813	0	11.06	4003	11	-55	5	0	1.360775	0.9676662	3	4	0.03	1600
56783	-641	-1336	-656	-7.810499	-0.9803247	-2.671824	0	11.06	4004	98	-101	-6	0	1.360877	0.9246586	3	4	0.03	1600
56857	444	-994	-584	-6.657531	-0.2246824	-2.119277	0	10.83	4003	44	39	-20	0	1.360905	0.9080195	3	4	0.03	1600
56983	834	606	406	-4.895187	0.4113808	-2.036498	0	10.83	4003	-9	142	-10	0	1.360937	0.8888286	3	4	0.03	1600
57054	-358	-2354	501	-3.620574	-0.4680145	-2.761064	0	10.83	4004	38	-65	8	0	1.360961	0.8686517	3	4	0.03	1600
57115	1034	-1052	-375	-3.019244	-0.5478525	-2.771525	0	10.83	4003	-141	89	7	0	1.360973	0.857038	3	4	0.03	1600
57211	-3150	-168	-301	-3.650521	-1.756499	-2.409816	0	10.83	4003	209	-153	-12	0	1.360983	0.8371969	3	4	0.03	1600
57319	-361	-94	358	-4.961421	-1.935786	-2.299337	0	10.83	4004	-91	198	-6	0	1.360997	0.8020098	3	4	0.03	1600
57414	1817	683	512	-3.011209	-2.108048	-1.49531	0	10.83	4004	-125	112	-25	0	1.361002	0.7799609	3	4	0.03	1600
57618	202	1618	1087	-2.634135	0.5397423	-2.261587	0	10.83	4002	21	222	3	0	1.361014	0.6873553	3	4	0.03	1600
57638	202	1618	1087	-2.634135	0.5397423	-2.261587	0	10.83	4002	21	222	3	0	1.361014	0.6873553	3	4	0.03	1600
57765	33	-2932	-362	-2.535599	1.009801	-2.728648	0	11.23	4003	49	-122	-6	0	1.361017	0.6550043	3	4	0.03	1600
57834	-21	-990	800	-2.619991	2.742442	-2.679494	0	11.23	4004	-7	-109	8	0	1.361019	0.6272801	3	4	0.03	1600
57966	-1433	-38	-4	-3.314797	0.3163053	-2.400681	0	11.23	4004	141	-12	-7	0	1.36102	0.6011021	3	4	0.03	1600
58110	227	-580	-611	-1.009905	-2.61718	-1.906933	0	11.23	4004	-38	-97	-18	0	1.361022	0.5624864	3	4	0.03	1600
58176	1127	-905	891	-0.4433941	-1.571292	-2.087824	0	11.23	4003	28	-101	-1	0	1.361022	0.5480621	3	4	0.03	1600
58244	226	-1196	0	0.172151	-0.686834	-2.674697	0	11.23	4003	2	22	0	0	1.361023	0.5250493	3	4	0.03	1600
58324	-1578	564	-579	-1.154781	-2.006207	-3.110803	0	11.23	4004	-24	27	12	0	1.361023	0.5072559	3	4	0.03	1600
58431	-588	1026	-23	-1.450636	-3.271969	-2.698834	0	11.23	4003	-13	-118	3	0	1.361023	0.4899291	3	4	0.03	1600
58528	-195	1959	478	-1.301554	-4.622754	-2.510073	0	11.23	4002	32	60	6	0	1.361023	0.4728799	3	4	0.03	1600
58663	1251	2491	38	-1.17143	-9.256808	-3.082155	0	10.6	4002	-5	120	6	0	1.361023	0.4416693	3	4	0.03	1600
58793	-399	166	-486	-0.9102349	-12.10672	-2.405286	0	10.6	4003	9	-60	-10	0	1.361023	0.4082398	3	4	0.03	1600
58834	-751	256	-254	-1.057579	-11.74729	-2.232382	0	10.6	4004	26	169	-13	0	1.361023	0.4041291	3	4	0.03	1600
58931	592	-3352	120	-0.345332	-7.358135	-1.87273	0	10.6	4004	-17	57	-15	0	1.361023	0.3894473	3	4	0.03	1600
59068	-2384	-160	-89	-0.4226151	-3.27804	-2.156678	0	10.6	4003	-96	81	-16	0	1.361023	0.3665255	3	4	0.03	1600
59178	-138	550	-220	-2.372925	-4.852983	-2.131473	0	10.6	4004	-52	121	-13	0	1.361023	0.3570097	3	4	0.03	1600
59241	-1145	1587	34	-2.90298	-5.567014	-2.135095	0	10.6	4003	-124	-5	-11	0	1.361023	0.3543709	3	4	0.03	1600
59393	800	-1952	352	-4.854166	-5.494688	-2.132753	0	10.6	4002	-17	-75	-7	0	1.361023	0.3486559	3	4	0.03	1600
59504	900	-1598	119	-3.092355	-3.094549	-2.732663	0	10.6	4002	-16	-186	7	0	1.361023	0.3523003	3	4	0.03	1600
59559	622	-160	-73	-2.344595	-2.87924	-2.979405	0	10.6	4003	-88	42	11	0	1.361023	0.3574213	3	4	0.03	1600
59642	-982	-1607	-705	-2.836092	-2.228493	-2.686414	0	10.83	4002	-43	-95	-13	0	1.361023	0.3583747	3	4	0.03	1600
59740	494	-76	316	-2.948954	-1.861216	-2.067306	0	10.83	4004	-37	92	-10	0	1.361023	0.3523599	3	4	0.03	1600
59855	-2683	-595	-467	-5.666668	-2.249509	-2.16967	0	10.83	4003	114	-42	-15	0	1.361023	0.3312079	3	4	0.03	1600
59996	528	794	419	-3.927492	-2.920675	-2.821676	0	10.83	4010	84	-64	2	0	1.361023	0.3075503	3	4	0.03	1600
60046	-434	-317	186	-3.589001	-3.514961	-3.032275	0	10.83	4003	81	-25	11	0	1.361023	0.3067037	3	4	0.03	1600
60187	176	826	-2	-2.37341	-4.22733	-2.890277	0	10.83	4003	-121	-29	0	0	1.361023	0.310522	3	4	0.03	1600
60241	-191	406	-288	-1.694893	-4.220524	-2.38796	0	10.83	4003	73	106	-7	0	1.361023	0.3105773	3	4	0.03	1600
60376	982	1702	14	-2.420544	-7.251985	-2.942353	0	10.83	4003	18	-105	3	0	1.361023	0.310331	3	4	0.03	1600
60450	1949	2272	-403	-0.8414802	-9.201562	-2.641853	0	10.83	4003	-155	78	-1	0	1.361023	0.3059425	3	4	0.03	1600
60554	-1217	-1110	-239	-0.8016047	-9.83315	-2.471383	0	11.06	4002	-70	-48	-8	0	1.361023	0.2958034	3	4	0.03	1600
60654	364	-2067	121	-1.621263	-6.68597	-2.160417	0	11.06	4003	32	-85	-10	0	1.361023	0.2902417	3	4	0.03	1600
60752	253	-1133	46	-0.975211	-3.671464	-2.302972	0	11.06	4003	-55	45	-12	0	1.361023	0.2866732	3	4	0.03	1600
60944	1133	518	1	-0.2124288	-1.940534	-2.65867	0	11.06	4004	-22	-120	0	0	1.361023	0.2688193	3	4	0.03	1600
61026	-777	-689	130	-0.2708487	-3.13259	-2.927994	0	11.06	4003	53	-134	7	0	1.361023	0.2686476	3	4	0.03	1600
61080	379	391	292	-0.6472836	-3.167944	-3.069264	0	11.06	4004	-24	-132	13	0	1.361023	0.274276	3	4	0.03	1600
61220	-8123	5207	947	-1.924375	-3.496632	-3.141415	0	11.06	4004	345	-52	46	0	1.361023	0.2806093	3	4	0.03	1600
61250	513	-3236	2525	-2.763487	-3.235063	-4.124784	0	11.06	4002	0	0	0	0	1.361023	0.2789362	3	4	0.03	1600
61333	212	1396	2336	-2.031414	-2.144764	-6.881285	0	11.06	4004	0	0	0	0	1.361023	0.2709203	3	4	0.03	1600
61434	-1262	212	1893	-2.50521	-1.196109	-10.47678	0	11.68	4003	0	0	0	0	1.361023	0.247812	3	4	0.03	1600
61605	41	-496	104	-2.474116	-0.2354305	-10.57021	0	11.68	4002	0	0	0	0	1.361023	0.2146887	3	4	0.03	1600
61672	-333	5	26	-2.341233	0.1731827	-10.60959	0	11.68	4004	0	0	0	0	1.361023	0.1826806	3	4	0.03	1600
61738	-151	-219	162	-2.466041	0.2721776	-10.65544	0	11.68	4003	0	0	0	0	1.361023	0.1772592	1	4	0.03	1600
61835	-306	-46	31	-2.495316	0.5726073	-10.69169	0	11.68	4004	0	0	0	0	1.361023	0.1513997	1	4	0.03	1600
61997	-163	-174	24	-2.47754	1.063891	-10.73143	0	11.68	4002	0	0	0	0	1.361023	0.1077906	1	4	0.03	1600
62108	-166	-168	-6	-2.477651	1.24143	-10.75992	0	11.68	4004	0	0	0	0	1.361023	0.0921175	1	4	0.03	1600
62219	-150	-222	-16	-2.509979	1.452198	-10.79489	0	11.68	4004	0	0	0	0	1.361023	0.07909779	1	4	0.03	1600
62252	-176	-199	0	-2.494677	1.493562	-10.80516	0	11.68	4003	0	0	0	0	1.361023	0.07553078	1	4	0.03	1600
62382	-181	-176	85	-2.50494	1.606443	-10.83164	0	11.74	4003	0	0	0	0	1.361023	0.07232332	1	4	0.03	1600
62548	-163	-164	35	-2.512512	1.81052	-10.89509	0	11.74	4003	0	0	0	0	1.361023	0.07082578	1	4	0.03	1600
62635	-165	-155	29	-2.525917	1.894779	-10.9319	0	11.74	4004	0	0	0	0	1.361023	0.07017383	1	4	0.03	1600
62709	-171	-158	4	-2.525286	1.944787	-10.95012	0	11.74	4003	0	0	0	0	1.361023	0.07152851	1	4	0.03	1600
62837	-173	-160	28	-2.528829	2.015371	-10.99548	0	11.74	4004	0	0	0	0	1.361023	0.07976437	1	4	0.03	1600
62948	-178	-174	28	-2.541655	2.071435	-11.02391	0	11.74	4004	0	0	0	0	1.361023	0.08440962	1	4	0.03	1600
