time(ms)	gyro_x(deg/s)	gyro_y(deg/s)	gyro_z(deg/s)	orientation_roll(deg)	orientation_pitch(deg)	orientation_yaw(deg)	throttle	battery(V)	loop_time(uS)	pid_output_roll	pid_output_pitch	pid_output_yaw	pid_output_throttle	ultrasonic_alt	baro_alt	flight_mode	p_gain_altitude	i_gain_altitude	d_gain_altitude
63128	-171	-166	30	-2.527558	2.153693	-11.08449	0	11.74	4003	0	0	0	0	1.361023	0.07979466	1	4	0.03	1600
63226	-171	-162	25	-2.528121	2.177553	-11.10356	0	11.8	4003	0	0	0	0	1.361023	0.07359404	1	4	0.03	1600
63335	-162	-160	19	-2.52801	2.202698	-11.13395	0	11.8	4003	0	0	0	0	1.361023	0.06674191	1	4	0.03	1600
63460	-170	-162	23	-2.504385	2.235629	-11.17503	0	11.8	4003	0	0	0	0	1.361023	0.06246381	1	4	0.03	1600
63537	-154	-167	19	-2.497813	2.256198	-11.20218	0	11.8	4003	0	0	0	0	1.361023	0.0691355	1	4	0.03	1600
63630	-166	-163	19	-2.496995	2.274705	-11.23054	0	11.8	4004	0	0	0	0	1.361023	0.06865491	1	4	0.03	1600
63822	-171	-158	16	-2.485078	2.301481	-11.27584	0	11.8	4003	0	0	0	0	1.361023	0.06857231	1	4	0.03	1600
63874	-165	-160	14	-2.484274	2.313274	-11.294	0	11.8	4004	0	0	0	0	1.361023	0.07018358	1	4	0.03	1600
63949	-169	-154	17	-2.489049	2.316186	-11.311	0	11.8	4003	0	0	0	0	1.361023	0.08023008	1	4	0.03	1600
64065	-164	-159	19	-2.490714	2.325542	-11.34774	0	11.8	4004	0	0	0	0	1.361023	0.09393197	1	4	0.03	1600
64132	-160	-168	17	-2.488276	2.322834	-11.36431	0	11.85	4004	0	0	0	0	1.361023	0.1007623	1	4	0.03	1600
64273	-175	-158	16	-2.476952	2.334788	-11.40129	0	11.85	4003	0	0	0	0	1.361023	0.09991096	1	4	0.03	1600
64338	-170	-168	17	-2.46576	2.351911	-11.41994	0	11.85	4002	0	0	0	0	1.361023	0.09781387	1	4	0.03	1600
64464	-168	-154	15	-2.46758	2.349924	-11.44543	0	11.85	4003	0	0	0	0	1.361023	0.0984128	1	4	0.03	1600
64545	-161	-166	13	-2.454599	2.352727	-11.47245	0	11.85	4003	0	0	0	0	1.361023	0.09783492	1	4	0.03	1600
64685	-167	-152	13	-2.456682	2.358674	-11.49599	0	11.85	4004	0	0	0	0	1.361023	0.08536132	1	4	0.03	1600
64752	-157	-157	16	-2.454337	2.364912	-11.51506	0	11.85	4003	0	0	0	0	1.361023	0.07707494	1	4	0.03	1600
64859	-165	-157	16	-2.445354	2.365223	-11.54147	0	11.85	4003	0	0	0	0	1.361023	0.07217979	1	4	0.03	1600
64968	-167	-154	13	-2.454664	2.355548	-11.56929	0	11.85	4004	0	0	0	0	1.361023	0.06940779	1	4	0.03	1600
65062	-167	-159	20	-2.456235	2.355	-11.59595	0	11.85	4003	0	0	0	0	1.361023	0.06416765	1	4	0.03	1600
65177	-165	-160	15	-2.436429	2.370461	-11.64094	0	11.85	4002	0	0	0	0	1.361023	0.05752405	1	4	0.03	1600
65274	-157	-160	16	-2.433719	2.365859	-11.65843	0	11.85	4002	0	0	0	0	1.361023	0.05436101	1	4	0.03	1600
65378	-159	-159	19	-2.422877	2.36971	-11.68679	0	11.85	4003	0	0	0	0	1.361023	0.05823273	1	4	0.03	1600
65480	-171	-158	21	-2.423193	2.368917	-11.71449	0	11.85	4003	0	0	0	0	1.361023	0.06045356	1	4	0.03	1600
65581	-175	-159	20	-2.417418	2.367803	-11.73974	0	11.85	4003	0	0	0	0	1.361023	0.0631675	1	4	0.03	1600
65685	-156	-156	17	-2.404713	2.359618	-11.76688	0	11.85	4003	0	0	0	0	1.361023	0.06705638	1	4	0.03	1600
65831	-166	-159	17	-2.39081	2.354036	-11.80222	0	11.85	4002	0	0	0	0	1.361023	0.06979901	1	4	0.03	1600
65897	-161	-155	15	-2.384089	2.351676	-11.81952	0	11.85	4003	0	0	0	0	1.361023	0.0713031	1	4	0.03	1600
65997	-158	-156	13	-2.385547	2.35133	-11.8458	0	11.85	4003	0	0	0	0	1.361023	0.07818048	1	4	0.03	1600
66099	-157	-164	16	-2.39196	2.350245	-11.87038	0	11.85	4002	0	0	0	0	1.361023	0.09193406	1	4	0.03	1600
66203	-155	-150	21	-2.382682	2.348254	-11.8949	0	11.85	4004	0	0	0	0	1.361023	0.0989591	1	4	0.03	1600
66299	-155	-157	14	-2.376567	2.341732	-11.92088	0	11.85	4002	0	0	0	0	1.361023	0.1025817	1	4	0.03	1600
66419	-166	-159	17	-2.378376	2.330163	-11.95554	0	11.85	4002	0	0	0	0	1.361023	0.1043545	1	4	0.03	1600
66540	-152	-154	18	-2.372942	2.31777	-11.98415	0	11.85	4003	0	0	0	0	1.361023	0.1071678	1	4	0.03	1600
66720	-161	-158	19	-2.374232	2.333017	-12.03366	0	11.85	4003	0	0	0	0	1.361023	0.1054653	1	4	0.03	1600
66841	-162	-153	16	-2.377232	2.327436	-12.07683	0	11.85	4003	0	0	0	0	1.361023	0.1050328	1	4	0.03	1600
66924	-147	-161	14	-2.380778	2.325257	-12.09566	0	11.85	4002	0	0	0	0	1.361023	0.1041628	1	4	0.03	1600
67092	-176	-157	14	-2.373697	2.318764	-12.13729	0	11.85	4003	0	0	0	0	1.361023	0.09732304	1	4	0.03	1600
67167	-156	-155	16	-2.36821	2.322833	-12.1541	0	11.85	4002	0	0	0	0	1.361023	0.1009089	1	4	0.03	1600
67244	-170	-157	14	-2.360563	2.323575	-12.18106	0	11.85	4003	0	0	0	0	1.361023	0.1025103	1	4	0.03	1600
67343	-151	-154	13	-2.359467	2.318433	-12.20821	0	11.85	4003	0	0	0	0	1.361023	0.10172	1	4	0.03	1600
67410	-165	-151	20	-2.358126	2.31338	-12.22673	0	11.85	4002	0	0	0	0	1.361023	0.1044717	1	4	0.03	1600
67540	-166	-156	21	-2.367363	2.305968	-12.25326	0	11.85	4002	0	0	0	0	1.361023	0.1118402	1	4	0.03	1600
67595	-162	-157	14	-2.369994	2.307363	-12.2716	0	11.85	4003	0	0	0	0	1.361023	0.1173742	1	4	0.03	1600
67666	-169	-148	17	-2.372568	2.299376	-12.28957	0	11.85	4003	0	0	0	0	1.361023	0.1230772	1	4	0.03	1600
67836	-159	-156	16	-2.370403	2.300819	-12.30547	0	11.85	4004	0	0	0	0	1.361023	0.1251738	1	4	0.03	1600
67929	-159	-156	16	-2.370403	2.300819	-12.30547	0	11.85	4004	0	0	0	0	1.361023	0.1251738	1	4	0.03	1600
68057	-159	-156	16	-2.370403	2.300819	-12.30547	0	11.85	4004	0	0	0	0	1.361023	0.1251738	1	4	0.03	1600
68107	-159	-156	16	-2.370403	2.300819	-12.30547	0	11.85	4004	0	0	0	0	1.361023	0.1251738	1	4	0.03	1600
68234	-159	-156	16	-2.370403	2.300819	-12.30547	0	11.85	4004	0	0	0	0	1.361023	0.1251738	1	4	0.03	1600
68284	-159	-156	16	-2.370403	2.300819	-12.30547	0	11.85	4004	0	0	0	0	1.361023	0.1251738	1	4	0.03	1600
68440	-159	-156	16	-2.370403	2.300819	-12.30547	0	11.85	4004	0	0	0	0	1.361023	0.1251738	1	4	0.03	1600
68474	-159	-156	16	-2.370403	2.300819	-12.30547	0	11.85	4004	0	0	0	0	1.361023	0.1251738	1	4	0.03	1600
68557	-159	-156	16	-2.370403	2.300819	-12.30547	0	11.85	4004	0	0	0	0	1.361023	0.1251738	1	4	0.03	1600
68674	-159	-156	16	-2.370403	2.300819	-12.30547	0	11.85	4004	0	0	0	0	1.361023	0.1251738	1	4	0.03	1600
68757	-159	-156	16	-2.370403	2.300819	-12.30547	0	11.91	4004	0	0	0	0	1.361023	0.1251738	1	4	0.03	1600
91266	38	34	-7	0.3869983	-0.3942353	0.6685902	0	11.97	4002	0	0	0	0	1.361023	-0.02120963	3	4	0.03	1600
91292	31	28	-7	0.3886926	-0.3967791	0.6700577	0	11.97	4003	0	0	0	0	1.361023	-0.02235527	3	4	0.03	1600
91383	25	22	0	0.3925662	-0.395314	0.6769661	0	11.97	4004	0	0	0	0	1.361023	-0.0296996	3	4	0.03	1600
91495	33	31	-2	0.3932158	-0.3950936	0.6819792	0	11.97	4003	0	0	0	0	1.361023	-0.03086849	3	4	0.03	1600
91588	36	28	-6	0.3962659	-0.395869	0.6887048	0	11.97	4004	0	0	0	0	1.361023	-0.02842002	3	4	0.03	1600
91800	43	30	-1	0.4069605	-0.3977779	0.6973861	0	11.97	4003	0	0	0	0	1.361023	-0.02656512	3	4	0.03	1600
91867	30	27	-3	0.4069117	-0.400957	0.7019104	0	11.97	4002	0	0	0	0	1.361023	-0.02660741	3	4	0.03	1600
91974	35	30	-2	0.4015221	-0.409955	0.7088189	0	11.97	4003	0	0	0	0	1.361023	-0.02440686	3	4	0.03	1600
92043	35	28	-3	0.3950867	-0.4168521	0.7136485	0	11.97	4004	0	0	0	0	1.361023	-0.02716036	3	4	0.03	1600
92094	31	39	0	0.3968447	-0.4184197	0.7179281	0	11.97	4003	0	0	0	0	1.361023	-0.03408508	3	4	0.03	1600
92211	39	36	-4	0.3981769	-0.4257401	0.7244695	0	11.97	4003	0	0	0	0	1.361023	-0.04096593	3	4	0.03	1600
92364	32	37	-5	0.4107051	-0.4241214	0.7343126	0	11.97	4003	0	0	0	0	1.361023	-0.03730033	3	4	0.03	1600
92411	30	29	-4	0.412865	-0.4277485	0.7384699	0	11.97	4004	0	0	0	0	1.361023	-0.03886602	3	4	0.03	1600
92454	40	34	-7	0.4109935	-0.4287	0.7440946	0	11.97	4003	0	0	0	0	1.361023	-0.04713964	3	4	0.03	1600
92565	32	36	0	0.4167287	-0.4357332	0.7496577	0	11.85	4002	0	0	0	0	1.361023	-0.0531335	3	4	0.03	1600
92665	38	32	-8	0.4163514	-0.4322478	0.7564442	0	11.85	4003	0	0	0	0	1.361023	-0.05905899	3	4	0.03	1600
92776	26	27	-6	0.4201341	-0.4393296	0.7651867	0	11.85	4002	0	0	0	0	1.361023	-0.06727834	3	4	0.03	1600
92866	37	25	0	0.4218241	-0.4395477	0.77399	0	11.85	4004	0	0	0	0	1.361023	-0.0666445	3	4	0.03	1600
92969	29	30	-4	0.4142054	-0.4343342	0.780776	0	11.85	4002	-2	1	0	0	1.361023	-0.06426312	3	4	0.03	1600
93077	9	77	-47	0.4130892	-0.4569347	0.7980772	0	11.85	4003	-2	-8	0	0	1.361023	-0.0516817	3	4	0.03	1600
93198	-58	106	-8	0.3227109	-0.505419	0.7912917	0	11.85	4004	8	-10	0	0	1.361023	-0.03263065	3	4	0.03	1600
93313	86	-26	108	0.3468368	-0.5356795	0.8192871	0	11.85	4002	-8	12	0	0	1.361023	-0.02831049	3	4	0.03	1600
93361	63	-81	41	0.3897398	-0.52645	0.8107861	0	11.85	4003	0	-1	0	0	1.361023	-0.03067986	3	4	0.03	1600
93492	68	-48	33	0.48681	-0.3868493	0.8134159	0	11.85	4002	-22	-4	-1	0	1.361023	-0.03385946	3	4	0.03	1600
93621	-61	15	-31	0.5094076	-0.352863	0.8135339	0	11.85	4003	35	0	-1	0	1.361023	-0.02394887	3	4	0.03	1600
93672	25	1	-87	0.5190904	-0.3554114	0.8304048	0	11.85	4003	-29	-3	-1	0	1.361023	-0.01486412	3	4	0.03	1600
93782	-23	135	-142	0.5493234	-0.3502063	0.8230207	0	11.85	4002	-33	20	-1	0	1.361023	-0.003352696	3	4	0.03	1600
93869	139	140	119	0.4890764	-0.3003284	0.8178169	0	11.85	4004	-15	0	0	0	1.361023	0.0006994119	3	4	0.03	1600
94027	-10	-16	147	0.3977641	-0.3025806	0.8313968	0	11.85	4003	-2	14	0	0	1.361023	0.02610014	3	4	0.03	1600
94139	44	-60	284	0.372242	-0.294793	0.8635116	0	11.85	4004	-26	-8	0	0	1.361023	0.03352593	3	4	0.03	1600
94247	-50	75	-154	0.3385514	-0.2749985	0.8975464	0	11.85	4002	-12	2	-4	0	1.361023	0.02983523	3	4	0.03	1600
94331	-19	-98	149	0.3053246	-0.1927702	0.9462239	0	11.85	4002	-2	10	-5	0	1.361023	0.02140135	3	4	0.03	1600
94391	54	-65	418	0.4260935	-0.1568332	0.9406086	0	11.97	4003	-8	2	-7	0	1.361023	0.01885503	3	4	0.03	1600
94469	222	-70	-236	0.4175445	-0.07321162	0.9805314	0	11.97	4003	1	9	-7	0	1.361023	0.01622524	3	4	0.03	1600
94659	235	-1031	-136	0.6395252	0.5918769	1.076857	0	11.97	4004	-5	-21	-11	0	1.361023	0.01785015	3	4	0.03	1600
94715	-98	-1699	285	0.6019564	2.069106	1.128991	0	11.97	4004	-45	-33	-17	0	1.361023	0.0269443	3	4	0.03	1600
94836	-1902	1144	-395	-1.943037	2.197795	0.8608623	0	11.97	4003	-1	-103	-19	0	1.361023	0.03976336	3	4	0.03	1600
94950	-1021	793	-788	-2.669163	-3.743261	-0.21985	0	11.97	4004	62	-137	28	0	1.361023	0.0552185	3	4	0.03	1600
95053	-45	466	-382	-1.525699	-6.873459	0.4611968	0	11.97	4003	166	10	2	0	1.361023	0.06464091	3	4	0.03	1600
95090	-361	704	-447	-1.150575	-7.693438	0.7484894	0	11.97	4004	98	-1	0	0	1.361023	0.06643854	3	4	0.03	1600
95167	-2407	-1177	-324	-3.370064	-7.683313	0.7848727	0	11.97	4004	39	48	-5	0	1.361023	0.07825792	3	4	0.03	1600
95275	1309	-2213	-796	-2.250413	-2.916189	1.100188	0	11.68	4004	63	-98	-21	0	1.361023	0.08615927	3	4	0.03	1600
95391	-638	2362	370	-2.080895	-4.34175	0.7481804	0	11.68	4003	-43	62	6	0	1.361023	0.09760748	3	4	0.03	1600
95476	1854	3428	634	-1.075727	-8.429349	0.9556473	0	11.68	4003	-54	140	0	0	1.361023	0.1300346	3	4	0.03	1600
95607	1769	-342	-940	2.154276	-9.644945	1.613819	0	11.68	4002	-59	-24	-23	0	1.361023	0.1506313	3	4	0.03	1600
95759	-1214	-41	604	4.692953	-9.744329	1.333635	0	11.68	4003	-50	-40	-11	0	1.361023	0.1889939	3	4	0.03	1600
95825	-1208	-1794	890	2.975573	-7.88752	0.7077974	0	11.68	4002	-5	-46	9	0	1.361023	0.2073884	3	4	0.03	1600
95895	-516	-1746	-80	1.805725	-5.785962	0.4836131	0	11.68	4003	36	-96	11	0	1.361023	0.2200006	3	4	0.03	1600
95994	518	1693	245	0.7218403	-5.635371	0.5625733	0	11.68	4003	-136	93	8	0	1.361023	0.2339676	3	4	0.03	1600
96076	-380	1296	-411	0.8305119	-9.416813	0.8834984	0	11.68	4004	9	-30	-5	0	1.361023	0.2411888	3	4	0.03	1600
96176	-742	748	160	-0.2635304	-9.845629	1.183481	0	11.68	4003	0	-82	-10	0	1.361023	0.2516389	3	4	0.03	1600
96309	634	2665	451	-0.6026165	-11.77949	1.250231	0	11.46	4002	-52	199	-8	0	1.361023	0.2596028	3	4	0.03	1600
96476	94	-3567	-878	-3.455334	-12.02448	0.1001107	0	11.46	4004	78	46	12	0	1.361023	0.2414635	3	4	0.03	1600
96517	1083	-2009	1014	-2.796948	-9.631571	0.2190716	0	11.46	4004	-179	19	9	0	1.361023	0.2308824	3	4	0.03	1600
96563	-708	-2171	-791	-1.188761	-6.707409	0.697643	0	11.46	4004	222	-189	-7	0	1.361023	0.2297467	3	4	0.03	1600
96684	71	-641	-1416	-0.7927925	-7.092565	1.177909	0	11.46	4003	78	-51	-22	0	1.361023	0.2290169	3	4	0.03	1600
96757	-504	-1191	-1087	-0.4678185	-4.472698	1.100982	0	11.46	4003	103	-160	-21	0	1.361023	0.2304161	3	4	0.03	1600
96912	-722	-949	1810	-0.3360336	-5.234717	0.1669175	0	11.46	4004	-110	-35	26	0	1.361023	0.2434492	3	4	0.03	1600
97071	-381	0	-1534	-1.927318	-6.089604	-0.7280377	0	11.46	4004	-8	-100	16	0	1.361023	0.2882562	3	4	0.03	1600
97198	-290	-2709	-702	-0.74305	-3.034757	1.227377	0	10.83	4004	47	-168	-13	0	1.361023	0.3196633	3	4	0.03	1600
97263	-39	852	592	-1.680261	-2.87786	1.285177	0	10.83	4002	-55	49	-4	0	1.361023	0.3327392	3	4	0.03	1600
97335	284	-1051	92	-0.6402171	-4.262501	1.082026	0	10.83	4002	48	-26	3	0	1.361023	0.3431733	3	4	0.03	1600
97439	-263	-2263	-566	-0.8160035	-2.735757	1.209332	0	10.83	4002	87	-153	-31	0	1.361023	0.36119	3	4	0.03	1600
97542	2354	1886	-633	2.329466	-4.857513	1.986019	0	10.83	4002	76	-74	-36	0	1.361023	0.3774821	3	4	0.03	1600
97649	-232	-1552	91	2.837335	-5.093126	2.203076	0	10.83	4004	34	-151	-26	0	1.361023	0.3945355	3	4	0.03	1600
97806	-204	235	753	0.8703635	-4.869934	1.002553	0	10.83	4002	-68	7	-3	0	1.361023	0.3946829	3	4	0.03	1600
97860	-390	-1124	49	0.9823654	-4.971607	0.6879044	0	10.83	4003	101	-35	0	0	1.361023	0.3938985	3	4	0.03	1600
97959	-24	2025	1282	1.614094	-5.725696	0.1110025	0	10.83	4004	-42	61	34	0	1.361023	0.3939577	3	4	0.03	1600
98054	10	123	-1109	0.7787347	-7.931197	-0.1840877	0	10.94	4004	32	78	5	0	1.361023	0.3922572	3	4	0.03	1600
98156	-65	-1380	-703	1.820039	-7.201914	1.214915	0	10.94	4003	-19	-162	-14	0	1.361023	0.3859331	3	4	0.03	1600
98316	-37	-697	-63	0.4171827	-5.613953	2.378664	0	10.94	4002	26	-192	-37	0	1.361023	0.3738667	3	4	0.03	1600
98369	82	-163	249	0.3049343	-5.693835	2.222216	0	10.94	4004	15	-196	-29	0	1.361023	0.3692143	3	4	0.03	1600
98522	-1557	131	-169	0.4222393	-5.560969	0.8418255	0	10.94	4003	-12	36	-9	0	1.361023	0.3658346	3	4	0.03	1600
98598	57	557	-1009	-0.4372754	-6.123934	1.732178	0	10.94	4003	-18	-73	-40	0	1.361023	0.3717234	3	4	0.03	1600
98684	2041	2153	-525	0.1234817	-7.180669	3.082299	0	10.94	4003	-119	17	-61	0	1.361023	0.3706072	3	4	0.03	1600
98867	-1775	-196	-529	-0.5558881	-9.731836	3.362539	0	10.94	4003	30	-69	-63	0	1.361023	0.3432688	3	4	0.03	1600
98931	728	2700	410	-0.6234143	-11.02605	3.152825	0	10.94	4002	-6	42	-42	0	1.361023	0.3289423	3	4	0.03	1600
99016	-200	294	162	-0.2806947	-13.38804	2.165948	0	11.68	4002	-48	2	-31	0	1.361023	0.3170806	3	4	0.03	1600
99069	-349	393	285	-0.181166	-13.40739	2.008234	0	11.68	4002	122	-121	-23	0	1.361023	0.3044607	3	4	0.03	1600
99174	2363	1674	-544	1.530811	-14.86693	2.91123	0	11.68	4004	56	-77	-58	0	1.361023	0.2897858	3	4	0.03	1600
99268	732	-416	92	3.265864	-14.17586	3.243404	0	11.68	4004	77	-1	-62	0	1.361023	0.2810795	3	4	0.03	1600
99405	-479	-3856	328	2.268977	-6.563371	2.107419	0	11.68	4002	-52	-139	-24	0	1.361023	0.2805632	3	4	0.03	1600
99489	-799	-950	1011	1.569158	-3.529583	1.322771	0	11.68	4003	-32	-5	0	0	1.361023	0.2800254	3	4	0.03	1600
99593	-51	404	-197	0.2135931	-3.486076	0.8108392	0	11.68	4002	-73	135	-6	0	1.361023	0.2769188	3	4	0.03	1600
99681	-404	-327	29	0.2409561	-4.805375	1.313624	0	11.68	4004	34	-12	-18	0	1.361023	0.2819415	3	4	0.03	1600
99777	-2553	-475	-606	-3.804744	-3.803637	2.487557	0	11.68	4002	143	-30	-50	-1	1.205398	0.291128	4	4	0.03	1600
99902	622	2554	902	-3.861148	-7.912698	1.999804	0	10.72	4003	26	-161	-20	0	1.002661	0.2942246	4	4	0.03	1600
99995	467	2267	816	-2.630007	-12.2139	0.8363021	0	10.72	4002	57	-198	2	0	0.8441084	0.2887047	4	4	0.03	1600
100157	-248	1512	-879	-2.984962	-17.72849	0.8295379	0	10.72	4002	-50	-80	-5	1	0.6924706	0.2869733	4	4	0.03	1600
100239	-1465	-1029	-288	-3.455453	-16.13629	1.771364	0	10.72	4004	46	41	-32	1	0.6092871	0.2910739	4	4	0.03	1600
100288	-72	-763	-549	-3.838716	-15.22926	2.104628	0	10.72	4004	-10	-94	-39	2	0.5771632	0.2952853	4	4	0.03	1600
100383	1022	-1073	411	-2.79293	-11.20269	1.885953	0	10.72	4003	-49	65	-25	2	0.5697803	0.3053468	4	4	0.03	1600
100499	386	778	1359	-0.5103931	-10.32974	1.214487	0	10.72	4002	-6	42	9	2	0.5895266	0.3314111	4	4	0.03	1600
100584	405	-3603	-1108	-0.678009	-7.791729	-0.06573524	0	10.72	4003	-101	89	35	3	0.5958927	0.3470828	4	4	0.03	1600
100715	177	254	251	-1.085456	-5.040903	0.5118169	0	10.72	4002	-129	-137	7	3	0.6409124	0.3655879	4	4	0.03	1600
100820	290	-708	580	-1.519446	-4.246273	0.8791367	0	11.17	4002	24	-154	-5	3	0.6117022	0.3720854	4	4	0.03	1600
100910	671	-2235	-457	-0.3504703	-2.845258	1.183795	0	11.17	4004	60	-178	0	3	0.6781145	0.3795542	4	4	0.03	1600
100997	1593	2892	656	1.262031	-4.560945	0.8590212	0	11.17	4003	-11	-2	-1	3	0.7318791	0.385579	4	4	0.03	1600
101097	923	-402	126	2.35658	-6.897971	0.5195717	0	11.17	4002	-114	-108	11	3	0.8215312	0.3954898	4	4	0.03	1600
101198	934	299	-27	4.026496	-6.117307	0.362077	0	11.17	4003	-83	177	7	3	0.8965431	0.3958067	4	4	0.03	1600
101296	1332	152	-254	5.452996	-5.486583	1.148605	0	11.17	4003	-27	69	-15	3	0.9434767	0.3993217	4	4	0.03	1600
101389	-283	-566	-465	4.2835	-5.947228	1.236114	0	11.17	4003	57	-17	-15	3	1.039064	0.4054599	4	4	0.03	1600
101494	-406	-337	264	4.002581	-5.544884	1.252828	0	11.17	4002	80	4	-14	2	1.02937	0.4150989	4	4	0.03	1600
101621	-256	821	70	2.938847	-5.214	0.9182347	0	11.17	4002	-32	128	0	3	1.017429	0.426194	4	4	0.03	1600
101699	-13	187	346	2.420667	-7.081646	0.9721119	0	11.11	4002	-11	-50	-6	2	1.068766	0.4349442	4	4	0.03	1600
101798	-1944	1036	-167	1.332063	-9.571657	1.193181	0	11.11	4002	59	101	-13	2	1.115587	0.4671958	4	4	0.03	1600
101918	-3724	-86	227	-3.048399	-10.24113	0.91283	0	11.11	4003	74	-55	-2	2	1.083756	0.49623	4	4	0.03	1600
102068	427	-1968	-1008	-6.955793	-8.867429	0.5682461	0	11.11	4004	24	80	10	2	0.9652044	0.5170919	4	4	0.03	1600
102109	847	541	871	-6.120228	-8.393432	0.7215376	0	11.11	4007	128	69	-5	2	0.99285	0.5241469	4	4	0.03	1600
102304	584	-1118	-479	-5.048798	-8.711462	1.378574	0	11.11	4004	115	-247	-19	2	1.064002	0.5458057	4	4	0.03	1600
102340	292	1065	-252	-4.642167	-8.69755	1.468873	0	11.11	4004	-44	-67	-27	2	1.058329	0.5545337	4	4	0.03	1600
102427	-286	947	1064	-3.502398	-9.9375	1.631898	0	11.11	4002	-49	-179	-29	2	1.09075	0.5616969	4	4	0.03	1600
102528	-212	-1030	660	-4.081335	-10.65651	0.9678886	0	11.11	4003	59	-235	-5	2	1.020687	0.5656717	4	4	0.03	1600
102613	-562	-1188	681	-4.455841	-8.534291	0.4925854	0	11.11	4002	23	153	7	2	1.061179	0.5791379	4	4	0.03	1600
102802	-83	1950	981	-3.911621	-5.594492	0.07274784	0	11.11	4003	-4	-120	24	2	1.066276	0.6184574	4	4	0.03	1600
102882	-92	933	518	-3.663165	-6.842758	0.3049011	0	11.11	4002	57	-17	10	2	1.036933	0.6347227	4	4	0.03	1600
102919	264	336	187	-3.700771	-6.910925	0.5386585	0	11.11	4004	-58	116	2	2	1.072497	0.6385194	4	4	0.03	1600
103050	-111	296	-882	-2.998044	-6.245112	1.539129	0	11.11	4003	-37	246	-19	1	1.15924	0.6554279	4	4	0.03	1600
103199	733	-275	622	-1.052238	-5.905141	0.753401	0	11.11	4002	4	-149	12	1	1.177622	0.6805848	4	4	0.03	1600
103322	870	-721	-57	-0.0137848	-4.929704	0.1357232	0	11.11	4002	25	-82	8	1	1.17841	0.6927143	4	4	0.03	1600
103330	781	-1373	162	0.1935284	-4.827571	0.1472041	0	11.11	4004	25	-82	8	1	1.17841	0.6927143	4	4	0.03	1600
103443	-124	1127	349	0.3377508	-6.544694	0.2080275	0	11.11	4002	-53	-86	20	1	1.140244	0.6969262	4	4	0.03	1600
103548	70	-2454	-1303	-0.6396964	-5.293955	0.862373	0	11.11	4002	100	-180	-12	1	1.12187	0.7015687	4	4	0.03	1600
103662	606	3	-944	-0.4295402	-4.29977	1.228649	0	10.83	4003	-4	-201	0	0	1.170962	0.724247	4	4	0.03	1600
103735	-196	-78	535	-0.7301837	-5.579796	0.7838307	0	10.83	4003	-38	25	4	0	1.1652	0.744251	4	4	0.03	1600
103845	1222	-1989	216	-0.8688295	-5.082275	0.4437398	0	10.83	4004	-155	15	14	0	1.134027	0.7825633	4	4	0.03	1600
103956	797	996	-821	-0.9584995	-4.972715	0.9265056	0	10.83	4002	11	166	-11	0	1.13755	0.8057677	4	4	0.03	1600
104087	-286	2034	2	-1.61698	-7.936329	0.4153292	0	10.83	4003	-47	-12	13	0	1.111729	0.83722	4	4	0.03	1600
104153	-259	303	-265	-2.065348	-8.874409	0.4450919	0	10.83	4004	-4	6	-7	0	1.102805	0.8538097	4	4	0.03	1600
104264	-640	692	705	-1.802332	-7.508661	0.3517553	0	10.83	4004	-22	26	19	0	1.091559	0.8728334	4	4	0.03	1600
104463	638	1122	-862	-3.059667	-11.05316	0.2789888	0	10.83	4003	28	-150	4	0	1.019253	0.9195666	4	4	0.03	1600
104498	-211	170	215	-2.568581	-10.95442	0.663524	0	10.83	4003	15	-205	4	0	1.020502	0.9316049	4	4	0.03	1600
104566	-409	-600	-96	-2.983715	-10.22067	0.9607541	0	11.46	4003	-18	88	-4	0	1.022638	0.9442573	4	4	0.03	1600
104727	171	-2373	556	-4.763664	-4.677176	0.4837494	0	11.46	4004	-49	-101	29	0	1.058115	0.9875076	4	4	0.03	1600
104777	297	-228	416	-4.327986	-3.498863	-0.1843868	0	11.46	4003	-122	69	38	0	1.077176	0.998282	4	4	0.03	1600
104883	1128	-39	-1295	-3.626595	-5.767809	-0.4365315	0	11.46	4004	38	-234	20	0	1.100113	1.007664	4	4	0.03	1600
105076	-350	-388	-839	-2.817495	-5.870629	1.09835	0	11.46	4002	-47	225	-3	0	1.052283	1.036548	4	4	0.03	1600
105126	69	-162	678	-2.721809	-6.046595	1.069048	0	11.46	4004	62	-93	0	0	1.079923	1.045623	4	4	0.03	1600
105181	358	-399	858	-2.710818	-5.35802	1.052358	0	11.46	4003	42	-35	-2	0	1.091706	1.048904	4	4	0.03	1600
105287	952	2007	693	-1.288054	-6.282108	0.9690019	0	11.46	4002	-26	209	2	0	0.9785254	1.063781	4	4	0.03	1600
105447	-608	-512	209	-1.209215	-8.056022	0.7402216	0	11.46	4002	-138	63	5	0	1.082326	1.115149	4	4	0.03	1600
105499	114	-1282	-765	-1.604559	-7.859071	0.7707557	0	11.17	4002	11	78	0	0	1.102375	1.120969	4	4	0.03	1600
105669	135	285	-856	-1.612263	-8.493327	1.058355	0	11.17	4003	46	-179	-16	0	1.151176	1.151739	4	4	0.03	1600
105694	230	807	23	-1.658092	-8.701622	1.117061	0	11.17	4003	-165	33	-7	0	1.151176	1.151739	4	4	0.03	1600
105803	774	-498	-357	-0.2371668	-8.179875	1.283289	0	11.17	4004	36	-109	-4	0	1.165191	1.184679	4	4	0.03	1600
105901	316	-716	236	-0.5468697	-8.056793	0.7576718	0	11.17	4003	7	-123	2	0	1.14126	1.211844	4	4	0.03	1600
106025	667	907	339	0.05599956	-7.715137	1.295757	0	11.17	4002	-93	34	-6	0	1.132565	1.241082	4	4	0.03	1600
106108	-1675	911	669	-0.430366	-9.115849	1.391136	0	11.17	4003	129	-20	-14	0	1.096411	1.258429	4	4	0.03	1600
106217	-613	1547	970	-1.616171	-12.3067	-0.1833186	0	11.17	4002	-22	27	36	0	1.041198	1.271707	4	4	0.03	1600
106333	794	-935	-484	-1.927088	-11.25488	0.1382872	0	11.17	4003	91	120	10	0	0.9260692	1.278523	4	4	0.03	1600
106466	680	717	-720	-3.027747	-9.914317	0.8388669	0	10.83	4003	6	150	-19	0	0.9515873	1.290621	4	4	0.03	1600
106593	252	-451	-207	-2.477051	-9.274809	1.62516	0	10.83	4002	-80	-109	-35	0	1.003745	1.320297	4	4	0.03	1600
106663	1484	188	-689	-0.3870822	-8.908698	2.419616	0	10.83	4004	-107	166	-52	0	1.020535	1.335115	4	4	0.03	1600
106732	-69	-1102	-682	1.054289	-8.526774	2.886843	0	10.83	4002	22	-98	-52	0	1.045865	1.34876	4	4	0.03	1600
106818	478	-1114	15	0.6532194	-6.262648	2.177354	0	10.83	4003	25	56	-36	0	1.057636	1.355829	4	4	0.03	1600
107002	-100	116	234	2.200344	-7.612559	1.027609	0	10.83	4004	16	-134	-2	0	1.03652	1.378648	4	4	0.03	1600
107057	-568	-184	-47	1.435874	-7.203028	0.9010038	0	10.83	4003	-26	-49	-3	0	1.02559	1.381285	4	4	0.03	1600
107130	-1177	132	131	-0.3624492	-7.047071	0.8199079	0	10.83	4003	19	-83	5	0	1.024022	1.382346	4	4	0.03	1600
107235	-812	-669	-406	-3.212982	-7.260533	0.6571792	0	10.83	4002	16	-140	-3	0	1.03383	1.38148	4	4	0.03	1600
107411	-634	-738	-463	-6.145521	-5.029142	1.313586	0	11.51	4003	71	37	-25	0	1.106407	1.383512	4	4	0.03	1600
107486	-503	959	661	-5.886572	-5.547084	1.359194	0	11.51	4003	25	-117	-8	0	1.103408	1.390483	4	4	0.03	1600
107604	279	-819	164	-5.021099	-5.78246	1.446079	0	11.51	4008	-17	-50	-18	0	1.06643	1.409781	4	4	0.03	1600
107679	205	-1056	-23	-4.732152	-4.958341	1.448001	0	11.51	4003	-80	-36	-21	0	1.065213	1.442906	4	4	0.03	1600
107751	262	1842	472	-3.735857	-6.205315	1.235191	0	11.51	4002	-34	25	-4	0	1.055791	1.456403	4	4	0.03	1600
107826	-735	1106	-120	-3.488586	-7.971632	0.673979	0	11.51	4003	-98	-98	3	0	1.013293	1.48075	4	4	0.03	1600
107961	-52	-944	-227	-2.452292	-7.129616	1.109105	0	11.51	4003	118	-93	-11	0	1.026465	1.51977	4	4	0.03	1600
108037	-1108	416	-201	-3.170726	-6.481483	1.287595	0	11.51	4002	-45	41	-17	-1	1.10124	1.531217	4	4	0.03	1600
108173	1313	138	119	-3.319099	-6.792505	1.850377	0	11.51	4003	-109	29	-30	-1	1.095545	1.545975	4	4	0.03	1600
108295	-573	-649	614	-2.824343	-5.59381	1.152612	0	11.51	4003	-38	-89	-10	-1	1.0869	1.555096	4	4	0.03	1600
108362	1387	-20	344	-2.196581	-4.872795	0.8321842	0	11.51	4003	103	29	5	-1	1.115131	1.567436	4	4	0.03	1600
108448	2979	1122	415	1.060192	-5.639106	0.8401307	0	11.51	4004	26	8	4	-1	1.01445	1.57704	4	4	0.03	1600
108625	1301	239	-605	4.717489	-9.008837	1.174337	0	11.51	4003	88	81	-21	-1	1.057822	1.595785	4	4	0.03	1600
108745	2179	-27	-68	7.701131	-9.09558	2.027896	0	11.51	4003	112	-76	-31	-1	1.117826	1.613005	4	4	0.03	1600
108788	1304	1704	592	9.174827	-10.44402	1.737695	0	11.51	4003	16	44	-26	-1	1.13731	1.614066	4	4	0.03	1600
108851	505	2364	647	9.339709	-12.48273	1.023021	0	11.51	4003	-62	87	-4	-1	1.162326	1.611346	4	4	0.03	1600
108950	181	729	-108	8.234095	-13.17178	0.6757275	0	11.51	4003	-29	-107	3	-2	1.159237	1.594437	4	4	0.03	1600
109060	-1042	4	-468	7.261878	-11.98354	1.105891	0	11.51	4002	58	-5	-7	-1	1.132081	1.585525	4	4	0.03	1600
109202	-1176	19	534	5.426344	-11.3583	1.696587	0	10.77	4002	18	3	-19	-1	1.091382	1.545541	4	4	0.03	1600
109343	-1859	-2667	-98	-0.260919	-7.20143	1.168685	0	10.77	4003	114	-73	-12	-2	1.090694	1.525341	4	4	0.03	1600
109397	-1922	-571	380	-1.558646	-6.267935	0.6386977	0	10.77	4002	18	-118	14	-2	1.080156	1.512881	4	4	0.03	1600
109516	292	310	-398	-2.015055	-6.799647	0.4649526	0	10.77	4003	-63	56	3	-2	1.089021	1.488995	4	4	0.03	1600
109566	42	-551	-82	-2.030114	-6.009251	0.8415185	0	10.77	4003	-16	47	0	-2	1.079109	1.483198	4	4	0.03	1600
109690	-1689	-169	-62	-2.22686	-5.051827	1.239797	0	10.77	4003	-21	17	-16	-2	1.072007	1.456959	4	4	0.03	1600
109827	-1484	65	425	-4.588404	-5.041331	1.304513	0	10.77	4008	31	131	-17	-2	1.107282	1.390594	4	4	0.03	1600
109869	-1995	771	422	-5.092894	-4.852674	1.018044	0	10.77	4003	50	143	4	-2	1.133616	1.382234	4	4	0.03	1600
110033	1177	-368	-839	-3.280502	-7.505806	1.142645	0	10.77	4003	-62	198	-12	-2	1.00183	1.32263	4	4	0.03	1600
110125	-1026	177	21	-3.212572	-8.061288	1.000196	0	11.63	4004	92	-115	-4	-2	1.026717	1.277347	4	4	0.03	1600
110307	461	580	-178	-3.665251	-8.599167	1.061255	0	11.63	4003	98	-265	-14	-2	1.062296	1.229989	4	4	0.03	1600
110447	-818	533	573	-2.609304	-9.315598	1.205841	0	11.63	4002	117	-83	0	-2	1.073847	1.189952	4	4	0.03	1600
110484	-86	-1105	-371	-2.975977	-8.952205	0.9314899	0	11.63	4003	123	-51	-5	-2	1.083048	1.183054	4	4	0.03	1600
110587	1148	-1004	-670	-1.585192	-7.899773	1.390934	0	11.63	4004	-13	-205	-21	-2	1.101614	1.148307	4	4	0.03	1600
110655	923	-768	-201	-1.175053	-7.636956	1.538012	0	11.63	4003	-30	-190	-21	-2	1.106456	1.118232	4	4	0.03	1600
110772	262	-780	181	-1.96338	-7.176988	1.483404	0	11.63	4004	-6	-209	-18	-2	1.090837	1.050332	4	4	0.03	1600
110927	372	544	-665	-2.046828	-6.290025	2.031792	0	11.63	4002	14	180	-30	-2	1.04136	0.9932692	4	4	0.03	1600
110966	-722	664	135	-1.944838	-6.764865	2.098857	0	11.63	4003	53	95	-28	-2	1.027193	0.9727794	4	4	0.03	1600
111133	1032	-1157	467	-2.839449	-7.28699	2.001269	0	10.66	4003	-34	93	-29	-2	0.988428	0.9022127	4	4	0.03	1600
111215	295	-158	-412	-2.335723	-6.834362	1.66687	0	10.66	4002	15	-87	-26	-2	1.016926	0.8711516	4	4	0.03	1600
111349	167	-1025	242	-2.301993	-5.604003	1.618776	0	10.66	4004	-25	-146	-18	-2	1.044898	0.7962546	4	4	0.03	1600
111407	-718	498	76	-2.103444	-6.012097	1.445349	0	10.66	4004	97	-65	-12	-2	1.014379	0.7694048	4	4	0.03	1600
111473	-139	131	-323	-2.625122	-7.312718	1.263667	0	10.66	4002	-61	1	6	-2	0.9709517	0.7418323	4	4	0.03	1600
111623	293	926	619	-1.774669	-7.69768	1.175494	0	10.66	4004	74	84	-7	-1	0.7993876	0.7047177	4	4	0.03	1600
111749	-1023	-2829	-567	-1.14626	-6.497894	0.5758142	0	10.66	4003	101	-258	-4	0	0.6190282	0.6503476	4	4	0.03	1600
111866	1390	1405	271	0.02626465	-6.967992	1.314904	0	10.66	4004	85	-208	-23	0	0.5447206	0.637156	4	4	0.03	1600
111898	959	1188	218	0.5605448	-7.304769	1.279257	0	10.66	4003	32	39	-17	0	0.5354559	0.6352435	4	4	0.03	1600
111971	-565	-2207	-229	0.7221653	-7.132298	0.7320384	0	10.49	4002	-23	80	2	0	0.550895	0.6342714	4	4	0.03	1600
112079	854	-679	736	2.309459	-5.667557	0.3988706	0	10.49	4003	37	-238	4	0	0.5983191	0.6404361	4	4	0.03	1600
112328	135	1201	438	0.5263117	-5.342981	-0.1788396	0	10.49	4003	-52	-81	30	0	0.7715087	0.6821232	4	4	0.03	1600
112413	-1568	-2953	-962	-0.6877039	-5.901503	0.6499858	0	10.49	4004	83	95	-12	0	0.8356942	0.7116537	4	4	0.03	1600
112493	-1190	-1406	499	-3.185393	-3.181	0.9990616	0	10.49	4002	-10	-59	7	0	0.8697366	0.7210447	4	4	0.03	1600
112584	-123	743	1115	-3.129639	-2.888779	0.6958795	0	10.49	4003	-46	20	16	0	0.9471966	0.7439421	4	4	0.03	1600
112725	811	295	208	-2.987689	-3.652595	0.4895408	0	10.49	4003	-65	142	13	0	0.9445469	0.771127	4	4	0.03	1600
112815	-161	823	1006	-2.166225	-4.263881	1.138413	0	10.49	4004	-140	9	-6	0	0.9672024	0.8031617	4	4	0.03	1600
112895	-722	-537	170	-2.409349	-4.449016	0.6423151	0	11.06	4003	-1	89	5	0	1.01179	0.8196535	4	4	0.03	1600
112996	-109	1554	454	-2.288668	-5.122474	0.1850913	0	11.06	4002	-30	36	25	0	1.059398	0.8450113	4	4	0.03	1600
113092	-467	1179	293	-2.761161	-6.121315	-0.04434096	0	11.06	4003	-40	-54	23	0	0.9947914	0.8706893	4	4	0.03	1600
113192	388	-2672	-1124	-4.060483	-5.189178	0.3444604	0	11.06	4003	-49	-148	7	0	1.042544	0.9096091	3	4	0.03	1600
113297	-483	756	-93	-3.452431	-4.649611	0.6253812	0	11.06	4004	-8	179	3	0	1.077356	0.9495903	3	4	0.03	1600
113446	916	-1145	-199	-1.69349	-3.423902	1.92038	0	11.06	4003	50	-121	-30	0	1.109561	0.996673	3	4	0.03	1600
113500	844	-365	-130	-1.183889	-3.041929	1.924495	0	11.06	4004	-82	39	-30	0	1.121235	1.016176	3	4	0.03	1600
113605	-312	-2055	1069	-1.177758	-2.056887	1.148086	0	11.06	4004	58	-83	7	0	1.134722	1.045033	3	4	0.03	1600
113763	-133	-634	145	0.03144265	4.165984	0.3260573	0	11.06	4004	26	-83	12	0	1.149579	1.090834	3	4	0.03	1600
113817	779	244	175	0.2473942	3.950903	0.3709355	0	11.06	4003	-94	71	5	0	1.153649	1.106033	3	4	0.03	1600
113968	-1797	2118	-310	-0.06842015	-3.602093	0.3940831	0	11.23	4003	-50	52	9	0	1.159617	1.136525	3	4	0.03	1600
114058	-1975	1733	245	-2.762283	-5.504739	0.7067506	0	11.23	4003	84	-27	0	0	1.162702	1.15315	3	4	0.03	1600
114119	1286	2733	-940	-3.306479	-8.384648	1.132975	0	11.23	4003	-83	-137	-19	0	1.164279	1.160631	3	4	0.03	1600
114248	-880	-1352	24	-3.686432	-12.33432	0.7357769	0	11.23	4003	18	-95	-2	0	1.166101	1.165872	3	4	0.03	1600
114408	-280	-1142	-311	-1.33337	-7.957507	0.680272	0	11.23	4002	-27	36	0	0	1.168108	1.149797	3	4	0.03	1600
114446	-508	-1962	460	-1.316835	-6.71154	0.5880359	0	11.23	4003	87	-47	4	0	1.168398	1.144404	3	4	0.03	1600
114530	509	-302	-165	-1.827834	-5.148221	0.4328002	0	11.23	4003	-67	93	7	0	1.169103	1.118185	3	4	0.03	1600
114632	864	1090	135	-0.2237849	-4.983335	0.5411133	0	11.23	4002	24	-73	8	0	1.169464	1.101353	3	4	0.03	1600
114828	-741	-193	484	0.2162797	-4.715032	1.184381	0	11.23	4004	15	-94	-7	0	1.170185	1.047742	3	4	0.03	1600
114883	-352	948	-299	-0.3613043	-4.949246	1.126863	0	11.23	4003	-15	-62	-6	0	1.170406	1.001939	3	4	0.03	1600
114938	-948	582	-339	-0.980131	-5.299227	1.059737	0	11.23	4003	29	-105	-7	0	1.170466	0.9923712	3	4	0.03	1600
115066	-888	1174	-233	0.497617	-7.929168	1.259951	0	11.23	4003	-25	40	-9	0	1.17065	0.942273	3	4	0.03	1600
115165	84	1438	47	0.09541667	-8.13474	1.240566	0	11.23	4003	-84	166	-7	0	1.170745	0.883663	3	4	0.03	1600
115325	156	1735	-28	0.9609818	-12.086	0.9796964	0	11.23	4004	-26	42	-5	0	1.170834	0.8026862	3	4	0.03	1600
115359	-512	188	-243	1.117504	-12.52308	0.9145855	0	11.23	4003	53	-92	-8	0	1.170866	0.7931506	3	4	0.03	1600
115466	-795	164	128	0.864647	-12.98323	0.741963	0	11.23	4002	77	-92	0	0	1.170892	0.7616617	3	4	0.03	1600
115630	-801	427	579	-2.380512	-10.95274	0.6172519	0	11.23	4002	-4	-151	12	0	1.170937	0.6822944	3	4	0.03	1600
115686	-1767	1870	306	-3.438784	-11.57653	0.5406867	0	11.06	4003	91	28	5	0	1.170949	0.6607499	3	4	0.03	1600
115785	127	-1630	-952	-4.251317	-11.01676	1.302275	0	11.06	4003	-73	-96	-20	0	1.170964	0.6148081	3	4	0.03	1600
115888	-1086	1248	499	-5.619315	-11.45061	1.316378	0	11.06	4002	-97	98	-13	0	1.170974	0.5530504	3	4	0.03	1600
115961	517	-1607	1150	-4.422266	-10.59205	1.490815	0	11.06	4003	57	63	-41	0	1.170982	0.5112115	3	4	0.03	1600
116054	973	-2359	-116	-3.020831	-7.093705	0.9619353	0	11.06	4004	-46	-152	15	0	1.170985	0.4875378	3	4	0.03	1600
