time(ms)	gyro_x(deg/s)	gyro_y(deg/s)	gyro_z(deg/s)	orientation_roll(deg)	orientation_pitch(deg)	orientation_yaw(deg)	throttle	battery(V)	loop_time(uS)	pid_output_roll	pid_output_pitch	pid_output_yaw	pid_output_throttle	ultrasonic_alt	baro_alt	flight_mode	p_gain_altitude	i_gain_altitude	d_gain_altitude
32143	-273	566	-605	-4.665363	-13.58804	0.1081775	0	11.29	4003	-27	102	-13	2	1.196429	1.891218	5	4	0	15
32281	744	-1340	-540	-3.113745	-13.96576	-0.06722317	0	10.66	4003	-47	-62	-9	2	1.221923	1.888652	5	4	0	15
32361	231	-4079	-728	-2.937893	-11.49351	-0.08023696	0	10.66	4004	-26	-104	-7	4	1.225433	1.882287	5	4	0	15
32511	-758	-1714	787	-0.7301418	-6.129446	0.5826318	0	10.66	4004	-7	67	-4	4	1.208675	1.870435	5	4	0	15
32561	-292	672	1342	-1.264052	-5.531953	0.0880873	0	10.66	4003	-96	184	0	2	1.087807	1.86876	5	4	0	15
32746	724	1238	1085	-1.039809	-7.059024	-0.668281	0	10.66	4002	-89	73	17	2	1.182688	1.853653	5	4	0	15
32764	-627	-1555	-1410	-0.9273522	-6.572954	-0.668281	0	10.66	4003	-60	258	1	2	1.176752	1.852026	5	4	0	15
32864	68	-1864	-1087	-2.562177	-4.783664	-0.1472141	0	10.66	4002	-35	-235	-8	2	1.176742	1.841603	5	4	0	15
32975	776	-167	957	-1.089627	-3.495632	-0.5633352	0	10.66	4003	-48	106	21	2	1.193427	1.824349	5	4	0	15
33089	-954	-1087	-1137	-0.8270332	-3.788401	-1.097197	0	10.66	4004	-19	400	26	5	1.191164	1.789431	5	4	0	15
33244	650	-1143	-874	-0.6100483	-3.846381	-0.8547723	0	11.63	4002	56	-65	2	5	1.24369	1.754503	5	4	0	15
33340	-531	-1240	-1055	-0.8950834	-3.642683	-0.3250054	0	11.63	4002	120	-192	-14	3	1.214544	1.71016	5	4	0	15
33377	-896	-376	700	-1.306033	-3.803954	-0.2916121	0	11.63	4002	-47	38	8	3	1.198631	1.700924	5	4	0	15
33583	-315	1055	-171	-3.924447	-2.646784	-0.3499064	0	11.63	4003	-83	273	10	3	1.196761	1.60428	5	4	0	15
33706	-270	-39	328	-5.132977	-4.015809	0.0589312	0	11.63	4003	38	-140	-11	6	1.155387	1.571007	5	4	0	15
33792	1190	54	-238	-4.819014	-3.911396	0.7075609	0	11.63	4002	-116	150	-22	7	1.09064	1.529845	5	4	0	15
33917	898	-8	-606	-1.216648	-4.366852	1.884075	0	11.63	4003	9	-198	-65	6	1.141565	1.490721	5	4	0	15
33987	-86	2368	779	-1.450393	-6.040946	0.9587513	0	11.63	4002	-42	-28	-32	7	1.165481	1.456793	5	4	0	15
34091	529	2382	584	-1.29231	-8.988564	0.2007439	0	11.63	4004	-50	23	-6	7	1.185521	1.406312	5	4	0	15
34202	1051	1045	-345	-0.4399601	-10.68949	0.1167873	0	10.94	4003	-76	96	-17	8	1.217972	1.347518	5	4	0	15
34329	-547	1271	-285	0.09546519	-12.06549	0.646733	0	10.94	4004	-17	70	-23	7	1.118656	1.280842	5	4	0	15
34408	298	1619	170	-0.5676962	-12.18252	0.5829684	0	10.94	4004	-69	42	-11	8	1.146623	1.243678	5	4	0	15
34584	-1358	2715	688	0.5934044	-16.63472	0.4812157	0	10.94	4003	-43	-61	-20	0	1.128472	1.106956	3	4	0	15
34669	-296	3499	725	-0.3517107	-17.46307	0.2437726	0	10.94	4003	0	-34	-17	0	1.117324	1.089476	3	4	0	15
34765	62	1379	242	-0.8015104	-18.38481	-0.2429695	0	10.94	4003	13	44	-6	0	1.082821	0.983605	3	4	0	15
34796	-322	1026	245	-0.4673891	-18.16929	-0.3395697	0	10.94	4004	-69	-5	2	0	1.076238	0.963442	3	4	0	15
34957	-1800	1528	750	0.04197549	-17.21659	-0.9530839	0	10.94	4003	17	-80	14	0	1.051978	0.8519563	3	4	0	15
35053	6	-2212	-322	-1.285789	-13.85678	-0.8885059	0	11.68	4003	-87	-244	5	0	1.045331	0.8266496	3	4	0	15
35119	1609	1054	-233	0.7100083	-13.22676	-0.0281562	0	11.68	4002	-128	281	-8	0	1.039947	0.8056094	3	4	0	15
35253	-2000	-3499	92	-3.272667	-7.280184	2.536045	0	11.68	4003	-43	82	-67	0	1.032054	0.7782865	3	4	0	15
35307	-2183	-4629	-553	-4.318187	-4.701408	2.849221	0	11.68	4004	-70	-9	-84	0	1.029193	0.7725066	3	4	0	15
35419	-2398	-7339	1058	-7.305598	4.77382	1.698636	0	11.68	4002	43	-102	-16	0	1.025887	0.7660401	3	4	0	15
35544	-1041	-3350	546	-10.63355	13.28203	-0.9403505	0	11.68	4003	12	-107	20	0	1.023477	0.7652991	3	4	0	15
35648	1541	2950	754	-8.221943	11.14676	-0.3292658	0	11.68	4003	51	-224	0	0	1.021248	0.7680863	3	4	0	15
35783	983	4029	423	-6.701993	5.006705	-0.4405765	0	11.68	4004	-63	400	-4	0	1.020095	0.7731846	3	4	0	15
35885	2832	1105	-1584	1.386325	-3.745728	0.8105488	0	11.68	4002	3	-131	-33	0	1.018826	0.7855127	3	4	0	15
35941	-588	-1215	-467	2.411332	-4.49671	1.514121	0	11.68	4003	64	-91	-69	0	1.018643	0.7869765	3	4	0	15
36023	-866	-183	-1413	0.09250234	-4.080606	2.108829	0	11.68	4002	-30	174	-65	0	1.018196	0.7898023	3	4	0	15
36114	-1301	986	1635	-0.710789	-4.066789	2.13982	0	11.68	4004	5	271	-58	0	1.017871	0.7934311	3	4	0	15
36222	195	-2591	-192	-1.280145	-4.250292	1.940592	0	11.68	4002	56	203	-52	0	1.017633	0.7950176	3	4	0	15
36350	482	-752	140	-1.433501	-3.091527	0.4867154	0	11.68	4003	-18	-94	-15	0	1.01746	0.7964494	3	4	0	15
36483	1797	-2845	-875	3.754199	-2.319542	-0.3878769	0	11.68	4002	51	79	-4	0	1.0173	0.7999242	3	4	0	15
36712	1232	106	-1300	5.409555	-5.88054	0.9418508	0	11.68	4004	2	11	-28	0	1.017157	0.803058	3	4	0	15
36767	-1383	-2379	821	4.780984	-4.635808	0.7405009	0	11.68	4003	19	-16	-19	0	1.017113	0.8034568	3	4	0	15
36856	-1163	-2928	466	1.271666	0.5040062	-0.29167	0	11.68	4002	48	-96	3	0	1.017081	0.8110557	3	4	0	15
36977	1078	1306	-408	1.54571	0.6054599	-0.4776901	0	11.57	4003	-78	11	1	0	1.017058	0.8171322	3	4	0	15
37134	-3520	134	-13	-3.032811	-3.381786	0.3466732	0	11.57	4002	-102	236	-25	0	1.017036	0.811742	3	4	0	15
37204	-1562	2806	402	-5.330047	-3.961609	1.038902	0	11.57	4002	-45	249	-34	0	1.017025	0.8007493	3	4	0	15
37281	565	1872	69	-6.525716	-7.170017	1.731493	0	11.57	4004	-64	337	-42	0	1.017019	0.7835305	3	4	0	15
37335	672	1528	-427	-5.878843	-8.620829	1.919026	0	11.57	4003	-33	144	-34	0	1.017015	0.770763	3	4	0	15
37448	1157	-1044	719	-8.653648	-11.54864	0.3086232	0	11.57	4004	-53	54	-1	0	1.017009	0.7403223	3	4	0	15
37536	3302	2174	158	-3.980355	-7.850129	0.3132995	0	11.57	4004	-40	29	-30	0	1.017007	0.7155947	3	4	0	15
37647	1317	1523	1174	-0.60118	-8.79857	0.2489339	0	11.57	4002	-48	280	-20	0	1.017003	0.6627489	3	4	0	15
37743	3053	-424	334	1.499997	-6.58098	0.4426821	0	11.57	4003	-10	-210	-29	0	1.017001	0.6332724	3	4	0	15
37856	692	1072	-399	4.385946	-6.319635	-1.35503	0	11.29	4002	-69	392	28	0	1.016999	0.5868409	3	4	0	15
37998	-356	-1223	-1423	1.835478	-6.285926	-0.2182767	0	11.29	4002	54	-230	-38	0	1.016998	0.5572116	3	4	0	15
38131	-1332	3289	-1096	-1.483739	-9.679475	1.074042	0	11.29	4002	-56	-79	-49	0	1.016997	0.5112478	3	4	0	15
38220	-2334	-471	264	-4.275334	-11.18301	1.390246	0	11.29	4004	-12	-11	-42	0	1.016996	0.4878898	3	4	0	15
38253	-1838	-939	765	-5.11338	-10.75566	1.243605	0	11.29	4004	-36	-64	-46	0	1.016996	0.4786313	3	4	0	15
38357	259	288	89	-5.661899	-8.850684	0.4920803	0	11.29	4003	0	12	-11	0	1.016996	0.4600016	3	4	0	15
38472	-508	-31	181	-5.52879	-8.477816	0.04358696	0	11.29	4003	-58	-13	-11	0	1.016995	0.4465561	3	4	0	15
38611	-903	979	-896	-6.880235	-8.307725	0.5031087	0	11.29	4003	-124	320	-30	0	1.016995	0.4107856	3	4	0	15
38654	-903	979	-896	-6.880235	-8.307725	0.5031087	0	11.29	4003	51	-21	-38	0	1.016995	0.4001507	3	4	0	15
38802	-2648	-774	-1129	-7.475365	-4.634221	0.7299778	0	11.51	4004	55	-339	-34	0	1.016995	0.3633952	3	4	0	15
38900	1043	950	-1088	-9.317634	-7.325424	1.502715	0	11.51	4004	-12	14	-56	0	1.016995	0.3378865	3	4	0	15
38961	1971	1024	-1218	-7.972268	-8.414504	1.738895	0	11.51	4003	-390	-355	-139	0	1.016995	0.3144141	3	4	0	15
39065	368	1605	-175	0.06157323	-8.516674	3.890095	0	11.51	4004	0	0	0	0	1.016995	0.2897774	3	4	0	15
39217	4568	3212	-120	-1.393181	-5.707547	5.958936	0	11.51	4003	0	0	0	0	1.016995	0.2604425	3	4	0	15
39273	1597	-7423	-488	-0.1135028	-2.579474	6.093375	0	11.51	4003	0	0	0	0	1.016995	0.2505325	1	4	0	15
39419	2117	1403	-221	-0.9576492	-1.381641	6.288456	0	11.51	4002	0	0	0	0	1.016995	0.2273415	1	4	0	15
39480	545	-599	1874	-0.9027721	-0.2584048	2.461154	0	11.51	4003	0	0	0	0	1.016995	0.2118191	1	4	0	15
39583	-69	-22	107	-1.409964	0.561865	1.530727	0	11.51	4002	0	0	0	0	1.016995	0.1903724	1	4	0	15
39688	-89	-21	86	-1.288341	0.5522794	1.503639	0	11.51	4002	0	0	0	0	1.016995	0.1779222	1	4	0	15
39792	-62	27	2	-1.183049	0.5034604	1.48151	0	11.85	4003	0	0	0	0	1.016995	0.1505254	1	4	0	15
39936	-105	-52	12	-1.08276	0.4749663	1.466656	0	11.85	4002	0	0	0	0	1.016995	0.1356435	1	4	0	15
40025	-43	11	-43	-0.9550559	0.4186899	1.432237	0	11.85	4003	0	0	0	0	1.016995	0.1248854	1	4	0	15
40115	-85	8	10	-0.9029114	0.3886536	1.41952	0	11.85	4004	0	0	0	0	1.016995	0.1166674	1	4	0	15
40195	-54	27	-9	-0.8351985	0.3798563	1.39745	0	11.85	4003	0	0	0	0	1.016995	0.112027	1	4	0	15
40391	-70	-11	12	-0.7100623	0.3456388	1.355326	0	11.85	4003	0	0	0	0	1.016995	0.09433658	1	4	0	15
40428	-86	-2	13	-0.6782207	0.3195112	1.34047	0	11.85	4004	0	0	0	0	1.016995	0.09353482	1	4	0	15
40491	-86	4	-7	-0.6445053	0.3179226	1.33344	0	11.85	4003	0	0	0	0	1.016995	0.08704212	1	4	0	15
40607	-83	-2	-1	-0.6129779	0.2987932	1.3055	0	11.85	4004	0	0	0	0	1.016995	0.07151055	1	4	0	15
40700	-85	-4	8	-0.5763676	0.298302	1.284039	0	11.97	4004	0	0	0	0	1.016995	0.06230839	1	4	0	15
40824	-65	-6	4	-0.5215877	0.2782967	1.254265	0	11.97	4002	0	0	0	0	1.016995	0.05167073	1	4	0	15
40885	-58	2	7	-0.4992474	0.2704638	1.241916	0	11.97	4002	0	0	0	0	1.016995	0.04511153	1	4	0	15
41011	-66	5	14	-0.4759382	0.2690848	1.2199	0	11.97	4004	0	0	0	0	1.016995	0.04490593	1	4	0	15
41094	-61	1	10	-0.4558981	0.2561772	1.201495	0	11.97	4004	0	0	0	0	1.016995	0.04747323	1	4	0	15
41298	-56	1	14	-0.4188999	0.2458275	1.159979	0	11.97	4004	0	0	0	0	1.016995	0.04691135	1	4	0	15
41419	-56	3	10	-0.3997901	0.2392912	1.140904	0	11.97	4003	0	0	0	0	1.016995	0.05221987	1	4	0	15
41512	-68	3	13	-0.3864908	0.2295361	1.121035	0	11.97	4003	0	0	0	0	1.016995	0.06302733	1	4	0	15
41594	-63	2	11	-0.3773789	0.2301449	1.101411	0	12.02	4003	0	0	0	0	1.016995	0.06700049	1	4	0	15
41693	-64	2	14	-0.3676421	0.2310006	1.082887	0	12.02	4003	0	0	0	0	1.016995	0.06903081	1	4	0	15
41798	-65	-2	11	-0.3615519	0.2253936	1.064546	0	12.02	4002	0	0	0	0	1.016995	0.07087141	1	4	0	15
41933	-67	-2	10	-0.3478678	0.2227805	1.03954	0	12.02	4004	0	0	0	0	1.016995	0.06897302	1	4	0	15
42250	-61	3	8	-0.3249481	0.2243131	0.9868386	0	12.02	4004	0	0	0	0	1.016995	0.0885901	1	4	0	15
42357	-62	0	9	-0.3263607	0.227354	0.9686803	0	12.02	4004	0	0	0	0	1.016995	0.1023374	1	4	0	15
42507	-63	1	7	-0.3265178	0.2272453	0.9379883	0	12.08	4002	0	0	0	0	1.016995	0.09577573	1	4	0	15
42546	-65	0	17	-0.3236842	0.2288192	0.9318753	0	12.08	4002	0	0	0	0	1.016995	0.08881371	1	4	0	15
42606	-62	5	16	-0.3228031	0.2274796	0.9201357	0	12.08	4003	0	0	0	0	1.016995	0.07685827	1	4	0	15
42765	-60	1	10	-0.3143637	0.2209515	0.8910354	0	12.08	4004	0	0	0	0	1.016995	0.05841373	1	4	0	15
42907	-61	2	15	-0.3099539	0.2227883	0.8652346	0	12.08	4004	0	0	0	0	1.016995	0.044142	1	4	0	15
42933	-61	9	9	-0.3097781	0.2199433	0.8586931	0	12.08	4002	0	0	0	0	1.016995	0.04098874	1	4	0	15
43014	-68	3	18	-0.3057477	0.2194256	0.844876	0	12.08	4002	0	0	0	0	1.016995	0.03254825	1	4	0	15
43147	-62	0	13	-0.3046448	0.222684	0.8199314	0	12.08	4004	0	0	0	0	1.016995	0.02565379	1	4	0	15
43219	-68	2	10	-0.3089949	0.2192953	0.8078873	0	12.08	4004	0	0	0	0	1.016995	0.02700703	1	4	0	15
43400	-61	-2	12	-0.3087062	0.2171381	0.7782356	0	12.08	4003	0	0	0	0	1.016995	0.03532214	1	4	0	15
43478	-67	0	12	-0.3072386	0.2235809	0.7606874	0	12.02	4002	0	0	0	0	1.016995	0.03229605	1	4	0	15
43581	-60	0	10	-0.3061698	0.2208973	0.7442405	0	12.02	4003	0	0	0	0	1.016995	0.03308567	1	4	0	15
43671	-57	4	8	-0.3059861	0.2274143	0.7266313	0	12.02	4004	0	0	0	0	1.016995	0.0321471	1	4	0	15
43741	-60	7	15	-0.3008882	0.2247545	0.7136081	0	12.02	4004	0	0	0	0	1.016995	0.02915658	1	4	0	15
43832	-61	-4	10	-0.2959183	0.226294	0.695206	0	12.02	4002	0	0	0	0	1.016995	0.02929921	1	4	0	15
44008	-62	4	17	-0.2922509	0.2262928	0.6584612	0	12.02	4004	0	0	0	0	1.016995	0.02668313	1	4	0	15
44098	-69	-5	10	-0.295906	0.2325974	0.6394477	0	12.02	4002	0	0	0	0	1.016995	0.03104512	1	4	0	15
44249	-65	7	7	-0.2979307	0.2312403	0.61597	0	12.02	4003	0	0	0	0	1.016995	0.03644843	1	4	0	15
44349	-60	7	9	-0.3034304	0.229363	0.5973839	0	12.02	4004	0	0	0	0	1.016995	0.04106166	1	4	0	15
44456	-57	0	10	-0.2995384	0.2294577	0.5738462	0	12.02	4004	0	0	0	0	1.016995	0.05061105	1	4	0	15
44496	-65	0	18	-0.3020201	0.2278481	0.5662045	0	12.02	4002	0	0	0	0	1.016995	0.05512245	1	4	0	15
44600	-57	3	9	-0.3000526	0.2199287	0.5516536	0	12.02	4002	0	0	0	0	1.016995	0.05621556	1	4	0	15
44705	-65	7	3	-0.3017072	0.2177441	0.53704	0	12.02	4003	0	0	0	0	1.016995	0.05736077	1	4	0	15
44792	-54	0	13	-0.3028761	0.2139489	0.5197389	0	12.02	4004	0	0	0	0	1.016995	0.05405321	1	4	0	15
44888	-55	0	16	-0.2991183	0.2108212	0.5023753	0	12.02	4003	0	0	0	0	1.016995	0.0558234	1	4	0	15
44991	-65	-2	9	-0.298853	0.2031151	0.4836663	0	12.02	4002	0	0	0	0	1.016995	0.06571494	1	4	0	15
45094	-70	3	11	-0.2969953	0.2028621	0.4663035	0	12.02	4002	0	0	0	0	1.016995	0.07328606	1	4	0	15
45213	-77	0	7	-0.2929969	0.198436	0.4498578	0	12.08	4003	0	0	0	0	1.016995	0.07440797	1	4	0	15
45322	-62	0	17	-0.2897841	0.2021171	0.4295602	0	12.08	4004	0	0	0	0	1.016995	0.07130183	1	4	0	15
45411	-61	-2	8	-0.2897651	0.1974966	0.4125026	0	12.08	4003	0	0	0	0	1.016995	0.06910872	1	4	0	15
45568	-55	4	15	-0.2878326	0.2031542	0.390738	0	12.08	4003	0	0	0	0	1.016995	0.06209505	1	4	0	15
45695	-61	1	15	-0.2912219	0.2061844	0.3665889	0	12.08	4003	0	0	0	0	1.016995	0.05313838	1	4	0	15
45727	-58	7	11	-0.2894396	0.211535	0.353566	0	12.08	4004	0	0	0	0	1.016995	0.05223607	1	4	0	15
45809	-67	0	12	-0.2856328	0.2114385	0.3358966	0	12.08	4002	0	0	0	0	1.016995	0.05329768	1	4	0	15
45957	-56	-4	11	-0.2940594	0.2159598	0.3129695	0	12.08	4003	0	0	0	0	1.016995	0.05362919	1	4	0	15
46068	-65	0	6	-0.2898056	0.216442	0.2959734	0	12.08	4004	0	0	0	0	1.016995	0.06159959	1	4	0	15
46129	-64	2	11	-0.2865079	0.2161279	0.2849689	0	12.08	4004	0	0	0	0	1.016995	0.06582543	1	4	0	15
46233	-61	1	14	-0.2831768	0.2118899	0.2661973	0	12.14	4004	0	0	0	0	1.016995	0.07269518	1	4	0	15
46387	-63	0	10	-0.2782175	0.2098449	0.2388689	0	12.14	4003	0	0	0	0	1.016995	0.08944461	1	4	0	15
46507	-59	-5	9	-0.2815534	0.2068005	0.2242554	0	12.14	4004	0	0	0	0	1.016995	0.09221915	1	4	0	15
46587	-62	4	13	-0.2779138	0.2058252	0.2062802	0	12.14	4004	0	0	0	0	1.016995	0.1005355	1	4	0	15
46720	-61	6	9	-0.2821635	0.208131	0.182191	0	12.14	4003	0	0	0	0	1.016995	0.1023676	1	4	0	15
46854	-59	9	9	-0.2750011	0.2036119	0.159569	0	12.14	4003	0	0	0	0	1.016995	0.1024313	1	4	0	15
46970	-59	2	12	-0.2721945	0.2094545	0.1434277	0	12.14	4004	0	0	0	0	1.016995	0.08886535	1	4	0	15
47051	-64	8	12	-0.2786873	0.2070611	0.1205007	0	12.08	4004	0	0	0	0	1.016995	0.07670113	1	4	0	15
47105	-62	0	11	-0.2771597	0.2089676	0.1090675	0	12.08	4003	0	0	0	0	1.016995	0.0747771	1	4	0	15
47219	-57	1	12	-0.2750498	0.2091675	0.09262208	0	12.08	4002	0	0	0	0	1.016995	0.06207953	1	4	0	15
47296	-64	4	16	-0.2735293	0.2105547	0.07519795	0	12.08	4002	0	0	0	0	1.016995	0.06085436	1	4	0	15
47394	-65	4	7	-0.269316	0.2084054	0.05765072	0	12.08	4002	0	0	0	0	1.016995	0.06207785	1	4	0	15
47469	-65	0	16	-0.2762098	0.2026319	0.04511806	0	12.08	4004	0	0	0	0	1.016995	0.05716148	1	4	0	15
47579	-59	3	8	-0.2781244	0.2032393	0.0277552	0	12.08	4004	0	0	0	0	1.016995	0.04823106	1	4	0	15
47737	-67	4	13	-0.2761723	0.2065578	-0.001773863	0	12.08	4003	0	0	0	0	1.016995	0.046757	1	4	0	15
47860	-60	10	12	-0.2704684	0.2032306	-0.02476254	0	12.08	4003	0	0	0	0	1.016995	0.04825078	1	4	0	15
47927	-65	2	18	-0.2687902	0.2050698	-0.03509473	0	12.14	4004	0	0	0	0	1.016995	0.05365266	1	4	0	15
47982	-60	2	11	-0.2672659	0.2041835	-0.03980244	0	12.14	4004	0	0	0	0	1.016995	0.05759062	1	4	0	15
48129	-60	4	5	-0.2651055	0.2003664	-0.06591114	0	12.14	4003	0	0	0	0	1.016995	0.05884594	1	4	0	15
48207	-59	0	13	-0.2749819	0.2093566	-0.08137923	0	12.14	4004	0	0	0	0	1.016995	0.05405138	1	4	0	15
48329	-60	-3	9	-0.2666144	0.2110799	-0.1034502	0	12.14	4004	0	0	0	0	1.016995	0.04792631	1	4	0	15
48380	-61	0	7	-0.2690199	0.2114214	-0.1137825	0	12.14	4004	0	0	0	0	1.016995	0.04137398	1	4	0	15
48471	-63	-2	7	-0.2732989	0.2163613	-0.1258876	0	12.14	4002	0	0	0	0	1.016995	0.0315381	1	4	0	15
48530	-64	8	9	-0.2779364	0.2148574	-0.1342635	0	12.14	4004	0	0	0	0	1.016995	0.02815129	1	4	0	15
48675	-60	2	11	-0.2752441	0.2093154	-0.1550508	0	12.14	4004	0	0	0	0	1.016995	0.02573035	1	4	0	15
48736	-67	6	3	-0.276089	0.210297	-0.1658721	0	12.14	4002	0	0	0	0	1.016995	0.02626538	1	4	0	15
48924	-59	6	10	-0.2643169	0.206906	-0.1966266	0	12.08	4003	0	0	0	0	1.016995	0.0247575	1	4	0	15
49009	-65	0	10	-0.2673128	0.207568	-0.2139279	0	12.08	4003	0	0	0	0	1.016995	0.02433981	1	4	0	15
49091	-58	4	8	-0.2621367	0.2104587	-0.224262	0	12.08	4002	0	0	0	0	1.016995	0.02947196	1	4	0	15
49172	-54	5	11	-0.2538336	0.2026154	-0.2400348	0	12.08	4002	0	0	0	0	1.016995	0.03111287	1	4	0	15
49275	-66	0	13	-0.2524039	0.1961925	-0.2554413	0	12.08	4004	0	0	0	0	1.016995	0.02920164	1	4	0	15
49359	-61	-11	15	-0.2527003	0.1979734	-0.2722551	0	12.08	4003	0	0	0	0	1.016995	0.02464215	1	4	0	15
49522	-72	2	6	-0.2551472	0.201611	-0.29726	0	12.08	4003	0	0	0	0	1.016995	0.01053629	1	4	0	15
49599	-61	3	13	-0.2535937	0.2047857	-0.3074096	0	12.08	4004	0	0	0	0	1.016995	-0.002153721	1	4	0	15
49775	-63	-2	13	-0.2610919	0.2066711	-0.3270341	0	12.08	4003	0	0	0	0	1.016995	-0.01469321	1	4	0	15
49853	-68	0	10	-0.2656975	0.2045567	-0.3539354	0	12.08	4003	0	0	0	0	1.016995	-0.01158468	1	4	0	15
49950	-54	8	11	-0.2654588	0.1980929	-0.3688535	0	12.08	4003	0	0	0	0	1.016995	-0.006458153	1	4	0	15
50057	-66	8	17	-0.2664807	0.1960583	-0.385239	0	12.08	4002	0	0	0	0	1.016995	0.003749161	1	4	0	15
50154	-66	-3	5	-0.2654951	0.2005612	-0.4027271	0	12.08	4002	0	0	0	0	1.016995	0.008502379	1	4	0	15
50354	-60	3	9	-0.2595868	0.1968239	-0.432746	0	12.08	4003	0	0	0	0	1.016995	0.00375255	1	4	0	15
50453	-51	-2	9	-0.2611038	0.2016222	-0.448337	0	12.08	4004	0	0	0	0	1.016995	0.0007067919	1	4	0	15
50511	-60	1	8	-0.2601049	0.2023747	-0.4583025	0	12.08	4003	0	0	0	0	1.016995	-0.004642696	1	4	0	15
50605	-63	6	12	-0.2568338	0.2036966	-0.4710808	0	12.08	4003	0	0	0	0	1.016995	-0.009627384	1	4	0	15
50769	-60	0	10	-0.2493672	0.200486	-0.4967588	0	12.02	4003	0	0	0	0	1.016995	-0.01431795	1	4	0	15
50820	-59	4	10	-0.247436	0.2074147	-0.5062357	0	12.02	4003	0	0	0	0	1.016995	-0.02007818	1	4	0	15
50974	-58	4	6	-0.2464207	0.2113594	-0.5275747	0	12.02	4003	0	0	0	0	1.016995	-0.02677302	1	4	0	15
51043	-44	4	10	-0.2420025	0.2119434	-0.5373572	0	12.02	4004	0	0	0	0	1.016995	-0.02785284	1	4	0	15
51185	-57	2	8	-0.2400136	0.2030552	-0.558695	0	12.02	4003	0	0	0	0	1.016995	-0.02430134	1	4	0	15
51230	-66	1	12	-0.245231	0.2023575	-0.5688439	0	12.02	4002	0	0	0	0	1.016995	-0.02314367	1	4	0	15
51293	-61	7	9	-0.2485092	0.2022881	-0.5801552	0	12.02	4004	0	0	0	0	1.016995	-0.02060673	1	4	0	15
51454	-57	0	12	-0.2570527	0.2105595	-0.5982521	0	12.02	4003	0	0	0	0	1.016995	-0.0103209	1	4	0	15
51539	-59	3	2	-0.2539047	0.2037726	-0.6141482	0	12.08	4003	0	0	0	0	1.016995	-0.004505685	1	4	0	15
51621	-60	-3	0	-0.2521257	0.2077254	-0.624603	0	12.08	4004	0	0	0	0	1.016995	-0.003016925	1	4	0	15
51736	-64	0	13	-0.2510017	0.2079153	-0.6472246	0	12.08	4003	0	0	0	0	1.016995	0.001770989	1	4	0	15
51806	-54	2	10	-0.2501674	0.2081146	-0.6570676	0	12.08	4003	0	0	0	0	1.016995	0.002848019	1	4	0	15
51926	-60	7	13	-0.2500233	0.2148131	-0.6732695	0	12.08	4004	0	0	0	0	1.016995	0.004163556	1	4	0	15
52020	-57	0	12	-0.2533478	0.2139801	-0.6939944	0	12.08	4002	0	0	0	0	1.016995	0.002842971	1	4	0	15
52151	-50	3	6	-0.2516989	0.2143893	-0.7155159	0	12.08	4003	0	0	0	0	1.016995	-0.01213831	1	4	0	15
52286	-55	1	9	-0.2401354	0.2113359	-0.7314735	0	12.08	4004	0	0	0	0	1.016995	-0.02488925	1	4	0	15
52405	-56	3	7	-0.2333368	0.2142197	-0.7554404	0	12.08	4004	0	0	0	0	1.016995	-0.03281198	1	4	0	15
52482	-56	7	12	-0.2306181	0.2114071	-0.7702976	0	12.19	4004	0	0	0	0	1.016995	-0.03991018	1	4	0	15
52674	-61	10	10	-0.2291554	0.2109615	-0.7964628	0	12.19	4002	0	0	0	0	1.016995	-0.05405685	1	4	0	15
52873	-61	4	3	-0.2339384	0.2121025	-0.8264212	0	12.19	4004	0	0	0	0	1.016995	-0.06609435	1	4	0	15
52993	-58	6	10	-0.2325447	0.2145221	-0.84678	0	12.19	4003	0	0	0	0	1.016995	-0.06975982	1	4	0	15
53016	-67	4	11	-0.2317814	0.2123852	-0.8521603	0	12.19	4003	0	0	0	0	1.016995	-0.06919292	1	4	0	15
53122	-56	-1	14	-0.2189329	0.2102689	-0.8690956	0	12.19	4004	0	0	0	0	1.016995	-0.06955866	1	4	0	15
53258	-55	9	5	-0.218265	0.2104945	-0.8884758	0	12.19	4003	0	0	0	0	1.016995	-0.07883493	1	4	0	15
53337	-54	0	9	-0.216124	0.2110171	-0.9016216	0	12.19	4004	0	0	0	0	1.016995	-0.07188399	1	4	0	15
53424	-60	4	8	-0.2122963	0.2129458	-0.9104865	0	12.14	4004	0	0	0	0	1.016995	-0.06585628	1	4	0	15
53538	-59	0	11	-0.2127431	0.2053165	-0.9314566	0	12.14	4002	0	0	0	0	1.016995	-0.04925171	1	4	0	15
53713	-53	1	8	-0.2118924	0.2098588	-0.9559723	0	12.14	4003	0	0	0	0	1.016995	-0.03776963	1	4	0	15
53921	-60	0	12	-0.1975518	0.2003058	-0.9884993	0	12.14	4003	0	0	0	0	1.016995	-0.0328787	1	4	0	15
54094	-61	6	7	-0.2020458	0.1937459	-1.016317	0	12.14	4004	0	0	0	0	1.016995	-0.02353501	1	4	0	15
54136	-51	12	10	-0.2017073	0.1887875	-1.026589	0	12.14	4002	0	0	0	0	1.016995	-0.02316019	1	4	0	15
54261	-60	1	5	-0.2076525	0.1910167	-1.042729	0	12.14	4003	0	0	0	0	1.016995	-0.02378268	1	4	0	15
54353	-60	10	12	-0.2012389	0.1859128	-1.057463	0	12.14	4004	0	0	0	0	1.016995	-0.02548802	1	4	0	15
54428	-54	0	10	-0.2000757	0.1905314	-1.071218	0	12.14	4003	0	0	0	0	1.016995	-0.02647778	1	4	0	15
54541	-52	4	5	-0.2071698	0.1879901	-1.086563	0	12.14	4004	0	0	0	0	1.016995	-0.02112838	1	4	0	15
54684	-55	0	10	-0.2062949	0.1988357	-1.106373	0	12.14	4004	0	0	0	0	1.016995	-0.02000364	1	4	0	15
54752	-64	7	13	-0.2134096	0.1998916	-1.115727	0	12.14	4004	0	0	0	0	1.016995	-0.01627946	1	4	0	15
54806	-49	-2	9	-0.209355	0.198707	-1.126915	0	12.14	4003	0	0	0	0	1.016995	-0.01659533	1	4	0	15
54908	-61	0	7	-0.2147706	0.1972224	-1.140978	0	12.14	4004	0	0	0	0	1.016995	-0.01554285	1	4	0	15
55077	-51	2	14	-0.2050961	0.1930708	-1.167206	0	12.14	4004	0	0	0	0	1.016995	-0.02373475	1	4	0	15
55117	-57	0	1	-0.2012706	0.1911883	-1.170569	0	12.14	4003	0	0	0	0	1.016995	-0.02660839	1	4	0	15
55260	-61	-1	7	-0.2092825	0.1933211	-1.194888	0	12.14	4003	0	0	0	0	1.016995	-0.03114156	1	4	0	15
55406	-56	3	12	-0.2015312	0.1930721	-1.21421	0	12.14	4004	0	0	0	0	1.016995	-0.03137974	1	4	0	15
55582	-65	-2	16	-0.2122571	0.1897869	-1.240239	0	12.14	4004	0	0	0	0	1.016995	-0.01822633	1	15	0	40
55682	-47	0	9	-0.2132869	0.1895051	-1.255096	0	12.14	4004	0	0	0	0	1.016995	-0.01271853	1	15	0	40
55813	-62	0	11	-0.2148286	0.1949595	-1.279247	0	12.14	4004	0	0	0	0	1.016995	-0.002846776	1	15	0	40
55969	-59	3	1	-0.2102306	0.2018477	-1.301502	0	12.14	4002	0	0	0	0	1.016995	0.0003225979	1	15	0	40
56040	-63	-1	10	-0.2108048	0.2041929	-1.315318	0	12.14	4002	0	0	0	0	1.016995	0.001710308	1	15	0	40
56112	-66	0	6	-0.2112625	0.2033809	-1.323572	0	12.19	4002	0	0	0	0	1.016995	0.006583512	1	15	0	40
56195	-55	6	4	-0.2048446	0.2072607	-1.337146	0	12.19	4002	0	0	0	0	1.016995	0.006397662	1	15	0	40
56252	-63	4	4	-0.198468	0.2081662	-1.346683	0	12.19	4002	0	0	0	0	1.016995	0.00704509	1	15	0	40
56350	-62	0	9	-0.2039762	0.2013654	-1.355854	0	12.19	4004	0	0	0	0	1.016995	0.01379178	1	15	0	40
56452	-55	4	4	-0.1934741	0.202415	-1.36906	0	12.19	4003	0	0	0	0	1.016995	0.01883738	1	15	0	40
56554	-56	1	3	-0.1915366	0.2030537	-1.382755	0	12.19	4003	0	0	0	0	1.016995	0.02011471	1	15	0	40
56754	-52	-3	14	-0.1955798	0.2074849	-1.406783	0	12.19	4003	0	0	0	0	1.016995	0.01722699	1	15	0	40
56817	-55	0	4	-0.1901539	0.2051492	-1.413936	0	12.19	4002	0	0	0	0	1.016995	0.009303491	1	15	0	40
56882	-60	4	9	-0.1881499	0.2030452	-1.423291	0	12.19	4003	0	0	0	0	1.016995	0.007592247	1	15	0	40
57007	-57	5	12	-0.1857596	0.1983795	-1.440165	0	12.14	4004	0	0	0	0	1.016995	-0.00269522	1	15	0	40
57089	-57	4	6	-0.1826701	0.1927596	-1.448113	0	12.14	4003	0	0	0	0	1.016995	-0.002114593	1	15	0	40
57155	-53	0	5	-0.1820393	0.1944255	-1.456735	0	12.14	4003	0	0	0	0	1.016995	-0.001056158	1	15	0	40
57267	-51	-3	9	-0.1749659	0.1932221	-1.473731	0	12.14	4004	0	0	0	0	1.016995	0.006958616	1	15	0	40
57459	-55	3	10	-0.1802403	0.2021392	-1.496538	0	12.14	4002	0	0	0	0	1.016995	-0.001434991	1	15	0	40
57544	-56	-1	4	-0.1775684	0.1987292	-1.506932	0	12.14	4004	0	0	0	0	1.016995	-0.001977844	1	15	0	40
57618	-64	7	8	-0.1764357	0.19898	-1.515308	0	12.14	4003	0	0	0	0	1.016995	-0.004140022	1	15	0	40
57673	-54	4	8	-0.1774029	0.2039858	-1.524356	0	12.14	4002	0	0	0	0	1.016995	-0.007792093	1	15	0	40
57841	-59	5	5	-0.1753153	0.198275	-1.543859	0	12.14	4002	0	0	0	0	1.016995	-0.00783568	1	15	0	40
57867	-50	0	5	-0.17334	0.1991594	-1.547649	0	12.14	4002	0	0	0	0	1.016995	-0.006596801	1	15	0	40
57974	-60	0	9	-0.1692881	0.2024186	-1.560366	0	12.14	4004	0	0	0	0	1.016995	-0.003703507	1	15	0	40
58115	-55	-4	7	-0.1759473	0.2018868	-1.580603	0	12.14	4002	0	0	0	0	1.016995	-0.01026503	1	15	0	40
58303	-54	4	11	-0.1792346	0.2085167	-1.604141	0	12.14	4003	0	0	0	0	1.016995	-0.03087484	1	15	0	40
58481	-50	1	8	-0.1764283	0.1995142	-1.630371	0	12.14	4003	0	0	0	0	1.016995	-0.03777508	1	15	0	40
58627	-46	-1	7	-0.167314	0.2121734	-1.649995	0	12.14	4003	0	0	0	0	1.016995	-0.04104365	1	15	0	40
58677	-53	1	9	-0.1621913	0.211249	-1.659166	0	12.14	4003	0	0	0	0	1.016995	-0.04442003	1	15	0	40
58766	-51	-3	10	-0.1592718	0.2111816	-1.667543	0	12.14	4004	0	0	0	0	1.016995	-0.05343725	1	15	0	40
58839	-55	5	4	-0.1629107	0.2090798	-1.677265	0	12.14	4003	0	0	0	0	1.016995	-0.05716824	1	15	0	40
58964	-55	5	5	-0.1633438	0.2093677	-1.681177	0	12.14	4003	0	0	0	0	1.016995	-0.05716824	1	15	0	40
59041	-55	5	5	-0.1633438	0.2093677	-1.681177	0	12.14	4003	0	0	0	0	1.016995	-0.05716824	1	15	0	40
59169	-55	5	5	-0.1633438	0.2093677	-1.681177	0	12.14	4003	0	0	0	0	1.016995	-0.05716824	1	15	0	40
59255	-55	5	5	-0.1633438	0.2093677	-1.681177	0	12.14	4003	0	0	0	0	1.016995	-0.05716824	1	15	0	40
59367	-55	5	5	-0.1633438	0.2093677	-1.681177	0	12.14	4003	0	0	0	0	1.016995	-0.05716824	1	15	0	40
59456	-55	5	5	-0.1633438	0.2093677	-1.681177	0	12.14	4003	0	0	0	0	1.016995	-0.05716824	1	15	0	40
59539	-55	5	5	-0.1633438	0.2093677	-1.681177	0	12.14	4003	0	0	0	0	1.016995	-0.05716824	1	15	0	40
59651	-55	5	5	-0.1633438	0.2093677	-1.681177	0	12.14	4003	0	0	0	0	1.016995	-0.05716824	1	15	0	40
59769	-55	5	5	-0.1633438	0.2093677	-1.681177	0	12.14	4003	0	0	0	0	1.016995	-0.05716824	1	15	0	40
59866	-55	5	5	-0.1633438	0.2093677	-1.681177	0	12.14	4003	0	0	0	0	1.016995	-0.05716824	1	15	0	40
59956	-55	5	5	-0.1633438	0.2093677	-1.681177	0	12.14	4003	0	0	0	0	1.016995	-0.05716824	1	15	0	40
60003	-55	5	5	-0.1633438	0.2093677	-1.681177	0	12.14	4003	0	0	0	0	1.016995	-0.05716824	1	15	0	40
60106	-55	5	5	-0.1633438	0.2093677	-1.681177	0	12.14	4003	0	0	0	0	1.016995	-0.05716824	1	15	0	40
60296	-55	5	5	-0.1633438	0.2093677	-1.681177	0	12.14	4003	0	0	0	0	1.016995	-0.05716824	1	15	0	40
60361	-55	5	5	-0.1633438	0.2093677	-1.681177	0	12.14	4003	0	0	0	0	1.016995	-0.05716824	1	15	0	40
60399	-55	5	5	-0.1633438	0.2093677	-1.681177	0	12.14	4003	0	0	0	0	1.016995	-0.05716824	1	15	0	40
60509	-55	5	5	-0.1633438	0.2093677	-1.681177	0	12.14	4003	0	0	0	0	1.016995	-0.05716824	1	15	0	40
60590	-55	5	5	-0.1633438	0.2093677	-1.681177	0	12.14	4003	0	0	0	0	1.016995	-0.05716824	1	15	0	40
60664	-55	5	5	-0.1633438	0.2093677	-1.681177	0	12.14	4003	0	0	0	0	1.016995	-0.05716824	1	15	0	40
60773	-55	5	5	-0.1633438	0.2093677	-1.681177	0	12.14	4003	0	0	0	0	1.016995	-0.05716824	1	15	0	40
60875	-55	5	5	-0.1633438	0.2093677	-1.681177	0	12.14	4003	0	0	0	0	1.016995	-0.05716824	1	15	0	40
60999	-55	5	5	-0.1633438	0.2093677	-1.681177	0	12.14	4003	0	0	0	0	1.016995	-0.05716824	1	15	0	40
61143	-55	5	5	-0.1633438	0.2093677	-1.681177	0	12.14	4003	0	0	0	0	1.016995	-0.05716824	1	15	0	40
61229	-55	5	5	-0.1633438	0.2093677	-1.681177	0	12.14	4003	0	0	0	0	1.016995	-0.05716824	1	15	0	40
61304	-55	5	5	-0.1633438	0.2093677	-1.681177	0	12.14	4003	0	0	0	0	1.016995	-0.05716824	1	15	0	40
61386	-55	5	5	-0.1633438	0.2093677	-1.681177	0	12.14	4003	0	0	0	0	1.016995	-0.05716824	1	15	0	40
61505	-55	5	5	-0.1633438	0.2093677	-1.681177	0	12.14	4003	0	0	0	0	1.016995	-0.05716824	1	15	0	40
61609	-55	5	5	-0.1633438	0.2093677	-1.681177	0	12.14	4003	0	0	0	0	1.016995	-0.05716824	1	15	0	40
61682	-55	5	5	-0.1633438	0.2093677	-1.681177	0	12.14	4003	0	0	0	0	1.016995	-0.05716824	1	15	0	40
61780	-55	5	5	-0.1633438	0.2093677	-1.681177	0	12.14	4003	0	0	0	0	1.016995	-0.05716824	1	15	0	40
61936	-55	5	5	-0.1633438	0.2093677	-1.681177	0	12.14	4003	0	0	0	0	1.016995	-0.05716824	1	15	0	40
61992	-55	5	5	-0.1633438	0.2093677	-1.681177	0	12.14	4003	0	0	0	0	1.016995	-0.05716824	1	15	0	40
62090	-55	5	5	-0.1633438	0.2093677	-1.681177	0	12.14	4003	0	0	0	0	1.016995	-0.05716824	1	15	0	40
62210	-55	5	5	-0.1633438	0.2093677	-1.681177	0	12.14	4003	0	0	0	0	1.016995	-0.05716824	1	15	0	40
62326	-55	5	5	-0.1633438	0.2093677	-1.681177	0	12.14	4003	0	0	0	0	1.016995	-0.05716824	1	15	0	40
62413	-55	5	5	-0.1633438	0.2093677	-1.681177	0	12.14	4003	0	0	0	0	1.016995	-0.05716824	1	15	0	40
62485	-55	5	5	-0.1633438	0.2093677	-1.681177	0	12.14	4003	0	0	0	0	1.016995	-0.05716824	1	15	0	40
62586	-55	5	5	-0.1633438	0.2093677	-1.681177	0	12.14	4003	0	0	0	0	1.016995	-0.05716824	1	15	0	40
62689	-55	5	5	-0.1633438	0.2093677	-1.681177	0	12.14	4003	0	0	0	0	1.016995	-0.05716824	1	15	0	40
62810	-55	5	5	-0.1633438	0.2093677	-1.681177	0	12.14	4003	0	0	0	0	1.016995	-0.05716824	1	15	0	40
62903	-55	5	5	-0.1633438	0.2093677	-1.681177	0	12.14	4003	0	0	0	0	1.016995	-0.05716824	1	15	0	40
63047	-55	5	5	-0.1633438	0.2093677	-1.681177	0	12.14	4003	0	0	0	0	1.016995	-0.05716824	1	15	0	40
63148	-55	5	5	-0.1633438	0.2093677	-1.681177	0	12.14	4003	0	0	0	0	1.016995	-0.05716824	1	15	0	40
63193	-55	5	5	-0.1633438	0.2093677	-1.681177	0	12.14	4003	0	0	0	0	1.016995	-0.05716824	1	15	0	40
63355	-55	5	5	-0.1633438	0.2093677	-1.681177	0	12.19	4003	0	0	0	0	1.016995	-0.05716824	1	15	0	40
63411	-55	5	5	-0.1633438	0.2093677	-1.681177	0	12.19	4003	0	0	0	0	1.016995	-0.05716824	1	15	0	40
63496	-55	5	5	-0.1633438	0.2093677	-1.681177	0	12.19	4003	0	0	0	0	1.016995	-0.05716824	1	15	0	40
63637	-55	5	5	-0.1633438	0.2093677	-1.681177	0	12.19	4003	0	0	0	0	1.016995	-0.05716824	1	15	0	40
63716	-55	5	5	-0.1633438	0.2093677	-1.681177	0	12.19	4003	0	0	0	0	1.016995	-0.05716824	1	15	0	40
