time(ms)	gyro_x(deg/s)	gyro_y(deg/s)	gyro_z(deg/s)	orientation_roll(deg)	orientation_pitch(deg)	orientation_yaw(deg)	throttle	battery(V)	loop_time(uS)	pid_output_roll	pid_output_pitch	pid_output_yaw	pid_output_throttle	ultrasonic_alt	baro_alt	flight_mode	p_gain_altitude	i_gain_altitude	d_gain_altitude
128328	319	120	361	-1.573138	-4.123388	-0.4844745	0	10.66	4002	-35	-40	6	-11	1.406688	3.15939	5	15	0	80
128378	521	762	832	-1.151518	-3.637396	-0.4818238	0	10.66	4003	9	-400	-1	-11	1.252058	3.211633	5	15	0	80
128444	604	2874	538	-0.8563944	-4.157552	-0.3491107	0	10.66	4004	5	105	-2	-14	1.228185	3.270967	5	15	0	80
128563	-827	-3660	-1968	-2.291192	-4.947484	0.7699186	0	10.66	4003	15	262	-25	-25	1.312985	3.352289	5	15	0	80
128658	-349	-2353	-865	-2.590429	-2.822289	0.8468378	0	10.66	4002	15	-347	-42	-15	1.255452	3.450126	5	15	0	80
128774	1236	-210	-594	-2.819459	-2.99471	0.02080218	0	11.34	4003	-3	-400	-10	-25	1.32073	3.565446	5	15	0	80
128869	631	2273	1086	-2.036003	-3.520308	-0.02748896	0	11.34	4002	81	-208	-20	-30	1.353867	3.603811	5	15	0	80
128977	549	770	412	-1.656336	-6.128449	0.6757894	0	11.34	4002	-34	-7	-19	-54	1.228945	3.721533	5	15	0	80
129128	-2273	-2743	46	-2.166267	-6.726999	-0.03256533	0	11.34	4003	69	28	-5	-60	1.230878	3.844527	5	15	0	80
129194	-431	-400	1133	-2.661578	-5.895955	-0.372722	0	11.34	4004	-11	245	18	-62	1.276134	3.885312	5	15	0	80
129274	1054	1281	1094	-1.965113	-5.688708	-0.7225469	0	11.34	4003	-70	211	27	-65	1.246514	3.945129	5	15	0	80
129392	1423	1792	609	-0.4920982	-6.676407	-0.227836	0	11.34	4009	-29	163	12	-38	1.218875	4.046672	5	15	0	80
129477	1226	-228	-1390	0.08380646	-9.850307	-0.2093716	0	11.34	4002	-1	98	20	-41	1.194544	4.142371	5	15	0	80
129627	2493	394	-2056	2.948329	-10.37231	0.1296893	0	11.06	4004	24	-162	-28	-77	1.196359	4.243934	5	15	0	80
129680	598	218	43	4.553091	-11.80205	-0.004706243	0	11.06	4002	57	-99	-8	-79	1.215329	4.290865	5	15	0	80
129773	406	767	-1039	4.720383	-12.01134	-0.01743601	0	11.06	4003	5	-198	-1	-81	1.23138	4.33635	5	15	0	80
129865	-425	699	-79	4.380421	-14.49433	-0.127094	0	11.06	4002	-3	-31	-2	-43	1.324649	4.366761	5	15	0	80
129974	-233	-3749	6	1.778322	-7.765941	-0.1513568	0	11.06	4002	34	-155	-7	-44	1.148044	4.477099	5	15	0	80
130231	-529	-119	-60	2.82513	-8.224698	1.178124	0	11.06	4002	18	16	-39	-50	1.18861	4.563581	5	15	0	80
130317	-571	-1926	523	1.857242	-6.174393	0.7342653	0	11.06	4002	-3	-152	-20	-92	1.212774	4.612768	5	15	0	80
130415	126	205	385	0.9385393	-3.789395	-0.0439824	0	11.06	4002	-17	-18	1	-51	1.240268	4.639418	5	15	0	80
130507	-721	1427	-973	0.1164369	-6.164361	0.1325035	0	11.06	4002	14	-106	-20	-94	1.120904	4.658524	5	15	0	80
130619	-380	622	220	-0.6033435	-6.844911	0.9045571	0	11.06	4003	-36	112	-29	-49	1.247772	4.688498	5	15	0	80
130670	-103	1725	427	-0.9791244	-7.677022	0.9722298	0	11.06	4003	-1	-11	-25	-53	1.273606	4.693343	5	15	0	80
130804	329	-3107	1004	0.3767479	-7.807789	0.4555139	0	11.06	4002	-58	-70	-10	-56	1.261542	4.708187	5	15	0	80
130967	1948	1995	-49	1.619454	-4.939547	-0.3228674	0	11.06	4003	-11	-115	-31	-55	1.299924	4.664447	5	15	0	80
130980	791	-366	-850	2.511959	-5.393578	0.07541527	0	11.06	4004	-11	-115	-31	-55	1.288507	4.654436	5	15	0	80
131082	-1009	-712	262	1.817274	-3.254839	0.7498682	0	11.06	4003	23	-100	-27	-89	1.313736	4.608665	5	15	0	80
131230	-1299	1310	-469	0.9936565	-4.221997	1.001266	0	11.06	4003	-12	-28	-35	-51	1.21442	4.532116	5	15	0	80
131344	-899	-1684	1	0.5300076	-3.530998	1.10474	0	11.06	4002	35	-27	-35	-50	1.27274	4.454991	5	15	0	80
131400	-622	-1369	-256	-0.6921557	-2.211001	1.108782	0	11.06	4002	-14	-70	-28	-44	1.218153	4.417498	5	15	0	80
131596	-1430	2906	1023	-0.500046	-6.675321	-0.3553588	0	11.51	4003	-51	120	3	-48	1.302003	4.041513	5	15	0	80
131650	-2470	673	947	-1.0727	-7.462245	-0.6844849	0	11.51	4004	101	48	23	-62	1.191098	3.987634	5	15	0	80
131760	824	2285	1089	0.4125884	-5.817205	-1.028113	0	11.51	4002	-20	89	9	-39	1.201919	3.803328	3	15	0	80
131815	-2440	420	-85	-0.106392	-6.687092	-1.422855	0	11.51	4003	111	-283	25	0	1.191353	3.642523	3	15	0	80
131903	-1900	371	-889	-2.195915	-6.640368	-1.572824	0	11.51	4004	43	-163	-8	0	1.182794	3.478905	3	15	0	80
132065	-1505	-914	-2708	0.1502319	-6.339503	2.370694	0	11.51	4004	9	-115	-75	0	1.167852	3.154117	3	15	0	80
132125	-1693	702	1551	-1.386591	-4.985544	2.449301	0	11.51	4003	14	160	-46	0	1.163758	2.8672	3	15	0	80
132192	-433	2653	1339	-1.223799	-6.977984	0.7476759	0	11.51	4004	-54	-140	7	0	1.160442	2.680218	3	15	0	80
132326	762	2763	5	2.870033	-12.63848	-1.761788	0	11.51	4004	32	-145	29	0	1.155581	2.336908	3	15	0	80
132410	2813	-468	-1104	5.925896	-12.93577	-0.5956376	0	10.26	4002	9	-82	15	0	1.153819	2.174972	3	15	0	80
132504	-491	2008	-495	6.152246	-12.84971	0.0718731	0	10.26	4002	39	-6	-20	0	1.151783	1.993464	3	15	0	80
132616	-50	6	354	4.379647	-12.38887	0.530823	0	10.26	4002	-21	117	-19	0	1.150298	1.900793	3	15	0	80
132732	-1429	1251	321	4.68327	-12.09521	-0.3658483	0	10.26	4003	84	-190	-4	0	1.148925	1.711147	3	15	0	80
132841	-2644	-4087	-321	0.9027496	-7.157477	-0.9361678	0	10.26	4003	49	204	17	0	1.148216	1.640245	3	15	0	80
132983	-3235	1051	-38	-0.30271	-5.441267	-0.6559685	0	10.26	4003	116	-174	8	0	1.147559	1.524238	3	15	0	80
133036	-1323	3678	129	-2.493657	-8.290831	-0.9097562	0	10.26	4003	1	40	8	0	1.147321	1.474124	3	15	0	80
133153	-523	-407	451	-2.980279	-9.562332	-0.5796037	0	10.26	4004	-36	-299	-14	0	1.147046	1.407185	3	15	0	80
133209	-1434	1866	1347	-2.718123	-7.902422	-0.4126652	0	10.26	4003	117	-123	-6	0	1.146905	1.358238	3	15	0	80
133353	2277	508	-1437	-2.520311	-10.29846	-0.7043234	0	11	4004	-138	-166	9	0	1.146699	1.286731	3	15	0	80
133393	1560	380	76	-0.9151409	-10.39954	-0.5453267	0	11	4002	-43	-43	14	0	1.146593	1.225939	3	15	0	80
133497	769	-142	-1120	0.3783433	-11.44681	0.7154345	0	11	4003	-61	-96	-14	0	1.146515	1.18181	3	15	0	80
133601	-1977	-190	98	0.2098892	-9.789057	0.8452796	0	11	4003	33	-209	-30	0	1.146475	1.147714	3	15	0	80
133730	1137	-1035	673	-1.407381	-10.26641	-0.1612219	0	11	4002	-7	57	6	0	1.146417	1.12601	3	15	0	80
133883	-1500	-3700	-49	-2.776448	-6.068573	-0.1530953	0	11	4002	15	-329	3	0	1.146371	1.118144	3	15	0	80
133947	-265	-4216	-1536	-3.817974	-1.881793	-0.08053596	0	11	4002	-103	233	8	0	1.146359	1.118085	3	15	0	80
134035	-118	-4295	-973	-2.676104	2.738089	0.2081911	0	11	4003	-59	-3	2	0	1.146349	1.128724	3	15	0	80
134099	168	-2256	-473	-2.238855	4.540523	0.2563998	0	11	4002	31	-194	-3	0	1.146341	1.138186	3	15	0	80
134212	-592	1206	2036	-3.134422	2.808101	-0.5754717	0	11	4003	37	254	14	0	1.146329	1.144585	3	15	0	80
134363	-1007	971	-332	-1.654419	-2.160255	-0.3696255	0	11.17	4004	-43	264	10	0	1.146321	1.145696	3	15	0	80
134478	597	1555	924	-2.477572	-4.112388	0.164467	0	11.17	4004	-105	199	-4	0	1.146316	1.151313	3	15	0	80
134556	1517	1999	342	-1.542455	-4.35298	1.052676	0	11.17	4011	34	-83	-38	0	1.146313	1.157782	3	15	0	80
134773	1252	-436	990	-1.559316	-10.00419	0.4065682	0	11.17	4004	-36	-38	-7	0	1.14631	1.148059	3	15	0	80
134893	2164	2807	801	1.984814	-11.46473	0.8925413	0	11.17	4003	-69	-22	-20	0	1.146308	1.131692	3	15	0	80
134911	2164	2807	801	1.984814	-11.46473	0.8925413	0	11.17	4003	-93	297	-14	0	1.146308	1.13011	3	15	0	80
135022	69	-405	874	1.563511	-12.17177	0.3478626	0	11.17	4002	-22	85	-1	0	1.146307	1.118084	3	15	0	80
135138	1347	349	-657	2.031416	-10.22866	0.4273631	0	10.55	4004	-69	208	-24	0	1.146307	1.100722	3	15	0	80
135242	309	-12	-529	2.518715	-11.08507	1.224487	0	10.55	4004	-8	-210	-48	0	1.146307	1.06587	3	15	0	80
135277	-1048	-1808	-521	2.227428	-10.78808	1.46113	0	10.55	4003	33	-146	-49	0	1.146307	1.052038	3	15	0	80
135409	-778	-3059	781	0.756441	-7.039742	1.270463	0	10.55	4002	15	139	-19	0	1.146307	1.029157	3	15	0	80
135499	-1248	2485	698	-2.007463	-6.347553	-0.3682144	0	10.55	4004	30	-91	16	0	1.146307	1.009914	3	15	0	80
135676	-1115	-1110	-916	-2.494422	-2.813604	1.246026	0	10.55	4004	-111	-229	-43	0	1.146307	0.9568225	3	15	0	80
135720	-1336	590	260	-3.080482	-2.646014	1.525407	0	10.55	4004	-92	190	-41	0	1.146307	0.9568225	3	15	0	80
135836	1128	3516	1427	-2.940751	-5.889847	1.512966	0	10.55	4002	-105	195	-34	0	1.146307	0.9199021	3	15	0	80
135922	51	-2429	-524	-1.567294	-6.616374	1.305607	0	10.55	4003	-37	198	-43	0	1.146307	0.8802036	3	15	0	80
136057	-459	1334	637	-1.789289	-4.908913	0.7608898	0	10.32	4002	-101	341	-22	0	1.146307	0.8352752	3	15	0	80
136164	1033	-606	-87	-1.205271	-5.768674	2.143298	0	10.32	4003	-73	144	-38	0	1.146307	0.8157017	3	15	0	80
136200	-501	1491	-2435	-1.332364	-6.450361	2.743261	0	10.32	4003	-23	-52	-104	0	1.146307	0.8121082	3	15	0	80
136290	1663	-1807	-754	-0.2781568	-9.256577	4.015873	0	10.32	4004	5	-110	-102	0	1.146307	0.7969389	3	15	0	80
136492	-284	255	2050	1.502988	-9.934214	2.567927	0	10.32	4004	-118	202	-46	-2	1.184493	0.7582599	4	15	0	80
136669	-1353	1612	251	2.54484	-12.41544	0.06657083	0	10.32	4003	79	-207	11	-4	1.217746	0.727683	4	15	0	80
136758	-256	-861	-1405	-0.08688646	-14.84198	-1.030152	0	10.32	4003	-38	-219	19	-1	1.177444	0.7134073	4	15	0	80
136808	-256	-861	-1405	-0.08688646	-14.84198	-1.030152	0	10.32	4003	-32	-41	28	-1	1.156494	0.7086277	4	15	0	80
136860	-1052	2265	1786	0.3031	-13.26943	-0.8437991	0	10.32	4005	-61	-61	15	0	1.088573	0.6861184	4	15	0	80
137002	-460	1175	759	-0.4305056	-12.48322	-0.3850971	0	10.55	4004	22	256	5	0	1.085458	0.6702279	4	15	0	80
137069	171	972	1223	-0.5201365	-11.75089	-0.4087803	0	10.55	4004	-16	309	16	-5	1.118069	0.6610417	4	15	0	80
137198	-916	-268	277	-2.475083	-9.920375	-1.15827	0	10.55	4003	-74	109	19	-2	1.154181	0.6571669	4	15	0	80
137299	-909	-738	-333	-3.150385	-8.385955	-0.9018992	0	10.55	4004	-34	248	3	-1	1.133504	0.6561179	4	15	0	80
137531	813	1462	122	-5.003056	-2.448655	-1.534734	0	10.55	4002	-27	200	24	-2	1.132776	0.6628374	4	15	0	80
137621	932	-1732	-2131	-3.32983	-4.104764	-0.5990189	0	10.55	4002	2	163	4	-3	1.179201	0.6642875	4	15	0	80
137706	561	-508	141	-2.83341	-3.679205	-0.3164769	0	10.55	4003	-18	-243	-27	-7	1.097464	0.666309	4	15	0	80
137816	692	-265	-1232	-1.94994	-4.234234	0.48847	0	10.55	4004	41	-126	-38	-5	1.187565	0.6682165	4	15	0	80
137899	-1048	-1882	435	-1.885266	-4.22944	0.03476062	0	10.55	4003	80	-277	2	-5	1.252335	0.6680893	4	15	0	80
138017	343	2658	1639	-1.528711	-4.352244	-1.233934	0	10.55	4003	-77	-83	37	-5	1.282488	0.6639819	4	15	0	80
138114	349	-236	-937	-1.0065	-5.462593	-1.30847	0	10.55	4003	-12	171	27	-7	1.269424	0.6685863	4	15	0	80
138244	-1096	-1784	-345	-1.719648	-5.210281	-0.1515232	0	10.55	4003	84	80	-23	-4	1.267456	0.6778929	4	15	0	80
138320	-393	-2337	-140	-2.223906	-1.937472	0.6237397	0	10.55	4004	1	-46	-38	-5	1.289047	0.682458	4	15	0	80
138392	-209	433	-234	-1.460976	-1.955726	0.7806208	0	10.55	4004	39	151	-16	-7	1.289884	0.6918795	4	15	0	80
138621	-1406	-2497	530	-2.346319	-0.820784	2.876246	0	10.55	4002	257	-400	-83	-1	1.173294	0.7557113	4	15	0	80
138700	-1406	-2497	530	-2.346319	-0.820784	2.876246	0	10.55	4002	64	-111	-67	-4	1.174904	0.8009775	4	15	0	80
138827	1573	1059	460	-5.330637	-0.9376318	0.9147474	0	11.29	4002	-18	366	-16	-5	1.254845	0.8601245	4	15	0	80
138885	1893	3122	-692	-2.714024	-2.68866	0.5098264	0	11.29	4003	-185	9	16	0	1.195707	0.8810583	4	15	0	80
138985	425	-1236	-1604	-1.934439	-2.59103	3.000546	0	11.29	4002	-151	52	-88	-1	1.135009	0.8952497	4	15	0	80
139122	1339	2031	2236	1.574281	-3.836301	2.963445	0	11.29	4003	-32	5	-51	-1	1.117849	0.8989387	4	15	0	80
139229	-573	738	505	3.225522	-9.877461	0.6371073	0	11.29	4002	-1	-40	-15	-2	1.133946	0.8991048	4	15	0	80
139305	1277	-91	-1589	2.866537	-12.57966	1.393076	0	11.29	4004	51	-140	-47	-2	1.142421	0.9015424	4	15	0	80
139436	-333	1114	-870	4.474028	-14.76078	2.884298	0	11.29	4003	-96	336	-84	-2	1.094584	0.937291	4	15	0	80
139493	-655	-138	52	3.10214	-13.28154	2.612115	0	11.29	4004	-63	291	-66	-8	1.174976	0.9511377	4	15	0	80
139597	-4011	-2963	-449	0.2178894	-10.02617	1.940422	0	11.29	4003	109	-400	-49	-10	1.284239	0.9701887	4	15	0	80
139717	1315	1580	1045	1.469176	-7.724998	-0.05531648	0	11.11	4002	42	55	0	-4	1.250699	1.014987	4	15	0	80
139861	-1023	-1450	-927	2.248878	-9.440466	-0.2077086	0	11.11	4003	47	-209	0	-4	1.186456	1.060072	4	15	0	80
139909	-784	-869	-1628	1.119299	-8.796842	-0.4250402	0	11.11	4004	-15	144	9	-5	1.209984	1.067951	4	15	0	80
139999	-195	1372	216	1.169537	-9.529639	-0.222256	0	11.11	4004	-85	140	8	-1	1.170698	1.106163	4	15	0	80
140144	-983	-595	1608	0.1202278	-8.479718	-0.386214	0	11.11	4003	21	52	28	0	1.155629	1.127588	3	15	0	80
140242	279	759	149	-0.5398381	-9.299861	-0.8946818	0	11.11	4003	26	71	12	0	1.141689	1.160714	3	15	0	80
140305	1162	112	228	0.7322647	-8.829728	-0.6779059	0	11.11	4003	-131	192	19	0	1.136635	1.182128	3	15	0	80
140432	1243	370	-192	1.185212	-7.271767	0.5245014	0	11.11	4002	-82	178	-17	0	1.129227	1.228061	3	15	0	80
140512	1406	1208	589	5.00875	-8.65627	1.195792	0	11.11	4003	20	-89	-34	0	1.125397	1.263959	3	15	0	80
140627	1966	-358	587	6.374137	-8.312468	-0.2691694	0	11.11	4002	-74	-29	10	0	1.121853	1.308855	3	15	0	80
140736	1380	1898	-766	8.698171	-8.952819	-0.7339522	0	10.32	4004	-169	161	7	0	1.120021	1.349176	3	15	0	80
140818	-1492	-2570	-544	7.783372	-9.417836	0.3349213	0	10.32	4003	7	-33	-17	0	1.119085	1.35787	3	15	0	80
140920	-2105	-57	318	4.105021	-6.012232	0.8081128	0	10.32	4003	113	-172	-38	0	1.118003	1.367226	3	15	0	80
141218	-959	-749	-1477	1.866007	-6.077071	2.456952	0	10.32	4002	58	-71	-82	0	1.116346	1.355612	3	15	0	80
141262	-1459	157	-854	0.9027948	-5.771458	2.814341	0	10.32	4008	-33	106	-93	0	1.11622	1.353424	3	15	0	80
141281	520	2122	719	-0.3545605	-6.236528	2.678591	0	10.32	4004	-84	389	-41	0	1.115833	1.343496	3	15	0	80
141300	40	1331	-164	0.8031983	-9.541079	1.579558	0	10.32	4003	-46	148	-32	0	1.115578	1.33275	3	15	0	80
141355	466	3180	1057	1.411948	-10.2952	1.243191	0	10.32	4003	-46	148	-32	0	1.11553	1.325792	3	15	0	80
141472	724	151	606	0.7943346	-9.316438	1.30475	0	11.17	4002	-72	-54	-43	0	1.11538	1.297347	3	15	0	80
141589	-1109	-935	833	1.089779	-9.176626	0.5910125	0	11.17	4003	62	-11	-14	0	1.115302	1.262588	3	15	0	80
141726	409	-1323	145	0.9663537	-4.447595	0.1730853	0	11.17	4004	-74	-32	-1	0	1.11523	1.211663	3	15	0	80
141775	852	2978	230	2.032292	-5.291328	0.1748825	0	11.17	4003	-110	305	0	0	1.115204	1.180331	3	15	0	80
141913	-101	3217	408	0.8803812	-9.91052	0.450366	0	11.17	4004	-73	-201	-6	0	1.115166	1.114897	3	15	0	80
142031	9	3080	-121	0.2845259	-11.80615	0.6397431	0	11.17	4003	0	179	-31	0	1.115146	1.059266	3	15	0	80
142066	121	2001	1262	0.339994	-12.51612	0.2793677	0	11.17	4003	-119	162	4	0	1.115136	1.01931	3	15	0	80
142143	-1934	729	53	-0.6781325	-11.32071	0.563313	0	11.17	4004	194	-386	-40	0	1.115128	0.9806399	3	15	0	80
142245	-2472	-1253	-1299	-4.172106	-9.809383	1.982248	0	11.17	4004	-28	-58	-67	0	1.115119	0.9277445	3	15	0	80
142347	-1492	-2699	-117	-6.205594	-6.175377	1.886085	0	10.94	4005	5	-117	-50	0	1.115112	0.8614562	3	15	0	80
142515	-1350	-940	725	-9.239587	-4.245944	0.3599314	0	10.94	4002	2	-49	-4	0	1.115104	0.7788986	3	15	0	80
142564	-140	-1746	-1091	-9.528645	-3.462123	0.09808995	0	10.94	4004	-13	-127	-7	0	1.115102	0.7571475	3	15	0	80
142686	1257	3796	175	-5.461076	-7.491542	-0.02812027	0	10.94	4004	14	-130	-9	0	1.1151	0.6971887	3	15	0	80
142871	-4789	-713	744	-5.850153	-7.556873	-3.62853	0	10.94	4003	152	-77	74	0	1.115097	0.6207814	3	15	0	80
142952	1811	953	-102	-6.223851	-7.164528	-3.048407	0	10.94	4003	0	0	0	0	1.115096	0.5899478	3	15	0	80
143071	6092	-137	-862	2.954452	-6.795389	-0.9806677	0	10.94	4002	0	0	0	0	1.115095	0.5499627	3	15	0	80
143195	2248	-9318	-680	12.97754	-5.989237	0.6884441	0	10.94	4004	0	0	0	0	1.115094	0.4988544	3	15	0	80
143323	1724	-4588	947	12.4935	-2.324262	-10.4894	0	11.34	4003	0	0	0	0	1.115094	0.4329987	3	15	0	80
143393	387	308	591	11.32916	-1.346447	-10.52564	0	11.34	4004	0	0	0	0	1.115094	0.3798163	3	15	0	80
143519	206	381	-224	8.55479	-0.142983	-11.29269	0	11.34	4003	0	0	0	0	1.115094	0.3292262	1	15	0	80
143696	98	284	65	6.126468	-0.1270767	-11.2914	0	11.34	4003	0	0	0	0	1.115094	0.2286049	1	15	0	80
143801	154	301	98	5.168782	-0.1445661	-11.31891	0	11.34	4002	0	0	0	0	1.115094	0.1964345	1	15	0	80
143856	-201	-149	63	4.893347	-0.2013119	-11.31629	0	11.34	4004	0	0	0	0	1.115094	0.1800511	1	15	0	80
143957	-162	-64	61	4.033198	-0.129433	-11.32546	0	11.34	4002	0	0	0	0	1.115094	0.1654214	1	15	0	80
144114	-64	-13	-28	2.89056	-0.1019377	-11.35708	0	11.34	4003	0	0	0	0	1.115094	0.1506077	1	15	0	80
144162	-117	-126	10	2.659156	-0.0287743	-11.35262	0	11.51	4002	0	0	0	0	1.115094	0.1392935	1	15	0	80
144276	-32	15	1	1.945094	-0.04052415	-11.37451	0	11.51	4003	0	0	0	0	1.115094	0.1225743	1	15	0	80
144380	-47	10	18	1.326287	-0.009423229	-11.38325	0	11.51	4003	0	0	0	0	1.115094	0.1018633	1	15	0	80
144468	-46	34	49	1.046821	0.01213664	-11.39297	0	11.51	4004	0	0	0	0	1.115094	0.08260078	1	15	0	80
144614	-78	10	-6	0.485916	0.02183546	-11.41443	0	11.51	4004	0	0	0	0	1.115094	0.06100579	1	15	0	80
144675	-52	-15	-3	0.3826221	0.03293031	-11.41725	0	11.51	4003	0	0	0	0	1.115094	0.05804973	1	15	0	80
144826	-56	0	-22	-0.04963287	0.05585212	-11.43877	0	11.51	4004	0	0	0	0	1.115094	0.0536238	1	15	0	80
144926	-56	5	14	-0.2626827	0.06310092	-11.45173	0	11.51	4003	0	0	0	0	1.115094	0.03874438	1	15	0	80
144982	-61	-2	2	-0.3873791	0.07254121	-11.46017	0	11.51	4004	0	0	0	0	1.115094	0.02916535	1	15	0	80
145074	-50	1	9	-0.4979988	0.07702508	-11.46603	0	11.4	4004	0	0	0	0	1.115094	0.01810118	1	15	0	80
145204	-55	2	9	-0.7035639	0.08189478	-11.48218	0	11.4	4002	0	0	0	0	1.115094	-0.00590348	1	15	0	80
145279	-62	-2	8	-0.835463	0.08182422	-11.49343	0	11.4	4004	0	0	0	0	1.115094	-0.01451948	1	15	0	80
145358	-45	1	11	-0.9091378	0.08552518	-11.5015	0	11.4	4002	0	0	0	0	1.115094	-0.02080054	1	15	0	80
145474	-63	1	10	-1.020295	0.08871013	-11.51256	0	11.4	4003	0	0	0	0	1.115094	-0.02871745	1	15	0	80
145571	-57	4	5	-1.118735	0.09004477	-11.52418	0	11.4	4004	0	0	0	0	1.115094	-0.03226155	1	15	0	80
145662	-57	-4	5	-1.192678	0.09877143	-11.53457	0	11.4	4003	0	0	0	0	1.115094	-0.03392829	1	15	0	80
145851	-54	1	8	-1.30735	0.1019555	-11.55261	0	11.4	4003	0	0	0	0	1.115094	-0.03970325	1	15	0	80
145904	-47	-2	7	-1.346721	0.09806517	-11.56166	0	11.4	4003	0	0	0	0	1.115094	-0.04639289	1	15	0	80
145978	-59	5	4	-1.376247	0.103087	-11.56936	0	11.51	4004	0	0	0	0	1.115094	-0.04915824	1	15	0	80
146045	-53	1	4	-1.42119	0.1017853	-11.58153	0	11.51	4004	0	0	0	0	1.115094	-0.05292596	1	15	0	80
146149	-52	0	3	-1.464748	0.1020401	-11.59272	0	11.51	4002	0	0	0	0	1.115094	-0.05589106	1	15	0	80
146311	-46	2	4	-1.498539	0.1021807	-11.61075	0	11.51	4002	0	0	0	0	1.115094	-0.05061014	1	15	0	80
146453	-58	0	4	-1.528471	0.104794	-11.6217	0	11.51	4004	0	0	0	0	1.115094	-0.04079068	1	15	0	80
146539	-51	3	9	-1.55772	0.09956165	-11.63485	0	11.51	4004	0	0	0	0	1.115094	-0.03784684	1	15	0	80
146591	-48	2	3	-1.565137	0.09481651	-11.6423	0	11.51	4004	0	0	0	0	1.115094	-0.03555659	1	15	0	80
146689	-55	0	4	-1.581734	0.0991733	-11.65398	0	11.51	4003	0	0	0	0	1.115094	-0.03783488	1	15	0	80
146777	-56	6	8	-1.590066	0.1083449	-11.66358	0	11.51	4002	0	0	0	0	1.115094	-0.05419529	1	15	0	80
146910	-50	1	0	-1.618494	0.1128293	-11.68101	0	11.57	4004	0	0	0	0	1.115094	-0.06531298	1	15	0	80
146961	-43	0	7	-1.623236	0.1113983	-11.68492	0	11.57	4004	0	0	0	0	1.115094	-0.06902327	1	15	0	80
147025	-47	3	9	-1.625495	0.1082765	-11.69122	0	11.57	4003	0	0	0	0	1.115094	-0.06975311	1	15	0	80
147162	-57	-3	3	-1.64033	0.1066298	-11.70467	0	11.57	4002	0	0	0	0	1.115094	-0.06838726	1	15	0	80
147235	-52	0	12	-1.646227	0.1049209	-11.71457	0	11.57	4002	0	0	0	0	1.115094	-0.06670479	1	15	0	80
147336	-55	6	4	-1.648743	0.1058662	-11.72246	0	11.57	4003	0	0	0	0	1.115094	-0.07014946	1	15	0	80
147446	-44	1	7	-1.648106	0.1039625	-11.74025	0	11.57	4003	0	0	0	0	1.115094	-0.07611179	1	15	0	80
147538	-46	-1	6	-1.649731	0.1080307	-11.74582	0	11.57	4004	0	0	0	0	1.115094	-0.08002745	1	15	0	80
147671	-47	3	4	-1.659864	0.1096187	-11.75878	0	11.57	4004	0	0	0	0	1.115094	-0.08232187	1	15	0	80
147742	-49	-2	8	-1.662293	0.112028	-11.7644	0	11.57	4004	0	0	0	0	1.115094	-0.08517151	1	15	0	80
147839	-57	-2	8	-1.671312	0.109916	-11.77693	0	11.51	4003	0	0	0	0	1.115094	-0.09318217	1	15	0	80
147979	-48	2	3	-1.67012	0.1084805	-11.79002	0	11.51	4004	0	0	0	0	1.115094	-0.11375	1	15	0	80
148032	-41	1	2	-1.665725	0.1071326	-11.79429	0	11.51	4004	0	0	0	0	1.115094	-0.1231626	1	15	0	80
148135	-44	4	1	-1.658698	0.1061515	-11.80346	0	11.51	4003	0	0	0	0	1.115094	-0.1355262	1	15	0	80
148238	-50	0	4	-1.660612	0.1074322	-11.81245	0	11.51	4003	0	0	0	0	1.115094	-0.1455332	1	15	0	80
148350	-40	-5	5	-1.66007	0.1069007	-11.82217	0	11.51	4003	0	0	0	0	1.115094	-0.1531353	1	15	0	80
148500	-43	0	6	-1.657791	0.1089547	-11.83452	0	11.51	4002	0	0	0	0	1.115094	-0.1622234	1	15	0	80
148625	-45	0	1	-1.65722	0.1061661	-11.84461	0	11.51	4002	0	0	0	0	1.115094	-0.1553865	1	15	0	80
148671	-52	0	7	-1.659463	0.109768	-11.8473	0	11.51	4002	0	0	0	0	1.115094	-0.1479933	1	15	0	80
148818	-55	-6	6	-1.662988	0.1139079	-11.86185	0	11.57	4004	0	0	0	0	1.115094	-0.1394735	1	15	0	80
148871	-47	-1	3	-1.660806	0.1159569	-11.86637	0	11.57	4002	0	0	0	0	1.115094	-0.1362873	1	15	0	80
148952	-48	-2	7	-1.65425	0.1126237	-11.87566	0	11.57	4004	0	0	0	0	1.115094	-0.1335685	1	15	0	80
149079	-49	1	2	-1.659521	0.1174885	-11.88422	0	11.57	4003	0	0	0	0	1.115094	-0.1281113	1	15	0	80
149160	-54	3	8	-1.657469	0.1151876	-11.89345	0	11.57	4003	0	0	0	0	1.115094	-0.1240576	1	15	0	80
149300	-47	-3	6	-1.655377	0.1106899	-11.90685	0	11.57	4004	0	0	0	0	1.115094	-0.1133879	1	15	0	80
149436	-46	-3	7	-1.648555	0.1154282	-11.91846	0	11.57	4002	0	0	0	0	1.115094	-0.1132587	1	15	0	80
149514	-47	0	7	-1.653217	0.114522	-11.92237	0	11.57	4004	0	0	0	0	1.115094	-0.1156305	1	15	0	80
149580	-50	-2	5	-1.649614	0.1124856	-11.92824	0	11.57	4003	0	0	0	0	1.115094	-0.1131755	1	15	0	80
149669	-54	-5	0	-1.656403	0.1092355	-11.93631	0	11.51	4004	0	0	0	0	1.115094	-0.1180402	1	15	0	80
149736	-44	1	1	-1.658668	0.1127249	-11.93998	0	11.51	4002	0	0	0	0	1.115094	-0.1202622	1	15	0	80
149840	-40	0	2	-1.656367	0.1099356	-11.9486	0	11.51	4004	0	0	0	0	1.115094	-0.1221798	1	15	0	80
149974	-45	-1	5	-1.65299	0.1058378	-11.95808	0	11.51	4003	0	0	0	0	1.115094	-0.1331359	1	15	0	80
150033	-47	1	2	-1.649922	0.1075808	-11.9634	0	11.51	4002	0	0	0	0	1.115094	-0.1364723	1	15	0	80
150181	-50	3	-3	-1.653391	0.1082105	-11.9714	0	11.51	4002	0	0	0	0	1.115094	-0.1367549	1	15	0	80
150284	-55	6	5	-1.656541	0.1151758	-11.98381	0	11.51	4004	0	0	0	0	1.115094	-0.1378615	1	15	0	80
150343	-49	-14	5	-1.655595	0.1188105	-11.98779	0	11.51	4002	0	0	0	0	1.115094	-0.1405596	1	15	0	80
150494	-48	-4	3	-1.649366	0.1181816	-11.99965	0	11.51	4002	0	0	0	0	1.115094	-0.1353146	1	15	0	80
150541	-50	4	11	-1.64831	0.1190706	-12.00197	0	11.51	4004	0	0	0	0	1.115094	-0.1362066	1	15	0	80
150668	-44	0	6	-1.636137	0.1210088	-12.01401	0	11.51	4004	0	0	0	0	1.115094	-0.1319513	1	15	0	80
150754	-47	4	1	-1.642634	0.1238828	-12.02172	0	11.51	4004	0	0	0	0	1.115094	-0.1207953	1	15	0	80
150828	-49	5	9	-1.640982	0.1228015	-12.02801	0	11.51	4002	0	0	0	0	1.115094	-0.1153325	1	15	0	80
150981	-44	2	8	-1.635151	0.122565	-12.0381	0	11.51	4003	0	0	0	0	1.115094	-0.09442305	1	15	0	80
151072	-48	0	9	-1.637048	0.1267371	-12.04311	0	11.51	4003	0	0	0	0	1.115094	-0.08083232	1	15	0	80
151132	-39	0	2	-1.639518	0.128323	-12.04757	0	11.51	4003	0	0	0	0	1.115094	-0.06969804	1	15	0	80
151213	-35	-6	3	-1.63945	0.128609	-12.05417	0	11.51	4003	0	0	0	0	1.115094	-0.05239626	1	15	0	80
151396	-54	5	6	-1.636353	0.1330088	-12.06481	0	11.51	4002	0	0	0	0	1.115094	-0.0314182	1	15	0	80
151495	-40	0	7	-1.639249	0.1275441	-12.07067	0	11.57	4004	0	0	0	0	1.115094	-0.0307385	1	15	0	80
151584	-47	-2	8	-1.646036	0.1221315	-12.08236	0	11.57	4003	0	0	0	0	1.115094	-0.03853432	1	15	0	80
151739	-50	2	1	-1.64056	0.1150147	-12.09403	0	11.57	4004	0	0	0	0	1.115094	-0.05851337	1	15	0	80
151829	-40	-1	4	-1.637947	0.1129989	-12.10283	0	11.57	4002	0	0	0	0	1.115094	-0.06554552	1	15	0	80
151903	-49	0	5	-1.634129	0.1133414	-12.10754	0	11.57	4002	0	0	0	0	1.115094	-0.0730962	1	15	0	80
152074	-41	0	12	-1.622647	0.1064726	-12.12295	0	11.57	4004	0	0	0	0	1.115094	-0.09255911	1	15	0	80
152240	-46	0	1	-1.618417	0.1045486	-12.13468	0	11.57	4002	0	0	0	0	1.115094	-0.1024259	1	15	0	80
152265	-40	4	5	-1.619066	0.104295	-12.13951	0	11.63	4003	0	0	0	0	1.115094	-0.1043804	1	15	0	80
152329	-43	1	-2	-1.617667	0.1018663	-12.14386	0	11.63	4003	0	0	0	0	1.115094	-0.1095179	1	15	0	80
152500	-38	0	0	-1.607442	0.1071633	-12.1537	0	11.63	4004	0	0	0	0	1.115094	-0.1233147	1	15	0	80
152584	-47	-1	0	-1.612692	0.1069188	-12.16146	0	11.63	4003	0	0	0	0	1.115094	-0.1279064	1	15	0	80
152729	-41	2	0	-1.615202	0.1068482	-12.17002	0	11.63	4003	0	0	0	0	1.115094	-0.1298494	1	15	0	80
152864	-36	-3	6	-1.604648	0.1070074	-12.17852	0	11.63	4004	0	0	0	0	1.115094	-0.1216935	1	15	0	80
152928	-40	-1	2	-1.615445	0.1101626	-12.1842	0	11.63	4004	0	0	0	0	1.115094	-0.1214933	1	15	0	80
153028	-52	3	4	-1.611661	0.1052158	-12.19141	0	11.63	4002	0	0	0	0	1.115094	-0.1251521	1	15	0	80
153120	-49	-3	4	-1.609568	0.1020844	-12.19936	0	11.57	4002	0	0	0	0	1.115094	-0.1332543	1	15	0	80
153153	-48	4	4	-1.609642	0.1059239	-12.20266	0	11.57	4003	0	0	0	0	1.115094	-0.1342836	1	15	0	80
153331	-52	8	6	-1.609994	0.1089029	-12.21403	0	11.57	4002	0	0	0	0	1.115094	-0.1392051	1	15	0	80
153362	-44	1	4	-1.604999	0.1097785	-12.21623	0	11.57	4003	0	0	0	0	1.115094	-0.1363128	1	15	0	80
153444	-38	3	4	-1.600778	0.1111777	-12.22277	0	11.57	4002	0	0	0	0	1.115094	-0.1293815	1	15	0	80
153560	-45	0	6	-1.597116	0.108239	-12.2306	0	11.57	4003	0	0	0	0	1.115094	-0.1272247	1	15	0	80
153679	-38	0	7	-1.603682	0.1113929	-12.23898	0	11.57	4004	0	0	0	0	1.115094	-0.1277125	1	15	0	80
153833	-39	3	0	-1.613627	0.114494	-12.24716	0	11.57	4003	0	0	0	0	1.115094	-0.1291197	1	15	0	80
153888	-41	9	6	-1.617218	0.1168258	-12.25083	0	11.57	4003	0	0	0	0	1.115094	-0.1285316	1	15	0	80
154023	-41	7	5	-1.626138	0.1144487	-12.26354	0	11.57	4003	0	0	0	0	1.115094	-0.1274631	1	15	0	80
154114	-52	0	1	-1.627616	0.1129782	-12.26831	0	11.57	4004	0	0	0	0	1.115094	-0.1198248	1	15	0	80
154285	-42	0	8	-1.618593	0.1145523	-12.28249	0	11.57	4003	0	0	0	0	1.115094	-0.1150524	1	15	0	80
154323	-50	-2	4	-1.615532	0.1172674	-12.28524	0	11.57	4002	0	0	0	0	1.115094	-0.1167255	1	15	0	80
154424	-46	7	1	-1.607708	0.121537	-12.29184	0	11.57	4002	0	0	0	0	1.115094	-0.1188228	1	15	0	80
154637	-41	-1	8	-1.60845	0.120339	-12.30462	0	11.57	4004	0	0	0	0	1.115094	-0.1157214	1	15	0	80
154715	-42	3	6	-1.60161	0.1206491	-12.31006	0	11.57	4003	0	0	0	0	1.115094	-0.1158829	1	15	0	80
154922	-41	1	3	-1.60571	0.1142615	-12.32296	0	11.51	4002	0	0	0	0	1.115094	-0.1235081	1	15	0	80
155005	-38	-1	8	-1.606111	0.1147191	-12.33139	0	11.51	4002	0	0	0	0	1.115094	-0.1217065	1	15	0	80
155118	-52	0	1	-1.611158	0.1126045	-12.33708	0	11.51	4004	0	0	0	0	1.115094	-0.1209989	1	15	0	80
155239	-31	2	2	-1.600923	0.1207667	-12.34704	0	11.51	4003	0	0	0	0	1.115094	-0.122093	1	15	0	80
155366	-43	5	6	-1.611646	0.1183642	-12.35315	0	11.51	4003	0	0	0	0	1.115094	-0.1232774	1	15	0	80
155385	-43	5	6	-1.611646	0.1183642	-12.35315	0	11.51	4003	0	0	0	0	1.115094	-0.1232774	1	15	0	80
155476	-43	-1	7	-1.60913	-12.36355	-12.36367	0	11.51	4004	0	0	0	0	1.115094	-0.1259946	1	15	0	80
155661	-44	4	7	-1.607188	0.1148092	-12.37339	0	11.51	4004	0	0	0	0	1.115094	-0.1426266	1	15	0	80
155733	-33	6	0	-1.605958	0.1141459	-12.37767	0	11.51	4003	0	0	0	0	1.115094	-0.1478719	1	15	0	80
155798	-41	0	0	-1.600068	0.1121593	-12.38329	0	11.57	4003	0	0	0	0	1.115094	-0.1524421	1	15	0	80
155903	-36	5	6	-1.596956	0.1137184	-12.38995	0	11.57	4003	0	0	0	0	1.115094	-0.1601656	1	15	0	80
155979	-47	3	0	-1.598516	0.1105092	-12.39814	0	11.57	4002	0	0	0	0	1.115094	-0.1653866	1	15	0	80
156057	-40	0	3	-1.598199	0.1152733	-12.40254	0	11.57	4002	0	0	0	0	1.115094	-0.1716846	1	15	0	80
156190	-44	1	1	-1.599732	0.1127414	-12.41299	0	11.57	4002	0	0	0	0	1.115094	-0.1734686	1	15	0	80
156279	-43	7	0	-1.598931	0.109832	-12.4188	0	11.57	4004	0	0	0	0	1.115094	-0.1723506	1	15	0	80
156341	-40	2	3	-1.594136	0.1107327	-12.42283	0	11.57	4004	0	0	0	0	1.115094	-0.1697648	1	15	0	80
156460	-42	4	5	-1.590997	0.1060647	-12.42968	0	11.57	4004	0	0	0	0	1.115094	-0.157667	1	15	0	80
156531	-44	2	2	-1.591368	0.0990885	-12.43537	0	11.57	4004	0	0	0	0	1.115094	-0.1524563	1	15	0	80
156662	-38	0	9	-1.602724	0.09394886	-12.44466	0	11.57	4002	0	0	0	0	1.115094	-0.1397197	1	15	0	80
156758	-42	1	3	-1.60069	0.09445893	-12.44887	0	11.57	4003	0	0	0	0	1.115094	-0.1386025	1	15	0	80
156916	-39	0	5	-1.593278	0.0960758	-12.46214	0	11.57	4003	0	0	0	0	1.115094	-0.1289633	1	15	0	80
156976	-37	6	5	-1.594967	0.09270454	-12.46642	0	11.57	4004	0	0	0	0	1.115094	-0.1280195	1	15	0	80
157047	-39	0	4	-1.600329	0.09386358	-12.47167	0	11.57	4004	0	0	0	0	1.115094	-0.1271152	1	15	0	80
157113	-40	6	-2	-1.597152	0.09967732	-12.47571	0	11.57	4004	0	0	0	0	1.115094	-0.1282031	1	15	0	80
157225	-40	-3	5	-1.590728	0.09335946	-12.48292	0	11.57	4004	0	0	0	0	1.115094	-0.1310833	1	15	0	80
157301	-39	1	5	-1.588871	0.09553129	-12.48628	0	11.57	4004	0	0	0	0	1.115094	-0.1379973	1	15	0	80
157437	-38	5	2	-1.588535	0.08515003	-12.49386	0	11.57	4003	0	0	0	0	1.115094	-0.1441531	1	15	0	80
157558	-40	2	4	-1.581619	0.08952247	-12.49796	0	11.63	4002	0	0	0	0	1.115094	-0.1514103	1	15	0	80
157633	-51	2	1	-1.573847	0.08777685	-12.50346	0	11.63	4004	0	0	0	0	1.115094	-0.1537095	1	15	0	80
157781	-41	-3	1	-1.563527	0.09370034	-12.51232	0	11.63	4003	0	0	0	0	1.115094	-0.1490738	1	15	0	80
157831	-39	-1	3	-1.566751	0.09596123	-12.51526	0	11.63	4003	0	0	0	0	1.115094	-0.1490738	1	15	0	80
157981	-35	-2	4	-1.55847	0.1072536	-12.52375	0	11.63	4002	0	0	0	0	1.115094	-0.1470016	1	15	0	80
158056	-47	-3	0	-1.556086	0.1098486	-12.52724	0	11.63	4003	0	0	0	0	1.115094	-0.1455615	1	15	0	80
158149	-38	2	6	-1.554875	0.1042812	-12.53598	0	11.63	4002	0	0	0	0	1.115094	-0.1447702	1	15	0	80
158182	-44	4	3	-1.555281	0.104223	-12.53787	0	11.63	4002	0	0	0	0	1.115094	-0.1449516	1	15	0	80
158308	-39	1	0	-1.546062	0.1062212	-12.54252	0	11.63	4004	0	0	0	0	1.115094	-0.1550619	1	15	0	80
158420	-41	4	1	-1.538962	0.1115954	-12.54778	0	11.57	4002	0	0	0	0	1.115094	-0.1641041	1	15	0	80
158548	-40	-4	6	-1.538353	0.1160389	-12.5553	0	11.57	4002	0	0	0	0	1.115094	-0.1804722	1	15	0	80
158578	-37	2	5	-1.537616	0.1201361	-12.55609	0	11.57	4004	0	0	0	0	1.115094	-0.1868955	1	15	0	80
158744	-30	-2	4	-1.527417	0.1217192	-12.56171	0	11.57	4004	0	0	0	0	1.115094	-0.194564	1	15	0	80
158889	-40	-2	3	-1.527102	0.1206798	-12.56893	0	11.57	4003	0	0	0	0	1.115094	-0.1951421	1	15	0	80
159064	-44	0	0	-1.533019	0.1202817	-12.57919	0	11.57	4004	0	0	0	0	1.115094	-0.190602	1	15	0	80
159115	-45	3	5	-1.527357	0.1192264	-12.58194	0	11.57	4004	0	0	0	0	1.115094	-0.1872038	1	15	0	80
159220	-36	-1	5	-1.530698	0.1255289	-12.58537	0	11.57	4003	0	0	0	0	1.115094	-0.182501	1	15	0	80
