time(ms)	gyro_x(deg/s)	gyro_y(deg/s)	gyro_z(deg/s)	orientation_roll(deg)	orientation_pitch(deg)	orientation_yaw(deg)	throttle	battery(V)	loop_time(uS)	pid_output_roll	pid_output_pitch	pid_output_yaw	pid_output_throttle	ultrasonic_alt	baro_alt	flight_mode	p_gain_altitude	i_gain_altitude	d_gain_altitude
95622	-52	-1	49	-1.212867	-1.112287	0.3728763	0	11.74	4003	0	0	0	0	1.17889	0.05419903	1	15	0	40
95656	-41	4	19	-1.20379	-1.073647	0.371531	0	11.74	4004	0	0	0	0	1.17889	0.0502573	1	15	0	40
95821	-6	-3	-58	-1.17788	-0.8369444	0.3574074	0	11.74	4002	0	0	0	0	1.17889	0.02690378	1	15	0	40
95923	-34	-21	-10	-1.166235	-0.7218347	0.3489082	0	11.74	4002	0	0	0	0	1.17889	0.01440815	1	15	0	40
96045	-38	-1	-18	-1.145597	-0.6207555	0.3456666	0	11.74	4004	0	0	0	0	1.17889	-0.002555004	1	15	0	40
96086	-25	12	22	-1.139191	-0.5924751	0.3437109	0	11.74	4004	0	0	0	0	1.17889	-0.01481256	1	15	0	40
96176	-31	0	16	-1.117935	-0.4977558	0.3361277	0	11.74	4004	0	0	0	0	1.17889	-0.02551211	1	15	0	40
96261	-27	-5	-4	-1.098268	-0.4069012	0.3239641	0	11.74	4004	0	0	0	0	1.17889	-0.03285448	1	15	0	40
96363	-30	-7	6	-1.090326	-0.3448652	0.3149769	0	11.74	4003	0	0	0	0	1.17889	-0.03971688	1	15	0	40
96465	-26	0	8	-1.082841	-0.3078302	0.3091685	0	11.74	4004	0	0	0	0	1.17889	-0.05052595	1	15	0	40
96580	-32	2	5	-1.063104	-0.2454449	0.2993254	0	11.74	4002	0	0	0	0	1.17889	-0.05807659	1	15	0	40
96674	-32	0	4	-1.063556	-0.1983049	0.2905214	0	11.74	4003	0	0	0	0	1.17889	-0.06954956	1	15	0	40
96867	-27	0	7	-1.050838	-0.1451812	0.2781104	0	11.74	4002	0	0	0	0	1.17889	-0.07479352	1	15	0	40
96952	-29	-2	7	-1.046745	-0.1180461	0.268939	0	11.74	4002	0	0	0	0	1.17889	-0.0725278	1	15	0	40
97005	-27	5	5	-1.042379	-0.1000501	0.2619082	0	11.74	4003	0	0	0	0	1.17889	-0.0708761	1	15	0	40
97089	-29	4	0	-1.043064	-0.08188657	0.2559163	0	11.74	4003	0	0	0	0	1.17889	-0.06616097	1	15	0	40
97172	-32	-2	7	-1.043044	-0.0546781	0.2471121	0	11.8	4003	0	0	0	0	1.17889	-0.06264507	1	15	0	40
97270	-24	-1	3	-1.037681	-0.03960656	0.2401428	0	11.8	4003	0	0	0	0	1.17889	-0.052361	1	15	0	40
97373	-30	6	2	-1.03577	-0.03513828	0.2343962	0	11.8	4003	0	0	0	0	1.17889	-0.03956708	1	15	0	40
97594	-28	-1	6	-1.023075	-0.002029261	0.2150767	0	11.8	4002	0	0	0	0	1.17889	-0.01835759	1	15	0	40
97834	-33	0	4	-1.018971	0.02175443	0.1981419	0	11.8	4004	0	0	0	0	1.17889	-0.005065412	1	15	0	40
98011	-30	0	1	-1.010956	0.03466133	0.1848741	0	11.8	4003	0	0	0	0	1.17889	-0.007791451	1	15	0	40
98106	-28	-1	4	-1.007774	0.0410781	0.1776596	0	11.8	4004	0	0	0	0	1.17889	-0.007650784	1	15	0	40
98188	-26	2	7	-1.00942	0.04646017	0.1719131	0	11.8	4002	0	0	0	0	1.17889	-0.006162794	1	15	0	40
98361	-28	-2	1	-1.003932	0.05800397	0.1615193	0	11.8	4004	0	0	0	0	1.17889	-0.01111891	1	15	0	40
98438	-24	-3	6	-1.002633	0.0582014	0.1564447	0	11.8	4003	0	0	0	0	1.17889	-0.01739646	1	15	0	40
98508	-29	6	3	-0.9957021	0.05860943	0.1520428	0	11.8	4003	0	0	0	0	1.17889	-0.03136467	1	15	0	40
98602	-24	1	5	-0.9987838	0.06527366	0.1455621	0	11.8	4004	0	0	0	0	1.17889	-0.03831901	1	15	0	40
98738	-29	1	2	-1.002631	0.05496973	0.1368182	0	11.8	4003	0	0	0	0	1.17889	-0.04891234	1	15	0	40
98843	-25	0	6	-0.9983603	0.05777893	0.1311934	0	11.8	4004	0	0	0	0	1.17889	-0.05995258	1	15	0	40
98997	-27	3	8	-0.9989869	0.06503133	0.1247132	0	11.8	4004	0	0	0	0	1.17889	-0.06504014	1	15	0	40
99081	-23	-2	1	-0.9951406	0.06730325	0.117315	0	11.85	4004	0	0	0	0	1.17889	-0.06770113	1	15	0	40
99156	-26	-1	2	-0.9894745	0.06749474	0.1127298	0	11.85	4002	0	0	0	0	1.17889	-0.07213917	1	15	0	40
99309	-23	4	4	-0.9839319	0.06887017	0.1022139	0	11.85	4004	0	0	0	0	1.17889	-0.07239413	1	15	0	40
99423	-35	-4	5	-0.9852688	0.07643353	0.09579492	0	11.85	4003	0	0	0	0	1.17889	-0.06782582	1	15	0	40
99617	-27	-1	4	-0.986979	0.08447946	0.08301714	0	11.85	4003	0	0	0	0	1.17889	-0.06909328	1	15	0	40
99770	-26	5	0	-0.9869124	0.08644643	0.07439674	0	11.85	4004	0	0	0	0	1.17889	-0.06736378	1	15	0	40
99889	-27	0	3	-0.9808961	0.0835498	0.06907697	0	11.85	4004	0	0	0	0	1.17889	-0.06225866	1	15	0	40
99923	-22	-1	5	-0.978345	0.08108414	0.06443021	0	11.8	4003	0	0	0	0	1.17889	-0.06268828	1	15	0	40
100023	-23	1	2	-0.9828838	0.08000518	0.05941667	0	11.8	4003	0	0	0	0	1.17889	-0.06620094	1	15	0	40
100101	-27	-3	5	-0.9812903	0.07854047	0.05574827	0	11.8	4002	0	0	0	0	1.17889	-0.07222635	1	15	0	40
100192	-19	3	6	-0.9781438	0.07682772	0.05336402	0	11.8	4002	0	0	0	0	1.17889	-0.07408537	1	15	0	40
100384	-31	1	4	-0.9905911	0.07825418	0.04325968	0	11.8	4004	0	0	0	0	1.17889	-0.0987937	1	15	0	40
100515	-28	0	7	-0.9941582	0.07063379	0.03320078	0	11.8	4002	0	0	0	0	1.17889	-0.1244855	1	15	0	80
100673	-20	1	1	-0.9818737	0.07144497	0.0295934	0	11.8	4003	0	0	0	0	1.17889	-0.1521404	1	15	0	80
100827	-29	5	4	-0.977031	0.06716772	0.02115543	0	11.8	4002	0	0	0	0	1.17889	-0.1601482	1	15	0	80
100925	-27	-1	6	-0.9803081	0.06973092	0.01773143	0	11.8	4002	0	0	0	0	1.17889	-0.1541563	1	15	0	80
100992	-18	-1	6	-0.9840475	0.0662217	0.01540829	0	11.8	4004	0	0	0	0	1.17889	-0.1495516	1	15	0	80
101170	-18	6	0	-0.9737975	0.06880827	0.00354766	0	11.8	4004	0	0	0	0	1.17889	-0.1263933	1	15	0	80
101328	-21	2	3	-0.9625494	0.06557612	-0.001893241	0	11.8	4004	0	0	0	0	1.17889	-0.1081186	1	15	0	80
101402	-23	3	6	-0.9673783	0.06547897	-0.005928569	0	11.8	4002	0	0	0	0	1.17889	-0.0990885	1	15	0	80
101614	-22	-5	4	-0.960715	0.07025354	-0.01448847	0	11.8	4004	0	0	0	0	1.17889	-0.09227084	1	15	0	80
101785	-34	5	3	-0.9579174	0.06694132	-0.02225355	0	11.8	4003	0	0	0	0	1.17889	-0.09622452	1	15	0	80
101856	-17	0	5	-0.956769	0.06341585	-0.02616663	0	11.8	4004	0	0	0	0	1.17889	-0.09374052	1	15	0	80
101973	-26	-7	3	-0.956543	0.05998851	-0.0324645	0	11.8	4003	0	0	0	0	1.17889	-0.08558309	1	15	0	80
102034	-17	4	3	-0.953608	0.06569606	-0.03546049	0	11.8	4002	0	0	0	0	1.17889	-0.08070353	1	15	0	80
102091	-22	0	1	-0.9541534	0.06095031	-0.03784473	0	11.8	4004	0	0	0	0	1.17889	-0.07318097	1	15	0	80
102178	-25	0	0	-0.9543973	0.06384291	-0.0420634	0	11.8	4004	0	0	0	0	1.17889	-0.06564268	1	15	0	80
102317	-14	-1	4	-0.9649278	0.0586796	-0.046893	0	11.8	4002	0	0	0	0	1.17889	-0.04482991	1	15	0	80
102474	-22	-8	2	-0.9529386	0.0612927	-0.05477947	0	11.8	4002	0	0	0	0	1.17889	-0.03794518	1	15	0	80
102514	-19	3	3	-0.9526033	0.06508528	-0.05728606	0	11.8	4003	0	0	0	0	1.17889	-0.03428247	1	15	0	80
102633	-20	2	2	-0.9483476	0.06350018	-0.0607099	0	11.8	4003	0	0	0	0	1.17889	-0.03453574	1	15	0	80
102727	-24	2	6	-0.9443088	0.05852759	-0.06615099	0	11.85	4004	0	0	0	0	1.17889	-0.0347336	1	15	0	80
102795	-24	3	0	-0.9459418	0.05949767	-0.06804646	0	11.85	4004	0	0	0	0	1.17889	-0.03340491	1	15	0	80
102879	-26	-1	3	-0.943827	0.05464344	-0.07098115	0	11.85	4003	0	0	0	0	1.17889	-0.03131862	1	15	0	80
103009	-29	1	-1	-0.9396517	0.05399508	-0.07581107	0	11.85	4003	0	0	0	0	1.17889	-0.02428811	1	15	0	80
103107	-18	0	0	-0.9366969	0.05373742	-0.08039617	0	11.85	4002	0	0	0	0	1.17889	-0.02627101	1	15	0	80
103206	-25	3	-1	-0.9323969	0.05180794	-0.08296414	0	11.85	4003	0	0	0	0	1.17889	-0.03282867	1	15	0	80
103319	-25	2	3	-0.9343594	0.05538748	-0.08540977	0	11.85	4004	0	0	0	0	1.17889	-0.03628737	1	15	0	80
103380	-19	0	0	-0.9336451	0.05462388	-0.0860822	0	11.85	4004	0	0	0	0	1.17889	-0.03988013	1	15	0	80
103485	-20	-1	1	-0.9284492	0.06183442	-0.09054454	0	11.85	4002	0	0	0	0	1.17889	-0.03670938	3	15	0	80
103576	-23	7	0	-0.93033	0.06328028	-0.09445744	0	11.85	4003	0	0	0	0	1.17889	-0.03147726	3	15	0	80
103719	-18	-1	6	-0.930744	0.06586517	-0.09904247	0	11.85	4003	0	0	0	0	1.17889	-0.02523652	3	15	0	80
103798	-18	-2	0	-0.9302772	0.06567509	-0.1046059	0	11.85	4004	0	0	0	0	1.17889	-0.02699632	3	15	0	80
103886	-20	1	4	-0.9296002	0.0712415	-0.1069297	0	11.85	4004	0	0	0	0	1.17889	-0.0270375	3	15	0	80
104004	-29	0	3	-0.9271254	0.0725432	-0.1096199	0	11.85	4004	0	0	0	0	1.17889	-0.03176802	3	15	0	80
104084	-24	1	0	-0.9297293	0.0750578	-0.110109	0	11.85	4004	2	0	0	0	1.17889	-0.03134435	3	15	0	80
104211	-20	7	39	-0.9208306	0.06733007	-0.1191564	0	11.85	4004	0	-3	0	0	1.17889	-0.04059263	3	15	0	80
104355	-14	-103	-56	-0.8892311	0.03748029	-0.1181706	0	11.85	4003	2	-7	0	0	1.17889	-0.04802525	3	15	0	80
104450	31	46	-16	-0.8823525	0.05290867	-0.117183	0	11.85	4004	-1	-2	2	0	1.17889	-0.05114632	3	15	0	80
104534	-194	-133	44	-0.8884997	0.08238058	-0.1728119	0	11.74	4002	8	-2	3	0	1.17889	-0.05442772	3	15	0	80
104597	-162	-240	32	-0.9382427	0.1125843	-0.1357644	0	11.74	4003	-1	25	3	0	1.17889	-0.05470615	3	15	0	80
104701	90	83	-116	-1.007569	0.1331701	-0.1502578	0	11.74	4004	5	0	0	0	1.17889	-0.0552459	3	15	0	80
104823	-109	-45	3	-1.002043	0.13685	-0.17209	0	11.74	4003	0	0	0	0	1.17889	-0.05747275	3	15	0	80
104928	-33	-37	-52	-0.9802282	0.1137338	-0.1682888	0	11.74	4004	0	0	0	0	1.17889	-0.06465632	3	15	0	80
105094	10	5	5	-0.9263108	0.03666909	-0.168043	0	11.74	4003	0	0	0	0	1.17889	-0.06115554	3	15	0	80
105170	-73	8	-120	-0.9436474	0.06387457	-0.1783225	0	11.74	4002	2	5	0	0	1.17889	-0.04971186	3	15	0	80
105304	8	58	-40	-0.9709501	0.08806805	-0.2087796	0	11.74	4003	5	-14	1	0	1.17889	-0.04197033	3	15	0	80
105407	-39	-51	140	-0.9877017	0.1016804	-0.2228512	0	11.74	4004	5	-27	1	0	1.17889	-0.04533729	3	15	0	80
105549	94	78	72	-0.9668283	0.10471	-0.2167289	0	11.74	4003	10	-12	3	0	1.17889	-0.04059305	3	15	0	80
105635	193	126	-60	-0.9811624	0.09987371	-0.239954	0	11.74	4004	12	-27	1	0	1.17889	-0.03163659	3	15	0	80
105731	-8	-29	-15	-0.9741781	0.1542841	-0.2594041	0	11.74	4002	-11	18	0	0	1.17889	-0.02090542	3	15	0	80
105824	-60	-99	-66	-0.9681398	0.1419454	-0.2622722	0	11.74	4002	-9	23	0	0	1.17889	-0.006245626	3	15	0	80
106091	27	1	23	-0.906833	0.05338125	-0.250291	0	11.74	4003	0	0	0	0	1.17889	0.01379162	3	15	0	80
106170	-68	23	-31	-0.914309	0.05475267	-0.2358002	0	11.74	4003	4	0	0	0	1.17889	0.01237484	3	15	0	80
106219	-35	-35	-31	-0.9388151	0.09675626	-0.2504696	0	11.74	4003	6	-2	1	0	1.17889	0.0117088	3	15	0	80
106379	56	37	33	-0.9213766	0.1548432	-0.2288229	0	11.91	4003	12	10	0	0	1.17889	0.01484051	3	15	0	80
106492	-10	81	129	-0.9706355	0.1952032	-0.216419	0	11.91	4002	22	-8	1	0	1.17889	0.01324812	3	15	0	80
106533	-72	52	104	-0.9561602	0.1733876	-0.2427034	0	11.91	4002	-36	10	-3	0	1.17889	0.01841452	3	15	0	80
106632	49	1	-82	-0.9349433	0.1636621	-0.2402486	0	11.91	4003	-50	10	-2	0	1.17889	0.02147654	3	15	0	80
106790	-66	25	-80	-0.993337	0.2053202	-0.267937	0	11.91	4004	20	13	2	0	1.17889	0.01560689	3	15	0	80
106928	-120	-69	-74	-0.9364426	0.2400536	-0.305348	0	11.91	4009	19	2	2	0	1.17889	0.001431053	3	15	0	80
107082	45	177	24	-1.014578	0.3077297	-0.3447656	0	11.91	4003	30	-18	1	0	1.17889	-0.01001191	3	15	0	80
107171	124	-19	115	-0.9748167	0.2824262	-0.4232118	0	11.91	4003	-25	1	-5	0	1.17889	-0.007591594	3	15	0	80
107256	-53	40	-376	-0.8351081	-0.07487942	-0.4588956	0	11.91	4004	69	-41	3	0	1.17889	-0.0008417644	3	15	0	80
107327	1314	949	62	-0.09655596	-0.6471776	-0.5605947	0	10.49	4004	-109	217	12	0	1.17889	0.01149445	3	15	0	80
107439	1180	1985	1518	1.633055	-1.538268	-0.7634894	0	10.49	4002	23	-13	-5	0	1.17889	0.05272359	3	15	0	80
107579	611	1097	1887	1.843409	-8.733938	-0.4684711	0	10.49	4003	-2	303	6	0	1.17889	0.09758385	3	15	0	80
107663	-1599	3443	443	1.165106	-8.955653	-0.1719006	0	10.49	4003	49	177	0	0	1.17889	0.1407493	3	15	0	80
107742	-107	503	-1033	0.1491788	-11.89186	0.240418	0	10.49	4003	-67	170	-5	0	1.17889	0.1654171	3	15	0	80
107891	-70	-549	-130	-1.075167	-15.91153	0.8757467	0	10.49	4004	117	-354	-29	0	1.17889	0.2047406	3	15	0	80
107986	-12	1203	-292	-1.110247	-16.29914	0.8291636	0	10.49	4002	-68	299	-11	0	1.17889	0.2415728	3	15	0	80
108062	986	-3458	33	-0.1903279	-14.72086	0.8820146	0	10.49	4002	-72	65	-27	0	1.17889	0.2746184	3	15	0	80
108184	924	291	1258	1.525336	-8.501108	0.7109975	0	10.49	4004	-86	-100	-12	0	1.17889	0.3439704	3	15	0	80
108301	671	-867	-137	1.373277	-7.535528	0.7437819	0	11.68	4003	-149	173	-25	0	1.17889	0.4172664	3	15	0	80
108422	-2748	-2498	521	-0.8772485	-4.962465	0.6875892	0	11.68	4004	-76	28	-26	0	1.17889	0.4932937	3	15	0	80
108454	-2117	-2636	678	-2.332974	-4.139988	0.6142907	0	11.68	4002	-11	-72	-22	0	1.17889	0.5049068	3	15	0	80
108567	514	-1786	-294	-3.08544	-2.179258	0.3527763	0	11.68	4003	-2	-69	-8	0	1.17889	0.5461462	3	15	0	80
108642	889	-1652	338	-1.934939	-0.9478955	0.1589838	0	11.68	4003	-26	-99	-15	0	1.17889	0.5801022	3	15	0	80
108740	-1325	1090	-37	-0.7307915	-3.016893	-0.2132047	0	11.68	4004	63	63	-7	0	1.17889	0.600046	3	15	0	80
108932	-477	-392	-1501	-1.88296	-7.240664	0.8300972	0	11.68	4002	56	-293	-40	0	1.17889	0.6509373	3	15	0	80
108951	561	-2426	-886	-1.862065	-7.084552	0.940438	0	11.68	4002	-35	-146	-21	0	1.17889	0.6509373	3	15	0	80
109130	249	836	1692	-1.833489	-1.717796	0.5856341	0	11.68	4002	8	222	3	0	1.17889	0.651221	3	15	0	80
109196	-1939	-1409	-87	-2.023136	-2.173246	0.08757796	0	9.87	4002	81	-317	-6	0	1.17889	0.6436467	3	15	0	80
109244	2199	1377	-1181	-1.827734	-5.005356	-0.2307416	0	9.87	4002	-79	-208	1	0	1.17889	0.6298457	3	15	0	80
109365	-188	-1473	-647	-0.7336919	-2.527129	0.7835948	0	9.87	4003	70	-233	-30	0	1.17889	0.608941	3	15	0	80
109477	3083	159	690	1.251398	-3.024929	0.7930747	0	9.87	4004	9	-182	-14	0	1.17889	0.5827951	3	15	0	80
109548	1437	2073	1261	2.330959	-3.44444	0.697535	0	9.87	4002	-55	267	0	0	1.17889	0.5667473	3	15	0	80
109776	1278	991	-2032	0.004278786	-15.27434	-1.662129	0	9.87	4002	-100	378	45	0	1.17889	0.5252048	3	15	0	80
109863	-1463	-3406	-246	-0.4221945	-13.0748	-0.7348522	0	9.87	4004	24	159	3	0	1.17889	0.5072269	3	15	0	80
110031	1711	2201	561	-1.326274	-5.466408	2.953712	0	9.87	4003	-6	-65	-76	0	1.17889	0.4957788	3	15	0	80
110117	2075	788	-192	1.501248	-7.5985	3.201787	0	10.21	4003	49	-243	-85	0	1.17889	0.4685467	3	15	0	80
110197	425	-1400	1249	3.364569	-6.847716	2.407109	0	10.21	4004	68	-229	-60	0	1.17889	0.4588747	3	15	0	80
110315	-1127	-1128	260	2.014542	-5.393613	0.6378541	0	10.21	4003	120	-226	-12	0	1.17889	0.4448966	3	15	0	80
110377	-714	-144	390	1.637716	-5.948721	0.3404163	0	10.21	4006	-75	81	6	0	1.17889	0.4342292	3	15	0	80
110531	-633	650	511	0.8850828	-7.866094	-0.107534	0	10.21	4004	-111	180	-9	0	1.17889	0.419386	3	15	0	80
110691	-745	-1389	23	-1.263483	-12.48385	0.8796093	0	10.21	4003	49	-196	-31	0	1.17889	0.3927592	3	15	0	80
110776	363	261	918	-1.229705	-12.31365	0.8534032	0	10.21	4003	72	115	-51	0	1.17889	0.3855276	3	15	0	80
110878	437	-2608	1528	-1.269806	-11.09619	0.5789859	0	10.21	4003	35	-281	-5	0	1.17889	0.3776806	3	15	0	80
110983	1263	-2555	-1288	1.212536	-8.182477	0.8876703	0	10.21	4003	94	-249	-39	0	1.17889	0.3716311	3	15	0	80
111088	127	-1303	-424	1.070022	-6.244761	1.290967	0	9.81	4004	40	235	-24	0	1.17889	0.3670301	3	15	0	80
111198	-1113	81	882	-0.6849447	-5.892376	0.7526213	0	9.81	4003	-141	235	-40	0	1.17889	0.3586952	3	15	0	80
111326	-1158	124	-107	0.8945861	-8.132615	3.553519	0	9.81	4003	-62	190	-91	0	1.17889	0.3293321	3	15	0	80
111395	-1883	-2583	84	-0.141502	-7.771191	3.311116	0	9.81	4003	-46	72	-50	0	1.17889	0.3269097	3	15	0	80
111553	-837	1549	703	-0.1729268	-5.569227	0.5356723	0	9.81	4004	-49	98	-19	0	1.17889	0.3265095	3	15	0	80
111604	-2412	-159	195	-0.9894114	-6.097394	0.2664293	0	9.81	4003	64	-31	-10	0	1.17889	0.3272711	3	15	0	80
111699	-781	-1976	471	-2.907273	-5.24882	-0.05418062	0	9.81	4004	64	-149	1	0	1.17889	0.3316373	3	15	0	80
111841	16	2275	490	-3.178207	-6.093782	0.1727833	0	9.81	4003	-77	123	-4	0	1.17889	0.3391956	3	15	0	80
111909	-802	2011	-1298	-3.542418	-7.969221	0.7622346	0	9.81	4003	-1	-275	-34	0	1.17889	0.3465062	3	15	0	80
112002	-930	-538	-1334	-3.342944	-10.08404	1.104838	0	11.63	4004	-130	322	-38	0	1.17889	0.3552718	3	15	0	80
112119	-993	-1014	-798	-4.429059	-8.914051	1.030273	0	11.63	4003	-35	-101	-38	0	1.17889	0.3641423	3	15	0	80
112205	-960	-2288	351	-4.305981	-5.685555	-0.09324944	0	11.63	4003	70	-121	-12	0	1.17889	0.3744687	3	15	0	80
112349	-193	2096	-29	-2.274845	-5.066623	-0.6260278	0	11.63	4002	62	33	-7	0	1.17889	0.3816755	3	15	0	80
112481	1594	-206	-675	-2.298792	-5.080804	-0.5590353	0	11.63	4003	-85	-26	13	0	1.17889	0.3708941	3	15	0	80
112572	1468	271	-310	-0.1762352	-8.277697	-0.9976629	0	11.63	4002	-52	-250	29	0	1.17889	0.3661546	3	15	0	80
112655	-672	1802	855	0.486761	-8.687907	-1.361893	0	11.63	4003	20	22	21	0	1.17889	0.3640034	3	15	0	80
112737	604	-1192	201	0.2791991	-8.264668	-2.190449	0	11.63	4004	-28	98	57	0	1.17889	0.3688682	3	15	0	80
112862	1792	1974	1383	2.883382	-6.839728	-2.574537	0	11.63	4004	28	200	64	0	1.17889	0.3729115	3	15	0	80
112925	90	2505	723	2.832729	-8.783446	-2.530174	0	10.89	4003	42	77	42	0	1.17889	0.3725028	3	15	0	80
113059	-759	-1909	-1037	1.750533	-8.677217	-0.5440475	0	10.89	4002	10	116	5	0	1.17889	0.3811695	3	15	0	80
113146	-1288	2323	805	0.5832203	-8.326468	-0.5035247	0	10.89	4003	66	55	4	0	1.17889	0.3854731	3	15	0	80
113249	932	1490	1275	2.064729	-10.34473	-0.4695316	0	10.89	4004	-14	41	20	4	1.050766	0.3924844	4	15	0	80
113397	-340	-2832	-1566	0.3025877	-12.8458	0.9321224	0	10.89	4003	27	-289	-49	9	0.8571604	0.3858998	4	15	0	80
113479	-478	-2531	-1034	-0.3139986	-10.33042	1.404108	0	10.89	4002	-13	-264	-57	11	0.749334	0.3711584	4	15	0	80
113606	-149	-65	-1052	0.8256198	-7.26823	1.562537	0	10.89	4003	-71	-251	-40	12	0.634635	0.372223	4	15	0	80
113659	-918	-2864	-269	0.3622553	-6.239361	0.544618	0	10.89	4003	75	178	-27	7	0.6114801	0.37688	4	15	0	80
113772	2230	-1640	1637	2.152853	-2.539558	-0.490635	0	10.89	4003	-81	-204	15	6	0.6008743	0.3852149	4	15	0	80
113865	-1362	1371	1954	2.68391	-2.357619	-1.606349	0	11.06	4002	70	32	29	10	0.5850633	0.404763	4	15	0	80
113954	1694	-333	-692	1.207793	-4.270445	-1.303074	0	11.06	4004	-117	-15	15	5	0.6054258	0.4111544	4	15	0	80
114061	-836	-631	-1150	1.683786	-2.299327	0.1444196	0	11.06	4002	21	-60	-13	3	0.677224	0.4229023	4	15	0	80
114151	-774	923	1113	-1.413546	-3.023722	0.5152227	0	11.06	4004	14	-141	-27	2	0.7196673	0.4295566	4	15	0	80
114280	-298	361	-960	-3.314237	-2.869925	0.5522453	0	11.06	4005	-105	34	-26	0	0.8176444	0.4406409	4	15	0	80
114429	-1234	-3592	1441	-2.803369	-2.360815	-0.2475258	0	11.06	4004	89	-121	-8	0	0.8359967	0.4579998	4	15	0	80
114476	-1234	-3592	1441	-2.803369	-2.360815	-0.2475258	0	11.06	4004	6	173	-6	0	0.8685026	0.4672047	4	15	0	80
114626	-380	1808	-347	0.4909086	-2.908636	-0.1797117	0	11.06	4004	6	54	-13	-4	1.089771	0.5080168	4	15	0	80
114683	-163	565	180	0.2429572	-3.597657	-0.1117876	0	11.06	4004	-67	-58	8	-8	1.115179	0.5394528	4	15	0	80
114851	1250	1495	270	0.8945861	-3.777148	0.09658117	0	11.11	4003	-65	141	-15	16	1.039981	0.6135759	4	15	0	80
114911	-115	-2322	-1997	0.9541876	-4.001177	0.4814408	0	11.11	4003	-8	-79	-32	-9	1.12809	0.6414549	4	15	0	80
115016	56	1451	1174	0.6358034	-4.830409	0.3066836	0	11.11	4003	-52	-162	-27	0	1.09272	0.725709	4	15	0	80
115137	-29	1486	-747	-0.2293874	-6.648335	-0.01890101	0	11.11	4003	-35	-141	-9	-1	1.087379	0.7821184	4	15	0	80
115193	254	2727	614	0.003921948	-7.613452	0.03856032	0	11.11	4003	-9	278	-9	-1	1.088474	0.8242474	4	15	0	80
115342	-1	-561	-489	-0.03122503	-11.2376	1.672947	0	11.11	4002	104	-127	-60	-3	0.9938154	0.8911163	4	15	0	80
115430	331	1638	1777	0.1206481	-10.53852	1.47697	0	11.11	4004	-114	289	-26	-4	1.106342	0.9329269	4	15	0	80
115541	-497	-1855	483	-0.2640621	-9.511429	0.5983307	0	11.11	4004	-28	-113	-30	-5	1.241246	0.9811234	4	15	0	80
115573	-518	2511	1465	-0.1098552	-9.800717	-0.2270708	0	11.11	4004	-28	-113	-30	-5	1.238886	1.002384	4	15	0	80
115699	86	-1500	-830	-0.6367813	-11.53672	-0.2200381	0	10.77	4003	110	-167	-14	0	1.128405	1.066223	4	15	0	80
115777	-492	1204	-479	-0.7781036	-10.84001	-0.2024334	0	10.77	4003	-97	82	3	-1	1.125876	1.097092	4	15	0	80
115893	-565	626	-620	-1.088266	-12.86319	-0.5428413	0	10.77	4004	-63	292	34	9	1.023967	1.143242	4	15	0	80
115977	20	-1436	-393	-0.7811688	-11.76043	-0.4366952	0	10.77	4004	82	-13	-5	-1	1.034452	1.153978	4	15	0	80
116080	-707	1474	89	-1.688905	-11.6789	-0.1954257	0	10.77	4002	12	118	-7	-1	1.048276	1.240691	4	15	0	80
116296	880	-1683	-1278	-1.228925	-12.69144	-0.6304426	0	10.77	4002	61	-114	1	-3	1.139603	1.340968	4	15	0	80
116393	3142	220	-567	1.375038	-11.3269	0.2413318	0	10.77	4004	86	-94	-29	-4	1.073184	1.391349	4	15	0	80
116536	1140	-723	413	3.736244	-9.60918	0.6009782	0	10.77	4004	-63	16	-21	-2	1.104283	1.470882	4	15	0	80
116628	1431	162	1371	4.98515	-8.752682	-0.1053366	0	10.38	4002	-96	218	-11	-1	1.090894	1.530407	4	15	0	80
116690	387	-2772	-334	4.3838	-7.378953	-0.1797809	0	10.38	4003	-66	58	-37	0	1.076645	1.560028	4	15	0	80
116848	-1128	-531	1107	3.61868	-4.012834	1.913811	0	10.38	4002	-34	289	-43	0	1.057283	1.680823	4	15	0	80
116948	-1312	-250	2585	0.8492453	-1.666552	0.8423458	0	10.38	4004	-37	211	10	-2	1.083854	1.750562	4	15	0	80
117014	327	-168	627	-0.7716499	-1.166471	-0.4949154	0	10.38	4003	-81	3	25	-2	1.110058	1.807695	4	15	0	80
117092	-413	1469	1026	0.3526627	-2.933319	-1.351964	0	10.38	4003	57	-262	29	-5	1.199646	1.868649	4	15	0	80
117231	552	-716	203	1.050322	-2.457077	-0.6908892	0	10.38	4004	48	-239	-8	-2	1.214777	1.949759	4	15	0	80
117348	955	1215	649	0.6151554	-3.662121	0.09767087	0	10.38	4003	-67	262	-4	-11	1.272563	2.114406	4	15	0	80
117433	-1142	-193	-1436	0.6752509	-4.866621	0.07701463	0	10.38	4002	11	265	-8	-5	1.247987	2.152406	4	15	0	80
117555	-85	1209	1305	-0.1491369	-6.116885	-0.767027	0	10.83	4003	76	130	26	-4	1.264306	2.230079	4	15	0	80
117630	-1558	732	-1223	-1.197664	-8.166221	-1.237951	0	10.83	4004	76	130	26	-4	1.278874	2.33386	4	15	0	80
117754	45	-34	-1580	-1.18766	-9.375072	0.2360817	0	10.83	4004	6	135	-6	-3	1.275122	2.417401	4	15	0	80
117845	-798	-347	-104	-3.496	-10.07253	0.09511046	0	10.83	4004	50	-336	-24	-5	1.242625	2.536323	4	15	0	80
117922	718	132	928	-3.083491	-9.607743	0.0719489	0	10.83	4004	8	-232	-21	-10	1.264309	2.556259	4	15	0	80
118127	333	1178	-1286	-3.382547	-10.84921	0.0315989	0	10.83	4003	-46	-130	-17	-3	1.243766	2.754584	4	15	0	80
118235	-235	979	377	-2.04468	-12.23452	0.09660754	0	10.83	4004	-45	69	10	-1	1.211524	2.828324	4	15	0	80
118345	-301	518	323	-2.315824	-11.84971	-0.1896495	0	10.83	4003	-63	-3	11	-3	1.218032	2.880385	4	15	0	80
118409	-625	-2687	-1496	-2.596119	-11.25379	-0.03594753	0	10.83	4004	-48	243	4	-2	1.210098	2.982586	4	15	0	80
118514	34	3847	1775	-2.634526	-11.66737	-0.2356679	0	11.11	4003	-92	214	22	-3	1.179455	3.053931	4	15	0	80
118618	-691	1976	807	-3.773065	-14.64416	-0.7621347	0	11.11	4003	74	-255	21	0	1.143898	3.086253	4	15	0	80
118756	1093	410	-167	-0.7716306	-12.36917	-0.1557089	0	11.11	4003	65	10	-11	-4	1.111938	3.180722	4	15	0	80
118817	-887	2240	1146	-0.2637869	-12.2801	-0.2278241	0	11.11	4002	3	-194	4	-2	1.12694	3.224064	4	15	0	80
119067	28	1937	690	1.436401	-13.83252	-0.6257128	0	11.11	4003	-59	-200	-4	-1	1.110118	3.370895	4	15	0	80
119171	-685	-245	-1719	0.4421756	-14.4988	0.2558231	0	11.11	4003	76	-130	-37	-1	1.034373	3.446412	4	15	0	80
119239	-337	-822	-326	0.2893189	-13.69267	0.5311592	0	11.11	4004	90	162	-19	0	1.047264	3.490523	4	15	0	80
119407	69	-905	1194	-0.828373	-11.82283	-0.04402973	0	11.11	4004	-41	99	29	-4	1.098904	3.624864	4	15	0	80
119511	-969	-28	407	-0.6455161	-9.473717	-0.9758936	0	10.94	4003	22	-6	3	-2	1.109736	3.696023	4	15	0	80
119592	539	-692	-291	-0.8872882	-7.529387	-0.4613569	0	10.94	4003	-56	-77	3	0	1.094135	3.749095	4	15	0	80
119647	-83	199	-147	-0.3927607	-6.703591	-0.2340258	0	10.94	4002	-128	-111	3	-3	1.133635	3.798797	4	15	0	80
119765	-109	660	-165	-0.1901416	-5.86135	0.05698856	0	10.94	4002	-56	160	-19	2	1.017222	3.862425	4	15	0	80
120011	500	-1298	260	-0.7598453	-2.798248	-0.8404552	0	10.94	4002	48	120	13	2	0.9974283	4.035062	4	15	0	80
120113	-933	-396	-1499	0.6833394	-1.455994	0.05763126	0	10.94	4004	-2	-21	-14	-1	1.043288	4.128133	4	15	0	80
120230	1374	1084	1133	0.555119	-3.770234	0.09170143	0	10.94	4002	-95	-116	-11	-2	1.086127	4.174794	4	15	0	80
120254	478	-713	-1138	0.8278899	-4.0013	0.0455064	0	10.94	4002	-9	327	-8	-3	0.993951	4.221481	4	15	0	80
120359	-699	-1790	-847	1.106044	-4.083601	-0.06133328	0	11.06	4003	-19	-137	16	-2	1.054666	4.291078	4	15	0	80
120454	358	-1572	-1095	-0.5380035	-2.70342	-0.5892399	0	11.06	4004	-111	-45	14	-2	1.077031	4.342146	4	15	0	80
120565	2000	-695	-341	0.8876012	-1.730973	-0.299038	0	11.06	4004	-77	305	10	-1	1.09961	4.409156	4	15	0	80
120701	63	1126	849	0.1874182	-4.451834	-0.154663	0	11.06	4003	-41	364	0	-8	1.210853	4.517653	4	15	0	80
120750	1428	1760	849	0.1874182	-4.451834	-0.154663	0	11.06	4003	28	282	-8	-4	1.236192	4.557919	4	15	0	80
120906	485	2013	42	2.816175	-9.012237	0.40348	0	11.06	4002	22	-159	-27	-4	1.231184	4.649734	4	15	0	80
120952	-274	724	481	2.116697	-10.045	1.334542	0	11.06	4002	-65	292	-42	-4	1.248424	4.687943	4	15	0	80
121081	-888	-3	126	-0.2945419	-9.606387	1.562329	0	11.06	4004	75	-159	-43	0	1.259047	4.742996	3	15	0	80
121206	845	1336	232	0.9550728	-10.47169	0.6770807	0	11.06	4004	-74	17	-6	0	1.268874	4.820985	3	15	0	80
121252	1332	292	-34	1.235734	-10.59918	0.8284672	0	10.83	4004	-82	12	-13	0	1.270749	4.831171	3	15	0	80
121391	-565	-254	114	1.314314	-10.53329	0.3773263	0	10.83	4003	13	-6	-8	0	1.276551	4.888214	3	15	0	80
121517	1235	-204	-24	2.073274	-8.891355	-0.1982627	0	10.83	4003	8	-78	10	0	1.280359	4.93367	3	15	0	80
121563	848	-6	448	2.398439	-9.036043	-0.5533231	0	10.83	4003	-31	-77	1	0	1.281085	4.941926	3	15	0	80
121688	846	989	-340	2.344341	-8.900973	-0.1345827	0	10.83	4003	25	-26	0	0	1.283333	4.991132	3	15	0	80
121768	1069	130	-653	2.033022	-9.001972	0.3460673	0	10.83	4004	-42	-87	-25	0	1.284148	5.008888	3	15	0	80
121934	-703	-1564	328	2.426358	-4.926787	1.00446	0	10.83	4002	19	-170	-41	0	1.285571	5.0437	3	15	0	80
121969	170	-672	-687	2.574397	-4.524167	1.187321	0	10.83	4003	-1	-33	-34	0	1.285776	5.053619	3	15	0	80
122065	-1052	2408	-1226	1.518943	-5.803408	1.771647	0	10.83	4003	-9	-38	-57	0	1.286411	5.06803	3	15	0	80
122198	-395	2643	200	0.78013	-9.511651	3.047795	0	10.21	4003	-134	233	-83	0	1.286827	5.071659	3	15	0	80
122253	-395	2643	200	0.78013	-9.511651	3.047795	0	10.21	4003	-4	-85	-93	0	1.286978	5.058867	3	15	0	80
122361	-1159	1642	1616	1.581045	-11.19834	1.27254	0	10.21	4003	103	-49	-59	0	1.287153	5.016879	3	15	0	80
122453	-457	-977	448	0.8233531	-10.65727	0.5861992	0	10.21	4003	7	-118	1	0	1.28728	4.963006	3	15	0	80
122621	490	-188	-1209	1.000957	-11.33764	1.042588	0	10.21	4002	-9	-173	-42	0	1.287398	4.869171	3	15	0	80
122677	2562	303	-755	2.008234	-10.43758	2.624485	0	10.21	4003	-154	279	-87	0	1.28744	4.817767	3	15	0	80
122815	-1061	-1912	792	2.401116	-9.586615	3.671654	0	10.21	4003	-35	80	-102	0	1.287503	4.716325	3	15	0	80
122869	-1050	-2653	1388	1.999195	-8.290023	3.04357	0	10.21	4003	-63	-56	-61	0	1.287525	4.668564	3	15	0	80
123008	-1191	3577	521	3.015693	-3.529187	0.3610564	0	10.21	4003	-35	-5	-6	0	1.287559	4.581502	3	15	0	80
123079	552	2842	-285	2.261063	-6.575117	0.8918599	0	10.21	4004	-43	276	-29	0	1.287571	4.539767	3	15	0	80
123194	-624	-2779	-2084	2.441893	-7.300131	1.918852	0	10.89	4003	128	211	-89	0	1.287585	4.494562	3	15	0	80
123317	1189	46	-186	0.1272371	-6.328029	1.969006	0	10.89	4004	-100	281	-60	0	1.2876	4.358208	3	15	0	80
123395	875	1569	1680	2.361614	-7.131027	2.0517	0	10.89	4003	-63	-162	-66	0	1.287604	4.299947	3	15	0	80
123473	-1761	1935	2087	1.247066	-7.547385	1.149476	0	10.89	4003	65	236	-19	0	1.287607	4.259417	3	15	0	80
123618	476	2603	1112	1.269855	-8.982146	-0.2360583	0	10.89	4003	-95	-210	10	0	1.287612	4.038572	3	15	0	80
123671	-1068	688	1399	1.466995	-9.071234	-0.4046226	0	10.89	4002	-1	157	10	0	1.287614	3.879593	3	15	0	80
123846	44	234	683	1.833244	-8.287247	0.7737626	0	10.89	4002	34	22	-33	0	1.287617	3.53808	3	15	0	80
123879	-716	573	422	1.381472	-8.084002	0.6134841	0	10.89	4002	-69	145	1	0	1.287618	3.525361	3	15	0	80
123977	768	468	-49	0.02596094	-8.343275	-0.8365325	0	10.89	4003	-64	-247	23	0	1.287619	3.317126	3	15	0	80
124118	1809	1471	-231	4.111255	-8.315573	-1.047018	0	11.46	4003	32	-88	9	0	1.28762	3.106103	3	15	0	80
124180	-217	97	-1452	3.958047	-8.420478	-0.523643	0	11.46	4004	36	-100	-24	0	1.287621	3.051532	3	15	0	80
124325	-416	-732	599	2.631897	-5.025806	1.230787	0	11.46	4004	-134	18	-33	0	1.287621	2.844147	3	15	0	80
124407	-961	152	821	1.951134	-4.922359	0.5694067	0	11.46	4004	-39	-355	-25	0	1.287621	2.80497	3	15	0	80
124545	1016	1748	354	4.245023	-6.541203	1.002931	0	11.46	4003	75	-274	-42	0	1.287621	2.574218	3	15	0	80
124613	-2300	-989	-780	3.370264	-6.59924	1.277842	0	11.46	4002	-71	-73	-22	0	1.287621	2.561115	3	15	0	80
124687	-893	-834	-501	1.439584	-6.436687	1.15231	0	11.46	4003	-22	-220	-17	0	1.287621	2.488849	3	15	0	80
124868	-117	1949	1191	0.5446778	-5.581806	-0.2442794	0	11.46	4003	-38	264	7	0	1.287621	2.394655	3	15	0	80
124953	243	-959	-927	-0.5321199	-6.247575	-0.04507263	0	11.17	4003	70	-81	-7	0	1.287621	2.342499	3	15	0	80
125111	-888	-1821	-1568	-1.047452	-7.540048	0.5391842	0	11.17	4004	185	-400	-32	0	1.287621	2.267475	3	15	0	80
125232	120	-2152	-1085	-1.143014	-7.322315	2.545384	0	11.17	4003	29	56	-61	0	1.287621	2.213076	3	15	0	80
125298	293	3204	1229	-1.486888	-8.839388	1.368259	0	11.17	4003	18	55	-25	0	1.287621	2.190217	3	15	0	80
125550	-769	1366	114	-0.7464579	-10.21272	-1.436498	0	11.17	4003	-77	9	39	5	1.235252	2.1449	5	15	0	80
125601	-769	1366	114	-0.7464579	-10.21272	-1.436498	0	11.17	4003	-25	-141	11	6	1.241666	2.136369	5	15	0	80
125744	-268	-790	-1656	0.1419489	-9.617575	0.06048775	0	11.17	4002	-68	179	-6	5	1.226757	2.125396	5	15	0	80
125834	-788	119	628	0.6975123	-10.05987	0.7203519	0	11.17	4003	20	28	-21	5	1.228141	2.118617	5	15	0	80
125916	-1163	-800	108	-0.8975107	-9.960415	0.2721997	0	10.55	4003	10	-216	0	6	1.250173	2.111558	5	15	0	80
126057	116	-481	1113	-1.447632	-11.08274	-1.030856	0	10.55	4002	-8	-127	4	5	1.105295	2.115055	5	15	0	80
126119	851	-1261	317	-1.337645	-9.262264	-0.7330265	0	10.55	4003	-6	203	1	5	1.078938	2.123022	5	15	0	80
126250	-1052	-1894	-2130	-1.635803	-8.001872	0.3758913	0	10.55	4004	-49	-218	-30	5	1.12363	2.151923	5	15	0	80
126346	-122	-3767	289	-1.923061	-5.184146	1.090066	0	10.55	4004	-51	-12	-8	4	1.106367	2.164726	5	15	0	80
126433	-426	-1690	713	-1.432778	-0.6124002	1.161538	0	10.55	4004	-89	-163	-40	4	1.084471	2.188569	5	15	0	80
126516	643	633	-530	-1.491862	-0.2172552	0.4583739	0	10.55	4006	-52	59	-14	3	1.124178	2.207421	5	15	0	80
126673	1107	1050	12	0.0339746	-2.92874	0.4396178	0	10.55	4003	-17	-23	-27	2	1.1251	2.27961	5	15	0	80
126794	-916	-1097	1188	-0.233923	-3.876096	0.339851	0	10.55	4002	-81	220	-10	1	1.152711	2.31813	5	15	0	80
126883	-25	-3320	-355	-1.635514	-1.584916	0.5292528	0	9.64	4002	-14	-40	-15	1	1.118529	2.372592	5	15	0	80
126910	-48	-1829	-523	-1.313822	-1.026777	0.5650336	0	9.64	4002	-28	-52	-9	0	1.118529	2.372592	5	15	0	80
127031	-371	1596	1712	-1.87231	-3.654768	-0.6244255	0	9.64	4003	-39	189	11	0	1.077064	2.40817	5	15	0	80
127154	836	1937	46	-1.995862	-6.117299	-0.04345489	0	9.64	4002	-70	229	-9	-1	1.089838	2.517058	5	15	0	80
127379	170	571	-21	-2.135077	-7.904459	0.1519922	0	9.64	4004	-57	-33	-28	-2	1.030994	2.602433	5	15	0	80
127512	502	278	686	0.5600888	-6.732327	0.4808687	0	9.64	4002	-50	-130	-19	-3	1.086412	2.671836	5	15	0	80
127547	-759	-936	-603	-0.7957382	-6.612879	0.3460472	0	9.64	4002	84	-79	-19	-4	1.085575	2.685528	5	15	0	80
127610	-237	610	1047	-1.072962	-6.384354	0.1187097	0	9.64	4004	5	-338	-8	-4	1.102084	2.713347	5	15	0	80
127760	243	2059	157	-1.190274	-9.810705	-0.138777	0	10.66	4004	-23	-60	-25	-10	1.235604	2.819151	5	15	0	80
127816	-63	962	-297	-1.081548	-10.11404	-0.1124353	0	10.66	4003	-4	-139	-6	-11	1.255914	2.863639	5	15	0	80
127971	1348	-1097	68	-1.475852	-8.681947	0.7547481	0	10.66	4003	28	-170	-44	-14	1.269986	2.939581	5	15	0	80
