time(ms)	gyro_x(deg/s)	gyro_y(deg/s)	gyro_z(deg/s)	orientation_roll(deg)	orientation_pitch(deg)	orientation_yaw(deg)	throttle	battery(V)	loop_time(uS)	pid_output_roll	pid_output_pitch	pid_output_yaw	pid_output_throttle	ultrasonic_alt	baro_alt	flight_mode	p_gain_altitude	i_gain_altitude	d_gain_altitude
190976	935	3031	589	-0.8958196	-11.45477	-12.33801	0	11.23	4003	68	24	-22	-4	1.111085	2.882289	5	8	0	60
191065	108	-1011	-82	-0.1531772	-13.07674	-12.45983	0	11.23	4003	40	-301	-12	-8	1.148735	2.970948	5	8	0	60
191176	881	-415	338	0.2502171	-10.60213	-12.09912	0	11.23	4002	-77	350	-12	-10	1.198165	3.09338	5	8	0	60
191213	-12	-2113	-1700	0.03126374	-10.44633	-12.02252	0	11.23	4003	-77	350	-12	-10	1.198165	3.085902	5	8	0	60
191404	45	1297	1090	-2.537593	-7.102977	-11.80737	0	10.15	4004	-43	257	-10	-7	1.333172	3.224492	5	8	0	60
191436	203	-747	-671	-2.642833	-7.832481	-11.9024	0	10.15	4003	25	-212	-22	-7	1.24136	3.281555	5	8	0	60
191521	203	-747	-671	-2.642833	-7.832481	-11.9024	0	10.15	4003	-116	248	-17	-6	1.207673	3.331087	5	8	0	60
191634	797	1815	-57	-1.663735	-8.948165	-11.09214	0	10.15	4003	50	215	-48	-7	1.216998	3.361912	5	8	0	60
191776	-878	416	727	-0.9675258	-10.02577	-12.14861	0	10.15	4004	-120	320	-6	-15	1.334284	3.499323	5	8	0	60
191830	-1101	-1436	65	-1.238594	-9.476915	-12.28079	0	10.15	4003	-66	157	-14	-25	1.345501	3.540312	5	8	0	60
191951	-121	619	8	-1.428906	-7.883915	-12.02039	0	10.15	4004	-21	-135	-17	-25	1.363645	3.58942	5	8	0	60
192051	408	-883	-1109	-0.8355898	-9.180308	-12.05014	0	10.15	4004	-127	192	-3	-14	1.371056	3.636617	5	8	0	60
192124	-87	2232	179	-1.042811	-10.41419	-12.33885	0	10.15	4003	-72	132	-1	-15	1.311474	3.670099	5	8	0	60
192293	717	1802	84	-2.867623	-14.80669	-12.42565	0	10.15	4003	43	-248	-9	-16	1.314317	3.757207	5	8	0	60
192339	649	1482	-1049	-2.123631	-17.12531	-12.11952	0	10.43	4002	80	-249	-18	-30	1.311785	3.776248	5	8	0	60
192519	-1591	-1164	371	-1.947585	-16.69173	-10.99671	0	10.43	4002	42	-92	-40	-17	1.248059	3.825887	5	8	0	60
192613	33	-387	104	-3.352404	-13.08692	-11.94278	0	10.43	4003	-26	-12	-17	-31	1.307227	3.848689	5	8	0	60
192715	25	-2124	103	-2.660787	-11.95502	-12.42352	0	10.43	4003	-7	51	-9	-16	1.343319	3.866772	5	8	0	60
192849	-848	885	34	-3.371839	-6.806009	-12.40847	0	10.43	4003	-104	182	-11	-17	1.304752	3.874762	5	8	0	60
193005	-2856	-1047	-604	-8.210405	-9.086101	-11.61835	0	10.43	4003	105	-169	-39	-31	1.266079	3.866646	5	8	0	60
193152	-2373	-2052	396	-11.25611	-6.792468	-11.82341	0	10.43	4004	-63	23	-22	-16	1.292442	3.831273	5	8	0	60
193215	-1743	-1290	45	-12.62025	-5.17196	-12.03598	0	10.43	4003	-14	-51	-18	-15	1.292178	3.808687	5	8	0	60
193286	-344	1409	469	-12.63346	-5.969689	-11.96426	0	11.11	4002	-12	-2	-13	-17	1.254491	3.787698	5	8	0	60
193347	162	1942	-373	-11.72843	-7.452804	-11.74279	0	11.11	4003	13	-51	-33	-14	1.25312	3.762914	5	8	0	60
193452	1835	-455	-34	-9.520362	-8.409572	-11.78472	0	11.11	4003	-41	-56	-23	-13	1.259738	3.716197	5	8	0	60
193561	1150	1155	-100	-5.464407	-8.194498	-11.70152	0	11.11	4004	31	-62	-25	-13	1.243078	3.701927	5	8	0	60
193676	1904	821	47	-2.277303	-9.973669	-11.25922	0	11.11	4003	-14	26	-43	-13	1.103956	3.555574	5	8	0	60
193771	705	1140	455	-0.8996451	-10.95393	-11.20293	0	11.11	4004	17	-63	-41	-6	1.153096	3.473414	5	8	0	60
193881	219	981	-397	-0.03734479	-12.06427	-10.92335	0	11.11	4004	21	-4	-45	0	1.207989	3.295052	5	8	0	60
193977	102	232	-84	0.09584887	-12.26522	-10.63307	0	11.11	4002	31	-95	-57	0	1.239794	3.203477	3	8	0	60
194053	-770	835	100	-1.340196	-12.43921	-10.82384	0	11.11	4004	65	-39	-46	0	1.25605	3.038953	3	8	0	60
194146	289	1315	311	-0.8706154	-13.08687	-11.03186	0	11.11	4002	77	-119	-40	0	1.274831	2.9882	3	8	0	60
194298	595	1208	364	1.893172	-15.66657	-10.02799	0	9.41	4002	6	278	-63	0	1.292205	2.775368	3	8	0	60
194361	-1891	1642	771	1.189249	-15.3706	-9.908381	0	9.41	4003	59	37	-78	0	1.29552	2.73963	3	8	0	60
194484	151	-2635	-355	1.144903	-10.67335	-10.93719	0	9.41	4003	-122	-55	-20	0	1.309498	2.58049	3	8	0	60
194716	-1817	-603	1199	-0.8349671	3.486074	-12.68432	0	9.41	4004	44	177	-5	0	1.316926	2.325536	3	8	0	60
194821	-413	1083	740	-1.249282	0.2612476	-13.47045	0	9.41	4003	-219	323	33	0	1.31921	2.156103	3	8	0	60
194924	-253	1919	-961	-1.349458	-1.115163	-13.57462	0	9.41	4004	-32	196	28	0	1.320874	2.09223	3	8	0	60
195016	833	-2360	-902	-4.213882	-2.523885	-12.72256	0	9.41	4003	-154	111	-15	0	1.322088	2.000828	3	8	0	60
195119	-824	-1891	-1682	-3.568485	-0.688491	-11.31293	0	9.41	4002	-33	-63	-37	0	1.322972	1.923021	3	8	0	60
195230	537	-1832	536	-3.804663	1.281065	-10.62059	0	10.89	4003	-88	-102	-52	0	1.323617	1.855425	3	8	0	60
195281	-430	-3286	1042	-3.665308	2.296226	-10.78291	0	10.89	4002	31	-167	-23	0	1.323947	1.811987	3	8	0	60
195372	1033	-1126	-493	-5.161143	-0.07231904	-11.18129	0	10.89	4004	-50	-250	-34	0	1.324214	1.780467	3	8	0	60
195660	1260	614	347	1.536097	-2.498872	-11.38905	0	10.89	4002	23	-220	-35	0	1.324911	1.695976	3	8	0	60
195771	1046	1267	719	2.438936	-5.199784	-12.54023	0	10.89	4004	-1	-141	5	0	1.325031	1.678798	3	8	0	60
195790	536	-1142	173	2.80793	-5.627878	-12.64422	0	10.89	4003	65	-215	-13	0	1.325063	1.674456	3	8	0	60
195880	1328	-839	-292	3.745288	-4.68693	-12.37857	0	10.89	4003	-65	92	-18	0	1.325118	1.659357	3	8	0	60
196020	-637	-998	944	3.527746	-3.661471	-12.70051	0	10.89	4003	-71	-94	-6	0	1.325214	1.642837	3	8	0	60
196101	580	3012	1425	3.228734	-4.769592	-13.00101	0	10.77	4003	-82	199	19	0	1.325251	1.651565	3	8	0	60
196214	508	4498	198	1.933276	-10.68666	-13.21265	0	10.77	4004	-64	118	4	0	1.325279	1.66126	3	8	0	60
196330	-699	1470	-1296	1.849922	-15.24425	-12.73594	0	10.77	4002	41	117	-2	0	1.325292	1.661239	3	8	0	60
196529	-398	-1204	-42	-1.240287	-16.41954	-12.95227	0	10.77	4003	-76	192	2	0	1.325324	1.663572	3	8	0	60
196646	-1827	-2322	-1201	-1.812174	-10.76287	-12.04327	0	10.77	4004	26	107	-11	0	1.325331	1.660291	3	8	0	60
196713	-190	1395	-134	-4.520599	-10.94988	-11.57507	0	10.77	4003	-61	123	-37	0	1.325335	1.657209	3	8	0	60
196800	-387	-1464	639	-4.134236	-10.50557	-11.47341	0	10.77	4003	-5	128	-18	0	1.325341	1.65209	3	8	0	60
196952	1013	-2146	834	-4.494307	-4.09556	-14.16285	0	10.77	4004	-67	-18	21	0	1.325345	1.637829	3	8	0	60
197057	1076	1343	-713	-1.690367	-4.422192	-14.41979	0	10.83	4003	-97	297	53	0	1.325347	1.621571	3	8	0	60
197143	123	1485	493	-1.374604	-5.808091	-13.60355	0	10.83	4003	-86	147	22	0	1.325348	1.586292	3	8	0	60
197199	197	-1520	-1071	-1.778524	-5.309685	-13.09498	0	10.83	4004	7	-289	3	0	1.325348	1.575927	3	8	0	60
197425	733	-1314	-274	-3.340224	-3.164288	-14.79424	0	10.83	4003	9	80	43	0	1.32535	1.49731	3	8	0	60
197536	-3830	-1335	-465	-5.636054	-3.331712	-15.81912	0	10.83	4003	118	-290	73	0	1.325351	1.444161	3	8	0	60
197694	2086	2672	678	-6.139175	1.325368	-15.26023	0	10.83	4004	-61	183	63	0	1.325351	1.41493	3	8	0	60
197748	276	-108	-2084	-5.153763	-6.173544	-14.44812	0	10.83	4003	-77	-223	30	0	1.325351	1.381268	3	8	0	60
197821	1971	2799	-74	-3.20281	-8.19433	-13.64216	0	10.83	4003	-6	-114	27	0	1.325351	1.357237	3	8	0	60
197917	-223	1080	35	-2.922225	-9.254007	-12.78078	0	10.89	4004	-52	260	-15	0	1.325351	1.327885	3	8	0	60
198048	-1055	1076	-456	-3.625739	-11.44509	-12.5659	0	10.89	4003	-7	105	-5	0	1.325351	1.291152	3	8	0	60
198145	-5442	-1248	-1370	-10.11961	-11.54661	-12.5475	0	10.89	4003	63	-254	-25	0	1.325351	1.217869	3	8	0	60
198207	-5442	-1248	-1370	-10.11961	-11.54661	-12.5475	0	10.89	4003	-41	-196	-16	0	1.325351	1.172603	3	8	0	60
198379	-218	-844	393	-17.09964	-9.88145	-11.92117	0	10.89	4004	211	-88	-27	0	1.325351	1.06246	3	8	0	60
198458	3303	2080	389	-10.32765	-9.649544	-11.72455	0	10.89	4003	-8	18	-20	0	1.325351	0.9850427	3	8	0	60
198533	1898	1211	-1819	-5.97825	-12.70431	-12.48454	0	10.89	4004	-30	400	-6	0	1.325351	0.9546887	3	8	0	60
198620	3653	2112	-1085	-3.375081	-12.73148	-11.56417	0	10.89	4004	-119	93	-37	0	1.325351	0.9395463	3	8	0	60
198778	3928	903	80	6.786886	-19.26109	-10.41894	0	10.89	4002	-39	-70	-55	0	1.325351	0.8152748	3	8	0	60
198882	228	-1516	1185	9.333121	-15.7934	-11.75246	0	10.21	4003	-11	0	6	0	1.325351	0.7668357	3	8	0	60
198979	-1370	-3198	697	5.611637	-10.42958	-13.07711	0	10.21	4002	22	-96	20	0	1.325351	0.6929585	3	8	0	60
199089	10332	5917	-1291	-9.162846	-0.9249633	-9.163062	0	10.21	4004	0	0	0	0	1.325351	0.6251174	3	8	0	60
199291	-10932	4069	-7015	-0.6271366	-22.02357	-1.247851	0	10.21	4003	0	0	0	0	1.325351	0.5245082	3	8	0	60
199311	-10932	4069	-7015	-0.6271366	-22.02357	-1.247851	0	10.21	4003	0	0	0	0	1.325351	0.5131947	3	8	0	60
199436	2444	1682	2108	-3.828785	-28.38113	2.800896	0	10.21	4003	0	0	0	0	1.325351	0.461256	3	8	0	60
199525	760	-3058	-237	-4.144803	-29.70049	3.436251	0	10.21	4002	0	0	0	0	1.325351	0.4193183	3	8	0	60
199710	-427	2333	-324	-3.648132	-4.300355	4.353005	0	10.21	4002	0	0	0	0	1.325351	0.3346275	1	8	0	60
199839	-177	135	-58	-3.032165	-1.340452	3.306462	0	11.17	4003	0	0	0	0	1.325351	0.2781277	1	8	0	60
199899	-68	-7	-12	-2.845539	-1.324567	3.290994	0	11.17	4003	0	0	0	0	1.325351	0.2497681	1	8	0	60
200024	-4	9	23	-2.567247	-1.168042	3.270021	0	11.17	4004	0	0	0	0	1.325351	0.1984333	1	8	0	60
200160	-37	10	-28	-2.219272	-0.964226	3.248867	0	11.17	4003	0	0	0	0	1.325351	0.14758	1	8	0	60
200210	-20	6	10	-2.150565	-0.9345745	3.244832	0	11.17	4002	0	0	0	0	1.325351	0.1283028	1	8	0	60
200383	-90	2	-11	-1.859771	-0.7974843	3.222828	0	11.17	4004	0	0	0	0	1.325351	0.08996288	1	8	0	60
200499	-54	7	89	-1.687588	-0.7001479	3.198251	0	11.17	4002	0	0	0	0	1.325351	0.06729142	1	8	0	60
200548	-67	-7	0	-1.636523	-0.6766217	3.195317	0	11.17	4003	0	0	0	0	1.325351	0.05260681	1	8	0	60
200620	-64	18	-9	-1.523133	-0.6178532	3.181255	0	11.17	4002	0	0	0	0	1.325351	0.04073188	1	8	0	60
200706	-43	10	24	-1.447508	-0.5873936	3.170739	0	11.34	4003	0	0	0	0	1.325351	0.03113416	1	8	0	60
200842	-61	-4	1	-1.327474	-0.5183489	3.154353	0	11.34	4003	0	0	0	0	1.325351	0.01986387	1	8	0	60
200952	-48	-11	-9	-1.25684	-0.4715391	3.143653	0	11.34	4004	0	0	0	0	1.325351	0.01116937	1	8	0	60
201011	-55	7	-10	-1.210407	-0.4479313	3.135583	0	11.34	4003	0	0	0	0	1.325351	0.00729571	1	8	0	60
201204	-59	0	5	-1.098175	-0.3746245	3.106602	0	11.34	4004	0	0	0	0	1.325351	0.003633526	1	8	0	60
201257	-56	5	3	-1.084037	-0.3648894	3.101895	0	11.34	4004	0	0	0	0	1.325351	1.321303	1	8	0	60
201355	-57	-2	14	-1.029187	-0.3414676	3.086365	0	11.34	4004	0	0	0	0	1.325351	-0.001235217	1	8	0	60
201448	-52	0	6	-0.9862151	-0.321986	3.072853	0	11.34	4002	0	0	0	0	1.325351	-0.004447079	1	8	0	60
201544	-61	0	10	-0.9561312	-0.307923	3.060809	0	11.34	4003	0	0	0	0	1.325351	-0.01262961	1	8	0	60
201682	-55	4	9	-0.9291478	-0.2930801	3.049682	0	11.17	4002	0	0	0	0	1.325351	-0.006528254	1	8	0	60
201780	-53	-2	5	-0.899446	-0.2846884	3.03672	0	11.17	4003	0	0	0	0	1.325351	0.001550446	1	8	0	60
201898	-63	-4	3	-0.8715591	-0.275276	3.023147	0	11.17	4004	0	0	0	0	1.325351	0.01116572	1	8	0	60
201974	-55	-4	6	-0.8505046	-0.2657678	3.015564	0	11.17	4009	0	0	0	0	1.325351	0.01554003	1	8	0	60
202099	-55	2	13	-0.8224875	-0.2547876	3.000584	0	11.17	4004	0	0	0	0	1.325351	0.01668648	1	8	0	60
202188	-46	0	1	-0.8111346	-0.2432995	2.995449	0	11.17	4003	0	0	0	0	1.325351	0.01512079	1	8	0	60
202289	-57	3	9	-0.7960522	-0.2394838	2.982425	0	11.17	4002	0	0	0	0	1.325351	0.0157273	1	8	0	60
202344	-56	2	8	-0.7861585	-0.238625	2.975148	0	11.17	4003	0	0	0	0	1.325351	0.01619561	1	8	0	60
202433	-56	-1	7	-0.7737287	-0.2386657	2.964878	0	11.17	4004	0	0	0	0	1.325351	0.02291109	1	8	0	60
202541	-55	10	1	-0.759629	-0.2304213	2.956012	0	11.29	4003	0	0	0	0	1.325351	0.0289015	1	8	0	60
202631	-63	-1	9	-0.7484147	-0.2271591	2.944335	0	11.29	4003	0	0	0	0	1.325351	0.03176577	1	8	0	60
202773	-53	0	9	-0.7378794	-0.2284945	2.9296	0	11.29	4003	0	0	0	0	1.325351	0.04414544	1	8	0	60
202912	-67	0	5	-0.720701	-0.2199072	2.913643	0	11.29	4002	0	0	0	0	1.325351	0.05473658	1	8	0	60
202978	-61	-3	9	-0.7138323	-0.214804	2.906245	0	11.29	4002	0	0	0	0	1.325351	0.06075819	1	8	0	60
203174	-55	-1	12	-0.7061672	-0.2134619	2.886129	0	11.29	4004	0	0	0	0	1.325351	0.07187667	1	8	0	60
203247	-48	-1	5	-0.7007651	-0.2132683	2.880565	0	11.29	4003	0	0	0	0	1.325351	0.07311593	1	8	0	60
203407	-54	2	6	-0.6855698	-0.21413	2.862956	0	11.29	4002	0	0	0	0	1.325351	0.05069539	1	8	0	60
203563	-49	0	1	-0.6829625	-0.2093967	2.846816	0	11.29	4009	0	0	0	0	1.325351	0.03914031	1	8	0	60
203618	-53	2	7	-0.6833306	-0.2096648	2.840274	0	11.29	4002	0	0	0	0	1.325351	0.03295263	1	8	0	60
203705	-50	1	6	-0.6832101	-0.2150236	2.832999	0	11.29	4004	0	0	0	0	1.325351	0.02579997	1	8	0	60
203797	-52	6	3	-0.6731891	-0.2133487	2.825785	0	11.29	4004	0	0	0	0	1.325351	0.02517249	1	8	0	60
203905	-54	-3	4	-0.6726195	-0.2177752	2.812272	0	11.29	4004	0	0	0	0	1.325351	0.025908	1	8	0	60
204013	-50	5	7	-0.6676735	-0.2170731	2.801633	0	11.29	4004	0	0	0	0	1.325351	0.03445561	1	8	0	60
204039	-47	-2	2	-0.6667358	-0.2159465	2.798453	0	11.29	4003	0	0	0	0	1.325351	0.0375698	1	8	0	60
204229	-59	-3	2	-0.6640858	-0.2050685	2.782251	0	11.29	4003	0	0	0	0	1.325351	0.05914703	1	8	0	60
204275	-54	0	6	-0.6547714	-0.204998	2.773692	0	11.34	4003	0	0	0	0	1.325351	0.05903906	1	8	0	60
204377	-53	-3	3	-0.6479398	-0.2089411	2.765561	0	11.34	4003	0	0	0	0	1.325351	0.06361787	1	8	0	60
204456	-56	2	8	-0.6482321	-0.2095042	2.758714	0	11.34	4004	0	0	0	0	1.325351	0.06508189	1	8	0	60
204568	-52	-6	3	-0.6374964	-0.2166173	2.751072	0	11.34	4002	0	0	0	0	1.325351	0.06062408	1	8	0	60
204657	-44	2	3	-0.6287139	-0.2149439	2.74129	0	11.34	4003	0	0	0	0	1.325351	0.05685787	1	8	0	60
204754	-52	0	7	-0.620818	-0.2131098	2.734504	0	11.34	4003	0	0	0	0	1.325351	0.04977291	1	8	0	60
204870	-49	-1	1	-0.622754	-0.2123903	2.724905	0	11.34	4002	0	0	0	0	1.325351	0.03281755	1	8	0	60
204921	-43	0	3	-0.6178556	-0.217066	2.720687	0	11.34	4002	0	0	0	0	1.325351	0.02705248	1	8	0	60
205014	-48	3	1	-0.6180848	-0.2189108	2.717875	0	11.34	4003	0	0	0	0	1.325351	0.0165608	1	8	0	60
205144	-53	4	4	-0.6154103	-0.2274675	2.706809	0	11.34	4003	0	0	0	0	1.325351	0.007976709	1	8	0	60
205273	-49	3	3	-0.6069673	-0.2311427	2.697453	0	11.34	4004	0	0	0	0	1.325351	-0.002197132	1	8	0	60
205314	-48	0	5	-0.6055788	-0.2300856	2.694091	0	11.34	4003	0	0	0	0	1.325351	-0.002504228	1	8	0	60
205410	-50	5	1	-0.6041156	-0.2305171	2.688221	0	11.34	4003	0	0	0	0	1.325351	0.004681329	1	8	0	60
205628	-53	0	7	-0.6095922	-0.229599	2.67104	0	11.34	4002	0	0	0	0	1.325351	0.009311315	1	8	0	60
205735	-50	2	2	-0.5976816	-0.2312951	2.662237	0	11.34	4003	0	0	0	0	1.325351	0.01107878	1	8	0	60
205833	-52	-1	7	-0.5926336	-0.2247647	2.652699	0	11.34	4003	0	0	0	0	1.325351	0.001518498	1	8	0	60
206040	-45	4	5	-0.5897909	-0.2258355	2.640533	0	11.34	4004	0	0	0	0	1.325351	-0.02144757	1	8	0	60
206233	-46	0	0	-0.5942402	-0.2264276	2.62635	0	11.29	4002	0	0	0	0	1.325351	-0.04765217	1	8	0	60
206320	-48	0	6	-0.5807005	-0.2241165	2.621887	0	11.29	4002	0	0	0	0	1.325351	-0.0504232	1	8	0	60
206585	-45	2	8	-0.5759788	-0.2217946	2.607642	0	11.29	4004	0	0	0	0	1.325351	-0.07177319	1	8	0	60
206690	-44	3	-1	-0.572666	-0.224631	2.600917	0	11.29	4004	0	0	0	0	1.325351	-0.09091492	1	8	0	60
206813	-46	3	3	-0.5663596	-0.2180041	2.594681	0	11.29	4003	0	0	0	0	1.325351	-0.105531	1	8	0	60
206873	-50	0	-3	-0.5649058	-0.2157779	2.593641	0	11.29	4002	0	0	0	0	1.325351	-0.120038	1	8	0	60
207028	-47	3	2	-0.5526099	-0.2192466	2.582025	0	11.4	4002	0	0	0	0	1.325351	-0.1593428	1	8	0	60
207120	-47	4	1	-0.5445946	-0.2168338	2.575912	0	11.4	4002	0	0	0	0	1.325351	-0.170081	1	8	0	60
207211	-36	2	2	-0.5432144	-0.2147977	2.571938	0	11.4	4004	0	0	0	0	1.325351	-0.1857867	1	8	0	60
207337	-42	4	1	1.325354	-0.2161368	2.563562	0	11.4	4003	0	0	0	0	1.325351	-0.191504	1	8	0	60
207462	-41	-2	0	-0.5336203	-0.215792	2.557204	0	11.4	4002	0	0	0	0	1.325351	-0.1906718	1	8	0	60
207524	-46	-1	2	-0.5339	-0.2123294	2.551518	0	11.4	4004	0	0	0	0	1.325351	-0.186654	1	8	0	60
207625	-43	1	3	-0.5340522	-0.210313	2.544671	0	11.4	4003	0	0	0	0	1.325351	-0.1808491	1	8	0	60
207738	-43	0	10	-0.5419226	-0.2169951	2.53385	0	11.4	4003	0	0	0	0	1.325351	-0.1781751	1	8	0	60
207830	-41	1	3	-0.5418165	-0.2136078	2.529877	0	11.4	4002	0	0	0	0	1.325351	-0.1719668	1	8	0	60
207947	-35	4	2	-0.5449679	-0.2146608	2.522906	0	11.34	4003	0	0	0	0	1.325351	-0.1674079	1	8	0	60
208057	-44	-4	4	-0.5460315	-0.2125434	2.516059	0	11.34	4002	0	0	0	0	1.325351	-0.1615168	1	8	0	60
208257	-44	0	0	-0.5406203	-0.2180438	2.508173	0	11.34	4004	0	0	0	0	1.325351	-0.1359338	1	8	0	60
208446	-43	2	3	-0.5312188	-0.2080972	2.495029	0	11.34	4003	0	0	0	0	1.325351	-0.121822	1	8	0	60
208547	-43	1	7	-0.5292485	-0.2146779	2.487754	0	11.34	4002	0	0	0	0	1.325351	-0.1258338	1	8	0	60
208656	-37	-3	4	-0.5254022	-0.2143295	2.477116	0	11.34	4002	0	0	0	0	1.325351	-0.1276972	1	8	0	60
208713	-37	2	8	-0.5216959	-0.2145821	2.472164	0	11.34	4003	0	0	0	0	1.325351	-0.1244575	1	8	0	60
208843	-35	4	3	-0.5333226	-0.2178967	2.470076	0	11.34	4004	0	0	0	0	1.325351	-0.1146942	1	8	0	60
208955	-44	-6	3	-0.5234199	-0.2202128	2.459683	0	11.34	4004	0	0	0	0	1.325351	-0.1084369	1	8	0	60
209063	-47	0	3	-0.5352272	-0.2237961	2.454559	0	11.34	4004	0	0	0	0	1.325351	-0.1089785	1	10	0	150
209268	-41	2	0	-0.5212605	-0.2237516	2.441354	0	11.34	4004	0	0	0	0	1.325351	-0.1106065	1	10	0	150
209398	-49	6	4	-0.5153196	-0.2173711	2.43365	0	11.34	4004	0	0	0	0	1.325351	-0.1017918	1	10	0	150
209461	-39	-2	2	-0.5125077	-0.2136952	2.430164	0	11.34	4004	0	0	0	0	1.325351	-0.1022802	1	10	0	150
209533	-37	0	0	-0.5033336	-0.2129538	2.42619	0	11.34	4003	0	0	0	0	1.325351	-0.1003498	1	10	0	150
209579	-41	2	3	-0.5002058	-0.2159459	2.42405	0	11.34	4004	0	0	0	0	1.325351	-0.09925646	1	10	0	150
209676	-32	-3	1	-0.5000371	-0.216816	2.419403	0	11.34	4002	0	0	0	0	1.325351	-0.09794699	1	10	0	150
209794	-33	7	3	-0.4915362	-0.2181054	2.414574	0	11.34	4003	0	0	0	0	1.325351	-0.09408062	1	10	0	150
209899	-39	2	6	-0.4776288	-0.2154644	2.410906	0	11.34	4004	0	0	0	0	1.325351	-0.09658755	1	10	0	150
210118	-49	0	7	-0.4799228	-0.2210105	2.401185	0	11.34	4004	0	0	0	0	1.325351	-0.08971551	1	10	0	150
210191	-43	0	4	-0.4836659	-0.2206342	2.397882	0	11.34	4003	0	0	0	0	1.325351	-0.08350717	1	10	0	150
210284	-34	3	0	-0.4811937	-0.2210054	2.394275	0	11.34	4004	0	0	0	0	1.325351	-0.07539597	1	10	0	150
210409	-39	0	1	-0.4724796	-0.2285144	2.3881	0	11.34	4003	0	0	0	0	1.325351	-0.06547079	1	10	0	150
210518	-31	-4	6	-0.4712878	-0.2248908	2.384126	0	11.34	4002	0	0	0	0	1.325351	-0.06214175	1	10	0	150
210587	-44	2	-3	-0.4716125	-0.2288712	2.382292	0	11.34	4002	0	0	0	0	1.325351	-0.05759182	1	10	0	150
210695	-48	3	2	-0.4713463	-0.2231856	2.378012	0	11.34	4002	0	0	0	0	1.325351	-0.05409635	1	10	0	150
210856	-38	2	-1	-0.4720496	-0.2335917	2.3719	0	11.34	4004	0	0	0	0	1.325351	-0.05169496	1	10	0	150
211000	-34	3	2	-0.4567828	-0.2345119	2.367742	0	11.34	4002	0	0	0	0	1.325351	-0.0414595	1	10	0	150
211063	-32	2	6	-0.4528749	-0.2326981	2.364197	0	11.34	4004	0	0	0	0	1.325351	-0.03245082	1	10	0	150
211165	-33	5	2	-0.4536121	-0.2286896	2.358878	0	11.34	4003	0	0	0	0	1.325351	-0.02443278	3	10	0	150
211211	-39	3	2	-0.4525861	-0.2271552	2.357655	0	11.34	4004	0	0	0	0	1.325351	-0.01542511	3	10	0	150
211360	-28	0	7	-0.4504678	-0.2241844	2.352031	0	11.34	4002	0	0	0	0	1.325351	0.003041493	3	10	0	150
211405	-38	-1	3	-0.4435772	-0.2210115	2.348974	0	11.34	4003	0	0	0	0	1.325351	0.003941499	3	10	0	150
211524	-41	-2	1	-0.445675	-0.2190135	2.342371	0	11.34	4004	0	0	0	0	1.325351	0.001978008	3	10	0	150
211591	-36	2	2	-0.4447111	-0.2200322	2.339863	0	11.34	4009	2	0	0	0	1.325351	-0.002649745	3	10	0	150
211695	-34	1	0	-0.4432208	-0.2200248	2.336684	0	11.34	4004	1	1	0	0	1.325351	-0.009005382	3	10	0	150
211850	-40	-9	-33	-0.4358697	-0.2498827	2.319384	0	11.34	4003	7	17	0	0	1.325351	-0.02059912	3	10	0	150
211904	-87	24	-13	-0.4529139	-0.2378683	2.341026	0	11.34	4004	2	10	-1	0	1.325351	-0.02616945	3	10	0	150
212044	0	-36	-94	-0.4087902	-0.2425662	2.330324	0	11.34	4003	10	-9	2	0	1.325351	-0.02853185	3	10	0	150
212095	214	49	32	-0.3730884	-0.2525823	2.321155	0	11.34	4003	28	-13	0	0	1.325351	-0.02932166	3	10	0	150
212202	44	-59	-173	-0.2118623	-0.2200249	2.327269	0	11.34	4002	-24	-7	0	0	1.325351	-0.02639605	3	10	0	150
212348	27	60	-69	-0.2447378	-0.229828	2.320479	0	11.34	4003	-22	-12	0	0	1.325351	-0.01131909	3	10	0	150
212479	98	-41	-85	-0.2160462	-0.25011	2.31845	0	11.29	4003	-16	-28	1	0	1.325351	0.01122286	3	10	0	150
212587	-20	-169	-11	-0.2792211	-0.2613002	2.356292	0	11.29	4004	-41	-2	-1	0	1.325351	0.02364106	3	10	0	150
212721	-66	-75	-81	-0.2721525	-0.3162211	2.345211	0	11.29	4003	-13	-49	-4	0	1.325351	0.0423469	3	10	0	150
212778	1224	137	781	0.04645671	-1.26075	2.181759	0	11.29	4002	51	-187	10	0	1.325351	0.05469738	3	10	0	150
212858	1853	2955	44	1.389115	-3.676452	1.979074	0	11.29	4004	-116	-19	25	0	1.325351	0.08245225	3	10	0	150
212919	-790	4675	-101	1.699181	-5.778101	1.872074	0	11.29	4004	26	-182	36	0	1.325351	0.0992476	3	10	0	150
213038	924	856	-1199	-1.145336	-11.5423	1.601905	0	11.29	4004	-104	-286	17	0	1.325351	0.141039	3	10	0	150
213131	-2205	-2638	-1070	-0.925094	-10.61328	2.247501	0	11.29	4003	110	-243	-23	0	1.325351	0.1728812	3	10	0	150
213318	-2274	-2484	-1495	-10.45932	-7.713494	3.391678	0	9.64	4003	9	-335	-58	0	1.325351	0.2131038	3	10	0	150
213367	-1302	1772	1625	-11.70666	-7.889153	2.904393	0	9.64	4004	-19	-119	-32	0	1.325351	0.2292078	3	10	0	150
213413	449	-186	248	-11.93797	-8.512329	2.175504	0	9.64	4004	29	-142	-67	0	1.325351	0.257705	3	10	0	150
213604	1392	-4021	-480	-4.958603	-5.693579	-0.5264698	0	9.64	4004	-3	152	0	0	1.325351	0.3283238	3	10	0	150
213648	1367	-1220	-416	-2.588954	-4.985219	-0.9685388	0	9.64	4003	27	-292	5	0	1.325351	0.3683825	3	10	0	150
213755	349	-960	-970	-1.949882	-6.186172	-0.9160119	0	9.64	4004	-59	185	-5	0	1.325351	0.4119829	3	10	0	150
213819	114	-2752	68	-2.093256	-4.752886	-0.2793816	0	9.64	4005	56	-383	-19	0	1.325351	0.4350397	3	10	0	150
213903	586	216	1124	-2.535698	-2.720232	0.0906867	0	9.64	4004	59	-231	-35	0	1.325351	0.4551369	3	10	0	150
214050	-911	-851	-647	-2.502151	-5.095078	-0.6756459	0	9.64	4003	61	178	4	0	1.325351	0.4976203	3	10	0	150
214174	146	-1580	-787	-2.210511	-3.509253	-0.5689992	0	9.64	4003	-71	-193	-7	0	1.325351	0.5415183	3	10	0	150
214272	677	-41	348	-1.902895	-1.605948	-0.515707	0	10.26	4004	3	-315	-4	0	1.325351	0.5658123	3	10	0	150
214312	1780	495	180	-1.152445	-1.283517	-0.2608323	0	10.26	4004	-63	149	-26	0	1.325351	0.5820113	3	10	0	150
214426	81	-687	414	-0.0260492	-2.98855	0.001993924	0	10.26	4004	-46	-93	-10	0	1.325351	0.6335142	3	10	0	150
214568	2959	2429	523	3.353005	-7.167439	0.3612608	0	10.26	4003	-9	-204	-25	0	1.325351	0.6596869	3	10	0	150
214628	965	1578	654	5.157412	-10.28288	0.1192808	0	10.26	4003	70	-288	-13	0	1.325351	0.6845294	3	10	0	150
214692	-508	-61	169	5.024996	-11.99714	-0.1591997	0	10.26	4003	37	-103	-11	0	1.325351	0.7031775	3	10	0	150
214804	-608	251	327	3.975096	-11.19369	-0.1212789	0	10.26	4003	-109	246	-1	0	1.325351	0.739422	3	10	0	150
214956	-1156	-1710	-872	1.101206	-10.64074	1.222856	0	10.26	4004	-20	267	-62	0	1.325351	0.7812449	3	10	0	150
215007	-1440	-717	880	0.3099023	-10.19867	1.064219	0	10.26	4002	-14	-105	-30	0	1.325351	0.790828	3	10	0	150
215184	-1202	521	1431	-5.312674	-6.630607	-1.219833	0	10.43	4003	105	-223	3	0	1.325351	0.8680348	3	10	0	150
215219	-28	-2078	-1844	-6.01526	-6.050203	-0.9916275	0	10.43	4004	-101	-262	-13	0	1.325351	0.8886497	3	10	0	150
215319	-308	-77	47	-4.54718	-5.468588	-0.6797032	0	10.43	4002	-52	97	17	0	1.325351	0.9425915	3	10	0	150
215555	110	3197	1634	-3.377353	-7.065337	-0.2120517	0	10.43	4004	16	-197	-16	0	1.325351	0.9969621	3	10	0	150
215638	402	4376	-412	-3.049034	-10.13682	-0.1335446	0	10.43	4004	18	-12	-20	0	1.325351	1.003624	3	10	0	150
215718	1183	3758	-393	-1.861792	-13.91515	0.071041	0	10.43	4003	-131	213	-22	0	1.325351	1.00316	3	10	0	150
215881	483	1397	143	-0.2210234	-16.43824	1.620298	0	10.43	4004	-41	107	-60	0	1.325351	0.9913424	3	10	0	150
215967	-354	-615	342	-0.1604109	-15.75452	1.342492	0	10.43	4004	34	-165	-18	0	1.325351	0.9821047	3	10	0	150
216085	-343	512	-276	-1.702888	-13.49277	-0.1115747	0	10.49	4003	0	99	-11	0	1.325351	0.9573836	3	10	0	150
216127	-2772	1370	-77	-2.879042	-14.62748	-0.4587144	0	10.49	4002	-60	104	-11	0	1.325351	0.9522897	3	10	0	150
216236	-955	-205	-905	-7.21673	-13.82076	-0.01830783	0	10.49	4002	-135	-52	-19	0	1.325351	0.9173178	3	10	0	150
216396	-1062	-820	-485	-6.944096	-17.19664	-0.4235818	0	10.49	4003	33	-269	4	0	1.325351	0.8817696	3	10	0	150
216462	-363	27	376	-7.024401	-16.91384	-0.4281135	0	10.49	4002	5	43	6	0	1.325351	0.8768411	3	10	0	150
216562	-209	310	1409	-6.656038	-16.33274	-0.8836569	0	10.49	4004	-31	-13	-5	0	1.325351	0.8802896	3	10	0	150
216584	-327	-1903	1136	-6.721173	-14.09603	-1.407608	0	10.49	4003	-53	116	34	0	1.325351	0.8815772	3	10	0	150
216680	-22	-1307	252	-6.116251	-10.81357	-1.488858	0	10.49	4003	88	37	17	0	1.325351	0.8819019	3	10	0	150
216784	1183	-3310	-420	-4.771168	-6.824304	-1.126422	0	10.49	4004	-60	-90	19	0	1.325351	0.8820108	3	10	0	150
216886	352	-560	-798	-3.813935	-6.317504	-1.287807	0	10.49	4004	3	-213	16	0	1.325351	0.8953804	3	10	0	150
217004	1013	-928	-829	-2.190347	-5.094335	-0.6711341	0	10.49	4003	-37	85	12	0	1.325351	0.9152738	3	10	0	150
217147	-257	-4105	-1783	-2.174359	-6.104086	-0.02714158	0	10.49	4003	-115	139	-22	0	1.325351	0.954846	3	10	0	150
217202	-2321	-598	712	-2.990709	-3.945183	-0.1269898	0	10.49	4003	-18	-24	0	0	1.325351	0.9705913	3	10	0	150
217324	412	-317	971	-5.211435	-5.27344	-1.190005	0	10.49	4003	-132	113	30	0	1.325351	0.9860831	3	10	0	150
217404	629	1001	-938	-3.185541	-6.174612	-1.399204	0	10.49	4003	-17	204	27	0	1.309779	0.9919404	4	10	0	150
217550	623	2261	1663	-1.123262	-7.440583	-0.8118906	0	10.49	4003	-18	-400	-16	-5	1.284453	0.9980165	4	10	0	150
217620	192	4850	832	-1.498553	-12.61501	-0.7139873	0	10.49	4003	-18	-400	-16	-5	1.272542	0.9982746	4	10	0	150
217725	-343	3989	-391	1.258098	-18.60391	-1.275771	0	10.49	4002	-29	329	26	0	1.229586	1.000716	4	10	0	150
217776	-264	3373	230	0.9786722	-20.01839	-1.331437	0	10.49	4003	-40	21	25	0	1.235468	1.009636	4	10	0	150
217903	-298	-5079	-1300	0.514317	-17.24388	-0.829726	0	10.77	4004	40	-183	-10	-4	1.263865	1.021107	4	10	0	150
217986	1662	-2847	223	0.5501065	-11.19119	-0.7678041	0	10.77	4003	-33	107	-16	1	1.220544	1.022169	4	10	0	150
218142	-523	200	-110	1.710383	-6.6406	-1.120031	0	10.77	4003	59	-185	2	-3	1.19602	1.023517	4	10	0	150
218189	-523	200	-110	1.710383	-6.6406	-1.120031	0	10.77	4003	-49	11	22	-6	1.214076	1.032048	4	10	0	150
218351	-259	-806	724	0.3553155	-3.985241	-0.3439686	0	10.77	4003	18	267	-20	-5	1.235119	1.046013	4	10	0	150
218419	-1603	-226	169	-0.5299134	-3.506941	-0.07591256	0	10.77	4003	-9	113	-22	-6	1.294058	1.061816	4	10	0	150
218499	-1946	1921	59	-2.597591	-4.523108	-0.1361847	0	10.77	4004	-76	-211	-7	-3	1.298635	1.072199	4	10	0	150
218626	-1254	-975	690	-5.219433	-4.654971	-0.2286722	0	10.77	4002	0	250	-17	-1	1.269931	1.081456	4	10	0	150
218729	-936	1785	300	-6.032435	-4.033195	0.2140074	0	10.77	4002	114	133	-29	-7	1.296941	1.081259	4	10	0	150
218796	51	3211	1967	-5.891338	-6.997494	-0.9746624	0	10.38	4003	-70	195	19	17	1.167247	1.081188	4	10	0	150
218963	912	1638	-1642	-3.915788	-10.98857	-0.8903762	0	10.38	4002	-4	-136	-20	-12	1.255835	1.101322	4	10	0	150
219004	-98	2929	128	-3.102541	-13.05644	-0.3685002	0	10.38	4004	46	246	-28	-1	1.250576	1.106021	4	10	0	150
219192	-219	1068	585	-4.658324	-14.48017	-0.6768053	0	10.38	4004	-65	-177	15	-7	1.324544	1.161073	4	10	0	150
219213	1342	3813	1265	-3.986327	-15.36903	-0.9221395	0	10.38	4003	-76	70	-14	-1	1.324544	1.161073	4	10	0	150
219366	346	-1028	-2088	-2.529404	-18.54959	-0.326048	0	10.38	4004	-24	179	-35	-6	1.306778	1.205627	4	10	0	150
219456	-2275	-1281	-36	-2.405112	-18.5983	0.273863	0	10.38	4004	117	-252	-33	-2	1.290815	1.24789	4	10	0	150
219516	-193	704	-1016	-2.929879	-18.19255	0.4971727	0	10.38	4003	-26	-117	-43	-2	1.282367	1.254086	4	10	0	150
219720	279	-832	-208	-0.9467615	-19.66707	0.1719514	0	10.89	4002	-11	-118	-18	-2	1.339039	1.306418	4	10	0	150
219775	330	-466	-1240	-0.6903027	-19.72193	0.4174354	0	10.89	4002	56	-308	-22	18	1.196508	1.325871	4	10	0	150
219822	-4142	-133	-76	-2.718261	-19.53236	0.07428374	0	10.89	4003	17	162	-24	0	1.181756	1.349225	4	10	0	150
220019	-1685	-2312	1257	-8.383353	-13.36612	-0.436433	0	10.89	4003	49	-400	7	-6	1.24076	1.411824	4	10	0	150
220093	22	-544	1062	-9.448454	-9.281487	-1.00429	0	10.89	4003	-27	196	13	0	1.234709	1.444954	4	10	0	150
220140	-958	-2117	-260	-9.741456	-8.264788	-1.101083	0	10.89	4004	27	-276	-4	0	1.20931	1.482034	4	10	0	150
220275	-107	-1569	-950	-10.44966	-7.871313	-0.9860253	0	10.89	4004	-107	-142	-13	-4	1.253893	1.556255	4	10	0	150
220344	1674	-192	-160	-7.629704	-6.566356	-0.6319757	0	10.89	4003	-23	234	-15	-1	1.240751	1.608273	4	10	0	150
220430	452	-2743	-771	-4.251701	-5.383625	-0.463176	0	10.89	4004	33	-155	2	0	1.108217	1.728016	4	10	0	150
220565	-354	-2480	-476	-4.107852	-2.244527	-0.6678699	0	10.89	4003	43	-162	12	-1	1.095917	1.894793	4	10	0	150
220628	1945	-430	-887	-3.676778	-2.289165	-0.8198252	0	10.6	4004	-33	126	-6	-1	1.068618	1.934813	5	10	0	150
220760	870	-1768	-1550	-1.258475	-4.531208	-0.5176109	0	10.6	4003	-45	184	9	1	1.07271	2.056138	5	10	0	150
220875	-1936	-3183	-362	-3.327909	-3.391049	-1.007084	0	10.6	4004	-121	86	18	1	1.094792	2.119735	5	10	0	150
221048	-42	1887	527	-2.261102	-5.114498	-1.075343	0	10.6	4003	-90	263	22	1	1.160865	2.202226	5	10	0	150
221171	-452	-3313	-1365	-2.671448	-5.597923	-0.4763014	0	10.6	4002	47	-197	-55	5	1.110412	2.225994	5	10	0	150
221263	1262	3305	1392	-1.233683	-4.300509	0.441359	0	10.6	4004	10	-253	-41	3	1.092793	2.219755	5	10	0	150
221363	1114	2929	-1080	0.06657853	-8.413111	0.2172932	0	10.6	4003	-85	-148	-10	3	1.133633	2.208559	5	10	0	150
221423	-516	-427	-374	0.2931814	-11.0877	0.1315354	0	10.6	4004	51	-383	-21	3	1.152937	2.206789	5	10	0	150
221599	895	2052	1261	-0.4352879	-10.33573	0.5640832	0	10.32	4004	-202	243	-16	2	1.154557	2.205508	5	10	0	150
221638	1258	4102	2282	0.6274858	-11.70425	0.3317611	0	10.32	4002	-95	-348	-42	5	1.178124	2.201495	5	10	0	150
221722	215	2239	-112	0.6370304	-12.57991	0.15571	0	10.32	4004	-26	-318	-32	5	1.212981	2.199014	5	10	0	150
221856	-440	181	2068	-2.533245	-9.564128	0.1318735	0	10.32	4003	-84	147	-17	2	1.168211	2.212439	5	10	0	150
221915	-1819	675	1271	-3.560499	-8.256422	-0.4596443	0	10.32	4003	16	-216	0	2	1.162693	2.218239	5	10	0	150
222050	-2962	-1184	-1397	-7.668043	-8.857	-0.9124197	0	10.32	4002	66	-266	-17	2	1.062505	2.226612	5	10	0	150
222137	-328	-2013	-795	-9.212363	-8.308905	-0.8482937	0	10.32	4004	144	37	-4	2	1.122024	2.234914	5	10	0	150
222229	-4	1831	-826	-8.765019	-9.256514	-0.9390839	0	10.32	4004	-107	124	18	2	1.172664	2.258515	5	10	0	150
222355	589	-330	-493	-7.644359	-12.64872	-0.3675671	0	10.32	4004	-62	-227	-16	1	1.150451	2.279732	5	10	0	150
222511	-1206	105	578	-6.015657	-17.70813	0.04962414	0	10.83	4002	68	-186	-19	0	1.171262	2.33288	5	10	0	150
222545	-54	-1139	543	-6.103684	-16.61777	-0.005809823	0	10.83	4002	68	-186	-19	0	1.241242	2.345828	5	10	0	150
222661	1538	-1082	-333	-5.001732	-14.65986	0.1429889	0	10.83	4004	-46	-6	5	0	1.304915	2.373625	5	10	0	150
222883	349	130	204	-3.801115	-17.83778	-0.2890999	0	10.83	4003	0	-346	-40	-1	1.277436	2.435045	5	10	0	150
222972	-8	-1027	705	-4.221659	-14.92862	-0.01987004	0	10.83	4003	-18	319	-13	-1	1.264291	2.47967	5	10	0	150
