time(ms)	gyro_x(deg/s)	gyro_y(deg/s)	gyro_z(deg/s)	orientation_roll(deg)	orientation_pitch(deg)	orientation_yaw(deg)	throttle	battery(V)	loop_time(uS)	pid_output_roll	pid_output_pitch	pid_output_yaw	pid_output_throttle	ultrasonic_alt	baro_alt	flight_mode	p_gain_altitude	i_gain_altitude	d_gain_altitude
223181	-1223	-3232	-335	-5.286203	-7.26292	-1.078179	0	10.83	4004	69	-392	3	-2	1.181671	2.586738	5	10	0	150
223204	-338	-254	186	-5.366357	-6.24277	-1.137007	0	10.83	4002	13	-317	5	-3	1.190757	2.611832	5	10	0	150
223362	1564	1579	153	-4.515526	-7.957677	-1.133354	0	11.06	4003	-144	89	20	-3	1.138133	2.684652	5	10	0	150
223439	70	-902	-353	-4.095941	-7.02345	-0.5468956	0	11.06	4004	11	47	-34	-4	1.146446	2.73308	5	10	0	150
223502	1470	-1943	-1269	-4.14478	-6.121455	-0.003762901	0	11.06	4004	-56	123	-33	-10	1.210351	2.785372	5	10	0	150
223679	-389	41	-165	-1.383958	-4.069563	0.07417957	0	11.06	4003	-63	242	-11	-10	1.150812	2.903398	5	10	0	150
223739	-389	41	-165	-1.383958	-4.069563	0.07417957	0	11.06	4003	13	-394	-18	-6	1.167411	2.941457	5	10	0	150
223895	-858	2744	823	-1.56409	-7.895141	-0.8575332	0	11.06	4003	159	-157	8	-6	1.205625	3.0108	5	10	0	150
223956	-964	2129	457	-2.183975	-9.007771	-0.9514895	0	11.06	4003	-138	150	7	-7	1.199808	3.034966	5	10	0	150
224048	562	-80	-1334	-0.7820242	-9.48395	0.1622466	0	11.06	4008	-21	18	-36	-7	1.180649	3.072889	5	10	0	150
224132	-733	-661	-858	-0.8929244	-9.258471	0.3650116	0	11.06	4004	-105	234	-36	-8	1.200617	3.13887	5	10	0	150
224258	-10	5487	993	-2.770061	-11.88875	0.2015194	0	11.06	4003	-72	231	-6	-14	1.273646	3.171742	5	10	0	150
224358	-661	128	442	-2.874064	-14.99606	-0.1131141	0	10.43	4004	-13	64	-13	-8	1.24016	3.21216	5	10	0	150
224492	-657	-2373	-862	-1.640268	-9.985805	0.6003124	0	10.43	4004	52	-346	-37	-7	1.183702	3.249673	5	10	0	150
224646	-1626	2359	968	-3.094772	-10.10107	-0.4119786	0	10.43	4003	-37	316	0	-8	1.207986	3.279708	5	10	0	150
224755	-249	1298	540	-4.328484	-12.55102	-0.5525411	0	10.43	4003	-17	-244	1	-14	1.240983	3.288035	5	10	0	150
224866	-1016	-1402	-397	-5.074526	-12.36474	0.261629	0	10.43	4003	35	-248	-42	-7	1.297174	3.289564	5	10	0	150
224978	46	2423	754	-6.897999	-11.64416	0.02033468	0	10.43	4004	-8	-113	-16	-13	1.184901	3.284286	5	10	0	150
225087	657	-758	-1218	-6.066216	-13.93642	0.3011855	0	10.43	4002	13	-164	-38	-7	1.289335	3.280401	5	10	0	150
225172	525	-3047	-679	-4.949892	-12.97142	1.040571	0	10.43	4002	37	-272	-60	-8	1.329469	3.283693	5	10	0	150
225325	-400	1349	679	-4.595928	-11.92345	1.362911	0	11.06	4004	-26	206	-46	-14	1.28423	3.296108	5	10	0	150
225357	-337	2075	385	-4.828483	-12.35379	1.044479	0	11.06	4004	-19	194	-42	-7	1.298049	3.296166	5	10	0	150
225441	1160	-1296	-783	-3.52176	-13.04119	0.4152632	0	11.06	4004	-4	102	-34	-8	1.298049	3.296166	5	10	0	150
225639	-698	-2044	-1158	-3.055614	-13.20123	0.5475634	0	11.06	4004	34	-327	-42	-8	1.323471	3.292355	5	10	0	150
225688	189	-933	702	-3.140841	-11.48412	0.5820879	0	11.06	4004	-101	48	-20	-7	1.307675	3.289241	5	10	0	150
225736	189	-933	702	-3.140841	-11.48412	0.5820879	0	11.06	4004	-170	165	-28	-7	1.280665	3.281446	5	10	0	150
225868	-1226	-2350	63	-5.562677	-8.388839	0.2700372	0	11.06	4004	71	-318	-38	-8	1.346409	3.276336	5	10	0	150
225967	-32	926	1169	-6.398915	-7.914859	-0.2227457	0	11.06	4003	-68	42	7	-12	1.383554	3.260182	5	10	0	150
226096	742	1411	566	-5.288602	-10.10756	-0.6391838	0	11.06	4002	-46	34	-9	-7	1.35426	3.24941	5	10	0	150
226227	23	1628	621	-6.390287	-8.77541	0.4414406	0	11.11	4004	-118	264	-27	-6	1.225959	3.223081	5	10	0	150
226310	907	-717	-207	-5.213379	-8.618603	1.026468	0	11.11	4003	-118	264	-27	-6	1.203116	3.193468	5	10	0	150
226354	43	1464	-508	-4.910521	-10.66544	0.8212817	0	11.11	4004	-48	400	-31	-5	1.218701	3.18615	5	10	0	150
226572	-61	-2173	-329	-3.911982	-11.51516	0.3603036	0	11.11	4003	-36	212	-32	-5	1.270331	3.128598	5	10	0	150
226667	18	-752	482	-3.234766	-11.1354	-0.0375702	0	11.11	4002	-51	-80	-18	-8	1.136793	3.094372	5	10	0	150
226821	648	-4233	-766	-2.406585	-4.989416	0.8215713	0	11.11	4003	3	-227	-32	-3	1.176715	3.03267	5	10	0	150
226897	-7	-1093	487	-2.47733	-3.787407	0.5196921	0	11.11	4004	-95	7	-24	-3	1.203783	3.005341	5	10	0	150
226995	1565	2060	1674	-0.8264354	-4.349488	0.2649668	0	11.11	4004	-86	335	-8	-3	1.229125	2.968325	5	10	0	150
227120	-1088	-646	555	-1.323363	-5.338076	-0.368692	0	11.23	4004	-37	-180	1	-2	1.231841	2.924626	5	10	0	150
227220	1062	-1925	324	-0.9886068	-4.228324	0.01110972	0	11.23	4004	73	-180	-55	-2	1.215456	2.867843	5	10	0	150
227320	-203	62	-704	-1.341028	-4.115619	0.4305087	0	11.23	4003	-34	-206	-22	0	1.23427	2.772294	5	10	0	150
227407	646	1302	541	-0.680083	-6.404488	0.203431	0	11.23	4003	105	-271	-14	0	1.278528	2.723252	5	10	0	150
227577	1715	1206	-37	0.1096254	-7.22956	0.03548091	0	11.23	4003	3	-80	-31	0	1.295576	2.641448	5	10	0	150
227679	-1657	2445	-691	0.03407456	-9.71912	-0.3383791	0	11.23	4003	-123	94	3	1	1.171703	2.591821	5	10	0	150
227831	-632	-1318	-1239	-2.635368	-14.32523	0.4380694	0	11.23	4004	56	-15	-42	2	1.295956	2.519934	5	10	0	150
227927	-1334	1242	1088	-2.804821	-13.6847	0.334232	0	11.23	4002	56	-15	-42	2	1.316953	2.423289	5	10	0	150
228010	-543	-396	-659	-6.01702	-13.84267	-0.7304785	0	9.75	4003	-86	-169	3	7	1.177693	2.370628	5	10	0	150
228088	-572	-2572	-1342	-5.287302	-13.59531	-0.8899218	0	9.75	4002	3	-259	-15	5	1.15708	2.259517	5	10	0	150
228198	-45	232	25	-5.957741	-11.6135	-0.6802115	0	9.75	4004	-58	-3	9	6	1.188617	2.173785	5	10	0	150
228468	1531	231	-108	-7.583087	-10.27383	0.3848493	0	9.75	4004	-53	217	-32	7	1.236184	1.977856	5	10	0	150
228512	1531	231	-108	-7.583087	-10.27383	0.3848493	0	9.75	4004	81	-57	-33	7	1.24709	1.961297	5	10	0	150
228644	1706	892	145	-5.430155	-12.29705	0.0165415	0	9.75	4002	-78	87	-1	9	1.154251	1.862907	5	10	0	150
228746	-149	1963	-839	-3.053842	-12.48108	0.1537108	0	9.75	4003	-59	-61	-14	17	1.170574	1.765193	5	10	0	150
228844	920	842	82	-1.899379	-16.32411	-0.02191849	0	9.75	4002	82	-249	-13	11	1.1629	1.717476	5	10	0	150
228974	-982	-1077	241	-2.058474	-15.12899	-0.5915402	0	9.75	4004	30	-314	11	11	1.17283	1.622512	5	10	0	150
229018	-982	-1077	241	-2.058474	-15.12899	-0.5915402	0	9.75	4004	38	-12	38	11	1.179713	1.607631	5	10	0	150
229135	510	-1422	683	-2.734729	-11.80953	-0.7311565	0	9.13	4004	10	-329	-14	10	1.157505	1.53909	5	10	0	150
229204	99	275	187	-2.743473	-11.80953	-0.7311565	0	9.13	4004	30	-192	-31	11	1.217028	1.500922	5	10	0	150
229387	-45	1483	1287	-4.25522	-12.06663	-0.5583653	0	9.13	4004	-34	237	7	36	1.206728	1.373282	5	10	0	150
229470	477	-244	1669	-4.22	-11.00304	-0.4156376	0	9.13	4003	-29	228	4	22	1.224621	1.316496	5	10	0	150
229508	-674	-3394	-1354	-4.734414	-9.763047	-0.5142559	0	9.13	4003	16	-385	-12	19	1.221592	1.289216	5	10	0	150
229604	-7	543	777	-4.869504	-8.251461	-0.9589145	0	9.13	4002	-81	-81	22	20	1.239677	1.249846	5	10	0	150
229759	-601	-3606	-1244	-3.102062	-7.300066	-1.078894	0	9.13	4004	10	146	15	23	1.223397	1.17017	5	10	0	150
229880	603	-1041	-574	-1.884291	-4.351115	-0.476812	0	10.55	4004	10	-227	-17	25	1.134658	1.107185	5	10	0	150
229931	626	794	500	-1.599674	-4.555946	-0.6546612	0	10.55	4003	51	149	-6	23	1.115756	1.081717	5	10	0	150
229999	1026	803	475	-0.7163315	-5.842427	-0.6110231	0	10.55	4004	-12	185	-4	22	1.113769	1.075236	5	10	0	150
230164	23	-1060	763	0.975412	-5.18017	-0.2328451	0	10.55	4003	-2	-142	1	24	1.113045	1.026928	5	10	0	150
230277	-60	2003	612	0.4752805	-4.119739	-0.6299446	0	10.55	4002	-43	310	5	27	1.089794	0.9797582	5	10	0	150
230364	-1290	-1002	-989	0.06215357	-4.586424	-0.6430759	0	10.55	4004	36	-302	-17	24	1.103595	0.9561802	5	10	0	150
230395	210	-735	-722	-1.456022	-3.428227	0.139002	0	10.55	4003	-72	-159	-31	46	1.103595	0.9561802	5	10	0	150
230503	-1324	1372	358	-3.015456	-4.665178	0.1551622	0	10.55	4003	-108	90	-11	28	1.170449	0.9171562	5	10	0	150
230600	-908	-590	-892	-3.347729	-4.40712	0.1866791	0	10.55	4004	30	-58	-33	47	1.159802	0.8957307	5	10	0	150
230728	-922	69	1993	-5.677364	-3.316091	-0.6302858	0	10.55	4003	96	224	4	28	0.9923831	0.8664672	5	10	0	150
230836	-362	945	795	-5.408692	-4.420722	-1.509094	0	10.04	4003	4	-198	10	24	1.053738	0.8350973	5	10	0	150
230951	937	191	367	-4.087867	-4.307738	-0.5844955	0	10.04	4004	-100	-224	-11	25	1.10493	0.8140045	5	10	0	150
231105	762	-911	-1203	-2.595842	-3.4758	0.6289908	0	10.04	4003	-25	-266	-24	30	1.111286	0.790688	5	10	0	150
231240	562	2984	1577	-2.37178	-6.547939	-0.3114232	0	10.04	4004	-128	400	1	26	1.151144	0.7647489	5	10	0	150
231328	-463	2120	-528	-1.156771	-10.05969	0.04202106	0	10.04	4002	-121	166	-4	30	1.1689	0.752018	5	10	0	150
231382	-463	2120	-528	-1.156771	-10.05969	0.04202106	0	10.04	4002	-6	30	2	28	1.166469	0.748066	5	10	0	150
231497	626	2342	-268	-1.471178	-11.20005	0.1218594	0	10.04	4002	-42	357	-8	28	1.143856	0.7454738	5	10	0	150
231578	56	2442	20	-0.8836965	-13.35967	0.01677929	0	10.04	4003	24	-206	-15	27	1.117588	0.7476696	5	10	0	150
231733	-845	849	1078	0.02003006	-13.30276	-0.1800767	0	10.89	4004	-193	208	-4	29	1.118518	0.7596237	5	10	0	150
231839	288	-1415	1394	-2.039735	-10.32539	0.05387823	0	10.89	4004	-9	148	-4	24	1.006259	0.7690113	5	10	0	150
232008	-648	-2934	-103	-0.773968	-9.277913	-0.2491544	0	10.89	4002	-56	178	-5	23	1.129807	0.8315573	5	10	0	150
232123	-2598	1092	885	-3.064454	-4.436003	-0.2469968	0	10.89	4003	116	127	-7	24	1.152365	0.8606501	5	10	0	150
232262	-383	71	-277	-4.745462	-8.747978	-0.4885106	0	10.89	4004	78	-131	13	43	1.213955	0.9202994	5	10	0	150
232325	-309	778	276	-7.439858	-8.06707	-1.129895	0	10.89	4004	-28	64	-6	25	1.189111	0.9485638	5	10	0	150
232411	-946	3209	882	-6.483686	-10.22282	-0.9508474	0	10.89	4003	33	-172	-2	22	1.127496	0.9899247	5	10	0	150
232481	-193	-266	280	-6.878837	-10.98187	-0.6565675	0	10.89	4003	-10	-45	7	20	1.11299	1.030064	5	10	0	150
232583	-1601	-1789	427	-7.004176	-9.751621	-0.8370007	0	10.55	4002	-48	288	19	22	1.151552	1.089505	5	10	0	150
232677	614	-802	-1555	-7.04793	-8.303224	-1.228794	0	10.55	4002	-43	-182	-11	19	1.196305	1.142232	5	10	0	150
232795	546	1694	97	-5.889728	-8.239905	-0.9245477	0	10.55	4003	78	-76	-18	16	1.215884	1.26678	5	10	0	150
232869	807	1594	-710	-3.342042	-11.49692	-0.5462447	0	10.55	4003	0	-246	-16	29	1.228407	1.319638	5	10	0	150
232979	1023	1623	377	-2.039527	-12.02404	-0.4164226	0	10.55	4004	-95	-31	3	16	1.208853	1.385809	5	10	0	150
233075	-497	373	524	-1.293303	-12.62776	-0.6345202	0	10.55	4003	79	123	-5	25	1.194412	1.45053	5	10	0	150
233193	-453	337	-451	-1.285487	-12.41938	-1.070635	0	10.55	4003	11	-242	12	7	1.182491	1.542454	5	10	0	150
233280	-76	-883	283	-1.535622	-11.84768	-1.037072	0	10.55	4002	-108	-2	15	5	1.19863	1.621499	5	10	0	150
233497	-227	-4020	-1770	-1.5134	-8.183764	-0.1639204	0	10.55	4002	9	-328	-28	7	1.114019	1.865499	5	10	0	150
233588	286	253	-991	-0.339943	-6.843019	0.1886865	0	10.49	4003	-6	-133	-41	6	1.104656	1.93557	5	10	0	150
233751	256	-198	422	-0.330554	-7.949449	-0.3877119	0	10.49	4002	-169	197	-1	2	1.161835	2.046634	5	10	0	150
233982	-1057	-2589	-703	-3.071317	-6.792311	-0.8096679	0	10.49	4004	46	-146	-3	0	1.153891	2.1897	5	10	0	150
234040	818	-2521	-455	-2.938845	-5.429362	-1.249913	0	10.49	4004	15	-221	1	0	1.177211	2.237268	5	10	0	150
234126	1368	1897	666	-1.631021	-5.841807	-1.100558	0	10.49	4004	-116	226	17	0	1.193097	2.319104	5	10	0	150
234174	-1356	-848	-924	-1.387411	-7.860129	-0.9686127	0	10.49	4002	93	-260	-7	-1	1.203578	2.335715	5	10	0	150
234278	-722	1850	420	-2.493413	-9.253389	-0.4698945	0	10.49	4004	61	219	-18	-2	1.266118	2.425424	5	10	0	150
234378	-863	-1663	248	-2.846186	-8.8273	0.2056784	0	10.49	4003	40	105	-22	-5	1.405994	2.516744	5	10	0	150
234533	1083	1613	978	-3.14537	-5.510165	-0.2954389	0	10.55	4004	26	-349	-17	-3	1.441769	2.619295	5	10	0	150
234617	1	3061	452	-1.653949	-7.540409	-0.4436634	0	10.55	4002	56	25	-15	-4	1.370718	2.686866	5	10	0	150
234677	-1348	1911	87	-2.012079	-8.890871	-0.712833	0	10.55	4004	-45	44	7	-4	1.343578	2.706283	5	10	0	150
234781	-1510	-415	-294	-4.252103	-10.7775	-0.361223	0	10.55	4004	-11	204	-18	-9	1.293092	2.796462	5	10	0	150
234898	-288	1829	1159	-6.114159	-8.756596	0.4840685	0	10.55	4004	-51	76	-21	-11	1.223103	2.865037	5	10	0	150
234993	684	77	399	-6.958918	-10.68556	0.896288	0	10.55	4004	9	-63	-56	-12	1.20006	2.935503	5	10	0	150
235111	-478	317	1334	-6.690353	-10.49599	0.1261462	0	10.55	4002	-69	87	-4	-7	1.330842	3.078229	5	10	0	150
235240	-177	1845	-1189	-6.674294	-12.81014	0.3875284	0	10.55	4003	2	-60	-25	-9	1.308968	3.144194	5	10	0	150
235329	1165	2038	994	-6.43542	-14.95758	-0.02659345	0	11	4004	-59	48	-7	-9	1.267987	3.213254	5	10	0	150
235442	-236	-746	0	-4.990108	-16.14397	-0.5831375	0	11	4003	39	-199	-2	-9	1.28794	3.278409	5	10	0	150
235506	120	-1858	-1088	-4.544455	-14.03792	-0.330718	0	11	4002	68	-121	-24	-11	1.29016	3.326253	5	10	0	150
235652	-189	1073	-853	-4.345735	-13.19074	0.5926087	0	11	4004	46	102	-40	-19	1.203532	3.421701	5	10	0	150
235780	1134	372	387	-3.391361	-14.75149	0.9436681	0	11	4002	-150	130	-36	-11	1.199476	3.487482	5	10	0	150
235839	217	-191	462	-2.844423	-13.32454	1.007075	0	11	4004	19	114	-49	-16	1.214773	3.510418	5	10	0	150
235910	240	-1273	-688	-3.068185	-12.27088	0.9718956	0	11	4002	-23	-241	-49	-19	1.168425	3.547038	5	10	0	150
235989	534	-1823	926	-2.087916	-11.43669	0.286613	0	11	4002	15	-144	-17	-19	1.195374	3.589382	5	10	0	150
236140	-624	570	408	-1.403286	-8.637099	-0.229286	0	11	4004	-53	76	-4	-37	1.283506	3.694573	5	10	0	150
236248	-1239	-1368	-806	-2.43116	-8.829407	-0.1862069	0	10.32	4003	-25	-38	-23	-37	1.299122	3.731069	5	10	0	150
236269	-2117	-2478	-486	-3.267182	-8.077144	-0.03759956	0	10.32	4002	2	14	-25	-21	1.307027	3.739188	5	10	0	150
236356	-786	1680	1190	-5.219259	-6.207251	0.6376865	0	10.32	4002	-132	89	-24	-19	1.294821	3.775894	5	10	0	150
236504	-2944	-2873	-590	-11.36808	-5.760538	0.2742803	0	10.32	4003	103	-96	-31	-21	1.212398	3.801718	5	10	0	150
236605	-1840	-2061	-940	-12.51615	-5.70384	-0.1477435	0	10.32	4004	57	-217	-9	-38	1.182575	3.820127	5	10	0	150
236668	2620	-2121	-876	-10.69509	-4.096696	0.02301976	0	10.32	4004	-68	-120	-34	-38	1.183133	3.822483	5	10	0	150
236826	710	-587	261	-5.161451	-4.317573	-0.4161649	0	10.32	4004	-40	-182	-4	-38	1.16877	3.827497	5	10	0	150
236905	1176	-2364	-1073	-3.660322	-3.621272	-0.1647467	0	10.32	4003	-27	-264	-17	-38	1.193215	3.831311	5	10	0	150
236994	503	1759	-527	-1.34844	-4.863332	0.7616054	0	10.32	4003	-18	209	-38	-21	1.189277	3.836887	5	10	0	150
237114	1178	530	696	-0.9281718	-8.093066	-0.06263223	0	10.38	4004	23	69	-22	-21	1.197453	3.839051	5	10	0	150
237151	1517	-1211	883	-0.2019152	-8.215305	-0.5368779	0	10.38	4003	-133	89	0	-22	1.241662	3.839067	5	10	0	150
237280	246	1396	436	1.468734	-7.236089	-0.7988599	0	10.38	4004	-55	191	-3	-19	1.242502	3.827615	5	10	0	150
237357	-200	507	-338	-0.6262885	-9.996013	-0.4322989	0	10.38	4004	117	-235	-14	-22	1.256093	3.817498	5	10	0	150
237574	345	1778	780	-1.734554	-8.651774	0.2171599	0	10.38	4004	-122	187	-10	-20	1.330529	3.757838	5	10	0	150
237684	2183	2524	233	-0.6351232	-10.886	-0.1754646	0	10.38	4003	-127	192	-12	-19	1.301038	3.700128	5	10	0	150
237863	1716	1333	990	-0.360237	-13.8984	-0.9336781	0	10.38	4002	82	-183	14	-15	1.263488	3.637064	5	10	0	150
237986	317	15	-332	0.7544525	-15.02288	-1.29459	0	10.38	4003	28	114	-14	-15	1.146891	3.534143	5	10	0	150
238033	763	1186	854	-0.8552698	-12.76864	-0.0102352	0	10.38	4003	42	130	-30	-7	1.151258	3.498452	5	10	0	150
238121	-718	-93	271	-0.3069953	-14.3293	-0.3089786	0	9.87	4004	83	-64	-17	-6	1.148156	3.428803	5	10	0	150
238217	-1743	-854	1169	-1.52104	-14.80198	-1.238654	0	9.87	4002	93	-264	27	-6	1.189692	3.350818	5	10	0	150
238305	125	2223	1460	-2.280852	-14.61233	-2.629976	0	9.87	4003	4	-213	35	-5	1.188823	3.292599	5	10	0	150
238395	-2633	-808	115	-4.171031	-15.43559	-3.253864	0	9.87	4002	-117	175	79	-3	1.140399	3.21071	5	10	0	150
238563	111	457	760	-3.202969	-10.00791	-2.723234	0	9.87	4004	52	-151	29	0	1.274852	2.969808	3	10	0	150
238619	330	-1343	-358	-3.456798	-9.600439	-2.582898	0	9.87	4003	-64	54	55	0	1.294239	2.934742	3	10	0	150
238724	-1750	-1922	283	-4.408968	-7.153915	-2.540123	0	9.87	4003	36	128	40	0	1.354245	2.74969	3	10	0	150
238807	-46	-87	-565	-5.67639	-5.475755	-1.994587	0	9.87	4002	76	-181	22	0	1.375997	2.688843	3	10	0	150
238928	1442	309	-610	-4.105417	-4.951087	-0.9580494	0	9.87	4004	16	142	-11	0	1.401126	2.49076	3	10	0	150
239047	-468	-1286	829	-3.690392	0.1927082	0.20468	0	9.47	4004	-78	5	-26	0	1.424374	2.161093	3	10	0	150
239092	1455	175	-1887	-3.28746	0.1479147	0.5442595	0	9.47	4002	-12	-75	-34	0	1.428809	2.145648	3	10	0	150
239206	-464	-1548	-1217	-1.275267	-4.071948	0.1910844	0	9.47	4003	29	-400	-16	0	1.445155	1.885859	3	10	0	150
239320	296	1750	829	-2.403897	-4.28696	-0.3997784	0	9.47	4003	-155	118	15	0	1.451543	1.706948	3	10	0	150
239432	-1607	-1397	68	-3.87518	-4.084312	-0.5836646	0	9.47	4004	-41	72	-1	0	1.4562	1.63428	3	10	0	150
239516	-413	-253	-212	-6.055424	-2.753634	0.3966562	0	9.47	4003	42	-355	-40	0	1.459594	1.430052	3	10	0	150
239633	-2361	704	-71	-7.316928	-4.190636	0.5279099	0	9.47	4003	37	-96	-37	0	1.462069	1.366735	3	10	0	150
239706	-1734	2439	443	-8.067641	-6.861158	0.3811758	0	9.47	4004	81	52	-13	0	1.463334	1.331995	3	10	0	150
239902	-84	896	237	-5.609941	-12.34419	-0.3382613	0	10.6	4002	-78	94	-11	0	1.46586	1.178298	3	10	0	150
239980	439	-1114	-628	-4.375025	-11.77374	0.1958782	0	10.6	4003	0	-13	-34	0	1.466405	1.127252	3	10	0	150
240067	-225	-3419	-915	-3.692733	-8.25527	1.190458	0	10.6	4004	95	-253	-51	0	1.467034	1.058681	3	10	0	150
240147	436	259	1265	-3.578815	-6.569026	1.326692	0	10.6	4003	95	-253	-51	0	1.467492	0.9807089	3	10	0	150
240214	-321	1248	-155	-3.698079	-4.360727	2.032656	0	10.6	4003	-103	17	-69	0	1.467727	0.9384298	3	10	0	150
240320	-1265	909	776	-2.190742	-7.740663	0.9106831	0	10.6	4002	-101	371	-28	0	1.467997	0.9027015	3	10	0	150
240363	-1929	-2091	-752	-3.578405	-7.569327	-0.3794904	0	10.6	4003	61	-47	-16	0	1.468136	0.8746482	3	10	0	150
240497	728	1251	250	-1.747303	-6.287811	-2.499067	0	10.6	4004	-109	-199	52	0	1.468339	0.8237706	3	10	0	150
240567	580	3687	1082	-0.5746199	-8.06935	-3.16238	0	10.6	4004	-22	103	69	0	1.468412	0.8070694	3	10	0	150
240674	1360	3122	-1386	-0.7806047	-12.05617	-3.101532	0	10.6	4003	-40	-5	60	0	1.468497	0.7949833	3	10	0	150
240855	-630	-2	-456	-0.04809983	-13.37775	-1.37839	0	11	4002	14	216	11	0	1.468604	0.8169073	3	10	0	150
240908	-807	-2274	-1548	-1.442302	-12.14203	-1.019599	0	11	4003	-20	-202	7	0	1.468617	0.8241116	3	10	0	150
241025	-376	-1338	1081	-1.023478	-8.654345	-1.514415	0	11	4004	24	-137	19	0	1.468654	0.8509896	3	10	0	150
241216	843	-1054	830	-0.9928699	-3.22936	-2.592769	0	11	4003	-19	90	60	0	1.468688	0.8668942	3	10	0	150
241276	-148	-1423	531	-0.8252309	-0.446726	-2.705789	0	11	4004	33	-44	35	0	1.468695	0.8754965	3	10	0	150
241375	-1296	-1814	-694	-0.4039866	1.211195	-2.665132	0	11	4006	-32	237	53	0	1.468703	0.8961053	3	10	0	150
241521	0	1395	330	-2.509482	0.2112699	-2.554564	0	11	4002	76	75	40	0	1.468711	0.9011139	3	10	0	150
241579	-662	666	-1434	-2.718995	-1.165817	-1.98981	0	11	4002	-84	106	39	0	1.468714	0.8938058	3	10	0	150
241765	-111	274	-1433	-5.743828	-2.647165	0.230355	0	10.38	4002	-20	-12	-11	0	1.468719	0.8413765	3	10	0	150
241865	531	-1240	-826	-4.849551	-3.700991	0.5026847	0	10.38	4003	-13	336	-24	0	1.468721	0.8021437	3	10	0	150
241899	531	-1240	-826	-4.849551	-3.700991	0.5026847	0	10.38	4003	38	-365	-33	0	1.468721	0.7830017	3	10	0	150
242069	1958	-2816	-95	-3.487161	-1.903141	-0.1114987	0	10.38	4003	21	-128	-18	0	1.468723	0.728991	3	10	0	150
242145	2046	2801	689	0.362625	-0.8126523	0.1066979	0	10.38	4003	33	171	-20	0	1.468724	0.6948441	3	10	0	150
242232	1487	2999	-136	2.459666	-5.765267	0.4104198	0	10.38	4004	-55	29	-35	0	1.468724	0.6661699	3	10	0	150
242325	-261	235	-106	1.806895	-8.462216	0.8932514	0	10.38	4004	31	-188	-36	0	1.468725	0.6374932	3	10	0	150
242425	-604	-318	769	1.414352	-8.31833	0.2718194	0	10.38	4003	2	-33	-10	0	1.468725	0.6017237	3	10	0	150
242467	-435	-401	690	0.8243424	-8.084679	-0.1224693	0	10.38	4004	14	-109	-3	0	1.468725	0.6017237	3	10	0	150
242671	-3867	-2192	-382	-4.957418	-6.339803	0.2898434	0	10.43	4004	31	-105	-33	0	1.468725	0.5397359	3	10	0	150
242689	-4221	-2221	27	-6.962057	-4.877722	0.4271006	0	10.43	4002	31	-105	-33	0	1.468725	0.5265486	3	10	0	150
242816	-451	16	2181	-4.821324	-5.597651	-1.150517	0	10.43	4002	156	-46	62	0	1.468725	0.5087453	3	10	0	150
242929	-2142	-4259	574	-12.73003	-5.977481	-6.071659	0	10.43	4003	0	0	0	0	1.468725	0.4857226	3	10	0	150
242982	1528	-9494	-1077	-12.28497	-1.663673	-6.447157	0	10.43	4002	0	0	0	0	1.468725	0.4751156	3	10	0	150
243101	239	688	1248	-2.042613	-0.5048937	-7.849229	0	10.43	4003	0	0	0	0	1.468725	0.4591049	1	10	0	150
243166	275	420	128	-1.98246	0.1406726	-7.991208	0	10.43	4003	0	0	0	0	1.468725	0.4372115	1	10	0	150
243289	-142	-191	90	-1.788571	-0.2025596	-8.00472	0	10.43	4003	0	0	0	0	1.468725	0.3825938	1	10	0	150
243367	115	307	88	-1.989812	0.04927574	-8.024775	0	10.43	4002	0	0	0	0	1.468725	0.3569927	1	10	0	150
243491	-277	-201	69	-1.932466	0.001664566	-8.029238	0	10.43	4003	0	0	0	0	1.468725	0.3161131	1	10	0	150
243608	-189	-118	41	-1.966781	0.02884696	-8.046371	0	11.06	4003	0	0	0	0	1.468725	0.2627096	1	10	0	150
243730	-79	-25	-21	-2.005136	0.03519138	-8.049303	0	11.06	4003	0	0	0	0	1.468725	0.2127632	1	10	0	150
243771	-37	52	-16	-2.017703	0.1013975	-8.056581	0	11.06	4002	0	0	0	0	1.468725	0.1951101	1	10	0	150
243948	-88	18	0	-2.077106	0.1210521	-8.093445	0	11.06	4004	0	0	0	0	1.468725	0.1367967	1	10	0	150
244047	-85	-13	31	-2.079391	0.1093881	-8.109097	0	11.06	4004	0	0	0	0	1.468725	0.1194028	1	10	0	150
244071	-35	3	-42	-2.075858	0.1101063	-8.110808	0	11.06	4003	0	0	0	0	1.468725	0.1074928	1	10	0	150
244211	-79	4	34	-2.066898	0.1096487	-8.128721	0	11.06	4002	0	0	0	0	1.468725	0.08805201	1	10	0	150
244327	-40	12	26	-2.066058	0.1196585	-8.143094	0	11.06	4002	0	0	0	0	1.468725	0.08438743	1	10	0	150
244425	-56	-2	15	-2.050745	0.1153618	-8.157764	0	11.06	4002	0	0	0	0	1.468725	0.07615297	1	10	0	150
244476	-64	9	33	-2.051012	0.1117999	-8.166202	0	11.11	4003	0	0	0	0	1.468725	0.07100803	1	10	0	150
244573	-49	5	14	-2.046227	0.1051818	-8.179591	0	11.11	4004	0	0	0	0	1.468725	0.0654232	1	10	0	150
244698	-61	5	17	-2.02574	0.1012078	-8.19634	0	11.11	4003	0	0	0	0	1.468725	0.05664702	1	10	0	150
244835	-66	2	14	-2.029119	0.1057004	-8.212237	0	11.11	4003	0	0	0	0	1.468725	0.06152865	1	10	0	150
244888	-48	4	5	-2.022851	0.1042535	-8.221713	0	11.11	4002	0	0	0	0	1.468725	0.06070054	1	10	0	150
244989	-48	2	16	-2.025162	0.1053691	-8.232228	0	11.11	4004	0	0	0	0	1.468725	0.06205029	1	10	0	150
245108	-54	-2	6	-2.008323	0.1018881	-8.248002	0	11.11	4003	0	0	0	0	1.468725	0.05790152	1	10	0	150
245140	-61	0	0	-2.007647	0.1049459	-8.250937	0	11.11	4003	0	0	0	0	1.468725	0.05625718	1	10	0	150
245292	-63	0	12	-2.008241	0.1031102	-8.26414	0	11.11	4004	0	0	0	0	1.468725	0.03879314	1	10	0	150
245337	-56	3	5	-2.004047	0.1032385	-8.270803	0	11.11	4003	0	0	0	0	1.468725	0.03688908	1	10	0	150
245456	-51	3	7	-1.990198	0.1022631	-8.283524	0	11.11	4003	0	0	0	0	1.468725	0.02545464	1	10	0	150
245513	-62	-5	7	-1.989887	0.1061719	-8.289638	0	11.11	4004	0	0	0	0	1.468725	0.02640458	1	10	0	150
245662	-54	3	13	-1.980413	0.1044408	-8.299969	0	11.11	4004	0	0	0	0	1.468725	0.04078886	1	10	0	150
245821	-53	3	9	-1.979312	0.1029109	-8.318859	0	11.11	4003	0	0	0	0	1.468725	0.05515887	1	10	0	150
245979	-54	8	1	-1.973611	0.1095559	-8.333838	0	11.11	4003	0	0	0	0	1.468725	0.07631531	1	10	0	150
246069	-60	1	11	-1.971814	0.108521	-8.343438	0	11.11	4004	0	0	0	0	1.468725	0.09009071	1	10	0	150
246163	-49	3	7	-1.968433	0.1110486	-8.35481	0	11.11	4002	0	0	0	0	1.468725	0.09876709	1	10	0	150
246208	-50	1	4	-1.962062	0.1080484	-8.362637	0	11.06	4004	0	0	0	0	1.468725	0.1056365	1	10	0	150
246275	-54	-2	13	-1.968323	0.108181	-8.371318	0	11.06	4004	0	0	0	0	1.468725	0.1121905	1	10	0	150
246374	-53	4	3	-1.964392	0.105742	-8.382382	0	11.06	4002	0	0	0	0	1.468725	0.1183683	1	10	0	150
246539	-56	-4	4	-1.958968	0.11006	-8.396931	0	11.06	4002	0	0	0	0	1.468725	0.1086119	1	10	0	150
246608	-55	1	10	-1.961789	0.1123717	-8.402984	0	11.06	4002	0	0	0	0	1.468725	0.09855486	1	10	0	150
246663	-56	-2	6	-1.959785	0.1099701	-8.407448	0	11.06	4004	0	0	0	0	1.468725	0.08996768	1	10	0	150
246901	-59	2	9	-1.943615	0.1057627	-8.432215	0	11.06	4003	0	0	0	0	1.468725	0.06562766	1	10	0	150
247102	-49	2	4	-1.943804	0.1033414	-8.455569	0	11.06	4003	0	0	0	0	1.468725	0.05520986	1	10	0	150
247196	-48	-1	1	-1.939352	0.1058914	-8.462965	0	11.23	4004	0	0	0	0	1.468725	0.06159344	1	10	0	150
247266	-44	4	6	-1.930304	0.105471	-8.468529	0	11.23	4003	0	0	0	0	1.468725	0.06186519	1	10	0	150
247540	-56	-1	0	-1.926279	0.1021916	-8.492435	0	11.23	4004	0	0	0	0	1.468725	0.06523065	1	10	0	150
247683	-52	-2	6	-1.926967	0.1013343	-8.509125	0	11.23	4004	0	0	0	0	1.468725	0.08140408	1	10	0	150
247779	-43	-1	8	-1.926339	0.1049251	-8.5153	0	11.23	4003	0	0	0	0	1.468725	0.09194444	1	10	0	150
247932	-53	2	7	-1.929687	0.1061053	-8.532602	0	11.23	4003	0	0	0	0	1.468725	0.09767405	1	10	0	150
247975	-50	-2	6	-1.932113	0.1051208	-8.537677	0	11.23	4003	0	0	0	0	1.468725	0.09517121	1	10	0	150
248072	-48	-5	13	-1.931287	0.1069458	-8.543178	0	11.17	4002	0	0	0	0	1.468725	0.09031391	1	10	0	150
248266	-49	5	7	-1.947472	0.1053838	-8.558836	0	11.17	4004	0	0	0	0	1.468725	0.08815618	1	10	0	150
248354	-53	-4	6	-1.944006	0.103408	-8.569594	0	11.17	4002	0	0	0	0	1.468725	0.0901048	1	10	0	150
248428	-54	0	7	-1.963471	0.1013355	-8.575091	0	11.17	4004	0	0	0	0	1.468725	0.09063865	1	10	0	250
248493	-53	7	2	-1.964083	0.1006947	-8.579737	0	11.17	4002	0	0	0	0	1.468725	0.09033065	1	10	0	250
248547	-51	0	8	-1.960431	0.09705351	-8.586156	0	11.17	4004	0	0	0	0	1.468725	0.08522793	1	10	0	250
248639	-58	5	7	-1.955823	0.09964231	-8.592575	0	11.17	4004	0	0	0	0	1.468725	0.08386779	1	10	0	250
248746	-50	6	8	-1.953837	0.09999733	-8.603394	0	11.17	4002	0	0	0	0	1.468725	0.08299128	1	10	0	250
248836	-52	1	1	-1.953996	0.09632641	-8.608347	0	11.17	4004	0	0	0	0	1.468725	0.08198629	1	10	0	250
248979	-48	-1	5	-1.946304	0.09331801	-8.622102	0	11.23	4002	0	0	0	0	1.468725	0.08449372	1	10	0	250
249077	-59	2	0	-1.948592	0.09294955	-8.630112	0	11.23	4002	0	0	0	0	1.468725	0.09319164	1	10	0	250
249217	-53	1	7	-1.941358	0.08940867	-8.642582	0	11.23	4004	0	0	0	0	1.468725	0.08252302	1	10	0	250
249269	-48	-2	3	-1.932895	0.09153038	-8.647717	0	11.23	4003	0	0	0	0	1.468725	0.07741474	1	10	0	250
249367	-53	3	9	-1.921631	0.08938857	-8.65683	0	11.23	4003	0	0	0	0	1.468725	0.06733166	1	10	0	250
249421	-45	3	6	-1.921364	0.09420449	-8.662271	0	11.23	4004	0	0	0	0	1.468725	0.06185085	1	10	0	250
249545	-58	2	9	-1.922526	0.09696589	-8.670036	0	11.23	4002	0	0	0	0	1.468725	0.05144728	1	10	0	250
249630	-55	0	3	-1.922735	0.09776107	-8.682446	0	11.23	4004	0	0	0	0	1.468725	0.04216065	1	10	0	250
249743	-58	3	5	-1.913015	0.09882894	-8.691129	0	11.23	4004	0	0	0	0	1.468725	0.03884461	1	10	0	250
249846	-48	0	7	-1.907402	0.09820802	-8.698281	0	11.17	4004	0	0	0	0	1.468725	0.03736171	1	10	0	250
249891	-54	-1	4	-1.910419	0.09705473	-8.705067	0	11.17	4003	0	0	0	0	1.468725	0.03435428	1	10	0	250
250069	-52	0	-2	-1.902189	0.09130573	-8.716928	0	11.17	4004	0	0	0	0	1.468725	0.03113372	3	10	0	250
250153	-47	0	9	-1.894386	0.09377337	-8.728056	0	11.17	4003	0	0	0	0	1.468725	0.03484229	3	10	0	250
250231	-50	2	2	-1.887112	0.08845355	-8.736065	0	11.17	4003	0	0	0	0	1.468725	0.03697413	3	10	0	250
250288	-40	0	4	-1.881114	0.08794155	-8.737837	0	11.17	4004	0	0	0	0	1.468725	0.03801358	3	10	0	250
250414	-51	6	3	-1.87333	0.08996721	-8.748474	0	11.17	4004	0	0	0	0	1.468725	0.04022982	3	10	0	250
250477	-46	4	2	-1.87408	0.09395816	-8.753915	0	11.17	4003	0	0	0	0	1.468725	0.03548628	3	10	0	250
250620	-52	16	8	-1.869783	0.09422467	-8.764918	0	11.17	4004	5	3	0	0	1.468725	0.02499931	3	10	0	250
250727	-78	-14	67	-1.865405	0.1113217	-8.76779	0	11.17	4004	6	0	0	0	1.468725	0.01518389	3	10	0	250
250771	-6	89	38	-1.834678	0.07511833	-8.773472	0	11.17	4003	6	-5	2	0	1.468725	0.01407062	3	10	0	250
250875	95	235	-150	-1.737232	-0.1068674	-8.796959	0	11.17	4003	11	4	3	0	1.468725	0.01362919	3	10	0	250
251090	-4	158	233	-1.898222	0.139205	-8.83766	0	11.17	4003	12	9	2	0	1.468725	0.0330354	3	10	0	250
251259	20	5	-125	-1.897795	0.1478709	-8.801334	0	11.17	4002	-30	15	0	0	1.468725	0.0615165	3	10	0	250
251344	230	218	-128	-1.872784	0.09594681	-8.811978	0	11.17	4004	0	0	0	0	1.468725	0.08286569	3	10	0	250
251386	-19	-47	-135	-1.856441	0.09454972	-8.819243	0	11.17	4003	0	0	0	0	1.468725	0.08550555	3	10	0	250
251478	-45	74	28	-1.873986	0.06188992	-8.831351	0	11.17	4003	0	0	0	0	1.468725	0.1033894	3	10	0	250
251622	-43	-38	19	-1.853804	0.04804388	-8.841794	0	11.17	4004	0	0	0	0	1.468725	0.1081006	3	10	0	250
251707	-80	-69	-158	-1.84729	0.05239005	-8.843015	0	11.11	4002	0	0	0	0	1.468725	0.1097997	3	10	0	250
251784	-51	-64	38	-1.854597	0.0412662	-8.858909	0	11.11	4004	0	0	0	0	1.468725	0.1127912	3	10	0	250
252006	-60	-6	12	-1.874883	0.08435664	-8.879766	0	11.11	4003	0	0	0	0	1.468725	0.1226361	3	10	0	250
252096	-50	-17	1	-1.868152	0.07467843	-8.886852	0	11.11	4003	0	0	0	0	1.468725	0.1227934	3	10	0	250
252268	-47	19	53	-1.862622	0.07836868	-8.899692	0	11.11	4008	4	-1	0	0	1.468725	0.137201	3	10	0	250
252349	-20	47	-28	-1.864975	0.07761629	-8.904885	0	11.11	4003	5	2	0	0	1.468725	0.1391988	3	10	0	250
252471	-48	28	49	-1.861023	0.08106275	-8.914671	0	11.11	4004	9	-6	0	0	1.468725	0.1248965	3	10	0	250
252556	-109	-79	-116	-1.840455	0.1213687	-8.938951	0	11.17	4004	-3	15	0	0	1.468725	0.1147925	3	10	0	250
252671	-224	-7	139	-1.848671	0.104737	-8.968777	0	11.17	4002	49	4	3	0	1.468725	0.1098448	3	10	0	250
252697	-175	-53	181	-1.844178	0.1374899	-8.974828	0	11.17	4002	-2	26	3	0	1.468725	0.1086252	3	10	0	250
252894	-90	87	-462	-1.895421	0.1192378	-9.002719	0	11.17	4004	29	-4	5	0	1.468725	0.1046444	3	10	0	250
252948	-92	-24	-348	-1.859321	0.1161993	-9.013367	0	11.17	4003	0	-6	1	0	1.468725	0.1110927	3	10	0	250
253041	-97	-100	-490	-1.871317	0.1814239	-9.009644	0	11.17	4002	13	-8	7	0	1.468725	0.1163326	3	10	0	250
253109	5	-112	-316	-1.978441	0.0642297	-9.004547	0	11.17	4003	15	20	3	0	1.468725	0.115156	3	10	0	250
253245	524	-475	-490	-1.827745	0.08181003	-9.02589	0	11.17	4004	-26	21	-2	0	1.468725	0.1143408	3	10	0	250
253369	-901	2542	-819	0.7845212	-4.313406	-9.144957	0	11.17	4003	73	-217	0	0	1.468725	0.1155822	3	10	0	250
253453	-797	3641	-760	-0.8776141	-7.824409	-9.116041	0	10.15	4003	-24	-19	-5	0	1.468725	0.1141871	3	10	0	250
253495	-816	3412	-695	-1.873532	-12.28716	-9.180055	0	10.15	4002	79	-252	-2	0	1.468725	0.1184142	3	10	0	250
253619	-470	-285	-377	-3.119886	-13.33272	-8.598012	0	10.15	4003	-5	178	-18	0	1.468725	0.1414686	3	10	0	250
253730	1130	314	329	-2.726988	-14.15711	-7.697055	0	10.15	4002	-5	85	-20	0	1.468725	0.1595645	3	10	0	250
253805	960	-4361	96	-1.244116	-11.53761	-7.567356	0	10.15	4003	-73	-123	-37	0	1.468725	0.1756663	3	10	0	250
253923	750	-3960	833	-1.650672	-3.975779	-8.248645	0	10.15	4002	-124	-86	-5	0	1.468725	0.2377187	3	10	0	250
254044	-113	-68	-553	0.8715441	-5.38878	-8.767297	0	10.15	4003	-81	370	-6	0	1.468725	0.2599476	3	10	0	250
254166	-1485	-2052	-468	-0.4519584	-5.735116	-8.464559	0	10.15	4002	-12	-246	-34	0	1.468725	0.3464066	3	10	0	250
254214	-1743	-382	-361	-2.761805	-5.046863	-8.898171	0	10.15	4002	-44	81	5	0	1.468725	0.3918108	3	10	0	250
254340	-650	-699	660	-5.457827	-4.280646	-9.408576	0	10.15	4002	-87	54	-21	0	1.468725	0.4473858	3	10	0	250
254466	-747	426	1218	-7.608641	-3.376109	-9.282174	0	10.6	4002	70	-177	-1	0	1.468725	0.4989593	3	10	0	250
254577	1577	940	325	-4.286632	-4.168609	-9.184411	0	10.6	4003	-28	79	-28	0	1.468725	0.5337278	3	10	0	250
254741	-117	527	158	-3.998304	-5.536427	-10.38066	0	10.6	4004	-90	56	24	0	1.468725	0.5900717	3	10	0	250
